city,state,latitude,longitude,temp,humidity,rain,pressure,uv_index,wind_gusts,aqi,pm10,pm2_5,no2,co,o3,so2,mosquito_risk,arthritis_risk,migraine_risk,frizz_risk,updated_at
Delhi,Delhi,28.6139,77.209,31.4,36,0.0,975.7,7.7,40.0,186,189.1,111.3,56.7,417.0,45.0,38.9,0,5,7,0,2026-05-15T02:42:48.133763+05:30
Mumbai,Maharashtra,19.076,72.8777,29.2,80,0.0,1004.0,7.9,47.9,72,23.0,14.8,5.5,236.0,67.0,3.5,7,5,4,1,2026-05-15T02:42:48.133803+05:30
Bangalore,Karnataka,12.9716,77.5946,24.9,59,0.0,907.3,9.45,40.0,91,52.7,35.0,42.5,398.0,38.0,11.2,0,5,7,1,2026-05-15T02:42:48.133818+05:30
Hyderabad,Telangana,17.385,78.4867,29.1,59,0.0,948.3,7.1,32.4,99,22.6,18.6,9.9,264.0,67.0,6.7,4,5,7,1,2026-05-15T02:42:48.133828+05:30
Chennai,Tamil Nadu,13.0827,80.2707,28.8,84,0.0,1000.9,8.3,36.7,29,11.6,8.6,12.6,216.0,32.0,10.8,7,5,4,1,2026-05-15T02:42:48.133836+05:30
Kolkata,West Bengal,22.5726,88.3639,27.9,85,0.0,1000.9,9.0,36.4,53,10.1,7.7,5.2,154.0,37.0,2.9,7,5,4,1,2026-05-15T02:42:48.133844+05:30
Pune,Maharashtra,18.5204,73.8567,26.2,57,0.0,943.9,8.5,43.6,79,25.0,17.7,18.4,219.0,57.0,21.8,4,5,7,1,2026-05-15T02:42:48.133851+05:30
Ahmedabad,Gujarat,23.0225,72.5714,30.9,57,0.0,996.4,8.15,35.6,51,12.3,9.3,4.2,150.0,55.0,2.6,0,5,7,1,2026-05-15T02:42:48.133857+05:30
Jaipur,Rajasthan,26.9124,75.7873,30.6,34,0.0,952.9,8.25,34.9,128,161.6,53.6,13.9,251.0,75.0,8.5,0,5,7,0,2026-05-15T02:42:48.133868+05:30
Lucknow,Uttar Pradesh,26.8467,80.9462,28.2,68,0.0,987.0,8.2,30.2,159,195.6,122.9,72.4,647.0,18.0,28.7,7,5,7,1,2026-05-15T02:42:48.133875+05:30
Kanpur,Uttar Pradesh,26.4499,80.3319,29.6,61,0.0,984.9,8.2,43.6,160,168.1,86.4,33.1,505.0,48.0,15.3,7,5,7,1,2026-05-15T02:42:48.133881+05:30
Chandigarh,Chandigarh,30.7333,76.7794,24.1,58,0.0,962.2,7.65,27.7,93,33.4,28.0,19.0,403.0,62.0,9.7,0,5,7,0,2026-05-15T02:42:48.133888+05:30
Srinagar,Jammu and Kashmir,34.0837,74.7973,10.9,97,0.0,838.5,8.0,36.0,69,46.8,43.1,30.0,552.0,31.0,1.1,3,10,7,0,2026-05-15T02:42:48.133896+05:30
Jammu,Jammu and Kashmir,32.7266,74.857,22.6,54,0.0,966.2,8.45,27.4,76,26.3,24.1,26.6,397.0,23.0,2.4,0,5,7,0,2026-05-15T02:42:48.133903+05:30
Amritsar,Punjab,31.634,74.8723,24.4,57,0.0,973.9,8.35,40.3,115,59.6,46.3,20.7,443.0,64.0,8.0,0,5,7,0,2026-05-15T02:42:48.133909+05:30
Ludhiana,Punjab,30.901,75.8573,27.0,41,0.0,971.6,7.2,41.4,126,34.8,31.3,11.3,366.0,83.0,7.1,4,5,7,0,2026-05-15T02:42:48.133915+05:30
Jalandhar,Punjab,31.326,75.5762,26.6,46,0.0,972.8,8.05,34.9,117,51.7,37.3,14.2,451.0,69.0,6.8,4,5,7,0,2026-05-15T02:42:48.133921+05:30
Dehradun,Uttarakhand,30.6284,78.0322,13.2,67,0.0,823.1,7.6,44.6,64,24.2,18.2,29.7,314.0,22.0,1.0,3,5,7,0,2026-05-15T02:42:48.133928+05:30
Shimla,Himachal Pradesh,31.1048,77.1734,12.1,42,0.0,778.3,7.35,47.5,64,30.9,21.6,25.2,235.0,53.0,3.2,0,5,7,1,2026-05-15T02:42:48.133937+05:30
Manali,Himachal Pradesh,32.2396,77.1887,8.8,67,0.0,811.0,9.4,42.8,36,10.7,5.7,28.5,216.0,88.0,0.0,3,5,7,0,2026-05-15T02:42:48.133945+05:30
Gurgaon,Haryana,28.4595,77.0266,29.6,38,0.0,974.2,7.8,38.2,743,387.4,145.8,33.6,377.0,67.0,32.3,4,5,7,0,2026-05-15T02:42:48.133952+05:30
Noida,Uttar Pradesh,28.5355,77.391,28.9,60,0.0,977.0,7.7,39.2,743,387.4,145.8,33.6,418.0,67.0,32.3,4,5,7,1,2026-05-15T02:42:48.133959+05:30
Ghaziabad,Uttar Pradesh,28.6692,77.4538,26.8,73,0.0,975.1,7.7,48.6,179,158.8,110.1,41.3,383.0,55.0,25.8,7,5,7,1,2026-05-15T02:42:48.133965+05:30
Faridabad,Haryana,28.4089,77.3178,30.9,43,0.0,976.4,7.75,42.8,743,387.4,145.8,33.6,369.0,67.0,32.3,0,5,7,1,2026-05-15T02:42:48.133971+05:30
Meerut,Uttar Pradesh,28.9845,77.7064,28.4,62,0.0,974.3,7.6,60.8,179,158.8,110.1,41.3,351.0,55.0,25.8,7,5,7,1,2026-05-15T02:42:48.133977+05:30
Agra,Uttar Pradesh,27.1767,78.0081,29.1,57,0.0,980.5,8.05,31.0,405,493.6,122.9,13.9,615.0,80.0,15.7,4,5,7,1,2026-05-15T02:42:48.133983+05:30
Varanasi,Uttar Pradesh,25.3176,82.9739,28.6,67,0.0,991.2,8.75,29.5,143,82.0,69.2,24.9,579.0,66.0,16.7,7,5,7,1,2026-05-15T02:42:48.133990+05:30
Prayagraj,Uttar Pradesh,25.4358,81.8463,30.0,59,0.0,989.4,8.6,37.8,150,91.7,72.6,33.0,554.0,46.0,14.0,4,5,7,1,2026-05-15T02:42:48.133998+05:30
Gorakhpur,Uttar Pradesh,26.7606,83.3732,26.0,77,0.0,991.7,8.6,30.2,123,65.4,57.3,16.5,591.0,87.0,13.9,7,5,7,1,2026-05-15T02:42:48.134007+05:30
Bareilly,Uttar Pradesh,28.367,79.4304,25.4,80,0.0,979.7,8.0,34.6,155,138.8,105.5,50.0,662.0,44.0,21.8,7,5,7,1,2026-05-15T02:42:48.134013+05:30
Aligarh,Uttar Pradesh,27.8974,78.088,28.0,69,0.0,978.1,7.85,32.0,349,259.8,104.3,20.5,605.0,76.0,18.8,7,5,7,1,2026-05-15T02:42:48.134019+05:30
Moradabad,Uttar Pradesh,28.8386,78.7733,25.8,80,0.0,976.5,7.8,33.8,164,175.1,150.9,78.7,720.0,26.0,30.6,7,5,7,1,2026-05-15T02:42:48.134025+05:30
Saharanpur,Uttar Pradesh,29.9637,77.546,23.6,82,0.0,968.6,7.25,39.2,153,120.6,95.2,52.8,535.0,32.0,18.6,3,5,7,1,2026-05-15T02:42:48.134032+05:30
Jhansi,Uttar Pradesh,25.4484,78.5685,30.2,45,0.0,970.5,8.5,25.2,114,94.3,39.2,9.0,369.0,54.0,6.2,0,5,7,1,2026-05-15T02:42:51.376504+05:30
Surat,Gujarat,21.1702,72.8311,30.6,53,0.0,1001.2,7.75,42.1,87,25.3,22.9,32.4,232.0,41.0,43.0,0,5,4,1,2026-05-15T02:42:51.376537+05:30
Vadodara,Gujarat,22.3072,73.1812,31.6,38,0.0,998.6,8.1,34.2,65,14.8,12.2,7.2,184.0,64.0,6.0,0,5,7,0,2026-05-15T02:42:51.376549+05:30
Rajkot,Gujarat,22.3039,70.8022,27.0,84,0.0,989.8,7.75,45.4,45,9.1,6.6,6.5,123.0,40.0,6.8,7,5,7,1,2026-05-15T02:42:51.376559+05:30
Thane,Maharashtra,19.2183,72.9781,29.2,78,0.0,1003.4,7.85,42.5,72,23.0,14.8,5.5,232.0,67.0,3.5,7,5,4,1,2026-05-15T02:42:51.376568+05:30
Nagpur,Maharashtra,21.1458,79.0882,32.8,41,0.0,966.7,9.0,41.4,118,69.2,51.2,18.6,304.0,82.0,20.8,0,5,7,1,2026-05-15T02:42:51.376577+05:30
Nashik,Maharashtra,19.9975,73.7898,26.5,61,0.0,941.2,8.15,45.0,62,17.1,12.4,9.2,165.0,52.0,2.2,7,5,7,1,2026-05-15T02:42:51.376585+05:30
Aurangabad,Maharashtra,19.8762,75.3433,30.1,38,0.0,939.1,8.15,40.3,76,24.2,16.5,8.4,214.0,98.0,9.5,0,5,7,0,2026-05-15T02:42:51.376594+05:30
Solapur,Maharashtra,17.6599,75.9064,29.6,56,0.0,952.4,8.55,37.8,107,41.8,32.6,9.3,237.0,90.0,6.7,4,5,7,1,2026-05-15T02:42:51.376603+05:30
Kolhapur,Maharashtra,16.705,74.2433,24.6,91,0.0,943.7,8.15,43.9,82,21.7,16.5,9.6,227.0,67.0,5.2,3,5,7,1,2026-05-15T02:42:51.376611+05:30
Goa,Goa,15.2993,74.124,28.9,85,0.0,993.4,4.25,40.7,80,29.1,22.1,7.4,425.0,57.0,2.1,7,5,3,1,2026-05-15T02:42:51.376619+05:30
Jodhpur,Rajasthan,26.2389,73.0243,31.2,37,0.0,976.5,8.4,37.1,117,308.3,65.2,8.4,226.0,58.0,4.3,0,5,7,0,2026-05-15T02:42:51.376628+05:30
Udaipur,Rajasthan,24.5854,73.7125,29.8,29,0.0,941.0,8.85,38.2,72,16.1,9.4,2.2,147.0,76.0,2.5,4,5,7,0,2026-05-15T02:42:51.376636+05:30
Kota,Rajasthan,25.2138,75.8648,32.8,27,0.0,971.9,8.45,34.6,91,68.5,44.5,22.0,237.0,31.0,6.6,0,5,7,0,2026-05-15T02:42:51.376643+05:30
Bikaner,Rajasthan,28.0229,73.3119,28.0,61,0.0,974.2,8.35,58.0,88,63.1,28.2,3.7,297.0,82.0,4.7,7,5,7,1,2026-05-15T02:42:51.376649+05:30
Ajmer,Rajasthan,26.4499,74.6399,29.4,37,0.0,947.9,7.6,49.3,86,113.9,36.0,7.6,194.0,67.0,5.8,4,5,7,0,2026-05-15T02:42:51.376656+05:30
Gwalior,Madhya Pradesh,26.2183,78.1828,30.2,42,0.0,975.8,8.25,43.6,138,146.7,52.7,13.0,392.0,50.0,7.5,0,5,7,0,2026-05-15T02:42:51.376663+05:30
Indore,Madhya Pradesh,22.7196,75.8577,31.1,29,0.0,942.7,8.7,43.6,79,38.9,19.8,4.0,258.0,93.0,5.3,0,5,7,0,2026-05-15T02:42:51.376670+05:30
Bhopal,Madhya Pradesh,23.2599,77.4126,32.7,28,0.0,947.0,8.7,38.9,84,39.3,30.2,8.8,259.0,58.0,5.9,0,5,7,0,2026-05-15T02:42:51.376677+05:30
Jabalpur,Madhya Pradesh,23.1815,79.9864,31.2,45,0.0,954.7,8.9,35.6,99,60.5,30.6,16.4,337.0,62.0,7.3,0,5,7,1,2026-05-15T02:42:51.376684+05:30
Ujjain,Madhya Pradesh,23.1765,75.7885,31.1,27,0.0,948.1,8.65,41.8,78,35.3,18.9,3.8,268.0,84.0,5.1,0,5,7,0,2026-05-15T02:42:51.376691+05:30
Visakhapatnam,Andhra Pradesh,17.6868,83.2185,27.6,87,0.0,999.2,8.7,36.7,66,28.7,25.3,27.1,448.0,25.0,85.6,7,5,7,1,2026-05-15T02:42:51.376698+05:30
Vijayawada,Andhra Pradesh,16.5062,80.648,28.2,86,0.0,997.6,8.55,44.3,55,12.2,10.2,8.9,180.0,33.0,6.5,7,5,7,1,2026-05-15T02:42:51.376705+05:30
Guntur,Andhra Pradesh,16.3067,80.4365,28.1,86,0.0,998.9,8.65,39.2,55,11.6,9.3,7.9,173.0,33.0,6.0,7,5,7,1,2026-05-15T02:42:51.376712+05:30
Nellore,Andhra Pradesh,14.4426,79.9865,27.5,92,0.0,1000.2,8.55,38.9,32,10.1,6.8,5.9,201.0,34.0,2.9,7,5,4,1,2026-05-15T02:42:51.376720+05:30
Kurnool,Andhra Pradesh,15.8281,78.0373,31.9,49,0.0,971.6,6.6,37.8,74,21.1,16.2,5.8,269.0,73.0,5.0,0,5,7,1,2026-05-15T02:42:51.376728+05:30
Kakinada,Andhra Pradesh,16.9891,82.2475,28.6,81,0.0,1002.7,8.45,38.5,31,9.5,5.6,1.4,195.0,51.0,0.9,7,5,4,1,2026-05-15T02:42:51.376735+05:30
Tirupati,Andhra Pradesh,13.6288,79.4192,26.9,84,0.0,985.5,9.25,34.2,59,28.8,24.3,30.9,284.0,2.0,6.0,7,5,7,1,2026-05-15T02:42:51.376742+05:30
Warangal,Telangana,17.9689,79.5941,28.5,75,0.0,973.3,8.9,33.8,80,20.0,16.5,10.4,258.0,52.0,10.5,7,5,7,1,2026-05-15T02:42:51.376749+05:30
Nizamabad,Telangana,18.6725,78.0941,31.2,49,0.0,959.4,9.0,34.2,130,57.3,46.0,14.1,414.0,81.0,7.3,0,5,7,1,2026-05-15T02:42:51.376755+05:30
Mysore,Karnataka,12.2958,76.6396,23.0,95,0.0,923.5,9.1,31.3,86,23.8,18.9,10.5,230.0,70.0,2.5,3,5,7,1,2026-05-15T02:42:51.376762+05:30
Mangalore,Karnataka,12.9141,74.856,26.1,97,0.1,1002.1,8.75,51.1,80,36.4,27.2,11.6,284.0,55.0,4.4,10,5,4,1,2026-05-15T02:42:51.376769+05:30
Hubli-Dharwad,Karnataka,15.3647,75.124,25.0,96,0.0,936.7,8.05,52.2,78,18.3,13.4,10.7,204.0,41.0,2.2,7,5,7,1,2026-05-15T02:42:51.376776+05:30
Belgaum,Karnataka,15.8497,74.4977,23.6,95,0.0,921.8,8.25,39.2,84,23.4,17.8,11.6,231.0,47.0,2.6,3,5,7,1,2026-05-15T02:42:54.621857+05:30
Coimbatore,Tamil Nadu,11.0168,76.9558,23.4,93,0.0,956.1,8.6,42.5,71,23.0,15.9,7.2,216.0,72.0,3.0,3,5,7,1,2026-05-15T02:42:54.621887+05:30
Madurai,Tamil Nadu,9.9252,78.1198,27.8,89,0.0,987.2,7.7,43.9,94,33.9,29.7,37.9,456.0,14.0,5.9,7,5,7,1,2026-05-15T02:42:54.621898+05:30
Trichy,Tamil Nadu,10.7905,78.7047,27.9,83,0.0,993.8,4.4,28.1,89,29.5,25.1,18.5,290.0,58.0,5.4,7,5,3,1,2026-05-15T02:42:54.621907+05:30
Salem,Tamil Nadu,11.6643,78.146,26.7,84,0.0,971.8,9.15,29.2,109,45.8,37.6,21.9,399.0,60.0,10.4,7,5,7,1,2026-05-15T02:42:54.621915+05:30
Tirunelveli,Tamil Nadu,8.7139,77.7567,29.0,69,0.0,997.5,1.6,24.1,52,10.1,8.2,5.5,201.0,62.0,2.1,7,5,3,1,2026-05-15T02:42:54.621923+05:30
Vellore,Tamil Nadu,12.9165,79.1325,26.2,91,0.0,978.8,9.25,31.0,79,43.0,38.5,30.4,335.0,13.0,9.3,7,5,7,1,2026-05-15T02:42:54.621931+05:30
Erode,Tamil Nadu,11.341,77.7172,26.1,81,0.0,983.4,8.85,27.4,85,18.9,14.5,17.2,235.0,56.0,3.1,7,5,7,1,2026-05-15T02:42:54.621938+05:30
Kochi,Kerala,9.9312,76.2673,26.1,93,0.0,1003.8,8.65,37.8,67,19.6,15.5,15.4,294.0,42.0,6.2,7,5,4,1,2026-05-15T02:42:54.621946+05:30
Thiruvananthapuram,Kerala,8.5241,76.9366,25.6,90,0.0,1003.3,1.45,29.9,54,25.6,13.9,2.7,276.0,82.0,1.7,7,5,0,1,2026-05-15T02:42:54.621953+05:30
Kozhikode,Kerala,11.2588,75.7804,24.2,99,0.0,1003.1,8.75,43.6,70,14.4,7.3,1.7,245.0,88.0,1.3,3,5,4,1,2026-05-15T02:42:54.621960+05:30
Thrissur,Kerala,10.5276,76.2144,24.9,100,0.0,1002.3,8.6,32.8,71,16.2,12.5,12.6,286.0,47.0,5.9,3,5,4,1,2026-05-15T02:42:54.621968+05:30
Kannur,Kerala,11.8745,75.3704,25.2,98,0.0,1002.7,8.85,51.5,82,17.2,11.8,9.2,341.0,54.0,2.9,7,5,4,1,2026-05-15T02:42:54.621976+05:30
Patna,Bihar,25.5941,85.1376,26.4,81,0.0,994.8,8.8,28.8,116,55.6,44.2,17.0,519.0,77.0,17.0,7,5,7,1,2026-05-15T02:42:54.621983+05:30
Gaya,Bihar,24.7914,85.0002,26.8,73,0.0,987.4,8.9,23.0,138,62.9,52.2,17.8,478.0,77.0,15.5,7,5,7,1,2026-05-15T02:42:54.621989+05:30
Muzaffarpur,Bihar,26.1209,85.3647,25.4,84,0.0,995.4,8.8,32.4,122,60.8,50.4,19.5,515.0,65.0,15.0,7,5,7,1,2026-05-15T02:42:54.621996+05:30
Bhagalpur,Bihar,25.2425,87.0117,25.8,87,0.0,996.1,8.8,32.8,106,53.4,44.4,15.3,439.0,81.0,15.3,7,5,7,1,2026-05-15T02:42:54.622003+05:30
Ranchi,Jharkhand,23.3441,85.3096,23.9,88,0.0,932.5,9.3,38.2,98,45.3,35.6,15.4,242.0,81.0,26.2,3,5,7,1,2026-05-15T02:42:54.622010+05:30
Jamshedpur,Jharkhand,22.8046,86.2029,26.9,85,0.0,985.4,9.15,43.2,84,18.2,15.3,16.5,281.0,36.0,19.5,7,5,7,1,2026-05-15T02:42:54.622016+05:30
Dhanbad,Jharkhand,23.7957,86.4304,26.5,91,0.0,974.2,9.05,32.4,150,34.2,30.3,37.6,1141.0,27.0,79.4,7,5,7,1,2026-05-15T02:42:54.622023+05:30
Bokaro,Jharkhand,23.6693,86.1511,27.5,80,0.0,977.9,9.1,33.5,149,49.1,40.7,31.2,949.0,55.0,65.4,7,5,7,1,2026-05-15T02:42:54.622030+05:30
Bhubaneswar,Odisha,20.2961,85.8245,28.0,84,0.0,997.6,9.2,41.8,36,8.7,6.3,4.5,141.0,43.0,2.1,7,5,7,1,2026-05-15T02:42:54.622038+05:30
Cuttack,Odisha,20.4625,85.8828,28.0,85,0.0,999.4,9.25,40.7,36,8.7,6.3,4.5,151.0,43.0,2.1,7,5,7,1,2026-05-15T02:42:54.622045+05:30
Rourkela,Odisha,22.2604,84.8536,26.7,86,0.0,979.6,9.05,44.6,103,18.2,14.1,16.4,176.0,38.0,23.0,7,5,7,1,2026-05-15T02:42:54.622052+05:30
Raipur,Chhattisgarh,21.2514,81.6296,30.9,44,0.0,968.3,9.05,37.8,150,72.6,54.6,32.3,330.0,55.0,36.2,0,5,7,1,2026-05-15T02:42:54.622059+05:30
Bhilai,Chhattisgarh,21.1938,81.3509,31.1,45,0.0,969.0,9.05,43.2,135,61.7,46.8,29.3,440.0,66.0,41.5,0,5,7,1,2026-05-15T02:42:54.622066+05:30
Guwahati,Assam,26.1158,91.7086,22.3,99,0.1,997.9,8.7,23.8,53,13.6,10.7,7.2,289.0,72.0,2.4,6,5,7,1,2026-05-15T02:42:54.622073+05:30
Agartala,Tripura,23.8315,91.2868,24.9,97,0.0,1001.7,8.8,35.3,54,9.2,7.8,10.9,138.0,18.0,2.4,3,5,4,1,2026-05-15T02:42:54.622101+05:30
Shillong,Meghalaya,25.5788,91.8933,16.7,95,0.0,852.2,8.95,27.4,39,2.8,1.9,4.3,193.0,89.0,3.1,3,10,7,0,2026-05-15T02:42:54.622111+05:30
Imphal,Manipur,24.817,93.9368,21.6,87,0.0,919.4,9.2,29.2,76,26.5,23.1,14.8,525.0,31.0,2.2,3,5,7,1,2026-05-15T02:42:54.622119+05:30
Aizawl,Mizoram,23.7271,92.7176,18.1,89,0.0,888.2,8.95,37.1,35,4.3,3.2,3.2,130.0,50.0,1.3,3,10,7,1,2026-05-15T02:42:54.622125+05:30
Kohima,Nagaland,25.6701,94.1077,15.9,91,0.0,850.2,8.5,24.8,56,12.3,8.8,8.4,263.0,40.0,1.2,3,10,7,0,2026-05-15T02:42:54.622133+05:30
Gangtok,Sikkim,27.3314,88.6138,13.6,97,0.5,832.9,9.1,42.1,52,13.4,12.5,9.5,383.0,91.0,2.2,6,10,7,0,2026-05-15T02:42:54.622140+05:30
Siliguri,West Bengal,26.7271,88.3953,21.5,96,0.0,989.6,8.65,22.3,87,35.6,32.0,12.7,345.0,94.0,4.9,3,5,7,1,2026-05-15T02:42:57.894646+05:30
Durgapur,West Bengal,23.5204,87.3119,27.1,89,0.0,989.6,9.0,30.2,134,16.5,14.6,17.3,305.0,26.0,24.8,7,5,7,1,2026-05-15T02:42:57.894676+05:30
Asansol,West Bengal,23.6739,86.9524,27.0,87,0.0,988.0,9.05,37.8,132,16.1,14.0,17.8,219.0,26.0,24.5,7,5,7,1,2026-05-15T02:42:57.894688+05:30
Pondicherry,Puducherry,11.9139,79.8145,27.5,89,0.0,1002.2,9.1,30.2,51,18.9,14.1,10.3,497.0,45.0,8.1,7,5,4,1,2026-05-15T02:42:57.894697+05:30
Port Blair,Andaman and Nicobar Islands,11.6234,92.7265,25.6,96,0.3,1002.9,3.25,42.1,26,5.2,3.2,0.2,113.0,61.0,0.1,10,5,0,1,2026-05-15T02:42:57.894706+05:30
Haridwar,Uttarakhand,29.9457,78.1642,22.3,75,0.0,966.6,7.5,39.2,113,70.3,55.5,31.0,385.0,40.0,8.7,3,5,7,1,2026-05-15T02:42:57.894714+05:30
Rishikesh,Uttarakhand,30.0869,78.2676,19.9,83,0.0,959.4,7.6,36.4,90,55.5,42.6,19.3,425.0,81.0,7.5,3,10,7,1,2026-05-15T02:42:57.894722+05:30
Nainital,Uttarakhand,29.3919,79.4542,13.2,85,0.0,798.9,8.45,44.6,112,53.4,45.5,21.5,381.0,77.0,7.8,3,10,7,0,2026-05-15T02:42:57.894730+05:30
Mussoorie,Uttarakhand,30.4599,78.0664,16.2,45,0.0,798.1,7.95,58.0,96,61.7,48.3,41.7,257.0,36.0,8.5,0,5,7,0,2026-05-15T02:42:57.894738+05:30
Dharamshala,Himachal Pradesh,32.219,76.3234,21.3,35,0.0,864.5,8.35,41.4,40,13.7,9.2,13.5,215.0,37.0,0.1,0,5,7,0,2026-05-15T02:42:57.894746+05:30
Dalhousie,Himachal Pradesh,32.5387,75.971,13.6,57,0.0,799.1,8.6,46.4,63,24.1,20.4,38.1,322.0,7.0,0.7,0,5,7,0,2026-05-15T02:42:57.894755+05:30
Patiala,Punjab,30.3398,76.3869,27.0,44,0.0,971.5,7.0,36.7,155,383.7,75.9,12.4,398.0,74.0,7.9,4,5,7,0,2026-05-15T02:42:57.894763+05:30
Bhatinda,Punjab,30.211,74.9455,28.2,35,0.0,976.7,7.95,55.8,160,92.0,39.6,5.9,366.0,103.0,4.7,4,5,7,0,2026-05-15T02:42:57.894771+05:30
Rohtak,Haryana,28.8955,76.6066,27.6,55,0.0,974.2,7.7,33.1,246,293.4,124.3,36.2,401.0,61.0,30.3,4,5,7,1,2026-05-15T02:42:57.894778+05:30
Panipat,Haryana,29.3909,76.9635,26.4,66,0.0,972.9,7.55,28.8,228,227.7,111.8,36.8,354.0,40.0,17.2,7,5,7,1,2026-05-15T02:42:57.894787+05:30
Mathura,Uttar Pradesh,27.4924,77.6737,27.4,65,0.0,979.3,8.0,27.4,406,382.8,119.2,15.5,690.0,80.0,16.3,7,5,7,1,2026-05-15T02:42:57.894795+05:30
Vrindavan,Uttar Pradesh,27.5823,77.7027,27.4,66,0.0,979.7,7.95,27.0,406,382.8,119.2,15.5,645.0,80.0,16.3,7,5,7,1,2026-05-15T02:42:57.894803+05:30
Ayodhya,Uttar Pradesh,26.7922,82.1998,26.4,75,0.0,989.4,8.35,28.1,148,129.5,98.5,65.7,591.0,18.0,15.5,7,5,7,1,2026-05-15T02:42:57.894810+05:30
Ratlam,Madhya Pradesh,23.3315,75.0367,28.8,32,0.0,949.3,8.55,41.4,80,30.4,17.5,4.8,220.0,72.0,5.6,4,5,7,0,2026-05-15T02:42:57.894818+05:30
Sagar,Madhya Pradesh,23.8388,78.7378,31.5,30,0.0,943.5,8.75,37.4,74,47.5,22.6,13.1,244.0,62.0,3.9,0,5,7,0,2026-05-15T02:42:57.894826+05:30
Satna,Madhya Pradesh,24.6005,80.8322,29.4,50,0.0,964.5,8.8,29.2,109,145.8,55.4,26.4,430.0,60.0,8.9,4,5,7,1,2026-05-15T02:42:57.894833+05:30
Akola,Maharashtra,20.7002,77.0082,34.7,24,0.0,968.7,8.8,40.0,94,37.4,23.3,7.6,241.0,81.0,7.7,0,5,7,0,2026-05-15T02:42:57.894842+05:30
Amravati,Maharashtra,20.9374,77.7796,34.7,26,0.0,960.9,8.95,42.5,97,40.0,26.1,9.3,297.0,75.0,7.5,0,5,7,0,2026-05-15T02:42:57.894851+05:30
Latur,Maharashtra,18.4088,76.5604,29.5,49,0.0,934.7,9.1,35.3,106,59.1,43.0,10.7,228.0,88.0,6.5,4,5,7,1,2026-05-15T02:42:57.894858+05:30
Nanded,Maharashtra,19.1383,77.3091,31.4,46,0.0,962.8,9.05,38.5,121,88.5,56.0,36.8,304.0,34.0,7.9,0,5,7,1,2026-05-15T02:42:57.894864+05:30
Gulbarga,Karnataka,17.3297,76.8343,29.9,49,0.0,954.0,8.5,34.9,126,44.9,35.3,9.7,261.0,92.0,3.7,4,5,7,1,2026-05-15T02:42:57.894870+05:30
Bidar,Karnataka,17.9104,77.5199,29.1,54,0.0,930.8,9.15,37.8,132,54.7,41.8,13.9,309.0,85.0,6.1,4,5,7,1,2026-05-15T02:42:57.894876+05:30
Hospet,Karnataka,15.2689,76.3909,25.5,94,0.0,951.3,9.2,46.8,94,23.2,17.8,9.5,260.0,70.0,2.0,7,5,7,1,2026-05-15T02:42:57.894882+05:30
Tirupur,Tamil Nadu,11.1085,77.3411,24.6,88,0.0,969.5,8.7,29.5,83,27.1,20.6,21.9,191.0,52.0,4.8,3,5,7,1,2026-05-15T02:42:57.894888+05:30
Alappuzha,Kerala,9.4981,76.3388,26.1,94,0.0,1004.0,8.6,38.5,62,19.7,12.1,7.2,145.0,69.0,2.5,7,5,4,1,2026-05-15T02:42:57.894894+05:30
Munnar,Kerala,10.0889,77.0595,17.6,98,0.0,852.1,8.4,23.4,58,6.9,5.6,6.4,169.0,51.0,1.8,3,10,7,1,2026-05-15T02:42:57.894901+05:30
Silchar,Assam,24.8333,92.7789,22.8,96,0.2,1001.8,8.95,31.3,82,29.1,21.9,8.4,254.0,63.0,4.6,6,5,4,1,2026-05-15T02:42:57.894907+05:30
Dibrugarh,Assam,27.4728,94.912,22.6,94,0.1,992.2,7.7,28.8,86,23.7,21.1,19.9,286.0,39.0,1.1,6,5,7,1,2026-05-15T02:42:57.894913+05:30
