city,state,latitude,longitude,temp,humidity,rain,pressure,uv_index,wind_gusts,aqi,pm10,pm2_5,mosquito_risk,arthritis_risk,migraine_risk,frizz_risk,updated_at
Delhi,Delhi,28.6139,77.209,22.3,74,0.0,987.1,6.85,24.5,126,141.1,57.2,3,5,7,1,2026-04-01T08:22:16.469329+05:30
Mumbai,Maharashtra,19.076,72.8777,27.3,77,0.0,1010.6,7.85,25.2,59,46.4,22.1,7,0,4,1,2026-04-01T08:22:16.469371+05:30
Bangalore,Karnataka,12.9716,77.5946,23.0,70,0.0,914.1,9.55,30.2,85,34.8,32.5,3,5,7,1,2026-04-01T08:22:16.469386+05:30
Hyderabad,Telangana,17.385,78.4867,26.7,73,0.0,956.8,9.1,13.7,123,47.8,42.3,7,5,7,1,2026-04-01T08:22:16.469397+05:30
Chennai,Tamil Nadu,13.0827,80.2707,28.4,66,0.0,1010.9,8.65,29.2,48,16.4,13.0,7,0,4,1,2026-04-01T08:22:16.469406+05:30
Kolkata,West Bengal,22.5726,88.3639,28.2,84,0.0,1010.4,8.55,18.7,92,35.9,30.9,7,0,4,1,2026-04-01T08:22:16.469414+05:30
Pune,Maharashtra,18.5204,73.8567,25.5,87,0.0,950.4,8.0,32.8,100,46.7,41.6,7,5,7,1,2026-04-01T08:22:16.469426+05:30
Ahmedabad,Gujarat,23.0225,72.5714,26.1,55,0.0,1005.2,7.85,24.5,61,28.8,16.9,4,5,4,1,2026-04-01T08:22:16.469433+05:30
Jaipur,Rajasthan,26.9124,75.7873,23.7,71,0.0,963.3,6.6,36.0,102,110.1,26.2,3,5,7,1,2026-04-01T08:22:16.469440+05:30
Lucknow,Uttar Pradesh,26.8467,80.9462,26.3,63,0.0,997.8,7.05,29.5,126,108.7,48.7,7,5,7,1,2026-04-01T08:22:16.469448+05:30
Kanpur,Uttar Pradesh,26.4499,80.3319,24.1,78,0.0,996.1,7.1,28.8,199,184.4,53.3,3,5,7,1,2026-04-01T08:22:16.469455+05:30
Chandigarh,Chandigarh,30.7333,76.7794,21.7,67,0.0,971.9,6.6,12.2,82,21.8,16.3,3,5,7,0,2026-04-01T08:22:16.469462+05:30
Srinagar,Jammu and Kashmir,34.0837,74.7973,9.6,87,0.0,843.2,7.0,25.6,77,42.3,32.5,3,10,7,0,2026-04-01T08:22:16.469469+05:30
Jammu,Jammu and Kashmir,32.7266,74.857,22.9,57,0.0,976.0,6.2,20.9,75,29.6,25.1,0,5,7,0,2026-04-01T08:22:16.469477+05:30
Amritsar,Punjab,31.634,74.8723,21.0,71,0.0,984.5,5.75,14.8,110,112.2,56.5,3,5,3,0,2026-04-01T08:22:16.469483+05:30
Ludhiana,Punjab,30.901,75.8573,22.0,67,0.0,982.3,6.3,18.0,140,135.0,58.6,3,5,7,0,2026-04-01T08:22:16.469489+05:30
Jalandhar,Punjab,31.326,75.5762,21.4,68,0.0,983.3,6.55,13.3,121,143.0,62.4,3,5,7,0,2026-04-01T08:22:16.469498+05:30
Dehradun,Uttarakhand,30.6284,78.0322,15.9,50,0.0,832.9,6.65,32.0,34,5.9,3.7,0,5,7,0,2026-04-01T08:22:16.469504+05:30
Shimla,Himachal Pradesh,31.1048,77.1734,14.3,60,0.0,786.8,5.8,32.4,51,12.0,8.0,0,5,3,0,2026-04-01T08:22:16.469511+05:30
Manali,Himachal Pradesh,32.2396,77.1887,15.7,33,0.0,822.0,7.75,28.4,49,3.4,2.4,0,5,7,1,2026-04-01T08:22:16.469518+05:30
Gurgaon,Haryana,28.4595,77.0266,21.8,81,0.0,985.3,6.95,25.9,332,155.1,60.5,3,5,7,1,2026-04-01T08:22:16.469525+05:30
Noida,Uttar Pradesh,28.5355,77.391,22.4,77,0.0,988.7,6.85,23.8,332,155.1,60.5,3,5,7,1,2026-04-01T08:22:16.469532+05:30
Ghaziabad,Uttar Pradesh,28.6692,77.4538,21.8,77,0.0,986.8,6.85,21.6,111,126.2,47.8,3,5,7,1,2026-04-01T08:22:16.469540+05:30
Faridabad,Haryana,28.4089,77.3178,22.5,77,0.0,988.0,6.9,23.8,332,155.1,60.5,3,5,7,1,2026-04-01T08:22:16.469547+05:30
Meerut,Uttar Pradesh,28.9845,77.7064,22.4,74,0.0,985.5,6.65,20.9,111,126.2,47.8,3,5,7,1,2026-04-01T08:22:16.469552+05:30
Agra,Uttar Pradesh,27.1767,78.0081,23.4,77,0.0,992.5,7.25,29.5,552,819.6,123.9,3,5,7,1,2026-04-01T08:22:16.469559+05:30
Varanasi,Uttar Pradesh,25.3176,82.9739,26.6,67,0.0,1001.9,8.05,25.6,143,85.9,56.1,7,5,4,1,2026-04-01T08:22:16.469569+05:30
Prayagraj,Uttar Pradesh,25.4358,81.8463,26.4,66,0.0,1000.8,7.9,36.0,125,109.9,43.5,7,5,4,1,2026-04-01T08:22:16.469576+05:30
Gorakhpur,Uttar Pradesh,26.7606,83.3732,25.7,75,0.0,1001.4,7.7,31.7,156,107.3,82.7,7,5,4,1,2026-04-01T08:22:16.469583+05:30
Bareilly,Uttar Pradesh,28.367,79.4304,23.1,69,0.0,991.0,6.95,22.7,87,61.2,34.6,3,5,7,1,2026-04-01T08:22:16.469589+05:30
Aligarh,Uttar Pradesh,27.8974,78.088,23.5,74,0.0,989.9,7.0,25.2,205,303.6,64.0,3,5,7,1,2026-04-01T08:22:16.469596+05:30
Moradabad,Uttar Pradesh,28.8386,78.7733,22.7,68,0.0,987.6,6.9,22.7,97,79.6,41.1,3,5,7,1,2026-04-01T08:22:16.469601+05:30
Saharanpur,Uttar Pradesh,29.9637,77.546,21.3,68,0.0,978.9,6.25,11.2,115,60.8,37.1,3,5,7,0,2026-04-01T08:22:16.469607+05:30
Jhansi,Uttar Pradesh,25.4484,78.5685,23.5,74,0.0,982.6,7.8,28.8,60,163.0,41.8,3,5,7,1,2026-04-01T08:22:19.680924+05:30
Surat,Gujarat,21.1702,72.8311,27.3,70,0.0,1009.3,7.6,26.3,87,41.1,34.7,7,0,4,1,2026-04-01T08:22:19.680953+05:30
Vadodara,Gujarat,22.3072,73.1812,27.1,60,0.0,1007.1,7.85,28.4,67,25.3,20.4,4,5,4,1,2026-04-01T08:22:19.680962+05:30
Rajkot,Gujarat,22.3039,70.8022,23.6,74,0.0,997.2,7.3,37.4,61,37.5,19.4,3,5,7,1,2026-04-01T08:22:19.680970+05:30
Thane,Maharashtra,19.2183,72.9781,27.2,74,0.0,1010.1,7.85,36.7,59,46.4,22.1,7,0,4,1,2026-04-01T08:22:19.680977+05:30
Nagpur,Maharashtra,21.1458,79.0882,26.4,70,0.0,976.9,8.6,33.1,68,43.0,41.4,7,5,7,1,2026-04-01T08:22:19.680985+05:30
Nashik,Maharashtra,19.9975,73.7898,23.2,85,0.0,947.5,7.95,32.0,57,27.4,17.5,3,5,7,1,2026-04-01T08:22:19.680991+05:30
Aurangabad,Maharashtra,19.8762,75.3433,25.7,69,0.0,946.6,8.8,33.5,81,40.9,34.1,7,5,7,1,2026-04-01T08:22:19.680998+05:30
Solapur,Maharashtra,17.6599,75.9064,27.7,61,0.0,960.0,8.9,34.2,106,40.6,38.0,7,5,7,1,2026-04-01T08:22:19.681005+05:30
Kolhapur,Maharashtra,16.705,74.2433,24.9,87,0.0,950.5,8.95,34.6,136,62.6,60.1,3,5,7,1,2026-04-01T08:22:19.681013+05:30
Goa,Goa,15.2993,74.124,28.9,76,0.0,1000.0,8.8,31.7,74,23.2,19.0,7,5,4,1,2026-04-01T08:22:19.681020+05:30
Jodhpur,Rajasthan,26.2389,73.0243,24.4,45,0.0,985.8,7.4,31.3,98,112.2,24.7,0,5,7,0,2026-04-01T08:22:19.681026+05:30
Udaipur,Rajasthan,24.5854,73.7125,23.3,57,0.0,949.3,8.35,36.0,51,30.5,15.7,0,5,7,0,2026-04-01T08:22:19.681033+05:30
Kota,Rajasthan,25.2138,75.8648,25.4,70,0.0,982.5,7.5,22.7,55,35.9,14.2,7,5,7,1,2026-04-01T08:22:19.681040+05:30
Bikaner,Rajasthan,28.0229,73.3119,23.5,73,0.0,983.8,6.7,23.8,43,10.1,6.5,3,5,7,1,2026-04-01T08:22:19.681047+05:30
Ajmer,Rajasthan,26.4499,74.6399,23.9,60,0.0,957.5,7.55,30.2,52,75.2,23.2,0,5,7,0,2026-04-01T08:22:19.681053+05:30
Gwalior,Madhya Pradesh,26.2183,78.1828,23.9,72,0.0,987.6,7.45,35.3,84,403.3,75.4,3,5,7,1,2026-04-01T08:22:19.681059+05:30
Indore,Madhya Pradesh,22.7196,75.8577,25.3,64,0.0,950.7,8.3,31.7,66,40.5,32.1,7,5,7,1,2026-04-01T08:22:19.681065+05:30
Bhopal,Madhya Pradesh,23.2599,77.4126,27.2,55,0.0,956.7,8.25,36.0,57,23.9,19.7,4,5,7,1,2026-04-01T08:22:19.681072+05:30
Jabalpur,Madhya Pradesh,23.1815,79.9864,25.5,64,0.0,965.4,8.15,40.7,67,19.5,17.1,7,5,7,1,2026-04-01T08:22:19.681079+05:30
Ujjain,Madhya Pradesh,23.1765,75.7885,25.6,67,0.0,956.5,8.2,27.0,69,44.7,34.5,7,5,7,1,2026-04-01T08:22:19.681086+05:30
Visakhapatnam,Andhra Pradesh,17.6868,83.2185,29.0,70,0.0,1008.3,9.0,34.2,77,28.7,24.0,7,0,4,1,2026-04-01T08:22:19.681092+05:30
Vijayawada,Andhra Pradesh,16.5062,80.648,27.7,77,0.0,1007.2,9.05,28.1,65,20.5,16.6,7,5,4,1,2026-04-01T08:22:19.681098+05:30
Guntur,Andhra Pradesh,16.3067,80.4365,27.7,75,0.0,1008.2,9.1,31.0,66,18.3,14.9,7,0,4,1,2026-04-01T08:22:19.681104+05:30
Nellore,Andhra Pradesh,14.4426,79.9865,27.4,74,0.0,1009.9,9.2,30.2,52,16.1,12.9,7,0,4,1,2026-04-01T08:22:19.681112+05:30
Kurnool,Andhra Pradesh,15.8281,78.0373,28.2,63,0.0,980.2,9.1,22.0,86,19.6,17.2,7,5,7,1,2026-04-01T08:22:19.681118+05:30
Kakinada,Andhra Pradesh,16.9891,82.2475,28.8,73,0.0,1012.0,9.05,32.0,56,20.0,15.1,7,0,4,1,2026-04-01T08:22:19.681125+05:30
Tirupati,Andhra Pradesh,13.6288,79.4192,25.8,75,0.0,995.6,9.35,35.3,65,27.8,25.6,7,5,7,1,2026-04-01T08:22:19.681131+05:30
Warangal,Telangana,17.9689,79.5941,26.5,80,0.0,982.8,8.95,29.9,135,21.2,19.3,7,5,7,1,2026-04-01T08:22:19.681137+05:30
Nizamabad,Telangana,18.6725,78.0941,28.5,64,0.0,968.1,8.85,22.0,130,55.8,53.0,7,5,7,1,2026-04-01T08:22:19.681144+05:30
Mysore,Karnataka,12.2958,76.6396,23.5,82,0.0,930.7,9.5,29.5,102,42.1,38.4,3,5,7,1,2026-04-01T08:22:19.681150+05:30
Mangalore,Karnataka,12.9141,74.856,28.9,73,0.0,1008.5,9.15,20.9,73,47.6,43.3,7,0,4,1,2026-04-01T08:22:19.681156+05:30
Hubli-Dharwad,Karnataka,15.3647,75.124,24.6,82,0.0,943.1,9.15,32.8,111,53.8,48.9,3,5,7,1,2026-04-01T08:22:19.681163+05:30
Belgaum,Karnataka,15.8497,74.4977,23.4,88,0.0,928.0,9.1,28.8,110,52.9,48.1,3,5,7,1,2026-04-01T08:22:22.901616+05:30
Coimbatore,Tamil Nadu,11.0168,76.9558,25.4,75,0.0,964.8,9.45,38.9,75,27.9,24.9,7,5,7,1,2026-04-01T08:22:22.901652+05:30
Madurai,Tamil Nadu,9.9252,78.1198,27.3,73,0.0,996.3,8.85,25.2,63,29.9,27.4,7,5,7,1,2026-04-01T08:22:22.901664+05:30
Trichy,Tamil Nadu,10.7905,78.7047,26.3,80,0.0,1003.6,8.65,26.6,56,26.5,24.0,7,5,4,1,2026-04-01T08:22:22.901675+05:30
Salem,Tamil Nadu,11.6643,78.146,26.0,75,0.0,981.0,9.45,33.5,73,39.7,38.2,7,5,7,1,2026-04-01T08:22:22.901685+05:30
Tirunelveli,Tamil Nadu,8.7139,77.7567,28.0,74,0.0,1006.1,9.35,38.9,66,18.5,17.2,7,5,4,1,2026-04-01T08:22:22.901696+05:30
Vellore,Tamil Nadu,12.9165,79.1325,25.5,73,0.0,988.5,9.4,34.9,74,38.6,37.4,7,5,7,1,2026-04-01T08:22:22.901706+05:30
Erode,Tamil Nadu,11.341,77.7172,26.6,78,0.0,992.8,9.05,21.6,54,15.8,13.4,7,5,7,1,2026-04-01T08:22:22.901714+05:30
Kochi,Kerala,9.9312,76.2673,27.8,81,0.0,1010.6,9.2,34.2,99,39.0,37.6,7,0,4,1,2026-04-01T08:22:22.901723+05:30
Thiruvananthapuram,Kerala,8.5241,76.9366,27.9,82,0.0,1009.6,9.15,27.0,66,16.7,14.9,7,0,4,1,2026-04-01T08:22:22.901732+05:30
Kozhikode,Kerala,11.2588,75.7804,28.0,85,0.0,1009.9,9.15,27.0,83,29.8,24.3,7,0,4,1,2026-04-01T08:22:22.901741+05:30
Thrissur,Kerala,10.5276,76.2144,27.1,83,0.0,1009.3,9.2,35.3,98,42.4,40.4,7,0,4,1,2026-04-01T08:22:22.901750+05:30
Kannur,Kerala,11.8745,75.3704,28.2,81,0.0,1009.1,8.95,26.6,88,36.3,31.8,7,0,4,1,2026-04-01T08:22:22.901759+05:30
Patna,Bihar,25.5941,85.1376,27.7,74,0.0,1004.0,8.2,38.5,166,137.8,116.2,7,5,4,1,2026-04-01T08:22:22.901768+05:30
Gaya,Bihar,24.7914,85.0002,27.9,61,0.0,998.0,8.2,34.9,115,53.7,30.7,7,5,7,1,2026-04-01T08:22:22.901776+05:30
Muzaffarpur,Bihar,26.1209,85.3647,25.4,83,0.0,1005.1,8.15,34.9,168,126.7,114.3,7,5,4,1,2026-04-01T08:22:22.901785+05:30
Bhagalpur,Bihar,25.2425,87.0117,26.4,83,0.0,1004.9,8.25,34.9,159,80.3,71.7,7,5,4,1,2026-04-01T08:22:22.901794+05:30
Ranchi,Jharkhand,23.3441,85.3096,25.6,67,0.0,942.3,8.85,31.0,74,44.8,29.6,7,5,7,1,2026-04-01T08:22:22.901802+05:30
Jamshedpur,Jharkhand,22.8046,86.2029,27.7,74,0.0,995.4,8.65,20.5,127,54.5,51.0,7,5,7,1,2026-04-01T08:22:22.901810+05:30
Dhanbad,Jharkhand,23.7957,86.4304,26.8,72,0.0,983.9,8.6,27.7,164,103.8,98.3,7,5,7,1,2026-04-01T08:22:22.901818+05:30
Bokaro,Jharkhand,23.6693,86.1511,27.0,72,0.0,988.1,8.6,22.3,153,75.0,63.8,7,5,7,1,2026-04-01T08:22:22.901827+05:30
Bhubaneswar,Odisha,20.2961,85.8245,29.0,75,0.0,1007.4,8.85,28.4,113,30.3,25.8,7,5,4,1,2026-04-01T08:22:22.901835+05:30
Cuttack,Odisha,20.4625,85.8828,28.8,77,0.0,1009.3,8.9,25.2,113,30.3,25.8,7,0,4,1,2026-04-01T08:22:22.901872+05:30
Rourkela,Odisha,22.2604,84.8536,28.3,72,0.0,989.8,8.6,13.7,117,76.4,64.3,7,5,7,1,2026-04-01T08:22:22.901881+05:30
Raipur,Chhattisgarh,21.2514,81.6296,28.0,51,0.0,979.4,8.7,26.6,151,72.2,50.8,4,5,7,1,2026-04-01T08:22:22.901889+05:30
Bhilai,Chhattisgarh,21.1938,81.3509,27.6,54,0.0,979.7,8.7,22.7,133,73.3,55.1,4,5,7,1,2026-04-01T08:22:22.901897+05:30
Guwahati,Assam,26.1158,91.7086,24.1,87,0.0,1006.2,8.05,37.1,122,44.1,34.9,3,5,4,1,2026-04-01T08:22:22.901905+05:30
Agartala,Tripura,23.8315,91.2868,25.9,84,0.0,1011.3,8.35,18.7,98,22.6,20.8,7,0,4,1,2026-04-01T08:22:22.901915+05:30
Shillong,Meghalaya,25.5788,91.8933,16.9,72,0.0,859.7,8.45,52.2,76,19.7,13.9,3,5,7,0,2026-04-01T08:22:22.901923+05:30
Imphal,Manipur,24.817,93.9368,19.7,86,0.0,927.4,8.7,64.4,92,17.3,15.5,3,10,7,1,2026-04-01T08:22:22.901933+05:30
Aizawl,Mizoram,23.7271,92.7176,21.2,81,0.0,897.3,8.6,39.6,100,39.9,34.6,3,5,7,1,2026-04-01T08:22:22.901941+05:30
Kohima,Nagaland,25.6701,94.1077,18.1,75,0.0,858.6,8.6,72.7,66,20.1,16.0,3,5,7,0,2026-04-01T08:22:22.901949+05:30
Gangtok,Sikkim,27.3314,88.6138,15.9,87,0.0,840.3,8.45,22.0,109,49.9,37.6,3,10,7,0,2026-04-01T08:22:22.901957+05:30
Siliguri,West Bengal,26.7271,88.3953,21.5,84,0.0,998.2,8.05,26.6,154,67.5,52.5,3,5,7,1,2026-04-01T08:22:26.121542+05:30
Durgapur,West Bengal,23.5204,87.3119,27.7,83,0.0,999.3,8.55,24.5,160,74.7,71.7,7,5,7,1,2026-04-01T08:22:26.121571+05:30
Asansol,West Bengal,23.6739,86.9524,27.6,82,0.0,997.7,8.55,36.7,156,85.7,82.0,7,5,7,1,2026-04-01T08:22:26.121581+05:30
Pondicherry,Puducherry,11.9139,79.8145,27.4,82,0.0,1012.1,7.35,28.1,43,17.9,14.8,7,0,4,1,2026-04-01T08:22:26.121589+05:30
Port Blair,Andaman and Nicobar Islands,11.6234,92.7265,28.3,80,0.0,1009.7,3.6,15.1,35,10.7,9.5,7,0,0,1,2026-04-01T08:22:26.121596+05:30
Haridwar,Uttarakhand,29.9457,78.1642,23.3,60,0.0,977.8,6.4,19.4,77,23.7,18.7,0,5,7,0,2026-04-01T08:22:26.121604+05:30
Rishikesh,Uttarakhand,30.0869,78.2676,23.8,56,0.0,970.6,6.55,24.1,58,18.2,12.8,0,5,7,0,2026-04-01T08:22:26.121611+05:30
Nainital,Uttarakhand,29.3919,79.4542,21.2,39,0.0,810.2,7.15,36.7,62,14.8,11.8,0,5,7,0,2026-04-01T08:22:26.121618+05:30
Mussoorie,Uttarakhand,30.4599,78.0664,18.0,44,0.0,805.9,6.7,34.2,61,12.5,10.7,0,5,7,0,2026-04-01T08:22:26.121624+05:30
Dharamshala,Himachal Pradesh,32.219,76.3234,19.8,61,0.0,871.3,6.2,23.8,45,6.7,5.2,3,5,7,0,2026-04-01T08:22:26.121631+05:30
Dalhousie,Himachal Pradesh,32.5387,75.971,15.9,57,0.0,805.2,5.45,19.8,55,15.4,12.7,0,5,3,0,2026-04-01T08:22:26.121638+05:30
Patiala,Punjab,30.3398,76.3869,21.1,70,0.0,981.7,5.5,14.8,171,121.5,48.0,3,5,3,0,2026-04-01T08:22:26.121644+05:30
Bhatinda,Punjab,30.211,74.9455,21.2,78,0.0,987.1,6.6,18.4,103,140.2,43.8,3,5,7,1,2026-04-01T08:22:26.121650+05:30
Rohtak,Haryana,28.8955,76.6066,20.9,83,0.0,985.6,6.75,28.8,139,156.5,58.4,3,5,7,1,2026-04-01T08:22:26.121657+05:30
Panipat,Haryana,29.3909,76.9635,21.9,80,0.0,984.0,6.3,19.8,155,105.2,45.3,3,5,7,1,2026-04-01T08:22:26.121664+05:30
Mathura,Uttar Pradesh,27.4924,77.6737,22.7,83,0.0,991.5,7.15,31.0,303,297.1,78.0,3,5,7,1,2026-04-01T08:22:26.121671+05:30
Vrindavan,Uttar Pradesh,27.5823,77.7027,23.3,77,0.0,991.9,7.1,31.3,303,297.1,78.0,3,5,7,1,2026-04-01T08:22:26.121677+05:30
Ayodhya,Uttar Pradesh,26.7922,82.1998,26.7,59,0.0,999.8,7.55,32.8,105,111.3,48.5,4,5,7,1,2026-04-01T08:22:26.121684+05:30
Ratlam,Madhya Pradesh,23.3315,75.0367,25.7,67,0.0,957.3,8.15,31.3,65,46.7,33.4,7,5,7,1,2026-04-01T08:22:26.121690+05:30
Sagar,Madhya Pradesh,23.8388,78.7378,25.1,62,0.0,953.6,8.25,33.5,42,43.3,17.0,7,5,7,1,2026-04-01T08:22:26.121697+05:30
Satna,Madhya Pradesh,24.6005,80.8322,25.6,61,0.0,976.5,8.1,31.0,82,55.8,22.7,7,5,7,1,2026-04-01T08:22:26.121703+05:30
Akola,Maharashtra,20.7002,77.0082,28.3,63,0.0,978.0,8.6,19.1,73,39.2,34.8,7,5,7,1,2026-04-01T08:22:26.121710+05:30
Amravati,Maharashtra,20.9374,77.7796,27.5,71,0.0,970.5,8.6,40.3,70,39.8,36.0,7,5,7,1,2026-04-01T08:22:26.121717+05:30
Latur,Maharashtra,18.4088,76.5604,26.8,60,0.0,942.7,8.85,24.8,114,51.8,47.3,4,5,7,1,2026-04-01T08:22:26.121724+05:30
Nanded,Maharashtra,19.1383,77.3091,28.4,64,0.0,971.9,8.75,34.6,102,61.9,57.4,7,5,7,1,2026-04-01T08:22:26.121730+05:30
Gulbarga,Karnataka,17.3297,76.8343,28.0,60,0.0,962.1,8.95,38.2,111,37.6,34.3,4,5,7,1,2026-04-01T08:22:26.121736+05:30
Bidar,Karnataka,17.9104,77.5199,27.0,65,0.0,938.8,8.95,38.5,126,45.1,41.6,7,5,7,1,2026-04-01T08:22:26.121741+05:30
Hospet,Karnataka,15.2689,76.3909,25.8,75,0.0,958.6,9.15,22.0,112,66.1,61.7,7,5,7,1,2026-04-01T08:22:26.121747+05:30
Tirupur,Tamil Nadu,11.1085,77.3411,25.9,74,0.0,978.8,9.2,28.4,62,17.3,14.3,7,5,7,1,2026-04-01T08:22:26.121753+05:30
Alappuzha,Kerala,9.4981,76.3388,27.7,85,0.0,1010.6,9.2,28.1,92,27.2,25.6,7,0,4,1,2026-04-01T08:22:26.121759+05:30
Munnar,Kerala,10.0889,77.0595,22.6,62,0.0,858.9,9.35,25.2,71,31.0,27.3,3,5,7,0,2026-04-01T08:22:26.121766+05:30
Silchar,Assam,24.8333,92.7789,23.3,92,0.0,1010.8,8.4,20.5,108,38.1,32.7,3,0,4,1,2026-04-01T08:22:26.121772+05:30
Dibrugarh,Assam,27.4728,94.912,22.3,90,0.0,1000.3,8.0,31.3,89,51.2,35.3,3,5,4,1,2026-04-01T08:22:26.121778+05:30
