city,state,latitude,longitude,temp,humidity,rain,pressure,uv_index,wind_gusts,aqi,pm10,pm2_5,mosquito_risk,arthritis_risk,migraine_risk,frizz_risk,updated_at
Delhi,Delhi,28.6139,77.209,21.9,90,0.0,987.3,6.1,19.1,190,594.2,147.1,3,5,7,1,2026-03-10T03:06:29.790384+05:30
Mumbai,Maharashtra,19.076,72.8777,29.0,60,0.0,1008.3,7.55,17.6,106,28.3,27.5,4,0,4,1,2026-03-10T03:06:29.790422+05:30
Bangalore,Karnataka,12.9716,77.5946,20.0,86,0.0,912.3,9.25,32.4,102,44.6,38.4,3,5,7,1,2026-03-10T03:06:29.790437+05:30
Hyderabad,Telangana,17.385,78.4867,22.1,89,0.0,955.3,8.6,28.8,105,42.3,36.9,3,5,7,1,2026-03-10T03:06:29.790446+05:30
Chennai,Tamil Nadu,13.0827,80.2707,25.3,75,0.0,1010.0,9.0,33.8,90,34.3,26.1,7,0,4,1,2026-03-10T03:06:29.790455+05:30
Kolkata,West Bengal,22.5726,88.3639,23.9,95,0.0,1011.5,7.75,15.8,129,47.8,41.2,3,0,4,1,2026-03-10T03:06:29.790463+05:30
Pune,Maharashtra,18.5204,73.8567,21.3,56,0.0,949.3,8.1,33.1,64,25.4,21.6,0,5,7,0,2026-03-10T03:06:29.790490+05:30
Ahmedabad,Gujarat,23.0225,72.5714,23.8,39,0.0,1004.9,7.4,18.7,55,16.3,15.3,0,5,4,0,2026-03-10T03:06:29.790499+05:30
Jaipur,Rajasthan,26.9124,75.7873,23.4,39,0.0,963.8,6.85,19.4,77,147.6,28.5,0,5,7,0,2026-03-10T03:06:29.790506+05:30
Lucknow,Uttar Pradesh,26.8467,80.9462,23.5,89,0.0,998.6,6.55,22.0,173,136.0,128.1,3,5,7,1,2026-03-10T03:06:29.790513+05:30
Kanpur,Uttar Pradesh,26.4499,80.3319,22.0,89,0.0,996.5,6.6,18.0,161,183.5,98.3,3,5,7,1,2026-03-10T03:06:29.790520+05:30
Chandigarh,Chandigarh,30.7333,76.7794,22.1,76,0.0,973.0,6.0,24.1,106,53.2,46.1,3,5,3,1,2026-03-10T03:06:29.790528+05:30
Srinagar,Jammu and Kashmir,34.0837,74.7973,9.9,89,0.2,844.7,3.55,18.0,137,79.4,54.9,6,10,3,0,2026-03-10T03:06:29.790535+05:30
Jammu,Jammu and Kashmir,32.7266,74.857,20.7,82,0.0,977.3,6.3,28.8,93,31.3,26.1,3,5,7,1,2026-03-10T03:06:29.790543+05:30
Amritsar,Punjab,31.634,74.8723,21.9,84,0.0,984.8,6.4,18.7,167,138.3,119.7,3,5,7,1,2026-03-10T03:06:29.790549+05:30
Ludhiana,Punjab,30.901,75.8573,22.0,83,0.0,983.0,5.95,16.2,163,187.2,135.5,3,5,3,1,2026-03-10T03:06:29.790556+05:30
Jalandhar,Punjab,31.326,75.5762,21.0,93,0.0,984.0,5.7,15.8,162,151.3,120.6,3,5,3,1,2026-03-10T03:06:29.790565+05:30
Dehradun,Uttarakhand,30.6284,78.0322,12.8,60,0.0,832.3,6.35,25.9,69,28.9,22.1,0,5,7,0,2026-03-10T03:06:29.790572+05:30
Shimla,Himachal Pradesh,31.1048,77.1734,12.5,69,0.0,786.9,6.3,37.1,69,44.8,29.9,3,5,7,0,2026-03-10T03:06:29.790578+05:30
Manali,Himachal Pradesh,32.2396,77.1887,16.7,37,0.0,824.5,6.85,38.2,39,33.9,20.0,0,5,7,0,2026-03-10T03:06:29.790584+05:30
Gurgaon,Haryana,28.4595,77.0266,19.2,95,0.0,985.7,6.1,16.2,458,499.2,127.6,3,10,7,1,2026-03-10T03:06:29.790591+05:30
Noida,Uttar Pradesh,28.5355,77.391,21.4,92,0.0,988.8,6.05,18.7,458,499.2,127.6,3,5,7,1,2026-03-10T03:06:29.790597+05:30
Ghaziabad,Uttar Pradesh,28.6692,77.4538,20.8,93,0.0,986.9,5.95,15.5,165,474.0,132.7,3,5,3,1,2026-03-10T03:06:29.790602+05:30
Faridabad,Haryana,28.4089,77.3178,18.7,96,0.0,988.1,6.1,17.3,458,499.2,127.6,3,10,7,1,2026-03-10T03:06:29.790608+05:30
Meerut,Uttar Pradesh,28.9845,77.7064,20.9,92,0.0,985.8,5.95,17.3,165,474.0,132.7,3,5,3,1,2026-03-10T03:06:29.790614+05:30
Agra,Uttar Pradesh,27.1767,78.0081,20.8,86,0.0,992.0,6.45,16.6,176,233.8,98.7,3,5,7,1,2026-03-10T03:06:29.790620+05:30
Varanasi,Uttar Pradesh,25.3176,82.9739,22.3,95,0.0,1002.7,7.25,15.5,184,145.3,140.2,3,5,4,1,2026-03-10T03:06:29.790629+05:30
Prayagraj,Uttar Pradesh,25.4358,81.8463,21.9,93,0.0,1000.9,7.1,15.1,185,142.5,137.8,3,5,4,1,2026-03-10T03:06:29.790635+05:30
Gorakhpur,Uttar Pradesh,26.7606,83.3732,21.5,92,0.0,1002.8,6.95,19.1,198,132.2,120.6,3,5,4,1,2026-03-10T03:06:29.790641+05:30
Bareilly,Uttar Pradesh,28.367,79.4304,21.0,97,0.0,991.6,5.5,23.4,168,104.3,84.8,3,5,3,1,2026-03-10T03:06:29.790647+05:30
Aligarh,Uttar Pradesh,27.8974,78.088,19.5,93,0.0,989.9,6.1,17.3,173,266.4,140.2,3,10,7,1,2026-03-10T03:06:29.790653+05:30
Moradabad,Uttar Pradesh,28.8386,78.7733,20.9,92,0.0,988.3,6.1,25.6,175,120.6,92.9,3,5,7,1,2026-03-10T03:06:29.790658+05:30
Saharanpur,Uttar Pradesh,29.9637,77.546,19.1,99,0.0,980.2,5.75,21.2,163,138.3,96.6,3,10,3,1,2026-03-10T03:06:29.790663+05:30
Jhansi,Uttar Pradesh,25.4484,78.5685,21.1,64,0.0,981.8,7.05,23.0,71,52.0,28.6,3,5,7,0,2026-03-10T03:06:33.015730+05:30
Surat,Gujarat,21.1702,72.8311,26.2,50,0.0,1008.3,7.3,25.9,99,33.9,33.1,4,0,4,0,2026-03-10T03:06:33.015755+05:30
Vadodara,Gujarat,22.3072,73.1812,24.7,48,0.0,1006.6,7.4,18.4,69,16.6,15.7,0,5,4,0,2026-03-10T03:06:33.015764+05:30
Rajkot,Gujarat,22.3039,70.8022,24.0,63,0.0,997.2,7.25,32.8,59,27.5,25.1,3,5,7,1,2026-03-10T03:06:33.015771+05:30
Thane,Maharashtra,19.2183,72.9781,26.7,46,0.0,1007.9,7.55,36.0,106,28.3,27.5,4,5,4,0,2026-03-10T03:06:33.015777+05:30
Nagpur,Maharashtra,21.1458,79.0882,18.1,66,0.0,975.2,7.95,24.1,92,33.6,23.9,3,5,7,0,2026-03-10T03:06:33.015784+05:30
Nashik,Maharashtra,19.9975,73.7898,23.6,40,0.0,947.1,7.75,25.6,70,17.5,15.9,0,5,7,0,2026-03-10T03:06:33.015790+05:30
Aurangabad,Maharashtra,19.8762,75.3433,22.2,50,0.0,945.6,8.25,26.6,66,35.6,32.0,0,5,7,0,2026-03-10T03:06:33.015796+05:30
Solapur,Maharashtra,17.6599,75.9064,22.3,60,0.0,958.7,8.5,22.3,75,34.8,31.9,0,5,7,0,2026-03-10T03:06:33.015802+05:30
Kolhapur,Maharashtra,16.705,74.2433,22.9,45,0.0,948.5,8.6,38.5,123,49.7,46.7,0,5,7,0,2026-03-10T03:06:33.015808+05:30
Goa,Goa,15.2993,74.124,25.3,96,0.0,998.3,8.65,37.1,134,59.6,54.8,7,5,7,1,2026-03-10T03:06:33.015815+05:30
Jodhpur,Rajasthan,26.2389,73.0243,23.8,34,0.0,987.2,7.15,20.5,64,126.2,29.2,0,5,7,0,2026-03-10T03:06:33.015821+05:30
Udaipur,Rajasthan,24.5854,73.7125,18.4,37,0.0,950.1,7.75,20.2,38,10.0,8.5,0,5,7,0,2026-03-10T03:06:33.015826+05:30
Kota,Rajasthan,25.2138,75.8648,19.4,62,0.0,982.3,7.15,19.1,68,34.0,27.6,3,5,7,0,2026-03-10T03:06:33.015832+05:30
Bikaner,Rajasthan,28.0229,73.3119,23.5,41,0.0,986.0,6.85,20.9,52,122.5,25.0,0,5,7,0,2026-03-10T03:06:33.015838+05:30
Ajmer,Rajasthan,26.4499,74.6399,22.4,33,0.0,958.5,7.15,23.0,52,34.0,15.3,0,5,7,0,2026-03-10T03:06:33.015843+05:30
Gwalior,Madhya Pradesh,26.2183,78.1828,21.9,73,0.0,987.3,6.75,22.3,80,119.7,39.8,3,5,7,1,2026-03-10T03:06:33.015849+05:30
Indore,Madhya Pradesh,22.7196,75.8577,19.5,50,0.0,950.3,7.7,21.6,75,39.3,29.6,0,5,7,0,2026-03-10T03:06:33.015855+05:30
Bhopal,Madhya Pradesh,23.2599,77.4126,20.9,47,0.0,956.2,7.55,19.4,71,53.1,35.5,0,5,7,0,2026-03-10T03:06:33.015860+05:30
Jabalpur,Madhya Pradesh,23.1815,79.9864,21.0,66,0.0,964.5,7.65,23.4,94,57.5,37.3,3,5,7,0,2026-03-10T03:06:33.015866+05:30
Ujjain,Madhya Pradesh,23.1765,75.7885,21.5,46,0.0,956.4,7.55,20.2,92,56.5,49.6,0,5,7,0,2026-03-10T03:06:33.015873+05:30
Visakhapatnam,Andhra Pradesh,17.6868,83.2185,24.3,89,0.0,1008.0,8.55,34.6,111,59.0,47.3,3,0,4,1,2026-03-10T03:06:33.015879+05:30
Vijayawada,Andhra Pradesh,16.5062,80.648,23.9,88,0.0,1006.4,8.6,22.3,107,52.5,44.0,3,5,4,1,2026-03-10T03:06:33.015885+05:30
Guntur,Andhra Pradesh,16.3067,80.4365,23.4,91,0.0,1007.5,8.6,24.1,101,47.8,40.7,3,5,4,1,2026-03-10T03:06:33.015891+05:30
Nellore,Andhra Pradesh,14.4426,79.9865,24.3,86,0.0,1009.2,8.85,28.1,85,34.6,25.8,3,0,4,1,2026-03-10T03:06:33.015898+05:30
Kurnool,Andhra Pradesh,15.8281,78.0373,24.7,78,0.0,979.1,8.65,31.3,94,38.2,33.3,3,5,7,1,2026-03-10T03:06:33.015905+05:30
Kakinada,Andhra Pradesh,16.9891,82.2475,22.4,92,0.0,1011.6,8.55,25.6,100,54.4,40.0,3,0,4,1,2026-03-10T03:06:33.015911+05:30
Tirupati,Andhra Pradesh,13.6288,79.4192,21.4,86,0.0,994.7,8.95,31.0,109,68.9,57.7,3,5,7,1,2026-03-10T03:06:33.015916+05:30
Warangal,Telangana,17.9689,79.5941,24.0,92,0.0,981.5,8.45,27.0,111,42.3,39.1,3,5,7,1,2026-03-10T03:06:33.015922+05:30
Nizamabad,Telangana,18.6725,78.0941,23.4,74,0.0,966.6,8.3,28.4,122,45.2,41.7,3,5,7,1,2026-03-10T03:06:33.015928+05:30
Mysore,Karnataka,12.2958,76.6396,21.4,75,0.0,928.7,9.25,35.6,116,41.0,36.4,3,5,7,1,2026-03-10T03:06:33.015934+05:30
Mangalore,Karnataka,12.9141,74.856,28.8,83,0.0,1006.8,8.9,27.7,115,37.0,33.1,7,5,4,1,2026-03-10T03:06:33.015940+05:30
Hubli-Dharwad,Karnataka,15.3647,75.124,24.1,56,0.0,941.3,8.8,46.4,90,41.6,36.7,0,5,7,0,2026-03-10T03:06:33.015945+05:30
Belgaum,Karnataka,15.8497,74.4977,21.8,48,0.0,925.9,8.85,44.6,101,44.5,37.4,0,5,7,0,2026-03-10T03:06:36.242026+05:30
Coimbatore,Tamil Nadu,11.0168,76.9558,22.8,68,0.0,963.2,9.25,43.9,106,46.7,41.8,3,5,7,1,2026-03-10T03:06:36.242052+05:30
Madurai,Tamil Nadu,9.9252,78.1198,23.4,79,0.0,995.0,9.2,35.3,101,53.7,45.8,3,5,7,1,2026-03-10T03:06:36.242061+05:30
Trichy,Tamil Nadu,10.7905,78.7047,23.0,90,0.0,1002.1,9.1,35.6,97,43.5,36.3,3,5,4,1,2026-03-10T03:06:36.242068+05:30
Salem,Tamil Nadu,11.6643,78.146,22.5,83,0.0,979.3,9.15,32.8,117,64.0,55.6,3,5,7,1,2026-03-10T03:06:36.242074+05:30
Tirunelveli,Tamil Nadu,8.7139,77.7567,24.8,75,0.0,1005.1,9.2,43.2,94,43.7,35.2,3,5,4,1,2026-03-10T03:06:36.242080+05:30
Vellore,Tamil Nadu,12.9165,79.1325,21.7,87,0.0,987.5,9.05,34.6,120,75.7,64.7,3,5,7,1,2026-03-10T03:06:36.242086+05:30
Erode,Tamil Nadu,11.341,77.7172,23.6,82,0.0,991.1,9.15,27.4,92,48.8,42.3,3,5,7,1,2026-03-10T03:06:36.242092+05:30
Kochi,Kerala,9.9312,76.2673,26.6,84,0.0,1009.3,9.05,38.9,124,53.4,51.5,7,0,4,1,2026-03-10T03:06:36.242098+05:30
Thiruvananthapuram,Kerala,8.5241,76.9366,27.9,79,0.0,1008.0,9.1,27.0,104,39.8,31.4,7,0,4,1,2026-03-10T03:06:36.242104+05:30
Kozhikode,Kerala,11.2588,75.7804,26.1,86,0.0,1008.4,8.95,24.8,95,31.1,28.7,7,0,4,1,2026-03-10T03:06:36.242110+05:30
Thrissur,Kerala,10.5276,76.2144,24.8,87,0.0,1007.7,9.0,35.6,121,52.5,50.2,3,5,4,1,2026-03-10T03:06:36.242116+05:30
Kannur,Kerala,11.8745,75.3704,26.1,84,0.0,1007.6,8.95,34.6,110,32.6,30.7,7,5,4,1,2026-03-10T03:06:36.242122+05:30
Patna,Bihar,25.5941,85.1376,23.6,86,0.0,1006.1,7.4,26.3,185,115.7,110.8,3,5,4,1,2026-03-10T03:06:36.242128+05:30
Gaya,Bihar,24.7914,85.0002,22.2,94,0.0,998.9,7.5,17.6,183,112.7,105.7,3,5,7,1,2026-03-10T03:06:36.242134+05:30
Muzaffarpur,Bihar,26.1209,85.3647,22.2,93,0.0,1006.1,7.35,22.0,186,116.6,111.1,3,5,4,1,2026-03-10T03:06:36.242139+05:30
Bhagalpur,Bihar,25.2425,87.0117,23.6,86,0.0,1006.8,7.4,20.2,174,106.9,97.3,3,5,4,1,2026-03-10T03:06:36.242145+05:30
Ranchi,Jharkhand,23.3441,85.3096,19.9,96,0.0,941.8,8.15,20.9,166,71.0,64.7,3,10,7,1,2026-03-10T03:06:36.242150+05:30
Jamshedpur,Jharkhand,22.8046,86.2029,23.1,88,0.0,996.2,8.05,16.9,157,33.9,30.7,3,5,7,1,2026-03-10T03:06:36.242156+05:30
Dhanbad,Jharkhand,23.7957,86.4304,21.8,83,0.0,984.7,7.9,17.6,174,80.3,73.6,3,5,7,1,2026-03-10T03:06:36.242161+05:30
Bokaro,Jharkhand,23.6693,86.1511,21.1,90,0.0,989.0,7.95,19.8,178,106.4,96.9,3,5,7,1,2026-03-10T03:06:36.242166+05:30
Bhubaneswar,Odisha,20.2961,85.8245,24.5,87,0.0,1006.9,8.35,30.2,92,41.3,36.0,3,5,4,1,2026-03-10T03:06:36.242172+05:30
Cuttack,Odisha,20.4625,85.8828,24.8,86,0.0,1008.8,8.4,27.7,92,41.3,36.0,3,0,4,1,2026-03-10T03:06:36.242177+05:30
Rourkela,Odisha,22.2604,84.8536,24.2,78,0.0,989.5,7.95,27.0,163,84.5,77.5,3,5,7,1,2026-03-10T03:06:36.242183+05:30
Raipur,Chhattisgarh,21.2514,81.6296,23.5,56,0.0,977.1,8.05,18.4,164,108.5,92.0,0,5,7,0,2026-03-10T03:06:36.242188+05:30
Bhilai,Chhattisgarh,21.1938,81.3509,22.0,64,0.0,977.3,8.05,16.6,157,95.0,78.5,3,5,7,0,2026-03-10T03:06:36.242194+05:30
Guwahati,Assam,26.1158,91.7086,23.4,78,0.0,1007.5,7.3,11.5,154,70.3,65.0,3,5,4,1,2026-03-10T03:06:36.242199+05:30
Agartala,Tripura,23.8315,91.2868,22.2,85,0.0,1011.6,7.7,16.2,163,109.9,101.0,3,0,4,1,2026-03-10T03:06:36.242205+05:30
Shillong,Meghalaya,25.5788,91.8933,11.1,84,0.0,858.8,5.25,20.2,155,77.3,70.3,3,10,3,0,2026-03-10T03:06:36.242210+05:30
Imphal,Manipur,24.817,93.9368,15.1,91,0.0,927.5,7.95,34.2,163,118.7,114.1,3,10,7,0,2026-03-10T03:06:36.242216+05:30
Aizawl,Mizoram,23.7271,92.7176,15.0,87,0.0,895.4,7.6,28.4,165,86.8,81.3,3,10,7,0,2026-03-10T03:06:36.242221+05:30
Kohima,Nagaland,25.6701,94.1077,14.2,76,0.0,858.4,7.05,42.1,155,65.4,61.2,3,5,7,0,2026-03-10T03:06:36.242227+05:30
Gangtok,Sikkim,27.3314,88.6138,13.1,69,0.0,840.7,5.2,18.0,158,49.4,40.3,3,5,3,0,2026-03-10T03:06:36.242232+05:30
Siliguri,West Bengal,26.7271,88.3953,20.6,61,0.0,1000.3,7.35,23.8,166,130.4,105.5,3,5,4,0,2026-03-10T03:06:39.473763+05:30
Durgapur,West Bengal,23.5204,87.3119,22.6,92,0.0,1000.6,7.85,15.5,164,78.7,71.0,3,5,4,1,2026-03-10T03:06:39.473788+05:30
Asansol,West Bengal,23.6739,86.9524,23.0,90,0.0,999.1,7.9,16.6,165,68.5,61.7,3,5,7,1,2026-03-10T03:06:39.473797+05:30
Pondicherry,Puducherry,11.9139,79.8145,23.7,87,0.0,1011.0,8.95,36.0,86,30.6,22.9,3,0,4,1,2026-03-10T03:06:39.473804+05:30
Port Blair,Andaman and Nicobar Islands,11.6234,92.7265,27.6,80,0.0,1008.3,8.9,34.2,85,31.0,26.6,7,0,4,1,2026-03-10T03:06:39.473810+05:30
Haridwar,Uttarakhand,29.9457,78.1642,21.3,93,0.0,979.0,5.85,20.5,154,61.5,55.2,3,5,3,1,2026-03-10T03:06:39.473816+05:30
Rishikesh,Uttarakhand,30.0869,78.2676,21.0,83,0.0,971.8,5.9,22.3,150,77.1,58.6,3,5,3,1,2026-03-10T03:06:39.473822+05:30
Nainital,Uttarakhand,29.3919,79.4542,16.8,86,0.0,809.2,6.75,50.0,161,113.2,80.1,3,10,7,0,2026-03-10T03:06:39.473828+05:30
Mussoorie,Uttarakhand,30.4599,78.0664,15.5,82,0.0,805.7,6.25,34.6,138,66.1,54.4,3,10,7,0,2026-03-10T03:06:39.473834+05:30
Dharamshala,Himachal Pradesh,32.219,76.3234,21.3,37,0.0,873.3,5.9,22.0,48,28.3,13.3,0,5,3,0,2026-03-10T03:06:39.473840+05:30
Dalhousie,Himachal Pradesh,32.5387,75.971,17.9,41,0.0,807.3,5.8,21.6,77,39.7,31.5,0,5,3,0,2026-03-10T03:06:39.473846+05:30
Patiala,Punjab,30.3398,76.3869,20.4,89,0.0,982.5,5.9,14.4,165,183.5,118.7,3,5,3,1,2026-03-10T03:06:39.473852+05:30
Bhatinda,Punjab,30.211,74.9455,21.5,81,0.0,987.6,6.5,15.8,157,126.2,104.5,3,5,7,1,2026-03-10T03:06:39.473857+05:30
Rohtak,Haryana,28.8955,76.6066,19.7,91,0.0,986.0,6.05,16.2,204,603.5,148.1,3,10,7,1,2026-03-10T03:06:39.473863+05:30
Panipat,Haryana,29.3909,76.9635,19.3,100,0.0,984.5,5.9,16.6,520,529.0,152.3,3,10,3,1,2026-03-10T03:06:39.473869+05:30
Mathura,Uttar Pradesh,27.4924,77.6737,19.6,86,0.0,991.1,6.35,19.1,159,239.3,95.9,3,10,7,1,2026-03-10T03:06:39.473874+05:30
Vrindavan,Uttar Pradesh,27.5823,77.7027,18.4,93,0.0,991.6,6.3,19.4,159,239.3,95.9,3,10,7,1,2026-03-10T03:06:39.473880+05:30
Ayodhya,Uttar Pradesh,26.7922,82.1998,22.8,91,0.0,1000.7,6.75,21.2,196,142.5,134.1,3,5,4,1,2026-03-10T03:06:39.473885+05:30
Ratlam,Madhya Pradesh,23.3315,75.0367,17.4,80,0.0,957.0,7.55,17.3,77,41.2,38.0,3,5,7,0,2026-03-10T03:06:39.473892+05:30
Sagar,Madhya Pradesh,23.8388,78.7378,20.8,53,0.0,952.9,7.5,18.4,59,34.2,18.2,0,5,7,0,2026-03-10T03:06:39.473897+05:30
Satna,Madhya Pradesh,24.6005,80.8322,21.8,77,0.0,975.3,7.5,25.9,119,103.4,46.0,3,5,7,1,2026-03-10T03:06:39.473903+05:30
Akola,Maharashtra,20.7002,77.0082,22.7,67,0.0,977.0,8.0,19.8,65,35.6,30.7,3,5,7,1,2026-03-10T03:06:39.473909+05:30
Amravati,Maharashtra,20.9374,77.7796,20.6,71,0.0,969.1,7.95,19.8,65,38.9,32.9,3,5,7,0,2026-03-10T03:06:39.473916+05:30
Latur,Maharashtra,18.4088,76.5604,21.5,60,0.0,941.1,8.4,27.4,90,47.8,39.2,0,5,7,0,2026-03-10T03:06:39.473922+05:30
Nanded,Maharashtra,19.1383,77.3091,23.6,56,0.0,970.1,8.2,20.5,86,62.4,51.2,0,5,7,0,2026-03-10T03:06:39.473928+05:30
Gulbarga,Karnataka,17.3297,76.8343,24.0,63,0.0,960.7,8.5,31.0,89,38.8,35.5,3,5,7,1,2026-03-10T03:06:39.473934+05:30
Bidar,Karnataka,17.9104,77.5199,21.6,76,0.0,937.0,8.45,31.7,108,45.1,41.2,3,5,7,1,2026-03-10T03:06:39.473939+05:30
Hospet,Karnataka,15.2689,76.3909,25.3,67,0.0,957.1,8.8,36.4,95,41.9,38.3,7,5,7,1,2026-03-10T03:06:39.473945+05:30
Tirupur,Tamil Nadu,11.1085,77.3411,23.4,74,0.0,977.2,9.25,38.9,98,52.3,45.9,3,5,7,1,2026-03-10T03:06:39.473950+05:30
Alappuzha,Kerala,9.4981,76.3388,27.1,82,0.0,1009.2,9.05,32.4,118,43.1,39.8,7,0,4,1,2026-03-10T03:06:39.473956+05:30
Munnar,Kerala,10.0889,77.0595,17.4,78,0.0,855.1,9.55,29.2,95,46.3,40.3,3,5,7,0,2026-03-10T03:06:39.473962+05:30
Silchar,Assam,24.8333,92.7789,21.9,89,0.0,1010.6,7.65,11.5,173,146.7,137.4,3,0,4,1,2026-03-10T03:06:39.473967+05:30
Dibrugarh,Assam,27.4728,94.912,23.0,85,0.0,1001.4,7.4,18.4,162,67.3,60.8,3,5,4,1,2026-03-10T03:06:39.473973+05:30
