city,state,latitude,longitude,temp,humidity,rain,pressure,uv_index,wind_gusts,aqi,pm10,pm2_5,mosquito_risk,arthritis_risk,migraine_risk,frizz_risk,updated_at
Delhi,Delhi,28.6139,77.209,33.5,32,0.0,984.5,6.15,32.8,194,384.6,65.7,0,5,7,0,2026-03-12T12:30:42.034518+05:30
Mumbai,Maharashtra,19.076,72.8777,27.4,88,0.0,1009.7,7.6,26.6,157,121.5,116.9,7,0,4,1,2026-03-12T12:30:42.034550+05:30
Bangalore,Karnataka,12.9716,77.5946,31.4,25,0.0,914.1,9.3,31.7,68,18.5,14.8,0,5,7,0,2026-03-12T12:30:42.034570+05:30
Hyderabad,Telangana,17.385,78.4867,35.7,20,0.0,955.8,8.65,23.0,101,33.9,23.7,0,5,10,0,2026-03-12T12:30:42.034578+05:30
Chennai,Tamil Nadu,13.0827,80.2707,33.3,51,0.0,1009.3,9.0,29.2,74,31.0,26.4,0,0,4,1,2026-03-12T12:30:42.034586+05:30
Kolkata,West Bengal,22.5726,88.3639,29.7,66,0.0,1007.4,8.0,20.9,131,74.0,62.4,7,5,4,1,2026-03-12T12:30:42.034594+05:30
Pune,Maharashtra,18.5204,73.8567,37.4,17,0.0,950.9,8.15,25.9,147,33.1,28.3,0,5,10,0,2026-03-12T12:30:42.034622+05:30
Ahmedabad,Gujarat,23.0225,72.5714,37.5,18,0.0,1005.0,7.45,28.4,70,19.2,15.5,0,5,7,0,2026-03-12T12:30:42.034629+05:30
Jaipur,Rajasthan,26.9124,75.7873,33.4,15,0.0,962.6,5.95,43.2,104,201.2,25.7,0,5,3,0,2026-03-12T12:30:42.034635+05:30
Lucknow,Uttar Pradesh,26.8467,80.9462,33.1,37,0.0,994.7,6.5,27.7,154,294.3,63.6,0,5,7,1,2026-03-12T12:30:42.034642+05:30
Kanpur,Uttar Pradesh,26.4499,80.3319,33.2,50,0.0,993.0,5.9,22.0,175,217.0,39.9,0,5,3,1,2026-03-12T12:30:42.034648+05:30
Chandigarh,Chandigarh,30.7333,76.7794,29.6,43,0.0,970.6,6.05,32.0,100,49.4,20.7,4,5,7,0,2026-03-12T12:30:42.034654+05:30
Srinagar,Jammu and Kashmir,34.0837,74.7973,13.8,73,0.0,842.4,6.35,24.8,103,4.9,4.8,3,5,7,0,2026-03-12T12:30:42.034660+05:30
Jammu,Jammu and Kashmir,32.7266,74.857,27.3,53,0.0,975.7,6.35,39.6,80,58.8,27.8,4,5,7,1,2026-03-12T12:30:42.034666+05:30
Amritsar,Punjab,31.634,74.8723,25.3,65,0.0,983.8,6.65,32.4,157,78.5,45.9,7,5,7,1,2026-03-12T12:30:42.034672+05:30
Ludhiana,Punjab,30.901,75.8573,27.9,54,0.0,981.1,6.2,59.4,159,39.6,28.9,4,5,7,1,2026-03-12T12:30:42.034677+05:30
Jalandhar,Punjab,31.326,75.5762,27.4,57,0.0,982.4,6.45,31.7,153,89.4,37.7,4,5,7,1,2026-03-12T12:30:42.034685+05:30
Dehradun,Uttarakhand,30.6284,78.0322,22.6,36,0.0,833.7,5.7,37.4,58,43.2,13.2,0,5,3,0,2026-03-12T12:30:42.034691+05:30
Shimla,Himachal Pradesh,31.1048,77.1734,19.8,43,0.0,788.7,6.5,42.1,70,46.3,13.7,0,5,7,0,2026-03-12T12:30:42.034697+05:30
Manali,Himachal Pradesh,32.2396,77.1887,12.4,97,0.4,821.0,4.0,44.3,46,8.9,3.1,6,10,3,0,2026-03-12T12:30:42.034703+05:30
Gurgaon,Haryana,28.4595,77.0266,33.8,30,0.0,983.0,6.15,34.2,839,1624.2,173.2,0,5,7,0,2026-03-12T12:30:42.034708+05:30
Noida,Uttar Pradesh,28.5355,77.391,34.4,28,0.0,985.9,6.05,32.0,839,1624.2,173.2,0,5,7,0,2026-03-12T12:30:42.034714+05:30
Ghaziabad,Uttar Pradesh,28.6692,77.4538,32.6,38,0.0,984.1,6.1,28.1,156,295.2,62.4,0,5,7,1,2026-03-12T12:30:42.034719+05:30
Faridabad,Haryana,28.4089,77.3178,34.5,28,0.0,985.2,6.2,32.0,839,1624.2,173.2,0,5,7,0,2026-03-12T12:30:42.034725+05:30
Meerut,Uttar Pradesh,28.9845,77.7064,32.4,39,0.0,983.0,6.0,24.1,156,295.2,62.4,0,5,3,1,2026-03-12T12:30:42.034730+05:30
Agra,Uttar Pradesh,27.1767,78.0081,37.4,18,0.0,989.1,6.15,32.4,455,968.6,101.0,0,5,10,0,2026-03-12T12:30:42.034736+05:30
Varanasi,Uttar Pradesh,25.3176,82.9739,33.8,38,0.0,998.7,7.3,26.6,153,194.6,44.9,0,5,7,1,2026-03-12T12:30:42.034745+05:30
Prayagraj,Uttar Pradesh,25.4358,81.8463,34.6,34,0.0,996.9,6.6,25.6,152,182.1,41.4,0,5,7,1,2026-03-12T12:30:42.034753+05:30
Gorakhpur,Uttar Pradesh,26.7606,83.3732,31.7,55,0.0,998.1,7.0,21.6,231,178.8,111.1,0,5,7,1,2026-03-12T12:30:42.034759+05:30
Bareilly,Uttar Pradesh,28.367,79.4304,30.5,51,0.0,988.3,6.25,23.8,134,62.6,43.9,0,5,7,1,2026-03-12T12:30:42.034765+05:30
Aligarh,Uttar Pradesh,27.8974,78.088,35.4,28,0.0,987.0,5.95,33.1,482,681.7,92.2,0,5,6,0,2026-03-12T12:30:42.034770+05:30
Moradabad,Uttar Pradesh,28.8386,78.7733,32.2,42,0.0,985.2,6.05,27.0,128,79.4,53.0,0,5,7,1,2026-03-12T12:30:42.034776+05:30
Saharanpur,Uttar Pradesh,29.9637,77.546,29.6,49,0.0,977.5,5.3,31.7,149,71.9,47.0,4,5,3,1,2026-03-12T12:30:42.034782+05:30
Jhansi,Uttar Pradesh,25.4484,78.5685,37.7,14,0.0,979.7,6.65,31.3,61,28.7,9.6,0,5,10,0,2026-03-12T12:30:45.252189+05:30
Surat,Gujarat,21.1702,72.8311,36.8,23,0.0,1008.7,7.3,26.6,150,47.1,46.0,0,0,7,0,2026-03-12T12:30:45.252213+05:30
Vadodara,Gujarat,22.3072,73.1812,39.1,17,0.0,1006.8,7.45,24.5,77,22.1,20.8,0,5,7,0,2026-03-12T12:30:45.252225+05:30
Rajkot,Gujarat,22.3039,70.8022,34.6,24,0.0,997.6,7.3,29.9,58,38.8,17.6,0,5,7,0,2026-03-12T12:30:45.252234+05:30
Thane,Maharashtra,19.2183,72.9781,35.9,39,0.0,1009.2,7.6,39.6,157,121.5,116.9,0,0,7,1,2026-03-12T12:30:45.252243+05:30
Nagpur,Maharashtra,21.1458,79.0882,36.4,21,0.0,975.4,8.0,15.8,90,39.8,17.5,0,5,10,0,2026-03-12T12:30:45.252251+05:30
Nashik,Maharashtra,19.9975,73.7898,36.0,17,0.0,948.4,7.8,25.2,107,15.7,12.6,0,5,10,0,2026-03-12T12:30:45.252259+05:30
Aurangabad,Maharashtra,19.8762,75.3433,36.2,17,0.0,946.8,8.35,20.5,97,22.5,16.8,0,5,10,0,2026-03-12T12:30:45.252273+05:30
Solapur,Maharashtra,17.6599,75.9064,34.4,33,0.0,959.6,8.5,17.6,104,37.5,29.6,0,5,7,0,2026-03-12T12:30:45.252281+05:30
Kolhapur,Maharashtra,16.705,74.2433,34.3,30,0.0,950.5,8.65,25.9,152,37.4,30.0,0,5,7,0,2026-03-12T12:30:45.252288+05:30
Goa,Goa,15.2993,74.124,32.0,63,0.0,999.6,8.7,34.9,149,51.7,45.1,3,5,7,1,2026-03-12T12:30:45.252296+05:30
Jodhpur,Rajasthan,26.2389,73.0243,34.4,24,0.0,986.2,6.65,27.0,68,77.3,20.0,0,5,7,0,2026-03-12T12:30:45.252303+05:30
Udaipur,Rajasthan,24.5854,73.7125,34.2,8,0.0,950.4,7.5,38.9,51,10.2,9.3,0,5,7,1,2026-03-12T12:30:45.252311+05:30
Kota,Rajasthan,25.2138,75.8648,36.9,12,0.0,981.5,6.75,34.6,77,12.0,10.8,0,5,10,0,2026-03-12T12:30:45.252318+05:30
Bikaner,Rajasthan,28.0229,73.3119,32.7,29,0.0,984.3,6.2,22.7,90,75.4,26.1,0,5,7,0,2026-03-12T12:30:45.252326+05:30
Ajmer,Rajasthan,26.4499,74.6399,32.2,23,0.0,957.9,6.7,36.0,56,19.7,9.1,0,5,7,0,2026-03-12T12:30:45.252333+05:30
Gwalior,Madhya Pradesh,26.2183,78.1828,35.5,18,0.0,985.2,6.25,37.8,66,65.9,16.9,0,5,10,0,2026-03-12T12:30:45.252340+05:30
Indore,Madhya Pradesh,22.7196,75.8577,35.2,18,0.0,951.5,7.75,28.1,73,25.2,13.5,0,5,10,0,2026-03-12T12:30:45.252347+05:30
Bhopal,Madhya Pradesh,23.2599,77.4126,35.6,20,0.0,956.7,7.6,29.5,63,19.2,11.8,0,5,10,0,2026-03-12T12:30:45.252354+05:30
Jabalpur,Madhya Pradesh,23.1815,79.9864,35.0,21,0.0,964.0,7.65,21.2,90,38.6,12.6,0,5,7,0,2026-03-12T12:30:45.252361+05:30
Ujjain,Madhya Pradesh,23.1765,75.7885,34.3,24,0.0,957.2,7.65,27.7,95,23.1,15.7,0,5,7,0,2026-03-12T12:30:45.252369+05:30
Visakhapatnam,Andhra Pradesh,17.6868,83.2185,34.9,40,0.0,1004.9,8.65,37.1,86,38.8,34.1,0,5,4,1,2026-03-12T12:30:45.252377+05:30
Vijayawada,Andhra Pradesh,16.5062,80.648,35.9,32,0.0,1004.1,8.7,29.2,69,25.8,22.4,0,5,7,1,2026-03-12T12:30:45.252384+05:30
Guntur,Andhra Pradesh,16.3067,80.4365,36.1,31,0.0,1005.4,8.7,30.6,66,24.9,20.8,0,5,7,1,2026-03-12T12:30:45.252391+05:30
Nellore,Andhra Pradesh,14.4426,79.9865,35.8,35,0.0,1007.4,8.9,26.6,65,31.4,27.2,0,5,7,1,2026-03-12T12:30:45.252400+05:30
Kurnool,Andhra Pradesh,15.8281,78.0373,36.9,20,0.0,979.0,8.65,25.2,73,28.2,20.8,0,5,10,0,2026-03-12T12:30:45.252407+05:30
Kakinada,Andhra Pradesh,16.9891,82.2475,36.6,33,0.0,1008.4,8.65,37.1,70,29.4,24.8,0,0,7,1,2026-03-12T12:30:45.252415+05:30
Tirupati,Andhra Pradesh,13.6288,79.4192,34.8,30,0.0,993.4,9.05,34.9,88,25.8,23.5,0,5,7,0,2026-03-12T12:30:45.252421+05:30
Warangal,Telangana,17.9689,79.5941,35.2,32,0.0,980.8,8.45,14.0,104,41.3,34.7,0,5,10,0,2026-03-12T12:30:45.252428+05:30
Nizamabad,Telangana,18.6725,78.0941,35.3,30,0.0,967.2,8.35,20.2,110,36.4,30.4,0,5,10,0,2026-03-12T12:30:45.252436+05:30
Mysore,Karnataka,12.2958,76.6396,31.5,30,0.0,930.5,9.3,33.5,64,13.9,11.9,0,5,7,0,2026-03-12T12:30:45.252443+05:30
Mangalore,Karnataka,12.9141,74.856,28.5,85,0.0,1006.9,8.95,33.8,101,43.0,37.1,7,5,4,1,2026-03-12T12:30:45.252450+05:30
Hubli-Dharwad,Karnataka,15.3647,75.124,34.8,23,0.0,943.2,8.85,34.9,68,22.7,18.6,0,5,7,0,2026-03-12T12:30:45.252458+05:30
Belgaum,Karnataka,15.8497,74.4977,34.1,22,0.0,928.5,8.9,37.8,111,26.5,21.7,0,5,7,0,2026-03-12T12:30:48.483788+05:30
Coimbatore,Tamil Nadu,11.0168,76.9558,32.3,41,0.0,963.3,9.3,45.4,75,16.2,14.7,0,5,7,1,2026-03-12T12:30:48.483808+05:30
Madurai,Tamil Nadu,9.9252,78.1198,34.4,39,0.0,993.9,9.2,33.1,72,20.8,18.0,0,5,7,1,2026-03-12T12:30:48.483817+05:30
Trichy,Tamil Nadu,10.7905,78.7047,33.3,47,0.0,1001.2,9.15,27.0,78,27.9,25.6,0,5,4,1,2026-03-12T12:30:48.483824+05:30
Salem,Tamil Nadu,11.6643,78.146,32.7,46,0.0,979.0,9.2,28.8,74,25.1,23.2,0,5,7,1,2026-03-12T12:30:48.483830+05:30
Tirunelveli,Tamil Nadu,8.7139,77.7567,34.4,41,0.0,1004.0,8.3,34.6,62,16.3,14.0,0,5,4,1,2026-03-12T12:30:48.483836+05:30
Vellore,Tamil Nadu,12.9165,79.1325,34.1,32,0.0,986.5,9.1,34.9,94,21.6,19.6,0,5,7,0,2026-03-12T12:30:48.483842+05:30
Erode,Tamil Nadu,11.341,77.7172,33.6,45,0.0,990.6,9.2,22.7,74,26.7,24.6,0,5,7,1,2026-03-12T12:30:48.483848+05:30
Kochi,Kerala,9.9312,76.2673,28.3,80,0.0,1009.1,9.05,33.8,95,31.2,29.1,7,0,4,1,2026-03-12T12:30:48.483855+05:30
Thiruvananthapuram,Kerala,8.5241,76.9366,28.0,79,0.0,1008.5,8.95,25.9,71,18.7,17.2,7,0,4,1,2026-03-12T12:30:48.483861+05:30
Kozhikode,Kerala,11.2588,75.7804,30.4,71,0.0,1008.0,9.0,31.3,99,45.1,41.0,3,0,4,1,2026-03-12T12:30:48.483867+05:30
Thrissur,Kerala,10.5276,76.2144,36.2,40,0.0,1006.8,9.05,39.6,98,20.5,19.0,0,5,7,1,2026-03-12T12:30:48.483874+05:30
Kannur,Kerala,11.8745,75.3704,31.5,62,0.0,1007.5,9.0,31.7,102,32.9,29.6,3,5,4,1,2026-03-12T12:30:48.483880+05:30
Patna,Bihar,25.5941,85.1376,32.8,47,0.0,1001.5,7.45,24.1,237,167.2,138.8,0,5,4,1,2026-03-12T12:30:48.483885+05:30
Gaya,Bihar,24.7914,85.0002,33.2,39,0.0,995.2,7.6,22.7,194,158.8,65.7,0,5,7,1,2026-03-12T12:30:48.483891+05:30
Muzaffarpur,Bihar,26.1209,85.3647,31.4,54,0.0,1001.7,7.45,25.6,242,181.6,154.6,0,5,4,1,2026-03-12T12:30:48.483897+05:30
Bhagalpur,Bihar,25.2425,87.0117,29.3,66,0.0,1002.9,7.5,33.5,186,96.4,87.8,7,5,4,1,2026-03-12T12:30:48.483903+05:30
Ranchi,Jharkhand,23.3441,85.3096,31.4,28,0.0,939.9,8.2,35.6,167,147.1,37.0,0,5,7,0,2026-03-12T12:30:48.483908+05:30
Jamshedpur,Jharkhand,22.8046,86.2029,33.0,41,0.0,991.9,8.1,19.8,170,112.0,75.9,0,5,7,1,2026-03-12T12:30:48.483914+05:30
Dhanbad,Jharkhand,23.7957,86.4304,32.9,34,0.0,981.1,8.0,21.6,199,129.0,91.3,0,5,7,0,2026-03-12T12:30:48.483920+05:30
Bokaro,Jharkhand,23.6693,86.1511,32.8,36,0.0,985.2,8.0,24.1,192,128.1,72.4,0,5,7,0,2026-03-12T12:30:48.483926+05:30
Bhubaneswar,Odisha,20.2961,85.8245,34.0,52,0.0,1003.4,8.35,31.0,103,72.2,59.5,0,5,4,1,2026-03-12T12:30:48.483931+05:30
Cuttack,Odisha,20.4625,85.8828,34.5,51,0.0,1005.3,8.35,30.2,103,72.2,59.5,0,5,4,1,2026-03-12T12:30:48.483937+05:30
Rourkela,Odisha,22.2604,84.8536,33.4,39,0.0,986.6,8.0,16.9,159,173.2,44.5,0,5,7,1,2026-03-12T12:30:48.483943+05:30
Raipur,Chhattisgarh,21.2514,81.6296,35.9,21,0.0,976.9,8.1,15.5,165,61.0,30.4,0,5,10,0,2026-03-12T12:30:48.483948+05:30
Bhilai,Chhattisgarh,21.1938,81.3509,36.3,22,0.0,977.3,8.1,13.7,159,61.2,30.4,0,5,10,0,2026-03-12T12:30:48.483954+05:30
Guwahati,Assam,26.1158,91.7086,28.1,66,0.0,1003.7,7.05,24.1,153,72.9,66.4,7,5,4,1,2026-03-12T12:30:48.483961+05:30
Agartala,Tripura,23.8315,91.2868,27.9,72,0.0,1008.4,7.7,19.1,162,70.3,58.1,7,0,4,1,2026-03-12T12:30:48.483967+05:30
Shillong,Meghalaya,25.5788,91.8933,18.2,62,0.0,858.5,6.65,26.3,125,64.7,57.0,3,5,7,0,2026-03-12T12:30:48.483973+05:30
Imphal,Manipur,24.817,93.9368,23.0,67,0.0,925.1,8.0,31.0,171,65.9,59.6,3,5,7,1,2026-03-12T12:30:48.483979+05:30
Aizawl,Mizoram,23.7271,92.7176,24.6,54,0.0,895.2,7.9,36.4,189,103.4,89.4,0,5,7,0,2026-03-12T12:30:48.483985+05:30
Kohima,Nagaland,25.6701,94.1077,18.2,84,0.0,857.1,7.1,47.5,152,60.1,54.6,3,10,7,0,2026-03-12T12:30:48.483990+05:30
Gangtok,Sikkim,27.3314,88.6138,21.7,59,0.0,840.2,7.15,22.3,137,49.5,45.1,0,5,7,0,2026-03-12T12:30:48.483996+05:30
Siliguri,West Bengal,26.7271,88.3953,25.1,73,0.0,995.8,7.35,23.8,177,78.0,70.3,7,5,7,1,2026-03-12T12:30:51.791869+05:30
Durgapur,West Bengal,23.5204,87.3119,32.0,51,0.0,996.1,7.8,25.6,186,85.7,74.7,0,5,7,1,2026-03-12T12:30:51.791894+05:30
Asansol,West Bengal,23.6739,86.9524,31.6,53,0.0,994.7,7.35,26.3,187,133.2,105.9,0,5,7,1,2026-03-12T12:30:51.791909+05:30
Pondicherry,Puducherry,11.9139,79.8145,33.8,50,0.0,1009.9,9.0,28.4,70,26.0,21.5,0,0,4,1,2026-03-12T12:30:51.791918+05:30
Port Blair,Andaman and Nicobar Islands,11.6234,92.7265,29.0,69,0.0,1007.3,8.95,21.6,46,15.9,12.7,7,5,4,1,2026-03-12T12:30:51.791927+05:30
Haridwar,Uttarakhand,29.9457,78.1642,31.1,45,0.0,975.8,5.25,29.9,100,58.8,38.5,0,5,3,1,2026-03-12T12:30:51.791935+05:30
Rishikesh,Uttarakhand,30.0869,78.2676,31.3,37,0.0,968.5,5.4,26.6,80,54.0,25.0,0,5,3,0,2026-03-12T12:30:51.791943+05:30
Nainital,Uttarakhand,29.3919,79.4542,24.6,52,0.0,810.3,6.5,55.1,89,51.3,26.0,0,5,7,0,2026-03-12T12:30:51.791949+05:30
Mussoorie,Uttarakhand,30.4599,78.0664,23.0,36,0.0,806.7,5.95,45.7,85,58.4,22.6,0,5,3,0,2026-03-12T12:30:51.791955+05:30
Dharamshala,Himachal Pradesh,32.219,76.3234,22.8,46,0.0,871.9,6.55,36.4,55,26.8,9.7,0,5,7,0,2026-03-12T12:30:51.791961+05:30
Dalhousie,Himachal Pradesh,32.5387,75.971,20.9,44,0.0,806.9,5.95,36.0,83,44.0,18.2,0,5,3,0,2026-03-12T12:30:51.791967+05:30
Patiala,Punjab,30.3398,76.3869,28.9,53,0.0,980.4,5.75,31.0,160,571.8,77.5,4,5,3,1,2026-03-12T12:30:51.791973+05:30
Bhatinda,Punjab,30.211,74.9455,30.2,54,0.0,985.6,6.45,27.4,155,93.8,49.4,0,5,7,1,2026-03-12T12:30:51.791979+05:30
Rohtak,Haryana,28.8955,76.6066,31.5,38,0.0,983.6,6.1,27.7,315,521.5,74.5,0,5,7,0,2026-03-12T12:30:51.791985+05:30
Panipat,Haryana,29.3909,76.9635,31.5,42,0.0,982.0,5.45,24.5,438,586.7,80.8,0,5,3,1,2026-03-12T12:30:51.791991+05:30
Mathura,Uttar Pradesh,27.4924,77.6737,37.3,16,0.0,988.1,5.35,35.3,432,700.4,82.4,0,5,6,0,2026-03-12T12:30:51.791997+05:30
Vrindavan,Uttar Pradesh,27.5823,77.7027,36.7,20,0.0,988.6,5.25,36.7,432,700.4,82.4,0,5,6,0,2026-03-12T12:30:51.792003+05:30
Ayodhya,Uttar Pradesh,26.7922,82.1998,32.4,47,0.0,996.3,6.45,30.6,160,228.6,66.1,0,5,7,1,2026-03-12T12:30:51.792009+05:30
Ratlam,Madhya Pradesh,23.3315,75.0367,34.9,18,0.0,958.3,7.6,32.0,83,14.8,12.5,0,5,7,0,2026-03-12T12:30:51.792014+05:30
Sagar,Madhya Pradesh,23.8388,78.7378,35.6,17,0.0,953.0,7.5,27.4,61,25.4,9.7,0,5,10,0,2026-03-12T12:30:51.792020+05:30
Satna,Madhya Pradesh,24.6005,80.8322,37.1,16,0.0,973.0,7.55,33.5,72,31.1,10.4,0,5,10,0,2026-03-12T12:30:51.792026+05:30
Akola,Maharashtra,20.7002,77.0082,37.8,18,0.0,977.5,8.05,20.9,97,28.2,16.7,0,5,10,0,2026-03-12T12:30:51.792032+05:30
Amravati,Maharashtra,20.9374,77.7796,37.9,15,0.0,969.8,8.0,16.9,96,28.9,16.1,0,5,10,0,2026-03-12T12:30:51.792039+05:30
Latur,Maharashtra,18.4088,76.5604,34.1,28,0.0,942.7,8.45,19.1,92,32.1,25.3,0,5,7,0,2026-03-12T12:30:51.792044+05:30
Nanded,Maharashtra,19.1383,77.3091,37.3,22,0.0,970.9,8.25,16.6,97,36.0,29.6,0,5,10,0,2026-03-12T12:30:51.792050+05:30
Gulbarga,Karnataka,17.3297,76.8343,35.9,25,0.0,961.2,8.55,18.0,105,33.2,25.6,0,5,10,0,2026-03-12T12:30:51.792056+05:30
Bidar,Karnataka,17.9104,77.5199,34.6,25,0.0,938.2,8.5,19.1,104,32.9,23.5,0,5,7,0,2026-03-12T12:30:51.792061+05:30
Hospet,Karnataka,15.2689,76.3909,33.9,29,0.0,958.1,8.8,32.4,74,26.7,20.6,0,5,7,0,2026-03-12T12:30:51.792067+05:30
Tirupur,Tamil Nadu,11.1085,77.3411,33.1,42,0.0,976.9,9.3,32.8,80,26.1,24.2,0,5,7,1,2026-03-12T12:30:51.792072+05:30
Alappuzha,Kerala,9.4981,76.3388,28.0,80,0.0,1009.3,8.9,30.6,85,28.6,26.7,7,0,4,1,2026-03-12T12:30:51.792078+05:30
Munnar,Kerala,10.0889,77.0595,30.4,37,0.0,859.7,9.5,20.5,74,15.2,13.5,0,5,7,0,2026-03-12T12:30:51.792084+05:30
Silchar,Assam,24.8333,92.7789,28.4,67,0.0,1007.2,7.7,23.8,185,98.5,85.7,7,5,4,1,2026-03-12T12:30:51.792090+05:30
Dibrugarh,Assam,27.4728,94.912,26.6,66,0.0,997.6,6.3,20.2,156,82.2,74.5,7,5,7,1,2026-03-12T12:30:51.792096+05:30
