city,state,latitude,longitude,temp,humidity,rain,pressure,uv_index,wind_gusts,aqi,pm10,pm2_5,mosquito_risk,arthritis_risk,migraine_risk,frizz_risk,updated_at
Delhi,Delhi,28.6139,77.209,25.3,44,0.0,984.5,6.9,29.2,195,239.3,60.8,4,5,7,0,2026-04-06T21:22:16.362318+05:30
Mumbai,Maharashtra,19.076,72.8777,27.7,70,0.0,1011.2,7.95,24.1,94,28.8,15.0,7,0,4,1,2026-04-06T21:22:16.362356+05:30
Bangalore,Karnataka,12.9716,77.5946,27.4,43,0.0,912.7,9.65,33.1,89,31.0,29.0,4,5,7,0,2026-04-06T21:22:16.362371+05:30
Hyderabad,Telangana,17.385,78.4867,30.4,37,0.0,953.8,9.2,31.3,103,28.1,23.7,0,5,7,0,2026-04-06T21:22:16.362381+05:30
Chennai,Tamil Nadu,13.0827,80.2707,28.5,87,0.0,1008.3,8.7,29.2,103,22.6,17.6,7,0,4,1,2026-04-06T21:22:16.362390+05:30
Kolkata,West Bengal,22.5726,88.3639,26.5,85,0.0,1008.6,8.7,28.1,158,51.0,47.1,7,0,4,1,2026-04-06T21:22:16.362398+05:30
Pune,Maharashtra,18.5204,73.8567,23.3,79,0.0,950.5,8.55,34.6,156,29.0,25.0,3,5,7,1,2026-04-06T21:22:16.362410+05:30
Ahmedabad,Gujarat,23.0225,72.5714,29.8,38,0.0,1003.1,7.95,30.2,88,25.6,15.7,4,5,4,0,2026-04-06T21:22:16.362417+05:30
Jaipur,Rajasthan,26.9124,75.7873,23.3,53,0.0,960.6,7.55,33.1,111,123.4,32.9,0,5,7,0,2026-04-06T21:22:16.362425+05:30
Lucknow,Uttar Pradesh,26.8467,80.9462,26.0,42,0.0,995.4,7.45,35.3,106,155.5,39.7,4,5,7,0,2026-04-06T21:22:16.362432+05:30
Kanpur,Uttar Pradesh,26.4499,80.3319,24.4,54,0.0,993.8,7.45,29.5,130,269.2,53.4,0,5,7,0,2026-04-06T21:22:16.362439+05:30
Chandigarh,Chandigarh,30.7333,76.7794,25.0,43,0.0,969.4,6.9,16.6,103,26.1,23.2,4,5,7,0,2026-04-06T21:22:16.362447+05:30
Srinagar,Jammu and Kashmir,34.0837,74.7973,10.7,83,0.0,838.2,7.9,16.6,93,33.1,29.2,3,10,7,0,2026-04-06T21:22:16.362454+05:30
Jammu,Jammu and Kashmir,32.7266,74.857,23.2,52,0.0,973.0,7.55,19.8,89,46.0,36.3,0,5,7,0,2026-04-06T21:22:16.362461+05:30
Amritsar,Punjab,31.634,74.8723,22.8,56,0.0,981.1,7.5,11.2,115,50.5,44.9,0,5,7,0,2026-04-06T21:22:16.362468+05:30
Ludhiana,Punjab,30.901,75.8573,24.7,39,0.0,979.3,7.1,16.6,100,48.2,42.7,0,5,7,0,2026-04-06T21:22:16.362475+05:30
Jalandhar,Punjab,31.326,75.5762,24.6,47,0.0,980.3,7.25,13.0,90,55.2,43.1,0,5,7,0,2026-04-06T21:22:16.362483+05:30
Dehradun,Uttarakhand,30.6284,78.0322,12.1,73,0.0,829.5,6.65,25.6,99,21.1,12.3,3,5,7,0,2026-04-06T21:22:16.362490+05:30
Shimla,Himachal Pradesh,31.1048,77.1734,11.1,72,0.0,783.1,6.25,27.7,94,18.3,15.0,3,5,7,0,2026-04-06T21:22:16.362497+05:30
Manali,Himachal Pradesh,32.2396,77.1887,11.7,88,0.0,817.8,9.45,28.1,130,15.2,11.8,3,10,7,0,2026-04-06T21:22:16.362504+05:30
Gurgaon,Haryana,28.4595,77.0266,23.9,49,0.0,982.9,7.0,25.9,613,353.0,79.4,0,5,7,0,2026-04-06T21:22:16.362511+05:30
Noida,Uttar Pradesh,28.5355,77.391,25.4,43,0.0,986.1,6.95,29.9,613,353.0,79.4,4,5,7,0,2026-04-06T21:22:16.362517+05:30
Ghaziabad,Uttar Pradesh,28.6692,77.4538,25.4,41,0.0,984.2,6.9,26.3,143,268.2,68.2,4,5,7,0,2026-04-06T21:22:16.362523+05:30
Faridabad,Haryana,28.4089,77.3178,24.6,45,0.0,985.4,6.95,27.4,613,353.0,79.4,0,5,7,0,2026-04-06T21:22:16.362529+05:30
Meerut,Uttar Pradesh,28.9845,77.7064,24.3,49,0.0,982.7,6.8,25.2,143,268.2,68.2,0,5,7,0,2026-04-06T21:22:16.362538+05:30
Agra,Uttar Pradesh,27.1767,78.0081,24.8,56,0.0,989.7,7.3,36.4,301,588.6,81.3,0,5,7,0,2026-04-06T21:22:16.362564+05:30
Varanasi,Uttar Pradesh,25.3176,82.9739,25.2,48,0.0,999.6,7.6,29.9,111,53.6,30.6,4,5,7,0,2026-04-06T21:22:16.362576+05:30
Prayagraj,Uttar Pradesh,25.4358,81.8463,26.4,46,0.0,998.1,7.75,28.1,126,67.8,33.1,4,5,7,0,2026-04-06T21:22:16.362589+05:30
Gorakhpur,Uttar Pradesh,26.7606,83.3732,25.5,44,0.0,998.9,7.8,27.4,115,43.0,24.3,4,5,7,0,2026-04-06T21:22:16.362597+05:30
Bareilly,Uttar Pradesh,28.367,79.4304,23.7,54,0.0,988.5,7.2,32.4,116,68.5,30.4,0,5,7,0,2026-04-06T21:22:16.362604+05:30
Aligarh,Uttar Pradesh,27.8974,78.088,23.2,54,0.0,987.3,7.1,24.1,325,516.0,83.8,0,5,7,0,2026-04-06T21:22:16.362610+05:30
Moradabad,Uttar Pradesh,28.8386,78.7733,23.0,54,0.0,985.1,7.0,30.6,114,78.9,48.0,0,5,7,0,2026-04-06T21:22:16.362616+05:30
Saharanpur,Uttar Pradesh,29.9637,77.546,23.7,48,0.0,976.6,6.6,23.4,102,121.5,44.1,0,5,7,0,2026-04-06T21:22:16.362622+05:30
Jhansi,Uttar Pradesh,25.4484,78.5685,23.3,61,0.0,979.7,7.85,21.6,109,62.6,23.3,3,5,7,0,2026-04-06T21:22:19.659675+05:30
Surat,Gujarat,21.1702,72.8311,26.6,77,0.0,1008.8,7.7,31.7,74,31.3,20.3,7,0,4,1,2026-04-06T21:22:19.659705+05:30
Vadodara,Gujarat,22.3072,73.1812,27.4,61,0.0,1005.7,7.95,34.9,114,25.7,19.3,7,5,4,1,2026-04-06T21:22:19.659714+05:30
Rajkot,Gujarat,22.3039,70.8022,26.8,57,0.0,996.3,7.65,40.0,100,34.8,17.0,4,5,7,1,2026-04-06T21:22:19.659721+05:30
Thane,Maharashtra,19.2183,72.9781,26.8,72,0.0,1010.7,7.95,37.4,94,28.8,15.0,7,0,4,1,2026-04-06T21:22:19.659728+05:30
Nagpur,Maharashtra,21.1458,79.0882,26.8,43,0.0,973.1,8.65,21.2,114,20.0,16.5,4,5,7,0,2026-04-06T21:22:19.659734+05:30
Nashik,Maharashtra,19.9975,73.7898,22.5,69,0.0,947.4,8.2,33.8,93,21.1,11.4,3,5,7,1,2026-04-06T21:22:19.659741+05:30
Aurangabad,Maharashtra,19.8762,75.3433,27.4,44,0.0,945.2,8.9,28.4,116,24.0,17.6,4,5,7,0,2026-04-06T21:22:19.659747+05:30
Solapur,Maharashtra,17.6599,75.9064,29.6,30,0.0,957.5,9.0,33.1,74,17.8,13.4,4,5,7,0,2026-04-06T21:22:19.659753+05:30
Kolhapur,Maharashtra,16.705,74.2433,21.1,77,0.0,949.8,9.0,40.7,64,17.4,14.6,3,5,7,1,2026-04-06T21:22:19.659758+05:30
Goa,Goa,15.2993,74.124,27.3,69,0.0,1000.8,9.0,38.9,65,23.2,14.1,7,5,4,1,2026-04-06T21:22:19.659764+05:30
Jodhpur,Rajasthan,26.2389,73.0243,26.3,35,0.0,982.6,7.8,38.5,98,181.1,27.2,4,5,7,0,2026-04-06T21:22:19.659770+05:30
Udaipur,Rajasthan,24.5854,73.7125,24.0,40,0.0,947.0,8.4,37.1,92,12.7,6.2,0,5,7,0,2026-04-06T21:22:19.659775+05:30
Kota,Rajasthan,25.2138,75.8648,28.5,36,0.0,979.3,7.85,28.8,103,85.0,35.6,4,5,7,0,2026-04-06T21:22:19.659780+05:30
Bikaner,Rajasthan,28.0229,73.3119,26.5,40,0.0,981.1,7.65,28.1,87,62.9,18.7,4,5,7,0,2026-04-06T21:22:19.659786+05:30
Ajmer,Rajasthan,26.4499,74.6399,24.8,38,0.0,954.9,7.8,34.2,85,40.3,17.5,0,5,7,0,2026-04-06T21:22:19.659792+05:30
Gwalior,Madhya Pradesh,26.2183,78.1828,23.3,66,0.0,985.2,7.6,27.0,91,103.1,26.6,3,5,7,1,2026-04-06T21:22:19.659798+05:30
Indore,Madhya Pradesh,22.7196,75.8577,25.2,38,0.0,948.8,8.3,26.6,115,27.0,23.6,4,5,7,0,2026-04-06T21:22:19.659803+05:30
Bhopal,Madhya Pradesh,23.2599,77.4126,25.9,31,0.0,953.9,8.3,28.8,100,29.7,17.1,4,5,7,0,2026-04-06T21:22:19.659809+05:30
Jabalpur,Madhya Pradesh,23.1815,79.9864,28.0,34,0.0,962.6,8.25,19.8,98,34.6,23.2,4,5,7,0,2026-04-06T21:22:19.659814+05:30
Ujjain,Madhya Pradesh,23.1765,75.7885,24.8,38,0.0,954.7,8.2,26.6,99,34.9,28.8,0,5,7,0,2026-04-06T21:22:19.659820+05:30
Visakhapatnam,Andhra Pradesh,17.6868,83.2185,27.5,85,0.0,1005.9,9.1,34.9,104,34.6,30.0,7,5,4,1,2026-04-06T21:22:19.659826+05:30
Vijayawada,Andhra Pradesh,16.5062,80.648,29.0,74,0.0,1003.4,9.15,31.0,74,23.7,21.8,7,5,4,1,2026-04-06T21:22:19.659832+05:30
Guntur,Andhra Pradesh,16.3067,80.4365,28.1,84,0.0,1004.6,9.2,31.7,91,29.6,27.0,7,5,4,1,2026-04-06T21:22:19.659837+05:30
Nellore,Andhra Pradesh,14.4426,79.9865,28.1,89,0.0,1006.6,8.65,27.7,123,23.8,19.8,7,5,4,1,2026-04-06T21:22:19.659844+05:30
Kurnool,Andhra Pradesh,15.8281,78.0373,32.2,30,0.0,976.9,9.2,36.7,115,21.7,17.6,0,5,7,0,2026-04-06T21:22:19.659850+05:30
Kakinada,Andhra Pradesh,16.9891,82.2475,28.0,81,0.0,1009.0,8.8,26.3,59,19.3,14.6,7,0,4,1,2026-04-06T21:22:19.659857+05:30
Tirupati,Andhra Pradesh,13.6288,79.4192,27.6,81,0.0,993.0,8.15,19.4,144,43.4,40.6,7,5,7,1,2026-04-06T21:22:19.659862+05:30
Warangal,Telangana,17.9689,79.5941,28.8,76,0.0,979.3,9.0,36.7,126,61.9,52.6,7,5,7,1,2026-04-06T21:22:19.659868+05:30
Nizamabad,Telangana,18.6725,78.0941,29.4,44,0.0,965.0,8.95,27.7,81,26.5,21.1,4,5,7,0,2026-04-06T21:22:19.659873+05:30
Mysore,Karnataka,12.2958,76.6396,25.3,72,0.0,930.1,9.55,38.5,88,21.1,18.5,7,5,7,1,2026-04-06T21:22:19.659879+05:30
Mangalore,Karnataka,12.9141,74.856,29.2,72,0.0,1009.4,9.2,37.4,60,29.0,15.3,7,0,4,1,2026-04-06T21:22:19.659884+05:30
Hubli-Dharwad,Karnataka,15.3647,75.124,23.4,69,0.0,942.7,9.2,36.0,62,18.6,11.7,3,5,7,1,2026-04-06T21:22:19.659890+05:30
Belgaum,Karnataka,15.8497,74.4977,20.9,78,0.0,927.3,9.25,36.4,58,17.3,13.0,3,5,7,1,2026-04-06T21:22:22.956166+05:30
Coimbatore,Tamil Nadu,11.0168,76.9558,25.9,72,0.0,963.7,9.4,51.1,71,24.0,20.7,7,5,7,1,2026-04-06T21:22:22.956197+05:30
Madurai,Tamil Nadu,9.9252,78.1198,28.5,81,0.0,994.9,3.35,24.5,112,29.2,26.4,7,5,3,1,2026-04-06T21:22:22.956207+05:30
Trichy,Tamil Nadu,10.7905,78.7047,28.4,82,0.0,1001.3,8.55,23.0,124,33.2,30.9,7,5,4,1,2026-04-06T21:22:22.956216+05:30
Salem,Tamil Nadu,11.6643,78.146,29.4,69,0.0,978.9,9.35,32.8,144,29.0,25.3,7,5,7,1,2026-04-06T21:22:22.956224+05:30
Tirunelveli,Tamil Nadu,8.7139,77.7567,29.0,70,0.0,1005.1,9.2,25.6,57,22.2,19.2,7,5,4,1,2026-04-06T21:22:22.956232+05:30
Vellore,Tamil Nadu,12.9165,79.1325,27.7,80,0.0,985.9,9.35,31.7,170,46.2,43.4,7,5,7,1,2026-04-06T21:22:22.956239+05:30
Erode,Tamil Nadu,11.341,77.7172,31.3,56,0.0,990.3,9.45,29.9,105,26.2,23.1,0,5,7,1,2026-04-06T21:22:22.956247+05:30
Kochi,Kerala,9.9312,76.2673,29.8,73,0.0,1011.1,8.6,36.7,69,34.7,23.7,7,0,4,1,2026-04-06T21:22:22.956254+05:30
Thiruvananthapuram,Kerala,8.5241,76.9366,29.7,76,0.0,1010.3,8.4,39.2,57,32.7,18.3,7,0,4,1,2026-04-06T21:22:22.956262+05:30
Kozhikode,Kerala,11.2588,75.7804,29.4,73,0.0,1010.2,9.2,38.5,61,31.7,16.4,7,0,4,1,2026-04-06T21:22:22.956270+05:30
Thrissur,Kerala,10.5276,76.2144,28.3,79,0.0,1009.5,9.2,41.0,71,29.1,18.7,7,0,4,1,2026-04-06T21:22:22.956279+05:30
Kannur,Kerala,11.8745,75.3704,28.5,74,0.0,1009.6,9.2,43.9,57,24.7,14.6,7,0,4,1,2026-04-06T21:22:22.956287+05:30
Patna,Bihar,25.5941,85.1376,27.2,53,0.0,1002.2,7.05,29.2,86,40.7,31.3,4,5,4,1,2026-04-06T21:22:22.956294+05:30
Gaya,Bihar,24.7914,85.0002,25.7,61,0.0,996.1,5.7,28.8,94,38.6,28.5,7,5,3,1,2026-04-06T21:22:22.956301+05:30
Muzaffarpur,Bihar,26.1209,85.3647,25.4,52,0.0,1002.9,7.65,28.1,87,38.6,28.6,4,5,4,0,2026-04-06T21:22:22.956308+05:30
Bhagalpur,Bihar,25.2425,87.0117,26.4,65,0.0,1003.5,7.15,27.0,96,28.8,24.7,7,5,4,1,2026-04-06T21:22:22.956315+05:30
Ranchi,Jharkhand,23.3441,85.3096,21.7,81,0.0,940.2,8.5,27.0,80,37.0,25.1,3,5,7,1,2026-04-06T21:22:22.956322+05:30
Jamshedpur,Jharkhand,22.8046,86.2029,24.9,87,0.0,994.1,8.65,24.8,128,46.6,40.7,3,5,7,1,2026-04-06T21:22:22.956329+05:30
Dhanbad,Jharkhand,23.7957,86.4304,25.8,70,0.0,982.5,7.85,20.5,118,66.1,55.5,7,5,7,1,2026-04-06T21:22:22.956336+05:30
Bokaro,Jharkhand,23.6693,86.1511,24.5,77,0.0,986.8,7.9,21.2,101,64.7,50.5,3,5,7,1,2026-04-06T21:22:22.956343+05:30
Bhubaneswar,Odisha,20.2961,85.8245,25.2,90,0.0,1005.6,8.95,23.8,67,31.9,29.2,7,5,4,1,2026-04-06T21:22:22.956350+05:30
Cuttack,Odisha,20.4625,85.8828,24.8,90,0.0,1007.8,8.95,31.7,67,31.9,29.2,3,5,4,1,2026-04-06T21:22:22.956357+05:30
Rourkela,Odisha,22.2604,84.8536,24.0,81,0.0,988.4,8.35,36.4,147,42.7,36.9,3,5,7,1,2026-04-06T21:22:22.956363+05:30
Raipur,Chhattisgarh,21.2514,81.6296,27.8,68,0.0,975.6,8.8,26.6,151,53.3,45.4,7,5,7,1,2026-04-06T21:22:22.956370+05:30
Bhilai,Chhattisgarh,21.1938,81.3509,27.7,67,0.0,975.8,8.7,25.6,126,30.0,26.4,7,5,7,1,2026-04-06T21:22:22.956377+05:30
Guwahati,Assam,26.1158,91.7086,26.6,71,0.0,1003.2,8.25,34.9,89,45.3,42.0,7,5,4,1,2026-04-06T21:22:22.956383+05:30
Agartala,Tripura,23.8315,91.2868,27.6,74,0.0,1007.8,8.5,19.4,196,105.7,99.4,7,5,4,1,2026-04-06T21:22:22.956390+05:30
Shillong,Meghalaya,25.5788,91.8933,14.7,82,0.0,857.7,7.85,71.6,111,46.7,43.7,3,10,7,0,2026-04-06T21:22:22.956396+05:30
Imphal,Manipur,24.817,93.9368,18.9,73,0.0,925.4,8.85,53.3,125,48.2,43.1,3,5,7,0,2026-04-06T21:22:22.956403+05:30
Aizawl,Mizoram,23.7271,92.7176,20.1,74,0.0,894.5,8.75,35.3,134,58.7,51.3,3,5,7,0,2026-04-06T21:22:22.956410+05:30
Kohima,Nagaland,25.6701,94.1077,17.2,62,0.0,856.8,8.75,81.4,89,40.0,34.0,3,5,7,0,2026-04-06T21:22:22.956416+05:30
Gangtok,Sikkim,27.3314,88.6138,13.4,72,0.0,838.2,8.5,21.6,89,27.1,23.1,3,5,7,0,2026-04-06T21:22:22.956422+05:30
Siliguri,West Bengal,26.7271,88.3953,22.1,67,0.0,996.7,8.05,19.8,88,40.9,35.3,3,5,7,0,2026-04-06T21:22:26.250537+05:30
Durgapur,West Bengal,23.5204,87.3119,26.6,78,0.0,997.6,8.45,23.8,127,54.7,47.4,7,5,7,1,2026-04-06T21:22:26.250616+05:30
Asansol,West Bengal,23.6739,86.9524,26.8,76,0.0,996.0,7.6,23.4,116,58.3,48.3,7,5,7,1,2026-04-06T21:22:26.250629+05:30
Pondicherry,Puducherry,11.9139,79.8145,27.9,88,0.0,1009.6,8.4,25.6,100,24.0,18.5,7,0,4,1,2026-04-06T21:22:26.250639+05:30
Port Blair,Andaman and Nicobar Islands,11.6234,92.7265,29.2,70,0.0,1010.0,9.2,19.4,29,9.7,6.2,7,0,4,1,2026-04-06T21:22:26.250652+05:30
Haridwar,Uttarakhand,29.9457,78.1642,21.4,61,0.0,975.4,6.75,25.9,100,33.5,22.6,3,5,7,0,2026-04-06T21:22:26.250661+05:30
Rishikesh,Uttarakhand,30.0869,78.2676,21.1,55,0.0,968.5,6.8,26.3,103,26.0,16.9,0,5,7,0,2026-04-06T21:22:26.250670+05:30
Nainital,Uttarakhand,29.3919,79.4542,15.9,59,0.0,806.2,5.85,38.5,108,32.1,20.3,0,5,3,0,2026-04-06T21:22:26.250683+05:30
Mussoorie,Uttarakhand,30.4599,78.0664,13.9,60,0.0,802.2,6.45,29.2,102,28.6,19.7,0,5,7,0,2026-04-06T21:22:26.250693+05:30
Dharamshala,Himachal Pradesh,32.219,76.3234,17.1,55,0.0,868.3,7.45,22.3,92,14.9,12.2,0,5,7,0,2026-04-06T21:22:26.250701+05:30
Dalhousie,Himachal Pradesh,32.5387,75.971,14.0,66,0.0,802.1,6.95,19.8,91,32.2,27.6,3,5,7,0,2026-04-06T21:22:26.250712+05:30
Patiala,Punjab,30.3398,76.3869,23.5,42,0.0,978.9,6.8,21.6,106,166.7,42.8,0,5,7,0,2026-04-06T21:22:26.250720+05:30
Bhatinda,Punjab,30.211,74.9455,23.7,53,0.0,984.4,7.45,20.9,105,33.2,27.7,0,5,7,0,2026-04-06T21:22:26.250729+05:30
Rohtak,Haryana,28.8955,76.6066,22.9,52,0.0,983.1,6.95,25.6,335,268.2,69.2,0,5,7,0,2026-04-06T21:22:26.250737+05:30
Panipat,Haryana,29.3909,76.9635,22.8,46,0.0,981.5,6.75,26.6,441,404.2,74.7,0,5,7,0,2026-04-06T21:22:26.250746+05:30
Mathura,Uttar Pradesh,27.4924,77.6737,24.4,53,0.0,988.6,7.25,27.7,402,301.7,62.2,0,5,7,0,2026-04-06T21:22:26.250753+05:30
Vrindavan,Uttar Pradesh,27.5823,77.7027,23.3,57,0.0,988.9,7.2,31.0,402,301.7,62.2,0,5,7,0,2026-04-06T21:22:26.250761+05:30
Ayodhya,Uttar Pradesh,26.7922,82.1998,25.8,42,0.0,996.9,7.6,30.2,113,56.6,24.2,4,5,7,0,2026-04-06T21:22:26.250768+05:30
Ratlam,Madhya Pradesh,23.3315,75.0367,25.5,46,0.0,955.4,8.15,33.8,96,18.0,13.0,4,5,7,0,2026-04-06T21:22:26.250776+05:30
Sagar,Madhya Pradesh,23.8388,78.7378,24.8,49,0.0,951.2,8.3,21.6,92,18.5,9.8,0,5,7,0,2026-04-06T21:22:26.250784+05:30
Satna,Madhya Pradesh,24.6005,80.8322,26.4,37,0.0,973.3,8.0,25.2,102,68.0,22.1,4,5,7,0,2026-04-06T21:22:26.250792+05:30
Akola,Maharashtra,20.7002,77.0082,28.8,31,0.0,975.8,8.65,28.1,121,22.6,18.3,4,5,7,0,2026-04-06T21:22:26.250800+05:30
Amravati,Maharashtra,20.9374,77.7796,28.5,36,0.0,967.7,8.7,27.4,126,19.2,15.7,4,5,7,0,2026-04-06T21:22:26.250808+05:30
Latur,Maharashtra,18.4088,76.5604,26.1,39,0.0,940.3,9.0,28.8,66,24.9,20.8,4,5,7,0,2026-04-06T21:22:26.250814+05:30
Nanded,Maharashtra,19.1383,77.3091,27.8,39,0.0,969.0,8.9,23.4,94,20.5,16.9,4,5,7,0,2026-04-06T21:22:26.250821+05:30
Gulbarga,Karnataka,17.3297,76.8343,30.7,22,0.0,959.2,9.05,32.0,64,26.7,17.4,0,5,7,0,2026-04-06T21:22:26.250827+05:30
Bidar,Karnataka,17.9104,77.5199,29.2,25,0.0,936.1,9.05,28.1,71,32.1,24.4,4,5,7,0,2026-04-06T21:22:26.250833+05:30
Hospet,Karnataka,15.2689,76.3909,30.4,37,0.0,957.1,9.25,31.0,89,11.2,8.9,0,5,7,0,2026-04-06T21:22:26.250839+05:30
Tirupur,Tamil Nadu,11.1085,77.3411,28.4,63,0.0,976.5,9.15,45.4,85,25.4,22.4,7,5,7,1,2026-04-06T21:22:26.250845+05:30
Alappuzha,Kerala,9.4981,76.3388,29.8,74,0.0,1011.2,9.2,33.8,68,39.1,25.3,7,0,4,1,2026-04-06T21:22:26.250851+05:30
Munnar,Kerala,10.0889,77.0595,21.2,98,0.0,859.2,8.45,33.5,61,24.2,20.3,3,5,7,1,2026-04-06T21:22:26.250858+05:30
Silchar,Assam,24.8333,92.7789,25.7,81,0.0,1007.0,8.5,19.1,154,88.0,79.6,7,5,4,1,2026-04-06T21:22:26.250864+05:30
Dibrugarh,Assam,27.4728,94.912,23.2,81,0.0,997.4,8.3,38.2,96,28.5,26.1,3,5,7,1,2026-04-06T21:22:26.250870+05:30
