city,state,latitude,longitude,temp,humidity,rain,pressure,uv_index,wind_gusts,aqi,pm10,pm2_5,no2,co,o3,so2,mosquito_risk,arthritis_risk,migraine_risk,frizz_risk,updated_at
Delhi,Delhi,28.6139,77.209,30.8,57,0.0,979.0,7.75,31.3,169,207.7,91.0,67.3,664.0,10.0,30.9,0,5,7,1,2026-06-26T04:50:44.917700+05:30
Mumbai,Maharashtra,19.076,72.8777,26.8,86,0.0,1006.3,6.85,34.2,58,32.0,15.4,11.2,163.0,42.0,10.5,7,5,4,1,2026-06-26T04:50:44.917746+05:30
Bangalore,Karnataka,12.9716,77.5946,20.7,93,0.0,910.5,6.9,45.0,28,8.9,6.3,11.4,163.0,29.0,4.8,3,5,7,1,2026-06-26T04:50:44.917761+05:30
Hyderabad,Telangana,17.385,78.4867,24.6,83,0.0,950.4,7.55,35.3,53,16.0,11.2,9.8,183.0,46.0,4.3,3,5,7,1,2026-06-26T04:50:44.917769+05:30
Chennai,Tamil Nadu,13.0827,80.2707,28.9,67,0.0,1004.8,8.3,36.4,58,20.0,17.1,22.4,179.0,27.0,8.6,7,5,4,1,2026-06-26T04:50:44.917777+05:30
Kolkata,West Bengal,22.5726,88.3639,27.5,95,0.0,1003.0,8.85,35.3,104,56.6,52.7,19.5,342.0,30.0,8.3,7,5,4,1,2026-06-26T04:50:44.917785+05:30
Pune,Maharashtra,18.5204,73.8567,23.3,90,0.0,945.8,7.85,43.6,32,16.8,12.7,13.6,128.0,22.0,8.0,3,5,7,1,2026-06-26T04:50:44.917792+05:30
Ahmedabad,Gujarat,23.0225,72.5714,29.7,71,0.0,998.5,8.05,31.3,74,33.8,15.9,5.5,111.0,41.0,3.4,7,5,7,1,2026-06-26T04:50:44.917799+05:30
Jaipur,Rajasthan,26.9124,75.7873,28.0,71,0.0,956.3,8.15,22.0,117,75.2,32.5,15.2,176.0,32.0,5.1,7,5,7,1,2026-06-26T04:50:44.917805+05:30
Lucknow,Uttar Pradesh,26.8467,80.9462,31.4,57,0.0,989.1,8.3,26.3,152,84.3,53.3,34.6,602.0,23.0,11.4,0,5,7,1,2026-06-26T04:50:44.917815+05:30
Kanpur,Uttar Pradesh,26.4499,80.3319,31.9,52,0.0,987.2,8.05,19.4,142,141.6,43.0,21.2,304.0,42.0,7.3,0,5,7,1,2026-06-26T04:50:44.917822+05:30
Chandigarh,Chandigarh,30.7333,76.7794,26.7,78,0.0,964.8,7.8,20.9,154,73.1,47.1,36.0,623.0,28.0,4.7,7,5,7,1,2026-06-26T04:50:44.917828+05:30
Srinagar,Jammu and Kashmir,34.0837,74.7973,16.2,97,0.0,839.3,9.05,22.3,81,32.4,31.4,24.9,280.0,18.0,0.1,3,10,7,0,2026-06-26T04:50:44.917835+05:30
Jammu,Jammu and Kashmir,32.7266,74.857,25.9,76,0.0,968.8,8.65,25.2,106,58.4,56.6,52.9,455.0,0.0,3.7,7,5,7,1,2026-06-26T04:50:44.917841+05:30
Amritsar,Punjab,31.634,74.8723,26.6,85,0.0,976.9,8.5,14.4,152,93.8,68.5,36.3,658.0,34.0,7.6,7,5,7,1,2026-06-26T04:50:44.917847+05:30
Ludhiana,Punjab,30.901,75.8573,28.6,68,0.0,974.8,8.05,27.0,163,134.6,85.0,41.1,758.0,30.0,12.5,7,5,7,1,2026-06-26T04:50:44.917852+05:30
Jalandhar,Punjab,31.326,75.5762,28.1,70,0.0,975.7,8.25,25.9,152,86.6,65.4,39.5,606.0,22.0,7.4,7,5,7,1,2026-06-26T04:50:44.917858+05:30
Dehradun,Uttarakhand,30.6284,78.0322,15.7,98,0.0,828.0,7.65,32.4,80,38.3,25.7,25.6,218.0,16.0,0.3,3,10,7,0,2026-06-26T04:50:44.917865+05:30
Shimla,Himachal Pradesh,31.1048,77.1734,11.6,97,0.0,780.4,7.65,28.1,89,48.4,31.2,11.9,327.0,72.0,0.2,3,10,7,0,2026-06-26T04:50:44.917872+05:30
Manali,Himachal Pradesh,32.2396,77.1887,13.4,86,0.0,815.2,7.35,34.9,61,4.4,3.3,62.1,208.0,51.0,0.0,3,10,7,0,2026-06-26T04:50:44.917879+05:30
Gurgaon,Haryana,28.4595,77.0266,29.3,63,0.0,977.3,7.7,23.8,162,173.2,72.2,55.2,747.0,2.0,16.7,7,5,7,1,2026-06-26T04:50:44.917884+05:30
Noida,Uttar Pradesh,28.5355,77.391,29.7,63,0.0,980.3,7.7,24.8,162,173.2,72.2,55.2,1129.0,2.0,16.7,7,5,7,1,2026-06-26T04:50:44.917891+05:30
Ghaziabad,Uttar Pradesh,28.6692,77.4538,29.6,65,0.0,978.4,7.6,22.0,171,156.0,81.7,64.5,591.0,12.0,21.8,7,5,7,1,2026-06-26T04:50:44.917897+05:30
Faridabad,Haryana,28.4089,77.3178,30.3,60,0.0,979.6,7.75,28.4,162,173.2,72.2,55.2,1064.0,2.0,16.7,0,5,7,1,2026-06-26T04:50:44.917903+05:30
Meerut,Uttar Pradesh,28.9845,77.7064,30.2,63,0.0,977.3,7.7,24.8,171,156.0,81.7,64.5,855.0,12.0,21.8,3,5,7,1,2026-06-26T04:50:44.917909+05:30
Agra,Uttar Pradesh,27.1767,78.0081,30.1,62,0.0,983.7,8.1,25.9,174,388.4,67.3,26.2,837.0,27.0,4.7,3,5,7,1,2026-06-26T04:50:44.917915+05:30
Varanasi,Uttar Pradesh,25.3176,82.9739,29.1,78,0.1,993.9,8.8,25.2,102,19.7,19.0,17.6,356.0,51.0,10.2,10,5,7,1,2026-06-26T04:50:44.917921+05:30
Prayagraj,Uttar Pradesh,25.4358,81.8463,30.4,66,0.0,991.9,8.75,29.5,124,36.6,29.5,19.5,254.0,51.0,7.2,3,5,7,1,2026-06-26T04:50:44.917928+05:30
Gorakhpur,Uttar Pradesh,26.7606,83.3732,26.9,91,0.0,993.9,8.3,23.8,157,65.0,51.6,19.0,761.0,70.0,8.8,7,5,7,1,2026-06-26T04:50:44.917934+05:30
Bareilly,Uttar Pradesh,28.367,79.4304,30.4,61,0.0,982.4,8.1,19.8,164,131.8,88.2,56.4,809.0,17.0,15.6,3,5,7,1,2026-06-26T04:50:44.917941+05:30
Aligarh,Uttar Pradesh,27.8974,78.088,29.7,64,0.0,981.5,6.0,22.3,167,129.0,53.7,40.5,809.0,15.0,5.9,7,5,3,1,2026-06-26T04:50:44.917947+05:30
Moradabad,Uttar Pradesh,28.8386,78.7733,30.3,62,0.0,979.5,7.9,27.4,164,118.5,69.8,48.5,871.0,24.0,10.6,3,5,7,1,2026-06-26T04:50:44.917952+05:30
Saharanpur,Uttar Pradesh,29.9637,77.546,28.5,74,0.0,971.7,7.55,21.6,152,72.6,50.5,35.4,731.0,13.0,6.7,7,5,7,1,2026-06-26T04:50:44.917958+05:30
Jhansi,Uttar Pradesh,25.4484,78.5685,28.9,68,0.0,974.3,8.0,28.4,77,23.4,17.3,10.1,174.0,49.0,3.1,7,5,7,1,2026-06-26T04:50:48.257719+05:30
Surat,Gujarat,21.1702,72.8311,28.6,78,0.0,1003.5,7.6,41.0,81,45.1,26.1,27.4,353.0,19.0,41.1,7,5,4,1,2026-06-26T04:50:48.257755+05:30
Vadodara,Gujarat,22.3072,73.1812,30.7,55,0.0,1000.8,8.0,45.0,80,35.2,23.7,20.0,162.0,19.0,12.2,0,5,4,1,2026-06-26T04:50:48.257767+05:30
Rajkot,Gujarat,22.3039,70.8022,28.0,77,0.0,990.9,7.55,44.6,66,36.9,16.9,6.7,101.0,39.0,5.9,7,5,7,1,2026-06-26T04:50:48.257777+05:30
Thane,Maharashtra,19.2183,72.9781,25.6,94,0.0,1005.7,7.15,32.0,58,32.0,15.4,11.2,148.0,42.0,10.5,7,5,4,1,2026-06-26T04:50:48.257785+05:30
Nagpur,Maharashtra,21.1458,79.0882,26.8,85,0.0,969.6,8.75,32.0,74,36.7,32.1,30.0,249.0,41.0,37.4,7,5,7,1,2026-06-26T04:50:48.257792+05:30
Nashik,Maharashtra,19.9975,73.7898,23.7,91,0.0,943.0,7.2,41.0,53,22.7,14.6,14.6,134.0,29.0,17.5,3,5,7,1,2026-06-26T04:50:48.257800+05:30
Aurangabad,Maharashtra,19.8762,75.3433,23.2,92,0.0,941.5,6.15,36.0,58,27.6,13.9,9.7,146.0,41.0,10.2,3,5,7,1,2026-06-26T04:50:48.257808+05:30
Solapur,Maharashtra,17.6599,75.9064,25.4,78,0.0,955.0,2.25,53.6,42,9.3,7.6,12.2,152.0,26.0,3.2,7,5,3,1,2026-06-26T04:50:48.257817+05:30
Kolhapur,Maharashtra,16.705,74.2433,22.5,94,0.0,946.0,8.2,46.4,25,14.1,10.4,7.6,109.0,30.0,2.3,3,5,7,1,2026-06-26T04:50:48.257824+05:30
Goa,Goa,15.2993,74.124,24.4,97,0.0,997.1,7.15,32.0,52,28.0,16.6,6.7,230.0,38.0,1.8,3,5,7,1,2026-06-26T04:50:48.257831+05:30
Jodhpur,Rajasthan,26.2389,73.0243,29.4,62,0.0,978.4,8.4,33.5,128,132.2,37.7,6.7,214.0,45.0,2.1,7,5,7,1,2026-06-26T04:50:48.257838+05:30
Udaipur,Rajasthan,24.5854,73.7125,26.8,65,0.0,942.9,8.55,50.4,74,51.8,25.0,6.4,141.0,50.0,2.5,7,5,7,1,2026-06-26T04:50:48.257845+05:30
Kota,Rajasthan,25.2138,75.8648,27.4,79,0.0,975.0,8.3,21.6,79,47.1,26.5,12.0,234.0,46.0,3.1,7,5,7,1,2026-06-26T04:50:48.257852+05:30
Bikaner,Rajasthan,28.0229,73.3119,30.7,55,0.0,977.2,8.45,30.6,152,81.7,26.3,2.7,112.0,60.0,1.1,0,5,7,1,2026-06-26T04:50:48.257859+05:30
Ajmer,Rajasthan,26.4499,74.6399,27.0,70,0.0,950.7,8.25,31.0,92,53.3,29.5,12.9,180.0,36.0,4.8,7,5,7,1,2026-06-26T04:50:48.257867+05:30
Gwalior,Madhya Pradesh,26.2183,78.1828,29.3,65,0.0,979.3,8.25,31.3,82,24.9,15.6,9.8,161.0,51.0,5.4,7,5,7,1,2026-06-26T04:50:48.257874+05:30
Indore,Madhya Pradesh,22.7196,75.8577,25.5,84,0.0,944.9,8.55,31.3,97,60.3,41.4,18.2,265.0,33.0,7.7,7,5,7,1,2026-06-26T04:50:48.257881+05:30
Bhopal,Madhya Pradesh,23.2599,77.4126,24.7,89,0.0,950.1,8.5,31.3,81,39.8,30.9,15.5,281.0,33.0,3.6,3,5,7,1,2026-06-26T04:50:48.257888+05:30
Jabalpur,Madhya Pradesh,23.1815,79.9864,25.7,91,0.0,958.5,8.8,25.9,68,27.6,21.1,11.7,249.0,52.0,3.4,7,5,7,1,2026-06-26T04:50:48.257895+05:30
Ujjain,Madhya Pradesh,23.1765,75.7885,25.8,81,0.0,950.5,8.5,42.1,90,51.8,32.8,12.1,266.0,43.0,11.6,7,5,7,1,2026-06-26T04:50:48.257903+05:30
Visakhapatnam,Andhra Pradesh,17.6868,83.2185,27.9,87,0.0,999.9,8.6,32.4,82,35.5,31.2,35.5,370.0,30.0,44.6,7,5,7,1,2026-06-26T04:50:48.257910+05:30
Vijayawada,Andhra Pradesh,16.5062,80.648,29.4,83,0.0,998.7,7.1,40.3,73,34.2,28.9,15.9,283.0,55.0,6.7,7,5,7,1,2026-06-26T04:50:48.257917+05:30
Guntur,Andhra Pradesh,16.3067,80.4365,29.5,77,0.0,1000.0,6.95,38.5,72,42.1,33.2,20.5,322.0,45.0,8.2,7,5,4,1,2026-06-26T04:50:48.257924+05:30
Nellore,Andhra Pradesh,14.4426,79.9865,27.2,84,0.0,1003.1,8.95,42.8,43,13.7,10.2,10.7,171.0,32.0,4.7,7,5,4,1,2026-06-26T04:50:48.257932+05:30
Kurnool,Andhra Pradesh,15.8281,78.0373,25.0,91,0.0,974.9,5.3,37.8,39,13.6,9.7,11.5,188.0,30.0,3.3,7,5,3,1,2026-06-26T04:50:48.257940+05:30
Kakinada,Andhra Pradesh,16.9891,82.2475,28.8,79,0.0,1003.4,7.4,35.3,58,22.7,16.2,3.9,184.0,92.0,3.7,7,5,4,1,2026-06-26T04:50:48.257947+05:30
Tirupati,Andhra Pradesh,13.6288,79.4192,28.5,61,0.0,988.9,8.5,36.4,42,13.9,10.3,15.1,243.0,20.0,2.2,7,5,7,1,2026-06-26T04:50:48.257954+05:30
Warangal,Telangana,17.9689,79.5941,26.9,77,0.0,975.3,5.95,35.6,65,24.3,19.2,8.9,187.0,53.0,3.5,7,5,3,1,2026-06-26T04:50:48.257961+05:30
Nizamabad,Telangana,18.6725,78.0941,25.2,86,0.0,962.0,6.9,39.6,67,26.4,18.6,9.5,183.0,54.0,3.1,7,5,7,1,2026-06-26T04:50:48.257968+05:30
Mysore,Karnataka,12.2958,76.6396,20.7,98,0.0,927.4,8.75,42.1,23,10.0,7.7,9.5,128.0,26.0,1.9,3,5,7,1,2026-06-26T04:50:48.257975+05:30
Mangalore,Karnataka,12.9141,74.856,23.6,98,0.1,1006.9,7.9,30.2,46,19.4,11.8,8.9,162.0,26.0,2.8,6,5,4,1,2026-06-26T04:50:48.257982+05:30
Hubli-Dharwad,Karnataka,15.3647,75.124,22.4,93,0.0,939.5,7.2,44.6,19,7.8,4.9,4.7,93.0,35.0,1.3,3,5,7,1,2026-06-26T04:50:48.257990+05:30
Belgaum,Karnataka,15.8497,74.4977,21.4,95,0.0,924.0,8.55,46.4,19,14.5,9.8,4.9,105.0,35.0,0.6,3,5,7,1,2026-06-26T04:50:51.640097+05:30
Coimbatore,Tamil Nadu,11.0168,76.9558,23.3,95,0.0,960.4,8.6,46.8,28,11.3,8.4,7.4,155.0,28.0,3.0,3,5,7,1,2026-06-26T04:50:51.640129+05:30
Madurai,Tamil Nadu,9.9252,78.1198,27.6,63,0.0,991.3,8.4,29.2,67,27.5,26.5,34.1,159.0,0.0,6.3,7,5,7,1,2026-06-26T04:50:51.640140+05:30
Trichy,Tamil Nadu,10.7905,78.7047,27.6,72,0.0,997.9,7.95,39.2,36,13.0,8.7,7.0,102.0,34.0,3.5,7,5,7,1,2026-06-26T04:50:51.640149+05:30
Salem,Tamil Nadu,11.6643,78.146,25.5,82,0.0,976.3,8.55,37.4,59,26.6,22.9,31.4,199.0,12.0,8.2,7,5,7,1,2026-06-26T04:50:51.640157+05:30
Tirunelveli,Tamil Nadu,8.7139,77.7567,28.4,70,0.0,1002.0,8.3,52.6,24,4.7,3.9,5.5,118.0,34.0,2.3,7,5,4,1,2026-06-26T04:50:51.640164+05:30
Vellore,Tamil Nadu,12.9165,79.1325,27.3,67,0.0,982.6,8.55,41.0,45,13.0,10.1,17.8,206.0,20.0,4.9,7,5,7,1,2026-06-26T04:50:51.640172+05:30
Erode,Tamil Nadu,11.341,77.7172,25.8,81,0.0,988.0,8.45,40.7,49,18.2,15.5,15.9,134.0,24.0,4.0,7,5,7,1,2026-06-26T04:50:51.640180+05:30
Kochi,Kerala,9.9312,76.2673,25.6,92,0.2,1009.2,8.0,34.2,50,16.4,13.4,13.8,164.0,15.0,4.2,10,0,4,1,2026-06-26T04:50:51.640187+05:30
Thiruvananthapuram,Kerala,8.5241,76.9366,24.2,98,0.2,1008.7,8.45,46.1,30,11.6,7.0,2.9,156.0,46.0,1.5,6,0,4,1,2026-06-26T04:50:51.640195+05:30
Kozhikode,Kerala,11.2588,75.7804,24.7,96,0.1,1008.0,8.25,34.2,28,13.4,7.0,2.3,172.0,50.0,1.3,6,0,4,1,2026-06-26T04:50:51.640202+05:30
Thrissur,Kerala,10.5276,76.2144,23.5,99,0.1,1007.5,8.0,36.4,49,17.8,15.4,13.5,198.0,14.0,3.3,6,5,4,1,2026-06-26T04:50:51.640210+05:30
Kannur,Kerala,11.8745,75.3704,23.5,98,0.2,1007.5,8.3,28.1,35,13.0,8.0,7.2,234.0,29.0,2.1,6,5,4,1,2026-06-26T04:50:51.640217+05:30
Patna,Bihar,25.5941,85.1376,29.1,81,0.0,996.9,8.9,28.4,133,78.5,70.8,28.7,456.0,50.0,15.3,7,5,7,1,2026-06-26T04:50:51.640224+05:30
Gaya,Bihar,24.7914,85.0002,29.2,77,0.0,990.2,8.95,19.8,89,50.8,49.0,25.6,305.0,54.0,15.6,7,5,7,1,2026-06-26T04:50:51.640231+05:30
Muzaffarpur,Bihar,26.1209,85.3647,28.1,86,0.0,997.4,8.85,34.6,155,76.4,67.3,16.5,533.0,84.0,13.3,7,5,7,1,2026-06-26T04:50:51.640237+05:30
Bhagalpur,Bihar,25.2425,87.0117,29.1,85,0.0,998.2,8.65,26.3,150,53.4,50.3,12.6,542.0,86.0,17.9,7,5,7,1,2026-06-26T04:50:51.640245+05:30
Ranchi,Jharkhand,23.3441,85.3096,24.2,88,0.0,935.1,9.0,28.1,82,35.4,35.0,17.7,304.0,59.0,23.7,3,5,7,1,2026-06-26T04:50:51.640252+05:30
Jamshedpur,Jharkhand,22.8046,86.2029,27.2,90,0.0,988.1,9.05,32.8,90,53.0,49.1,37.7,531.0,18.0,23.4,7,5,7,1,2026-06-26T04:50:51.640259+05:30
Dhanbad,Jharkhand,23.7957,86.4304,28.2,85,0.0,977.1,8.85,31.3,151,73.1,70.1,55.9,1889.0,15.0,159.6,7,5,7,1,2026-06-26T04:50:51.640266+05:30
Bokaro,Jharkhand,23.6693,86.1511,28.0,82,0.0,980.8,8.85,32.0,148,88.5,87.1,55.9,533.0,21.0,165.8,7,5,7,1,2026-06-26T04:50:51.640273+05:30
Bhubaneswar,Odisha,20.2961,85.8245,27.6,100,0.0,998.9,9.05,30.6,79,43.0,38.8,24.9,676.0,54.0,7.7,7,5,7,1,2026-06-26T04:50:51.640280+05:30
Cuttack,Odisha,20.4625,85.8828,27.9,98,0.0,1000.6,9.1,30.2,79,43.0,38.8,24.9,683.0,54.0,7.7,7,5,4,1,2026-06-26T04:50:51.640287+05:30
Rourkela,Odisha,22.2604,84.8536,28.4,76,0.0,982.1,8.7,31.7,81,38.8,38.2,33.1,706.0,41.0,30.6,7,5,7,1,2026-06-26T04:50:51.640294+05:30
Raipur,Chhattisgarh,21.2514,81.6296,29.3,68,0.0,971.1,8.95,32.0,81,35.7,35.4,50.6,877.0,21.0,71.0,7,5,7,1,2026-06-26T04:50:51.640302+05:30
Bhilai,Chhattisgarh,21.1938,81.3509,28.4,74,0.0,971.5,8.95,35.3,79,36.9,36.4,39.2,1168.0,31.0,57.1,7,5,7,1,2026-06-26T04:50:51.640308+05:30
Guwahati,Assam,26.1158,91.7086,25.9,98,0.1,999.8,8.8,22.0,89,39.8,34.1,8.1,330.0,57.0,4.6,10,5,7,1,2026-06-26T04:50:51.640315+05:30
Agartala,Tripura,23.8315,91.2868,25.4,96,0.0,1004.3,8.2,26.3,86,32.1,27.9,14.9,217.0,44.0,3.6,7,5,4,1,2026-06-26T04:50:51.640322+05:30
Shillong,Meghalaya,25.5788,91.8933,19.5,98,0.0,856.0,7.05,20.5,64,11.6,8.8,3.9,277.0,86.0,3.7,3,10,7,1,2026-06-26T04:50:51.640330+05:30
Imphal,Manipur,24.817,93.9368,22.3,98,0.0,921.7,8.95,24.1,60,19.8,16.9,7.6,397.0,55.0,3.1,3,5,7,1,2026-06-26T04:50:51.640336+05:30
Aizawl,Mizoram,23.7271,92.7176,19.4,98,0.0,890.8,7.75,21.2,64,20.7,13.1,3.7,189.0,58.0,1.5,3,10,7,1,2026-06-26T04:50:51.640344+05:30
Kohima,Nagaland,25.6701,94.1077,19.3,96,0.0,854.4,7.8,23.0,50,22.1,16.0,3.3,244.0,77.0,1.5,3,10,7,1,2026-06-26T04:50:51.640351+05:30
Gangtok,Sikkim,27.3314,88.6138,18.0,90,0.1,837.0,8.15,35.6,82,23.2,18.9,7.7,687.0,122.0,4.0,6,10,7,1,2026-06-26T04:50:51.640358+05:30
Siliguri,West Bengal,26.7271,88.3953,24.8,99,0.1,991.5,8.6,22.0,114,67.8,54.4,11.7,425.0,110.0,7.5,6,5,7,1,2026-06-26T04:50:55.020312+05:30
Durgapur,West Bengal,23.5204,87.3119,28.0,87,0.0,992.3,9.0,32.4,151,42.5,39.9,32.3,814.0,23.0,40.1,7,5,7,1,2026-06-26T04:50:55.020346+05:30
Asansol,West Bengal,23.6739,86.9524,27.9,90,0.0,990.6,8.95,32.4,136,41.0,38.2,32.8,534.0,26.0,41.5,7,5,7,1,2026-06-26T04:50:55.020357+05:30
Pondicherry,Puducherry,11.9139,79.8145,28.4,81,0.0,1006.2,7.1,41.8,63,21.1,17.8,17.5,220.0,48.0,12.9,7,5,4,1,2026-06-26T04:50:55.020365+05:30
Port Blair,Andaman and Nicobar Islands,11.6234,92.7265,24.7,98,0.1,1006.5,8.35,34.9,25,6.1,3.8,0.3,93.0,54.0,0.3,6,5,4,1,2026-06-26T04:50:55.020374+05:30
Haridwar,Uttarakhand,29.9457,78.1642,26.4,78,0.0,969.9,7.6,21.6,128,78.5,47.8,31.5,290.0,25.0,5.0,7,5,7,1,2026-06-26T04:50:55.020381+05:30
Rishikesh,Uttarakhand,30.0869,78.2676,24.5,83,0.0,962.8,7.7,24.5,100,76.1,31.1,9.1,364.0,99.0,3.5,3,5,7,1,2026-06-26T04:50:55.020389+05:30
Nainital,Uttarakhand,29.3919,79.4542,14.2,99,0.0,803.2,7.0,29.9,99,56.3,33.9,17.3,303.0,65.0,3.9,3,10,7,0,2026-06-26T04:50:55.020396+05:30
Mussoorie,Uttarakhand,30.4599,78.0664,15.2,91,0.0,801.0,6.8,40.0,97,55.1,33.6,30.1,273.0,30.0,3.7,3,10,7,0,2026-06-26T04:50:55.020421+05:30
Dharamshala,Himachal Pradesh,32.219,76.3234,21.6,65,0.0,867.5,8.55,37.1,53,15.0,10.3,18.1,246.0,31.0,0.0,3,5,7,0,2026-06-26T04:50:55.020429+05:30
Dalhousie,Himachal Pradesh,32.5387,75.971,15.5,83,0.0,802.6,8.3,31.3,94,59.4,43.9,29.4,289.0,50.0,2.8,3,10,7,0,2026-06-26T04:50:55.020437+05:30
Patiala,Punjab,30.3398,76.3869,28.9,71,0.0,974.1,7.7,25.2,164,155.5,65.2,17.9,942.0,65.0,6.9,7,5,7,1,2026-06-26T04:50:55.020445+05:30
Bhatinda,Punjab,30.211,74.9455,29.4,69,0.0,979.6,7.0,23.0,160,95.7,60.3,26.8,476.0,45.0,5.6,7,5,7,1,2026-06-26T04:50:55.020452+05:30
Rohtak,Haryana,28.8955,76.6066,28.5,68,0.0,977.5,7.1,18.4,164,244.9,85.9,56.5,731.0,0.0,13.9,7,5,7,1,2026-06-26T04:50:55.020459+05:30
Panipat,Haryana,29.3909,76.9635,28.6,74,0.0,976.0,6.75,16.9,194,154.6,83.6,49.7,680.0,15.0,9.9,7,5,7,1,2026-06-26T04:50:55.020466+05:30
Mathura,Uttar Pradesh,27.4924,77.6737,29.8,65,0.0,982.7,8.05,19.4,153,79.6,36.8,37.2,471.0,17.0,4.1,7,5,7,1,2026-06-26T04:50:55.020473+05:30
Vrindavan,Uttar Pradesh,27.5823,77.7027,29.9,65,0.0,983.1,8.0,18.7,153,79.6,36.8,37.2,535.0,17.0,4.1,7,5,7,1,2026-06-26T04:50:55.020481+05:30
Ayodhya,Uttar Pradesh,26.7922,82.1998,27.4,91,0.0,991.6,8.45,40.0,158,80.6,55.8,22.7,822.0,60.0,8.1,7,5,7,1,2026-06-26T04:50:55.020488+05:30
Ratlam,Madhya Pradesh,23.3315,75.0367,26.2,78,0.0,951.4,8.15,37.8,90,45.8,27.1,10.8,165.0,43.0,14.6,7,5,7,1,2026-06-26T04:50:55.020495+05:30
Sagar,Madhya Pradesh,23.8388,78.7378,24.1,94,0.0,946.7,8.7,29.5,73,29.7,20.8,11.6,202.0,49.0,2.7,3,5,7,1,2026-06-26T04:50:55.020502+05:30
Satna,Madhya Pradesh,24.6005,80.8322,28.3,71,0.0,967.9,8.8,27.7,73,21.1,16.2,9.9,177.0,56.0,2.4,7,5,7,1,2026-06-26T04:50:55.020509+05:30
Akola,Maharashtra,20.7002,77.0082,26.6,81,0.0,972.2,5.75,39.6,68,40.4,24.4,11.7,200.0,48.0,4.5,7,5,3,1,2026-06-26T04:50:55.020517+05:30
Amravati,Maharashtra,20.9374,77.7796,26.0,84,0.0,964.1,8.5,35.6,68,33.3,22.0,12.1,183.0,47.0,3.6,7,5,7,1,2026-06-26T04:50:55.020525+05:30
Latur,Maharashtra,18.4088,76.5604,24.6,88,0.0,937.0,1.2,32.4,55,19.6,13.1,9.6,167.0,49.0,6.5,3,5,3,1,2026-06-26T04:50:55.020532+05:30
Nanded,Maharashtra,19.1383,77.3091,25.3,85,0.0,965.8,4.0,31.7,64,38.1,22.7,11.1,180.0,45.0,3.7,7,5,3,1,2026-06-26T04:50:55.020539+05:30
Gulbarga,Karnataka,17.3297,76.8343,24.7,91,0.0,956.2,2.9,55.1,41,7.3,6.1,10.5,152.0,30.0,3.4,3,5,3,1,2026-06-26T04:50:55.020546+05:30
Bidar,Karnataka,17.9104,77.5199,23.5,94,0.0,932.6,3.35,34.9,58,20.4,14.2,9.4,149.0,54.0,2.4,3,5,3,1,2026-06-26T04:50:55.020553+05:30
Hospet,Karnataka,15.2689,76.3909,23.3,88,0.0,954.6,8.1,41.4,19,7.0,4.5,5.1,119.0,38.0,1.7,3,5,7,1,2026-06-26T04:50:55.020560+05:30
Tirupur,Tamil Nadu,11.1085,77.3411,24.2,90,0.0,974.2,8.5,49.3,52,22.5,19.5,18.8,126.0,18.0,4.9,3,5,7,1,2026-06-26T04:50:55.020566+05:30
Alappuzha,Kerala,9.4981,76.3388,25.1,95,0.3,1009.5,8.05,41.8,42,14.1,9.7,7.3,82.0,36.0,3.2,10,0,4,1,2026-06-26T04:50:55.020573+05:30
Munnar,Kerala,10.0889,77.0595,15.9,94,0.0,855.3,8.45,40.3,23,5.3,4.5,6.7,85.0,22.0,1.4,3,10,7,0,2026-06-26T04:50:55.020581+05:30
Silchar,Assam,24.8333,92.7789,25.8,96,0.1,1003.6,8.3,18.4,86,45.9,32.0,9.9,233.0,60.0,6.5,10,5,4,1,2026-06-26T04:50:55.020588+05:30
Dibrugarh,Assam,27.4728,94.912,24.9,98,0.1,993.9,8.8,24.5,76,32.8,29.0,12.5,255.0,55.0,2.6,6,5,7,1,2026-06-26T04:50:55.020594+05:30
