city,state,latitude,longitude,temp,humidity,rain,pressure,uv_index,wind_gusts,aqi,pm10,pm2_5,no2,co,o3,so2,mosquito_risk,arthritis_risk,migraine_risk,frizz_risk,updated_at
Delhi,Delhi,28.6139,77.209,35.7,38,0.0,974.8,7.8,37.8,585,395.8,128.1,60.2,1415.0,24.0,28.2,0,5,10,1,2026-06-10T23:31:41.539211+05:30
Mumbai,Maharashtra,19.076,72.8777,29.9,78,0.0,1006.5,7.75,45.7,75,47.0,21.3,5.1,176.0,53.0,3.9,7,5,4,1,2026-06-10T23:31:41.539249+05:30
Bangalore,Karnataka,12.9716,77.5946,21.3,93,0.0,911.8,8.45,51.1,30,6.2,5.3,16.1,311.0,34.0,3.9,3,5,7,1,2026-06-10T23:31:41.539266+05:30
Hyderabad,Telangana,17.385,78.4867,26.0,78,0.0,951.3,9.1,52.2,76,29.5,20.2,14.3,251.0,69.0,6.8,7,5,7,1,2026-06-10T23:31:41.539276+05:30
Chennai,Tamil Nadu,13.0827,80.2707,27.3,83,0.1,1006.5,8.05,51.8,52,15.8,11.3,13.3,292.0,61.0,7.2,10,5,4,1,2026-06-10T23:31:41.539285+05:30
Kolkata,West Bengal,22.5726,88.3639,28.3,92,0.0,1001.9,8.95,46.4,108,44.5,39.3,14.1,475.0,58.0,7.8,7,5,4,1,2026-06-10T23:31:41.539293+05:30
Pune,Maharashtra,18.5204,73.8567,26.0,82,0.0,947.0,8.25,48.2,58,33.3,16.8,9.7,142.0,41.0,7.1,7,5,7,1,2026-06-10T23:31:41.539300+05:30
Ahmedabad,Gujarat,23.0225,72.5714,32.1,69,0.0,997.0,8.05,47.2,76,39.2,19.6,6.3,213.0,62.0,5.4,3,5,7,1,2026-06-10T23:31:41.539307+05:30
Jaipur,Rajasthan,26.9124,75.7873,33.7,45,0.0,953.5,8.25,49.7,144,242.1,53.1,8.2,221.0,68.0,5.2,0,5,7,1,2026-06-10T23:31:41.539318+05:30
Lucknow,Uttar Pradesh,26.8467,80.9462,32.3,53,0.0,987.0,8.35,34.6,163,118.5,50.6,9.2,484.0,128.0,6.4,0,5,7,1,2026-06-10T23:31:41.539325+05:30
Kanpur,Uttar Pradesh,26.4499,80.3319,35.0,35,0.0,985.0,8.35,41.8,317,160.2,54.6,12.6,309.0,105.0,5.7,0,5,7,1,2026-06-10T23:31:41.539332+05:30
Chandigarh,Chandigarh,30.7333,76.7794,31.2,47,0.0,960.9,7.85,32.0,119,94.3,54.7,36.8,491.0,72.0,12.6,0,5,7,1,2026-06-10T23:31:41.539338+05:30
Srinagar,Jammu and Kashmir,34.0837,74.7973,16.4,91,0.0,835.8,9.05,18.7,80,46.1,42.1,39.4,867.0,30.0,2.6,3,10,7,0,2026-06-10T23:31:41.539345+05:30
Jammu,Jammu and Kashmir,32.7266,74.857,31.8,35,0.0,963.0,8.65,29.2,107,45.1,39.9,34.6,711.0,50.0,5.6,0,5,7,0,2026-06-10T23:31:41.539352+05:30
Amritsar,Punjab,31.634,74.8723,34.9,38,0.0,971.1,8.5,23.8,119,88.0,72.6,66.2,734.0,37.0,15.1,0,5,7,1,2026-06-10T23:31:41.539359+05:30
Ludhiana,Punjab,30.901,75.8573,33.9,40,0.0,969.5,8.05,31.3,151,151.3,66.4,32.3,1531.0,72.0,11.1,0,5,7,1,2026-06-10T23:31:41.539365+05:30
Jalandhar,Punjab,31.326,75.5762,35.2,32,0.0,970.4,8.25,25.2,122,72.9,52.9,37.6,928.0,65.0,8.3,0,5,10,1,2026-06-10T23:31:41.539372+05:30
Dehradun,Uttarakhand,30.6284,78.0322,17.9,85,0.0,826.3,8.3,40.7,96,41.7,32.6,25.9,263.0,61.0,2.2,3,10,7,0,2026-06-10T23:31:41.539379+05:30
Shimla,Himachal Pradesh,31.1048,77.1734,17.4,51,0.0,781.4,8.35,46.1,157,44.9,32.6,23.1,318.0,121.0,8.0,0,5,7,0,2026-06-10T23:31:41.539391+05:30
Manali,Himachal Pradesh,32.2396,77.1887,14.8,68,0.0,814.3,10.0,39.6,49,12.7,10.1,84.0,409.0,29.0,0.1,3,5,7,0,2026-06-10T23:31:41.539398+05:30
Gurgaon,Haryana,28.4595,77.0266,34.4,37,0.0,972.9,7.9,47.2,1176,278.5,100.6,51.2,1566.0,22.0,14.8,0,5,7,1,2026-06-10T23:31:41.539404+05:30
Noida,Uttar Pradesh,28.5355,77.391,31.9,55,0.0,976.0,7.85,32.8,1176,278.5,100.6,51.2,1377.0,22.0,14.8,0,5,7,1,2026-06-10T23:31:41.539411+05:30
Ghaziabad,Uttar Pradesh,28.6692,77.4538,30.3,69,0.0,974.2,7.85,33.5,487,359.5,103.6,25.7,503.0,53.0,11.1,3,5,7,1,2026-06-10T23:31:41.539419+05:30
Faridabad,Haryana,28.4089,77.3178,34.7,37,0.0,975.4,7.9,38.2,1176,278.5,100.6,51.2,868.0,22.0,14.8,0,5,7,1,2026-06-10T23:31:41.539426+05:30
Meerut,Uttar Pradesh,28.9845,77.7064,32.0,60,0.0,973.7,7.75,34.9,487,359.5,103.6,25.7,400.0,53.0,11.1,0,5,7,1,2026-06-10T23:31:41.539432+05:30
Agra,Uttar Pradesh,27.1767,78.0081,34.4,41,0.0,980.0,8.15,45.0,697,251.5,63.1,37.3,365.0,35.0,12.2,0,5,7,1,2026-06-10T23:31:41.539438+05:30
Varanasi,Uttar Pradesh,25.3176,82.9739,31.2,56,0.0,991.7,8.8,56.2,142,143.9,92.0,40.3,924.0,67.0,19.6,0,5,7,1,2026-06-10T23:31:41.539447+05:30
Prayagraj,Uttar Pradesh,25.4358,81.8463,32.5,48,0.0,989.5,8.7,45.4,150,109.0,66.6,25.4,416.0,83.0,13.8,0,5,7,1,2026-06-10T23:31:41.539454+05:30
Gorakhpur,Uttar Pradesh,26.7606,83.3732,29.1,73,0.0,992.4,8.7,38.9,158,106.6,68.2,18.6,391.0,91.0,11.1,7,5,7,1,2026-06-10T23:31:41.539463+05:30
Bareilly,Uttar Pradesh,28.367,79.4304,30.7,60,0.0,980.0,8.15,32.4,138,87.1,48.0,9.8,305.0,117.0,8.9,0,5,7,1,2026-06-10T23:31:41.539469+05:30
Aligarh,Uttar Pradesh,27.8974,78.088,32.5,45,0.0,977.3,8.0,35.3,403,148.5,64.7,26.1,393.0,54.0,10.2,0,5,7,1,2026-06-10T23:31:41.539475+05:30
Moradabad,Uttar Pradesh,28.8386,78.7733,32.1,51,0.0,976.8,7.95,40.0,166,231.9,83.4,14.4,307.0,94.0,10.7,0,5,7,1,2026-06-10T23:31:41.539481+05:30
Saharanpur,Uttar Pradesh,29.9637,77.546,30.4,60,0.0,968.4,7.5,36.7,153,101.3,60.3,19.1,427.0,86.0,10.3,0,5,7,1,2026-06-10T23:31:41.539487+05:30
Jhansi,Uttar Pradesh,25.4484,78.5685,33.1,44,0.0,971.6,8.5,44.3,73,30.7,21.7,6.9,214.0,75.0,5.6,0,5,7,1,2026-06-10T23:31:45.213796+05:30
Surat,Gujarat,21.1702,72.8311,30.2,78,0.0,1003.4,7.55,52.9,84,44.4,25.1,12.5,195.0,46.0,21.4,3,5,4,1,2026-06-10T23:31:45.213826+05:30
Vadodara,Gujarat,22.3072,73.1812,30.7,74,0.0,999.8,8.0,52.2,79,34.3,23.1,16.1,194.0,38.0,17.5,3,5,7,1,2026-06-10T23:31:45.213837+05:30
Rajkot,Gujarat,22.3039,70.8022,29.8,70,0.0,990.1,7.55,48.2,73,44.1,21.9,3.3,108.0,54.0,3.5,7,5,7,1,2026-06-10T23:31:45.213846+05:30
Thane,Maharashtra,19.2183,72.9781,29.2,81,0.0,1005.9,7.7,40.0,75,47.0,21.3,5.1,179.0,53.0,3.9,7,5,4,1,2026-06-10T23:31:45.213854+05:30
Nagpur,Maharashtra,21.1458,79.0882,34.6,37,0.0,969.2,6.8,41.4,91,43.0,28.5,18.1,382.0,60.0,11.2,0,5,7,1,2026-06-10T23:31:45.213862+05:30
Nashik,Maharashtra,19.9975,73.7898,26.0,82,0.0,943.8,8.0,49.0,66,27.6,14.6,6.2,130.0,46.0,3.6,7,5,7,1,2026-06-10T23:31:45.213870+05:30
Aurangabad,Maharashtra,19.8762,75.3433,28.6,62,0.0,942.2,8.95,49.0,70,41.3,21.8,6.4,133.0,63.0,7.6,7,5,7,1,2026-06-10T23:31:45.213877+05:30
Solapur,Maharashtra,17.6599,75.9064,29.1,57,0.0,955.7,8.9,41.0,52,27.1,16.0,5.4,141.0,49.0,2.2,4,5,7,1,2026-06-10T23:31:45.213885+05:30
Kolhapur,Maharashtra,16.705,74.2433,24.3,90,0.0,947.7,6.7,51.5,33,7.4,5.1,5.0,136.0,42.0,2.0,3,5,7,1,2026-06-10T23:31:45.213893+05:30
Goa,Goa,15.2993,74.124,25.4,98,0.0,998.6,6.5,30.6,43,25.7,12.5,4.3,247.0,45.0,1.1,7,5,7,1,2026-06-10T23:31:45.213901+05:30
Jodhpur,Rajasthan,26.2389,73.0243,34.7,47,0.0,975.7,8.45,52.6,164,234.2,57.3,3.9,140.0,66.0,2.1,0,5,7,1,2026-06-10T23:31:45.213909+05:30
Udaipur,Rajasthan,24.5854,73.7125,30.7,53,0.0,941.6,8.8,49.0,77,32.0,18.8,3.8,129.0,78.0,3.1,0,5,7,1,2026-06-10T23:31:45.213916+05:30
Kota,Rajasthan,25.2138,75.8648,33.7,49,0.0,972.6,8.4,39.2,82,43.0,28.5,5.8,168.0,83.0,7.4,0,5,7,1,2026-06-10T23:31:45.213923+05:30
Bikaner,Rajasthan,28.0229,73.3119,36.2,42,0.0,973.1,8.5,47.5,152,312.9,101.7,2.1,122.0,72.0,4.4,0,5,10,1,2026-06-10T23:31:45.213931+05:30
Ajmer,Rajasthan,26.4499,74.6399,31.4,52,0.0,948.8,8.4,52.9,71,45.6,21.9,5.3,153.0,74.0,3.8,0,5,7,1,2026-06-10T23:31:45.213938+05:30
Gwalior,Madhya Pradesh,26.2183,78.1828,34.5,39,0.0,976.2,8.3,47.9,69,31.7,22.8,5.8,160.0,88.0,8.7,0,5,7,1,2026-06-10T23:31:45.213946+05:30
Indore,Madhya Pradesh,22.7196,75.8577,30.7,53,0.0,944.7,8.6,47.5,81,50.8,32.4,7.1,208.0,91.0,7.8,0,5,7,1,2026-06-10T23:31:45.213953+05:30
Bhopal,Madhya Pradesh,23.2599,77.4126,31.4,48,0.0,949.5,8.65,39.2,77,31.2,20.6,7.4,292.0,72.0,4.5,0,5,7,1,2026-06-10T23:31:45.213960+05:30
Jabalpur,Madhya Pradesh,23.1815,79.9864,31.0,48,0.0,956.8,8.85,37.1,79,29.9,21.1,8.7,203.0,73.0,4.6,0,5,7,1,2026-06-10T23:31:45.213967+05:30
Ujjain,Madhya Pradesh,23.1765,75.7885,30.7,53,0.0,949.8,8.6,48.6,81,47.1,30.5,4.3,204.0,90.0,5.7,0,5,7,1,2026-06-10T23:31:45.213975+05:30
Visakhapatnam,Andhra Pradesh,17.6868,83.2185,30.8,82,0.0,998.5,8.85,25.2,148,60.8,51.6,40.3,618.0,66.0,40.9,3,5,7,1,2026-06-10T23:31:45.213982+05:30
Vijayawada,Andhra Pradesh,16.5062,80.648,32.6,55,0.0,998.4,9.0,45.4,92,50.4,37.0,14.2,372.0,64.0,5.8,0,5,7,1,2026-06-10T23:31:45.213989+05:30
Guntur,Andhra Pradesh,16.3067,80.4365,32.0,57,0.0,1000.0,8.45,45.4,87,44.2,31.2,12.5,341.0,70.0,5.6,0,5,4,1,2026-06-10T23:31:45.213996+05:30
Nellore,Andhra Pradesh,14.4426,79.9865,27.0,86,0.0,1004.0,8.3,58.0,54,20.5,14.0,6.2,167.0,73.0,3.2,7,5,4,1,2026-06-10T23:31:45.214005+05:30
Kurnool,Andhra Pradesh,15.8281,78.0373,26.9,78,0.0,976.0,8.3,62.3,56,9.1,7.2,10.2,171.0,47.0,3.2,7,5,7,1,2026-06-10T23:31:45.214013+05:30
Kakinada,Andhra Pradesh,16.9891,82.2475,29.9,76,0.0,1002.2,8.65,43.2,90,33.5,21.9,4.9,344.0,100.0,4.0,7,5,4,1,2026-06-10T23:31:45.214020+05:30
Tirupati,Andhra Pradesh,13.6288,79.4192,25.8,91,0.2,990.0,7.95,42.8,47,16.4,11.6,11.3,155.0,49.0,1.8,10,5,7,1,2026-06-10T23:31:45.214028+05:30
Warangal,Telangana,17.9689,79.5941,31.0,59,0.0,974.6,8.95,45.4,94,67.1,48.5,24.3,315.0,40.0,6.0,0,5,7,1,2026-06-10T23:31:45.214035+05:30
Nizamabad,Telangana,18.6725,78.0941,31.8,45,0.0,961.3,8.95,42.8,85,77.1,47.8,23.8,238.0,52.0,6.9,0,5,7,1,2026-06-10T23:31:45.214042+05:30
Mysore,Karnataka,12.2958,76.6396,21.8,90,0.0,929.0,4.35,46.4,23,5.3,4.5,10.3,160.0,35.0,2.1,3,5,3,1,2026-06-10T23:31:45.214049+05:30
Mangalore,Karnataka,12.9141,74.856,24.1,99,0.0,1008.1,8.4,33.1,37,16.1,11.9,14.4,336.0,29.0,2.8,3,0,4,1,2026-06-10T23:31:45.214057+05:30
Hubli-Dharwad,Karnataka,15.3647,75.124,22.7,96,0.0,940.9,7.0,47.2,24,4.7,2.4,3.6,135.0,48.0,1.1,3,5,7,1,2026-06-10T23:31:45.214064+05:30
Belgaum,Karnataka,15.8497,74.4977,22.0,99,0.0,925.5,7.9,46.1,23,5.1,2.9,3.8,126.0,46.0,1.5,3,5,7,1,2026-06-10T23:31:49.655692+05:30
Coimbatore,Tamil Nadu,11.0168,76.9558,23.4,94,0.0,962.1,8.2,55.1,24,7.6,6.1,10.2,223.0,34.0,3.3,3,5,7,1,2026-06-10T23:31:49.655725+05:30
Madurai,Tamil Nadu,9.9252,78.1198,29.7,59,0.0,993.2,8.45,45.4,28,7.3,6.9,13.1,154.0,41.0,4.5,4,5,7,1,2026-06-10T23:31:49.655738+05:30
Trichy,Tamil Nadu,10.7905,78.7047,29.9,61,0.0,999.7,8.15,54.4,30,4.7,3.7,6.7,131.0,46.0,2.7,7,5,7,1,2026-06-10T23:31:49.655746+05:30
Salem,Tamil Nadu,11.6643,78.146,28.4,69,0.0,977.6,8.35,40.3,37,19.0,15.7,23.5,185.0,31.0,6.7,7,5,7,1,2026-06-10T23:31:49.655754+05:30
Tirunelveli,Tamil Nadu,8.7139,77.7567,28.5,73,0.0,1004.5,8.65,47.9,25,6.0,4.9,6.9,183.0,42.0,2.0,7,5,4,1,2026-06-10T23:31:49.655761+05:30
Vellore,Tamil Nadu,12.9165,79.1325,25.8,86,0.0,983.8,7.6,53.6,40,13.2,10.6,15.5,203.0,43.0,4.3,7,5,7,1,2026-06-10T23:31:49.655768+05:30
Erode,Tamil Nadu,11.341,77.7172,26.4,79,0.0,989.5,5.0,43.2,30,9.4,7.9,12.9,204.0,39.0,3.7,7,5,3,1,2026-06-10T23:31:49.655775+05:30
Kochi,Kerala,9.9312,76.2673,25.8,96,0.0,1010.9,5.15,33.1,30,13.6,12.3,19.2,227.0,20.0,4.9,7,0,0,1,2026-06-10T23:31:49.655783+05:30
Thiruvananthapuram,Kerala,8.5241,76.9366,25.0,97,0.1,1010.5,8.3,51.1,27,12.3,6.7,2.7,111.0,53.0,1.0,10,0,4,1,2026-06-10T23:31:49.655789+05:30
Kozhikode,Kerala,11.2588,75.7804,23.6,99,0.0,1009.7,7.6,34.6,28,13.5,7.0,3.3,386.0,54.0,1.6,3,0,4,1,2026-06-10T23:31:49.655797+05:30
Thrissur,Kerala,10.5276,76.2144,24.4,100,0.0,1009.2,6.3,29.5,33,11.1,10.5,17.2,319.0,23.0,4.1,3,0,4,1,2026-06-10T23:31:49.655804+05:30
Kannur,Kerala,11.8745,75.3704,24.2,98,0.0,1008.8,7.9,30.6,26,14.6,11.6,18.0,392.0,20.0,3.2,3,0,4,1,2026-06-10T23:31:49.655811+05:30
Patna,Bihar,25.5941,85.1376,29.2,83,0.0,995.0,8.85,26.3,165,80.3,65.9,13.6,432.0,118.0,16.2,7,5,7,1,2026-06-10T23:31:49.655819+05:30
Gaya,Bihar,24.7914,85.0002,29.9,72,0.0,988.2,8.65,28.4,154,172.3,105.9,48.4,358.0,51.0,22.0,7,5,7,1,2026-06-10T23:31:49.655826+05:30
Muzaffarpur,Bihar,26.1209,85.3647,28.6,79,0.0,995.4,8.85,36.0,162,78.7,63.3,11.2,400.0,119.0,12.0,7,5,7,1,2026-06-10T23:31:49.655833+05:30
Bhagalpur,Bihar,25.2425,87.0117,26.4,86,0.0,996.9,8.85,34.9,159,49.0,45.5,15.2,380.0,101.0,20.3,7,5,7,1,2026-06-10T23:31:49.655839+05:30
Ranchi,Jharkhand,23.3441,85.3096,25.8,72,0.0,933.3,9.0,34.2,137,178.8,73.1,28.9,377.0,55.0,7.8,7,5,7,1,2026-06-10T23:31:49.655846+05:30
Jamshedpur,Jharkhand,22.8046,86.2029,28.6,89,0.0,986.3,9.05,31.7,158,111.8,71.0,26.2,510.0,83.0,30.7,7,5,7,1,2026-06-10T23:31:49.655853+05:30
Dhanbad,Jharkhand,23.7957,86.4304,28.6,86,0.0,975.2,9.05,31.0,162,104.1,80.6,43.4,517.0,79.0,113.0,7,5,7,1,2026-06-10T23:31:49.655859+05:30
Bokaro,Jharkhand,23.6693,86.1511,29.0,75,0.0,978.7,9.05,27.4,158,133.2,80.1,37.5,1667.0,93.0,105.8,7,5,7,1,2026-06-10T23:31:49.655866+05:30
Bhubaneswar,Odisha,20.2961,85.8245,29.4,87,0.0,997.9,9.05,37.8,144,59.6,50.6,17.7,408.0,86.0,8.2,7,5,7,1,2026-06-10T23:31:49.655873+05:30
Cuttack,Odisha,20.4625,85.8828,30.2,87,0.0,999.7,9.1,36.7,144,59.6,50.6,17.7,484.0,86.0,8.2,3,5,7,1,2026-06-10T23:31:49.655880+05:30
Rourkela,Odisha,22.2604,84.8536,28.4,79,0.0,980.6,9.0,25.2,151,142.5,77.8,40.7,1221.0,35.0,11.3,7,5,7,1,2026-06-10T23:31:49.655887+05:30
Raipur,Chhattisgarh,21.2514,81.6296,32.5,44,0.0,970.7,8.5,30.2,121,56.1,44.9,38.3,255.0,60.0,50.5,0,5,7,1,2026-06-10T23:31:49.655893+05:30
Bhilai,Chhattisgarh,21.1938,81.3509,32.0,52,0.0,971.0,7.95,34.6,115,52.0,40.7,30.1,237.0,72.0,41.8,0,5,7,1,2026-06-10T23:31:49.655900+05:30
Guwahati,Assam,26.1158,91.7086,24.6,99,0.1,999.4,8.75,28.1,84,30.6,22.8,6.8,444.0,91.0,3.5,6,5,7,1,2026-06-10T23:31:49.655907+05:30
Agartala,Tripura,23.8315,91.2868,25.7,93,0.0,1003.5,8.85,37.8,66,26.7,22.2,11.5,226.0,65.0,3.2,7,5,4,1,2026-06-10T23:31:49.655914+05:30
Shillong,Meghalaya,25.5788,91.8933,18.1,96,0.0,855.1,7.2,32.4,51,7.3,5.0,4.3,250.0,100.0,2.7,3,10,7,1,2026-06-10T23:31:49.655922+05:30
Imphal,Manipur,24.817,93.9368,22.8,96,0.0,921.7,9.0,31.0,95,47.6,42.6,20.7,1012.0,34.0,3.7,3,5,7,1,2026-06-10T23:31:49.655929+05:30
Aizawl,Mizoram,23.7271,92.7176,19.8,95,0.2,890.4,8.6,36.7,68,19.1,15.0,11.7,301.0,38.0,1.5,6,10,7,1,2026-06-10T23:31:49.655936+05:30
Kohima,Nagaland,25.6701,94.1077,19.4,95,0.0,854.0,9.05,29.2,66,20.8,16.6,10.9,393.0,45.0,1.7,3,10,7,1,2026-06-10T23:31:49.655943+05:30
Gangtok,Sikkim,27.3314,88.6138,16.8,95,0.2,835.8,9.25,35.3,89,10.5,8.4,8.5,563.0,121.0,2.3,6,10,7,0,2026-06-10T23:31:49.655949+05:30
Siliguri,West Bengal,26.7271,88.3953,24.1,96,0.0,990.2,8.75,26.6,118,41.1,27.1,8.8,506.0,129.0,3.4,3,5,7,1,2026-06-10T23:31:53.514152+05:30
Durgapur,West Bengal,23.5204,87.3119,28.2,91,0.0,990.6,9.0,46.4,167,71.9,68.9,28.8,506.0,66.0,35.3,7,5,7,1,2026-06-10T23:31:53.514182+05:30
Asansol,West Bengal,23.6739,86.9524,28.6,87,0.0,989.0,9.0,45.7,161,75.4,66.4,28.5,739.0,79.0,40.3,7,5,7,1,2026-06-10T23:31:53.514193+05:30
Pondicherry,Puducherry,11.9139,79.8145,27.9,90,0.1,1007.7,7.7,58.7,49,29.5,21.1,17.6,312.0,61.0,4.8,10,5,4,1,2026-06-10T23:31:53.514201+05:30
Port Blair,Andaman and Nicobar Islands,11.6234,92.7265,24.8,98,0.1,1007.4,4.85,45.4,23,7.3,4.5,0.3,86.0,58.0,0.3,6,5,0,1,2026-06-10T23:31:53.514209+05:30
Haridwar,Uttarakhand,29.9457,78.1642,28.4,69,0.0,966.8,7.6,40.0,134,92.2,57.9,24.2,288.0,73.0,9.3,7,5,7,1,2026-06-10T23:31:53.514217+05:30
Rishikesh,Uttarakhand,30.0869,78.2676,25.9,73,0.0,959.4,7.75,36.7,132,84.8,45.6,18.7,440.0,98.0,7.0,7,5,7,1,2026-06-10T23:31:53.514224+05:30
Nainital,Uttarakhand,29.3919,79.4542,15.4,93,0.0,801.8,8.55,34.2,115,42.6,29.9,9.6,356.0,112.0,3.7,3,10,7,0,2026-06-10T23:31:53.514232+05:30
Mussoorie,Uttarakhand,30.4599,78.0664,17.3,78,0.0,799.7,8.15,47.2,109,56.3,39.3,29.1,346.0,72.0,7.2,3,5,7,0,2026-06-10T23:31:53.514239+05:30
Dharamshala,Himachal Pradesh,32.219,76.3234,24.4,43,0.0,864.5,8.55,40.0,78,23.9,20.6,18.8,251.0,41.0,0.5,0,5,7,0,2026-06-10T23:31:53.514246+05:30
Dalhousie,Himachal Pradesh,32.5387,75.971,16.4,66,0.0,799.4,8.8,39.6,138,47.5,41.2,42.0,500.0,59.0,3.5,3,5,7,0,2026-06-10T23:31:53.514254+05:30
Patiala,Punjab,30.3398,76.3869,32.3,54,0.0,970.0,7.65,31.3,442,864.3,160.7,20.9,379.0,78.0,10.8,0,5,7,1,2026-06-10T23:31:53.514261+05:30
Bhatinda,Punjab,30.211,74.9455,34.2,44,0.0,974.0,8.35,25.2,156,133.6,62.6,24.1,459.0,50.0,8.0,0,5,7,1,2026-06-10T23:31:53.514267+05:30
Rohtak,Haryana,28.8955,76.6066,32.1,54,0.0,973.0,7.8,41.4,864,390.2,115.3,73.6,724.0,0.0,15.9,0,5,7,1,2026-06-10T23:31:53.514274+05:30
Panipat,Haryana,29.3909,76.9635,31.6,64,0.0,972.1,7.65,31.3,1179,935.0,197.9,53.2,415.0,33.0,14.2,3,5,7,1,2026-06-10T23:31:53.514281+05:30
Mathura,Uttar Pradesh,27.4924,77.6737,32.2,53,0.0,978.5,8.15,34.9,440,161.6,63.3,63.1,449.0,8.0,8.7,0,5,7,1,2026-06-10T23:31:53.514288+05:30
Vrindavan,Uttar Pradesh,27.5823,77.7027,31.8,55,0.0,979.0,8.1,37.1,440,161.6,63.3,63.1,613.0,8.0,8.7,0,5,7,1,2026-06-10T23:31:53.514294+05:30
Ayodhya,Uttar Pradesh,26.7922,82.1998,30.4,71,0.0,989.7,8.45,34.9,153,85.9,64.7,21.1,690.0,85.0,9.4,3,5,7,1,2026-06-10T23:31:53.514302+05:30
Ratlam,Madhya Pradesh,23.3315,75.0367,30.3,59,0.0,950.7,8.5,49.0,80,42.0,27.9,3.9,179.0,94.0,8.2,0,5,7,1,2026-06-10T23:31:53.514309+05:30
Sagar,Madhya Pradesh,23.8388,78.7378,31.3,43,0.0,946.0,8.7,43.2,73,25.6,18.8,10.2,166.0,64.0,3.7,0,5,7,1,2026-06-10T23:31:53.514315+05:30
Satna,Madhya Pradesh,24.6005,80.8322,31.5,45,0.0,966.0,8.8,46.8,75,39.7,30.3,28.8,356.0,39.0,6.3,0,5,7,1,2026-06-10T23:31:53.514322+05:30
Akola,Maharashtra,20.7002,77.0082,34.2,36,0.0,971.1,8.8,49.7,76,39.3,22.8,12.1,210.0,74.0,7.3,0,5,7,1,2026-06-10T23:31:53.514329+05:30
Amravati,Maharashtra,20.9374,77.7796,33.6,32,0.0,963.2,8.8,47.5,78,33.5,20.2,12.7,307.0,74.0,7.4,0,5,7,0,2026-06-10T23:31:53.514337+05:30
Latur,Maharashtra,18.4088,76.5604,29.4,52,0.0,937.7,8.95,42.1,69,34.5,21.0,4.5,165.0,80.0,4.4,4,5,7,1,2026-06-10T23:31:53.514344+05:30
Nanded,Maharashtra,19.1383,77.3091,32.4,42,0.0,965.2,8.9,42.5,83,59.4,35.7,19.2,249.0,63.0,8.0,0,5,7,1,2026-06-10T23:31:53.514351+05:30
Gulbarga,Karnataka,17.3297,76.8343,28.5,66,0.0,957.1,8.95,42.1,53,20.3,12.6,7.7,138.0,51.0,2.8,7,5,7,1,2026-06-10T23:31:53.514358+05:30
Bidar,Karnataka,17.9104,77.5199,26.3,71,0.0,933.4,9.0,46.4,80,37.4,24.9,17.3,262.0,56.0,3.7,7,5,7,1,2026-06-10T23:31:53.514364+05:30
Hospet,Karnataka,15.2689,76.3909,24.1,88,0.0,956.0,8.7,56.5,26,4.2,3.4,6.7,144.0,41.0,1.6,3,5,7,1,2026-06-10T23:31:53.514372+05:30
Tirupur,Tamil Nadu,11.1085,77.3411,24.3,89,0.0,975.6,7.4,54.0,30,12.2,10.4,16.4,186.0,35.0,5.2,3,5,7,1,2026-06-10T23:31:53.514379+05:30
Alappuzha,Kerala,9.4981,76.3388,26.0,95,0.1,1011.0,8.35,37.1,27,11.8,8.0,8.8,90.0,46.0,2.7,10,0,4,1,2026-06-10T23:31:53.514387+05:30
Munnar,Kerala,10.0889,77.0595,17.5,100,0.1,858.0,8.35,42.5,22,3.7,3.7,8.3,106.0,29.0,1.3,6,10,7,1,2026-06-10T23:31:53.514395+05:30
Silchar,Assam,24.8333,92.7789,25.7,99,0.0,1003.0,7.8,28.1,92,31.2,23.5,8.5,359.0,77.0,4.4,7,5,4,1,2026-06-10T23:31:53.514401+05:30
Dibrugarh,Assam,27.4728,94.912,25.1,97,0.2,993.1,8.9,25.6,79,38.9,30.6,17.5,327.0,52.0,2.2,10,5,7,1,2026-06-10T23:31:53.514408+05:30
