city,state,latitude,longitude,temp,humidity,rain,pressure,uv_index,wind_gusts,aqi,pm10,pm2_5,mosquito_risk,arthritis_risk,migraine_risk,frizz_risk,updated_at
Delhi,Delhi,28.6139,77.209,30.5,33,0.0,984.8,6.0,28.8,393,285.9,63.8,0,5,3,0,2026-03-13T13:20:59.169364+05:30
Mumbai,Maharashtra,19.076,72.8777,28.9,72,0.0,1007.9,7.65,26.6,154,74.5,72.2,7,5,4,1,2026-03-13T13:20:59.169407+05:30
Bangalore,Karnataka,12.9716,77.5946,32.3,22,0.0,912.9,9.3,28.4,81,44.9,34.5,0,5,7,0,2026-03-13T13:20:59.169422+05:30
Hyderabad,Telangana,17.385,78.4867,37.0,14,0.0,954.0,8.65,18.7,100,47.3,32.5,0,5,10,0,2026-03-13T13:20:59.169432+05:30
Chennai,Tamil Nadu,13.0827,80.2707,33.1,52,0.0,1008.2,9.05,30.6,69,18.7,14.6,0,0,4,1,2026-03-13T13:20:59.169444+05:30
Kolkata,West Bengal,22.5726,88.3639,33.7,53,0.0,1005.1,8.0,28.4,147,61.0,44.4,0,5,4,1,2026-03-13T13:20:59.169453+05:30
Pune,Maharashtra,18.5204,73.8567,38.1,16,0.0,949.1,8.2,26.6,148,25.4,21.0,0,5,10,0,2026-03-13T13:20:59.169462+05:30
Ahmedabad,Gujarat,23.0225,72.5714,36.8,23,0.0,1002.7,7.5,21.6,93,83.6,35.7,0,5,7,0,2026-03-13T13:20:59.169485+05:30
Jaipur,Rajasthan,26.9124,75.7873,34.8,24,0.0,961.4,6.95,24.5,117,125.7,33.2,0,5,7,0,2026-03-13T13:20:59.169493+05:30
Lucknow,Uttar Pradesh,26.8467,80.9462,33.2,38,0.0,994.1,5.95,26.6,174,213.3,70.1,0,5,3,1,2026-03-13T13:20:59.169501+05:30
Kanpur,Uttar Pradesh,26.4499,80.3319,33.2,41,0.0,992.7,6.35,21.2,293,301.7,75.0,0,5,7,1,2026-03-13T13:20:59.169508+05:30
Chandigarh,Chandigarh,30.7333,76.7794,29.6,40,0.0,970.3,5.15,30.6,84,47.0,22.1,4,5,3,0,2026-03-13T13:20:59.169516+05:30
Srinagar,Jammu and Kashmir,34.0837,74.7973,14.8,59,0.0,844.6,6.85,14.0,68,24.9,14.6,0,5,7,0,2026-03-13T13:20:59.169523+05:30
Jammu,Jammu and Kashmir,32.7266,74.857,30.0,32,0.0,974.9,6.45,23.0,81,25.0,11.1,4,5,7,0,2026-03-13T13:20:59.169531+05:30
Amritsar,Punjab,31.634,74.8723,27.7,48,0.0,983.4,6.05,23.8,104,32.5,18.4,4,5,7,0,2026-03-13T13:20:59.169538+05:30
Ludhiana,Punjab,30.901,75.8573,29.0,41,0.0,980.8,5.75,28.8,113,48.9,30.6,4,5,3,0,2026-03-13T13:20:59.169544+05:30
Jalandhar,Punjab,31.326,75.5762,28.2,43,0.0,982.1,5.65,26.6,114,61.9,27.8,4,5,3,0,2026-03-13T13:20:59.169553+05:30
Dehradun,Uttarakhand,30.6284,78.0322,22.3,31,0.0,832.5,6.0,28.1,43,36.0,11.3,0,5,3,0,2026-03-13T13:20:59.169559+05:30
Shimla,Himachal Pradesh,31.1048,77.1734,20.0,34,0.0,787.6,5.2,38.5,56,31.8,9.5,0,5,3,0,2026-03-13T13:20:59.169566+05:30
Manali,Himachal Pradesh,32.2396,77.1887,20.3,16,0.0,822.4,8.15,38.5,47,19.8,6.9,0,5,7,1,2026-03-13T13:20:59.169573+05:30
Gurgaon,Haryana,28.4595,77.0266,30.8,33,0.0,983.5,6.1,26.6,1196,1080.3,127.1,0,5,7,0,2026-03-13T13:20:59.169579+05:30
Noida,Uttar Pradesh,28.5355,77.391,31.1,30,0.0,986.2,5.95,28.4,1196,1080.3,127.1,0,5,3,0,2026-03-13T13:20:59.169586+05:30
Ghaziabad,Uttar Pradesh,28.6692,77.4538,30.4,35,0.0,984.3,5.85,27.7,238,191.4,51.9,0,5,3,0,2026-03-13T13:20:59.169592+05:30
Faridabad,Haryana,28.4089,77.3178,30.7,31,0.0,985.6,6.0,27.0,1196,1080.3,127.1,0,5,3,0,2026-03-13T13:20:59.169599+05:30
Meerut,Uttar Pradesh,28.9845,77.7064,30.4,40,0.0,982.8,5.3,28.8,238,191.4,51.9,0,5,3,0,2026-03-13T13:20:59.169605+05:30
Agra,Uttar Pradesh,27.1767,78.0081,34.1,33,0.0,989.3,6.2,22.0,563,642.6,105.9,0,5,7,0,2026-03-13T13:20:59.169611+05:30
Varanasi,Uttar Pradesh,25.3176,82.9739,34.7,29,0.0,997.7,7.35,26.6,133,381.8,67.3,0,5,7,0,2026-03-13T13:20:59.169620+05:30
Prayagraj,Uttar Pradesh,25.4358,81.8463,34.9,30,0.0,996.3,7.05,22.0,151,449.8,80.3,0,5,7,0,2026-03-13T13:20:59.169627+05:30
Gorakhpur,Uttar Pradesh,26.7606,83.3732,32.1,51,0.0,996.9,7.0,28.1,180,150.9,99.7,0,5,7,1,2026-03-13T13:20:59.169636+05:30
Bareilly,Uttar Pradesh,28.367,79.4304,31.9,39,0.0,987.5,6.4,26.6,154,92.4,53.6,0,5,7,1,2026-03-13T13:20:59.169643+05:30
Aligarh,Uttar Pradesh,27.8974,78.088,33.4,24,0.0,986.9,6.0,29.2,655,570.0,94.5,0,5,3,0,2026-03-13T13:20:59.169650+05:30
Moradabad,Uttar Pradesh,28.8386,78.7733,31.3,36,0.0,984.5,5.65,27.0,152,73.1,45.4,0,5,3,0,2026-03-13T13:20:59.169657+05:30
Saharanpur,Uttar Pradesh,29.9637,77.546,29.4,43,0.0,976.8,4.85,28.1,141,63.1,30.2,4,5,3,0,2026-03-13T13:20:59.169663+05:30
Jhansi,Uttar Pradesh,25.4484,78.5685,34.9,25,0.0,979.4,6.85,18.7,62,205.8,51.3,0,5,7,0,2026-03-13T13:21:02.392026+05:30
Surat,Gujarat,21.1702,72.8311,35.1,33,0.0,1007.2,7.35,23.8,147,60.5,52.4,0,5,7,1,2026-03-13T13:21:02.392056+05:30
Vadodara,Gujarat,22.3072,73.1812,38.5,19,0.0,1004.7,7.5,22.0,108,35.0,19.7,0,5,7,0,2026-03-13T13:21:02.392066+05:30
Rajkot,Gujarat,22.3039,70.8022,35.8,22,0.0,995.3,7.3,30.2,85,69.6,26.5,0,5,10,0,2026-03-13T13:21:02.392074+05:30
Thane,Maharashtra,19.2183,72.9781,34.9,41,0.0,1007.6,7.65,38.9,154,74.5,72.2,0,5,4,1,2026-03-13T13:21:02.392081+05:30
Nagpur,Maharashtra,21.1458,79.0882,37.4,16,0.0,973.8,8.05,18.7,90,27.6,19.0,0,5,10,0,2026-03-13T13:21:02.392088+05:30
Nashik,Maharashtra,19.9975,73.7898,36.1,16,0.0,946.6,7.85,32.4,74,18.3,15.2,0,5,10,0,2026-03-13T13:21:02.392094+05:30
Aurangabad,Maharashtra,19.8762,75.3433,36.1,16,0.0,945.2,8.35,29.5,98,20.9,19.0,0,5,10,0,2026-03-13T13:21:02.392100+05:30
Solapur,Maharashtra,17.6599,75.9064,35.9,26,0.0,957.7,8.6,24.8,90,36.0,29.3,0,5,10,0,2026-03-13T13:21:02.392107+05:30
Kolhapur,Maharashtra,16.705,74.2433,34.7,25,0.0,948.4,8.7,44.6,153,35.6,30.3,0,5,7,0,2026-03-13T13:21:02.392114+05:30
Goa,Goa,15.2993,74.124,31.9,63,0.0,998.1,8.7,32.8,141,47.1,40.5,3,5,7,1,2026-03-13T13:21:02.392122+05:30
Jodhpur,Rajasthan,26.2389,73.0243,35.8,25,0.0,984.2,6.9,19.4,74,128.5,32.1,0,5,10,0,2026-03-13T13:21:02.392129+05:30
Udaipur,Rajasthan,24.5854,73.7125,35.2,16,0.0,948.3,7.85,32.8,50,46.1,18.2,0,5,10,0,2026-03-13T13:21:02.392135+05:30
Kota,Rajasthan,25.2138,75.8648,36.7,15,0.0,980.0,7.1,16.6,70,73.8,22.9,0,5,10,0,2026-03-13T13:21:02.392141+05:30
Bikaner,Rajasthan,28.0229,73.3119,32.8,25,0.0,984.3,6.6,24.8,82,45.5,25.7,0,5,7,0,2026-03-13T13:21:02.392148+05:30
Ajmer,Rajasthan,26.4499,74.6399,33.9,26,0.0,956.1,7.05,19.4,67,124.3,36.8,0,5,7,0,2026-03-13T13:21:02.392154+05:30
Gwalior,Madhya Pradesh,26.2183,78.1828,32.5,41,0.0,985.0,6.8,20.2,91,173.2,58.0,0,5,7,1,2026-03-13T13:21:02.392160+05:30
Indore,Madhya Pradesh,22.7196,75.8577,36.2,12,0.0,949.9,7.75,32.4,59,9.1,8.1,0,5,10,0,2026-03-13T13:21:02.392166+05:30
Bhopal,Madhya Pradesh,23.2599,77.4126,36.1,14,0.0,955.5,7.55,29.9,77,18.3,16.6,0,5,10,0,2026-03-13T13:21:02.392172+05:30
Jabalpur,Madhya Pradesh,23.1815,79.9864,35.6,17,0.0,962.7,7.75,18.7,79,20.2,14.4,0,5,10,0,2026-03-13T13:21:02.392179+05:30
Ujjain,Madhya Pradesh,23.1765,75.7885,35.4,13,0.0,955.5,7.7,25.2,56,10.2,6.2,0,5,10,0,2026-03-13T13:21:02.392185+05:30
Visakhapatnam,Andhra Pradesh,17.6868,83.2185,32.7,53,0.0,1004.3,8.65,39.6,92,34.1,28.4,0,5,4,1,2026-03-13T13:21:02.392191+05:30
Vijayawada,Andhra Pradesh,16.5062,80.648,34.9,46,0.0,1002.9,8.75,29.9,92,28.2,22.9,0,5,4,1,2026-03-13T13:21:02.392197+05:30
Guntur,Andhra Pradesh,16.3067,80.4365,35.3,41,0.0,1004.3,8.75,31.0,84,32.6,25.6,0,5,7,1,2026-03-13T13:21:02.392203+05:30
Nellore,Andhra Pradesh,14.4426,79.9865,35.7,39,0.0,1006.2,8.9,28.8,75,29.6,25.8,0,5,7,1,2026-03-13T13:21:02.392210+05:30
Kurnool,Andhra Pradesh,15.8281,78.0373,38.3,17,0.0,977.1,8.75,23.8,93,43.1,32.4,0,5,10,0,2026-03-13T13:21:02.392217+05:30
Kakinada,Andhra Pradesh,16.9891,82.2475,34.8,48,0.0,1007.9,8.7,31.3,80,23.3,18.3,0,5,4,1,2026-03-13T13:21:02.392223+05:30
Tirupati,Andhra Pradesh,13.6288,79.4192,35.0,32,0.0,992.1,9.05,32.4,101,24.7,21.4,0,5,7,0,2026-03-13T13:21:02.392229+05:30
Warangal,Telangana,17.9689,79.5941,36.0,35,0.0,979.0,8.5,29.5,114,42.0,33.5,0,5,10,1,2026-03-13T13:21:02.392235+05:30
Nizamabad,Telangana,18.6725,78.0941,36.0,26,0.0,965.4,8.4,23.4,121,40.2,33.6,0,5,10,0,2026-03-13T13:21:02.392241+05:30
Mysore,Karnataka,12.2958,76.6396,32.7,23,0.0,929.3,9.3,32.0,75,39.8,30.7,0,5,7,0,2026-03-13T13:21:02.392247+05:30
Mangalore,Karnataka,12.9141,74.856,28.8,83,0.0,1006.1,8.95,24.8,116,42.1,36.4,7,5,4,1,2026-03-13T13:21:02.392253+05:30
Hubli-Dharwad,Karnataka,15.3647,75.124,34.7,27,0.0,941.5,8.9,29.9,74,32.9,27.0,0,5,7,0,2026-03-13T13:21:02.392260+05:30
Belgaum,Karnataka,15.8497,74.4977,35.8,19,0.0,926.8,8.95,43.6,114,29.4,24.4,0,5,10,0,2026-03-13T13:21:05.612105+05:30
Coimbatore,Tamil Nadu,11.0168,76.9558,33.9,29,0.0,962.2,9.25,41.0,78,34.1,26.3,0,5,7,0,2026-03-13T13:21:05.612136+05:30
Madurai,Tamil Nadu,9.9252,78.1198,34.4,42,0.0,993.0,9.25,26.6,83,16.5,12.6,0,5,7,1,2026-03-13T13:21:05.612145+05:30
Trichy,Tamil Nadu,10.7905,78.7047,33.4,48,0.0,1000.2,9.15,23.8,88,21.0,17.2,0,5,4,1,2026-03-13T13:21:05.612153+05:30
Salem,Tamil Nadu,11.6643,78.146,33.7,42,0.0,977.8,9.2,24.1,98,40.6,34.2,0,5,7,1,2026-03-13T13:21:05.612160+05:30
Tirunelveli,Tamil Nadu,8.7139,77.7567,33.5,47,0.0,1003.3,9.2,29.9,64,13.0,10.1,0,5,4,1,2026-03-13T13:21:05.612168+05:30
Vellore,Tamil Nadu,12.9165,79.1325,34.7,31,0.0,985.1,9.1,32.8,105,28.6,25.2,0,5,7,0,2026-03-13T13:21:05.612174+05:30
Erode,Tamil Nadu,11.341,77.7172,34.6,40,0.0,989.3,9.15,22.3,84,30.9,26.3,0,5,7,1,2026-03-13T13:21:05.612182+05:30
Kochi,Kerala,9.9312,76.2673,28.5,81,0.0,1008.1,9.1,33.5,98,31.1,27.8,7,0,4,1,2026-03-13T13:21:05.612189+05:30
Thiruvananthapuram,Kerala,8.5241,76.9366,28.6,77,0.0,1007.4,9.1,24.1,58,22.9,19.7,7,5,4,1,2026-03-13T13:21:05.612196+05:30
Kozhikode,Kerala,11.2588,75.7804,29.7,76,0.0,1007.3,8.95,30.6,96,33.2,30.4,7,5,4,1,2026-03-13T13:21:05.612202+05:30
Thrissur,Kerala,10.5276,76.2144,33.1,60,0.0,1006.3,9.05,37.8,97,33.8,28.8,0,5,4,1,2026-03-13T13:21:05.612209+05:30
Kannur,Kerala,11.8745,75.3704,30.9,69,0.0,1006.9,9.0,29.5,106,37.4,32.4,3,5,4,1,2026-03-13T13:21:05.612215+05:30
Patna,Bihar,25.5941,85.1376,32.8,43,0.0,1000.0,7.5,25.2,178,141.6,99.4,0,5,4,1,2026-03-13T13:21:05.612222+05:30
Gaya,Bihar,24.7914,85.0002,33.5,31,0.0,993.8,7.6,23.0,152,175.1,51.0,0,5,7,0,2026-03-13T13:21:05.612228+05:30
Muzaffarpur,Bihar,26.1209,85.3647,32.0,49,0.0,1000.1,7.45,24.8,184,127.6,94.3,0,5,4,1,2026-03-13T13:21:05.612234+05:30
Bhagalpur,Bihar,25.2425,87.0117,33.1,48,0.0,1000.1,7.5,26.6,176,121.5,90.3,0,5,4,1,2026-03-13T13:21:05.612241+05:30
Ranchi,Jharkhand,23.3441,85.3096,33.5,16,0.0,938.7,8.2,29.9,88,31.2,12.8,0,5,7,0,2026-03-13T13:21:05.612247+05:30
Jamshedpur,Jharkhand,22.8046,86.2029,35.8,26,0.0,990.3,8.1,16.6,162,82.4,43.3,0,5,10,0,2026-03-13T13:21:05.612253+05:30
Dhanbad,Jharkhand,23.7957,86.4304,36.0,20,0.0,979.5,8.0,29.9,176,107.3,52.5,0,5,10,0,2026-03-13T13:21:05.612259+05:30
Bokaro,Jharkhand,23.6693,86.1511,35.8,18,0.0,983.5,8.0,31.0,157,75.9,30.2,0,5,10,0,2026-03-13T13:21:05.612265+05:30
Bhubaneswar,Odisha,20.2961,85.8245,33.3,54,0.0,1002.9,8.4,34.9,112,42.6,34.1,0,5,4,1,2026-03-13T13:21:05.612271+05:30
Cuttack,Odisha,20.4625,85.8828,35.5,46,0.0,1004.2,8.45,30.6,112,42.6,34.1,0,5,7,1,2026-03-13T13:21:05.612278+05:30
Rourkela,Odisha,22.2604,84.8536,37.5,16,0.0,984.7,8.0,26.3,106,60.1,22.6,0,5,10,0,2026-03-13T13:21:05.612284+05:30
Raipur,Chhattisgarh,21.2514,81.6296,38.1,15,0.0,974.8,8.15,17.6,145,60.1,38.2,0,5,10,0,2026-03-13T13:21:05.612290+05:30
Bhilai,Chhattisgarh,21.1938,81.3509,38.6,15,0.0,975.2,8.15,13.3,144,52.0,34.8,0,5,10,0,2026-03-13T13:21:05.612296+05:30
Guwahati,Assam,26.1158,91.7086,24.2,85,0.0,1001.8,6.9,32.8,160,63.1,57.6,3,5,4,1,2026-03-13T13:21:05.612302+05:30
Agartala,Tripura,23.8315,91.2868,27.6,76,0.0,1006.7,7.6,28.1,147,38.6,33.9,7,5,4,1,2026-03-13T13:21:05.612308+05:30
Shillong,Meghalaya,25.5788,91.8933,16.8,73,0.0,855.6,7.0,54.0,152,40.5,35.7,3,5,7,0,2026-03-13T13:21:05.612314+05:30
Imphal,Manipur,24.817,93.9368,22.2,69,0.0,922.9,7.4,62.6,156,71.0,58.4,3,5,7,1,2026-03-13T13:21:05.612321+05:30
Aizawl,Mizoram,23.7271,92.7176,23.7,59,0.0,893.5,7.15,72.4,154,66.4,55.1,0,5,7,0,2026-03-13T13:21:05.612327+05:30
Kohima,Nagaland,25.6701,94.1077,17.8,83,0.0,854.2,6.25,81.4,136,61.7,52.4,3,10,7,0,2026-03-13T13:21:05.612334+05:30
Gangtok,Sikkim,27.3314,88.6138,17.2,80,0.0,836.6,4.55,17.3,114,31.8,28.8,3,5,3,0,2026-03-13T13:21:05.612340+05:30
Siliguri,West Bengal,26.7271,88.3953,22.4,77,0.0,993.9,7.3,30.6,160,57.0,52.0,3,5,7,1,2026-03-13T13:21:08.831968+05:30
Durgapur,West Bengal,23.5204,87.3119,36.5,21,0.0,994.0,7.95,29.2,177,123.4,74.3,0,5,10,0,2026-03-13T13:21:08.831997+05:30
Asansol,West Bengal,23.6739,86.9524,36.1,21,0.0,992.7,7.95,27.0,175,121.5,64.3,0,5,10,0,2026-03-13T13:21:08.832007+05:30
Pondicherry,Puducherry,11.9139,79.8145,33.8,51,0.0,1009.0,9.0,27.7,65,17.9,12.7,0,0,4,1,2026-03-13T13:21:08.832015+05:30
Port Blair,Andaman and Nicobar Islands,11.6234,92.7265,28.8,71,0.0,1007.0,8.95,23.4,62,11.5,9.1,7,5,4,1,2026-03-13T13:21:08.832023+05:30
Haridwar,Uttarakhand,29.9457,78.1642,30.5,38,0.0,975.1,5.45,28.4,94,49.2,21.0,0,5,3,0,2026-03-13T13:21:08.832030+05:30
Rishikesh,Uttarakhand,30.0869,78.2676,30.9,32,0.0,967.7,5.7,28.4,70,41.1,14.8,0,5,3,0,2026-03-13T13:21:08.832038+05:30
Nainital,Uttarakhand,29.3919,79.4542,23.3,50,0.0,808.7,6.7,44.3,91,42.7,21.8,0,5,7,0,2026-03-13T13:21:08.832045+05:30
Mussoorie,Uttarakhand,30.4599,78.0664,22.9,35,0.0,805.8,5.45,30.2,72,42.5,14.1,0,5,3,0,2026-03-13T13:21:08.832052+05:30
Dharamshala,Himachal Pradesh,32.219,76.3234,24.5,32,0.0,871.4,6.0,26.6,46,22.3,6.8,0,5,3,0,2026-03-13T13:21:08.832059+05:30
Dalhousie,Himachal Pradesh,32.5387,75.971,22.8,26,0.0,806.8,6.45,31.0,75,31.7,13.5,0,5,7,0,2026-03-13T13:21:08.832067+05:30
Patiala,Punjab,30.3398,76.3869,29.3,38,0.0,979.9,5.2,29.2,233,468.5,66.1,4,5,3,0,2026-03-13T13:21:08.832074+05:30
Bhatinda,Punjab,30.211,74.9455,28.8,42,0.0,986.5,6.05,27.7,136,53.3,27.5,4,5,7,0,2026-03-13T13:21:08.832080+05:30
Rohtak,Haryana,28.8955,76.6066,29.9,35,0.0,984.0,5.35,24.8,535,391.2,68.5,4,5,3,0,2026-03-13T13:21:08.832087+05:30
Panipat,Haryana,29.3909,76.9635,29.9,40,0.0,982.1,5.15,25.9,898,692.9,90.3,4,5,3,0,2026-03-13T13:21:08.832093+05:30
Mathura,Uttar Pradesh,27.4924,77.6737,33.6,26,0.0,988.4,5.8,26.3,642,784.2,113.9,0,5,3,0,2026-03-13T13:21:08.832100+05:30
Vrindavan,Uttar Pradesh,27.5823,77.7027,33.6,23,0.0,988.9,5.85,29.2,642,784.2,113.9,0,5,3,0,2026-03-13T13:21:08.832106+05:30
Ayodhya,Uttar Pradesh,26.7922,82.1998,32.4,46,0.0,995.5,6.4,28.8,160,285.0,100.4,0,5,7,1,2026-03-13T13:21:08.832113+05:30
Ratlam,Madhya Pradesh,23.3315,75.0367,35.4,15,0.0,956.5,7.6,29.2,51,16.2,8.0,0,5,10,0,2026-03-13T13:21:08.832119+05:30
Sagar,Madhya Pradesh,23.8388,78.7378,36.2,14,0.0,951.7,7.5,28.1,58,13.9,11.3,0,5,10,0,2026-03-13T13:21:08.832126+05:30
Satna,Madhya Pradesh,24.6005,80.8322,37.0,13,0.0,972.0,7.15,29.9,65,95.7,19.9,0,5,10,0,2026-03-13T13:21:08.832132+05:30
Akola,Maharashtra,20.7002,77.0082,38.8,16,0.0,975.5,8.05,20.2,79,23.1,17.2,0,5,10,0,2026-03-13T13:21:08.832139+05:30
Amravati,Maharashtra,20.9374,77.7796,38.4,15,0.0,968.1,8.0,14.0,86,24.0,16.8,0,5,10,0,2026-03-13T13:21:08.832146+05:30
Latur,Maharashtra,18.4088,76.5604,34.3,26,0.0,940.9,8.5,21.2,97,40.3,31.1,0,5,7,0,2026-03-13T13:21:08.832152+05:30
Nanded,Maharashtra,19.1383,77.3091,37.9,21,0.0,969.3,8.3,20.9,109,25.1,21.8,0,5,10,0,2026-03-13T13:21:08.832158+05:30
Gulbarga,Karnataka,17.3297,76.8343,37.2,21,0.0,959.3,8.6,32.0,91,34.8,27.8,0,5,10,0,2026-03-13T13:21:08.832164+05:30
Bidar,Karnataka,17.9104,77.5199,35.2,23,0.0,936.5,8.55,26.6,102,28.9,22.3,0,5,10,0,2026-03-13T13:21:08.832170+05:30
Hospet,Karnataka,15.2689,76.3909,34.4,31,0.0,956.4,8.9,24.1,87,35.4,28.2,0,5,7,0,2026-03-13T13:21:08.832176+05:30
Tirupur,Tamil Nadu,11.1085,77.3411,34.7,36,0.0,975.6,9.25,29.9,88,35.0,28.8,0,5,7,1,2026-03-13T13:21:08.832182+05:30
Alappuzha,Kerala,9.4981,76.3388,28.5,79,0.0,1008.3,9.1,27.7,91,29.4,27.6,7,0,4,1,2026-03-13T13:21:08.832188+05:30
Munnar,Kerala,10.0889,77.0595,31.4,23,0.0,859.4,9.55,24.1,72,17.6,13.9,0,5,7,0,2026-03-13T13:21:08.832195+05:30
Silchar,Assam,24.8333,92.7789,26.4,75,0.0,1005.3,7.75,36.4,165,109.0,89.2,7,5,4,1,2026-03-13T13:21:08.832201+05:30
Dibrugarh,Assam,27.4728,94.912,23.5,80,0.0,996.1,5.5,24.8,140,68.7,61.5,3,5,3,1,2026-03-13T13:21:08.832207+05:30
