city,state,latitude,longitude,temp,humidity,rain,pressure,uv_index,wind_gusts,aqi,pm10,pm2_5,no2,co,o3,so2,mosquito_risk,arthritis_risk,migraine_risk,frizz_risk,updated_at
Delhi,Delhi,28.6139,77.209,29.5,84,0.0,973.7,7.65,29.5,635,592.3,144.4,26.8,333.0,48.0,14.6,7,5,7,1,2026-07-12T23:30:13.416291+05:30
Mumbai,Maharashtra,19.076,72.8777,28.0,85,0.0,1006.7,6.6,56.5,52,31.3,13.6,4.8,142.0,45.0,4.6,7,5,4,1,2026-07-12T23:30:13.416338+05:30
Bangalore,Karnataka,12.9716,77.5946,22.6,82,0.0,911.4,8.8,48.2,47,13.8,8.9,9.6,226.0,42.0,4.2,3,5,7,1,2026-07-12T23:30:13.416354+05:30
Hyderabad,Telangana,17.385,78.4867,29.0,51,0.0,950.5,8.95,50.0,58,27.1,17.0,9.2,177.0,51.0,4.7,4,5,7,1,2026-07-12T23:30:13.416387+05:30
Chennai,Tamil Nadu,13.0827,80.2707,30.2,79,0.0,1003.8,8.85,34.2,72,29.0,17.6,7.0,159.0,83.0,6.2,3,5,4,1,2026-07-12T23:30:13.416397+05:30
Kolkata,West Bengal,22.5726,88.3639,28.2,92,0.0,998.4,8.5,25.2,145,69.8,57.3,13.7,418.0,80.0,11.7,7,5,7,1,2026-07-12T23:30:13.416406+05:30
Pune,Maharashtra,18.5204,73.8567,23.5,86,0.0,946.1,8.25,58.0,34,17.6,8.8,6.4,119.0,36.0,5.2,3,5,7,1,2026-07-12T23:30:13.416413+05:30
Ahmedabad,Gujarat,23.0225,72.5714,29.9,68,0.0,996.6,8.1,51.8,65,36.6,18.1,5.0,122.0,44.0,3.9,7,5,7,1,2026-07-12T23:30:13.416421+05:30
Jaipur,Rajasthan,26.9124,75.7873,29.0,64,0.0,951.7,8.15,37.8,370,370.7,78.0,12.8,171.0,52.0,5.6,7,5,7,1,2026-07-12T23:30:13.416428+05:30
Lucknow,Uttar Pradesh,26.8467,80.9462,29.7,71,0.0,984.6,8.2,36.7,124,80.6,40.9,11.7,188.0,66.0,7.3,7,5,7,1,2026-07-12T23:30:13.416439+05:30
Kanpur,Uttar Pradesh,26.4499,80.3319,29.8,68,0.0,983.3,7.75,40.0,109,93.1,39.0,11.4,173.0,69.0,7.8,7,5,7,1,2026-07-12T23:30:13.416446+05:30
Chandigarh,Chandigarh,30.7333,76.7794,27.4,87,0.0,959.6,7.7,52.9,160,177.9,93.1,34.1,885.0,78.0,20.6,7,5,7,1,2026-07-12T23:30:13.416454+05:30
Srinagar,Jammu and Kashmir,34.0837,74.7973,17.6,92,0.0,837.6,8.65,28.8,43,42.3,40.2,39.7,548.0,28.0,3.4,3,10,7,1,2026-07-12T23:30:13.416461+05:30
Jammu,Jammu and Kashmir,32.7266,74.857,25.6,91,0.0,963.4,8.6,30.6,138,119.7,79.6,54.7,783.0,38.0,9.8,7,5,7,1,2026-07-12T23:30:13.416468+05:30
Amritsar,Punjab,31.634,74.8723,27.0,82,0.0,971.2,8.45,37.1,159,183.5,109.0,49.0,1093.0,26.0,9.1,7,5,7,1,2026-07-12T23:30:13.416475+05:30
Ludhiana,Punjab,30.901,75.8573,28.7,83,0.0,969.3,7.9,41.0,170,161.6,101.5,41.2,418.0,37.0,8.6,7,5,7,1,2026-07-12T23:30:13.416481+05:30
Jalandhar,Punjab,31.326,75.5762,27.0,86,0.0,970.3,8.15,47.9,161,171.4,111.8,54.6,434.0,27.0,8.8,7,5,7,1,2026-07-12T23:30:13.416490+05:30
Dehradun,Uttarakhand,30.6284,78.0322,19.5,91,0.0,825.0,7.5,31.7,78,101.5,50.9,23.0,269.0,81.0,5.8,3,10,7,1,2026-07-12T23:30:13.416497+05:30
Shimla,Himachal Pradesh,31.1048,77.1734,16.4,72,0.0,779.1,8.25,47.9,101,91.0,46.3,16.2,299.0,94.0,8.5,3,5,7,0,2026-07-12T23:30:13.416504+05:30
Manali,Himachal Pradesh,32.2396,77.1887,19.6,74,0.0,814.6,8.6,35.3,99,13.8,12.1,14.7,307.0,120.0,0.1,3,5,7,0,2026-07-12T23:30:13.416517+05:30
Gurgaon,Haryana,28.4595,77.0266,29.5,81,0.0,972.2,7.7,32.4,806,1132.5,227.7,18.2,289.0,57.0,8.5,7,5,7,1,2026-07-12T23:30:13.416526+05:30
Noida,Uttar Pradesh,28.5355,77.391,29.4,85,0.0,975.1,7.7,28.1,806,1132.5,227.7,18.2,284.0,57.0,8.5,7,5,7,1,2026-07-12T23:30:13.416533+05:30
Ghaziabad,Uttar Pradesh,28.6692,77.4538,29.2,86,0.0,973.3,7.7,29.5,525,448.0,141.6,34.3,434.0,40.0,19.6,7,5,7,1,2026-07-12T23:30:13.416539+05:30
Faridabad,Haryana,28.4089,77.3178,29.7,83,0.0,974.4,7.75,31.3,806,1132.5,227.7,18.2,266.0,57.0,8.5,7,5,7,1,2026-07-12T23:30:13.416545+05:30
Meerut,Uttar Pradesh,28.9845,77.7064,29.1,83,0.0,972.1,7.55,36.4,525,448.0,141.6,34.3,519.0,40.0,19.6,7,5,7,1,2026-07-12T23:30:13.416551+05:30
Agra,Uttar Pradesh,27.1767,78.0081,30.6,62,0.0,978.6,8.0,38.2,137,170.0,46.7,16.0,229.0,53.0,6.1,3,5,7,1,2026-07-12T23:30:13.416557+05:30
Varanasi,Uttar Pradesh,25.3176,82.9739,30.5,67,0.0,989.4,8.25,37.1,94,46.7,31.9,14.0,255.0,59.0,8.5,3,5,7,1,2026-07-12T23:30:13.416564+05:30
Prayagraj,Uttar Pradesh,25.4358,81.8463,30.4,64,0.0,988.1,8.45,42.8,92,46.7,29.2,9.1,166.0,73.0,6.6,3,5,7,1,2026-07-12T23:30:13.416570+05:30
Gorakhpur,Uttar Pradesh,26.7606,83.3732,26.8,96,0.1,988.5,7.65,38.5,130,84.5,56.1,26.2,357.0,48.0,6.9,10,5,7,1,2026-07-12T23:30:13.416576+05:30
Bareilly,Uttar Pradesh,28.367,79.4304,29.4,82,0.0,977.6,8.0,31.7,173,252.4,97.6,19.4,257.0,49.0,6.9,7,5,7,1,2026-07-12T23:30:13.416585+05:30
Aligarh,Uttar Pradesh,27.8974,78.088,30.0,67,0.0,976.4,7.85,36.0,595,646.3,143.4,11.8,196.0,66.0,5.3,7,5,7,1,2026-07-12T23:30:13.416591+05:30
Moradabad,Uttar Pradesh,28.8386,78.7733,29.0,83,0.0,974.5,7.8,36.4,271,588.6,171.4,32.3,463.0,48.0,14.4,7,5,7,1,2026-07-12T23:30:13.416597+05:30
Saharanpur,Uttar Pradesh,29.9637,77.546,28.8,87,0.0,966.6,7.35,33.1,176,212.8,138.8,67.6,452.0,20.0,23.4,7,5,7,1,2026-07-12T23:30:13.416603+05:30
Jhansi,Uttar Pradesh,25.4484,78.5685,29.8,64,0.0,970.4,8.35,44.6,83,44.5,25.4,6.9,145.0,70.0,7.0,7,5,7,1,2026-07-12T23:30:16.774299+05:30
Surat,Gujarat,21.1702,72.8311,28.4,83,0.0,1003.2,5.85,68.4,59,28.6,15.4,11.6,186.0,38.0,20.1,7,5,0,1,2026-07-12T23:30:16.774332+05:30
Vadodara,Gujarat,22.3072,73.1812,28.4,82,0.0,999.6,8.05,62.3,59,32.6,17.6,7.3,112.0,40.0,7.1,7,5,7,1,2026-07-12T23:30:16.774342+05:30
Rajkot,Gujarat,22.3039,70.8022,27.7,81,0.0,988.6,7.7,61.6,58,32.0,15.6,2.9,97.0,45.0,2.5,7,5,7,1,2026-07-12T23:30:16.774352+05:30
Thane,Maharashtra,19.2183,72.9781,27.2,89,0.0,1006.0,6.05,52.6,52,31.3,13.6,4.8,165.0,45.0,4.6,7,5,4,1,2026-07-12T23:30:16.774381+05:30
Nagpur,Maharashtra,21.1458,79.0882,28.1,75,0.0,968.2,7.6,42.1,72,44.6,26.0,13.4,241.0,48.0,10.5,7,5,7,1,2026-07-12T23:30:16.774391+05:30
Nashik,Maharashtra,19.9975,73.7898,23.4,92,0.0,942.4,8.05,65.5,36,13.6,8.0,8.6,123.0,33.0,6.4,3,5,7,1,2026-07-12T23:30:16.774399+05:30
Aurangabad,Maharashtra,19.8762,75.3433,24.2,79,0.0,941.3,8.9,55.4,53,25.2,12.3,7.9,132.0,41.0,9.1,3,5,7,1,2026-07-12T23:30:16.774407+05:30
Solapur,Maharashtra,17.6599,75.9064,25.8,71,0.0,955.6,8.85,50.0,47,18.0,9.6,4.7,126.0,38.0,2.4,7,5,7,1,2026-07-12T23:30:16.774415+05:30
Kolhapur,Maharashtra,16.705,74.2433,23.7,93,0.0,947.2,8.3,54.4,32,14.6,8.6,5.1,120.0,36.0,2.6,3,5,7,1,2026-07-12T23:30:16.774422+05:30
Goa,Goa,15.2993,74.124,26.3,94,0.0,998.5,7.4,37.4,54,29.2,16.6,4.5,327.0,38.0,1.6,7,5,7,1,2026-07-12T23:30:16.774430+05:30
Jodhpur,Rajasthan,26.2389,73.0243,31.5,58,0.0,974.8,8.4,51.8,167,254.3,57.7,3.1,103.0,63.0,2.6,0,5,7,1,2026-07-12T23:30:16.774438+05:30
Udaipur,Rajasthan,24.5854,73.7125,26.4,84,0.0,939.8,8.8,56.2,71,37.8,20.8,5.3,130.0,58.0,5.5,7,5,7,1,2026-07-12T23:30:16.774446+05:30
Kota,Rajasthan,25.2138,75.8648,29.7,66,0.0,971.9,8.25,37.1,82,50.8,29.3,6.5,160.0,75.0,6.8,7,5,7,1,2026-07-12T23:30:16.774453+05:30
Bikaner,Rajasthan,28.0229,73.3119,32.0,56,0.0,972.1,8.45,41.4,158,340.9,89.9,2.9,135.0,59.0,2.8,0,5,7,1,2026-07-12T23:30:16.774460+05:30
Ajmer,Rajasthan,26.4499,74.6399,29.5,59,0.0,947.2,8.35,48.6,79,45.1,26.0,6.1,126.0,63.0,4.0,4,5,7,1,2026-07-12T23:30:16.774468+05:30
Gwalior,Madhya Pradesh,26.2183,78.1828,29.0,68,0.0,975.0,8.2,43.2,83,46.7,27.7,9.2,153.0,67.0,7.3,7,5,7,1,2026-07-12T23:30:16.774475+05:30
Indore,Madhya Pradesh,22.7196,75.8577,25.4,85,0.0,943.7,8.55,54.0,66,27.8,15.2,5.8,174.0,52.0,7.0,7,5,7,1,2026-07-12T23:30:16.774483+05:30
Bhopal,Madhya Pradesh,23.2599,77.4126,26.8,76,0.0,948.6,7.85,43.2,71,48.5,30.2,6.1,186.0,70.0,6.1,7,5,7,1,2026-07-12T23:30:16.774490+05:30
Jabalpur,Madhya Pradesh,23.1815,79.9864,26.4,79,0.0,955.7,6.5,39.2,72,44.2,24.2,5.7,219.0,63.0,4.7,7,5,7,1,2026-07-12T23:30:16.774497+05:30
Ujjain,Madhya Pradesh,23.1765,75.7885,26.0,83,0.0,949.1,8.35,54.0,66,26.9,14.8,5.4,158.0,51.0,7.5,7,5,7,1,2026-07-12T23:30:16.774505+05:30
Visakhapatnam,Andhra Pradesh,17.6868,83.2185,30.3,62,0.0,998.0,8.7,41.8,95,42.1,26.1,19.9,269.0,50.0,32.7,3,5,7,1,2026-07-12T23:30:16.774513+05:30
Vijayawada,Andhra Pradesh,16.5062,80.648,30.6,63,0.0,998.4,7.6,45.4,84,49.2,34.9,18.3,503.0,38.0,6.7,3,5,7,1,2026-07-12T23:30:16.774520+05:30
Guntur,Andhra Pradesh,16.3067,80.4365,31.9,52,0.0,999.7,8.2,48.2,77,46.6,32.4,18.4,291.0,38.0,6.5,0,5,7,1,2026-07-12T23:30:16.774528+05:30
Nellore,Andhra Pradesh,14.4426,79.9865,30.0,71,0.0,1002.4,7.95,45.7,68,36.8,24.8,11.4,200.0,70.0,7.1,7,5,4,1,2026-07-12T23:30:16.774536+05:30
Kurnool,Andhra Pradesh,15.8281,78.0373,30.4,51,0.0,974.7,8.35,48.2,53,19.3,10.7,5.6,138.0,51.0,4.4,0,5,7,1,2026-07-12T23:30:16.774545+05:30
Kakinada,Andhra Pradesh,16.9891,82.2475,29.5,69,0.0,1002.5,8.65,49.0,85,44.7,27.1,9.1,299.0,68.0,5.3,7,5,4,1,2026-07-12T23:30:16.774552+05:30
Tirupati,Andhra Pradesh,13.6288,79.4192,31.1,49,0.0,988.2,8.65,33.1,78,78.7,51.2,45.6,213.0,15.0,8.2,0,5,7,1,2026-07-12T23:30:16.774559+05:30
Warangal,Telangana,17.9689,79.5941,27.4,80,0.0,974.8,8.9,43.6,73,54.8,39.3,22.1,447.0,25.0,5.9,7,5,7,1,2026-07-12T23:30:16.774567+05:30
Nizamabad,Telangana,18.6725,78.0941,28.5,58,0.0,961.6,8.9,45.7,62,32.4,20.9,8.8,168.0,53.0,6.1,4,5,7,1,2026-07-12T23:30:16.774574+05:30
Mysore,Karnataka,12.2958,76.6396,21.7,94,0.0,928.7,8.65,44.3,40,12.8,7.6,7.2,135.0,37.0,2.5,3,5,7,1,2026-07-12T23:30:16.774581+05:30
Mangalore,Karnataka,12.9141,74.856,25.8,92,0.0,1007.9,5.45,42.1,42,20.4,11.7,5.5,148.0,34.0,2.6,7,5,0,1,2026-07-12T23:30:16.774588+05:30
Hubli-Dharwad,Karnataka,15.3647,75.124,23.0,93,0.0,940.6,8.8,50.4,30,11.8,6.5,4.6,111.0,36.0,1.7,3,5,7,1,2026-07-12T23:30:16.774595+05:30
Belgaum,Karnataka,15.8497,74.4977,21.7,98,0.0,925.1,8.5,50.8,30,10.4,5.8,4.3,107.0,36.0,1.6,3,5,7,1,2026-07-12T23:30:20.152720+05:30
Coimbatore,Tamil Nadu,11.0168,76.9558,23.9,93,0.0,961.5,8.2,56.5,41,10.9,8.5,8.6,177.0,28.0,3.3,3,5,7,1,2026-07-12T23:30:20.152754+05:30
Madurai,Tamil Nadu,9.9252,78.1198,29.4,58,0.0,991.8,8.0,39.2,64,13.3,9.8,9.4,133.0,37.0,4.3,4,5,7,1,2026-07-12T23:30:20.152765+05:30
Trichy,Tamil Nadu,10.7905,78.7047,29.4,60,0.0,998.2,8.4,55.8,52,15.4,7.9,5.3,116.0,41.0,2.7,4,5,7,1,2026-07-12T23:30:20.152775+05:30
Salem,Tamil Nadu,11.6643,78.146,26.6,76,0.0,976.7,8.65,33.5,62,18.2,12.0,10.4,286.0,38.0,5.5,7,5,7,1,2026-07-12T23:30:20.152784+05:30
Tirunelveli,Tamil Nadu,8.7139,77.7567,28.8,65,0.0,1002.0,7.95,46.4,31,10.2,6.9,5.6,139.0,36.0,2.3,7,5,4,1,2026-07-12T23:30:20.152793+05:30
Vellore,Tamil Nadu,12.9165,79.1325,32.5,43,0.0,982.1,8.45,41.0,64,24.6,15.8,8.4,168.0,55.0,3.8,0,5,7,1,2026-07-12T23:30:20.152801+05:30
Erode,Tamil Nadu,11.341,77.7172,26.9,75,0.0,988.4,8.55,51.8,53,21.6,14.6,14.6,158.0,30.0,4.0,7,5,7,1,2026-07-12T23:30:20.152809+05:30
Kochi,Kerala,9.9312,76.2673,27.1,87,0.0,1010.1,7.9,42.1,47,17.2,12.8,10.8,116.0,25.0,4.0,7,0,4,1,2026-07-12T23:30:20.152818+05:30
Thiruvananthapuram,Kerala,8.5241,76.9366,25.6,91,0.0,1009.5,7.65,49.3,36,14.3,8.5,3.7,116.0,41.0,1.6,7,0,4,1,2026-07-12T23:30:20.152826+05:30
Kozhikode,Kerala,11.2588,75.7804,25.1,97,0.0,1009.4,8.05,44.3,35,19.7,9.4,1.9,145.0,46.0,1.3,7,0,4,1,2026-07-12T23:30:20.152834+05:30
Thrissur,Kerala,10.5276,76.2144,25.4,95,0.0,1008.6,7.8,39.2,42,20.0,14.3,8.8,141.0,29.0,3.6,7,0,4,1,2026-07-12T23:30:20.152842+05:30
Kannur,Kerala,11.8745,75.3704,25.6,96,0.1,1008.5,7.8,46.8,39,16.7,9.3,5.4,153.0,34.0,2.0,10,0,4,1,2026-07-12T23:30:20.152849+05:30
Patna,Bihar,25.5941,85.1376,27.0,94,0.3,992.8,8.25,38.5,143,92.0,58.3,19.1,214.0,64.0,8.6,10,5,7,1,2026-07-12T23:30:20.152857+05:30
Gaya,Bihar,24.7914,85.0002,28.2,85,0.1,985.9,8.8,38.9,119,78.7,54.6,21.1,428.0,41.0,8.1,10,5,7,1,2026-07-12T23:30:20.152865+05:30
Muzaffarpur,Bihar,26.1209,85.3647,27.2,96,0.2,992.7,7.2,42.5,145,85.9,56.6,18.0,562.0,71.0,6.7,10,5,7,1,2026-07-12T23:30:20.152872+05:30
Bhagalpur,Bihar,25.2425,87.0117,28.7,93,0.0,992.7,8.35,40.3,127,79.2,55.6,23.9,550.0,50.0,10.4,7,5,7,1,2026-07-12T23:30:20.152880+05:30
Ranchi,Jharkhand,23.3441,85.3096,24.0,93,0.0,931.0,9.25,37.8,95,53.4,39.7,15.7,188.0,57.0,9.3,3,5,7,1,2026-07-12T23:30:20.152888+05:30
Jamshedpur,Jharkhand,22.8046,86.2029,26.5,95,0.2,983.9,9.05,29.2,112,47.1,35.9,15.6,196.0,73.0,22.8,10,5,7,1,2026-07-12T23:30:20.152895+05:30
Dhanbad,Jharkhand,23.7957,86.4304,26.3,92,0.0,972.4,8.8,29.5,155,138.8,114.3,70.1,202.0,13.0,187.9,7,5,7,1,2026-07-12T23:30:20.152903+05:30
Bokaro,Jharkhand,23.6693,86.1511,26.5,89,0.0,976.2,8.95,32.4,152,124.8,101.7,51.3,268.0,18.0,131.3,7,5,7,1,2026-07-12T23:30:20.152910+05:30
Bhubaneswar,Odisha,20.2961,85.8245,28.3,88,0.1,995.7,8.5,37.1,115,45.8,34.5,12.3,362.0,78.0,7.6,10,5,7,1,2026-07-12T23:30:20.152917+05:30
Cuttack,Odisha,20.4625,85.8828,28.9,85,0.0,997.4,8.4,39.6,115,45.8,34.5,12.3,383.0,78.0,7.6,7,5,7,1,2026-07-12T23:30:20.152925+05:30
Rourkela,Odisha,22.2604,84.8536,27.0,90,0.0,978.0,8.85,32.8,102,39.5,30.0,12.4,482.0,81.0,20.2,7,5,7,1,2026-07-12T23:30:20.152932+05:30
Raipur,Chhattisgarh,21.2514,81.6296,27.7,70,0.0,969.2,6.1,45.7,93,51.1,33.1,20.1,445.0,56.0,37.2,7,5,7,1,2026-07-12T23:30:20.152940+05:30
Bhilai,Chhattisgarh,21.1938,81.3509,27.4,72,0.0,969.8,7.4,47.5,88,49.0,30.4,15.6,524.0,59.0,28.9,7,5,7,1,2026-07-12T23:30:20.152948+05:30
Guwahati,Assam,26.1158,91.7086,25.9,99,0.1,993.7,4.15,18.7,36,13.1,12.7,8.5,311.0,62.0,2.3,10,5,3,1,2026-07-12T23:30:20.152955+05:30
Agartala,Tripura,23.8315,91.2868,26.0,98,0.1,998.7,7.9,31.7,84,36.8,31.7,10.7,249.0,82.0,4.5,10,5,7,1,2026-07-12T23:30:20.152963+05:30
Shillong,Meghalaya,25.5788,91.8933,21.0,96,0.0,851.7,3.55,39.6,36,2.4,2.2,3.9,259.0,83.0,3.0,3,5,3,1,2026-07-12T23:30:20.152970+05:30
Imphal,Manipur,24.817,93.9368,23.0,97,0.3,917.6,7.15,20.5,51,15.4,12.7,7.0,253.0,58.0,2.9,6,5,7,1,2026-07-12T23:30:20.152978+05:30
Aizawl,Mizoram,23.7271,92.7176,20.4,95,0.0,886.8,7.8,36.7,50,11.3,7.0,2.3,170.0,65.0,2.2,3,5,7,1,2026-07-12T23:30:20.152985+05:30
Kohima,Nagaland,25.6701,94.1077,20.6,98,0.0,850.6,8.05,19.4,27,6.4,5.5,6.0,209.0,49.0,1.2,3,5,7,1,2026-07-12T23:30:20.152993+05:30
Gangtok,Sikkim,27.3314,88.6138,19.8,92,0.1,832.6,4.0,30.2,49,2.5,2.5,3.6,298.0,106.0,1.1,6,10,3,1,2026-07-12T23:30:20.153001+05:30
Siliguri,West Bengal,26.7271,88.3953,25.9,96,0.2,984.6,7.9,23.4,49,13.4,12.8,8.0,436.0,93.0,2.9,10,5,7,1,2026-07-12T23:30:23.531780+05:30
Durgapur,West Bengal,23.5204,87.3119,27.0,96,0.0,988.0,5.2,28.1,152,71.7,60.8,30.9,673.0,52.0,44.0,7,5,3,1,2026-07-12T23:30:23.531815+05:30
Asansol,West Bengal,23.6739,86.9524,27.0,95,0.1,986.1,8.3,28.8,141,72.2,57.6,41.4,326.0,39.0,60.0,10,5,7,1,2026-07-12T23:30:23.531826+05:30
Pondicherry,Puducherry,11.9139,79.8145,29.9,72,0.0,1005.5,8.65,45.0,66,18.3,12.1,9.2,167.0,62.0,6.6,7,5,4,1,2026-07-12T23:30:23.531836+05:30
Port Blair,Andaman and Nicobar Islands,11.6234,92.7265,27.9,81,0.0,1005.0,8.7,55.8,50,24.6,10.1,0.2,84.0,50.0,0.4,7,5,4,1,2026-07-12T23:30:23.531845+05:30
Haridwar,Uttarakhand,29.9457,78.1642,28.0,90,0.0,965.0,7.45,37.4,161,140.6,84.3,26.2,312.0,45.0,10.0,7,5,7,1,2026-07-12T23:30:23.531854+05:30
Rishikesh,Uttarakhand,30.0869,78.2676,26.8,88,0.0,957.8,7.6,29.9,145,85.4,49.7,12.5,255.0,80.0,6.9,7,5,7,1,2026-07-12T23:30:23.531863+05:30
Nainital,Uttarakhand,29.3919,79.4542,17.3,100,0.0,800.3,6.3,32.8,154,224.0,71.7,10.7,285.0,95.0,5.1,3,10,7,1,2026-07-12T23:30:23.531872+05:30
Mussoorie,Uttarakhand,30.4599,78.0664,17.7,100,0.0,797.9,8.0,43.2,140,117.3,61.9,16.9,283.0,87.0,9.8,3,10,7,1,2026-07-12T23:30:23.531880+05:30
Dharamshala,Himachal Pradesh,32.219,76.3234,21.1,71,0.0,862.4,8.45,28.8,56,27.8,20.0,15.3,364.0,32.0,0.7,3,5,7,0,2026-07-12T23:30:23.531888+05:30
Dalhousie,Himachal Pradesh,32.5387,75.971,16.1,84,0.0,798.1,8.65,25.6,98,70.1,48.4,42.3,560.0,43.0,3.9,3,10,7,0,2026-07-12T23:30:23.531897+05:30
Patiala,Punjab,30.3398,76.3869,28.6,89,0.0,968.8,7.5,29.9,171,149.0,95.7,29.0,418.0,59.0,10.3,7,5,7,1,2026-07-12T23:30:23.531906+05:30
Bhatinda,Punjab,30.211,74.9455,31.0,79,0.0,974.0,8.25,37.1,363,247.7,127.6,18.7,366.0,84.0,9.3,3,5,7,1,2026-07-12T23:30:23.531914+05:30
Rohtak,Haryana,28.8955,76.6066,29.2,87,0.0,972.5,7.65,37.8,1124,2011.7,294.3,10.7,196.0,65.0,3.8,7,5,7,1,2026-07-12T23:30:23.531922+05:30
Panipat,Haryana,29.3909,76.9635,28.9,83,0.0,971.0,7.45,44.6,1539,2935.5,392.1,19.5,665.0,46.0,4.3,7,5,7,1,2026-07-12T23:30:23.531930+05:30
Mathura,Uttar Pradesh,27.4924,77.6737,30.8,61,0.0,977.7,7.95,36.7,898,1013.3,147.6,14.1,179.0,60.0,4.5,3,5,7,1,2026-07-12T23:30:23.531938+05:30
Vrindavan,Uttar Pradesh,27.5823,77.7027,30.9,62,0.0,978.1,7.9,36.0,898,1013.3,147.6,14.1,180.0,60.0,4.5,3,5,7,1,2026-07-12T23:30:23.531946+05:30
Ayodhya,Uttar Pradesh,26.7922,82.1998,27.3,95,0.0,986.4,7.05,36.4,136,108.3,69.8,32.2,551.0,33.0,9.4,7,5,7,1,2026-07-12T23:30:23.531955+05:30
Ratlam,Madhya Pradesh,23.3315,75.0367,25.5,86,0.0,949.7,8.45,58.0,64,26.1,13.9,5.8,136.0,46.0,8.1,7,5,7,1,2026-07-12T23:30:23.531963+05:30
Sagar,Madhya Pradesh,23.8388,78.7378,26.9,75,0.0,944.3,7.65,43.2,74,45.3,27.1,5.1,176.0,70.0,3.8,7,5,7,1,2026-07-12T23:30:23.531971+05:30
Satna,Madhya Pradesh,24.6005,80.8322,27.8,70,0.0,964.7,8.5,45.7,77,43.5,25.4,5.5,166.0,67.0,3.7,7,5,7,1,2026-07-12T23:30:23.531979+05:30
Akola,Maharashtra,20.7002,77.0082,29.0,63,0.0,971.3,7.9,45.0,59,32.8,17.8,6.6,119.0,49.0,7.0,7,5,7,1,2026-07-12T23:30:23.531988+05:30
Amravati,Maharashtra,20.9374,77.7796,28.8,66,0.0,963.3,5.85,44.3,61,35.7,19.3,7.6,127.0,50.0,8.4,7,5,3,1,2026-07-12T23:30:23.531997+05:30
Latur,Maharashtra,18.4088,76.5604,25.6,70,0.0,937.6,8.85,46.8,51,24.3,11.4,3.9,116.0,46.0,2.6,7,5,7,1,2026-07-12T23:30:23.532005+05:30
Nanded,Maharashtra,19.1383,77.3091,28.4,61,0.0,965.5,8.85,39.6,57,32.9,18.2,4.6,144.0,63.0,4.1,7,5,7,1,2026-07-12T23:30:23.532013+05:30
Gulbarga,Karnataka,17.3297,76.8343,26.2,65,0.0,957.0,8.75,49.7,50,18.4,9.6,4.8,117.0,43.0,2.7,7,5,7,1,2026-07-12T23:30:23.532021+05:30
Bidar,Karnataka,17.9104,77.5199,26.5,64,0.0,933.0,8.9,47.9,55,25.8,13.9,4.6,131.0,55.0,2.3,7,5,7,1,2026-07-12T23:30:23.532029+05:30
Hospet,Karnataka,15.2689,76.3909,24.9,81,0.0,955.4,8.55,52.9,36,13.6,7.3,4.3,126.0,38.0,1.9,3,5,7,1,2026-07-12T23:30:23.532036+05:30
Tirupur,Tamil Nadu,11.1085,77.3411,25.0,87,0.0,975.0,8.4,61.9,56,25.3,17.8,18.7,152.0,24.0,5.3,7,5,7,1,2026-07-12T23:30:23.532044+05:30
Alappuzha,Kerala,9.4981,76.3388,27.4,85,0.0,1010.1,7.9,42.8,41,18.5,10.6,6.2,80.0,38.0,2.8,7,0,4,1,2026-07-12T23:30:23.532052+05:30
Munnar,Kerala,10.0889,77.0595,15.7,99,0.0,856.6,8.05,38.5,33,9.0,6.4,6.3,101.0,29.0,1.7,3,10,7,0,2026-07-12T23:30:23.532059+05:30
Silchar,Assam,24.8333,92.7789,26.2,97,0.2,998.4,6.4,30.2,73,30.9,21.0,5.7,248.0,74.0,4.7,10,5,7,1,2026-07-12T23:30:23.532067+05:30
Dibrugarh,Assam,27.4728,94.912,26.5,98,0.5,988.6,3.7,23.8,39,11.5,11.4,13.3,289.0,41.0,1.5,10,5,3,1,2026-07-12T23:30:23.532074+05:30
