city,state,latitude,longitude,temp,humidity,rain,pressure,uv_index,wind_gusts,aqi,pm10,pm2_5,mosquito_risk,arthritis_risk,migraine_risk,frizz_risk,updated_at
Delhi,Delhi,28.6139,77.209,18.7,80,0.0,984.0,5.65,21.2,399,157.4,54.0,3,5,3,0,2026-03-17T03:13:11.281351+05:30
Mumbai,Maharashtra,19.076,72.8777,26.8,79,0.0,1008.4,7.7,18.4,104,105.2,35.3,7,0,4,1,2026-03-17T03:13:11.281393+05:30
Bangalore,Karnataka,12.9716,77.5946,20.7,82,0.0,910.6,9.35,41.0,92,33.6,32.0,3,5,7,1,2026-03-17T03:13:11.281408+05:30
Hyderabad,Telangana,17.385,78.4867,22.0,80,0.0,952.4,7.95,20.9,95,20.3,17.9,3,5,7,1,2026-03-17T03:13:11.281418+05:30
Chennai,Tamil Nadu,13.0827,80.2707,26.0,85,0.0,1007.7,9.1,32.0,34,9.8,7.3,7,5,4,1,2026-03-17T03:13:11.281427+05:30
Kolkata,West Bengal,22.5726,88.3639,23.3,91,0.0,1006.2,8.1,56.2,74,22.3,19.4,3,5,4,1,2026-03-17T03:13:11.281436+05:30
Pune,Maharashtra,18.5204,73.8567,18.0,78,0.0,946.9,8.25,37.1,88,64.3,36.2,3,5,7,0,2026-03-17T03:13:11.281448+05:30
Ahmedabad,Gujarat,23.0225,72.5714,23.4,57,0.0,1001.7,7.55,19.8,64,37.3,19.1,0,5,4,0,2026-03-17T03:13:11.281457+05:30
Jaipur,Rajasthan,26.9124,75.7873,20.5,67,0.0,959.4,6.4,38.5,172,644.5,119.7,3,5,7,0,2026-03-17T03:13:11.281465+05:30
Lucknow,Uttar Pradesh,26.8467,80.9462,20.4,64,0.0,994.1,6.3,22.0,92,60.3,44.2,3,5,7,0,2026-03-17T03:13:11.281472+05:30
Kanpur,Uttar Pradesh,26.4499,80.3319,20.5,71,0.0,991.7,6.55,25.9,115,128.5,44.4,3,5,7,0,2026-03-17T03:13:11.281480+05:30
Chandigarh,Chandigarh,30.7333,76.7794,13.5,71,0.0,969.8,5.7,17.6,65,24.1,16.1,3,5,3,0,2026-03-17T03:13:11.281488+05:30
Srinagar,Jammu and Kashmir,34.0837,74.7973,2.7,87,0.0,838.2,6.95,15.5,69,21.3,21.0,3,10,7,0,2026-03-17T03:13:11.281495+05:30
Jammu,Jammu and Kashmir,32.7266,74.857,13.2,71,0.0,975.4,6.6,16.2,71,34.3,29.6,3,5,7,0,2026-03-17T03:13:11.281503+05:30
Amritsar,Punjab,31.634,74.8723,10.7,91,0.0,983.7,6.65,17.3,80,51.8,31.0,3,10,7,0,2026-03-17T03:13:11.281511+05:30
Ludhiana,Punjab,30.901,75.8573,12.5,77,0.0,980.6,6.35,14.4,77,36.0,18.3,3,5,7,0,2026-03-17T03:13:11.281518+05:30
Jalandhar,Punjab,31.326,75.5762,11.4,86,0.0,981.9,6.45,16.6,68,53.0,16.9,3,10,7,0,2026-03-17T03:13:11.281530+05:30
Dehradun,Uttarakhand,30.6284,78.0322,8.1,59,0.0,827.0,5.4,23.8,45,28.2,8.6,0,5,3,0,2026-03-17T03:13:11.281538+05:30
Shimla,Himachal Pradesh,31.1048,77.1734,6.4,61,0.0,779.9,5.75,23.0,66,35.5,10.3,3,5,3,1,2026-03-17T03:13:11.281545+05:30
Manali,Himachal Pradesh,32.2396,77.1887,5.4,38,0.0,813.7,8.5,29.9,54,23.4,10.7,0,5,7,1,2026-03-17T03:13:11.281552+05:30
Gurgaon,Haryana,28.4595,77.0266,16.6,87,0.0,982.4,5.8,20.2,1534,497.3,97.8,3,10,3,0,2026-03-17T03:13:11.281559+05:30
Noida,Uttar Pradesh,28.5355,77.391,18.7,83,0.0,985.4,5.45,20.5,1534,497.3,97.8,3,10,3,0,2026-03-17T03:13:11.281566+05:30
Ghaziabad,Uttar Pradesh,28.6692,77.4538,17.6,85,0.0,983.6,5.6,21.2,117,83.1,41.9,3,10,3,0,2026-03-17T03:13:11.281573+05:30
Faridabad,Haryana,28.4089,77.3178,17.8,86,0.0,984.5,5.35,20.5,1534,497.3,97.8,3,10,3,0,2026-03-17T03:13:11.281580+05:30
Meerut,Uttar Pradesh,28.9845,77.7064,16.6,83,0.0,982.1,5.9,17.6,117,83.1,41.9,3,10,3,0,2026-03-17T03:13:11.281586+05:30
Agra,Uttar Pradesh,27.1767,78.0081,19.2,77,0.0,988.0,6.2,16.2,882,786.0,109.0,3,5,7,0,2026-03-17T03:13:11.281592+05:30
Varanasi,Uttar Pradesh,25.3176,82.9739,21.0,81,0.0,998.2,7.35,18.0,145,77.1,61.0,3,5,7,1,2026-03-17T03:13:11.281602+05:30
Prayagraj,Uttar Pradesh,25.4358,81.8463,22.3,78,0.0,996.5,7.2,20.9,132,57.6,46.7,3,5,7,1,2026-03-17T03:13:11.281608+05:30
Gorakhpur,Uttar Pradesh,26.7606,83.3732,20.5,65,0.0,997.7,6.55,29.5,119,96.2,66.8,3,5,7,0,2026-03-17T03:13:11.281615+05:30
Bareilly,Uttar Pradesh,28.367,79.4304,18.8,70,0.0,987.2,5.7,16.9,101,68.0,44.0,3,5,3,0,2026-03-17T03:13:11.281621+05:30
Aligarh,Uttar Pradesh,27.8974,78.088,18.5,78,0.0,985.9,5.9,18.0,473,152.3,40.5,3,5,3,0,2026-03-17T03:13:11.281630+05:30
Moradabad,Uttar Pradesh,28.8386,78.7733,17.9,72,0.0,984.2,5.05,17.3,97,66.6,41.8,3,5,3,0,2026-03-17T03:13:11.281637+05:30
Saharanpur,Uttar Pradesh,29.9637,77.546,17.2,66,0.0,976.7,5.15,15.5,96,79.6,58.9,3,5,3,0,2026-03-17T03:13:11.281643+05:30
Jhansi,Uttar Pradesh,25.4484,78.5685,22.8,46,0.0,977.3,7.2,25.9,95,116.6,38.8,0,5,7,0,2026-03-17T03:13:14.632134+05:30
Surat,Gujarat,21.1702,72.8311,25.2,91,0.0,1006.7,7.4,26.3,99,40.2,27.3,7,5,4,1,2026-03-17T03:13:14.632164+05:30
Vadodara,Gujarat,22.3072,73.1812,23.9,82,0.0,1004.2,7.5,25.9,77,41.4,25.1,3,5,4,1,2026-03-17T03:13:14.632175+05:30
Rajkot,Gujarat,22.3039,70.8022,23.6,81,0.0,994.1,7.4,24.5,62,41.3,18.5,3,5,7,1,2026-03-17T03:13:14.632183+05:30
Thane,Maharashtra,19.2183,72.9781,25.0,89,0.0,1007.9,7.7,30.6,104,105.2,35.3,7,5,4,1,2026-03-17T03:13:14.632191+05:30
Nagpur,Maharashtra,21.1458,79.0882,25.4,58,0.0,972.1,8.05,21.2,97,47.7,44.5,4,5,7,1,2026-03-17T03:13:14.632199+05:30
Nashik,Maharashtra,19.9975,73.7898,20.1,72,0.0,944.7,7.9,27.4,79,90.3,33.2,3,5,7,0,2026-03-17T03:13:14.632207+05:30
Aurangabad,Maharashtra,19.8762,75.3433,21.9,60,0.0,943.2,8.35,29.2,66,42.8,21.1,0,5,7,0,2026-03-17T03:13:14.632214+05:30
Solapur,Maharashtra,17.6599,75.9064,22.9,58,0.0,956.1,8.55,24.8,90,41.3,38.6,0,5,7,0,2026-03-17T03:13:14.632221+05:30
Kolhapur,Maharashtra,16.705,74.2433,19.6,86,0.0,946.6,8.45,44.3,96,45.3,35.0,3,10,7,1,2026-03-17T03:13:14.632229+05:30
Goa,Goa,15.2993,74.124,26.8,81,0.0,997.2,8.75,36.7,87,56.9,33.2,7,5,7,1,2026-03-17T03:13:14.632236+05:30
Jodhpur,Rajasthan,26.2389,73.0243,22.3,46,0.0,982.6,6.45,30.6,100,149.9,36.9,0,5,7,0,2026-03-17T03:13:14.632244+05:30
Udaipur,Rajasthan,24.5854,73.7125,21.2,33,0.0,945.4,7.85,34.2,48,43.1,14.8,0,5,7,0,2026-03-17T03:13:14.632251+05:30
Kota,Rajasthan,25.2138,75.8648,21.4,37,0.0,977.5,7.3,28.1,72,15.8,10.7,0,5,7,0,2026-03-17T03:13:14.632259+05:30
Bikaner,Rajasthan,28.0229,73.3119,20.8,65,0.0,982.7,6.9,19.8,67,220.7,71.7,3,5,7,0,2026-03-17T03:13:14.632266+05:30
Ajmer,Rajasthan,26.4499,74.6399,20.8,62,0.0,954.1,7.05,37.4,67,222.1,51.1,3,5,7,0,2026-03-17T03:13:14.632273+05:30
Gwalior,Madhya Pradesh,26.2183,78.1828,22.5,59,0.0,982.9,6.9,30.6,104,88.7,31.3,0,5,7,0,2026-03-17T03:13:14.632280+05:30
Indore,Madhya Pradesh,22.7196,75.8577,21.1,60,0.0,947.2,7.7,31.0,65,31.4,19.7,0,5,7,0,2026-03-17T03:13:14.632287+05:30
Bhopal,Madhya Pradesh,23.2599,77.4126,21.1,51,0.0,952.9,7.65,29.9,55,37.3,25.6,0,5,7,0,2026-03-17T03:13:14.632294+05:30
Jabalpur,Madhya Pradesh,23.1815,79.9864,21.9,45,0.0,960.5,7.75,25.6,60,28.0,18.2,0,5,7,0,2026-03-17T03:13:14.632302+05:30
Ujjain,Madhya Pradesh,23.1765,75.7885,21.2,61,0.0,953.1,7.65,26.3,63,32.0,19.4,3,5,7,0,2026-03-17T03:13:14.632309+05:30
Visakhapatnam,Andhra Pradesh,17.6868,83.2185,24.2,88,0.0,1005.1,8.7,40.0,55,16.1,13.9,3,5,4,1,2026-03-17T03:13:14.632316+05:30
Vijayawada,Andhra Pradesh,16.5062,80.648,23.7,87,0.0,1003.6,8.8,28.4,42,11.4,10.1,3,5,4,1,2026-03-17T03:13:14.632323+05:30
Guntur,Andhra Pradesh,16.3067,80.4365,23.6,89,0.0,1004.8,8.8,28.1,40,10.2,9.1,3,5,4,1,2026-03-17T03:13:14.632331+05:30
Nellore,Andhra Pradesh,14.4426,79.9865,25.0,87,0.0,1006.5,8.95,29.9,39,7.1,5.3,7,5,4,1,2026-03-17T03:13:14.632338+05:30
Kurnool,Andhra Pradesh,15.8281,78.0373,25.6,64,0.0,976.3,8.25,32.0,75,13.7,12.8,7,5,7,1,2026-03-17T03:13:14.632347+05:30
Kakinada,Andhra Pradesh,16.9891,82.2475,22.4,94,0.0,1008.9,8.75,28.1,33,11.3,8.7,3,0,4,1,2026-03-17T03:13:14.632355+05:30
Tirupati,Andhra Pradesh,13.6288,79.4192,23.5,89,0.0,992.4,9.05,27.4,58,20.7,18.7,3,5,7,1,2026-03-17T03:13:14.632362+05:30
Warangal,Telangana,17.9689,79.5941,23.4,79,0.0,978.7,8.3,32.8,70,12.9,11.9,3,5,7,1,2026-03-17T03:13:14.632369+05:30
Nizamabad,Telangana,18.6725,78.0941,24.6,63,0.0,963.8,8.45,31.7,129,48.8,44.5,3,5,7,1,2026-03-17T03:13:14.632376+05:30
Mysore,Karnataka,12.2958,76.6396,20.2,88,0.0,928.1,9.35,36.4,113,50.8,47.5,3,5,7,1,2026-03-17T03:13:14.632383+05:30
Mangalore,Karnataka,12.9141,74.856,26.7,81,0.0,1006.0,8.95,19.8,101,42.0,31.9,7,5,4,1,2026-03-17T03:13:14.632390+05:30
Hubli-Dharwad,Karnataka,15.3647,75.124,21.6,93,0.0,939.7,8.8,32.0,98,28.8,20.6,3,5,7,1,2026-03-17T03:13:14.632397+05:30
Belgaum,Karnataka,15.8497,74.4977,20.0,97,0.0,924.2,8.95,31.0,82,45.9,29.1,3,5,7,1,2026-03-17T03:13:17.985401+05:30
Coimbatore,Tamil Nadu,11.0168,76.9558,22.3,94,0.0,961.5,9.35,29.9,93,43.0,40.5,3,5,7,1,2026-03-17T03:13:17.985433+05:30
Madurai,Tamil Nadu,9.9252,78.1198,24.5,84,0.0,993.1,8.1,21.2,54,18.5,16.7,3,5,7,1,2026-03-17T03:13:17.985445+05:30
Trichy,Tamil Nadu,10.7905,78.7047,25.6,91,0.0,1000.1,9.2,22.7,56,17.5,15.5,7,5,4,1,2026-03-17T03:13:17.985456+05:30
Salem,Tamil Nadu,11.6643,78.146,24.5,85,0.0,977.4,9.25,25.9,71,27.0,25.7,3,5,7,1,2026-03-17T03:13:17.985466+05:30
Tirunelveli,Tamil Nadu,8.7139,77.7567,25.1,85,0.0,1002.9,7.3,36.0,60,27.1,25.9,7,5,4,1,2026-03-17T03:13:17.985476+05:30
Vellore,Tamil Nadu,12.9165,79.1325,23.1,91,0.0,985.2,9.15,32.0,77,31.1,28.9,3,5,7,1,2026-03-17T03:13:17.985485+05:30
Erode,Tamil Nadu,11.341,77.7172,25.5,81,0.0,989.3,9.25,29.9,53,11.5,10.4,7,5,7,1,2026-03-17T03:13:17.985495+05:30
Kochi,Kerala,9.9312,76.2673,27.1,83,0.0,1008.3,8.95,32.0,82,32.6,31.8,7,0,4,1,2026-03-17T03:13:17.985505+05:30
Thiruvananthapuram,Kerala,8.5241,76.9366,27.4,84,0.0,1007.4,7.8,22.7,61,15.8,14.1,7,5,4,1,2026-03-17T03:13:17.985514+05:30
Kozhikode,Kerala,11.2588,75.7804,26.4,84,0.0,1007.6,8.95,28.4,80,39.9,34.2,7,5,4,1,2026-03-17T03:13:17.985524+05:30
Thrissur,Kerala,10.5276,76.2144,25.2,90,0.0,1006.8,9.05,34.2,82,31.2,29.2,7,5,4,1,2026-03-17T03:13:17.985534+05:30
Kannur,Kerala,11.8745,75.3704,27.3,85,0.0,1006.4,9.0,29.5,96,49.8,46.1,7,5,4,1,2026-03-17T03:13:17.985543+05:30
Patna,Bihar,25.5941,85.1376,23.4,71,0.0,1000.8,7.5,25.9,153,78.5,63.3,3,5,4,1,2026-03-17T03:13:17.985552+05:30
Gaya,Bihar,24.7914,85.0002,22.5,74,0.0,993.5,7.6,27.7,121,45.4,37.3,3,5,7,1,2026-03-17T03:13:17.985561+05:30
Muzaffarpur,Bihar,26.1209,85.3647,20.6,76,0.0,1000.8,7.45,34.2,156,93.1,76.6,3,5,4,1,2026-03-17T03:13:17.985570+05:30
Bhagalpur,Bihar,25.2425,87.0117,23.2,81,0.0,1000.6,7.5,27.7,152,58.9,41.1,3,5,4,1,2026-03-17T03:13:17.985579+05:30
Ranchi,Jharkhand,23.3441,85.3096,20.6,79,0.0,937.3,8.2,47.9,124,45.8,40.5,3,5,7,1,2026-03-17T03:13:17.985588+05:30
Jamshedpur,Jharkhand,22.8046,86.2029,21.7,85,0.0,991.2,8.15,39.6,137,62.2,55.8,3,5,7,1,2026-03-17T03:13:17.985597+05:30
Dhanbad,Jharkhand,23.7957,86.4304,23.0,72,0.0,979.7,8.0,47.2,156,109.7,98.7,3,5,7,1,2026-03-17T03:13:17.985606+05:30
Bokaro,Jharkhand,23.6693,86.1511,23.2,71,0.0,983.7,8.0,53.3,151,88.5,79.6,3,5,7,1,2026-03-17T03:13:17.985615+05:30
Bhubaneswar,Odisha,20.2961,85.8245,24.6,86,0.0,1003.4,8.3,35.3,71,12.5,10.6,3,5,4,1,2026-03-17T03:13:17.985625+05:30
Cuttack,Odisha,20.4625,85.8828,24.2,94,0.0,1005.3,8.1,30.6,71,12.5,10.6,3,5,4,1,2026-03-17T03:13:17.985634+05:30
Rourkela,Odisha,22.2604,84.8536,23.4,77,0.0,985.9,8.05,48.6,137,54.5,47.7,3,5,7,1,2026-03-17T03:13:17.985644+05:30
Raipur,Chhattisgarh,21.2514,81.6296,25.0,66,0.0,974.2,8.15,31.3,124,54.0,50.5,7,5,7,1,2026-03-17T03:13:17.985653+05:30
Bhilai,Chhattisgarh,21.1938,81.3509,24.7,67,0.0,974.6,8.15,34.9,120,55.3,51.7,3,5,7,1,2026-03-17T03:13:17.985663+05:30
Guwahati,Assam,26.1158,91.7086,20.4,87,0.0,1002.2,7.45,45.4,78,26.6,22.5,3,5,4,1,2026-03-17T03:13:17.985672+05:30
Agartala,Tripura,23.8315,91.2868,23.2,95,0.0,1007.1,7.85,43.6,71,20.8,18.9,3,5,4,1,2026-03-17T03:13:17.985681+05:30
Shillong,Meghalaya,25.5788,91.8933,12.5,86,0.0,854.1,6.5,77.8,52,16.1,13.6,3,10,7,0,2026-03-17T03:13:17.985710+05:30
Imphal,Manipur,24.817,93.9368,15.9,83,0.0,923.4,8.1,91.4,82,28.6,25.7,3,10,7,0,2026-03-17T03:13:17.985720+05:30
Aizawl,Mizoram,23.7271,92.7176,17.0,82,0.0,892.6,8.05,61.9,95,54.8,44.5,3,10,7,0,2026-03-17T03:13:17.985731+05:30
Kohima,Nagaland,25.6701,94.1077,14.2,75,0.0,853.4,8.05,99.4,69,21.1,17.9,3,5,7,0,2026-03-17T03:13:17.985740+05:30
Gangtok,Sikkim,27.3314,88.6138,9.4,77,0.0,834.4,7.75,19.4,71,41.7,20.8,3,5,7,0,2026-03-17T03:13:17.985749+05:30
Siliguri,West Bengal,26.7271,88.3953,18.9,65,0.0,994.2,7.4,43.2,105,61.5,41.8,3,5,7,0,2026-03-17T03:13:21.339386+05:30
Durgapur,West Bengal,23.5204,87.3119,22.5,87,0.0,995.0,8.0,47.9,153,92.0,80.6,3,5,7,1,2026-03-17T03:13:21.339413+05:30
Asansol,West Bengal,23.6739,86.9524,23.1,80,0.0,993.6,8.0,46.8,152,84.5,71.9,3,5,7,1,2026-03-17T03:13:21.339423+05:30
Pondicherry,Puducherry,11.9139,79.8145,24.7,93,0.0,1009.0,9.1,28.1,33,9.5,6.5,3,0,4,1,2026-03-17T03:13:21.339430+05:30
Port Blair,Andaman and Nicobar Islands,11.6234,92.7265,27.2,81,0.0,1007.1,9.0,19.1,75,13.5,11.6,7,5,4,1,2026-03-17T03:13:21.339438+05:30
Haridwar,Uttarakhand,29.9457,78.1642,17.9,60,0.0,975.3,5.15,18.4,67,19.7,14.1,0,5,3,0,2026-03-17T03:13:21.339445+05:30
Rishikesh,Uttarakhand,30.0869,78.2676,16.6,57,0.0,967.9,5.35,19.8,54,22.1,10.5,0,5,3,0,2026-03-17T03:13:21.339452+05:30
Nainital,Uttarakhand,29.3919,79.4542,14.8,47,0.0,804.5,5.2,37.8,62,16.9,11.6,0,5,3,0,2026-03-17T03:13:21.339459+05:30
Mussoorie,Uttarakhand,30.4599,78.0664,10.9,52,0.0,800.0,5.75,30.2,59,22.5,13.0,0,5,3,0,2026-03-17T03:13:21.339465+05:30
Dharamshala,Himachal Pradesh,32.219,76.3234,13.0,27,0.0,867.4,6.0,26.6,60,11.6,4.6,0,5,3,1,2026-03-17T03:13:21.339472+05:30
Dalhousie,Himachal Pradesh,32.5387,75.971,8.7,30,0.0,800.3,6.25,24.8,56,20.1,13.9,0,5,7,1,2026-03-17T03:13:21.339480+05:30
Patiala,Punjab,30.3398,76.3869,13.4,81,0.0,979.7,5.85,16.9,75,42.7,30.9,3,10,3,0,2026-03-17T03:13:21.339488+05:30
Bhatinda,Punjab,30.211,74.9455,13.4,82,0.0,986.0,6.6,19.1,87,45.9,25.7,3,10,7,0,2026-03-17T03:13:21.339495+05:30
Rohtak,Haryana,28.8955,76.6066,15.4,81,0.0,982.8,6.0,24.1,682,249.6,67.5,3,10,3,0,2026-03-17T03:13:21.339501+05:30
Panipat,Haryana,29.3909,76.9635,15.1,80,0.0,981.5,5.9,16.6,300,155.1,58.3,3,5,3,0,2026-03-17T03:13:21.339509+05:30
Mathura,Uttar Pradesh,27.4924,77.6737,18.3,79,0.0,987.3,6.35,17.6,860,449.8,77.5,3,5,7,0,2026-03-17T03:13:21.339515+05:30
Vrindavan,Uttar Pradesh,27.5823,77.7027,18.2,78,0.0,987.8,6.4,18.0,860,449.8,77.5,3,5,7,0,2026-03-17T03:13:21.339522+05:30
Ayodhya,Uttar Pradesh,26.7922,82.1998,20.0,61,0.0,996.1,6.85,25.2,104,101.7,72.2,3,5,7,0,2026-03-17T03:13:21.339529+05:30
Ratlam,Madhya Pradesh,23.3315,75.0367,24.1,55,0.0,954.1,7.6,33.1,60,36.8,19.1,0,5,7,0,2026-03-17T03:13:21.339536+05:30
Sagar,Madhya Pradesh,23.8388,78.7378,21.4,43,0.0,949.2,7.55,31.3,49,19.1,12.7,0,5,7,0,2026-03-17T03:13:21.339542+05:30
Satna,Madhya Pradesh,24.6005,80.8322,22.6,70,0.0,971.2,7.55,35.3,87,58.4,48.4,3,5,7,1,2026-03-17T03:13:21.339549+05:30
Akola,Maharashtra,20.7002,77.0082,24.3,49,0.0,974.1,8.05,25.9,70,47.4,30.5,0,5,7,0,2026-03-17T03:13:21.339556+05:30
Amravati,Maharashtra,20.9374,77.7796,24.1,52,0.0,966.1,8.0,31.0,74,48.5,35.9,0,5,7,0,2026-03-17T03:13:21.339563+05:30
Latur,Maharashtra,18.4088,76.5604,21.6,69,0.0,938.7,8.55,25.2,93,42.3,39.1,3,5,7,0,2026-03-17T03:13:21.339570+05:30
Nanded,Maharashtra,19.1383,77.3091,24.2,65,0.0,967.8,8.3,19.8,105,60.5,55.3,3,5,7,1,2026-03-17T03:13:21.339577+05:30
Gulbarga,Karnataka,17.3297,76.8343,24.8,64,0.0,957.8,8.3,29.9,109,45.4,40.9,3,5,7,1,2026-03-17T03:13:21.339583+05:30
Bidar,Karnataka,17.9104,77.5199,23.5,61,0.0,934.1,8.55,28.8,123,43.3,38.9,3,5,7,0,2026-03-17T03:13:21.339590+05:30
Hospet,Karnataka,15.2689,76.3909,24.9,72,0.0,955.1,8.7,46.8,117,48.2,43.8,3,5,7,1,2026-03-17T03:13:21.339597+05:30
Tirupur,Tamil Nadu,11.1085,77.3411,23.7,82,0.0,975.3,9.35,34.2,74,29.3,27.8,3,5,7,1,2026-03-17T03:13:21.339604+05:30
Alappuzha,Kerala,9.4981,76.3388,27.2,83,0.0,1008.4,9.05,30.2,79,24.5,22.8,7,0,4,1,2026-03-17T03:13:21.339611+05:30
Munnar,Kerala,10.0889,77.0595,17.2,91,0.0,854.7,9.6,29.2,72,26.5,25.4,3,10,7,0,2026-03-17T03:13:21.339618+05:30
Silchar,Assam,24.8333,92.7789,19.7,91,0.0,1007.9,7.9,43.2,66,23.3,20.2,3,10,4,1,2026-03-17T03:13:21.339625+05:30
Dibrugarh,Assam,27.4728,94.912,18.7,91,0.0,996.9,6.25,42.8,79,29.5,24.2,3,10,7,1,2026-03-17T03:13:21.339631+05:30
