city,state,latitude,longitude,temp,humidity,rain,pressure,uv_index,wind_gusts,aqi,pm10,pm2_5,mosquito_risk,arthritis_risk,migraine_risk,frizz_risk,updated_at
Delhi,Delhi,28.6139,77.209,16.9,78,0.0,985.6,5.85,35.6,208,300.8,75.7,3,5,3,0,2026-03-03T04:01:36.025066+05:30
Mumbai,Maharashtra,19.076,72.8777,26.8,76,0.0,1009.4,7.35,27.4,91,40.5,34.2,7,0,4,1,2026-03-03T04:01:36.025111+05:30
Bangalore,Karnataka,12.9716,77.5946,20.2,74,0.0,911.3,9.1,39.2,129,42.4,41.4,3,5,7,0,2026-03-03T04:01:36.025127+05:30
Hyderabad,Telangana,17.385,78.4867,22.6,73,0.0,954.0,8.35,23.8,142,61.7,60.5,3,5,7,1,2026-03-03T04:01:36.025137+05:30
Chennai,Tamil Nadu,13.0827,80.2707,23.2,90,0.0,1008.2,8.8,29.5,122,51.7,47.3,3,0,4,1,2026-03-03T04:01:36.025146+05:30
Kolkata,West Bengal,22.5726,88.3639,20.3,78,0.0,1008.5,7.7,18.0,165,147.1,135.5,3,0,4,1,2026-03-03T04:01:36.025154+05:30
Pune,Maharashtra,18.5204,73.8567,21.6,72,0.0,949.1,7.9,32.0,92,34.7,32.2,3,5,7,1,2026-03-03T04:01:36.025166+05:30
Ahmedabad,Gujarat,23.0225,72.5714,22.4,65,0.0,1004.9,7.15,20.2,103,58.3,50.1,3,5,4,0,2026-03-03T04:01:36.025174+05:30
Jaipur,Rajasthan,26.9124,75.7873,19.9,52,0.0,962.5,6.6,28.8,95,159.7,43.0,0,5,7,0,2026-03-03T04:01:36.025182+05:30
Lucknow,Uttar Pradesh,26.8467,80.9462,18.3,71,0.0,995.8,6.3,34.6,153,240.3,66.1,3,5,7,0,2026-03-03T04:01:36.025189+05:30
Kanpur,Uttar Pradesh,26.4499,80.3319,17.2,84,0.0,994.3,6.3,28.8,174,383.7,77.5,3,10,7,0,2026-03-03T04:01:36.025197+05:30
Chandigarh,Chandigarh,30.7333,76.7794,16.4,70,0.0,970.7,5.7,34.2,81,29.6,26.1,3,5,3,0,2026-03-03T04:01:36.025204+05:30
Srinagar,Jammu and Kashmir,34.0837,74.7973,2.9,62,0.0,839.5,6.6,15.8,144,71.7,59.6,3,5,7,1,2026-03-03T04:01:36.025212+05:30
Jammu,Jammu and Kashmir,32.7266,74.857,15.0,58,0.0,975.1,6.3,24.5,103,44.9,41.2,0,5,7,0,2026-03-03T04:01:36.025220+05:30
Amritsar,Punjab,31.634,74.8723,14.8,80,0.0,983.6,6.25,28.4,124,38.0,32.2,3,5,7,0,2026-03-03T04:01:36.025227+05:30
Ludhiana,Punjab,30.901,75.8573,16.6,71,0.0,981.5,5.9,30.6,153,71.0,56.5,3,5,3,0,2026-03-03T04:01:36.025234+05:30
Jalandhar,Punjab,31.326,75.5762,16.1,75,0.0,982.7,6.1,26.6,153,84.8,65.7,3,5,7,0,2026-03-03T04:01:36.025242+05:30
Dehradun,Uttarakhand,30.6284,78.0322,10.2,61,0.0,827.4,6.05,31.0,58,18.6,17.0,3,5,7,0,2026-03-03T04:01:36.025250+05:30
Shimla,Himachal Pradesh,31.1048,77.1734,7.7,60,0.0,781.2,6.1,43.6,73,35.6,30.2,0,5,7,0,2026-03-03T04:01:36.025257+05:30
Manali,Himachal Pradesh,32.2396,77.1887,15.1,10,0.0,818.6,7.45,35.3,55,17.8,14.1,0,5,7,1,2026-03-03T04:01:36.025264+05:30
Gurgaon,Haryana,28.4595,77.0266,13.9,89,0.0,984.1,5.95,32.4,893,987.2,143.0,3,10,3,0,2026-03-03T04:01:36.025271+05:30
Noida,Uttar Pradesh,28.5355,77.391,17.1,76,0.0,987.1,5.85,34.9,893,987.2,143.0,3,5,3,0,2026-03-03T04:01:36.025278+05:30
Ghaziabad,Uttar Pradesh,28.6692,77.4538,16.8,77,0.0,985.1,5.8,34.9,179,250.5,68.7,3,5,3,0,2026-03-03T04:01:36.025284+05:30
Faridabad,Haryana,28.4089,77.3178,16.1,76,0.0,986.3,5.85,31.7,893,987.2,143.0,3,5,3,0,2026-03-03T04:01:36.025291+05:30
Meerut,Uttar Pradesh,28.9845,77.7064,15.3,81,0.0,983.4,5.7,41.0,179,250.5,68.7,3,10,3,0,2026-03-03T04:01:36.025297+05:30
Agra,Uttar Pradesh,27.1767,78.0081,16.3,88,0.0,991.0,6.15,29.5,411,551.3,100.6,3,10,7,0,2026-03-03T04:01:36.025304+05:30
Varanasi,Uttar Pradesh,25.3176,82.9739,17.9,74,0.0,1000.2,6.95,25.2,92,65.9,31.9,3,5,4,0,2026-03-03T04:01:36.025315+05:30
Prayagraj,Uttar Pradesh,25.4358,81.8463,17.8,70,0.0,998.8,6.8,24.5,104,139.7,48.4,3,5,7,0,2026-03-03T04:01:36.025322+05:30
Gorakhpur,Uttar Pradesh,26.7606,83.3732,15.7,73,0.0,999.1,6.7,21.6,130,118.0,55.9,3,5,7,0,2026-03-03T04:01:36.025328+05:30
Bareilly,Uttar Pradesh,28.367,79.4304,15.7,79,0.0,988.6,6.0,31.0,128,108.0,53.9,3,5,3,0,2026-03-03T04:01:36.025335+05:30
Aligarh,Uttar Pradesh,27.8974,78.088,15.9,82,0.0,988.1,5.9,34.9,524,555.1,109.4,3,10,3,0,2026-03-03T04:01:36.025343+05:30
Moradabad,Uttar Pradesh,28.8386,78.7733,15.3,79,0.0,985.3,5.85,30.2,136,115.7,61.0,3,5,3,0,2026-03-03T04:01:36.025350+05:30
Saharanpur,Uttar Pradesh,29.9637,77.546,15.1,83,0.0,977.2,5.45,44.3,112,76.4,55.5,3,10,3,0,2026-03-03T04:01:36.025356+05:30
Jhansi,Uttar Pradesh,25.4484,78.5685,17.0,78,0.0,980.7,6.75,25.2,74,59.8,26.5,3,5,7,0,2026-03-03T04:01:39.287741+05:30
Surat,Gujarat,21.1702,72.8311,22.8,70,0.0,1008.7,7.05,24.8,154,78.2,69.8,3,0,4,1,2026-03-03T04:01:39.287773+05:30
Vadodara,Gujarat,22.3072,73.1812,21.1,62,0.0,1006.9,7.15,15.8,152,106.4,100.4,3,5,4,0,2026-03-03T04:01:39.287783+05:30
Rajkot,Gujarat,22.3039,70.8022,21.0,81,0.0,997.2,7.0,21.2,66,30.3,18.5,3,5,7,1,2026-03-03T04:01:39.287791+05:30
Thane,Maharashtra,19.2183,72.9781,23.6,83,0.0,1009.0,7.35,38.2,91,40.5,34.2,3,0,4,1,2026-03-03T04:01:39.287798+05:30
Nagpur,Maharashtra,21.1458,79.0882,20.1,67,0.0,975.2,7.75,19.1,69,21.1,18.2,3,5,7,0,2026-03-03T04:01:39.287806+05:30
Nashik,Maharashtra,19.9975,73.7898,22.8,54,0.0,946.9,7.55,28.8,87,41.7,39.6,0,5,7,0,2026-03-03T04:01:39.287813+05:30
Aurangabad,Maharashtra,19.8762,75.3433,22.7,50,0.0,945.4,8.05,24.1,76,27.6,27.0,0,5,7,0,2026-03-03T04:01:39.287820+05:30
Solapur,Maharashtra,17.6599,75.9064,23.4,70,0.0,957.5,8.3,18.0,130,36.0,35.6,3,5,7,1,2026-03-03T04:01:39.287828+05:30
Kolhapur,Maharashtra,16.705,74.2433,19.4,96,0.0,947.8,8.4,40.0,118,43.8,41.4,3,10,7,1,2026-03-03T04:01:39.287835+05:30
Goa,Goa,15.2993,74.124,26.2,80,0.0,998.4,8.45,36.0,73,32.5,25.8,7,5,7,1,2026-03-03T04:01:39.287842+05:30
Jodhpur,Rajasthan,26.2389,73.0243,19.5,55,0.0,986.3,6.85,12.2,81,43.4,22.5,0,5,7,0,2026-03-03T04:01:39.287850+05:30
Udaipur,Rajasthan,24.5854,73.7125,17.2,61,0.0,948.9,7.45,16.6,67,27.8,20.3,3,5,7,0,2026-03-03T04:01:39.287856+05:30
Kota,Rajasthan,25.2138,75.8648,18.1,72,0.0,981.3,6.85,19.8,89,45.2,33.8,3,5,7,0,2026-03-03T04:01:39.287863+05:30
Bikaner,Rajasthan,28.0229,73.3119,21.2,59,0.0,985.4,6.55,19.8,67,44.0,21.2,0,5,7,0,2026-03-03T04:01:39.287869+05:30
Ajmer,Rajasthan,26.4499,74.6399,19.5,52,0.0,957.2,6.8,24.1,77,58.3,25.1,0,5,7,0,2026-03-03T04:01:39.287875+05:30
Gwalior,Madhya Pradesh,26.2183,78.1828,18.5,75,0.0,986.1,6.45,27.4,105,425.6,71.7,3,5,7,0,2026-03-03T04:01:39.287882+05:30
Indore,Madhya Pradesh,22.7196,75.8577,18.5,64,0.0,950.0,7.45,15.1,87,49.6,44.0,3,5,7,0,2026-03-03T04:01:39.287888+05:30
Bhopal,Madhya Pradesh,23.2599,77.4126,19.9,55,0.0,955.8,7.3,23.0,78,43.2,32.8,0,5,7,0,2026-03-03T04:01:39.287895+05:30
Jabalpur,Madhya Pradesh,23.1815,79.9864,18.0,59,0.0,963.6,7.4,18.4,71,37.7,27.1,0,5,7,0,2026-03-03T04:01:39.287906+05:30
Ujjain,Madhya Pradesh,23.1765,75.7885,18.1,68,0.0,955.8,7.3,15.1,108,53.4,50.9,3,5,7,0,2026-03-03T04:01:39.287914+05:30
Visakhapatnam,Andhra Pradesh,17.6868,83.2185,24.7,77,0.0,1004.7,8.35,34.6,136,48.2,46.6,3,5,4,1,2026-03-03T04:01:39.287921+05:30
Vijayawada,Andhra Pradesh,16.5062,80.648,23.5,86,0.0,1003.9,8.4,24.5,144,53.3,51.0,3,5,4,1,2026-03-03T04:01:39.287927+05:30
Guntur,Andhra Pradesh,16.3067,80.4365,22.8,89,0.0,1005.1,8.45,27.4,136,48.1,46.2,3,5,4,1,2026-03-03T04:01:39.287934+05:30
Nellore,Andhra Pradesh,14.4426,79.9865,22.9,85,0.0,1007.1,8.65,29.5,121,41.8,39.6,3,5,4,1,2026-03-03T04:01:39.287941+05:30
Kurnool,Andhra Pradesh,15.8281,78.0373,25.5,58,0.0,977.6,8.45,29.2,121,46.0,45.1,4,5,7,1,2026-03-03T04:01:39.287948+05:30
Kakinada,Andhra Pradesh,16.9891,82.2475,22.5,88,0.0,1008.8,8.4,34.6,132,51.5,48.4,3,0,4,1,2026-03-03T04:01:39.287955+05:30
Tirupati,Andhra Pradesh,13.6288,79.4192,21.0,70,0.0,992.6,8.8,38.2,150,83.1,81.0,3,5,7,0,2026-03-03T04:01:39.287962+05:30
Warangal,Telangana,17.9689,79.5941,23.8,71,0.0,979.6,8.2,18.7,149,59.1,58.4,3,5,7,1,2026-03-03T04:01:39.287968+05:30
Nizamabad,Telangana,18.6725,78.0941,20.2,74,0.0,965.6,8.1,29.2,97,35.0,34.1,3,5,7,0,2026-03-03T04:01:39.287974+05:30
Mysore,Karnataka,12.2958,76.6396,20.9,91,0.0,928.0,9.15,33.8,142,49.4,48.5,3,5,7,1,2026-03-03T04:01:39.287981+05:30
Mangalore,Karnataka,12.9141,74.856,28.3,76,0.0,1006.8,8.75,29.5,59,22.2,16.6,7,5,4,1,2026-03-03T04:01:39.287987+05:30
Hubli-Dharwad,Karnataka,15.3647,75.124,20.9,93,0.0,940.5,8.6,28.4,82,24.9,22.5,3,5,7,1,2026-03-03T04:01:39.287994+05:30
Belgaum,Karnataka,15.8497,74.4977,20.0,94,0.0,925.2,8.65,33.1,81,29.0,25.9,3,5,7,1,2026-03-03T04:01:42.551801+05:30
Coimbatore,Tamil Nadu,11.0168,76.9558,21.9,82,0.0,961.8,9.15,43.2,136,51.7,51.0,3,5,7,1,2026-03-03T04:01:42.551831+05:30
Madurai,Tamil Nadu,9.9252,78.1198,23.0,85,0.0,993.8,9.1,34.9,115,55.1,54.0,3,5,7,1,2026-03-03T04:01:42.551841+05:30
Trichy,Tamil Nadu,10.7905,78.7047,21.5,95,0.0,1000.9,9.0,31.7,132,46.2,43.8,3,5,4,1,2026-03-03T04:01:42.551849+05:30
Salem,Tamil Nadu,11.6643,78.146,22.3,80,0.0,978.0,9.0,40.7,137,58.8,57.9,3,5,7,1,2026-03-03T04:01:42.551857+05:30
Tirunelveli,Tamil Nadu,8.7139,77.7567,22.2,93,0.0,1003.9,9.1,37.8,121,56.0,54.7,3,5,4,1,2026-03-03T04:01:42.551864+05:30
Vellore,Tamil Nadu,12.9165,79.1325,20.6,85,0.0,985.7,8.9,38.9,151,78.0,76.1,3,5,7,1,2026-03-03T04:01:42.551871+05:30
Erode,Tamil Nadu,11.341,77.7172,24.0,82,0.0,990.0,9.05,36.4,120,45.2,43.9,3,5,7,1,2026-03-03T04:01:42.551878+05:30
Kochi,Kerala,9.9312,76.2673,27.5,81,0.0,1008.6,9.0,33.8,100,44.6,43.5,7,0,4,1,2026-03-03T04:01:42.551885+05:30
Thiruvananthapuram,Kerala,8.5241,76.9366,27.5,80,0.0,1007.6,8.95,27.0,73,28.5,26.3,7,5,4,1,2026-03-03T04:01:42.551892+05:30
Kozhikode,Kerala,11.2588,75.7804,27.6,80,0.0,1007.9,8.8,36.0,61,23.2,19.0,7,5,4,1,2026-03-03T04:01:42.551899+05:30
Thrissur,Kerala,10.5276,76.2144,25.5,92,0.0,1007.0,8.95,38.9,96,48.5,46.6,7,5,4,1,2026-03-03T04:01:42.551907+05:30
Kannur,Kerala,11.8745,75.3704,26.7,78,0.0,1007.3,8.85,40.0,59,18.5,15.9,7,5,4,1,2026-03-03T04:01:42.551914+05:30
Patna,Bihar,25.5941,85.1376,18.0,71,0.0,1002.8,7.15,17.6,119,68.7,55.9,3,5,4,0,2026-03-03T04:01:42.551920+05:30
Gaya,Bihar,24.7914,85.0002,17.4,54,0.0,996.5,7.25,22.7,99,47.1,32.0,0,5,7,0,2026-03-03T04:01:42.551927+05:30
Muzaffarpur,Bihar,26.1209,85.3647,16.4,73,0.0,1002.8,7.1,14.0,129,94.3,80.3,3,5,4,0,2026-03-03T04:01:42.551934+05:30
Bhagalpur,Bihar,25.2425,87.0117,14.4,89,0.0,1003.6,7.15,11.5,124,68.7,38.8,3,10,4,0,2026-03-03T04:01:42.551940+05:30
Ranchi,Jharkhand,23.3441,85.3096,17.8,38,0.0,939.2,7.9,44.6,70,37.3,18.4,0,5,7,0,2026-03-03T04:01:42.551947+05:30
Jamshedpur,Jharkhand,22.8046,86.2029,17.1,77,0.0,993.5,7.75,13.7,100,64.5,42.7,3,5,7,0,2026-03-03T04:01:42.551953+05:30
Dhanbad,Jharkhand,23.7957,86.4304,17.4,59,0.0,982.2,7.65,28.8,106,65.0,43.8,0,5,7,0,2026-03-03T04:01:42.551959+05:30
Bokaro,Jharkhand,23.6693,86.1511,16.3,64,0.0,986.5,7.65,31.7,109,63.8,47.5,3,5,7,0,2026-03-03T04:01:42.551965+05:30
Bhubaneswar,Odisha,20.2961,85.8245,22.8,95,0.0,1004.3,8.1,24.5,152,78.2,75.2,3,5,4,1,2026-03-03T04:01:42.551971+05:30
Cuttack,Odisha,20.4625,85.8828,22.2,91,0.0,1006.4,8.1,24.8,152,78.2,75.2,3,5,4,1,2026-03-03T04:01:42.551978+05:30
Rourkela,Odisha,22.2604,84.8536,19.0,60,0.0,987.7,7.7,23.0,79,39.6,26.1,0,5,7,0,2026-03-03T04:01:42.551984+05:30
Raipur,Chhattisgarh,21.2514,81.6296,20.8,57,0.0,976.6,7.8,16.2,99,57.9,52.2,0,5,7,0,2026-03-03T04:01:42.551991+05:30
Bhilai,Chhattisgarh,21.1938,81.3509,20.0,59,0.0,976.9,7.8,14.8,100,48.9,42.1,0,5,7,0,2026-03-03T04:01:42.551997+05:30
Guwahati,Assam,26.1158,91.7086,20.2,87,0.0,1004.7,7.1,22.3,153,74.5,63.3,3,5,4,1,2026-03-03T04:01:42.552003+05:30
Agartala,Tripura,23.8315,91.2868,20.2,95,0.0,1008.0,7.45,19.8,168,134.1,128.1,3,0,4,1,2026-03-03T04:01:42.552010+05:30
Shillong,Meghalaya,25.5788,91.8933,6.0,81,0.0,852.8,7.45,28.1,123,57.2,45.1,3,10,7,0,2026-03-03T04:01:42.552016+05:30
Imphal,Manipur,24.817,93.9368,13.6,82,0.0,924.0,7.5,28.8,154,97.8,79.4,3,10,7,0,2026-03-03T04:01:42.552023+05:30
Aizawl,Mizoram,23.7271,92.7176,13.9,94,0.0,892.9,7.65,34.2,158,90.1,85.4,3,10,7,0,2026-03-03T04:01:42.552029+05:30
Kohima,Nagaland,25.6701,94.1077,11.1,82,0.0,854.1,7.15,45.0,145,69.8,59.8,3,10,7,0,2026-03-03T04:01:42.552036+05:30
Gangtok,Sikkim,27.3314,88.6138,10.4,82,0.0,835.5,7.4,19.1,138,82.0,61.0,3,10,7,0,2026-03-03T04:01:42.552042+05:30
Siliguri,West Bengal,26.7271,88.3953,17.9,73,0.0,996.5,7.1,18.4,166,134.6,103.8,3,5,7,0,2026-03-03T04:01:45.809209+05:30
Durgapur,West Bengal,23.5204,87.3119,20.8,43,0.0,997.6,7.65,28.1,96,48.4,24.9,0,5,7,0,2026-03-03T04:01:45.809241+05:30
Asansol,West Bengal,23.6739,86.9524,22.5,39,0.0,996.3,7.65,23.4,87,46.1,25.2,0,5,7,0,2026-03-03T04:01:45.809251+05:30
Pondicherry,Puducherry,11.9139,79.8145,21.6,96,0.0,1009.5,8.85,27.7,114,42.0,37.5,3,0,4,1,2026-03-03T04:01:45.809259+05:30
Port Blair,Andaman and Nicobar Islands,11.6234,92.7265,26.9,76,0.0,1007.2,8.8,16.2,84,37.3,27.4,7,5,4,1,2026-03-03T04:01:45.809267+05:30
Haridwar,Uttarakhand,29.9457,78.1642,14.1,85,0.0,975.5,5.55,24.5,95,48.9,46.7,3,10,3,0,2026-03-03T04:01:45.809274+05:30
Rishikesh,Uttarakhand,30.0869,78.2676,15.0,75,0.0,967.9,5.65,23.4,74,29.3,29.0,3,5,3,0,2026-03-03T04:01:45.809282+05:30
Nainital,Uttarakhand,29.3919,79.4542,14.5,56,0.0,804.1,6.45,54.4,79,34.5,31.4,0,5,7,0,2026-03-03T04:01:45.809289+05:30
Mussoorie,Uttarakhand,30.4599,78.0664,12.6,59,0.0,800.5,5.95,40.7,78,27.9,27.6,0,5,3,0,2026-03-03T04:01:45.809296+05:30
Dharamshala,Himachal Pradesh,32.219,76.3234,17.0,32,0.0,869.3,6.2,22.7,53,10.2,6.7,0,5,7,0,2026-03-03T04:01:45.809303+05:30
Dalhousie,Himachal Pradesh,32.5387,75.971,13.1,23,0.0,803.0,6.4,20.9,97,30.0,27.6,0,5,7,1,2026-03-03T04:01:45.809311+05:30
Patiala,Punjab,30.3398,76.3869,15.4,80,0.0,980.6,5.6,35.3,157,324.1,71.0,3,5,3,0,2026-03-03T04:01:45.809318+05:30
Bhatinda,Punjab,30.211,74.9455,15.6,79,0.0,986.7,6.3,28.8,153,69.6,55.5,3,5,7,0,2026-03-03T04:01:45.809324+05:30
Rohtak,Haryana,28.8955,76.6066,15.5,80,0.0,984.4,5.85,33.5,289,421.0,83.8,3,5,3,0,2026-03-03T04:01:45.809331+05:30
Panipat,Haryana,29.3909,76.9635,14.8,84,0.0,982.7,5.65,37.1,763,953.7,136.0,3,10,3,0,2026-03-03T04:01:45.809337+05:30
Mathura,Uttar Pradesh,27.4924,77.6737,19.4,68,0.0,989.8,6.1,28.8,450,514.1,97.8,3,5,7,0,2026-03-03T04:01:45.809344+05:30
Vrindavan,Uttar Pradesh,27.5823,77.7027,16.9,81,0.0,990.0,6.05,31.7,450,514.1,97.8,3,10,7,0,2026-03-03T04:01:45.809351+05:30
Ayodhya,Uttar Pradesh,26.7922,82.1998,16.8,77,0.0,997.4,6.45,30.6,135,201.6,62.2,3,5,7,0,2026-03-03T04:01:45.809357+05:30
Ratlam,Madhya Pradesh,23.3315,75.0367,17.9,84,0.0,956.3,7.3,10.1,97,38.2,35.6,3,10,7,0,2026-03-03T04:01:45.809363+05:30
Sagar,Madhya Pradesh,23.8388,78.7378,19.0,60,0.0,952.3,7.25,28.4,65,27.1,20.3,0,5,7,0,2026-03-03T04:01:45.809370+05:30
Satna,Madhya Pradesh,24.6005,80.8322,20.3,45,0.0,973.8,7.2,32.0,63,35.0,21.1,0,5,7,0,2026-03-03T04:01:45.809376+05:30
Akola,Maharashtra,20.7002,77.0082,22.6,61,0.0,976.9,7.8,21.2,77,27.2,24.5,3,5,7,0,2026-03-03T04:01:45.809383+05:30
Amravati,Maharashtra,20.9374,77.7796,21.2,57,0.0,969.2,7.75,17.3,77,25.4,21.0,0,5,7,0,2026-03-03T04:01:45.809391+05:30
Latur,Maharashtra,18.4088,76.5604,22.2,54,0.0,940.1,8.2,34.2,81,31.2,30.6,0,5,7,0,2026-03-03T04:01:45.809397+05:30
Nanded,Maharashtra,19.1383,77.3091,24.0,59,0.0,970.0,8.0,22.3,93,43.3,42.6,0,5,7,0,2026-03-03T04:01:45.809403+05:30
Gulbarga,Karnataka,17.3297,76.8343,23.8,60,0.0,959.3,8.3,22.3,141,44.4,44.0,0,5,7,0,2026-03-03T04:01:45.809409+05:30
Bidar,Karnataka,17.9104,77.5199,23.2,66,0.0,936.2,8.25,24.5,131,40.9,40.3,3,5,7,1,2026-03-03T04:01:45.809415+05:30
Hospet,Karnataka,15.2689,76.3909,25.2,75,0.0,956.0,8.6,27.4,108,41.1,40.6,7,5,7,1,2026-03-03T04:01:45.809421+05:30
Tirupur,Tamil Nadu,11.1085,77.3411,24.3,74,0.0,975.9,9.15,33.5,138,49.1,48.5,3,5,7,1,2026-03-03T04:01:45.809427+05:30
Alappuzha,Kerala,9.4981,76.3388,27.1,82,0.0,1008.6,8.95,30.2,95,36.6,34.5,7,0,4,1,2026-03-03T04:01:45.809434+05:30
Munnar,Kerala,10.0889,77.0595,17.4,68,0.0,854.8,9.45,22.7,113,39.7,39.2,3,5,7,0,2026-03-03T04:01:45.809441+05:30
Silchar,Assam,24.8333,92.7789,19.5,91,0.0,1008.3,7.4,20.2,158,90.3,76.8,3,5,4,1,2026-03-03T04:01:45.809448+05:30
Dibrugarh,Assam,27.4728,94.912,18.8,90,0.0,999.7,7.1,9.0,155,62.6,53.1,3,10,7,1,2026-03-03T04:01:45.809454+05:30
