city,state,latitude,longitude,temp,humidity,rain,pressure,uv_index,wind_gusts,aqi,pm10,pm2_5,mosquito_risk,arthritis_risk,migraine_risk,frizz_risk,updated_at
Delhi,Delhi,28.6139,77.209,19.7,80,0.0,985.9,6.0,24.5,169,217.9,104.3,3,5,3,1,2026-03-08T04:56:24.224633+05:30
Mumbai,Maharashtra,19.076,72.8777,26.9,79,0.0,1008.5,7.5,25.2,98,33.3,29.6,7,0,4,1,2026-03-08T04:56:24.224680+05:30
Bangalore,Karnataka,12.9716,77.5946,19.9,80,0.0,911.1,9.25,29.9,108,54.5,49.1,3,5,7,1,2026-03-08T04:56:24.224695+05:30
Hyderabad,Telangana,17.385,78.4867,20.7,65,0.0,953.3,8.55,26.3,99,60.5,48.1,3,5,7,0,2026-03-08T04:56:24.224705+05:30
Chennai,Tamil Nadu,13.0827,80.2707,25.4,84,0.0,1008.4,8.95,32.8,84,34.3,24.9,7,0,4,1,2026-03-08T04:56:24.224714+05:30
Kolkata,West Bengal,22.5726,88.3639,22.6,97,0.0,1009.7,7.65,14.8,152,66.6,58.4,3,0,4,1,2026-03-08T04:56:24.224723+05:30
Pune,Maharashtra,18.5204,73.8567,20.2,57,0.0,948.2,8.1,29.9,104,72.2,70.3,0,5,7,0,2026-03-08T04:56:24.224736+05:30
Ahmedabad,Gujarat,23.0225,72.5714,20.7,64,0.0,1004.1,7.35,16.2,104,49.7,43.8,3,5,4,0,2026-03-08T04:56:24.224744+05:30
Jaipur,Rajasthan,26.9124,75.7873,22.0,55,0.0,962.5,6.8,24.8,81,54.4,35.5,0,5,7,0,2026-03-08T04:56:24.224751+05:30
Lucknow,Uttar Pradesh,26.8467,80.9462,21.5,85,0.0,996.7,6.5,22.0,174,179.3,147.6,3,5,7,1,2026-03-08T04:56:24.224759+05:30
Kanpur,Uttar Pradesh,26.4499,80.3319,19.6,95,0.0,995.0,6.5,18.0,168,170.9,132.7,3,10,7,1,2026-03-08T04:56:24.224766+05:30
Chandigarh,Chandigarh,30.7333,76.7794,20.7,76,0.0,971.4,5.9,31.3,157,71.9,61.2,3,5,3,1,2026-03-08T04:56:24.224773+05:30
Srinagar,Jammu and Kashmir,34.0837,74.7973,5.4,86,0.0,843.2,6.8,16.2,127,78.0,63.6,3,10,7,0,2026-03-08T04:56:24.224780+05:30
Jammu,Jammu and Kashmir,32.7266,74.857,18.7,62,0.0,976.1,6.3,31.7,138,34.9,30.9,3,5,7,0,2026-03-08T04:56:24.224787+05:30
Amritsar,Punjab,31.634,74.8723,19.6,90,0.0,984.2,6.1,23.8,158,147.1,124.8,3,10,7,1,2026-03-08T04:56:24.224794+05:30
Ludhiana,Punjab,30.901,75.8573,20.4,78,0.0,981.9,6.15,29.2,172,155.5,119.2,3,5,7,1,2026-03-08T04:56:24.224801+05:30
Jalandhar,Punjab,31.326,75.5762,19.8,85,0.0,983.1,6.2,27.4,168,152.3,118.0,3,10,7,1,2026-03-08T04:56:24.224810+05:30
Dehradun,Uttarakhand,30.6284,78.0322,12.6,69,0.0,830.5,6.3,37.1,104,28.1,23.7,3,5,7,0,2026-03-08T04:56:24.224816+05:30
Shimla,Himachal Pradesh,31.1048,77.1734,11.0,70,0.0,784.7,6.35,50.4,126,66.1,50.5,3,5,7,0,2026-03-08T04:56:24.224823+05:30
Manali,Himachal Pradesh,32.2396,77.1887,15.3,33,0.0,822.7,7.55,30.6,50,5.4,3.3,0,5,7,1,2026-03-08T04:56:24.224829+05:30
Gurgaon,Haryana,28.4595,77.0266,17.4,84,0.0,984.2,6.1,21.2,178,218.9,102.7,3,10,7,0,2026-03-08T04:56:24.224835+05:30
Noida,Uttar Pradesh,28.5355,77.391,18.8,85,0.0,987.6,6.0,24.1,178,218.9,102.7,3,10,3,1,2026-03-08T04:56:24.224842+05:30
Ghaziabad,Uttar Pradesh,28.6692,77.4538,17.9,95,0.0,985.6,6.0,23.8,170,183.0,99.7,3,10,3,1,2026-03-08T04:56:24.224848+05:30
Faridabad,Haryana,28.4089,77.3178,17.5,82,0.0,986.8,6.05,21.2,178,218.9,102.7,3,10,7,0,2026-03-08T04:56:24.224855+05:30
Meerut,Uttar Pradesh,28.9845,77.7064,18.6,95,0.0,984.3,5.85,28.8,170,183.0,99.7,3,10,3,1,2026-03-08T04:56:24.224861+05:30
Agra,Uttar Pradesh,27.1767,78.0081,16.6,99,0.0,991.0,6.35,16.9,163,176.5,79.9,3,10,7,1,2026-03-08T04:56:24.224870+05:30
Varanasi,Uttar Pradesh,25.3176,82.9739,20.3,93,0.0,1000.8,7.2,11.9,174,129.9,118.0,3,5,4,1,2026-03-08T04:56:24.224878+05:30
Prayagraj,Uttar Pradesh,25.4358,81.8463,20.2,92,0.0,999.4,7.05,13.7,176,163.0,149.5,3,5,7,1,2026-03-08T04:56:24.224885+05:30
Gorakhpur,Uttar Pradesh,26.7606,83.3732,19.5,94,0.0,1000.4,6.9,18.7,174,122.9,115.0,3,10,4,1,2026-03-08T04:56:24.224894+05:30
Bareilly,Uttar Pradesh,28.367,79.4304,19.4,98,0.0,989.8,6.2,20.2,169,140.2,114.1,3,10,7,1,2026-03-08T04:56:24.224900+05:30
Aligarh,Uttar Pradesh,27.8974,78.088,17.9,96,0.0,988.7,6.15,23.0,171,218.4,112.7,3,10,7,1,2026-03-08T04:56:24.224906+05:30
Moradabad,Uttar Pradesh,28.8386,78.7733,19.0,99,0.0,986.5,6.05,24.1,174,170.9,147.1,3,10,7,1,2026-03-08T04:56:24.224912+05:30
Saharanpur,Uttar Pradesh,29.9637,77.546,18.3,99,0.0,978.3,5.65,36.4,170,142.0,122.0,3,10,3,1,2026-03-08T04:56:24.224918+05:30
Jhansi,Uttar Pradesh,25.4484,78.5685,18.7,75,0.0,980.8,6.95,25.9,114,86.6,43.5,3,5,7,0,2026-03-08T04:56:27.533691+05:30
Surat,Gujarat,21.1702,72.8311,24.1,64,0.0,1007.7,7.2,23.4,153,59.5,58.0,3,5,4,1,2026-03-08T04:56:27.533719+05:30
Vadodara,Gujarat,22.3072,73.1812,21.6,68,0.0,1005.8,7.35,16.6,141,41.6,39.2,3,5,4,0,2026-03-08T04:56:27.533729+05:30
Rajkot,Gujarat,22.3039,70.8022,20.9,74,0.0,996.2,7.2,18.7,73,74.3,25.0,3,5,7,1,2026-03-08T04:56:27.533737+05:30
Thane,Maharashtra,19.2183,72.9781,23.9,82,0.0,1008.0,7.5,32.8,98,33.3,29.6,3,0,4,1,2026-03-08T04:56:27.533744+05:30
Nagpur,Maharashtra,21.1458,79.0882,20.5,58,0.0,974.4,7.9,26.3,69,29.8,18.7,0,5,7,0,2026-03-08T04:56:27.533751+05:30
Nashik,Maharashtra,19.9975,73.7898,22.7,56,0.0,946.0,7.7,29.2,98,39.9,39.5,0,5,7,0,2026-03-08T04:56:27.533757+05:30
Aurangabad,Maharashtra,19.8762,75.3433,22.1,54,0.0,944.4,8.2,31.7,77,32.7,31.8,0,5,7,0,2026-03-08T04:56:27.533764+05:30
Solapur,Maharashtra,17.6599,75.9064,22.2,61,0.0,956.9,8.45,19.1,65,28.9,24.7,3,5,7,0,2026-03-08T04:56:27.533770+05:30
Kolhapur,Maharashtra,16.705,74.2433,19.1,61,0.0,946.9,8.6,33.1,139,63.6,62.6,3,5,7,0,2026-03-08T04:56:27.533777+05:30
Goa,Goa,15.2993,74.124,22.9,98,0.0,997.4,8.65,36.4,139,58.8,56.6,3,5,7,1,2026-03-08T04:56:27.533784+05:30
Jodhpur,Rajasthan,26.2389,73.0243,23.5,50,0.0,985.7,7.05,16.9,63,80.1,19.8,0,5,7,0,2026-03-08T04:56:27.533790+05:30
Udaipur,Rajasthan,24.5854,73.7125,17.7,59,0.0,948.6,7.7,19.4,40,13.2,10.9,0,5,7,0,2026-03-08T04:56:27.533796+05:30
Kota,Rajasthan,25.2138,75.8648,18.8,70,0.0,981.0,7.05,9.0,87,40.5,38.6,3,5,7,0,2026-03-08T04:56:27.533802+05:30
Bikaner,Rajasthan,28.0229,73.3119,22.4,63,0.0,984.3,6.8,17.6,52,76.1,15.9,3,5,7,0,2026-03-08T04:56:27.533808+05:30
Ajmer,Rajasthan,26.4499,74.6399,20.9,39,0.0,957.0,7.05,17.6,67,30.2,29.7,0,5,7,0,2026-03-08T04:56:27.533814+05:30
Gwalior,Madhya Pradesh,26.2183,78.1828,19.9,74,0.0,986.2,6.65,23.8,111,112.2,42.0,3,5,7,0,2026-03-08T04:56:27.533821+05:30
Indore,Madhya Pradesh,22.7196,75.8577,17.6,64,0.0,949.0,7.65,20.9,79,28.2,27.1,3,5,7,0,2026-03-08T04:56:27.533827+05:30
Bhopal,Madhya Pradesh,23.2599,77.4126,19.1,56,0.0,954.9,7.5,21.6,66,48.3,26.9,0,5,7,0,2026-03-08T04:56:27.533833+05:30
Jabalpur,Madhya Pradesh,23.1815,79.9864,19.1,81,0.0,963.3,7.6,25.6,97,77.5,58.0,3,10,7,0,2026-03-08T04:56:27.533839+05:30
Ujjain,Madhya Pradesh,23.1765,75.7885,19.6,60,0.0,955.2,7.55,17.6,87,49.6,48.5,0,5,7,0,2026-03-08T04:56:27.533846+05:30
Visakhapatnam,Andhra Pradesh,17.6868,83.2185,25.4,86,0.0,1005.9,8.5,37.4,117,37.5,32.2,7,5,4,1,2026-03-08T04:56:27.533853+05:30
Vijayawada,Andhra Pradesh,16.5062,80.648,24.8,91,0.0,1004.1,8.6,28.8,125,40.6,35.5,3,5,4,1,2026-03-08T04:56:27.533859+05:30
Guntur,Andhra Pradesh,16.3067,80.4365,24.5,93,0.0,1005.2,8.6,28.8,127,38.1,33.4,3,5,4,1,2026-03-08T04:56:27.533866+05:30
Nellore,Andhra Pradesh,14.4426,79.9865,24.0,93,0.0,1006.9,8.8,31.3,105,29.9,23.9,3,5,4,1,2026-03-08T04:56:27.533872+05:30
Kurnool,Andhra Pradesh,15.8281,78.0373,24.3,67,0.0,977.1,8.6,28.1,81,56.5,47.7,3,5,7,1,2026-03-08T04:56:27.533879+05:30
Kakinada,Andhra Pradesh,16.9891,82.2475,24.8,87,0.0,1009.5,8.55,32.0,92,34.7,27.0,3,0,4,1,2026-03-08T04:56:27.533885+05:30
Tirupati,Andhra Pradesh,13.6288,79.4192,21.2,94,0.0,992.8,8.95,29.2,135,55.5,50.3,3,5,7,1,2026-03-08T04:56:27.533891+05:30
Warangal,Telangana,17.9689,79.5941,22.0,95,0.0,979.5,8.35,27.7,109,49.1,46.3,3,5,7,1,2026-03-08T04:56:27.533896+05:30
Nizamabad,Telangana,18.6725,78.0941,20.3,65,0.0,964.6,8.25,33.5,99,42.6,29.1,3,5,7,0,2026-03-08T04:56:27.533902+05:30
Mysore,Karnataka,12.2958,76.6396,21.2,96,0.0,927.9,9.25,31.7,116,57.7,56.3,3,5,7,1,2026-03-08T04:56:27.533908+05:30
Mangalore,Karnataka,12.9141,74.856,28.1,79,0.0,1005.8,8.85,25.2,131,43.4,40.7,7,5,4,1,2026-03-08T04:56:27.533914+05:30
Hubli-Dharwad,Karnataka,15.3647,75.124,19.5,95,0.0,939.9,8.8,23.4,113,51.1,49.7,3,10,7,1,2026-03-08T04:56:27.533921+05:30
Belgaum,Karnataka,15.8497,74.4977,20.1,73,0.0,924.6,8.85,35.6,111,57.5,55.1,3,5,7,0,2026-03-08T04:56:30.810895+05:30
Coimbatore,Tamil Nadu,11.0168,76.9558,22.8,84,0.0,961.3,9.2,39.6,115,62.6,61.0,3,5,7,1,2026-03-08T04:56:30.810924+05:30
Madurai,Tamil Nadu,9.9252,78.1198,24.1,94,0.0,993.0,9.15,29.9,96,46.9,42.1,3,5,7,1,2026-03-08T04:56:30.810934+05:30
Trichy,Tamil Nadu,10.7905,78.7047,24.4,95,0.0,1000.5,9.05,27.7,94,45.3,41.3,3,5,4,1,2026-03-08T04:56:30.810942+05:30
Salem,Tamil Nadu,11.6643,78.146,24.3,88,0.0,977.8,9.1,21.2,103,45.2,41.6,3,5,7,1,2026-03-08T04:56:30.810949+05:30
Tirunelveli,Tamil Nadu,8.7139,77.7567,23.8,82,0.0,1002.9,9.15,37.4,99,49.0,47.5,3,5,4,1,2026-03-08T04:56:30.810957+05:30
Vellore,Tamil Nadu,12.9165,79.1325,21.4,99,0.0,985.7,9.05,35.6,141,78.7,74.0,3,5,7,1,2026-03-08T04:56:30.810965+05:30
Erode,Tamil Nadu,11.341,77.7172,25.2,83,0.0,989.5,9.1,21.2,100,30.0,27.5,7,5,7,1,2026-03-08T04:56:30.810972+05:30
Kochi,Kerala,9.9312,76.2673,27.5,84,0.0,1007.9,8.9,33.8,131,60.3,59.5,7,5,4,1,2026-03-08T04:56:30.810979+05:30
Thiruvananthapuram,Kerala,8.5241,76.9366,27.4,84,0.0,1007.0,9.05,27.0,91,29.2,27.6,7,5,4,1,2026-03-08T04:56:30.810986+05:30
Kozhikode,Kerala,11.2588,75.7804,27.6,87,0.0,1007.1,8.9,28.8,113,32.5,30.0,7,5,4,1,2026-03-08T04:56:30.810992+05:30
Thrissur,Kerala,10.5276,76.2144,25.3,94,0.0,1006.3,9.0,35.6,124,61.0,59.4,7,5,4,1,2026-03-08T04:56:30.810999+05:30
Kannur,Kerala,11.8745,75.3704,27.4,84,0.0,1006.3,8.9,28.8,130,45.5,43.5,7,5,4,1,2026-03-08T04:56:30.811006+05:30
Patna,Bihar,25.5941,85.1376,23.4,78,0.0,1003.8,7.35,17.6,164,128.5,116.2,3,5,4,1,2026-03-08T04:56:30.811012+05:30
Gaya,Bihar,24.7914,85.0002,23.1,77,0.0,996.7,7.45,18.4,156,86.1,77.5,3,5,7,1,2026-03-08T04:56:30.811018+05:30
Muzaffarpur,Bihar,26.1209,85.3647,22.5,83,0.0,1004.0,7.3,15.8,170,145.3,134.6,3,5,4,1,2026-03-08T04:56:30.811024+05:30
Bhagalpur,Bihar,25.2425,87.0117,22.0,81,0.0,1004.8,7.4,15.1,163,92.0,78.2,3,5,4,1,2026-03-08T04:56:30.811030+05:30
Ranchi,Jharkhand,23.3441,85.3096,20.1,88,0.0,940.1,8.1,23.0,156,104.5,85.0,3,5,7,1,2026-03-08T04:56:30.811036+05:30
Jamshedpur,Jharkhand,22.8046,86.2029,23.5,94,0.0,994.4,8.0,19.8,152,71.0,63.8,3,5,7,1,2026-03-08T04:56:30.811042+05:30
Dhanbad,Jharkhand,23.7957,86.4304,24.0,80,0.0,983.1,7.5,20.5,165,105.5,99.0,3,5,7,1,2026-03-08T04:56:30.811048+05:30
Bokaro,Jharkhand,23.6693,86.1511,22.4,86,0.0,987.3,7.85,17.6,168,123.4,114.3,3,5,7,1,2026-03-08T04:56:30.811054+05:30
Bhubaneswar,Odisha,20.2961,85.8245,25.3,89,0.0,1005.6,8.25,32.8,146,42.7,38.1,7,5,4,1,2026-03-08T04:56:30.811060+05:30
Cuttack,Odisha,20.4625,85.8828,25.5,90,0.0,1007.7,8.3,27.7,146,42.7,38.1,7,5,4,1,2026-03-08T04:56:30.811066+05:30
Rourkela,Odisha,22.2604,84.8536,24.1,84,0.0,988.0,7.9,26.3,162,93.4,78.5,3,5,7,1,2026-03-08T04:56:30.811071+05:30
Raipur,Chhattisgarh,21.2514,81.6296,23.1,58,0.0,976.0,8.0,22.3,154,94.5,70.5,0,5,7,0,2026-03-08T04:56:30.811077+05:30
Bhilai,Chhattisgarh,21.1938,81.3509,22.0,64,0.0,976.3,8.0,22.0,150,84.1,59.1,3,5,7,0,2026-03-08T04:56:30.811083+05:30
Guwahati,Assam,26.1158,91.7086,21.7,80,0.0,1005.3,7.35,22.3,152,59.6,51.3,3,5,4,1,2026-03-08T04:56:30.811089+05:30
Agartala,Tripura,23.8315,91.2868,21.2,98,0.0,1010.6,7.65,22.0,152,63.1,57.2,3,0,4,1,2026-03-08T04:56:30.811095+05:30
Shillong,Meghalaya,25.5788,91.8933,10.0,81,0.0,856.4,7.7,26.6,117,56.1,48.4,3,10,7,0,2026-03-08T04:56:30.811102+05:30
Imphal,Manipur,24.817,93.9368,16.8,84,0.0,926.3,7.9,40.0,159,106.4,98.5,3,10,7,0,2026-03-08T04:56:30.811108+05:30
Aizawl,Mizoram,23.7271,92.7176,16.2,82,0.0,894.6,7.85,29.5,165,80.6,72.2,3,10,7,0,2026-03-08T04:56:30.811114+05:30
Kohima,Nagaland,25.6701,94.1077,14.2,85,0.0,857.2,7.75,45.0,158,87.3,80.6,3,10,7,0,2026-03-08T04:56:30.811120+05:30
Gangtok,Sikkim,27.3314,88.6138,13.1,84,0.0,839.3,5.15,16.9,157,88.5,76.1,3,10,3,0,2026-03-08T04:56:30.811126+05:30
Siliguri,West Bengal,26.7271,88.3953,21.4,57,0.0,997.8,7.3,17.6,155,96.6,84.1,0,5,7,0,2026-03-08T04:56:34.095542+05:30
Durgapur,West Bengal,23.5204,87.3119,22.4,95,0.0,998.7,7.85,22.0,160,79.9,72.2,3,5,7,1,2026-03-08T04:56:34.095577+05:30
Asansol,West Bengal,23.6739,86.9524,23.1,91,0.0,997.2,7.5,19.1,159,75.2,68.7,3,5,7,1,2026-03-08T04:56:34.095590+05:30
Pondicherry,Puducherry,11.9139,79.8145,24.2,97,0.0,1009.6,8.95,32.4,79,33.4,23.8,3,0,4,1,2026-03-08T04:56:34.095600+05:30
Port Blair,Andaman and Nicobar Islands,11.6234,92.7265,26.8,73,0.0,1009.1,8.9,24.1,94,41.4,27.2,7,0,4,1,2026-03-08T04:56:34.095610+05:30
Haridwar,Uttarakhand,29.9457,78.1642,20.6,91,0.0,977.1,5.8,27.7,162,88.0,77.8,3,5,3,1,2026-03-08T04:56:34.095619+05:30
Rishikesh,Uttarakhand,30.0869,78.2676,20.3,82,0.0,969.9,5.85,24.5,159,88.9,79.6,3,5,3,1,2026-03-08T04:56:34.095628+05:30
Nainital,Uttarakhand,29.3919,79.4542,16.5,76,0.0,807.3,6.65,62.6,158,81.7,70.8,3,5,7,0,2026-03-08T04:56:34.095638+05:30
Mussoorie,Uttarakhand,30.4599,78.0664,15.3,66,0.0,803.9,6.2,46.1,160,75.7,66.6,3,5,7,0,2026-03-08T04:56:34.095646+05:30
Dharamshala,Himachal Pradesh,32.219,76.3234,21.0,24,0.0,872.2,6.4,28.1,59,26.1,11.6,0,5,7,1,2026-03-08T04:56:34.095655+05:30
Dalhousie,Himachal Pradesh,32.5387,75.971,17.2,24,0.0,806.3,6.65,25.6,106,41.7,34.2,0,5,7,1,2026-03-08T04:56:34.095665+05:30
Patiala,Punjab,30.3398,76.3869,19.5,80,0.0,981.0,5.85,29.9,167,137.8,96.6,3,5,3,0,2026-03-08T04:56:34.095673+05:30
Bhatinda,Punjab,30.211,74.9455,18.5,88,0.0,986.5,6.5,18.4,145,150.9,67.8,3,10,7,1,2026-03-08T04:56:34.095681+05:30
Rohtak,Haryana,28.8955,76.6066,16.7,91,0.0,984.5,6.05,22.7,170,263.6,123.4,3,10,7,0,2026-03-08T04:56:34.095690+05:30
Panipat,Haryana,29.3909,76.9635,17.4,94,0.0,983.1,5.8,28.4,171,216.1,113.2,3,10,3,1,2026-03-08T04:56:34.095699+05:30
Mathura,Uttar Pradesh,27.4924,77.6737,16.0,94,0.0,990.0,6.3,21.2,165,149.9,78.9,3,10,7,0,2026-03-08T04:56:34.095707+05:30
Vrindavan,Uttar Pradesh,27.5823,77.7027,16.2,98,0.0,990.4,6.25,22.0,165,149.9,78.9,3,10,7,0,2026-03-08T04:56:34.095715+05:30
Ayodhya,Uttar Pradesh,26.7922,82.1998,19.8,94,0.0,998.4,6.65,13.7,177,182.1,162.1,3,10,7,1,2026-03-08T04:56:34.095724+05:30
Ratlam,Madhya Pradesh,23.3315,75.0367,16.5,88,0.0,955.7,7.5,11.9,76,50.6,49.8,3,10,7,0,2026-03-08T04:56:34.095732+05:30
Sagar,Madhya Pradesh,23.8388,78.7378,18.2,67,0.0,951.7,7.45,22.7,70,71.2,34.9,3,5,7,0,2026-03-08T04:56:34.095741+05:30
Satna,Madhya Pradesh,24.6005,80.8322,19.2,84,0.0,974.0,7.4,24.8,157,125.3,97.3,3,10,7,1,2026-03-08T04:56:34.095748+05:30
Akola,Maharashtra,20.7002,77.0082,21.5,63,0.0,976.0,7.95,15.8,80,31.0,24.3,3,5,7,0,2026-03-08T04:56:34.095756+05:30
Amravati,Maharashtra,20.9374,77.7796,21.2,58,0.0,968.0,7.9,22.3,84,35.5,25.8,0,5,7,0,2026-03-08T04:56:34.095763+05:30
Latur,Maharashtra,18.4088,76.5604,22.2,46,0.0,939.6,8.4,24.5,77,46.0,40.0,0,5,7,0,2026-03-08T04:56:34.095770+05:30
Nanded,Maharashtra,19.1383,77.3091,20.8,65,0.0,968.8,8.15,26.3,87,50.4,43.2,3,5,7,0,2026-03-08T04:56:34.095776+05:30
Gulbarga,Karnataka,17.3297,76.8343,23.7,52,0.0,958.9,8.5,26.3,70,34.1,28.7,0,5,7,0,2026-03-08T04:56:34.095782+05:30
Bidar,Karnataka,17.9104,77.5199,22.1,56,0.0,935.2,8.4,29.9,87,49.1,39.7,0,5,7,0,2026-03-08T04:56:34.095788+05:30
Hospet,Karnataka,15.2689,76.3909,23.5,70,0.0,955.6,8.8,23.4,90,38.5,30.5,3,5,7,1,2026-03-08T04:56:34.095793+05:30
Tirupur,Tamil Nadu,11.1085,77.3411,25.4,81,0.0,975.3,9.25,29.9,118,51.2,49.2,7,5,7,1,2026-03-08T04:56:34.095800+05:30
Alappuzha,Kerala,9.4981,76.3388,26.9,90,0.0,1008.0,9.0,29.2,123,51.9,50.3,7,0,4,1,2026-03-08T04:56:34.095807+05:30
Munnar,Kerala,10.0889,77.0595,17.7,81,0.0,854.7,9.5,25.2,94,44.4,39.8,3,10,7,0,2026-03-08T04:56:34.095814+05:30
Silchar,Assam,24.8333,92.7789,21.9,85,0.0,1009.2,7.65,23.4,162,110.1,98.0,3,0,4,1,2026-03-08T04:56:34.095820+05:30
Dibrugarh,Assam,27.4728,94.912,22.6,79,0.0,999.6,6.7,25.9,159,73.6,66.6,3,5,7,1,2026-03-08T04:56:34.095826+05:30
