city,state,latitude,longitude,temp,humidity,rain,pressure,uv_index,wind_gusts,aqi,pm10,pm2_5,no2,co,o3,so2,mosquito_risk,arthritis_risk,migraine_risk,frizz_risk,updated_at
Delhi,Delhi,28.6139,77.209,33.0,37,0.0,980.5,7.45,27.4,164,155.1,61.9,34.6,423.0,112.0,25.5,0,5,7,1,2026-06-02T20:25:38.934276+05:30
Mumbai,Maharashtra,19.076,72.8777,30.4,68,0.0,1006.8,7.7,44.3,68,29.1,14.2,9.0,193.0,49.0,5.1,3,5,4,1,2026-06-02T20:25:38.934321+05:30
Bangalore,Karnataka,12.9716,77.5946,21.8,96,0.3,912.2,9.2,27.7,112,22.1,19.4,32.9,1175.0,85.0,6.7,6,5,7,1,2026-06-02T20:25:38.934338+05:30
Hyderabad,Telangana,17.385,78.4867,32.6,41,0.0,951.9,9.1,29.5,117,79.2,46.3,38.3,425.0,74.0,9.3,0,5,7,1,2026-06-02T20:25:38.934348+05:30
Chennai,Tamil Nadu,13.0827,80.2707,30.7,77,0.0,1005.8,8.95,37.1,110,23.1,17.1,7.5,220.0,94.0,6.6,3,5,4,1,2026-06-02T20:25:38.934356+05:30
Kolkata,West Bengal,22.5726,88.3639,31.5,69,0.0,1003.2,8.4,28.4,120,48.7,45.5,16.7,561.0,84.0,11.9,3,5,4,1,2026-06-02T20:25:38.934365+05:30
Pune,Maharashtra,18.5204,73.8567,27.2,64,0.0,947.4,8.3,52.6,52,41.0,17.7,6.0,152.0,74.0,5.9,7,5,7,1,2026-06-02T20:25:38.934371+05:30
Ahmedabad,Gujarat,23.0225,72.5714,34.8,45,0.0,998.3,8.05,31.0,88,63.3,31.8,25.0,184.0,56.0,8.0,0,5,7,1,2026-06-02T20:25:38.934378+05:30
Jaipur,Rajasthan,26.9124,75.7873,31.0,47,0.0,957.0,8.2,30.6,102,163.9,55.8,24.7,328.0,86.0,12.2,0,5,7,1,2026-06-02T20:25:38.934388+05:30
Lucknow,Uttar Pradesh,26.8467,80.9462,31.8,58,0.0,990.4,8.25,23.0,154,93.4,66.1,30.3,398.0,93.0,13.6,0,5,7,1,2026-06-02T20:25:38.934395+05:30
Kanpur,Uttar Pradesh,26.4499,80.3319,31.0,55,0.0,988.5,7.6,39.2,152,101.0,60.8,28.6,307.0,101.0,12.8,0,5,7,1,2026-06-02T20:25:38.934402+05:30
Chandigarh,Chandigarh,30.7333,76.7794,29.2,56,0.0,966.6,7.85,25.2,183,49.2,39.2,25.5,1280.0,137.0,17.7,4,5,7,1,2026-06-02T20:25:38.934409+05:30
Srinagar,Jammu and Kashmir,34.0837,74.7973,21.2,59,0.0,842.2,9.1,41.0,119,43.9,27.9,23.6,541.0,80.0,3.6,0,5,7,0,2026-06-02T20:25:38.934417+05:30
Jammu,Jammu and Kashmir,32.7266,74.857,30.0,51,0.0,970.1,8.65,31.0,136,92.4,46.2,21.7,666.0,130.0,5.8,4,5,7,1,2026-06-02T20:25:38.934426+05:30
Amritsar,Punjab,31.634,74.8723,32.0,44,0.0,977.9,8.45,23.4,145,113.2,49.4,29.0,549.0,112.0,9.3,0,5,7,1,2026-06-02T20:25:38.934433+05:30
Ludhiana,Punjab,30.901,75.8573,32.8,36,0.0,976.3,8.05,28.8,159,45.9,35.7,19.5,891.0,118.0,9.4,0,5,7,0,2026-06-02T20:25:38.934439+05:30
Jalandhar,Punjab,31.326,75.5762,33.2,35,0.0,977.1,8.25,22.7,158,71.0,37.4,18.3,558.0,111.0,7.2,0,5,7,0,2026-06-02T20:25:38.934446+05:30
Dehradun,Uttarakhand,30.6284,78.0322,16.2,90,0.0,829.1,8.25,31.0,99,22.5,15.8,15.6,233.0,105.0,1.2,3,10,7,0,2026-06-02T20:25:38.934452+05:30
Shimla,Himachal Pradesh,31.1048,77.1734,15.5,70,0.0,784.3,8.35,32.8,130,33.4,22.2,17.1,376.0,112.0,5.9,3,5,7,0,2026-06-02T20:25:38.934460+05:30
Manali,Himachal Pradesh,32.2396,77.1887,16.3,80,0.0,819.0,9.65,38.2,86,16.2,8.4,39.2,254.0,96.0,0.4,3,5,7,0,2026-06-02T20:25:38.934469+05:30
Gurgaon,Haryana,28.4595,77.0266,31.0,43,0.0,978.6,7.45,29.9,230,230.5,71.9,45.8,773.0,88.0,19.2,0,5,7,1,2026-06-02T20:25:38.934476+05:30
Noida,Uttar Pradesh,28.5355,77.391,31.2,45,0.0,982.0,7.8,27.0,230,230.5,71.9,45.8,633.0,88.0,19.2,0,5,7,1,2026-06-02T20:25:38.934482+05:30
Ghaziabad,Uttar Pradesh,28.6692,77.4538,29.4,58,0.0,980.2,7.7,28.8,134,87.5,49.5,21.4,419.0,92.0,10.4,4,5,7,1,2026-06-02T20:25:38.934488+05:30
Faridabad,Haryana,28.4089,77.3178,32.0,40,0.0,981.1,7.8,34.2,230,230.5,71.9,45.8,619.0,88.0,19.2,0,5,7,1,2026-06-02T20:25:38.934495+05:30
Meerut,Uttar Pradesh,28.9845,77.7064,29.5,64,0.0,979.1,7.15,29.2,134,87.5,49.5,21.4,444.0,92.0,10.4,7,5,7,1,2026-06-02T20:25:38.934501+05:30
Agra,Uttar Pradesh,27.1767,78.0081,30.5,54,0.0,984.9,8.1,28.8,178,123.4,51.6,19.7,388.0,93.0,8.0,0,5,7,1,2026-06-02T20:25:38.934508+05:30
Varanasi,Uttar Pradesh,25.3176,82.9739,33.6,45,0.0,994.3,8.75,23.4,152,74.3,57.2,26.8,788.0,101.0,15.5,0,5,7,1,2026-06-02T20:25:38.934514+05:30
Prayagraj,Uttar Pradesh,25.4358,81.8463,33.2,47,0.0,992.8,8.7,26.6,156,78.9,53.4,18.7,519.0,109.0,11.2,0,5,7,1,2026-06-02T20:25:38.934521+05:30
Gorakhpur,Uttar Pradesh,26.7606,83.3732,30.4,56,0.0,993.9,8.35,23.8,156,78.9,60.5,22.7,309.0,97.0,10.3,0,5,7,1,2026-06-02T20:25:38.934530+05:30
Bareilly,Uttar Pradesh,28.367,79.4304,28.5,75,0.0,984.2,8.05,21.6,141,82.9,52.2,19.5,529.0,96.0,9.5,7,5,7,1,2026-06-02T20:25:38.934536+05:30
Aligarh,Uttar Pradesh,27.8974,78.088,28.6,60,0.0,982.9,7.95,24.5,151,129.9,56.0,22.4,370.0,91.0,11.2,4,5,7,1,2026-06-02T20:25:38.934542+05:30
Moradabad,Uttar Pradesh,28.8386,78.7733,29.4,64,0.0,981.2,7.9,25.9,151,125.7,68.5,30.5,636.0,102.0,16.7,7,5,7,1,2026-06-02T20:25:38.934548+05:30
Saharanpur,Uttar Pradesh,29.9637,77.546,28.7,68,0.0,973.6,7.5,26.3,142,91.5,52.6,34.6,384.0,91.0,12.2,7,5,7,1,2026-06-02T20:25:38.934554+05:30
Jhansi,Uttar Pradesh,25.4484,78.5685,31.2,54,0.0,975.0,8.25,30.6,84,58.2,25.3,9.0,248.0,88.0,7.1,0,5,7,1,2026-06-02T20:25:42.172688+05:30
Surat,Gujarat,21.1702,72.8311,29.5,81,0.0,1004.1,7.6,40.3,70,34.3,21.1,24.7,234.0,25.0,46.4,7,5,4,1,2026-06-02T20:25:42.172725+05:30
Vadodara,Gujarat,22.3072,73.1812,32.2,58,0.0,1001.0,8.0,35.3,79,57.0,30.0,11.6,184.0,77.0,12.4,0,5,4,1,2026-06-02T20:25:42.172735+05:30
Rajkot,Gujarat,22.3039,70.8022,33.8,48,0.0,990.8,7.55,44.6,78,56.5,26.1,4.1,119.0,94.0,6.5,0,5,7,1,2026-06-02T20:25:42.172743+05:30
Thane,Maharashtra,19.2183,72.9781,30.0,72,0.0,1006.1,7.7,40.3,68,29.1,14.2,9.0,186.0,49.0,5.1,7,5,4,1,2026-06-02T20:25:42.172750+05:30
Nagpur,Maharashtra,21.1458,79.0882,35.0,32,0.0,970.6,8.85,41.8,100,43.5,22.8,11.5,202.0,97.0,14.1,0,5,7,0,2026-06-02T20:25:42.172756+05:30
Nashik,Maharashtra,19.9975,73.7898,27.1,67,0.0,944.2,8.0,52.6,62,21.8,11.1,5.0,138.0,59.0,1.2,7,5,7,1,2026-06-02T20:25:42.172763+05:30
Aurangabad,Maharashtra,19.8762,75.3433,29.5,48,0.0,942.2,8.95,42.1,64,36.4,19.3,3.6,188.0,92.0,3.0,4,5,7,1,2026-06-02T20:25:42.172770+05:30
Solapur,Maharashtra,17.6599,75.9064,30.5,48,0.0,956.1,8.9,51.5,108,43.1,22.9,7.8,172.0,115.0,5.6,0,5,7,1,2026-06-02T20:25:42.172777+05:30
Kolhapur,Maharashtra,16.705,74.2433,27.2,65,0.0,947.6,8.75,43.6,45,18.0,10.6,4.9,186.0,64.0,2.1,7,5,7,1,2026-06-02T20:25:42.172784+05:30
Goa,Goa,15.2993,74.124,27.3,90,0.0,997.8,8.5,27.4,52,18.0,10.1,3.6,188.0,52.0,1.2,7,5,7,1,2026-06-02T20:25:42.172790+05:30
Jodhpur,Rajasthan,26.2389,73.0243,34.2,41,0.0,979.4,8.4,30.2,104,130.9,44.1,7.9,144.0,86.0,3.8,0,5,7,1,2026-06-02T20:25:42.172796+05:30
Udaipur,Rajasthan,24.5854,73.7125,29.0,65,0.0,944.2,8.85,22.7,85,57.6,25.7,4.1,253.0,84.0,3.5,7,5,7,1,2026-06-02T20:25:42.172802+05:30
Kota,Rajasthan,25.2138,75.8648,32.2,48,0.0,975.8,8.4,19.8,86,115.0,46.1,9.3,288.0,80.0,4.6,0,5,7,1,2026-06-02T20:25:42.172809+05:30
Bikaner,Rajasthan,28.0229,73.3119,33.9,36,0.0,978.3,8.45,23.4,144,223.5,58.7,3.8,339.0,109.0,4.2,0,5,7,1,2026-06-02T20:25:42.172815+05:30
Ajmer,Rajasthan,26.4499,74.6399,30.4,50,0.0,951.9,8.3,25.2,91,138.8,49.8,9.4,328.0,96.0,6.0,0,5,7,1,2026-06-02T20:25:42.172821+05:30
Gwalior,Madhya Pradesh,26.2183,78.1828,30.2,58,0.0,980.2,8.25,32.0,84,76.1,32.6,12.4,299.0,76.0,4.8,0,5,7,1,2026-06-02T20:25:42.172828+05:30
Indore,Madhya Pradesh,22.7196,75.8577,31.7,38,0.0,945.9,8.6,35.6,91,53.1,31.8,11.2,611.0,78.0,4.9,0,5,7,0,2026-06-02T20:25:42.172834+05:30
Bhopal,Madhya Pradesh,23.2599,77.4126,30.1,49,0.0,951.1,8.65,37.4,79,49.2,28.1,7.6,295.0,90.0,5.0,0,5,7,1,2026-06-02T20:25:42.172840+05:30
Jabalpur,Madhya Pradesh,23.1815,79.9864,31.5,41,0.0,959.1,8.85,24.8,90,51.1,27.5,12.2,215.0,90.0,4.7,0,5,7,1,2026-06-02T20:25:42.172847+05:30
Ujjain,Madhya Pradesh,23.1765,75.7885,29.4,50,0.0,951.2,8.55,28.8,88,50.2,27.5,3.1,296.0,90.0,4.4,4,5,7,1,2026-06-02T20:25:42.172854+05:30
Visakhapatnam,Andhra Pradesh,17.6868,83.2185,30.6,80,0.0,1001.3,9.0,36.7,112,42.3,34.9,32.5,384.0,84.0,51.5,3,5,4,1,2026-06-02T20:25:42.172860+05:30
Vijayawada,Andhra Pradesh,16.5062,80.648,35.1,43,0.0,999.6,9.0,34.2,122,68.2,56.5,23.5,242.0,89.0,9.9,0,5,10,1,2026-06-02T20:25:42.172868+05:30
Guntur,Andhra Pradesh,16.3067,80.4365,33.7,48,0.0,1000.8,9.0,33.5,118,79.6,61.0,32.6,219.0,76.0,11.4,0,5,4,1,2026-06-02T20:25:42.172875+05:30
Nellore,Andhra Pradesh,14.4426,79.9865,31.8,67,0.0,1003.8,8.95,33.8,147,29.7,23.3,5.2,260.0,135.0,5.9,3,5,4,1,2026-06-02T20:25:42.172883+05:30
Kurnool,Andhra Pradesh,15.8281,78.0373,32.6,52,0.0,974.9,9.0,52.6,138,59.3,36.3,18.3,210.0,119.0,10.6,0,5,7,1,2026-06-02T20:25:42.172890+05:30
Kakinada,Andhra Pradesh,16.9891,82.2475,31.4,78,0.0,1004.8,9.0,38.5,99,33.9,25.3,3.5,288.0,140.0,4.7,3,5,4,1,2026-06-02T20:25:42.172897+05:30
Tirupati,Andhra Pradesh,13.6288,79.4192,28.7,82,0.0,990.3,9.0,24.8,99,39.7,34.3,37.6,378.0,65.0,6.4,7,5,7,1,2026-06-02T20:25:42.172904+05:30
Warangal,Telangana,17.9689,79.5941,33.2,43,0.0,976.1,9.0,32.0,128,92.9,61.9,33.3,536.0,78.0,10.3,0,5,7,1,2026-06-02T20:25:42.172910+05:30
Nizamabad,Telangana,18.6725,78.0941,32.2,39,0.0,962.3,8.75,30.2,106,63.3,31.4,14.6,332.0,98.0,5.6,0,5,7,1,2026-06-02T20:25:42.172916+05:30
Mysore,Karnataka,12.2958,76.6396,22.8,96,0.0,928.7,9.0,35.6,91,9.3,9.0,12.8,298.0,80.0,2.5,3,5,7,1,2026-06-02T20:25:42.172923+05:30
Mangalore,Karnataka,12.9141,74.856,27.2,87,0.0,1007.2,1.85,34.6,47,15.5,12.4,16.5,173.0,48.0,4.8,7,5,0,1,2026-06-02T20:25:42.172929+05:30
Hubli-Dharwad,Karnataka,15.3647,75.124,26.1,77,0.0,940.6,8.55,41.0,43,12.9,8.2,5.2,171.0,64.0,1.3,7,5,7,1,2026-06-02T20:25:42.172936+05:30
Belgaum,Karnataka,15.8497,74.4977,23.1,92,0.0,925.5,8.9,42.5,43,16.5,9.3,4.5,145.0,59.0,1.8,3,5,7,1,2026-06-02T20:25:45.410021+05:30
Coimbatore,Tamil Nadu,11.0168,76.9558,24.5,91,0.0,962.1,8.95,49.0,48,5.8,5.6,10.8,231.0,59.0,3.3,3,5,7,1,2026-06-02T20:25:45.410057+05:30
Madurai,Tamil Nadu,9.9252,78.1198,30.0,74,0.0,992.6,8.85,40.0,68,21.4,20.1,47.1,330.0,26.0,8.7,7,5,7,1,2026-06-02T20:25:45.410068+05:30
Trichy,Tamil Nadu,10.7905,78.7047,29.8,73,0.1,999.3,8.85,43.6,68,10.2,9.1,12.9,175.0,56.0,3.7,10,5,7,1,2026-06-02T20:25:45.410078+05:30
Salem,Tamil Nadu,11.6643,78.146,26.7,92,0.1,977.5,8.95,37.4,134,18.9,15.7,14.1,318.0,91.0,5.7,10,5,7,1,2026-06-02T20:25:45.410086+05:30
Tirunelveli,Tamil Nadu,8.7139,77.7567,30.3,59,0.0,1003.5,8.7,38.2,33,6.3,5.3,5.4,165.0,57.0,1.1,0,5,4,1,2026-06-02T20:25:45.410093+05:30
Vellore,Tamil Nadu,12.9165,79.1325,30.3,63,0.0,983.4,9.0,40.3,137,32.7,27.6,10.6,348.0,124.0,8.0,3,5,7,1,2026-06-02T20:25:45.410100+05:30
Erode,Tamil Nadu,11.341,77.7172,28.8,71,0.0,989.1,8.9,45.0,89,10.2,9.6,15.4,257.0,68.0,3.1,7,5,7,1,2026-06-02T20:25:45.410107+05:30
Kochi,Kerala,9.9312,76.2673,25.9,93,0.2,1009.8,8.65,32.4,44,14.5,13.5,22.3,220.0,26.0,5.0,10,0,4,1,2026-06-02T20:25:45.410115+05:30
Thiruvananthapuram,Kerala,8.5241,76.9366,25.4,92,0.1,1009.8,8.3,35.3,31,8.2,4.9,1.6,140.0,63.0,0.5,10,0,4,1,2026-06-02T20:25:45.410122+05:30
Kozhikode,Kerala,11.2588,75.7804,25.2,98,0.3,1009.2,8.2,27.4,37,6.4,4.6,3.0,341.0,71.0,1.3,10,0,4,1,2026-06-02T20:25:45.410129+05:30
Thrissur,Kerala,10.5276,76.2144,24.2,99,0.2,1008.5,8.4,34.9,46,15.4,14.8,16.0,437.0,32.0,3.7,6,0,4,1,2026-06-02T20:25:45.410137+05:30
Kannur,Kerala,11.8745,75.3704,25.8,98,0.1,1008.0,2.95,29.5,36,12.5,11.1,22.8,387.0,37.0,4.0,10,0,0,1,2026-06-02T20:25:45.410144+05:30
Patna,Bihar,25.5941,85.1376,32.0,68,0.0,996.8,8.85,18.0,189,81.7,71.5,37.5,854.0,107.0,19.9,3,5,7,1,2026-06-02T20:25:45.410151+05:30
Gaya,Bihar,24.7914,85.0002,31.2,61,0.0,990.7,8.9,25.2,165,71.2,61.2,25.7,629.0,110.0,15.2,3,5,7,1,2026-06-02T20:25:45.410157+05:30
Muzaffarpur,Bihar,26.1209,85.3647,30.6,67,0.0,996.7,8.85,19.1,182,94.3,81.7,41.7,757.0,92.0,19.4,3,5,7,1,2026-06-02T20:25:45.410164+05:30
Bhagalpur,Bihar,25.2425,87.0117,31.6,69,0.0,997.5,8.8,16.9,184,69.4,61.9,27.8,610.0,118.0,17.8,3,5,7,1,2026-06-02T20:25:45.410170+05:30
Ranchi,Jharkhand,23.3441,85.3096,26.5,64,0.0,935.8,9.05,21.2,170,61.7,54.2,13.9,399.0,116.0,15.3,7,5,7,1,2026-06-02T20:25:45.410177+05:30
Jamshedpur,Jharkhand,22.8046,86.2029,30.0,76,0.0,988.2,9.05,19.1,198,68.0,59.8,16.6,770.0,132.0,23.6,7,5,7,1,2026-06-02T20:25:45.410183+05:30
Dhanbad,Jharkhand,23.7957,86.4304,30.9,64,0.0,977.0,9.05,22.0,205,100.1,93.4,54.0,424.0,111.0,141.9,3,5,7,1,2026-06-02T20:25:45.410190+05:30
Bokaro,Jharkhand,23.6693,86.1511,30.5,66,0.0,980.6,9.05,18.7,192,111.1,98.7,49.9,1095.0,105.0,112.8,3,5,7,1,2026-06-02T20:25:45.410197+05:30
Bhubaneswar,Odisha,20.2961,85.8245,29.5,87,0.0,1000.4,9.0,31.3,126,33.2,28.9,10.1,360.0,109.0,10.8,7,5,4,1,2026-06-02T20:25:45.410203+05:30
Cuttack,Odisha,20.4625,85.8828,30.0,84,0.0,1002.0,9.05,28.1,126,33.2,28.9,10.1,407.0,109.0,10.8,7,5,4,1,2026-06-02T20:25:45.410210+05:30
Rourkela,Odisha,22.2604,84.8536,31.9,60,0.0,982.5,7.9,29.5,198,83.6,69.6,24.2,672.0,127.0,19.8,0,5,7,1,2026-06-02T20:25:45.410217+05:30
Raipur,Chhattisgarh,21.2514,81.6296,33.5,41,0.0,971.5,8.9,31.7,171,86.1,60.3,35.7,546.0,100.0,55.7,0,5,7,1,2026-06-02T20:25:45.410224+05:30
Bhilai,Chhattisgarh,21.1938,81.3509,33.2,38,0.0,971.9,8.95,26.3,152,83.6,54.4,36.7,818.0,80.0,44.6,0,5,7,1,2026-06-02T20:25:45.410230+05:30
Guwahati,Assam,26.1158,91.7086,28.6,79,0.0,997.9,8.7,40.7,119,60.8,56.3,8.3,510.0,99.0,6.7,7,5,7,1,2026-06-02T20:25:45.410237+05:30
Agartala,Tripura,23.8315,91.2868,29.3,75,0.0,1003.5,8.7,21.2,156,70.3,61.2,24.2,399.0,90.0,8.0,7,5,4,1,2026-06-02T20:25:45.410244+05:30
Shillong,Meghalaya,25.5788,91.8933,19.4,94,0.0,856.2,7.85,23.4,93,36.1,31.5,8.4,572.0,92.0,3.0,3,10,7,1,2026-06-02T20:25:45.410251+05:30
Imphal,Manipur,24.817,93.9368,23.6,91,0.0,921.1,8.85,27.4,71,37.8,33.8,20.3,643.0,57.0,4.8,3,5,7,1,2026-06-02T20:25:45.410258+05:30
Aizawl,Mizoram,23.7271,92.7176,21.4,89,0.0,891.1,8.3,22.7,69,47.8,36.0,13.5,290.0,57.0,3.1,3,5,7,1,2026-06-02T20:25:45.410264+05:30
Kohima,Nagaland,25.6701,94.1077,20.1,96,0.0,854.2,8.55,32.8,67,35.9,29.7,13.8,368.0,76.0,3.1,3,5,7,1,2026-06-02T20:25:45.410270+05:30
Gangtok,Sikkim,27.3314,88.6138,17.5,95,0.2,836.7,9.1,40.0,116,36.1,31.0,8.9,560.0,136.0,2.8,6,10,7,1,2026-06-02T20:25:45.410277+05:30
Siliguri,West Bengal,26.7271,88.3953,29.2,74,0.0,989.5,8.7,35.3,158,72.4,60.3,10.5,979.0,151.0,9.5,7,5,7,1,2026-06-02T20:25:48.651556+05:30
Durgapur,West Bengal,23.5204,87.3119,30.2,77,0.0,992.1,8.95,20.2,177,107.1,102.7,49.9,587.0,102.0,76.0,3,5,7,1,2026-06-02T20:25:48.651610+05:30
Asansol,West Bengal,23.6739,86.9524,30.5,71,0.0,990.6,9.0,24.1,180,71.7,68.2,39.8,942.0,108.0,62.9,3,5,7,1,2026-06-02T20:25:48.651622+05:30
Pondicherry,Puducherry,11.9139,79.8145,30.6,69,0.0,1007.4,8.8,41.8,80,16.4,11.3,8.9,192.0,60.0,5.0,3,5,4,1,2026-06-02T20:25:48.651631+05:30
Port Blair,Andaman and Nicobar Islands,11.6234,92.7265,25.6,96,0.1,1007.4,1.7,37.4,30,13.3,7.2,0.5,131.0,65.0,0.4,10,5,0,1,2026-06-02T20:25:48.651639+05:30
Haridwar,Uttarakhand,29.9457,78.1642,28.4,69,0.0,971.7,7.6,27.0,123,82.7,43.2,18.0,449.0,107.0,8.2,7,5,7,1,2026-06-02T20:25:48.651647+05:30
Rishikesh,Uttarakhand,30.0869,78.2676,27.4,69,0.0,964.6,7.6,21.2,123,58.0,32.0,8.9,407.0,113.0,4.9,7,5,7,1,2026-06-02T20:25:48.651655+05:30
Nainital,Uttarakhand,29.3919,79.4542,14.6,94,0.0,804.2,7.25,41.8,105,74.3,34.9,11.7,328.0,121.0,6.8,3,10,7,0,2026-06-02T20:25:48.651662+05:30
Mussoorie,Uttarakhand,30.4599,78.0664,14.5,95,0.0,801.4,8.15,36.7,138,51.2,32.1,20.6,327.0,123.0,7.9,3,10,7,0,2026-06-02T20:25:48.651670+05:30
Dharamshala,Himachal Pradesh,32.219,76.3234,20.5,76,0.0,868.1,8.55,38.9,94,18.3,10.9,9.5,353.0,107.0,0.9,3,5,7,0,2026-06-02T20:25:48.651677+05:30
Dalhousie,Himachal Pradesh,32.5387,75.971,16.1,75,0.0,803.6,8.75,32.0,125,50.4,24.2,13.5,401.0,138.0,2.5,3,5,7,0,2026-06-02T20:25:48.651685+05:30
Patiala,Punjab,30.3398,76.3869,30.0,58,0.0,975.9,7.7,26.3,185,80.1,41.4,18.8,546.0,118.0,10.2,4,5,7,1,2026-06-02T20:25:48.651692+05:30
Bhatinda,Punjab,30.211,74.9455,32.7,36,0.0,981.0,8.3,32.4,424,234.7,67.3,24.2,428.0,114.0,15.3,0,5,7,0,2026-06-02T20:25:48.651699+05:30
Rohtak,Haryana,28.8955,76.6066,30.6,46,0.0,979.3,7.2,31.3,191,172.3,69.4,39.0,369.0,127.0,20.1,0,5,7,1,2026-06-02T20:25:48.651705+05:30
Panipat,Haryana,29.3909,76.9635,29.2,58,0.0,978.0,7.65,33.1,410,113.6,50.6,23.2,387.0,121.0,17.3,4,5,7,1,2026-06-02T20:25:48.651712+05:30
Mathura,Uttar Pradesh,27.4924,77.6737,30.1,57,0.0,983.9,8.05,24.1,153,123.9,50.1,38.2,619.0,72.0,6.0,0,5,7,1,2026-06-02T20:25:48.651719+05:30
Vrindavan,Uttar Pradesh,27.5823,77.7027,30.5,52,0.0,984.5,8.0,36.0,153,123.9,50.1,38.2,550.0,72.0,6.0,0,5,7,1,2026-06-02T20:25:48.651725+05:30
Ayodhya,Uttar Pradesh,26.7922,82.1998,30.2,70,0.0,992.1,8.35,16.2,158,71.9,52.7,17.4,422.0,97.0,7.4,3,5,7,1,2026-06-02T20:25:48.651732+05:30
Ratlam,Madhya Pradesh,23.3315,75.0367,30.6,45,0.0,952.4,8.5,32.4,84,42.5,25.4,2.5,186.0,90.0,5.1,0,5,7,1,2026-06-02T20:25:48.651739+05:30
Sagar,Madhya Pradesh,23.8388,78.7378,29.4,51,0.0,948.2,8.7,24.8,71,44.6,23.0,7.0,220.0,92.0,2.9,4,5,7,1,2026-06-02T20:25:48.651746+05:30
Satna,Madhya Pradesh,24.6005,80.8322,30.7,53,0.0,968.7,8.8,22.3,119,49.0,35.4,7.4,253.0,95.0,3.7,0,5,7,1,2026-06-02T20:25:48.651753+05:30
Akola,Maharashtra,20.7002,77.0082,32.4,40,0.0,972.0,8.8,33.5,76,44.7,22.8,7.4,163.0,95.0,5.6,0,5,7,1,2026-06-02T20:25:48.651760+05:30
Amravati,Maharashtra,20.9374,77.7796,34.4,27,0.0,964.5,8.8,36.4,82,49.5,25.3,13.0,239.0,87.0,7.2,0,5,7,0,2026-06-02T20:25:48.651768+05:30
Latur,Maharashtra,18.4088,76.5604,32.3,40,0.0,938.2,8.95,37.1,79,49.7,24.7,11.0,273.0,90.0,3.9,0,5,7,1,2026-06-02T20:25:48.651775+05:30
Nanded,Maharashtra,19.1383,77.3091,34.1,35,0.0,965.9,8.9,28.8,86,46.2,22.9,12.3,341.0,96.0,4.1,0,5,7,1,2026-06-02T20:25:48.651783+05:30
Gulbarga,Karnataka,17.3297,76.8343,30.8,47,0.0,956.8,8.95,40.3,114,54.7,27.6,19.4,286.0,102.0,6.0,0,5,7,1,2026-06-02T20:25:48.651790+05:30
Bidar,Karnataka,17.9104,77.5199,29.7,52,0.0,933.7,8.95,29.2,97,75.7,38.9,16.8,297.0,85.0,4.4,4,5,7,1,2026-06-02T20:25:48.651796+05:30
Hospet,Karnataka,15.2689,76.3909,26.1,86,0.0,955.4,8.95,44.3,67,16.7,10.7,5.8,217.0,91.0,2.0,7,5,7,1,2026-06-02T20:25:48.651803+05:30
Tirupur,Tamil Nadu,11.1085,77.3411,26.5,80,0.1,975.4,9.0,46.4,84,11.3,10.4,14.8,218.0,69.0,4.9,10,5,7,1,2026-06-02T20:25:48.651810+05:30
Alappuzha,Kerala,9.4981,76.3388,26.2,93,0.0,1010.2,8.25,37.4,40,13.4,11.6,12.7,112.0,51.0,2.8,7,0,4,1,2026-06-02T20:25:48.651816+05:30
Munnar,Kerala,10.0889,77.0595,17.2,100,0.3,857.6,9.15,27.7,48,5.8,5.5,8.1,189.0,50.0,1.7,6,10,7,1,2026-06-02T20:25:48.651824+05:30
Silchar,Assam,24.8333,92.7789,27.9,93,0.0,1002.4,8.7,23.8,103,67.3,52.9,15.5,864.0,101.0,10.3,7,5,4,1,2026-06-02T20:25:48.651830+05:30
Dibrugarh,Assam,27.4728,94.912,25.5,97,0.3,992.4,8.9,26.6,67,16.5,15.5,8.5,424.0,78.0,1.7,10,5,7,1,2026-06-02T20:25:48.651837+05:30
