city,state,latitude,longitude,temp,humidity,rain,pressure,uv_index,wind_gusts,aqi,pm10,pm2_5,mosquito_risk,arthritis_risk,migraine_risk,frizz_risk,updated_at
Delhi,Delhi,28.6139,77.209,33.5,34,0.0,980.6,7.4,34.2,143,508.5,76.8,0,5,7,0,2026-04-30T12:00:35.917933+05:30
Mumbai,Maharashtra,19.076,72.8777,32.5,59,0.0,1009.1,8.05,41.8,70,48.4,26.8,0,0,4,1,2026-04-30T12:00:35.917978+05:30
Bangalore,Karnataka,12.9716,77.5946,34.1,34,0.0,914.0,9.55,40.3,88,36.0,27.0,0,5,7,1,2026-04-30T12:00:35.917995+05:30
Hyderabad,Telangana,17.385,78.4867,38.2,21,0.0,953.6,9.25,32.4,94,30.0,24.9,0,5,10,0,2026-04-30T12:00:35.918010+05:30
Chennai,Tamil Nadu,13.0827,80.2707,36.5,49,0.0,1006.5,9.25,54.4,47,17.2,13.6,0,5,7,1,2026-04-30T12:00:35.918020+05:30
Kolkata,West Bengal,22.5726,88.3639,31.7,59,0.0,1006.0,8.8,42.8,55,21.4,18.0,0,5,4,1,2026-04-30T12:00:35.918029+05:30
Pune,Maharashtra,18.5204,73.8567,37.3,15,0.0,949.3,8.6,50.0,56,39.7,14.6,0,5,10,0,2026-04-30T12:00:35.918036+05:30
Ahmedabad,Gujarat,23.0225,72.5714,37.1,31,0.0,1000.4,8.2,43.6,53,45.8,17.3,0,5,7,1,2026-04-30T12:00:35.918044+05:30
Jaipur,Rajasthan,26.9124,75.7873,36.8,22,0.0,957.5,8.1,45.4,159,240.3,36.8,0,5,10,0,2026-04-30T12:00:35.918051+05:30
Lucknow,Uttar Pradesh,26.8467,80.9462,32.5,42,0.0,992.3,7.5,47.2,101,61.5,27.5,0,5,7,1,2026-04-30T12:00:35.918059+05:30
Kanpur,Uttar Pradesh,26.4499,80.3319,34.1,33,0.0,989.6,6.65,52.6,164,231.0,45.6,0,5,7,0,2026-04-30T12:00:35.918066+05:30
Chandigarh,Chandigarh,30.7333,76.7794,31.2,33,0.0,967.4,6.8,42.1,59,116.4,20.7,0,5,7,0,2026-04-30T12:00:35.918074+05:30
Srinagar,Jammu and Kashmir,34.0837,74.7973,19.0,58,0.0,841.7,6.85,29.2,70,15.5,9.3,0,5,7,0,2026-04-30T12:00:35.918082+05:30
Jammu,Jammu and Kashmir,32.7266,74.857,30.9,38,0.0,970.8,8.3,24.8,55,28.0,11.7,0,5,7,0,2026-04-30T12:00:35.918091+05:30
Amritsar,Punjab,31.634,74.8723,33.8,30,0.0,978.1,7.85,41.8,83,30.0,16.1,0,5,7,0,2026-04-30T12:00:35.918098+05:30
Ludhiana,Punjab,30.901,75.8573,32.8,32,0.0,976.4,7.35,52.2,90,146.2,31.4,0,5,7,0,2026-04-30T12:00:35.918104+05:30
Jalandhar,Punjab,31.326,75.5762,33.4,31,0.0,976.9,7.45,31.3,79,89.6,22.7,0,5,7,0,2026-04-30T12:00:35.918110+05:30
Dehradun,Uttarakhand,30.6284,78.0322,18.8,56,0.0,830.1,7.7,33.8,43,62.9,11.3,0,5,7,0,2026-04-30T12:00:35.918117+05:30
Shimla,Himachal Pradesh,31.1048,77.1734,17.8,44,0.0,784.5,7.4,38.5,48,79.6,13.7,0,5,7,0,2026-04-30T12:00:35.918123+05:30
Manali,Himachal Pradesh,32.2396,77.1887,16.5,55,0.0,816.7,10.1,37.1,65,4.6,2.7,0,5,7,0,2026-04-30T12:00:35.918129+05:30
Gurgaon,Haryana,28.4595,77.0266,33.6,33,0.0,979.0,7.55,40.7,681,1601.9,163.9,0,5,7,0,2026-04-30T12:00:35.918135+05:30
Noida,Uttar Pradesh,28.5355,77.391,33.5,36,0.0,982.2,7.45,44.6,681,1601.9,163.9,0,5,7,1,2026-04-30T12:00:35.918141+05:30
Ghaziabad,Uttar Pradesh,28.6692,77.4538,32.5,39,0.0,981.0,7.3,39.2,131,343.7,57.2,0,5,7,1,2026-04-30T12:00:35.918147+05:30
Faridabad,Haryana,28.4089,77.3178,32.8,36,0.0,981.6,7.5,37.1,681,1601.9,163.9,0,5,7,0,2026-04-30T12:00:35.918156+05:30
Meerut,Uttar Pradesh,28.9845,77.7064,30.2,50,0.0,980.3,5.65,47.9,131,343.7,57.2,0,5,3,1,2026-04-30T12:00:35.918163+05:30
Agra,Uttar Pradesh,27.1767,78.0081,37.8,24,0.0,984.4,7.8,68.0,745,868.0,104.1,0,5,10,0,2026-04-30T12:00:35.918169+05:30
Varanasi,Uttar Pradesh,25.3176,82.9739,31.5,37,0.0,997.3,8.45,39.2,91,60.1,31.1,0,5,7,0,2026-04-30T12:00:35.918176+05:30
Prayagraj,Uttar Pradesh,25.4358,81.8463,31.0,45,0.1,994.7,7.7,50.0,83,55.2,30.5,3,5,7,1,2026-04-30T12:00:35.918183+05:30
Gorakhpur,Uttar Pradesh,26.7606,83.3732,30.9,45,0.0,997.8,8.25,46.1,74,48.9,26.0,0,5,7,1,2026-04-30T12:00:35.918189+05:30
Bareilly,Uttar Pradesh,28.367,79.4304,26.8,62,0.0,987.1,7.7,45.7,98,192.3,44.9,7,5,7,1,2026-04-30T12:00:35.918198+05:30
Aligarh,Uttar Pradesh,27.8974,78.088,35.5,31,0.0,983.2,7.6,48.6,362,581.1,77.1,0,5,10,0,2026-04-30T12:00:35.918205+05:30
Moradabad,Uttar Pradesh,28.8386,78.7733,28.6,51,0.0,983.3,7.55,59.0,123,105.9,38.4,4,5,7,1,2026-04-30T12:00:35.918210+05:30
Saharanpur,Uttar Pradesh,29.9637,77.546,29.9,46,0.0,974.7,6.4,49.7,86,92.7,27.5,4,5,7,1,2026-04-30T12:00:35.918216+05:30
Jhansi,Uttar Pradesh,25.4484,78.5685,39.1,18,0.0,974.9,8.3,64.8,77,121.1,26.6,0,5,10,0,2026-04-30T12:00:39.504006+05:30
Surat,Gujarat,21.1702,72.8311,34.0,53,0.0,1006.5,7.85,49.7,66,68.7,22.5,0,5,4,1,2026-04-30T12:00:39.504040+05:30
Vadodara,Gujarat,22.3072,73.1812,37.8,27,0.0,1003.0,8.15,45.0,58,56.8,20.3,0,5,7,0,2026-04-30T12:00:39.504050+05:30
Rajkot,Gujarat,22.3039,70.8022,38.7,26,0.0,992.8,7.9,51.8,51,54.7,18.6,0,5,10,0,2026-04-30T12:00:39.504057+05:30
Thane,Maharashtra,19.2183,72.9781,36.0,43,0.0,1007.9,8.05,40.3,70,48.4,26.8,0,5,7,1,2026-04-30T12:00:39.504064+05:30
Nagpur,Maharashtra,21.1458,79.0882,40.7,14,0.0,971.7,8.9,49.0,51,29.7,16.1,0,5,10,0,2026-04-30T12:00:39.504070+05:30
Nashik,Maharashtra,19.9975,73.7898,36.0,21,0.0,946.7,8.3,54.7,58,50.5,19.8,0,5,10,0,2026-04-30T12:00:39.504077+05:30
Aurangabad,Maharashtra,19.8762,75.3433,38.2,11,0.0,944.9,9.05,54.0,52,34.6,11.7,0,5,10,0,2026-04-30T12:00:39.504083+05:30
Solapur,Maharashtra,17.6599,75.9064,38.3,17,0.0,958.1,9.1,40.3,66,25.8,11.3,0,5,10,0,2026-04-30T12:00:39.504090+05:30
Kolhapur,Maharashtra,16.705,74.2433,36.0,22,0.0,949.5,9.0,44.3,62,35.6,16.0,0,5,10,0,2026-04-30T12:00:39.504097+05:30
Goa,Goa,15.2993,74.124,37.0,46,0.0,998.3,8.95,34.6,59,27.4,14.7,0,5,10,1,2026-04-30T12:00:39.504104+05:30
Jodhpur,Rajasthan,26.2389,73.0243,38.5,21,0.0,979.5,8.3,45.7,122,242.1,38.9,0,5,10,0,2026-04-30T12:00:39.504110+05:30
Udaipur,Rajasthan,24.5854,73.7125,36.3,23,0.0,945.2,8.8,47.2,55,69.8,19.9,0,5,10,0,2026-04-30T12:00:39.504117+05:30
Kota,Rajasthan,25.2138,75.8648,39.0,23,0.0,975.9,8.3,43.9,62,88.7,23.2,0,5,10,0,2026-04-30T12:00:39.504123+05:30
Bikaner,Rajasthan,28.0229,73.3119,39.3,16,0.0,977.8,8.2,42.5,79,119.2,27.3,0,5,10,0,2026-04-30T12:00:39.504129+05:30
Ajmer,Rajasthan,26.4499,74.6399,37.6,18,0.0,952.4,8.25,53.6,73,142.5,28.5,0,5,10,0,2026-04-30T12:00:39.504135+05:30
Gwalior,Madhya Pradesh,26.2183,78.1828,38.3,21,0.0,979.9,8.05,50.8,136,187.7,37.4,0,5,10,0,2026-04-30T12:00:39.504141+05:30
Indore,Madhya Pradesh,22.7196,75.8577,37.3,18,0.0,947.8,8.6,47.5,48,53.0,17.2,0,5,10,0,2026-04-30T12:00:39.504147+05:30
Bhopal,Madhya Pradesh,23.2599,77.4126,38.3,20,0.0,952.6,8.6,64.4,45,51.7,17.5,0,5,10,0,2026-04-30T12:00:39.504154+05:30
Jabalpur,Madhya Pradesh,23.1815,79.9864,39.0,17,0.0,959.8,8.75,48.2,42,52.2,16.9,0,5,10,0,2026-04-30T12:00:39.504161+05:30
Ujjain,Madhya Pradesh,23.1765,75.7885,37.2,23,0.0,953.1,8.55,47.2,50,50.5,17.6,0,5,10,0,2026-04-30T12:00:39.504167+05:30
Visakhapatnam,Andhra Pradesh,17.6868,83.2185,35.2,51,0.0,1002.6,9.1,49.7,58,21.4,17.3,0,5,7,1,2026-04-30T12:00:39.504173+05:30
Vijayawada,Andhra Pradesh,16.5062,80.648,32.7,60,0.0,1003.0,9.2,43.2,69,24.2,20.9,0,5,4,1,2026-04-30T12:00:39.504179+05:30
Guntur,Andhra Pradesh,16.3067,80.4365,33.2,54,0.0,1003.9,9.2,49.7,73,27.5,23.8,0,5,4,1,2026-04-30T12:00:39.504186+05:30
Nellore,Andhra Pradesh,14.4426,79.9865,40.8,30,0.0,1004.3,9.2,37.8,55,19.4,17.7,0,5,7,1,2026-04-30T12:00:39.504192+05:30
Kurnool,Andhra Pradesh,15.8281,78.0373,40.0,26,0.0,976.8,9.2,38.5,96,23.2,17.5,0,5,10,1,2026-04-30T12:00:39.504199+05:30
Kakinada,Andhra Pradesh,16.9891,82.2475,30.6,70,0.1,1007.4,9.15,42.1,51,19.2,14.3,6,5,4,1,2026-04-30T12:00:39.504206+05:30
Tirupati,Andhra Pradesh,13.6288,79.4192,40.2,27,0.0,990.1,9.3,43.6,59,19.2,17.7,0,5,10,1,2026-04-30T12:00:39.504212+05:30
Warangal,Telangana,17.9689,79.5941,37.8,35,0.0,978.5,9.15,36.7,96,33.8,28.6,0,5,10,1,2026-04-30T12:00:39.504218+05:30
Nizamabad,Telangana,18.6725,78.0941,39.0,16,0.0,965.0,9.1,40.7,83,20.7,9.5,0,5,10,0,2026-04-30T12:00:39.504225+05:30
Mysore,Karnataka,12.2958,76.6396,33.2,43,0.0,930.2,9.4,48.6,75,30.7,21.1,0,5,7,1,2026-04-30T12:00:39.504231+05:30
Mangalore,Karnataka,12.9141,74.856,33.3,56,0.0,1007.9,9.05,34.6,70,43.2,20.8,0,5,4,1,2026-04-30T12:00:39.504237+05:30
Hubli-Dharwad,Karnataka,15.3647,75.124,33.8,46,0.0,942.7,9.2,47.2,64,25.2,18.1,0,5,7,1,2026-04-30T12:00:39.504243+05:30
Belgaum,Karnataka,15.8497,74.4977,32.8,41,0.0,928.1,9.2,40.7,59,24.9,14.4,0,5,7,1,2026-04-30T12:00:42.746428+05:30
Coimbatore,Tamil Nadu,11.0168,76.9558,35.0,38,0.0,962.6,9.35,51.5,71,29.2,20.2,0,5,7,1,2026-04-30T12:00:42.746462+05:30
Madurai,Tamil Nadu,9.9252,78.1198,38.7,34,0.0,992.9,9.2,59.0,67,20.6,19.0,0,5,10,1,2026-04-30T12:00:42.746474+05:30
Trichy,Tamil Nadu,10.7905,78.7047,36.8,42,0.0,999.6,9.25,45.7,50,20.8,19.0,0,5,10,1,2026-04-30T12:00:42.746483+05:30
Salem,Tamil Nadu,11.6643,78.146,37.7,32,0.0,977.4,9.3,51.8,69,32.6,26.7,0,5,10,1,2026-04-30T12:00:42.746490+05:30
Tirunelveli,Tamil Nadu,8.7139,77.7567,38.2,37,0.0,1003.1,9.1,46.1,54,12.5,11.1,0,5,7,1,2026-04-30T12:00:42.746497+05:30
Vellore,Tamil Nadu,12.9165,79.1325,39.5,29,0.0,983.9,9.35,41.0,63,22.8,20.5,0,5,10,1,2026-04-30T12:00:42.746504+05:30
Erode,Tamil Nadu,11.341,77.7172,38.7,30,0.0,988.7,9.3,68.8,76,27.0,21.0,0,5,10,1,2026-04-30T12:00:42.746512+05:30
Kochi,Kerala,9.9312,76.2673,31.0,72,0.0,1009.5,8.45,31.0,72,13.3,11.4,3,0,4,1,2026-04-30T12:00:42.746519+05:30
Thiruvananthapuram,Kerala,8.5241,76.9366,30.4,74,0.0,1009.1,8.95,29.5,42,7.8,6.5,3,0,4,1,2026-04-30T12:00:42.746526+05:30
Kozhikode,Kerala,11.2588,75.7804,30.9,72,0.0,1008.6,8.9,39.2,58,22.4,12.0,3,0,4,1,2026-04-30T12:00:42.746532+05:30
Thrissur,Kerala,10.5276,76.2144,33.1,58,0.1,1007.5,8.95,38.2,80,12.7,9.9,3,5,4,1,2026-04-30T12:00:42.746567+05:30
Kannur,Kerala,11.8745,75.3704,32.3,62,0.0,1008.3,9.0,35.3,69,40.2,19.7,3,0,4,1,2026-04-30T12:00:42.746578+05:30
Patna,Bihar,25.5941,85.1376,30.8,52,0.0,999.9,8.6,40.3,68,32.4,23.4,0,5,7,1,2026-04-30T12:00:42.746586+05:30
Gaya,Bihar,24.7914,85.0002,34.5,37,0.0,991.9,8.7,54.4,95,40.6,31.7,0,5,7,1,2026-04-30T12:00:42.746592+05:30
Muzaffarpur,Bihar,26.1209,85.3647,29.9,54,0.0,1000.7,8.55,43.9,62,32.8,22.6,4,5,4,1,2026-04-30T12:00:42.746599+05:30
Bhagalpur,Bihar,25.2425,87.0117,32.1,46,0.0,1001.3,8.55,43.9,56,14.0,13.4,0,5,4,1,2026-04-30T12:00:42.746605+05:30
Ranchi,Jharkhand,23.3441,85.3096,32.1,44,0.0,937.2,9.15,45.4,88,43.9,35.5,0,5,7,1,2026-04-30T12:00:42.746611+05:30
Jamshedpur,Jharkhand,22.8046,86.2029,34.2,46,0.0,989.9,9.0,50.4,112,47.3,43.3,0,5,7,1,2026-04-30T12:00:42.746616+05:30
Dhanbad,Jharkhand,23.7957,86.4304,32.7,48,0.0,979.5,8.9,43.6,144,67.3,61.9,0,5,7,1,2026-04-30T12:00:42.746623+05:30
Bokaro,Jharkhand,23.6693,86.1511,33.2,48,0.0,983.0,8.9,41.8,136,68.9,63.3,0,5,7,1,2026-04-30T12:00:42.746628+05:30
Bhubaneswar,Odisha,20.2961,85.8245,34.2,57,0.0,1001.4,9.05,53.3,53,22.5,19.3,0,5,4,1,2026-04-30T12:00:42.746634+05:30
Cuttack,Odisha,20.4625,85.8828,35.3,54,0.0,1002.8,9.1,49.3,53,22.5,19.3,0,5,7,1,2026-04-30T12:00:42.746640+05:30
Rourkela,Odisha,22.2604,84.8536,38.2,28,0.0,982.7,8.9,63.4,100,41.6,37.7,0,5,10,1,2026-04-30T12:00:42.746646+05:30
Raipur,Chhattisgarh,21.2514,81.6296,39.7,19,0.0,972.6,8.95,53.6,91,35.6,24.3,0,5,10,0,2026-04-30T12:00:42.746652+05:30
Bhilai,Chhattisgarh,21.1938,81.3509,39.0,20,0.0,973.3,8.95,55.4,82,33.2,21.8,0,5,10,0,2026-04-30T12:00:42.746659+05:30
Guwahati,Assam,26.1158,91.7086,23.7,84,0.2,1003.6,7.65,30.2,69,27.5,20.4,6,5,4,1,2026-04-30T12:00:42.746666+05:30
Agartala,Tripura,23.8315,91.2868,29.8,65,0.0,1007.5,5.5,34.2,84,14.4,12.7,7,5,0,1,2026-04-30T12:00:42.746672+05:30
Shillong,Meghalaya,25.5788,91.8933,19.5,70,0.2,858.0,8.35,44.3,49,6.7,4.9,6,5,7,0,2026-04-30T12:00:42.746679+05:30
Imphal,Manipur,24.817,93.9368,24.4,65,0.0,924.6,9.05,31.7,98,20.8,12.3,3,5,7,1,2026-04-30T12:00:42.746686+05:30
Aizawl,Mizoram,23.7271,92.7176,24.4,58,0.0,894.6,8.3,32.8,78,17.6,12.6,0,5,7,0,2026-04-30T12:00:42.746693+05:30
Kohima,Nagaland,25.6701,94.1077,21.6,74,0.0,856.2,5.0,28.4,61,25.8,12.9,3,5,3,1,2026-04-30T12:00:42.746699+05:30
Gangtok,Sikkim,27.3314,88.6138,14.2,96,0.3,837.6,5.6,31.3,45,11.6,4.1,6,10,3,0,2026-04-30T12:00:42.746705+05:30
Siliguri,West Bengal,26.7271,88.3953,21.9,88,0.2,995.7,8.2,36.0,49,10.9,6.1,6,5,7,1,2026-04-30T12:00:45.987275+05:30
Durgapur,West Bengal,23.5204,87.3119,30.6,60,0.0,995.4,8.85,40.7,98,48.3,44.8,0,5,7,1,2026-04-30T12:00:45.987310+05:30
Asansol,West Bengal,23.6739,86.9524,31.6,54,0.0,993.7,8.6,43.6,114,62.9,57.6,0,5,7,1,2026-04-30T12:00:45.987320+05:30
Pondicherry,Puducherry,11.9139,79.8145,34.1,61,0.0,1008.3,9.2,52.2,40,15.8,13.2,3,0,4,1,2026-04-30T12:00:45.987328+05:30
Port Blair,Andaman and Nicobar Islands,11.6234,92.7265,34.8,44,0.0,1008.7,8.9,31.7,41,11.8,10.2,0,0,4,1,2026-04-30T12:00:45.987336+05:30
Haridwar,Uttarakhand,29.9457,78.1642,29.6,49,0.0,973.3,6.9,40.7,75,107.6,28.2,4,5,7,1,2026-04-30T12:00:45.987344+05:30
Rishikesh,Uttarakhand,30.0869,78.2676,28.1,47,0.0,966.1,7.3,41.0,70,98.7,24.2,4,5,7,0,2026-04-30T12:00:45.987351+05:30
Nainital,Uttarakhand,29.3919,79.4542,18.8,48,0.0,806.2,7.85,36.4,83,68.9,24.1,0,5,7,0,2026-04-30T12:00:45.987358+05:30
Mussoorie,Uttarakhand,30.4599,78.0664,16.5,61,0.0,802.5,7.6,42.8,55,105.7,18.2,3,5,7,0,2026-04-30T12:00:45.987365+05:30
Dharamshala,Himachal Pradesh,32.219,76.3234,22.8,37,0.0,868.3,7.5,50.0,60,25.8,6.4,0,5,7,0,2026-04-30T12:00:45.987372+05:30
Dalhousie,Himachal Pradesh,32.5387,75.971,14.0,77,0.0,803.1,6.35,42.5,52,43.0,10.7,3,5,7,0,2026-04-30T12:00:45.987379+05:30
Patiala,Punjab,30.3398,76.3869,29.5,43,0.0,976.4,6.9,48.6,134,262.6,39.1,4,5,7,0,2026-04-30T12:00:45.987385+05:30
Bhatinda,Punjab,30.211,74.9455,35.8,26,0.0,980.7,8.05,46.4,113,147.1,32.5,0,5,10,0,2026-04-30T12:00:45.987392+05:30
Rohtak,Haryana,28.8955,76.6066,31.9,38,0.0,980.0,7.5,38.5,290,828.9,105.2,0,5,7,0,2026-04-30T12:00:45.987400+05:30
Panipat,Haryana,29.3909,76.9635,28.9,45,0.0,979.3,6.9,42.1,603,1061.7,121.1,4,5,7,0,2026-04-30T12:00:45.987406+05:30
Mathura,Uttar Pradesh,27.4924,77.6737,37.1,27,0.0,983.7,7.75,43.9,585,851.2,99.7,0,5,10,0,2026-04-30T12:00:45.987413+05:30
Vrindavan,Uttar Pradesh,27.5823,77.7027,37.0,26,0.0,984.1,7.7,42.5,585,851.2,99.7,0,5,10,0,2026-04-30T12:00:45.987420+05:30
Ayodhya,Uttar Pradesh,26.7922,82.1998,29.6,50,0.0,995.2,7.75,42.1,91,44.0,25.7,4,5,7,1,2026-04-30T12:00:45.987426+05:30
Ratlam,Madhya Pradesh,23.3315,75.0367,35.8,30,0.0,954.3,8.5,46.4,50,54.2,18.3,0,5,10,0,2026-04-30T12:00:45.987432+05:30
Sagar,Madhya Pradesh,23.8388,78.7378,37.5,19,0.0,949.0,8.45,53.6,50,61.2,17.6,0,5,10,0,2026-04-30T12:00:45.987438+05:30
Satna,Madhya Pradesh,24.6005,80.8322,33.2,32,0.0,969.7,7.2,55.4,71,79.6,22.6,0,5,7,0,2026-04-30T12:00:45.987444+05:30
Akola,Maharashtra,20.7002,77.0082,39.2,16,0.0,974.5,8.85,45.7,49,39.8,14.4,0,5,10,0,2026-04-30T12:00:45.987451+05:30
Amravati,Maharashtra,20.9374,77.7796,38.7,20,0.0,966.8,8.85,48.2,49,35.7,13.4,0,5,10,0,2026-04-30T12:00:45.987457+05:30
Latur,Maharashtra,18.4088,76.5604,38.3,14,0.0,941.1,9.05,41.4,77,26.3,10.9,0,5,10,0,2026-04-30T12:00:45.987463+05:30
Nanded,Maharashtra,19.1383,77.3091,39.2,16,0.0,968.8,9.0,43.2,63,32.9,13.1,0,5,10,0,2026-04-30T12:00:45.987470+05:30
Gulbarga,Karnataka,17.3297,76.8343,40.0,15,0.0,958.9,9.1,40.3,74,24.0,14.6,0,5,10,0,2026-04-30T12:00:45.987475+05:30
Bidar,Karnataka,17.9104,77.5199,38.4,17,0.0,936.6,9.1,37.4,84,26.8,17.1,0,5,10,0,2026-04-30T12:00:45.987482+05:30
Hospet,Karnataka,15.2689,76.3909,35.5,41,0.0,957.2,9.25,60.5,74,25.4,19.1,0,5,10,1,2026-04-30T12:00:45.987488+05:30
Tirupur,Tamil Nadu,11.1085,77.3411,37.4,33,0.0,975.4,9.35,58.7,80,30.5,23.2,0,5,10,1,2026-04-30T12:00:45.987493+05:30
Alappuzha,Kerala,9.4981,76.3388,31.0,72,0.0,1009.6,9.0,30.6,60,13.9,12.3,3,0,4,1,2026-04-30T12:00:45.987500+05:30
Munnar,Kerala,10.0889,77.0595,23.4,70,0.0,859.8,8.75,25.9,85,23.1,19.7,3,5,7,1,2026-04-30T12:00:45.987506+05:30
Silchar,Assam,24.8333,92.7789,26.5,72,0.0,1006.8,6.05,33.1,121,33.2,21.0,7,5,4,1,2026-04-30T12:00:45.987513+05:30
Dibrugarh,Assam,27.4728,94.912,27.6,68,0.0,996.2,7.9,31.7,87,35.2,18.0,7,5,7,1,2026-04-30T12:00:45.987519+05:30
