city,state,latitude,longitude,temp,humidity,rain,pressure,uv_index,wind_gusts,aqi,pm10,pm2_5,no2,co,o3,so2,mosquito_risk,arthritis_risk,migraine_risk,frizz_risk,updated_at
Delhi,Delhi,28.6139,77.209,35.9,24,0.0,975.3,7.75,37.8,390,830.7,168.6,52.0,660.0,53.0,22.5,0,5,10,0,2026-06-08T23:26:57.728029+05:30
Mumbai,Maharashtra,19.076,72.8777,29.8,73,0.1,1007.4,7.5,45.4,79,41.2,16.4,8.5,211.0,47.0,7.0,10,5,4,1,2026-06-08T23:26:57.728085+05:30
Bangalore,Karnataka,12.9716,77.5946,22.3,88,0.0,912.6,7.15,52.6,33,5.9,5.1,12.2,319.0,41.0,4.1,3,5,7,1,2026-06-08T23:26:57.728102+05:30
Hyderabad,Telangana,17.385,78.4867,25.5,80,0.0,951.8,6.1,40.0,72,35.9,23.9,14.2,288.0,64.0,5.4,7,5,7,1,2026-06-08T23:26:57.728112+05:30
Chennai,Tamil Nadu,13.0827,80.2707,31.6,67,0.0,1005.7,8.9,44.6,57,23.1,18.9,19.7,366.0,79.0,10.9,3,5,4,1,2026-06-08T23:26:57.728121+05:30
Kolkata,West Bengal,22.5726,88.3639,28.6,91,0.0,999.7,8.95,30.6,133,44.6,39.5,12.6,495.0,89.0,10.3,7,5,7,1,2026-06-08T23:26:57.728131+05:30
Pune,Maharashtra,18.5204,73.8567,25.1,83,0.0,947.6,6.3,49.7,57,12.5,7.2,9.6,152.0,50.0,7.2,7,5,7,1,2026-06-08T23:26:57.728139+05:30
Ahmedabad,Gujarat,23.0225,72.5714,32.3,71,0.0,998.1,7.8,43.2,79,46.2,23.7,7.3,182.0,73.0,5.9,3,5,7,1,2026-06-08T23:26:57.728147+05:30
Jaipur,Rajasthan,26.9124,75.7873,32.9,32,0.0,953.9,8.2,43.2,137,167.6,50.5,16.1,259.0,60.0,7.5,0,5,7,0,2026-06-08T23:26:57.728159+05:30
Lucknow,Uttar Pradesh,26.8467,80.9462,32.2,43,0.0,986.2,8.3,34.6,156,332.5,94.3,29.2,335.0,55.0,12.9,0,5,7,1,2026-06-08T23:26:57.728167+05:30
Kanpur,Uttar Pradesh,26.4499,80.3319,34.5,33,0.0,984.4,8.3,40.7,191,328.8,85.0,22.0,211.0,58.0,9.1,0,5,7,0,2026-06-08T23:26:57.728174+05:30
Chandigarh,Chandigarh,30.7333,76.7794,28.5,41,0.0,960.6,7.8,29.9,132,34.8,30.7,32.7,781.0,82.0,11.0,4,5,7,0,2026-06-08T23:26:57.728181+05:30
Srinagar,Jammu and Kashmir,34.0837,74.7973,16.3,85,0.0,836.4,9.0,16.9,79,38.8,35.3,33.2,902.0,37.0,2.8,3,10,7,0,2026-06-08T23:26:57.728190+05:30
Jammu,Jammu and Kashmir,32.7266,74.857,30.0,38,0.0,964.1,8.6,34.6,107,34.6,32.2,29.3,534.0,68.0,4.8,4,5,7,0,2026-06-08T23:26:57.728198+05:30
Amritsar,Punjab,31.634,74.8723,33.4,31,0.0,972.3,8.45,29.9,119,51.5,44.2,43.5,538.0,62.0,13.2,0,5,7,0,2026-06-08T23:26:57.728205+05:30
Ludhiana,Punjab,30.901,75.8573,33.0,32,0.0,970.3,8.05,36.7,108,114.8,48.8,24.7,597.0,80.0,8.3,0,5,7,0,2026-06-08T23:26:57.728213+05:30
Jalandhar,Punjab,31.326,75.5762,32.3,36,0.0,971.3,8.25,33.5,102,88.7,46.2,32.3,655.0,76.0,8.8,0,5,7,0,2026-06-08T23:26:57.728220+05:30
Dehradun,Uttarakhand,30.6284,78.0322,15.9,72,0.0,824.3,8.25,38.9,114,23.4,19.4,31.1,273.0,82.0,3.7,3,5,7,0,2026-06-08T23:26:57.728227+05:30
Shimla,Himachal Pradesh,31.1048,77.1734,17.2,44,0.0,781.1,8.35,42.5,131,23.1,17.5,17.6,285.0,113.0,3.5,0,5,7,0,2026-06-08T23:26:57.728237+05:30
Manali,Himachal Pradesh,32.2396,77.1887,13.4,71,0.0,813.0,9.9,36.7,96,16.1,14.1,60.4,342.0,74.0,0.5,3,5,7,0,2026-06-08T23:26:57.728244+05:30
Gurgaon,Haryana,28.4595,77.0266,32.3,35,0.0,973.7,7.85,37.4,932,791.6,164.4,70.4,722.0,35.0,27.4,0,5,7,0,2026-06-08T23:26:57.728251+05:30
Noida,Uttar Pradesh,28.5355,77.391,29.5,59,0.0,976.3,7.8,32.8,932,791.6,164.4,70.4,1117.0,35.0,27.4,4,5,7,1,2026-06-08T23:26:57.728258+05:30
Ghaziabad,Uttar Pradesh,28.6692,77.4538,28.5,67,0.0,974.5,7.75,32.8,212,631.4,144.8,47.9,573.0,60.0,24.2,7,5,7,1,2026-06-08T23:26:57.728282+05:30
Faridabad,Haryana,28.4089,77.3178,33.1,33,0.0,975.9,7.8,38.2,932,791.6,164.4,70.4,963.0,35.0,27.4,0,5,7,0,2026-06-08T23:26:57.728290+05:30
Meerut,Uttar Pradesh,28.9845,77.7064,29.8,67,0.0,973.5,7.7,32.4,212,631.4,144.8,47.9,606.0,60.0,24.2,7,5,7,1,2026-06-08T23:26:57.728298+05:30
Agra,Uttar Pradesh,27.1767,78.0081,33.1,33,0.0,980.6,8.1,39.2,741,705.9,154.6,73.0,838.0,11.0,21.6,0,5,7,0,2026-06-08T23:26:57.728306+05:30
Varanasi,Uttar Pradesh,25.3176,82.9739,33.6,44,0.0,990.8,8.8,40.7,133,95.0,55.9,30.3,445.0,53.0,14.6,0,5,7,1,2026-06-08T23:26:57.728313+05:30
Prayagraj,Uttar Pradesh,25.4358,81.8463,33.5,45,0.0,989.3,8.7,41.8,140,122.9,55.8,23.2,227.0,53.0,10.6,0,5,7,1,2026-06-08T23:26:57.728320+05:30
Gorakhpur,Uttar Pradesh,26.7606,83.3732,30.5,58,0.0,990.0,8.65,34.9,133,105.0,60.1,27.3,565.0,64.0,13.1,0,5,7,1,2026-06-08T23:26:57.728329+05:30
Bareilly,Uttar Pradesh,28.367,79.4304,29.6,54,0.0,978.7,8.1,28.4,152,65.4,57.5,38.3,477.0,82.0,17.5,4,5,7,1,2026-06-08T23:26:57.728338+05:30
Aligarh,Uttar Pradesh,27.8974,78.088,30.2,52,0.0,978.0,7.95,36.0,569,767.4,178.8,69.3,684.0,28.0,19.6,0,5,7,1,2026-06-08T23:26:57.728344+05:30
Moradabad,Uttar Pradesh,28.8386,78.7733,30.8,48,0.0,975.7,7.9,40.3,161,133.6,104.3,75.8,709.0,32.0,22.7,0,5,7,1,2026-06-08T23:26:57.728351+05:30
Saharanpur,Uttar Pradesh,29.9637,77.546,29.3,42,0.0,967.6,7.45,28.1,130,86.1,46.2,28.0,435.0,94.0,13.4,4,5,7,0,2026-06-08T23:26:57.728358+05:30
Jhansi,Uttar Pradesh,25.4484,78.5685,30.5,59,0.0,971.8,8.5,42.1,81,64.7,31.8,7.0,203.0,69.0,4.3,0,5,7,1,2026-06-08T23:27:01.041422+05:30
Surat,Gujarat,21.1702,72.8311,30.3,79,0.0,1004.0,7.55,52.6,79,55.6,26.5,15.3,196.0,44.0,26.0,3,5,4,1,2026-06-08T23:27:01.041459+05:30
Vadodara,Gujarat,22.3072,73.1812,31.0,74,0.0,1000.5,7.95,48.6,78,40.5,22.2,16.2,204.0,42.0,20.1,3,5,4,1,2026-06-08T23:27:01.041469+05:30
Rajkot,Gujarat,22.3039,70.8022,30.1,66,0.0,991.3,7.6,49.0,72,56.8,25.7,4.3,116.0,60.0,5.0,3,5,7,1,2026-06-08T23:27:01.041477+05:30
Thane,Maharashtra,19.2183,72.9781,28.3,84,0.1,1006.9,7.6,45.0,79,41.2,16.4,8.5,204.0,47.0,7.0,10,5,4,1,2026-06-08T23:27:01.041485+05:30
Nagpur,Maharashtra,21.1458,79.0882,31.9,50,0.0,969.7,8.9,37.8,88,63.8,41.3,25.4,264.0,56.0,17.2,0,5,7,1,2026-06-08T23:27:01.041493+05:30
Nashik,Maharashtra,19.9975,73.7898,25.6,81,0.0,944.2,8.05,48.6,65,33.3,15.1,7.7,124.0,48.0,5.1,7,5,7,1,2026-06-08T23:27:01.041500+05:30
Aurangabad,Maharashtra,19.8762,75.3433,28.6,58,0.0,942.5,9.0,51.1,70,48.7,24.0,5.8,133.0,78.0,7.2,4,5,7,1,2026-06-08T23:27:01.041508+05:30
Solapur,Maharashtra,17.6599,75.9064,27.5,68,0.0,956.5,8.1,36.7,54,15.1,10.4,7.4,150.0,60.0,3.0,7,5,7,1,2026-06-08T23:27:01.041515+05:30
Kolhapur,Maharashtra,16.705,74.2433,23.7,88,0.0,948.1,8.6,39.2,30,8.9,7.1,7.6,137.0,47.0,2.7,3,5,7,1,2026-06-08T23:27:01.041522+05:30
Goa,Goa,15.2993,74.124,25.0,97,0.3,999.1,3.85,20.9,34,11.8,9.3,6.8,227.0,46.0,1.0,10,5,3,1,2026-06-08T23:27:01.041530+05:30
Jodhpur,Rajasthan,26.2389,73.0243,34.4,47,0.0,977.2,8.4,39.2,150,222.1,54.9,6.0,186.0,67.0,2.6,0,5,7,1,2026-06-08T23:27:01.041537+05:30
Udaipur,Rajasthan,24.5854,73.7125,31.1,53,0.0,942.8,8.8,37.4,76,52.4,25.4,5.2,162.0,75.0,3.4,0,5,7,1,2026-06-08T23:27:01.041543+05:30
Kota,Rajasthan,25.2138,75.8648,32.3,49,0.0,973.1,8.4,33.8,90,62.4,39.1,13.1,191.0,60.0,5.7,0,5,7,1,2026-06-08T23:27:01.041550+05:30
Bikaner,Rajasthan,28.0229,73.3119,35.8,23,0.0,974.1,8.45,33.1,151,141.1,48.8,3.6,158.0,79.0,3.2,0,5,10,0,2026-06-08T23:27:01.041558+05:30
Ajmer,Rajasthan,26.4499,74.6399,30.9,51,0.0,949.4,8.35,45.7,89,57.0,27.3,7.6,173.0,74.0,4.7,0,5,7,1,2026-06-08T23:27:01.041566+05:30
Gwalior,Madhya Pradesh,26.2183,78.1828,33.7,31,0.0,976.3,8.25,43.9,94,69.8,34.6,15.2,154.0,53.0,5.1,0,5,7,0,2026-06-08T23:27:01.041574+05:30
Indore,Madhya Pradesh,22.7196,75.8577,30.4,54,0.0,945.2,8.6,44.3,88,46.3,29.5,7.4,277.0,91.0,7.8,0,5,7,1,2026-06-08T23:27:01.041581+05:30
Bhopal,Madhya Pradesh,23.2599,77.4126,30.4,56,0.0,949.7,8.7,40.3,89,67.3,38.2,15.7,599.0,55.0,7.0,0,5,7,1,2026-06-08T23:27:01.041588+05:30
Jabalpur,Madhya Pradesh,23.1815,79.9864,31.4,53,0.0,957.3,8.9,40.7,87,53.0,29.3,10.2,256.0,71.0,4.4,0,5,7,1,2026-06-08T23:27:01.041595+05:30
Ujjain,Madhya Pradesh,23.1765,75.7885,30.4,57,0.0,950.4,8.6,44.6,85,46.7,29.3,4.1,270.0,92.0,6.0,0,5,7,1,2026-06-08T23:27:01.041602+05:30
Visakhapatnam,Andhra Pradesh,17.6868,83.2185,31.0,69,0.0,999.3,7.6,41.8,87,39.6,33.2,25.7,328.0,71.0,39.4,3,5,7,1,2026-06-08T23:27:01.041609+05:30
Vijayawada,Andhra Pradesh,16.5062,80.648,31.9,59,0.0,999.8,8.55,51.1,73,32.8,28.9,15.0,238.0,65.0,5.6,0,5,7,1,2026-06-08T23:27:01.041616+05:30
Guntur,Andhra Pradesh,16.3067,80.4365,31.6,60,0.0,1001.3,8.35,44.6,68,30.9,25.2,11.1,232.0,72.0,5.2,0,5,4,1,2026-06-08T23:27:01.041623+05:30
Nellore,Andhra Pradesh,14.4426,79.9865,31.0,57,0.0,1004.7,7.2,46.1,49,15.1,12.7,7.4,170.0,78.0,3.8,0,5,4,1,2026-06-08T23:27:01.041631+05:30
Kurnool,Andhra Pradesh,15.8281,78.0373,25.8,82,0.0,976.7,8.55,48.6,52,16.8,13.0,9.4,180.0,69.0,4.5,7,5,7,1,2026-06-08T23:27:01.041639+05:30
Kakinada,Andhra Pradesh,16.9891,82.2475,30.0,75,0.0,1003.8,8.65,42.1,81,29.5,23.1,6.8,303.0,98.0,4.3,7,5,4,1,2026-06-08T23:27:01.041646+05:30
Tirupati,Andhra Pradesh,13.6288,79.4192,30.1,61,0.0,990.6,8.65,41.8,31,20.4,19.3,26.7,213.0,24.0,3.3,3,5,7,1,2026-06-08T23:27:01.041653+05:30
Warangal,Telangana,17.9689,79.5941,29.5,64,0.0,976.0,8.75,36.0,78,40.2,30.4,10.8,274.0,80.0,6.0,7,5,7,1,2026-06-08T23:27:01.041661+05:30
Nizamabad,Telangana,18.6725,78.0941,29.1,67,0.0,962.7,5.9,48.6,81,40.9,27.2,11.2,237.0,68.0,5.0,7,5,3,1,2026-06-08T23:27:01.041668+05:30
Mysore,Karnataka,12.2958,76.6396,22.6,88,0.0,929.7,6.3,59.0,27,3.9,3.6,7.8,150.0,40.0,2.0,3,5,7,1,2026-06-08T23:27:01.041693+05:30
Mangalore,Karnataka,12.9141,74.856,25.2,95,0.3,1009.1,5.45,45.0,33,12.7,8.9,7.0,169.0,43.0,2.4,10,0,0,1,2026-06-08T23:27:01.041701+05:30
Hubli-Dharwad,Karnataka,15.3647,75.124,22.4,98,0.3,941.2,2.4,43.6,24,2.6,2.1,5.2,140.0,44.0,0.9,6,5,3,1,2026-06-08T23:27:01.041708+05:30
Belgaum,Karnataka,15.8497,74.4977,21.3,96,0.0,925.9,7.5,33.8,29,5.2,4.0,4.9,150.0,53.0,1.9,3,5,7,1,2026-06-08T23:27:04.361399+05:30
Coimbatore,Tamil Nadu,11.0168,76.9558,24.6,82,0.0,963.0,6.5,56.2,23,3.5,3.2,6.1,146.0,39.0,2.3,3,5,7,1,2026-06-08T23:27:04.361437+05:30
Madurai,Tamil Nadu,9.9252,78.1198,29.6,61,0.0,994.4,5.25,58.0,28,9.8,9.0,14.1,130.0,31.0,4.4,7,5,3,1,2026-06-08T23:27:04.361449+05:30
Trichy,Tamil Nadu,10.7905,78.7047,30.4,57,0.0,1000.7,8.5,64.1,27,5.9,5.4,9.4,122.0,36.0,3.7,0,5,4,1,2026-06-08T23:27:04.361457+05:30
Salem,Tamil Nadu,11.6643,78.146,27.0,72,0.0,978.7,7.95,43.2,32,8.7,8.0,15.4,200.0,31.0,8.1,7,5,7,1,2026-06-08T23:27:04.361465+05:30
Tirunelveli,Tamil Nadu,8.7139,77.7567,28.4,71,0.0,1005.8,3.9,51.8,20,5.2,4.2,7.0,170.0,30.0,1.6,7,5,0,1,2026-06-08T23:27:04.361472+05:30
Vellore,Tamil Nadu,12.9165,79.1325,31.2,50,0.0,984.6,9.0,49.7,43,9.5,8.0,9.2,411.0,64.0,3.9,0,5,7,1,2026-06-08T23:27:04.361479+05:30
Erode,Tamil Nadu,11.341,77.7172,26.4,75,0.0,990.3,8.65,54.0,26,7.1,6.5,12.2,184.0,31.0,3.9,7,5,7,1,2026-06-08T23:27:04.361486+05:30
Kochi,Kerala,9.9312,76.2673,26.3,93,0.0,1012.2,6.65,37.1,32,16.2,12.7,16.0,109.0,20.0,4.1,7,0,4,1,2026-06-08T23:27:04.361493+05:30
Thiruvananthapuram,Kerala,8.5241,76.9366,25.4,95,0.1,1011.6,7.5,49.3,30,12.8,6.7,1.4,90.0,41.0,0.4,10,0,4,1,2026-06-08T23:27:04.361500+05:30
Kozhikode,Kerala,11.2588,75.7804,24.2,99,0.4,1011.2,5.75,40.7,25,9.1,4.8,1.0,191.0,54.0,0.4,6,0,0,1,2026-06-08T23:27:04.361507+05:30
Thrissur,Kerala,10.5276,76.2144,24.3,99,0.1,1010.1,3.9,38.9,30,14.2,12.0,9.8,197.0,31.0,2.7,6,0,0,1,2026-06-08T23:27:04.361515+05:30
Kannur,Kerala,11.8745,75.3704,25.0,96,0.2,1010.1,6.7,45.7,25,12.6,8.8,11.4,254.0,38.0,2.4,10,0,4,1,2026-06-08T23:27:04.361521+05:30
Patna,Bihar,25.5941,85.1376,29.9,84,0.0,993.5,8.9,38.2,160,112.5,65.9,40.8,597.0,54.0,18.6,7,5,7,1,2026-06-08T23:27:04.361528+05:30
Gaya,Bihar,24.7914,85.0002,31.4,53,0.0,987.4,8.35,44.6,151,131.3,72.6,37.4,628.0,49.0,14.6,0,5,7,1,2026-06-08T23:27:04.361534+05:30
Muzaffarpur,Bihar,26.1209,85.3647,29.4,83,0.0,993.6,8.85,24.1,167,131.3,92.0,48.7,767.0,52.0,21.6,7,5,7,1,2026-06-08T23:27:04.361540+05:30
Bhagalpur,Bihar,25.2425,87.0117,29.0,86,0.0,994.4,8.85,25.6,152,111.5,78.2,28.4,564.0,85.0,17.1,7,5,7,1,2026-06-08T23:27:04.361547+05:30
Ranchi,Jharkhand,23.3441,85.3096,27.3,61,0.0,933.4,9.25,35.6,125,95.9,60.5,30.9,395.0,69.0,12.1,7,5,7,1,2026-06-08T23:27:04.361554+05:30
Jamshedpur,Jharkhand,22.8046,86.2029,29.2,65,0.0,985.2,8.5,34.2,148,84.5,54.4,18.1,707.0,104.0,27.9,7,5,7,1,2026-06-08T23:27:04.361560+05:30
Dhanbad,Jharkhand,23.7957,86.4304,31.3,52,0.0,973.8,9.05,34.9,163,157.9,109.2,76.6,963.0,43.0,155.3,0,5,7,1,2026-06-08T23:27:04.361567+05:30
Bokaro,Jharkhand,23.6693,86.1511,31.0,53,0.0,977.6,8.9,36.0,161,165.8,111.3,71.6,1617.0,25.0,125.1,0,5,7,1,2026-06-08T23:27:04.361574+05:30
Bhubaneswar,Odisha,20.2961,85.8245,29.1,79,0.0,997.2,8.45,32.0,87,34.2,30.9,11.9,364.0,91.0,8.6,7,5,7,1,2026-06-08T23:27:04.361581+05:30
Cuttack,Odisha,20.4625,85.8828,29.2,78,0.0,998.9,8.3,31.3,87,34.2,30.9,11.9,380.0,91.0,8.6,7,5,7,1,2026-06-08T23:27:04.361588+05:30
Rourkela,Odisha,22.2604,84.8536,30.0,66,0.0,980.0,8.55,31.7,142,76.4,53.0,16.1,595.0,118.0,17.2,7,5,7,1,2026-06-08T23:27:04.361595+05:30
Raipur,Chhattisgarh,21.2514,81.6296,31.3,55,0.0,971.3,8.9,45.7,118,80.8,60.1,47.1,361.0,46.0,62.7,0,5,7,1,2026-06-08T23:27:04.361601+05:30
Bhilai,Chhattisgarh,21.1938,81.3509,31.5,57,0.0,971.4,7.45,41.8,109,81.3,63.1,51.0,585.0,38.0,54.4,0,5,7,1,2026-06-08T23:27:04.361608+05:30
Guwahati,Assam,26.1158,91.7086,25.9,94,0.0,996.2,8.8,29.5,83,61.9,58.6,16.9,493.0,41.0,2.1,7,5,7,1,2026-06-08T23:27:04.361614+05:30
Agartala,Tripura,23.8315,91.2868,26.5,91,0.0,1001.5,8.65,31.0,65,18.6,17.1,10.0,266.0,72.0,3.6,7,5,4,1,2026-06-08T23:27:04.361621+05:30
Shillong,Meghalaya,25.5788,91.8933,17.6,96,0.0,852.6,8.9,28.4,56,27.9,24.3,6.3,281.0,90.0,3.1,3,10,7,1,2026-06-08T23:27:04.361628+05:30
Imphal,Manipur,24.817,93.9368,23.3,97,0.0,919.2,8.9,30.2,57,26.4,25.6,18.5,454.0,30.0,2.8,3,5,7,1,2026-06-08T23:27:04.361634+05:30
Aizawl,Mizoram,23.7271,92.7176,19.7,98,0.0,888.5,7.3,32.8,34,6.7,5.9,4.6,165.0,55.0,0.9,3,10,7,1,2026-06-08T23:27:04.361641+05:30
Kohima,Nagaland,25.6701,94.1077,19.5,94,0.0,851.7,7.55,27.7,30,11.3,10.7,11.7,351.0,34.0,1.1,3,10,7,1,2026-06-08T23:27:04.361648+05:30
Gangtok,Sikkim,27.3314,88.6138,17.3,97,0.2,834.0,8.7,38.5,96,9.2,8.5,7.8,568.0,125.0,3.7,6,10,7,1,2026-06-08T23:27:04.361654+05:30
Siliguri,West Bengal,26.7271,88.3953,25.0,97,0.1,987.8,8.6,22.7,125,39.7,36.2,14.5,604.0,104.0,5.5,10,5,7,1,2026-06-08T23:27:07.699816+05:30
Durgapur,West Bengal,23.5204,87.3119,29.0,80,0.0,988.6,9.0,30.6,165,99.9,77.1,29.3,815.0,100.0,49.8,7,5,7,1,2026-06-08T23:27:07.699854+05:30
Asansol,West Bengal,23.6739,86.9524,29.9,63,0.0,987.2,9.0,34.2,158,89.9,66.4,31.7,1217.0,86.0,40.8,7,5,7,1,2026-06-08T23:27:07.699865+05:30
Pondicherry,Puducherry,11.9139,79.8145,31.2,57,0.0,1007.9,8.7,49.3,44,9.9,8.4,14.2,602.0,48.0,12.3,0,5,4,1,2026-06-08T23:27:07.699875+05:30
Port Blair,Andaman and Nicobar Islands,11.6234,92.7265,26.6,92,0.0,1007.3,8.75,50.0,25,8.8,5.1,0.3,84.0,45.0,0.3,7,5,4,1,2026-06-08T23:27:07.699883+05:30
Haridwar,Uttarakhand,29.9457,78.1642,27.3,62,0.0,965.8,7.6,30.2,147,42.5,40.7,23.7,510.0,111.0,14.9,7,5,7,1,2026-06-08T23:27:07.699891+05:30
Rishikesh,Uttarakhand,30.0869,78.2676,23.9,67,0.0,958.4,7.7,25.9,152,33.8,30.4,15.3,419.0,126.0,9.6,3,5,7,1,2026-06-08T23:27:07.699898+05:30
Nainital,Uttarakhand,29.3919,79.4542,16.6,66,0.0,801.3,8.55,45.4,128,38.1,33.1,16.5,390.0,108.0,7.8,3,5,7,0,2026-06-08T23:27:07.699906+05:30
Mussoorie,Uttarakhand,30.4599,78.0664,16.8,59,0.0,798.3,8.1,44.6,150,35.7,32.6,29.6,361.0,109.0,12.6,0,5,7,0,2026-06-08T23:27:07.699914+05:30
Dharamshala,Himachal Pradesh,32.219,76.3234,23.3,44,0.0,864.4,8.5,44.3,89,18.0,15.9,16.4,250.0,62.0,1.0,0,5,7,0,2026-06-08T23:27:07.699921+05:30
Dalhousie,Himachal Pradesh,32.5387,75.971,15.3,66,0.0,799.0,8.8,33.5,128,32.9,28.2,33.6,486.0,78.0,3.4,3,5,7,0,2026-06-08T23:27:07.699929+05:30
Patiala,Punjab,30.3398,76.3869,31.3,46,0.0,969.9,7.7,36.7,156,685.5,124.3,20.0,506.0,76.0,7.7,0,5,7,1,2026-06-08T23:27:07.699936+05:30
Bhatinda,Punjab,30.211,74.9455,34.0,33,0.0,975.3,8.3,30.2,98,45.2,32.7,21.1,426.0,81.0,8.5,0,5,7,0,2026-06-08T23:27:07.699944+05:30
Rohtak,Haryana,28.8955,76.6066,31.2,39,0.0,973.7,7.8,31.0,562,877.3,164.8,53.0,469.0,46.0,12.3,0,5,7,0,2026-06-08T23:27:07.699951+05:30
Panipat,Haryana,29.3909,76.9635,29.5,51,0.0,972.1,7.65,31.7,1013,1210.7,204.4,30.3,575.0,70.0,8.9,4,5,7,1,2026-06-08T23:27:07.699958+05:30
Mathura,Uttar Pradesh,27.4924,77.6737,30.0,47,0.0,979.2,8.05,32.0,543,599.8,137.8,64.8,864.0,12.0,9.3,4,5,7,1,2026-06-08T23:27:07.699965+05:30
Vrindavan,Uttar Pradesh,27.5823,77.7027,29.1,51,0.0,979.6,8.0,33.8,543,599.8,137.8,64.8,805.0,12.0,9.3,4,5,7,1,2026-06-08T23:27:07.699971+05:30
Ayodhya,Uttar Pradesh,26.7922,82.1998,30.0,58,0.0,988.0,8.45,33.1,152,119.0,63.8,25.2,522.0,58.0,10.8,4,5,7,1,2026-06-08T23:27:07.699978+05:30
Ratlam,Madhya Pradesh,23.3315,75.0367,30.1,59,0.0,951.6,8.5,44.3,85,44.9,28.1,3.5,175.0,100.0,7.8,0,5,7,1,2026-06-08T23:27:07.699984+05:30
Sagar,Madhya Pradesh,23.8388,78.7378,28.9,62,0.0,945.8,8.55,42.5,81,49.8,27.8,7.5,194.0,74.0,4.1,7,5,7,1,2026-06-08T23:27:07.699991+05:30
Satna,Madhya Pradesh,24.6005,80.8322,31.7,49,0.0,966.2,8.8,39.6,88,48.2,26.7,12.0,224.0,63.0,3.9,0,5,7,1,2026-06-08T23:27:07.699998+05:30
Akola,Maharashtra,20.7002,77.0082,33.8,42,0.0,971.4,8.85,42.8,85,44.0,25.6,9.0,188.0,83.0,7.0,0,5,7,1,2026-06-08T23:27:07.700006+05:30
Amravati,Maharashtra,20.9374,77.7796,30.4,57,0.0,964.2,8.8,37.4,87,44.0,25.7,10.6,273.0,75.0,6.5,0,5,7,1,2026-06-08T23:27:07.700014+05:30
Latur,Maharashtra,18.4088,76.5604,27.5,69,0.0,938.7,8.7,45.4,70,20.3,13.3,5.4,183.0,73.0,2.5,7,5,7,1,2026-06-08T23:27:07.700022+05:30
Nanded,Maharashtra,19.1383,77.3091,30.6,57,0.0,966.3,8.95,52.2,81,39.2,24.8,10.4,200.0,71.0,6.1,0,5,7,1,2026-06-08T23:27:07.700029+05:30
Gulbarga,Karnataka,17.3297,76.8343,25.6,84,0.0,958.0,6.8,33.1,58,25.3,17.2,13.4,201.0,62.0,3.8,7,5,7,1,2026-06-08T23:27:07.700037+05:30
Bidar,Karnataka,17.9104,77.5199,25.0,85,0.0,934.3,7.1,40.3,71,31.2,20.2,13.9,196.0,65.0,4.0,7,5,7,1,2026-06-08T23:27:07.700044+05:30
Hospet,Karnataka,15.2689,76.3909,23.6,91,0.0,956.2,6.5,46.4,35,7.3,5.3,7.4,165.0,42.0,1.7,3,5,7,1,2026-06-08T23:27:07.700050+05:30
Tirupur,Tamil Nadu,11.1085,77.3411,25.3,81,0.0,976.3,8.35,64.1,25,7.0,6.4,11.6,140.0,33.0,4.3,7,5,7,1,2026-06-08T23:27:07.700057+05:30
Alappuzha,Kerala,9.4981,76.3388,26.1,92,0.1,1012.3,6.1,44.3,29,19.0,11.9,5.2,83.0,42.0,1.2,10,0,4,1,2026-06-08T23:27:07.700064+05:30
Munnar,Kerala,10.0889,77.0595,17.1,100,0.1,858.3,6.4,53.6,22,2.4,2.4,7.3,105.0,28.0,1.9,6,10,7,1,2026-06-08T23:27:07.700071+05:30
Silchar,Assam,24.8333,92.7789,24.9,99,0.0,1001.0,8.8,25.2,63,23.9,21.1,8.9,316.0,71.0,4.3,3,5,4,1,2026-06-08T23:27:07.700078+05:30
Dibrugarh,Assam,27.4728,94.912,25.6,94,0.0,990.1,8.15,24.1,68,16.6,15.6,10.0,291.0,75.0,1.7,7,5,7,1,2026-06-08T23:27:07.700085+05:30
