city,state,latitude,longitude,temp,humidity,rain,pressure,uv_index,wind_gusts,aqi,pm10,pm2_5,mosquito_risk,arthritis_risk,migraine_risk,frizz_risk,updated_at
Delhi,Delhi,28.6139,77.209,19.7,91,0.0,984.8,6.85,18.0,129,238.4,64.0,3,10,7,1,2026-04-01T02:17:38.025983+05:30
Mumbai,Maharashtra,19.076,72.8777,27.2,82,0.0,1008.9,7.85,25.2,57,25.9,13.4,7,0,4,1,2026-04-01T02:17:38.026022+05:30
Bangalore,Karnataka,12.9716,77.5946,23.2,77,0.0,911.7,9.55,27.7,88,26.3,24.1,3,5,7,1,2026-04-01T02:17:38.026038+05:30
Hyderabad,Telangana,17.385,78.4867,24.0,82,0.0,953.4,9.1,19.4,116,34.2,30.4,3,5,7,1,2026-04-01T02:17:38.026048+05:30
Chennai,Tamil Nadu,13.0827,80.2707,26.6,77,0.0,1008.0,9.25,29.5,48,17.1,13.1,7,0,4,1,2026-04-01T02:17:38.026057+05:30
Kolkata,West Bengal,22.5726,88.3639,25.0,97,0.0,1007.3,8.55,18.7,82,28.4,23.9,7,5,4,1,2026-04-01T02:17:38.026085+05:30
Pune,Maharashtra,18.5204,73.8567,24.3,95,0.0,948.4,8.4,29.5,111,62.9,56.6,3,5,7,1,2026-04-01T02:17:38.026099+05:30
Ahmedabad,Gujarat,23.0225,72.5714,26.7,62,0.0,1002.8,7.8,24.8,70,36.7,23.3,7,5,4,1,2026-04-01T02:17:38.026107+05:30
Jaipur,Rajasthan,26.9124,75.7873,21.3,80,0.0,961.1,6.55,34.2,70,293.4,43.0,3,5,7,1,2026-04-01T02:17:38.026114+05:30
Lucknow,Uttar Pradesh,26.8467,80.9462,25.2,63,0.0,995.6,7.05,42.5,145,146.2,41.3,7,5,7,1,2026-04-01T02:17:38.026122+05:30
Kanpur,Uttar Pradesh,26.4499,80.3319,22.9,82,0.3,993.7,7.4,47.9,259,253.3,49.4,6,5,7,1,2026-04-01T02:17:38.026130+05:30
Chandigarh,Chandigarh,30.7333,76.7794,19.4,77,0.0,970.1,6.45,16.6,87,65.7,38.4,3,5,7,0,2026-04-01T02:17:38.026142+05:30
Srinagar,Jammu and Kashmir,34.0837,74.7973,8.2,83,0.0,840.4,7.3,20.5,72,66.6,53.3,3,10,7,0,2026-04-01T02:17:38.026151+05:30
Jammu,Jammu and Kashmir,32.7266,74.857,19.6,68,0.0,973.9,6.5,18.7,73,39.9,28.4,3,5,7,0,2026-04-01T02:17:38.026157+05:30
Amritsar,Punjab,31.634,74.8723,19.5,77,0.0,982.7,5.9,14.4,110,111.1,50.9,3,5,3,0,2026-04-01T02:17:38.026164+05:30
Ludhiana,Punjab,30.901,75.8573,20.7,77,0.0,980.6,6.6,15.5,154,125.3,57.3,3,5,7,1,2026-04-01T02:17:38.026170+05:30
Jalandhar,Punjab,31.326,75.5762,20.2,75,0.0,981.8,6.5,15.8,146,106.2,53.0,3,5,7,0,2026-04-01T02:17:38.026179+05:30
Dehradun,Uttarakhand,30.6284,78.0322,13.0,64,0.0,829.8,6.55,33.8,40,18.6,11.7,3,5,7,0,2026-04-01T02:17:38.026186+05:30
Shimla,Himachal Pradesh,31.1048,77.1734,10.9,70,0.0,783.2,5.95,31.7,54,26.0,18.8,3,5,3,0,2026-04-01T02:17:38.026193+05:30
Manali,Himachal Pradesh,32.2396,77.1887,13.8,55,0.0,819.5,7.7,30.2,40,16.7,13.8,0,5,7,0,2026-04-01T02:17:38.026202+05:30
Gurgaon,Haryana,28.4595,77.0266,18.3,95,0.0,983.0,6.85,14.4,192,257.0,69.4,3,10,7,1,2026-04-01T02:17:38.026208+05:30
Noida,Uttar Pradesh,28.5355,77.391,20.0,87,0.0,986.3,6.85,16.2,192,257.0,69.4,3,5,7,1,2026-04-01T02:17:38.026214+05:30
Ghaziabad,Uttar Pradesh,28.6692,77.4538,19.2,92,0.0,984.4,6.85,18.0,126,209.5,57.3,3,10,7,1,2026-04-01T02:17:38.026220+05:30
Faridabad,Haryana,28.4089,77.3178,19.1,86,0.0,985.4,6.8,18.7,192,257.0,69.4,3,10,7,1,2026-04-01T02:17:38.026226+05:30
Meerut,Uttar Pradesh,28.9845,77.7064,18.6,92,0.0,983.1,6.7,19.8,126,209.5,57.3,3,10,7,1,2026-04-01T02:17:38.026232+05:30
Agra,Uttar Pradesh,27.1767,78.0081,20.1,91,0.0,989.6,6.85,28.1,272,624.0,86.8,3,5,7,1,2026-04-01T02:17:38.026239+05:30
Varanasi,Uttar Pradesh,25.3176,82.9739,24.1,70,0.0,1000.0,7.45,31.7,151,116.9,65.4,3,5,4,1,2026-04-01T02:17:38.026247+05:30
Prayagraj,Uttar Pradesh,25.4358,81.8463,23.9,70,0.0,999.1,7.6,43.9,151,75.9,29.1,3,5,7,1,2026-04-01T02:17:38.026254+05:30
Gorakhpur,Uttar Pradesh,26.7606,83.3732,23.2,82,0.0,998.4,7.75,25.9,153,77.8,64.0,3,5,7,1,2026-04-01T02:17:38.026260+05:30
Bareilly,Uttar Pradesh,28.367,79.4304,20.9,78,0.0,988.3,6.65,22.0,87,78.0,37.1,3,5,7,1,2026-04-01T02:17:38.026268+05:30
Aligarh,Uttar Pradesh,27.8974,78.088,19.7,90,0.0,987.2,7.0,18.0,195,341.8,79.2,3,10,7,1,2026-04-01T02:17:38.026275+05:30
Moradabad,Uttar Pradesh,28.8386,78.7733,19.8,82,0.0,985.3,6.9,19.8,93,98.5,38.9,3,10,7,1,2026-04-01T02:17:38.026281+05:30
Saharanpur,Uttar Pradesh,29.9637,77.546,19.1,87,0.0,977.2,6.4,16.9,137,157.9,62.6,3,10,7,1,2026-04-01T02:17:38.026287+05:30
Jhansi,Uttar Pradesh,25.4484,78.5685,21.5,84,0.0,980.0,7.65,33.5,46,13.7,9.5,3,5,7,1,2026-04-01T02:17:41.250957+05:30
Surat,Gujarat,21.1702,72.8311,26.3,87,0.0,1007.2,7.65,26.3,81,41.1,26.1,7,5,4,1,2026-04-01T02:17:41.250988+05:30
Vadodara,Gujarat,22.3072,73.1812,26.4,74,0.0,1004.8,7.85,27.4,70,18.3,14.6,7,5,4,1,2026-04-01T02:17:41.251000+05:30
Rajkot,Gujarat,22.3039,70.8022,23.9,74,0.0,995.6,7.5,37.4,67,19.2,11.4,3,5,7,1,2026-04-01T02:17:41.251009+05:30
Thane,Maharashtra,19.2183,72.9781,25.8,87,0.0,1008.4,7.85,37.1,57,25.9,13.4,7,0,4,1,2026-04-01T02:17:41.251017+05:30
Nagpur,Maharashtra,21.1458,79.0882,25.1,70,0.0,974.0,8.6,24.8,73,46.3,41.2,7,5,7,1,2026-04-01T02:17:41.251025+05:30
Nashik,Maharashtra,19.9975,73.7898,23.0,91,0.0,945.7,8.1,32.0,59,17.3,11.5,3,5,7,1,2026-04-01T02:17:41.251033+05:30
Aurangabad,Maharashtra,19.8762,75.3433,24.9,71,0.0,943.9,8.75,28.4,77,49.6,39.1,3,5,7,1,2026-04-01T02:17:41.251040+05:30
Solapur,Maharashtra,17.6599,75.9064,26.3,65,0.0,957.0,8.9,33.1,97,56.0,49.0,7,5,7,1,2026-04-01T02:17:41.251048+05:30
Kolhapur,Maharashtra,16.705,74.2433,23.3,97,0.0,947.7,8.85,31.0,128,88.7,83.1,3,5,7,1,2026-04-01T02:17:41.251056+05:30
Goa,Goa,15.2993,74.124,28.1,83,0.0,997.8,8.85,32.0,81,44.1,33.2,7,5,7,1,2026-04-01T02:17:41.251096+05:30
Jodhpur,Rajasthan,26.2389,73.0243,23.8,57,0.0,983.6,7.5,27.7,73,190.9,31.7,0,5,7,0,2026-04-01T02:17:41.251106+05:30
Udaipur,Rajasthan,24.5854,73.7125,22.6,67,0.0,946.9,8.2,33.5,42,31.2,13.2,3,5,7,1,2026-04-01T02:17:41.251113+05:30
Kota,Rajasthan,25.2138,75.8648,23.6,77,0.0,980.4,7.15,28.1,52,21.3,16.0,3,5,7,1,2026-04-01T02:17:41.251119+05:30
Bikaner,Rajasthan,28.0229,73.3119,23.2,74,0.0,982.7,7.2,22.7,54,14.2,9.3,3,5,7,1,2026-04-01T02:17:41.251125+05:30
Ajmer,Rajasthan,26.4499,74.6399,22.8,72,0.0,955.9,7.2,27.7,47,29.2,19.0,3,5,7,1,2026-04-01T02:17:41.251131+05:30
Gwalior,Madhya Pradesh,26.2183,78.1828,21.6,85,0.0,985.0,7.35,20.9,42,92.7,26.9,3,5,7,1,2026-04-01T02:17:41.251137+05:30
Indore,Madhya Pradesh,22.7196,75.8577,24.3,66,0.0,947.9,8.3,30.6,65,23.4,20.9,3,5,7,1,2026-04-01T02:17:41.251143+05:30
Bhopal,Madhya Pradesh,23.2599,77.4126,24.3,60,0.0,953.9,8.25,35.3,59,32.1,28.6,0,5,7,1,2026-04-01T02:17:41.251148+05:30
Jabalpur,Madhya Pradesh,23.1815,79.9864,23.1,70,0.0,963.4,8.1,56.5,73,59.6,32.9,3,5,7,1,2026-04-01T02:17:41.251154+05:30
Ujjain,Madhya Pradesh,23.1765,75.7885,24.9,62,0.0,953.6,8.2,25.2,65,19.7,16.2,3,5,7,1,2026-04-01T02:17:41.251160+05:30
Visakhapatnam,Andhra Pradesh,17.6868,83.2185,26.0,90,0.0,1004.8,9.05,32.8,68,21.6,18.2,7,5,4,1,2026-04-01T02:17:41.251167+05:30
Vijayawada,Andhra Pradesh,16.5062,80.648,25.6,90,0.0,1003.6,9.1,30.2,59,16.6,14.4,7,5,4,1,2026-04-01T02:17:41.251173+05:30
Guntur,Andhra Pradesh,16.3067,80.4365,25.6,89,0.0,1004.7,9.1,31.0,58,14.1,12.1,7,5,4,1,2026-04-01T02:17:41.251179+05:30
Nellore,Andhra Pradesh,14.4426,79.9865,25.5,86,0.0,1006.7,9.2,29.5,51,12.6,9.8,7,5,4,1,2026-04-01T02:17:41.251186+05:30
Kurnool,Andhra Pradesh,15.8281,78.0373,27.3,76,0.0,977.0,9.1,18.7,82,21.6,19.4,7,5,7,1,2026-04-01T02:17:41.251192+05:30
Kakinada,Andhra Pradesh,16.9891,82.2475,24.9,91,0.0,1008.5,9.05,32.0,52,17.5,13.4,3,0,4,1,2026-04-01T02:17:41.251199+05:30
Tirupati,Andhra Pradesh,13.6288,79.4192,23.3,88,0.0,992.9,9.3,34.9,67,20.2,17.8,3,5,7,1,2026-04-01T02:17:41.251207+05:30
Warangal,Telangana,17.9689,79.5941,26.7,76,0.0,979.0,8.95,26.6,135,30.9,29.2,7,5,7,1,2026-04-01T02:17:41.251213+05:30
Nizamabad,Telangana,18.6725,78.0941,25.4,76,0.0,965.1,8.85,37.1,120,76.1,67.8,7,5,7,1,2026-04-01T02:17:41.251218+05:30
Mysore,Karnataka,12.2958,76.6396,22.9,83,0.0,928.3,9.5,28.8,107,37.8,33.4,3,5,7,1,2026-04-01T02:17:41.251224+05:30
Mangalore,Karnataka,12.9141,74.856,28.6,80,0.0,1006.4,9.15,21.2,82,31.5,26.1,7,5,4,1,2026-04-01T02:17:41.251230+05:30
Hubli-Dharwad,Karnataka,15.3647,75.124,23.3,82,0.0,940.6,9.15,34.2,99,61.9,56.6,3,5,7,1,2026-04-01T02:17:41.251236+05:30
Belgaum,Karnataka,15.8497,74.4977,22.4,96,0.0,925.4,9.1,27.4,107,69.2,60.8,3,5,7,1,2026-04-01T02:17:44.475250+05:30
Coimbatore,Tamil Nadu,11.0168,76.9558,24.8,81,0.0,961.8,9.45,40.3,85,27.2,23.1,3,5,7,1,2026-04-01T02:17:44.475282+05:30
Madurai,Tamil Nadu,9.9252,78.1198,25.5,83,0.0,993.7,8.4,27.0,64,25.1,23.2,7,5,7,1,2026-04-01T02:17:44.475299+05:30
Trichy,Tamil Nadu,10.7905,78.7047,24.1,91,0.0,1000.5,7.95,27.4,57,19.6,17.1,3,5,4,1,2026-04-01T02:17:44.475309+05:30
Salem,Tamil Nadu,11.6643,78.146,25.4,75,0.0,977.7,9.4,34.2,69,31.0,28.7,7,5,7,1,2026-04-01T02:17:44.475318+05:30
Tirunelveli,Tamil Nadu,8.7139,77.7567,25.0,89,0.0,1003.4,9.35,40.0,77,26.4,24.9,7,5,4,1,2026-04-01T02:17:44.475327+05:30
Vellore,Tamil Nadu,12.9165,79.1325,23.7,83,0.0,985.7,9.4,34.9,80,30.7,28.2,3,5,7,1,2026-04-01T02:17:44.475334+05:30
Erode,Tamil Nadu,11.341,77.7172,26.2,78,0.0,989.5,9.35,22.7,55,15.2,13.4,7,5,7,1,2026-04-01T02:17:44.475342+05:30
Kochi,Kerala,9.9312,76.2673,27.0,83,0.0,1008.6,9.2,34.2,112,45.3,43.5,7,0,4,1,2026-04-01T02:17:44.475350+05:30
Thiruvananthapuram,Kerala,8.5241,76.9366,28.4,80,0.0,1007.4,9.05,27.0,81,24.6,20.5,7,5,4,1,2026-04-01T02:17:44.475358+05:30
Kozhikode,Kerala,11.2588,75.7804,28.4,82,0.0,1007.4,9.15,26.6,103,30.9,23.5,7,5,4,1,2026-04-01T02:17:44.475366+05:30
Thrissur,Kerala,10.5276,76.2144,25.8,91,0.0,1006.9,9.2,34.6,115,39.0,36.6,7,5,4,1,2026-04-01T02:17:44.475375+05:30
Kannur,Kerala,11.8745,75.3704,27.4,82,0.0,1006.6,9.1,24.8,103,43.8,39.6,7,5,4,1,2026-04-01T02:17:44.475383+05:30
Patna,Bihar,25.5941,85.1376,25.2,88,0.0,1001.4,8.1,21.2,159,99.9,84.1,7,5,4,1,2026-04-01T02:17:44.475391+05:30
Gaya,Bihar,24.7914,85.0002,25.1,77,0.0,994.2,7.95,22.7,128,101.0,55.9,7,5,7,1,2026-04-01T02:17:44.475398+05:30
Muzaffarpur,Bihar,26.1209,85.3647,23.4,90,0.0,1001.6,8.15,28.4,163,98.0,84.8,3,5,4,1,2026-04-01T02:17:44.475406+05:30
Bhagalpur,Bihar,25.2425,87.0117,24.7,89,0.0,1002.3,8.2,29.9,161,87.3,78.0,3,5,4,1,2026-04-01T02:17:44.475413+05:30
Ranchi,Jharkhand,23.3441,85.3096,22.1,85,0.0,938.8,8.85,32.8,74,49.9,25.7,3,5,7,1,2026-04-01T02:17:44.475421+05:30
Jamshedpur,Jharkhand,22.8046,86.2029,25.2,90,0.0,992.1,8.65,23.0,130,54.6,45.1,7,5,7,1,2026-04-01T02:17:44.475428+05:30
Dhanbad,Jharkhand,23.7957,86.4304,24.4,83,0.0,981.0,8.6,27.4,161,121.5,112.0,3,5,7,1,2026-04-01T02:17:44.475435+05:30
Bokaro,Jharkhand,23.6693,86.1511,23.9,90,0.0,985.3,8.6,31.7,156,110.6,92.2,3,5,7,1,2026-04-01T02:17:44.475443+05:30
Bhubaneswar,Odisha,20.2961,85.8245,26.0,93,0.0,1003.7,8.85,25.6,88,24.6,21.5,7,5,4,1,2026-04-01T02:17:44.475451+05:30
Cuttack,Odisha,20.4625,85.8828,26.0,93,0.0,1005.8,8.9,18.0,88,24.6,21.5,7,5,4,1,2026-04-01T02:17:44.475458+05:30
Rourkela,Odisha,22.2604,84.8536,25.1,91,0.0,986.1,8.6,15.5,99,61.2,47.7,7,5,7,1,2026-04-01T02:17:44.475466+05:30
Raipur,Chhattisgarh,21.2514,81.6296,25.7,59,0.0,975.1,8.65,25.6,127,149.9,72.2,4,5,7,1,2026-04-01T02:17:44.475474+05:30
Bhilai,Chhattisgarh,21.1938,81.3509,25.3,60,0.0,975.4,8.65,23.0,110,128.5,62.9,4,5,7,1,2026-04-01T02:17:44.475481+05:30
Guwahati,Assam,26.1158,91.7086,22.5,92,0.0,1003.2,8.05,38.2,106,34.3,27.9,3,5,4,1,2026-04-01T02:17:44.475486+05:30
Agartala,Tripura,23.8315,91.2868,22.8,96,0.0,1007.5,8.35,23.4,86,54.2,51.2,3,5,4,1,2026-04-01T02:17:44.475492+05:30
Shillong,Meghalaya,25.5788,91.8933,13.1,92,0.0,855.6,7.4,50.8,74,14.7,12.0,3,10,7,0,2026-04-01T02:17:44.475499+05:30
Imphal,Manipur,24.817,93.9368,17.7,89,0.0,923.7,8.1,64.1,68,40.9,37.8,3,10,7,0,2026-04-01T02:17:44.475506+05:30
Aizawl,Mizoram,23.7271,92.7176,17.6,98,0.0,893.0,8.6,37.4,111,43.8,38.1,3,10,7,1,2026-04-01T02:17:44.475512+05:30
Kohima,Nagaland,25.6701,94.1077,14.4,84,0.0,854.4,8.55,70.2,54,16.4,14.0,3,10,7,0,2026-04-01T02:17:44.475519+05:30
Gangtok,Sikkim,27.3314,88.6138,14.1,93,0.1,837.2,8.45,16.2,91,12.9,11.3,6,10,7,0,2026-04-01T02:17:44.475526+05:30
Siliguri,West Bengal,26.7271,88.3953,19.5,83,0.0,995.6,8.05,22.3,159,74.3,60.8,3,10,7,1,2026-04-01T02:17:47.708447+05:30
Durgapur,West Bengal,23.5204,87.3119,25.4,92,0.0,996.2,8.55,36.7,158,62.9,58.3,7,5,7,1,2026-04-01T02:17:47.708479+05:30
Asansol,West Bengal,23.6739,86.9524,25.6,87,0.0,994.8,8.55,28.4,154,64.5,59.5,7,5,7,1,2026-04-01T02:17:47.708491+05:30
Pondicherry,Puducherry,11.9139,79.8145,24.2,91,0.0,1009.3,8.4,27.7,45,15.8,11.5,3,0,4,1,2026-04-01T02:17:47.708501+05:30
Port Blair,Andaman and Nicobar Islands,11.6234,92.7265,27.7,83,0.0,1006.7,7.4,14.4,36,7.1,5.0,7,5,4,1,2026-04-01T02:17:47.708510+05:30
Haridwar,Uttarakhand,29.9457,78.1642,18.5,80,0.0,975.7,6.5,23.8,85,82.9,42.8,3,5,7,0,2026-04-01T02:17:47.708518+05:30
Rishikesh,Uttarakhand,30.0869,78.2676,19.2,63,0.0,968.4,6.5,31.3,63,78.7,30.0,3,5,7,0,2026-04-01T02:17:47.708527+05:30
Nainital,Uttarakhand,29.3919,79.4542,18.9,34,0.0,807.1,7.15,37.4,67,42.4,23.6,0,5,7,0,2026-04-01T02:17:47.708534+05:30
Mussoorie,Uttarakhand,30.4599,78.0664,15.1,61,0.0,802.7,6.85,36.4,67,59.8,32.0,3,5,7,0,2026-04-01T02:17:47.708542+05:30
Dharamshala,Himachal Pradesh,32.219,76.3234,18.4,52,0.0,869.7,6.0,25.9,37,14.4,8.6,0,5,3,0,2026-04-01T02:17:47.708549+05:30
Dalhousie,Himachal Pradesh,32.5387,75.971,14.6,54,0.0,803.5,6.05,24.5,65,30.7,23.3,0,5,7,0,2026-04-01T02:17:47.708556+05:30
Patiala,Punjab,30.3398,76.3869,19.6,85,0.0,980.0,6.2,12.6,202,199.8,56.6,3,10,7,1,2026-04-01T02:17:47.708563+05:30
Bhatinda,Punjab,30.211,74.9455,19.5,85,0.0,985.5,6.05,14.4,103,114.3,42.7,3,10,7,1,2026-04-01T02:17:47.708569+05:30
Rohtak,Haryana,28.8955,76.6066,17.7,93,0.0,983.3,6.8,14.8,123,234.7,61.2,3,10,7,1,2026-04-01T02:17:47.708576+05:30
Panipat,Haryana,29.3909,76.9635,18.4,96,0.0,982.0,6.6,14.0,150,345.5,74.7,3,10,7,1,2026-04-01T02:17:47.708582+05:30
Mathura,Uttar Pradesh,27.4924,77.6737,19.5,92,0.0,988.5,7.05,28.4,162,786.0,104.8,3,10,7,1,2026-04-01T02:17:47.708588+05:30
Vrindavan,Uttar Pradesh,27.5823,77.7027,19.4,92,0.0,988.9,7.1,31.3,162,786.0,104.8,3,10,7,1,2026-04-01T02:17:47.708594+05:30
Ayodhya,Uttar Pradesh,26.7922,82.1998,23.6,75,0.0,997.1,7.45,31.7,118,141.6,40.7,3,5,7,1,2026-04-01T02:17:47.708600+05:30
Ratlam,Madhya Pradesh,23.3315,75.0367,26.1,60,0.0,954.6,8.15,27.7,56,20.3,15.1,4,5,7,1,2026-04-01T02:17:47.708606+05:30
Sagar,Madhya Pradesh,23.8388,78.7378,22.5,74,0.0,951.1,8.2,25.9,46,18.5,13.2,3,5,7,1,2026-04-01T02:17:47.708612+05:30
Satna,Madhya Pradesh,24.6005,80.8322,26.1,56,0.0,973.9,7.5,31.0,123,82.7,25.6,4,5,7,1,2026-04-01T02:17:47.708619+05:30
Akola,Maharashtra,20.7002,77.0082,25.8,71,0.0,975.1,8.55,13.0,72,44.7,39.0,7,5,7,1,2026-04-01T02:17:47.708626+05:30
Amravati,Maharashtra,20.9374,77.7796,25.7,71,0.0,967.2,8.6,33.5,66,39.0,35.4,7,5,7,1,2026-04-01T02:17:47.708633+05:30
Latur,Maharashtra,18.4088,76.5604,24.1,74,0.0,939.8,8.9,23.8,98,70.3,57.3,3,5,7,1,2026-04-01T02:17:47.708639+05:30
Nanded,Maharashtra,19.1383,77.3091,26.0,74,0.0,968.6,8.75,23.0,90,53.8,45.9,7,5,7,1,2026-04-01T02:17:47.708646+05:30
Gulbarga,Karnataka,17.3297,76.8343,25.4,75,0.0,958.9,8.95,34.9,113,59.8,51.3,7,5,7,1,2026-04-01T02:17:47.708651+05:30
Bidar,Karnataka,17.9104,77.5199,23.7,79,0.0,935.4,8.95,28.4,129,62.4,56.2,3,5,7,1,2026-04-01T02:17:47.708657+05:30
Hospet,Karnataka,15.2689,76.3909,24.8,77,0.0,956.5,9.15,23.8,98,47.3,42.3,3,5,7,1,2026-04-01T02:17:47.708663+05:30
Tirupur,Tamil Nadu,11.1085,77.3411,26.0,75,0.0,975.7,9.5,27.0,71,19.7,16.6,7,5,7,1,2026-04-01T02:17:47.708669+05:30
Alappuzha,Kerala,9.4981,76.3388,27.2,83,0.0,1008.6,9.2,29.9,112,38.9,36.1,7,0,4,1,2026-04-01T02:17:47.708675+05:30
Munnar,Kerala,10.0889,77.0595,20.1,94,0.0,855.9,9.65,19.4,75,35.6,31.2,3,5,7,1,2026-04-01T02:17:47.708682+05:30
Silchar,Assam,24.8333,92.7789,22.5,94,0.0,1006.5,8.35,20.9,83,43.2,36.1,3,5,4,1,2026-04-01T02:17:47.708688+05:30
Dibrugarh,Assam,27.4728,94.912,21.5,90,0.0,997.3,7.8,26.3,79,30.2,27.1,3,5,7,1,2026-04-01T02:17:47.708694+05:30
