city,state,latitude,longitude,temp,humidity,rain,pressure,uv_index,wind_gusts,aqi,pm10,pm2_5,no2,co,o3,so2,mosquito_risk,arthritis_risk,migraine_risk,frizz_risk,updated_at
Delhi,Delhi,28.6139,77.209,30.7,60,0.0,977.8,7.55,30.2,165,271.9,95.2,58.3,597.0,65.0,27.5,0,5,7,1,2026-06-05T21:26:04.413263+05:30
Mumbai,Maharashtra,19.076,72.8777,30.5,74,0.0,1004.9,7.55,40.3,71,40.5,19.9,9.4,183.0,46.0,6.5,3,5,4,1,2026-06-05T21:26:04.413303+05:30
Bangalore,Karnataka,12.9716,77.5946,22.7,82,0.0,910.3,8.9,54.0,30,7.0,6.7,20.3,404.0,35.0,5.5,3,5,7,1,2026-06-05T21:26:04.413318+05:30
Hyderabad,Telangana,17.385,78.4867,31.6,49,0.0,950.3,7.65,37.8,68,46.7,35.4,29.1,590.0,55.0,7.5,0,5,7,1,2026-06-05T21:26:04.413328+05:30
Chennai,Tamil Nadu,13.0827,80.2707,31.2,66,0.0,1004.6,8.55,46.8,82,11.4,9.6,17.2,418.0,64.0,9.4,3,5,4,1,2026-06-05T21:26:04.413336+05:30
Kolkata,West Bengal,22.5726,88.3639,29.9,83,0.0,1000.9,8.65,31.3,132,64.0,60.5,20.3,642.0,79.0,15.1,7,5,4,1,2026-06-05T21:26:04.413344+05:30
Pune,Maharashtra,18.5204,73.8567,25.8,81,0.0,945.6,8.25,42.8,44,15.5,9.6,10.0,183.0,47.0,5.4,7,5,7,1,2026-06-05T21:26:04.413351+05:30
Ahmedabad,Gujarat,23.0225,72.5714,33.4,61,0.0,996.1,8.1,36.0,82,69.8,35.6,17.9,188.0,56.0,6.8,3,5,7,1,2026-06-05T21:26:04.413357+05:30
Jaipur,Rajasthan,26.9124,75.7873,29.1,55,0.0,954.9,8.2,34.9,102,136.0,59.8,39.0,805.0,38.0,14.2,4,5,7,1,2026-06-05T21:26:04.413368+05:30
Lucknow,Uttar Pradesh,26.8467,80.9462,31.4,57,0.0,987.9,8.35,34.2,155,151.3,73.6,18.3,347.0,113.0,15.7,0,5,7,1,2026-06-05T21:26:04.413375+05:30
Kanpur,Uttar Pradesh,26.4499,80.3319,30.9,54,0.0,986.5,8.35,58.0,157,267.3,84.5,20.0,452.0,89.0,12.0,0,5,7,1,2026-06-05T21:26:04.413382+05:30
Chandigarh,Chandigarh,30.7333,76.7794,26.8,74,0.0,963.5,7.7,27.0,162,128.1,66.6,45.4,1735.0,105.0,17.9,7,5,7,1,2026-06-05T21:26:04.413388+05:30
Srinagar,Jammu and Kashmir,34.0837,74.7973,16.0,86,0.0,840.3,9.0,32.8,72,28.8,24.8,30.3,945.0,65.0,4.7,3,10,7,0,2026-06-05T21:26:04.413398+05:30
Jammu,Jammu and Kashmir,32.7266,74.857,27.0,59,0.0,966.7,8.55,29.9,119,66.4,42.8,40.4,637.0,80.0,7.0,4,5,7,1,2026-06-05T21:26:04.413404+05:30
Amritsar,Punjab,31.634,74.8723,30.6,50,0.0,974.8,8.45,28.1,140,76.8,57.5,42.2,759.0,82.0,10.1,0,5,7,1,2026-06-05T21:26:04.413410+05:30
Ludhiana,Punjab,30.901,75.8573,32.2,43,0.0,972.9,8.0,37.8,148,89.6,60.5,35.9,617.0,86.0,10.7,0,5,7,1,2026-06-05T21:26:04.413417+05:30
Jalandhar,Punjab,31.326,75.5762,31.2,48,0.0,973.8,8.2,27.7,150,80.8,57.6,39.8,1039.0,83.0,8.8,0,5,7,1,2026-06-05T21:26:04.413422+05:30
Dehradun,Uttarakhand,30.6284,78.0322,16.3,80,0.0,826.6,4.45,25.6,112,48.4,27.5,18.8,262.0,101.0,2.0,3,5,3,0,2026-06-05T21:26:04.413429+05:30
Shimla,Himachal Pradesh,31.1048,77.1734,14.6,68,0.0,781.6,6.55,33.1,147,82.4,40.4,23.3,362.0,109.0,7.6,3,5,7,0,2026-06-05T21:26:04.413437+05:30
Manali,Himachal Pradesh,32.2396,77.1887,15.7,86,0.1,816.3,7.45,42.5,110,6.3,4.6,49.2,198.0,88.0,0.4,6,10,7,0,2026-06-05T21:26:04.413443+05:30
Gurgaon,Haryana,28.4595,77.0266,30.3,57,0.0,976.1,7.8,32.8,653,201.6,91.0,89.5,1211.0,35.0,26.7,0,5,7,1,2026-06-05T21:26:04.413462+05:30
Noida,Uttar Pradesh,28.5355,77.391,28.5,74,0.0,979.2,7.35,29.9,653,201.6,91.0,89.5,942.0,35.0,26.7,7,5,7,1,2026-06-05T21:26:04.413469+05:30
Ghaziabad,Uttar Pradesh,28.6692,77.4538,27.7,79,0.0,977.4,6.9,35.3,161,258.9,103.6,43.1,556.0,87.0,24.0,7,5,7,1,2026-06-05T21:26:04.413475+05:30
Faridabad,Haryana,28.4089,77.3178,29.6,66,0.0,978.5,7.0,34.2,653,201.6,91.0,89.5,1088.0,35.0,26.7,7,5,7,1,2026-06-05T21:26:04.413481+05:30
Meerut,Uttar Pradesh,28.9845,77.7064,27.5,80,0.0,976.4,7.3,31.7,161,258.9,103.6,43.1,625.0,87.0,24.0,7,5,7,1,2026-06-05T21:26:04.413487+05:30
Agra,Uttar Pradesh,27.1767,78.0081,29.5,63,0.0,982.5,7.75,32.0,150,339.9,97.1,48.6,674.0,60.0,19.7,7,5,7,1,2026-06-05T21:26:04.413493+05:30
Varanasi,Uttar Pradesh,25.3176,82.9739,34.9,41,0.0,991.4,8.8,25.9,146,102.2,68.7,41.1,895.0,80.0,19.6,0,5,7,1,2026-06-05T21:26:04.413500+05:30
Prayagraj,Uttar Pradesh,25.4358,81.8463,34.2,42,0.0,989.9,8.35,36.0,151,75.4,47.4,12.1,389.0,109.0,11.0,0,5,7,1,2026-06-05T21:26:04.413507+05:30
Gorakhpur,Uttar Pradesh,26.7606,83.3732,31.0,64,0.0,991.1,8.7,23.8,160,109.4,74.5,33.2,443.0,88.0,16.3,3,5,7,1,2026-06-05T21:26:04.413515+05:30
Bareilly,Uttar Pradesh,28.367,79.4304,28.7,65,0.0,981.3,4.7,34.6,133,54.5,43.1,14.9,377.0,118.0,12.1,7,5,3,1,2026-06-05T21:26:04.413522+05:30
Aligarh,Uttar Pradesh,27.8974,78.088,28.6,68,0.0,980.2,7.4,40.7,299,353.9,117.3,40.9,483.0,105.0,26.7,7,5,7,1,2026-06-05T21:26:04.413528+05:30
Moradabad,Uttar Pradesh,28.8386,78.7733,28.5,65,0.0,978.4,5.65,34.6,171,100.8,75.2,30.2,435.0,121.0,22.1,7,5,3,1,2026-06-05T21:26:04.413534+05:30
Saharanpur,Uttar Pradesh,29.9637,77.546,27.2,69,0.0,970.5,6.95,35.6,155,122.5,62.6,19.4,633.0,109.0,11.3,7,5,7,1,2026-06-05T21:26:04.413540+05:30
Jhansi,Uttar Pradesh,25.4484,78.5685,30.3,53,0.0,973.4,8.5,34.6,72,57.2,26.5,11.7,182.0,67.0,5.9,0,5,7,1,2026-06-05T21:26:07.917925+05:30
Surat,Gujarat,21.1702,72.8311,30.5,79,0.0,1001.7,7.55,47.5,89,45.1,27.0,20.7,253.0,34.0,34.6,3,5,4,1,2026-06-05T21:26:07.917957+05:30
Vadodara,Gujarat,22.3072,73.1812,31.2,73,0.0,998.9,8.0,45.7,82,42.5,27.4,13.9,159.0,54.0,17.9,3,5,7,1,2026-06-05T21:26:07.917967+05:30
Rajkot,Gujarat,22.3039,70.8022,32.7,53,0.0,988.9,7.55,44.6,80,56.9,24.3,3.6,116.0,62.0,4.2,0,5,7,1,2026-06-05T21:26:07.917976+05:30
Thane,Maharashtra,19.2183,72.9781,30.8,72,0.0,1004.2,7.35,39.2,71,40.5,19.9,9.4,175.0,46.0,6.5,3,5,4,1,2026-06-05T21:26:07.917984+05:30
Nagpur,Maharashtra,21.1458,79.0882,33.6,39,0.0,969.2,8.9,43.6,90,53.2,33.8,17.4,270.0,67.0,13.4,0,5,7,1,2026-06-05T21:26:07.917991+05:30
Nashik,Maharashtra,19.9975,73.7898,27.1,75,0.0,942.5,8.0,46.4,57,31.8,16.5,3.3,139.0,53.0,1.2,7,5,7,1,2026-06-05T21:26:07.917999+05:30
Aurangabad,Maharashtra,19.8762,75.3433,31.7,44,0.0,940.7,8.95,39.2,70,34.8,19.2,4.0,172.0,84.0,2.9,0,5,7,1,2026-06-05T21:26:07.918007+05:30
Solapur,Maharashtra,17.6599,75.9064,27.7,74,0.2,954.4,8.95,43.6,65,37.0,22.2,10.5,302.0,83.0,3.9,10,5,7,1,2026-06-05T21:26:07.918015+05:30
Kolhapur,Maharashtra,16.705,74.2433,24.8,87,0.0,945.7,8.3,48.6,39,10.0,8.2,10.0,163.0,48.0,2.9,3,5,7,1,2026-06-05T21:26:07.918023+05:30
Goa,Goa,15.2993,74.124,27.4,83,0.0,996.3,7.15,25.2,28,15.1,11.5,8.1,357.0,47.0,1.6,7,5,7,1,2026-06-05T21:26:07.918030+05:30
Jodhpur,Rajasthan,26.2389,73.0243,34.0,44,0.0,976.8,8.45,38.2,150,194.2,49.8,9.2,175.0,64.0,2.8,0,5,7,1,2026-06-05T21:26:07.918038+05:30
Udaipur,Rajasthan,24.5854,73.7125,30.4,54,0.0,942.2,8.85,41.0,80,50.8,26.6,4.3,163.0,74.0,3.1,0,5,7,1,2026-06-05T21:26:07.918045+05:30
Kota,Rajasthan,25.2138,75.8648,30.1,52,0.0,973.7,8.2,33.1,91,98.3,45.9,17.3,417.0,72.0,5.9,0,5,7,1,2026-06-05T21:26:07.918052+05:30
Bikaner,Rajasthan,28.0229,73.3119,31.7,57,0.0,975.1,8.45,42.8,153,127.1,46.8,5.1,256.0,71.0,3.3,0,5,7,1,2026-06-05T21:26:07.918060+05:30
Ajmer,Rajasthan,26.4499,74.6399,30.8,53,0.0,949.8,8.35,47.9,88,100.4,40.0,11.8,462.0,65.0,3.9,0,5,7,1,2026-06-05T21:26:07.918067+05:30
Gwalior,Madhya Pradesh,26.2183,78.1828,30.1,56,0.0,978.3,8.35,41.4,79,80.8,32.9,14.8,229.0,76.0,5.7,0,5,7,1,2026-06-05T21:26:07.918074+05:30
Indore,Madhya Pradesh,22.7196,75.8577,29.7,55,0.0,944.1,8.65,45.7,92,54.5,33.1,9.8,724.0,73.0,5.7,4,5,7,1,2026-06-05T21:26:07.918081+05:30
Bhopal,Madhya Pradesh,23.2599,77.4126,28.6,64,0.0,949.5,8.7,45.4,92,52.7,32.2,8.7,250.0,70.0,3.7,7,5,7,1,2026-06-05T21:26:07.918087+05:30
Jabalpur,Madhya Pradesh,23.1815,79.9864,28.1,67,0.0,956.8,8.9,33.5,87,88.2,33.5,5.2,213.0,80.0,2.4,7,5,7,1,2026-06-05T21:26:07.918094+05:30
Ujjain,Madhya Pradesh,23.1765,75.7885,29.4,57,0.0,949.7,8.6,44.3,89,51.2,31.8,4.6,330.0,81.0,5.0,4,5,7,1,2026-06-05T21:26:07.918102+05:30
Visakhapatnam,Andhra Pradesh,17.6868,83.2185,31.8,74,0.0,998.0,8.7,42.1,122,44.7,39.6,34.8,1519.0,83.0,37.7,3,5,7,1,2026-06-05T21:26:07.918108+05:30
Vijayawada,Andhra Pradesh,16.5062,80.648,32.6,57,0.0,998.0,8.95,47.2,62,36.2,33.3,22.9,467.0,56.0,7.3,0,5,7,1,2026-06-05T21:26:07.918116+05:30
Guntur,Andhra Pradesh,16.3067,80.4365,31.2,63,0.0,999.5,9.0,45.7,58,32.2,28.4,20.1,461.0,62.0,6.3,3,5,7,1,2026-06-05T21:26:07.918123+05:30
Nellore,Andhra Pradesh,14.4426,79.9865,28.7,79,0.0,1003.0,8.55,44.6,48,8.7,6.5,5.2,173.0,66.0,1.8,7,5,4,1,2026-06-05T21:26:07.918131+05:30
Kurnool,Andhra Pradesh,15.8281,78.0373,29.5,64,0.0,974.5,9.0,41.0,48,17.6,12.4,6.8,205.0,93.0,5.7,7,5,7,1,2026-06-05T21:26:07.918138+05:30
Kakinada,Andhra Pradesh,16.9891,82.2475,31.9,63,0.0,1001.9,9.05,46.4,114,24.3,20.1,5.7,366.0,115.0,5.0,3,5,4,1,2026-06-05T21:26:07.918145+05:30
Tirupati,Andhra Pradesh,13.6288,79.4192,29.5,65,0.0,988.7,8.5,43.9,52,12.6,10.7,15.7,503.0,39.0,2.1,7,5,7,1,2026-06-05T21:26:07.918152+05:30
Warangal,Telangana,17.9689,79.5941,31.9,57,0.0,974.5,7.6,31.3,86,93.8,65.0,31.4,352.0,54.0,10.0,0,5,7,1,2026-06-05T21:26:07.918159+05:30
Nizamabad,Telangana,18.6725,78.0941,30.8,55,0.0,960.9,8.7,37.1,86,85.2,46.9,15.1,337.0,80.0,6.0,0,5,7,1,2026-06-05T21:26:07.918165+05:30
Mysore,Karnataka,12.2958,76.6396,22.3,91,0.0,927.4,8.3,62.6,28,3.2,2.8,6.8,172.0,42.0,1.8,3,5,7,1,2026-06-05T21:26:07.918173+05:30
Mangalore,Karnataka,12.9141,74.856,25.2,95,0.2,1006.2,2.1,33.5,26,8.1,5.9,5.6,298.0,47.0,1.7,10,5,0,1,2026-06-05T21:26:07.918180+05:30
Hubli-Dharwad,Karnataka,15.3647,75.124,23.8,89,0.0,939.0,8.4,42.5,30,3.2,2.7,6.6,144.0,45.0,1.0,3,5,7,1,2026-06-05T21:26:07.918187+05:30
Belgaum,Karnataka,15.8497,74.4977,23.2,91,0.0,923.7,8.85,36.0,33,6.2,5.0,7.3,145.0,49.0,2.3,3,5,7,1,2026-06-05T21:26:11.156315+05:30
Coimbatore,Tamil Nadu,11.0168,76.9558,24.1,91,0.0,960.7,6.45,56.5,23,4.1,3.6,7.6,215.0,34.0,2.4,3,5,7,1,2026-06-05T21:26:11.156346+05:30
Madurai,Tamil Nadu,9.9252,78.1198,29.8,55,0.0,991.7,8.25,62.3,32,4.5,3.7,7.3,144.0,38.0,2.6,4,5,7,1,2026-06-05T21:26:11.156358+05:30
Trichy,Tamil Nadu,10.7905,78.7047,30.5,51,0.0,998.2,8.35,62.3,32,7.4,6.0,9.4,142.0,35.0,3.1,0,5,7,1,2026-06-05T21:26:11.156366+05:30
Salem,Tamil Nadu,11.6643,78.146,28.9,58,0.0,976.1,7.85,39.2,36,10.0,9.1,16.6,222.0,41.0,5.3,4,5,7,1,2026-06-05T21:26:11.156375+05:30
Tirunelveli,Tamil Nadu,8.7139,77.7567,30.2,59,0.0,1003.0,8.5,42.8,21,5.3,4.5,9.0,124.0,30.0,1.6,0,5,4,1,2026-06-05T21:26:11.156383+05:30
Vellore,Tamil Nadu,12.9165,79.1325,30.9,54,0.0,982.3,8.5,60.1,37,18.1,16.8,21.4,152.0,32.0,4.9,0,5,7,1,2026-06-05T21:26:11.156391+05:30
Erode,Tamil Nadu,11.341,77.7172,27.4,72,0.0,987.7,8.6,54.7,30,5.4,5.0,10.6,206.0,37.0,2.9,7,5,7,1,2026-06-05T21:26:11.156399+05:30
Kochi,Kerala,9.9312,76.2673,25.7,94,0.2,1009.7,3.6,25.2,39,20.7,16.5,26.1,343.0,9.0,5.1,10,0,0,1,2026-06-05T21:26:11.156407+05:30
Thiruvananthapuram,Kerala,8.5241,76.9366,24.6,97,0.3,1009.7,4.7,48.2,25,14.0,6.8,1.8,127.0,46.0,0.5,6,0,0,1,2026-06-05T21:26:11.156415+05:30
Kozhikode,Kerala,11.2588,75.7804,24.9,97,0.0,1008.1,8.45,27.0,24,15.0,6.8,1.3,472.0,50.0,0.6,3,0,4,1,2026-06-05T21:26:11.156422+05:30
Thrissur,Kerala,10.5276,76.2144,25.0,99,0.1,1007.7,7.35,27.0,34,19.6,15.2,17.0,405.0,20.0,3.5,10,5,4,1,2026-06-05T21:26:11.156431+05:30
Kannur,Kerala,11.8745,75.3704,24.8,98,0.1,1007.1,5.7,41.0,25,14.3,9.1,10.5,406.0,38.0,2.0,6,5,0,1,2026-06-05T21:26:11.156438+05:30
Patna,Bihar,25.5941,85.1376,31.1,79,0.0,994.6,8.9,37.4,171,141.6,116.4,59.6,452.0,61.0,26.1,3,5,7,1,2026-06-05T21:26:11.156445+05:30
Gaya,Bihar,24.7914,85.0002,30.8,67,0.0,988.1,8.95,59.0,162,106.9,86.8,36.8,704.0,78.0,18.0,3,5,7,1,2026-06-05T21:26:11.156453+05:30
Muzaffarpur,Bihar,26.1209,85.3647,30.5,76,0.0,994.9,8.85,36.0,172,125.3,108.0,36.2,825.0,95.0,20.9,3,5,7,1,2026-06-05T21:26:11.156461+05:30
Bhagalpur,Bihar,25.2425,87.0117,27.4,94,0.0,996.9,8.85,35.3,204,75.7,70.3,17.5,471.0,122.0,17.1,7,5,7,1,2026-06-05T21:26:11.156469+05:30
Ranchi,Jharkhand,23.3441,85.3096,25.0,84,0.0,933.6,9.2,36.0,111,54.4,44.0,11.3,440.0,98.0,5.7,7,5,7,1,2026-06-05T21:26:11.156476+05:30
Jamshedpur,Jharkhand,22.8046,86.2029,28.8,84,0.0,986.3,8.95,29.9,163,74.3,61.9,20.5,470.0,122.0,18.9,7,5,7,1,2026-06-05T21:26:11.156484+05:30
Dhanbad,Jharkhand,23.7957,86.4304,27.5,84,0.0,975.5,9.05,50.0,165,101.0,90.6,58.3,831.0,73.0,147.6,7,5,7,1,2026-06-05T21:26:11.156491+05:30
Bokaro,Jharkhand,23.6693,86.1511,27.2,95,0.0,979.2,9.1,43.9,161,85.7,71.2,46.2,413.0,86.0,114.0,7,5,7,1,2026-06-05T21:26:11.156499+05:30
Bhubaneswar,Odisha,20.2961,85.8245,30.7,84,0.0,997.4,9.05,23.8,151,41.3,37.8,11.4,550.0,123.0,8.1,3,5,7,1,2026-06-05T21:26:11.156507+05:30
Cuttack,Odisha,20.4625,85.8828,30.4,84,0.0,999.2,9.1,25.2,151,41.3,37.8,11.4,496.0,123.0,8.1,3,5,7,1,2026-06-05T21:26:11.156514+05:30
Rourkela,Odisha,22.2604,84.8536,27.1,95,0.1,980.7,9.0,34.2,163,86.6,68.5,24.0,374.0,106.0,15.9,10,5,7,1,2026-06-05T21:26:11.156522+05:30
Raipur,Chhattisgarh,21.2514,81.6296,34.3,37,0.0,969.7,9.0,34.9,110,58.1,44.1,40.1,475.0,58.0,63.3,0,5,7,1,2026-06-05T21:26:11.156529+05:30
Bhilai,Chhattisgarh,21.1938,81.3509,33.4,41,0.0,970.2,9.0,34.9,107,65.2,47.0,37.3,1093.0,51.0,46.4,0,5,7,1,2026-06-05T21:26:11.156537+05:30
Guwahati,Assam,26.1158,91.7086,26.6,93,0.0,997.6,8.8,28.1,99,45.8,43.2,14.8,729.0,54.0,3.7,7,5,7,1,2026-06-05T21:26:11.156544+05:30
Agartala,Tripura,23.8315,91.2868,27.9,89,0.0,1001.8,8.9,36.0,105,85.0,80.6,58.1,585.0,33.0,8.5,7,5,4,1,2026-06-05T21:26:11.156552+05:30
Shillong,Meghalaya,25.5788,91.8933,19.2,97,0.0,854.5,8.45,23.4,75,27.6,26.1,12.1,678.0,63.0,2.2,3,10,7,1,2026-06-05T21:26:11.156560+05:30
Imphal,Manipur,24.817,93.9368,23.9,89,0.0,920.0,8.75,27.4,124,57.7,52.7,26.2,952.0,53.0,6.3,3,5,7,1,2026-06-05T21:26:11.156568+05:30
Aizawl,Mizoram,23.7271,92.7176,21.3,93,0.0,889.4,9.1,22.3,105,38.9,34.8,14.9,393.0,34.0,2.4,3,5,7,1,2026-06-05T21:26:11.156575+05:30
Kohima,Nagaland,25.6701,94.1077,18.6,95,0.0,852.4,8.95,23.8,64,22.9,21.0,13.8,508.0,53.0,1.8,3,10,7,1,2026-06-05T21:26:11.156583+05:30
Gangtok,Sikkim,27.3314,88.6138,17.8,97,0.7,835.6,9.2,38.2,98,22.2,20.1,12.6,447.0,114.0,3.2,6,10,7,1,2026-06-05T21:26:11.156590+05:30
Siliguri,West Bengal,26.7271,88.3953,24.7,96,0.0,989.2,8.8,24.5,127,71.2,63.6,17.3,806.0,112.0,7.9,3,5,7,1,2026-06-05T21:26:14.458235+05:30
Durgapur,West Bengal,23.5204,87.3119,27.4,95,0.0,990.4,8.95,40.0,205,79.4,75.9,26.4,882.0,116.0,40.4,7,5,7,1,2026-06-05T21:26:14.458270+05:30
Asansol,West Bengal,23.6739,86.9524,27.3,93,0.0,988.9,9.0,55.4,202,80.1,76.1,29.5,599.0,115.0,51.9,7,5,7,1,2026-06-05T21:26:14.458283+05:30
Pondicherry,Puducherry,11.9139,79.8145,31.7,64,0.0,1005.7,8.4,45.0,76,9.1,8.4,9.6,407.0,77.0,3.7,3,5,4,1,2026-06-05T21:26:14.458294+05:30
Port Blair,Andaman and Nicobar Islands,11.6234,92.7265,25.9,97,0.0,1006.3,1.85,47.2,27,8.1,5.1,0.4,102.0,54.0,0.4,7,5,0,1,2026-06-05T21:26:14.458304+05:30
Haridwar,Uttarakhand,29.9457,78.1642,25.5,81,0.0,969.1,6.75,33.1,164,118.3,59.1,16.5,491.0,137.0,9.9,7,5,7,1,2026-06-05T21:26:14.458314+05:30
Rishikesh,Uttarakhand,30.0869,78.2676,24.3,80,0.0,961.9,6.85,33.1,150,104.1,46.9,11.7,455.0,150.0,6.7,3,5,7,1,2026-06-05T21:26:14.458324+05:30
Nainital,Uttarakhand,29.3919,79.4542,15.4,93,0.0,801.7,5.05,27.0,97,48.5,34.1,14.1,373.0,105.0,7.7,3,10,3,0,2026-06-05T21:26:14.458334+05:30
Mussoorie,Uttarakhand,30.4599,78.0664,14.1,86,0.0,798.6,4.55,26.3,148,82.0,42.3,26.4,361.0,116.0,9.1,3,10,3,0,2026-06-05T21:26:14.458344+05:30
Dharamshala,Himachal Pradesh,32.219,76.3234,20.0,67,0.0,865.3,8.45,38.2,108,28.2,20.0,13.2,285.0,87.0,1.6,3,5,7,0,2026-06-05T21:26:14.458353+05:30
Dalhousie,Himachal Pradesh,32.5387,75.971,12.3,99,0.0,799.2,7.0,34.9,131,44.4,27.8,24.4,564.0,116.0,3.2,3,10,7,0,2026-06-05T21:26:14.458363+05:30
Patiala,Punjab,30.3398,76.3869,29.8,59,0.0,972.7,7.7,29.2,152,151.3,69.4,27.8,569.0,88.0,11.4,4,5,7,1,2026-06-05T21:26:14.458372+05:30
Bhatinda,Punjab,30.211,74.9455,32.3,43,0.0,977.5,8.3,22.7,158,102.2,55.8,30.1,350.0,92.0,12.6,0,5,7,1,2026-06-05T21:26:14.458381+05:30
Rohtak,Haryana,28.8955,76.6066,29.6,61,0.0,976.3,7.7,27.0,236,212.8,79.9,73.5,864.0,25.0,15.4,7,5,7,1,2026-06-05T21:26:14.458390+05:30
Panipat,Haryana,29.3909,76.9635,27.8,76,0.0,975.0,7.55,29.9,466,333.4,105.9,51.1,559.0,43.0,15.3,7,5,7,1,2026-06-05T21:26:14.458399+05:30
Mathura,Uttar Pradesh,27.4924,77.6737,28.9,67,0.0,981.4,7.65,29.2,343,329.7,90.8,66.4,480.0,46.0,13.0,7,5,7,1,2026-06-05T21:26:14.458408+05:30
Vrindavan,Uttar Pradesh,27.5823,77.7027,29.0,65,0.0,981.8,7.8,28.1,343,329.7,90.8,66.4,527.0,46.0,13.0,7,5,7,1,2026-06-05T21:26:14.458417+05:30
Ayodhya,Uttar Pradesh,26.7922,82.1998,30.7,65,0.0,989.1,8.45,29.5,160,68.9,47.5,11.3,539.0,110.0,7.1,3,5,7,1,2026-06-05T21:26:14.458426+05:30
Ratlam,Madhya Pradesh,23.3315,75.0367,29.1,61,0.0,950.3,8.45,41.0,86,51.9,31.4,3.1,222.0,87.0,5.2,7,5,7,1,2026-06-05T21:26:14.458435+05:30
Sagar,Madhya Pradesh,23.8388,78.7378,28.7,49,0.0,946.1,8.65,39.6,83,49.5,26.3,7.4,161.0,71.0,2.4,4,5,7,1,2026-06-05T21:26:14.458443+05:30
Satna,Madhya Pradesh,24.6005,80.8322,30.8,55,0.1,966.3,8.85,37.8,105,66.6,35.4,5.3,202.0,96.0,3.3,3,5,7,1,2026-06-05T21:26:14.458453+05:30
Akola,Maharashtra,20.7002,77.0082,31.8,51,0.0,970.4,8.8,45.7,86,45.6,24.6,9.1,210.0,79.0,5.4,0,5,7,1,2026-06-05T21:26:14.458463+05:30
Amravati,Maharashtra,20.9374,77.7796,31.8,47,0.0,963.2,8.85,51.1,92,52.2,28.5,12.9,238.0,65.0,5.9,0,5,7,1,2026-06-05T21:26:14.458474+05:30
Latur,Maharashtra,18.4088,76.5604,30.1,58,0.0,936.4,8.95,31.7,64,51.9,29.4,13.2,481.0,64.0,3.8,0,5,7,1,2026-06-05T21:26:14.458483+05:30
Nanded,Maharashtra,19.1383,77.3091,32.6,49,0.0,964.3,8.95,31.0,87,59.0,34.8,16.5,306.0,71.0,5.2,0,5,7,1,2026-06-05T21:26:14.458492+05:30
Gulbarga,Karnataka,17.3297,76.8343,25.3,86,0.2,956.1,7.25,32.8,57,40.9,25.9,22.8,285.0,63.0,4.9,10,5,7,1,2026-06-05T21:26:14.458501+05:30
Bidar,Karnataka,17.9104,77.5199,29.2,62,0.0,932.5,7.3,40.0,74,51.9,35.6,16.3,371.0,78.0,4.1,7,5,7,1,2026-06-05T21:26:14.458509+05:30
Hospet,Karnataka,15.2689,76.3909,25.3,81,0.0,954.0,8.05,47.5,34,5.8,5.2,11.0,180.0,44.0,1.7,7,5,7,1,2026-06-05T21:26:14.458518+05:30
Tirupur,Tamil Nadu,11.1085,77.3411,25.3,83,0.0,973.9,8.55,63.7,29,6.7,6.1,11.6,171.0,35.0,3.9,7,5,7,1,2026-06-05T21:26:14.458527+05:30
Alappuzha,Kerala,9.4981,76.3388,26.2,93,0.2,1010.1,7.25,37.1,32,18.9,11.1,9.4,89.0,34.0,2.0,10,0,4,1,2026-06-05T21:26:14.458536+05:30
Munnar,Kerala,10.0889,77.0595,16.7,95,0.0,856.6,6.4,48.2,20,2.2,2.1,7.1,99.0,32.0,2.0,3,10,7,0,2026-06-05T21:26:14.458545+05:30
Silchar,Assam,24.8333,92.7789,28.5,89,0.0,1000.7,8.7,31.0,112,53.1,45.1,12.3,895.0,99.0,9.6,7,5,4,1,2026-06-05T21:26:14.458554+05:30
Dibrugarh,Assam,27.4728,94.912,25.7,86,0.0,991.8,8.95,19.4,107,48.1,45.1,24.6,489.0,71.0,5.7,7,5,7,1,2026-06-05T21:26:14.458562+05:30
