city,state,latitude,longitude,temp,humidity,rain,pressure,uv_index,wind_gusts,aqi,pm10,pm2_5,no2,co,o3,so2,mosquito_risk,arthritis_risk,migraine_risk,frizz_risk,updated_at
Delhi,Delhi,28.6139,77.209,29.0,82,0.0,971.9,7.7,25.9,429,339.9,150.4,84.9,270.0,3.0,37.6,7,5,7,1,2026-07-12T03:22:18.347383+05:30
Mumbai,Maharashtra,19.076,72.8777,27.3,87,0.0,1004.6,7.8,53.3,54,25.9,10.5,3.4,105.0,44.0,3.1,7,5,4,1,2026-07-12T03:22:18.347427+05:30
Bangalore,Karnataka,12.9716,77.5946,21.2,91,0.0,909.8,7.45,47.9,50,15.1,8.9,12.6,187.0,29.0,4.0,3,5,7,1,2026-07-12T03:22:18.347440+05:30
Hyderabad,Telangana,17.385,78.4867,26.4,66,0.0,948.9,8.6,53.6,59,26.0,14.4,7.2,131.0,41.0,4.1,7,5,7,1,2026-07-12T03:22:18.347448+05:30
Chennai,Tamil Nadu,13.0827,80.2707,29.3,71,0.0,1002.5,7.7,40.0,72,31.0,21.1,14.1,251.0,62.0,9.4,7,5,4,1,2026-07-12T03:22:18.347455+05:30
Kolkata,West Bengal,22.5726,88.3639,27.9,95,0.0,996.0,7.65,24.1,129,68.5,51.7,11.4,348.0,74.0,12.9,7,5,7,1,2026-07-12T03:22:18.347462+05:30
Pune,Maharashtra,18.5204,73.8567,22.9,87,0.0,944.1,8.4,55.4,35,8.4,4.0,4.5,99.0,38.0,4.2,3,5,7,1,2026-07-12T03:22:18.347468+05:30
Ahmedabad,Gujarat,23.0225,72.5714,27.4,81,0.0,995.0,8.1,52.2,65,32.2,16.6,6.0,109.0,39.0,4.0,7,5,7,1,2026-07-12T03:22:18.347473+05:30
Jaipur,Rajasthan,26.9124,75.7873,27.3,74,0.0,949.9,8.2,38.5,386,429.3,78.0,8.8,183.0,55.0,4.2,7,5,7,1,2026-07-12T03:22:18.347479+05:30
Lucknow,Uttar Pradesh,26.8467,80.9462,26.9,93,0.0,982.9,8.2,36.0,154,91.7,51.8,24.0,362.0,33.0,5.1,7,5,7,1,2026-07-12T03:22:18.347488+05:30
Kanpur,Uttar Pradesh,26.4499,80.3319,28.6,81,0.0,981.3,8.2,36.7,138,81.5,46.2,24.7,198.0,34.0,6.9,7,5,7,1,2026-07-12T03:22:18.347494+05:30
Chandigarh,Chandigarh,30.7333,76.7794,25.2,93,0.1,957.3,7.7,40.0,151,68.5,67.1,57.8,871.0,17.0,6.8,10,5,7,1,2026-07-12T03:22:18.347499+05:30
Srinagar,Jammu and Kashmir,34.0837,74.7973,18.4,98,0.0,833.7,8.15,23.4,64,9.5,8.9,7.4,386.0,96.0,1.8,3,10,7,1,2026-07-12T03:22:18.347505+05:30
Jammu,Jammu and Kashmir,32.7266,74.857,23.9,96,0.2,961.0,8.3,33.5,109,60.8,51.2,49.0,541.0,9.0,3.4,6,5,7,1,2026-07-12T03:22:18.347510+05:30
Amritsar,Punjab,31.634,74.8723,25.0,94,0.1,968.9,8.35,45.0,162,115.0,72.4,20.7,325.0,61.0,5.9,10,5,7,1,2026-07-12T03:22:18.347518+05:30
Ludhiana,Punjab,30.901,75.8573,25.3,88,0.0,967.7,7.95,46.1,161,116.4,82.9,36.1,406.0,49.0,16.8,7,5,7,1,2026-07-12T03:22:18.347523+05:30
Jalandhar,Punjab,31.326,75.5762,25.4,93,0.2,968.7,8.15,45.4,163,94.3,74.3,31.9,341.0,53.0,13.5,10,5,7,1,2026-07-12T03:22:18.347528+05:30
Dehradun,Uttarakhand,30.6284,78.0322,16.4,100,0.0,821.3,8.1,29.2,52,17.6,17.6,33.9,262.0,24.0,0.0,3,10,7,1,2026-07-12T03:22:18.347534+05:30
Shimla,Himachal Pradesh,31.1048,77.1734,15.1,93,0.0,776.5,8.25,36.7,94,41.0,40.6,12.2,415.0,100.0,1.3,3,10,7,0,2026-07-12T03:22:18.347539+05:30
Manali,Himachal Pradesh,32.2396,77.1887,17.0,95,0.0,810.6,8.7,28.4,44,8.2,8.2,16.0,245.0,92.0,0.0,3,10,7,1,2026-07-12T03:22:18.347546+05:30
Gurgaon,Haryana,28.4595,77.0266,28.9,73,0.0,970.1,7.7,27.0,493,603.5,142.0,38.0,247.0,30.0,17.5,7,5,7,1,2026-07-12T03:22:18.347551+05:30
Noida,Uttar Pradesh,28.5355,77.391,27.8,92,0.0,973.3,7.7,24.5,493,603.5,142.0,38.0,234.0,30.0,17.5,7,5,7,1,2026-07-12T03:22:18.347556+05:30
Ghaziabad,Uttar Pradesh,28.6692,77.4538,26.5,91,0.0,971.5,7.7,26.6,310,431.2,168.6,56.5,857.0,20.0,16.4,7,5,7,1,2026-07-12T03:22:18.347561+05:30
Faridabad,Haryana,28.4089,77.3178,28.8,84,0.0,972.6,7.75,26.6,493,603.5,142.0,38.0,223.0,30.0,17.5,7,5,7,1,2026-07-12T03:22:18.347566+05:30
Meerut,Uttar Pradesh,28.9845,77.7064,25.8,95,0.0,970.5,7.55,29.2,310,431.2,168.6,56.5,380.0,20.0,16.4,7,5,7,1,2026-07-12T03:22:18.347572+05:30
Agra,Uttar Pradesh,27.1767,78.0081,29.5,70,0.0,977.1,8.0,36.7,151,161.6,39.3,19.6,207.0,39.0,4.9,7,5,7,1,2026-07-12T03:22:18.347578+05:30
Varanasi,Uttar Pradesh,25.3176,82.9739,29.2,68,0.0,987.4,8.7,42.1,105,47.5,30.9,10.0,203.0,58.0,6.4,7,5,7,1,2026-07-12T03:22:18.347584+05:30
Prayagraj,Uttar Pradesh,25.4358,81.8463,29.6,68,0.0,986.0,8.6,43.6,107,50.8,33.5,12.2,171.0,53.0,5.4,7,5,7,1,2026-07-12T03:22:18.347589+05:30
Gorakhpur,Uttar Pradesh,26.7606,83.3732,26.2,96,0.0,986.6,6.2,35.3,112,91.0,47.0,13.3,278.0,71.0,5.1,7,5,7,1,2026-07-12T03:22:18.347594+05:30
Bareilly,Uttar Pradesh,28.367,79.4304,26.6,95,0.1,976.4,8.0,30.6,156,124.8,59.8,19.8,280.0,73.0,5.9,10,5,7,1,2026-07-12T03:22:18.347613+05:30
Aligarh,Uttar Pradesh,27.8974,78.088,29.3,77,0.0,974.5,7.85,29.2,406,449.8,112.7,23.3,194.0,40.0,5.1,7,5,7,1,2026-07-12T03:22:18.347621+05:30
Moradabad,Uttar Pradesh,28.8386,78.7733,25.8,96,0.0,973.0,7.8,36.0,158,227.2,108.3,41.5,361.0,42.0,10.7,7,5,7,1,2026-07-12T03:22:18.347628+05:30
Saharanpur,Uttar Pradesh,29.9637,77.546,25.0,94,0.0,964.8,7.35,39.2,154,100.6,94.5,42.0,438.0,43.0,13.5,7,5,7,1,2026-07-12T03:22:18.347636+05:30
Jhansi,Uttar Pradesh,25.4484,78.5685,29.1,68,0.0,968.9,8.4,44.6,93,37.0,21.4,7.7,139.0,69.0,9.4,7,5,7,1,2026-07-12T03:22:21.697753+05:30
Surat,Gujarat,21.1702,72.8311,28.1,85,0.0,1000.8,5.45,65.5,58,24.8,13.5,11.8,196.0,35.0,20.5,7,5,0,1,2026-07-12T03:22:21.697787+05:30
Vadodara,Gujarat,22.3072,73.1812,27.2,85,0.0,997.7,8.05,58.3,56,21.9,10.9,5.6,108.0,38.0,4.1,7,5,7,1,2026-07-12T03:22:21.697796+05:30
Rajkot,Gujarat,22.3039,70.8022,26.7,85,0.0,986.8,7.75,61.2,59,23.0,10.0,3.1,91.0,43.0,2.7,7,5,7,1,2026-07-12T03:22:21.697802+05:30
Thane,Maharashtra,19.2183,72.9781,26.9,89,0.0,1003.8,7.5,49.0,54,25.9,10.5,3.4,121.0,44.0,3.1,7,5,4,1,2026-07-12T03:22:21.697809+05:30
Nagpur,Maharashtra,21.1458,79.0882,27.1,70,0.0,967.0,7.7,41.8,81,35.5,21.0,10.9,136.0,48.0,7.8,7,5,7,1,2026-07-12T03:22:21.697816+05:30
Nashik,Maharashtra,19.9975,73.7898,23.1,92,0.0,940.4,8.1,64.4,34,9.2,5.1,6.5,91.0,32.0,3.8,3,5,7,1,2026-07-12T03:22:21.697821+05:30
Aurangabad,Maharashtra,19.8762,75.3433,22.9,88,0.0,939.1,8.95,54.7,49,18.4,8.5,7.4,129.0,34.0,8.5,3,5,7,1,2026-07-12T03:22:21.697827+05:30
Solapur,Maharashtra,17.6599,75.9064,23.9,81,0.0,953.8,8.75,50.0,49,21.6,11.6,6.2,117.0,32.0,2.4,3,5,7,1,2026-07-12T03:22:21.697833+05:30
Kolhapur,Maharashtra,16.705,74.2433,22.9,92,0.0,945.1,8.5,52.2,40,10.0,5.5,3.8,109.0,37.0,2.1,3,5,7,1,2026-07-12T03:22:21.697840+05:30
Goa,Goa,15.2993,74.124,25.1,99,0.0,996.7,7.3,38.9,55,38.3,23.5,7.7,270.0,34.0,1.9,7,5,7,1,2026-07-12T03:22:21.697846+05:30
Jodhpur,Rajasthan,26.2389,73.0243,27.9,71,0.0,972.9,8.4,53.3,200,420.0,96.6,2.5,97.0,55.0,2.4,7,5,7,1,2026-07-12T03:22:21.697853+05:30
Udaipur,Rajasthan,24.5854,73.7125,23.6,87,0.0,937.3,8.8,52.9,68,41.8,20.4,3.5,95.0,52.0,3.7,3,5,7,1,2026-07-12T03:22:21.697859+05:30
Kota,Rajasthan,25.2138,75.8648,27.8,77,0.0,970.0,8.3,42.5,79,36.2,22.9,7.7,149.0,63.0,6.8,7,5,7,1,2026-07-12T03:22:21.697865+05:30
Bikaner,Rajasthan,28.0229,73.3119,30.2,64,0.0,970.2,8.45,41.8,158,210.5,79.9,2.6,97.0,58.0,4.6,3,5,7,1,2026-07-12T03:22:21.697871+05:30
Ajmer,Rajasthan,26.4499,74.6399,26.3,77,0.0,945.3,8.35,49.0,76,35.3,21.0,4.5,105.0,61.0,3.3,7,5,7,1,2026-07-12T03:22:21.697877+05:30
Gwalior,Madhya Pradesh,26.2183,78.1828,28.6,71,0.0,973.3,8.15,43.2,88,30.3,19.1,7.2,138.0,62.0,5.5,7,5,7,1,2026-07-12T03:22:21.697882+05:30
Indore,Madhya Pradesh,22.7196,75.8577,24.4,89,0.0,941.2,8.55,52.6,63,16.6,9.7,7.1,136.0,37.0,8.1,3,5,7,1,2026-07-12T03:22:21.697887+05:30
Bhopal,Madhya Pradesh,23.2599,77.4126,25.3,85,0.0,946.7,8.6,42.1,73,25.0,16.0,6.0,169.0,59.0,5.9,7,5,7,1,2026-07-12T03:22:21.697893+05:30
Jabalpur,Madhya Pradesh,23.1815,79.9864,26.2,75,0.0,954.2,4.8,36.7,83,39.9,24.2,6.2,186.0,62.0,4.1,7,5,3,1,2026-07-12T03:22:21.697899+05:30
Ujjain,Madhya Pradesh,23.1765,75.7885,25.1,87,0.0,946.7,8.5,51.8,62,16.7,10.1,7.2,157.0,37.0,8.3,7,5,7,1,2026-07-12T03:22:21.697904+05:30
Visakhapatnam,Andhra Pradesh,17.6868,83.2185,28.4,70,0.0,996.9,8.5,40.3,99,60.5,34.8,19.9,292.0,43.0,31.9,7,5,7,1,2026-07-12T03:22:21.697910+05:30
Vijayawada,Andhra Pradesh,16.5062,80.648,30.1,63,0.0,996.8,8.55,44.3,91,56.9,39.9,21.2,291.0,34.0,5.6,3,5,7,1,2026-07-12T03:22:21.697915+05:30
Guntur,Andhra Pradesh,16.3067,80.4365,31.3,50,0.0,998.1,8.15,45.4,84,51.0,33.4,21.5,276.0,28.0,5.5,0,5,7,1,2026-07-12T03:22:21.697921+05:30
Nellore,Andhra Pradesh,14.4426,79.9865,29.9,61,0.0,1001.1,8.8,46.4,71,44.5,26.4,13.9,270.0,52.0,8.8,7,5,4,1,2026-07-12T03:22:21.697927+05:30
Kurnool,Andhra Pradesh,15.8281,78.0373,27.3,65,0.0,973.5,8.35,49.3,56,21.2,11.9,7.3,139.0,41.0,3.0,7,5,7,1,2026-07-12T03:22:21.697934+05:30
Kakinada,Andhra Pradesh,16.9891,82.2475,28.5,73,0.0,1001.1,8.3,49.0,88,59.4,35.9,10.7,358.0,58.0,4.9,7,5,4,1,2026-07-12T03:22:21.697940+05:30
Tirupati,Andhra Pradesh,13.6288,79.4192,28.9,61,0.0,986.8,8.0,38.5,78,41.2,26.6,25.3,112.0,24.0,3.1,7,5,7,1,2026-07-12T03:22:21.697945+05:30
Warangal,Telangana,17.9689,79.5941,27.7,66,0.0,973.4,8.8,43.6,77,37.0,21.7,10.8,162.0,40.0,3.4,7,5,7,1,2026-07-12T03:22:21.697949+05:30
Nizamabad,Telangana,18.6725,78.0941,26.0,70,0.0,960.1,8.8,45.4,64,24.8,14.9,8.2,133.0,42.0,6.1,7,5,7,1,2026-07-12T03:22:21.697954+05:30
Mysore,Karnataka,12.2958,76.6396,21.0,97,0.0,926.8,8.8,46.8,35,13.7,9.3,12.4,123.0,23.0,1.7,3,5,7,1,2026-07-12T03:22:21.697959+05:30
Mangalore,Karnataka,12.9141,74.856,25.0,96,0.0,1006.2,5.75,49.0,47,17.8,9.4,4.8,129.0,34.0,2.2,7,5,0,1,2026-07-12T03:22:21.697964+05:30
Hubli-Dharwad,Karnataka,15.3647,75.124,22.0,95,0.0,938.6,8.85,52.2,32,12.8,6.4,4.5,105.0,35.0,1.7,3,5,7,1,2026-07-12T03:22:21.697970+05:30
Belgaum,Karnataka,15.8497,74.4977,21.3,96,0.0,923.2,9.0,50.4,34,15.0,6.8,2.9,92.0,40.0,1.5,3,5,7,1,2026-07-12T03:22:25.068785+05:30
Coimbatore,Tamil Nadu,11.0168,76.9558,23.4,97,0.0,959.8,8.6,55.1,40,15.3,10.2,11.1,174.0,21.0,2.8,3,5,7,1,2026-07-12T03:22:25.068822+05:30
Madurai,Tamil Nadu,9.9252,78.1198,28.2,68,0.0,990.6,8.0,42.5,60,32.4,28.5,33.6,137.0,2.0,7.5,7,5,7,1,2026-07-12T03:22:25.068832+05:30
Trichy,Tamil Nadu,10.7905,78.7047,28.4,70,0.0,996.9,8.0,56.9,46,21.6,11.1,8.3,104.0,31.0,3.3,7,5,7,1,2026-07-12T03:22:25.068840+05:30
Salem,Tamil Nadu,11.6643,78.146,25.5,88,0.0,975.3,8.9,22.3,61,31.9,20.1,21.8,177.0,23.0,6.4,7,5,7,1,2026-07-12T03:22:25.068848+05:30
Tirunelveli,Tamil Nadu,8.7139,77.7567,28.5,69,0.0,1001.3,8.4,40.3,29,14.1,9.1,7.8,109.0,31.0,2.6,7,5,4,1,2026-07-12T03:22:25.068855+05:30
Vellore,Tamil Nadu,12.9165,79.1325,28.9,61,0.0,981.3,7.25,39.6,71,21.8,14.8,13.1,218.0,35.0,4.3,7,5,7,1,2026-07-12T03:22:25.068861+05:30
Erode,Tamil Nadu,11.341,77.7172,26.1,82,0.0,987.2,8.75,52.6,55,23.3,16.1,16.7,154.0,24.0,4.0,7,5,7,1,2026-07-12T03:22:25.068868+05:30
Kochi,Kerala,9.9312,76.2673,26.4,91,0.0,1008.1,7.85,43.2,48,17.4,12.7,12.9,92.0,23.0,3.2,7,0,4,1,2026-07-12T03:22:25.068875+05:30
Thiruvananthapuram,Kerala,8.5241,76.9366,25.1,96,0.0,1007.8,7.85,49.3,35,13.8,7.3,3.7,106.0,44.0,1.6,7,5,4,1,2026-07-12T03:22:25.068881+05:30
Kozhikode,Kerala,11.2588,75.7804,25.7,92,0.0,1007.2,8.15,46.8,38,17.9,8.6,2.8,170.0,45.0,1.5,7,5,4,1,2026-07-12T03:22:25.068887+05:30
Thrissur,Kerala,10.5276,76.2144,25.1,94,0.0,1006.4,7.8,41.0,45,14.3,9.1,6.0,139.0,32.0,2.6,7,5,4,1,2026-07-12T03:22:25.068895+05:30
Kannur,Kerala,11.8745,75.3704,25.9,91,0.0,1006.5,8.2,44.6,42,16.2,9.4,7.9,145.0,28.0,2.4,7,5,4,1,2026-07-12T03:22:25.068901+05:30
Patna,Bihar,25.5941,85.1376,26.6,94,0.3,990.2,8.75,37.4,120,72.2,52.9,20.2,398.0,51.0,8.5,10,5,7,1,2026-07-12T03:22:25.068908+05:30
Gaya,Bihar,24.7914,85.0002,27.8,82,0.0,984.0,8.55,38.2,102,55.9,42.1,18.6,220.0,49.0,29.4,7,5,7,1,2026-07-12T03:22:25.068914+05:30
Muzaffarpur,Bihar,26.1209,85.3647,27.0,90,0.1,990.0,8.0,35.6,115,71.2,48.7,16.4,336.0,63.0,7.3,10,5,7,1,2026-07-12T03:22:25.068921+05:30
Bhagalpur,Bihar,25.2425,87.0117,26.7,97,0.1,990.9,7.9,32.0,87,50.2,38.5,11.4,217.0,73.0,5.7,10,5,7,1,2026-07-12T03:22:25.068927+05:30
Ranchi,Jharkhand,23.3441,85.3096,23.8,89,0.0,929.4,8.45,31.0,95,53.2,37.5,9.7,220.0,62.0,7.2,3,5,7,1,2026-07-12T03:22:25.068932+05:30
Jamshedpur,Jharkhand,22.8046,86.2029,26.9,86,0.0,982.2,4.7,28.4,117,63.6,46.4,14.3,256.0,74.0,34.0,7,5,3,1,2026-07-12T03:22:25.068939+05:30
Dhanbad,Jharkhand,23.7957,86.4304,26.5,89,0.0,970.4,7.65,30.2,138,98.3,75.7,47.3,247.0,21.0,122.4,7,5,7,1,2026-07-12T03:22:25.068946+05:30
Bokaro,Jharkhand,23.6693,86.1511,26.9,83,0.0,974.4,9.05,32.0,132,93.6,71.2,35.6,239.0,35.0,103.2,7,5,7,1,2026-07-12T03:22:25.068952+05:30
Bhubaneswar,Odisha,20.2961,85.8245,27.6,86,0.0,994.5,9.05,36.4,106,74.7,48.4,13.2,336.0,59.0,8.1,7,5,7,1,2026-07-12T03:22:25.068958+05:30
Cuttack,Odisha,20.4625,85.8828,27.9,89,0.0,996.1,9.05,37.1,106,74.7,48.4,13.2,343.0,59.0,8.1,7,5,7,1,2026-07-12T03:22:25.068962+05:30
Rourkela,Odisha,22.2604,84.8536,26.3,85,0.0,977.1,8.9,30.6,129,68.2,46.0,14.7,243.0,57.0,21.0,7,5,7,1,2026-07-12T03:22:25.068968+05:30
Raipur,Chhattisgarh,21.2514,81.6296,26.7,75,0.0,967.6,7.05,43.6,114,52.2,34.1,23.4,410.0,45.0,36.3,7,5,7,1,2026-07-12T03:22:25.068973+05:30
Bhilai,Chhattisgarh,21.1938,81.3509,26.6,76,0.0,968.1,8.3,47.9,106,50.9,32.0,19.6,504.0,47.0,29.5,7,5,7,1,2026-07-12T03:22:25.068978+05:30
Guwahati,Assam,26.1158,91.7086,25.8,99,0.2,991.0,3.65,19.1,36,7.0,6.9,5.6,253.0,75.0,1.2,10,5,3,1,2026-07-12T03:22:25.068983+05:30
Agartala,Tripura,23.8315,91.2868,26.0,99,0.0,996.2,7.95,31.0,88,27.2,22.5,7.2,215.0,77.0,2.1,7,5,7,1,2026-07-12T03:22:25.068988+05:30
Shillong,Meghalaya,25.5788,91.8933,20.9,97,0.0,849.3,3.25,19.8,41,1.1,1.0,3.7,287.0,85.0,4.1,3,5,3,1,2026-07-12T03:22:25.068992+05:30
Imphal,Manipur,24.817,93.9368,23.1,99,0.0,914.7,1.45,31.0,28,8.4,7.7,5.8,315.0,48.0,2.1,3,5,3,1,2026-07-12T03:22:25.068996+05:30
Aizawl,Mizoram,23.7271,92.7176,20.0,98,0.0,884.2,4.15,36.4,35,15.0,9.7,2.3,152.0,67.0,2.5,3,5,3,1,2026-07-12T03:22:25.069001+05:30
Kohima,Nagaland,25.6701,94.1077,21.1,89,0.1,848.1,3.45,19.4,25,3.1,2.8,3.5,299.0,62.0,1.1,6,5,3,1,2026-07-12T03:22:25.069006+05:30
Gangtok,Sikkim,27.3314,88.6138,19.2,96,0.4,830.2,7.1,28.4,50,1.6,1.6,3.0,333.0,112.0,1.4,6,10,7,1,2026-07-12T03:22:25.069011+05:30
Siliguri,West Bengal,26.7271,88.3953,25.3,99,0.0,982.3,8.0,19.8,75,7.1,7.1,7.2,378.0,97.0,2.5,7,5,7,1,2026-07-12T03:22:28.439694+05:30
Durgapur,West Bengal,23.5204,87.3119,27.4,87,0.0,985.3,7.1,28.1,137,78.5,64.7,48.3,238.0,21.0,50.0,7,5,7,1,2026-07-12T03:22:28.439729+05:30
Asansol,West Bengal,23.6739,86.9524,27.2,88,0.0,983.9,8.8,30.6,120,75.2,56.5,48.0,1189.0,16.0,50.5,7,5,7,1,2026-07-12T03:22:28.439739+05:30
Pondicherry,Puducherry,11.9139,79.8145,29.3,70,0.0,1004.6,8.7,46.1,70,16.6,12.4,10.5,202.0,59.0,6.8,7,5,4,1,2026-07-12T03:22:28.439748+05:30
Port Blair,Andaman and Nicobar Islands,11.6234,92.7265,25.5,95,0.1,1004.5,8.25,58.0,41,25.7,13.0,0.1,82.0,52.0,0.4,10,5,4,1,2026-07-12T03:22:28.439755+05:30
Haridwar,Uttarakhand,29.9457,78.1642,24.3,99,0.0,963.1,7.45,32.4,109,67.8,64.5,37.4,434.0,27.0,8.1,3,5,7,1,2026-07-12T03:22:28.439762+05:30
Rishikesh,Uttarakhand,30.0869,78.2676,24.4,94,0.0,955.9,7.55,32.8,63,29.2,25.1,13.9,304.0,85.0,5.2,3,5,7,1,2026-07-12T03:22:28.439768+05:30
Nainital,Uttarakhand,29.3919,79.4542,15.8,100,0.1,797.7,8.15,33.1,81,67.8,43.9,12.4,319.0,97.0,9.5,6,10,7,0,2026-07-12T03:22:28.439775+05:30
Mussoorie,Uttarakhand,30.4599,78.0664,15.5,100,0.0,794.6,7.95,41.0,75,34.9,33.1,29.4,321.0,45.0,5.1,3,10,7,0,2026-07-12T03:22:28.439781+05:30
Dharamshala,Himachal Pradesh,32.219,76.3234,21.4,88,0.1,860.5,8.45,36.4,51,13.5,13.4,13.8,508.0,43.0,0.2,6,5,7,1,2026-07-12T03:22:28.439787+05:30
Dalhousie,Himachal Pradesh,32.5387,75.971,14.7,100,0.1,795.7,8.65,28.4,93,49.4,41.6,33.8,458.0,73.0,4.5,6,10,7,0,2026-07-12T03:22:28.439794+05:30
Patiala,Punjab,30.3398,76.3869,27.6,90,0.0,966.3,7.5,36.7,156,73.8,64.0,33.0,671.0,61.0,10.2,7,5,7,1,2026-07-12T03:22:28.439800+05:30
Bhatinda,Punjab,30.211,74.9455,29.9,78,0.0,970.9,8.25,37.4,179,540.2,167.2,19.2,331.0,61.0,8.8,7,5,7,1,2026-07-12T03:22:28.439806+05:30
Rohtak,Haryana,28.8955,76.6066,29.0,79,0.0,970.4,7.6,27.7,625,388.4,114.1,47.0,240.0,17.0,5.6,7,5,7,1,2026-07-12T03:22:28.439811+05:30
Panipat,Haryana,29.3909,76.9635,25.9,91,0.0,969.3,7.45,26.6,672,315.7,135.0,55.9,949.0,17.0,12.0,7,5,7,1,2026-07-12T03:22:28.439817+05:30
Mathura,Uttar Pradesh,27.4924,77.6737,30.0,67,0.0,975.9,7.9,33.5,562,728.3,108.0,20.2,206.0,41.0,4.6,7,5,7,1,2026-07-12T03:22:28.439823+05:30
Vrindavan,Uttar Pradesh,27.5823,77.7027,30.3,65,0.0,976.2,7.9,32.4,562,728.3,108.0,20.2,205.0,41.0,4.6,3,5,7,1,2026-07-12T03:22:28.439828+05:30
Ayodhya,Uttar Pradesh,26.7922,82.1998,26.4,95,0.0,984.6,8.1,31.7,152,92.7,46.1,13.1,250.0,62.0,2.8,7,5,7,1,2026-07-12T03:22:28.439834+05:30
Ratlam,Madhya Pradesh,23.3315,75.0367,24.3,95,0.1,947.4,8.45,52.2,60,18.1,10.6,7.2,122.0,37.0,8.2,6,5,7,1,2026-07-12T03:22:28.439840+05:30
Sagar,Madhya Pradesh,23.8388,78.7378,25.9,79,0.0,942.9,8.6,46.4,81,36.4,22.4,5.6,172.0,65.0,4.1,7,5,7,1,2026-07-12T03:22:28.439845+05:30
Satna,Madhya Pradesh,24.6005,80.8322,27.6,73,0.0,962.7,8.6,42.1,92,36.8,22.7,5.0,173.0,67.0,3.6,7,5,7,1,2026-07-12T03:22:28.439851+05:30
Akola,Maharashtra,20.7002,77.0082,26.3,75,0.0,969.6,8.7,47.2,60,20.5,11.3,7.5,114.0,37.0,6.9,7,5,7,1,2026-07-12T03:22:28.439858+05:30
Amravati,Maharashtra,20.9374,77.7796,26.2,74,0.0,961.5,8.75,46.1,62,22.6,12.1,8.1,114.0,36.0,7.6,7,5,7,1,2026-07-12T03:22:28.439864+05:30
Latur,Maharashtra,18.4088,76.5604,23.3,82,0.0,935.7,8.85,49.7,51,17.8,9.4,5.5,111.0,37.0,3.0,3,5,7,1,2026-07-12T03:22:28.439871+05:30
Nanded,Maharashtra,19.1383,77.3091,26.0,73,0.0,963.9,8.85,42.8,60,18.5,11.3,6.3,124.0,43.0,4.2,7,5,7,1,2026-07-12T03:22:28.439875+05:30
Gulbarga,Karnataka,17.3297,76.8343,24.3,78,0.0,955.1,8.35,54.7,51,24.4,12.0,6.5,112.0,36.0,2.9,3,5,7,1,2026-07-12T03:22:28.439881+05:30
Bidar,Karnataka,17.9104,77.5199,24.1,77,0.0,931.3,8.8,48.2,55,23.9,12.9,6.2,123.0,40.0,2.4,3,5,7,1,2026-07-12T03:22:28.439887+05:30
Hospet,Karnataka,15.2689,76.3909,23.1,90,0.0,953.4,8.45,55.4,41,13.5,6.9,5.7,121.0,35.0,1.8,3,5,7,1,2026-07-12T03:22:28.439892+05:30
Tirupur,Tamil Nadu,11.1085,77.3411,24.7,89,0.0,973.4,8.8,64.8,57,24.6,18.7,22.1,158.0,14.0,4.6,3,5,7,1,2026-07-12T03:22:28.439898+05:30
Alappuzha,Kerala,9.4981,76.3388,26.5,94,0.0,1008.3,7.95,45.4,43,18.7,10.2,6.2,81.0,39.0,2.5,7,0,4,1,2026-07-12T03:22:28.439904+05:30
Munnar,Kerala,10.0889,77.0595,16.1,94,0.0,854.7,8.65,38.5,25,13.7,9.4,10.8,91.0,15.0,1.6,3,10,7,0,2026-07-12T03:22:28.439910+05:30
Silchar,Assam,24.8333,92.7789,26.4,96,0.4,995.3,2.25,21.2,45,37.0,24.3,6.6,272.0,80.0,5.3,10,5,3,1,2026-07-12T03:22:28.439915+05:30
Dibrugarh,Assam,27.4728,94.912,25.8,98,0.1,985.6,4.05,24.1,39,5.0,5.0,8.4,213.0,59.0,0.8,10,5,3,1,2026-07-12T03:22:28.439920+05:30
