city,state,latitude,longitude,temp,humidity,rain,pressure,uv_index,wind_gusts,aqi,pm10,pm2_5,no2,co,o3,so2,mosquito_risk,arthritis_risk,migraine_risk,frizz_risk,updated_at
Delhi,Delhi,28.6139,77.209,31.7,65,0.0,973.3,7.7,28.8,477,676.1,144.8,23.3,422.0,60.0,17.0,3,5,7,1,2026-07-12T09:12:54.738091+05:30
Mumbai,Maharashtra,19.076,72.8777,28.5,80,0.0,1006.2,7.7,54.7,52,32.9,12.9,4.9,142.0,46.0,5.1,7,5,4,1,2026-07-12T09:12:54.738130+05:30
Bangalore,Karnataka,12.9716,77.5946,24.3,68,0.0,911.4,8.9,47.9,51,20.3,9.1,6.6,237.0,38.0,3.7,3,5,7,1,2026-07-12T09:12:54.738144+05:30
Hyderabad,Telangana,17.385,78.4867,27.5,63,0.0,951.4,8.55,51.1,59,25.5,12.4,4.5,178.0,43.0,4.5,7,5,7,1,2026-07-12T09:12:54.738154+05:30
Chennai,Tamil Nadu,13.0827,80.2707,32.7,49,0.0,1004.5,8.45,43.2,76,27.2,17.6,14.0,177.0,44.0,9.9,0,5,4,1,2026-07-12T09:12:54.738161+05:30
Kolkata,West Bengal,22.5726,88.3639,31.0,78,0.0,998.0,6.7,32.4,137,76.4,50.6,7.1,519.0,108.0,20.9,3,5,7,1,2026-07-12T09:12:54.738169+05:30
Pune,Maharashtra,18.5204,73.8567,25.7,77,0.0,945.6,8.4,56.2,35,12.6,5.1,3.4,127.0,43.0,3.9,7,5,7,1,2026-07-12T09:12:54.738176+05:30
Ahmedabad,Gujarat,23.0225,72.5714,29.6,71,0.0,996.2,8.1,51.1,63,35.9,14.5,4.2,124.0,44.0,4.5,7,5,7,1,2026-07-12T09:12:54.738182+05:30
Jaipur,Rajasthan,26.9124,75.7873,28.7,69,0.0,952.0,8.2,39.2,365,594.2,94.1,3.1,135.0,57.0,4.0,7,5,7,1,2026-07-12T09:12:54.738192+05:30
Lucknow,Uttar Pradesh,26.8467,80.9462,31.9,68,0.0,983.9,8.2,36.0,154,85.4,46.9,10.8,283.0,83.0,9.7,3,5,7,1,2026-07-12T09:12:54.738213+05:30
Kanpur,Uttar Pradesh,26.4499,80.3319,32.3,64,0.0,982.7,8.2,37.8,139,82.7,31.4,6.9,169.0,79.0,9.0,3,5,7,1,2026-07-12T09:12:54.738221+05:30
Chandigarh,Chandigarh,30.7333,76.7794,29.2,81,0.0,959.1,7.7,32.0,151,115.7,51.9,9.9,512.0,144.0,11.5,7,5,7,1,2026-07-12T09:12:54.738228+05:30
Srinagar,Jammu and Kashmir,34.0837,74.7973,19.8,89,0.0,835.7,8.4,31.3,50,8.9,8.3,5.6,392.0,118.0,2.6,3,10,7,1,2026-07-12T09:12:54.738235+05:30
Jammu,Jammu and Kashmir,32.7266,74.857,25.0,94,0.2,963.1,8.6,27.0,110,41.0,29.3,12.3,437.0,103.0,3.3,10,5,7,1,2026-07-12T09:12:54.738242+05:30
Amritsar,Punjab,31.634,74.8723,25.1,96,0.4,971.2,8.45,37.1,162,69.4,52.9,11.8,423.0,96.0,5.7,10,5,7,1,2026-07-12T09:12:54.738249+05:30
Ludhiana,Punjab,30.901,75.8573,28.3,84,0.2,969.0,7.95,41.0,166,198.8,78.9,16.9,446.0,106.0,15.6,10,5,7,1,2026-07-12T09:12:54.738255+05:30
Jalandhar,Punjab,31.326,75.5762,26.3,90,0.3,970.3,8.15,47.9,164,115.0,59.8,13.7,409.0,113.0,16.7,10,5,7,1,2026-07-12T09:12:54.738261+05:30
Dehradun,Uttarakhand,30.6284,78.0322,22.4,75,0.0,825.3,7.95,29.9,53,4.4,3.4,2.6,261.0,113.0,0.8,3,5,7,1,2026-07-12T09:12:54.738267+05:30
Shimla,Himachal Pradesh,31.1048,77.1734,20.3,71,0.0,780.4,8.25,31.7,98,58.0,26.5,2.1,228.0,129.0,3.3,3,5,7,0,2026-07-12T09:12:54.738274+05:30
Manali,Himachal Pradesh,32.2396,77.1887,22.3,81,0.0,814.1,9.3,28.4,42,2.1,2.1,7.0,236.0,87.0,0.1,3,5,7,1,2026-07-12T09:12:54.738282+05:30
Gurgaon,Haryana,28.4595,77.0266,31.8,63,0.0,971.8,7.7,30.2,602,858.7,167.6,12.8,219.0,63.0,10.1,3,5,7,1,2026-07-12T09:12:54.738291+05:30
Noida,Uttar Pradesh,28.5355,77.391,32.3,64,0.0,974.8,7.7,27.7,602,858.7,167.6,12.8,362.0,63.0,10.1,3,5,7,1,2026-07-12T09:12:54.738297+05:30
Ghaziabad,Uttar Pradesh,28.6692,77.4538,32.1,65,0.0,972.9,7.7,42.1,393,486.2,131.8,31.6,397.0,68.0,25.0,3,5,7,1,2026-07-12T09:12:54.738304+05:30
Faridabad,Haryana,28.4089,77.3178,31.9,64,0.0,974.1,7.75,28.8,602,858.7,167.6,12.8,312.0,63.0,10.1,3,5,7,1,2026-07-12T09:12:54.738311+05:30
Meerut,Uttar Pradesh,28.9845,77.7064,31.1,78,0.0,971.8,7.55,45.7,393,486.2,131.8,31.6,474.0,68.0,25.0,3,5,7,1,2026-07-12T09:12:54.738317+05:30
Agra,Uttar Pradesh,27.1767,78.0081,31.6,63,0.0,978.8,8.0,37.8,143,224.4,45.5,6.7,185.0,75.0,5.5,3,5,7,1,2026-07-12T09:12:54.738324+05:30
Varanasi,Uttar Pradesh,25.3176,82.9739,31.7,68,0.0,988.5,8.55,42.5,103,41.3,27.4,6.1,247.0,80.0,8.2,3,5,7,1,2026-07-12T09:12:54.738330+05:30
Prayagraj,Uttar Pradesh,25.4358,81.8463,32.3,64,0.0,987.1,8.6,40.7,108,38.8,25.9,6.2,179.0,78.0,8.3,3,5,7,1,2026-07-12T09:12:54.738337+05:30
Gorakhpur,Uttar Pradesh,26.7606,83.3732,30.3,78,0.0,987.4,4.1,37.4,128,125.3,53.8,6.4,341.0,98.0,6.9,3,5,3,1,2026-07-12T09:12:54.738343+05:30
Bareilly,Uttar Pradesh,28.367,79.4304,31.0,77,0.0,977.1,8.0,35.3,157,256.1,81.7,9.2,319.0,104.0,9.7,3,5,7,1,2026-07-12T09:12:54.738355+05:30
Aligarh,Uttar Pradesh,27.8974,78.088,32.0,64,0.0,976.2,7.85,31.7,482,597.9,129.5,9.3,227.0,65.0,5.9,3,5,7,1,2026-07-12T09:12:54.738361+05:30
Moradabad,Uttar Pradesh,28.8386,78.7733,31.0,75,0.0,973.9,7.8,43.9,167,314.8,106.2,11.7,310.0,116.0,15.2,3,5,7,1,2026-07-12T09:12:54.738367+05:30
Saharanpur,Uttar Pradesh,29.9637,77.546,29.7,78,0.0,965.9,7.35,46.1,159,59.6,45.9,8.9,417.0,139.0,11.4,7,5,7,1,2026-07-12T09:12:54.738373+05:30
Jhansi,Uttar Pradesh,25.4484,78.5685,31.0,67,0.0,970.5,8.4,45.0,87,36.7,22.7,5.4,145.0,68.0,10.7,3,5,7,1,2026-07-12T09:12:57.978730+05:30
Surat,Gujarat,21.1702,72.8311,29.7,77,0.1,1002.3,6.05,65.2,56,29.9,15.5,10.1,208.0,37.0,25.0,10,5,4,1,2026-07-12T09:12:57.978763+05:30
Vadodara,Gujarat,22.3072,73.1812,29.4,75,0.0,999.1,8.05,58.7,55,27.9,12.3,4.1,126.0,43.0,4.4,7,5,7,1,2026-07-12T09:12:57.978774+05:30
Rajkot,Gujarat,22.3039,70.8022,29.7,70,0.0,988.1,7.75,60.8,59,38.2,14.9,1.9,96.0,48.0,2.6,7,5,7,1,2026-07-12T09:12:57.978782+05:30
Thane,Maharashtra,19.2183,72.9781,28.9,79,0.1,1005.3,7.8,49.3,52,32.9,12.9,4.9,157.0,46.0,5.1,10,5,4,1,2026-07-12T09:12:57.978791+05:30
Nagpur,Maharashtra,21.1458,79.0882,28.9,65,0.0,969.2,7.7,41.8,78,34.8,15.4,6.9,137.0,45.0,15.3,7,5,7,1,2026-07-12T09:12:57.978799+05:30
Nashik,Maharashtra,19.9975,73.7898,25.7,79,0.0,941.9,8.1,64.8,34,10.7,5.6,4.6,105.0,38.0,4.0,7,5,7,1,2026-07-12T09:12:57.978828+05:30
Aurangabad,Maharashtra,19.8762,75.3433,25.9,73,0.0,940.6,8.95,56.5,48,21.3,8.7,3.9,113.0,44.0,6.8,7,5,7,1,2026-07-12T09:12:57.978837+05:30
Solapur,Maharashtra,17.6599,75.9064,27.1,68,0.0,955.5,8.9,51.8,50,17.1,6.9,2.4,112.0,46.0,2.1,7,5,7,1,2026-07-12T09:12:57.978845+05:30
Kolhapur,Maharashtra,16.705,74.2433,25.0,80,0.0,946.9,8.4,52.6,40,9.7,5.2,3.2,117.0,40.0,2.1,7,5,7,1,2026-07-12T09:12:57.978852+05:30
Goa,Goa,15.2993,74.124,26.5,92,0.1,998.3,6.75,39.6,57,26.7,12.3,1.7,167.0,45.0,1.3,10,5,7,1,2026-07-12T09:12:57.978860+05:30
Jodhpur,Rajasthan,26.2389,73.0243,29.1,67,0.0,974.2,8.45,53.3,194,178.3,49.6,2.4,100.0,51.0,2.6,7,5,7,1,2026-07-12T09:12:57.978866+05:30
Udaipur,Rajasthan,24.5854,73.7125,26.4,74,0.0,939.5,8.8,52.6,67,34.8,15.1,3.3,101.0,44.0,4.2,7,5,7,1,2026-07-12T09:12:57.978873+05:30
Kota,Rajasthan,25.2138,75.8648,29.6,65,0.0,972.1,8.25,38.9,76,52.2,23.9,3.9,120.0,54.0,7.0,7,5,7,1,2026-07-12T09:12:57.978880+05:30
Bikaner,Rajasthan,28.0229,73.3119,30.3,63,0.0,971.9,8.45,42.8,159,238.4,75.2,1.5,101.0,56.0,5.2,3,5,7,1,2026-07-12T09:12:57.978887+05:30
Ajmer,Rajasthan,26.4499,74.6399,27.1,72,0.0,946.8,8.35,51.5,73,59.8,23.7,2.8,110.0,51.0,3.4,7,5,7,1,2026-07-12T09:12:57.978896+05:30
Gwalior,Madhya Pradesh,26.2183,78.1828,30.5,66,0.0,975.1,8.15,42.8,84,35.6,23.7,4.3,136.0,74.0,6.3,3,5,7,1,2026-07-12T09:12:57.978903+05:30
Indore,Madhya Pradesh,22.7196,75.8577,26.0,78,0.1,943.0,8.55,51.8,62,30.7,13.9,5.1,158.0,41.0,7.3,10,5,7,1,2026-07-12T09:12:57.978911+05:30
Bhopal,Madhya Pradesh,23.2599,77.4126,26.9,75,0.0,948.3,8.6,42.8,69,34.5,14.6,3.9,167.0,46.0,6.1,7,5,7,1,2026-07-12T09:12:57.978919+05:30
Jabalpur,Madhya Pradesh,23.1815,79.9864,28.3,74,0.1,956.0,7.05,41.4,77,30.4,17.8,3.3,165.0,67.0,5.6,10,5,7,1,2026-07-12T09:12:57.978927+05:30
Ujjain,Madhya Pradesh,23.1765,75.7885,26.3,77,0.0,948.4,8.45,51.1,60,27.2,12.7,3.8,138.0,42.0,5.3,7,5,7,1,2026-07-12T09:12:57.978935+05:30
Visakhapatnam,Andhra Pradesh,17.6868,83.2185,32.1,66,0.0,998.8,9.0,42.8,105,62.6,40.4,19.2,413.0,78.0,42.1,3,5,7,1,2026-07-12T09:12:57.978942+05:30
Vijayawada,Andhra Pradesh,16.5062,80.648,32.8,51,0.0,999.2,8.1,42.8,91,35.5,19.1,6.1,142.0,59.0,8.8,0,5,7,1,2026-07-12T09:12:57.978949+05:30
Guntur,Andhra Pradesh,16.3067,80.4365,33.2,47,0.0,1000.5,8.55,45.0,82,34.2,16.5,5.4,137.0,55.0,8.9,0,5,4,1,2026-07-12T09:12:57.978956+05:30
Nellore,Andhra Pradesh,14.4426,79.9865,32.0,52,0.0,1003.1,8.35,44.3,72,24.1,10.1,4.0,112.0,50.0,5.6,0,5,4,1,2026-07-12T09:12:57.978965+05:30
Kurnool,Andhra Pradesh,15.8281,78.0373,28.9,61,0.0,975.8,8.2,46.4,56,24.8,10.4,4.0,115.0,42.0,3.1,7,5,7,1,2026-07-12T09:12:57.978973+05:30
Kakinada,Andhra Pradesh,16.9891,82.2475,32.6,63,0.0,1003.0,8.25,44.6,93,46.4,27.9,4.3,226.0,109.0,5.2,3,5,4,1,2026-07-12T09:12:57.978981+05:30
Tirupati,Andhra Pradesh,13.6288,79.4192,31.4,52,0.0,988.7,8.75,33.1,80,24.3,9.7,3.1,116.0,51.0,1.7,0,5,7,1,2026-07-12T09:12:57.978988+05:30
Warangal,Telangana,17.9689,79.5941,29.4,63,0.0,976.0,8.85,43.9,74,25.8,14.3,3.4,141.0,52.0,2.8,7,5,7,1,2026-07-12T09:12:57.978994+05:30
Nizamabad,Telangana,18.6725,78.0941,27.6,67,0.0,962.5,8.95,44.3,63,25.8,11.4,4.0,130.0,43.0,5.7,7,5,7,1,2026-07-12T09:12:57.979002+05:30
Mysore,Karnataka,12.2958,76.6396,25.1,72,0.0,928.6,8.5,47.5,38,18.0,8.6,4.5,118.0,42.0,2.0,7,5,7,1,2026-07-12T09:12:57.979009+05:30
Mangalore,Karnataka,12.9141,74.856,27.2,88,0.0,1007.9,6.6,44.3,44,18.6,10.1,4.0,128.0,43.0,3.3,7,5,4,1,2026-07-12T09:12:57.979016+05:30
Hubli-Dharwad,Karnataka,15.3647,75.124,25.2,75,0.0,940.5,8.85,54.0,33,14.7,6.2,2.3,98.0,43.0,1.4,7,5,7,1,2026-07-12T09:12:57.979023+05:30
Belgaum,Karnataka,15.8497,74.4977,24.3,78,0.0,925.2,9.0,50.8,36,10.4,4.9,2.9,97.0,41.0,2.0,3,5,7,1,2026-07-12T09:13:01.224858+05:30
Coimbatore,Tamil Nadu,11.0168,76.9558,27.1,73,0.0,961.4,8.15,56.5,41,23.4,10.5,4.1,177.0,48.0,3.5,7,5,7,1,2026-07-12T09:13:01.224890+05:30
Madurai,Tamil Nadu,9.9252,78.1198,31.1,55,0.0,992.2,7.95,38.2,64,26.6,13.3,10.6,141.0,49.0,5.8,0,5,7,1,2026-07-12T09:13:01.224901+05:30
Trichy,Tamil Nadu,10.7905,78.7047,31.8,54,0.0,998.5,8.1,51.5,48,19.4,9.9,4.2,117.0,46.0,3.8,0,5,7,1,2026-07-12T09:13:01.224909+05:30
Salem,Tamil Nadu,11.6643,78.146,28.0,75,0.0,976.8,8.65,29.2,63,28.0,17.3,12.6,142.0,46.0,11.6,7,5,7,1,2026-07-12T09:13:01.224918+05:30
Tirunelveli,Tamil Nadu,8.7139,77.7567,32.6,52,0.0,1002.8,8.05,42.1,28,9.4,5.0,2.5,121.0,49.0,2.0,0,5,4,1,2026-07-12T09:13:01.224925+05:30
Vellore,Tamil Nadu,12.9165,79.1325,30.8,55,0.0,982.4,8.15,40.0,71,23.6,10.9,5.1,145.0,49.0,3.9,0,5,7,1,2026-07-12T09:13:01.224933+05:30
Erode,Tamil Nadu,11.341,77.7172,30.4,57,0.0,988.5,8.5,53.6,55,20.0,11.9,8.0,187.0,42.0,3.6,0,5,7,1,2026-07-12T09:13:01.224941+05:30
Kochi,Kerala,9.9312,76.2673,28.0,83,0.0,1010.0,7.95,41.4,48,17.2,9.6,5.2,125.0,43.0,4.0,7,0,4,1,2026-07-12T09:13:01.224948+05:30
Thiruvananthapuram,Kerala,8.5241,76.9366,27.1,85,0.1,1009.4,7.7,47.2,34,14.7,7.9,3.7,128.0,45.0,2.0,10,0,4,1,2026-07-12T09:13:01.224955+05:30
Kozhikode,Kerala,11.2588,75.7804,27.7,83,0.0,1008.9,8.15,44.6,37,17.0,7.9,1.8,133.0,48.0,2.0,7,0,4,1,2026-07-12T09:13:01.224962+05:30
Thrissur,Kerala,10.5276,76.2144,27.7,85,0.1,1008.2,7.65,39.2,41,17.6,11.1,4.9,141.0,42.0,3.2,10,0,4,1,2026-07-12T09:13:01.224971+05:30
Kannur,Kerala,11.8745,75.3704,28.3,79,0.0,1008.1,8.35,42.8,40,16.2,9.1,3.9,129.0,45.0,2.9,7,0,4,1,2026-07-12T09:13:01.224978+05:30
Patna,Bihar,25.5941,85.1376,30.5,73,0.0,991.1,8.05,42.5,123,85.9,52.4,9.2,352.0,90.0,11.6,3,5,7,1,2026-07-12T09:13:01.224985+05:30
Gaya,Bihar,24.7914,85.0002,31.5,65,0.0,985.1,8.65,38.9,101,58.8,36.9,10.2,213.0,71.0,17.8,3,5,7,1,2026-07-12T09:13:01.224992+05:30
Muzaffarpur,Bihar,26.1209,85.3647,29.8,82,0.0,990.7,7.0,39.6,113,89.4,46.4,7.1,335.0,95.0,8.6,7,5,7,1,2026-07-12T09:13:01.224998+05:30
Bhagalpur,Bihar,25.2425,87.0117,29.7,84,0.1,992.1,7.55,32.4,94,72.4,46.3,8.6,271.0,93.0,13.5,10,5,7,1,2026-07-12T09:13:01.225005+05:30
Ranchi,Jharkhand,23.3441,85.3096,28.3,68,0.0,931.3,9.05,34.2,95,60.5,32.9,3.8,213.0,88.0,9.4,7,5,7,1,2026-07-12T09:13:01.225012+05:30
Jamshedpur,Jharkhand,22.8046,86.2029,30.5,73,0.0,983.4,9.05,29.9,120,66.4,45.5,11.0,248.0,88.0,36.2,3,5,7,1,2026-07-12T09:13:01.225018+05:30
Dhanbad,Jharkhand,23.7957,86.4304,30.4,72,0.0,972.0,9.0,28.1,147,72.4,52.4,23.7,243.0,71.0,64.4,3,5,7,1,2026-07-12T09:13:01.225025+05:30
Bokaro,Jharkhand,23.6693,86.1511,30.8,67,0.0,975.9,9.05,32.4,137,66.4,42.7,15.0,233.0,80.0,45.4,3,5,7,1,2026-07-12T09:13:01.225032+05:30
Bhubaneswar,Odisha,20.2961,85.8245,30.9,71,0.0,996.2,9.0,39.6,123,88.9,49.9,5.6,214.0,102.0,7.5,3,5,7,1,2026-07-12T09:13:01.225038+05:30
Cuttack,Odisha,20.4625,85.8828,31.4,68,0.0,997.9,9.05,37.4,123,88.9,49.9,5.6,234.0,102.0,7.5,3,5,7,1,2026-07-12T09:13:01.225045+05:30
Rourkela,Odisha,22.2604,84.8536,30.5,69,0.0,978.5,8.9,32.4,122,67.8,41.7,9.1,305.0,82.0,21.9,3,5,7,1,2026-07-12T09:13:01.225051+05:30
Raipur,Chhattisgarh,21.2514,81.6296,30.2,63,0.0,969.5,7.1,43.9,108,52.9,35.3,19.4,223.0,51.0,49.8,3,5,7,1,2026-07-12T09:13:01.225058+05:30
Bhilai,Chhattisgarh,21.1938,81.3509,29.9,64,0.0,970.1,7.2,48.2,101,46.8,29.7,14.5,507.0,61.0,38.8,7,5,7,1,2026-07-12T09:13:01.225065+05:30
Guwahati,Assam,26.1158,91.7086,26.1,98,1.2,992.7,4.55,14.4,34,6.1,6.0,5.5,311.0,76.0,1.6,10,5,3,1,2026-07-12T09:13:01.225071+05:30
Agartala,Tripura,23.8315,91.2868,26.0,97,0.4,998.1,8.05,33.5,89,21.0,20.1,9.1,207.0,74.0,1.7,10,5,7,1,2026-07-12T09:13:01.225077+05:30
Shillong,Meghalaya,25.5788,91.8933,21.6,94,0.2,851.2,2.45,31.3,37,1.9,1.7,5.1,252.0,70.0,3.7,6,5,3,1,2026-07-12T09:13:01.225083+05:30
Imphal,Manipur,24.817,93.9368,26.5,79,0.0,917.3,4.15,29.2,31,33.1,15.9,1.6,201.0,101.0,3.4,7,5,3,1,2026-07-12T09:13:01.225090+05:30
Aizawl,Mizoram,23.7271,92.7176,22.4,84,0.1,887.0,8.55,38.5,32,25.4,11.4,1.3,148.0,85.0,3.0,6,5,7,1,2026-07-12T09:13:01.225097+05:30
Kohima,Nagaland,25.6701,94.1077,24.6,78,0.1,850.7,7.4,22.3,29,11.7,6.8,1.0,237.0,99.0,2.2,6,5,7,1,2026-07-12T09:13:01.225103+05:30
Gangtok,Sikkim,27.3314,88.6138,21.8,90,0.0,832.1,6.75,32.0,53,2.4,2.4,2.1,239.0,113.0,1.8,3,5,7,1,2026-07-12T09:13:01.225110+05:30
Siliguri,West Bengal,26.7271,88.3953,28.7,83,0.0,983.6,6.6,24.8,59,7.9,7.8,5.2,372.0,101.0,2.7,7,5,7,1,2026-07-12T09:13:04.531174+05:30
Durgapur,West Bengal,23.5204,87.3119,31.1,73,0.0,986.8,9.0,26.3,148,79.6,64.0,34.9,415.0,56.0,76.7,3,5,7,1,2026-07-12T09:13:04.531206+05:30
Asansol,West Bengal,23.6739,86.9524,31.0,71,0.0,985.4,5.5,28.4,129,73.3,55.5,26.8,839.0,65.0,63.0,3,5,3,1,2026-07-12T09:13:04.531217+05:30
Pondicherry,Puducherry,11.9139,79.8145,32.0,57,0.0,1006.3,8.6,43.6,69,24.5,17.0,12.5,189.0,44.0,7.3,0,5,4,1,2026-07-12T09:13:04.531226+05:30
Port Blair,Andaman and Nicobar Islands,11.6234,92.7265,29.8,73,0.1,1005.8,8.5,58.3,48,31.2,15.0,0.2,87.0,47.0,0.4,10,5,4,1,2026-07-12T09:13:04.531235+05:30
Haridwar,Uttarakhand,29.9457,78.1642,30.2,75,0.0,964.5,7.45,37.4,125,32.9,27.3,4.6,297.0,141.0,7.7,3,5,7,1,2026-07-12T09:13:04.531243+05:30
Rishikesh,Uttarakhand,30.0869,78.2676,29.5,74,0.0,957.4,7.5,35.6,69,22.9,14.3,2.2,288.0,135.0,4.4,7,5,7,1,2026-07-12T09:13:04.531251+05:30
Nainital,Uttarakhand,29.3919,79.4542,21.3,71,0.0,801.2,6.65,34.9,96,52.7,33.5,3.9,233.0,136.0,6.1,3,5,7,0,2026-07-12T09:13:04.531259+05:30
Mussoorie,Uttarakhand,30.4599,78.0664,21.0,75,0.0,798.6,7.9,42.1,82,15.0,14.0,3.8,290.0,139.0,4.5,3,5,7,1,2026-07-12T09:13:04.531267+05:30
Dharamshala,Himachal Pradesh,32.219,76.3234,23.3,88,0.0,862.3,8.45,27.0,52,5.8,5.3,1.6,321.0,128.0,1.2,3,5,7,1,2026-07-12T09:13:04.531275+05:30
Dalhousie,Himachal Pradesh,32.5387,75.971,20.0,84,0.0,799.4,8.65,23.8,94,15.0,13.2,6.3,330.0,126.0,2.0,3,5,7,1,2026-07-12T09:13:04.531283+05:30
Patiala,Punjab,30.3398,76.3869,29.8,81,0.0,968.1,7.5,33.1,158,252.4,84.1,12.2,450.0,115.0,16.6,7,5,7,1,2026-07-12T09:13:04.531290+05:30
Bhatinda,Punjab,30.211,74.9455,31.3,69,0.0,973.5,8.25,34.9,282,581.1,190.0,13.6,242.0,67.0,6.2,3,5,7,1,2026-07-12T09:13:04.531297+05:30
Rohtak,Haryana,28.8955,76.6066,32.2,63,0.0,971.9,7.6,33.8,722,1341.1,212.8,6.0,180.0,68.0,3.7,3,5,7,1,2026-07-12T09:13:04.531305+05:30
Panipat,Haryana,29.3909,76.9635,31.2,75,0.0,970.2,7.45,51.8,744,1475.2,230.0,14.0,497.0,60.0,6.7,3,5,7,1,2026-07-12T09:13:04.531312+05:30
Mathura,Uttar Pradesh,27.4924,77.6737,31.7,63,0.0,977.6,7.95,35.6,693,1009.6,133.6,7.8,201.0,63.0,4.7,3,5,7,1,2026-07-12T09:13:04.531319+05:30
Vrindavan,Uttar Pradesh,27.5823,77.7027,31.9,62,0.0,978.0,7.9,34.6,693,1009.6,133.6,7.8,203.0,63.0,4.7,3,5,7,1,2026-07-12T09:13:04.531326+05:30
Ayodhya,Uttar Pradesh,26.7922,82.1998,31.4,74,0.0,985.7,8.35,37.8,152,104.5,50.2,6.4,289.0,89.0,5.5,3,5,7,1,2026-07-12T09:13:04.531333+05:30
Ratlam,Madhya Pradesh,23.3315,75.0367,25.8,81,0.1,949.2,8.45,51.5,59,28.2,12.7,3.5,110.0,43.0,5.1,10,5,7,1,2026-07-12T09:13:04.531341+05:30
Sagar,Madhya Pradesh,23.8388,78.7378,28.0,74,0.0,944.6,7.9,47.5,75,32.2,16.9,2.8,143.0,58.0,6.0,7,5,7,1,2026-07-12T09:13:04.531348+05:30
Satna,Madhya Pradesh,24.6005,80.8322,30.6,66,0.0,964.2,8.45,44.6,86,38.8,23.1,2.9,161.0,81.0,4.8,3,5,7,1,2026-07-12T09:13:04.531355+05:30
Akola,Maharashtra,20.7002,77.0082,28.5,65,0.0,971.8,7.1,45.7,59,27.8,11.6,4.6,105.0,41.0,7.7,7,5,7,1,2026-07-12T09:13:04.531363+05:30
Amravati,Maharashtra,20.9374,77.7796,27.3,71,0.1,964.0,6.1,48.2,61,29.6,12.4,5.0,118.0,40.0,8.9,10,5,7,1,2026-07-12T09:13:04.531371+05:30
Latur,Maharashtra,18.4088,76.5604,26.7,64,0.0,937.6,8.65,49.3,52,20.1,7.9,2.4,117.0,44.0,2.6,7,5,7,1,2026-07-12T09:13:04.531377+05:30
Nanded,Maharashtra,19.1383,77.3091,27.5,69,0.0,966.1,8.85,43.2,59,24.7,10.9,3.5,125.0,45.0,4.7,7,5,7,1,2026-07-12T09:13:04.531384+05:30
Gulbarga,Karnataka,17.3297,76.8343,27.1,66,0.0,957.2,8.6,51.1,51,18.5,8.0,3.6,117.0,42.0,3.0,7,5,7,1,2026-07-12T09:13:04.531391+05:30
Bidar,Karnataka,17.9104,77.5199,26.2,69,0.0,933.6,8.9,49.0,56,23.2,10.4,3.1,116.0,44.0,2.1,7,5,7,1,2026-07-12T09:13:04.531397+05:30
Hospet,Karnataka,15.2689,76.3909,26.2,70,0.0,955.4,8.2,53.6,42,16.0,7.1,3.0,106.0,40.0,2.0,7,5,7,1,2026-07-12T09:13:04.531404+05:30
Tirupur,Tamil Nadu,11.1085,77.3411,28.3,65,0.0,974.9,8.35,67.0,58,22.6,13.0,8.4,163.0,45.0,4.1,7,5,7,1,2026-07-12T09:13:04.531410+05:30
Alappuzha,Kerala,9.4981,76.3388,28.1,83,0.0,1010.1,7.8,43.2,43,18.7,9.9,4.5,87.0,46.0,3.5,7,0,4,1,2026-07-12T09:13:04.531417+05:30
Munnar,Kerala,10.0889,77.0595,19.4,83,0.0,858.0,8.05,37.8,28,13.8,5.9,2.2,95.0,45.0,1.6,3,10,7,1,2026-07-12T09:13:04.531425+05:30
Silchar,Assam,24.8333,92.7789,27.9,89,0.0,997.7,2.7,28.1,57,36.6,22.8,4.0,240.0,79.0,5.4,7,5,3,1,2026-07-12T09:13:04.531432+05:30
Dibrugarh,Assam,27.4728,94.912,28.7,85,0.1,987.4,1.7,23.8,34,5.3,5.2,2.8,243.0,94.0,1.2,10,5,3,1,2026-07-12T09:13:04.531439+05:30
