city,state,latitude,longitude,temp,humidity,rain,pressure,uv_index,wind_gusts,aqi,pm10,pm2_5,mosquito_risk,arthritis_risk,migraine_risk,frizz_risk,updated_at
Delhi,Delhi,28.6139,77.209,32.9,24,0.0,982.5,7.2,34.9,273,460.1,54.1,0,5,7,0,2026-04-12T15:19:44.953483+05:30
Mumbai,Maharashtra,19.076,72.8777,29.5,76,0.0,1005.4,8.0,22.7,137,55.6,37.8,7,5,4,1,2026-04-12T15:19:44.953531+05:30
Bangalore,Karnataka,12.9716,77.5946,34.6,30,0.0,910.7,9.7,31.7,97,36.9,27.1,0,5,7,0,2026-04-12T15:19:44.953548+05:30
Hyderabad,Telangana,17.385,78.4867,39.8,19,0.0,950.8,9.25,28.1,96,34.1,23.2,0,5,10,0,2026-04-12T15:19:44.953558+05:30
Chennai,Tamil Nadu,13.0827,80.2707,34.1,50,0.0,1005.8,9.4,34.9,51,20.8,11.6,0,5,4,1,2026-04-12T15:19:44.953571+05:30
Kolkata,West Bengal,22.5726,88.3639,34.9,35,0.0,1003.0,8.8,23.0,136,134.6,39.1,0,5,4,1,2026-04-12T15:19:44.953581+05:30
Pune,Maharashtra,18.5204,73.8567,40.3,20,0.0,946.1,8.55,41.8,125,32.5,20.7,0,5,10,0,2026-04-12T15:19:44.953591+05:30
Ahmedabad,Gujarat,23.0225,72.5714,41.3,14,0.0,999.2,8.1,21.2,104,61.0,15.9,0,5,10,0,2026-04-12T15:19:44.953598+05:30
Jaipur,Rajasthan,26.9124,75.7873,34.9,13,0.0,960.0,7.85,29.5,165,200.7,30.0,0,5,7,0,2026-04-12T15:19:44.953606+05:30
Lucknow,Uttar Pradesh,26.8467,80.9462,35.8,22,0.0,990.9,7.7,31.7,161,147.1,30.7,0,5,10,0,2026-04-12T15:19:44.953615+05:30
Kanpur,Uttar Pradesh,26.4499,80.3319,34.3,30,0.0,989.8,7.75,25.2,425,328.8,46.4,0,5,7,0,2026-04-12T15:19:44.953622+05:30
Chandigarh,Chandigarh,30.7333,76.7794,30.3,34,0.0,968.6,7.1,31.7,95,43.9,17.6,0,5,7,0,2026-04-12T15:19:44.953630+05:30
Srinagar,Jammu and Kashmir,34.0837,74.7973,18.6,40,0.0,841.8,8.05,14.0,78,18.2,7.9,0,5,7,0,2026-04-12T15:19:44.953637+05:30
Jammu,Jammu and Kashmir,32.7266,74.857,30.4,33,0.0,972.9,7.8,26.3,71,47.8,12.7,0,5,7,0,2026-04-12T15:19:44.953644+05:30
Amritsar,Punjab,31.634,74.8723,30.0,34,0.0,981.4,7.75,25.2,81,45.1,14.8,4,5,7,0,2026-04-12T15:19:44.953651+05:30
Ludhiana,Punjab,30.901,75.8573,30.9,30,0.0,979.0,7.4,30.2,78,60.8,16.6,0,5,7,0,2026-04-12T15:19:44.953658+05:30
Jalandhar,Punjab,31.326,75.5762,30.3,33,0.0,980.2,7.55,27.0,79,66.8,17.2,0,5,7,0,2026-04-12T15:19:44.953671+05:30
Dehradun,Uttarakhand,30.6284,78.0322,19.3,54,0.0,830.0,7.45,36.0,95,38.3,12.1,0,5,7,0,2026-04-12T15:19:44.953678+05:30
Shimla,Himachal Pradesh,31.1048,77.1734,17.7,50,0.0,785.2,7.65,43.2,98,41.8,15.0,0,5,7,0,2026-04-12T15:19:44.953685+05:30
Manali,Himachal Pradesh,32.2396,77.1887,18.9,49,0.0,819.6,9.85,25.6,143,15.1,6.1,0,5,7,0,2026-04-12T15:19:44.953693+05:30
Gurgaon,Haryana,28.4595,77.0266,33.0,23,0.0,981.1,7.3,33.5,804,1736.0,158.8,0,5,7,0,2026-04-12T15:19:44.953700+05:30
Noida,Uttar Pradesh,28.5355,77.391,33.1,24,0.0,983.9,7.25,34.2,804,1736.0,158.8,0,5,7,0,2026-04-12T15:19:44.953707+05:30
Ghaziabad,Uttar Pradesh,28.6692,77.4538,32.6,26,0.0,982.1,7.2,33.1,175,302.7,42.5,0,5,7,0,2026-04-12T15:19:44.953713+05:30
Faridabad,Haryana,28.4089,77.3178,33.1,24,0.0,983.4,7.3,33.5,804,1736.0,158.8,0,5,7,0,2026-04-12T15:19:44.953719+05:30
Meerut,Uttar Pradesh,28.9845,77.7064,32.2,28,0.0,980.7,7.1,33.8,175,302.7,42.5,0,5,7,0,2026-04-12T15:19:44.953725+05:30
Agra,Uttar Pradesh,27.1767,78.0081,35.0,18,0.0,987.0,7.6,33.5,423,853.1,88.5,0,5,7,0,2026-04-12T15:19:44.953732+05:30
Varanasi,Uttar Pradesh,25.3176,82.9739,38.2,19,0.0,994.1,8.3,28.8,137,145.3,31.3,0,5,10,0,2026-04-12T15:19:44.953741+05:30
Prayagraj,Uttar Pradesh,25.4358,81.8463,38.1,20,0.0,992.4,8.2,26.3,161,162.5,34.7,0,5,10,0,2026-04-12T15:19:44.953764+05:30
Gorakhpur,Uttar Pradesh,26.7606,83.3732,37.2,17,0.0,993.4,8.15,38.9,96,66.1,20.8,0,5,10,0,2026-04-12T15:19:44.953774+05:30
Bareilly,Uttar Pradesh,28.367,79.4304,33.4,26,0.0,985.2,7.45,35.6,84,66.4,18.9,0,5,7,0,2026-04-12T15:19:44.953780+05:30
Aligarh,Uttar Pradesh,27.8974,78.088,34.3,21,0.0,984.6,7.4,34.6,447,1061.7,105.7,0,5,7,0,2026-04-12T15:19:44.953787+05:30
Moradabad,Uttar Pradesh,28.8386,78.7733,32.3,29,0.0,982.5,7.25,36.0,97,60.5,17.9,0,5,7,0,2026-04-12T15:19:44.953793+05:30
Saharanpur,Uttar Pradesh,29.9637,77.546,30.9,31,0.0,975.0,6.9,34.2,99,92.0,21.3,0,5,7,0,2026-04-12T15:19:44.953799+05:30
Jhansi,Uttar Pradesh,25.4484,78.5685,36.6,24,0.0,976.5,8.15,36.0,79,129.0,26.0,0,5,10,0,2026-04-12T15:19:48.243436+05:30
Surat,Gujarat,21.1702,72.8311,35.8,45,0.0,1004.2,7.8,27.0,147,76.4,42.5,0,5,7,1,2026-04-12T15:19:48.243473+05:30
Vadodara,Gujarat,22.3072,73.1812,40.4,19,0.0,1001.5,8.05,19.8,120,71.2,25.1,0,5,7,0,2026-04-12T15:19:48.243484+05:30
Rajkot,Gujarat,22.3039,70.8022,39.4,20,0.0,992.1,7.8,25.6,74,66.4,20.1,0,5,10,0,2026-04-12T15:19:48.243492+05:30
Thane,Maharashtra,19.2183,72.9781,33.8,50,0.0,1005.2,8.0,36.4,137,55.6,37.8,0,5,4,1,2026-04-12T15:19:48.243499+05:30
Nagpur,Maharashtra,21.1458,79.0882,37.0,25,0.0,970.9,8.8,16.6,127,25.9,18.6,0,5,10,0,2026-04-12T15:19:48.243506+05:30
Nashik,Maharashtra,19.9975,73.7898,37.9,19,0.0,944.1,8.25,28.1,138,40.9,22.9,0,5,10,0,2026-04-12T15:19:48.243513+05:30
Aurangabad,Maharashtra,19.8762,75.3433,39.5,15,0.0,942.2,8.95,28.4,146,34.1,20.7,0,5,10,0,2026-04-12T15:19:48.243520+05:30
Solapur,Maharashtra,17.6599,75.9064,41.1,17,0.0,954.0,9.05,27.0,101,41.1,29.0,0,5,10,0,2026-04-12T15:19:48.243527+05:30
Kolhapur,Maharashtra,16.705,74.2433,38.8,19,0.0,945.5,9.05,45.7,96,37.8,27.7,0,5,10,0,2026-04-12T15:19:48.243534+05:30
Goa,Goa,15.2993,74.124,31.8,65,0.0,995.3,9.05,31.0,104,41.0,27.0,3,5,7,1,2026-04-12T15:19:48.243542+05:30
Jodhpur,Rajasthan,26.2389,73.0243,35.9,17,0.0,983.3,8.1,16.2,96,78.5,17.8,0,5,10,0,2026-04-12T15:19:48.243549+05:30
Udaipur,Rajasthan,24.5854,73.7125,35.9,17,0.0,946.6,8.7,26.3,55,31.2,7.6,0,5,10,0,2026-04-12T15:19:48.243556+05:30
Kota,Rajasthan,25.2138,75.8648,35.9,25,0.0,978.1,8.15,22.7,65,174.6,32.9,0,5,10,0,2026-04-12T15:19:48.243563+05:30
Bikaner,Rajasthan,28.0229,73.3119,35.9,15,0.0,982.1,7.95,21.6,88,59.4,16.4,0,5,10,0,2026-04-12T15:19:48.243570+05:30
Ajmer,Rajasthan,26.4499,74.6399,34.6,14,0.0,955.3,8.05,26.3,84,106.9,22.9,0,5,7,0,2026-04-12T15:19:48.243576+05:30
Gwalior,Madhya Pradesh,26.2183,78.1828,34.6,28,0.0,982.5,7.85,31.7,111,190.5,34.3,0,5,7,0,2026-04-12T15:19:48.243583+05:30
Indore,Madhya Pradesh,22.7196,75.8577,36.3,20,0.0,947.2,8.55,27.7,81,24.1,12.3,0,5,10,0,2026-04-12T15:19:48.243590+05:30
Bhopal,Madhya Pradesh,23.2599,77.4126,38.7,15,0.0,952.0,8.5,32.4,94,19.4,11.1,0,5,10,0,2026-04-12T15:19:48.243597+05:30
Jabalpur,Madhya Pradesh,23.1815,79.9864,38.1,15,0.0,959.2,8.65,34.2,97,20.5,10.2,0,5,10,0,2026-04-12T15:19:48.243603+05:30
Ujjain,Madhya Pradesh,23.1765,75.7885,36.7,21,0.0,952.8,8.45,26.3,71,38.3,15.9,0,5,10,0,2026-04-12T15:19:48.243610+05:30
Visakhapatnam,Andhra Pradesh,17.6868,83.2185,32.8,62,0.0,1002.1,9.2,38.9,83,35.4,24.9,3,5,4,1,2026-04-12T15:19:48.243617+05:30
Vijayawada,Andhra Pradesh,16.5062,80.648,38.0,41,0.0,999.6,9.25,36.0,64,30.3,20.8,0,5,10,1,2026-04-12T15:19:48.243623+05:30
Guntur,Andhra Pradesh,16.3067,80.4365,37.2,41,0.0,1001.2,9.25,36.0,63,30.7,21.1,0,5,7,1,2026-04-12T15:19:48.243630+05:30
Nellore,Andhra Pradesh,14.4426,79.9865,37.4,40,0.0,1003.4,9.35,34.9,57,34.8,23.5,0,5,7,1,2026-04-12T15:19:48.243637+05:30
Kurnool,Andhra Pradesh,15.8281,78.0373,41.0,22,0.0,973.6,9.25,30.6,90,36.7,24.1,0,5,10,0,2026-04-12T15:19:48.243645+05:30
Kakinada,Andhra Pradesh,16.9891,82.2475,36.0,49,0.0,1005.0,9.2,36.7,58,24.6,13.1,0,5,7,1,2026-04-12T15:19:48.243652+05:30
Tirupati,Andhra Pradesh,13.6288,79.4192,37.2,32,0.0,989.2,9.45,34.9,70,36.7,26.2,0,5,10,1,2026-04-12T15:19:48.243658+05:30
Warangal,Telangana,17.9689,79.5941,39.5,27,0.0,975.8,9.1,29.5,99,28.7,19.9,0,5,10,1,2026-04-12T15:19:48.243665+05:30
Nizamabad,Telangana,18.6725,78.0941,39.8,21,0.0,962.3,9.05,25.6,138,40.9,27.6,0,5,10,0,2026-04-12T15:19:48.243671+05:30
Mysore,Karnataka,12.2958,76.6396,35.6,31,0.0,926.7,9.55,37.4,104,36.2,25.9,0,5,10,0,2026-04-12T15:19:48.243677+05:30
Mangalore,Karnataka,12.9141,74.856,29.7,78,0.0,1004.2,9.2,22.3,95,64.3,32.6,7,5,4,1,2026-04-12T15:19:48.243684+05:30
Hubli-Dharwad,Karnataka,15.3647,75.124,37.4,28,0.0,938.5,9.25,37.4,92,42.6,30.6,0,5,10,0,2026-04-12T15:19:48.243690+05:30
Belgaum,Karnataka,15.8497,74.4977,36.7,27,0.0,924.1,9.3,46.1,105,38.9,28.2,0,5,10,0,2026-04-12T15:19:51.535220+05:30
Coimbatore,Tamil Nadu,11.0168,76.9558,36.6,31,0.0,959.5,9.5,38.9,100,32.5,23.7,0,5,10,1,2026-04-12T15:19:51.535264+05:30
Madurai,Tamil Nadu,9.9252,78.1198,37.7,34,0.0,990.3,9.4,32.0,92,27.0,19.0,0,5,10,1,2026-04-12T15:19:51.535275+05:30
Trichy,Tamil Nadu,10.7905,78.7047,37.3,37,0.0,997.0,9.4,26.3,74,22.1,14.5,0,5,10,1,2026-04-12T15:19:51.535283+05:30
Salem,Tamil Nadu,11.6643,78.146,37.7,31,0.0,974.7,9.45,25.9,83,32.5,21.8,0,5,10,1,2026-04-12T15:19:51.535291+05:30
Tirunelveli,Tamil Nadu,8.7139,77.7567,37.5,36,0.0,1000.2,9.35,40.7,89,28.1,21.2,0,5,7,1,2026-04-12T15:19:51.535299+05:30
Vellore,Tamil Nadu,12.9165,79.1325,36.8,31,0.0,982.6,9.5,32.8,87,40.0,29.8,0,5,10,1,2026-04-12T15:19:51.535306+05:30
Erode,Tamil Nadu,11.341,77.7172,38.5,31,0.0,986.1,9.45,29.2,74,29.1,19.2,0,5,10,1,2026-04-12T15:19:51.535313+05:30
Kochi,Kerala,9.9312,76.2673,29.6,81,0.0,1005.8,8.7,30.6,97,52.6,33.3,7,5,4,1,2026-04-12T15:19:51.535321+05:30
Thiruvananthapuram,Kerala,8.5241,76.9366,29.7,81,0.0,1005.3,9.2,21.6,79,52.0,26.4,7,5,4,1,2026-04-12T15:19:51.535330+05:30
Kozhikode,Kerala,11.2588,75.7804,31.1,73,0.0,1005.4,9.1,31.7,85,69.4,34.3,3,5,4,1,2026-04-12T15:19:51.535337+05:30
Thrissur,Kerala,10.5276,76.2144,33.1,61,0.0,1004.2,8.15,34.9,90,65.4,40.2,3,5,4,1,2026-04-12T15:19:51.535344+05:30
Kannur,Kerala,11.8745,75.3704,31.6,67,0.0,1004.7,9.2,33.5,106,72.4,35.2,3,5,4,1,2026-04-12T15:19:51.535351+05:30
Patna,Bihar,25.5941,85.1376,36.9,19,0.0,996.4,8.45,40.3,113,68.0,21.4,0,5,10,0,2026-04-12T15:19:51.535358+05:30
Gaya,Bihar,24.7914,85.0002,37.2,20,0.0,990.3,8.55,32.8,113,104.8,25.7,0,5,10,0,2026-04-12T15:19:51.535365+05:30
Muzaffarpur,Bihar,26.1209,85.3647,36.6,21,0.0,996.2,8.45,40.3,151,75.2,25.2,0,5,10,0,2026-04-12T15:19:51.535372+05:30
Bhagalpur,Bihar,25.2425,87.0117,34.2,32,0.0,997.6,8.5,32.0,151,95.7,30.6,0,5,7,0,2026-04-12T15:19:51.535378+05:30
Ranchi,Jharkhand,23.3441,85.3096,33.9,19,0.0,936.4,9.1,37.1,120,55.1,13.4,0,5,7,0,2026-04-12T15:19:51.535384+05:30
Jamshedpur,Jharkhand,22.8046,86.2029,36.3,27,0.0,988.0,8.9,19.4,139,96.6,23.3,0,5,10,0,2026-04-12T15:19:51.535391+05:30
Dhanbad,Jharkhand,23.7957,86.4304,37.6,16,0.0,976.7,8.85,37.8,134,91.3,23.5,0,5,10,0,2026-04-12T15:19:51.535397+05:30
Bokaro,Jharkhand,23.6693,86.1511,37.0,17,0.0,980.8,8.85,34.9,124,86.6,22.2,0,5,10,0,2026-04-12T15:19:51.535403+05:30
Bhubaneswar,Odisha,20.2961,85.8245,34.9,51,0.0,1000.4,9.05,33.1,109,74.7,32.5,0,5,4,1,2026-04-12T15:19:51.535410+05:30
Cuttack,Odisha,20.4625,85.8828,38.0,30,0.0,1001.6,9.1,34.9,109,74.7,32.5,0,5,7,1,2026-04-12T15:19:51.535416+05:30
Rourkela,Odisha,22.2604,84.8536,38.0,17,0.0,982.4,8.85,22.0,164,56.6,18.6,0,5,10,0,2026-04-12T15:19:51.535423+05:30
Raipur,Chhattisgarh,21.2514,81.6296,39.8,14,0.0,972.0,8.9,20.9,116,25.1,16.1,0,5,10,0,2026-04-12T15:19:51.535429+05:30
Bhilai,Chhattisgarh,21.1938,81.3509,39.7,15,0.0,972.3,8.9,18.4,128,26.7,18.4,0,5,10,0,2026-04-12T15:19:51.535435+05:30
Guwahati,Assam,26.1158,91.7086,28.8,63,0.0,997.6,8.4,34.6,134,83.8,39.5,7,5,7,1,2026-04-12T15:19:51.535440+05:30
Agartala,Tripura,23.8315,91.2868,33.3,46,0.0,1002.4,8.6,32.8,107,70.8,45.6,0,5,4,1,2026-04-12T15:19:51.535447+05:30
Shillong,Meghalaya,25.5788,91.8933,18.5,63,0.0,854.0,7.05,67.0,145,89.2,43.4,3,5,7,0,2026-04-12T15:19:51.535453+05:30
Imphal,Manipur,24.817,93.9368,22.9,58,0.0,921.4,9.0,70.2,114,74.0,26.2,0,5,7,0,2026-04-12T15:19:51.535459+05:30
Aizawl,Mizoram,23.7271,92.7176,26.0,45,0.0,891.9,8.85,52.6,114,85.2,27.8,4,5,7,0,2026-04-12T15:19:51.535465+05:30
Kohima,Nagaland,25.6701,94.1077,19.0,63,0.0,853.2,8.9,93.6,114,80.1,31.5,3,5,7,0,2026-04-12T15:19:51.535471+05:30
Gangtok,Sikkim,27.3314,88.6138,16.0,79,0.0,834.7,8.05,13.7,141,80.3,25.5,3,5,7,0,2026-04-12T15:19:51.535477+05:30
Siliguri,West Bengal,26.7271,88.3953,25.4,54,0.0,990.5,7.3,26.6,141,129.5,42.7,4,5,7,0,2026-04-12T15:19:54.824064+05:30
Durgapur,West Bengal,23.5204,87.3119,36.5,23,0.0,991.5,8.8,23.4,150,94.8,24.6,0,5,10,0,2026-04-12T15:19:54.824099+05:30
Asansol,West Bengal,23.6739,86.9524,37.0,21,0.0,990.0,8.85,27.4,129,98.0,24.9,0,5,10,0,2026-04-12T15:19:54.824110+05:30
Pondicherry,Puducherry,11.9139,79.8145,35.7,46,0.0,1006.2,9.35,29.2,51,14.6,7.7,0,5,7,1,2026-04-12T15:19:54.824117+05:30
Port Blair,Andaman and Nicobar Islands,11.6234,92.7265,30.4,70,0.0,1005.3,9.25,14.4,51,33.6,17.1,3,5,4,1,2026-04-12T15:19:54.824125+05:30
Haridwar,Uttarakhand,29.9457,78.1642,31.4,29,0.0,973.2,7.0,34.2,75,45.1,15.8,0,5,7,0,2026-04-12T15:19:54.824133+05:30
Rishikesh,Uttarakhand,30.0869,78.2676,30.6,29,0.0,965.9,7.1,35.3,75,48.3,13.7,0,5,7,0,2026-04-12T15:19:54.824141+05:30
Nainital,Uttarakhand,29.3919,79.4542,23.4,34,0.0,806.8,7.95,52.2,94,55.1,15.5,0,5,7,0,2026-04-12T15:19:54.824149+05:30
Mussoorie,Uttarakhand,30.4599,78.0664,20.5,44,0.0,803.2,7.4,41.0,74,48.1,16.1,0,5,7,0,2026-04-12T15:19:54.824156+05:30
Dharamshala,Himachal Pradesh,32.219,76.3234,22.7,53,0.0,869.4,7.7,23.8,105,35.0,9.7,0,5,7,0,2026-04-12T15:19:54.824164+05:30
Dalhousie,Himachal Pradesh,32.5387,75.971,21.1,43,0.0,804.7,7.95,21.2,74,57.9,16.1,0,5,7,0,2026-04-12T15:19:54.824172+05:30
Patiala,Punjab,30.3398,76.3869,31.3,30,0.0,978.1,7.0,32.0,186,637.0,62.4,0,5,7,0,2026-04-12T15:19:54.824179+05:30
Bhatinda,Punjab,30.211,74.9455,33.0,22,0.0,983.9,7.75,32.4,81,47.7,13.1,0,5,7,0,2026-04-12T15:19:54.824186+05:30
Rohtak,Haryana,28.8955,76.6066,33.4,20,0.0,981.5,7.25,36.0,493,726.4,70.3,0,5,7,0,2026-04-12T15:19:54.824194+05:30
Panipat,Haryana,29.3909,76.9635,32.2,26,0.0,980.1,7.05,33.8,854,1248.0,110.1,0,5,7,0,2026-04-12T15:19:54.824202+05:30
Mathura,Uttar Pradesh,27.4924,77.6737,34.4,21,0.0,986.3,7.55,29.5,451,1065.4,100.4,0,5,7,0,2026-04-12T15:19:54.824208+05:30
Vrindavan,Uttar Pradesh,27.5823,77.7027,34.1,21,0.0,986.6,7.5,33.1,451,1065.4,100.4,0,5,7,0,2026-04-12T15:19:54.824215+05:30
Ayodhya,Uttar Pradesh,26.7922,82.1998,37.1,17,0.0,992.1,7.9,38.2,112,85.9,22.7,0,5,10,0,2026-04-12T15:19:54.824221+05:30
Ratlam,Madhya Pradesh,23.3315,75.0367,34.8,26,0.0,953.9,8.35,25.2,65,46.6,14.7,0,5,7,0,2026-04-12T15:19:54.824227+05:30
Sagar,Madhya Pradesh,23.8388,78.7378,37.9,18,0.0,948.6,8.5,32.8,99,18.2,9.0,0,5,10,0,2026-04-12T15:19:54.824234+05:30
Satna,Madhya Pradesh,24.6005,80.8322,38.6,16,0.0,968.2,8.5,40.0,109,24.6,10.4,0,5,10,0,2026-04-12T15:19:54.824240+05:30
Akola,Maharashtra,20.7002,77.0082,40.3,15,0.0,972.4,8.8,24.1,119,35.4,24.5,0,5,10,0,2026-04-12T15:19:54.824247+05:30
Amravati,Maharashtra,20.9374,77.7796,39.3,15,0.0,965.0,8.8,20.5,115,31.1,20.5,0,5,10,0,2026-04-12T15:19:54.824254+05:30
Latur,Maharashtra,18.4088,76.5604,37.3,21,0.0,938.4,9.05,24.5,93,35.4,21.7,0,5,10,0,2026-04-12T15:19:54.824260+05:30
Nanded,Maharashtra,19.1383,77.3091,38.7,21,0.0,966.3,8.95,14.8,128,37.1,23.3,0,5,10,0,2026-04-12T15:19:54.824266+05:30
Gulbarga,Karnataka,17.3297,76.8343,40.0,22,0.0,956.0,9.1,28.4,90,40.4,28.9,0,5,10,0,2026-04-12T15:19:54.824271+05:30
Bidar,Karnataka,17.9104,77.5199,38.4,22,0.0,933.7,9.1,26.6,99,34.3,21.5,0,5,10,0,2026-04-12T15:19:54.824277+05:30
Hospet,Karnataka,15.2689,76.3909,36.8,34,0.0,953.4,9.3,24.8,98,42.0,31.0,0,5,10,1,2026-04-12T15:19:54.824283+05:30
Tirupur,Tamil Nadu,11.1085,77.3411,38.0,29,0.0,972.6,9.5,31.0,91,31.0,21.1,0,5,10,1,2026-04-12T15:19:54.824289+05:30
Alappuzha,Kerala,9.4981,76.3388,29.5,82,0.0,1006.0,9.2,26.6,97,51.3,28.9,7,5,4,1,2026-04-12T15:19:54.824294+05:30
Munnar,Kerala,10.0889,77.0595,30.7,42,0.0,857.9,9.75,27.7,94,27.3,18.2,0,5,7,1,2026-04-12T15:19:54.824301+05:30
Silchar,Assam,24.8333,92.7789,28.9,70,0.0,1002.0,8.65,49.7,131,88.0,41.4,7,5,4,1,2026-04-12T15:19:54.824307+05:30
Dibrugarh,Assam,27.4728,94.912,23.3,78,0.0,994.5,8.2,33.5,101,62.6,38.1,3,5,7,1,2026-04-12T15:19:54.824313+05:30
