city,state,latitude,longitude,temp,humidity,rain,pressure,uv_index,wind_gusts,aqi,pm10,pm2_5,mosquito_risk,arthritis_risk,migraine_risk,frizz_risk,updated_at
Delhi,Delhi,28.6139,77.209,24.6,51,0.0,987.0,5.85,23.8,160,117.1,41.4,0,5,3,0,2026-03-21T18:26:31.902294+05:30
Mumbai,Maharashtra,19.076,72.8777,27.6,72,0.0,1008.7,7.9,28.8,113,37.5,22.8,7,0,4,1,2026-03-21T18:26:31.902338+05:30
Bangalore,Karnataka,12.9716,77.5946,29.7,38,0.0,911.7,9.4,21.2,164,39.8,27.0,4,5,7,0,2026-03-21T18:26:31.902353+05:30
Hyderabad,Telangana,17.385,78.4867,32.2,30,0.0,953.0,8.85,31.0,168,31.9,20.1,0,5,7,0,2026-03-21T18:26:31.902363+05:30
Chennai,Tamil Nadu,13.0827,80.2707,29.0,71,0.0,1007.4,9.1,35.6,37,13.6,8.9,7,5,4,1,2026-03-21T18:26:31.902372+05:30
Kolkata,West Bengal,22.5726,88.3639,23.4,78,0.0,1008.7,7.5,19.8,65,19.2,17.1,3,0,4,1,2026-03-21T18:26:31.902382+05:30
Pune,Maharashtra,18.5204,73.8567,31.3,29,0.0,948.3,8.4,28.8,89,39.8,16.2,0,5,7,0,2026-03-21T18:26:31.902395+05:30
Ahmedabad,Gujarat,23.0225,72.5714,32.1,27,0.0,1003.7,7.6,15.1,109,22.6,11.8,0,5,4,0,2026-03-21T18:26:31.902402+05:30
Jaipur,Rajasthan,26.9124,75.7873,25.5,48,0.0,963.2,6.75,36.4,85,88.7,19.3,4,5,7,0,2026-03-21T18:26:31.902410+05:30
Lucknow,Uttar Pradesh,26.8467,80.9462,23.5,60,0.0,997.9,6.25,24.5,109,43.4,23.9,0,5,7,0,2026-03-21T18:26:31.902417+05:30
Kanpur,Uttar Pradesh,26.4499,80.3319,23.0,61,0.0,996.0,6.7,25.6,111,305.5,45.1,3,5,7,0,2026-03-21T18:26:31.902424+05:30
Chandigarh,Chandigarh,30.7333,76.7794,21.0,65,0.0,972.5,6.35,28.4,94,31.1,24.8,3,5,7,0,2026-03-21T18:26:31.902432+05:30
Srinagar,Jammu and Kashmir,34.0837,74.7973,13.3,49,0.0,841.8,6.7,14.0,135,18.2,14.8,0,5,7,0,2026-03-21T18:26:31.902439+05:30
Jammu,Jammu and Kashmir,32.7266,74.857,22.7,59,0.0,977.2,6.45,16.9,92,32.8,19.9,0,5,7,0,2026-03-21T18:26:31.902446+05:30
Amritsar,Punjab,31.634,74.8723,22.8,55,0.0,985.5,6.1,15.8,104,45.6,32.4,0,5,7,0,2026-03-21T18:26:31.902453+05:30
Ludhiana,Punjab,30.901,75.8573,22.1,58,0.0,983.2,6.0,23.0,154,41.9,32.6,0,5,3,0,2026-03-21T18:26:31.902460+05:30
Jalandhar,Punjab,31.326,75.5762,22.5,57,0.0,984.5,6.3,20.5,137,45.6,28.5,0,5,7,0,2026-03-21T18:26:31.902468+05:30
Dehradun,Uttarakhand,30.6284,78.0322,13.0,72,0.0,830.3,6.7,22.7,91,14.2,9.9,3,5,7,0,2026-03-21T18:26:31.902475+05:30
Shimla,Himachal Pradesh,31.1048,77.1734,10.6,77,0.0,783.8,6.6,33.5,82,25.3,18.9,3,5,7,0,2026-03-21T18:26:31.902484+05:30
Manali,Himachal Pradesh,32.2396,77.1887,14.2,52,0.0,818.5,8.65,22.0,105,10.9,6.7,0,5,7,0,2026-03-21T18:26:31.902491+05:30
Gurgaon,Haryana,28.4595,77.0266,23.7,61,0.0,985.5,6.1,20.5,170,361.4,71.7,3,5,7,0,2026-03-21T18:26:31.902498+05:30
Noida,Uttar Pradesh,28.5355,77.391,24.5,52,0.0,988.5,6.15,22.7,170,361.4,71.7,0,5,7,0,2026-03-21T18:26:31.902504+05:30
Ghaziabad,Uttar Pradesh,28.6692,77.4538,23.6,58,0.0,986.6,5.85,21.6,158,92.0,34.1,0,5,3,0,2026-03-21T18:26:31.902510+05:30
Faridabad,Haryana,28.4089,77.3178,23.8,55,0.0,987.8,6.4,20.9,170,361.4,71.7,0,5,7,0,2026-03-21T18:26:31.902516+05:30
Meerut,Uttar Pradesh,28.9845,77.7064,22.7,60,0.0,985.3,6.15,22.0,158,92.0,34.1,0,5,7,0,2026-03-21T18:26:31.902523+05:30
Agra,Uttar Pradesh,27.1767,78.0081,25.5,39,0.0,991.8,6.8,28.1,159,862.4,96.9,4,5,7,0,2026-03-21T18:26:31.902532+05:30
Varanasi,Uttar Pradesh,25.3176,82.9739,22.9,66,0.0,1001.9,5.1,26.3,98,46.2,25.6,3,5,0,1,2026-03-21T18:26:31.902541+05:30
Prayagraj,Uttar Pradesh,25.4358,81.8463,22.7,70,0.0,1000.4,7.35,25.2,101,37.3,22.0,3,5,4,1,2026-03-21T18:26:31.902548+05:30
Gorakhpur,Uttar Pradesh,26.7606,83.3732,20.1,86,0.0,1002.3,5.7,17.3,114,31.9,27.4,3,5,0,1,2026-03-21T18:26:31.902555+05:30
Bareilly,Uttar Pradesh,28.367,79.4304,22.3,69,0.0,990.9,6.6,18.0,143,19.4,14.1,3,5,7,1,2026-03-21T18:26:31.902562+05:30
Aligarh,Uttar Pradesh,27.8974,78.088,23.3,59,0.0,989.5,6.5,20.2,160,411.6,61.2,0,5,7,0,2026-03-21T18:26:31.902569+05:30
Moradabad,Uttar Pradesh,28.8386,78.7733,22.7,63,0.0,987.5,6.45,18.4,151,29.3,21.9,3,5,7,0,2026-03-21T18:26:31.902576+05:30
Saharanpur,Uttar Pradesh,29.9637,77.546,22.0,58,0.0,979.4,6.1,27.0,151,49.4,28.2,0,5,7,0,2026-03-21T18:26:31.902582+05:30
Jhansi,Uttar Pradesh,25.4484,78.5685,25.6,40,0.0,981.7,7.4,24.5,88,32.2,17.0,4,5,7,0,2026-03-21T18:26:35.124881+05:30
Surat,Gujarat,21.1702,72.8311,29.1,38,0.0,1007.9,7.55,28.1,110,27.4,22.5,4,5,4,0,2026-03-21T18:26:35.124913+05:30
Vadodara,Gujarat,22.3072,73.1812,32.7,27,0.0,1005.4,7.55,15.5,89,16.7,8.0,0,5,4,0,2026-03-21T18:26:35.124924+05:30
Rajkot,Gujarat,22.3039,70.8022,31.8,32,0.0,995.5,7.05,20.5,81,33.2,12.0,0,5,7,0,2026-03-21T18:26:35.124932+05:30
Thane,Maharashtra,19.2183,72.9781,28.3,55,0.0,1008.1,7.85,42.8,113,37.5,22.8,4,0,4,1,2026-03-21T18:26:35.124939+05:30
Nagpur,Maharashtra,21.1458,79.0882,30.7,24,0.0,974.3,8.3,24.8,83,18.8,10.7,0,5,7,0,2026-03-21T18:26:35.124946+05:30
Nashik,Maharashtra,19.9975,73.7898,29.4,29,0.0,945.9,8.05,22.7,91,8.5,5.0,4,5,7,0,2026-03-21T18:26:35.124953+05:30
Aurangabad,Maharashtra,19.8762,75.3433,30.7,25,0.0,944.4,8.6,24.5,98,16.5,11.2,0,5,7,0,2026-03-21T18:26:35.124961+05:30
Solapur,Maharashtra,17.6599,75.9064,32.9,24,0.0,956.7,8.75,27.7,112,31.5,16.1,0,5,7,0,2026-03-21T18:26:35.124969+05:30
Kolhapur,Maharashtra,16.705,74.2433,29.1,37,0.0,947.6,8.85,28.8,81,31.2,16.7,4,5,7,0,2026-03-21T18:26:35.124976+05:30
Goa,Goa,15.2993,74.124,29.1,67,0.0,997.5,8.85,35.3,101,39.2,22.7,7,5,7,1,2026-03-21T18:26:35.124983+05:30
Jodhpur,Rajasthan,26.2389,73.0243,28.4,34,0.0,986.2,6.6,24.1,77,62.2,13.2,4,5,7,0,2026-03-21T18:26:35.124990+05:30
Udaipur,Rajasthan,24.5854,73.7125,26.7,33,0.0,948.8,7.1,11.9,77,23.7,7.6,4,5,7,0,2026-03-21T18:26:35.124997+05:30
Kota,Rajasthan,25.2138,75.8648,28.7,26,0.0,981.8,7.5,22.0,84,27.5,13.5,4,5,7,0,2026-03-21T18:26:35.125004+05:30
Bikaner,Rajasthan,28.0229,73.3119,27.1,38,0.0,985.5,6.25,28.4,53,34.8,9.5,4,5,7,0,2026-03-21T18:26:35.125011+05:30
Ajmer,Rajasthan,26.4499,74.6399,26.8,34,0.0,957.4,7.4,25.2,79,41.7,11.2,4,5,7,0,2026-03-21T18:26:35.125018+05:30
Gwalior,Madhya Pradesh,26.2183,78.1828,26.2,45,0.0,987.0,7.1,25.6,99,89.4,27.6,4,5,7,0,2026-03-21T18:26:35.125024+05:30
Indore,Madhya Pradesh,22.7196,75.8577,26.8,32,0.0,950.0,7.95,22.7,76,20.1,9.8,4,5,7,0,2026-03-21T18:26:35.125031+05:30
Bhopal,Madhya Pradesh,23.2599,77.4126,26.8,27,0.0,956.1,7.9,23.8,78,18.6,9.2,4,5,7,0,2026-03-21T18:26:35.125038+05:30
Jabalpur,Madhya Pradesh,23.1815,79.9864,25.9,34,0.0,964.4,8.0,31.3,72,17.9,10.3,4,5,7,0,2026-03-21T18:26:35.125044+05:30
Ujjain,Madhya Pradesh,23.1765,75.7885,27.1,37,0.0,956.0,7.75,19.4,70,23.7,10.8,4,5,7,0,2026-03-21T18:26:35.125052+05:30
Visakhapatnam,Andhra Pradesh,17.6868,83.2185,27.0,73,0.0,1004.9,8.8,35.3,74,15.9,12.7,7,5,4,1,2026-03-21T18:26:35.125058+05:30
Vijayawada,Andhra Pradesh,16.5062,80.648,30.0,60,0.0,1003.2,8.85,24.8,60,23.8,17.0,4,5,4,1,2026-03-21T18:26:35.125065+05:30
Guntur,Andhra Pradesh,16.3067,80.4365,29.5,64,0.0,1004.4,8.85,23.8,55,26.6,16.9,7,5,4,1,2026-03-21T18:26:35.125072+05:30
Nellore,Andhra Pradesh,14.4426,79.9865,28.8,69,0.0,1006.2,9.0,35.3,53,18.3,12.5,7,5,4,1,2026-03-21T18:26:35.125079+05:30
Kurnool,Andhra Pradesh,15.8281,78.0373,34.8,24,0.0,976.0,8.9,19.4,138,25.5,16.4,0,5,7,0,2026-03-21T18:26:35.125086+05:30
Kakinada,Andhra Pradesh,16.9891,82.2475,29.1,64,0.0,1008.3,8.85,26.6,40,10.1,6.9,7,0,4,1,2026-03-21T18:26:35.125093+05:30
Tirupati,Andhra Pradesh,13.6288,79.4192,31.1,49,0.0,991.4,8.85,26.3,86,25.8,20.4,0,5,7,1,2026-03-21T18:26:35.125100+05:30
Warangal,Telangana,17.9689,79.5941,27.9,61,0.0,979.7,8.65,28.4,110,32.0,22.6,7,5,7,1,2026-03-21T18:26:35.125106+05:30
Nizamabad,Telangana,18.6725,78.0941,31.6,33,0.0,964.8,8.6,34.9,88,32.4,16.9,0,5,7,0,2026-03-21T18:26:35.125131+05:30
Mysore,Karnataka,12.2958,76.6396,31.4,31,0.0,927.8,9.4,44.3,162,29.3,19.6,0,5,7,0,2026-03-21T18:26:35.125138+05:30
Mangalore,Karnataka,12.9141,74.856,29.6,71,0.0,1006.1,9.05,29.2,91,30.6,16.5,7,5,4,1,2026-03-21T18:26:35.125144+05:30
Hubli-Dharwad,Karnataka,15.3647,75.124,31.5,27,0.0,940.4,9.05,28.8,120,21.7,12.4,0,5,7,0,2026-03-21T18:26:35.125152+05:30
Belgaum,Karnataka,15.8497,74.4977,28.4,39,0.0,925.7,9.1,36.4,116,21.5,13.8,4,5,7,0,2026-03-21T18:26:38.343315+05:30
Coimbatore,Tamil Nadu,11.0168,76.9558,28.3,58,0.0,961.0,9.35,47.2,148,25.1,16.9,4,5,7,1,2026-03-21T18:26:38.343352+05:30
Madurai,Tamil Nadu,9.9252,78.1198,31.9,53,0.0,992.2,9.3,38.9,108,16.6,10.2,0,5,7,1,2026-03-21T18:26:38.343368+05:30
Trichy,Tamil Nadu,10.7905,78.7047,31.4,58,0.0,999.2,9.25,29.5,85,15.8,12.7,0,5,7,1,2026-03-21T18:26:38.343381+05:30
Salem,Tamil Nadu,11.6643,78.146,32.5,44,0.0,976.3,9.3,26.6,133,29.6,21.9,0,5,7,1,2026-03-21T18:26:38.343393+05:30
Tirunelveli,Tamil Nadu,8.7139,77.7567,30.7,62,0.0,1002.6,9.3,42.8,141,19.4,16.6,3,5,4,1,2026-03-21T18:26:38.343406+05:30
Vellore,Tamil Nadu,12.9165,79.1325,31.9,42,0.0,983.9,9.2,37.1,103,17.8,15.1,0,5,7,1,2026-03-21T18:26:38.343418+05:30
Erode,Tamil Nadu,11.341,77.7172,34.1,41,0.0,987.5,9.3,24.5,107,20.5,14.4,0,5,7,1,2026-03-21T18:26:38.343431+05:30
Kochi,Kerala,9.9312,76.2673,29.3,71,0.0,1008.1,9.15,33.8,103,22.9,16.5,7,0,4,1,2026-03-21T18:26:38.343444+05:30
Thiruvananthapuram,Kerala,8.5241,76.9366,28.4,80,0.0,1007.7,8.55,24.8,101,25.3,17.9,7,5,4,1,2026-03-21T18:26:38.343456+05:30
Kozhikode,Kerala,11.2588,75.7804,29.6,74,0.0,1007.4,9.05,31.3,79,22.1,15.1,7,5,4,1,2026-03-21T18:26:38.343468+05:30
Thrissur,Kerala,10.5276,76.2144,30.0,64,0.0,1006.5,9.15,38.9,91,18.9,13.7,7,5,4,1,2026-03-21T18:26:38.343481+05:30
Kannur,Kerala,11.8745,75.3704,29.7,71,0.0,1006.9,9.1,34.9,101,23.6,15.1,7,5,4,1,2026-03-21T18:26:38.343494+05:30
Patna,Bihar,25.5941,85.1376,21.6,76,0.0,1005.0,7.2,24.5,141,46.4,42.3,3,5,4,1,2026-03-21T18:26:38.343506+05:30
Gaya,Bihar,24.7914,85.0002,21.8,75,0.0,998.1,7.65,24.8,115,39.3,34.6,3,5,7,1,2026-03-21T18:26:38.343518+05:30
Muzaffarpur,Bihar,26.1209,85.3647,19.9,87,0.0,1005.1,5.2,23.8,149,41.2,38.8,3,10,0,1,2026-03-21T18:26:38.343530+05:30
Bhagalpur,Bihar,25.2425,87.0117,20.5,87,0.1,1006.1,5.85,24.5,124,36.2,34.0,6,5,0,1,2026-03-21T18:26:38.343543+05:30
Ranchi,Jharkhand,23.3441,85.3096,20.9,64,0.0,939.5,8.35,32.0,126,29.3,24.7,3,5,7,0,2026-03-21T18:26:38.343555+05:30
Jamshedpur,Jharkhand,22.8046,86.2029,23.6,67,0.0,993.7,7.75,29.9,124,27.5,22.2,3,5,7,1,2026-03-21T18:26:38.343567+05:30
Dhanbad,Jharkhand,23.7957,86.4304,21.4,73,0.0,983.4,7.6,27.0,151,44.2,41.2,3,5,7,1,2026-03-21T18:26:38.343579+05:30
Bokaro,Jharkhand,23.6693,86.1511,20.8,75,0.0,987.4,5.8,37.4,144,48.8,46.9,3,5,3,1,2026-03-21T18:26:38.343591+05:30
Bhubaneswar,Odisha,20.2961,85.8245,28.6,57,0.0,1003.6,8.55,28.1,155,51.8,43.4,4,5,4,1,2026-03-21T18:26:38.343603+05:30
Cuttack,Odisha,20.4625,85.8828,30.3,43,0.0,1005.1,8.6,25.9,155,51.8,43.4,0,5,4,1,2026-03-21T18:26:38.343615+05:30
Rourkela,Odisha,22.2604,84.8536,28.6,40,0.0,986.4,8.15,29.9,152,48.1,35.3,4,5,7,0,2026-03-21T18:26:38.343627+05:30
Raipur,Chhattisgarh,21.2514,81.6296,30.8,16,0.0,975.6,8.35,31.7,117,29.0,17.6,0,5,7,0,2026-03-21T18:26:38.343637+05:30
Bhilai,Chhattisgarh,21.1938,81.3509,30.0,16,0.0,976.1,8.35,33.8,110,19.8,11.9,4,5,7,0,2026-03-21T18:26:38.343644+05:30
Guwahati,Assam,26.1158,91.7086,23.1,88,0.0,1005.3,2.65,18.7,86,39.3,34.1,3,5,0,1,2026-03-21T18:26:38.343651+05:30
Agartala,Tripura,23.8315,91.2868,23.6,74,0.0,1008.8,5.1,18.4,118,47.8,38.1,3,0,0,1,2026-03-21T18:26:38.343658+05:30
Shillong,Meghalaya,25.5788,91.8933,12.3,89,0.2,856.3,5.05,23.8,86,43.3,27.4,6,10,3,0,2026-03-21T18:26:38.343666+05:30
Imphal,Manipur,24.817,93.9368,17.7,85,0.0,924.2,7.45,35.3,88,40.5,31.0,3,10,7,0,2026-03-21T18:26:38.343673+05:30
Aizawl,Mizoram,23.7271,92.7176,18.4,80,0.0,893.4,5.35,34.6,112,50.8,39.3,3,5,3,0,2026-03-21T18:26:38.343681+05:30
Kohima,Nagaland,25.6701,94.1077,14.2,93,0.0,855.7,7.0,57.2,76,33.2,23.7,3,10,7,0,2026-03-21T18:26:38.343688+05:30
Gangtok,Sikkim,27.3314,88.6138,10.8,97,0.5,838.0,1.95,16.6,110,33.8,25.9,6,10,3,0,2026-03-21T18:26:38.343695+05:30
Siliguri,West Bengal,26.7271,88.3953,17.7,74,0.8,998.5,0.45,29.2,110,69.6,53.7,6,5,3,0,2026-03-21T18:26:41.565790+05:30
Durgapur,West Bengal,23.5204,87.3119,23.3,72,0.0,998.6,7.8,19.1,133,29.8,26.0,3,5,7,1,2026-03-21T18:26:41.565823+05:30
Asansol,West Bengal,23.6739,86.9524,23.0,71,0.0,997.4,6.55,21.2,139,34.6,30.2,3,5,7,1,2026-03-21T18:26:41.565835+05:30
Pondicherry,Puducherry,11.9139,79.8145,29.2,70,0.0,1008.4,9.15,30.6,35,12.3,7.6,7,0,4,1,2026-03-21T18:26:41.565845+05:30
Port Blair,Andaman and Nicobar Islands,11.6234,92.7265,28.6,77,0.0,1007.9,9.1,14.8,51,13.3,9.9,7,5,4,1,2026-03-21T18:26:41.565854+05:30
Haridwar,Uttarakhand,29.9457,78.1642,22.6,59,0.0,977.7,6.2,21.6,91,24.1,18.9,0,5,7,0,2026-03-21T18:26:41.565863+05:30
Rishikesh,Uttarakhand,30.0869,78.2676,22.0,61,0.0,970.2,6.25,20.9,90,15.9,11.9,3,5,7,0,2026-03-21T18:26:41.565872+05:30
Nainital,Uttarakhand,29.3919,79.4542,13.4,85,0.0,805.8,6.9,34.2,70,12.2,8.9,3,10,7,0,2026-03-21T18:26:41.565881+05:30
Mussoorie,Uttarakhand,30.4599,78.0664,13.4,67,0.0,802.7,6.6,26.3,94,18.6,14.8,3,5,7,0,2026-03-21T18:26:41.565890+05:30
Dharamshala,Himachal Pradesh,32.219,76.3234,15.8,76,0.0,870.2,6.6,17.6,86,21.3,12.6,3,5,7,0,2026-03-21T18:26:41.565899+05:30
Dalhousie,Himachal Pradesh,32.5387,75.971,13.5,72,0.0,804.1,6.25,17.3,72,28.0,18.3,3,5,7,0,2026-03-21T18:26:41.565908+05:30
Patiala,Punjab,30.3398,76.3869,21.7,64,0.0,982.2,5.85,23.8,152,260.8,47.3,3,5,3,0,2026-03-21T18:26:41.565917+05:30
Bhatinda,Punjab,30.211,74.9455,23.1,60,0.0,988.3,5.55,18.0,128,69.2,43.4,0,5,3,0,2026-03-21T18:26:41.565925+05:30
Rohtak,Haryana,28.8955,76.6066,23.2,62,0.0,985.9,5.9,22.7,164,131.3,44.5,3,5,3,0,2026-03-21T18:26:41.565933+05:30
Panipat,Haryana,29.3909,76.9635,22.2,65,0.0,984.3,6.0,24.8,163,266.4,52.9,3,5,3,0,2026-03-21T18:26:41.565941+05:30
Mathura,Uttar Pradesh,27.4924,77.6737,24.8,49,0.0,990.9,6.7,23.8,157,461.9,72.9,0,5,7,0,2026-03-21T18:26:41.565950+05:30
Vrindavan,Uttar Pradesh,27.5823,77.7027,24.3,55,0.0,991.3,6.65,21.6,157,461.9,72.9,0,5,7,0,2026-03-21T18:26:41.565958+05:30
Ayodhya,Uttar Pradesh,26.7922,82.1998,22.1,74,0.0,999.9,6.95,22.0,95,27.6,17.8,3,5,7,1,2026-03-21T18:26:41.565966+05:30
Ratlam,Madhya Pradesh,23.3315,75.0367,28.2,34,0.0,956.6,7.55,21.2,71,24.2,9.8,4,5,7,0,2026-03-21T18:26:41.565975+05:30
Sagar,Madhya Pradesh,23.8388,78.7378,25.4,34,0.0,952.9,7.9,28.4,82,19.7,11.0,4,5,7,0,2026-03-21T18:26:41.565984+05:30
Satna,Madhya Pradesh,24.6005,80.8322,23.5,53,0.0,974.8,7.8,32.8,78,20.1,10.2,0,5,7,0,2026-03-21T18:26:41.565993+05:30
Akola,Maharashtra,20.7002,77.0082,31.6,22,0.0,975.9,8.25,23.0,93,16.6,10.2,0,5,7,0,2026-03-21T18:26:41.566003+05:30
Amravati,Maharashtra,20.9374,77.7796,31.4,27,0.0,967.9,8.3,25.2,87,14.6,8.1,0,5,7,0,2026-03-21T18:26:41.566010+05:30
Latur,Maharashtra,18.4088,76.5604,30.6,27,0.0,939.7,8.65,34.2,102,32.6,17.1,0,5,7,0,2026-03-21T18:26:41.566017+05:30
Nanded,Maharashtra,19.1383,77.3091,32.5,25,0.0,968.7,8.5,28.1,82,33.9,14.1,0,5,7,0,2026-03-21T18:26:41.566024+05:30
Gulbarga,Karnataka,17.3297,76.8343,33.5,23,0.0,958.2,8.75,42.1,132,24.3,14.1,0,5,7,0,2026-03-21T18:26:41.566031+05:30
Bidar,Karnataka,17.9104,77.5199,31.4,28,0.0,935.6,8.75,40.3,88,28.8,15.0,0,5,7,0,2026-03-21T18:26:41.566038+05:30
Hospet,Karnataka,15.2689,76.3909,33.0,29,0.0,955.5,9.0,19.4,159,25.3,16.6,0,5,7,0,2026-03-21T18:26:41.566045+05:30
Tirupur,Tamil Nadu,11.1085,77.3411,34.4,31,0.0,973.8,9.4,33.5,139,22.1,14.7,0,5,7,0,2026-03-21T18:26:41.566052+05:30
Alappuzha,Kerala,9.4981,76.3388,29.1,74,0.0,1008.5,9.1,29.2,107,19.6,14.3,7,0,4,1,2026-03-21T18:26:41.566059+05:30
Munnar,Kerala,10.0889,77.0595,22.3,79,0.0,857.3,9.65,30.6,107,21.6,14.7,3,5,7,1,2026-03-21T18:26:41.566066+05:30
Silchar,Assam,24.8333,92.7789,24.1,71,0.0,1007.0,6.8,22.3,99,44.1,35.2,3,5,4,1,2026-03-21T18:26:41.566073+05:30
Dibrugarh,Assam,27.4728,94.912,25.1,77,0.0,998.4,7.6,20.5,101,46.3,34.5,7,5,7,1,2026-03-21T18:26:41.566081+05:30
