city,state,latitude,longitude,temp,humidity,rain,pressure,uv_index,wind_gusts,aqi,pm10,pm2_5,mosquito_risk,arthritis_risk,migraine_risk,frizz_risk,updated_at
Delhi,Delhi,28.6139,77.209,37.1,27,0.0,980.9,7.2,20.5,177,242.1,46.2,0,5,10,0,2026-04-19T14:28:11.670010+05:30
Mumbai,Maharashtra,19.076,72.8777,30.1,72,0.0,1006.2,7.9,26.6,85,50.6,31.3,3,5,4,1,2026-04-19T14:28:11.670068+05:30
Bangalore,Karnataka,12.9716,77.5946,35.6,29,0.0,911.6,9.6,25.9,83,31.0,23.5,0,5,10,0,2026-04-19T14:28:11.670085+05:30
Hyderabad,Telangana,17.385,78.4867,32.7,48,0.0,953.1,9.25,39.2,105,42.5,34.8,0,5,7,1,2026-04-19T14:28:11.670096+05:30
Chennai,Tamil Nadu,13.0827,80.2707,35.8,51,0.0,1005.4,9.3,34.6,37,13.3,8.8,0,5,7,1,2026-04-19T14:28:11.670111+05:30
Kolkata,West Bengal,22.5726,88.3639,34.1,65,0.0,1002.3,8.9,32.4,81,40.7,30.3,3,5,4,1,2026-04-19T14:28:11.670126+05:30
Pune,Maharashtra,18.5204,73.8567,38.8,19,0.0,947.7,8.65,31.0,95,37.0,29.8,0,5,10,0,2026-04-19T14:28:11.670135+05:30
Ahmedabad,Gujarat,23.0225,72.5714,39.8,16,0.0,1000.4,8.0,25.2,61,32.5,11.6,0,5,7,0,2026-04-19T14:28:11.670143+05:30
Jaipur,Rajasthan,26.9124,75.7873,39.5,11,0.0,958.4,7.85,38.5,149,244.9,30.4,0,5,10,0,2026-04-19T14:28:11.670151+05:30
Lucknow,Uttar Pradesh,26.8467,80.9462,40.8,20,0.0,989.8,7.9,32.4,122,132.2,30.3,0,5,10,0,2026-04-19T14:28:11.670159+05:30
Kanpur,Uttar Pradesh,26.4499,80.3319,39.0,26,0.0,988.7,7.9,21.6,184,301.7,45.3,0,5,10,0,2026-04-19T14:28:11.670167+05:30
Chandigarh,Chandigarh,30.7333,76.7794,36.5,26,0.0,967.5,6.1,34.9,70,71.9,17.6,0,5,10,0,2026-04-19T14:28:11.670174+05:30
Srinagar,Jammu and Kashmir,34.0837,74.7973,17.8,62,0.0,844.5,7.25,30.2,67,30.2,13.8,3,5,7,0,2026-04-19T14:28:11.670182+05:30
Jammu,Jammu and Kashmir,32.7266,74.857,33.7,27,0.0,972.9,5.4,32.4,64,41.9,13.3,0,5,3,0,2026-04-19T14:28:11.670189+05:30
Amritsar,Punjab,31.634,74.8723,34.2,31,0.0,980.7,7.35,25.9,65,42.7,15.4,0,5,7,0,2026-04-19T14:28:11.670196+05:30
Ludhiana,Punjab,30.901,75.8573,36.4,21,0.0,977.8,7.3,37.1,92,80.3,19.6,0,5,10,0,2026-04-19T14:28:11.670205+05:30
Jalandhar,Punjab,31.326,75.5762,33.9,26,0.0,979.6,6.45,36.0,75,77.3,18.2,0,5,7,0,2026-04-19T14:28:11.670212+05:30
Dehradun,Uttarakhand,30.6284,78.0322,27.1,28,0.0,833.4,6.3,47.5,45,33.1,8.5,4,5,7,0,2026-04-19T14:28:11.670220+05:30
Shimla,Himachal Pradesh,31.1048,77.1734,25.0,29,0.0,789.2,6.75,44.6,51,40.9,10.6,4,5,7,0,2026-04-19T14:28:11.670228+05:30
Manali,Himachal Pradesh,32.2396,77.1887,20.2,39,0.0,823.7,6.95,44.3,59,6.0,2.7,0,5,7,0,2026-04-19T14:28:11.670235+05:30
Gurgaon,Haryana,28.4595,77.0266,36.8,29,0.0,979.3,7.3,18.4,457,418.2,59.3,0,5,10,0,2026-04-19T14:28:11.670243+05:30
Noida,Uttar Pradesh,28.5355,77.391,37.9,24,0.0,982.2,7.25,22.3,457,418.2,59.3,0,5,10,0,2026-04-19T14:28:11.670250+05:30
Ghaziabad,Uttar Pradesh,28.6692,77.4538,37.4,27,0.0,980.4,7.2,20.5,158,217.5,43.7,0,5,10,0,2026-04-19T14:28:11.670257+05:30
Faridabad,Haryana,28.4089,77.3178,38.2,22,0.0,981.5,7.3,24.8,457,418.2,59.3,0,5,10,0,2026-04-19T14:28:11.670263+05:30
Meerut,Uttar Pradesh,28.9845,77.7064,38.5,24,0.0,979.1,6.6,24.8,158,217.5,43.7,0,5,10,0,2026-04-19T14:28:11.670269+05:30
Agra,Uttar Pradesh,27.1767,78.0081,40.3,23,0.0,985.0,7.55,26.3,318,257.0,48.5,0,5,10,0,2026-04-19T14:28:11.670279+05:30
Varanasi,Uttar Pradesh,25.3176,82.9739,42.6,16,0.0,993.3,8.45,27.7,107,150.9,33.1,0,5,10,0,2026-04-19T14:28:11.670286+05:30
Prayagraj,Uttar Pradesh,25.4358,81.8463,42.1,15,0.0,992.0,8.35,27.7,106,170.0,37.7,0,5,10,0,2026-04-19T14:28:11.670293+05:30
Gorakhpur,Uttar Pradesh,26.7606,83.3732,38.7,35,0.0,993.1,8.3,28.8,107,53.2,39.5,0,5,10,1,2026-04-19T14:28:11.670300+05:30
Bareilly,Uttar Pradesh,28.367,79.4304,40.2,19,0.0,983.6,7.35,30.2,85,61.2,17.1,0,5,10,0,2026-04-19T14:28:11.670307+05:30
Aligarh,Uttar Pradesh,27.8974,78.088,41.3,16,0.0,982.4,7.5,32.0,231,330.6,50.1,0,5,10,0,2026-04-19T14:28:11.670316+05:30
Moradabad,Uttar Pradesh,28.8386,78.7733,39.0,22,0.0,980.8,7.4,34.2,107,102.2,24.7,0,5,10,0,2026-04-19T14:28:11.670323+05:30
Saharanpur,Uttar Pradesh,29.9637,77.546,37.3,29,0.0,973.7,6.75,35.3,100,100.1,21.9,0,5,10,1,2026-04-19T14:28:11.670329+05:30
Jhansi,Uttar Pradesh,25.4484,78.5685,41.4,16,0.0,975.1,8.25,26.3,63,74.7,16.6,0,5,10,0,2026-04-19T14:28:14.912738+05:30
Surat,Gujarat,21.1702,72.8311,34.4,35,0.0,1005.8,7.75,25.6,98,52.4,38.9,0,5,4,1,2026-04-19T14:28:14.912773+05:30
Vadodara,Gujarat,22.3072,73.1812,40.4,20,0.0,1002.5,8.15,30.2,70,33.3,17.2,0,5,7,0,2026-04-19T14:28:14.912784+05:30
Rajkot,Gujarat,22.3039,70.8022,37.0,19,0.0,993.5,7.55,28.4,56,20.9,9.2,0,5,10,0,2026-04-19T14:28:14.912793+05:30
Thane,Maharashtra,19.2183,72.9781,33.8,51,0.0,1006.1,8.05,40.0,85,50.6,31.3,0,5,4,1,2026-04-19T14:28:14.912799+05:30
Nagpur,Maharashtra,21.1458,79.0882,42.4,11,0.0,970.2,8.9,18.7,92,35.7,33.2,0,5,10,0,2026-04-19T14:28:14.912806+05:30
Nashik,Maharashtra,19.9975,73.7898,37.8,22,0.0,944.9,6.8,33.5,75,38.8,28.0,0,5,10,0,2026-04-19T14:28:14.912813+05:30
Aurangabad,Maharashtra,19.8762,75.3433,39.0,19,0.0,943.3,9.05,22.7,76,27.5,21.0,0,5,10,0,2026-04-19T14:28:14.912819+05:30
Solapur,Maharashtra,17.6599,75.9064,40.4,22,0.0,955.1,8.85,27.0,131,46.1,38.1,0,5,10,0,2026-04-19T14:28:14.912826+05:30
Kolhapur,Maharashtra,16.705,74.2433,33.2,53,0.0,947.4,9.0,45.4,102,43.9,35.9,0,5,7,1,2026-04-19T14:28:14.912834+05:30
Goa,Goa,15.2993,74.124,32.1,64,0.0,996.9,9.0,29.9,85,46.9,23.5,3,5,7,1,2026-04-19T14:28:14.912841+05:30
Jodhpur,Rajasthan,26.2389,73.0243,39.3,15,0.0,981.9,8.15,27.0,103,105.9,23.9,0,5,10,0,2026-04-19T14:28:14.912849+05:30
Udaipur,Rajasthan,24.5854,73.7125,38.1,14,0.0,946.3,8.65,36.7,45,17.3,8.1,0,5,10,0,2026-04-19T14:28:14.912855+05:30
Kota,Rajasthan,25.2138,75.8648,42.6,10,0.0,976.2,8.2,36.4,68,39.7,11.4,0,5,10,0,2026-04-19T14:28:14.912862+05:30
Bikaner,Rajasthan,28.0229,73.3119,39.2,16,0.0,980.3,7.9,23.0,78,20.2,7.8,0,5,10,0,2026-04-19T14:28:14.912868+05:30
Ajmer,Rajasthan,26.4499,74.6399,37.5,15,0.0,954.4,7.6,28.4,62,28.7,10.6,0,5,10,0,2026-04-19T14:28:14.912874+05:30
Gwalior,Madhya Pradesh,26.2183,78.1828,40.5,18,0.0,980.3,7.45,31.3,88,144.8,27.0,0,5,10,0,2026-04-19T14:28:14.912880+05:30
Indore,Madhya Pradesh,22.7196,75.8577,39.5,15,0.0,947.3,8.6,29.5,52,19.3,11.9,0,5,10,0,2026-04-19T14:28:14.912886+05:30
Bhopal,Madhya Pradesh,23.2599,77.4126,40.7,14,0.0,952.4,8.6,30.2,66,39.2,19.7,0,5,10,0,2026-04-19T14:28:14.912892+05:30
Jabalpur,Madhya Pradesh,23.1815,79.9864,40.1,20,0.0,959.2,8.75,23.8,71,23.5,13.4,0,5,10,0,2026-04-19T14:28:14.912899+05:30
Ujjain,Madhya Pradesh,23.1765,75.7885,39.8,16,0.0,952.8,8.5,33.8,51,15.2,8.6,0,5,10,0,2026-04-19T14:28:14.912906+05:30
Visakhapatnam,Andhra Pradesh,17.6868,83.2185,33.9,55,0.0,1001.8,9.15,38.5,65,28.2,20.3,0,5,4,1,2026-04-19T14:28:14.912912+05:30
Vijayawada,Andhra Pradesh,16.5062,80.648,37.6,39,0.0,1000.1,9.25,31.3,57,22.6,14.5,0,5,7,1,2026-04-19T14:28:14.912919+05:30
Guntur,Andhra Pradesh,16.3067,80.4365,37.6,38,0.0,1001.5,9.25,33.8,61,25.0,17.6,0,5,7,1,2026-04-19T14:28:14.912925+05:30
Nellore,Andhra Pradesh,14.4426,79.9865,39.3,36,0.0,1002.9,9.25,33.5,50,21.7,15.0,0,5,7,1,2026-04-19T14:28:14.912931+05:30
Kurnool,Andhra Pradesh,15.8281,78.0373,41.9,20,0.0,973.7,9.2,38.2,87,44.2,36.0,0,5,10,0,2026-04-19T14:28:14.912938+05:30
Kakinada,Andhra Pradesh,16.9891,82.2475,37.8,40,0.0,1004.8,9.2,29.9,52,19.6,11.2,0,5,7,1,2026-04-19T14:28:14.912945+05:30
Tirupati,Andhra Pradesh,13.6288,79.4192,37.9,30,0.0,989.7,9.35,33.1,64,23.0,16.9,0,5,10,1,2026-04-19T14:28:14.912951+05:30
Warangal,Telangana,17.9689,79.5941,38.9,34,0.0,976.1,9.15,32.8,87,39.5,32.4,0,5,10,1,2026-04-19T14:28:14.912957+05:30
Nizamabad,Telangana,18.6725,78.0941,41.8,15,0.0,962.4,9.0,39.2,113,25.1,21.0,0,5,10,0,2026-04-19T14:28:14.912963+05:30
Mysore,Karnataka,12.2958,76.6396,37.5,21,0.0,927.8,9.5,43.9,87,30.9,23.2,0,5,10,0,2026-04-19T14:28:14.912969+05:30
Mangalore,Karnataka,12.9141,74.856,29.8,86,0.0,1005.3,9.1,22.7,70,40.4,22.7,7,5,4,1,2026-04-19T14:28:14.912975+05:30
Hubli-Dharwad,Karnataka,15.3647,75.124,33.7,51,0.0,940.4,9.2,31.7,81,42.0,34.0,0,5,7,1,2026-04-19T14:28:14.912981+05:30
Belgaum,Karnataka,15.8497,74.4977,30.7,62,0.0,925.6,9.25,28.8,94,43.4,34.3,3,5,7,1,2026-04-19T14:28:18.132277+05:30
Coimbatore,Tamil Nadu,11.0168,76.9558,37.4,29,0.0,960.5,9.4,53.3,89,31.8,23.2,0,5,10,1,2026-04-19T14:28:18.132312+05:30
Madurai,Tamil Nadu,9.9252,78.1198,38.6,27,0.0,990.9,9.3,41.0,64,17.8,13.0,0,5,10,1,2026-04-19T14:28:18.132323+05:30
Trichy,Tamil Nadu,10.7905,78.7047,37.6,37,0.0,997.6,9.3,23.0,56,15.3,11.7,0,5,10,1,2026-04-19T14:28:18.132331+05:30
Salem,Tamil Nadu,11.6643,78.146,37.2,36,0.0,975.8,9.35,18.0,62,24.3,15.9,0,5,10,1,2026-04-19T14:28:18.132338+05:30
Tirunelveli,Tamil Nadu,8.7139,77.7567,39.7,26,0.0,1000.3,9.25,49.0,67,20.5,14.7,0,5,7,1,2026-04-19T14:28:18.132346+05:30
Vellore,Tamil Nadu,12.9165,79.1325,37.1,33,0.0,983.0,9.4,27.7,85,20.8,15.0,0,5,10,1,2026-04-19T14:28:18.132353+05:30
Erode,Tamil Nadu,11.341,77.7172,40.1,28,0.0,986.6,9.35,27.0,58,26.1,17.3,0,5,10,1,2026-04-19T14:28:18.132359+05:30
Kochi,Kerala,9.9312,76.2673,29.9,79,0.0,1006.8,9.15,25.2,77,25.8,20.1,7,5,4,1,2026-04-19T14:28:18.132367+05:30
Thiruvananthapuram,Kerala,8.5241,76.9366,29.4,82,0.0,1006.1,9.1,29.5,68,23.9,16.6,7,5,4,1,2026-04-19T14:28:18.132374+05:30
Kozhikode,Kerala,11.2588,75.7804,31.6,74,0.0,1006.1,9.1,30.2,63,23.2,15.7,3,5,4,1,2026-04-19T14:28:18.132381+05:30
Thrissur,Kerala,10.5276,76.2144,34.3,61,0.0,1005.3,9.15,32.8,75,24.4,17.2,3,5,4,1,2026-04-19T14:28:18.132388+05:30
Kannur,Kerala,11.8745,75.3704,32.6,68,0.0,1005.7,9.1,33.1,69,30.2,19.3,3,5,4,1,2026-04-19T14:28:18.132396+05:30
Patna,Bihar,25.5941,85.1376,36.8,45,0.0,996.4,8.6,27.0,125,83.8,47.3,0,5,10,1,2026-04-19T14:28:18.132402+05:30
Gaya,Bihar,24.7914,85.0002,41.1,18,0.0,989.6,8.7,33.8,105,101.3,26.1,0,5,10,0,2026-04-19T14:28:18.132409+05:30
Muzaffarpur,Bihar,26.1209,85.3647,35.6,47,0.0,996.8,8.6,29.5,136,71.2,51.0,0,5,10,1,2026-04-19T14:28:18.132416+05:30
Bhagalpur,Bihar,25.2425,87.0117,34.2,55,0.0,997.6,8.65,27.0,120,57.7,46.3,0,5,7,1,2026-04-19T14:28:18.132422+05:30
Ranchi,Jharkhand,23.3441,85.3096,39.3,15,0.0,935.8,9.2,43.2,101,65.7,23.9,0,5,10,0,2026-04-19T14:28:18.132429+05:30
Jamshedpur,Jharkhand,22.8046,86.2029,40.8,24,0.0,986.2,9.0,36.7,130,73.8,43.5,0,5,10,1,2026-04-19T14:28:18.132436+05:30
Dhanbad,Jharkhand,23.7957,86.4304,42.4,16,0.0,975.2,8.95,39.6,156,95.7,26.7,0,5,10,0,2026-04-19T14:28:18.132442+05:30
Bokaro,Jharkhand,23.6693,86.1511,42.6,12,0.0,979.2,8.95,44.3,138,91.0,25.3,0,5,10,0,2026-04-19T14:28:18.132449+05:30
Bhubaneswar,Odisha,20.2961,85.8245,32.8,69,0.0,1000.1,9.1,34.6,66,34.1,25.0,3,5,4,1,2026-04-19T14:28:18.132456+05:30
Cuttack,Odisha,20.4625,85.8828,36.0,56,0.0,1001.3,9.15,34.2,66,34.1,25.0,0,5,7,1,2026-04-19T14:28:18.132462+05:30
Rourkela,Odisha,22.2604,84.8536,41.9,24,0.0,980.9,8.9,32.8,155,74.7,58.0,0,5,10,1,2026-04-19T14:28:18.132468+05:30
Raipur,Chhattisgarh,21.2514,81.6296,42.8,17,0.0,971.2,8.95,33.8,147,32.7,29.5,0,5,10,0,2026-04-19T14:28:18.132474+05:30
Bhilai,Chhattisgarh,21.1938,81.3509,42.8,17,0.0,971.6,9.0,31.7,151,31.4,27.6,0,5,10,0,2026-04-19T14:28:18.132481+05:30
Guwahati,Assam,26.1158,91.7086,30.0,70,0.0,998.7,8.55,24.8,118,47.3,34.2,7,5,7,1,2026-04-19T14:28:18.132487+05:30
Agartala,Tripura,23.8315,91.2868,29.3,77,0.0,1004.1,8.75,35.6,126,53.8,39.0,7,5,4,1,2026-04-19T14:28:18.132493+05:30
Shillong,Meghalaya,25.5788,91.8933,20.5,71,0.0,856.3,8.75,54.7,92,20.3,14.7,3,5,7,0,2026-04-19T14:28:18.132500+05:30
Imphal,Manipur,24.817,93.9368,22.0,81,0.0,921.9,8.65,61.2,151,59.3,40.4,3,5,7,1,2026-04-19T14:28:18.132506+05:30
Aizawl,Mizoram,23.7271,92.7176,24.7,69,0.0,892.4,8.3,38.5,147,59.8,42.1,3,5,7,1,2026-04-19T14:28:18.132512+05:30
Kohima,Nagaland,25.6701,94.1077,19.8,81,0.0,854.3,8.85,53.6,127,53.8,38.4,3,10,7,1,2026-04-19T14:28:18.132519+05:30
Gangtok,Sikkim,27.3314,88.6138,21.8,69,0.0,837.9,8.85,21.6,74,22.4,16.8,3,5,7,0,2026-04-19T14:28:18.132532+05:30
Siliguri,West Bengal,26.7271,88.3953,26.2,75,0.0,992.1,8.4,21.2,144,43.1,32.0,7,5,7,1,2026-04-19T14:28:21.359393+05:30
Durgapur,West Bengal,23.5204,87.3119,39.0,41,0.0,990.4,8.9,40.3,127,111.5,52.9,0,5,10,1,2026-04-19T14:28:21.359428+05:30
Asansol,West Bengal,23.6739,86.9524,40.4,30,0.0,988.8,8.95,34.6,137,104.3,32.2,0,5,10,1,2026-04-19T14:28:21.359439+05:30
Pondicherry,Puducherry,11.9139,79.8145,37.0,48,0.0,1006.1,9.25,30.6,34,14.7,11.4,0,5,7,1,2026-04-19T14:28:21.359447+05:30
Port Blair,Andaman and Nicobar Islands,11.6234,92.7265,29.7,74,0.0,1005.6,9.15,13.0,54,16.4,13.5,7,5,4,1,2026-04-19T14:28:21.359455+05:30
Haridwar,Uttarakhand,29.9457,78.1642,36.5,30,0.0,972.4,6.3,27.4,68,89.2,18.8,0,5,10,1,2026-04-19T14:28:21.359462+05:30
Rishikesh,Uttarakhand,30.0869,78.2676,36.0,30,0.0,965.5,6.65,27.0,58,60.8,13.0,0,5,10,0,2026-04-19T14:28:21.359469+05:30
Nainital,Uttarakhand,29.3919,79.4542,30.3,28,0.0,810.3,7.85,60.5,73,31.9,9.1,0,5,7,0,2026-04-19T14:28:21.359477+05:30
Mussoorie,Uttarakhand,30.4599,78.0664,27.8,25,0.0,806.9,6.35,46.4,58,62.6,13.9,4,5,7,0,2026-04-19T14:28:21.359484+05:30
Dharamshala,Himachal Pradesh,32.219,76.3234,26.4,38,0.0,871.7,6.1,39.2,48,29.7,7.5,4,5,7,0,2026-04-19T14:28:21.359492+05:30
Dalhousie,Himachal Pradesh,32.5387,75.971,21.8,40,0.0,806.8,6.7,34.6,58,49.0,12.0,0,5,7,0,2026-04-19T14:28:21.359499+05:30
Patiala,Punjab,30.3398,76.3869,37.7,22,0.0,976.4,6.8,26.6,143,341.8,40.2,0,5,10,0,2026-04-19T14:28:21.359507+05:30
Bhatinda,Punjab,30.211,74.9455,38.0,20,0.0,982.4,7.85,36.0,80,68.0,19.2,0,5,10,0,2026-04-19T14:28:21.359514+05:30
Rohtak,Haryana,28.8955,76.6066,37.3,27,0.0,979.8,7.0,23.0,223,277.5,44.0,0,5,10,0,2026-04-19T14:28:21.359520+05:30
Panipat,Haryana,29.3909,76.9635,38.1,25,0.0,978.4,6.3,28.8,407,375.3,55.6,0,5,10,0,2026-04-19T14:28:21.359527+05:30
Mathura,Uttar Pradesh,27.4924,77.6737,41.0,18,0.0,983.8,7.65,37.8,260,269.2,49.6,0,5,10,0,2026-04-19T14:28:21.359533+05:30
Vrindavan,Uttar Pradesh,27.5823,77.7027,41.2,17,0.0,984.1,7.65,41.4,260,269.2,49.6,0,5,10,0,2026-04-19T14:28:21.359539+05:30
Ayodhya,Uttar Pradesh,26.7922,82.1998,41.5,21,0.0,991.1,8.05,36.0,97,66.8,29.5,0,5,10,0,2026-04-19T14:28:21.359545+05:30
Ratlam,Madhya Pradesh,23.3315,75.0367,37.3,24,0.0,953.9,8.45,26.6,45,19.9,13.0,0,5,10,0,2026-04-19T14:28:21.359551+05:30
Sagar,Madhya Pradesh,23.8388,78.7378,41.2,14,0.0,948.6,8.6,34.2,73,41.7,12.9,0,5,10,0,2026-04-19T14:28:21.359557+05:30
Satna,Madhya Pradesh,24.6005,80.8322,43.0,12,0.0,968.1,8.65,39.6,82,143.0,25.6,0,5,10,0,2026-04-19T14:28:21.359563+05:30
Akola,Maharashtra,20.7002,77.0082,42.7,13,0.0,972.4,8.85,24.1,64,14.1,9.0,0,5,10,0,2026-04-19T14:28:21.359570+05:30
Amravati,Maharashtra,20.9374,77.7796,41.9,14,0.0,965.0,8.85,16.2,66,13.6,8.3,0,5,10,0,2026-04-19T14:28:21.359577+05:30
Latur,Maharashtra,18.4088,76.5604,37.7,22,0.0,939.1,9.1,17.6,108,27.0,21.7,0,5,10,0,2026-04-19T14:28:21.359585+05:30
Nanded,Maharashtra,19.1383,77.3091,40.5,20,0.0,966.5,9.0,22.7,89,17.2,13.2,0,5,10,0,2026-04-19T14:28:21.359591+05:30
Gulbarga,Karnataka,17.3297,76.8343,39.0,27,0.0,957.2,9.1,40.3,99,46.0,38.3,0,5,10,1,2026-04-19T14:28:21.359597+05:30
Bidar,Karnataka,17.9104,77.5199,37.1,29,0.0,934.8,9.15,34.9,106,45.5,38.0,0,5,10,1,2026-04-19T14:28:21.359602+05:30
Hospet,Karnataka,15.2689,76.3909,37.2,36,0.0,954.2,9.3,25.6,95,40.5,32.5,0,5,10,1,2026-04-19T14:28:21.359608+05:30
Tirupur,Tamil Nadu,11.1085,77.3411,39.2,27,0.0,973.4,9.4,28.8,70,29.3,19.6,0,5,10,1,2026-04-19T14:28:21.359614+05:30
Alappuzha,Kerala,9.4981,76.3388,29.6,82,0.0,1007.1,9.1,23.0,84,25.3,19.9,7,5,4,1,2026-04-19T14:28:21.359620+05:30
Munnar,Kerala,10.0889,77.0595,30.7,47,0.0,858.9,9.65,37.8,77,25.6,16.0,0,5,7,1,2026-04-19T14:28:21.359627+05:30
Silchar,Assam,24.8333,92.7789,27.2,79,0.0,1003.7,8.8,33.8,158,68.5,49.2,7,5,4,1,2026-04-19T14:28:21.359651+05:30
Dibrugarh,Assam,27.4728,94.912,30.4,62,0.0,992.0,8.65,19.4,146,68.7,44.8,3,5,7,1,2026-04-19T14:28:21.359658+05:30
