city,state,latitude,longitude,temp,humidity,rain,pressure,uv_index,wind_gusts,aqi,pm10,pm2_5,mosquito_risk,arthritis_risk,migraine_risk,frizz_risk,updated_at
Delhi,Delhi,28.6139,77.209,39.0,14,0.0,976.6,7.4,35.3,177,362.3,59.8,0,5,10,0,2026-04-29T14:41:16.518716+05:30
Mumbai,Maharashtra,19.076,72.8777,32.9,56,0.0,1005.8,8.05,43.2,81,40.4,24.8,0,5,4,1,2026-04-29T14:41:16.518762+05:30
Bangalore,Karnataka,12.9716,77.5946,36.0,25,0.0,911.0,9.55,33.5,110,53.1,36.1,0,5,10,0,2026-04-29T14:41:16.518778+05:30
Hyderabad,Telangana,17.385,78.4867,40.8,15,0.0,949.9,9.3,28.4,124,43.3,32.1,0,5,10,0,2026-04-29T14:41:16.518789+05:30
Chennai,Tamil Nadu,13.0827,80.2707,35.1,52,0.0,1003.4,9.25,55.1,55,19.6,15.8,0,5,7,1,2026-04-29T14:41:16.518799+05:30
Kolkata,West Bengal,22.5726,88.3639,33.3,64,0.0,1000.5,8.85,51.8,79,30.7,24.3,3,5,4,1,2026-04-29T14:41:16.518808+05:30
Pune,Maharashtra,18.5204,73.8567,38.8,16,0.0,946.2,8.6,42.5,73,32.1,19.3,0,5,10,0,2026-04-29T14:41:16.518820+05:30
Ahmedabad,Gujarat,23.0225,72.5714,41.2,19,0.0,996.4,8.2,53.3,49,42.1,12.3,0,5,10,0,2026-04-29T14:41:16.518828+05:30
Jaipur,Rajasthan,26.9124,75.7873,39.6,12,0.0,954.0,8.1,51.5,110,270.1,37.8,0,5,10,0,2026-04-29T14:41:16.518836+05:30
Lucknow,Uttar Pradesh,26.8467,80.9462,35.9,31,0.0,987.3,7.6,47.9,152,138.3,37.5,0,5,10,1,2026-04-29T14:41:16.518844+05:30
Kanpur,Uttar Pradesh,26.4499,80.3319,37.0,28,0.0,985.1,7.9,50.8,194,257.0,51.6,0,5,10,0,2026-04-29T14:41:16.518851+05:30
Chandigarh,Chandigarh,30.7333,76.7794,36.1,19,0.0,963.4,7.35,40.0,82,125.3,30.2,0,5,10,0,2026-04-29T14:41:16.518858+05:30
Srinagar,Jammu and Kashmir,34.0837,74.7973,14.7,86,0.2,839.5,5.8,19.8,94,18.5,8.5,6,10,3,0,2026-04-29T14:41:16.518866+05:30
Jammu,Jammu and Kashmir,32.7266,74.857,23.3,63,0.0,970.0,7.1,53.3,72,43.5,13.3,3,5,7,0,2026-04-29T14:41:16.518874+05:30
Amritsar,Punjab,31.634,74.8723,31.0,40,0.0,977.0,8.1,40.7,89,43.5,15.2,0,5,7,0,2026-04-29T14:41:16.518881+05:30
Ludhiana,Punjab,30.901,75.8573,33.8,27,0.0,974.4,7.7,51.1,94,97.6,24.7,0,5,7,0,2026-04-29T14:41:16.518887+05:30
Jalandhar,Punjab,31.326,75.5762,31.9,37,0.0,975.7,7.9,33.8,83,70.5,20.0,0,5,7,0,2026-04-29T14:41:16.518897+05:30
Dehradun,Uttarakhand,30.6284,78.0322,20.1,50,0.0,829.3,6.25,44.6,61,63.6,16.3,0,5,7,0,2026-04-29T14:41:16.518904+05:30
Shimla,Himachal Pradesh,31.1048,77.1734,19.6,40,0.0,784.0,7.85,34.9,56,70.8,19.9,0,5,7,0,2026-04-29T14:41:16.518911+05:30
Manali,Himachal Pradesh,32.2396,77.1887,17.7,49,0.0,816.4,7.5,38.9,84,17.0,5.9,0,5,7,0,2026-04-29T14:41:16.518917+05:30
Gurgaon,Haryana,28.4595,77.0266,38.0,16,0.0,975.4,7.4,32.4,598,841.9,94.5,0,5,10,0,2026-04-29T14:41:16.518925+05:30
Noida,Uttar Pradesh,28.5355,77.391,38.7,17,0.0,978.0,7.3,33.8,598,841.9,94.5,0,5,10,0,2026-04-29T14:41:16.518932+05:30
Ghaziabad,Uttar Pradesh,28.6692,77.4538,38.9,15,0.0,976.4,7.25,31.3,151,291.5,46.2,0,5,10,0,2026-04-29T14:41:16.518938+05:30
Faridabad,Haryana,28.4089,77.3178,38.5,16,0.0,977.3,7.1,36.0,598,841.9,94.5,0,5,10,0,2026-04-29T14:41:16.518944+05:30
Meerut,Uttar Pradesh,28.9845,77.7064,36.5,22,0.0,975.8,6.05,27.7,151,291.5,46.2,0,5,10,0,2026-04-29T14:41:16.518951+05:30
Agra,Uttar Pradesh,27.1767,78.0081,40.5,16,0.0,980.4,7.55,45.4,606,547.6,67.3,0,5,10,0,2026-04-29T14:41:16.518957+05:30
Varanasi,Uttar Pradesh,25.3176,82.9739,39.9,17,0.0,990.4,8.45,58.3,135,88.0,31.8,0,5,10,0,2026-04-29T14:41:16.518966+05:30
Prayagraj,Uttar Pradesh,25.4358,81.8463,37.8,21,0.0,988.7,8.35,58.7,137,107.1,39.0,0,5,10,0,2026-04-29T14:41:16.518973+05:30
Gorakhpur,Uttar Pradesh,26.7606,83.3732,29.5,63,0.0,992.7,8.3,39.2,130,87.8,41.9,7,5,7,1,2026-04-29T14:41:16.518979+05:30
Bareilly,Uttar Pradesh,28.367,79.4304,33.2,37,0.0,982.0,7.45,41.0,111,118.0,25.9,0,5,7,1,2026-04-29T14:41:16.518986+05:30
Aligarh,Uttar Pradesh,27.8974,78.088,39.7,17,0.0,978.8,5.25,40.3,250,501.1,58.0,0,5,6,0,2026-04-29T14:41:16.518992+05:30
Moradabad,Uttar Pradesh,28.8386,78.7733,36.8,19,0.0,978.1,5.45,29.5,144,104.1,25.2,0,5,6,0,2026-04-29T14:41:16.518999+05:30
Saharanpur,Uttar Pradesh,29.9637,77.546,35.8,23,0.0,970.2,7.15,34.6,122,160.7,35.0,0,5,10,0,2026-04-29T14:41:16.519005+05:30
Jhansi,Uttar Pradesh,25.4484,78.5685,41.5,14,0.0,971.1,7.8,53.6,54,67.5,15.9,0,5,10,0,2026-04-29T14:41:19.846625+05:30
Surat,Gujarat,21.1702,72.8311,35.8,41,0.0,1003.1,7.85,46.1,70,53.1,26.0,0,5,7,1,2026-04-29T14:41:19.846660+05:30
Vadodara,Gujarat,22.3072,73.1812,41.1,17,0.0,999.2,8.15,52.2,59,48.7,16.2,0,5,10,0,2026-04-29T14:41:19.846671+05:30
Rajkot,Gujarat,22.3039,70.8022,42.0,14,0.0,989.1,7.9,54.0,50,37.3,12.2,0,5,10,0,2026-04-29T14:41:19.846678+05:30
Thane,Maharashtra,19.2183,72.9781,36.8,38,0.0,1004.5,8.05,40.3,81,40.4,24.8,0,5,7,1,2026-04-29T14:41:19.846685+05:30
Nagpur,Maharashtra,21.1458,79.0882,42.2,11,0.0,967.9,8.85,55.8,82,28.8,15.9,0,5,10,0,2026-04-29T14:41:19.846691+05:30
Nashik,Maharashtra,19.9975,73.7898,38.0,18,0.0,943.6,8.3,46.1,62,31.1,11.9,0,5,10,0,2026-04-29T14:41:19.846697+05:30
Aurangabad,Maharashtra,19.8762,75.3433,41.8,10,0.0,940.9,9.05,56.5,54,22.8,10.8,0,5,10,0,2026-04-29T14:41:19.846704+05:30
Solapur,Maharashtra,17.6599,75.9064,41.3,14,0.0,953.9,9.1,40.7,82,36.8,23.0,0,5,10,0,2026-04-29T14:41:19.846711+05:30
Kolhapur,Maharashtra,16.705,74.2433,39.2,18,0.0,945.6,9.0,44.6,69,31.3,18.4,0,5,10,0,2026-04-29T14:41:19.846718+05:30
Goa,Goa,15.2993,74.124,35.3,55,0.0,994.7,8.75,45.4,73,36.8,17.9,0,5,10,1,2026-04-29T14:41:19.846725+05:30
Jodhpur,Rajasthan,26.2389,73.0243,40.5,18,0.0,976.8,8.3,41.4,142,190.0,28.6,0,5,10,0,2026-04-29T14:41:19.846731+05:30
Udaipur,Rajasthan,24.5854,73.7125,37.3,17,0.0,942.5,8.75,44.3,49,51.5,13.4,0,5,10,0,2026-04-29T14:41:19.846738+05:30
Kota,Rajasthan,25.2138,75.8648,40.5,15,0.0,972.7,8.3,44.3,49,125.7,26.4,0,5,10,0,2026-04-29T14:41:19.846744+05:30
Bikaner,Rajasthan,28.0229,73.3119,41.0,11,0.0,975.0,8.15,34.2,82,120.1,22.8,0,5,10,0,2026-04-29T14:41:19.846751+05:30
Ajmer,Rajasthan,26.4499,74.6399,38.3,14,0.0,949.6,8.25,49.7,53,72.6,15.3,0,5,10,0,2026-04-29T14:41:19.846757+05:30
Gwalior,Madhya Pradesh,26.2183,78.1828,40.8,15,0.0,976.3,8.05,53.3,120,157.4,27.5,0,5,10,0,2026-04-29T14:41:19.846763+05:30
Indore,Madhya Pradesh,22.7196,75.8577,39.2,13,0.0,944.5,8.65,57.2,49,27.1,9.5,0,5,10,0,2026-04-29T14:41:19.846769+05:30
Bhopal,Madhya Pradesh,23.2599,77.4126,40.8,10,0.0,948.9,8.65,54.0,47,66.8,13.8,0,5,10,0,2026-04-29T14:41:19.846775+05:30
Jabalpur,Madhya Pradesh,23.1815,79.9864,41.0,11,0.0,956.0,8.75,41.4,54,16.7,7.0,0,5,10,0,2026-04-29T14:41:19.846782+05:30
Ujjain,Madhya Pradesh,23.1765,75.7885,38.8,17,0.0,949.8,8.55,53.3,50,43.8,12.7,0,5,10,0,2026-04-29T14:41:19.846788+05:30
Visakhapatnam,Andhra Pradesh,17.6868,83.2185,33.3,62,0.0,999.9,8.95,54.0,60,20.9,16.2,3,5,7,1,2026-04-29T14:41:19.846794+05:30
Vijayawada,Andhra Pradesh,16.5062,80.648,38.2,37,0.0,998.7,8.35,36.0,68,41.8,34.9,0,5,10,1,2026-04-29T14:41:19.846800+05:30
Guntur,Andhra Pradesh,16.3067,80.4365,39.0,35,0.0,999.7,8.65,37.1,73,46.6,38.5,0,5,10,1,2026-04-29T14:41:19.846806+05:30
Nellore,Andhra Pradesh,14.4426,79.9865,37.8,42,0.0,1001.7,9.25,38.2,65,33.9,26.9,0,5,7,1,2026-04-29T14:41:19.846813+05:30
Kurnool,Andhra Pradesh,15.8281,78.0373,42.0,19,0.0,972.9,8.05,33.8,113,51.6,38.2,0,5,10,0,2026-04-29T14:41:19.846820+05:30
Kakinada,Andhra Pradesh,16.9891,82.2475,37.8,40,0.0,1003.5,8.95,43.2,53,21.5,15.5,0,5,7,1,2026-04-29T14:41:19.846826+05:30
Tirupati,Andhra Pradesh,13.6288,79.4192,41.1,20,0.0,986.7,9.3,36.0,71,26.4,20.0,0,5,10,0,2026-04-29T14:41:19.846832+05:30
Warangal,Telangana,17.9689,79.5941,41.5,20,0.0,974.5,9.15,37.4,109,52.7,42.0,0,5,10,0,2026-04-29T14:41:19.846839+05:30
Nizamabad,Telangana,18.6725,78.0941,41.2,14,0.0,961.0,9.1,38.9,105,30.2,17.3,0,5,10,0,2026-04-29T14:41:19.846844+05:30
Mysore,Karnataka,12.2958,76.6396,35.1,28,0.0,926.9,9.4,46.1,96,48.7,33.9,0,5,10,0,2026-04-29T14:41:19.846850+05:30
Mangalore,Karnataka,12.9141,74.856,33.3,58,0.0,1003.8,9.1,43.2,76,58.3,24.6,0,5,4,1,2026-04-29T14:41:19.846857+05:30
Hubli-Dharwad,Karnataka,15.3647,75.124,38.0,29,0.0,938.7,8.9,52.2,71,36.9,24.2,0,5,10,1,2026-04-29T14:41:19.846863+05:30
Belgaum,Karnataka,15.8497,74.4977,35.7,28,0.0,924.5,9.25,49.3,68,35.6,19.4,0,5,10,0,2026-04-29T14:41:23.167099+05:30
Coimbatore,Tamil Nadu,11.0168,76.9558,35.4,27,0.0,959.4,9.15,46.8,77,32.9,21.7,0,5,10,0,2026-04-29T14:41:23.167134+05:30
Madurai,Tamil Nadu,9.9252,78.1198,33.3,53,0.0,990.3,8.15,44.6,81,24.4,20.7,0,5,7,1,2026-04-29T14:41:23.167144+05:30
Trichy,Tamil Nadu,10.7905,78.7047,38.1,30,0.0,995.9,9.15,46.8,57,19.7,17.3,0,5,10,1,2026-04-29T14:41:23.167153+05:30
Salem,Tamil Nadu,11.6643,78.146,39.0,25,0.0,973.9,9.15,42.8,75,29.5,22.4,0,5,10,0,2026-04-29T14:41:23.167160+05:30
Tirunelveli,Tamil Nadu,8.7139,77.7567,35.3,44,0.0,1000.4,8.4,34.6,56,12.9,11.0,0,5,7,1,2026-04-29T14:41:23.167168+05:30
Vellore,Tamil Nadu,12.9165,79.1325,40.2,20,0.0,980.7,9.35,40.7,77,20.4,16.0,0,5,10,0,2026-04-29T14:41:23.167175+05:30
Erode,Tamil Nadu,11.341,77.7172,39.0,23,0.0,985.3,8.8,52.2,81,31.8,21.9,0,5,10,0,2026-04-29T14:41:23.167183+05:30
Kochi,Kerala,9.9312,76.2673,32.1,66,0.0,1006.5,7.3,34.6,79,16.5,13.6,3,5,4,1,2026-04-29T14:41:23.167190+05:30
Thiruvananthapuram,Kerala,8.5241,76.9366,28.5,80,0.0,1006.8,7.75,26.3,45,10.3,8.2,7,5,4,1,2026-04-29T14:41:23.167197+05:30
Kozhikode,Kerala,11.2588,75.7804,31.2,72,0.0,1005.2,9.0,39.2,67,23.2,16.2,3,5,4,1,2026-04-29T14:41:23.167204+05:30
Thrissur,Kerala,10.5276,76.2144,32.0,66,0.0,1004.5,7.95,33.8,82,16.7,13.3,3,5,4,1,2026-04-29T14:41:23.167211+05:30
Kannur,Kerala,11.8745,75.3704,33.0,55,0.0,1004.5,9.05,49.0,84,37.5,20.4,0,5,4,1,2026-04-29T14:41:23.167217+05:30
Patna,Bihar,25.5941,85.1376,27.4,77,0.0,996.5,8.6,40.0,115,55.3,38.2,7,5,7,1,2026-04-29T14:41:23.167225+05:30
Gaya,Bihar,24.7914,85.0002,30.4,55,0.0,987.6,8.65,45.0,136,75.0,40.5,0,5,7,1,2026-04-29T14:41:23.167230+05:30
Muzaffarpur,Bihar,26.1209,85.3647,27.6,77,0.0,995.7,8.55,48.6,112,52.6,34.3,7,5,7,1,2026-04-29T14:41:23.167236+05:30
Bhagalpur,Bihar,25.2425,87.0117,31.4,57,0.0,996.8,8.6,47.5,82,60.8,37.7,0,5,7,1,2026-04-29T14:41:23.167259+05:30
Ranchi,Jharkhand,23.3441,85.3096,33.3,31,0.0,934.3,9.15,40.7,140,36.4,21.5,0,5,7,0,2026-04-29T14:41:23.167266+05:30
Jamshedpur,Jharkhand,22.8046,86.2029,37.0,28,0.0,985.8,9.0,43.9,181,54.2,43.7,0,5,10,0,2026-04-29T14:41:23.167271+05:30
Dhanbad,Jharkhand,23.7957,86.4304,34.8,37,0.0,974.4,8.9,49.7,164,85.4,74.0,0,5,7,1,2026-04-29T14:41:23.167278+05:30
Bokaro,Jharkhand,23.6693,86.1511,36.2,28,0.0,978.3,8.9,49.3,160,74.7,60.5,0,5,10,0,2026-04-29T14:41:23.167284+05:30
Bhubaneswar,Odisha,20.2961,85.8245,33.9,58,0.0,997.8,9.05,55.1,62,24.6,19.3,0,5,7,1,2026-04-29T14:41:23.167290+05:30
Cuttack,Odisha,20.4625,85.8828,35.2,55,0.0,999.3,9.1,48.6,62,24.6,19.3,0,5,10,1,2026-04-29T14:41:23.167297+05:30
Rourkela,Odisha,22.2604,84.8536,36.6,26,0.0,980.2,8.9,61.6,178,38.9,32.6,0,5,10,0,2026-04-29T14:41:23.167303+05:30
Raipur,Chhattisgarh,21.2514,81.6296,41.0,15,0.0,969.5,8.9,52.6,133,32.7,25.4,0,5,10,0,2026-04-29T14:41:23.167309+05:30
Bhilai,Chhattisgarh,21.1938,81.3509,40.3,17,0.0,969.9,8.9,55.1,122,31.8,24.0,0,5,10,0,2026-04-29T14:41:23.167315+05:30
Guwahati,Assam,26.1158,91.7086,24.1,89,0.1,1000.1,7.4,30.6,70,27.1,15.1,6,5,4,1,2026-04-29T14:41:23.167321+05:30
Agartala,Tripura,23.8315,91.2868,26.4,80,0.1,1003.0,7.65,50.8,62,22.1,16.2,10,5,4,1,2026-04-29T14:41:23.167328+05:30
Shillong,Meghalaya,25.5788,91.8933,19.1,81,0.0,855.2,7.5,49.3,47,22.3,9.4,3,10,7,0,2026-04-29T14:41:23.167334+05:30
Imphal,Manipur,24.817,93.9368,22.5,75,0.1,921.4,6.15,29.5,79,27.2,12.4,6,5,7,1,2026-04-29T14:41:23.167340+05:30
Aizawl,Mizoram,23.7271,92.7176,22.3,68,0.0,891.7,6.2,40.0,69,32.0,17.4,3,5,7,0,2026-04-29T14:41:23.167346+05:30
Kohima,Nagaland,25.6701,94.1077,18.4,97,0.1,853.2,7.25,20.5,47,17.6,9.3,6,10,7,1,2026-04-29T14:41:23.167352+05:30
Gangtok,Sikkim,27.3314,88.6138,17.9,77,0.1,836.3,2.8,29.2,57,8.6,4.9,6,5,3,0,2026-04-29T14:41:23.167358+05:30
Siliguri,West Bengal,26.7271,88.3953,24.8,79,0.0,991.5,4.2,33.5,82,20.3,12.5,3,5,3,1,2026-04-29T14:41:26.498792+05:30
Durgapur,West Bengal,23.5204,87.3119,31.0,75,0.0,989.9,8.85,45.0,155,79.4,72.9,3,5,7,1,2026-04-29T14:41:26.498827+05:30
Asansol,West Bengal,23.6739,86.9524,32.7,51,0.0,988.4,8.85,47.5,157,86.6,79.6,0,5,7,1,2026-04-29T14:41:26.498837+05:30
Pondicherry,Puducherry,11.9139,79.8145,32.3,66,0.0,1005.2,8.85,54.0,53,16.9,13.7,3,5,4,1,2026-04-29T14:41:26.498845+05:30
Port Blair,Andaman and Nicobar Islands,11.6234,92.7265,32.8,54,0.1,1005.8,9.1,29.2,37,8.4,6.4,3,5,4,1,2026-04-29T14:41:26.498853+05:30
Haridwar,Uttarakhand,29.9457,78.1642,36.0,22,0.0,968.2,6.75,27.4,92,98.3,23.5,0,5,10,0,2026-04-29T14:41:26.498861+05:30
Rishikesh,Uttarakhand,30.0869,78.2676,34.5,23,0.0,961.3,6.7,29.9,84,83.6,20.1,0,5,7,0,2026-04-29T14:41:26.498869+05:30
Nainital,Uttarakhand,29.3919,79.4542,19.3,44,0.0,804.1,5.65,50.8,84,75.2,23.3,0,5,3,0,2026-04-29T14:41:26.498876+05:30
Mussoorie,Uttarakhand,30.4599,78.0664,18.3,51,0.0,802.0,5.2,42.1,79,91.7,22.1,0,5,3,0,2026-04-29T14:41:26.498883+05:30
Dharamshala,Himachal Pradesh,32.219,76.3234,22.2,39,0.0,867.1,7.3,50.8,67,28.1,8.3,0,5,7,0,2026-04-29T14:41:26.498891+05:30
Dalhousie,Himachal Pradesh,32.5387,75.971,15.3,77,0.0,802.0,7.2,54.4,66,42.0,11.6,3,5,7,0,2026-04-29T14:41:26.498898+05:30
Patiala,Punjab,30.3398,76.3869,37.5,19,0.0,972.4,7.2,52.6,168,508.5,58.7,0,5,10,0,2026-04-29T14:41:26.498905+05:30
Bhatinda,Punjab,30.211,74.9455,38.1,19,0.0,977.8,8.05,47.2,92,148.1,33.4,0,5,10,0,2026-04-29T14:41:26.498912+05:30
Rohtak,Haryana,28.8955,76.6066,39.1,15,0.0,975.5,7.25,34.6,381,388.4,60.3,0,5,10,0,2026-04-29T14:41:26.498919+05:30
Panipat,Haryana,29.3909,76.9635,39.2,15,0.0,974.0,7.3,38.5,707,398.6,61.7,0,5,10,0,2026-04-29T14:41:26.498925+05:30
Mathura,Uttar Pradesh,27.4924,77.6737,40.3,16,0.0,979.7,7.6,41.0,552,609.1,70.3,0,5,10,0,2026-04-29T14:41:26.498932+05:30
Vrindavan,Uttar Pradesh,27.5823,77.7027,40.2,16,0.0,980.3,7.5,40.3,552,609.1,70.3,0,5,10,0,2026-04-29T14:41:26.498938+05:30
Ayodhya,Uttar Pradesh,26.7922,82.1998,29.3,58,0.0,990.1,8.05,40.3,151,113.9,40.0,4,5,7,1,2026-04-29T14:41:26.498945+05:30
Ratlam,Madhya Pradesh,23.3315,75.0367,37.8,21,0.0,951.0,8.5,48.2,49,39.3,11.8,0,5,10,0,2026-04-29T14:41:26.498951+05:30
Sagar,Madhya Pradesh,23.8388,78.7378,39.7,13,0.0,945.1,8.65,45.4,49,13.1,5.4,0,5,10,0,2026-04-29T14:41:26.498958+05:30
Satna,Madhya Pradesh,24.6005,80.8322,41.1,12,0.0,964.5,8.6,47.2,64,30.6,14.1,0,5,10,0,2026-04-29T14:41:26.498964+05:30
Akola,Maharashtra,20.7002,77.0082,42.3,11,0.0,970.2,8.85,54.0,60,23.2,10.9,0,5,10,0,2026-04-29T14:41:26.498971+05:30
Amravati,Maharashtra,20.9374,77.7796,40.7,14,0.0,962.9,8.85,60.1,62,23.3,11.8,0,5,10,0,2026-04-29T14:41:26.498978+05:30
Latur,Maharashtra,18.4088,76.5604,40.5,13,0.0,937.4,9.05,29.2,74,27.8,16.4,0,5,10,0,2026-04-29T14:41:26.498986+05:30
Nanded,Maharashtra,19.1383,77.3091,42.3,13,0.0,964.6,9.0,34.6,78,27.8,15.4,0,5,10,0,2026-04-29T14:41:26.498992+05:30
Gulbarga,Karnataka,17.3297,76.8343,41.7,15,0.0,955.1,9.15,25.9,85,37.5,24.7,0,5,10,0,2026-04-29T14:41:26.498998+05:30
Bidar,Karnataka,17.9104,77.5199,40.2,15,0.0,933.2,9.15,32.0,99,28.8,17.7,0,5,10,0,2026-04-29T14:41:26.499004+05:30
Hospet,Karnataka,15.2689,76.3909,38.7,26,0.0,953.1,9.05,42.8,84,43.3,30.0,0,5,10,0,2026-04-29T14:41:26.499010+05:30
Tirupur,Tamil Nadu,11.1085,77.3411,38.6,26,0.0,971.8,8.9,50.8,88,35.7,23.7,0,5,10,0,2026-04-29T14:41:26.499017+05:30
Alappuzha,Kerala,9.4981,76.3388,31.1,71,0.1,1006.7,7.1,28.8,66,13.3,11.1,6,5,4,1,2026-04-29T14:41:26.499023+05:30
Munnar,Kerala,10.0889,77.0595,22.4,76,0.1,857.1,8.25,25.9,84,24.4,19.0,6,5,7,1,2026-04-29T14:41:26.499030+05:30
Silchar,Assam,24.8333,92.7789,26.1,74,0.0,1003.6,7.05,30.6,84,21.7,13.6,7,5,4,1,2026-04-29T14:41:26.499036+05:30
Dibrugarh,Assam,27.4728,94.912,26.7,75,0.1,993.7,3.45,31.3,109,34.0,23.3,10,5,3,1,2026-04-29T14:41:26.499042+05:30
