city,state,latitude,longitude,temp,humidity,rain,pressure,uv_index,wind_gusts,aqi,pm10,pm2_5,no2,co,o3,so2,mosquito_risk,arthritis_risk,migraine_risk,frizz_risk,updated_at
Delhi,Delhi,28.6139,77.209,31.6,70,0.0,977.1,6.3,36.0,84,71.5,33.9,7.6,392.0,150.0,17.0,3,5,7,1,2026-07-22T13:05:23.777837+05:30
Mumbai,Maharashtra,19.076,72.8777,27.9,81,0.3,1004.6,0.6,65.2,60,41.0,17.1,6.0,189.0,51.0,4.8,10,5,0,1,2026-07-22T13:05:23.777877+05:30
Bangalore,Karnataka,12.9716,77.5946,27.0,64,0.0,912.1,7.75,47.9,43,6.3,4.4,5.4,238.0,50.0,3.3,7,5,7,1,2026-07-22T13:05:23.777892+05:30
Hyderabad,Telangana,17.385,78.4867,26.9,70,0.0,950.7,4.55,47.9,45,14.2,7.5,2.2,170.0,62.0,3.0,7,5,3,1,2026-07-22T13:05:23.777901+05:30
Chennai,Tamil Nadu,13.0827,80.2707,35.0,48,0.0,1005.4,8.6,35.6,81,36.0,25.8,8.0,195.0,129.0,12.2,0,5,4,1,2026-07-22T13:05:23.777909+05:30
Kolkata,West Bengal,22.5726,88.3639,29.6,76,0.1,1000.6,5.15,34.6,59,6.5,6.5,3.2,220.0,103.0,6.3,10,5,0,1,2026-07-22T13:05:23.777917+05:30
Pune,Maharashtra,18.5204,73.8567,25.2,79,0.1,944.2,1.5,63.0,19,2.4,2.0,5.7,142.0,43.0,3.4,10,5,3,1,2026-07-22T13:05:23.777924+05:30
Ahmedabad,Gujarat,23.0225,72.5714,30.9,68,0.0,994.5,5.45,34.9,61,29.3,13.4,4.5,206.0,57.0,4.3,3,5,3,1,2026-07-22T13:05:23.777931+05:30
Jaipur,Rajasthan,26.9124,75.7873,28.0,85,0.3,953.2,6.9,37.4,61,15.3,11.6,2.6,216.0,125.0,4.9,10,5,7,1,2026-07-22T13:05:23.777941+05:30
Lucknow,Uttar Pradesh,26.8467,80.9462,32.7,61,0.1,986.4,5.95,45.0,86,15.4,15.3,1.6,235.0,131.0,5.3,6,5,3,1,2026-07-22T13:05:23.777950+05:30
Kanpur,Uttar Pradesh,26.4499,80.3319,32.3,63,0.1,984.4,6.2,42.5,80,14.3,14.3,1.8,233.0,131.0,6.4,6,5,7,1,2026-07-22T13:05:23.777956+05:30
Chandigarh,Chandigarh,30.7333,76.7794,31.6,64,0.0,964.1,6.95,44.6,84,15.9,15.3,2.2,265.0,129.0,5.3,3,5,7,1,2026-07-22T13:05:23.777963+05:30
Srinagar,Jammu and Kashmir,34.0837,74.7973,19.3,93,0.4,840.4,3.9,13.3,62,11.2,10.8,13.9,472.0,60.0,2.3,6,10,3,1,2026-07-22T13:05:23.777970+05:30
Jammu,Jammu and Kashmir,32.7266,74.857,26.7,90,0.2,969.3,6.75,40.7,63,13.2,12.8,7.3,284.0,96.0,2.4,10,5,7,1,2026-07-22T13:05:23.777976+05:30
Amritsar,Punjab,31.634,74.8723,30.0,81,0.0,976.0,3.0,42.5,80,26.0,25.7,4.2,418.0,132.0,8.8,7,5,3,1,2026-07-22T13:05:23.777983+05:30
Ludhiana,Punjab,30.901,75.8573,30.9,71,0.0,973.8,5.95,40.0,95,27.5,26.8,7.1,382.0,107.0,9.4,3,5,3,1,2026-07-22T13:05:23.777989+05:30
Jalandhar,Punjab,31.326,75.5762,30.2,76,0.0,975.0,4.7,42.5,94,31.8,31.2,5.8,337.0,135.0,11.5,3,5,3,1,2026-07-22T13:05:23.777996+05:30
Dehradun,Uttarakhand,30.6284,78.0322,19.8,99,0.2,829.5,5.45,26.6,42,3.5,3.3,1.1,204.0,103.0,0.8,6,10,3,1,2026-07-22T13:05:23.778003+05:30
Shimla,Himachal Pradesh,31.1048,77.1734,19.3,83,0.0,784.0,5.2,27.0,44,8.5,8.2,3.2,186.0,109.0,2.2,3,10,3,1,2026-07-22T13:05:23.778009+05:30
Manali,Himachal Pradesh,32.2396,77.1887,22.1,95,0.1,818.7,3.9,20.5,29,5.0,4.5,2.2,222.0,111.0,1.9,6,5,3,1,2026-07-22T13:05:23.778017+05:30
Gurgaon,Haryana,28.4595,77.0266,31.9,67,0.0,975.4,5.95,43.2,80,52.4,29.0,6.0,362.0,142.0,12.4,3,5,3,1,2026-07-22T13:05:23.778023+05:30
Noida,Uttar Pradesh,28.5355,77.391,32.3,66,0.0,978.6,6.7,38.5,80,52.4,29.0,6.0,336.0,142.0,12.4,3,5,7,1,2026-07-22T13:05:23.778029+05:30
Ghaziabad,Uttar Pradesh,28.6692,77.4538,31.8,70,0.0,976.8,6.9,40.7,80,34.2,25.7,2.6,298.0,145.0,8.8,3,5,7,1,2026-07-22T13:05:23.778035+05:30
Faridabad,Haryana,28.4089,77.3178,32.0,67,0.0,977.6,6.9,39.6,80,52.4,29.0,6.0,335.0,142.0,12.4,3,5,7,1,2026-07-22T13:05:23.778041+05:30
Meerut,Uttar Pradesh,28.9845,77.7064,30.5,75,0.0,976.1,6.9,41.8,80,34.2,25.7,2.6,280.0,145.0,8.8,3,5,7,1,2026-07-22T13:05:23.778047+05:30
Agra,Uttar Pradesh,27.1767,78.0081,32.8,64,0.0,980.6,6.85,36.7,71,22.7,22.2,2.1,292.0,139.0,6.1,3,5,7,1,2026-07-22T13:05:23.778053+05:30
Varanasi,Uttar Pradesh,25.3176,82.9739,32.4,63,0.0,989.7,8.05,46.8,72,13.4,13.3,2.7,331.0,119.0,12.9,3,5,7,1,2026-07-22T13:05:23.778059+05:30
Prayagraj,Uttar Pradesh,25.4358,81.8463,32.5,64,0.0,988.1,8.15,37.1,78,16.1,16.0,2.2,315.0,134.0,10.8,3,5,7,1,2026-07-22T13:05:23.778065+05:30
Gorakhpur,Uttar Pradesh,26.7606,83.3732,30.7,73,0.1,991.0,6.35,52.6,79,16.0,15.7,1.6,242.0,121.0,3.9,6,5,7,1,2026-07-22T13:05:23.778072+05:30
Bareilly,Uttar Pradesh,28.367,79.4304,31.8,70,0.0,981.4,6.6,42.8,74,16.9,16.5,1.6,246.0,135.0,6.3,3,5,7,1,2026-07-22T13:05:23.778079+05:30
Aligarh,Uttar Pradesh,27.8974,78.088,32.3,66,0.1,979.2,6.9,39.6,79,23.5,23.0,2.4,244.0,140.0,7.9,6,5,7,1,2026-07-22T13:05:23.778086+05:30
Moradabad,Uttar Pradesh,28.8386,78.7733,32.1,68,0.0,978.4,7.35,45.0,72,18.4,18.0,2.0,238.0,141.0,8.2,3,5,7,1,2026-07-22T13:05:23.778092+05:30
Saharanpur,Uttar Pradesh,29.9637,77.546,31.6,61,0.1,970.9,7.35,52.6,75,20.2,19.3,1.6,258.0,134.0,3.8,6,5,7,1,2026-07-22T13:05:23.778097+05:30
Jhansi,Uttar Pradesh,25.4484,78.5685,32.2,66,0.1,969.6,7.35,35.3,63,16.1,15.7,2.4,183.0,125.0,11.6,6,5,7,1,2026-07-22T13:05:27.084245+05:30
Surat,Gujarat,21.1702,72.8311,26.6,92,0.7,999.8,0.65,32.8,68,30.6,24.3,25.1,457.0,18.0,53.9,10,5,3,1,2026-07-22T13:05:27.084280+05:30
Vadodara,Gujarat,22.3072,73.1812,29.5,77,0.0,996.7,0.9,26.3,58,26.1,12.3,5.3,153.0,51.0,6.1,7,5,3,1,2026-07-22T13:05:27.084294+05:30
Rajkot,Gujarat,22.3039,70.8022,30.0,73,0.0,987.0,3.0,44.3,57,41.1,18.8,2.1,99.0,67.0,5.2,7,5,3,1,2026-07-22T13:05:27.084304+05:30
Thane,Maharashtra,19.2183,72.9781,26.4,91,0.4,1003.8,0.55,45.0,60,41.0,17.1,6.0,222.0,51.0,4.8,10,5,0,1,2026-07-22T13:05:27.084313+05:30
Nagpur,Maharashtra,21.1458,79.0882,27.7,74,0.1,967.1,0.65,51.8,35,4.6,4.6,9.2,141.0,35.0,11.5,10,5,3,1,2026-07-22T13:05:27.084322+05:30
Nashik,Maharashtra,19.9975,73.7898,23.9,89,0.1,939.8,0.6,64.8,19,6.6,3.1,3.2,130.0,46.0,1.3,6,5,3,1,2026-07-22T13:05:27.084331+05:30
Aurangabad,Maharashtra,19.8762,75.3433,24.6,84,0.0,938.8,1.25,49.7,24,3.3,2.6,5.0,150.0,47.0,4.6,3,5,3,1,2026-07-22T13:05:27.084340+05:30
Solapur,Maharashtra,17.6599,75.9064,28.1,64,0.0,954.3,6.75,58.0,27,7.6,4.8,3.1,108.0,45.0,1.9,7,5,7,1,2026-07-22T13:05:27.084349+05:30
Kolhapur,Maharashtra,16.705,74.2433,24.8,81,0.0,946.2,7.1,60.5,26,11.5,6.7,3.8,128.0,41.0,2.0,3,5,7,1,2026-07-22T13:05:27.084357+05:30
Goa,Goa,15.2993,74.124,25.6,94,0.1,998.1,6.7,29.9,55,28.0,12.9,1.2,124.0,49.0,1.0,10,5,7,1,2026-07-22T13:05:27.084365+05:30
Jodhpur,Rajasthan,26.2389,73.0243,31.3,72,0.0,975.6,4.5,22.0,77,225.4,52.0,2.8,131.0,77.0,2.9,3,5,3,1,2026-07-22T13:05:27.084374+05:30
Udaipur,Rajasthan,24.5854,73.7125,26.3,91,0.1,939.0,1.95,29.2,52,12.5,6.0,3.2,144.0,63.0,3.5,10,5,3,1,2026-07-22T13:05:27.084383+05:30
Kota,Rajasthan,25.2138,75.8648,28.9,82,0.1,970.5,7.65,23.8,52,21.9,16.8,4.9,200.0,115.0,17.4,10,5,7,1,2026-07-22T13:05:27.084391+05:30
Bikaner,Rajasthan,28.0229,73.3119,34.6,59,0.0,974.2,7.95,36.7,71,50.8,18.4,1.0,159.0,113.0,4.4,0,5,7,1,2026-07-22T13:05:27.084401+05:30
Ajmer,Rajasthan,26.4499,74.6399,30.4,67,0.0,947.7,7.45,28.1,60,14.8,11.7,1.9,165.0,121.0,3.1,3,5,7,1,2026-07-22T13:05:27.084409+05:30
Gwalior,Madhya Pradesh,26.2183,78.1828,32.3,67,0.0,975.2,7.1,36.7,62,16.6,16.2,1.5,215.0,126.0,6.4,3,5,7,1,2026-07-22T13:05:27.084417+05:30
Indore,Madhya Pradesh,22.7196,75.8577,26.7,83,0.0,940.2,2.4,33.8,51,10.2,7.9,8.3,230.0,42.0,4.7,7,5,3,1,2026-07-22T13:05:27.084426+05:30
Bhopal,Madhya Pradesh,23.2599,77.4126,27.1,88,0.1,945.3,7.25,38.2,46,4.6,4.3,2.4,325.0,76.0,3.7,10,5,7,1,2026-07-22T13:05:27.084435+05:30
Jabalpur,Madhya Pradesh,23.1815,79.9864,27.0,85,0.0,953.4,6.65,41.4,38,4.2,4.0,1.5,177.0,94.0,2.7,7,5,7,1,2026-07-22T13:05:27.084445+05:30
Ujjain,Madhya Pradesh,23.1765,75.7885,27.4,81,0.0,945.6,3.05,32.8,52,8.8,6.6,5.5,200.0,48.0,3.3,7,5,3,1,2026-07-22T13:05:27.084454+05:30
Visakhapatnam,Andhra Pradesh,17.6868,83.2185,32.4,57,0.0,999.9,8.3,54.7,61,25.3,16.9,13.8,317.0,68.0,30.8,0,5,7,1,2026-07-22T13:05:27.084462+05:30
Vijayawada,Andhra Pradesh,16.5062,80.648,32.1,61,0.0,1000.3,5.45,46.4,65,19.8,10.9,1.7,122.0,79.0,5.0,3,5,0,1,2026-07-22T13:05:27.084471+05:30
Guntur,Andhra Pradesh,16.3067,80.4365,34.1,46,0.1,1001.4,5.7,51.5,61,18.0,9.5,1.4,120.0,74.0,4.0,3,5,0,1,2026-07-22T13:05:27.084480+05:30
Nellore,Andhra Pradesh,14.4426,79.9865,36.1,40,0.0,1003.7,8.4,43.9,68,18.5,10.6,3.3,108.0,68.0,5.2,0,5,7,1,2026-07-22T13:05:27.084489+05:30
Kurnool,Andhra Pradesh,15.8281,78.0373,30.3,62,0.0,975.6,6.55,50.4,42,17.1,6.9,0.8,111.0,68.0,1.4,3,5,7,1,2026-07-22T13:05:27.084499+05:30
Kakinada,Andhra Pradesh,16.9891,82.2475,34.0,53,0.0,1004.4,8.65,58.3,61,24.0,14.6,3.2,168.0,77.0,5.6,0,5,4,1,2026-07-22T13:05:27.084509+05:30
Tirupati,Andhra Pradesh,13.6288,79.4192,33.8,47,0.0,989.5,8.85,38.5,77,17.1,9.4,1.5,108.0,79.0,2.1,0,5,7,1,2026-07-22T13:05:27.084517+05:30
Warangal,Telangana,17.9689,79.5941,28.5,71,0.0,975.8,2.3,46.1,51,14.2,8.9,1.7,157.0,73.0,3.4,7,5,3,1,2026-07-22T13:05:27.084526+05:30
Nizamabad,Telangana,18.6725,78.0941,26.8,78,0.1,961.1,2.0,50.0,41,5.2,4.4,2.5,143.0,52.0,2.1,10,5,3,1,2026-07-22T13:05:27.084534+05:30
Mysore,Karnataka,12.2958,76.6396,28.3,58,0.1,929.2,7.95,52.6,33,4.9,3.1,2.0,113.0,53.0,1.4,7,5,7,1,2026-07-22T13:05:27.084540+05:30
Mangalore,Karnataka,12.9141,74.856,25.3,92,0.3,1008.8,8.15,31.0,53,14.2,7.0,1.3,117.0,55.0,1.8,10,0,4,1,2026-07-22T13:05:27.084547+05:30
Hubli-Dharwad,Karnataka,15.3647,75.124,26.6,67,0.0,940.3,4.4,62.3,18,5.5,2.8,1.3,102.0,52.0,0.9,7,5,3,1,2026-07-22T13:05:27.084553+05:30
Belgaum,Karnataka,15.8497,74.4977,25.5,75,0.0,924.7,8.2,62.3,18,7.8,4.7,2.1,113.0,47.0,1.5,7,5,7,1,2026-07-22T13:05:30.391477+05:30
Coimbatore,Tamil Nadu,11.0168,76.9558,32.7,45,0.0,961.9,8.4,53.6,42,5.7,3.7,1.0,122.0,62.0,1.6,0,5,7,1,2026-07-22T13:05:30.391513+05:30
Madurai,Tamil Nadu,9.9252,78.1198,38.0,30,0.0,991.8,8.25,50.0,70,30.3,16.2,1.6,134.0,127.0,3.5,0,5,10,1,2026-07-22T13:05:30.391527+05:30
Trichy,Tamil Nadu,10.7905,78.7047,37.5,35,0.0,998.3,7.9,40.3,57,14.9,8.4,1.2,118.0,79.0,2.2,0,5,10,1,2026-07-22T13:05:30.391537+05:30
Salem,Tamil Nadu,11.6643,78.146,32.6,52,0.0,976.9,8.7,40.7,68,23.3,14.4,2.2,192.0,115.0,8.1,0,5,7,1,2026-07-22T13:05:30.391548+05:30
Tirunelveli,Tamil Nadu,8.7139,77.7567,39.5,28,0.0,1001.9,8.6,44.3,47,9.4,5.6,1.0,118.0,73.0,1.3,0,5,7,1,2026-07-22T13:05:30.391557+05:30
Vellore,Tamil Nadu,12.9165,79.1325,35.7,39,0.0,983.0,9.0,40.0,79,16.1,9.3,1.5,117.0,89.0,3.1,0,5,10,1,2026-07-22T13:05:30.391566+05:30
Erode,Tamil Nadu,11.341,77.7172,35.7,37,0.0,988.3,8.45,41.4,57,10.3,6.8,1.4,171.0,88.0,2.2,0,5,10,1,2026-07-22T13:05:30.391575+05:30
Kochi,Kerala,9.9312,76.2673,29.5,75,0.0,1010.0,7.9,34.9,62,12.4,8.4,2.2,149.0,82.0,4.1,7,0,4,1,2026-07-22T13:05:30.391585+05:30
Thiruvananthapuram,Kerala,8.5241,76.9366,29.7,72,0.0,1009.2,8.15,37.4,51,14.1,9.4,1.8,124.0,74.0,2.1,7,0,4,1,2026-07-22T13:05:30.391594+05:30
Kozhikode,Kerala,11.2588,75.7804,29.0,74,0.0,1009.4,7.9,31.3,39,9.0,5.0,0.9,128.0,57.0,1.6,7,0,4,1,2026-07-22T13:05:30.391603+05:30
Thrissur,Kerala,10.5276,76.2144,30.5,71,0.0,1008.4,7.65,34.9,59,9.9,6.7,1.1,112.0,70.0,2.1,3,0,4,1,2026-07-22T13:05:30.391614+05:30
Kannur,Kerala,11.8745,75.3704,28.1,78,0.0,1009.2,7.4,29.2,48,7.6,4.6,1.4,120.0,53.0,1.6,7,0,4,1,2026-07-22T13:05:30.391623+05:30
Patna,Bihar,25.5941,85.1376,30.8,70,0.1,993.9,8.2,47.9,67,11.7,11.5,2.8,247.0,111.0,7.4,6,5,7,1,2026-07-22T13:05:30.391632+05:30
Gaya,Bihar,24.7914,85.0002,31.5,68,0.0,986.9,8.85,44.6,53,7.7,7.6,1.7,343.0,104.0,5.6,3,5,7,1,2026-07-22T13:05:30.391641+05:30
Muzaffarpur,Bihar,26.1209,85.3647,28.9,82,0.1,994.7,7.75,53.3,72,13.4,13.2,2.8,220.0,105.0,4.9,10,5,7,1,2026-07-22T13:05:30.391650+05:30
Bhagalpur,Bihar,25.2425,87.0117,31.1,71,0.2,995.4,8.1,43.6,62,9.9,9.8,4.7,224.0,88.0,7.5,6,5,7,1,2026-07-22T13:05:30.391659+05:30
Ranchi,Jharkhand,23.3441,85.3096,26.4,79,0.2,931.9,6.0,41.8,48,3.4,3.4,7.5,163.0,57.0,9.1,10,5,3,1,2026-07-22T13:05:30.391668+05:30
Jamshedpur,Jharkhand,22.8046,86.2029,25.8,95,0.1,985.2,6.5,23.4,57,13.0,12.8,19.6,331.0,55.0,25.1,10,5,7,1,2026-07-22T13:05:30.391676+05:30
Dhanbad,Jharkhand,23.7957,86.4304,29.5,73,0.0,974.1,7.05,41.0,79,21.5,21.3,22.0,449.0,76.0,61.8,7,5,7,1,2026-07-22T13:05:30.391685+05:30
Bokaro,Jharkhand,23.6693,86.1511,29.2,76,0.0,977.9,8.65,38.2,82,23.2,23.0,27.0,1179.0,73.0,69.7,7,5,7,1,2026-07-22T13:05:30.391694+05:30
Bhubaneswar,Odisha,20.2961,85.8245,28.7,79,0.0,998.3,7.55,38.9,58,16.8,12.9,3.2,222.0,94.0,7.3,7,5,7,1,2026-07-22T13:05:30.391702+05:30
Cuttack,Odisha,20.4625,85.8828,27.5,89,0.2,1000.1,7.0,38.9,58,16.8,12.9,3.2,211.0,94.0,7.3,10,5,4,1,2026-07-22T13:05:30.391711+05:30
Rourkela,Odisha,22.2604,84.8536,28.4,75,0.1,979.2,1.8,37.4,56,5.1,5.1,5.6,212.0,57.0,5.9,10,5,3,1,2026-07-22T13:05:30.391721+05:30
Raipur,Chhattisgarh,21.2514,81.6296,26.4,85,0.1,968.6,0.5,54.4,59,16.4,15.5,20.2,271.0,26.0,42.5,10,5,3,1,2026-07-22T13:05:30.391729+05:30
Bhilai,Chhattisgarh,21.1938,81.3509,26.6,83,0.0,969.2,0.75,57.6,55,14.6,14.1,18.4,443.0,25.0,41.8,7,5,3,1,2026-07-22T13:05:30.391738+05:30
Guwahati,Assam,26.1158,91.7086,31.0,74,0.0,997.2,8.65,21.6,51,7.3,7.1,1.1,209.0,98.0,1.7,3,5,7,1,2026-07-22T13:05:30.391747+05:30
Agartala,Tripura,23.8315,91.2868,27.1,95,0.1,1002.2,8.1,38.9,38,4.2,4.1,2.6,137.0,82.0,1.3,10,5,4,1,2026-07-22T13:05:30.391757+05:30
Shillong,Meghalaya,25.5788,91.8933,26.2,62,0.0,856.7,7.75,32.4,34,2.8,2.5,1.0,135.0,76.0,1.1,7,5,7,1,2026-07-22T13:05:30.391766+05:30
Imphal,Manipur,24.817,93.9368,26.5,84,0.0,920.8,8.75,24.1,51,3.3,3.1,0.9,172.0,82.0,0.9,7,5,7,1,2026-07-22T13:05:30.391777+05:30
Aizawl,Mizoram,23.7271,92.7176,27.3,61,0.0,890.5,8.15,39.6,23,3.2,2.8,0.9,111.0,64.0,0.4,7,5,7,1,2026-07-22T13:05:30.391786+05:30
Kohima,Nagaland,25.6701,94.1077,24.1,85,0.0,854.5,7.95,24.1,32,3.7,3.4,0.9,141.0,73.0,0.5,3,5,7,1,2026-07-22T13:05:30.391794+05:30
Gangtok,Sikkim,27.3314,88.6138,22.5,73,0.1,837.2,6.8,30.6,38,2.0,1.9,2.3,163.0,79.0,0.8,6,5,7,1,2026-07-22T13:05:30.391802+05:30
Siliguri,West Bengal,26.7271,88.3953,31.0,68,0.0,988.6,8.5,37.4,60,6.2,6.0,1.7,197.0,90.0,1.5,3,5,7,1,2026-07-22T13:05:33.736243+05:30
Durgapur,West Bengal,23.5204,87.3119,30.9,66,0.1,989.1,8.55,35.6,71,11.4,11.3,11.6,184.0,92.0,26.0,6,5,7,1,2026-07-22T13:05:33.736284+05:30
Asansol,West Bengal,23.6739,86.9524,29.3,74,0.2,987.8,8.45,36.7,68,12.2,12.1,13.0,493.0,87.0,29.6,10,5,7,1,2026-07-22T13:05:33.736295+05:30
Pondicherry,Puducherry,11.9139,79.8145,32.5,66,0.0,1007.1,7.65,37.8,70,31.1,22.1,6.7,199.0,108.0,11.5,3,5,4,1,2026-07-22T13:05:33.736304+05:30
Port Blair,Andaman and Nicobar Islands,11.6234,92.7265,30.3,71,0.0,1007.5,8.55,40.3,44,9.5,5.5,0.2,94.0,52.0,0.6,3,5,4,1,2026-07-22T13:05:33.736314+05:30
Haridwar,Uttarakhand,29.9457,78.1642,31.9,61,0.0,969.6,7.4,37.1,68,16.3,15.5,1.3,181.0,125.0,3.9,3,5,7,1,2026-07-22T13:05:33.736323+05:30
Rishikesh,Uttarakhand,30.0869,78.2676,29.0,82,0.0,962.8,6.8,23.8,54,11.7,11.1,0.9,207.0,113.0,2.3,7,5,7,1,2026-07-22T13:05:33.736331+05:30
Nainital,Uttarakhand,29.3919,79.4542,22.1,66,0.1,805.9,6.7,47.9,52,10.1,9.7,0.7,159.0,97.0,1.0,6,5,7,0,2026-07-22T13:05:33.736339+05:30
Mussoorie,Uttarakhand,30.4599,78.0664,18.5,98,0.2,802.2,7.8,30.6,49,7.1,6.9,1.2,206.0,117.0,2.0,6,10,7,1,2026-07-22T13:05:33.736348+05:30
Dharamshala,Himachal Pradesh,32.219,76.3234,21.7,97,0.2,867.2,5.45,24.1,38,5.3,5.1,2.0,265.0,102.0,0.8,6,5,3,1,2026-07-22T13:05:33.736355+05:30
Dalhousie,Himachal Pradesh,32.5387,75.971,18.0,99,0.1,803.8,1.7,20.9,63,12.2,11.5,4.5,294.0,118.0,2.4,6,10,3,1,2026-07-22T13:05:33.736362+05:30
Patiala,Punjab,30.3398,76.3869,31.3,72,0.0,973.0,6.45,39.6,87,27.0,26.2,3.3,272.0,138.0,8.7,3,5,7,1,2026-07-22T13:05:33.736369+05:30
Bhatinda,Punjab,30.211,74.9455,31.1,72,0.1,977.7,6.75,43.6,84,21.5,21.4,6.3,374.0,125.0,15.0,6,5,7,1,2026-07-22T13:05:33.736376+05:30
Rohtak,Haryana,28.8955,76.6066,32.1,66,0.0,975.8,6.2,42.5,83,30.0,29.2,6.3,422.0,157.0,16.0,3,5,7,1,2026-07-22T13:05:33.736383+05:30
Panipat,Haryana,29.3909,76.9635,30.9,72,0.1,975.0,7.45,41.8,81,28.6,27.6,4.8,285.0,152.0,14.4,6,5,7,1,2026-07-22T13:05:33.736390+05:30
Mathura,Uttar Pradesh,27.4924,77.6737,32.4,66,0.0,980.1,7.2,38.9,70,80.1,27.7,2.6,287.0,135.0,5.4,3,5,7,1,2026-07-22T13:05:33.736397+05:30
Vrindavan,Uttar Pradesh,27.5823,77.7027,32.6,66,0.0,980.6,7.05,38.5,70,80.1,27.7,2.6,292.0,135.0,5.4,3,5,7,1,2026-07-22T13:05:33.736404+05:30
Ayodhya,Uttar Pradesh,26.7922,82.1998,32.5,63,0.0,988.6,8.0,48.6,85,15.4,15.3,1.6,264.0,127.0,5.0,3,5,7,1,2026-07-22T13:05:33.736411+05:30
Ratlam,Madhya Pradesh,23.3315,75.0367,25.6,91,0.4,946.9,1.1,34.2,52,10.2,6.8,5.1,140.0,47.0,3.7,10,5,3,1,2026-07-22T13:05:33.736418+05:30
Sagar,Madhya Pradesh,23.8388,78.7378,28.8,78,0.0,941.8,8.0,25.9,36,3.7,3.5,1.1,167.0,95.0,1.2,7,5,7,1,2026-07-22T13:05:33.736425+05:30
Satna,Madhya Pradesh,24.6005,80.8322,30.3,68,0.0,963.1,7.55,31.3,59,7.4,7.3,3.0,225.0,100.0,12.1,3,5,7,1,2026-07-22T13:05:33.736433+05:30
Akola,Maharashtra,20.7002,77.0082,28.6,73,0.1,969.0,0.75,58.3,25,4.6,3.7,7.1,158.0,34.0,4.2,10,5,3,1,2026-07-22T13:05:33.736440+05:30
Amravati,Maharashtra,20.9374,77.7796,26.7,81,0.1,961.3,1.05,51.5,25,4.2,3.4,7.7,150.0,33.0,4.3,10,5,3,1,2026-07-22T13:05:33.736449+05:30
Latur,Maharashtra,18.4088,76.5604,27.2,69,0.1,936.4,5.1,60.1,29,4.2,3.4,2.7,120.0,44.0,1.3,10,5,3,1,2026-07-22T13:05:33.736457+05:30
Nanded,Maharashtra,19.1383,77.3091,27.9,75,0.0,964.5,1.05,51.8,39,4.0,3.6,3.0,149.0,51.0,3.1,7,5,3,1,2026-07-22T13:05:33.736464+05:30
Gulbarga,Karnataka,17.3297,76.8343,29.7,58,0.1,956.1,2.85,63.0,33,11.4,6.1,2.8,108.0,51.0,2.1,7,5,3,1,2026-07-22T13:05:33.736470+05:30
Bidar,Karnataka,17.9104,77.5199,27.9,64,0.0,932.6,1.85,57.2,33,6.7,4.4,2.6,119.0,52.0,1.7,7,5,3,1,2026-07-22T13:05:33.736478+05:30
Hospet,Karnataka,15.2689,76.3909,29.1,60,0.0,954.9,5.35,61.2,24,9.7,4.2,1.2,106.0,59.0,1.5,4,5,3,1,2026-07-22T13:05:33.736485+05:30
Tirupur,Tamil Nadu,11.1085,77.3411,34.5,43,0.0,974.8,8.5,54.7,59,9.5,6.4,1.3,149.0,85.0,2.5,0,5,7,1,2026-07-22T13:05:33.736491+05:30
Alappuzha,Kerala,9.4981,76.3388,29.7,73,0.0,1010.0,7.35,33.1,58,18.2,12.4,3.1,109.0,82.0,4.6,7,0,4,1,2026-07-22T13:05:33.736498+05:30
Munnar,Kerala,10.0889,77.0595,22.0,75,0.0,859.3,8.3,34.2,44,6.0,3.7,0.7,94.0,66.0,1.6,3,5,7,1,2026-07-22T13:05:33.736505+05:30
Silchar,Assam,24.8333,92.7789,34.1,56,0.0,999.9,8.75,28.4,54,7.8,6.2,0.8,149.0,83.0,1.9,0,5,7,1,2026-07-22T13:05:33.736512+05:30
Dibrugarh,Assam,27.4728,94.912,31.2,76,0.0,991.1,3.5,19.8,61,6.0,5.8,1.0,177.0,122.0,1.3,3,5,3,1,2026-07-22T13:05:33.736518+05:30
