city,state,latitude,longitude,temp,humidity,rain,pressure,uv_index,wind_gusts,aqi,pm10,pm2_5,mosquito_risk,arthritis_risk,migraine_risk,frizz_risk,updated_at
Delhi,Delhi,28.6139,77.209,36.8,27,0.0,980.2,7.2,20.5,175,221.7,41.7,0,5,10,0,2026-04-19T15:26:10.276801+05:30
Mumbai,Maharashtra,19.076,72.8777,30.0,73,0.0,1005.8,7.9,26.6,85,41.6,26.4,7,5,4,1,2026-04-19T15:26:10.276841+05:30
Bangalore,Karnataka,12.9716,77.5946,36.2,22,0.0,910.8,9.6,25.9,101,31.0,23.9,0,5,10,0,2026-04-19T15:26:10.276857+05:30
Hyderabad,Telangana,17.385,78.4867,33.9,44,0.0,952.1,9.25,39.2,105,43.3,35.3,0,5,7,1,2026-04-19T15:26:10.276867+05:30
Chennai,Tamil Nadu,13.0827,80.2707,35.1,52,0.0,1004.9,9.3,34.6,37,13.1,8.6,0,5,7,1,2026-04-19T15:26:10.276876+05:30
Kolkata,West Bengal,22.5726,88.3639,33.5,67,0.0,1001.5,8.9,32.4,81,39.9,29.4,3,5,4,1,2026-04-19T15:26:10.276888+05:30
Pune,Maharashtra,18.5204,73.8567,38.6,22,0.0,947.0,8.65,31.0,95,39.5,32.1,0,5,10,0,2026-04-19T15:26:10.276896+05:30
Ahmedabad,Gujarat,23.0225,72.5714,40.2,12,0.0,999.8,8.0,25.2,61,29.7,10.7,0,5,10,0,2026-04-19T15:26:10.276903+05:30
Jaipur,Rajasthan,26.9124,75.7873,39.2,11,0.0,958.0,7.85,38.5,148,218.4,27.9,0,5,10,0,2026-04-19T15:26:10.276929+05:30
Lucknow,Uttar Pradesh,26.8467,80.9462,40.8,20,0.0,989.0,7.9,32.4,122,121.1,26.8,0,5,10,0,2026-04-19T15:26:10.276940+05:30
Kanpur,Uttar Pradesh,26.4499,80.3319,39.1,25,0.0,987.9,7.9,21.6,184,300.8,42.3,0,5,10,0,2026-04-19T15:26:10.276948+05:30
Chandigarh,Chandigarh,30.7333,76.7794,35.8,25,0.0,967.0,6.1,34.9,78,65.9,17.3,0,5,10,0,2026-04-19T15:26:10.276955+05:30
Srinagar,Jammu and Kashmir,34.0837,74.7973,18.1,59,0.0,843.8,7.25,30.2,68,29.0,12.7,0,5,7,0,2026-04-19T15:26:10.276963+05:30
Jammu,Jammu and Kashmir,32.7266,74.857,34.4,27,0.0,972.5,5.4,32.4,63,42.4,12.7,0,5,3,0,2026-04-19T15:26:10.276970+05:30
Amritsar,Punjab,31.634,74.8723,34.1,29,0.0,979.9,7.35,25.9,66,43.3,14.4,0,5,7,0,2026-04-19T15:26:10.276977+05:30
Ludhiana,Punjab,30.901,75.8573,35.5,23,0.0,977.4,7.3,37.1,92,81.3,19.4,0,5,10,0,2026-04-19T15:26:10.276986+05:30
Jalandhar,Punjab,31.326,75.5762,33.7,26,0.0,979.0,6.45,36.0,75,79.6,18.2,0,5,7,0,2026-04-19T15:26:10.276992+05:30
Dehradun,Uttarakhand,30.6284,78.0322,26.6,30,0.0,832.6,6.3,47.5,57,38.8,9.8,4,5,7,0,2026-04-19T15:26:10.276999+05:30
Shimla,Himachal Pradesh,31.1048,77.1734,23.7,31,0.0,788.3,6.75,44.6,62,36.7,9.9,0,5,7,0,2026-04-19T15:26:10.277006+05:30
Manali,Himachal Pradesh,32.2396,77.1887,18.1,58,0.0,822.9,6.95,44.3,67,6.8,2.9,0,5,7,0,2026-04-19T15:26:10.277012+05:30
Gurgaon,Haryana,28.4595,77.0266,36.9,26,0.0,978.8,7.3,18.4,450,474.0,58.8,0,5,10,0,2026-04-19T15:26:10.277019+05:30
Noida,Uttar Pradesh,28.5355,77.391,37.4,25,0.0,981.6,7.25,22.3,450,474.0,58.8,0,5,10,0,2026-04-19T15:26:10.277025+05:30
Ghaziabad,Uttar Pradesh,28.6692,77.4538,37.0,28,0.0,979.8,7.2,20.5,156,183.0,39.0,0,5,10,0,2026-04-19T15:26:10.277033+05:30
Faridabad,Haryana,28.4089,77.3178,37.6,22,0.0,980.9,7.3,24.8,450,474.0,58.8,0,5,10,0,2026-04-19T15:26:10.277040+05:30
Meerut,Uttar Pradesh,28.9845,77.7064,38.1,23,0.0,978.4,6.6,24.8,156,183.0,39.0,0,5,10,0,2026-04-19T15:26:10.277047+05:30
Agra,Uttar Pradesh,27.1767,78.0081,40.2,21,0.0,984.3,7.55,26.3,305,301.7,43.5,0,5,10,0,2026-04-19T15:26:10.277055+05:30
Varanasi,Uttar Pradesh,25.3176,82.9739,42.5,15,0.0,992.5,8.45,27.7,119,126.2,30.2,0,5,10,0,2026-04-19T15:26:10.277062+05:30
Prayagraj,Uttar Pradesh,25.4358,81.8463,41.8,15,0.0,991.4,8.35,27.7,125,138.8,32.6,0,5,10,0,2026-04-19T15:26:10.277069+05:30
Gorakhpur,Uttar Pradesh,26.7606,83.3732,39.3,31,0.0,992.2,8.3,28.8,121,47.0,34.5,0,5,10,1,2026-04-19T15:26:10.277077+05:30
Bareilly,Uttar Pradesh,28.367,79.4304,39.9,19,0.0,982.9,7.35,30.2,93,51.2,14.9,0,5,10,0,2026-04-19T15:26:10.277084+05:30
Aligarh,Uttar Pradesh,27.8974,78.088,40.3,17,0.0,981.9,7.5,32.0,223,333.4,46.7,0,5,10,0,2026-04-19T15:26:10.277090+05:30
Moradabad,Uttar Pradesh,28.8386,78.7733,38.7,21,0.0,980.2,7.4,34.2,107,83.1,21.2,0,5,10,0,2026-04-19T15:26:10.277096+05:30
Saharanpur,Uttar Pradesh,29.9637,77.546,37.4,27,0.0,972.9,6.75,35.3,100,95.2,21.2,0,5,10,0,2026-04-19T15:26:10.277102+05:30
Jhansi,Uttar Pradesh,25.4484,78.5685,41.2,16,0.0,974.6,8.25,26.3,69,65.4,15.5,0,5,10,0,2026-04-19T15:26:13.608748+05:30
Surat,Gujarat,21.1702,72.8311,34.3,35,0.0,1005.1,7.75,25.6,98,51.6,37.6,0,5,4,1,2026-04-19T15:26:13.608780+05:30
Vadodara,Gujarat,22.3072,73.1812,40.6,17,0.0,1001.9,8.15,30.2,70,32.5,17.2,0,5,7,0,2026-04-19T15:26:13.608792+05:30
Rajkot,Gujarat,22.3039,70.8022,37.5,17,0.0,992.8,7.55,28.4,55,14.9,7.3,0,5,10,0,2026-04-19T15:26:13.608802+05:30
Thane,Maharashtra,19.2183,72.9781,33.0,55,0.0,1005.6,8.05,40.0,85,41.6,26.4,0,5,4,1,2026-04-19T15:26:13.608810+05:30
Nagpur,Maharashtra,21.1458,79.0882,42.2,12,0.0,969.5,8.9,18.7,92,38.3,35.2,0,5,10,0,2026-04-19T15:26:13.608818+05:30
Nashik,Maharashtra,19.9975,73.7898,37.3,23,0.0,944.4,6.8,33.5,76,40.9,30.6,0,5,10,0,2026-04-19T15:26:13.608826+05:30
Aurangabad,Maharashtra,19.8762,75.3433,39.0,19,0.0,942.7,9.05,22.7,93,32.0,25.0,0,5,10,0,2026-04-19T15:26:13.608834+05:30
Solapur,Maharashtra,17.6599,75.9064,38.4,25,0.0,954.7,8.85,27.0,131,45.9,38.1,0,5,10,0,2026-04-19T15:26:13.608842+05:30
Kolhapur,Maharashtra,16.705,74.2433,31.9,57,0.0,946.9,9.0,45.4,102,42.8,35.5,0,5,7,1,2026-04-19T15:26:13.608850+05:30
Goa,Goa,15.2993,74.124,31.9,64,0.0,996.1,9.0,29.9,85,45.9,23.3,3,5,7,1,2026-04-19T15:26:13.608858+05:30
Jodhpur,Rajasthan,26.2389,73.0243,39.1,15,0.0,981.3,8.15,27.0,103,108.7,22.1,0,5,10,0,2026-04-19T15:26:13.608867+05:30
Udaipur,Rajasthan,24.5854,73.7125,37.9,14,0.0,945.8,8.65,36.7,49,16.5,8.9,0,5,10,0,2026-04-19T15:26:13.608875+05:30
Kota,Rajasthan,25.2138,75.8648,42.6,10,0.0,975.5,8.2,36.4,66,29.7,9.7,0,5,10,0,2026-04-19T15:26:13.608883+05:30
Bikaner,Rajasthan,28.0229,73.3119,39.3,14,0.0,979.8,7.9,23.0,77,15.6,6.9,0,5,10,0,2026-04-19T15:26:13.608891+05:30
Ajmer,Rajasthan,26.4499,74.6399,37.5,14,0.0,953.7,7.6,28.4,60,24.0,9.5,0,5,10,0,2026-04-19T15:26:13.608898+05:30
Gwalior,Madhya Pradesh,26.2183,78.1828,40.1,19,0.0,979.9,7.45,31.3,88,106.9,22.6,0,5,10,0,2026-04-19T15:26:13.608906+05:30
Indore,Madhya Pradesh,22.7196,75.8577,39.0,16,0.0,946.7,8.6,29.5,58,20.7,14.0,0,5,10,0,2026-04-19T15:26:13.608940+05:30
Bhopal,Madhya Pradesh,23.2599,77.4126,40.5,13,0.0,951.8,8.6,30.2,87,39.0,21.4,0,5,10,0,2026-04-19T15:26:13.608951+05:30
Jabalpur,Madhya Pradesh,23.1815,79.9864,40.3,18,0.0,958.6,8.75,23.8,91,23.8,13.9,0,5,10,0,2026-04-19T15:26:13.608959+05:30
Ujjain,Madhya Pradesh,23.1765,75.7885,39.7,15,0.0,952.3,8.5,33.8,51,19.2,12.8,0,5,10,0,2026-04-19T15:26:13.608967+05:30
Visakhapatnam,Andhra Pradesh,17.6868,83.2185,33.1,58,0.0,1001.7,9.15,38.5,65,27.1,19.6,0,5,4,1,2026-04-19T15:26:13.608975+05:30
Vijayawada,Andhra Pradesh,16.5062,80.648,37.5,38,0.0,999.5,9.25,31.3,57,22.4,14.7,0,5,10,1,2026-04-19T15:26:13.608982+05:30
Guntur,Andhra Pradesh,16.3067,80.4365,37.1,37,0.0,1001.0,9.25,33.8,61,25.8,18.3,0,5,7,1,2026-04-19T15:26:13.608990+05:30
Nellore,Andhra Pradesh,14.4426,79.9865,38.5,41,0.0,1002.4,9.25,33.5,49,25.0,16.8,0,5,7,1,2026-04-19T15:26:13.608998+05:30
Kurnool,Andhra Pradesh,15.8281,78.0373,41.9,19,0.0,973.0,9.2,38.2,89,45.9,36.4,0,5,10,0,2026-04-19T15:26:13.609008+05:30
Kakinada,Andhra Pradesh,16.9891,82.2475,37.2,41,0.0,1004.7,9.2,29.9,52,19.3,11.0,0,5,7,1,2026-04-19T15:26:13.609016+05:30
Tirupati,Andhra Pradesh,13.6288,79.4192,37.9,29,0.0,988.9,9.35,33.1,64,25.0,18.1,0,5,10,1,2026-04-19T15:26:13.609025+05:30
Warangal,Telangana,17.9689,79.5941,39.2,32,0.0,975.7,9.15,32.8,88,41.3,33.9,0,5,10,1,2026-04-19T15:26:13.609033+05:30
Nizamabad,Telangana,18.6725,78.0941,41.6,13,0.0,961.7,9.0,39.2,113,23.9,19.7,0,5,10,0,2026-04-19T15:26:13.609040+05:30
Mysore,Karnataka,12.2958,76.6396,37.6,20,0.0,926.9,9.5,43.9,87,29.8,22.6,0,5,10,0,2026-04-19T15:26:13.609047+05:30
Mangalore,Karnataka,12.9141,74.856,29.8,84,0.0,1004.5,9.1,22.7,70,41.0,22.9,7,5,4,1,2026-04-19T15:26:13.609055+05:30
Hubli-Dharwad,Karnataka,15.3647,75.124,32.0,55,0.0,939.9,9.2,31.7,82,42.4,34.2,0,5,7,1,2026-04-19T15:26:13.609063+05:30
Belgaum,Karnataka,15.8497,74.4977,31.0,63,0.0,925.6,9.25,28.8,110,42.7,33.9,3,5,7,1,2026-04-19T15:26:16.945238+05:30
Coimbatore,Tamil Nadu,11.0168,76.9558,37.9,24,0.0,959.4,9.4,53.3,94,31.0,23.4,0,5,10,0,2026-04-19T15:26:16.945265+05:30
Madurai,Tamil Nadu,9.9252,78.1198,38.8,27,0.0,989.9,9.3,41.0,64,18.9,13.7,0,5,10,1,2026-04-19T15:26:16.945274+05:30
Trichy,Tamil Nadu,10.7905,78.7047,37.7,35,0.0,996.7,9.3,23.0,57,16.6,12.1,0,5,10,1,2026-04-19T15:26:16.945281+05:30
Salem,Tamil Nadu,11.6643,78.146,37.4,35,0.0,974.8,9.35,18.0,62,25.6,17.1,0,5,10,1,2026-04-19T15:26:16.945288+05:30
Tirunelveli,Tamil Nadu,8.7139,77.7567,38.9,28,0.0,999.7,9.25,49.0,67,20.7,15.3,0,5,10,1,2026-04-19T15:26:16.945294+05:30
Vellore,Tamil Nadu,12.9165,79.1325,36.9,30,0.0,982.2,9.4,27.7,85,22.2,16.0,0,5,10,1,2026-04-19T15:26:16.945301+05:30
Erode,Tamil Nadu,11.341,77.7172,40.4,24,0.0,985.6,9.35,27.0,58,27.5,18.3,0,5,10,0,2026-04-19T15:26:16.945307+05:30
Kochi,Kerala,9.9312,76.2673,29.8,81,0.0,1006.0,9.15,25.2,77,24.8,19.6,7,5,4,1,2026-04-19T15:26:16.945314+05:30
Thiruvananthapuram,Kerala,8.5241,76.9366,29.3,83,0.0,1005.5,9.1,29.5,67,22.8,15.5,7,5,4,1,2026-04-19T15:26:16.945320+05:30
Kozhikode,Kerala,11.2588,75.7804,31.8,72,0.0,1005.3,9.1,30.2,62,22.3,14.8,3,5,4,1,2026-04-19T15:26:16.945326+05:30
Thrissur,Kerala,10.5276,76.2144,33.9,63,0.0,1004.5,9.15,32.8,74,24.2,17.2,3,5,4,1,2026-04-19T15:26:16.945333+05:30
Kannur,Kerala,11.8745,75.3704,32.4,66,0.0,1005.2,9.1,33.1,69,33.1,20.5,3,5,4,1,2026-04-19T15:26:16.945339+05:30
Patna,Bihar,25.5941,85.1376,37.6,40,0.0,995.6,8.6,27.0,125,85.7,45.6,0,5,10,1,2026-04-19T15:26:16.945345+05:30
Gaya,Bihar,24.7914,85.0002,41.1,16,0.0,988.8,8.7,33.8,138,87.5,23.2,0,5,10,0,2026-04-19T15:26:16.945351+05:30
Muzaffarpur,Bihar,26.1209,85.3647,35.8,45,0.0,996.0,8.6,29.5,136,73.1,50.3,0,5,10,1,2026-04-19T15:26:16.945357+05:30
Bhagalpur,Bihar,25.2425,87.0117,34.4,55,0.0,996.8,8.65,27.0,119,59.8,45.5,0,5,7,1,2026-04-19T15:26:16.945362+05:30
Ranchi,Jharkhand,23.3441,85.3096,38.7,14,0.0,935.2,9.2,43.2,127,63.6,22.1,0,5,10,0,2026-04-19T15:26:16.945368+05:30
Jamshedpur,Jharkhand,22.8046,86.2029,40.7,24,0.0,985.4,9.0,36.7,164,74.0,44.2,0,5,10,1,2026-04-19T15:26:16.945374+05:30
Dhanbad,Jharkhand,23.7957,86.4304,42.5,15,0.0,974.3,8.95,39.6,155,88.9,24.5,0,5,10,0,2026-04-19T15:26:16.945380+05:30
Bokaro,Jharkhand,23.6693,86.1511,42.1,13,0.0,978.4,8.95,44.3,137,83.1,23.3,0,5,10,0,2026-04-19T15:26:16.945386+05:30
Bhubaneswar,Odisha,20.2961,85.8245,31.7,72,0.0,999.8,9.1,34.6,67,33.6,24.6,3,5,7,1,2026-04-19T15:26:16.945391+05:30
Cuttack,Odisha,20.4625,85.8828,34.6,62,0.0,1001.0,9.15,34.2,67,33.6,24.6,3,5,4,1,2026-04-19T15:26:16.945397+05:30
Rourkela,Odisha,22.2604,84.8536,42.1,19,0.0,980.3,8.9,32.8,187,77.3,57.7,0,5,10,0,2026-04-19T15:26:16.945403+05:30
Raipur,Chhattisgarh,21.2514,81.6296,42.8,15,0.0,970.6,8.95,33.8,145,32.1,28.7,0,5,10,0,2026-04-19T15:26:16.945408+05:30
Bhilai,Chhattisgarh,21.1938,81.3509,42.8,16,0.0,970.9,9.0,31.7,150,32.4,28.1,0,5,10,0,2026-04-19T15:26:16.945414+05:30
Guwahati,Assam,26.1158,91.7086,29.8,70,0.0,998.2,8.55,24.8,116,47.5,34.5,7,5,7,1,2026-04-19T15:26:16.945420+05:30
Agartala,Tripura,23.8315,91.2868,29.8,76,0.0,1003.6,8.75,35.6,126,54.9,41.9,7,5,4,1,2026-04-19T15:26:16.945426+05:30
Shillong,Meghalaya,25.5788,91.8933,19.8,74,0.0,855.7,8.75,54.7,89,21.5,16.2,3,5,7,0,2026-04-19T15:26:16.945432+05:30
Imphal,Manipur,24.817,93.9368,21.8,80,0.0,921.7,8.65,61.2,151,53.3,36.4,3,5,7,1,2026-04-19T15:26:16.945438+05:30
Aizawl,Mizoram,23.7271,92.7176,23.8,73,0.0,892.1,8.3,38.5,147,65.4,48.1,3,5,7,1,2026-04-19T15:26:16.945443+05:30
Kohima,Nagaland,25.6701,94.1077,19.7,81,0.0,854.0,8.85,53.6,126,51.2,36.2,3,10,7,1,2026-04-19T15:26:16.945449+05:30
Gangtok,Sikkim,27.3314,88.6138,20.6,74,0.0,837.3,8.85,21.6,91,21.6,16.2,3,5,7,0,2026-04-19T15:26:16.945455+05:30
Siliguri,West Bengal,26.7271,88.3953,25.5,77,0.0,991.5,8.4,21.2,142,43.5,32.6,7,5,7,1,2026-04-19T15:26:20.282394+05:30
Durgapur,West Bengal,23.5204,87.3119,36.9,45,0.0,990.0,8.9,40.3,137,110.8,46.7,0,5,10,1,2026-04-19T15:26:20.282421+05:30
Asansol,West Bengal,23.6739,86.9524,40.6,27,0.0,987.6,8.95,34.6,134,97.3,29.0,0,5,10,1,2026-04-19T15:26:20.282430+05:30
Pondicherry,Puducherry,11.9139,79.8145,37.0,47,0.0,1005.5,9.25,30.6,34,16.6,11.8,0,5,7,1,2026-04-19T15:26:20.282437+05:30
Port Blair,Andaman and Nicobar Islands,11.6234,92.7265,30.1,71,0.0,1005.8,9.15,13.0,54,16.3,13.5,3,5,4,1,2026-04-19T15:26:20.282443+05:30
Haridwar,Uttarakhand,29.9457,78.1642,36.8,29,0.0,971.7,6.3,27.4,77,75.0,17.2,0,5,10,0,2026-04-19T15:26:20.282450+05:30
Rishikesh,Uttarakhand,30.0869,78.2676,35.8,30,0.0,964.8,6.65,27.0,62,59.3,13.2,0,5,10,0,2026-04-19T15:26:20.282456+05:30
Nainital,Uttarakhand,29.3919,79.4542,30.0,26,0.0,809.4,7.85,60.5,86,34.8,10.0,4,5,7,0,2026-04-19T15:26:20.282463+05:30
Mussoorie,Uttarakhand,30.4599,78.0664,27.4,26,0.0,806.2,6.35,46.4,75,55.2,13.1,4,5,7,0,2026-04-19T15:26:20.282469+05:30
Dharamshala,Himachal Pradesh,32.219,76.3234,25.6,42,0.0,871.3,6.1,39.2,57,32.0,8.1,4,5,7,0,2026-04-19T15:26:20.282475+05:30
Dalhousie,Himachal Pradesh,32.5387,75.971,21.9,39,0.0,806.4,6.7,34.6,58,47.4,11.8,0,5,7,0,2026-04-19T15:26:20.282482+05:30
Patiala,Punjab,30.3398,76.3869,36.9,23,0.0,975.9,6.8,26.6,145,360.4,41.4,0,5,10,0,2026-04-19T15:26:20.282488+05:30
Bhatinda,Punjab,30.211,74.9455,37.3,21,0.0,981.9,7.85,36.0,80,71.5,18.6,0,5,10,0,2026-04-19T15:26:20.282494+05:30
Rohtak,Haryana,28.8955,76.6066,37.0,24,0.0,979.1,7.0,23.0,217,265.4,40.5,0,5,10,0,2026-04-19T15:26:20.282500+05:30
Panipat,Haryana,29.3909,76.9635,37.9,22,0.0,977.6,6.3,28.8,400,371.6,51.8,0,5,10,0,2026-04-19T15:26:20.282507+05:30
Mathura,Uttar Pradesh,27.4924,77.6737,40.6,17,0.0,983.4,7.65,37.8,249,292.4,44.1,0,5,10,0,2026-04-19T15:26:20.282513+05:30
Vrindavan,Uttar Pradesh,27.5823,77.7027,40.8,15,0.0,983.7,7.65,41.4,249,292.4,44.1,0,5,10,0,2026-04-19T15:26:20.282519+05:30
Ayodhya,Uttar Pradesh,26.7922,82.1998,41.9,17,0.0,990.2,8.05,36.0,112,65.9,24.4,0,5,10,0,2026-04-19T15:26:20.282525+05:30
Ratlam,Madhya Pradesh,23.3315,75.0367,37.3,24,0.0,953.4,8.45,26.6,50,22.7,16.1,0,5,10,0,2026-04-19T15:26:20.282531+05:30
Sagar,Madhya Pradesh,23.8388,78.7378,40.7,13,0.0,948.1,8.6,34.2,91,37.1,13.1,0,5,10,0,2026-04-19T15:26:20.282537+05:30
Satna,Madhya Pradesh,24.6005,80.8322,42.3,13,0.0,967.6,8.65,39.6,106,133.6,25.0,0,5,10,0,2026-04-19T15:26:20.282542+05:30
Akola,Maharashtra,20.7002,77.0082,42.2,14,0.0,971.8,8.85,24.1,71,17.5,12.1,0,5,10,0,2026-04-19T15:26:20.282549+05:30
Amravati,Maharashtra,20.9374,77.7796,41.8,14,0.0,964.4,8.85,16.2,72,15.4,10.0,0,5,10,0,2026-04-19T15:26:20.282556+05:30
Latur,Maharashtra,18.4088,76.5604,37.6,21,0.0,938.3,9.1,17.6,108,28.2,22.7,0,5,10,0,2026-04-19T15:26:20.282562+05:30
Nanded,Maharashtra,19.1383,77.3091,40.6,19,0.0,965.8,9.0,22.7,88,19.3,14.7,0,5,10,0,2026-04-19T15:26:20.282568+05:30
Gulbarga,Karnataka,17.3297,76.8343,38.1,28,0.0,956.5,9.1,40.3,102,44.8,37.1,0,5,10,1,2026-04-19T15:26:20.282573+05:30
Bidar,Karnataka,17.9104,77.5199,36.2,32,0.0,934.1,9.15,34.9,106,44.7,37.1,0,5,10,1,2026-04-19T15:26:20.282579+05:30
Hospet,Karnataka,15.2689,76.3909,37.6,31,0.0,953.4,9.3,25.6,96,41.2,32.8,0,5,10,1,2026-04-19T15:26:20.282585+05:30
Tirupur,Tamil Nadu,11.1085,77.3411,39.4,24,0.0,972.3,9.4,28.8,82,29.6,20.1,0,5,10,0,2026-04-19T15:26:20.282591+05:30
Alappuzha,Kerala,9.4981,76.3388,29.6,82,0.0,1006.3,9.1,23.0,84,23.1,18.0,7,5,4,1,2026-04-19T15:26:20.282597+05:30
Munnar,Kerala,10.0889,77.0595,28.9,61,0.0,857.6,9.65,37.8,78,24.7,16.2,7,5,7,1,2026-04-19T15:26:20.282603+05:30
Silchar,Assam,24.8333,92.7789,27.8,78,0.0,1003.2,8.8,33.8,158,57.3,42.0,7,5,4,1,2026-04-19T15:26:20.282609+05:30
Dibrugarh,Assam,27.4728,94.912,30.6,60,0.0,991.6,8.65,19.4,147,67.3,44.5,0,5,7,1,2026-04-19T15:26:20.282615+05:30
