city,state,latitude,longitude,temp,humidity,rain,pressure,uv_index,wind_gusts,aqi,pm10,pm2_5,mosquito_risk,arthritis_risk,migraine_risk,frizz_risk,updated_at
Delhi,Delhi,28.6139,77.209,19.0,67,0.0,985.8,5.7,31.7,158,339.0,88.2,3,5,3,0,2026-03-02T00:08:26.657765+05:30
Mumbai,Maharashtra,19.076,72.8777,26.1,77,0.0,1010.5,7.25,24.1,80,48.9,28.1,7,0,4,1,2026-03-02T00:08:26.657807+05:30
Bangalore,Karnataka,12.9716,77.5946,22.6,62,0.0,912.0,9.05,23.0,151,42.6,42.0,3,5,7,0,2026-03-02T00:08:26.657823+05:30
Hyderabad,Telangana,17.385,78.4867,24.6,71,0.0,954.0,8.3,27.4,133,75.4,75.0,3,5,7,1,2026-03-02T00:08:26.657833+05:30
Chennai,Tamil Nadu,13.0827,80.2707,25.2,80,0.0,1009.0,8.75,33.1,131,45.4,41.4,7,0,4,1,2026-03-02T00:08:26.657841+05:30
Kolkata,West Bengal,22.5726,88.3639,24.3,93,0.0,1007.1,7.6,25.2,102,44.2,42.1,3,5,4,1,2026-03-02T00:08:26.657850+05:30
Pune,Maharashtra,18.5204,73.8567,21.1,83,0.0,949.1,7.8,34.2,139,42.1,35.9,3,5,7,1,2026-03-02T00:08:26.657862+05:30
Ahmedabad,Gujarat,23.0225,72.5714,24.2,57,0.0,1004.4,7.05,21.2,94,70.1,56.1,0,5,4,0,2026-03-02T00:08:26.657870+05:30
Jaipur,Rajasthan,26.9124,75.7873,22.5,32,0.0,962.1,6.45,25.2,89,85.2,50.8,0,5,7,0,2026-03-02T00:08:26.657878+05:30
Lucknow,Uttar Pradesh,26.8467,80.9462,18.5,55,0.0,995.8,6.2,38.5,123,185.3,51.7,0,5,7,0,2026-03-02T00:08:26.657886+05:30
Kanpur,Uttar Pradesh,26.4499,80.3319,16.3,64,0.0,994.3,6.2,31.3,151,264.5,56.9,3,5,7,0,2026-03-02T00:08:26.657893+05:30
Chandigarh,Chandigarh,30.7333,76.7794,17.2,53,0.0,971.1,5.6,31.0,85,38.5,35.4,0,5,3,0,2026-03-02T00:08:26.657901+05:30
Srinagar,Jammu and Kashmir,34.0837,74.7973,5.7,76,0.0,839.0,6.45,14.8,146,103.8,90.8,3,5,7,0,2026-03-02T00:08:26.657909+05:30
Jammu,Jammu and Kashmir,32.7266,74.857,16.6,71,0.0,975.1,6.15,25.2,102,54.6,50.1,3,5,7,0,2026-03-02T00:08:26.657915+05:30
Amritsar,Punjab,31.634,74.8723,18.2,64,0.0,983.5,6.1,20.5,129,79.4,57.9,3,5,7,0,2026-03-02T00:08:26.657922+05:30
Ludhiana,Punjab,30.901,75.8573,18.5,61,0.0,981.7,5.8,25.9,154,97.8,84.3,3,5,3,0,2026-03-02T00:08:26.657928+05:30
Jalandhar,Punjab,31.326,75.5762,18.3,63,0.0,982.8,5.95,23.0,156,114.1,94.8,3,5,3,0,2026-03-02T00:08:26.657936+05:30
Dehradun,Uttarakhand,30.6284,78.0322,10.4,55,0.0,828.1,5.95,32.4,63,32.2,26.8,0,5,3,0,2026-03-02T00:08:26.657943+05:30
Shimla,Himachal Pradesh,31.1048,77.1734,7.4,56,0.0,781.6,6.0,50.4,68,34.0,26.5,0,5,3,1,2026-03-02T00:08:26.657950+05:30
Manali,Himachal Pradesh,32.2396,77.1887,10.7,31,0.0,817.6,7.6,34.9,62,24.3,17.9,0,5,7,1,2026-03-02T00:08:26.657957+05:30
Gurgaon,Haryana,28.4595,77.0266,17.0,75,0.0,984.1,5.8,31.0,537,547.6,105.9,3,5,3,0,2026-03-02T00:08:26.657964+05:30
Noida,Uttar Pradesh,28.5355,77.391,19.2,66,0.0,987.3,5.75,31.3,537,547.6,105.9,3,5,3,0,2026-03-02T00:08:26.657971+05:30
Ghaziabad,Uttar Pradesh,28.6692,77.4538,18.4,67,0.0,985.3,5.7,28.1,154,333.4,86.1,3,5,3,0,2026-03-02T00:08:26.657978+05:30
Faridabad,Haryana,28.4089,77.3178,19.4,59,0.0,986.5,5.75,28.8,537,547.6,105.9,0,5,3,0,2026-03-02T00:08:26.657984+05:30
Meerut,Uttar Pradesh,28.9845,77.7064,16.2,73,0.0,983.7,5.6,31.7,154,333.4,86.1,3,5,3,0,2026-03-02T00:08:26.657991+05:30
Agra,Uttar Pradesh,27.1767,78.0081,19.0,52,0.0,990.5,6.05,27.4,245,363.2,73.8,0,5,7,0,2026-03-02T00:08:26.657997+05:30
Varanasi,Uttar Pradesh,25.3176,82.9739,17.2,67,0.0,1000.0,6.85,26.6,132,69.4,37.4,3,5,4,0,2026-03-02T00:08:26.658006+05:30
Prayagraj,Uttar Pradesh,25.4358,81.8463,17.2,66,0.0,998.8,6.7,28.1,133,89.9,41.8,3,5,7,0,2026-03-02T00:08:26.658016+05:30
Gorakhpur,Uttar Pradesh,26.7606,83.3732,17.0,59,0.0,998.9,6.55,32.4,107,56.1,32.9,0,5,7,0,2026-03-02T00:08:26.658023+05:30
Bareilly,Uttar Pradesh,28.367,79.4304,16.5,70,0.0,988.9,5.9,35.6,120,113.6,44.4,3,5,3,0,2026-03-02T00:08:26.658029+05:30
Aligarh,Uttar Pradesh,27.8974,78.088,17.3,66,0.0,988.1,5.8,31.3,299,451.7,98.3,3,5,3,0,2026-03-02T00:08:26.658036+05:30
Moradabad,Uttar Pradesh,28.8386,78.7733,15.8,68,0.0,985.7,5.7,33.8,127,168.6,56.1,3,5,3,0,2026-03-02T00:08:26.658042+05:30
Saharanpur,Uttar Pradesh,29.9637,77.546,15.9,65,0.0,977.5,5.35,38.2,135,80.3,46.2,3,5,3,0,2026-03-02T00:08:26.658050+05:30
Jhansi,Uttar Pradesh,25.4484,78.5685,19.9,56,0.0,980.7,6.65,24.5,73,67.8,32.1,0,5,7,0,2026-03-02T00:08:29.874132+05:30
Surat,Gujarat,21.1702,72.8311,23.7,86,0.0,1008.8,6.95,28.4,117,68.2,58.3,3,0,4,1,2026-03-02T00:08:29.874162+05:30
Vadodara,Gujarat,22.3072,73.1812,25.2,58,0.0,1006.4,7.05,11.9,112,76.1,66.4,4,5,4,1,2026-03-02T00:08:29.874171+05:30
Rajkot,Gujarat,22.3039,70.8022,22.4,67,0.0,996.9,6.9,20.5,84,43.1,27.4,3,5,7,0,2026-03-02T00:08:29.874179+05:30
Thane,Maharashtra,19.2183,72.9781,23.7,85,0.0,1010.0,7.25,36.4,80,48.9,28.1,3,0,4,1,2026-03-02T00:08:29.874186+05:30
Nagpur,Maharashtra,21.1458,79.0882,22.9,56,0.0,974.7,7.65,30.6,88,27.1,26.4,0,5,7,0,2026-03-02T00:08:29.874193+05:30
Nashik,Maharashtra,19.9975,73.7898,20.7,79,0.0,946.8,7.45,28.8,83,40.5,35.0,3,5,7,1,2026-03-02T00:08:29.874199+05:30
Aurangabad,Maharashtra,19.8762,75.3433,23.7,57,0.0,944.8,7.95,28.8,78,38.1,36.7,0,5,7,0,2026-03-02T00:08:29.874206+05:30
Solapur,Maharashtra,17.6599,75.9064,24.7,59,0.0,957.0,8.25,19.8,98,45.8,45.3,0,5,7,1,2026-03-02T00:08:29.874213+05:30
Kolhapur,Maharashtra,16.705,74.2433,18.6,86,0.0,948.5,8.35,37.8,81,32.0,30.3,3,10,7,1,2026-03-02T00:08:29.874220+05:30
Goa,Goa,15.2993,74.124,24.8,80,0.0,999.3,8.4,35.3,62,29.7,25.0,3,5,7,1,2026-03-02T00:08:29.874227+05:30
Jodhpur,Rajasthan,26.2389,73.0243,25.3,42,0.0,985.2,6.75,18.0,67,43.1,26.5,4,5,7,0,2026-03-02T00:08:29.874234+05:30
Udaipur,Rajasthan,24.5854,73.7125,19.7,58,0.0,948.5,7.35,25.2,58,32.9,23.0,0,5,7,0,2026-03-02T00:08:29.874241+05:30
Kota,Rajasthan,25.2138,75.8648,21.6,66,0.0,981.1,6.8,20.2,85,57.6,40.0,3,5,7,0,2026-03-02T00:08:29.874247+05:30
Bikaner,Rajasthan,28.0229,73.3119,24.0,40,0.0,984.2,6.45,16.2,67,39.3,21.5,0,5,7,0,2026-03-02T00:08:29.874254+05:30
Ajmer,Rajasthan,26.4499,74.6399,21.9,40,0.0,956.4,6.7,17.6,81,59.1,41.0,0,5,7,0,2026-03-02T00:08:29.874260+05:30
Gwalior,Madhya Pradesh,26.2183,78.1828,22.2,47,0.0,986.1,6.35,28.8,97,139.7,41.0,0,5,7,0,2026-03-02T00:08:29.874292+05:30
Indore,Madhya Pradesh,22.7196,75.8577,20.9,64,0.0,949.8,7.35,22.3,82,46.3,40.7,3,5,7,0,2026-03-02T00:08:29.874300+05:30
Bhopal,Madhya Pradesh,23.2599,77.4126,22.2,49,0.0,955.7,7.2,25.9,65,26.7,23.9,0,5,7,0,2026-03-02T00:08:29.874306+05:30
Jabalpur,Madhya Pradesh,23.1815,79.9864,21.4,61,0.0,963.3,7.3,39.2,72,30.3,26.8,3,5,7,0,2026-03-02T00:08:29.874312+05:30
Ujjain,Madhya Pradesh,23.1765,75.7885,21.2,66,0.0,955.6,7.2,20.5,89,66.6,60.5,3,5,7,0,2026-03-02T00:08:29.874320+05:30
Visakhapatnam,Andhra Pradesh,17.6868,83.2185,25.3,82,0.0,1005.4,8.3,39.2,151,48.2,45.1,7,5,4,1,2026-03-02T00:08:29.874327+05:30
Vijayawada,Andhra Pradesh,16.5062,80.648,24.1,87,0.0,1004.3,8.4,24.8,140,41.2,39.3,3,5,4,1,2026-03-02T00:08:29.874333+05:30
Guntur,Andhra Pradesh,16.3067,80.4365,24.4,86,0.0,1005.4,8.4,28.4,135,38.4,36.9,3,5,4,1,2026-03-02T00:08:29.874339+05:30
Nellore,Andhra Pradesh,14.4426,79.9865,24.5,84,0.0,1007.3,8.6,31.0,131,39.8,37.7,3,5,4,1,2026-03-02T00:08:29.874347+05:30
Kurnool,Andhra Pradesh,15.8281,78.0373,27.2,49,0.0,977.4,8.4,20.5,117,42.7,42.3,4,5,7,0,2026-03-02T00:08:29.874354+05:30
Kakinada,Andhra Pradesh,16.9891,82.2475,23.2,90,0.0,1009.4,8.3,33.5,148,48.3,44.2,3,0,4,1,2026-03-02T00:08:29.874361+05:30
Tirupati,Andhra Pradesh,13.6288,79.4192,23.3,74,0.0,993.5,8.7,28.4,150,49.6,48.2,3,5,7,1,2026-03-02T00:08:29.874368+05:30
Warangal,Telangana,17.9689,79.5941,25.1,75,0.0,979.4,8.1,27.7,144,59.0,58.7,7,5,7,1,2026-03-02T00:08:29.874374+05:30
Nizamabad,Telangana,18.6725,78.0941,23.1,63,0.0,965.1,8.0,20.9,113,50.8,50.3,3,5,7,0,2026-03-02T00:08:29.874380+05:30
Mysore,Karnataka,12.2958,76.6396,22.2,84,0.0,928.7,9.05,35.6,133,57.9,57.0,3,5,7,1,2026-03-02T00:08:29.874387+05:30
Mangalore,Karnataka,12.9141,74.856,28.5,72,0.0,1008.0,8.65,32.0,50,20.1,15.5,7,0,4,1,2026-03-02T00:08:29.874393+05:30
Hubli-Dharwad,Karnataka,15.3647,75.124,20.8,80,0.0,940.9,8.55,32.8,73,12.4,11.4,3,5,7,1,2026-03-02T00:08:29.874400+05:30
Belgaum,Karnataka,15.8497,74.4977,18.9,90,0.0,925.6,8.6,38.5,77,25.8,24.3,3,10,7,1,2026-03-02T00:08:33.087184+05:30
Coimbatore,Tamil Nadu,11.0168,76.9558,23.6,88,0.0,963.1,9.05,32.8,146,57.4,56.5,3,5,7,1,2026-03-02T00:08:33.087214+05:30
Madurai,Tamil Nadu,9.9252,78.1198,24.5,75,0.0,995.0,9.0,25.9,140,46.9,45.5,3,5,7,1,2026-03-02T00:08:33.087225+05:30
Trichy,Tamil Nadu,10.7905,78.7047,24.3,87,0.0,1001.5,8.9,27.7,141,46.6,44.6,3,5,4,1,2026-03-02T00:08:33.087233+05:30
Salem,Tamil Nadu,11.6643,78.146,26.3,67,0.0,978.4,8.95,25.9,144,46.0,44.7,7,5,7,1,2026-03-02T00:08:33.087241+05:30
Tirunelveli,Tamil Nadu,8.7139,77.7567,24.4,85,0.0,1005.0,9.05,39.2,130,55.1,53.3,3,5,4,1,2026-03-02T00:08:33.087248+05:30
Vellore,Tamil Nadu,12.9165,79.1325,23.3,78,0.0,986.3,8.8,37.4,153,59.6,57.9,3,5,7,1,2026-03-02T00:08:33.087256+05:30
Erode,Tamil Nadu,11.341,77.7172,26.1,72,0.0,990.6,8.95,25.2,134,37.3,36.2,7,5,7,1,2026-03-02T00:08:33.087279+05:30
Kochi,Kerala,9.9312,76.2673,27.6,80,0.0,1009.9,8.9,36.4,104,44.9,44.1,7,0,4,1,2026-03-02T00:08:33.087288+05:30
Thiruvananthapuram,Kerala,8.5241,76.9366,27.3,80,0.0,1009.4,8.95,24.1,117,23.7,20.8,7,0,4,1,2026-03-02T00:08:33.087295+05:30
Kozhikode,Kerala,11.2588,75.7804,28.4,75,0.0,1008.8,8.75,31.3,56,18.8,13.9,7,0,4,1,2026-03-02T00:08:33.087302+05:30
Thrissur,Kerala,10.5276,76.2144,26.5,86,0.0,1008.0,8.85,40.3,102,47.8,44.9,7,0,4,1,2026-03-02T00:08:33.087310+05:30
Kannur,Kerala,11.8745,75.3704,27.2,78,0.0,1008.3,8.75,38.2,51,18.6,15.0,7,0,4,1,2026-03-02T00:08:33.087317+05:30
Patna,Bihar,25.5941,85.1376,21.0,65,0.0,1002.3,7.0,28.8,137,82.7,60.8,3,5,4,0,2026-03-02T00:08:33.087324+05:30
Gaya,Bihar,24.7914,85.0002,22.2,58,0.0,995.8,7.1,19.1,121,97.8,66.4,0,5,7,0,2026-03-02T00:08:33.087330+05:30
Muzaffarpur,Bihar,26.1209,85.3647,18.9,56,0.0,1001.9,6.95,31.0,129,73.8,52.6,0,5,4,0,2026-03-02T00:08:33.087336+05:30
Bhagalpur,Bihar,25.2425,87.0117,22.0,62,0.0,1002.5,7.05,22.3,120,101.5,61.7,3,5,4,0,2026-03-02T00:08:33.087343+05:30
Ranchi,Jharkhand,23.3441,85.3096,20.5,53,0.0,938.9,7.75,24.5,100,37.6,34.2,0,5,7,0,2026-03-02T00:08:33.087350+05:30
Jamshedpur,Jharkhand,22.8046,86.2029,24.1,66,0.0,991.4,7.7,10.8,154,83.1,80.1,3,5,7,1,2026-03-02T00:08:33.087356+05:30
Dhanbad,Jharkhand,23.7957,86.4304,24.7,39,0.0,981.1,7.55,24.1,155,81.3,63.3,0,5,7,0,2026-03-02T00:08:33.087363+05:30
Bokaro,Jharkhand,23.6693,86.1511,23.2,45,0.0,985.5,7.55,22.0,155,82.7,70.3,0,5,7,0,2026-03-02T00:08:33.087370+05:30
Bhubaneswar,Odisha,20.2961,85.8245,24.5,89,0.0,1003.6,8.05,27.0,117,49.1,47.4,3,5,4,1,2026-03-02T00:08:33.087377+05:30
Cuttack,Odisha,20.4625,85.8828,24.1,93,0.0,1005.4,8.05,27.0,117,49.1,47.4,3,5,4,1,2026-03-02T00:08:33.087383+05:30
Rourkela,Odisha,22.2604,84.8536,24.2,70,0.0,985.4,7.6,18.0,153,80.8,79.9,3,5,7,1,2026-03-02T00:08:33.087389+05:30
Raipur,Chhattisgarh,21.2514,81.6296,24.6,51,0.0,975.4,7.75,27.4,153,46.9,46.7,0,5,7,0,2026-03-02T00:08:33.087396+05:30
Bhilai,Chhattisgarh,21.1938,81.3509,23.8,58,0.0,975.7,7.75,28.1,150,28.8,28.5,0,5,7,0,2026-03-02T00:08:33.087402+05:30
Guwahati,Assam,26.1158,91.7086,21.0,82,0.0,1003.9,7.0,32.0,159,74.5,64.3,3,5,4,1,2026-03-02T00:08:33.087409+05:30
Agartala,Tripura,23.8315,91.2868,21.6,90,0.0,1007.2,7.35,27.4,111,32.2,29.6,3,5,4,1,2026-03-02T00:08:33.087416+05:30
Shillong,Meghalaya,25.5788,91.8933,10.4,82,0.0,854.3,6.8,56.9,133,55.8,43.8,3,10,7,0,2026-03-02T00:08:33.087422+05:30
Imphal,Manipur,24.817,93.9368,14.0,79,0.0,923.0,7.55,49.3,153,94.1,78.0,3,5,7,0,2026-03-02T00:08:33.087429+05:30
Aizawl,Mizoram,23.7271,92.7176,16.1,69,0.0,892.6,7.55,40.3,130,69.6,54.4,3,5,7,0,2026-03-02T00:08:33.087436+05:30
Kohima,Nagaland,25.6701,94.1077,11.5,75,0.0,853.4,7.4,70.9,154,89.2,74.3,3,5,7,0,2026-03-02T00:08:33.087442+05:30
Gangtok,Sikkim,27.3314,88.6138,9.9,81,0.0,834.4,5.3,12.6,127,69.6,54.6,3,10,3,0,2026-03-02T00:08:33.087449+05:30
Siliguri,West Bengal,26.7271,88.3953,17.5,72,0.0,995.2,7.0,30.2,172,131.3,102.7,3,5,7,0,2026-03-02T00:08:36.301973+05:30
Durgapur,West Bengal,23.5204,87.3119,25.7,47,0.0,996.1,7.55,26.3,150,61.0,45.6,4,5,7,0,2026-03-02T00:08:36.302006+05:30
Asansol,West Bengal,23.6739,86.9524,26.0,44,0.0,994.8,7.5,22.7,130,59.0,40.0,4,5,7,0,2026-03-02T00:08:36.302016+05:30
Pondicherry,Puducherry,11.9139,79.8145,23.2,89,0.0,1010.3,8.8,28.1,128,44.5,40.5,3,0,4,1,2026-03-02T00:08:36.302024+05:30
Port Blair,Andaman and Nicobar Islands,11.6234,92.7265,27.4,72,0.0,1007.1,8.75,25.6,70,27.3,23.5,7,5,4,1,2026-03-02T00:08:36.302032+05:30
Haridwar,Uttarakhand,29.9457,78.1642,14.5,84,0.0,975.9,5.4,37.1,102,47.1,42.5,3,10,3,0,2026-03-02T00:08:36.302039+05:30
Rishikesh,Uttarakhand,30.0869,78.2676,15.6,65,0.0,968.5,5.5,34.9,85,39.0,34.7,3,5,3,0,2026-03-02T00:08:36.302047+05:30
Nainital,Uttarakhand,29.3919,79.4542,13.9,47,0.0,804.4,6.3,40.0,92,32.8,25.5,0,5,7,0,2026-03-02T00:08:36.302053+05:30
Mussoorie,Uttarakhand,30.4599,78.0664,12.2,54,0.0,800.9,5.85,39.6,85,50.1,46.4,0,5,3,0,2026-03-02T00:08:36.302060+05:30
Dharamshala,Himachal Pradesh,32.219,76.3234,16.2,49,0.0,869.7,6.05,27.4,90,34.1,25.3,0,5,7,0,2026-03-02T00:08:36.302067+05:30
Dalhousie,Himachal Pradesh,32.5387,75.971,12.9,53,0.0,803.2,6.25,30.2,93,63.6,57.6,0,5,7,0,2026-03-02T00:08:36.302074+05:30
Patiala,Punjab,30.3398,76.3869,16.0,73,0.0,980.8,5.5,28.4,155,213.7,80.3,3,5,3,0,2026-03-02T00:08:36.302081+05:30
Bhatinda,Punjab,30.211,74.9455,20.3,61,0.0,986.3,6.2,21.2,154,116.6,91.3,3,5,7,0,2026-03-02T00:08:36.302087+05:30
Rohtak,Haryana,28.8955,76.6066,17.7,73,0.0,984.3,5.7,30.6,163,380.9,88.0,3,5,3,0,2026-03-02T00:08:36.302093+05:30
Panipat,Haryana,29.3909,76.9635,16.1,75,0.0,982.9,5.5,29.9,375,728.3,122.5,3,5,3,0,2026-03-02T00:08:36.302099+05:30
Mathura,Uttar Pradesh,27.4924,77.6737,18.7,53,0.0,989.2,5.95,25.6,243,311.1,75.7,0,5,3,0,2026-03-02T00:08:36.302106+05:30
Vrindavan,Uttar Pradesh,27.5823,77.7027,17.5,63,0.0,989.8,5.95,28.4,243,311.1,75.7,3,5,3,0,2026-03-02T00:08:36.302112+05:30
Ayodhya,Uttar Pradesh,26.7922,82.1998,17.5,55,0.0,997.3,6.35,36.4,108,104.1,39.2,0,5,7,0,2026-03-02T00:08:36.302118+05:30
Ratlam,Madhya Pradesh,23.3315,75.0367,23.2,55,0.0,956.5,7.2,27.7,80,58.0,51.7,0,5,7,0,2026-03-02T00:08:36.302125+05:30
Sagar,Madhya Pradesh,23.8388,78.7378,23.0,46,0.0,952.2,7.15,20.2,68,38.8,24.2,0,5,7,0,2026-03-02T00:08:36.302131+05:30
Satna,Madhya Pradesh,24.6005,80.8322,20.4,47,0.0,973.7,7.1,31.7,89,39.8,23.6,0,5,7,0,2026-03-02T00:08:36.302137+05:30
Akola,Maharashtra,20.7002,77.0082,24.2,59,0.0,976.4,7.7,28.4,79,31.9,31.0,0,5,7,0,2026-03-02T00:08:36.302144+05:30
Amravati,Maharashtra,20.9374,77.7796,22.5,56,0.0,968.5,7.65,27.4,75,28.6,27.9,0,5,7,0,2026-03-02T00:08:36.302152+05:30
Latur,Maharashtra,18.4088,76.5604,24.9,60,0.0,940.3,8.15,25.6,92,30.0,29.6,0,5,7,1,2026-03-02T00:08:36.302158+05:30
Nanded,Maharashtra,19.1383,77.3091,25.8,59,0.0,969.1,7.9,15.5,77,27.1,26.7,4,5,7,1,2026-03-02T00:08:36.302165+05:30
Gulbarga,Karnataka,17.3297,76.8343,27.5,55,0.0,959.1,8.25,17.6,118,43.4,43.1,4,5,7,1,2026-03-02T00:08:36.302171+05:30
Bidar,Karnataka,17.9104,77.5199,24.7,64,0.0,935.9,8.2,20.5,105,49.2,48.9,3,5,7,1,2026-03-02T00:08:36.302177+05:30
Hospet,Karnataka,15.2689,76.3909,27.9,51,0.0,956.0,8.55,24.5,140,50.3,49.6,4,5,7,1,2026-03-02T00:08:36.302183+05:30
Tirupur,Tamil Nadu,11.1085,77.3411,25.7,72,0.0,976.9,9.05,20.2,152,51.6,50.6,7,5,7,1,2026-03-02T00:08:36.302190+05:30
Alappuzha,Kerala,9.4981,76.3388,27.2,83,0.0,1010.2,8.9,34.9,92,38.8,35.5,7,0,4,1,2026-03-02T00:08:36.302196+05:30
Munnar,Kerala,10.0889,77.0595,18.6,85,0.0,856.7,9.35,25.2,133,54.0,53.1,3,10,7,1,2026-03-02T00:08:36.302204+05:30
Silchar,Assam,24.8333,92.7789,20.2,78,0.0,1006.1,7.3,20.5,157,100.6,78.9,3,5,4,1,2026-03-02T00:08:36.302210+05:30
Dibrugarh,Assam,27.4728,94.912,19.5,83,0.0,998.3,7.0,13.7,157,76.1,69.2,3,10,7,1,2026-03-02T00:08:36.302217+05:30
