city,state,latitude,longitude,temp,humidity,rain,pressure,uv_index,wind_gusts,aqi,pm10,pm2_5,mosquito_risk,arthritis_risk,migraine_risk,frizz_risk,updated_at
Delhi,Delhi,28.6139,77.209,17.4,92,0.0,988.1,3.1,20.2,137,82.0,70.5,3,10,3,0,2026-03-20T22:20:28.971516+05:30
Mumbai,Maharashtra,19.076,72.8777,26.9,82,0.0,1010.5,7.8,24.1,85,54.9,22.7,7,0,4,1,2026-03-20T22:20:28.971557+05:30
Bangalore,Karnataka,12.9716,77.5946,24.2,66,0.0,912.9,9.4,17.3,159,38.3,31.4,3,5,7,1,2026-03-20T22:20:28.971572+05:30
Hyderabad,Telangana,17.385,78.4867,24.9,69,0.0,954.7,8.8,22.3,96,68.2,53.3,3,5,7,1,2026-03-20T22:20:28.971582+05:30
Chennai,Tamil Nadu,13.0827,80.2707,27.2,84,0.0,1009.4,9.15,31.0,42,10.8,7.9,7,0,4,1,2026-03-20T22:20:28.971591+05:30
Kolkata,West Bengal,22.5726,88.3639,23.0,86,0.0,1010.1,7.5,36.0,76,26.0,23.1,3,0,4,1,2026-03-20T22:20:28.971605+05:30
Pune,Maharashtra,18.5204,73.8567,24.3,71,0.0,950.1,8.35,36.7,126,42.1,30.2,3,5,7,1,2026-03-20T22:20:28.971615+05:30
Ahmedabad,Gujarat,23.0225,72.5714,23.6,56,0.0,1005.2,7.6,33.1,75,54.0,31.3,0,5,4,0,2026-03-20T22:20:28.971627+05:30
Jaipur,Rajasthan,26.9124,75.7873,19.1,74,0.0,963.6,6.7,25.6,72,61.0,19.7,3,5,7,0,2026-03-20T22:20:28.971635+05:30
Lucknow,Uttar Pradesh,26.8467,80.9462,20.2,87,0.0,998.1,4.95,36.0,107,85.4,57.4,3,5,3,1,2026-03-20T22:20:28.971643+05:30
Kanpur,Uttar Pradesh,26.4499,80.3319,19.9,91,0.0,996.5,2.95,37.8,129,95.2,55.4,3,10,3,1,2026-03-20T22:20:28.971650+05:30
Chandigarh,Chandigarh,30.7333,76.7794,14.7,98,0.0,973.3,1.3,25.2,90,75.4,55.6,3,10,3,0,2026-03-20T22:20:28.971658+05:30
Srinagar,Jammu and Kashmir,34.0837,74.7973,7.1,96,0.0,839.5,4.8,18.4,91,24.9,24.8,3,10,3,0,2026-03-20T22:20:28.971665+05:30
Jammu,Jammu and Kashmir,32.7266,74.857,15.7,91,0.0,977.5,4.95,14.4,92,65.9,51.3,3,10,3,0,2026-03-20T22:20:28.971672+05:30
Amritsar,Punjab,31.634,74.8723,15.2,87,0.0,985.8,5.35,22.7,92,52.7,39.3,3,10,3,0,2026-03-20T22:20:28.971679+05:30
Ludhiana,Punjab,30.901,75.8573,16.5,93,0.0,983.6,3.1,16.9,97,92.4,68.7,3,10,3,0,2026-03-20T22:20:28.971685+05:30
Jalandhar,Punjab,31.326,75.5762,15.4,87,0.0,984.9,4.2,20.9,79,47.7,35.5,3,10,3,0,2026-03-20T22:20:28.971694+05:30
Dehradun,Uttarakhand,30.6284,78.0322,8.2,74,0.0,828.6,0.35,34.6,49,3.9,3.9,3,5,3,0,2026-03-20T22:20:28.971700+05:30
Shimla,Himachal Pradesh,31.1048,77.1734,5.2,87,0.0,780.7,0.5,33.5,50,3.7,3.7,3,10,3,0,2026-03-20T22:20:28.971707+05:30
Manali,Himachal Pradesh,32.2396,77.1887,9.1,74,0.0,814.7,3.15,26.6,49,5.9,5.7,3,5,3,0,2026-03-20T22:20:28.971713+05:30
Gurgaon,Haryana,28.4595,77.0266,16.1,96,0.0,986.4,3.25,17.3,138,94.3,83.8,3,10,3,0,2026-03-20T22:20:28.971720+05:30
Noida,Uttar Pradesh,28.5355,77.391,17.2,93,0.0,989.7,2.6,21.6,138,94.3,83.8,3,10,3,1,2026-03-20T22:20:28.971727+05:30
Ghaziabad,Uttar Pradesh,28.6692,77.4538,16.6,97,0.0,987.8,2.35,19.1,135,71.0,57.7,3,10,3,1,2026-03-20T22:20:28.971733+05:30
Faridabad,Haryana,28.4089,77.3178,16.3,94,0.0,988.8,3.1,19.8,138,94.3,83.8,3,10,3,0,2026-03-20T22:20:28.971739+05:30
Meerut,Uttar Pradesh,28.9845,77.7064,15.6,99,0.0,986.4,1.9,24.8,135,71.0,57.7,3,10,3,0,2026-03-20T22:20:28.971746+05:30
Agra,Uttar Pradesh,27.1767,78.0081,17.3,95,0.0,993.0,5.15,25.2,422,46.0,36.1,3,10,3,1,2026-03-20T22:20:28.971755+05:30
Varanasi,Uttar Pradesh,25.3176,82.9739,22.3,83,0.0,1001.4,7.25,50.0,97,54.6,48.7,3,5,4,1,2026-03-20T22:20:28.971769+05:30
Prayagraj,Uttar Pradesh,25.4358,81.8463,21.4,84,0.0,1001.2,4.75,56.9,89,58.1,42.8,3,5,0,1,2026-03-20T22:20:28.971776+05:30
Gorakhpur,Uttar Pradesh,26.7606,83.3732,20.0,78,0.0,1000.3,7.0,32.4,142,59.4,47.4,3,5,4,0,2026-03-20T22:20:28.971782+05:30
Bareilly,Uttar Pradesh,28.367,79.4304,17.1,98,0.0,991.8,2.85,29.9,88,63.3,45.2,3,10,3,1,2026-03-20T22:20:28.971789+05:30
Aligarh,Uttar Pradesh,27.8974,78.088,16.4,98,0.0,990.7,3.8,23.4,114,45.2,35.4,3,10,3,1,2026-03-20T22:20:28.971795+05:30
Moradabad,Uttar Pradesh,28.8386,78.7733,16.7,98,0.0,988.8,2.3,25.6,99,61.7,47.3,3,10,3,1,2026-03-20T22:20:28.971801+05:30
Saharanpur,Uttar Pradesh,29.9637,77.546,14.3,100,0.0,980.6,0.6,15.8,140,57.6,48.2,3,10,3,0,2026-03-20T22:20:28.971807+05:30
Jhansi,Uttar Pradesh,25.4484,78.5685,19.2,87,0.0,982.6,5.8,30.6,109,70.1,37.8,3,10,3,1,2026-03-20T22:20:32.229794+05:30
Surat,Gujarat,21.1702,72.8311,24.7,85,0.0,1009.2,7.5,24.8,111,54.1,36.1,3,0,4,1,2026-03-20T22:20:32.229825+05:30
Vadodara,Gujarat,22.3072,73.1812,25.5,66,0.0,1007.0,7.6,28.1,82,55.1,31.4,7,5,4,1,2026-03-20T22:20:32.229837+05:30
Rajkot,Gujarat,22.3039,70.8022,24.4,64,0.0,997.0,7.45,30.2,83,73.3,28.1,3,5,7,1,2026-03-20T22:20:32.229846+05:30
Thane,Maharashtra,19.2183,72.9781,25.4,82,0.0,1010.0,7.8,36.4,85,54.9,22.7,7,0,4,1,2026-03-20T22:20:32.229854+05:30
Nagpur,Maharashtra,21.1458,79.0882,23.1,74,0.0,975.9,8.15,37.8,88,32.0,21.0,3,5,7,1,2026-03-20T22:20:32.229863+05:30
Nashik,Maharashtra,19.9975,73.7898,22.2,72,0.0,947.2,8.0,33.8,57,36.4,16.4,3,5,7,1,2026-03-20T22:20:32.229871+05:30
Aurangabad,Maharashtra,19.8762,75.3433,25.3,54,0.0,945.5,8.5,33.5,75,40.6,18.6,4,5,7,0,2026-03-20T22:20:32.229879+05:30
Solapur,Maharashtra,17.6599,75.9064,28.2,42,0.0,957.7,8.65,23.8,111,53.3,39.7,4,5,7,0,2026-03-20T22:20:32.229887+05:30
Kolhapur,Maharashtra,16.705,74.2433,21.1,68,0.0,948.8,8.8,43.2,81,31.1,25.8,3,5,7,0,2026-03-20T22:20:32.229895+05:30
Goa,Goa,15.2993,74.124,27.2,78,0.0,999.5,8.8,35.6,63,50.9,25.8,7,5,7,1,2026-03-20T22:20:32.229903+05:30
Jodhpur,Rajasthan,26.2389,73.0243,23.5,54,0.0,986.5,7.25,19.8,69,61.9,25.9,0,5,7,0,2026-03-20T22:20:32.229910+05:30
Udaipur,Rajasthan,24.5854,73.7125,20.2,56,0.0,949.1,4.7,30.6,59,33.3,14.3,0,5,3,0,2026-03-20T22:20:32.229918+05:30
Kota,Rajasthan,25.2138,75.8648,22.5,59,0.0,982.9,6.4,34.6,60,32.4,18.6,0,5,7,0,2026-03-20T22:20:32.229925+05:30
Bikaner,Rajasthan,28.0229,73.3119,23.4,50,0.0,985.4,6.95,17.6,69,40.6,19.7,0,5,7,0,2026-03-20T22:20:32.229933+05:30
Ajmer,Rajasthan,26.4499,74.6399,21.5,58,0.0,957.7,7.2,27.4,58,32.5,21.4,0,5,7,0,2026-03-20T22:20:32.229940+05:30
Gwalior,Madhya Pradesh,26.2183,78.1828,18.8,90,0.0,988.1,6.3,31.0,123,58.7,31.9,3,10,7,1,2026-03-20T22:20:32.229947+05:30
Indore,Madhya Pradesh,22.7196,75.8577,20.7,67,0.0,950.3,7.85,38.5,69,34.2,20.3,3,5,7,0,2026-03-20T22:20:32.229954+05:30
Bhopal,Madhya Pradesh,23.2599,77.4126,19.0,80,0.0,956.6,7.75,46.1,70,61.7,28.1,3,5,7,0,2026-03-20T22:20:32.229961+05:30
Jabalpur,Madhya Pradesh,23.1815,79.9864,21.9,74,0.0,964.6,4.9,36.0,76,34.8,20.7,3,5,3,1,2026-03-20T22:20:32.229968+05:30
Ujjain,Madhya Pradesh,23.1765,75.7885,21.1,66,0.0,956.2,7.75,39.6,68,28.2,18.0,3,5,7,0,2026-03-20T22:20:32.229976+05:30
Visakhapatnam,Andhra Pradesh,17.6868,83.2185,24.4,86,0.0,1007.0,8.8,39.2,65,28.5,24.2,3,5,4,1,2026-03-20T22:20:32.229984+05:30
Vijayawada,Andhra Pradesh,16.5062,80.648,25.7,79,0.0,1005.1,8.85,19.1,65,19.3,17.3,7,5,4,1,2026-03-20T22:20:32.229991+05:30
Guntur,Andhra Pradesh,16.3067,80.4365,25.4,86,0.0,1006.2,8.85,19.1,60,24.6,22.2,7,5,4,1,2026-03-20T22:20:32.229999+05:30
Nellore,Andhra Pradesh,14.4426,79.9865,26.2,88,0.0,1008.4,9.0,27.0,59,9.1,6.8,7,0,4,1,2026-03-20T22:20:32.230008+05:30
Kurnool,Andhra Pradesh,15.8281,78.0373,29.3,46,0.0,977.4,8.85,19.4,109,40.4,31.1,4,5,7,1,2026-03-20T22:20:32.230015+05:30
Kakinada,Andhra Pradesh,16.9891,82.2475,24.2,91,0.0,1010.7,8.8,27.7,49,12.6,9.5,3,0,4,1,2026-03-20T22:20:32.230023+05:30
Tirupati,Andhra Pradesh,13.6288,79.4192,25.5,84,0.0,994.0,9.1,20.2,60,25.6,23.3,7,5,7,1,2026-03-20T22:20:32.230030+05:30
Warangal,Telangana,17.9689,79.5941,24.6,75,0.0,981.1,8.65,28.4,108,85.2,73.6,3,5,7,1,2026-03-20T22:20:32.230038+05:30
Nizamabad,Telangana,18.6725,78.0941,26.7,51,0.0,966.0,8.55,25.9,89,62.2,47.1,4,5,7,0,2026-03-20T22:20:32.230046+05:30
Mysore,Karnataka,12.2958,76.6396,24.3,72,0.0,929.8,9.35,28.1,125,50.9,43.5,3,5,7,1,2026-03-20T22:20:32.230054+05:30
Mangalore,Karnataka,12.9141,74.856,29.4,76,0.0,1007.8,9.0,27.7,78,25.2,18.3,7,5,4,1,2026-03-20T22:20:32.230061+05:30
Hubli-Dharwad,Karnataka,15.3647,75.124,23.8,63,0.0,942.0,9.0,31.0,118,37.1,29.0,3,5,7,1,2026-03-20T22:20:32.230069+05:30
Belgaum,Karnataka,15.8497,74.4977,21.5,78,0.0,926.6,9.05,41.4,73,31.8,24.3,3,5,7,1,2026-03-20T22:20:35.491142+05:30
Coimbatore,Tamil Nadu,11.0168,76.9558,25.2,72,0.0,963.2,9.35,36.7,86,33.2,30.2,7,5,7,1,2026-03-20T22:20:35.491172+05:30
Madurai,Tamil Nadu,9.9252,78.1198,25.7,83,0.0,995.8,9.3,23.4,93,40.5,35.2,7,5,7,1,2026-03-20T22:20:35.491184+05:30
Trichy,Tamil Nadu,10.7905,78.7047,27.0,82,0.0,1001.6,9.25,23.4,107,24.8,23.5,7,5,4,1,2026-03-20T22:20:35.491192+05:30
Salem,Tamil Nadu,11.6643,78.146,27.7,67,0.0,978.6,9.3,20.9,155,34.3,28.6,7,5,7,1,2026-03-20T22:20:35.491201+05:30
Tirunelveli,Tamil Nadu,8.7139,77.7567,26.4,81,0.0,1005.7,9.25,34.9,75,27.6,24.0,7,5,4,1,2026-03-20T22:20:35.491209+05:30
Vellore,Tamil Nadu,12.9165,79.1325,25.7,75,0.0,986.7,9.2,21.6,73,26.7,25.2,7,5,7,1,2026-03-20T22:20:35.491217+05:30
Erode,Tamil Nadu,11.341,77.7172,28.9,63,0.0,990.2,9.25,27.0,123,27.5,23.5,7,5,7,1,2026-03-20T22:20:35.491225+05:30
Kochi,Kerala,9.9312,76.2673,29.2,71,0.0,1010.1,9.15,38.2,66,41.3,36.1,7,0,4,1,2026-03-20T22:20:35.491231+05:30
Thiruvananthapuram,Kerala,8.5241,76.9366,28.8,79,0.0,1009.8,9.15,30.6,99,21.6,16.2,7,0,4,1,2026-03-20T22:20:35.491237+05:30
Kozhikode,Kerala,11.2588,75.7804,29.3,76,0.0,1009.0,9.05,32.0,59,18.9,12.8,7,0,4,1,2026-03-20T22:20:35.491243+05:30
Thrissur,Kerala,10.5276,76.2144,27.6,80,0.0,1008.3,9.1,39.6,68,29.2,25.0,7,0,4,1,2026-03-20T22:20:35.491250+05:30
Kannur,Kerala,11.8745,75.3704,28.6,78,0.0,1008.4,9.05,40.3,59,22.2,16.8,7,0,4,1,2026-03-20T22:20:35.491256+05:30
Patna,Bihar,25.5941,85.1376,23.4,80,0.0,1003.5,7.65,31.3,166,60.8,53.7,3,5,4,1,2026-03-20T22:20:35.491262+05:30
Gaya,Bihar,24.7914,85.0002,22.3,85,0.0,997.7,7.8,30.6,147,48.1,40.4,3,5,7,1,2026-03-20T22:20:35.491268+05:30
Muzaffarpur,Bihar,26.1209,85.3647,22.3,79,0.0,1003.7,7.65,42.1,158,66.4,59.1,3,5,4,1,2026-03-20T22:20:35.491274+05:30
Bhagalpur,Bihar,25.2425,87.0117,22.4,86,0.0,1006.6,7.7,44.6,165,56.0,53.0,3,5,4,1,2026-03-20T22:20:35.491280+05:30
Ranchi,Jharkhand,23.3441,85.3096,19.7,82,0.0,940.1,7.7,27.4,134,39.9,34.1,3,10,7,1,2026-03-20T22:20:35.491286+05:30
Jamshedpur,Jharkhand,22.8046,86.2029,23.6,80,0.0,995.4,7.9,25.9,130,40.6,36.7,3,5,7,1,2026-03-20T22:20:35.491293+05:30
Dhanbad,Jharkhand,23.7957,86.4304,22.3,79,0.0,984.3,7.6,51.8,155,72.9,67.3,3,5,7,1,2026-03-20T22:20:35.491299+05:30
Bokaro,Jharkhand,23.6693,86.1511,22.0,81,0.0,988.4,7.7,51.8,150,57.0,51.3,3,5,7,1,2026-03-20T22:20:35.491305+05:30
Bhubaneswar,Odisha,20.2961,85.8245,25.0,86,0.0,1006.3,8.55,33.5,63,21.1,18.3,7,5,4,1,2026-03-20T22:20:35.491311+05:30
Cuttack,Odisha,20.4625,85.8828,25.1,83,0.0,1008.2,8.35,34.2,63,21.1,18.3,7,0,4,1,2026-03-20T22:20:35.491317+05:30
Rourkela,Odisha,22.2604,84.8536,22.8,77,0.0,988.6,7.55,37.1,168,55.8,46.8,3,5,7,1,2026-03-20T22:20:35.491323+05:30
Raipur,Chhattisgarh,21.2514,81.6296,23.0,68,0.0,977.4,7.4,45.0,114,48.0,41.6,3,5,7,1,2026-03-20T22:20:35.491330+05:30
Bhilai,Chhattisgarh,21.1938,81.3509,22.6,73,0.0,977.8,6.9,35.3,105,44.5,34.6,3,5,7,1,2026-03-20T22:20:35.491336+05:30
Guwahati,Assam,26.1158,91.7086,23.1,87,0.0,1007.1,7.1,27.4,98,46.6,40.9,3,5,4,1,2026-03-20T22:20:35.491341+05:30
Agartala,Tripura,23.8315,91.2868,22.0,95,0.0,1010.4,6.4,29.2,97,48.8,45.1,3,0,4,1,2026-03-20T22:20:35.491347+05:30
Shillong,Meghalaya,25.5788,91.8933,12.0,75,0.0,857.9,7.5,34.2,80,32.6,28.4,3,5,7,0,2026-03-20T22:20:35.491353+05:30
Imphal,Manipur,24.817,93.9368,16.6,80,0.0,927.1,7.9,44.6,89,48.7,40.6,3,5,7,0,2026-03-20T22:20:35.491359+05:30
Aizawl,Mizoram,23.7271,92.7176,16.3,85,0.0,895.0,7.6,24.8,85,59.5,48.7,3,10,7,0,2026-03-20T22:20:35.491365+05:30
Kohima,Nagaland,25.6701,94.1077,14.4,59,0.0,857.7,7.7,62.3,76,46.0,36.1,0,5,7,0,2026-03-20T22:20:35.491371+05:30
Gangtok,Sikkim,27.3314,88.6138,12.8,92,0.0,839.7,7.9,20.2,95,47.5,34.7,3,10,7,0,2026-03-20T22:20:35.491377+05:30
Siliguri,West Bengal,26.7271,88.3953,18.8,89,0.0,999.9,7.6,23.0,151,69.2,53.6,3,10,7,1,2026-03-20T22:20:38.754046+05:30
Durgapur,West Bengal,23.5204,87.3119,23.3,80,0.0,999.2,7.0,41.0,153,61.2,57.9,3,5,7,1,2026-03-20T22:20:38.754076+05:30
Asansol,West Bengal,23.6739,86.9524,23.9,78,0.0,997.9,5.4,37.4,151,56.6,53.8,3,5,3,1,2026-03-20T22:20:38.754088+05:30
Pondicherry,Puducherry,11.9139,79.8145,25.8,93,0.0,1010.3,9.1,23.0,70,12.6,9.4,7,0,4,1,2026-03-20T22:20:38.754097+05:30
Port Blair,Andaman and Nicobar Islands,11.6234,92.7265,28.4,77,0.0,1009.6,6.3,11.5,43,14.8,10.6,7,0,4,1,2026-03-20T22:20:38.754105+05:30
Haridwar,Uttarakhand,29.9457,78.1642,16.4,96,0.1,979.1,0.7,27.7,79,28.6,26.0,6,10,3,0,2026-03-20T22:20:38.754114+05:30
Rishikesh,Uttarakhand,30.0869,78.2676,16.6,91,0.2,971.2,0.9,27.7,67,30.5,23.3,6,10,3,0,2026-03-20T22:20:38.754123+05:30
Nainital,Uttarakhand,29.3919,79.4542,11.5,93,0.1,804.9,1.9,67.0,68,28.5,21.9,6,10,3,0,2026-03-20T22:20:38.754131+05:30
Mussoorie,Uttarakhand,30.4599,78.0664,9.0,75,0.0,800.6,0.45,46.8,64,17.6,17.6,3,5,3,0,2026-03-20T22:20:38.754139+05:30
Dharamshala,Himachal Pradesh,32.219,76.3234,11.7,78,0.0,869.0,2.15,27.0,48,16.0,12.9,3,5,3,0,2026-03-20T22:20:38.754146+05:30
Dalhousie,Himachal Pradesh,32.5387,75.971,8.3,93,0.0,801.8,1.7,25.9,58,46.7,34.0,3,10,3,0,2026-03-20T22:20:38.754155+05:30
Patiala,Punjab,30.3398,76.3869,14.6,99,0.0,982.9,2.2,17.6,97,93.4,68.5,3,10,3,0,2026-03-20T22:20:38.754163+05:30
Bhatinda,Punjab,30.211,74.9455,16.0,89,0.0,988.5,5.95,27.7,113,67.8,56.5,3,10,3,0,2026-03-20T22:20:38.754171+05:30
Rohtak,Haryana,28.8955,76.6066,15.9,98,0.0,986.8,3.75,22.3,124,95.5,80.8,3,10,3,0,2026-03-20T22:20:38.754179+05:30
Panipat,Haryana,29.3909,76.9635,14.9,99,0.0,985.3,2.6,15.8,130,90.1,73.1,3,10,3,0,2026-03-20T22:20:38.754186+05:30
Mathura,Uttar Pradesh,27.4924,77.6737,16.5,96,0.0,992.2,5.25,22.0,114,52.6,43.7,3,10,3,0,2026-03-20T22:20:38.754193+05:30
Vrindavan,Uttar Pradesh,27.5823,77.7027,16.3,96,0.0,992.5,5.25,22.3,114,52.6,43.7,3,10,3,0,2026-03-20T22:20:38.754201+05:30
Ayodhya,Uttar Pradesh,26.7922,82.1998,19.9,79,0.0,999.2,6.25,34.9,127,72.4,53.6,3,5,7,1,2026-03-20T22:20:38.754208+05:30
Ratlam,Madhya Pradesh,23.3315,75.0367,22.7,61,0.0,956.8,7.7,41.4,66,26.0,15.5,3,5,7,0,2026-03-20T22:20:38.754216+05:30
Sagar,Madhya Pradesh,23.8388,78.7378,19.4,83,0.0,953.1,7.6,38.9,64,45.3,24.6,3,10,7,1,2026-03-20T22:20:38.754223+05:30
Satna,Madhya Pradesh,24.6005,80.8322,21.0,82,0.0,975.0,4.75,50.4,64,26.8,18.5,3,5,3,1,2026-03-20T22:20:38.754231+05:30
Akola,Maharashtra,20.7002,77.0082,25.8,52,0.0,977.2,8.2,29.5,71,45.4,21.7,4,5,7,0,2026-03-20T22:20:38.754239+05:30
Amravati,Maharashtra,20.9374,77.7796,25.4,49,0.0,969.0,8.15,35.6,73,46.2,21.9,4,5,7,0,2026-03-20T22:20:38.754247+05:30
Latur,Maharashtra,18.4088,76.5604,24.6,44,0.0,940.4,8.6,23.8,91,53.8,44.8,0,5,7,0,2026-03-20T22:20:38.754255+05:30
Nanded,Maharashtra,19.1383,77.3091,26.7,52,0.0,969.5,8.4,23.8,76,32.7,28.0,4,5,7,0,2026-03-20T22:20:38.754262+05:30
Gulbarga,Karnataka,17.3297,76.8343,28.8,36,0.0,959.5,8.7,24.5,123,58.1,39.3,4,5,7,0,2026-03-20T22:20:38.754269+05:30
Bidar,Karnataka,17.9104,77.5199,26.6,45,0.0,936.4,8.65,26.3,105,45.9,36.1,4,5,7,0,2026-03-20T22:20:38.754277+05:30
Hospet,Karnataka,15.2689,76.3909,28.1,52,0.0,956.6,8.95,11.5,139,36.7,30.6,4,5,7,1,2026-03-20T22:20:38.754283+05:30
Tirupur,Tamil Nadu,11.1085,77.3411,28.0,57,0.0,976.9,9.35,28.1,118,40.2,35.2,4,5,7,1,2026-03-20T22:20:38.754291+05:30
Alappuzha,Kerala,9.4981,76.3388,29.0,73,0.0,1010.5,9.1,32.8,77,36.6,29.0,7,0,4,1,2026-03-20T22:20:38.754298+05:30
Munnar,Kerala,10.0889,77.0595,20.2,83,0.0,857.9,9.6,37.4,53,24.4,20.8,3,5,7,1,2026-03-20T22:20:38.754309+05:30
Silchar,Assam,24.8333,92.7789,22.7,89,0.0,1009.6,7.55,19.1,105,56.3,49.6,3,0,4,1,2026-03-20T22:20:38.754317+05:30
Dibrugarh,Assam,27.4728,94.912,22.3,86,0.0,1001.9,7.75,14.0,91,38.1,32.8,3,5,4,1,2026-03-20T22:20:38.754325+05:30
