city,state,latitude,longitude,temp,humidity,rain,pressure,uv_index,wind_gusts,aqi,pm10,pm2_5,mosquito_risk,arthritis_risk,migraine_risk,frizz_risk,updated_at
Delhi,Delhi,28.6139,77.209,21.6,69,0.0,984.5,6.9,12.6,150,164.8,45.6,3,5,7,0,2026-04-02T05:09:21.924880+05:30
Mumbai,Maharashtra,19.076,72.8777,26.8,78,0.0,1009.0,7.9,22.7,65,30.4,20.0,7,0,4,1,2026-04-02T05:09:21.924919+05:30
Bangalore,Karnataka,12.9716,77.5946,20.5,85,0.0,911.2,9.6,23.0,63,12.5,11.1,3,5,7,1,2026-04-02T05:09:21.924934+05:30
Hyderabad,Telangana,17.385,78.4867,24.0,64,0.0,953.6,9.1,21.6,80,13.0,10.2,3,5,7,1,2026-04-02T05:09:21.924944+05:30
Chennai,Tamil Nadu,13.0827,80.2707,25.1,83,0.0,1008.5,9.3,31.0,34,14.5,11.7,7,0,4,1,2026-04-02T05:09:21.924953+05:30
Kolkata,West Bengal,22.5726,88.3639,25.8,94,0.0,1007.1,8.6,27.0,97,22.8,19.5,7,5,4,1,2026-04-02T05:09:21.924962+05:30
Pune,Maharashtra,18.5204,73.8567,24.3,93,0.0,948.5,8.45,31.3,105,55.4,50.8,3,5,7,1,2026-04-02T05:09:21.924973+05:30
Ahmedabad,Gujarat,23.0225,72.5714,24.3,56,0.0,1002.8,7.8,28.4,58,22.6,14.7,0,5,4,0,2026-04-02T05:09:21.924980+05:30
Jaipur,Rajasthan,26.9124,75.7873,23.9,72,0.0,960.8,7.45,27.0,112,258.9,41.1,3,5,7,1,2026-04-02T05:09:21.924988+05:30
Lucknow,Uttar Pradesh,26.8467,80.9462,24.0,62,0.0,994.4,7.15,31.0,69,74.7,27.4,3,5,7,1,2026-04-02T05:09:21.924996+05:30
Kanpur,Uttar Pradesh,26.4499,80.3319,23.9,68,0.0,992.8,6.95,23.8,92,127.6,30.5,3,5,7,1,2026-04-02T05:09:21.925003+05:30
Chandigarh,Chandigarh,30.7333,76.7794,20.0,69,0.0,970.3,6.6,14.8,70,25.1,20.3,3,5,7,0,2026-04-02T05:09:21.925010+05:30
Srinagar,Jammu and Kashmir,34.0837,74.7973,6.8,87,0.0,840.5,7.1,19.1,105,55.8,50.3,3,10,7,0,2026-04-02T05:09:21.925017+05:30
Jammu,Jammu and Kashmir,32.7266,74.857,19.7,68,0.0,975.3,7.4,19.4,82,30.6,26.1,3,5,7,0,2026-04-02T05:09:21.925025+05:30
Amritsar,Punjab,31.634,74.8723,19.7,77,0.0,983.3,7.35,19.8,117,41.3,28.4,3,5,7,0,2026-04-02T05:09:21.925032+05:30
Ludhiana,Punjab,30.901,75.8573,20.8,73,0.0,980.9,6.75,16.2,126,60.8,54.5,3,5,7,0,2026-04-02T05:09:21.925038+05:30
Jalandhar,Punjab,31.326,75.5762,20.4,74,0.0,982.0,7.2,10.8,108,50.9,34.3,3,5,7,0,2026-04-02T05:09:21.925046+05:30
Dehradun,Uttarakhand,30.6284,78.0322,13.8,54,0.0,831.0,6.25,29.2,31,9.8,5.6,0,5,7,0,2026-04-02T05:09:21.925053+05:30
Shimla,Himachal Pradesh,31.1048,77.1734,12.0,61,0.0,784.8,6.9,27.7,54,16.9,11.0,3,5,7,0,2026-04-02T05:09:21.925060+05:30
Manali,Himachal Pradesh,32.2396,77.1887,13.6,37,0.0,820.0,8.4,22.0,41,8.6,4.5,0,5,7,1,2026-04-02T05:09:21.925067+05:30
Gurgaon,Haryana,28.4595,77.0266,20.1,77,0.0,982.6,6.35,15.1,292,294.3,66.6,3,5,7,0,2026-04-02T05:09:21.925074+05:30
Noida,Uttar Pradesh,28.5355,77.391,21.2,71,0.0,986.0,6.95,11.9,292,294.3,66.6,3,5,7,0,2026-04-02T05:09:21.925080+05:30
Ghaziabad,Uttar Pradesh,28.6692,77.4538,19.9,76,0.0,984.2,6.9,13.7,141,79.2,33.9,3,5,7,0,2026-04-02T05:09:21.925087+05:30
Faridabad,Haryana,28.4089,77.3178,20.2,76,0.0,985.1,6.95,16.9,292,294.3,66.6,3,5,7,0,2026-04-02T05:09:21.925094+05:30
Meerut,Uttar Pradesh,28.9845,77.7064,19.4,77,0.0,982.9,6.75,19.8,141,79.2,33.9,3,5,7,0,2026-04-02T05:09:21.925100+05:30
Agra,Uttar Pradesh,27.1767,78.0081,22.2,79,0.0,989.0,7.3,19.8,237,137.8,43.4,3,5,7,1,2026-04-02T05:09:21.925107+05:30
Varanasi,Uttar Pradesh,25.3176,82.9739,24.0,74,0.0,998.2,7.5,31.0,78,46.8,38.8,3,5,7,1,2026-04-02T05:09:21.925116+05:30
Prayagraj,Uttar Pradesh,25.4358,81.8463,24.7,73,0.0,996.8,7.85,23.8,61,46.1,28.2,3,5,7,1,2026-04-02T05:09:21.925125+05:30
Gorakhpur,Uttar Pradesh,26.7606,83.3732,21.8,71,0.0,997.5,7.85,40.3,71,42.7,19.3,3,5,7,1,2026-04-02T05:09:21.925132+05:30
Bareilly,Uttar Pradesh,28.367,79.4304,20.1,74,0.0,988.0,7.15,30.2,104,34.9,29.3,3,5,7,0,2026-04-02T05:09:21.925138+05:30
Aligarh,Uttar Pradesh,27.8974,78.088,20.3,77,0.0,986.9,7.05,13.0,162,178.3,50.6,3,5,7,1,2026-04-02T05:09:21.925145+05:30
Moradabad,Uttar Pradesh,28.8386,78.7733,19.9,73,0.0,984.7,7.0,26.6,116,43.3,31.7,3,5,7,0,2026-04-02T05:09:21.925157+05:30
Saharanpur,Uttar Pradesh,29.9637,77.546,19.8,70,0.0,977.3,5.9,18.7,92,53.8,39.6,3,5,3,0,2026-04-02T05:09:21.925164+05:30
Jhansi,Uttar Pradesh,25.4484,78.5685,25.6,70,0.0,978.7,6.9,20.2,62,71.9,28.6,7,5,7,1,2026-04-02T05:09:25.250584+05:30
Surat,Gujarat,21.1702,72.8311,25.8,80,0.0,1007.3,7.2,31.0,87,29.7,25.0,7,5,4,1,2026-04-02T05:09:25.250615+05:30
Vadodara,Gujarat,22.3072,73.1812,24.7,87,0.0,1005.1,7.6,34.6,68,25.1,20.7,3,5,4,1,2026-04-02T05:09:25.250626+05:30
Rajkot,Gujarat,22.3039,70.8022,22.4,82,0.0,995.2,7.15,42.5,56,28.8,14.7,3,5,7,1,2026-04-02T05:09:25.250636+05:30
Thane,Maharashtra,19.2183,72.9781,23.8,89,0.0,1008.6,7.9,33.8,65,30.4,20.0,3,0,4,1,2026-04-02T05:09:25.250644+05:30
Nagpur,Maharashtra,21.1458,79.0882,24.0,76,0.0,975.0,8.65,27.0,86,38.9,31.9,3,5,7,1,2026-04-02T05:09:25.250652+05:30
Nashik,Maharashtra,19.9975,73.7898,22.3,82,0.0,946.0,8.15,37.8,62,32.0,22.5,3,5,7,1,2026-04-02T05:09:25.250660+05:30
Aurangabad,Maharashtra,19.8762,75.3433,22.8,84,0.0,944.6,8.85,38.9,102,50.5,43.1,3,5,7,1,2026-04-02T05:09:25.250668+05:30
Solapur,Maharashtra,17.6599,75.9064,24.4,76,0.0,957.9,8.9,36.7,116,59.3,52.4,3,5,7,1,2026-04-02T05:09:25.250676+05:30
Kolhapur,Maharashtra,16.705,74.2433,22.4,97,0.0,947.7,8.95,42.5,131,64.5,60.1,3,5,7,1,2026-04-02T05:09:25.250684+05:30
Goa,Goa,15.2993,74.124,26.6,86,0.0,997.3,8.85,31.0,70,34.8,28.0,7,5,7,1,2026-04-02T05:09:25.250692+05:30
Jodhpur,Rajasthan,26.2389,73.0243,23.8,43,0.0,983.4,7.65,40.7,81,102.9,18.6,0,5,7,0,2026-04-02T05:09:25.250701+05:30
Udaipur,Rajasthan,24.5854,73.7125,22.1,56,0.0,946.4,8.2,35.3,48,19.4,12.0,0,5,7,0,2026-04-02T05:09:25.250710+05:30
Kota,Rajasthan,25.2138,75.8648,25.6,67,0.0,978.8,7.55,24.8,66,37.7,25.6,7,5,7,1,2026-04-02T05:09:25.250719+05:30
Bikaner,Rajasthan,28.0229,73.3119,23.4,57,0.0,981.8,7.45,47.2,53,101.0,27.0,0,5,7,0,2026-04-02T05:09:25.250727+05:30
Ajmer,Rajasthan,26.4499,74.6399,23.9,45,0.0,954.9,6.35,23.4,66,53.1,24.3,0,5,7,0,2026-04-02T05:09:25.250735+05:30
Gwalior,Madhya Pradesh,26.2183,78.1828,25.1,71,0.0,984.2,6.8,31.3,65,118.0,26.5,7,5,7,1,2026-04-02T05:09:25.250742+05:30
Indore,Madhya Pradesh,22.7196,75.8577,23.0,67,0.0,948.3,8.2,32.4,86,30.3,27.5,3,5,7,1,2026-04-02T05:09:25.250750+05:30
Bhopal,Madhya Pradesh,23.2599,77.4126,23.1,75,0.0,954.2,7.85,28.4,73,39.3,31.3,3,5,7,1,2026-04-02T05:09:25.250758+05:30
Jabalpur,Madhya Pradesh,23.1815,79.9864,23.8,72,0.0,962.2,7.95,40.7,69,53.0,43.3,3,5,7,1,2026-04-02T05:09:25.250765+05:30
Ujjain,Madhya Pradesh,23.1765,75.7885,22.6,70,0.0,954.1,8.2,26.3,74,23.2,19.6,3,5,7,1,2026-04-02T05:09:25.250773+05:30
Visakhapatnam,Andhra Pradesh,17.6868,83.2185,24.6,90,0.0,1005.7,9.05,36.0,60,14.5,12.6,3,5,4,1,2026-04-02T05:09:25.250781+05:30
Vijayawada,Andhra Pradesh,16.5062,80.648,24.7,88,0.0,1004.5,9.15,25.2,53,11.9,10.5,3,5,4,1,2026-04-02T05:09:25.250789+05:30
Guntur,Andhra Pradesh,16.3067,80.4365,24.7,87,0.0,1005.5,9.15,28.8,50,10.0,8.7,3,5,4,1,2026-04-02T05:09:25.250797+05:30
Nellore,Andhra Pradesh,14.4426,79.9865,24.7,88,0.0,1007.4,9.15,28.4,36,8.0,6.5,3,5,4,1,2026-04-02T05:09:25.250805+05:30
Kurnool,Andhra Pradesh,15.8281,78.0373,27.2,59,0.0,977.4,9.15,24.1,60,7.9,5.9,4,5,7,1,2026-04-02T05:09:25.250814+05:30
Kakinada,Andhra Pradesh,16.9891,82.2475,23.9,90,0.0,1009.5,9.1,35.3,39,7.9,5.9,3,0,4,1,2026-04-02T05:09:25.250821+05:30
Tirupati,Andhra Pradesh,13.6288,79.4192,22.3,85,0.0,993.3,9.35,32.0,52,16.8,15.4,3,5,7,1,2026-04-02T05:09:25.250829+05:30
Warangal,Telangana,17.9689,79.5941,24.2,73,0.0,979.7,9.0,25.9,78,12.1,11.5,3,5,7,1,2026-04-02T05:09:25.250837+05:30
Nizamabad,Telangana,18.6725,78.0941,24.7,75,0.0,966.4,8.9,34.2,116,54.6,49.8,3,5,7,1,2026-04-02T05:09:25.250844+05:30
Mysore,Karnataka,12.2958,76.6396,22.2,94,0.0,928.2,9.5,29.9,81,36.7,34.6,3,5,7,1,2026-04-02T05:09:25.250852+05:30
Mangalore,Karnataka,12.9141,74.856,28.5,82,0.0,1006.3,8.45,22.7,80,31.2,27.9,7,5,4,1,2026-04-02T05:09:25.250860+05:30
Hubli-Dharwad,Karnataka,15.3647,75.124,23.2,87,0.0,940.8,9.15,40.0,93,36.3,34.2,3,5,7,1,2026-04-02T05:09:25.250867+05:30
Belgaum,Karnataka,15.8497,74.4977,21.8,93,0.0,924.9,9.1,38.9,98,33.9,30.6,3,5,7,1,2026-04-02T05:09:28.570611+05:30
Coimbatore,Tamil Nadu,11.0168,76.9558,22.2,94,0.0,961.9,9.4,33.8,66,18.5,17.5,3,5,7,1,2026-04-02T05:09:28.570636+05:30
Madurai,Tamil Nadu,9.9252,78.1198,24.8,84,0.0,993.9,9.35,25.6,54,23.2,21.4,3,5,7,1,2026-04-02T05:09:28.570646+05:30
Trichy,Tamil Nadu,10.7905,78.7047,23.3,94,0.0,1001.0,9.35,18.4,55,18.3,16.6,3,5,4,1,2026-04-02T05:09:28.570653+05:30
Salem,Tamil Nadu,11.6643,78.146,23.8,84,0.0,978.3,9.4,15.1,71,22.1,21.4,3,5,7,1,2026-04-02T05:09:28.570659+05:30
Tirunelveli,Tamil Nadu,8.7139,77.7567,23.6,89,0.0,1003.9,9.35,46.8,45,21.4,19.6,3,5,4,1,2026-04-02T05:09:28.570666+05:30
Vellore,Tamil Nadu,12.9165,79.1325,21.9,87,0.0,986.1,9.4,28.8,57,21.8,20.6,3,5,7,1,2026-04-02T05:09:28.570672+05:30
Erode,Tamil Nadu,11.341,77.7172,24.9,79,0.0,990.1,9.05,23.4,56,12.5,11.5,3,5,7,1,2026-04-02T05:09:28.570678+05:30
Kochi,Kerala,9.9312,76.2673,27.6,84,0.0,1008.6,9.2,28.1,80,30.6,28.8,7,0,4,1,2026-04-02T05:09:28.570684+05:30
Thiruvananthapuram,Kerala,8.5241,76.9366,28.3,79,0.0,1007.7,9.15,24.5,63,14.2,10.9,7,5,4,1,2026-04-02T05:09:28.570691+05:30
Kozhikode,Kerala,11.2588,75.7804,28.0,82,0.0,1007.7,9.05,26.6,65,21.4,17.4,7,5,4,1,2026-04-02T05:09:28.570696+05:30
Thrissur,Kerala,10.5276,76.2144,26.3,92,0.0,1007.0,9.2,33.1,75,29.0,27.0,7,5,4,1,2026-04-02T05:09:28.570703+05:30
Kannur,Kerala,11.8745,75.3704,27.4,84,0.0,1006.9,9.1,26.6,81,32.5,28.6,7,5,4,1,2026-04-02T05:09:28.570709+05:30
Patna,Bihar,25.5941,85.1376,24.3,77,0.0,1000.9,8.25,33.8,132,25.9,22.2,3,5,4,1,2026-04-02T05:09:28.570715+05:30
Gaya,Bihar,24.7914,85.0002,24.9,74,0.0,994.5,8.35,29.5,86,43.0,30.2,3,5,7,1,2026-04-02T05:09:28.570721+05:30
Muzaffarpur,Bihar,26.1209,85.3647,22.6,74,0.0,1000.6,8.25,33.1,150,29.1,25.3,3,5,4,1,2026-04-02T05:09:28.570727+05:30
Bhagalpur,Bihar,25.2425,87.0117,24.1,84,0.0,1001.5,8.25,27.4,134,32.1,23.7,3,5,4,1,2026-04-02T05:09:28.570733+05:30
Ranchi,Jharkhand,23.3441,85.3096,23.6,61,0.0,938.9,8.9,41.8,80,37.4,20.8,3,5,7,0,2026-04-02T05:09:28.570739+05:30
Jamshedpur,Jharkhand,22.8046,86.2029,26.0,79,0.0,991.9,8.75,28.8,107,48.5,37.0,7,5,7,1,2026-04-02T05:09:28.570744+05:30
Dhanbad,Jharkhand,23.7957,86.4304,24.4,77,0.0,980.6,8.65,29.2,157,107.1,88.9,3,5,7,1,2026-04-02T05:09:28.570750+05:30
Bokaro,Jharkhand,23.6693,86.1511,25.3,62,0.0,985.0,8.65,28.8,151,108.7,88.5,7,5,7,1,2026-04-02T05:09:28.570756+05:30
Bhubaneswar,Odisha,20.2961,85.8245,25.0,92,0.0,1003.9,8.9,30.2,76,10.9,8.7,7,5,4,1,2026-04-02T05:09:28.570762+05:30
Cuttack,Odisha,20.4625,85.8828,24.8,93,0.0,1005.9,8.95,24.5,76,10.9,8.7,3,5,4,1,2026-04-02T05:09:28.570768+05:30
Rourkela,Odisha,22.2604,84.8536,24.9,86,0.0,986.0,8.65,27.4,126,68.7,48.8,3,5,7,1,2026-04-02T05:09:28.570774+05:30
Raipur,Chhattisgarh,21.2514,81.6296,25.9,58,0.0,975.5,8.75,29.9,133,74.7,71.0,4,5,7,1,2026-04-02T05:09:28.570779+05:30
Bhilai,Chhattisgarh,21.1938,81.3509,25.4,63,0.0,975.8,8.75,28.8,129,78.5,73.3,7,5,7,1,2026-04-02T05:09:28.570785+05:30
Guwahati,Assam,26.1158,91.7086,22.0,93,0.0,1002.6,8.15,40.0,90,39.1,36.1,3,5,4,1,2026-04-02T05:09:28.570791+05:30
Agartala,Tripura,23.8315,91.2868,22.0,94,0.0,1008.3,8.4,43.2,92,41.9,39.0,3,0,4,1,2026-04-02T05:09:28.570796+05:30
Shillong,Meghalaya,25.5788,91.8933,14.5,92,0.0,856.1,8.55,66.2,75,43.8,38.2,3,10,7,0,2026-04-02T05:09:28.570802+05:30
Imphal,Manipur,24.817,93.9368,17.9,89,0.0,924.5,8.7,83.5,96,58.1,45.6,3,10,7,1,2026-04-02T05:09:28.570808+05:30
Aizawl,Mizoram,23.7271,92.7176,18.1,91,0.0,894.0,8.65,49.7,90,44.6,33.2,3,10,7,1,2026-04-02T05:09:28.570814+05:30
Kohima,Nagaland,25.6701,94.1077,16.4,79,0.0,855.3,8.65,100.4,78,33.5,25.0,3,5,7,0,2026-04-02T05:09:28.570819+05:30
Gangtok,Sikkim,27.3314,88.6138,13.4,73,0.0,835.9,8.4,20.2,71,14.0,11.5,3,5,7,0,2026-04-02T05:09:28.570825+05:30
Siliguri,West Bengal,26.7271,88.3953,20.2,75,0.0,994.2,8.2,21.2,153,78.0,68.2,3,5,7,0,2026-04-02T05:09:31.897031+05:30
Durgapur,West Bengal,23.5204,87.3119,25.9,92,0.0,995.8,8.6,21.2,151,80.1,72.4,7,5,7,1,2026-04-02T05:09:31.897063+05:30
Asansol,West Bengal,23.6739,86.9524,26.2,92,0.0,994.3,8.65,26.3,141,66.6,54.9,7,5,7,1,2026-04-02T05:09:31.897076+05:30
Pondicherry,Puducherry,11.9139,79.8145,23.3,89,0.0,1009.7,9.25,25.6,31,12.6,9.8,3,0,4,1,2026-04-02T05:09:31.897085+05:30
Port Blair,Andaman and Nicobar Islands,11.6234,92.7265,28.0,82,0.0,1007.4,9.15,28.8,36,4.8,3.5,7,5,4,1,2026-04-02T05:09:31.897094+05:30
Haridwar,Uttarakhand,29.9457,78.1642,20.6,62,0.0,975.9,6.25,27.0,64,26.2,20.7,3,5,7,0,2026-04-02T05:09:31.897102+05:30
Rishikesh,Uttarakhand,30.0869,78.2676,20.7,53,0.0,968.9,6.15,30.6,51,20.0,12.9,0,5,7,0,2026-04-02T05:09:31.897111+05:30
Nainital,Uttarakhand,29.3919,79.4542,18.4,35,0.0,807.1,7.25,39.6,60,17.2,12.7,0,5,7,0,2026-04-02T05:09:31.897118+05:30
Mussoorie,Uttarakhand,30.4599,78.0664,16.1,41,0.0,803.9,6.2,33.5,57,20.0,15.3,0,5,7,0,2026-04-02T05:09:31.897126+05:30
Dharamshala,Himachal Pradesh,32.219,76.3234,18.9,48,0.0,870.6,7.35,24.5,44,6.8,3.9,0,5,7,0,2026-04-02T05:09:31.897133+05:30
Dalhousie,Himachal Pradesh,32.5387,75.971,14.9,45,0.0,804.3,7.55,22.3,61,26.1,20.0,0,5,7,0,2026-04-02T05:09:31.897142+05:30
Patiala,Punjab,30.3398,76.3869,19.5,75,0.0,979.9,6.65,15.5,112,65.7,50.4,3,5,7,0,2026-04-02T05:09:31.897150+05:30
Bhatinda,Punjab,30.211,74.9455,20.6,72,0.0,985.4,7.3,28.4,106,57.3,28.4,3,5,7,0,2026-04-02T05:09:31.897158+05:30
Rohtak,Haryana,28.8955,76.6066,19.5,79,0.0,983.2,6.05,26.3,153,225.4,52.9,3,5,7,0,2026-04-02T05:09:31.897166+05:30
Panipat,Haryana,29.3909,76.9635,19.4,77,0.0,981.9,6.45,15.5,155,285.0,58.3,3,5,7,0,2026-04-02T05:09:31.897173+05:30
Mathura,Uttar Pradesh,27.4924,77.6737,21.3,72,0.0,988.1,7.15,15.5,166,141.6,46.9,3,5,7,1,2026-04-02T05:09:31.897181+05:30
Vrindavan,Uttar Pradesh,27.5823,77.7027,20.9,74,0.0,988.5,7.15,16.9,166,141.6,46.9,3,5,7,1,2026-04-02T05:09:31.897189+05:30
Ayodhya,Uttar Pradesh,26.7922,82.1998,22.3,71,0.0,995.9,7.65,36.4,64,62.4,24.7,3,5,7,1,2026-04-02T05:09:31.897196+05:30
Ratlam,Madhya Pradesh,23.3315,75.0367,23.2,62,0.0,954.7,8.15,34.2,67,22.5,18.3,3,5,7,0,2026-04-02T05:09:31.897203+05:30
Sagar,Madhya Pradesh,23.8388,78.7378,23.7,66,0.0,950.7,7.85,30.2,59,18.5,15.0,3,5,7,1,2026-04-02T05:09:31.897211+05:30
Satna,Madhya Pradesh,24.6005,80.8322,25.7,62,0.0,972.1,7.7,28.8,55,17.3,14.9,7,5,7,1,2026-04-02T05:09:31.897219+05:30
Akola,Maharashtra,20.7002,77.0082,24.2,84,0.0,976.3,7.8,18.7,85,42.5,33.9,3,5,7,1,2026-04-02T05:09:31.897228+05:30
Amravati,Maharashtra,20.9374,77.7796,24.0,82,0.0,968.9,8.6,19.8,81,41.4,32.9,3,5,7,1,2026-04-02T05:09:31.897236+05:30
Latur,Maharashtra,18.4088,76.5604,23.2,79,0.0,940.6,8.9,37.8,116,70.8,59.4,3,5,7,1,2026-04-02T05:09:31.897299+05:30
Nanded,Maharashtra,19.1383,77.3091,24.0,80,0.0,970.2,8.8,29.9,108,44.5,39.3,3,5,7,1,2026-04-02T05:09:31.897310+05:30
Gulbarga,Karnataka,17.3297,76.8343,24.9,72,0.0,959.7,8.95,58.3,100,51.3,46.3,3,5,7,1,2026-04-02T05:09:31.897318+05:30
Bidar,Karnataka,17.9104,77.5199,23.4,79,0.0,936.2,8.95,32.8,104,61.2,55.3,3,5,7,1,2026-04-02T05:09:31.897326+05:30
Hospet,Karnataka,15.2689,76.3909,25.4,73,0.0,955.8,9.15,41.8,111,51.3,47.4,7,5,7,1,2026-04-02T05:09:31.897334+05:30
Tirupur,Tamil Nadu,11.1085,77.3411,24.8,83,0.0,975.9,8.95,23.8,60,13.5,13.2,3,5,7,1,2026-04-02T05:09:31.897342+05:30
Alappuzha,Kerala,9.4981,76.3388,27.8,82,0.0,1008.7,9.2,26.6,75,25.7,22.8,7,0,4,1,2026-04-02T05:09:31.897350+05:30
Munnar,Kerala,10.0889,77.0595,18.6,88,0.0,855.5,9.75,31.3,64,21.8,19.7,3,10,7,1,2026-04-02T05:09:31.897359+05:30
Silchar,Assam,24.8333,92.7789,22.1,93,0.0,1008.0,8.45,34.2,119,63.3,51.3,3,0,4,1,2026-04-02T05:09:31.897366+05:30
Dibrugarh,Assam,27.4728,94.912,21.4,93,0.0,996.9,6.0,26.3,104,36.1,30.9,3,5,3,1,2026-04-02T05:09:31.897374+05:30
