city,state,latitude,longitude,temp,humidity,rain,pressure,uv_index,wind_gusts,aqi,pm10,pm2_5,mosquito_risk,arthritis_risk,migraine_risk,frizz_risk,updated_at
Delhi,Delhi,28.6139,77.209,31.2,31,0.0,979.9,7.4,27.7,179,159.7,48.7,0,5,7,0,2026-04-24T00:46:02.721837+05:30
Mumbai,Maharashtra,19.076,72.8777,29.4,78,0.0,1005.8,8.05,24.8,81,26.5,17.6,7,5,4,1,2026-04-24T00:46:02.721893+05:30
Bangalore,Karnataka,12.9716,77.5946,25.5,64,0.0,910.2,9.6,31.3,75,26.6,25.0,7,5,7,1,2026-04-24T00:46:02.721906+05:30
Hyderabad,Telangana,17.385,78.4867,28.4,54,0.0,951.4,9.3,28.4,111,39.2,34.9,4,5,7,1,2026-04-24T00:46:02.721915+05:30
Chennai,Tamil Nadu,13.0827,80.2707,28.9,84,0.0,1004.9,8.9,30.6,29,9.8,6.9,7,5,4,1,2026-04-24T00:46:02.721923+05:30
Kolkata,West Bengal,22.5726,88.3639,28.1,90,0.0,1003.5,8.9,25.2,102,23.3,20.0,7,5,4,1,2026-04-24T00:46:02.721934+05:30
Pune,Maharashtra,18.5204,73.8567,26.0,70,0.0,946.9,8.6,34.2,106,47.7,43.4,7,5,7,1,2026-04-24T00:46:02.721940+05:30
Ahmedabad,Gujarat,23.0225,72.5714,29.2,41,0.0,1000.6,8.2,23.8,52,23.3,11.0,4,5,4,0,2026-04-24T00:46:02.721947+05:30
Jaipur,Rajasthan,26.9124,75.7873,29.0,27,0.0,958.0,8.05,24.1,100,55.8,24.6,4,5,7,0,2026-04-24T00:46:02.721954+05:30
Lucknow,Uttar Pradesh,26.8467,80.9462,28.4,36,0.0,990.1,7.9,22.3,179,272.9,54.1,4,5,7,0,2026-04-24T00:46:02.721962+05:30
Kanpur,Uttar Pradesh,26.4499,80.3319,26.7,50,0.0,988.8,7.95,20.2,301,216.1,49.4,4,5,7,0,2026-04-24T00:46:02.721969+05:30
Chandigarh,Chandigarh,30.7333,76.7794,26.5,48,0.0,965.8,7.35,30.6,85,32.7,24.7,4,5,7,0,2026-04-24T00:46:02.721975+05:30
Srinagar,Jammu and Kashmir,34.0837,74.7973,13.6,72,0.0,841.1,8.6,19.8,84,86.8,68.9,3,5,7,0,2026-04-24T00:46:02.721981+05:30
Jammu,Jammu and Kashmir,32.7266,74.857,25.7,64,0.0,970.4,8.2,36.4,72,36.7,29.6,7,5,7,1,2026-04-24T00:46:02.721986+05:30
Amritsar,Punjab,31.634,74.8723,26.1,63,0.0,978.3,8.1,35.6,97,53.6,33.1,7,5,7,1,2026-04-24T00:46:02.721992+05:30
Ludhiana,Punjab,30.901,75.8573,27.9,50,0.0,976.0,7.6,33.5,86,31.3,24.4,4,5,7,1,2026-04-24T00:46:02.721999+05:30
Jalandhar,Punjab,31.326,75.5762,26.4,59,0.0,977.1,7.85,31.3,88,43.0,29.2,4,5,7,1,2026-04-24T00:46:02.722004+05:30
Dehradun,Uttarakhand,30.6284,78.0322,18.2,59,0.0,830.4,7.85,46.1,57,26.4,19.4,0,5,7,0,2026-04-24T00:46:02.722010+05:30
Shimla,Himachal Pradesh,31.1048,77.1734,15.9,59,0.0,784.5,7.95,53.3,98,38.2,24.7,0,5,7,0,2026-04-24T00:46:02.722016+05:30
Manali,Himachal Pradesh,32.2396,77.1887,18.4,56,0.0,822.0,9.3,31.7,89,25.9,16.4,0,5,7,0,2026-04-24T00:46:02.722021+05:30
Gurgaon,Haryana,28.4595,77.0266,28.4,34,0.0,978.3,7.55,24.8,752,152.3,59.6,4,5,7,0,2026-04-24T00:46:02.722026+05:30
Noida,Uttar Pradesh,28.5355,77.391,30.1,34,0.0,981.4,7.45,26.3,752,152.3,59.6,0,5,7,0,2026-04-24T00:46:02.722031+05:30
Ghaziabad,Uttar Pradesh,28.6692,77.4538,30.8,33,0.0,979.5,7.4,27.7,161,190.9,62.4,0,5,7,0,2026-04-24T00:46:02.722036+05:30
Faridabad,Haryana,28.4089,77.3178,29.5,32,0.0,980.8,7.5,25.2,752,152.3,59.6,4,5,7,0,2026-04-24T00:46:02.722041+05:30
Meerut,Uttar Pradesh,28.9845,77.7064,27.5,44,0.0,978.0,7.35,33.5,161,190.9,62.4,4,5,7,0,2026-04-24T00:46:02.722046+05:30
Agra,Uttar Pradesh,27.1767,78.0081,25.8,47,0.0,984.8,7.8,22.3,485,719.0,73.3,4,5,7,0,2026-04-24T00:46:02.722053+05:30
Varanasi,Uttar Pradesh,25.3176,82.9739,28.5,39,0.0,994.0,8.5,20.2,131,209.5,57.5,4,5,7,0,2026-04-24T00:46:02.722060+05:30
Prayagraj,Uttar Pradesh,25.4358,81.8463,30.1,35,0.0,992.7,8.35,20.2,141,179.3,58.3,0,5,7,0,2026-04-24T00:46:02.722066+05:30
Gorakhpur,Uttar Pradesh,26.7606,83.3732,28.2,45,0.0,994.0,8.3,22.3,118,100.1,35.5,4,5,7,0,2026-04-24T00:46:02.722071+05:30
Bareilly,Uttar Pradesh,28.367,79.4304,26.3,51,0.0,983.5,7.7,22.7,116,153.2,41.4,4,5,7,0,2026-04-24T00:46:02.722078+05:30
Aligarh,Uttar Pradesh,27.8974,78.088,25.5,38,0.0,982.6,7.6,28.1,481,411.6,54.8,4,5,7,0,2026-04-24T00:46:02.722082+05:30
Moradabad,Uttar Pradesh,28.8386,78.7733,27.2,47,0.0,980.2,7.5,33.5,132,131.8,59.5,4,5,7,0,2026-04-24T00:46:02.722087+05:30
Saharanpur,Uttar Pradesh,29.9637,77.546,26.0,56,0.0,972.6,7.15,29.9,103,63.1,47.6,4,5,7,1,2026-04-24T00:46:02.722093+05:30
Jhansi,Uttar Pradesh,25.4484,78.5685,31.1,27,0.0,976.0,8.3,28.8,47,24.4,23.3,0,5,7,0,2026-04-24T00:46:05.980958+05:30
Surat,Gujarat,21.1702,72.8311,27.9,80,0.0,1004.7,7.9,23.0,99,28.9,23.5,7,5,4,1,2026-04-24T00:46:05.980991+05:30
Vadodara,Gujarat,22.3072,73.1812,30.0,55,0.0,1002.5,8.2,26.6,78,44.2,36.2,4,5,4,1,2026-04-24T00:46:05.980999+05:30
Rajkot,Gujarat,22.3039,70.8022,25.8,80,0.0,993.8,7.9,32.4,41,19.0,8.8,7,5,7,1,2026-04-24T00:46:05.981005+05:30
Thane,Maharashtra,19.2183,72.9781,28.4,76,0.0,1005.3,8.05,38.5,81,26.5,17.6,7,5,4,1,2026-04-24T00:46:05.981010+05:30
Nagpur,Maharashtra,21.1458,79.0882,29.7,52,0.0,970.9,8.95,27.0,87,59.5,55.6,4,5,7,1,2026-04-24T00:46:05.981016+05:30
Nashik,Maharashtra,19.9975,73.7898,27.7,53,0.0,944.5,8.35,34.9,98,32.8,29.0,4,5,7,1,2026-04-24T00:46:05.981021+05:30
Aurangabad,Maharashtra,19.8762,75.3433,29.8,36,0.0,942.6,9.05,33.5,95,38.1,31.9,4,5,7,0,2026-04-24T00:46:05.981027+05:30
Solapur,Maharashtra,17.6599,75.9064,27.2,61,0.0,955.9,9.1,29.9,119,42.4,38.9,7,5,7,1,2026-04-24T00:46:05.981033+05:30
Kolhapur,Maharashtra,16.705,74.2433,25.3,83,0.0,946.6,9.0,39.6,132,81.7,76.8,7,5,7,1,2026-04-24T00:46:05.981039+05:30
Goa,Goa,15.2993,74.124,29.0,86,0.0,995.4,9.0,31.0,87,44.6,33.6,7,5,7,1,2026-04-24T00:46:05.981045+05:30
Jodhpur,Rajasthan,26.2389,73.0243,30.5,40,0.0,981.2,8.25,21.6,59,83.4,19.8,0,5,7,0,2026-04-24T00:46:05.981050+05:30
Udaipur,Rajasthan,24.5854,73.7125,26.8,50,0.0,946.1,8.8,32.4,47,58.1,16.5,4,5,7,0,2026-04-24T00:46:05.981055+05:30
Kota,Rajasthan,25.2138,75.8648,28.3,31,0.0,976.8,8.3,23.0,58,24.5,14.5,4,5,7,0,2026-04-24T00:46:05.981060+05:30
Bikaner,Rajasthan,28.0229,73.3119,32.8,33,0.0,979.5,8.0,20.9,66,86.1,27.0,0,5,7,0,2026-04-24T00:46:05.981065+05:30
Ajmer,Rajasthan,26.4499,74.6399,27.4,40,0.0,953.3,8.25,30.6,48,27.1,12.5,4,5,7,0,2026-04-24T00:46:05.981071+05:30
Gwalior,Madhya Pradesh,26.2183,78.1828,28.1,43,0.0,980.9,8.05,29.5,45,9.1,7.8,4,5,7,0,2026-04-24T00:46:05.981076+05:30
Indore,Madhya Pradesh,22.7196,75.8577,27.5,45,0.0,947.1,8.65,30.6,81,21.9,19.4,4,5,7,0,2026-04-24T00:46:05.981081+05:30
Bhopal,Madhya Pradesh,23.2599,77.4126,27.4,39,0.0,952.6,8.65,23.0,70,30.0,27.6,4,5,7,0,2026-04-24T00:46:05.981086+05:30
Jabalpur,Madhya Pradesh,23.1815,79.9864,29.0,43,0.0,959.2,8.8,21.2,72,41.3,37.5,4,5,7,0,2026-04-24T00:46:05.981092+05:30
Ujjain,Madhya Pradesh,23.1765,75.7885,27.9,41,0.0,952.8,8.55,29.5,76,23.2,18.5,4,5,7,0,2026-04-24T00:46:05.981098+05:30
Visakhapatnam,Andhra Pradesh,17.6868,83.2185,27.8,85,0.0,1000.8,9.15,41.8,64,18.1,14.1,7,5,4,1,2026-04-24T00:46:05.981103+05:30
Vijayawada,Andhra Pradesh,16.5062,80.648,27.5,90,0.0,1000.6,9.2,28.4,54,11.6,9.5,7,5,4,1,2026-04-24T00:46:05.981108+05:30
Guntur,Andhra Pradesh,16.3067,80.4365,27.4,91,0.0,1001.9,9.25,31.7,54,12.3,9.9,7,5,4,1,2026-04-24T00:46:05.981113+05:30
Nellore,Andhra Pradesh,14.4426,79.9865,27.8,84,0.0,1003.2,9.3,38.9,41,8.3,6.6,7,5,4,1,2026-04-24T00:46:05.981120+05:30
Kurnool,Andhra Pradesh,15.8281,78.0373,31.4,50,0.0,974.4,9.25,20.2,87,21.4,18.5,0,5,7,1,2026-04-24T00:46:05.981125+05:30
Kakinada,Andhra Pradesh,16.9891,82.2475,27.7,89,0.0,1005.0,9.25,31.3,43,13.3,9.0,7,5,4,1,2026-04-24T00:46:05.981130+05:30
Tirupati,Andhra Pradesh,13.6288,79.4192,27.6,81,0.0,990.0,9.35,32.8,57,15.3,14.0,7,5,7,1,2026-04-24T00:46:05.981134+05:30
Warangal,Telangana,17.9689,79.5941,30.5,56,0.0,976.2,9.2,19.4,104,31.5,29.7,0,5,7,1,2026-04-24T00:46:05.981139+05:30
Nizamabad,Telangana,18.6725,78.0941,31.0,47,0.0,962.8,9.05,39.6,118,52.5,48.4,0,5,7,1,2026-04-24T00:46:05.981144+05:30
Mysore,Karnataka,12.2958,76.6396,24.6,86,0.0,926.9,9.5,35.6,86,31.8,28.8,3,5,7,1,2026-04-24T00:46:05.981150+05:30
Mangalore,Karnataka,12.9141,74.856,29.9,84,0.0,1004.5,9.1,23.4,86,36.0,27.7,7,5,4,1,2026-04-24T00:46:05.981155+05:30
Hubli-Dharwad,Karnataka,15.3647,75.124,25.9,70,0.0,939.0,9.2,38.5,93,34.5,32.2,7,5,7,1,2026-04-24T00:46:05.981160+05:30
Belgaum,Karnataka,15.8497,74.4977,24.2,88,0.0,924.2,9.25,37.8,99,48.1,44.4,3,5,7,1,2026-04-24T00:46:09.242261+05:30
Coimbatore,Tamil Nadu,11.0168,76.9558,25.4,88,0.0,959.9,9.45,35.6,89,38.6,36.1,7,5,7,1,2026-04-24T00:46:09.242293+05:30
Madurai,Tamil Nadu,9.9252,78.1198,28.3,81,0.0,991.4,9.3,38.9,49,12.7,11.8,7,5,7,1,2026-04-24T00:46:09.242302+05:30
Trichy,Tamil Nadu,10.7905,78.7047,27.7,87,0.0,997.8,9.15,22.3,40,11.4,10.3,7,5,7,1,2026-04-24T00:46:09.242308+05:30
Salem,Tamil Nadu,11.6643,78.146,27.6,76,0.0,975.0,9.4,25.2,62,22.9,22.0,7,5,7,1,2026-04-24T00:46:09.242314+05:30
Tirunelveli,Tamil Nadu,8.7139,77.7567,27.7,77,0.0,1001.3,9.25,50.4,67,23.6,22.1,7,5,4,1,2026-04-24T00:46:09.242320+05:30
Vellore,Tamil Nadu,12.9165,79.1325,26.7,83,0.0,982.7,9.4,31.0,73,28.9,27.9,7,5,7,1,2026-04-24T00:46:09.242326+05:30
Erode,Tamil Nadu,11.341,77.7172,29.3,68,0.0,986.8,9.35,27.7,49,8.6,8.2,7,5,7,1,2026-04-24T00:46:09.242332+05:30
Kochi,Kerala,9.9312,76.2673,28.5,83,0.0,1006.7,9.05,30.2,75,28.0,26.8,7,5,4,1,2026-04-24T00:46:09.242338+05:30
Thiruvananthapuram,Kerala,8.5241,76.9366,28.8,82,0.0,1006.0,9.05,28.8,61,19.6,15.5,7,5,4,1,2026-04-24T00:46:09.242345+05:30
Kozhikode,Kerala,11.2588,75.7804,29.7,82,0.0,1005.7,9.1,30.6,81,34.5,24.7,7,5,4,1,2026-04-24T00:46:09.242350+05:30
Thrissur,Kerala,10.5276,76.2144,28.1,87,0.0,1004.9,9.1,33.5,78,26.7,24.6,7,5,4,1,2026-04-24T00:46:09.242356+05:30
Kannur,Kerala,11.8745,75.3704,29.2,78,0.0,1004.9,9.1,30.6,87,36.8,29.3,7,5,4,1,2026-04-24T00:46:09.242362+05:30
Patna,Bihar,25.5941,85.1376,28.5,70,0.0,997.0,8.6,23.0,151,101.0,56.7,7,5,7,1,2026-04-24T00:46:09.242367+05:30
Gaya,Bihar,24.7914,85.0002,28.8,46,0.0,990.5,8.7,19.8,135,195.1,68.0,4,5,7,0,2026-04-24T00:46:09.242373+05:30
Muzaffarpur,Bihar,26.1209,85.3647,27.4,83,0.0,997.3,8.6,28.1,151,106.6,68.9,7,5,7,1,2026-04-24T00:46:09.242379+05:30
Bhagalpur,Bihar,25.2425,87.0117,28.0,91,0.0,998.1,8.6,21.6,152,86.1,62.9,7,5,7,1,2026-04-24T00:46:09.242384+05:30
Ranchi,Jharkhand,23.3441,85.3096,26.3,34,0.0,936.1,9.2,25.6,92,174.2,45.5,4,5,7,0,2026-04-24T00:46:09.242389+05:30
Jamshedpur,Jharkhand,22.8046,86.2029,28.7,83,0.0,987.9,9.0,33.5,152,131.3,73.6,7,5,7,1,2026-04-24T00:46:09.242394+05:30
Dhanbad,Jharkhand,23.7957,86.4304,30.3,57,0.0,977.3,8.95,35.6,160,180.7,85.2,0,5,7,1,2026-04-24T00:46:09.242400+05:30
Bokaro,Jharkhand,23.6693,86.1511,29.6,47,0.0,981.4,8.95,27.4,155,226.3,91.5,4,5,7,1,2026-04-24T00:46:09.242405+05:30
Bhubaneswar,Odisha,20.2961,85.8245,27.2,92,0.0,999.5,9.15,33.5,90,21.9,19.2,7,5,7,1,2026-04-24T00:46:09.242411+05:30
Cuttack,Odisha,20.4625,85.8828,27.6,90,0.0,1001.3,9.15,32.4,90,21.9,19.2,7,5,4,1,2026-04-24T00:46:09.242416+05:30
Rourkela,Odisha,22.2604,84.8536,27.2,66,0.0,981.7,8.65,31.3,106,92.9,49.1,7,5,7,1,2026-04-24T00:46:09.242422+05:30
Raipur,Chhattisgarh,21.2514,81.6296,31.1,32,0.0,971.7,9.0,21.6,103,43.2,41.8,0,5,7,0,2026-04-24T00:46:09.242427+05:30
Bhilai,Chhattisgarh,21.1938,81.3509,30.0,39,0.0,972.2,9.0,19.1,104,60.5,57.4,4,5,7,0,2026-04-24T00:46:09.242431+05:30
Guwahati,Assam,26.1158,91.7086,27.3,88,0.0,1000.2,8.55,23.8,117,75.9,58.0,7,5,4,1,2026-04-24T00:46:09.242436+05:30
Agartala,Tripura,23.8315,91.2868,27.9,90,0.0,1003.9,8.75,21.6,95,61.7,51.5,7,5,4,1,2026-04-24T00:46:09.242441+05:30
Shillong,Meghalaya,25.5788,91.8933,14.3,86,0.0,854.8,6.35,30.6,102,50.8,35.3,3,10,7,0,2026-04-24T00:46:09.242448+05:30
Imphal,Manipur,24.817,93.9368,20.3,83,0.0,922.7,9.1,38.2,132,112.0,69.6,3,5,7,1,2026-04-24T00:46:09.242453+05:30
Aizawl,Mizoram,23.7271,92.7176,21.8,78,0.0,891.8,8.45,31.3,127,123.4,54.6,3,5,7,1,2026-04-24T00:46:09.242458+05:30
Kohima,Nagaland,25.6701,94.1077,17.7,91,0.0,854.9,9.05,40.0,106,69.8,48.3,3,10,7,1,2026-04-24T00:46:09.242463+05:30
Gangtok,Sikkim,27.3314,88.6138,17.8,100,0.0,837.7,8.85,23.8,101,60.1,44.6,3,10,7,1,2026-04-24T00:46:09.242470+05:30
Siliguri,West Bengal,26.7271,88.3953,23.4,83,0.0,992.7,8.4,16.6,147,99.9,69.6,3,5,7,1,2026-04-24T00:46:12.508444+05:30
Durgapur,West Bengal,23.5204,87.3119,29.8,81,0.0,992.3,8.9,40.0,159,108.5,82.7,7,5,7,1,2026-04-24T00:46:12.508473+05:30
Asansol,West Bengal,23.6739,86.9524,30.8,80,0.0,990.8,8.9,41.8,154,122.0,65.7,3,5,7,1,2026-04-24T00:46:12.508482+05:30
Pondicherry,Puducherry,11.9139,79.8145,27.1,94,0.0,1006.3,8.6,24.8,23,9.3,6.0,7,5,4,1,2026-04-24T00:46:12.508488+05:30
Port Blair,Andaman and Nicobar Islands,11.6234,92.7265,29.6,73,0.0,1004.5,9.15,23.0,31,11.9,5.4,7,5,4,1,2026-04-24T00:46:12.508494+05:30
Haridwar,Uttarakhand,29.9457,78.1642,24.5,61,0.0,971.4,7.25,38.5,82,46.0,36.0,3,5,7,1,2026-04-24T00:46:12.508501+05:30
Rishikesh,Uttarakhand,30.0869,78.2676,24.6,57,0.0,964.7,7.35,39.6,119,48.3,30.5,0,5,7,0,2026-04-24T00:46:12.508507+05:30
Nainital,Uttarakhand,29.3919,79.4542,23.7,37,0.0,807.0,8.2,45.7,115,37.6,25.6,0,5,7,0,2026-04-24T00:46:12.508513+05:30
Mussoorie,Uttarakhand,30.4599,78.0664,21.4,45,0.0,803.9,7.75,51.5,100,46.8,35.2,0,5,7,0,2026-04-24T00:46:12.508519+05:30
Dharamshala,Himachal Pradesh,32.219,76.3234,25.3,34,0.0,869.5,8.05,33.8,65,24.4,15.8,4,5,7,0,2026-04-24T00:46:12.508524+05:30
Dalhousie,Himachal Pradesh,32.5387,75.971,21.4,37,0.0,804.6,8.3,30.6,60,31.0,26.7,0,5,7,0,2026-04-24T00:46:12.508529+05:30
Patiala,Punjab,30.3398,76.3869,26.6,52,0.0,975.1,7.35,25.2,148,491.7,68.2,4,5,7,0,2026-04-24T00:46:12.508533+05:30
Bhatinda,Punjab,30.211,74.9455,28.6,44,0.0,981.2,8.0,34.9,84,39.1,27.9,4,5,7,0,2026-04-24T00:46:12.508538+05:30
Rohtak,Haryana,28.8955,76.6066,25.4,59,0.0,978.4,7.45,29.5,258,158.8,50.8,4,5,7,1,2026-04-24T00:46:12.508543+05:30
Panipat,Haryana,29.3909,76.9635,26.9,46,0.0,977.0,7.3,29.5,549,236.1,68.5,4,5,7,0,2026-04-24T00:46:12.508547+05:30
Mathura,Uttar Pradesh,27.4924,77.6737,24.9,50,0.0,983.9,7.7,21.2,399,707.8,71.2,0,5,7,0,2026-04-24T00:46:12.508553+05:30
Vrindavan,Uttar Pradesh,27.5823,77.7027,24.7,46,0.0,984.4,7.7,24.5,399,707.8,71.2,0,5,7,0,2026-04-24T00:46:12.508558+05:30
Ayodhya,Uttar Pradesh,26.7922,82.1998,27.5,40,0.0,991.8,8.05,20.2,136,178.8,40.3,4,5,7,0,2026-04-24T00:46:12.508562+05:30
Ratlam,Madhya Pradesh,23.3315,75.0367,28.0,40,0.0,953.5,8.5,25.6,88,25.1,18.9,4,5,7,0,2026-04-24T00:46:12.508567+05:30
Sagar,Madhya Pradesh,23.8388,78.7378,29.9,32,0.0,948.9,8.65,27.0,66,31.5,28.6,4,5,7,0,2026-04-24T00:46:12.508572+05:30
Satna,Madhya Pradesh,24.6005,80.8322,30.4,26,0.0,969.1,8.65,25.6,63,26.6,24.3,0,5,7,0,2026-04-24T00:46:12.508577+05:30
Akola,Maharashtra,20.7002,77.0082,30.9,43,0.0,973.2,8.9,27.7,87,42.4,37.8,0,5,7,1,2026-04-24T00:46:12.508582+05:30
Amravati,Maharashtra,20.9374,77.7796,29.7,48,0.0,965.0,8.9,25.2,84,39.8,35.0,4,5,7,1,2026-04-24T00:46:12.508588+05:30
Latur,Maharashtra,18.4088,76.5604,26.8,54,0.0,938.6,9.1,37.8,104,43.0,39.3,4,5,7,1,2026-04-24T00:46:12.508592+05:30
Nanded,Maharashtra,19.1383,77.3091,28.4,54,0.0,966.8,9.05,31.7,118,66.4,60.5,4,5,7,1,2026-04-24T00:46:12.508597+05:30
Gulbarga,Karnataka,17.3297,76.8343,28.7,56,0.0,957.8,9.15,29.9,111,56.5,50.9,4,5,7,1,2026-04-24T00:46:12.508601+05:30
Bidar,Karnataka,17.9104,77.5199,29.1,47,0.0,934.6,8.5,31.7,115,50.2,46.0,4,5,7,1,2026-04-24T00:46:12.508606+05:30
Hospet,Karnataka,15.2689,76.3909,28.9,55,0.0,953.6,9.25,41.0,97,39.9,37.0,4,5,7,1,2026-04-24T00:46:12.508610+05:30
Tirupur,Tamil Nadu,11.1085,77.3411,28.0,77,0.0,973.3,9.45,33.1,63,18.9,17.4,7,5,7,1,2026-04-24T00:46:12.508615+05:30
Alappuzha,Kerala,9.4981,76.3388,28.5,83,0.0,1006.8,9.0,26.3,77,27.3,23.5,7,5,4,1,2026-04-24T00:46:12.508620+05:30
Munnar,Kerala,10.0889,77.0595,21.8,91,0.0,855.4,9.65,31.3,68,26.8,25.6,3,5,7,1,2026-04-24T00:46:12.508625+05:30
Silchar,Assam,24.8333,92.7789,26.4,84,0.0,1003.1,8.75,20.9,151,130.4,74.7,7,5,4,1,2026-04-24T00:46:12.508631+05:30
Dibrugarh,Assam,27.4728,94.912,26.4,80,0.0,993.9,8.65,14.4,75,32.4,29.6,7,5,7,1,2026-04-24T00:46:12.508635+05:30
