city,state,latitude,longitude,temp,humidity,rain,pressure,uv_index,wind_gusts,aqi,pm10,pm2_5,mosquito_risk,arthritis_risk,migraine_risk,frizz_risk,updated_at
Delhi,Delhi,28.6139,77.209,24.1,44,0.0,980.6,7.3,33.8,502,512.2,97.8,0,5,7,0,2026-04-21T05:16:20.422237+05:30
Mumbai,Maharashtra,19.076,72.8777,28.3,82,0.0,1006.4,7.85,20.5,79,56.1,26.2,7,5,4,1,2026-04-21T05:16:20.422276+05:30
Bangalore,Karnataka,12.9716,77.5946,23.0,77,0.0,910.3,9.6,26.3,81,25.4,24.0,3,5,7,1,2026-04-21T05:16:20.422292+05:30
Hyderabad,Telangana,17.385,78.4867,25.5,68,0.0,951.4,9.3,32.8,110,22.0,20.5,7,5,7,1,2026-04-21T05:16:20.422302+05:30
Chennai,Tamil Nadu,13.0827,80.2707,28.1,87,0.0,1005.7,9.3,34.6,38,10.1,6.9,7,5,4,1,2026-04-21T05:16:20.422310+05:30
Kolkata,West Bengal,22.5726,88.3639,27.3,92,0.0,1002.5,8.95,31.3,83,23.0,19.2,7,5,4,1,2026-04-21T05:16:20.422323+05:30
Pune,Maharashtra,18.5204,73.8567,24.5,70,0.0,946.6,8.6,37.8,111,47.8,41.7,3,5,7,1,2026-04-21T05:16:20.422330+05:30
Ahmedabad,Gujarat,23.0225,72.5714,26.0,60,0.0,1000.8,8.05,26.6,53,15.8,10.4,4,5,4,1,2026-04-21T05:16:20.422338+05:30
Jaipur,Rajasthan,26.9124,75.7873,29.3,29,0.0,958.3,7.95,27.0,146,170.0,29.6,4,5,7,0,2026-04-21T05:16:20.422346+05:30
Lucknow,Uttar Pradesh,26.8467,80.9462,25.4,51,0.0,989.8,7.9,43.2,115,136.4,40.3,4,5,7,0,2026-04-21T05:16:20.422353+05:30
Kanpur,Uttar Pradesh,26.4499,80.3319,24.1,60,0.0,988.2,7.9,32.4,196,435.9,76.1,0,5,7,0,2026-04-21T05:16:20.422360+05:30
Chandigarh,Chandigarh,30.7333,76.7794,21.4,49,0.0,965.8,7.25,30.6,56,20.7,14.6,0,5,7,0,2026-04-21T05:16:20.422367+05:30
Srinagar,Jammu and Kashmir,34.0837,74.7973,7.5,78,0.0,838.5,8.45,16.2,86,49.4,32.1,3,5,7,0,2026-04-21T05:16:20.422376+05:30
Jammu,Jammu and Kashmir,32.7266,74.857,20.0,57,0.0,969.8,8.0,29.9,61,21.7,16.2,0,5,7,0,2026-04-21T05:16:20.422383+05:30
Amritsar,Punjab,31.634,74.8723,21.5,63,0.0,978.4,7.95,29.5,70,32.8,22.5,3,5,7,0,2026-04-21T05:16:20.422389+05:30
Ludhiana,Punjab,30.901,75.8573,22.8,51,0.0,976.4,7.5,31.3,65,35.9,28.5,0,5,7,0,2026-04-21T05:16:20.422398+05:30
Jalandhar,Punjab,31.326,75.5762,22.1,60,0.0,977.4,7.7,31.3,72,44.5,33.9,0,5,7,0,2026-04-21T05:16:20.422404+05:30
Dehradun,Uttarakhand,30.6284,78.0322,15.5,41,0.0,828.1,7.7,42.8,44,13.2,10.6,0,5,7,0,2026-04-21T05:16:20.422410+05:30
Shimla,Himachal Pradesh,31.1048,77.1734,13.4,45,0.0,782.2,7.75,48.6,47,32.0,14.9,0,5,7,0,2026-04-21T05:16:20.422416+05:30
Manali,Himachal Pradesh,32.2396,77.1887,15.3,34,0.0,818.8,9.2,31.7,49,26.2,14.0,0,5,7,1,2026-04-21T05:16:20.422423+05:30
Gurgaon,Haryana,28.4595,77.0266,21.9,53,0.0,979.0,7.4,32.4,1403,1043.1,147.1,0,5,7,0,2026-04-21T05:16:20.422429+05:30
Noida,Uttar Pradesh,28.5355,77.391,23.9,46,0.0,982.0,7.35,33.5,1403,1043.1,147.1,0,5,7,0,2026-04-21T05:16:20.422435+05:30
Ghaziabad,Uttar Pradesh,28.6692,77.4538,22.9,48,0.0,980.1,7.3,33.8,337,380.0,82.7,0,5,7,0,2026-04-21T05:16:20.422441+05:30
Faridabad,Haryana,28.4089,77.3178,23.8,42,0.0,981.3,7.4,32.0,1403,1043.1,147.1,0,5,7,0,2026-04-21T05:16:20.422447+05:30
Meerut,Uttar Pradesh,28.9845,77.7064,21.6,50,0.0,978.6,7.2,37.1,337,380.0,82.7,0,5,7,0,2026-04-21T05:16:20.422454+05:30
Agra,Uttar Pradesh,27.1767,78.0081,25.0,48,0.0,985.0,7.7,26.6,1026,1058.0,155.1,4,5,7,0,2026-04-21T05:16:20.422462+05:30
Varanasi,Uttar Pradesh,25.3176,82.9739,25.1,51,0.0,993.6,8.55,40.7,87,58.7,28.6,4,5,7,0,2026-04-21T05:16:20.422468+05:30
Prayagraj,Uttar Pradesh,25.4358,81.8463,27.0,51,0.0,992.4,8.4,34.2,86,116.9,38.9,4,5,7,0,2026-04-21T05:16:20.422475+05:30
Gorakhpur,Uttar Pradesh,26.7606,83.3732,23.4,81,0.0,993.0,8.3,43.9,109,28.2,18.5,3,5,7,1,2026-04-21T05:16:20.422484+05:30
Bareilly,Uttar Pradesh,28.367,79.4304,21.9,54,0.0,983.4,7.6,41.8,76,128.5,42.7,0,5,7,0,2026-04-21T05:16:20.422490+05:30
Aligarh,Uttar Pradesh,27.8974,78.088,23.3,50,0.0,982.8,7.5,34.9,767,903.4,134.1,0,5,7,0,2026-04-21T05:16:20.422496+05:30
Moradabad,Uttar Pradesh,28.8386,78.7733,21.6,53,0.0,980.3,7.4,40.0,92,152.7,53.1,0,5,7,0,2026-04-21T05:16:20.422502+05:30
Saharanpur,Uttar Pradesh,29.9637,77.546,21.6,53,0.0,972.5,7.0,31.0,74,48.2,27.7,0,5,7,0,2026-04-21T05:16:20.422508+05:30
Jhansi,Uttar Pradesh,25.4484,78.5685,27.1,40,0.0,975.1,8.25,32.8,62,184.4,29.6,4,5,7,0,2026-04-21T05:16:23.681034+05:30
Surat,Gujarat,21.1702,72.8311,25.8,96,0.0,1005.0,7.85,29.2,96,38.8,31.2,7,5,4,1,2026-04-21T05:16:23.681062+05:30
Vadodara,Gujarat,22.3072,73.1812,27.1,58,0.0,1003.0,8.15,26.3,89,34.8,27.1,4,5,4,1,2026-04-21T05:16:23.681072+05:30
Rajkot,Gujarat,22.3039,70.8022,23.3,91,0.0,993.6,7.9,24.5,52,43.5,15.5,3,5,7,1,2026-04-21T05:16:23.681079+05:30
Thane,Maharashtra,19.2183,72.9781,25.5,94,0.0,1005.9,7.3,33.1,79,56.1,26.2,7,5,4,1,2026-04-21T05:16:23.681086+05:30
Nagpur,Maharashtra,21.1458,79.0882,26.8,61,0.0,971.7,8.9,23.8,86,36.3,33.2,7,5,7,1,2026-04-21T05:16:23.681093+05:30
Nashik,Maharashtra,19.9975,73.7898,24.4,57,0.0,944.2,8.3,34.9,73,37.0,24.8,0,5,7,0,2026-04-21T05:16:23.681100+05:30
Aurangabad,Maharashtra,19.8762,75.3433,27.7,38,0.0,943.0,9.0,24.8,88,37.5,28.7,4,5,7,0,2026-04-21T05:16:23.681107+05:30
Solapur,Maharashtra,17.6599,75.9064,26.2,67,0.0,955.4,9.1,20.9,106,42.0,39.0,7,5,7,1,2026-04-21T05:16:23.681115+05:30
Kolhapur,Maharashtra,16.705,74.2433,23.6,82,0.0,946.4,9.05,43.6,111,46.1,42.0,3,5,7,1,2026-04-21T05:16:23.681121+05:30
Goa,Goa,15.2993,74.124,25.8,88,0.0,996.5,9.05,25.2,83,40.5,29.0,7,5,7,1,2026-04-21T05:16:23.681128+05:30
Jodhpur,Rajasthan,26.2389,73.0243,28.4,40,0.0,981.1,7.6,36.7,106,182.5,30.2,4,5,7,0,2026-04-21T05:16:23.681134+05:30
Udaipur,Rajasthan,24.5854,73.7125,25.1,33,0.0,945.6,8.7,38.2,43,29.9,11.5,4,5,7,0,2026-04-21T05:16:23.681141+05:30
Kota,Rajasthan,25.2138,75.8648,25.5,36,0.0,976.7,8.2,27.0,42,13.7,9.6,4,5,7,0,2026-04-21T05:16:23.681148+05:30
Bikaner,Rajasthan,28.0229,73.3119,28.7,35,0.0,979.8,8.05,22.7,54,27.5,15.2,4,5,7,0,2026-04-21T05:16:23.681155+05:30
Ajmer,Rajasthan,26.4499,74.6399,25.5,42,0.0,952.8,8.15,45.4,62,25.4,10.5,4,5,7,0,2026-04-21T05:16:23.681162+05:30
Gwalior,Madhya Pradesh,26.2183,78.1828,27.7,43,0.0,980.6,7.95,27.4,150,953.7,113.9,4,5,7,0,2026-04-21T05:16:23.681169+05:30
Indore,Madhya Pradesh,22.7196,75.8577,24.6,54,0.0,946.8,8.6,39.6,61,23.3,16.6,0,5,7,0,2026-04-21T05:16:23.681175+05:30
Bhopal,Madhya Pradesh,23.2599,77.4126,25.6,47,0.0,952.2,8.6,31.3,60,17.3,13.1,4,5,7,0,2026-04-21T05:16:23.681182+05:30
Jabalpur,Madhya Pradesh,23.1815,79.9864,25.6,61,0.0,959.1,8.8,28.4,72,38.2,34.3,7,5,7,1,2026-04-21T05:16:23.681188+05:30
Ujjain,Madhya Pradesh,23.1765,75.7885,25.3,51,0.0,952.6,8.55,41.4,57,25.7,17.4,4,5,7,0,2026-04-21T05:16:23.681195+05:30
Visakhapatnam,Andhra Pradesh,17.6868,83.2185,26.9,88,0.0,1001.9,9.15,41.8,55,18.1,14.2,7,5,4,1,2026-04-21T05:16:23.681202+05:30
Vijayawada,Andhra Pradesh,16.5062,80.648,27.4,88,0.0,1001.5,8.85,28.1,56,13.1,9.9,7,5,4,1,2026-04-21T05:16:23.681208+05:30
Guntur,Andhra Pradesh,16.3067,80.4365,27.1,89,0.0,1002.2,8.9,27.0,58,12.3,9.3,7,5,4,1,2026-04-21T05:16:23.681215+05:30
Nellore,Andhra Pradesh,14.4426,79.9865,26.7,89,0.0,1004.2,9.3,35.6,49,10.1,7.9,7,5,4,1,2026-04-21T05:16:23.681222+05:30
Kurnool,Andhra Pradesh,15.8281,78.0373,28.3,69,0.0,975.0,9.25,50.0,91,15.1,14.3,7,5,7,1,2026-04-21T05:16:23.681229+05:30
Kakinada,Andhra Pradesh,16.9891,82.2475,26.7,92,0.0,1006.3,9.2,29.2,45,16.0,10.6,7,5,4,1,2026-04-21T05:16:23.681236+05:30
Tirupati,Andhra Pradesh,13.6288,79.4192,24.7,88,0.0,990.8,9.35,32.0,59,10.2,8.4,3,5,7,1,2026-04-21T05:16:23.681242+05:30
Warangal,Telangana,17.9689,79.5941,27.8,83,0.0,976.9,8.9,24.8,105,17.8,17.3,7,5,7,1,2026-04-21T05:16:23.681248+05:30
Nizamabad,Telangana,18.6725,78.0941,28.1,60,0.0,963.1,8.15,25.9,113,61.0,57.0,4,5,7,1,2026-04-21T05:16:23.681255+05:30
Mysore,Karnataka,12.2958,76.6396,22.9,91,0.0,926.9,9.5,37.8,87,33.8,30.7,3,5,7,1,2026-04-21T05:16:23.681261+05:30
Mangalore,Karnataka,12.9141,74.856,27.8,84,0.0,1004.9,9.1,24.5,83,44.7,32.5,7,5,4,1,2026-04-21T05:16:23.681267+05:30
Hubli-Dharwad,Karnataka,15.3647,75.124,24.1,88,0.0,939.4,9.25,28.8,102,28.2,25.0,3,5,7,1,2026-04-21T05:16:23.681273+05:30
Belgaum,Karnataka,15.8497,74.4977,22.5,93,0.0,924.0,9.25,36.4,94,40.0,32.9,3,5,7,1,2026-04-21T05:16:26.934615+05:30
Coimbatore,Tamil Nadu,11.0168,76.9558,24.2,90,0.0,960.5,9.4,53.6,90,34.1,28.9,3,5,7,1,2026-04-21T05:16:26.934644+05:30
Madurai,Tamil Nadu,9.9252,78.1198,26.4,90,0.0,991.5,9.1,40.0,61,23.5,21.5,7,5,7,1,2026-04-21T05:16:26.934656+05:30
Trichy,Tamil Nadu,10.7905,78.7047,26.3,90,0.0,998.4,9.3,27.0,58,13.4,11.7,7,5,7,1,2026-04-21T05:16:26.934666+05:30
Salem,Tamil Nadu,11.6643,78.146,26.5,81,0.0,976.0,9.4,18.7,65,16.4,15.5,7,5,7,1,2026-04-21T05:16:26.934674+05:30
Tirunelveli,Tamil Nadu,8.7139,77.7567,25.6,85,0.0,1001.7,8.8,45.0,60,22.7,20.7,7,5,4,1,2026-04-21T05:16:26.934683+05:30
Vellore,Tamil Nadu,12.9165,79.1325,24.5,83,0.0,983.6,9.4,28.4,65,19.7,18.2,3,5,7,1,2026-04-21T05:16:26.934691+05:30
Erode,Tamil Nadu,11.341,77.7172,28.1,81,0.0,987.6,9.35,24.8,65,10.2,9.8,7,5,7,1,2026-04-21T05:16:26.934699+05:30
Kochi,Kerala,9.9312,76.2673,27.8,85,0.0,1007.2,9.05,31.3,66,28.6,24.6,7,5,4,1,2026-04-21T05:16:26.934707+05:30
Thiruvananthapuram,Kerala,8.5241,76.9366,28.0,85,0.0,1006.2,8.4,28.8,57,19.2,14.8,7,5,4,1,2026-04-21T05:16:26.934715+05:30
Kozhikode,Kerala,11.2588,75.7804,27.4,83,0.0,1006.6,9.1,29.9,69,34.0,21.2,7,5,4,1,2026-04-21T05:16:26.934722+05:30
Thrissur,Kerala,10.5276,76.2144,27.0,89,0.0,1005.6,9.05,36.7,69,30.3,26.4,7,5,4,1,2026-04-21T05:16:26.934731+05:30
Kannur,Kerala,11.8745,75.3704,28.1,83,0.0,1005.4,9.1,31.7,75,38.4,25.8,7,5,4,1,2026-04-21T05:16:26.934738+05:30
Patna,Bihar,25.5941,85.1376,27.1,82,0.0,995.4,8.7,33.1,117,80.1,38.8,7,5,7,1,2026-04-21T05:16:26.934746+05:30
Gaya,Bihar,24.7914,85.0002,27.3,50,0.0,989.4,8.75,30.2,93,50.4,31.4,4,5,7,0,2026-04-21T05:16:26.934753+05:30
Muzaffarpur,Bihar,26.1209,85.3647,25.5,92,0.0,995.6,8.65,30.6,131,89.9,44.6,7,5,7,1,2026-04-21T05:16:26.934761+05:30
Bhagalpur,Bihar,25.2425,87.0117,27.0,87,0.0,995.7,8.7,25.2,148,67.5,57.6,7,5,7,1,2026-04-21T05:16:26.934768+05:30
Ranchi,Jharkhand,23.3441,85.3096,24.4,69,0.0,934.7,9.25,35.6,83,40.9,25.1,3,5,7,1,2026-04-21T05:16:26.934775+05:30
Jamshedpur,Jharkhand,22.8046,86.2029,27.8,80,0.0,987.1,9.05,21.6,135,57.9,52.6,7,5,7,1,2026-04-21T05:16:26.934782+05:30
Dhanbad,Jharkhand,23.7957,86.4304,29.1,66,0.0,975.7,9.0,29.2,145,91.3,68.2,7,5,7,1,2026-04-21T05:16:26.934790+05:30
Bokaro,Jharkhand,23.6693,86.1511,27.5,61,0.0,979.9,9.05,33.1,121,79.4,57.7,7,5,7,1,2026-04-21T05:16:26.934797+05:30
Bhubaneswar,Odisha,20.2961,85.8245,26.8,95,0.0,999.4,9.15,30.2,70,17.3,15.0,7,5,7,1,2026-04-21T05:16:26.934804+05:30
Cuttack,Odisha,20.4625,85.8828,26.9,95,0.0,1001.3,9.2,31.3,70,17.3,15.0,7,5,4,1,2026-04-21T05:16:26.934811+05:30
Rourkela,Odisha,22.2604,84.8536,26.6,83,0.0,981.6,8.95,27.7,120,57.5,49.4,7,5,7,1,2026-04-21T05:16:26.934818+05:30
Raipur,Chhattisgarh,21.2514,81.6296,28.4,49,0.0,972.2,9.0,35.3,98,44.9,41.1,4,5,7,1,2026-04-21T05:16:26.934872+05:30
Bhilai,Chhattisgarh,21.1938,81.3509,27.5,54,0.0,972.4,9.0,33.5,93,41.6,37.6,4,5,7,1,2026-04-21T05:16:26.934885+05:30
Guwahati,Assam,26.1158,91.7086,23.1,92,0.0,999.0,8.55,49.3,81,22.1,18.5,3,5,7,1,2026-04-21T05:16:26.934894+05:30
Agartala,Tripura,23.8315,91.2868,27.1,91,0.0,1003.8,8.8,40.7,87,27.0,22.1,7,5,4,1,2026-04-21T05:16:26.934906+05:30
Shillong,Meghalaya,25.5788,91.8933,16.7,92,0.0,854.4,9.05,73.4,59,2.6,2.2,3,10,7,0,2026-04-21T05:16:26.934915+05:30
Imphal,Manipur,24.817,93.9368,19.4,89,0.0,921.9,9.2,82.4,134,98.3,88.5,3,10,7,1,2026-04-21T05:16:26.934923+05:30
Aizawl,Mizoram,23.7271,92.7176,20.7,82,0.0,891.6,9.05,58.7,104,45.1,35.2,3,5,7,1,2026-04-21T05:16:26.934931+05:30
Kohima,Nagaland,25.6701,94.1077,18.3,79,0.0,853.4,9.15,108.0,85,33.9,27.8,3,5,7,0,2026-04-21T05:16:26.934938+05:30
Gangtok,Sikkim,27.3314,88.6138,15.2,74,0.0,833.9,9.0,17.3,64,24.7,18.6,3,5,7,0,2026-04-21T05:16:26.934946+05:30
Siliguri,West Bengal,26.7271,88.3953,22.6,81,0.0,990.0,8.5,31.3,114,52.9,44.0,3,5,7,1,2026-04-21T05:16:30.196327+05:30
Durgapur,West Bengal,23.5204,87.3119,27.5,90,0.0,990.8,8.95,38.2,151,72.2,65.9,7,5,7,1,2026-04-21T05:16:30.196356+05:30
Asansol,West Bengal,23.6739,86.9524,28.1,85,0.0,989.2,9.0,30.6,144,82.9,65.2,7,5,7,1,2026-04-21T05:16:30.196365+05:30
Pondicherry,Puducherry,11.9139,79.8145,27.4,92,0.0,1007.0,9.25,32.8,30,8.8,6.0,7,5,4,1,2026-04-21T05:16:30.196373+05:30
Port Blair,Andaman and Nicobar Islands,11.6234,92.7265,29.6,72,0.0,1005.9,9.05,14.0,63,19.0,15.5,7,5,4,1,2026-04-21T05:16:30.196380+05:30
Haridwar,Uttarakhand,29.9457,78.1642,20.5,57,0.0,971.0,7.1,35.3,61,29.3,26.0,0,5,7,0,2026-04-21T05:16:30.196388+05:30
Rishikesh,Uttarakhand,30.0869,78.2676,20.7,51,0.0,964.1,7.2,35.3,53,23.5,18.5,0,5,7,0,2026-04-21T05:16:30.196395+05:30
Nainital,Uttarakhand,29.3919,79.4542,21.4,27,0.0,805.2,8.05,65.2,59,22.7,16.1,0,5,7,0,2026-04-21T05:16:30.196402+05:30
Mussoorie,Uttarakhand,30.4599,78.0664,17.9,34,0.0,801.2,7.6,41.8,56,20.8,17.9,0,5,7,0,2026-04-21T05:16:30.196409+05:30
Dharamshala,Himachal Pradesh,32.219,76.3234,21.8,28,0.0,867.5,7.85,31.7,40,17.9,7.7,0,5,7,0,2026-04-21T05:16:30.196417+05:30
Dalhousie,Himachal Pradesh,32.5387,75.971,18.1,28,0.0,802.1,8.1,30.6,52,17.8,12.9,0,5,7,1,2026-04-21T05:16:30.196425+05:30
Patiala,Punjab,30.3398,76.3869,21.6,52,0.0,975.5,7.2,26.6,370,360.4,58.9,0,5,7,0,2026-04-21T05:16:30.196432+05:30
Bhatinda,Punjab,30.211,74.9455,24.5,49,0.0,981.4,7.85,32.4,72,41.9,32.9,0,5,7,0,2026-04-21T05:16:30.196439+05:30
Rohtak,Haryana,28.8955,76.6066,20.9,56,0.0,979.1,7.35,37.1,699,648.2,104.8,0,5,7,0,2026-04-21T05:16:30.196446+05:30
Panipat,Haryana,29.3909,76.9635,21.9,46,0.0,977.7,7.2,33.8,1205,1195.8,157.4,0,5,7,0,2026-04-21T05:16:30.196452+05:30
Mathura,Uttar Pradesh,27.4924,77.6737,25.6,41,0.0,984.1,7.6,27.7,1148,1192.1,175.6,4,5,7,0,2026-04-21T05:16:30.196459+05:30
Vrindavan,Uttar Pradesh,27.5823,77.7027,24.0,46,0.0,984.6,7.6,31.7,1148,1192.1,175.6,0,5,7,0,2026-04-21T05:16:30.196465+05:30
Ayodhya,Uttar Pradesh,26.7922,82.1998,24.8,54,0.0,991.3,8.05,47.2,102,43.2,24.2,0,5,7,0,2026-04-21T05:16:30.196471+05:30
Ratlam,Madhya Pradesh,23.3315,75.0367,26.5,50,0.0,953.4,8.45,33.8,60,27.7,17.5,4,5,7,0,2026-04-21T05:16:30.196477+05:30
Sagar,Madhya Pradesh,23.8388,78.7378,25.8,42,0.0,948.3,8.65,30.6,54,11.4,10.1,4,5,7,0,2026-04-21T05:16:30.196483+05:30
Satna,Madhya Pradesh,24.6005,80.8322,26.3,48,0.0,968.5,8.65,35.3,59,20.0,11.5,4,5,7,0,2026-04-21T05:16:30.196489+05:30
Akola,Maharashtra,20.7002,77.0082,27.3,63,0.0,973.5,8.85,27.7,89,48.8,44.1,7,5,7,1,2026-04-21T05:16:30.196496+05:30
Amravati,Maharashtra,20.9374,77.7796,26.2,62,0.0,965.4,8.8,41.0,82,45.8,41.7,7,5,7,1,2026-04-21T05:16:30.196504+05:30
Latur,Maharashtra,18.4088,76.5604,24.1,67,0.0,937.9,9.1,37.8,104,53.7,45.5,3,5,7,1,2026-04-21T05:16:30.196510+05:30
Nanded,Maharashtra,19.1383,77.3091,26.5,63,0.0,966.9,9.0,26.3,104,42.3,39.0,7,5,7,1,2026-04-21T05:16:30.196516+05:30
Gulbarga,Karnataka,17.3297,76.8343,26.5,63,0.0,957.7,9.15,27.4,108,40.2,36.3,7,5,7,1,2026-04-21T05:16:30.196523+05:30
Bidar,Karnataka,17.9104,77.5199,26.3,61,0.0,934.0,8.9,31.7,114,48.4,44.4,7,5,7,1,2026-04-21T05:16:30.196528+05:30
Hospet,Karnataka,15.2689,76.3909,26.3,88,0.0,954.4,9.3,38.2,126,36.1,33.8,7,5,7,1,2026-04-21T05:16:30.196535+05:30
Tirupur,Tamil Nadu,11.1085,77.3411,26.9,81,0.0,974.0,9.35,34.6,78,23.7,21.1,7,5,7,1,2026-04-21T05:16:30.196541+05:30
Alappuzha,Kerala,9.4981,76.3388,27.1,85,0.0,1007.3,8.9,28.4,65,30.7,25.3,7,5,4,1,2026-04-21T05:16:30.196548+05:30
Munnar,Kerala,10.0889,77.0595,20.7,89,0.0,855.1,9.0,33.8,68,28.2,26.5,3,5,7,1,2026-04-21T05:16:30.196554+05:30
Silchar,Assam,24.8333,92.7789,23.3,94,0.0,1004.1,8.1,43.6,136,81.3,65.0,3,5,4,1,2026-04-21T05:16:30.196561+05:30
Dibrugarh,Assam,27.4728,94.912,23.1,93,0.0,993.0,7.55,31.0,73,23.2,20.6,3,5,7,1,2026-04-21T05:16:30.196567+05:30
