city,state,latitude,longitude,temp,humidity,rain,pressure,uv_index,wind_gusts,aqi,pm10,pm2_5,no2,co,o3,so2,mosquito_risk,arthritis_risk,migraine_risk,frizz_risk,updated_at
Delhi,Delhi,28.6139,77.209,23.0,76,0.0,983.0,7.55,34.2,437,281.3,61.0,16.6,423.0,106.0,22.6,3,5,7,1,2026-05-08T01:46:25.370199+05:30
Mumbai,Maharashtra,19.076,72.8777,28.1,87,0.0,1006.9,7.85,45.7,96,95.5,29.0,11.9,361.0,67.0,14.2,7,5,4,1,2026-05-08T01:46:25.370247+05:30
Bangalore,Karnataka,12.9716,77.5946,23.2,80,0.0,910.5,9.3,43.6,66,11.5,10.6,9.7,247.0,54.0,4.7,3,5,7,1,2026-05-08T01:46:25.370263+05:30
Hyderabad,Telangana,17.385,78.4867,27.0,57,0.0,953.5,9.25,36.4,59,22.3,18.5,9.9,281.0,69.0,6.0,4,5,7,1,2026-05-08T01:46:25.370278+05:30
Chennai,Tamil Nadu,13.0827,80.2707,29.4,75,0.0,1005.6,8.05,40.0,26,6.2,4.2,4.1,123.0,43.0,2.2,7,5,4,1,2026-05-08T01:46:25.370288+05:30
Kolkata,West Bengal,22.5726,88.3639,23.3,93,0.0,1008.0,8.85,59.8,81,43.5,41.6,22.6,588.0,51.0,11.7,3,0,4,1,2026-05-08T01:46:25.370297+05:30
Pune,Maharashtra,18.5204,73.8567,27.7,60,0.0,946.8,8.45,37.4,104,58.0,34.0,15.9,347.0,103.0,24.3,4,5,7,1,2026-05-08T01:46:25.370306+05:30
Ahmedabad,Gujarat,23.0225,72.5714,32.0,31,0.0,1000.0,8.1,24.8,96,68.5,42.3,31.0,225.0,42.0,11.2,0,5,4,0,2026-05-08T01:46:25.370316+05:30
Jaipur,Rajasthan,26.9124,75.7873,23.5,56,0.0,958.3,8.1,28.4,126,339.0,65.4,12.2,277.0,80.0,7.3,0,5,7,0,2026-05-08T01:46:25.370324+05:30
Lucknow,Uttar Pradesh,26.8467,80.9462,22.1,83,0.0,994.4,8.05,27.4,98,61.5,32.9,9.0,387.0,111.0,8.2,3,5,7,1,2026-05-08T01:46:25.370332+05:30
Kanpur,Uttar Pradesh,26.4499,80.3319,22.0,80,0.0,992.3,8.05,26.6,123,344.6,55.6,6.3,379.0,114.0,6.8,3,5,7,1,2026-05-08T01:46:25.370340+05:30
Chandigarh,Chandigarh,30.7333,76.7794,21.5,62,0.0,969.1,7.55,33.5,81,35.3,27.2,21.2,310.0,61.0,3.9,3,5,7,0,2026-05-08T01:46:25.370348+05:30
Srinagar,Jammu and Kashmir,34.0837,74.7973,8.6,92,0.0,837.9,8.85,16.6,66,51.6,41.8,33.1,457.0,25.0,2.7,3,10,7,0,2026-05-08T01:46:25.370357+05:30
Jammu,Jammu and Kashmir,32.7266,74.857,22.4,55,0.0,973.3,8.35,31.3,71,47.6,40.3,31.8,377.0,33.0,4.1,0,5,7,0,2026-05-08T01:46:25.370366+05:30
Amritsar,Punjab,31.634,74.8723,23.5,61,0.0,981.2,8.25,27.0,119,210.9,59.4,6.8,346.0,112.0,11.9,3,5,7,0,2026-05-08T01:46:25.370374+05:30
Ludhiana,Punjab,30.901,75.8573,22.3,69,0.0,979.1,7.8,28.8,183,166.2,49.2,10.2,350.0,97.0,6.8,3,5,7,1,2026-05-08T01:46:25.370381+05:30
Jalandhar,Punjab,31.326,75.5762,21.8,70,0.0,980.2,8.0,29.2,145,128.1,49.8,11.8,366.0,97.0,13.7,3,5,7,0,2026-05-08T01:46:25.370389+05:30
Dehradun,Uttarakhand,30.6284,78.0322,10.4,94,0.0,827.7,7.75,26.6,56,19.6,16.0,29.9,215.0,48.0,0.3,3,10,7,0,2026-05-08T01:46:25.370400+05:30
Shimla,Himachal Pradesh,31.1048,77.1734,7.9,86,0.0,780.4,7.55,28.8,58,19.4,17.5,16.2,342.0,86.0,0.4,3,10,7,0,2026-05-08T01:46:25.370408+05:30
Manali,Himachal Pradesh,32.2396,77.1887,8.2,75,0.0,813.3,9.4,36.7,50,50.8,11.1,20.8,288.0,93.0,0.7,3,5,7,0,2026-05-08T01:46:25.370415+05:30
Gurgaon,Haryana,28.4595,77.0266,22.6,74,0.0,981.2,7.65,37.4,1882,1467.8,177.9,11.9,375.0,115.0,16.1,3,5,7,1,2026-05-08T01:46:25.370423+05:30
Noida,Uttar Pradesh,28.5355,77.391,22.0,84,0.0,984.6,7.6,32.8,1882,1467.8,177.9,11.9,378.0,115.0,16.1,3,5,7,1,2026-05-08T01:46:25.370430+05:30
Ghaziabad,Uttar Pradesh,28.6692,77.4538,21.9,86,0.0,982.8,7.55,34.6,183,165.3,45.8,10.3,344.0,102.0,14.9,3,5,7,1,2026-05-08T01:46:25.370438+05:30
Faridabad,Haryana,28.4089,77.3178,22.5,80,0.0,983.7,7.6,33.8,1882,1467.8,177.9,11.9,369.0,115.0,16.1,3,5,7,1,2026-05-08T01:46:25.370444+05:30
Meerut,Uttar Pradesh,28.9845,77.7064,21.2,88,0.0,981.9,7.5,34.2,183,165.3,45.8,10.3,355.0,102.0,14.9,3,5,7,1,2026-05-08T01:46:25.370452+05:30
Agra,Uttar Pradesh,27.1767,78.0081,22.5,69,0.0,987.6,7.9,31.7,1088,1538.5,180.2,5.8,313.0,116.0,10.4,3,5,7,1,2026-05-08T01:46:25.370459+05:30
Varanasi,Uttar Pradesh,25.3176,82.9739,23.5,76,0.0,998.5,8.6,23.8,110,59.0,48.5,18.8,530.0,82.0,13.8,3,5,7,1,2026-05-08T01:46:25.370467+05:30
Prayagraj,Uttar Pradesh,25.4358,81.8463,24.0,70,0.0,996.8,8.45,24.8,101,51.5,36.8,13.2,372.0,96.0,9.3,3,5,7,1,2026-05-08T01:46:25.370477+05:30
Gorakhpur,Uttar Pradesh,26.7606,83.3732,20.8,89,0.0,998.4,8.4,26.3,92,40.9,31.7,15.0,536.0,78.0,6.0,3,5,7,1,2026-05-08T01:46:25.370484+05:30
Bareilly,Uttar Pradesh,28.367,79.4304,21.8,79,0.0,987.3,7.55,31.3,89,65.4,28.1,8.0,355.0,107.0,4.6,3,5,7,1,2026-05-08T01:46:25.370491+05:30
Aligarh,Uttar Pradesh,27.8974,78.088,21.9,83,0.0,985.6,7.7,33.8,777,802.8,103.1,8.0,320.0,112.0,19.8,3,5,7,1,2026-05-08T01:46:25.370498+05:30
Moradabad,Uttar Pradesh,28.8386,78.7733,21.1,80,0.0,983.9,7.65,33.8,102,57.4,39.0,15.7,382.0,80.0,6.8,3,5,7,1,2026-05-08T01:46:25.370504+05:30
Saharanpur,Uttar Pradesh,29.9637,77.546,20.4,83,0.0,976.4,7.3,32.0,119,99.4,64.0,35.8,384.0,37.0,11.3,3,5,7,1,2026-05-08T01:46:25.370511+05:30
Jhansi,Uttar Pradesh,25.4484,78.5685,23.3,56,0.0,977.6,8.35,41.0,70,38.0,23.2,5.3,264.0,90.0,8.8,0,5,7,0,2026-05-08T01:46:28.847325+05:30
Surat,Gujarat,21.1702,72.8311,28.0,89,0.0,1004.6,7.75,34.6,127,55.4,27.2,25.9,483.0,48.0,40.9,7,5,4,1,2026-05-08T01:46:28.847355+05:30
Vadodara,Gujarat,22.3072,73.1812,29.8,53,0.0,1002.1,8.05,28.4,104,55.1,31.0,20.6,268.0,60.0,21.7,4,5,4,1,2026-05-08T01:46:28.847365+05:30
Rajkot,Gujarat,22.3039,70.8022,26.4,71,0.0,992.8,7.7,48.2,66,29.2,14.0,6.7,198.0,53.0,6.6,7,5,7,1,2026-05-08T01:46:28.847374+05:30
Thane,Maharashtra,19.2183,72.9781,28.0,86,0.0,1006.2,7.85,41.0,96,95.5,29.0,11.9,282.0,67.0,14.2,7,5,4,1,2026-05-08T01:46:28.847381+05:30
Nagpur,Maharashtra,21.1458,79.0882,27.9,50,0.0,973.0,8.9,31.0,111,65.7,47.1,18.2,297.0,82.0,12.3,4,5,7,1,2026-05-08T01:46:28.847388+05:30
Nashik,Maharashtra,19.9975,73.7898,26.4,62,0.0,943.8,8.15,38.5,84,66.8,32.6,28.8,322.0,45.0,4.7,7,5,7,1,2026-05-08T01:46:28.847396+05:30
Aurangabad,Maharashtra,19.8762,75.3433,28.5,40,0.0,943.7,8.95,27.0,75,56.0,32.5,23.9,322.0,66.0,7.8,4,5,7,0,2026-05-08T01:46:28.847403+05:30
Solapur,Maharashtra,17.6599,75.9064,27.4,56,0.0,956.7,9.05,31.0,79,45.9,35.2,11.5,360.0,86.0,4.8,4,5,7,1,2026-05-08T01:46:28.847411+05:30
Kolhapur,Maharashtra,16.705,74.2433,27.6,64,0.0,947.2,8.95,36.4,99,96.4,79.6,62.1,285.0,18.0,16.6,7,5,7,1,2026-05-08T01:46:28.847418+05:30
Goa,Goa,15.2993,74.124,28.7,80,0.0,996.1,8.8,47.5,89,78.2,49.0,18.0,318.0,57.0,4.7,7,5,7,1,2026-05-08T01:46:28.847425+05:30
Jodhpur,Rajasthan,26.2389,73.0243,30.4,19,0.0,979.9,8.3,33.1,116,189.1,34.1,3.1,176.0,97.0,3.3,0,5,7,0,2026-05-08T01:46:28.847432+05:30
Udaipur,Rajasthan,24.5854,73.7125,25.9,33,0.0,944.0,8.8,31.3,66,97.6,24.0,3.7,208.0,103.0,2.8,4,5,7,0,2026-05-08T01:46:28.847440+05:30
Kota,Rajasthan,25.2138,75.8648,28.2,34,0.0,977.0,8.35,37.8,75,85.7,43.2,19.8,273.0,44.0,7.5,4,5,7,0,2026-05-08T01:46:28.847447+05:30
Bikaner,Rajasthan,28.0229,73.3119,26.0,43,0.0,978.1,8.25,28.1,69,57.0,23.7,4.3,313.0,90.0,5.7,4,5,7,0,2026-05-08T01:46:28.847454+05:30
Ajmer,Rajasthan,26.4499,74.6399,25.2,39,0.0,951.9,8.25,55.8,69,43.8,19.6,5.0,216.0,85.0,4.7,4,5,7,0,2026-05-08T01:46:28.847461+05:30
Gwalior,Madhya Pradesh,26.2183,78.1828,22.5,61,0.0,982.8,8.15,33.8,82,44.0,25.0,5.2,267.0,101.0,6.6,3,5,7,0,2026-05-08T01:46:28.847468+05:30
Indore,Madhya Pradesh,22.7196,75.8577,29.0,27,0.0,947.0,8.65,41.8,66,45.3,29.5,9.0,342.0,86.0,7.7,4,5,7,0,2026-05-08T01:46:28.847475+05:30
Bhopal,Madhya Pradesh,23.2599,77.4126,27.0,38,0.0,953.1,8.65,41.8,55,28.5,20.8,10.8,430.0,71.0,4.7,4,5,7,0,2026-05-08T01:46:28.847481+05:30
Jabalpur,Madhya Pradesh,23.1815,79.9864,24.8,41,0.0,961.4,8.8,38.5,55,32.0,22.3,20.1,266.0,63.0,5.8,0,5,7,0,2026-05-08T01:46:28.847489+05:30
Ujjain,Madhya Pradesh,23.1765,75.7885,27.5,30,0.0,952.7,8.6,25.9,81,41.2,24.9,4.4,370.0,100.0,7.0,4,5,7,0,2026-05-08T01:46:28.847496+05:30
Visakhapatnam,Andhra Pradesh,17.6868,83.2185,27.9,85,0.0,1003.7,9.15,37.8,71,24.4,21.8,17.3,531.0,22.0,3.6,7,5,4,1,2026-05-08T01:46:28.847503+05:30
Vijayawada,Andhra Pradesh,16.5062,80.648,28.0,81,0.0,1002.0,9.2,43.2,48,11.1,9.5,6.6,168.0,30.0,4.0,7,5,4,1,2026-05-08T01:46:28.847510+05:30
Guntur,Andhra Pradesh,16.3067,80.4365,28.0,79,0.0,1003.3,9.2,45.0,50,10.4,8.9,7.4,157.0,30.0,6.1,7,5,4,1,2026-05-08T01:46:28.847517+05:30
Nellore,Andhra Pradesh,14.4426,79.9865,27.5,86,0.0,1004.8,9.05,40.0,30,7.0,4.8,2.5,151.0,42.0,1.7,7,5,4,1,2026-05-08T01:46:28.847525+05:30
Kurnool,Andhra Pradesh,15.8281,78.0373,29.0,59,0.0,976.2,9.15,58.7,53,6.7,5.2,4.4,136.0,39.0,0.9,4,5,7,1,2026-05-08T01:46:28.847533+05:30
Kakinada,Andhra Pradesh,16.9891,82.2475,27.4,91,0.0,1006.9,9.15,37.8,28,9.1,6.1,1.2,202.0,42.0,0.5,7,5,4,1,2026-05-08T01:46:28.847540+05:30
Tirupati,Andhra Pradesh,13.6288,79.4192,26.7,84,0.0,990.4,8.8,46.1,47,6.3,5.2,8.4,169.0,27.0,2.4,7,5,7,1,2026-05-08T01:46:28.847547+05:30
Warangal,Telangana,17.9689,79.5941,27.4,61,0.0,978.3,9.15,37.4,69,20.4,18.6,11.1,227.0,56.0,8.2,7,5,7,1,2026-05-08T01:46:28.847554+05:30
Nizamabad,Telangana,18.6725,78.0941,27.0,57,0.0,964.8,9.1,30.2,81,41.4,32.8,13.0,304.0,86.0,19.1,4,5,7,1,2026-05-08T01:46:28.847561+05:30
Mysore,Karnataka,12.2958,76.6396,23.0,89,0.0,926.6,9.3,36.7,80,28.3,24.8,13.5,330.0,70.0,5.3,3,5,7,1,2026-05-08T01:46:28.847567+05:30
Mangalore,Karnataka,12.9141,74.856,27.4,89,0.0,1004.7,9.0,39.2,67,46.2,36.7,22.4,439.0,40.0,6.1,7,5,4,1,2026-05-08T01:46:28.847575+05:30
Hubli-Dharwad,Karnataka,15.3647,75.124,24.6,69,0.2,939.8,9.15,40.7,93,42.7,34.1,12.2,276.0,85.0,5.8,6,5,7,1,2026-05-08T01:46:28.847582+05:30
Belgaum,Karnataka,15.8497,74.4977,24.7,70,0.0,924.6,9.15,60.8,92,64.0,46.7,23.7,281.0,58.0,8.2,3,5,7,1,2026-05-08T01:46:32.212941+05:30
Coimbatore,Tamil Nadu,11.0168,76.9558,24.1,94,0.0,960.1,9.25,34.9,61,24.6,21.8,11.7,358.0,70.0,5.3,3,5,7,1,2026-05-08T01:46:32.212976+05:30
Madurai,Tamil Nadu,9.9252,78.1198,25.0,93,0.0,991.7,8.4,32.8,66,8.1,7.4,8.2,241.0,77.0,3.1,7,5,7,1,2026-05-08T01:46:32.212989+05:30
Trichy,Tamil Nadu,10.7905,78.7047,25.6,91,0.0,998.8,7.3,37.4,55,14.5,13.6,15.7,252.0,48.0,5.1,7,5,7,1,2026-05-08T01:46:32.212999+05:30
Salem,Tamil Nadu,11.6643,78.146,24.3,93,0.0,976.0,8.6,35.3,70,24.3,22.8,10.8,247.0,87.0,11.3,3,5,7,1,2026-05-08T01:46:32.213009+05:30
Tirunelveli,Tamil Nadu,8.7139,77.7567,26.4,83,0.0,1001.4,8.95,40.3,66,22.8,21.0,10.9,318.0,56.0,4.0,7,5,4,1,2026-05-08T01:46:32.213019+05:30
Vellore,Tamil Nadu,12.9165,79.1325,25.6,94,0.0,983.6,8.25,42.8,54,10.7,9.6,13.6,207.0,20.0,3.4,7,5,7,1,2026-05-08T01:46:32.213028+05:30
Erode,Tamil Nadu,11.341,77.7172,23.8,94,0.1,988.1,8.8,33.5,58,17.6,16.4,9.8,255.0,85.0,5.6,6,5,7,1,2026-05-08T01:46:32.213035+05:30
Kochi,Kerala,9.9312,76.2673,25.5,93,0.0,1006.5,8.95,29.2,64,16.3,15.4,13.9,324.0,39.0,3.0,7,5,4,1,2026-05-08T01:46:32.213043+05:30
Thiruvananthapuram,Kerala,8.5241,76.9366,25.0,92,0.0,1005.6,8.6,25.2,53,15.2,12.7,7.0,315.0,83.0,3.9,7,5,4,1,2026-05-08T01:46:32.213050+05:30
Kozhikode,Kerala,11.2588,75.7804,25.3,97,0.0,1005.8,6.35,34.9,66,19.4,16.5,5.1,678.0,111.0,3.8,7,5,4,1,2026-05-08T01:46:32.213058+05:30
Thrissur,Kerala,10.5276,76.2144,25.0,96,0.0,1004.9,9.0,26.6,66,19.2,17.8,13.5,917.0,47.0,3.0,7,5,4,1,2026-05-08T01:46:32.213066+05:30
Kannur,Kerala,11.8745,75.3704,27.0,89,0.0,1004.9,8.9,40.3,61,29.0,25.4,18.7,525.0,48.0,3.3,7,5,4,1,2026-05-08T01:46:32.213073+05:30
Patna,Bihar,25.5941,85.1376,24.2,81,0.0,1002.1,8.45,21.2,124,71.2,65.4,29.4,609.0,62.0,15.5,3,5,4,1,2026-05-08T01:46:32.213079+05:30
Gaya,Bihar,24.7914,85.0002,23.2,76,0.0,995.4,8.65,27.0,127,54.9,51.3,16.5,388.0,89.0,12.3,3,5,7,1,2026-05-08T01:46:32.213086+05:30
Muzaffarpur,Bihar,26.1209,85.3647,22.1,84,0.0,1002.1,8.45,23.4,129,75.9,68.5,39.1,738.0,42.0,14.7,3,5,4,1,2026-05-08T01:46:32.213092+05:30
Bhagalpur,Bihar,25.2425,87.0117,22.6,82,0.0,1003.1,8.7,25.9,155,102.7,99.2,39.4,429.0,54.0,14.6,3,5,4,1,2026-05-08T01:46:32.213099+05:30
Ranchi,Jharkhand,23.3441,85.3096,20.0,84,0.0,938.8,9.2,40.0,115,61.9,57.3,15.9,341.0,113.0,33.5,3,5,7,1,2026-05-08T01:46:32.213106+05:30
Jamshedpur,Jharkhand,22.8046,86.2029,22.6,90,0.0,992.9,8.85,50.4,106,37.8,35.0,16.5,356.0,68.0,15.3,3,5,7,1,2026-05-08T01:46:32.213112+05:30
Dhanbad,Jharkhand,23.7957,86.4304,22.0,90,0.0,981.7,8.95,42.1,162,121.5,117.1,61.7,450.0,69.0,70.4,3,5,7,1,2026-05-08T01:46:32.213118+05:30
Bokaro,Jharkhand,23.6693,86.1511,21.8,87,0.0,985.6,8.95,53.6,158,112.7,108.0,58.2,1467.0,83.0,58.5,3,5,7,1,2026-05-08T01:46:32.213125+05:30
Bhubaneswar,Odisha,20.2961,85.8245,26.0,97,0.0,1004.1,9.1,31.3,45,9.3,7.6,5.3,173.0,34.0,2.7,7,5,4,1,2026-05-08T01:46:32.213132+05:30
Cuttack,Odisha,20.4625,85.8828,25.9,97,0.0,1006.3,9.15,27.4,45,9.3,7.6,5.3,197.0,34.0,2.7,7,5,4,1,2026-05-08T01:46:32.213138+05:30
Rourkela,Odisha,22.2604,84.8536,23.7,79,0.0,986.4,8.95,47.5,113,40.4,38.8,15.1,400.0,93.0,40.6,3,5,7,1,2026-05-08T01:46:32.213144+05:30
Raipur,Chhattisgarh,21.2514,81.6296,29.3,41,0.0,974.7,8.95,27.4,115,63.8,54.8,35.7,413.0,83.0,8.4,4,5,7,0,2026-05-08T01:46:32.213151+05:30
Bhilai,Chhattisgarh,21.1938,81.3509,28.6,49,0.0,974.8,9.0,25.9,125,61.9,52.0,38.5,398.0,59.0,7.8,4,5,7,1,2026-05-08T01:46:32.213158+05:30
Guwahati,Assam,26.1158,91.7086,22.2,84,0.0,1003.7,8.65,23.4,103,55.2,47.1,20.1,341.0,28.0,2.2,3,5,4,1,2026-05-08T01:46:32.213165+05:30
Agartala,Tripura,23.8315,91.2868,23.1,92,0.0,1008.0,8.8,16.6,124,100.6,98.5,76.0,575.0,16.0,9.6,3,0,4,1,2026-05-08T01:46:32.213172+05:30
Shillong,Meghalaya,25.5788,91.8933,15.3,80,0.0,857.4,7.0,16.6,84,45.8,39.5,17.7,262.0,35.0,0.8,3,5,7,0,2026-05-08T01:46:32.213178+05:30
Imphal,Manipur,24.817,93.9368,16.7,92,0.0,924.2,9.15,27.4,108,63.6,55.9,22.3,482.0,36.0,2.4,3,10,7,0,2026-05-08T01:46:32.213185+05:30
Aizawl,Mizoram,23.7271,92.7176,15.7,92,0.0,892.3,9.0,23.8,69,33.6,28.5,19.3,350.0,24.0,1.4,3,10,7,0,2026-05-08T01:46:32.213192+05:30
Kohima,Nagaland,25.6701,94.1077,15.2,79,0.0,855.8,9.15,30.6,80,45.8,35.7,8.7,228.0,55.0,0.2,3,5,7,0,2026-05-08T01:46:32.213198+05:30
Gangtok,Sikkim,27.3314,88.6138,10.7,72,0.0,836.6,9.0,43.9,66,25.7,20.4,18.8,323.0,52.0,0.6,3,5,7,0,2026-05-08T01:46:32.213205+05:30
Siliguri,West Bengal,26.7271,88.3953,22.5,68,0.0,995.1,8.55,24.1,112,68.5,56.3,42.4,571.0,32.0,4.5,3,5,7,1,2026-05-08T01:46:35.576584+05:30
Durgapur,West Bengal,23.5204,87.3119,21.7,94,0.0,996.8,8.7,22.7,155,95.0,91.0,48.4,672.0,63.0,53.2,3,5,7,1,2026-05-08T01:46:35.576618+05:30
Asansol,West Bengal,23.6739,86.9524,21.1,95,0.0,995.5,8.8,45.0,157,90.8,86.8,40.0,646.0,73.0,59.6,3,5,7,1,2026-05-08T01:46:35.576629+05:30
Pondicherry,Puducherry,11.9139,79.8145,28.9,78,0.0,1006.6,7.7,45.0,23,5.2,3.4,1.5,156.0,46.0,0.3,7,5,4,1,2026-05-08T01:46:35.576638+05:30
Port Blair,Andaman and Nicobar Islands,11.6234,92.7265,26.0,91,0.0,1006.1,9.1,37.1,31,5.9,4.5,0.3,150.0,70.0,0.3,7,5,4,1,2026-05-08T01:46:35.576647+05:30
Haridwar,Uttarakhand,29.9457,78.1642,18.4,87,0.0,974.5,7.4,25.2,100,71.0,51.1,32.4,337.0,33.0,7.1,3,10,7,1,2026-05-08T01:46:35.576655+05:30
Rishikesh,Uttarakhand,30.0869,78.2676,16.5,93,0.0,966.8,7.3,20.2,96,65.9,34.8,15.4,360.0,73.0,3.6,3,10,7,0,2026-05-08T01:46:35.576663+05:30
Nainital,Uttarakhand,29.3919,79.4542,8.8,86,0.0,802.0,7.55,28.1,71,26.9,23.2,13.8,282.0,76.0,2.2,3,10,7,0,2026-05-08T01:46:35.576670+05:30
Mussoorie,Uttarakhand,30.4599,78.0664,9.2,88,0.0,799.4,7.5,25.2,82,45.2,36.8,41.3,250.0,31.0,8.8,3,10,7,0,2026-05-08T01:46:35.576678+05:30
Dharamshala,Himachal Pradesh,32.219,76.3234,16.0,68,0.0,868.0,8.2,34.9,45,27.3,10.8,10.9,228.0,61.0,0.2,3,5,7,0,2026-05-08T01:46:35.576686+05:30
Dalhousie,Himachal Pradesh,32.5387,75.971,8.4,84,0.0,800.4,8.5,35.6,65,38.4,29.7,39.3,432.0,30.0,2.0,3,10,7,0,2026-05-08T01:46:35.576694+05:30
Patiala,Punjab,30.3398,76.3869,21.8,73,0.0,978.7,7.5,32.4,614,430.3,68.0,8.2,327.0,104.0,7.7,3,5,7,1,2026-05-08T01:46:35.576701+05:30
Bhatinda,Punjab,30.211,74.9455,24.4,59,0.0,983.6,8.1,31.3,674,769.3,143.9,5.2,330.0,134.0,11.2,0,5,7,0,2026-05-08T01:46:35.576729+05:30
Rohtak,Haryana,28.8955,76.6066,22.6,76,0.0,981.8,7.6,35.6,890,588.6,89.2,15.1,401.0,111.0,24.9,3,5,7,1,2026-05-08T01:46:35.576739+05:30
Panipat,Haryana,29.3909,76.9635,21.9,82,0.0,980.8,7.45,35.3,1493,972.3,119.7,10.6,360.0,110.0,18.4,3,5,7,1,2026-05-08T01:46:35.576746+05:30
Mathura,Uttar Pradesh,27.4924,77.6737,22.5,66,0.0,986.7,7.85,34.9,1244,1356.0,163.0,6.0,309.0,121.0,18.0,3,5,7,0,2026-05-08T01:46:35.576754+05:30
Vrindavan,Uttar Pradesh,27.5823,77.7027,22.5,67,0.0,987.2,7.85,34.9,1244,1356.0,163.0,6.0,316.0,121.0,18.0,3,5,7,0,2026-05-08T01:46:35.576761+05:30
Ayodhya,Uttar Pradesh,26.7922,82.1998,21.0,91,0.0,996.6,8.2,23.8,100,52.9,40.7,16.4,394.0,80.0,7.1,3,5,7,1,2026-05-08T01:46:35.576768+05:30
Ratlam,Madhya Pradesh,23.3315,75.0367,26.3,34,0.0,952.7,8.5,26.3,75,41.8,21.9,3.1,257.0,105.0,7.0,4,5,7,0,2026-05-08T01:46:35.576775+05:30
Sagar,Madhya Pradesh,23.8388,78.7378,24.8,45,0.0,950.0,8.65,39.6,47,21.4,14.3,10.8,255.0,86.0,4.7,0,5,7,0,2026-05-08T01:46:35.576782+05:30
Satna,Madhya Pradesh,24.6005,80.8322,22.6,61,0.0,971.5,8.7,33.1,105,44.1,26.4,10.7,269.0,102.0,7.9,3,5,7,0,2026-05-08T01:46:35.576789+05:30
Akola,Maharashtra,20.7002,77.0082,30.0,40,0.0,974.4,8.85,35.3,84,51.7,35.7,14.0,263.0,83.0,3.1,4,5,7,0,2026-05-08T01:46:35.576797+05:30
Amravati,Maharashtra,20.9374,77.7796,28.2,48,0.0,966.7,8.85,29.9,83,48.5,33.3,15.3,258.0,82.0,3.0,4,5,7,1,2026-05-08T01:46:35.576805+05:30
Latur,Maharashtra,18.4088,76.5604,26.8,52,0.0,939.4,8.35,29.9,89,57.2,39.6,18.0,279.0,84.0,9.4,4,5,7,0,2026-05-08T01:46:35.576812+05:30
Nanded,Maharashtra,19.1383,77.3091,28.9,51,0.0,968.5,8.95,30.6,79,42.3,31.9,12.9,370.0,74.0,3.7,4,5,7,1,2026-05-08T01:46:35.576818+05:30
Gulbarga,Karnataka,17.3297,76.8343,27.1,57,0.0,958.3,8.9,33.1,70,38.4,28.6,10.5,253.0,92.0,5.8,4,5,7,1,2026-05-08T01:46:35.576825+05:30
Bidar,Karnataka,17.9104,77.5199,24.0,91,0.0,935.2,9.0,32.4,77,32.2,27.1,22.5,360.0,56.0,6.1,3,5,7,1,2026-05-08T01:46:35.576833+05:30
Hospet,Karnataka,15.2689,76.3909,26.5,78,0.0,954.9,9.2,36.0,85,32.2,25.4,20.0,239.0,63.0,10.1,7,5,7,1,2026-05-08T01:46:35.576839+05:30
Tirupur,Tamil Nadu,11.1085,77.3411,25.5,85,0.0,973.9,9.25,31.7,66,22.2,20.3,11.9,300.0,82.0,5.5,7,5,7,1,2026-05-08T01:46:35.576846+05:30
Alappuzha,Kerala,9.4981,76.3388,25.6,95,0.0,1006.6,7.0,31.0,59,14.3,12.4,10.9,271.0,67.0,4.2,7,5,4,1,2026-05-08T01:46:35.576852+05:30
Munnar,Kerala,10.0889,77.0595,17.5,92,0.0,854.5,9.15,23.8,62,9.7,8.2,7.3,254.0,65.0,1.7,3,10,7,1,2026-05-08T01:46:35.576860+05:30
Silchar,Assam,24.8333,92.7789,24.1,86,0.0,1006.6,8.85,19.1,135,68.2,61.0,22.5,678.0,32.0,6.7,3,5,4,1,2026-05-08T01:46:35.576866+05:30
Dibrugarh,Assam,27.4728,94.912,20.0,94,0.0,999.1,8.75,42.8,75,25.9,23.3,16.8,254.0,17.0,0.6,3,5,7,1,2026-05-08T01:46:35.576873+05:30
