city,state,latitude,longitude,temp,humidity,rain,pressure,uv_index,wind_gusts,aqi,pm10,pm2_5,mosquito_risk,arthritis_risk,migraine_risk,frizz_risk,updated_at
Delhi,Delhi,28.6139,77.209,24.8,49,0.0,984.7,5.75,29.2,350,748.8,110.6,0,5,3,0,2026-03-13T20:14:45.998665+05:30
Mumbai,Maharashtra,19.076,72.8777,29.5,60,0.0,1007.6,7.65,23.8,224,29.5,25.8,4,5,4,1,2026-03-13T20:14:45.998705+05:30
Bangalore,Karnataka,12.9716,77.5946,26.5,39,0.0,912.3,9.3,28.8,130,40.3,35.5,4,5,7,0,2026-03-13T20:14:45.998721+05:30
Hyderabad,Telangana,17.385,78.4867,29.2,29,0.0,953.7,8.65,19.1,175,41.2,32.8,4,5,7,0,2026-03-13T20:14:45.998730+05:30
Chennai,Tamil Nadu,13.0827,80.2707,27.1,77,0.0,1009.0,9.05,32.4,61,18.9,14.4,7,0,4,1,2026-03-13T20:14:45.998739+05:30
Kolkata,West Bengal,22.5726,88.3639,26.4,81,0.0,1006.7,8.0,29.2,125,32.2,28.5,7,5,4,1,2026-03-13T20:14:45.998753+05:30
Pune,Maharashtra,18.5204,73.8567,29.8,38,0.0,948.4,8.2,37.8,156,28.8,27.1,4,5,7,0,2026-03-13T20:14:45.998763+05:30
Ahmedabad,Gujarat,23.0225,72.5714,31.2,32,0.0,1001.5,7.45,22.3,126,48.3,31.4,0,5,4,0,2026-03-13T20:14:45.998771+05:30
Jaipur,Rajasthan,26.9124,75.7873,28.0,33,0.0,960.7,6.95,27.0,114,141.1,39.0,4,5,7,0,2026-03-13T20:14:45.998778+05:30
Lucknow,Uttar Pradesh,26.8467,80.9462,27.4,49,0.0,993.6,6.05,28.4,166,173.2,57.9,4,5,7,0,2026-03-13T20:14:45.998786+05:30
Kanpur,Uttar Pradesh,26.4499,80.3319,26.3,63,0.0,992.1,6.35,18.7,248,244.9,64.3,7,5,7,1,2026-03-13T20:14:45.998793+05:30
Chandigarh,Chandigarh,30.7333,76.7794,21.1,65,0.0,970.1,5.35,29.5,81,27.8,24.2,3,5,3,0,2026-03-13T20:14:45.998800+05:30
Srinagar,Jammu and Kashmir,34.0837,74.7973,10.7,70,0.0,840.7,6.75,14.4,97,56.3,41.3,3,5,7,0,2026-03-13T20:14:45.998807+05:30
Jammu,Jammu and Kashmir,32.7266,74.857,22.2,55,0.0,974.1,6.45,24.8,73,34.8,27.6,0,5,7,0,2026-03-13T20:14:45.998813+05:30
Amritsar,Punjab,31.634,74.8723,20.9,59,0.0,982.6,5.85,25.6,92,29.5,22.4,0,5,3,0,2026-03-13T20:14:45.998820+05:30
Ludhiana,Punjab,30.901,75.8573,22.5,64,0.0,980.7,5.7,27.7,103,46.2,26.5,3,5,3,0,2026-03-13T20:14:45.998826+05:30
Jalandhar,Punjab,31.326,75.5762,22.3,62,0.0,981.7,5.7,25.6,100,43.9,23.7,3,5,3,0,2026-03-13T20:14:45.998835+05:30
Dehradun,Uttarakhand,30.6284,78.0322,15.2,71,0.0,829.9,5.7,28.8,75,38.1,20.1,3,5,3,0,2026-03-13T20:14:45.998843+05:30
Shimla,Himachal Pradesh,31.1048,77.1734,12.3,67,0.0,784.0,5.15,39.2,72,25.0,16.2,3,5,3,0,2026-03-13T20:14:45.998850+05:30
Manali,Himachal Pradesh,32.2396,77.1887,14.2,25,0.0,819.8,8.05,38.5,89,24.6,9.4,0,5,7,1,2026-03-13T20:14:45.998857+05:30
Gurgaon,Haryana,28.4595,77.0266,22.4,57,0.0,983.1,6.15,28.1,1101,1870.1,219.8,0,5,7,0,2026-03-13T20:14:45.998864+05:30
Noida,Uttar Pradesh,28.5355,77.391,24.5,50,0.0,986.2,5.95,28.8,1101,1870.1,219.8,0,5,3,0,2026-03-13T20:14:45.998870+05:30
Ghaziabad,Uttar Pradesh,28.6692,77.4538,23.6,55,0.0,984.2,5.75,27.7,186,499.2,85.9,0,5,3,0,2026-03-13T20:14:45.998876+05:30
Faridabad,Haryana,28.4089,77.3178,23.3,51,0.0,985.4,6.2,27.7,1101,1870.1,219.8,0,5,7,0,2026-03-13T20:14:45.998882+05:30
Meerut,Uttar Pradesh,28.9845,77.7064,22.0,65,0.0,982.8,4.85,27.7,186,499.2,85.9,3,5,3,0,2026-03-13T20:14:45.998888+05:30
Agra,Uttar Pradesh,27.1767,78.0081,25.3,43,0.0,988.7,6.25,24.8,538,579.3,94.5,4,5,7,0,2026-03-13T20:14:45.998895+05:30
Varanasi,Uttar Pradesh,25.3176,82.9739,25.7,55,0.0,997.6,7.35,25.2,124,134.1,52.3,4,5,7,0,2026-03-13T20:14:45.998904+05:30
Prayagraj,Uttar Pradesh,25.4358,81.8463,27.4,52,0.0,996.3,7.1,21.6,149,110.8,45.3,4,5,7,1,2026-03-13T20:14:45.998911+05:30
Gorakhpur,Uttar Pradesh,26.7606,83.3732,25.2,63,0.0,996.7,7.05,28.4,182,80.6,48.1,7,5,7,1,2026-03-13T20:14:45.998918+05:30
Bareilly,Uttar Pradesh,28.367,79.4304,22.7,60,0.0,987.4,6.35,26.6,151,59.4,36.8,0,5,7,0,2026-03-13T20:14:45.998927+05:30
Aligarh,Uttar Pradesh,27.8974,78.088,23.0,49,0.0,986.8,5.9,28.8,604,804.7,126.7,0,5,3,0,2026-03-13T20:14:45.998934+05:30
Moradabad,Uttar Pradesh,28.8386,78.7733,22.7,62,0.0,984.7,5.75,27.4,146,65.9,37.6,3,5,3,0,2026-03-13T20:14:45.998940+05:30
Saharanpur,Uttar Pradesh,29.9637,77.546,22.0,63,0.0,976.7,4.95,27.4,134,187.7,52.5,3,5,3,0,2026-03-13T20:14:45.998946+05:30
Jhansi,Uttar Pradesh,25.4484,78.5685,27.2,47,0.0,978.5,6.75,20.9,89,79.9,33.2,4,5,7,0,2026-03-13T20:14:49.268776+05:30
Surat,Gujarat,21.1702,72.8311,28.0,55,0.0,1006.0,7.35,23.8,146,76.8,71.2,4,5,4,1,2026-03-13T20:14:49.268818+05:30
Vadodara,Gujarat,22.3072,73.1812,32.5,28,0.0,1003.6,7.5,23.8,165,52.6,43.2,0,5,4,0,2026-03-13T20:14:49.268831+05:30
Rajkot,Gujarat,22.3039,70.8022,30.1,23,0.0,994.3,7.3,33.1,100,36.1,20.2,0,5,7,0,2026-03-13T20:14:49.268842+05:30
Thane,Maharashtra,19.2183,72.9781,29.3,48,0.0,1007.0,7.65,38.2,224,29.5,25.8,4,5,4,1,2026-03-13T20:14:49.268851+05:30
Nagpur,Maharashtra,21.1458,79.0882,28.8,34,0.0,972.5,8.05,19.4,136,35.4,31.2,4,5,7,0,2026-03-13T20:14:49.268860+05:30
Nashik,Maharashtra,19.9975,73.7898,28.9,33,0.0,945.8,7.85,34.9,150,29.0,27.1,4,5,7,0,2026-03-13T20:14:49.268868+05:30
Aurangabad,Maharashtra,19.8762,75.3433,30.6,28,0.0,944.2,8.35,29.5,162,25.3,23.6,0,5,7,0,2026-03-13T20:14:49.268877+05:30
Solapur,Maharashtra,17.6599,75.9064,29.4,40,0.0,956.4,8.6,24.1,164,40.9,35.2,4,5,7,0,2026-03-13T20:14:49.268886+05:30
Kolhapur,Maharashtra,16.705,74.2433,25.9,74,0.0,948.2,8.7,47.9,158,46.0,43.2,7,5,7,1,2026-03-13T20:14:49.268895+05:30
Goa,Goa,15.2993,74.124,27.9,79,0.0,998.1,8.7,31.3,135,41.8,36.9,7,5,7,1,2026-03-13T20:14:49.268904+05:30
Jodhpur,Rajasthan,26.2389,73.0243,30.2,33,0.0,982.6,6.8,18.7,84,161.1,33.1,0,5,7,0,2026-03-13T20:14:49.268913+05:30
Udaipur,Rajasthan,24.5854,73.7125,27.1,22,0.0,947.1,7.8,30.2,96,22.7,14.7,4,5,7,0,2026-03-13T20:14:49.268921+05:30
Kota,Rajasthan,25.2138,75.8648,29.5,34,0.0,978.5,7.1,17.6,101,32.8,17.6,4,5,7,0,2026-03-13T20:14:49.268930+05:30
Bikaner,Rajasthan,28.0229,73.3119,29.5,24,0.0,982.8,6.75,24.8,97,22.9,15.6,4,5,7,0,2026-03-13T20:14:49.268939+05:30
Ajmer,Rajasthan,26.4499,74.6399,26.9,38,0.0,954.9,7.05,22.0,94,131.8,38.5,4,5,7,0,2026-03-13T20:14:49.268947+05:30
Gwalior,Madhya Pradesh,26.2183,78.1828,26.9,60,0.0,984.0,6.8,21.2,115,130.4,45.8,4,5,7,1,2026-03-13T20:14:49.268956+05:30
Indore,Madhya Pradesh,22.7196,75.8577,25.6,30,0.0,948.2,7.75,32.4,111,27.8,24.4,4,5,7,0,2026-03-13T20:14:49.268964+05:30
Bhopal,Madhya Pradesh,23.2599,77.4126,25.6,28,0.0,953.9,7.55,31.0,118,17.0,16.6,4,5,7,0,2026-03-13T20:14:49.268973+05:30
Jabalpur,Madhya Pradesh,23.1815,79.9864,28.5,40,0.0,961.9,7.75,20.2,134,25.8,24.3,4,5,7,0,2026-03-13T20:14:49.268982+05:30
Ujjain,Madhya Pradesh,23.1765,75.7885,25.4,35,0.0,954.1,7.65,26.3,90,37.3,31.5,4,5,7,0,2026-03-13T20:14:49.268991+05:30
Visakhapatnam,Andhra Pradesh,17.6868,83.2185,26.4,84,0.0,1005.9,8.65,40.3,84,21.0,17.5,7,5,4,1,2026-03-13T20:14:49.268998+05:30
Vijayawada,Andhra Pradesh,16.5062,80.648,27.6,72,0.0,1004.1,8.75,31.3,89,18.8,16.6,7,5,4,1,2026-03-13T20:14:49.269005+05:30
Guntur,Andhra Pradesh,16.3067,80.4365,26.6,80,0.0,1005.5,8.75,33.8,84,19.6,17.2,7,5,4,1,2026-03-13T20:14:49.269012+05:30
Nellore,Andhra Pradesh,14.4426,79.9865,26.6,81,0.0,1007.4,8.9,30.2,72,16.5,13.2,7,5,4,1,2026-03-13T20:14:49.269019+05:30
Kurnool,Andhra Pradesh,15.8281,78.0373,32.6,29,0.0,976.7,8.7,23.8,166,62.6,48.5,0,5,7,0,2026-03-13T20:14:49.269026+05:30
Kakinada,Andhra Pradesh,16.9891,82.2475,26.1,82,0.0,1009.6,8.65,34.6,74,15.1,11.4,7,0,4,1,2026-03-13T20:14:49.269033+05:30
Tirupati,Andhra Pradesh,13.6288,79.4192,28.5,58,0.0,993.1,9.05,33.5,94,24.0,21.2,4,5,7,1,2026-03-13T20:14:49.269040+05:30
Warangal,Telangana,17.9689,79.5941,30.1,45,0.0,978.7,8.5,28.8,143,59.3,47.5,0,5,7,1,2026-03-13T20:14:49.269046+05:30
Nizamabad,Telangana,18.6725,78.0941,28.2,40,0.0,964.4,8.4,19.1,171,57.4,46.6,4,5,7,0,2026-03-13T20:14:49.269052+05:30
Mysore,Karnataka,12.2958,76.6396,27.4,39,0.0,928.4,9.3,29.9,130,40.0,35.2,4,5,7,0,2026-03-13T20:14:49.269058+05:30
Mangalore,Karnataka,12.9141,74.856,28.8,81,0.0,1007.2,8.95,23.0,116,43.1,36.8,7,5,4,1,2026-03-13T20:14:49.269064+05:30
Hubli-Dharwad,Karnataka,15.3647,75.124,27.8,60,0.0,941.0,8.9,33.5,162,33.5,30.3,4,5,7,1,2026-03-13T20:14:49.269071+05:30
Belgaum,Karnataka,15.8497,74.4977,25.4,74,0.0,926.0,8.95,41.0,163,44.7,41.6,7,5,7,1,2026-03-13T20:14:52.540487+05:30
Coimbatore,Tamil Nadu,11.0168,76.9558,26.2,54,0.0,962.3,9.3,42.8,108,35.0,29.7,4,5,7,1,2026-03-13T20:14:52.540517+05:30
Madurai,Tamil Nadu,9.9252,78.1198,29.7,51,0.0,993.4,9.25,26.6,80,20.2,17.8,4,5,7,1,2026-03-13T20:14:52.540527+05:30
Trichy,Tamil Nadu,10.7905,78.7047,28.6,62,0.0,1000.5,9.15,23.0,83,21.4,19.6,7,5,4,1,2026-03-13T20:14:52.540536+05:30
Salem,Tamil Nadu,11.6643,78.146,28.5,50,0.0,977.7,9.2,24.8,123,41.0,35.0,4,5,7,1,2026-03-13T20:14:52.540543+05:30
Tirunelveli,Tamil Nadu,8.7139,77.7567,28.1,59,0.0,1003.7,9.2,31.3,63,13.9,12.0,4,5,4,1,2026-03-13T20:14:52.540550+05:30
Vellore,Tamil Nadu,12.9165,79.1325,27.6,60,0.0,985.9,9.1,33.1,106,23.7,21.8,4,5,7,1,2026-03-13T20:14:52.540557+05:30
Erode,Tamil Nadu,11.341,77.7172,30.4,49,0.0,989.1,9.15,23.8,89,32.0,27.8,0,5,7,1,2026-03-13T20:14:52.540565+05:30
Kochi,Kerala,9.9312,76.2673,28.3,80,0.0,1009.1,9.1,33.8,144,24.2,22.4,7,0,4,1,2026-03-13T20:14:52.540572+05:30
Thiruvananthapuram,Kerala,8.5241,76.9366,28.1,80,0.0,1008.5,9.1,24.1,96,21.6,16.8,7,0,4,1,2026-03-13T20:14:52.540579+05:30
Kozhikode,Kerala,11.2588,75.7804,28.6,82,0.0,1008.2,9.0,29.9,93,27.0,23.6,7,0,4,1,2026-03-13T20:14:52.540586+05:30
Thrissur,Kerala,10.5276,76.2144,28.1,81,0.0,1007.5,9.05,37.1,120,26.3,24.3,7,5,4,1,2026-03-13T20:14:52.540594+05:30
Kannur,Kerala,11.8745,75.3704,28.6,79,0.0,1007.4,9.0,28.1,106,37.5,32.5,7,5,4,1,2026-03-13T20:14:52.540601+05:30
Patna,Bihar,25.5941,85.1376,28.0,58,0.0,1000.1,7.5,23.0,179,156.5,60.3,4,5,4,1,2026-03-13T20:14:52.540608+05:30
Gaya,Bihar,24.7914,85.0002,27.8,52,0.0,994.1,7.6,19.4,145,161.6,53.4,4,5,7,1,2026-03-13T20:14:52.540614+05:30
Muzaffarpur,Bihar,26.1209,85.3647,26.9,69,0.0,999.9,7.45,24.8,180,163.9,75.4,7,5,7,1,2026-03-13T20:14:52.540620+05:30
Bhagalpur,Bihar,25.2425,87.0117,27.0,67,0.0,1001.2,7.5,26.6,167,191.4,88.0,7,5,4,1,2026-03-13T20:14:52.540626+05:30
Ranchi,Jharkhand,23.3441,85.3096,24.7,30,0.0,938.3,8.2,26.3,109,26.3,17.8,0,5,7,0,2026-03-13T20:14:52.540632+05:30
Jamshedpur,Jharkhand,22.8046,86.2029,29.4,45,0.0,990.7,8.05,16.6,154,53.7,31.0,4,5,7,1,2026-03-13T20:14:52.540639+05:30
Dhanbad,Jharkhand,23.7957,86.4304,29.6,28,0.0,979.9,7.95,26.3,166,81.3,57.3,4,5,7,0,2026-03-13T20:14:52.540645+05:30
Bokaro,Jharkhand,23.6693,86.1511,28.6,35,0.0,984.2,7.95,26.6,150,73.8,51.5,4,5,7,0,2026-03-13T20:14:52.540651+05:30
Bhubaneswar,Odisha,20.2961,85.8245,25.9,86,0.0,1004.1,8.4,33.5,100,27.5,24.9,7,5,4,1,2026-03-13T20:14:52.540658+05:30
Cuttack,Odisha,20.4625,85.8828,26.7,79,0.0,1005.9,8.4,28.1,100,27.5,24.9,7,5,4,1,2026-03-13T20:14:52.540665+05:30
Rourkela,Odisha,22.2604,84.8536,28.4,43,0.0,984.8,8.0,19.4,141,52.4,31.5,4,5,7,0,2026-03-13T20:14:52.540671+05:30
Raipur,Chhattisgarh,21.2514,81.6296,30.4,27,0.0,974.4,8.15,18.0,157,52.4,45.5,0,5,7,0,2026-03-13T20:14:52.540678+05:30
Bhilai,Chhattisgarh,21.1938,81.3509,29.3,38,0.0,974.7,8.15,14.8,141,46.1,40.0,4,5,7,0,2026-03-13T20:14:52.540684+05:30
Guwahati,Assam,26.1158,91.7086,22.6,91,0.0,1002.6,6.6,29.9,152,32.4,27.4,3,5,4,1,2026-03-13T20:14:52.540689+05:30
Agartala,Tripura,23.8315,91.2868,23.1,88,0.0,1007.7,7.6,32.8,125,60.1,52.5,3,5,4,1,2026-03-13T20:14:52.540696+05:30
Shillong,Meghalaya,25.5788,91.8933,13.3,89,0.0,855.4,7.0,56.9,122,26.5,21.0,3,10,7,0,2026-03-13T20:14:52.540702+05:30
Imphal,Manipur,24.817,93.9368,16.6,94,0.0,924.3,7.3,61.2,157,70.8,64.3,3,10,7,0,2026-03-13T20:14:52.540709+05:30
Aizawl,Mizoram,23.7271,92.7176,17.7,88,0.0,894.0,7.15,76.0,146,47.7,44.5,3,10,7,0,2026-03-13T20:14:52.540715+05:30
Kohima,Nagaland,25.6701,94.1077,14.8,87,0.0,854.4,6.25,82.8,137,39.3,36.0,3,10,7,0,2026-03-13T20:14:52.540721+05:30
Gangtok,Sikkim,27.3314,88.6138,14.8,92,0.0,836.5,5.15,15.8,99,32.5,31.1,3,10,3,0,2026-03-13T20:14:52.540727+05:30
Siliguri,West Bengal,26.7271,88.3953,20.2,86,0.0,994.2,7.3,29.5,152,43.4,39.1,3,5,7,1,2026-03-13T20:14:55.821586+05:30
Durgapur,West Bengal,23.5204,87.3119,30.9,36,0.0,995.0,7.95,26.3,162,77.5,56.8,0,5,7,0,2026-03-13T20:14:55.821616+05:30
Asansol,West Bengal,23.6739,86.9524,31.1,34,0.0,993.5,7.95,23.4,164,67.8,43.0,0,5,7,0,2026-03-13T20:14:55.821626+05:30
Pondicherry,Puducherry,11.9139,79.8145,25.4,87,0.0,1010.0,9.0,27.7,59,18.7,13.9,7,0,4,1,2026-03-13T20:14:55.821634+05:30
Port Blair,Andaman and Nicobar Islands,11.6234,92.7265,27.8,81,0.0,1008.6,8.95,22.3,62,10.3,8.0,7,0,4,1,2026-03-13T20:14:55.821642+05:30
Haridwar,Uttarakhand,29.9457,78.1642,23.3,66,0.0,975.3,5.6,29.5,87,66.8,35.6,3,5,3,1,2026-03-13T20:14:55.821649+05:30
Rishikesh,Uttarakhand,30.0869,78.2676,22.6,69,0.0,967.9,5.8,30.2,82,31.5,21.5,3,5,3,1,2026-03-13T20:14:55.821656+05:30
Nainital,Uttarakhand,29.3919,79.4542,17.7,47,0.0,806.0,6.55,44.3,105,32.7,25.7,0,5,7,0,2026-03-13T20:14:55.821663+05:30
Mussoorie,Uttarakhand,30.4599,78.0664,16.0,63,0.0,802.7,5.75,30.6,84,47.4,33.5,3,5,3,0,2026-03-13T20:14:55.821670+05:30
Dharamshala,Himachal Pradesh,32.219,76.3234,19.0,58,0.0,869.8,6.0,24.8,83,20.0,13.1,0,5,3,0,2026-03-13T20:14:55.821677+05:30
Dalhousie,Himachal Pradesh,32.5387,75.971,16.7,54,0.0,804.1,6.4,31.0,80,28.9,21.1,0,5,7,0,2026-03-13T20:14:55.821685+05:30
Patiala,Punjab,30.3398,76.3869,20.8,70,0.0,979.9,5.2,27.0,359,603.5,79.4,3,5,3,0,2026-03-13T20:14:55.821692+05:30
Bhatinda,Punjab,30.211,74.9455,22.6,62,0.0,985.8,6.25,27.7,117,41.2,32.6,3,5,7,0,2026-03-13T20:14:55.821699+05:30
Rohtak,Haryana,28.8955,76.6066,22.1,61,0.0,983.4,5.3,26.6,529,961.1,129.5,3,5,3,0,2026-03-13T20:14:55.821705+05:30
Panipat,Haryana,29.3909,76.9635,21.3,68,0.0,981.9,4.9,24.8,987,1497.6,177.9,3,5,3,0,2026-03-13T20:14:55.821711+05:30
Mathura,Uttar Pradesh,27.4924,77.6737,24.6,43,0.0,988.0,5.65,25.6,664,689.2,100.1,0,5,3,0,2026-03-13T20:14:55.821718+05:30
Vrindavan,Uttar Pradesh,27.5823,77.7027,23.2,48,0.0,988.5,5.75,28.8,664,689.2,100.1,0,5,3,0,2026-03-13T20:14:55.821724+05:30
Ayodhya,Uttar Pradesh,26.7922,82.1998,25.6,58,0.0,995.1,6.35,30.2,156,61.9,39.9,4,5,7,1,2026-03-13T20:14:55.821731+05:30
Ratlam,Madhya Pradesh,23.3315,75.0367,28.3,30,0.0,955.1,7.6,30.6,107,25.7,21.6,4,5,7,0,2026-03-13T20:14:55.821737+05:30
Sagar,Madhya Pradesh,23.8388,78.7378,28.0,31,0.0,950.6,7.6,29.2,116,13.4,12.4,4,5,7,0,2026-03-13T20:14:55.821743+05:30
Satna,Madhya Pradesh,24.6005,80.8322,27.7,25,0.0,971.5,7.2,29.9,101,24.0,12.7,4,5,7,0,2026-03-13T20:14:55.821750+05:30
Akola,Maharashtra,20.7002,77.0082,30.3,29,0.0,974.6,8.05,24.8,171,33.6,30.0,0,5,7,0,2026-03-13T20:14:55.821757+05:30
Amravati,Maharashtra,20.9374,77.7796,29.9,32,0.0,966.8,8.0,15.1,169,34.6,29.9,4,5,7,0,2026-03-13T20:14:55.821764+05:30
Latur,Maharashtra,18.4088,76.5604,29.7,39,0.0,940.0,8.5,21.2,156,38.9,34.7,4,5,7,0,2026-03-13T20:14:55.821771+05:30
Nanded,Maharashtra,19.1383,77.3091,32.9,29,0.0,968.3,8.25,21.6,175,50.6,44.0,0,5,7,0,2026-03-13T20:14:55.821778+05:30
Gulbarga,Karnataka,17.3297,76.8343,31.4,32,0.0,958.5,8.6,32.0,174,38.1,32.0,0,5,7,0,2026-03-13T20:14:55.821785+05:30
Bidar,Karnataka,17.9104,77.5199,29.6,32,0.0,935.7,8.55,26.6,166,40.4,32.4,4,5,7,0,2026-03-13T20:14:55.821791+05:30
Hospet,Karnataka,15.2689,76.3909,31.5,34,0.0,955.6,8.9,24.1,170,39.0,33.9,0,5,7,0,2026-03-13T20:14:55.821797+05:30
Tirupur,Tamil Nadu,11.1085,77.3411,30.2,41,0.0,975.4,9.3,30.6,108,40.4,34.9,0,5,7,0,2026-03-13T20:14:55.821803+05:30
Alappuzha,Kerala,9.4981,76.3388,28.1,80,0.0,1009.3,9.1,28.1,146,20.0,16.9,7,0,4,1,2026-03-13T20:14:55.821810+05:30
Munnar,Kerala,10.0889,77.0595,22.2,83,0.0,857.4,9.55,24.5,73,25.7,23.2,3,5,7,1,2026-03-13T20:14:55.821817+05:30
Silchar,Assam,24.8333,92.7789,21.8,92,0.0,1007.9,7.75,42.8,163,48.4,41.7,3,5,4,1,2026-03-13T20:14:55.821823+05:30
Dibrugarh,Assam,27.4728,94.912,21.3,85,0.0,996.7,5.5,25.2,147,56.5,52.0,3,5,3,1,2026-03-13T20:14:55.821830+05:30
