city,state,latitude,longitude,temp,humidity,rain,pressure,uv_index,wind_gusts,aqi,pm10,pm2_5,no2,co,o3,so2,mosquito_risk,arthritis_risk,migraine_risk,frizz_risk,updated_at
Delhi,Delhi,28.6139,77.209,31.0,42,0.0,983.3,7.6,32.0,207,221.2,67.3,24.8,540.0,135.0,25.2,0,5,7,1,2026-05-10T21:28:26.898273+05:30
Mumbai,Maharashtra,19.076,72.8777,31.6,60,0.0,1004.4,7.9,46.8,128,49.5,28.4,21.1,403.0,100.0,15.1,0,5,4,1,2026-05-10T21:28:26.898315+05:30
Bangalore,Karnataka,12.9716,77.5946,25.8,62,0.0,911.4,9.5,43.9,72,33.1,26.7,48.3,310.0,48.0,12.0,7,5,7,1,2026-05-10T21:28:26.898332+05:30
Hyderabad,Telangana,17.385,78.4867,32.7,36,0.0,952.8,9.25,38.9,114,44.2,26.7,15.2,331.0,97.0,8.3,0,5,7,0,2026-05-10T21:28:26.898343+05:30
Chennai,Tamil Nadu,13.0827,80.2707,29.1,72,0.0,1006.9,9.0,40.0,23,5.8,4.2,6.5,157.0,42.0,3.1,7,5,4,1,2026-05-10T21:28:26.898357+05:30
Kolkata,West Bengal,22.5726,88.3639,25.7,87,0.0,1009.1,8.5,19.1,173,58.9,54.5,21.6,723.0,73.0,15.8,7,0,4,1,2026-05-10T21:28:26.898369+05:30
Pune,Maharashtra,18.5204,73.8567,32.9,32,0.0,946.2,8.5,36.4,115,27.5,18.6,15.8,478.0,112.0,9.7,0,5,7,0,2026-05-10T21:28:26.898378+05:30
Ahmedabad,Gujarat,23.0225,72.5714,40.2,14,0.0,998.1,8.1,34.2,78,87.3,32.5,29.2,260.0,68.0,9.2,0,5,10,0,2026-05-10T21:28:26.898388+05:30
Jaipur,Rajasthan,26.9124,75.7873,31.6,37,0.0,959.2,8.15,28.4,176,229.1,64.0,31.2,473.0,93.0,11.8,0,5,7,0,2026-05-10T21:28:26.898397+05:30
Lucknow,Uttar Pradesh,26.8467,80.9462,29.9,48,0.0,994.7,8.05,35.3,166,58.3,43.3,16.4,513.0,111.0,13.4,4,5,7,1,2026-05-10T21:28:26.898404+05:30
Kanpur,Uttar Pradesh,26.4499,80.3319,30.5,44,0.0,992.6,8.1,33.8,179,148.5,46.9,13.1,401.0,116.0,10.6,0,5,7,1,2026-05-10T21:28:26.898413+05:30
Chandigarh,Chandigarh,30.7333,76.7794,26.8,59,0.0,968.6,7.7,39.2,180,156.9,68.9,29.5,1004.0,128.0,15.4,4,5,7,1,2026-05-10T21:28:26.898420+05:30
Srinagar,Jammu and Kashmir,34.0837,74.7973,19.2,61,0.0,841.8,8.25,18.0,122,88.2,46.1,36.4,1134.0,91.0,9.4,3,5,7,0,2026-05-10T21:28:26.898429+05:30
Jammu,Jammu and Kashmir,32.7266,74.857,30.5,46,0.0,972.0,8.2,33.8,161,217.0,77.1,29.8,643.0,99.0,12.0,0,5,7,1,2026-05-10T21:28:26.898437+05:30
Amritsar,Punjab,31.634,74.8723,30.8,48,0.0,979.8,8.35,29.9,179,224.0,77.8,8.2,634.0,133.0,12.0,0,5,7,1,2026-05-10T21:28:26.898445+05:30
Ludhiana,Punjab,30.901,75.8573,29.9,52,0.0,978.1,7.95,34.9,174,183.9,72.9,16.2,673.0,120.0,13.0,4,5,7,1,2026-05-10T21:28:26.898452+05:30
Jalandhar,Punjab,31.326,75.5762,28.9,59,0.0,978.9,8.15,33.5,168,281.3,87.3,22.2,705.0,110.0,12.7,4,5,7,1,2026-05-10T21:28:26.898460+05:30
Dehradun,Uttarakhand,30.6284,78.0322,15.0,89,0.0,830.8,8.05,26.6,142,83.4,45.3,15.7,311.0,131.0,4.4,3,10,7,0,2026-05-10T21:28:26.898469+05:30
Shimla,Himachal Pradesh,31.1048,77.1734,13.2,83,0.0,784.6,8.05,39.2,172,146.7,71.5,17.4,419.0,143.0,14.7,3,10,7,0,2026-05-10T21:28:26.898477+05:30
Manali,Himachal Pradesh,32.2396,77.1887,13.0,98,0.0,818.1,9.75,46.8,168,50.5,23.0,40.8,454.0,133.0,2.0,3,10,7,0,2026-05-10T21:28:26.898485+05:30
Gurgaon,Haryana,28.4595,77.0266,30.0,44,0.0,981.4,7.7,32.0,658,804.7,121.5,30.4,558.0,125.0,22.9,4,5,7,1,2026-05-10T21:28:26.898492+05:30
Noida,Uttar Pradesh,28.5355,77.391,27.4,54,0.0,984.6,7.65,31.3,658,804.7,121.5,30.4,521.0,125.0,22.9,4,5,7,1,2026-05-10T21:28:26.898498+05:30
Ghaziabad,Uttar Pradesh,28.6692,77.4538,28.2,54,0.0,982.8,7.6,34.2,169,152.3,56.9,11.7,506.0,126.0,11.6,4,5,7,1,2026-05-10T21:28:26.898505+05:30
Faridabad,Haryana,28.4089,77.3178,29.1,49,0.0,984.0,7.65,33.8,658,804.7,121.5,30.4,577.0,125.0,22.9,4,5,7,1,2026-05-10T21:28:26.898511+05:30
Meerut,Uttar Pradesh,28.9845,77.7064,26.1,67,0.0,981.7,7.55,34.6,169,152.3,56.9,11.7,504.0,126.0,11.6,7,5,7,1,2026-05-10T21:28:26.898518+05:30
Agra,Uttar Pradesh,27.1767,78.0081,30.1,50,0.0,987.6,7.95,24.1,499,504.8,89.4,19.5,557.0,104.0,17.2,0,5,7,1,2026-05-10T21:28:26.898525+05:30
Varanasi,Uttar Pradesh,25.3176,82.9739,29.3,44,0.0,998.7,8.55,29.9,187,58.1,45.6,16.8,439.0,131.0,17.5,4,5,7,0,2026-05-10T21:28:26.898533+05:30
Prayagraj,Uttar Pradesh,25.4358,81.8463,30.0,40,0.0,996.5,8.45,32.8,179,54.6,41.7,17.6,547.0,111.0,12.7,4,5,7,0,2026-05-10T21:28:26.898542+05:30
Gorakhpur,Uttar Pradesh,26.7606,83.3732,27.0,61,0.0,999.5,8.4,33.8,136,45.1,38.9,20.1,404.0,87.0,9.5,7,5,7,1,2026-05-10T21:28:26.898549+05:30
Bareilly,Uttar Pradesh,28.367,79.4304,26.4,61,0.0,987.7,7.9,29.5,158,78.0,50.1,22.6,543.0,89.0,8.6,7,5,7,1,2026-05-10T21:28:26.898556+05:30
Aligarh,Uttar Pradesh,27.8974,78.088,28.4,51,0.0,985.8,7.75,31.7,235,231.9,68.0,17.5,430.0,105.0,15.8,4,5,7,1,2026-05-10T21:28:26.898563+05:30
Moradabad,Uttar Pradesh,28.8386,78.7733,27.1,59,0.0,984.3,7.75,32.4,174,76.6,61.9,26.9,613.0,108.0,17.5,4,5,7,1,2026-05-10T21:28:26.898569+05:30
Saharanpur,Uttar Pradesh,29.9637,77.546,26.1,64,0.0,975.8,7.35,31.7,151,116.6,74.5,33.3,843.0,82.0,16.5,7,5,7,1,2026-05-10T21:28:26.898575+05:30
Jhansi,Uttar Pradesh,25.4484,78.5685,29.8,46,0.0,977.5,8.4,27.0,170,115.9,41.1,6.8,379.0,114.0,10.5,4,5,7,1,2026-05-10T21:28:30.237977+05:30
Surat,Gujarat,21.1702,72.8311,32.5,54,0.0,1003.1,7.75,34.9,93,71.9,60.1,70.4,425.0,53.0,89.5,0,5,4,1,2026-05-10T21:28:30.238016+05:30
Vadodara,Gujarat,22.3072,73.1812,37.8,20,0.0,1000.3,8.1,29.5,128,56.2,33.3,31.6,554.0,107.0,17.1,0,5,7,0,2026-05-10T21:28:30.238026+05:30
Rajkot,Gujarat,22.3039,70.8022,31.6,39,0.0,992.5,7.7,38.9,72,40.4,14.1,5.9,179.0,81.0,7.5,0,5,7,0,2026-05-10T21:28:30.238034+05:30
Thane,Maharashtra,19.2183,72.9781,32.8,41,0.0,1003.7,7.9,45.4,128,49.5,28.4,21.1,296.0,100.0,15.1,0,5,4,1,2026-05-10T21:28:30.238042+05:30
Nagpur,Maharashtra,21.1458,79.0882,34.0,27,0.0,971.1,8.9,29.2,168,60.8,38.0,21.4,479.0,117.0,22.0,0,5,7,0,2026-05-10T21:28:30.238050+05:30
Nashik,Maharashtra,19.9975,73.7898,32.1,30,0.0,943.7,8.2,45.7,130,31.1,22.5,7.2,217.0,151.0,17.9,0,5,7,0,2026-05-10T21:28:30.238057+05:30
Aurangabad,Maharashtra,19.8762,75.3433,33.0,20,0.0,941.8,9.05,45.0,103,36.9,17.7,10.4,408.0,104.0,5.0,0,5,7,0,2026-05-10T21:28:30.238064+05:30
Solapur,Maharashtra,17.6599,75.9064,34.8,22,0.0,954.8,9.05,38.5,128,32.5,21.5,11.9,397.0,108.0,9.0,0,5,7,0,2026-05-10T21:28:30.238072+05:30
Kolhapur,Maharashtra,16.705,74.2433,28.2,67,0.0,946.1,8.95,44.3,140,47.3,36.7,18.5,246.0,112.0,9.6,7,5,7,1,2026-05-10T21:28:30.238079+05:30
Goa,Goa,15.2993,74.124,30.0,79,0.0,996.6,6.85,48.6,93,40.0,23.3,5.6,254.0,89.0,4.1,7,5,7,1,2026-05-10T21:28:30.238086+05:30
Jodhpur,Rajasthan,26.2389,73.0243,37.5,13,0.0,980.1,8.4,35.3,90,59.1,22.1,23.2,242.0,89.0,5.5,0,5,10,0,2026-05-10T21:28:30.238093+05:30
Udaipur,Rajasthan,24.5854,73.7125,33.3,18,0.0,944.8,8.8,38.5,85,27.5,11.5,6.3,257.0,93.0,3.2,0,5,7,0,2026-05-10T21:28:30.238100+05:30
Kota,Rajasthan,25.2138,75.8648,33.0,31,0.0,977.0,8.35,35.6,146,119.7,44.8,13.2,368.0,103.0,11.0,0,5,7,0,2026-05-10T21:28:30.238106+05:30
Bikaner,Rajasthan,28.0229,73.3119,36.3,24,0.0,979.1,8.3,32.0,124,74.5,26.0,7.1,363.0,108.0,10.9,0,5,10,0,2026-05-10T21:28:30.238113+05:30
Ajmer,Rajasthan,26.4499,74.6399,32.8,28,0.0,953.6,8.3,32.4,126,103.1,38.5,14.1,522.0,94.0,7.7,0,5,7,0,2026-05-10T21:28:30.238119+05:30
Gwalior,Madhya Pradesh,26.2183,78.1828,31.0,42,0.0,982.9,8.15,24.1,157,156.5,46.7,8.4,555.0,112.0,8.6,0,5,7,1,2026-05-10T21:28:30.238126+05:30
Indore,Madhya Pradesh,22.7196,75.8577,34.8,16,0.0,946.5,8.65,47.5,127,54.7,27.6,10.6,342.0,113.0,7.4,0,5,7,0,2026-05-10T21:28:30.238132+05:30
Bhopal,Madhya Pradesh,23.2599,77.4126,32.8,17,0.0,952.5,8.65,46.1,116,66.6,26.6,5.3,370.0,107.0,3.9,0,5,7,0,2026-05-10T21:28:30.238139+05:30
Jabalpur,Madhya Pradesh,23.1815,79.9864,31.5,32,0.0,960.4,8.8,32.8,135,78.0,31.1,12.5,266.0,108.0,5.6,0,5,7,0,2026-05-10T21:28:30.238145+05:30
Ujjain,Madhya Pradesh,23.1765,75.7885,33.5,17,0.0,952.2,8.6,40.7,123,59.4,33.1,11.3,258.0,99.0,7.2,0,5,7,0,2026-05-10T21:28:30.238152+05:30
Visakhapatnam,Andhra Pradesh,17.6868,83.2185,28.5,73,0.0,1005.2,9.1,36.4,68,25.8,22.8,24.8,471.0,31.0,12.7,7,5,4,1,2026-05-10T21:28:30.238158+05:30
Vijayawada,Andhra Pradesh,16.5062,80.648,29.7,69,0.0,1002.8,9.1,37.8,47,7.3,6.2,6.1,152.0,46.0,6.5,7,5,4,1,2026-05-10T21:28:30.238165+05:30
Guntur,Andhra Pradesh,16.3067,80.4365,29.8,68,0.0,1004.0,8.9,45.4,49,8.6,6.9,6.1,157.0,52.0,7.2,7,5,4,1,2026-05-10T21:28:30.238171+05:30
Nellore,Andhra Pradesh,14.4426,79.9865,28.8,75,0.0,1006.0,9.15,39.2,27,6.1,4.3,3.0,140.0,44.0,2.1,7,5,4,1,2026-05-10T21:28:30.238178+05:30
Kurnool,Andhra Pradesh,15.8281,78.0373,33.2,35,0.0,975.9,9.1,49.7,74,38.2,23.0,5.9,208.0,97.0,3.0,0,5,7,0,2026-05-10T21:28:30.238185+05:30
Kakinada,Andhra Pradesh,16.9891,82.2475,28.5,76,0.0,1008.3,9.05,37.8,30,8.1,5.5,1.0,156.0,59.0,0.4,7,0,4,1,2026-05-10T21:28:30.238192+05:30
Tirupati,Andhra Pradesh,13.6288,79.4192,27.1,74,0.0,991.4,9.25,42.8,57,6.9,5.9,8.7,195.0,34.0,2.7,7,5,7,1,2026-05-10T21:28:30.238199+05:30
Warangal,Telangana,17.9689,79.5941,31.8,47,0.0,977.7,9.15,40.0,100,48.2,32.1,10.5,355.0,108.0,8.9,0,5,7,1,2026-05-10T21:28:30.238205+05:30
Nizamabad,Telangana,18.6725,78.0941,31.3,38,0.0,962.8,9.1,29.9,118,64.3,42.6,25.6,353.0,82.0,7.9,0,5,7,0,2026-05-10T21:28:30.238211+05:30
Mysore,Karnataka,12.2958,76.6396,26.5,54,0.0,927.4,9.3,34.6,101,38.2,28.2,37.1,512.0,74.0,8.3,4,5,7,1,2026-05-10T21:28:30.238218+05:30
Mangalore,Karnataka,12.9141,74.856,28.9,89,0.0,1005.3,8.85,37.1,69,29.3,21.8,8.6,456.0,85.0,3.9,7,5,4,1,2026-05-10T21:28:30.238224+05:30
Hubli-Dharwad,Karnataka,15.3647,75.124,28.4,56,0.0,940.1,8.1,40.0,116,42.7,25.3,15.3,275.0,102.0,4.6,4,5,7,1,2026-05-10T21:28:30.238230+05:30
Belgaum,Karnataka,15.8497,74.4977,26.8,62,0.0,925.1,8.35,41.8,135,44.6,34.3,26.5,236.0,76.0,8.1,7,5,7,1,2026-05-10T21:28:33.580405+05:30
Coimbatore,Tamil Nadu,11.0168,76.9558,26.5,77,0.0,960.9,9.1,30.6,79,35.6,31.8,35.7,408.0,53.0,10.7,7,5,7,1,2026-05-10T21:28:33.580436+05:30
Madurai,Tamil Nadu,9.9252,78.1198,27.1,80,0.0,992.4,5.15,29.5,56,19.4,18.4,15.6,377.0,74.0,6.7,7,5,3,1,2026-05-10T21:28:33.580447+05:30
Trichy,Tamil Nadu,10.7905,78.7047,26.0,89,0.0,999.1,2.45,37.1,49,18.8,18.2,21.8,367.0,44.0,11.1,7,5,3,1,2026-05-10T21:28:33.580457+05:30
Salem,Tamil Nadu,11.6643,78.146,26.5,77,0.0,976.7,8.95,24.5,68,19.4,17.3,13.2,250.0,81.0,8.4,7,5,7,1,2026-05-10T21:28:33.580465+05:30
Tirunelveli,Tamil Nadu,8.7139,77.7567,26.6,94,0.2,1002.8,4.3,26.6,54,12.5,12.3,11.1,273.0,66.0,3.5,10,5,0,1,2026-05-10T21:28:33.580473+05:30
Vellore,Tamil Nadu,12.9165,79.1325,26.9,76,0.0,984.4,9.25,36.0,67,12.5,11.8,13.5,203.0,54.0,7.6,7,5,7,1,2026-05-10T21:28:33.580481+05:30
Erode,Tamil Nadu,11.341,77.7172,26.7,79,0.0,988.4,8.65,29.2,78,24.9,22.2,18.3,300.0,81.0,7.8,7,5,7,1,2026-05-10T21:28:33.580488+05:30
Kochi,Kerala,9.9312,76.2673,27.6,91,0.0,1007.7,8.75,25.9,78,17.8,17.1,19.8,373.0,65.0,5.6,7,5,4,1,2026-05-10T21:28:33.580496+05:30
Thiruvananthapuram,Kerala,8.5241,76.9366,25.5,96,0.0,1007.3,5.4,21.2,69,8.0,6.7,5.1,746.0,98.0,2.1,7,5,0,1,2026-05-10T21:28:33.580502+05:30
Kozhikode,Kerala,11.2588,75.7804,26.8,93,0.0,1006.8,8.7,33.5,62,16.4,9.9,1.7,282.0,107.0,1.0,7,5,4,1,2026-05-10T21:28:33.580509+05:30
Thrissur,Kerala,10.5276,76.2144,26.8,92,0.0,1006.1,9.0,30.2,69,23.2,21.7,18.0,378.0,65.0,3.8,7,5,4,1,2026-05-10T21:28:33.580516+05:30
Kannur,Kerala,11.8745,75.3704,27.5,90,0.0,1005.7,8.1,39.6,76,24.4,18.4,13.8,432.0,79.0,3.1,7,5,4,1,2026-05-10T21:28:33.580523+05:30
Patna,Bihar,25.5941,85.1376,26.5,66,0.0,1003.0,8.65,29.5,179,57.3,47.7,17.9,452.0,119.0,15.7,7,5,4,1,2026-05-10T21:28:33.580530+05:30
Gaya,Bihar,24.7914,85.0002,27.1,53,0.0,995.7,8.7,21.6,186,62.2,50.3,8.7,315.0,154.0,17.0,4,5,7,1,2026-05-10T21:28:33.580537+05:30
Muzaffarpur,Bihar,26.1209,85.3647,25.2,70,0.0,1003.3,8.65,34.2,157,61.0,50.5,21.5,477.0,102.0,13.8,7,5,4,1,2026-05-10T21:28:33.580544+05:30
Bhagalpur,Bihar,25.2425,87.0117,26.3,65,0.0,1004.4,8.6,24.5,175,54.9,48.0,13.8,439.0,129.0,13.3,7,5,4,1,2026-05-10T21:28:33.580550+05:30
Ranchi,Jharkhand,23.3441,85.3096,22.0,76,0.0,939.4,9.15,38.2,157,49.2,35.2,8.1,309.0,137.0,11.5,3,5,7,1,2026-05-10T21:28:33.580557+05:30
Jamshedpur,Jharkhand,22.8046,86.2029,24.5,81,0.0,993.6,8.95,49.3,179,49.8,41.3,12.1,256.0,130.0,20.1,3,5,7,1,2026-05-10T21:28:33.580563+05:30
Dhanbad,Jharkhand,23.7957,86.4304,25.5,74,0.0,982.7,8.9,30.2,211,88.5,78.9,46.5,497.0,115.0,84.2,7,5,7,1,2026-05-10T21:28:33.580570+05:30
Bokaro,Jharkhand,23.6693,86.1511,25.2,75,0.0,986.5,8.9,50.4,205,84.8,70.5,41.0,1437.0,126.0,74.9,7,5,7,1,2026-05-10T21:28:33.580577+05:30
Bhubaneswar,Odisha,20.2961,85.8245,26.1,87,0.0,1005.4,9.05,35.6,61,33.8,28.3,21.7,310.0,52.0,9.1,7,5,4,1,2026-05-10T21:28:33.580583+05:30
Cuttack,Odisha,20.4625,85.8828,25.8,88,0.0,1007.3,9.1,47.2,61,33.8,28.3,21.7,440.0,52.0,9.1,7,5,4,1,2026-05-10T21:28:33.580589+05:30
Rourkela,Odisha,22.2604,84.8536,27.1,62,0.0,986.8,8.9,25.9,166,61.0,42.6,11.7,340.0,136.0,39.8,7,5,7,1,2026-05-10T21:28:33.580596+05:30
Raipur,Chhattisgarh,21.2514,81.6296,31.6,39,0.0,973.8,8.9,27.0,204,71.0,46.3,24.7,387.0,122.0,9.6,0,5,7,0,2026-05-10T21:28:33.580602+05:30
Bhilai,Chhattisgarh,21.1938,81.3509,31.1,46,0.0,973.9,8.95,23.8,180,76.1,51.3,39.5,475.0,107.0,10.7,0,5,7,1,2026-05-10T21:28:33.580609+05:30
Guwahati,Assam,26.1158,91.7086,24.1,86,0.0,1005.3,8.65,27.7,94,65.2,54.5,21.2,555.0,48.0,4.7,3,5,4,1,2026-05-10T21:28:33.580615+05:30
Agartala,Tripura,23.8315,91.2868,24.5,92,0.0,1009.5,8.25,40.3,169,57.9,53.1,18.2,497.0,104.0,8.1,3,0,4,1,2026-05-10T21:28:33.580621+05:30
Shillong,Meghalaya,25.5788,91.8933,15.4,85,0.0,858.3,8.45,24.5,99,47.4,36.9,15.4,464.0,79.0,4.6,3,10,7,0,2026-05-10T21:28:33.580627+05:30
Imphal,Manipur,24.817,93.9368,20.5,88,0.0,926.1,7.85,23.4,98,53.2,45.2,39.5,1023.0,31.0,6.9,3,5,7,1,2026-05-10T21:28:33.580634+05:30
Aizawl,Mizoram,23.7271,92.7176,17.0,98,0.0,894.5,6.35,14.8,104,42.5,36.6,9.8,356.0,49.0,2.4,3,10,7,1,2026-05-10T21:28:33.580640+05:30
Kohima,Nagaland,25.6701,94.1077,16.0,98,0.1,857.2,8.35,26.3,71,33.1,24.9,15.5,395.0,40.0,2.0,6,10,7,0,2026-05-10T21:28:33.580647+05:30
Gangtok,Sikkim,27.3314,88.6138,13.7,84,0.0,840.0,7.7,32.4,69,21.7,16.4,13.6,374.0,88.0,1.6,3,10,7,0,2026-05-10T21:28:33.580654+05:30
Siliguri,West Bengal,26.7271,88.3953,23.2,72,0.0,996.7,8.05,26.6,104,58.3,41.2,24.5,487.0,101.0,6.7,3,5,7,1,2026-05-10T21:28:36.933259+05:30
Durgapur,West Bengal,23.5204,87.3119,24.8,84,0.0,997.9,8.9,23.4,207,154.1,139.2,55.0,886.0,110.0,86.5,3,5,7,1,2026-05-10T21:28:36.933292+05:30
Asansol,West Bengal,23.6739,86.9524,25.4,80,0.0,996.4,8.9,29.2,205,107.8,97.3,45.4,841.0,110.0,86.9,7,5,7,1,2026-05-10T21:28:36.933303+05:30
Pondicherry,Puducherry,11.9139,79.8145,27.8,86,0.0,1007.7,8.85,41.8,26,5.8,4.0,2.9,293.0,48.0,0.4,7,5,4,1,2026-05-10T21:28:36.933311+05:30
Port Blair,Andaman and Nicobar Islands,11.6234,92.7265,27.0,88,0.0,1007.9,8.1,27.0,26,3.7,2.5,0.3,162.0,57.0,0.1,7,5,4,1,2026-05-10T21:28:36.933320+05:30
Haridwar,Uttarakhand,29.9457,78.1642,24.4,71,0.0,974.6,7.5,26.3,153,114.6,67.3,24.2,451.0,114.0,10.9,3,5,7,1,2026-05-10T21:28:36.933328+05:30
Rishikesh,Uttarakhand,30.0869,78.2676,23.0,73,0.0,967.2,7.55,25.2,155,83.8,46.4,9.1,441.0,141.0,5.3,3,5,7,1,2026-05-10T21:28:36.933334+05:30
Nainital,Uttarakhand,29.3919,79.4542,12.9,90,0.0,805.9,7.4,28.8,151,58.3,42.5,14.9,359.0,127.0,7.0,3,10,7,0,2026-05-10T21:28:36.933342+05:30
Mussoorie,Uttarakhand,30.4599,78.0664,13.6,93,0.0,803.2,7.95,37.8,151,93.6,52.2,19.1,415.0,131.0,12.5,3,10,7,0,2026-05-10T21:28:36.933350+05:30
Dharamshala,Himachal Pradesh,32.219,76.3234,20.7,69,0.0,870.0,7.7,35.6,136,126.7,53.1,12.5,398.0,118.0,4.9,3,5,7,0,2026-05-10T21:28:36.933358+05:30
Dalhousie,Himachal Pradesh,32.5387,75.971,14.0,91,0.0,804.5,7.95,37.1,154,205.4,72.4,34.0,674.0,104.0,7.7,3,10,7,0,2026-05-10T21:28:36.933366+05:30
Patiala,Punjab,30.3398,76.3869,28.4,55,0.0,978.0,7.55,34.9,382,540.2,95.0,11.0,527.0,128.0,8.8,4,5,7,1,2026-05-10T21:28:36.933374+05:30
Bhatinda,Punjab,30.211,74.9455,33.2,35,0.0,982.5,8.25,30.2,406,486.2,104.3,10.8,511.0,131.0,14.9,0,5,7,0,2026-05-10T21:28:36.933380+05:30
Rohtak,Haryana,28.8955,76.6066,29.2,49,0.0,981.7,7.65,30.6,336,532.7,96.6,24.8,427.0,146.0,27.7,4,5,7,1,2026-05-10T21:28:36.933388+05:30
Panipat,Haryana,29.3909,76.9635,27.4,61,0.0,980.4,7.5,32.8,594,1110.1,139.2,12.8,517.0,133.0,11.7,7,5,7,1,2026-05-10T21:28:36.933394+05:30
Mathura,Uttar Pradesh,27.4924,77.6737,28.8,54,0.0,986.6,7.9,27.4,458,364.1,74.3,23.1,525.0,103.0,11.5,4,5,7,1,2026-05-10T21:28:36.933402+05:30
Vrindavan,Uttar Pradesh,27.5823,77.7027,29.0,52,0.0,987.2,7.9,27.7,458,364.1,74.3,23.1,587.0,103.0,11.5,4,5,7,1,2026-05-10T21:28:36.933409+05:30
Ayodhya,Uttar Pradesh,26.7922,82.1998,27.6,53,0.0,997.0,8.2,37.1,145,58.4,48.3,28.4,374.0,94.0,11.5,4,5,7,1,2026-05-10T21:28:36.933416+05:30
Ratlam,Madhya Pradesh,23.3315,75.0367,33.4,19,0.0,952.6,8.5,38.2,130,44.1,23.9,5.1,276.0,113.0,7.2,0,5,7,0,2026-05-10T21:28:36.933423+05:30
Sagar,Madhya Pradesh,23.8388,78.7378,30.1,37,0.0,949.7,8.65,37.1,129,73.8,29.2,3.8,315.0,132.0,5.5,0,5,7,0,2026-05-10T21:28:36.933430+05:30
Satna,Madhya Pradesh,24.6005,80.8322,29.5,39,0.0,971.4,8.65,37.1,186,44.0,31.2,5.9,324.0,167.0,10.2,4,5,7,0,2026-05-10T21:28:36.933436+05:30
Akola,Maharashtra,20.7002,77.0082,33.8,20,0.0,971.7,8.85,42.1,132,63.8,36.8,34.2,272.0,82.0,12.0,0,5,7,0,2026-05-10T21:28:36.933444+05:30
Amravati,Maharashtra,20.9374,77.7796,33.0,23,0.0,964.8,8.85,40.3,139,63.1,35.2,33.6,252.0,80.0,8.2,0,5,7,0,2026-05-10T21:28:36.933451+05:30
Latur,Maharashtra,18.4088,76.5604,31.9,26,0.0,937.9,9.05,41.0,132,46.0,31.5,22.0,269.0,97.0,12.2,0,5,7,0,2026-05-10T21:28:36.933458+05:30
Nanded,Maharashtra,19.1383,77.3091,32.2,29,0.0,966.3,9.0,36.7,139,54.2,34.0,21.8,298.0,85.0,7.3,0,5,7,0,2026-05-10T21:28:36.933465+05:30
Gulbarga,Karnataka,17.3297,76.8343,33.1,31,0.0,956.8,9.1,31.7,125,35.3,22.8,15.3,249.0,102.0,6.4,0,5,7,0,2026-05-10T21:28:36.933471+05:30
Bidar,Karnataka,17.9104,77.5199,29.9,38,0.0,934.0,9.1,32.4,115,50.4,32.1,20.8,301.0,98.0,6.0,4,5,7,0,2026-05-10T21:28:36.933477+05:30
Hospet,Karnataka,15.2689,76.3909,30.3,42,0.0,954.6,8.85,35.3,110,49.0,28.4,16.6,462.0,104.0,10.5,0,5,7,0,2026-05-10T21:28:36.933484+05:30
Tirupur,Tamil Nadu,11.1085,77.3411,27.0,74,0.0,974.4,9.15,24.8,94,38.6,35.6,40.3,257.0,69.0,12.9,7,5,7,1,2026-05-10T21:28:36.933490+05:30
Alappuzha,Kerala,9.4981,76.3388,26.9,93,0.0,1007.8,7.8,23.8,58,17.1,15.4,18.1,246.0,69.0,5.2,7,5,4,1,2026-05-10T21:28:36.933497+05:30
Munnar,Kerala,10.0889,77.0595,18.4,87,0.0,856.2,9.2,23.4,42,18.6,17.9,15.3,298.0,51.0,3.5,3,10,7,1,2026-05-10T21:28:36.933504+05:30
Silchar,Assam,24.8333,92.7789,25.7,82,0.0,1008.1,7.95,19.1,147,91.5,79.6,22.9,607.0,73.0,15.2,7,0,4,1,2026-05-10T21:28:36.933512+05:30
Dibrugarh,Assam,27.4728,94.912,23.0,89,0.0,998.7,8.8,38.2,91,35.5,31.3,15.7,542.0,74.0,3.4,3,5,7,1,2026-05-10T21:28:36.933518+05:30
