city,state,latitude,longitude,temp,humidity,rain,pressure,uv_index,wind_gusts,aqi,pm10,pm2_5,no2,co,o3,so2,mosquito_risk,arthritis_risk,migraine_risk,frizz_risk,updated_at
Delhi,Delhi,28.6139,77.209,26.5,96,0.1,975.3,7.0,36.7,98,25.7,25.6,34.9,1064.0,74.0,18.9,10,5,7,1,2026-07-24T20:27:25.045017+05:30
Mumbai,Maharashtra,19.076,72.8777,28.0,81,0.0,1002.7,7.55,64.8,61,23.6,12.2,8.3,174.0,42.0,5.1,7,5,4,1,2026-07-24T20:27:25.045061+05:30
Bangalore,Karnataka,12.9716,77.5946,23.4,76,0.0,911.0,8.9,51.8,54,30.3,18.7,19.7,415.0,43.0,4.5,3,5,7,1,2026-07-24T20:27:25.045076+05:30
Hyderabad,Telangana,17.385,78.4867,26.8,68,0.0,949.5,8.65,65.5,64,24.8,14.8,7.8,340.0,66.0,3.8,7,5,7,1,2026-07-24T20:27:25.045085+05:30
Chennai,Tamil Nadu,13.0827,80.2707,29.6,80,0.0,1005.1,7.95,35.3,90,30.4,20.2,15.1,348.0,88.0,8.0,7,5,4,1,2026-07-24T20:27:25.045094+05:30
Kolkata,West Bengal,22.5726,88.3639,25.5,97,0.1,1000.3,6.3,28.4,71,26.9,24.6,12.0,716.0,80.0,8.6,10,5,4,1,2026-07-24T20:27:25.045102+05:30
Pune,Maharashtra,18.5204,73.8567,23.5,89,0.1,942.9,5.0,62.6,22,7.6,4.9,6.4,151.0,36.0,3.5,6,5,3,1,2026-07-24T20:27:25.045109+05:30
Ahmedabad,Gujarat,23.0225,72.5714,25.7,94,0.2,991.3,1.45,45.0,41,15.1,8.6,13.7,194.0,37.0,4.1,10,5,3,1,2026-07-24T20:27:25.045116+05:30
Jaipur,Rajasthan,26.9124,75.7873,28.5,73,0.0,951.0,7.2,33.5,68,12.6,12.5,12.9,301.0,83.0,6.9,7,5,7,1,2026-07-24T20:27:25.045122+05:30
Lucknow,Uttar Pradesh,26.8467,80.9462,27.1,96,0.0,987.7,8.0,25.9,68,25.7,25.4,17.4,283.0,66.0,9.3,7,5,7,1,2026-07-24T20:27:25.045133+05:30
Kanpur,Uttar Pradesh,26.4499,80.3319,30.0,77,0.0,985.2,7.55,28.1,58,18.4,18.0,11.0,242.0,80.0,6.3,7,5,7,1,2026-07-24T20:27:25.045140+05:30
Chandigarh,Chandigarh,30.7333,76.7794,28.3,83,0.0,962.3,7.4,31.7,141,31.3,31.2,21.9,476.0,104.0,8.4,7,5,7,1,2026-07-24T20:27:25.045147+05:30
Srinagar,Jammu and Kashmir,34.0837,74.7973,19.9,85,0.0,837.5,6.1,14.8,77,16.6,16.5,22.2,1019.0,62.0,4.8,3,10,7,1,2026-07-24T20:27:25.045154+05:30
Jammu,Jammu and Kashmir,32.7266,74.857,28.3,76,0.0,964.5,8.35,31.7,95,30.2,29.7,32.5,705.0,73.0,5.2,7,5,7,1,2026-07-24T20:27:25.045160+05:30
Amritsar,Punjab,31.634,74.8723,28.8,87,0.0,973.0,8.35,29.5,113,41.1,41.0,27.7,810.0,87.0,7.2,7,5,7,1,2026-07-24T20:27:25.045169+05:30
Ludhiana,Punjab,30.901,75.8573,29.5,82,0.0,971.3,7.85,32.4,129,39.9,39.8,17.4,480.0,108.0,9.2,7,5,7,1,2026-07-24T20:27:25.045176+05:30
Jalandhar,Punjab,31.326,75.5762,28.9,84,0.0,972.3,8.05,22.7,143,44.6,44.5,26.1,557.0,95.0,8.1,7,5,7,1,2026-07-24T20:27:25.045182+05:30
Dehradun,Uttarakhand,30.6284,78.0322,19.1,98,0.0,827.0,7.55,27.0,54,4.6,4.6,11.2,188.0,90.0,1.3,3,10,7,1,2026-07-24T20:27:25.045189+05:30
Shimla,Himachal Pradesh,31.1048,77.1734,16.2,98,0.0,781.0,6.15,24.1,59,7.2,7.2,19.0,387.0,86.0,2.5,3,10,7,0,2026-07-24T20:27:25.045195+05:30
Manali,Himachal Pradesh,32.2396,77.1887,20.4,96,0.1,816.2,9.4,29.2,44,5.0,4.9,24.8,176.0,58.0,0.3,6,5,7,1,2026-07-24T20:27:25.045204+05:30
Gurgaon,Haryana,28.4595,77.0266,26.6,96,0.1,973.5,6.75,40.0,87,24.0,23.8,30.8,927.0,81.0,13.9,10,5,7,1,2026-07-24T20:27:25.045213+05:30
Noida,Uttar Pradesh,28.5355,77.391,27.6,94,0.0,976.7,6.1,37.8,87,24.0,23.8,30.8,540.0,81.0,13.9,7,5,7,1,2026-07-24T20:27:25.045220+05:30
Ghaziabad,Uttar Pradesh,28.6692,77.4538,28.2,92,0.0,975.2,5.3,40.7,78,19.2,19.1,12.1,285.0,87.0,6.9,7,5,3,1,2026-07-24T20:27:25.045226+05:30
Faridabad,Haryana,28.4089,77.3178,27.0,94,0.0,976.0,5.55,38.9,87,24.0,23.8,30.8,710.0,81.0,13.9,7,5,3,1,2026-07-24T20:27:25.045232+05:30
Meerut,Uttar Pradesh,28.9845,77.7064,27.8,91,0.0,974.5,6.25,46.8,78,19.2,19.1,12.1,346.0,87.0,6.9,7,5,7,1,2026-07-24T20:27:25.045239+05:30
Agra,Uttar Pradesh,27.1767,78.0081,30.1,74,0.0,979.7,6.7,32.0,78,21.5,20.5,21.8,277.0,66.0,8.1,3,5,7,1,2026-07-24T20:27:25.045245+05:30
Varanasi,Uttar Pradesh,25.3176,82.9739,28.5,91,0.0,991.9,7.5,21.2,81,36.3,35.6,14.1,1009.0,91.0,10.8,7,5,7,1,2026-07-24T20:27:25.045251+05:30
Prayagraj,Uttar Pradesh,25.4358,81.8463,29.9,79,0.0,990.1,8.45,19.4,72,34.2,33.5,22.3,348.0,79.0,12.5,7,5,7,1,2026-07-24T20:27:25.045258+05:30
Gorakhpur,Uttar Pradesh,26.7606,83.3732,26.7,95,0.0,992.1,6.9,27.4,97,42.3,42.3,23.2,393.0,59.0,7.4,7,5,7,1,2026-07-24T20:27:25.045264+05:30
Bareilly,Uttar Pradesh,28.367,79.4304,26.4,95,0.0,980.8,6.8,40.7,79,22.4,22.4,10.7,341.0,81.0,5.4,7,5,7,1,2026-07-24T20:27:25.045272+05:30
Aligarh,Uttar Pradesh,27.8974,78.088,29.9,75,0.0,977.9,5.4,35.6,82,20.5,19.6,12.2,216.0,86.0,7.2,7,5,3,1,2026-07-24T20:27:25.045278+05:30
Moradabad,Uttar Pradesh,28.8386,78.7733,27.7,90,0.0,977.7,7.1,47.2,83,23.3,23.3,10.1,361.0,94.0,7.6,7,5,7,1,2026-07-24T20:27:25.045284+05:30
Saharanpur,Uttar Pradesh,29.9637,77.546,28.4,86,0.0,969.4,7.25,49.0,90,26.1,26.1,12.2,386.0,100.0,7.1,7,5,7,1,2026-07-24T20:27:25.045291+05:30
Jhansi,Uttar Pradesh,25.4484,78.5685,29.4,73,0.0,970.5,7.0,38.2,55,9.5,8.5,11.5,175.0,60.0,5.3,7,5,7,1,2026-07-24T20:27:28.323568+05:30
Surat,Gujarat,21.1702,72.8311,25.7,94,0.1,998.6,5.75,55.8,65,32.4,19.5,22.1,258.0,32.0,33.6,10,5,3,1,2026-07-24T20:27:28.323600+05:30
Vadodara,Gujarat,22.3072,73.1812,26.2,87,0.0,994.9,2.0,50.4,36,11.0,8.4,12.8,203.0,40.0,5.1,7,5,3,1,2026-07-24T20:27:28.323610+05:30
Rajkot,Gujarat,22.3039,70.8022,25.2,95,1.4,983.7,0.9,54.7,38,22.9,11.1,7.4,122.0,46.0,4.6,10,5,3,1,2026-07-24T20:27:28.323620+05:30
Thane,Maharashtra,19.2183,72.9781,25.8,92,0.1,1002.2,7.65,54.0,61,23.6,12.2,8.3,192.0,42.0,5.1,10,5,4,1,2026-07-24T20:27:28.323629+05:30
Nagpur,Maharashtra,21.1458,79.0882,25.9,86,0.0,967.8,8.5,42.8,53,15.9,11.7,12.5,219.0,56.0,10.2,7,5,7,1,2026-07-24T20:27:28.323638+05:30
Nashik,Maharashtra,19.9975,73.7898,22.5,96,0.1,938.8,6.65,61.2,25,11.0,6.2,7.3,128.0,41.0,3.8,6,5,7,1,2026-07-24T20:27:28.323646+05:30
Aurangabad,Maharashtra,19.8762,75.3433,25.3,78,0.0,938.3,6.55,60.5,33,7.8,5.0,4.7,129.0,52.0,5.4,7,5,7,1,2026-07-24T20:27:28.323654+05:30
Solapur,Maharashtra,17.6599,75.9064,26.5,70,0.0,953.7,5.95,64.4,34,11.0,6.4,2.9,113.0,47.0,1.6,7,5,3,1,2026-07-24T20:27:28.323662+05:30
Kolhapur,Maharashtra,16.705,74.2433,22.6,95,0.1,945.1,8.9,67.0,28,8.8,6.0,4.6,129.0,36.0,1.7,6,5,7,1,2026-07-24T20:27:28.323669+05:30
Goa,Goa,15.2993,74.124,23.9,97,0.2,998.0,8.65,38.2,79,18.1,10.2,2.7,171.0,38.0,1.0,6,5,7,1,2026-07-24T20:27:28.323677+05:30
Jodhpur,Rajasthan,26.2389,73.0243,28.0,88,0.0,972.5,7.3,28.1,98,19.9,18.8,9.7,334.0,107.0,2.2,7,5,7,1,2026-07-24T20:27:28.323685+05:30
Udaipur,Rajasthan,24.5854,73.7125,25.2,89,0.1,936.3,7.2,29.9,52,5.7,5.6,7.6,256.0,64.0,4.1,10,5,7,1,2026-07-24T20:27:28.323692+05:30
Kota,Rajasthan,25.2138,75.8648,28.3,73,0.0,969.7,7.5,44.3,56,5.7,5.6,6.0,245.0,87.0,4.8,7,5,7,1,2026-07-24T20:27:28.323700+05:30
Bikaner,Rajasthan,28.0229,73.3119,28.6,86,0.0,972.3,8.0,30.2,117,23.6,22.7,5.5,301.0,122.0,5.2,7,5,7,1,2026-07-24T20:27:28.323708+05:30
Ajmer,Rajasthan,26.4499,74.6399,26.4,90,0.0,945.2,8.1,33.1,76,14.4,14.3,8.0,304.0,91.0,3.2,7,5,7,1,2026-07-24T20:27:28.323715+05:30
Gwalior,Madhya Pradesh,26.2183,78.1828,29.3,72,0.0,975.1,7.2,32.8,61,9.7,9.5,10.8,188.0,65.0,4.1,7,5,7,1,2026-07-24T20:27:28.323723+05:30
Indore,Madhya Pradesh,22.7196,75.8577,25.6,83,0.0,940.2,6.35,52.6,40,21.5,13.4,8.8,243.0,65.0,6.2,7,5,7,1,2026-07-24T20:27:28.323730+05:30
Bhopal,Madhya Pradesh,23.2599,77.4126,26.1,84,0.0,946.6,8.1,43.6,38,9.9,7.3,4.7,216.0,66.0,3.3,7,5,7,1,2026-07-24T20:27:28.323758+05:30
Jabalpur,Madhya Pradesh,23.1815,79.9864,27.2,80,0.0,955.8,7.75,30.6,51,12.0,9.2,6.2,178.0,63.0,3.7,7,5,7,1,2026-07-24T20:27:28.323767+05:30
Ujjain,Madhya Pradesh,23.1765,75.7885,26.1,79,0.0,945.5,4.95,58.3,36,19.0,11.4,4.9,178.0,67.0,3.9,7,5,3,1,2026-07-24T20:27:28.323775+05:30
Visakhapatnam,Andhra Pradesh,17.6868,83.2185,29.6,69,0.0,998.6,8.6,43.2,76,31.0,21.8,16.7,277.0,68.0,30.4,7,5,7,1,2026-07-24T20:27:28.323783+05:30
Vijayawada,Andhra Pradesh,16.5062,80.648,30.3,66,0.0,998.9,8.8,46.4,73,34.9,25.3,19.0,348.0,35.0,7.7,3,5,7,1,2026-07-24T20:27:28.323791+05:30
Guntur,Andhra Pradesh,16.3067,80.4365,31.5,54,0.0,1000.2,9.0,47.5,73,32.5,24.3,22.2,239.0,32.0,7.8,0,5,4,1,2026-07-24T20:27:28.323799+05:30
Nellore,Andhra Pradesh,14.4426,79.9865,32.6,48,0.0,1002.9,8.5,43.9,72,44.4,22.4,4.7,149.0,72.0,1.8,0,5,4,1,2026-07-24T20:27:28.323807+05:30
Kurnool,Andhra Pradesh,15.8281,78.0373,28.3,63,0.0,974.4,6.85,51.1,63,18.3,10.3,3.8,131.0,59.0,1.6,7,5,7,1,2026-07-24T20:27:28.323815+05:30
Kakinada,Andhra Pradesh,16.9891,82.2475,30.0,74,0.0,1003.4,9.0,63.0,71,27.6,17.3,6.8,215.0,74.0,4.4,7,5,4,1,2026-07-24T20:27:28.323822+05:30
Tirupati,Andhra Pradesh,13.6288,79.4192,30.2,62,0.0,988.9,8.0,33.5,70,44.8,23.3,17.6,224.0,43.0,2.2,3,5,7,1,2026-07-24T20:27:28.323829+05:30
Warangal,Telangana,17.9689,79.5941,28.1,68,0.0,974.7,8.7,51.1,68,26.8,18.0,11.1,224.0,54.0,3.8,7,5,7,1,2026-07-24T20:27:28.323837+05:30
Nizamabad,Telangana,18.6725,78.0941,27.2,74,0.0,960.1,7.45,52.9,52,21.4,11.7,7.3,152.0,48.0,3.2,7,5,7,1,2026-07-24T20:27:28.323844+05:30
Mysore,Karnataka,12.2958,76.6396,23.9,76,0.0,928.5,8.6,45.0,54,41.6,21.1,7.6,184.0,60.0,1.8,3,5,7,1,2026-07-24T20:27:28.323851+05:30
Mangalore,Karnataka,12.9141,74.856,24.8,98,0.4,1007.4,8.7,40.3,56,23.1,11.5,6.2,202.0,35.0,1.7,6,5,4,1,2026-07-24T20:27:28.323858+05:30
Hubli-Dharwad,Karnataka,15.3647,75.124,22.6,92,0.0,939.3,8.7,63.7,51,6.0,4.2,4.9,129.0,37.0,1.1,3,5,7,1,2026-07-24T20:27:28.323865+05:30
Belgaum,Karnataka,15.8497,74.4977,21.3,96,0.0,923.5,9.0,63.0,39,9.1,5.6,3.6,111.0,35.0,1.4,3,5,7,1,2026-07-24T20:27:31.618767+05:30
Coimbatore,Tamil Nadu,11.0168,76.9558,25.1,85,0.1,961.2,8.95,47.9,41,28.1,15.1,7.5,182.0,51.0,3.0,10,5,7,1,2026-07-24T20:27:31.618801+05:30
Madurai,Tamil Nadu,9.9252,78.1198,30.8,59,0.0,991.8,8.85,28.8,63,26.1,16.1,18.6,174.0,73.0,4.8,0,5,7,1,2026-07-24T20:27:31.618817+05:30
Trichy,Tamil Nadu,10.7905,78.7047,32.8,49,0.0,998.2,8.75,44.3,48,24.3,15.9,19.5,178.0,47.0,4.6,0,5,7,1,2026-07-24T20:27:31.618827+05:30
Salem,Tamil Nadu,11.6643,78.146,29.7,58,0.0,976.5,8.35,35.3,59,27.1,18.3,22.9,334.0,56.0,9.8,4,5,7,1,2026-07-24T20:27:31.618836+05:30
Tirunelveli,Tamil Nadu,8.7139,77.7567,31.0,54,0.0,1001.8,8.75,46.1,39,9.9,7.1,4.3,131.0,56.0,2.1,0,5,4,1,2026-07-24T20:27:31.618843+05:30
Vellore,Tamil Nadu,12.9165,79.1325,26.6,93,0.0,982.9,7.4,37.8,75,33.9,21.9,18.5,341.0,52.0,4.1,7,5,7,1,2026-07-24T20:27:31.618851+05:30
Erode,Tamil Nadu,11.341,77.7172,29.1,67,0.0,988.5,8.5,41.0,51,24.4,15.7,16.3,190.0,57.0,3.3,7,5,7,1,2026-07-24T20:27:31.618859+05:30
Kochi,Kerala,9.9312,76.2673,27.3,88,0.0,1009.4,8.55,33.5,56,16.0,12.7,16.8,152.0,31.0,4.8,7,0,4,1,2026-07-24T20:27:31.618867+05:30
Thiruvananthapuram,Kerala,8.5241,76.9366,27.1,85,0.0,1008.6,8.55,41.4,51,14.8,9.5,5.6,125.0,49.0,1.6,7,0,4,1,2026-07-24T20:27:31.618875+05:30
Kozhikode,Kerala,11.2588,75.7804,25.9,93,0.0,1008.6,8.65,37.1,38,15.1,7.4,1.7,190.0,48.0,1.1,7,0,4,1,2026-07-24T20:27:31.618882+05:30
Thrissur,Kerala,10.5276,76.2144,26.4,91,0.0,1007.7,8.65,34.6,52,16.1,12.1,8.8,164.0,38.0,3.0,7,5,4,1,2026-07-24T20:27:31.618890+05:30
Kannur,Kerala,11.8745,75.3704,26.2,91,0.0,1007.7,8.7,35.3,50,20.1,11.4,11.5,269.0,29.0,2.0,7,5,4,1,2026-07-24T20:27:31.618897+05:30
Patna,Bihar,25.5941,85.1376,27.2,95,0.1,995.7,5.7,21.6,116,44.1,44.0,20.4,410.0,92.0,14.2,10,5,3,1,2026-07-24T20:27:31.618904+05:30
Gaya,Bihar,24.7914,85.0002,27.6,95,0.0,988.7,8.15,24.5,112,46.8,46.7,15.0,406.0,115.0,12.5,7,5,7,1,2026-07-24T20:27:31.618911+05:30
Muzaffarpur,Bihar,26.1209,85.3647,27.0,94,0.1,995.7,6.65,26.3,95,43.8,43.5,23.2,539.0,79.0,11.7,10,5,7,1,2026-07-24T20:27:31.618919+05:30
Bhagalpur,Bihar,25.2425,87.0117,28.0,93,0.0,996.0,6.35,25.6,83,24.7,24.5,13.9,319.0,80.0,8.4,7,5,7,1,2026-07-24T20:27:31.618926+05:30
Ranchi,Jharkhand,23.3441,85.3096,23.5,96,0.0,932.8,6.45,31.7,58,18.0,17.6,13.9,299.0,56.0,6.5,3,5,7,1,2026-07-24T20:27:31.618933+05:30
Jamshedpur,Jharkhand,22.8046,86.2029,26.4,97,0.1,985.5,7.15,32.0,70,16.5,15.8,12.9,530.0,65.0,13.3,10,5,7,1,2026-07-24T20:27:31.618941+05:30
Dhanbad,Jharkhand,23.7957,86.4304,26.1,96,0.0,974.4,6.6,29.2,90,42.7,42.6,37.2,302.0,66.0,98.7,7,5,7,1,2026-07-24T20:27:31.618948+05:30
Bokaro,Jharkhand,23.6693,86.1511,25.7,95,0.0,978.2,8.25,39.6,82,44.4,44.1,37.3,300.0,63.0,107.1,7,5,7,1,2026-07-24T20:27:31.618956+05:30
Bhubaneswar,Odisha,20.2961,85.8245,26.5,97,0.0,997.5,8.75,37.4,71,27.8,24.2,13.0,430.0,68.0,5.4,7,5,7,1,2026-07-24T20:27:31.618963+05:30
Cuttack,Odisha,20.4625,85.8828,26.6,94,0.0,999.3,8.5,41.0,71,27.8,24.2,13.0,441.0,68.0,5.4,7,5,7,1,2026-07-24T20:27:31.618970+05:30
Rourkela,Odisha,22.2604,84.8536,27.7,84,0.0,979.7,8.15,38.5,70,34.9,32.9,14.8,898.0,80.0,15.6,7,5,7,1,2026-07-24T20:27:31.618978+05:30
Raipur,Chhattisgarh,21.2514,81.6296,27.6,78,0.0,969.7,7.1,44.3,73,21.9,19.6,24.9,557.0,50.0,41.7,7,5,7,1,2026-07-24T20:27:31.618985+05:30
Bhilai,Chhattisgarh,21.1938,81.3509,27.4,80,0.0,970.2,7.95,49.3,70,21.9,18.5,21.6,690.0,53.0,36.3,7,5,7,1,2026-07-24T20:27:31.618992+05:30
Guwahati,Assam,26.1158,91.7086,26.9,96,0.0,997.3,8.35,19.8,53,11.9,11.8,9.4,286.0,44.0,1.8,7,5,7,1,2026-07-24T20:27:31.618999+05:30
Agartala,Tripura,23.8315,91.2868,26.6,87,0.0,1002.1,7.35,35.6,51,10.8,10.4,8.7,195.0,53.0,2.2,7,5,4,1,2026-07-24T20:27:31.619007+05:30
Shillong,Meghalaya,25.5788,91.8933,20.4,88,0.0,855.4,5.85,31.0,34,6.7,6.5,8.6,310.0,53.0,2.1,3,5,3,1,2026-07-24T20:27:31.619014+05:30
Imphal,Manipur,24.817,93.9368,24.0,89,0.0,920.6,9.05,20.2,40,19.2,18.7,20.6,524.0,37.0,3.4,3,5,7,1,2026-07-24T20:27:31.619022+05:30
Aizawl,Mizoram,23.7271,92.7176,20.8,86,0.0,889.8,8.5,34.6,27,5.8,4.8,5.9,135.0,34.0,0.7,3,5,7,1,2026-07-24T20:27:31.619028+05:30
Kohima,Nagaland,25.6701,94.1077,20.5,95,0.0,853.7,8.65,20.9,31,10.0,9.7,16.4,318.0,36.0,1.6,3,5,7,1,2026-07-24T20:27:31.619035+05:30
Gangtok,Sikkim,27.3314,88.6138,18.9,97,0.0,836.3,7.5,32.4,43,4.2,4.1,5.7,217.0,87.0,1.5,3,10,7,1,2026-07-24T20:27:31.619042+05:30
Siliguri,West Bengal,26.7271,88.3953,27.1,92,0.0,988.9,7.65,27.7,64,17.9,17.2,10.3,598.0,85.0,4.1,7,5,7,1,2026-07-24T20:27:34.899097+05:30
Durgapur,West Bengal,23.5204,87.3119,26.2,97,0.1,989.4,7.9,27.4,118,64.5,64.3,31.7,864.0,101.0,48.7,10,5,7,1,2026-07-24T20:27:34.899131+05:30
Asansol,West Bengal,23.6739,86.9524,26.7,95,0.2,987.7,8.05,25.9,89,39.5,39.3,30.0,465.0,87.0,37.7,10,5,7,1,2026-07-24T20:27:34.899143+05:30
Pondicherry,Puducherry,11.9139,79.8145,28.9,84,0.0,1006.6,8.2,41.4,90,27.5,19.8,7.0,196.0,107.0,4.1,7,5,4,1,2026-07-24T20:27:34.899152+05:30
Port Blair,Andaman and Nicobar Islands,11.6234,92.7265,27.5,80,0.0,1006.8,8.75,44.6,41,15.7,9.3,0.4,101.0,43.0,0.4,7,5,4,1,2026-07-24T20:27:34.899159+05:30
Haridwar,Uttarakhand,29.9457,78.1642,28.3,83,0.0,967.9,6.3,39.2,87,20.4,20.3,7.6,326.0,104.0,6.0,7,5,7,1,2026-07-24T20:27:34.899167+05:30
Rishikesh,Uttarakhand,30.0869,78.2676,27.3,94,0.0,960.7,6.0,25.9,74,14.0,14.0,4.9,331.0,102.0,3.3,7,5,3,1,2026-07-24T20:27:34.899175+05:30
Nainital,Uttarakhand,29.3919,79.4542,17.3,99,0.0,802.5,7.6,45.0,60,16.0,16.0,6.5,257.0,86.0,2.6,3,10,7,1,2026-07-24T20:27:34.899183+05:30
Mussoorie,Uttarakhand,30.4599,78.0664,17.4,99,0.0,800.0,6.1,33.5,74,16.1,16.1,10.7,279.0,96.0,3.6,3,10,7,1,2026-07-24T20:27:34.899191+05:30
Dharamshala,Himachal Pradesh,32.219,76.3234,21.7,91,0.0,864.4,6.9,32.0,47,7.5,7.5,5.9,353.0,87.0,0.9,3,5,7,1,2026-07-24T20:27:34.899199+05:30
Dalhousie,Himachal Pradesh,32.5387,75.971,18.0,95,0.0,800.5,8.6,30.2,83,18.7,18.5,15.2,467.0,105.0,2.4,3,10,7,1,2026-07-24T20:27:34.899207+05:30
Patiala,Punjab,30.3398,76.3869,28.4,85,0.0,970.9,7.3,38.9,108,26.1,26.0,13.1,378.0,100.0,7.1,7,5,7,1,2026-07-24T20:27:34.899214+05:30
Bhatinda,Punjab,30.211,74.9455,28.8,85,0.0,975.6,7.95,36.0,146,28.8,28.8,17.5,411.0,89.0,5.9,7,5,7,1,2026-07-24T20:27:34.899222+05:30
Rohtak,Haryana,28.8955,76.6066,27.1,94,0.1,974.0,4.5,34.6,128,23.4,23.1,22.2,463.0,101.0,14.8,10,5,3,1,2026-07-24T20:27:34.899229+05:30
Panipat,Haryana,29.3909,76.9635,28.5,87,0.0,973.1,5.6,45.4,118,20.7,20.7,13.1,376.0,99.0,9.3,7,5,3,1,2026-07-24T20:27:34.899236+05:30
Mathura,Uttar Pradesh,27.4924,77.6737,30.3,71,0.0,978.7,6.5,33.1,80,19.4,18.9,21.2,255.0,76.0,5.4,3,5,7,1,2026-07-24T20:27:34.899243+05:30
Vrindavan,Uttar Pradesh,27.5823,77.7027,30.3,71,0.0,979.2,6.5,32.4,80,19.4,18.9,21.2,258.0,76.0,5.4,3,5,7,1,2026-07-24T20:27:34.899251+05:30
Ayodhya,Uttar Pradesh,26.7922,82.1998,27.6,94,0.0,990.1,7.1,22.7,93,35.5,35.5,12.3,420.0,93.0,7.4,7,5,7,1,2026-07-24T20:27:34.899259+05:30
Ratlam,Madhya Pradesh,23.3315,75.0367,25.3,83,0.0,946.0,4.75,54.0,35,16.5,9.8,3.6,136.0,69.0,4.1,7,5,3,1,2026-07-24T20:27:34.899266+05:30
Sagar,Madhya Pradesh,23.8388,78.7378,26.5,81,0.0,943.9,7.55,36.0,36,9.9,6.8,4.1,145.0,64.0,2.5,7,5,7,1,2026-07-24T20:27:34.899273+05:30
Satna,Madhya Pradesh,24.6005,80.8322,28.6,79,0.0,965.5,7.25,29.9,46,11.8,11.4,12.1,239.0,53.0,3.2,7,5,7,1,2026-07-24T20:27:34.899280+05:30
Akola,Maharashtra,20.7002,77.0082,26.9,80,0.0,968.6,7.55,47.5,32,15.5,10.2,8.5,172.0,58.0,4.4,7,5,7,1,2026-07-24T20:27:34.899288+05:30
Amravati,Maharashtra,20.9374,77.7796,25.9,88,0.0,961.5,7.5,51.1,34,14.7,9.6,9.6,169.0,55.0,4.8,7,5,7,1,2026-07-24T20:27:34.899296+05:30
Latur,Maharashtra,18.4088,76.5604,25.8,72,0.0,935.7,6.3,63.7,29,9.7,5.5,2.5,129.0,48.0,1.3,7,5,7,1,2026-07-24T20:27:34.899304+05:30
Nanded,Maharashtra,19.1383,77.3091,26.4,81,0.0,963.6,7.05,52.9,37,15.6,9.6,7.4,170.0,49.0,2.9,7,5,7,1,2026-07-24T20:27:34.899311+05:30
Gulbarga,Karnataka,17.3297,76.8343,27.3,65,0.0,955.4,6.7,58.3,54,11.8,6.7,4.1,134.0,52.0,1.9,7,5,7,1,2026-07-24T20:27:34.899318+05:30
Bidar,Karnataka,17.9104,77.5199,27.0,63,0.0,931.8,4.25,60.1,53,21.0,11.3,6.3,150.0,52.0,1.7,7,5,3,1,2026-07-24T20:27:34.899325+05:30
Hospet,Karnataka,15.2689,76.3909,25.1,76,0.0,954.6,8.95,59.0,53,8.4,5.2,4.3,124.0,42.0,1.5,7,5,7,1,2026-07-24T20:27:34.899332+05:30
Tirupur,Tamil Nadu,11.1085,77.3411,25.1,89,0.2,974.6,8.9,46.1,54,25.9,16.7,18.1,177.0,51.0,4.2,10,5,7,1,2026-07-24T20:27:34.899340+05:30
Alappuzha,Kerala,9.4981,76.3388,27.6,87,0.0,1009.4,8.65,31.7,56,15.2,10.9,10.8,91.0,43.0,3.6,7,0,4,1,2026-07-24T20:27:34.899347+05:30
Munnar,Kerala,10.0889,77.0595,17.0,98,0.0,856.9,9.05,36.0,33,11.4,7.8,7.3,120.0,43.0,1.9,3,10,7,1,2026-07-24T20:27:34.899355+05:30
Silchar,Assam,24.8333,92.7789,27.1,93,0.0,1001.6,8.75,20.9,55,18.3,16.7,7.0,400.0,73.0,5.4,7,5,4,1,2026-07-24T20:27:34.899363+05:30
Dibrugarh,Assam,27.4728,94.912,28.9,85,0.0,991.0,8.4,21.2,55,25.6,24.7,12.1,268.0,67.0,2.7,7,5,7,1,2026-07-24T20:27:34.899369+05:30
