city,state,latitude,longitude,temp,humidity,rain,pressure,uv_index,wind_gusts,aqi,pm10,pm2_5,no2,co,o3,so2,mosquito_risk,arthritis_risk,migraine_risk,frizz_risk,updated_at
Delhi,Delhi,28.6139,77.209,33.2,25,0.0,979.2,7.75,48.2,599,700.4,160.2,16.9,328.0,72.0,11.6,0,5,7,0,2026-05-23T02:44:04.593653+05:30
Mumbai,Maharashtra,19.076,72.8777,29.9,77,0.0,1008.7,7.8,38.5,63,15.6,11.0,10.7,240.0,48.0,11.3,7,0,4,1,2026-05-23T02:44:04.593721+05:30
Bangalore,Karnataka,12.9716,77.5946,21.6,90,0.0,912.4,6.4,34.2,39,8.1,7.5,13.8,281.0,43.0,4.3,3,5,7,1,2026-05-23T02:44:04.593738+05:30
Hyderabad,Telangana,17.385,78.4867,28.8,61,0.0,951.7,9.1,56.5,77,26.8,22.9,6.4,220.0,100.0,5.1,7,5,7,1,2026-05-23T02:44:04.593748+05:30
Chennai,Tamil Nadu,13.0827,80.2707,31.2,71,0.0,1004.7,7.8,33.5,65,25.5,20.0,14.0,234.0,78.0,8.8,3,5,4,1,2026-05-23T02:44:04.593758+05:30
Kolkata,West Bengal,22.5726,88.3639,29.3,92,0.0,1001.7,9.0,36.4,99,37.7,28.6,5.5,248.0,83.0,4.7,7,5,4,1,2026-05-23T02:44:04.593767+05:30
Pune,Maharashtra,18.5204,73.8567,24.6,89,0.0,948.8,8.45,37.8,48,9.2,8.2,12.9,184.0,42.0,9.9,3,5,7,1,2026-05-23T02:44:04.593775+05:30
Ahmedabad,Gujarat,23.0225,72.5714,31.7,58,0.0,1001.3,8.15,35.3,75,28.6,19.0,4.6,138.0,65.0,3.8,0,5,4,1,2026-05-23T02:44:04.593783+05:30
Jaipur,Rajasthan,26.9124,75.7873,32.0,23,0.0,957.6,8.25,47.5,168,315.7,72.2,6.0,193.0,68.0,5.1,0,5,7,0,2026-05-23T02:44:04.593797+05:30
Lucknow,Uttar Pradesh,26.8467,80.9462,32.3,27,0.0,988.3,8.2,51.5,162,347.4,96.9,31.7,292.0,31.0,8.5,0,5,7,0,2026-05-23T02:44:04.593805+05:30
Kanpur,Uttar Pradesh,26.4499,80.3319,33.0,27,0.0,986.8,8.2,46.8,332,393.9,95.9,23.4,240.0,36.0,8.3,0,5,7,0,2026-05-23T02:44:04.593812+05:30
Chandigarh,Chandigarh,30.7333,76.7794,29.5,32,0.0,964.7,7.75,44.3,89,42.1,26.0,17.7,320.0,50.0,7.5,4,5,7,0,2026-05-23T02:44:04.593820+05:30
Srinagar,Jammu and Kashmir,34.0837,74.7973,11.1,99,0.0,842.9,8.75,26.6,59,30.0,22.8,19.6,630.0,18.0,0.0,3,10,7,0,2026-05-23T02:44:04.593829+05:30
Jammu,Jammu and Kashmir,32.7266,74.857,25.7,39,0.0,969.2,8.5,36.0,77,26.4,18.1,12.1,220.0,53.0,1.9,4,5,7,0,2026-05-23T02:44:04.593836+05:30
Amritsar,Punjab,31.634,74.8723,27.5,53,0.0,976.9,8.4,26.6,97,75.9,45.9,22.4,554.0,45.0,6.1,4,5,7,1,2026-05-23T02:44:04.593843+05:30
Ludhiana,Punjab,30.901,75.8573,28.5,45,0.0,974.9,8.0,42.1,88,49.1,31.1,14.5,412.0,57.0,5.8,4,5,7,0,2026-05-23T02:44:04.593850+05:30
Jalandhar,Punjab,31.326,75.5762,28.4,45,0.0,975.8,8.2,37.8,92,60.1,33.1,17.6,582.0,60.0,5.3,4,5,7,0,2026-05-23T02:44:04.593858+05:30
Dehradun,Uttarakhand,30.6284,78.0322,13.4,72,0.0,825.8,8.2,46.4,75,39.5,20.5,32.3,234.0,14.0,0.5,3,5,7,0,2026-05-23T02:44:04.593865+05:30
Shimla,Himachal Pradesh,31.1048,77.1734,13.5,52,0.0,781.8,7.75,52.6,74,31.5,17.5,14.9,161.0,57.0,1.4,0,5,7,0,2026-05-23T02:44:04.593878+05:30
Manali,Himachal Pradesh,32.2396,77.1887,10.4,44,0.0,814.5,9.1,45.4,40,1.5,1.2,12.5,161.0,101.0,0.0,0,5,7,1,2026-05-23T02:44:04.593885+05:30
Gurgaon,Haryana,28.4595,77.0266,30.1,31,0.0,977.6,7.85,45.4,1414,994.7,190.9,24.8,414.0,61.0,19.2,0,5,7,0,2026-05-23T02:44:04.593892+05:30
Noida,Uttar Pradesh,28.5355,77.391,31.5,34,0.0,980.3,7.75,42.8,1414,994.7,190.9,24.8,373.0,61.0,19.2,0,5,7,0,2026-05-23T02:44:04.593899+05:30
Ghaziabad,Uttar Pradesh,28.6692,77.4538,30.4,33,0.0,978.6,7.75,43.6,419,489.9,120.6,13.1,320.0,80.0,11.7,0,5,7,0,2026-05-23T02:44:04.593906+05:30
Faridabad,Haryana,28.4089,77.3178,33.0,25,0.0,979.8,7.8,50.8,1414,994.7,190.9,24.8,419.0,61.0,19.2,0,5,7,0,2026-05-23T02:44:04.593913+05:30
Meerut,Uttar Pradesh,28.9845,77.7064,31.6,28,0.0,977.1,7.65,51.8,419,489.9,120.6,13.1,288.0,80.0,11.7,0,5,7,0,2026-05-23T02:44:04.593920+05:30
Agra,Uttar Pradesh,27.1767,78.0081,31.4,32,0.0,983.7,8.1,39.2,860,787.9,170.4,23.3,333.0,43.0,12.6,0,5,7,0,2026-05-23T02:44:04.593927+05:30
Varanasi,Uttar Pradesh,25.3176,82.9739,33.2,46,0.0,992.4,8.75,51.1,155,105.2,45.1,29.2,707.0,37.0,9.6,0,5,7,1,2026-05-23T02:44:04.593934+05:30
Prayagraj,Uttar Pradesh,25.4358,81.8463,31.8,33,0.0,991.0,8.65,43.6,150,122.5,59.8,45.5,274.0,19.0,11.3,0,5,7,0,2026-05-23T02:44:04.593941+05:30
Gorakhpur,Uttar Pradesh,26.7606,83.3732,28.7,79,0.0,992.8,8.6,33.5,153,75.0,59.8,13.3,535.0,97.0,12.4,7,5,7,1,2026-05-23T02:44:04.593950+05:30
Bareilly,Uttar Pradesh,28.367,79.4304,29.5,38,0.0,981.7,8.05,46.4,163,136.0,73.8,22.1,314.0,67.0,12.2,4,5,7,0,2026-05-23T02:44:04.593957+05:30
Aligarh,Uttar Pradesh,27.8974,78.088,30.9,32,0.0,981.2,7.9,42.8,869,851.2,165.8,24.7,367.0,53.0,22.7,0,5,7,0,2026-05-23T02:44:04.593963+05:30
Moradabad,Uttar Pradesh,28.8386,78.7733,30.5,31,0.0,978.8,7.85,53.3,177,161.1,74.7,23.5,270.0,59.0,10.5,0,5,7,0,2026-05-23T02:44:04.593970+05:30
Saharanpur,Uttar Pradesh,29.9637,77.546,29.8,33,0.0,971.4,7.4,49.7,163,81.0,40.4,17.0,284.0,56.0,9.8,4,5,7,0,2026-05-23T02:44:04.593977+05:30
Jhansi,Uttar Pradesh,25.4484,78.5685,32.7,19,0.0,974.3,8.5,45.0,72,35.6,18.0,3.6,145.0,70.0,1.6,0,5,7,0,2026-05-23T02:44:07.852268+05:30
Surat,Gujarat,21.1702,72.8311,29.8,81,0.0,1006.9,7.65,38.9,72,19.5,14.7,16.3,292.0,37.0,28.6,7,5,4,1,2026-05-23T02:44:07.852303+05:30
Vadodara,Gujarat,22.3072,73.1812,30.4,71,0.0,1003.7,8.1,41.0,73,20.4,16.0,15.5,117.0,31.0,17.8,3,5,4,1,2026-05-23T02:44:07.852314+05:30
Rajkot,Gujarat,22.3039,70.8022,28.6,79,0.0,994.2,7.75,45.0,73,27.6,16.1,4.5,119.0,48.0,4.8,7,5,7,1,2026-05-23T02:44:07.852322+05:30
Thane,Maharashtra,19.2183,72.9781,28.9,89,0.0,1008.1,7.05,31.7,63,15.6,11.0,10.7,204.0,48.0,11.3,7,0,4,1,2026-05-23T02:44:07.852330+05:30
Nagpur,Maharashtra,21.1458,79.0882,35.6,22,0.0,970.0,8.3,56.5,63,23.7,19.3,9.4,187.0,82.0,9.6,0,5,10,0,2026-05-23T02:44:07.852338+05:30
Nashik,Maharashtra,19.9975,73.7898,25.3,86,0.0,946.0,8.15,47.2,52,17.1,12.7,11.9,214.0,41.0,12.9,7,5,7,1,2026-05-23T02:44:07.852346+05:30
Aurangabad,Maharashtra,19.8762,75.3433,27.9,69,0.0,944.2,9.05,40.0,60,16.1,12.4,9.5,169.0,53.0,8.6,7,5,7,1,2026-05-23T02:44:07.852354+05:30
Solapur,Maharashtra,17.6599,75.9064,27.9,69,0.0,957.3,9.0,43.6,62,14.9,14.0,10.7,195.0,58.0,2.5,7,5,7,1,2026-05-23T02:44:07.852361+05:30
Kolhapur,Maharashtra,16.705,74.2433,24.2,92,0.0,948.4,8.8,36.4,34,11.1,9.5,8.0,200.0,41.0,3.1,3,5,7,1,2026-05-23T02:44:07.852369+05:30
Goa,Goa,15.2993,74.124,26.5,91,0.0,999.0,8.75,32.8,36,11.7,9.7,5.2,228.0,48.0,1.0,7,5,7,1,2026-05-23T02:44:07.852376+05:30
Jodhpur,Rajasthan,26.2389,73.0243,32.0,34,0.0,980.5,8.4,42.1,158,206.3,55.8,6.7,169.0,50.0,2.8,0,5,7,0,2026-05-23T02:44:07.852384+05:30
Udaipur,Rajasthan,24.5854,73.7125,30.0,30,0.0,945.8,8.85,42.8,77,105.7,35.4,2.9,144.0,72.0,2.6,4,5,7,0,2026-05-23T02:44:07.852391+05:30
Kota,Rajasthan,25.2138,75.8648,32.5,22,0.0,976.7,8.4,46.1,69,102.4,39.3,5.4,150.0,63.0,2.8,0,5,7,0,2026-05-23T02:44:07.852399+05:30
Bikaner,Rajasthan,28.0229,73.3119,32.7,27,0.0,978.6,8.35,42.5,160,248.7,70.1,2.3,134.0,61.0,1.9,0,5,7,0,2026-05-23T02:44:07.852405+05:30
Ajmer,Rajasthan,26.4499,74.6399,30.2,31,0.0,952.9,8.4,51.5,95,162.1,49.4,4.4,160.0,71.0,4.5,0,5,7,0,2026-05-23T02:44:07.852412+05:30
Gwalior,Madhya Pradesh,26.2183,78.1828,33.0,20,0.0,979.7,8.25,45.0,96,53.9,25.5,6.2,162.0,59.0,3.0,0,5,7,0,2026-05-23T02:44:07.852419+05:30
Indore,Madhya Pradesh,22.7196,75.8577,30.2,42,0.0,947.6,8.7,53.3,68,36.1,26.6,4.2,191.0,101.0,9.6,0,5,7,0,2026-05-23T02:44:07.852426+05:30
Bhopal,Madhya Pradesh,23.2599,77.4126,33.1,26,0.0,952.1,8.75,47.2,58,28.3,21.9,5.7,212.0,68.0,4.4,0,5,7,0,2026-05-23T02:44:07.852433+05:30
Jabalpur,Madhya Pradesh,23.1815,79.9864,30.5,27,0.0,958.0,8.9,41.4,57,50.8,27.6,27.4,320.0,38.0,4.8,0,5,7,0,2026-05-23T02:44:07.852440+05:30
Ujjain,Madhya Pradesh,23.1765,75.7885,30.6,41,0.0,953.2,8.65,50.8,71,34.0,26.2,4.4,194.0,94.0,11.2,0,5,7,0,2026-05-23T02:44:07.852447+05:30
Visakhapatnam,Andhra Pradesh,17.6868,83.2185,31.2,71,0.0,998.2,9.05,33.8,135,70.1,60.1,43.6,430.0,55.0,37.4,3,5,7,1,2026-05-23T02:44:07.852454+05:30
Vijayawada,Andhra Pradesh,16.5062,80.648,33.2,44,0.0,998.6,8.75,49.7,85,29.3,26.5,9.4,262.0,85.0,5.7,0,5,7,1,2026-05-23T02:44:07.852462+05:30
Guntur,Andhra Pradesh,16.3067,80.4365,33.3,43,0.0,999.9,8.7,50.8,82,29.5,25.8,8.1,235.0,97.0,8.1,0,5,7,1,2026-05-23T02:44:07.852469+05:30
Nellore,Andhra Pradesh,14.4426,79.9865,32.2,53,0.0,1003.0,9.1,60.5,80,28.5,22.9,7.0,174.0,83.0,5.9,0,5,4,1,2026-05-23T02:44:07.852477+05:30
Kurnool,Andhra Pradesh,15.8281,78.0373,28.5,65,0.0,976.1,9.05,46.4,52,12.8,11.1,7.7,203.0,76.0,3.7,7,5,7,1,2026-05-23T02:44:07.852485+05:30
Kakinada,Andhra Pradesh,16.9891,82.2475,31.0,72,0.0,1002.4,9.05,47.9,94,40.5,32.6,9.4,466.0,92.0,6.3,3,5,4,1,2026-05-23T02:44:07.852492+05:30
Tirupati,Andhra Pradesh,13.6288,79.4192,29.2,64,0.0,989.3,8.3,37.1,59,30.0,21.4,8.8,159.0,68.0,2.1,7,5,7,1,2026-05-23T02:44:07.852499+05:30
Warangal,Telangana,17.9689,79.5941,32.7,44,0.0,975.0,9.15,57.2,94,38.2,33.3,12.5,238.0,78.0,6.2,0,5,7,1,2026-05-23T02:44:07.852505+05:30
Nizamabad,Telangana,18.6725,78.0941,32.6,41,0.0,962.9,9.1,49.3,83,30.6,25.8,6.7,186.0,99.0,8.0,0,5,7,1,2026-05-23T02:44:07.852512+05:30
Mysore,Karnataka,12.2958,76.6396,22.1,88,0.0,929.2,8.0,36.0,25,5.6,5.1,7.3,142.0,44.0,2.1,3,5,7,1,2026-05-23T02:44:07.852520+05:30
Mangalore,Karnataka,12.9141,74.856,25.0,95,0.0,1008.4,8.3,25.2,34,11.1,9.1,8.4,302.0,41.0,2.5,7,0,4,1,2026-05-23T02:44:07.852527+05:30
Hubli-Dharwad,Karnataka,15.3647,75.124,23.4,95,0.0,941.5,9.05,37.8,23,4.8,4.1,6.1,125.0,42.0,1.1,3,5,7,1,2026-05-23T02:44:07.852534+05:30
Belgaum,Karnataka,15.8497,74.4977,22.9,95,0.0,926.3,8.85,36.0,28,10.4,8.7,7.7,123.0,38.0,1.6,3,5,7,1,2026-05-23T02:44:11.139402+05:30
Coimbatore,Tamil Nadu,11.0168,76.9558,24.0,92,0.0,961.9,8.5,50.8,24,6.2,5.1,6.2,137.0,44.0,2.5,3,5,7,1,2026-05-23T02:44:11.139437+05:30
Madurai,Tamil Nadu,9.9252,78.1198,28.0,65,0.0,992.1,8.9,42.8,53,16.9,16.4,31.8,144.0,7.0,5.3,7,5,7,1,2026-05-23T02:44:11.139449+05:30
Trichy,Tamil Nadu,10.7905,78.7047,28.1,70,0.0,998.6,8.25,42.5,29,5.8,4.8,6.5,162.0,45.0,2.6,7,5,7,1,2026-05-23T02:44:11.139458+05:30
Salem,Tamil Nadu,11.6643,78.146,28.1,65,0.0,977.4,7.95,35.3,53,20.5,16.6,21.4,176.0,30.0,6.1,7,5,7,1,2026-05-23T02:44:11.139466+05:30
Tirunelveli,Tamil Nadu,8.7139,77.7567,27.9,73,0.0,1002.8,7.3,42.1,24,8.6,7.2,6.3,166.0,41.0,1.7,7,5,4,1,2026-05-23T02:44:11.139473+05:30
Vellore,Tamil Nadu,12.9165,79.1325,28.0,67,0.0,983.3,5.4,40.0,59,21.8,18.9,13.9,192.0,48.0,4.3,7,5,3,1,2026-05-23T02:44:11.139481+05:30
Erode,Tamil Nadu,11.341,77.7172,27.4,72,0.0,989.1,8.25,40.3,34,9.7,8.4,11.0,155.0,39.0,3.2,7,5,7,1,2026-05-23T02:44:11.139489+05:30
Kochi,Kerala,9.9312,76.2673,25.9,99,0.0,1010.3,8.2,31.7,52,15.1,14.5,28.1,324.0,7.0,6.4,7,0,4,1,2026-05-23T02:44:11.139496+05:30
Thiruvananthapuram,Kerala,8.5241,76.9366,25.0,96,0.0,1009.5,7.85,43.9,29,12.1,8.3,3.7,201.0,59.0,1.6,7,0,4,1,2026-05-23T02:44:11.139503+05:30
Kozhikode,Kerala,11.2588,75.7804,25.3,98,0.0,1009.4,7.55,33.5,30,7.9,5.4,1.9,507.0,66.0,0.9,7,0,4,1,2026-05-23T02:44:11.139510+05:30
Thrissur,Kerala,10.5276,76.2144,25.0,98,0.0,1008.8,8.4,34.2,52,29.0,28.0,24.1,322.0,10.0,4.9,7,0,4,1,2026-05-23T02:44:11.139518+05:30
Kannur,Kerala,11.8745,75.3704,25.4,94,0.0,1008.7,7.95,33.5,30,11.2,9.3,9.0,297.0,36.0,2.4,7,0,4,1,2026-05-23T02:44:11.139524+05:30
Patna,Bihar,25.5941,85.1376,29.0,82,0.0,995.7,8.85,29.9,151,46.1,42.1,12.7,496.0,112.0,20.8,7,5,7,1,2026-05-23T02:44:11.139530+05:30
Gaya,Bihar,24.7914,85.0002,28.2,82,0.0,989.1,8.9,34.9,156,79.6,61.5,20.0,683.0,73.0,15.1,7,5,7,1,2026-05-23T02:44:11.139537+05:30
Muzaffarpur,Bihar,26.1209,85.3647,27.9,90,0.0,996.2,8.85,28.1,150,51.0,46.4,14.0,516.0,97.0,17.9,7,5,7,1,2026-05-23T02:44:11.139543+05:30
Bhagalpur,Bihar,25.2425,87.0117,28.0,92,0.0,996.6,8.8,31.7,124,58.3,51.0,13.7,400.0,86.0,16.7,7,5,7,1,2026-05-23T02:44:11.139550+05:30
Ranchi,Jharkhand,23.3441,85.3096,25.0,60,0.0,933.8,9.3,36.0,145,268.2,74.0,34.9,389.0,52.0,7.5,4,5,7,1,2026-05-23T02:44:11.139557+05:30
Jamshedpur,Jharkhand,22.8046,86.2029,29.0,92,0.0,986.7,9.1,26.6,152,77.3,65.2,27.7,656.0,52.0,22.7,7,5,7,1,2026-05-23T02:44:11.139563+05:30
Dhanbad,Jharkhand,23.7957,86.4304,28.6,79,0.0,975.7,9.05,45.7,163,94.1,86.6,61.1,719.0,34.0,146.4,7,5,7,1,2026-05-23T02:44:11.139570+05:30
Bokaro,Jharkhand,23.6693,86.1511,28.4,79,0.0,979.5,9.1,40.3,160,140.6,99.9,72.9,2002.0,13.0,121.3,7,5,7,1,2026-05-23T02:44:11.139577+05:30
Bhubaneswar,Odisha,20.2961,85.8245,29.4,95,0.0,998.2,8.4,34.9,95,29.4,21.4,4.2,226.0,91.0,4.6,7,5,7,1,2026-05-23T02:44:11.139583+05:30
Cuttack,Odisha,20.4625,85.8828,29.5,94,0.0,1000.0,8.55,31.7,95,29.4,21.4,4.2,238.0,91.0,4.6,7,5,4,1,2026-05-23T02:44:11.139590+05:30
Rourkela,Odisha,22.2604,84.8536,29.9,75,0.0,981.0,9.0,28.1,163,134.6,99.2,37.1,433.0,58.0,31.7,7,5,7,1,2026-05-23T02:44:11.139597+05:30
Raipur,Chhattisgarh,21.2514,81.6296,32.5,27,0.0,970.4,8.95,36.4,131,67.1,61.0,59.9,499.0,12.0,36.0,0,5,7,0,2026-05-23T02:44:11.139604+05:30
Bhilai,Chhattisgarh,21.1938,81.3509,31.2,33,0.0,970.7,9.0,48.2,84,38.0,33.5,38.6,510.0,32.0,36.6,0,5,7,0,2026-05-23T02:44:11.139610+05:30
Guwahati,Assam,26.1158,91.7086,23.2,100,0.2,999.2,8.75,25.6,73,14.2,10.3,5.3,288.0,89.0,2.3,6,5,7,1,2026-05-23T02:44:11.139617+05:30
Agartala,Tripura,23.8315,91.2868,24.6,99,0.0,1003.8,8.65,35.6,83,25.7,20.2,10.5,246.0,49.0,3.3,3,5,4,1,2026-05-23T02:44:11.139624+05:30
Shillong,Meghalaya,25.5788,91.8933,19.5,95,0.0,854.9,9.1,44.6,54,2.2,1.4,3.6,264.0,98.0,2.9,3,10,7,1,2026-05-23T02:44:11.139631+05:30
Imphal,Manipur,24.817,93.9368,22.5,94,0.1,921.3,9.3,37.4,66,7.0,5.6,4.3,265.0,70.0,1.9,6,5,7,1,2026-05-23T02:44:11.139639+05:30
Aizawl,Mizoram,23.7271,92.7176,18.8,98,0.0,890.2,9.1,37.4,56,4.9,3.4,3.9,196.0,50.0,1.0,3,10,7,1,2026-05-23T02:44:11.139646+05:30
Kohima,Nagaland,25.6701,94.1077,17.5,96,0.0,852.2,9.25,26.3,67,9.9,6.8,2.9,265.0,78.0,0.9,3,10,7,1,2026-05-23T02:44:11.139653+05:30
Gangtok,Sikkim,27.3314,88.6138,16.1,91,0.0,834.2,9.15,37.8,52,14.6,10.6,4.2,563.0,119.0,2.3,3,10,7,0,2026-05-23T02:44:11.139659+05:30
Siliguri,West Bengal,26.7271,88.3953,23.2,96,0.0,989.7,8.75,22.0,84,29.1,19.2,7.2,398.0,109.0,2.4,3,5,7,1,2026-05-23T02:44:14.407661+05:30
Durgapur,West Bengal,23.5204,87.3119,28.3,97,0.0,990.7,9.0,32.0,153,42.4,38.2,23.9,452.0,45.0,31.8,7,5,7,1,2026-05-23T02:44:14.407713+05:30
Asansol,West Bengal,23.6739,86.9524,28.2,95,0.0,989.2,9.05,37.1,153,46.0,41.8,26.3,538.0,46.0,36.0,7,5,7,1,2026-05-23T02:44:14.407725+05:30
Pondicherry,Puducherry,11.9139,79.8145,29.6,72,0.0,1006.2,8.3,31.7,65,36.6,27.1,17.6,202.0,64.0,5.5,7,5,4,1,2026-05-23T02:44:14.407733+05:30
Port Blair,Andaman and Nicobar Islands,11.6234,92.7265,24.9,97,0.4,1005.9,8.2,38.5,31,5.2,3.3,0.2,106.0,72.0,0.3,6,5,4,1,2026-05-23T02:44:14.407742+05:30
Haridwar,Uttarakhand,29.9457,78.1642,24.5,61,0.0,969.1,7.55,47.5,151,66.8,38.4,21.9,320.0,53.0,9.4,3,5,7,1,2026-05-23T02:44:14.407749+05:30
Rishikesh,Uttarakhand,30.0869,78.2676,21.3,65,0.0,961.7,7.65,36.4,129,124.8,40.5,10.9,427.0,90.0,7.4,3,5,7,0,2026-05-23T02:44:14.407757+05:30
Nainital,Uttarakhand,29.3919,79.4542,14.6,56,0.0,802.1,8.5,49.7,156,155.1,61.5,13.7,277.0,100.0,6.0,0,5,7,0,2026-05-23T02:44:14.407764+05:30
Mussoorie,Uttarakhand,30.4599,78.0664,17.2,46,0.0,801.2,8.05,65.2,105,99.4,43.4,39.0,166.0,30.0,5.7,0,5,7,0,2026-05-23T02:44:14.407772+05:30
Dharamshala,Himachal Pradesh,32.219,76.3234,21.7,44,0.0,867.3,7.2,51.1,48,15.6,7.6,11.9,155.0,48.0,0.1,0,5,7,0,2026-05-23T02:44:14.407779+05:30
Dalhousie,Himachal Pradesh,32.5387,75.971,12.4,67,0.0,800.5,7.75,42.1,62,30.2,17.6,28.2,228.0,22.0,1.0,3,5,7,0,2026-05-23T02:44:14.407787+05:30
Patiala,Punjab,30.3398,76.3869,29.4,39,0.0,974.2,7.65,51.1,710,588.6,101.0,11.7,308.0,64.0,5.6,4,5,7,0,2026-05-23T02:44:14.407795+05:30
Bhatinda,Punjab,30.211,74.9455,31.0,38,0.0,980.0,8.3,34.9,93,66.8,39.3,17.8,311.0,58.0,8.3,0,5,7,0,2026-05-23T02:44:14.407802+05:30
Rohtak,Haryana,28.8955,76.6066,30.0,33,0.0,977.9,7.6,43.9,794,936.9,188.6,15.8,296.0,65.0,6.2,4,5,7,0,2026-05-23T02:44:14.407808+05:30
Panipat,Haryana,29.3909,76.9635,30.9,31,0.0,976.3,7.45,47.5,1697,2242.6,343.7,9.7,279.0,78.0,4.6,0,5,7,0,2026-05-23T02:44:14.407815+05:30
Mathura,Uttar Pradesh,27.4924,77.6737,31.2,33,0.0,982.9,8.0,42.1,850,953.7,202.6,23.4,350.0,48.0,17.0,0,5,7,0,2026-05-23T02:44:14.407823+05:30
Vrindavan,Uttar Pradesh,27.5823,77.7027,30.5,35,0.0,983.3,8.0,41.0,850,953.7,202.6,23.4,413.0,48.0,17.0,0,5,7,0,2026-05-23T02:44:14.407829+05:30
Ayodhya,Uttar Pradesh,26.7922,82.1998,29.4,75,0.0,990.2,8.4,45.4,153,225.8,74.3,24.0,631.0,57.0,10.5,7,5,7,1,2026-05-23T02:44:14.407836+05:30
Ratlam,Madhya Pradesh,23.3315,75.0367,28.7,54,0.0,954.4,8.55,47.9,72,28.9,23.6,6.4,198.0,79.0,15.9,4,5,7,1,2026-05-23T02:44:14.407843+05:30
Sagar,Madhya Pradesh,23.8388,78.7378,30.9,26,0.0,947.6,8.75,48.6,52,21.4,14.7,8.6,210.0,67.0,5.1,0,5,7,0,2026-05-23T02:44:14.407849+05:30
Satna,Madhya Pradesh,24.6005,80.8322,31.4,27,0.0,967.5,8.8,48.6,56,63.3,25.3,11.0,180.0,64.0,4.6,0,5,7,0,2026-05-23T02:44:14.407856+05:30
Akola,Maharashtra,20.7002,77.0082,33.2,44,0.0,973.4,8.9,50.0,70,30.3,23.7,7.3,165.0,89.0,11.7,0,5,7,1,2026-05-23T02:44:14.407863+05:30
Amravati,Maharashtra,20.9374,77.7796,34.8,30,0.0,965.2,8.8,51.5,68,28.8,22.5,8.2,198.0,79.0,9.2,0,5,7,0,2026-05-23T02:44:14.407871+05:30
Latur,Maharashtra,18.4088,76.5604,29.0,61,0.0,939.4,9.05,54.4,75,20.8,18.5,6.1,183.0,95.0,2.6,7,5,7,1,2026-05-23T02:44:14.407878+05:30
Nanded,Maharashtra,19.1383,77.3091,32.8,43,0.0,966.8,9.0,46.8,82,24.3,20.6,6.1,168.0,94.0,3.0,0,5,7,1,2026-05-23T02:44:14.407885+05:30
Gulbarga,Karnataka,17.3297,76.8343,27.5,68,0.0,958.0,9.05,52.9,61,14.3,13.0,8.4,187.0,72.0,3.0,7,5,7,1,2026-05-23T02:44:14.407891+05:30
Bidar,Karnataka,17.9104,77.5199,28.0,62,0.0,934.8,9.05,45.7,80,27.6,23.9,6.8,174.0,94.0,2.7,7,5,7,1,2026-05-23T02:44:14.407897+05:30
Hospet,Karnataka,15.2689,76.3909,24.8,90,0.0,956.2,8.95,49.3,29,4.9,4.4,6.9,172.0,42.0,1.4,3,5,7,1,2026-05-23T02:44:14.407904+05:30
Tirupur,Tamil Nadu,11.1085,77.3411,25.3,86,0.0,975.4,8.8,50.4,36,11.1,9.7,12.7,132.0,36.0,3.8,7,5,7,1,2026-05-23T02:44:14.407910+05:30
Alappuzha,Kerala,9.4981,76.3388,26.3,96,0.2,1010.3,7.9,33.1,35,14.3,11.3,11.4,181.0,47.0,3.3,10,0,4,1,2026-05-23T02:44:14.407916+05:30
Munnar,Kerala,10.0889,77.0595,16.3,98,0.0,856.9,8.95,31.7,22,7.0,6.1,7.3,112.0,32.0,1.6,3,10,7,0,2026-05-23T02:44:14.407923+05:30
Silchar,Assam,24.8333,92.7789,24.5,96,0.3,1003.4,8.95,28.8,71,22.5,15.0,4.8,238.0,89.0,2.6,6,5,4,1,2026-05-23T02:44:14.407930+05:30
Dibrugarh,Assam,27.4728,94.912,23.5,99,0.1,992.8,8.9,28.8,83,23.2,17.9,6.4,258.0,77.0,0.6,6,5,7,1,2026-05-23T02:44:14.407936+05:30
