city,state,latitude,longitude,temp,humidity,rain,pressure,uv_index,wind_gusts,aqi,pm10,pm2_5,no2,co,o3,so2,mosquito_risk,arthritis_risk,migraine_risk,frizz_risk,updated_at
Delhi,Delhi,28.6139,77.209,35.6,51,0.0,972.6,7.55,29.5,536,489.9,103.8,6.8,273.0,142.0,11.9,0,5,10,1,2026-07-13T16:00:06.332502+05:30
Mumbai,Maharashtra,19.076,72.8777,29.2,74,0.0,1005.9,6.75,50.8,53,27.6,15.4,4.9,148.0,68.0,6.3,7,5,4,1,2026-07-13T16:00:06.332553+05:30
Bangalore,Karnataka,12.9716,77.5946,32.2,37,0.0,910.2,8.75,46.4,52,39.2,16.4,3.9,234.0,87.0,2.4,0,5,7,0,2026-07-13T16:00:06.332569+05:30
Hyderabad,Telangana,17.385,78.4867,33.9,41,0.0,949.0,9.05,47.2,59,20.7,11.4,2.1,193.0,99.0,2.8,0,5,7,1,2026-07-13T16:00:06.332580+05:30
Chennai,Tamil Nadu,13.0827,80.2707,35.3,47,0.0,1001.2,8.65,42.5,67,55.6,27.5,4.4,215.0,139.0,6.7,0,5,7,1,2026-07-13T16:00:06.332590+05:30
Kolkata,West Bengal,22.5726,88.3639,29.4,89,0.0,996.3,7.4,22.7,143,77.1,58.2,13.5,776.0,114.0,20.5,7,5,7,1,2026-07-13T16:00:06.332599+05:30
Pune,Maharashtra,18.5204,73.8567,28.4,59,0.0,945.7,8.2,49.0,32,20.3,11.1,1.8,119.0,71.0,3.0,4,5,7,1,2026-07-13T16:00:06.332606+05:30
Ahmedabad,Gujarat,23.0225,72.5714,37.2,40,0.0,994.5,8.15,50.0,62,38.4,17.6,2.2,124.0,89.0,3.3,0,5,10,1,2026-07-13T16:00:06.332614+05:30
Jaipur,Rajasthan,26.9124,75.7873,34.3,49,0.0,951.5,8.2,32.8,318,516.0,87.3,1.6,139.0,98.0,3.2,0,5,7,1,2026-07-13T16:00:06.332621+05:30
Lucknow,Uttar Pradesh,26.8467,80.9462,35.3,58,0.0,982.6,8.2,37.8,126,136.4,49.1,2.5,166.0,116.0,3.8,0,5,10,1,2026-07-13T16:00:06.332634+05:30
Kanpur,Uttar Pradesh,26.4499,80.3319,35.8,53,0.0,981.4,8.2,39.2,114,125.7,43.5,2.6,139.0,114.0,4.4,0,5,10,1,2026-07-13T16:00:06.332642+05:30
Chandigarh,Chandigarh,30.7333,76.7794,33.0,62,0.0,958.8,7.7,32.8,156,199.3,80.1,2.9,334.0,181.0,14.1,3,5,7,1,2026-07-13T16:00:06.332650+05:30
Srinagar,Jammu and Kashmir,34.0837,74.7973,26.6,48,0.0,837.2,9.0,20.5,92,20.0,10.5,1.7,298.0,143.0,1.9,4,5,7,0,2026-07-13T16:00:06.332657+05:30
Jammu,Jammu and Kashmir,32.7266,74.857,32.1,61,0.0,963.0,8.55,18.4,148,88.9,52.3,4.7,394.0,171.0,5.9,3,5,7,1,2026-07-13T16:00:06.332664+05:30
Amritsar,Punjab,31.634,74.8723,32.8,64,0.0,970.5,8.4,19.8,172,185.8,85.0,4.8,296.0,183.0,17.4,3,5,7,1,2026-07-13T16:00:06.332671+05:30
Ludhiana,Punjab,30.901,75.8573,33.5,64,0.0,968.3,7.9,27.7,164,186.7,75.9,2.6,343.0,143.0,4.6,3,5,7,1,2026-07-13T16:00:06.332680+05:30
Jalandhar,Punjab,31.326,75.5762,33.3,65,0.0,969.4,8.15,24.1,164,180.2,80.1,3.5,377.0,150.0,7.1,3,5,7,1,2026-07-13T16:00:06.332687+05:30
Dehradun,Uttarakhand,30.6284,78.0322,23.7,77,0.1,825.9,8.15,31.3,93,94.5,38.8,1.8,200.0,145.0,4.0,6,5,7,1,2026-07-13T16:00:06.332695+05:30
Shimla,Himachal Pradesh,31.1048,77.1734,21.9,63,0.1,781.6,8.25,36.4,99,101.5,43.0,1.1,148.0,155.0,7.7,6,5,7,0,2026-07-13T16:00:06.332701+05:30
Manali,Himachal Pradesh,32.2396,77.1887,24.7,49,0.0,815.6,9.55,34.2,82,20.4,9.7,2.1,166.0,151.0,1.1,0,5,7,0,2026-07-13T16:00:06.332711+05:30
Gurgaon,Haryana,28.4595,77.0266,35.6,50,0.0,971.2,7.7,33.5,561,497.3,100.1,7.0,217.0,131.0,8.1,0,5,10,1,2026-07-13T16:00:06.332720+05:30
Noida,Uttar Pradesh,28.5355,77.391,35.8,51,0.0,974.0,7.7,28.4,561,497.3,100.1,7.0,311.0,131.0,8.1,0,5,10,1,2026-07-13T16:00:06.332728+05:30
Ghaziabad,Uttar Pradesh,28.6692,77.4538,35.5,53,0.0,972.2,7.6,26.3,459,407.9,99.2,4.8,203.0,163.0,14.8,0,5,10,1,2026-07-13T16:00:06.332735+05:30
Faridabad,Haryana,28.4089,77.3178,35.6,51,0.0,973.3,7.7,32.0,561,497.3,100.1,7.0,207.0,131.0,8.1,0,5,10,1,2026-07-13T16:00:06.332743+05:30
Meerut,Uttar Pradesh,28.9845,77.7064,34.9,56,0.0,971.0,7.6,31.0,459,407.9,99.2,4.8,179.0,163.0,14.8,0,5,7,1,2026-07-13T16:00:06.332750+05:30
Agra,Uttar Pradesh,27.1767,78.0081,35.2,53,0.0,977.9,7.5,39.6,132,176.0,49.7,2.8,143.0,118.0,3.4,0,5,10,1,2026-07-13T16:00:06.332758+05:30
Varanasi,Uttar Pradesh,25.3176,82.9739,33.7,64,0.0,987.4,4.7,33.5,108,104.3,47.3,6.5,234.0,108.0,9.1,3,5,3,1,2026-07-13T16:00:06.332766+05:30
Prayagraj,Uttar Pradesh,25.4358,81.8463,33.5,65,0.0,986.1,6.0,37.4,104,101.0,44.0,4.6,157.0,109.0,7.6,3,5,3,1,2026-07-13T16:00:06.332774+05:30
Gorakhpur,Uttar Pradesh,26.7606,83.3732,31.1,77,0.1,986.5,4.7,32.0,141,217.0,80.6,5.5,222.0,132.0,8.3,6,5,3,1,2026-07-13T16:00:06.332781+05:30
Bareilly,Uttar Pradesh,28.367,79.4304,35.2,58,0.0,975.6,8.0,36.0,177,192.8,73.1,2.6,197.0,134.0,6.6,0,5,10,1,2026-07-13T16:00:06.332795+05:30
Aligarh,Uttar Pradesh,27.8974,78.088,34.9,55,0.0,975.4,7.65,35.3,513,489.9,95.7,3.3,144.0,127.0,5.9,0,5,7,1,2026-07-13T16:00:06.332802+05:30
Moradabad,Uttar Pradesh,28.8386,78.7733,34.9,59,0.0,972.8,7.85,34.9,283,197.0,73.1,2.7,236.0,134.0,6.8,0,5,7,1,2026-07-13T16:00:06.332809+05:30
Saharanpur,Uttar Pradesh,29.9637,77.546,34.1,61,0.0,965.2,7.35,30.2,179,252.4,91.0,3.2,248.0,152.0,11.8,3,5,7,1,2026-07-13T16:00:06.332816+05:30
Jhansi,Uttar Pradesh,25.4484,78.5685,33.1,60,0.1,969.3,8.0,40.0,93,97.8,35.9,2.3,119.0,100.0,7.7,3,5,7,1,2026-07-13T16:00:09.696675+05:30
Surat,Gujarat,21.1702,72.8311,30.5,70,0.0,1002.1,7.35,62.3,57,28.4,17.7,7.0,175.0,51.0,20.8,3,5,4,1,2026-07-13T16:00:09.696716+05:30
Vadodara,Gujarat,22.3072,73.1812,32.8,60,0.0,998.1,8.0,54.4,55,29.7,16.0,2.2,121.0,85.0,3.9,0,5,7,1,2026-07-13T16:00:09.696726+05:30
Rajkot,Gujarat,22.3039,70.8022,34.2,48,0.0,987.9,7.4,56.9,54,38.2,16.9,1.1,95.0,71.0,2.7,0,5,7,1,2026-07-13T16:00:09.696735+05:30
Thane,Maharashtra,19.2183,72.9781,30.0,69,0.0,1005.1,7.8,45.0,53,27.6,15.4,4.9,142.0,68.0,6.3,7,5,4,1,2026-07-13T16:00:09.696744+05:30
Nagpur,Maharashtra,21.1458,79.0882,34.0,45,0.0,967.0,7.4,40.0,84,103.6,32.8,5.7,138.0,89.0,14.5,0,5,7,1,2026-07-13T16:00:09.696751+05:30
Nashik,Maharashtra,19.9975,73.7898,28.3,64,0.0,942.1,8.15,59.8,35,22.8,12.8,1.4,106.0,71.0,2.6,7,5,7,1,2026-07-13T16:00:09.696759+05:30
Aurangabad,Maharashtra,19.8762,75.3433,31.1,51,0.0,940.3,8.85,52.9,49,23.6,13.7,1.5,123.0,100.0,5.3,0,5,7,1,2026-07-13T16:00:09.696766+05:30
Solapur,Maharashtra,17.6599,75.9064,33.2,45,0.0,953.6,8.9,46.1,47,15.6,9.3,1.0,118.0,85.0,1.5,0,5,7,1,2026-07-13T16:00:09.696774+05:30
Kolhapur,Maharashtra,16.705,74.2433,27.6,66,0.0,946.6,8.9,49.0,34,16.2,9.3,1.5,113.0,65.0,1.6,7,5,7,1,2026-07-13T16:00:09.696781+05:30
Goa,Goa,15.2993,74.124,30.1,68,0.1,997.3,6.95,37.1,51,22.2,11.6,0.8,98.0,55.0,1.2,6,5,7,1,2026-07-13T16:00:09.696788+05:30
Jodhpur,Rajasthan,26.2389,73.0243,36.6,41,0.0,973.6,8.45,47.9,167,378.1,67.8,0.8,105.0,84.0,1.8,0,5,10,1,2026-07-13T16:00:09.696795+05:30
Udaipur,Rajasthan,24.5854,73.7125,31.3,54,0.0,939.7,7.95,47.5,72,74.3,24.9,1.0,110.0,82.0,2.5,0,5,7,1,2026-07-13T16:00:09.696802+05:30
Kota,Rajasthan,25.2138,75.8648,35.3,43,0.0,970.5,8.3,38.5,90,197.4,49.8,1.9,134.0,97.0,4.8,0,5,10,1,2026-07-13T16:00:09.696809+05:30
Bikaner,Rajasthan,28.0229,73.3119,39.0,35,0.0,971.2,8.45,36.0,162,331.6,74.5,0.4,106.0,85.0,3.3,0,5,10,1,2026-07-13T16:00:09.696816+05:30
Ajmer,Rajasthan,26.4499,74.6399,32.8,51,0.0,946.7,8.35,47.9,94,244.9,58.3,1.3,119.0,90.0,2.7,0,5,7,1,2026-07-13T16:00:09.696823+05:30
Gwalior,Madhya Pradesh,26.2183,78.1828,32.0,67,0.1,974.2,8.2,43.2,93,107.6,38.0,1.5,126.0,98.0,3.2,6,5,7,1,2026-07-13T16:00:09.696831+05:30
Indore,Madhya Pradesh,22.7196,75.8577,31.7,50,0.0,942.6,8.2,52.6,67,64.7,26.0,2.6,158.0,87.0,4.5,0,5,7,1,2026-07-13T16:00:09.696838+05:30
Bhopal,Madhya Pradesh,23.2599,77.4126,31.8,52,0.0,947.3,7.9,42.5,77,94.1,30.3,1.7,159.0,89.0,3.7,0,5,7,1,2026-07-13T16:00:09.696845+05:30
Jabalpur,Madhya Pradesh,23.1815,79.9864,31.9,60,0.0,954.5,6.75,38.2,87,96.2,32.2,1.9,138.0,89.0,3.8,0,5,7,1,2026-07-13T16:00:09.696853+05:30
Ujjain,Madhya Pradesh,23.1765,75.7885,31.5,52,0.0,948.1,8.5,52.9,66,63.3,25.2,1.6,139.0,85.0,3.7,0,5,7,1,2026-07-13T16:00:09.696860+05:30
Visakhapatnam,Andhra Pradesh,17.6868,83.2185,35.2,55,0.0,994.9,8.1,32.8,101,76.8,42.8,9.7,338.0,157.0,31.3,0,5,10,1,2026-07-13T16:00:09.696867+05:30
Vijayawada,Andhra Pradesh,16.5062,80.648,36.4,40,0.0,996.0,8.8,50.8,82,53.7,22.4,2.8,136.0,91.0,4.0,0,5,10,1,2026-07-13T16:00:09.696874+05:30
Guntur,Andhra Pradesh,16.3067,80.4365,37.5,35,0.0,997.0,8.75,49.7,80,49.5,20.4,2.2,127.0,92.0,3.3,0,5,10,1,2026-07-13T16:00:09.696881+05:30
Nellore,Andhra Pradesh,14.4426,79.9865,38.9,28,0.0,999.2,8.75,51.1,66,60.3,24.6,2.8,111.0,110.0,4.4,0,5,10,1,2026-07-13T16:00:09.696888+05:30
Kurnool,Andhra Pradesh,15.8281,78.0373,36.7,32,0.0,972.3,8.85,48.2,55,26.6,13.7,1.2,119.0,105.0,5.2,0,5,10,1,2026-07-13T16:00:09.696922+05:30
Kakinada,Andhra Pradesh,16.9891,82.2475,34.6,51,0.0,999.7,7.25,40.0,80,51.5,24.6,2.8,148.0,124.0,5.0,0,5,7,1,2026-07-13T16:00:09.696930+05:30
Tirupati,Andhra Pradesh,13.6288,79.4192,38.3,26,0.0,985.5,8.65,44.3,80,62.6,21.7,2.4,105.0,90.0,1.7,0,5,10,0,2026-07-13T16:00:09.696937+05:30
Warangal,Telangana,17.9689,79.5941,33.4,48,0.0,973.3,8.6,44.3,79,45.1,18.5,1.8,134.0,92.0,2.9,0,5,7,1,2026-07-13T16:00:09.696947+05:30
Nizamabad,Telangana,18.6725,78.0941,32.8,48,0.0,960.3,8.85,46.1,64,22.6,12.5,1.4,125.0,98.0,4.3,0,5,7,1,2026-07-13T16:00:09.696955+05:30
Mysore,Karnataka,12.2958,76.6396,30.8,44,0.0,927.0,8.6,44.3,43,30.9,12.8,2.1,123.0,83.0,1.5,0,5,7,1,2026-07-13T16:00:09.696963+05:30
Mangalore,Karnataka,12.9141,74.856,28.4,79,0.0,1006.5,8.15,45.7,49,18.8,10.0,1.1,95.0,54.0,1.3,7,5,4,1,2026-07-13T16:00:09.696970+05:30
Hubli-Dharwad,Karnataka,15.3647,75.124,29.2,54,0.0,939.8,8.95,49.3,32,15.1,7.9,1.4,107.0,64.0,1.2,4,5,7,1,2026-07-13T16:00:09.696977+05:30
Belgaum,Karnataka,15.8497,74.4977,26.4,69,0.0,924.9,9.0,47.2,29,15.5,8.6,1.2,100.0,60.0,1.4,7,5,7,1,2026-07-13T16:00:13.060943+05:30
Coimbatore,Tamil Nadu,11.0168,76.9558,31.4,54,0.0,959.3,8.25,53.6,44,22.9,10.4,1.4,126.0,75.0,1.9,0,5,7,1,2026-07-13T16:00:13.060979+05:30
Madurai,Tamil Nadu,9.9252,78.1198,39.6,27,0.0,988.2,8.25,45.0,59,61.2,20.3,1.8,119.0,105.0,2.0,0,5,10,1,2026-07-13T16:00:13.060990+05:30
Trichy,Tamil Nadu,10.7905,78.7047,39.1,29,0.0,994.6,8.0,50.0,59,47.3,18.8,1.1,119.0,97.0,1.9,0,5,10,1,2026-07-13T16:00:13.060999+05:30
Salem,Tamil Nadu,11.6643,78.146,36.1,37,0.0,973.2,8.45,33.5,66,45.4,18.3,2.3,158.0,105.0,4.5,0,5,10,1,2026-07-13T16:00:13.061007+05:30
Tirunelveli,Tamil Nadu,8.7139,77.7567,37.2,37,0.0,998.9,8.65,51.5,35,19.8,10.0,1.4,115.0,75.0,1.3,0,5,10,1,2026-07-13T16:00:13.061015+05:30
Vellore,Tamil Nadu,12.9165,79.1325,38.2,26,0.0,979.2,8.6,42.5,69,62.9,22.9,2.5,118.0,96.0,1.9,0,5,10,0,2026-07-13T16:00:13.061023+05:30
Erode,Tamil Nadu,11.341,77.7172,36.6,36,0.1,984.7,7.85,50.0,55,35.0,14.8,2.1,146.0,98.0,2.0,3,5,10,1,2026-07-13T16:00:13.061031+05:30
Kochi,Kerala,9.9312,76.2673,29.0,76,0.0,1008.0,8.55,44.3,49,20.4,11.3,2.1,106.0,64.0,2.1,7,0,4,1,2026-07-13T16:00:13.061038+05:30
Thiruvananthapuram,Kerala,8.5241,76.9366,28.6,76,0.0,1007.0,8.4,52.9,44,20.3,11.0,2.0,95.0,63.0,1.0,7,5,4,1,2026-07-13T16:00:13.061045+05:30
Kozhikode,Kerala,11.2588,75.7804,28.7,77,0.0,1007.2,8.55,47.9,43,18.6,9.1,0.5,96.0,55.0,0.9,7,5,4,1,2026-07-13T16:00:13.061052+05:30
Thrissur,Kerala,10.5276,76.2144,29.4,71,0.0,1006.3,8.35,44.3,47,19.0,10.1,1.4,101.0,61.0,1.5,7,5,4,1,2026-07-13T16:00:13.061060+05:30
Kannur,Kerala,11.8745,75.3704,29.6,71,0.0,1006.6,8.6,49.0,44,18.6,10.0,1.2,95.0,55.0,1.2,7,5,4,1,2026-07-13T16:00:13.061067+05:30
Patna,Bihar,25.5941,85.1376,33.6,64,0.0,989.8,6.75,33.5,150,81.7,47.5,8.7,229.0,113.0,10.2,3,5,7,1,2026-07-13T16:00:13.061074+05:30
Gaya,Bihar,24.7914,85.0002,33.4,61,0.0,984.0,6.55,35.6,126,74.3,41.2,4.7,192.0,112.0,8.2,3,5,7,1,2026-07-13T16:00:13.061081+05:30
Muzaffarpur,Bihar,26.1209,85.3647,32.8,68,0.1,989.7,7.15,32.4,150,110.1,56.1,8.5,283.0,122.0,11.4,6,5,7,1,2026-07-13T16:00:13.061088+05:30
Bhagalpur,Bihar,25.2425,87.0117,29.1,93,0.3,991.3,5.65,24.1,139,89.4,48.9,10.3,271.0,94.0,17.5,10,5,3,1,2026-07-13T16:00:13.061095+05:30
Ranchi,Jharkhand,23.3441,85.3096,30.6,58,0.0,930.1,8.45,33.1,110,91.0,39.2,2.6,161.0,116.0,8.6,0,5,7,1,2026-07-13T16:00:13.061103+05:30
Jamshedpur,Jharkhand,22.8046,86.2029,31.0,69,0.1,982.2,8.45,24.8,128,104.3,54.1,8.7,262.0,147.0,30.1,6,5,7,1,2026-07-13T16:00:13.061110+05:30
Dhanbad,Jharkhand,23.7957,86.4304,28.7,85,0.0,971.1,5.9,29.5,158,90.1,46.6,13.1,260.0,118.0,36.4,7,5,3,1,2026-07-13T16:00:13.061117+05:30
Bokaro,Jharkhand,23.6693,86.1511,30.5,74,0.0,974.8,8.55,27.0,155,90.6,46.7,12.3,727.0,126.0,44.6,3,5,7,1,2026-07-13T16:00:13.061124+05:30
Bhubaneswar,Odisha,20.2961,85.8245,33.5,62,0.0,993.1,6.2,31.3,100,82.2,42.4,10.7,246.0,119.0,20.6,3,5,7,1,2026-07-13T16:00:13.061131+05:30
Cuttack,Odisha,20.4625,85.8828,32.9,65,0.1,995.0,6.7,36.0,100,82.2,42.4,10.7,275.0,119.0,20.6,6,5,7,1,2026-07-13T16:00:13.061139+05:30
Rourkela,Odisha,22.2604,84.8536,34.1,53,0.0,975.8,8.75,25.9,100,87.1,36.8,3.0,292.0,105.0,4.0,0,5,7,1,2026-07-13T16:00:13.061146+05:30
Raipur,Chhattisgarh,21.2514,81.6296,33.3,54,0.0,967.2,6.45,39.2,111,106.9,44.9,8.7,121.0,110.0,27.3,0,5,7,1,2026-07-13T16:00:13.061153+05:30
Bhilai,Chhattisgarh,21.1938,81.3509,32.8,56,0.1,967.7,6.3,42.5,105,112.9,42.5,8.4,283.0,97.0,23.7,3,5,7,1,2026-07-13T16:00:13.061160+05:30
Guwahati,Assam,26.1158,91.7086,30.9,84,0.0,990.4,2.0,20.5,53,16.4,13.4,1.9,296.0,106.0,2.9,3,5,3,1,2026-07-13T16:00:13.061168+05:30
Agartala,Tripura,23.8315,91.2868,30.4,80,0.1,995.4,1.0,30.6,66,8.8,7.4,4.7,203.0,117.0,1.6,6,5,3,1,2026-07-13T16:00:13.061175+05:30
Shillong,Meghalaya,25.5788,91.8933,24.8,72,0.0,851.0,1.55,25.6,47,14.3,9.6,2.0,277.0,98.0,2.3,3,5,3,1,2026-07-13T16:00:13.061183+05:30
Imphal,Manipur,24.817,93.9368,28.9,69,0.0,914.6,6.8,23.8,43,3.7,3.1,1.6,237.0,79.0,1.2,7,5,7,1,2026-07-13T16:00:13.061190+05:30
Aizawl,Mizoram,23.7271,92.7176,22.5,95,0.2,884.1,1.9,21.6,57,10.4,7.1,1.6,170.0,81.0,1.5,6,5,3,1,2026-07-13T16:00:13.061196+05:30
Kohima,Nagaland,25.6701,94.1077,23.3,98,0.0,849.0,8.05,22.0,41,5.8,5.6,2.4,178.0,79.0,0.6,3,5,7,1,2026-07-13T16:00:13.061203+05:30
Gangtok,Sikkim,27.3314,88.6138,21.7,87,0.0,831.8,2.2,29.5,46,4.8,4.5,3.2,269.0,106.0,1.0,3,5,3,1,2026-07-13T16:00:13.061210+05:30
Siliguri,West Bengal,26.7271,88.3953,29.4,78,0.0,982.8,5.8,37.1,48,10.2,9.8,7.1,398.0,100.0,2.4,7,5,3,1,2026-07-13T16:00:16.439401+05:30
Durgapur,West Bengal,23.5204,87.3119,28.0,91,0.2,986.3,6.45,24.1,153,93.8,48.1,10.7,482.0,125.0,26.9,10,5,7,1,2026-07-13T16:00:16.439436+05:30
Asansol,West Bengal,23.6739,86.9524,27.4,96,0.3,984.9,2.3,29.5,148,89.6,45.8,11.2,285.0,117.0,24.2,10,5,3,1,2026-07-13T16:00:16.439448+05:30
Pondicherry,Puducherry,11.9139,79.8145,36.2,43,0.0,1002.7,8.45,48.2,61,42.5,22.7,7.2,166.0,128.0,4.9,0,5,7,1,2026-07-13T16:00:16.439458+05:30
Port Blair,Andaman and Nicobar Islands,11.6234,92.7265,27.4,88,0.1,1003.0,8.6,57.6,41,17.3,7.5,0.4,93.0,48.0,0.4,10,5,4,1,2026-07-13T16:00:16.439467+05:30
Haridwar,Uttarakhand,29.9457,78.1642,34.6,58,0.0,963.4,7.5,27.4,180,232.4,89.4,1.6,227.0,167.0,10.8,0,5,7,1,2026-07-13T16:00:16.439475+05:30
Rishikesh,Uttarakhand,30.0869,78.2676,33.4,60,0.0,956.5,7.6,29.9,164,202.1,77.5,1.1,210.0,160.0,8.6,0,5,7,1,2026-07-13T16:00:16.439483+05:30
Nainital,Uttarakhand,29.3919,79.4542,22.7,71,0.1,801.5,8.5,37.1,162,173.2,70.8,1.6,178.0,145.0,8.1,6,5,7,1,2026-07-13T16:00:16.439490+05:30
Mussoorie,Uttarakhand,30.4599,78.0664,22.6,69,0.0,799.3,8.0,45.7,163,171.4,69.6,1.6,187.0,172.0,8.5,3,5,7,1,2026-07-13T16:00:16.439498+05:30
Dharamshala,Himachal Pradesh,32.219,76.3234,25.9,70,0.0,863.5,8.4,33.8,68,60.1,25.0,0.8,238.0,135.0,1.9,7,5,7,1,2026-07-13T16:00:16.439505+05:30
Dalhousie,Himachal Pradesh,32.5387,75.971,22.4,74,0.0,801.0,8.65,27.0,101,100.1,47.1,4.0,317.0,156.0,3.3,3,5,7,1,2026-07-13T16:00:16.439513+05:30
Patiala,Punjab,30.3398,76.3869,33.9,59,0.0,967.8,7.5,37.1,168,307.3,87.1,1.9,199.0,142.0,6.3,0,5,7,1,2026-07-13T16:00:16.439520+05:30
Bhatinda,Punjab,30.211,74.9455,33.5,59,0.1,973.4,8.25,36.7,171,313.9,98.5,4.4,205.0,173.0,21.0,3,5,7,1,2026-07-13T16:00:16.439528+05:30
Rohtak,Haryana,28.8955,76.6066,36.1,49,0.0,971.2,7.3,43.2,705,478.7,93.8,2.7,171.0,118.0,3.6,0,5,10,1,2026-07-13T16:00:16.439536+05:30
Panipat,Haryana,29.3909,76.9635,34.7,60,0.0,969.8,7.45,27.4,822,366.0,89.2,2.7,176.0,135.0,11.2,0,5,7,1,2026-07-13T16:00:16.439544+05:30
Mathura,Uttar Pradesh,27.4924,77.6737,34.9,54,0.0,976.9,7.2,37.4,700,655.7,95.7,3.2,158.0,117.0,2.5,0,5,7,1,2026-07-13T16:00:16.439551+05:30
Vrindavan,Uttar Pradesh,27.5823,77.7027,35.1,53,0.0,977.2,7.25,36.7,700,655.7,95.7,3.2,153.0,117.0,2.5,0,5,10,1,2026-07-13T16:00:16.439559+05:30
Ayodhya,Uttar Pradesh,26.7922,82.1998,34.8,61,0.0,984.1,7.9,29.2,136,169.0,65.7,2.4,178.0,125.0,5.6,3,5,7,1,2026-07-13T16:00:16.439566+05:30
Ratlam,Madhya Pradesh,23.3315,75.0367,31.4,52,0.0,949.0,8.5,51.8,63,62.4,24.6,1.3,117.0,86.0,3.8,0,5,7,1,2026-07-13T16:00:16.439573+05:30
Sagar,Madhya Pradesh,23.8388,78.7378,31.2,57,0.0,943.5,7.45,43.6,84,113.6,34.7,1.1,131.0,95.0,3.8,0,5,7,1,2026-07-13T16:00:16.439580+05:30
Satna,Madhya Pradesh,24.6005,80.8322,33.6,55,0.0,962.8,8.0,42.5,94,80.6,32.7,1.4,122.0,101.0,3.5,0,5,7,1,2026-07-13T16:00:16.439587+05:30
Akola,Maharashtra,20.7002,77.0082,33.7,45,0.0,969.9,8.6,47.5,63,41.2,16.9,1.8,118.0,94.0,5.3,0,5,7,1,2026-07-13T16:00:16.439595+05:30
Amravati,Maharashtra,20.9374,77.7796,33.9,44,0.0,961.7,7.75,53.6,65,52.0,20.1,2.2,121.0,93.0,6.0,0,5,7,1,2026-07-13T16:00:16.439602+05:30
Latur,Maharashtra,18.4088,76.5604,32.4,47,0.0,936.2,8.85,47.5,49,17.1,10.1,1.0,117.0,90.0,2.1,0,5,7,1,2026-07-13T16:00:16.439610+05:30
Nanded,Maharashtra,19.1383,77.3091,33.5,47,0.0,963.9,8.45,43.9,59,20.6,11.4,1.4,133.0,89.0,2.5,0,5,7,1,2026-07-13T16:00:16.439617+05:30
Gulbarga,Karnataka,17.3297,76.8343,33.7,40,0.0,954.9,8.8,48.6,50,16.9,9.6,1.5,119.0,91.0,1.9,0,5,7,1,2026-07-13T16:00:16.439624+05:30
Bidar,Karnataka,17.9104,77.5199,32.1,48,0.0,931.9,8.95,46.1,55,18.9,10.5,1.7,125.0,90.0,1.7,0,5,7,1,2026-07-13T16:00:16.439631+05:30
Hospet,Karnataka,15.2689,76.3909,32.9,42,0.0,953.4,8.9,48.6,39,23.1,10.4,1.4,116.0,82.0,1.6,0,5,7,1,2026-07-13T16:00:16.439638+05:30
Tirupur,Tamil Nadu,11.1085,77.3411,33.5,47,0.0,972.0,8.05,55.8,57,32.0,13.7,1.9,128.0,92.0,2.3,0,5,7,1,2026-07-13T16:00:16.439645+05:30
Alappuzha,Kerala,9.4981,76.3388,29.2,76,0.0,1008.0,8.45,45.4,49,21.5,11.5,2.6,87.0,64.0,2.0,7,0,4,1,2026-07-13T16:00:16.439651+05:30
Munnar,Kerala,10.0889,77.0595,19.5,91,0.1,856.4,8.8,35.6,28,18.9,8.9,1.5,105.0,68.0,1.3,6,10,7,1,2026-07-13T16:00:16.439659+05:30
Silchar,Assam,24.8333,92.7789,34.0,61,0.0,992.9,5.7,19.4,73,19.7,14.1,2.9,251.0,111.0,4.4,3,5,3,1,2026-07-13T16:00:16.439665+05:30
Dibrugarh,Assam,27.4728,94.912,32.9,66,0.0,983.9,8.9,20.9,46,4.7,4.7,1.8,197.0,97.0,0.7,3,5,7,1,2026-07-13T16:00:16.439672+05:30
