city,state,latitude,longitude,temp,humidity,rain,pressure,uv_index,wind_gusts,aqi,pm10,pm2_5,no2,co,o3,so2,mosquito_risk,arthritis_risk,migraine_risk,frizz_risk,updated_at
Delhi,Delhi,28.6139,77.209,34.1,51,0.0,979.5,7.75,30.6,159,244.0,97.1,66.9,967.0,33.0,23.4,0,5,7,1,2026-06-26T22:31:45.803275+05:30
Mumbai,Maharashtra,19.076,72.8777,28.4,82,0.0,1007.5,7.2,38.2,62,22.0,12.5,11.8,523.0,40.0,7.9,7,5,4,1,2026-06-26T22:31:45.803321+05:30
Bangalore,Karnataka,12.9716,77.5946,22.4,87,0.0,912.0,8.35,44.6,30,11.7,9.9,24.2,493.0,35.0,6.1,3,5,7,1,2026-06-26T22:31:45.803336+05:30
Hyderabad,Telangana,17.385,78.4867,27.5,70,0.0,951.9,8.15,38.9,63,43.1,28.5,21.1,824.0,57.0,8.4,7,5,7,1,2026-06-26T22:31:45.803346+05:30
Chennai,Tamil Nadu,13.0827,80.2707,29.0,72,0.0,1006.2,8.5,34.9,63,31.8,22.5,12.8,264.0,89.0,8.0,7,5,4,1,2026-06-26T22:31:45.803355+05:30
Kolkata,West Bengal,22.5726,88.3639,28.3,88,0.0,1004.6,8.95,27.4,92,28.2,26.4,14.8,391.0,54.0,7.9,7,5,4,1,2026-06-26T22:31:45.803362+05:30
Pune,Maharashtra,18.5204,73.8567,24.1,87,0.0,947.5,7.7,34.6,44,13.5,9.4,12.6,198.0,38.0,8.7,3,5,7,1,2026-06-26T22:31:45.803369+05:30
Ahmedabad,Gujarat,23.0225,72.5714,32.4,59,0.0,999.6,8.05,36.0,68,57.7,29.2,13.3,194.0,58.0,5.1,0,5,7,1,2026-06-26T22:31:45.803376+05:30
Jaipur,Rajasthan,26.9124,75.7873,29.9,68,0.0,957.5,8.2,31.0,99,74.3,39.8,31.0,558.0,36.0,9.6,7,5,7,1,2026-06-26T22:31:45.803383+05:30
Lucknow,Uttar Pradesh,26.8467,80.9462,34.7,51,0.0,989.8,8.3,29.9,124,112.0,58.2,22.8,424.0,84.0,12.7,0,5,7,1,2026-06-26T22:31:45.803394+05:30
Kanpur,Uttar Pradesh,26.4499,80.3319,34.9,47,0.0,988.3,8.3,38.9,127,189.1,66.1,20.6,325.0,80.0,9.1,0,5,7,1,2026-06-26T22:31:45.803401+05:30
Chandigarh,Chandigarh,30.7333,76.7794,29.1,73,0.0,965.3,7.8,22.3,151,127.1,78.5,66.7,1242.0,31.0,12.9,7,5,7,1,2026-06-26T22:31:45.803408+05:30
Srinagar,Jammu and Kashmir,34.0837,74.7973,22.2,69,0.0,840.7,9.05,23.0,83,38.6,37.7,36.6,1173.0,21.0,2.5,3,5,7,1,2026-06-26T22:31:45.803416+05:30
Jammu,Jammu and Kashmir,32.7266,74.857,30.4,61,0.0,969.1,8.65,26.3,136,117.6,65.4,51.6,539.0,78.0,10.9,3,5,7,1,2026-06-26T22:31:45.803422+05:30
Amritsar,Punjab,31.634,74.8723,29.9,78,0.0,976.7,8.5,22.7,153,94.5,71.0,38.9,829.0,58.0,8.2,7,5,7,1,2026-06-26T22:31:45.803428+05:30
Ludhiana,Punjab,30.901,75.8573,32.5,57,0.0,975.0,8.05,28.4,157,99.4,72.9,46.5,718.0,44.0,10.5,0,5,7,1,2026-06-26T22:31:45.803434+05:30
Jalandhar,Punjab,31.326,75.5762,32.1,58,0.0,976.1,8.25,25.2,150,116.6,87.8,56.9,994.0,40.0,10.2,0,5,7,1,2026-06-26T22:31:45.803441+05:30
Dehradun,Uttarakhand,30.6284,78.0322,17.8,93,0.0,829.5,7.65,29.5,77,47.4,25.6,32.2,226.0,56.0,1.4,3,10,7,1,2026-06-26T22:31:45.803447+05:30
Shimla,Himachal Pradesh,31.1048,77.1734,14.5,97,0.0,783.0,7.7,29.9,99,54.5,30.3,16.4,460.0,95.0,1.2,3,10,7,0,2026-06-26T22:31:45.803457+05:30
Manali,Himachal Pradesh,32.2396,77.1887,16.7,89,0.0,818.3,7.35,35.6,53,7.5,6.6,107.1,353.0,1.0,0.1,3,10,7,0,2026-06-26T22:31:45.803470+05:30
Gurgaon,Haryana,28.4595,77.0266,32.9,52,0.0,978.0,7.85,27.4,153,215.6,81.7,66.6,1218.0,21.0,18.1,0,5,7,1,2026-06-26T22:31:45.803476+05:30
Noida,Uttar Pradesh,28.5355,77.391,32.0,63,0.0,980.7,7.8,25.9,153,215.6,81.7,66.6,1896.0,21.0,18.1,3,5,7,1,2026-06-26T22:31:45.803483+05:30
Ghaziabad,Uttar Pradesh,28.6692,77.4538,32.0,59,0.0,979.1,7.75,18.4,167,187.7,91.0,46.4,1110.0,81.0,27.1,0,5,7,1,2026-06-26T22:31:45.803489+05:30
Faridabad,Haryana,28.4089,77.3178,32.8,60,0.0,980.1,7.8,31.7,153,215.6,81.7,66.6,1118.0,21.0,18.1,0,5,7,1,2026-06-26T22:31:45.803495+05:30
Meerut,Uttar Pradesh,28.9845,77.7064,33.6,52,0.0,978.0,7.7,24.1,167,187.7,91.0,46.4,557.0,81.0,27.1,0,5,7,1,2026-06-26T22:31:45.803502+05:30
Agra,Uttar Pradesh,27.1767,78.0081,33.8,50,0.0,984.4,8.1,30.6,150,141.1,74.7,66.1,530.0,17.0,17.6,0,5,7,1,2026-06-26T22:31:45.803508+05:30
Varanasi,Uttar Pradesh,25.3176,82.9739,33.6,59,0.0,994.3,8.8,36.7,115,52.5,47.5,18.9,617.0,95.0,10.3,0,5,7,1,2026-06-26T22:31:45.803515+05:30
Prayagraj,Uttar Pradesh,25.4358,81.8463,32.9,60,0.0,992.9,8.5,31.3,118,44.4,36.6,17.7,254.0,88.0,9.8,0,5,7,1,2026-06-26T22:31:45.803522+05:30
Gorakhpur,Uttar Pradesh,26.7606,83.3732,31.4,72,0.0,994.3,8.65,25.2,150,100.8,77.1,34.9,639.0,53.0,13.7,3,5,7,1,2026-06-26T22:31:45.803528+05:30
Bareilly,Uttar Pradesh,28.367,79.4304,34.1,47,0.0,983.3,8.1,21.2,153,106.4,69.6,38.0,468.0,74.0,17.0,0,5,7,1,2026-06-26T22:31:45.803536+05:30
Aligarh,Uttar Pradesh,27.8974,78.088,33.4,61,0.0,982.0,7.95,23.4,151,190.5,69.6,45.6,487.0,34.0,9.5,3,5,7,1,2026-06-26T22:31:45.803542+05:30
Moradabad,Uttar Pradesh,28.8386,78.7733,34.4,48,0.0,980.2,7.95,27.4,153,173.2,111.1,66.5,548.0,39.0,21.8,0,5,7,1,2026-06-26T22:31:45.803548+05:30
Saharanpur,Uttar Pradesh,29.9637,77.546,32.2,53,0.0,972.3,7.55,21.6,152,280.3,133.6,79.0,768.0,21.0,26.2,0,5,7,1,2026-06-26T22:31:45.803555+05:30
Jhansi,Uttar Pradesh,25.4484,78.5685,31.1,65,0.0,975.0,8.45,35.3,82,73.8,37.4,15.4,232.0,58.0,6.8,3,5,7,1,2026-06-26T22:31:49.060661+05:30
Surat,Gujarat,21.1702,72.8311,29.7,78,0.0,1005.0,7.05,38.5,86,40.7,23.3,18.4,271.0,34.0,30.0,7,5,4,1,2026-06-26T22:31:49.060693+05:30
Vadodara,Gujarat,22.3072,73.1812,30.8,67,0.0,1002.0,8.0,38.9,79,33.5,21.6,17.4,152.0,37.0,16.9,3,5,4,1,2026-06-26T22:31:49.060705+05:30
Rajkot,Gujarat,22.3039,70.8022,29.2,75,0.0,992.4,7.55,49.3,64,37.6,18.3,7.6,122.0,43.0,5.2,7,5,7,1,2026-06-26T22:31:49.060715+05:30
Thane,Maharashtra,19.2183,72.9781,27.4,89,0.0,1006.9,6.2,30.2,62,22.0,12.5,11.8,540.0,40.0,7.9,7,5,4,1,2026-06-26T22:31:49.060724+05:30
Nagpur,Maharashtra,21.1458,79.0882,27.0,89,0.0,971.2,8.8,23.4,80,30.3,27.1,22.8,456.0,60.0,21.7,7,5,7,1,2026-06-26T22:31:49.060734+05:30
Nashik,Maharashtra,19.9975,73.7898,23.9,92,0.0,944.6,7.75,42.5,53,19.4,12.5,10.3,176.0,50.0,6.3,3,5,7,1,2026-06-26T22:31:49.060743+05:30
Aurangabad,Maharashtra,19.8762,75.3433,25.8,83,0.0,942.9,7.85,36.0,61,38.8,21.1,9.1,261.0,53.0,4.3,7,5,7,1,2026-06-26T22:31:49.060751+05:30
Solapur,Maharashtra,17.6599,75.9064,28.2,65,0.0,956.4,6.9,32.4,55,36.6,21.2,11.1,206.0,54.0,4.4,7,5,7,1,2026-06-26T22:31:49.060760+05:30
Kolhapur,Maharashtra,16.705,74.2433,23.2,91,0.0,947.8,8.2,42.5,36,16.6,13.0,12.5,196.0,33.0,3.8,3,5,7,1,2026-06-26T22:31:49.060769+05:30
Goa,Goa,15.2993,74.124,25.7,96,0.1,998.6,6.3,29.2,50,22.7,15.7,8.5,357.0,41.0,2.2,10,5,7,1,2026-06-26T22:31:49.060778+05:30
Jodhpur,Rajasthan,26.2389,73.0243,30.9,65,0.1,980.1,8.4,30.2,98,127.1,36.7,11.7,190.0,50.0,2.8,6,5,7,1,2026-06-26T22:31:49.060787+05:30
Udaipur,Rajasthan,24.5854,73.7125,26.1,83,0.0,944.6,8.35,51.5,75,50.2,26.6,19.3,288.0,37.0,4.6,7,5,7,1,2026-06-26T22:31:49.060795+05:30
Kota,Rajasthan,25.2138,75.8648,29.8,72,0.0,976.5,7.6,34.6,90,53.8,34.3,14.3,216.0,59.0,5.5,7,5,7,1,2026-06-26T22:31:49.060804+05:30
Bikaner,Rajasthan,28.0229,73.3119,34.3,46,0.0,978.3,8.45,31.0,109,142.5,48.3,7.2,271.0,55.0,3.0,0,5,7,1,2026-06-26T22:31:49.060812+05:30
Ajmer,Rajasthan,26.4499,74.6399,29.8,64,0.0,952.6,8.3,42.1,86,53.0,29.3,11.1,195.0,54.0,3.7,7,5,7,1,2026-06-26T22:31:49.060821+05:30
Gwalior,Madhya Pradesh,26.2183,78.1828,32.9,56,0.0,980.0,8.25,41.4,71,41.0,24.4,11.8,187.0,57.0,3.8,0,5,7,1,2026-06-26T22:31:49.060829+05:30
Indore,Madhya Pradesh,22.7196,75.8577,25.4,89,0.0,946.3,7.4,43.2,102,44.1,32.8,23.7,573.0,38.0,7.0,7,5,7,1,2026-06-26T22:31:49.060837+05:30
Bhopal,Madhya Pradesh,23.2599,77.4126,26.2,87,0.0,951.6,8.6,27.7,87,41.2,32.6,12.4,381.0,64.0,4.5,7,5,7,1,2026-06-26T22:31:49.060845+05:30
Jabalpur,Madhya Pradesh,23.1815,79.9864,28.4,80,0.0,959.6,8.8,23.0,67,24.6,22.4,14.3,314.0,60.0,4.2,7,5,7,1,2026-06-26T22:31:49.060853+05:30
Ujjain,Madhya Pradesh,23.1765,75.7885,26.1,86,0.0,952.0,7.75,33.5,94,45.5,32.8,13.3,528.0,45.0,4.0,7,5,7,1,2026-06-26T22:31:49.060862+05:30
Visakhapatnam,Andhra Pradesh,17.6868,83.2185,28.6,86,0.0,1001.1,8.65,34.2,90,41.0,34.5,38.6,640.0,60.0,46.8,7,5,4,1,2026-06-26T22:31:49.060871+05:30
Vijayawada,Andhra Pradesh,16.5062,80.648,29.6,81,0.0,1000.4,8.4,38.2,81,38.2,34.8,24.0,500.0,47.0,8.3,7,5,4,1,2026-06-26T22:31:49.060879+05:30
Guntur,Andhra Pradesh,16.3067,80.4365,29.2,82,0.0,1001.7,8.0,37.8,79,31.1,27.4,19.1,500.0,58.0,7.9,7,5,4,1,2026-06-26T22:31:49.060887+05:30
Nellore,Andhra Pradesh,14.4426,79.9865,29.6,81,0.0,1004.3,8.15,40.3,53,24.2,17.6,8.4,159.0,68.0,3.9,7,5,4,1,2026-06-26T22:31:49.060896+05:30
Kurnool,Andhra Pradesh,15.8281,78.0373,28.6,68,0.0,975.8,7.3,35.6,51,44.4,28.2,16.4,182.0,56.0,8.6,7,5,7,1,2026-06-26T22:31:49.060905+05:30
Kakinada,Andhra Pradesh,16.9891,82.2475,29.0,82,0.0,1005.0,8.45,35.3,67,26.5,23.1,9.9,517.0,87.0,5.8,7,5,4,1,2026-06-26T22:31:49.060913+05:30
Tirupati,Andhra Pradesh,13.6288,79.4192,26.8,93,0.0,990.0,8.35,38.9,51,14.6,12.5,27.6,262.0,19.0,2.9,7,5,7,1,2026-06-26T22:31:49.060921+05:30
Warangal,Telangana,17.9689,79.5941,27.8,84,0.0,976.8,7.6,35.3,72,36.1,29.9,15.2,406.0,53.0,5.4,7,5,7,1,2026-06-26T22:31:49.060929+05:30
Nizamabad,Telangana,18.6725,78.0941,26.4,87,0.0,963.4,7.35,36.7,72,35.0,25.1,11.5,288.0,62.0,3.4,7,5,7,1,2026-06-26T22:31:49.060938+05:30
Mysore,Karnataka,12.2958,76.6396,22.0,89,0.0,929.4,9.0,43.2,30,11.4,8.1,11.3,182.0,44.0,2.7,3,5,7,1,2026-06-26T22:31:49.060946+05:30
Mangalore,Karnataka,12.9141,74.856,25.4,92,0.0,1008.5,8.4,29.9,43,19.6,13.4,9.0,287.0,36.0,3.1,7,0,4,1,2026-06-26T22:31:49.060955+05:30
Hubli-Dharwad,Karnataka,15.3647,75.124,23.2,90,0.0,940.9,8.45,50.8,26,8.4,5.7,7.0,138.0,40.0,1.7,3,5,7,1,2026-06-26T22:31:49.060963+05:30
Belgaum,Karnataka,15.8497,74.4977,21.8,96,0.0,925.6,7.9,49.0,27,14.1,10.2,10.8,128.0,31.0,2.1,3,5,7,1,2026-06-26T22:31:52.707637+05:30
Coimbatore,Tamil Nadu,11.0168,76.9558,24.1,91,0.0,962.4,8.35,49.3,32,11.3,9.0,10.7,222.0,33.0,3.7,3,5,7,1,2026-06-26T22:31:52.707676+05:30
Madurai,Tamil Nadu,9.9252,78.1198,30.7,58,0.0,993.3,8.05,38.9,70,41.6,36.4,46.3,278.0,4.0,11.2,0,5,7,1,2026-06-26T22:31:52.707691+05:30
Trichy,Tamil Nadu,10.7905,78.7047,28.5,68,0.1,1000.2,7.7,37.8,46,19.6,16.3,17.9,144.0,35.0,4.9,10,5,4,1,2026-06-26T22:31:52.707704+05:30
Salem,Tamil Nadu,11.6643,78.146,26.7,87,0.0,977.7,8.05,33.8,62,19.2,15.8,21.0,511.0,42.0,7.2,7,5,7,1,2026-06-26T22:31:52.707716+05:30
Tirunelveli,Tamil Nadu,8.7139,77.7567,29.4,62,0.0,1003.8,8.65,50.4,30,10.9,8.8,8.4,159.0,44.0,2.6,7,5,4,1,2026-06-26T22:31:52.707727+05:30
Vellore,Tamil Nadu,12.9165,79.1325,26.3,84,0.0,984.0,7.5,41.0,50,16.9,14.4,16.5,291.0,38.0,4.3,7,5,7,1,2026-06-26T22:31:52.707740+05:30
Erode,Tamil Nadu,11.341,77.7172,27.6,72,0.0,989.6,8.15,37.1,52,17.2,14.2,18.6,207.0,33.0,4.1,7,5,7,1,2026-06-26T22:31:52.707755+05:30
Kochi,Kerala,9.9312,76.2673,25.8,96,0.0,1010.5,7.85,32.4,48,21.9,18.5,24.3,306.0,15.0,5.8,7,0,4,1,2026-06-26T22:31:52.707768+05:30
Thiruvananthapuram,Kerala,8.5241,76.9366,25.3,93,0.0,1009.8,8.45,44.6,31,13.2,8.2,3.6,220.0,52.0,1.7,7,0,4,1,2026-06-26T22:31:52.707779+05:30
Kozhikode,Kerala,11.2588,75.7804,25.6,94,0.0,1009.4,8.05,37.1,28,14.3,7.9,1.8,390.0,56.0,1.0,7,0,4,1,2026-06-26T22:31:52.707792+05:30
Thrissur,Kerala,10.5276,76.2144,25.7,95,0.0,1008.8,8.25,36.7,48,23.3,20.3,17.4,571.0,20.0,4.7,7,0,4,1,2026-06-26T22:31:52.707805+05:30
Kannur,Kerala,11.8745,75.3704,25.2,93,0.0,1008.6,8.35,34.2,34,17.2,10.5,13.6,503.0,28.0,2.8,7,0,4,1,2026-06-26T22:31:52.707815+05:30
Patna,Bihar,25.5941,85.1376,32.1,77,0.0,997.5,8.65,23.4,138,68.0,60.1,20.6,651.0,107.0,18.4,3,5,7,1,2026-06-26T22:31:52.707824+05:30
Gaya,Bihar,24.7914,85.0002,30.9,70,0.0,991.1,7.3,24.1,91,49.6,45.5,23.7,475.0,74.0,14.0,3,5,7,1,2026-06-26T22:31:52.707833+05:30
Muzaffarpur,Bihar,26.1209,85.3647,30.3,77,0.0,997.6,8.8,25.2,154,77.5,68.0,17.3,1148.0,120.0,18.4,3,5,7,1,2026-06-26T22:31:52.707842+05:30
Bhagalpur,Bihar,25.2425,87.0117,28.6,89,0.1,998.7,7.75,23.0,119,47.4,45.8,13.8,358.0,125.0,26.1,10,5,7,1,2026-06-26T22:31:52.707851+05:30
Ranchi,Jharkhand,23.3441,85.3096,24.6,93,0.0,936.3,8.8,27.4,109,27.1,26.4,10.6,347.0,99.0,15.1,3,5,7,1,2026-06-26T22:31:52.707860+05:30
Jamshedpur,Jharkhand,22.8046,86.2029,27.1,92,0.0,989.4,9.05,32.4,87,30.0,28.7,22.8,1418.0,59.0,27.2,7,5,7,1,2026-06-26T22:31:52.707869+05:30
Dhanbad,Jharkhand,23.7957,86.4304,28.6,80,0.0,978.2,8.85,29.5,150,41.7,40.5,45.3,1465.0,50.0,102.1,7,5,7,1,2026-06-26T22:31:52.707879+05:30
Bokaro,Jharkhand,23.6693,86.1511,28.7,79,0.0,981.9,8.85,30.6,150,46.7,45.6,40.5,814.0,68.0,100.2,7,5,7,1,2026-06-26T22:31:52.707888+05:30
Bhubaneswar,Odisha,20.2961,85.8245,28.1,96,0.0,1000.5,9.0,31.0,76,33.9,30.6,16.4,288.0,71.0,6.8,7,5,4,1,2026-06-26T22:31:52.707898+05:30
Cuttack,Odisha,20.4625,85.8828,28.6,93,0.0,1002.4,9.1,34.9,76,33.9,30.6,16.4,362.0,71.0,6.8,7,5,4,1,2026-06-26T22:31:52.707907+05:30
Rourkela,Odisha,22.2604,84.8536,29.2,82,0.0,983.4,8.65,29.9,154,23.4,22.5,11.7,523.0,109.0,23.5,7,5,7,1,2026-06-26T22:31:52.707916+05:30
Raipur,Chhattisgarh,21.2514,81.6296,27.7,85,0.0,972.8,8.8,28.8,92,31.5,31.3,38.7,696.0,46.0,56.7,7,5,7,1,2026-06-26T22:31:52.707925+05:30
Bhilai,Chhattisgarh,21.1938,81.3509,27.8,89,0.0,973.3,8.9,33.8,96,31.2,31.0,33.6,1288.0,50.0,47.8,7,5,7,1,2026-06-26T22:31:52.707935+05:30
Guwahati,Assam,26.1158,91.7086,28.3,89,0.0,999.1,8.75,32.0,86,36.1,34.8,17.0,403.0,36.0,3.6,7,5,7,1,2026-06-26T22:31:52.707944+05:30
Agartala,Tripura,23.8315,91.2868,27.1,89,0.0,1005.6,8.2,25.6,77,19.9,18.7,13.8,209.0,37.0,2.7,7,5,4,1,2026-06-26T22:31:52.707953+05:30
Shillong,Meghalaya,25.5788,91.8933,19.4,96,0.0,856.7,6.0,19.8,61,11.0,9.9,6.9,281.0,86.0,2.4,3,10,3,1,2026-06-26T22:31:52.707962+05:30
Imphal,Manipur,24.817,93.9368,24.1,93,0.0,922.2,9.05,29.5,52,27.1,25.0,22.8,693.0,31.0,4.5,3,5,7,1,2026-06-26T22:31:52.707971+05:30
Aizawl,Mizoram,23.7271,92.7176,20.4,97,0.0,892.1,8.85,20.9,59,10.9,9.1,4.4,166.0,59.0,1.6,3,5,7,1,2026-06-26T22:31:52.707980+05:30
Kohima,Nagaland,25.6701,94.1077,20.3,96,0.0,855.2,8.7,32.8,50,15.0,13.7,12.6,324.0,38.0,1.5,3,5,7,1,2026-06-26T22:31:52.707989+05:30
Gangtok,Sikkim,27.3314,88.6138,18.4,92,0.2,837.6,8.8,36.4,93,8.8,8.4,9.7,631.0,121.0,2.5,6,10,7,1,2026-06-26T22:31:52.707998+05:30
Siliguri,West Bengal,26.7271,88.3953,25.7,97,0.0,991.8,8.7,20.9,117,31.9,28.8,13.5,665.0,114.0,5.7,7,5,7,1,2026-06-26T22:31:56.137426+05:30
Durgapur,West Bengal,23.5204,87.3119,28.2,90,0.0,993.2,9.0,40.0,120,42.4,41.2,30.7,491.0,58.0,41.6,7,5,7,1,2026-06-26T22:31:56.137463+05:30
Asansol,West Bengal,23.6739,86.9524,27.9,88,0.0,991.8,9.0,38.5,110,31.0,29.8,28.1,485.0,58.0,38.6,7,5,7,1,2026-06-26T22:31:56.137474+05:30
Pondicherry,Puducherry,11.9139,79.8145,27.9,78,0.0,1008.2,7.35,37.1,73,32.2,23.1,17.4,266.0,78.0,11.8,7,0,4,1,2026-06-26T22:31:56.137484+05:30
Port Blair,Andaman and Nicobar Islands,11.6234,92.7265,25.5,94,0.0,1008.2,8.7,36.7,22,4.3,2.6,0.3,96.0,48.0,0.2,7,0,4,1,2026-06-26T22:31:56.137493+05:30
Haridwar,Uttarakhand,29.9457,78.1642,28.6,82,0.0,970.4,7.6,20.2,132,226.3,81.5,21.3,303.0,102.0,16.4,7,5,7,1,2026-06-26T22:31:56.137503+05:30
Rishikesh,Uttarakhand,30.0869,78.2676,27.3,83,0.0,963.4,7.7,20.5,101,149.5,52.6,14.8,367.0,107.0,7.7,7,5,7,1,2026-06-26T22:31:56.137512+05:30
Nainital,Uttarakhand,29.3919,79.4542,17.1,90,0.0,805.7,7.95,29.5,102,103.4,43.0,17.8,376.0,83.0,5.8,3,10,7,0,2026-06-26T22:31:56.137522+05:30
Mussoorie,Uttarakhand,30.4599,78.0664,17.6,83,0.0,803.2,7.25,31.3,100,122.9,54.8,37.1,364.0,81.0,10.7,3,10,7,0,2026-06-26T22:31:56.137531+05:30
Dharamshala,Himachal Pradesh,32.219,76.3234,22.0,81,0.0,868.4,8.3,42.8,62,25.6,22.6,22.9,482.0,29.0,0.3,3,5,7,1,2026-06-26T22:31:56.137540+05:30
Dalhousie,Himachal Pradesh,32.5387,75.971,15.7,99,0.0,803.5,8.05,30.2,137,112.0,63.3,36.8,653.0,79.0,4.2,3,10,7,0,2026-06-26T22:31:56.137549+05:30
Patiala,Punjab,30.3398,76.3869,32.5,60,0.0,974.7,7.7,27.4,158,207.7,102.9,48.6,813.0,36.0,11.6,0,5,7,1,2026-06-26T22:31:56.137558+05:30
Bhatinda,Punjab,30.211,74.9455,32.7,61,0.0,979.9,7.55,21.6,154,133.2,93.1,61.5,524.0,34.0,13.7,3,5,7,1,2026-06-26T22:31:56.137566+05:30
Rohtak,Haryana,28.8955,76.6066,31.6,60,0.0,978.1,7.7,22.7,156,271.0,99.0,76.7,941.0,6.0,13.5,0,5,7,1,2026-06-26T22:31:56.137574+05:30
Panipat,Haryana,29.3909,76.9635,31.3,70,0.0,976.6,7.2,25.6,165,306.4,117.6,72.5,771.0,15.0,14.5,3,5,7,1,2026-06-26T22:31:56.137583+05:30
Mathura,Uttar Pradesh,27.4924,77.6737,32.5,62,0.0,983.4,8.05,22.0,125,130.4,66.1,72.7,430.0,8.0,8.9,3,5,7,1,2026-06-26T22:31:56.137591+05:30
Vrindavan,Uttar Pradesh,27.5823,77.7027,32.2,61,0.0,983.7,8.0,22.3,125,130.4,66.1,72.7,488.0,8.0,8.9,3,5,7,1,2026-06-26T22:31:56.137599+05:30
Ayodhya,Uttar Pradesh,26.7922,82.1998,31.4,73,0.0,992.2,8.45,37.8,148,84.5,61.0,22.4,539.0,83.0,9.9,3,5,7,1,2026-06-26T22:31:56.137607+05:30
Ratlam,Madhya Pradesh,23.3315,75.0367,25.7,82,0.0,953.2,8.4,38.2,88,47.1,34.6,14.2,359.0,36.0,3.8,7,5,7,1,2026-06-26T22:31:56.137616+05:30
Sagar,Madhya Pradesh,23.8388,78.7378,27.3,87,0.0,948.0,8.15,31.3,65,24.8,20.5,12.8,223.0,62.0,2.7,7,5,7,1,2026-06-26T22:31:56.137624+05:30
Satna,Madhya Pradesh,24.6005,80.8322,30.0,73,0.0,969.0,8.75,32.0,67,31.4,24.2,13.1,223.0,65.0,3.9,7,5,7,1,2026-06-26T22:31:56.137632+05:30
Akola,Maharashtra,20.7002,77.0082,25.8,95,0.0,973.4,8.75,38.5,78,29.7,19.7,10.4,264.0,69.0,4.0,7,5,7,1,2026-06-26T22:31:56.137642+05:30
Amravati,Maharashtra,20.9374,77.7796,25.3,96,0.0,965.6,8.1,35.3,79,27.2,19.0,11.0,280.0,67.0,4.1,7,5,7,1,2026-06-26T22:31:56.137651+05:30
Latur,Maharashtra,18.4088,76.5604,25.7,88,0.0,938.7,3.65,29.9,64,51.5,30.4,13.3,366.0,53.0,4.3,7,5,3,1,2026-06-26T22:31:56.137659+05:30
Nanded,Maharashtra,19.1383,77.3091,27.3,82,0.0,967.3,7.55,38.5,73,26.8,19.0,11.1,311.0,63.0,2.6,7,5,7,1,2026-06-26T22:31:56.137667+05:30
Gulbarga,Karnataka,17.3297,76.8343,27.1,71,0.0,958.0,7.75,33.8,55,62.2,35.3,32.8,275.0,31.0,6.0,7,5,7,1,2026-06-26T22:31:56.137675+05:30
Bidar,Karnataka,17.9104,77.5199,25.6,81,0.0,934.6,4.9,33.1,67,36.1,25.6,20.2,239.0,54.0,5.6,7,5,3,1,2026-06-26T22:31:56.137683+05:30
Hospet,Karnataka,15.2689,76.3909,26.1,72,0.0,956.0,8.7,39.6,27,12.1,8.8,8.8,171.0,42.0,1.9,7,5,7,1,2026-06-26T22:31:56.137691+05:30
Tirupur,Tamil Nadu,11.1085,77.3411,25.5,83,0.0,975.8,8.2,49.7,56,19.6,16.9,23.5,170.0,25.0,5.6,7,5,7,1,2026-06-26T22:31:56.137700+05:30
Alappuzha,Kerala,9.4981,76.3388,25.9,96,0.0,1010.5,7.9,37.1,42,19.8,14.3,13.3,80.0,38.0,3.7,7,0,4,1,2026-06-26T22:31:56.137708+05:30
Munnar,Kerala,10.0889,77.0595,16.1,97,0.0,857.4,8.7,37.1,25,9.9,8.2,10.2,110.0,30.0,2.1,3,10,7,0,2026-06-26T22:31:56.137717+05:30
Silchar,Assam,24.8333,92.7789,28.3,89,0.1,1003.7,8.8,21.6,83,31.2,24.7,6.8,284.0,94.0,4.3,10,5,4,1,2026-06-26T22:31:56.137725+05:30
Dibrugarh,Assam,27.4728,94.912,26.3,97,0.3,993.4,8.9,25.2,81,20.9,18.6,9.5,311.0,78.0,1.8,10,5,7,1,2026-06-26T22:31:56.137734+05:30
