city,state,latitude,longitude,temp,humidity,rain,pressure,uv_index,wind_gusts,aqi,pm10,pm2_5,mosquito_risk,arthritis_risk,migraine_risk,frizz_risk,updated_at
Delhi,Delhi,28.6139,77.209,28.7,32,0.0,981.3,7.35,41.0,197,765.5,127.1,4,5,7,0,2026-04-25T04:11:46.518035+05:30
Mumbai,Maharashtra,19.076,72.8777,27.5,56,0.0,1005.8,8.0,43.9,78,32.0,16.7,4,5,4,1,2026-04-25T04:11:46.518081+05:30
Bangalore,Karnataka,12.9716,77.5946,25.0,49,0.0,910.3,8.6,41.8,82,24.3,22.2,4,5,7,0,2026-04-25T04:11:46.518098+05:30
Hyderabad,Telangana,17.385,78.4867,28.2,43,0.0,951.3,9.3,37.4,128,55.2,46.7,4,5,7,0,2026-04-25T04:11:46.518109+05:30
Chennai,Tamil Nadu,13.0827,80.2707,28.0,87,0.0,1005.8,8.85,50.8,28,10.9,7.5,7,5,4,1,2026-04-25T04:11:46.518119+05:30
Kolkata,West Bengal,22.5726,88.3639,27.9,89,0.0,1005.6,8.6,41.0,76,30.3,23.9,7,5,4,1,2026-04-25T04:11:46.518132+05:30
Pune,Maharashtra,18.5204,73.8567,27.3,41,0.0,946.5,8.5,38.2,107,54.1,48.9,4,5,7,0,2026-04-25T04:11:46.518140+05:30
Ahmedabad,Gujarat,23.0225,72.5714,30.2,37,0.0,1001.0,8.2,24.1,57,19.8,9.3,0,5,4,0,2026-04-25T04:11:46.518148+05:30
Jaipur,Rajasthan,26.9124,75.7873,28.4,26,0.0,958.6,8.05,33.5,106,211.9,39.8,4,5,7,0,2026-04-25T04:11:46.518157+05:30
Lucknow,Uttar Pradesh,26.8467,80.9462,30.0,23,0.0,991.0,7.9,40.7,122,192.3,47.0,4,5,7,0,2026-04-25T04:11:46.518165+05:30
Kanpur,Uttar Pradesh,26.4499,80.3319,30.1,25,0.0,989.3,7.9,44.3,133,248.7,50.4,0,5,7,0,2026-04-25T04:11:46.518172+05:30
Chandigarh,Chandigarh,30.7333,76.7794,26.0,35,0.0,966.6,7.15,59.4,69,19.4,15.9,4,5,7,0,2026-04-25T04:11:46.518180+05:30
Srinagar,Jammu and Kashmir,34.0837,74.7973,10.5,98,0.0,845.0,8.6,34.6,74,77.3,28.1,3,10,7,0,2026-04-25T04:11:46.518187+05:30
Jammu,Jammu and Kashmir,32.7266,74.857,26.7,32,0.0,972.1,8.2,40.7,77,42.0,22.2,4,5,7,0,2026-04-25T04:11:46.518195+05:30
Amritsar,Punjab,31.634,74.8723,26.3,41,0.0,979.9,8.1,42.8,95,57.4,30.5,4,5,7,0,2026-04-25T04:11:46.518202+05:30
Ludhiana,Punjab,30.901,75.8573,25.2,42,0.0,977.2,7.65,46.8,81,43.3,24.4,4,5,7,0,2026-04-25T04:11:46.518211+05:30
Jalandhar,Punjab,31.326,75.5762,25.4,41,0.0,978.3,7.8,38.5,85,62.4,31.9,4,5,7,0,2026-04-25T04:11:46.518217+05:30
Dehradun,Uttarakhand,30.6284,78.0322,12.1,70,0.0,827.4,7.85,47.9,53,17.5,14.0,3,5,7,0,2026-04-25T04:11:46.518224+05:30
Shimla,Himachal Pradesh,31.1048,77.1734,12.9,46,0.0,783.4,7.65,51.1,55,30.3,17.3,0,5,7,0,2026-04-25T04:11:46.518234+05:30
Manali,Himachal Pradesh,32.2396,77.1887,8.9,76,0.0,817.5,8.5,42.8,53,15.1,11.4,3,5,7,0,2026-04-25T04:11:46.518241+05:30
Gurgaon,Haryana,28.4595,77.0266,26.5,31,0.0,979.7,7.45,46.4,771,1668.9,204.9,4,5,7,0,2026-04-25T04:11:46.518248+05:30
Noida,Uttar Pradesh,28.5355,77.391,27.8,35,0.0,982.6,7.35,31.7,771,1668.9,204.9,4,5,7,0,2026-04-25T04:11:46.518254+05:30
Ghaziabad,Uttar Pradesh,28.6692,77.4538,27.4,35,0.0,980.8,7.4,49.3,154,428.4,87.8,4,5,7,0,2026-04-25T04:11:46.518261+05:30
Faridabad,Haryana,28.4089,77.3178,30.6,26,0.0,982.0,7.45,40.0,771,1668.9,204.9,0,5,7,0,2026-04-25T04:11:46.518268+05:30
Meerut,Uttar Pradesh,28.9845,77.7064,26.9,38,0.0,979.4,7.3,41.8,154,428.4,87.8,4,5,7,0,2026-04-25T04:11:46.518274+05:30
Agra,Uttar Pradesh,27.1767,78.0081,27.2,37,0.0,985.5,7.8,42.8,273,344.6,65.0,4,5,7,0,2026-04-25T04:11:46.518283+05:30
Varanasi,Uttar Pradesh,25.3176,82.9739,27.7,22,0.0,995.1,8.55,40.3,134,150.4,60.1,4,5,7,0,2026-04-25T04:11:46.518290+05:30
Prayagraj,Uttar Pradesh,25.4358,81.8463,25.9,40,0.0,993.7,8.4,33.5,110,69.2,48.3,4,5,7,0,2026-04-25T04:11:46.518297+05:30
Gorakhpur,Uttar Pradesh,26.7606,83.3732,27.5,60,0.0,995.7,8.3,46.8,152,94.1,62.4,4,5,7,1,2026-04-25T04:11:46.518304+05:30
Bareilly,Uttar Pradesh,28.367,79.4304,25.5,52,0.0,984.5,7.35,42.5,130,54.6,47.1,4,5,7,0,2026-04-25T04:11:46.518310+05:30
Aligarh,Uttar Pradesh,27.8974,78.088,26.2,39,0.0,983.1,7.6,42.1,273,646.3,111.3,4,5,7,0,2026-04-25T04:11:46.518316+05:30
Moradabad,Uttar Pradesh,28.8386,78.7733,25.1,59,0.0,981.3,7.3,51.8,157,145.3,99.4,4,5,7,1,2026-04-25T04:11:46.518322+05:30
Saharanpur,Uttar Pradesh,29.9637,77.546,22.5,53,0.0,973.4,7.15,60.5,99,84.8,49.1,0,5,7,0,2026-04-25T04:11:46.518328+05:30
Jhansi,Uttar Pradesh,25.4484,78.5685,28.9,25,0.0,975.9,8.3,30.2,56,17.9,13.5,4,5,7,0,2026-04-25T04:11:49.783244+05:30
Surat,Gujarat,21.1702,72.8311,27.5,70,0.0,1004.9,7.85,35.6,98,34.1,24.4,7,5,4,1,2026-04-25T04:11:49.783279+05:30
Vadodara,Gujarat,22.3072,73.1812,27.5,45,0.0,1003.0,8.15,28.1,77,40.7,31.5,4,5,4,0,2026-04-25T04:11:49.783289+05:30
Rajkot,Gujarat,22.3039,70.8022,23.1,90,0.0,993.7,7.9,33.1,39,25.5,9.5,3,5,7,1,2026-04-25T04:11:49.783297+05:30
Thane,Maharashtra,19.2183,72.9781,27.2,62,0.0,1005.3,8.0,42.1,78,32.0,16.7,7,5,4,1,2026-04-25T04:11:49.783305+05:30
Nagpur,Maharashtra,21.1458,79.0882,31.0,22,0.0,971.2,8.9,33.1,99,39.0,32.0,0,5,7,0,2026-04-25T04:11:49.783312+05:30
Nashik,Maharashtra,19.9975,73.7898,27.0,35,0.0,944.1,8.3,32.0,82,42.7,27.8,4,5,7,0,2026-04-25T04:11:49.783319+05:30
Aurangabad,Maharashtra,19.8762,75.3433,29.3,23,0.0,942.9,9.0,30.6,75,32.0,23.0,4,5,7,0,2026-04-25T04:11:49.783326+05:30
Solapur,Maharashtra,17.6599,75.9064,28.5,43,0.0,955.0,8.95,24.8,113,57.3,50.4,4,5,7,0,2026-04-25T04:11:49.783333+05:30
Kolhapur,Maharashtra,16.705,74.2433,24.0,69,0.0,945.3,9.05,31.7,151,61.5,57.4,3,5,7,1,2026-04-25T04:11:49.783340+05:30
Goa,Goa,15.2993,74.124,26.4,96,0.0,995.1,9.0,34.2,78,35.2,27.9,7,5,7,1,2026-04-25T04:11:49.783347+05:30
Jodhpur,Rajasthan,26.2389,73.0243,30.5,25,0.0,981.6,8.3,29.5,73,168.6,30.3,0,5,7,0,2026-04-25T04:11:49.783354+05:30
Udaipur,Rajasthan,24.5854,73.7125,27.1,29,0.0,945.2,8.8,39.6,52,64.0,16.9,4,5,7,0,2026-04-25T04:11:49.783361+05:30
Kota,Rajasthan,25.2138,75.8648,28.0,31,0.0,977.3,8.3,31.3,60,28.9,23.2,4,5,7,0,2026-04-25T04:11:49.783368+05:30
Bikaner,Rajasthan,28.0229,73.3119,28.1,32,0.0,980.4,8.15,29.5,61,49.0,21.1,4,5,7,0,2026-04-25T04:11:49.783374+05:30
Ajmer,Rajasthan,26.4499,74.6399,27.8,29,0.0,953.7,8.25,31.3,59,65.9,19.3,4,5,7,0,2026-04-25T04:11:49.783381+05:30
Gwalior,Madhya Pradesh,26.2183,78.1828,30.6,25,0.0,981.2,8.05,39.2,65,41.8,16.8,0,5,7,0,2026-04-25T04:11:49.783387+05:30
Indore,Madhya Pradesh,22.7196,75.8577,27.2,24,0.0,947.2,8.6,29.2,52,32.5,14.6,4,5,7,0,2026-04-25T04:11:49.783393+05:30
Bhopal,Madhya Pradesh,23.2599,77.4126,29.2,23,0.0,952.8,8.6,31.7,52,27.5,20.3,4,5,7,0,2026-04-25T04:11:49.783400+05:30
Jabalpur,Madhya Pradesh,23.1815,79.9864,26.4,26,0.0,959.9,8.8,40.0,57,26.8,16.9,4,5,7,0,2026-04-25T04:11:49.783405+05:30
Ujjain,Madhya Pradesh,23.1765,75.7885,27.4,26,0.0,952.7,8.55,37.8,54,37.7,15.7,4,5,7,0,2026-04-25T04:11:49.783413+05:30
Visakhapatnam,Andhra Pradesh,17.6868,83.2185,26.5,91,0.0,1002.1,8.5,42.8,61,22.0,18.6,7,5,4,1,2026-04-25T04:11:49.783420+05:30
Vijayawada,Andhra Pradesh,16.5062,80.648,26.6,95,0.0,1000.9,8.7,34.2,54,13.6,11.4,7,5,4,1,2026-04-25T04:11:49.783426+05:30
Guntur,Andhra Pradesh,16.3067,80.4365,26.3,97,0.0,1001.8,8.5,38.5,56,12.3,10.2,7,5,4,1,2026-04-25T04:11:49.783432+05:30
Nellore,Andhra Pradesh,14.4426,79.9865,26.4,89,0.0,1004.2,9.15,43.2,42,9.1,7.7,7,5,4,1,2026-04-25T04:11:49.783439+05:30
Kurnool,Andhra Pradesh,15.8281,78.0373,28.9,53,0.0,975.1,9.2,36.4,91,21.2,18.2,4,5,7,1,2026-04-25T04:11:49.783446+05:30
Kakinada,Andhra Pradesh,16.9891,82.2475,26.5,95,0.0,1006.1,8.4,39.2,39,15.3,10.8,7,5,4,1,2026-04-25T04:11:49.783451+05:30
Tirupati,Andhra Pradesh,13.6288,79.4192,26.4,76,0.0,990.1,9.0,36.7,57,19.2,17.7,7,5,7,1,2026-04-25T04:11:49.783457+05:30
Warangal,Telangana,17.9689,79.5941,27.2,55,0.0,976.6,8.95,31.7,119,25.1,23.2,4,5,7,1,2026-04-25T04:11:49.783464+05:30
Nizamabad,Telangana,18.6725,78.0941,27.9,42,0.0,962.7,8.8,28.1,116,50.5,46.4,4,5,7,0,2026-04-25T04:11:49.783470+05:30
Mysore,Karnataka,12.2958,76.6396,22.5,83,0.0,926.1,8.75,52.6,92,38.1,34.7,3,5,7,1,2026-04-25T04:11:49.783476+05:30
Mangalore,Karnataka,12.9141,74.856,28.1,90,0.0,1004.2,8.0,40.7,67,20.3,15.9,7,5,4,1,2026-04-25T04:11:49.783483+05:30
Hubli-Dharwad,Karnataka,15.3647,75.124,24.9,87,0.0,938.8,9.25,36.4,101,37.3,34.0,3,5,7,1,2026-04-25T04:11:49.783489+05:30
Belgaum,Karnataka,15.8497,74.4977,25.2,60,0.0,923.3,9.3,32.8,108,50.6,43.2,4,5,7,1,2026-04-25T04:11:53.059928+05:30
Coimbatore,Tamil Nadu,11.0168,76.9558,26.0,82,0.0,960.0,8.8,43.9,85,31.2,30.0,7,5,7,1,2026-04-25T04:11:53.059963+05:30
Madurai,Tamil Nadu,9.9252,78.1198,26.6,88,0.0,991.8,8.75,40.0,48,19.7,18.7,7,5,7,1,2026-04-25T04:11:53.059974+05:30
Trichy,Tamil Nadu,10.7905,78.7047,26.9,86,0.0,998.6,9.0,32.4,49,14.5,13.9,7,5,7,1,2026-04-25T04:11:53.059982+05:30
Salem,Tamil Nadu,11.6643,78.146,26.7,68,0.0,975.9,9.0,42.8,60,19.7,18.9,7,5,7,1,2026-04-25T04:11:53.059990+05:30
Tirunelveli,Tamil Nadu,8.7139,77.7567,25.7,93,0.0,1001.5,8.95,37.8,64,27.5,25.7,7,5,4,1,2026-04-25T04:11:53.059998+05:30
Vellore,Tamil Nadu,12.9165,79.1325,25.6,78,0.0,983.2,9.0,36.7,76,37.6,36.4,7,5,7,1,2026-04-25T04:11:53.060005+05:30
Erode,Tamil Nadu,11.341,77.7172,27.1,68,0.0,987.7,9.0,40.3,45,13.7,13.3,7,5,7,1,2026-04-25T04:11:53.060049+05:30
Kochi,Kerala,9.9312,76.2673,27.0,92,0.0,1006.4,8.65,40.7,91,38.4,36.4,7,5,4,1,2026-04-25T04:11:53.060060+05:30
Thiruvananthapuram,Kerala,8.5241,76.9366,25.3,94,0.0,1005.9,8.2,34.2,59,18.7,15.0,7,5,4,1,2026-04-25T04:11:53.060067+05:30
Kozhikode,Kerala,11.2588,75.7804,26.8,95,0.0,1005.2,8.6,39.6,70,22.1,18.1,7,5,4,1,2026-04-25T04:11:53.060075+05:30
Thrissur,Kerala,10.5276,76.2144,26.4,91,0.0,1004.7,8.45,48.2,92,36.6,34.0,7,5,4,1,2026-04-25T04:11:53.060082+05:30
Kannur,Kerala,11.8745,75.3704,26.8,91,0.0,1004.5,8.85,40.7,75,25.7,22.2,7,5,4,1,2026-04-25T04:11:53.060089+05:30
Patna,Bihar,25.5941,85.1376,27.2,84,0.0,999.1,8.65,50.0,151,82.9,63.8,7,5,7,1,2026-04-25T04:11:53.060096+05:30
Gaya,Bihar,24.7914,85.0002,26.5,42,0.0,991.6,8.7,55.4,126,75.2,35.9,4,5,7,0,2026-04-25T04:11:53.060103+05:30
Muzaffarpur,Bihar,26.1209,85.3647,26.0,81,0.0,999.6,8.65,33.5,154,80.6,69.6,7,5,7,1,2026-04-25T04:11:53.060110+05:30
Bhagalpur,Bihar,25.2425,87.0117,26.2,92,0.0,1000.1,8.6,56.9,154,84.5,74.5,7,5,4,1,2026-04-25T04:11:53.060117+05:30
Ranchi,Jharkhand,23.3441,85.3096,23.5,34,0.0,936.3,9.2,34.9,114,72.6,44.0,0,5,7,0,2026-04-25T04:11:53.060123+05:30
Jamshedpur,Jharkhand,22.8046,86.2029,26.1,88,0.0,989.8,8.85,34.2,152,63.6,53.1,7,5,7,1,2026-04-25T04:11:53.060130+05:30
Dhanbad,Jharkhand,23.7957,86.4304,26.0,97,0.0,978.7,8.95,49.7,163,77.5,68.0,7,5,7,1,2026-04-25T04:11:53.060136+05:30
Bokaro,Jharkhand,23.6693,86.1511,25.2,58,0.0,982.5,8.95,43.9,160,136.4,83.1,4,5,7,1,2026-04-25T04:11:53.060143+05:30
Bhubaneswar,Odisha,20.2961,85.8245,26.2,97,0.0,1001.2,9.05,40.7,73,18.5,13.8,7,5,4,1,2026-04-25T04:11:53.060150+05:30
Cuttack,Odisha,20.4625,85.8828,26.1,97,0.0,1003.2,9.1,36.4,73,18.5,13.8,7,5,4,1,2026-04-25T04:11:53.060156+05:30
Rourkela,Odisha,22.2604,84.8536,25.8,76,0.0,983.7,8.3,40.7,134,69.2,55.6,7,5,7,1,2026-04-25T04:11:53.060163+05:30
Raipur,Chhattisgarh,21.2514,81.6296,27.9,30,0.0,972.2,9.0,28.1,114,62.2,54.5,4,5,7,0,2026-04-25T04:11:53.060169+05:30
Bhilai,Chhattisgarh,21.1938,81.3509,28.0,35,0.0,972.8,9.0,34.6,112,61.7,55.9,4,5,7,0,2026-04-25T04:11:53.060175+05:30
Guwahati,Assam,26.1158,91.7086,22.6,97,0.0,1002.0,8.55,31.7,156,125.3,88.7,3,5,4,1,2026-04-25T04:11:53.060181+05:30
Agartala,Tripura,23.8315,91.2868,25.0,94,0.0,1006.4,8.75,26.3,147,96.9,74.7,7,5,4,1,2026-04-25T04:11:53.060187+05:30
Shillong,Meghalaya,25.5788,91.8933,16.4,82,0.0,856.4,8.2,31.0,140,72.6,50.4,3,10,7,0,2026-04-25T04:11:53.060197+05:30
Imphal,Manipur,24.817,93.9368,18.5,87,0.0,923.3,9.1,35.6,153,140.2,89.4,3,10,7,1,2026-04-25T04:11:53.060204+05:30
Aizawl,Mizoram,23.7271,92.7176,17.2,81,0.0,891.6,9.0,34.2,119,78.5,47.6,3,10,7,0,2026-04-25T04:11:53.060211+05:30
Kohima,Nagaland,25.6701,94.1077,15.0,91,0.0,853.9,8.4,32.0,152,117.6,76.4,3,10,7,0,2026-04-25T04:11:53.060217+05:30
Gangtok,Sikkim,27.3314,88.6138,13.3,67,0.0,835.9,8.9,46.8,103,35.5,26.9,3,5,7,0,2026-04-25T04:11:53.060224+05:30
Siliguri,West Bengal,26.7271,88.3953,22.0,87,0.0,993.2,8.45,47.2,155,61.2,53.2,3,5,7,1,2026-04-25T04:11:56.338466+05:30
Durgapur,West Bengal,23.5204,87.3119,26.5,96,0.0,994.3,8.9,39.6,149,49.6,45.2,7,5,7,1,2026-04-25T04:11:56.338499+05:30
Asansol,West Bengal,23.6739,86.9524,26.6,95,0.0,992.6,8.95,45.7,152,47.6,44.5,7,5,7,1,2026-04-25T04:11:56.338509+05:30
Pondicherry,Puducherry,11.9139,79.8145,28.6,81,0.0,1007.1,8.8,43.2,22,9.2,5.9,7,5,4,1,2026-04-25T04:11:56.338518+05:30
Port Blair,Andaman and Nicobar Islands,11.6234,92.7265,25.4,88,0.0,1006.3,9.15,30.2,34,16.4,8.4,7,5,4,1,2026-04-25T04:11:56.338525+05:30
Haridwar,Uttarakhand,29.9457,78.1642,21.4,60,0.0,971.5,7.2,32.8,81,26.3,22.6,0,5,7,0,2026-04-25T04:11:56.338533+05:30
Rishikesh,Uttarakhand,30.0869,78.2676,18.9,69,0.0,964.2,7.35,31.7,65,21.3,18.8,3,5,7,0,2026-04-25T04:11:56.338539+05:30
Nainital,Uttarakhand,29.3919,79.4542,16.2,46,0.0,805.7,7.8,43.2,76,28.5,24.1,0,5,7,0,2026-04-25T04:11:56.338547+05:30
Mussoorie,Uttarakhand,30.4599,78.0664,16.4,45,0.0,802.8,7.75,58.0,68,19.2,16.2,0,5,7,0,2026-04-25T04:11:56.338554+05:30
Dharamshala,Himachal Pradesh,32.219,76.3234,23.7,28,0.0,870.4,7.35,61.9,45,20.3,12.3,0,5,7,0,2026-04-25T04:11:56.338562+05:30
Dalhousie,Himachal Pradesh,32.5387,75.971,10.6,67,0.0,802.0,8.2,47.2,57,19.4,14.4,3,5,7,0,2026-04-25T04:11:56.338569+05:30
Patiala,Punjab,30.3398,76.3869,27.9,35,0.0,976.5,7.35,52.6,343,707.8,86.1,4,5,7,0,2026-04-25T04:11:56.338577+05:30
Bhatinda,Punjab,30.211,74.9455,28.1,28,0.0,982.9,8.0,41.8,88,62.4,29.2,4,5,7,0,2026-04-25T04:11:56.338583+05:30
Rohtak,Haryana,28.8955,76.6066,27.5,29,0.0,979.9,7.45,44.3,352,1352.3,184.4,4,5,7,0,2026-04-25T04:11:56.338590+05:30
Panipat,Haryana,29.3909,76.9635,28.3,31,0.0,978.5,7.3,63.7,649,2451.2,291.5,4,5,7,0,2026-04-25T04:11:56.338596+05:30
Mathura,Uttar Pradesh,27.4924,77.6737,26.5,37,0.0,984.5,7.55,41.8,202,448.0,81.0,4,5,7,0,2026-04-25T04:11:56.338602+05:30
Vrindavan,Uttar Pradesh,27.5823,77.7027,26.1,38,0.0,985.0,7.7,40.3,202,448.0,81.0,4,5,7,0,2026-04-25T04:11:56.338609+05:30
Ayodhya,Uttar Pradesh,26.7922,82.1998,25.5,54,0.0,993.4,8.1,37.1,138,160.7,52.2,4,5,7,0,2026-04-25T04:11:56.338615+05:30
Ratlam,Madhya Pradesh,23.3315,75.0367,26.4,32,0.0,953.6,8.5,29.9,53,45.5,16.2,4,5,7,0,2026-04-25T04:11:56.338621+05:30
Sagar,Madhya Pradesh,23.8388,78.7378,25.3,28,0.0,948.6,8.65,28.8,45,16.6,14.1,4,5,7,0,2026-04-25T04:11:56.338627+05:30
Satna,Madhya Pradesh,24.6005,80.8322,25.3,29,0.0,969.2,8.65,41.4,59,24.9,18.9,4,5,7,0,2026-04-25T04:11:56.338633+05:30
Akola,Maharashtra,20.7002,77.0082,28.1,29,0.0,973.5,8.6,31.3,78,31.4,26.3,4,5,7,0,2026-04-25T04:11:56.338641+05:30
Amravati,Maharashtra,20.9374,77.7796,29.1,27,0.0,965.4,8.6,30.6,84,30.9,26.7,4,5,7,0,2026-04-25T04:11:56.338647+05:30
Latur,Maharashtra,18.4088,76.5604,27.1,37,0.0,938.1,9.05,32.4,106,46.0,41.0,4,5,7,0,2026-04-25T04:11:56.338654+05:30
Nanded,Maharashtra,19.1383,77.3091,28.0,43,0.0,967.0,8.9,31.0,105,52.6,48.0,4,5,7,0,2026-04-25T04:11:56.338660+05:30
Gulbarga,Karnataka,17.3297,76.8343,27.4,51,0.0,957.0,9.05,26.6,113,63.8,52.6,4,5,7,1,2026-04-25T04:11:56.338666+05:30
Bidar,Karnataka,17.9104,77.5199,26.1,46,0.0,933.2,8.3,31.7,117,54.2,47.6,4,5,7,0,2026-04-25T04:11:56.338673+05:30
Hospet,Karnataka,15.2689,76.3909,26.4,44,0.0,954.0,9.3,27.4,107,33.5,30.0,4,5,7,0,2026-04-25T04:11:56.338679+05:30
Tirupur,Tamil Nadu,11.1085,77.3411,28.0,53,0.0,973.6,9.05,37.1,61,17.2,16.7,4,5,7,1,2026-04-25T04:11:56.338686+05:30
Alappuzha,Kerala,9.4981,76.3388,26.0,96,0.0,1006.4,8.6,36.7,84,33.8,30.4,7,5,4,1,2026-04-25T04:11:56.338692+05:30
Munnar,Kerala,10.0889,77.0595,15.3,82,0.0,853.5,9.4,26.3,66,21.4,20.6,3,10,7,0,2026-04-25T04:11:56.338700+05:30
Silchar,Assam,24.8333,92.7789,24.3,89,0.0,1004.7,8.75,23.4,159,128.1,82.7,3,5,4,1,2026-04-25T04:11:56.338706+05:30
Dibrugarh,Assam,27.4728,94.912,23.5,94,0.0,996.2,8.7,23.0,98,28.1,23.3,3,5,7,1,2026-04-25T04:11:56.338713+05:30
