city,state,latitude,longitude,temp,humidity,rain,pressure,uv_index,wind_gusts,aqi,pm10,pm2_5,no2,co,o3,so2,mosquito_risk,arthritis_risk,migraine_risk,frizz_risk,updated_at
Delhi,Delhi,28.6139,77.209,32.5,54,0.0,979.9,7.8,43.6,500,88.7,35.3,10.0,416.0,143.0,16.9,0,5,7,1,2026-06-12T14:29:31.290635+05:30
Mumbai,Maharashtra,19.076,72.8777,33.7,52,0.1,1006.7,7.7,47.5,83,64.5,27.8,3.3,140.0,84.0,5.1,3,5,4,1,2026-06-12T14:29:31.290669+05:30
Bangalore,Karnataka,12.9716,77.5946,30.1,49,0.0,911.6,5.45,48.2,55,19.9,10.6,1.4,165.0,95.0,2.3,0,5,3,1,2026-06-12T14:29:31.290684+05:30
Hyderabad,Telangana,17.385,78.4867,35.0,41,0.0,951.5,9.05,33.8,74,43.8,22.1,1.6,215.0,112.0,3.2,0,5,7,1,2026-06-12T14:29:31.290693+05:30
Chennai,Tamil Nadu,13.0827,80.2707,33.4,53,0.0,1004.7,7.95,36.7,71,42.3,27.8,3.7,243.0,156.0,8.3,0,5,4,1,2026-06-12T14:29:31.290702+05:30
Kolkata,West Bengal,22.5726,88.3639,33.2,59,0.0,1002.1,8.05,42.5,162,63.6,42.1,3.2,379.0,174.0,11.9,0,5,4,1,2026-06-12T14:29:31.290710+05:30
Pune,Maharashtra,18.5204,73.8567,34.2,44,0.0,947.0,8.3,49.0,65,55.1,21.0,1.8,127.0,86.0,3.8,0,5,7,1,2026-06-12T14:29:31.290716+05:30
Ahmedabad,Gujarat,23.0225,72.5714,40.7,32,0.0,996.2,8.05,46.4,71,54.1,20.1,1.2,124.0,93.0,3.5,0,5,10,1,2026-06-12T14:29:31.290723+05:30
Jaipur,Rajasthan,26.9124,75.7873,37.3,43,0.0,955.5,8.25,57.6,150,239.3,54.0,1.0,156.0,125.0,6.7,0,5,10,1,2026-06-12T14:29:31.290739+05:30
Lucknow,Uttar Pradesh,26.8467,80.9462,33.8,56,0.0,990.4,8.35,41.0,104,70.3,41.7,1.5,286.0,176.0,9.8,0,5,7,1,2026-06-12T14:29:31.290752+05:30
Kanpur,Uttar Pradesh,26.4499,80.3319,36.6,41,0.0,988.1,8.35,53.3,150,179.3,53.7,1.6,282.0,184.0,10.4,0,5,10,1,2026-06-12T14:29:31.290759+05:30
Chandigarh,Chandigarh,30.7333,76.7794,30.8,51,0.1,967.5,7.8,52.9,127,92.9,34.6,1.9,265.0,147.0,5.6,3,5,7,1,2026-06-12T14:29:31.290767+05:30
Srinagar,Jammu and Kashmir,34.0837,74.7973,24.6,46,0.0,842.3,9.0,29.5,80,21.4,17.2,1.4,273.0,163.0,3.4,0,5,7,0,2026-06-12T14:29:31.290774+05:30
Jammu,Jammu and Kashmir,32.7266,74.857,27.9,63,0.0,972.0,8.55,53.3,114,108.7,45.3,2.7,248.0,179.0,6.5,7,5,7,1,2026-06-12T14:29:31.290780+05:30
Amritsar,Punjab,31.634,74.8723,24.0,93,0.8,980.3,8.45,51.5,253,196.5,53.8,1.2,270.0,139.0,4.0,6,5,7,1,2026-06-12T14:29:31.290788+05:30
Ludhiana,Punjab,30.901,75.8573,34.4,37,0.0,977.1,7.1,55.4,446,77.1,32.7,1.6,216.0,137.0,4.9,0,5,7,1,2026-06-12T14:29:31.290795+05:30
Jalandhar,Punjab,31.326,75.5762,30.6,50,0.0,979.0,8.25,55.8,305,177.9,46.2,1.4,192.0,142.0,4.9,0,5,7,1,2026-06-12T14:29:31.290804+05:30
Dehradun,Uttarakhand,30.6284,78.0322,21.2,70,0.1,832.2,5.5,36.4,79,88.5,25.4,0.8,185.0,144.0,2.6,6,5,3,0,2026-06-12T14:29:31.290811+05:30
Shimla,Himachal Pradesh,31.1048,77.1734,16.6,78,0.1,785.6,7.45,33.5,93,98.0,36.8,1.1,181.0,166.0,4.1,6,5,7,0,2026-06-12T14:29:31.290819+05:30
Manali,Himachal Pradesh,32.2396,77.1887,20.8,64,0.0,819.8,5.45,41.8,92,26.5,16.0,0.4,154.0,173.0,0.7,3,5,3,0,2026-06-12T14:29:31.290826+05:30
Gurgaon,Haryana,28.4595,77.0266,34.1,47,0.0,978.1,7.65,55.4,1280,1501.3,181.1,8.2,344.0,140.0,12.5,0,5,7,1,2026-06-12T14:29:31.290842+05:30
Noida,Uttar Pradesh,28.5355,77.391,33.6,49,0.0,981.4,7.85,44.6,1280,1501.3,181.1,8.2,317.0,140.0,12.5,0,5,7,1,2026-06-12T14:29:31.290849+05:30
Ghaziabad,Uttar Pradesh,28.6692,77.4538,32.8,52,0.0,979.9,7.8,43.6,197,65.2,29.2,4.3,257.0,137.0,6.9,0,5,7,1,2026-06-12T14:29:31.290855+05:30
Faridabad,Haryana,28.4089,77.3178,33.4,48,0.0,980.7,7.85,51.1,1280,1501.3,181.1,8.2,318.0,140.0,12.5,0,5,7,1,2026-06-12T14:29:31.290861+05:30
Meerut,Uttar Pradesh,28.9845,77.7064,31.6,58,0.0,979.2,7.75,49.0,197,65.2,29.2,4.3,236.0,137.0,6.9,0,5,7,1,2026-06-12T14:29:31.290867+05:30
Agra,Uttar Pradesh,27.1767,78.0081,35.8,46,0.0,983.7,8.15,42.5,1262,199.3,54.1,2.0,229.0,165.0,6.8,0,5,10,1,2026-06-12T14:29:31.290874+05:30
Varanasi,Uttar Pradesh,25.3176,82.9739,35.4,50,0.0,993.6,8.75,27.7,134,80.1,58.2,2.1,357.0,201.0,18.3,0,5,10,1,2026-06-12T14:29:31.290880+05:30
Prayagraj,Uttar Pradesh,25.4358,81.8463,34.9,47,0.0,992.3,8.5,33.5,120,70.1,54.0,2.4,299.0,199.0,15.8,0,5,7,1,2026-06-12T14:29:31.290887+05:30
Gorakhpur,Uttar Pradesh,26.7606,83.3732,33.9,53,0.0,994.2,8.65,36.7,115,83.1,53.1,1.6,287.0,190.0,15.6,0,5,7,1,2026-06-12T14:29:31.290895+05:30
Bareilly,Uttar Pradesh,28.367,79.4304,33.0,56,0.0,984.5,6.9,43.6,129,158.3,41.6,1.4,280.0,165.0,8.4,0,5,7,1,2026-06-12T14:29:31.290901+05:30
Aligarh,Uttar Pradesh,27.8974,78.088,34.3,47,0.0,982.4,8.0,49.7,552,43.8,29.2,3.4,215.0,148.0,6.8,0,5,7,1,2026-06-12T14:29:31.290907+05:30
Moradabad,Uttar Pradesh,28.8386,78.7733,31.9,58,0.0,981.8,7.95,42.8,129,68.0,29.3,2.6,277.0,166.0,11.4,0,5,7,1,2026-06-12T14:29:31.290913+05:30
Saharanpur,Uttar Pradesh,29.9637,77.546,30.5,56,0.0,974.5,7.0,45.4,151,83.1,32.8,1.9,250.0,147.0,4.8,0,5,7,1,2026-06-12T14:29:31.290919+05:30
Jhansi,Uttar Pradesh,25.4484,78.5685,37.5,42,0.0,973.3,8.5,66.6,99,65.7,35.4,1.4,167.0,155.0,11.9,0,5,10,1,2026-06-12T14:29:34.558770+05:30
Surat,Gujarat,21.1702,72.8311,34.8,54,0.0,1003.5,7.6,60.8,89,58.3,29.4,6.4,176.0,67.0,23.6,0,5,4,1,2026-06-12T14:29:34.558794+05:30
Vadodara,Gujarat,22.3072,73.1812,38.4,41,0.0,999.4,8.0,57.2,83,54.2,24.7,1.3,122.0,100.0,4.3,0,5,10,1,2026-06-12T14:29:34.558804+05:30
Rajkot,Gujarat,22.3039,70.8022,39.9,35,0.0,989.0,7.6,52.9,65,60.8,21.0,0.9,105.0,88.0,4.0,0,5,10,1,2026-06-12T14:29:34.558812+05:30
Thane,Maharashtra,19.2183,72.9781,35.5,45,0.0,1005.7,7.7,43.9,83,64.5,27.8,3.3,136.0,84.0,5.1,0,5,7,1,2026-06-12T14:29:34.558819+05:30
Nagpur,Maharashtra,21.1458,79.0882,40.5,31,0.0,968.9,8.9,53.6,93,65.4,33.1,3.4,148.0,145.0,16.9,0,5,10,1,2026-06-12T14:29:34.558826+05:30
Nashik,Maharashtra,19.9975,73.7898,34.1,43,0.0,944.0,8.05,52.9,68,69.4,24.3,0.7,113.0,82.0,1.5,0,5,7,1,2026-06-12T14:29:34.558833+05:30
Aurangabad,Maharashtra,19.8762,75.3433,38.4,28,0.0,941.8,8.95,50.8,71,65.0,24.6,1.0,125.0,113.0,5.4,0,5,10,1,2026-06-12T14:29:34.558840+05:30
Solapur,Maharashtra,17.6599,75.9064,37.2,34,0.0,955.4,8.85,49.3,64,55.6,20.1,1.0,122.0,103.0,1.8,0,5,10,1,2026-06-12T14:29:34.558847+05:30
Kolhapur,Maharashtra,16.705,74.2433,30.5,61,0.1,947.3,8.35,49.7,60,41.4,16.0,1.3,120.0,83.0,1.6,6,5,7,1,2026-06-12T14:29:34.558854+05:30
Goa,Goa,15.2993,74.124,33.1,59,0.0,997.4,8.3,32.4,67,35.5,15.3,0.5,110.0,62.0,1.0,0,5,7,1,2026-06-12T14:29:34.558861+05:30
Jodhpur,Rajasthan,26.2389,73.0243,38.6,37,0.0,976.3,8.45,49.7,151,353.9,63.1,0.7,111.0,94.0,2.5,0,5,10,1,2026-06-12T14:29:34.558868+05:30
Udaipur,Rajasthan,24.5854,73.7125,35.6,41,0.0,942.5,8.8,48.6,78,52.7,21.8,0.6,116.0,98.0,4.0,0,5,10,1,2026-06-12T14:29:34.558874+05:30
Kota,Rajasthan,25.2138,75.8648,39.2,38,0.0,972.6,8.4,61.6,92,91.5,36.1,1.0,144.0,115.0,7.6,0,5,10,1,2026-06-12T14:29:34.558881+05:30
Bikaner,Rajasthan,28.0229,73.3119,41.9,27,0.0,974.2,8.45,67.0,156,180.2,58.1,0.4,124.0,103.0,3.4,0,5,10,1,2026-06-12T14:29:34.558888+05:30
Ajmer,Rajasthan,26.4499,74.6399,37.3,34,0.0,949.9,8.35,69.5,88,113.9,35.2,0.7,120.0,113.0,4.2,0,5,10,1,2026-06-12T14:29:34.558895+05:30
Gwalior,Madhya Pradesh,26.2183,78.1828,36.7,43,0.0,978.5,8.3,39.2,123,52.3,31.2,0.9,178.0,148.0,7.2,0,5,10,1,2026-06-12T14:29:34.558902+05:30
Indore,Madhya Pradesh,22.7196,75.8577,37.6,35,0.0,944.8,8.65,47.9,85,64.3,27.3,0.9,147.0,103.0,3.9,0,5,10,1,2026-06-12T14:29:34.558908+05:30
Bhopal,Madhya Pradesh,23.2599,77.4126,38.3,35,0.0,949.4,8.7,44.3,84,65.4,29.6,0.7,147.0,100.0,2.8,0,5,10,1,2026-06-12T14:29:34.558915+05:30
Jabalpur,Madhya Pradesh,23.1815,79.9864,36.9,35,0.0,957.2,8.9,41.0,78,60.8,28.5,0.8,158.0,121.0,3.7,0,5,10,1,2026-06-12T14:29:34.558921+05:30
Ujjain,Madhya Pradesh,23.1765,75.7885,37.7,36,0.0,950.0,8.6,46.8,87,90.1,31.5,0.6,143.0,101.0,4.4,0,5,10,1,2026-06-12T14:29:34.558928+05:30
Visakhapatnam,Andhra Pradesh,17.6868,83.2185,34.9,62,0.0,999.0,8.9,41.0,116,47.8,34.6,5.7,367.0,165.0,28.0,3,5,7,1,2026-06-12T14:29:34.558935+05:30
Vijayawada,Andhra Pradesh,16.5062,80.648,34.5,51,0.0,999.4,8.45,32.8,88,44.8,28.8,1.3,169.0,140.0,5.7,0,5,7,1,2026-06-12T14:29:34.558942+05:30
Guntur,Andhra Pradesh,16.3067,80.4365,33.3,57,0.0,1000.7,8.35,34.2,91,41.0,25.3,1.1,162.0,128.0,4.6,0,5,4,1,2026-06-12T14:29:34.558949+05:30
Nellore,Andhra Pradesh,14.4426,79.9865,38.0,36,0.0,1002.5,8.5,34.2,75,42.1,24.5,2.2,129.0,127.0,4.9,0,5,7,1,2026-06-12T14:29:34.558957+05:30
Kurnool,Andhra Pradesh,15.8281,78.0373,36.7,38,0.0,974.8,8.45,46.8,70,42.1,21.2,1.1,129.0,110.0,4.4,0,5,10,1,2026-06-12T14:29:34.558964+05:30
Kakinada,Andhra Pradesh,16.9891,82.2475,36.0,50,0.0,1003.1,8.05,38.9,81,46.2,30.3,1.7,219.0,135.0,4.0,0,5,7,1,2026-06-12T14:29:34.558971+05:30
Tirupati,Andhra Pradesh,13.6288,79.4192,29.2,72,0.0,988.7,4.55,47.5,72,35.5,17.5,0.1,126.0,106.0,1.3,7,5,3,1,2026-06-12T14:29:34.558978+05:30
Warangal,Telangana,17.9689,79.5941,37.1,40,0.0,975.5,9.0,36.0,95,59.4,33.8,1.1,162.0,135.0,5.7,0,5,10,1,2026-06-12T14:29:34.558985+05:30
Nizamabad,Telangana,18.6725,78.0941,38.2,31,0.0,962.4,9.0,37.1,84,61.7,27.8,0.9,138.0,115.0,4.7,0,5,10,1,2026-06-12T14:29:34.558991+05:30
Mysore,Karnataka,12.2958,76.6396,28.6,63,0.1,929.0,9.0,42.1,39,12.5,6.2,1.6,124.0,79.0,1.2,10,5,7,1,2026-06-12T14:29:34.558998+05:30
Mangalore,Karnataka,12.9141,74.856,28.5,78,0.0,1007.8,8.7,38.5,48,15.6,7.5,1.0,106.0,70.0,1.2,7,5,4,1,2026-06-12T14:29:34.559005+05:30
Hubli-Dharwad,Karnataka,15.3647,75.124,31.9,51,0.0,940.3,8.85,47.9,39,14.8,6.8,1.0,114.0,74.0,1.0,0,5,7,1,2026-06-12T14:29:34.559011+05:30
Belgaum,Karnataka,15.8497,74.4977,29.0,60,0.1,925.8,8.7,47.5,58,38.0,15.5,1.1,112.0,76.0,1.5,7,5,7,1,2026-06-12T14:29:37.826309+05:30
Coimbatore,Tamil Nadu,11.0168,76.9558,28.8,60,0.0,961.9,7.3,47.2,34,5.0,3.1,2.2,137.0,70.0,1.5,4,5,7,1,2026-06-12T14:29:37.826342+05:30
Madurai,Tamil Nadu,9.9252,78.1198,34.7,37,0.0,991.5,7.05,52.9,49,12.1,6.7,1.5,119.0,99.0,1.6,0,5,7,1,2026-06-12T14:29:37.826360+05:30
Trichy,Tamil Nadu,10.7905,78.7047,34.3,43,0.1,998.3,5.85,59.4,44,13.8,7.3,1.0,120.0,92.0,1.6,3,5,3,1,2026-06-12T14:29:37.826370+05:30
Salem,Tamil Nadu,11.6643,78.146,28.8,75,0.0,976.5,8.1,40.7,62,30.0,15.7,2.3,169.0,105.0,6.0,7,5,7,1,2026-06-12T14:29:37.826379+05:30
Tirunelveli,Tamil Nadu,8.7139,77.7567,34.6,46,0.0,1003.1,8.35,37.8,25,5.8,3.2,1.3,100.0,69.0,0.9,0,5,4,1,2026-06-12T14:29:37.826387+05:30
Vellore,Tamil Nadu,12.9165,79.1325,29.0,74,0.1,983.1,6.5,36.7,78,28.1,16.8,1.6,140.0,110.0,3.2,10,5,7,1,2026-06-12T14:29:37.826396+05:30
Erode,Tamil Nadu,11.341,77.7172,34.1,45,0.0,988.1,8.0,42.5,51,11.6,6.4,1.8,157.0,88.0,1.8,0,5,7,1,2026-06-12T14:29:37.826404+05:30
Kochi,Kerala,9.9312,76.2673,28.0,75,0.1,1010.2,3.85,27.4,45,9.3,5.3,2.4,120.0,64.0,2.1,10,0,0,1,2026-06-12T14:29:37.826412+05:30
Thiruvananthapuram,Kerala,8.5241,76.9366,26.1,90,0.1,1009.9,6.8,38.2,25,12.3,6.2,1.2,101.0,62.0,0.6,10,0,4,1,2026-06-12T14:29:37.826420+05:30
Kozhikode,Kerala,11.2588,75.7804,26.0,96,0.2,1009.8,4.4,27.0,29,11.3,4.8,0.8,124.0,63.0,0.7,10,0,0,1,2026-06-12T14:29:37.826428+05:30
Thrissur,Kerala,10.5276,76.2144,25.9,93,0.3,1008.7,3.95,21.6,52,7.4,4.2,1.4,167.0,63.0,1.3,10,0,0,1,2026-06-12T14:29:37.826437+05:30
Kannur,Kerala,11.8745,75.3704,26.5,93,0.1,1008.9,3.85,27.4,38,15.2,6.6,1.4,99.0,62.0,0.9,10,0,0,1,2026-06-12T14:29:37.826445+05:30
Patna,Bihar,25.5941,85.1376,34.5,52,0.0,996.8,8.85,34.2,135,96.6,71.2,2.0,365.0,208.0,17.7,0,5,7,1,2026-06-12T14:29:37.826453+05:30
Gaya,Bihar,24.7914,85.0002,35.7,46,0.0,989.7,8.9,23.4,153,95.9,71.0,1.7,371.0,227.0,20.4,0,5,10,1,2026-06-12T14:29:37.826461+05:30
Muzaffarpur,Bihar,26.1209,85.3647,32.9,61,0.0,997.3,8.85,36.0,111,91.0,57.5,1.9,330.0,191.0,15.6,3,5,7,1,2026-06-12T14:29:37.826469+05:30
Bhagalpur,Bihar,25.2425,87.0117,34.6,53,0.0,997.5,8.8,27.4,156,99.2,63.1,4.9,310.0,179.0,18.1,0,5,7,1,2026-06-12T14:29:37.826478+05:30
Ranchi,Jharkhand,23.3441,85.3096,31.8,53,0.1,935.3,9.3,36.0,151,75.7,52.0,1.1,231.0,174.0,14.8,3,5,7,1,2026-06-12T14:29:37.826485+05:30
Jamshedpur,Jharkhand,22.8046,86.2029,33.7,59,0.0,987.1,9.1,40.3,161,91.3,67.5,3.4,326.0,221.0,26.4,0,5,7,1,2026-06-12T14:29:37.826493+05:30
Dhanbad,Jharkhand,23.7957,86.4304,34.1,52,0.0,976.7,9.1,42.5,173,108.3,83.1,11.3,478.0,221.0,54.8,0,5,7,1,2026-06-12T14:29:37.826501+05:30
Bokaro,Jharkhand,23.6693,86.1511,34.7,52,0.0,980.1,9.1,42.1,172,101.0,78.2,10.0,820.0,227.0,52.6,0,5,7,1,2026-06-12T14:29:37.826508+05:30
Bhubaneswar,Odisha,20.2961,85.8245,34.9,59,0.0,998.2,8.45,29.9,129,65.9,40.0,1.4,233.0,161.0,7.7,0,5,7,1,2026-06-12T14:29:37.826515+05:30
Cuttack,Odisha,20.4625,85.8828,34.2,62,0.0,999.9,8.75,28.8,129,65.9,40.0,1.4,249.0,161.0,7.7,3,5,7,1,2026-06-12T14:29:37.826523+05:30
Rourkela,Odisha,22.2604,84.8536,35.7,51,0.0,980.9,9.05,37.4,161,70.3,47.8,1.0,244.0,177.0,12.4,0,5,10,1,2026-06-12T14:29:37.826530+05:30
Raipur,Chhattisgarh,21.2514,81.6296,40.2,28,0.0,970.4,8.95,54.4,126,51.9,36.0,4.3,239.0,170.0,22.7,0,5,10,1,2026-06-12T14:29:37.826538+05:30
Bhilai,Chhattisgarh,21.1938,81.3509,39.2,30,0.0,970.8,8.95,56.5,123,49.5,35.4,4.8,245.0,166.0,21.3,0,5,10,1,2026-06-12T14:29:37.826546+05:30
Guwahati,Assam,26.1158,91.7086,30.4,71,0.0,997.6,8.55,20.5,84,42.3,31.2,1.3,309.0,131.0,2.2,3,5,7,1,2026-06-12T14:29:37.826553+05:30
Agartala,Tripura,23.8315,91.2868,31.8,66,0.0,1002.6,7.55,30.2,100,41.4,31.7,3.8,210.0,224.0,8.4,3,5,4,1,2026-06-12T14:29:37.826561+05:30
Shillong,Meghalaya,25.5788,91.8933,22.9,84,0.0,856.4,8.7,20.2,71,44.0,27.7,1.7,231.0,119.0,2.6,3,5,7,1,2026-06-12T14:29:37.826569+05:30
Imphal,Manipur,24.817,93.9368,26.3,80,0.1,920.9,8.7,16.6,61,4.1,3.9,2.1,204.0,77.0,1.2,10,5,7,1,2026-06-12T14:29:37.826577+05:30
Aizawl,Mizoram,23.7271,92.7176,24.3,76,0.0,890.6,5.15,21.6,72,15.6,12.0,1.4,179.0,88.0,0.7,3,5,3,1,2026-06-12T14:29:37.826584+05:30
Kohima,Nagaland,25.6701,94.1077,21.7,94,0.3,854.1,2.2,18.0,66,13.3,10.7,1.3,200.0,92.0,0.7,6,5,3,1,2026-06-12T14:29:37.826592+05:30
Gangtok,Sikkim,27.3314,88.6138,23.5,59,0.0,838.2,9.25,35.6,76,20.3,11.5,0.9,244.0,132.0,1.9,0,5,7,0,2026-06-12T14:29:37.826600+05:30
Siliguri,West Bengal,26.7271,88.3953,32.7,54,0.1,989.7,8.7,28.8,107,52.4,27.7,1.3,343.0,149.0,3.6,3,5,7,1,2026-06-12T14:29:41.202930+05:30
Durgapur,West Bengal,23.5204,87.3119,32.9,59,0.0,991.6,9.0,21.2,169,104.8,76.4,10.5,260.0,213.0,47.8,0,5,7,1,2026-06-12T14:29:41.202966+05:30
Asansol,West Bengal,23.6739,86.9524,33.1,54,0.0,990.4,9.0,26.3,167,102.4,73.6,9.6,518.0,204.0,44.4,0,5,7,1,2026-06-12T14:29:41.202980+05:30
Pondicherry,Puducherry,11.9139,79.8145,33.4,52,0.1,1006.4,7.6,41.4,63,40.2,25.1,2.5,168.0,152.0,8.2,3,5,4,1,2026-06-12T14:29:41.202990+05:30
Port Blair,Andaman and Nicobar Islands,11.6234,92.7265,28.6,82,0.0,1007.8,8.3,41.8,29,8.7,4.9,0.3,93.0,47.0,0.3,7,5,4,1,2026-06-12T14:29:41.203000+05:30
Haridwar,Uttarakhand,29.9457,78.1642,31.0,54,0.0,972.9,6.25,49.0,151,106.2,37.6,1.7,222.0,154.0,6.2,0,5,7,1,2026-06-12T14:29:41.203009+05:30
Rishikesh,Uttarakhand,30.0869,78.2676,31.0,50,0.0,965.7,7.1,43.6,128,125.3,38.9,1.1,206.0,147.0,4.9,0,5,7,1,2026-06-12T14:29:41.203018+05:30
Nainital,Uttarakhand,29.3919,79.4542,21.6,55,0.0,807.8,8.1,27.0,100,96.9,29.7,0.8,193.0,137.0,2.3,0,5,7,0,2026-06-12T14:29:41.203027+05:30
Mussoorie,Uttarakhand,30.4599,78.0664,19.0,66,0.1,804.7,7.15,54.7,121,114.6,36.2,1.2,184.0,146.0,4.4,6,5,7,0,2026-06-12T14:29:41.203036+05:30
Dharamshala,Himachal Pradesh,32.219,76.3234,22.6,57,0.1,869.6,8.5,41.8,86,33.8,18.6,0.8,197.0,160.0,2.5,3,5,7,0,2026-06-12T14:29:41.203044+05:30
Dalhousie,Himachal Pradesh,32.5387,75.971,18.4,74,0.0,805.8,8.4,29.9,99,89.2,41.1,2.1,200.0,189.0,6.7,3,5,7,0,2026-06-12T14:29:41.203054+05:30
Patiala,Punjab,30.3398,76.3869,34.0,40,0.0,976.2,7.7,61.6,1169,68.9,29.9,1.7,208.0,136.0,5.7,0,5,7,1,2026-06-12T14:29:41.203062+05:30
Bhatinda,Punjab,30.211,74.9455,35.5,39,0.0,980.1,8.3,55.4,928,776.7,138.3,2.3,165.0,156.0,9.5,0,5,10,1,2026-06-12T14:29:41.203071+05:30
Rohtak,Haryana,28.8955,76.6066,33.9,49,0.0,978.5,7.25,49.3,1227,241.2,58.7,6.7,321.0,156.0,15.5,0,5,7,1,2026-06-12T14:29:41.203080+05:30
Panipat,Haryana,29.3909,76.9635,31.9,51,0.0,978.2,7.7,47.9,1282,107.6,30.2,4.2,234.0,137.0,9.9,0,5,7,1,2026-06-12T14:29:41.203089+05:30
Mathura,Uttar Pradesh,27.4924,77.6737,35.0,49,0.0,983.1,8.1,45.4,1414,167.6,47.8,2.1,228.0,157.0,5.2,0,5,7,1,2026-06-12T14:29:41.203098+05:30
Vrindavan,Uttar Pradesh,27.5823,77.7027,35.2,48,0.0,983.6,8.1,46.4,1414,167.6,47.8,2.1,231.0,157.0,5.2,0,5,10,1,2026-06-12T14:29:41.203107+05:30
Ayodhya,Uttar Pradesh,26.7922,82.1998,33.6,53,0.0,992.5,8.35,35.3,108,96.6,52.7,1.4,333.0,189.0,13.0,0,5,7,1,2026-06-12T14:29:41.203115+05:30
Ratlam,Madhya Pradesh,23.3315,75.0367,37.1,37,0.0,951.2,8.55,50.0,87,104.3,34.0,0.6,110.0,103.0,4.6,0,5,10,1,2026-06-12T14:29:41.203125+05:30
Sagar,Madhya Pradesh,23.8388,78.7378,38.0,35,0.0,945.9,8.75,46.1,79,75.0,32.2,0.5,142.0,116.0,3.9,0,5,10,1,2026-06-12T14:29:41.203134+05:30
Satna,Madhya Pradesh,24.6005,80.8322,35.8,43,0.0,967.5,8.85,50.8,111,56.1,37.3,1.0,144.0,163.0,10.7,0,5,10,1,2026-06-12T14:29:41.203143+05:30
Akola,Maharashtra,20.7002,77.0082,40.4,27,0.0,971.3,8.8,40.7,73,63.1,29.1,1.2,123.0,118.0,6.9,0,5,10,1,2026-06-12T14:29:41.203153+05:30
Amravati,Maharashtra,20.9374,77.7796,39.4,30,0.0,963.9,8.85,41.8,76,62.9,29.7,1.4,128.0,120.0,8.0,0,5,10,1,2026-06-12T14:29:41.203161+05:30
Latur,Maharashtra,18.4088,76.5604,35.9,35,0.0,938.3,8.95,34.6,68,49.0,19.9,0.8,125.0,100.0,1.9,0,5,10,1,2026-06-12T14:29:41.203169+05:30
Nanded,Maharashtra,19.1383,77.3091,39.0,28,0.0,965.8,8.9,38.5,86,63.1,25.1,0.9,137.0,106.0,2.7,0,5,10,1,2026-06-12T14:29:41.203176+05:30
Gulbarga,Karnataka,17.3297,76.8343,35.8,39,0.0,957.0,8.5,39.6,64,50.9,19.9,1.1,128.0,105.0,2.2,0,5,10,1,2026-06-12T14:29:41.203183+05:30
Bidar,Karnataka,17.9104,77.5199,35.1,40,0.0,934.5,9.0,39.2,70,49.8,23.5,1.1,137.0,110.0,2.0,0,5,10,1,2026-06-12T14:29:41.203190+05:30
Hospet,Karnataka,15.2689,76.3909,34.1,44,0.0,954.5,8.95,55.1,50,20.4,9.7,1.1,123.0,92.0,1.8,0,5,7,1,2026-06-12T14:29:41.203197+05:30
Tirupur,Tamil Nadu,11.1085,77.3411,31.8,51,0.0,974.8,7.15,50.0,54,10.0,5.6,1.6,137.0,85.0,2.1,0,5,7,1,2026-06-12T14:29:41.203204+05:30
Alappuzha,Kerala,9.4981,76.3388,27.9,75,0.0,1010.2,4.2,31.0,34,13.1,7.1,1.6,96.0,70.0,1.4,7,0,0,1,2026-06-12T14:29:41.203211+05:30
Munnar,Kerala,10.0889,77.0595,19.2,80,0.0,857.9,7.9,42.1,25,4.2,2.5,0.9,107.0,69.0,1.0,3,5,7,0,2026-06-12T14:29:41.203238+05:30
Silchar,Assam,24.8333,92.7789,31.3,71,0.0,1000.8,8.8,20.9,133,39.0,31.3,2.0,234.0,141.0,4.5,3,5,4,1,2026-06-12T14:29:41.203248+05:30
Dibrugarh,Assam,27.4728,94.912,31.0,65,0.0,991.9,8.25,25.6,89,17.5,13.0,0.7,186.0,120.0,1.1,3,5,7,1,2026-06-12T14:29:41.203255+05:30
