city,state,latitude,longitude,temp,humidity,rain,pressure,uv_index,wind_gusts,aqi,pm10,pm2_5,mosquito_risk,arthritis_risk,migraine_risk,frizz_risk,updated_at
Delhi,Delhi,28.6139,77.209,22.8,49,0.0,983.3,7.25,23.0,307,326.0,70.1,0,5,7,0,2026-04-14T04:18:26.828561+05:30
Mumbai,Maharashtra,19.076,72.8777,28.3,83,0.0,1008.7,8.0,23.4,119,88.0,46.8,7,0,4,1,2026-04-14T04:18:26.828597+05:30
Bangalore,Karnataka,12.9716,77.5946,23.2,72,0.0,911.6,9.65,31.7,84,36.9,31.1,3,5,7,1,2026-04-14T04:18:26.828612+05:30
Hyderabad,Telangana,17.385,78.4867,27.6,62,0.0,953.0,9.25,25.2,101,30.3,22.8,7,5,7,1,2026-04-14T04:18:26.828622+05:30
Chennai,Tamil Nadu,13.0827,80.2707,26.7,88,0.0,1007.5,9.35,32.4,43,15.5,10.1,7,5,4,1,2026-04-14T04:18:26.828630+05:30
Kolkata,West Bengal,22.5726,88.3639,27.2,90,0.0,1006.1,8.85,29.9,81,29.2,21.9,7,5,4,1,2026-04-14T04:18:26.828639+05:30
Pune,Maharashtra,18.5204,73.8567,20.9,93,0.0,948.2,8.6,40.0,78,44.4,28.3,3,5,7,1,2026-04-14T04:18:26.828650+05:30
Ahmedabad,Gujarat,23.0225,72.5714,26.2,55,0.0,1002.0,8.15,30.6,81,43.3,15.3,4,5,4,1,2026-04-14T04:18:26.828658+05:30
Jaipur,Rajasthan,26.9124,75.7873,25.4,44,0.0,959.8,7.9,33.1,150,73.1,22.9,4,5,7,0,2026-04-14T04:18:26.828666+05:30
Lucknow,Uttar Pradesh,26.8467,80.9462,22.5,66,0.0,993.4,7.75,32.8,120,348.3,62.6,3,5,7,0,2026-04-14T04:18:26.828674+05:30
Kanpur,Uttar Pradesh,26.4499,80.3319,21.6,72,0.0,991.8,7.8,28.1,243,341.8,58.7,3,5,7,1,2026-04-14T04:18:26.828681+05:30
Chandigarh,Chandigarh,30.7333,76.7794,19.3,68,0.0,968.6,7.2,29.5,52,20.1,16.8,3,5,7,0,2026-04-14T04:18:26.828688+05:30
Srinagar,Jammu and Kashmir,34.0837,74.7973,8.1,78,0.0,840.2,8.2,18.4,91,47.5,40.7,3,5,7,0,2026-04-14T04:18:26.828695+05:30
Jammu,Jammu and Kashmir,32.7266,74.857,18.0,78,0.0,973.4,7.85,29.2,67,26.2,22.9,3,5,7,0,2026-04-14T04:18:26.828701+05:30
Amritsar,Punjab,31.634,74.8723,18.6,77,0.0,981.4,7.8,24.5,68,31.7,30.3,3,5,7,0,2026-04-14T04:18:26.828708+05:30
Ludhiana,Punjab,30.901,75.8573,20.5,63,0.0,979.1,7.4,28.8,66,27.6,25.4,3,5,7,0,2026-04-14T04:18:26.828714+05:30
Jalandhar,Punjab,31.326,75.5762,19.2,66,0.0,980.4,7.6,25.2,72,38.0,30.4,3,5,7,0,2026-04-14T04:18:26.828722+05:30
Dehradun,Uttarakhand,30.6284,78.0322,13.6,73,0.0,829.0,7.65,40.0,47,17.3,12.2,3,5,7,0,2026-04-14T04:18:26.828729+05:30
Shimla,Himachal Pradesh,31.1048,77.1734,10.5,79,0.0,782.4,7.7,44.3,48,25.8,15.9,3,5,7,0,2026-04-14T04:18:26.828735+05:30
Manali,Himachal Pradesh,32.2396,77.1887,13.6,49,0.0,819.1,9.15,31.3,95,21.8,14.7,0,5,7,0,2026-04-14T04:18:26.828741+05:30
Gurgaon,Haryana,28.4595,77.0266,20.4,59,0.0,981.8,7.4,17.3,903,717.1,107.3,0,5,7,0,2026-04-14T04:18:26.828748+05:30
Noida,Uttar Pradesh,28.5355,77.391,22.4,51,0.0,984.8,7.3,23.4,903,717.1,107.3,0,5,7,0,2026-04-14T04:18:26.828754+05:30
Ghaziabad,Uttar Pradesh,28.6692,77.4538,20.7,60,0.0,982.7,7.25,24.1,187,244.9,59.0,0,5,7,0,2026-04-14T04:18:26.828760+05:30
Faridabad,Haryana,28.4089,77.3178,21.3,54,0.0,984.2,7.35,18.4,903,717.1,107.3,0,5,7,0,2026-04-14T04:18:26.828767+05:30
Meerut,Uttar Pradesh,28.9845,77.7064,19.5,65,0.0,981.2,7.15,30.6,187,244.9,59.0,3,5,7,0,2026-04-14T04:18:26.828773+05:30
Agra,Uttar Pradesh,27.1767,78.0081,22.9,49,0.0,988.1,7.65,16.2,586,646.3,95.2,0,5,7,0,2026-04-14T04:18:26.828779+05:30
Varanasi,Uttar Pradesh,25.3176,82.9739,21.0,60,0.0,997.8,8.4,34.2,95,92.0,35.2,0,5,7,0,2026-04-14T04:18:26.828789+05:30
Prayagraj,Uttar Pradesh,25.4358,81.8463,24.1,49,0.0,996.4,8.3,31.3,92,175.1,40.6,0,5,7,0,2026-04-14T04:18:26.828797+05:30
Gorakhpur,Uttar Pradesh,26.7606,83.3732,20.1,47,0.0,996.8,8.2,22.7,74,142.5,33.5,0,5,7,0,2026-04-14T04:18:26.828804+05:30
Bareilly,Uttar Pradesh,28.367,79.4304,19.3,69,0.0,986.3,7.55,33.1,63,99.4,35.2,3,5,7,0,2026-04-14T04:18:26.828813+05:30
Aligarh,Uttar Pradesh,27.8974,78.088,19.8,58,0.0,985.8,7.45,24.8,587,590.5,94.3,0,5,7,0,2026-04-14T04:18:26.828819+05:30
Moradabad,Uttar Pradesh,28.8386,78.7733,19.0,68,0.0,983.3,7.35,34.2,78,103.8,41.4,3,5,7,0,2026-04-14T04:18:26.828825+05:30
Saharanpur,Uttar Pradesh,29.9637,77.546,19.5,72,0.0,975.3,6.95,32.0,68,40.6,37.1,3,5,7,0,2026-04-14T04:18:26.828831+05:30
Jhansi,Uttar Pradesh,25.4484,78.5685,23.7,46,0.0,978.0,8.2,28.8,165,62.9,22.4,0,5,7,0,2026-04-14T04:18:30.049265+05:30
Surat,Gujarat,21.1702,72.8311,27.5,88,0.0,1006.8,7.8,24.5,128,53.8,37.0,7,5,4,1,2026-04-14T04:18:30.049295+05:30
Vadodara,Gujarat,22.3072,73.1812,26.2,75,0.0,1004.3,8.1,25.9,111,44.4,35.2,7,5,4,1,2026-04-14T04:18:30.049306+05:30
Rajkot,Gujarat,22.3039,70.8022,25.2,68,0.0,994.6,7.85,32.8,64,49.0,15.1,7,5,7,1,2026-04-14T04:18:30.049315+05:30
Thane,Maharashtra,19.2183,72.9781,26.1,95,0.0,1008.3,8.0,36.7,119,88.0,46.8,7,0,4,1,2026-04-14T04:18:30.049323+05:30
Nagpur,Maharashtra,21.1458,79.0882,25.8,51,0.0,972.3,8.85,15.8,113,69.6,33.3,4,5,7,0,2026-04-14T04:18:30.049332+05:30
Nashik,Maharashtra,19.9975,73.7898,22.4,87,0.0,946.0,8.3,31.7,83,62.9,41.3,3,5,7,1,2026-04-14T04:18:30.049339+05:30
Aurangabad,Maharashtra,19.8762,75.3433,27.1,41,0.0,944.0,8.95,31.7,71,39.7,27.9,4,5,7,0,2026-04-14T04:18:30.049347+05:30
Solapur,Maharashtra,17.6599,75.9064,28.3,55,0.0,956.8,9.05,28.4,83,22.5,19.7,4,5,7,1,2026-04-14T04:18:30.049356+05:30
Kolhapur,Maharashtra,16.705,74.2433,20.1,99,0.0,947.4,9.05,45.0,79,37.5,28.0,3,5,7,1,2026-04-14T04:18:30.049364+05:30
Goa,Goa,15.2993,74.124,26.9,84,0.0,997.7,9.05,32.8,83,54.9,29.7,7,5,7,1,2026-04-14T04:18:30.049371+05:30
Jodhpur,Rajasthan,26.2389,73.0243,25.6,48,0.0,982.1,8.15,25.6,61,68.0,15.8,4,5,7,0,2026-04-14T04:18:30.049379+05:30
Udaipur,Rajasthan,24.5854,73.7125,23.7,37,0.0,946.8,8.7,38.2,44,28.2,11.7,0,5,7,0,2026-04-14T04:18:30.049386+05:30
Kota,Rajasthan,25.2138,75.8648,20.5,71,0.0,978.3,8.2,20.2,75,95.5,29.7,3,5,7,0,2026-04-14T04:18:30.049393+05:30
Bikaner,Rajasthan,28.0229,73.3119,26.6,33,0.0,980.8,7.95,18.4,45,21.0,8.6,4,5,7,0,2026-04-14T04:18:30.049401+05:30
Ajmer,Rajasthan,26.4499,74.6399,26.6,31,0.0,954.0,8.1,33.5,57,48.2,21.2,4,5,7,0,2026-04-14T04:18:30.049408+05:30
Gwalior,Madhya Pradesh,26.2183,78.1828,23.3,58,0.0,983.4,7.9,37.1,194,149.0,37.3,0,5,7,0,2026-04-14T04:18:30.049415+05:30
Indore,Madhya Pradesh,22.7196,75.8577,24.5,43,0.0,947.9,8.55,28.8,84,49.6,39.3,0,5,7,0,2026-04-14T04:18:30.049422+05:30
Bhopal,Madhya Pradesh,23.2599,77.4126,23.3,51,0.0,953.6,8.55,27.4,77,84.8,25.9,0,5,7,0,2026-04-14T04:18:30.049429+05:30
Jabalpur,Madhya Pradesh,23.1815,79.9864,23.7,61,0.0,961.2,8.65,15.8,87,101.3,26.1,3,5,7,0,2026-04-14T04:18:30.049436+05:30
Ujjain,Madhya Pradesh,23.1765,75.7885,24.6,44,0.0,953.6,8.45,30.2,105,53.7,47.0,0,5,7,0,2026-04-14T04:18:30.049444+05:30
Visakhapatnam,Andhra Pradesh,17.6868,83.2185,26.9,88,0.0,1003.6,9.15,40.7,69,26.7,17.6,7,5,4,1,2026-04-14T04:18:30.049452+05:30
Vijayawada,Andhra Pradesh,16.5062,80.648,26.6,91,0.0,1002.8,9.2,28.1,60,18.2,11.9,7,5,4,1,2026-04-14T04:18:30.049458+05:30
Guntur,Andhra Pradesh,16.3067,80.4365,27.1,90,0.0,1003.8,9.25,31.7,62,18.2,11.9,7,5,4,1,2026-04-14T04:18:30.049466+05:30
Nellore,Andhra Pradesh,14.4426,79.9865,25.5,93,0.0,1005.6,9.3,33.1,53,15.8,11.2,7,5,4,1,2026-04-14T04:18:30.049474+05:30
Kurnool,Andhra Pradesh,15.8281,78.0373,30.3,57,0.0,977.1,9.2,20.9,94,24.7,20.0,0,5,7,1,2026-04-14T04:18:30.049521+05:30
Kakinada,Andhra Pradesh,16.9891,82.2475,25.9,92,0.0,1007.7,9.2,31.3,55,25.4,14.1,7,5,4,1,2026-04-14T04:18:30.049534+05:30
Tirupati,Andhra Pradesh,13.6288,79.4192,23.7,84,0.0,992.1,9.4,33.5,65,24.3,20.0,3,5,7,1,2026-04-14T04:18:30.049543+05:30
Warangal,Telangana,17.9689,79.5941,27.0,71,0.0,978.0,9.1,23.8,84,27.4,21.9,7,5,7,1,2026-04-14T04:18:30.049551+05:30
Nizamabad,Telangana,18.6725,78.0941,28.1,55,0.0,964.1,9.05,28.8,105,57.9,50.9,4,5,7,1,2026-04-14T04:18:30.049558+05:30
Mysore,Karnataka,12.2958,76.6396,23.1,93,0.0,928.2,9.55,39.6,88,47.5,39.9,3,5,7,1,2026-04-14T04:18:30.049565+05:30
Mangalore,Karnataka,12.9141,74.856,29.2,85,0.0,1006.3,9.15,25.2,96,41.4,31.9,7,5,4,1,2026-04-14T04:18:30.049572+05:30
Hubli-Dharwad,Karnataka,15.3647,75.124,23.3,92,0.0,940.6,9.25,41.4,86,26.5,18.5,3,5,7,1,2026-04-14T04:18:30.049580+05:30
Belgaum,Karnataka,15.8497,74.4977,20.7,99,0.0,925.2,9.3,43.2,78,45.5,27.0,3,5,7,1,2026-04-14T04:18:33.264641+05:30
Coimbatore,Tamil Nadu,11.0168,76.9558,24.1,95,0.0,961.7,9.25,34.2,91,53.0,43.5,3,5,7,1,2026-04-14T04:18:33.264670+05:30
Madurai,Tamil Nadu,9.9252,78.1198,27.0,88,0.0,993.1,8.95,38.9,73,28.6,26.1,7,5,7,1,2026-04-14T04:18:33.264682+05:30
Trichy,Tamil Nadu,10.7905,78.7047,27.2,90,0.0,1000.0,8.9,23.4,60,28.0,24.0,7,5,4,1,2026-04-14T04:18:33.264691+05:30
Salem,Tamil Nadu,11.6643,78.146,26.1,88,0.0,977.6,9.45,20.5,72,30.3,26.8,7,5,7,1,2026-04-14T04:18:33.264699+05:30
Tirunelveli,Tamil Nadu,8.7139,77.7567,26.9,86,0.0,1003.0,9.1,41.0,79,36.9,28.6,7,5,4,1,2026-04-14T04:18:33.264708+05:30
Vellore,Tamil Nadu,12.9165,79.1325,23.6,81,0.0,985.1,9.45,32.4,81,41.8,36.8,3,5,7,1,2026-04-14T04:18:33.264714+05:30
Erode,Tamil Nadu,11.341,77.7172,27.2,83,0.0,989.2,9.1,26.6,61,18.2,16.2,7,5,7,1,2026-04-14T04:18:33.264721+05:30
Kochi,Kerala,9.9312,76.2673,28.7,84,0.0,1008.0,9.2,31.3,93,43.8,36.2,7,0,4,1,2026-04-14T04:18:33.264728+05:30
Thiruvananthapuram,Kerala,8.5241,76.9366,28.4,83,0.0,1007.1,9.15,27.0,82,40.5,22.9,7,5,4,1,2026-04-14T04:18:33.264734+05:30
Kozhikode,Kerala,11.2588,75.7804,29.3,82,0.0,1007.1,9.15,28.8,91,52.2,30.0,7,5,4,1,2026-04-14T04:18:33.264740+05:30
Thrissur,Kerala,10.5276,76.2144,28.0,88,0.0,1006.3,9.2,40.0,88,51.0,38.5,7,5,4,1,2026-04-14T04:18:33.264746+05:30
Kannur,Kerala,11.8745,75.3704,28.8,83,0.0,1006.5,9.15,32.8,100,43.5,33.3,7,5,4,1,2026-04-14T04:18:33.264752+05:30
Patna,Bihar,25.5941,85.1376,23.3,57,0.0,1000.0,8.55,27.0,93,33.1,25.6,0,5,4,0,2026-04-14T04:18:33.264758+05:30
Gaya,Bihar,24.7914,85.0002,23.1,54,0.0,993.7,8.6,21.6,99,51.2,27.6,0,5,7,0,2026-04-14T04:18:33.264764+05:30
Muzaffarpur,Bihar,26.1209,85.3647,22.1,78,0.0,1000.1,8.5,17.3,119,83.4,61.2,3,5,4,1,2026-04-14T04:18:33.264769+05:30
Bhagalpur,Bihar,25.2425,87.0117,24.0,81,0.0,1001.0,8.55,16.6,137,88.5,69.6,3,5,4,1,2026-04-14T04:18:33.264775+05:30
Ranchi,Jharkhand,23.3441,85.3096,21.0,50,0.0,937.6,9.15,30.6,83,73.3,23.8,0,5,7,0,2026-04-14T04:18:33.264781+05:30
Jamshedpur,Jharkhand,22.8046,86.2029,25.3,86,0.0,990.8,8.95,13.7,136,112.0,75.4,7,5,7,1,2026-04-14T04:18:33.264786+05:30
Dhanbad,Jharkhand,23.7957,86.4304,21.8,74,0.0,979.7,8.9,19.8,151,95.0,49.2,3,5,7,1,2026-04-14T04:18:33.264792+05:30
Bokaro,Jharkhand,23.6693,86.1511,22.2,69,0.0,984.2,8.9,27.0,148,97.3,50.5,3,5,7,1,2026-04-14T04:18:33.264798+05:30
Bhubaneswar,Odisha,20.2961,85.8245,26.6,90,0.0,1002.4,9.05,29.9,69,24.6,17.0,7,5,4,1,2026-04-14T04:18:33.264803+05:30
Cuttack,Odisha,20.4625,85.8828,26.7,91,0.0,1004.2,9.1,24.8,69,24.6,17.0,7,5,4,1,2026-04-14T04:18:33.264809+05:30
Rourkela,Odisha,22.2604,84.8536,25.6,93,0.0,985.0,8.85,22.7,116,73.3,36.6,7,5,7,1,2026-04-14T04:18:33.264814+05:30
Raipur,Chhattisgarh,21.2514,81.6296,26.6,45,0.0,974.1,8.95,18.7,133,92.7,50.2,4,5,7,0,2026-04-14T04:18:33.264820+05:30
Bhilai,Chhattisgarh,21.1938,81.3509,26.4,49,0.0,974.4,8.9,13.7,105,85.4,45.1,4,5,7,0,2026-04-14T04:18:33.264825+05:30
Guwahati,Assam,26.1158,91.7086,22.2,91,0.0,1003.0,8.45,30.6,143,44.7,37.6,3,5,4,1,2026-04-14T04:18:33.264831+05:30
Agartala,Tripura,23.8315,91.2868,23.4,92,0.0,1007.4,8.7,27.7,94,37.0,33.1,3,5,4,1,2026-04-14T04:18:33.264837+05:30
Shillong,Meghalaya,25.5788,91.8933,13.4,86,0.0,855.5,8.9,47.5,99,36.1,25.7,3,10,7,0,2026-04-14T04:18:33.264843+05:30
Imphal,Manipur,24.817,93.9368,17.9,87,0.0,924.3,8.85,63.7,121,88.2,56.7,3,10,7,0,2026-04-14T04:18:33.264849+05:30
Aizawl,Mizoram,23.7271,92.7176,17.2,75,0.0,892.8,8.95,44.3,100,68.2,36.6,3,5,7,0,2026-04-14T04:18:33.264855+05:30
Kohima,Nagaland,25.6701,94.1077,15.3,88,0.0,855.4,8.3,71.3,100,84.5,45.4,3,10,7,0,2026-04-14T04:18:33.264860+05:30
Gangtok,Sikkim,27.3314,88.6138,13.4,84,0.0,836.2,8.8,19.4,107,67.3,36.7,3,10,7,0,2026-04-14T04:18:33.264866+05:30
Siliguri,West Bengal,26.7271,88.3953,19.7,70,0.0,994.6,8.45,39.6,152,139.7,81.3,3,5,7,0,2026-04-14T04:18:36.508602+05:30
Durgapur,West Bengal,23.5204,87.3119,26.3,94,0.0,994.9,8.8,18.4,158,119.7,88.7,7,5,7,1,2026-04-14T04:18:36.508629+05:30
Asansol,West Bengal,23.6739,86.9524,26.4,64,0.0,993.5,8.85,18.7,143,79.9,42.3,7,5,7,1,2026-04-14T04:18:36.508638+05:30
Pondicherry,Puducherry,11.9139,79.8145,25.5,97,0.0,1008.8,9.3,26.6,37,13.6,8.6,7,0,4,1,2026-04-14T04:18:36.508645+05:30
Port Blair,Andaman and Nicobar Islands,11.6234,92.7265,28.4,81,0.0,1007.3,9.2,21.2,63,23.1,14.4,7,5,4,1,2026-04-14T04:18:36.508652+05:30
Haridwar,Uttarakhand,29.9457,78.1642,18.7,72,0.0,973.9,7.0,35.3,62,29.1,27.1,3,5,7,0,2026-04-14T04:18:36.508660+05:30
Rishikesh,Uttarakhand,30.0869,78.2676,18.9,72,0.0,966.8,7.1,36.7,68,21.8,16.4,3,5,7,0,2026-04-14T04:18:36.508667+05:30
Nainital,Uttarakhand,29.3919,79.4542,18.1,27,0.0,805.4,8.0,55.1,69,17.1,11.5,0,5,7,1,2026-04-14T04:18:36.508674+05:30
Mussoorie,Uttarakhand,30.4599,78.0664,15.2,66,0.0,801.6,7.5,47.5,57,23.4,20.4,3,5,7,0,2026-04-14T04:18:36.508681+05:30
Dharamshala,Himachal Pradesh,32.219,76.3234,18.6,32,0.0,868.9,7.75,25.2,49,17.9,10.0,0,5,7,0,2026-04-14T04:18:36.508687+05:30
Dalhousie,Himachal Pradesh,32.5387,75.971,14.9,42,0.0,803.0,8.0,22.7,60,24.2,19.6,0,5,7,0,2026-04-14T04:18:36.508693+05:30
Patiala,Punjab,30.3398,76.3869,19.1,67,0.0,978.1,7.1,31.7,288,289.6,43.9,3,5,7,0,2026-04-14T04:18:36.508700+05:30
Bhatinda,Punjab,30.211,74.9455,20.9,58,0.0,984.2,7.6,29.5,52,49.2,23.6,0,5,7,0,2026-04-14T04:18:36.508706+05:30
Rohtak,Haryana,28.8955,76.6066,19.2,66,0.0,981.9,7.3,23.4,445,421.0,79.6,3,5,7,0,2026-04-14T04:18:36.508712+05:30
Panipat,Haryana,29.3909,76.9635,19.4,64,0.0,980.2,7.1,30.6,888,504.8,78.5,3,5,7,0,2026-04-14T04:18:36.508719+05:30
Mathura,Uttar Pradesh,27.4924,77.6737,19.6,60,0.0,987.0,7.6,16.6,621,651.9,95.7,0,5,7,0,2026-04-14T04:18:36.508725+05:30
Vrindavan,Uttar Pradesh,27.5823,77.7027,19.6,58,0.0,987.5,7.55,18.7,621,651.9,95.7,0,5,7,0,2026-04-14T04:18:36.508732+05:30
Ayodhya,Uttar Pradesh,26.7922,82.1998,21.6,60,0.0,995.0,7.95,36.0,73,194.6,39.6,0,5,7,0,2026-04-14T04:18:36.508738+05:30
Ratlam,Madhya Pradesh,23.3315,75.0367,24.7,46,0.0,954.2,8.4,28.4,85,27.8,22.7,0,5,7,0,2026-04-14T04:18:36.508744+05:30
Sagar,Madhya Pradesh,23.8388,78.7378,24.3,47,0.0,950.2,8.55,25.6,109,175.1,32.5,0,5,7,0,2026-04-14T04:18:36.508751+05:30
Satna,Madhya Pradesh,24.6005,80.8322,23.8,47,0.0,971.7,8.6,25.6,123,84.8,20.8,0,5,7,0,2026-04-14T04:18:36.508756+05:30
Akola,Maharashtra,20.7002,77.0082,25.5,69,0.0,974.6,8.8,28.4,68,22.2,17.2,7,5,7,1,2026-04-14T04:18:36.508763+05:30
Amravati,Maharashtra,20.9374,77.7796,26.0,51,0.0,966.6,8.8,23.8,71,24.4,18.6,4,5,7,0,2026-04-14T04:18:36.508770+05:30
Latur,Maharashtra,18.4088,76.5604,25.2,53,0.0,939.2,9.05,28.8,81,32.2,26.2,4,5,7,0,2026-04-14T04:18:36.508776+05:30
Nanded,Maharashtra,19.1383,77.3091,26.4,60,0.0,968.1,8.95,20.2,83,24.4,20.0,4,5,7,1,2026-04-14T04:18:36.508782+05:30
Gulbarga,Karnataka,17.3297,76.8343,29.9,55,0.0,958.4,9.1,27.0,102,33.3,29.3,4,5,7,1,2026-04-14T04:18:36.508788+05:30
Bidar,Karnataka,17.9104,77.5199,27.7,61,0.0,935.3,9.1,28.1,118,51.5,43.1,7,5,7,1,2026-04-14T04:18:36.508794+05:30
Hospet,Karnataka,15.2689,76.3909,27.5,75,0.0,956.1,9.25,24.5,103,27.0,24.4,7,5,7,1,2026-04-14T04:18:36.508799+05:30
Tirupur,Tamil Nadu,11.1085,77.3411,27.1,75,0.0,975.4,9.1,31.0,81,35.7,29.5,7,5,7,1,2026-04-14T04:18:36.508806+05:30
Alappuzha,Kerala,9.4981,76.3388,28.5,84,0.0,1008.1,8.95,28.1,93,50.4,36.2,7,0,4,1,2026-04-14T04:18:36.508811+05:30
Munnar,Kerala,10.0889,77.0595,21.0,81,0.0,856.2,9.7,25.2,85,32.6,29.3,3,5,7,1,2026-04-14T04:18:36.508818+05:30
Silchar,Assam,24.8333,92.7789,22.9,95,0.0,1007.0,8.7,33.1,148,65.7,50.1,3,5,4,1,2026-04-14T04:18:36.508824+05:30
Dibrugarh,Assam,27.4728,94.912,20.4,92,0.0,998.6,8.55,20.5,114,50.5,31.4,3,5,7,1,2026-04-14T04:18:36.508830+05:30
