city,state,latitude,longitude,temp,humidity,rain,pressure,uv_index,wind_gusts,aqi,pm10,pm2_5,mosquito_risk,arthritis_risk,migraine_risk,frizz_risk,updated_at
Delhi,Delhi,28.6139,77.209,24.8,77,0.0,988.8,5.95,18.7,167,215.6,127.6,3,5,3,1,2026-03-07T09:53:34.241197+05:30
Mumbai,Maharashtra,19.076,72.8777,26.4,75,0.0,1012.1,7.5,24.8,101,38.9,34.8,7,0,4,1,2026-03-07T09:53:34.241240+05:30
Bangalore,Karnataka,12.9716,77.5946,24.7,71,0.0,915.3,9.2,24.8,111,46.1,44.2,3,5,7,1,2026-03-07T09:53:34.241256+05:30
Hyderabad,Telangana,17.385,78.4867,31.6,28,0.0,957.4,8.5,28.1,98,32.8,25.7,0,5,7,0,2026-03-07T09:53:34.241266+05:30
Chennai,Tamil Nadu,13.0827,80.2707,30.1,64,0.0,1010.9,8.9,34.9,93,40.0,33.8,3,0,4,1,2026-03-07T09:53:34.241275+05:30
Kolkata,West Bengal,22.5726,88.3639,27.9,74,0.0,1012.1,7.85,23.4,140,66.4,52.4,7,0,4,1,2026-03-07T09:53:34.241283+05:30
Pune,Maharashtra,18.5204,73.8567,30.2,30,0.0,952.7,8.05,25.2,105,34.8,32.6,0,5,7,0,2026-03-07T09:53:34.241296+05:30
Ahmedabad,Gujarat,23.0225,72.5714,24.5,70,0.0,1007.9,7.3,13.0,104,37.3,29.7,3,5,4,1,2026-03-07T09:53:34.241304+05:30
Jaipur,Rajasthan,26.9124,75.7873,29.1,35,0.0,965.6,6.75,18.4,90,76.4,32.2,4,5,7,0,2026-03-07T09:53:34.241312+05:30
Lucknow,Uttar Pradesh,26.8467,80.9462,27.1,62,0.0,999.7,6.5,16.9,163,120.1,90.3,7,5,7,1,2026-03-07T09:53:34.241319+05:30
Kanpur,Uttar Pradesh,26.4499,80.3319,26.4,68,0.0,997.9,6.5,13.7,162,122.0,80.6,7,5,7,1,2026-03-07T09:53:34.241326+05:30
Chandigarh,Chandigarh,30.7333,76.7794,25.3,72,0.0,974.2,5.85,21.2,156,105.7,72.6,7,5,3,1,2026-03-07T09:53:34.241334+05:30
Srinagar,Jammu and Kashmir,34.0837,74.7973,13.6,70,0.0,846.8,5.4,15.8,119,72.4,55.1,3,5,3,0,2026-03-07T09:53:34.241341+05:30
Jammu,Jammu and Kashmir,32.7266,74.857,24.0,76,0.0,977.4,5.85,14.4,131,45.8,40.9,3,5,3,1,2026-03-07T09:53:34.241348+05:30
Amritsar,Punjab,31.634,74.8723,24.1,79,0.0,986.0,6.3,18.7,155,83.8,72.4,3,5,7,1,2026-03-07T09:53:34.241356+05:30
Ludhiana,Punjab,30.901,75.8573,24.3,79,0.0,984.3,6.1,16.2,168,163.4,102.2,3,5,7,1,2026-03-07T09:53:34.241362+05:30
Jalandhar,Punjab,31.326,75.5762,24.2,79,0.0,985.3,6.15,18.4,164,140.6,101.0,3,5,7,1,2026-03-07T09:53:34.241371+05:30
Dehradun,Uttarakhand,30.6284,78.0322,19.1,59,0.0,835.1,6.2,28.8,104,18.9,13.7,0,5,7,0,2026-03-07T09:53:34.241378+05:30
Shimla,Himachal Pradesh,31.1048,77.1734,19.2,51,0.0,790.7,6.3,40.0,118,51.0,31.5,0,5,7,0,2026-03-07T09:53:34.241385+05:30
Manali,Himachal Pradesh,32.2396,77.1887,21.9,19,0.0,826.6,7.3,46.4,56,18.5,11.4,0,5,7,1,2026-03-07T09:53:34.241392+05:30
Gurgaon,Haryana,28.4595,77.0266,25.0,79,0.0,987.1,6.05,11.5,201,267.3,117.6,7,5,7,1,2026-03-07T09:53:34.241399+05:30
Noida,Uttar Pradesh,28.5355,77.391,24.8,79,0.0,990.5,5.95,17.6,201,267.3,117.6,3,5,3,1,2026-03-07T09:53:34.241405+05:30
Ghaziabad,Uttar Pradesh,28.6692,77.4538,24.1,83,0.0,988.4,5.95,16.9,169,154.6,106.4,3,5,3,1,2026-03-07T09:53:34.241412+05:30
Faridabad,Haryana,28.4089,77.3178,24.4,81,0.0,989.6,6.0,13.3,201,267.3,117.6,3,5,3,1,2026-03-07T09:53:34.241418+05:30
Meerut,Uttar Pradesh,28.9845,77.7064,25.1,76,0.0,987.2,5.8,20.2,169,154.6,106.4,7,5,3,1,2026-03-07T09:53:34.241427+05:30
Agra,Uttar Pradesh,27.1767,78.0081,25.8,74,0.0,994.0,6.3,15.5,169,203.0,92.7,7,5,7,1,2026-03-07T09:53:34.241434+05:30
Varanasi,Uttar Pradesh,25.3176,82.9739,27.5,68,0.0,1003.6,7.15,15.5,175,119.0,108.7,7,5,4,1,2026-03-07T09:53:34.241446+05:30
Prayagraj,Uttar Pradesh,25.4358,81.8463,26.2,75,0.0,1002.1,7.0,13.3,170,130.4,114.3,7,5,4,1,2026-03-07T09:53:34.241469+05:30
Gorakhpur,Uttar Pradesh,26.7606,83.3732,27.8,68,0.0,1003.8,6.85,11.2,169,98.5,85.0,7,5,4,1,2026-03-07T09:53:34.241476+05:30
Bareilly,Uttar Pradesh,28.367,79.4304,25.4,70,0.0,992.8,6.15,13.0,165,102.7,88.7,7,5,7,1,2026-03-07T09:53:34.241484+05:30
Aligarh,Uttar Pradesh,27.8974,78.088,25.5,77,0.0,991.5,6.05,16.6,178,171.4,114.1,7,5,7,1,2026-03-07T09:53:34.241490+05:30
Moradabad,Uttar Pradesh,28.8386,78.7733,25.5,67,0.0,989.6,5.95,14.8,167,101.7,87.3,7,5,3,1,2026-03-07T09:53:34.241496+05:30
Saharanpur,Uttar Pradesh,29.9637,77.546,25.4,74,0.0,981.5,5.6,24.5,169,107.3,82.7,7,5,3,1,2026-03-07T09:53:34.241502+05:30
Jhansi,Uttar Pradesh,25.4484,78.5685,27.9,51,0.0,983.8,6.95,26.6,91,158.3,52.0,4,5,7,1,2026-03-07T09:53:37.578497+05:30
Surat,Gujarat,21.1702,72.8311,26.3,71,0.0,1011.6,7.2,24.8,151,69.4,68.0,7,0,4,1,2026-03-07T09:53:37.578536+05:30
Vadodara,Gujarat,22.3072,73.1812,26.8,57,0.0,1010.1,7.35,16.9,144,51.8,50.8,4,0,4,1,2026-03-07T09:53:37.578547+05:30
Rajkot,Gujarat,22.3039,70.8022,23.7,76,0.0,999.5,7.15,17.6,63,54.7,24.0,3,5,7,1,2026-03-07T09:53:37.578556+05:30
Thane,Maharashtra,19.2183,72.9781,28.0,57,0.0,1011.8,7.5,33.5,101,38.9,34.8,4,0,4,1,2026-03-07T09:53:37.578563+05:30
Nagpur,Maharashtra,21.1458,79.0882,30.6,34,0.0,978.2,7.85,21.2,66,51.2,23.6,0,5,7,0,2026-03-07T09:53:37.578571+05:30
Nashik,Maharashtra,19.9975,73.7898,28.1,36,0.0,950.3,7.65,22.3,100,29.8,28.6,4,5,7,0,2026-03-07T09:53:37.578578+05:30
Aurangabad,Maharashtra,19.8762,75.3433,28.7,37,0.0,948.8,8.2,22.7,76,21.9,20.8,4,5,7,0,2026-03-07T09:53:37.578585+05:30
Solapur,Maharashtra,17.6599,75.9064,28.4,40,0.0,961.3,8.4,22.7,70,30.4,24.7,4,5,7,0,2026-03-07T09:53:37.578593+05:30
Kolhapur,Maharashtra,16.705,74.2433,28.7,37,0.0,951.7,8.55,28.8,148,70.1,68.5,4,5,7,0,2026-03-07T09:53:37.578601+05:30
Goa,Goa,15.2993,74.124,28.8,67,0.0,1001.2,8.6,31.3,155,60.1,56.2,7,5,4,1,2026-03-07T09:53:37.578608+05:30
Jodhpur,Rajasthan,26.2389,73.0243,25.7,48,0.0,988.6,7.0,20.2,66,39.0,17.4,4,5,7,0,2026-03-07T09:53:37.578615+05:30
Udaipur,Rajasthan,24.5854,73.7125,28.0,40,0.0,951.8,7.65,20.2,51,14.8,11.8,4,5,7,0,2026-03-07T09:53:37.578622+05:30
Kota,Rajasthan,25.2138,75.8648,26.9,45,0.0,984.4,7.05,14.4,75,47.8,34.5,4,5,7,0,2026-03-07T09:53:37.578629+05:30
Bikaner,Rajasthan,28.0229,73.3119,26.3,42,0.0,986.4,6.75,20.5,51,20.8,13.4,4,5,7,0,2026-03-07T09:53:37.578635+05:30
Ajmer,Rajasthan,26.4499,74.6399,26.5,43,0.0,960.2,7.0,18.0,61,34.6,19.3,4,5,7,0,2026-03-07T09:53:37.578642+05:30
Gwalior,Madhya Pradesh,26.2183,78.1828,27.6,59,0.0,988.9,6.65,20.9,111,144.4,48.3,4,5,7,1,2026-03-07T09:53:37.578648+05:30
Indore,Madhya Pradesh,22.7196,75.8577,26.9,44,0.0,953.5,7.6,16.2,80,28.8,27.5,4,5,7,0,2026-03-07T09:53:37.578654+05:30
Bhopal,Madhya Pradesh,23.2599,77.4126,28.4,41,0.0,959.4,7.5,18.7,71,44.7,21.2,4,5,7,0,2026-03-07T09:53:37.578674+05:30
Jabalpur,Madhya Pradesh,23.1815,79.9864,27.0,55,0.0,966.9,7.55,25.6,77,111.5,47.0,4,5,7,1,2026-03-07T09:53:37.578684+05:30
Ujjain,Madhya Pradesh,23.1765,75.7885,26.3,52,0.0,959.2,7.5,13.7,89,26.1,25.1,4,5,7,0,2026-03-07T09:53:37.578693+05:30
Visakhapatnam,Andhra Pradesh,17.6868,83.2185,29.2,70,0.0,1008.3,8.05,36.7,137,60.1,51.3,7,0,4,1,2026-03-07T09:53:37.578702+05:30
Vijayawada,Andhra Pradesh,16.5062,80.648,28.5,75,0.0,1006.8,8.6,27.0,133,45.8,40.4,7,5,4,1,2026-03-07T09:53:37.578712+05:30
Guntur,Andhra Pradesh,16.3067,80.4365,29.1,72,0.0,1007.8,8.6,30.6,130,49.1,44.5,7,5,4,1,2026-03-07T09:53:37.578721+05:30
Nellore,Andhra Pradesh,14.4426,79.9865,30.3,58,0.0,1009.4,8.75,34.9,100,48.0,44.9,0,0,4,1,2026-03-07T09:53:37.578731+05:30
Kurnool,Andhra Pradesh,15.8281,78.0373,32.4,29,0.0,980.7,8.6,27.0,72,38.0,29.9,0,5,7,0,2026-03-07T09:53:37.578739+05:30
Kakinada,Andhra Pradesh,16.9891,82.2475,29.6,68,0.0,1012.0,8.5,33.1,102,42.3,33.9,7,0,4,1,2026-03-07T09:53:37.578746+05:30
Tirupati,Andhra Pradesh,13.6288,79.4192,30.7,45,0.0,995.3,8.9,31.7,136,53.3,50.2,0,5,7,1,2026-03-07T09:53:37.578752+05:30
Warangal,Telangana,17.9689,79.5941,30.4,41,0.0,982.6,8.3,19.1,84,42.0,35.0,0,5,7,0,2026-03-07T09:53:37.578759+05:30
Nizamabad,Telangana,18.6725,78.0941,29.9,34,0.0,969.2,8.2,25.2,103,39.1,33.6,4,5,7,0,2026-03-07T09:53:37.578765+05:30
Mysore,Karnataka,12.2958,76.6396,25.9,66,0.0,931.9,9.2,38.2,122,35.3,34.1,7,5,7,1,2026-03-07T09:53:37.578814+05:30
Mangalore,Karnataka,12.9141,74.856,28.6,76,0.0,1009.7,8.85,25.6,151,71.7,67.1,7,0,4,1,2026-03-07T09:53:37.578824+05:30
Hubli-Dharwad,Karnataka,15.3647,75.124,26.0,63,0.0,944.3,8.8,25.2,114,70.8,68.2,7,5,7,1,2026-03-07T09:53:37.578833+05:30
Belgaum,Karnataka,15.8497,74.4977,29.1,28,0.0,929.4,8.8,41.4,111,34.9,32.8,4,5,7,0,2026-03-07T09:53:40.918376+05:30
Coimbatore,Tamil Nadu,11.0168,76.9558,28.5,61,0.0,965.4,9.2,38.2,102,33.3,31.3,7,5,7,1,2026-03-07T09:53:40.918411+05:30
Madurai,Tamil Nadu,9.9252,78.1198,29.3,62,0.0,996.9,9.15,27.7,91,40.3,36.0,7,5,7,1,2026-03-07T09:53:40.918422+05:30
Trichy,Tamil Nadu,10.7905,78.7047,30.0,53,0.0,1003.7,9.05,25.9,89,39.0,33.4,4,5,4,1,2026-03-07T09:53:40.918431+05:30
Salem,Tamil Nadu,11.6643,78.146,29.8,63,0.0,981.1,9.1,19.8,102,41.8,39.1,7,5,7,1,2026-03-07T09:53:40.918439+05:30
Tirunelveli,Tamil Nadu,8.7139,77.7567,31.7,45,0.0,1006.7,9.15,49.3,95,32.9,31.5,0,5,4,1,2026-03-07T09:53:40.918446+05:30
Vellore,Tamil Nadu,12.9165,79.1325,30.2,44,0.0,988.4,9.0,33.5,146,55.6,52.3,0,5,7,1,2026-03-07T09:53:40.918470+05:30
Erode,Tamil Nadu,11.341,77.7172,29.8,67,0.0,992.7,9.1,20.2,111,47.7,46.1,7,5,7,1,2026-03-07T09:53:40.918478+05:30
Kochi,Kerala,9.9312,76.2673,27.2,82,0.0,1012.0,9.0,26.6,129,32.2,30.7,7,0,4,1,2026-03-07T09:53:40.918485+05:30
Thiruvananthapuram,Kerala,8.5241,76.9366,27.2,83,0.0,1011.2,8.95,33.1,98,36.8,34.2,7,0,4,1,2026-03-07T09:53:40.918493+05:30
Kozhikode,Kerala,11.2588,75.7804,27.9,78,0.0,1011.2,8.9,27.0,132,36.9,34.9,7,0,4,1,2026-03-07T09:53:40.918499+05:30
Thrissur,Kerala,10.5276,76.2144,29.4,72,0.0,1010.3,8.55,32.8,126,30.2,28.9,7,0,4,1,2026-03-07T09:53:40.918507+05:30
Kannur,Kerala,11.8745,75.3704,29.6,70,0.0,1010.1,8.9,30.6,145,60.5,56.1,7,0,4,1,2026-03-07T09:53:40.918513+05:30
Patna,Bihar,25.5941,85.1376,28.4,57,0.0,1006.8,7.3,20.2,160,93.1,84.5,4,5,4,1,2026-03-07T09:53:40.918520+05:30
Gaya,Bihar,24.7914,85.0002,27.5,68,0.0,999.4,7.4,23.4,153,81.0,63.1,7,5,7,1,2026-03-07T09:53:40.918526+05:30
Muzaffarpur,Bihar,26.1209,85.3647,28.8,58,0.0,1007.0,7.25,17.6,168,109.9,101.7,4,5,4,1,2026-03-07T09:53:40.918532+05:30
Bhagalpur,Bihar,25.2425,87.0117,27.7,67,0.0,1007.9,7.3,14.4,162,90.8,75.0,7,5,4,1,2026-03-07T09:53:40.918538+05:30
Ranchi,Jharkhand,23.3441,85.3096,26.2,61,0.0,942.8,8.05,23.8,151,83.8,60.1,7,5,7,1,2026-03-07T09:53:40.918545+05:30
Jamshedpur,Jharkhand,22.8046,86.2029,27.8,66,0.0,996.3,7.95,22.7,138,85.9,59.6,7,5,7,1,2026-03-07T09:53:40.918551+05:30
Dhanbad,Jharkhand,23.7957,86.4304,29.2,51,0.0,985.5,7.8,24.8,164,103.4,75.9,4,5,7,1,2026-03-07T09:53:40.918557+05:30
Bokaro,Jharkhand,23.6693,86.1511,28.3,52,0.0,989.4,7.85,16.9,167,106.2,75.9,4,5,7,1,2026-03-07T09:53:40.918563+05:30
Bhubaneswar,Odisha,20.2961,85.8245,29.3,67,0.0,1007.7,8.25,31.0,150,62.4,53.9,7,5,4,1,2026-03-07T09:53:40.918570+05:30
Cuttack,Odisha,20.4625,85.8828,29.2,69,0.0,1009.6,8.25,29.9,150,62.4,53.9,7,0,4,1,2026-03-07T09:53:40.918576+05:30
Rourkela,Odisha,22.2604,84.8536,28.4,65,0.0,990.3,7.85,19.8,158,92.4,74.7,7,5,7,1,2026-03-07T09:53:40.918582+05:30
Raipur,Chhattisgarh,21.2514,81.6296,29.4,40,0.0,979.9,7.95,20.9,133,106.4,57.5,4,5,7,0,2026-03-07T09:53:40.918588+05:30
Bhilai,Chhattisgarh,21.1938,81.3509,29.6,41,0.0,980.3,7.95,18.4,108,117.8,62.9,4,5,7,0,2026-03-07T09:53:40.918594+05:30
Guwahati,Assam,26.1158,91.7086,28.8,57,0.0,1008.0,7.3,21.6,146,56.9,49.7,4,0,4,1,2026-03-07T09:53:40.918600+05:30
Agartala,Tripura,23.8315,91.2868,28.3,69,0.0,1012.6,7.6,18.7,153,69.2,50.2,7,0,4,1,2026-03-07T09:53:40.918606+05:30
Shillong,Meghalaya,25.5788,91.8933,18.9,42,0.0,862.4,7.55,42.1,98,46.9,39.0,0,5,7,0,2026-03-07T09:53:40.918612+05:30
Imphal,Manipur,24.817,93.9368,24.0,53,0.0,929.3,7.85,40.7,157,52.5,46.2,0,5,7,0,2026-03-07T09:53:40.918619+05:30
Aizawl,Mizoram,23.7271,92.7176,25.1,42,0.0,899.0,7.8,31.0,175,71.0,62.2,4,5,7,0,2026-03-07T09:53:40.918624+05:30
Kohima,Nagaland,25.6701,94.1077,19.7,57,0.0,861.1,7.7,56.5,161,45.1,39.5,0,5,7,0,2026-03-07T09:53:40.918631+05:30
Gangtok,Sikkim,27.3314,88.6138,14.8,90,0.0,842.7,7.3,15.1,153,69.4,61.0,3,10,7,0,2026-03-07T09:53:40.918638+05:30
Siliguri,West Bengal,26.7271,88.3953,22.9,69,0.1,1000.9,7.25,14.8,152,73.1,62.6,6,5,4,1,2026-03-07T09:53:44.259755+05:30
Durgapur,West Bengal,23.5204,87.3119,30.0,58,0.0,1001.1,7.8,23.0,158,88.7,70.1,4,5,4,1,2026-03-07T09:53:44.259786+05:30
Asansol,West Bengal,23.6739,86.9524,30.3,54,0.0,999.5,7.8,19.1,158,86.8,65.9,0,5,7,1,2026-03-07T09:53:44.259797+05:30
Pondicherry,Puducherry,11.9139,79.8145,29.4,70,0.0,1012.4,8.95,31.3,87,36.9,30.0,7,0,4,1,2026-03-07T09:53:44.259805+05:30
Port Blair,Andaman and Nicobar Islands,11.6234,92.7265,27.8,64,0.0,1011.7,8.85,16.2,87,54.4,34.5,7,0,4,1,2026-03-07T09:53:44.259813+05:30
Haridwar,Uttarakhand,29.9457,78.1642,26.9,64,0.0,979.9,5.75,23.8,161,116.6,76.4,7,5,3,1,2026-03-07T09:53:44.259821+05:30
Rishikesh,Uttarakhand,30.0869,78.2676,26.3,64,0.0,972.5,5.8,24.5,158,120.1,73.1,7,5,3,1,2026-03-07T09:53:44.259829+05:30
Nainital,Uttarakhand,29.3919,79.4542,20.4,61,0.0,811.1,6.6,54.7,158,90.6,60.1,3,5,7,0,2026-03-07T09:53:44.259836+05:30
Mussoorie,Uttarakhand,30.4599,78.0664,18.8,74,0.0,807.6,6.1,40.7,158,122.5,69.2,3,5,7,0,2026-03-07T09:53:44.259844+05:30
Dharamshala,Himachal Pradesh,32.219,76.3234,24.1,44,0.0,874.2,6.35,20.9,53,13.8,5.7,0,5,7,0,2026-03-07T09:53:44.259851+05:30
Dalhousie,Himachal Pradesh,32.5387,75.971,20.6,33,0.0,808.7,6.5,16.2,102,30.4,22.4,0,5,7,0,2026-03-07T09:53:44.259859+05:30
Patiala,Punjab,30.3398,76.3869,24.5,80,0.0,983.8,5.75,16.9,169,149.5,102.9,3,5,3,1,2026-03-07T09:53:44.259865+05:30
Bhatinda,Punjab,30.211,74.9455,24.2,70,0.0,988.8,6.45,20.2,133,148.1,60.1,3,5,7,1,2026-03-07T09:53:44.259872+05:30
Rohtak,Haryana,28.8955,76.6066,24.9,77,0.0,987.4,5.95,13.3,171,240.3,111.3,3,5,3,1,2026-03-07T09:53:44.259878+05:30
Panipat,Haryana,29.3909,76.9635,24.6,80,0.0,986.1,5.75,18.0,228,214.2,115.9,3,5,3,1,2026-03-07T09:53:44.259884+05:30
Mathura,Uttar Pradesh,27.4924,77.6737,25.0,77,0.0,993.0,6.25,15.8,167,205.4,92.4,7,5,7,1,2026-03-07T09:53:44.259890+05:30
Vrindavan,Uttar Pradesh,27.5823,77.7027,24.7,80,0.0,993.4,6.2,15.5,167,205.4,92.4,3,5,7,1,2026-03-07T09:53:44.259897+05:30
Ayodhya,Uttar Pradesh,26.7922,82.1998,27.5,64,0.0,1001.6,6.65,18.7,172,113.9,97.8,7,5,4,1,2026-03-07T09:53:44.259903+05:30
Ratlam,Madhya Pradesh,23.3315,75.0367,26.2,55,0.0,959.6,7.45,10.8,76,17.2,16.0,4,5,7,1,2026-03-07T09:53:44.259909+05:30
Sagar,Madhya Pradesh,23.8388,78.7378,28.6,44,0.0,955.6,7.45,22.3,66,109.0,36.6,4,5,7,0,2026-03-07T09:53:44.259915+05:30
Satna,Madhya Pradesh,24.6005,80.8322,28.0,52,0.0,976.8,7.4,20.2,152,124.8,64.5,4,5,7,1,2026-03-07T09:53:44.259921+05:30
Akola,Maharashtra,20.7002,77.0082,29.3,40,0.0,980.4,7.9,18.0,77,28.3,24.0,4,5,7,0,2026-03-07T09:53:44.259929+05:30
Amravati,Maharashtra,20.9374,77.7796,30.4,33,0.0,972.7,7.85,15.1,80,34.9,26.0,0,5,7,0,2026-03-07T09:53:44.259936+05:30
Latur,Maharashtra,18.4088,76.5604,29.5,30,0.0,944.4,8.35,28.4,79,25.7,22.2,4,5,7,0,2026-03-07T09:53:44.259942+05:30
Nanded,Maharashtra,19.1383,77.3091,30.1,32,0.0,973.4,8.1,20.5,94,33.1,30.3,0,5,7,0,2026-03-07T09:53:44.259949+05:30
Gulbarga,Karnataka,17.3297,76.8343,31.3,27,0.0,963.0,8.45,24.1,68,31.7,23.6,0,5,7,0,2026-03-07T09:53:44.259954+05:30
Bidar,Karnataka,17.9104,77.5199,30.7,27,0.0,940.0,8.4,22.3,76,27.9,21.2,0,5,7,0,2026-03-07T09:53:44.259960+05:30
Hospet,Karnataka,15.2689,76.3909,25.5,74,0.0,959.6,8.75,20.5,85,40.5,39.7,7,5,7,1,2026-03-07T09:53:44.259967+05:30
Tirupur,Tamil Nadu,11.1085,77.3411,29.4,61,0.0,978.9,9.2,30.2,122,41.9,40.3,7,5,7,1,2026-03-07T09:53:44.259973+05:30
Alappuzha,Kerala,9.4981,76.3388,27.3,81,0.0,1012.1,8.95,24.5,116,39.5,36.8,7,0,4,1,2026-03-07T09:53:44.259979+05:30
Munnar,Kerala,10.0889,77.0595,24.9,60,0.0,860.6,9.5,34.9,99,25.8,23.0,0,5,7,1,2026-03-07T09:53:44.259986+05:30
Silchar,Assam,24.8333,92.7789,29.5,60,0.0,1011.2,7.55,21.2,163,68.0,61.7,4,0,4,1,2026-03-07T09:53:44.259992+05:30
Dibrugarh,Assam,27.4728,94.912,26.5,67,0.0,1001.9,7.35,23.4,128,73.8,61.5,7,5,4,1,2026-03-07T09:53:44.259998+05:30
