city,state,latitude,longitude,temp,humidity,rain,pressure,uv_index,wind_gusts,aqi,pm10,pm2_5,no2,co,o3,so2,mosquito_risk,arthritis_risk,migraine_risk,frizz_risk,updated_at
Delhi,Delhi,28.6139,77.209,26.4,83,0.0,978.5,7.8,24.5,190,274.7,151.8,121.6,1535.0,1.0,55.0,7,5,7,1,2026-06-14T01:47:15.789310+05:30
Mumbai,Maharashtra,19.076,72.8777,29.9,75,0.0,1007.8,7.7,50.8,69,49.4,21.0,2.7,131.0,51.0,2.5,7,5,4,1,2026-06-14T01:47:15.789350+05:30
Bangalore,Karnataka,12.9716,77.5946,20.9,97,0.0,911.8,1.75,56.2,46,12.0,9.3,15.3,243.0,43.0,4.6,3,5,3,1,2026-06-14T01:47:15.789366+05:30
Hyderabad,Telangana,17.385,78.4867,26.7,67,0.0,950.7,8.2,39.6,85,36.1,21.9,12.1,274.0,56.0,4.8,7,5,7,1,2026-06-14T01:47:15.789376+05:30
Chennai,Tamil Nadu,13.0827,80.2707,29.1,70,0.0,1005.5,8.45,45.0,60,22.1,17.4,13.8,259.0,71.0,7.6,7,5,4,1,2026-06-14T01:47:15.789384+05:30
Kolkata,West Bengal,22.5726,88.3639,27.1,95,0.0,1001.1,9.0,28.4,116,48.2,44.5,16.2,445.0,67.0,7.5,7,5,4,1,2026-06-14T01:47:15.789392+05:30
Pune,Maharashtra,18.5204,73.8567,25.1,84,0.0,947.8,8.3,51.5,57,24.2,12.7,8.2,122.0,40.0,6.5,7,5,7,1,2026-06-14T01:47:15.789398+05:30
Ahmedabad,Gujarat,23.0225,72.5714,30.9,60,0.0,999.3,8.05,42.1,69,36.3,16.4,3.8,112.0,49.0,3.0,0,5,7,1,2026-06-14T01:47:15.789405+05:30
Jaipur,Rajasthan,26.9124,75.7873,26.6,72,0.0,956.0,8.25,38.9,111,73.8,35.2,17.1,724.0,46.0,6.2,7,5,7,1,2026-06-14T01:47:15.789417+05:30
Lucknow,Uttar Pradesh,26.8467,80.9462,27.5,78,0.0,989.0,8.35,31.0,143,156.5,73.8,35.7,776.0,36.0,12.9,7,5,7,1,2026-06-14T01:47:15.789425+05:30
Kanpur,Uttar Pradesh,26.4499,80.3319,29.2,59,0.0,987.5,8.3,28.8,153,272.9,83.8,24.8,739.0,52.0,9.2,4,5,7,1,2026-06-14T01:47:15.789431+05:30
Chandigarh,Chandigarh,30.7333,76.7794,22.4,84,0.0,964.3,7.85,20.5,108,92.9,64.3,46.5,1018.0,28.0,8.8,3,5,7,1,2026-06-14T01:47:15.789439+05:30
Srinagar,Jammu and Kashmir,34.0837,74.7973,13.8,96,0.0,839.9,9.0,20.5,73,49.4,44.7,41.7,820.0,14.0,2.3,3,10,7,0,2026-06-14T01:47:15.789446+05:30
Jammu,Jammu and Kashmir,32.7266,74.857,24.9,60,0.0,969.1,8.6,27.4,87,60.5,40.7,51.9,629.0,12.0,4.0,0,5,7,1,2026-06-14T01:47:15.789453+05:30
Amritsar,Punjab,31.634,74.8723,23.3,81,0.0,977.1,8.45,16.9,110,99.4,53.1,36.7,676.0,38.0,6.1,3,5,7,1,2026-06-14T01:47:15.789460+05:30
Ludhiana,Punjab,30.901,75.8573,23.7,85,0.0,974.8,8.05,19.1,126,96.6,55.9,32.6,640.0,43.0,7.9,3,5,7,1,2026-06-14T01:47:15.789466+05:30
Jalandhar,Punjab,31.326,75.5762,23.1,80,0.0,975.9,8.25,19.1,106,66.4,40.2,26.9,736.0,47.0,4.9,3,5,7,1,2026-06-14T01:47:15.789473+05:30
Dehradun,Uttarakhand,30.6284,78.0322,12.7,98,0.0,825.0,8.3,35.3,56,27.8,14.8,32.3,196.0,21.0,0.6,3,10,7,0,2026-06-14T01:47:15.789482+05:30
Shimla,Himachal Pradesh,31.1048,77.1734,9.4,90,0.0,778.1,8.35,31.3,77,36.7,28.1,33.8,251.0,25.0,0.0,3,10,7,0,2026-06-14T01:47:15.789504+05:30
Manali,Himachal Pradesh,32.2396,77.1887,12.4,72,0.0,813.8,9.75,37.8,48,4.1,4.0,17.4,272.0,109.0,0.0,3,5,7,0,2026-06-14T01:47:15.789511+05:30
Gurgaon,Haryana,28.4595,77.0266,26.5,71,0.0,976.9,7.85,31.3,689,484.3,190.5,133.9,1415.0,0.0,46.1,7,5,7,1,2026-06-14T01:47:15.789518+05:30
Noida,Uttar Pradesh,28.5355,77.391,26.3,83,0.0,980.0,7.85,24.8,689,484.3,190.5,133.9,1134.0,0.0,46.1,7,5,7,1,2026-06-14T01:47:15.789525+05:30
Ghaziabad,Uttar Pradesh,28.6692,77.4538,25.7,89,0.0,978.2,7.8,28.1,163,240.3,126.2,87.4,902.0,14.0,26.7,7,5,7,1,2026-06-14T01:47:15.789531+05:30
Faridabad,Haryana,28.4089,77.3178,26.5,85,0.0,979.3,7.85,30.2,689,484.3,190.5,133.9,1217.0,0.0,46.1,7,5,7,1,2026-06-14T01:47:15.789537+05:30
Meerut,Uttar Pradesh,28.9845,77.7064,25.5,94,0.0,977.1,7.7,30.2,163,240.3,126.2,87.4,682.0,14.0,26.7,7,5,7,1,2026-06-14T01:47:15.789543+05:30
Agra,Uttar Pradesh,27.1767,78.0081,27.8,68,0.0,983.3,8.15,34.2,597,466.6,142.0,89.1,557.0,9.0,25.4,7,5,7,1,2026-06-14T01:47:15.789550+05:30
Varanasi,Uttar Pradesh,25.3176,82.9739,29.7,75,0.0,993.3,8.8,36.7,157,118.3,99.0,47.6,786.0,55.0,22.2,7,5,7,1,2026-06-14T01:47:15.789557+05:30
Prayagraj,Uttar Pradesh,25.4358,81.8463,30.4,75,0.0,991.6,8.7,34.9,159,135.0,118.0,67.8,393.0,23.0,23.8,3,5,7,1,2026-06-14T01:47:15.789563+05:30
Gorakhpur,Uttar Pradesh,26.7606,83.3732,27.6,82,0.0,992.9,8.7,29.2,150,99.4,85.0,51.5,510.0,35.0,14.1,7,5,7,1,2026-06-14T01:47:15.789572+05:30
Bareilly,Uttar Pradesh,28.367,79.4304,26.1,82,0.0,982.2,8.15,32.4,151,103.4,62.6,26.4,514.0,64.0,12.2,7,5,7,1,2026-06-14T01:47:15.789578+05:30
Aligarh,Uttar Pradesh,27.8974,78.088,26.4,74,0.0,981.2,8.0,27.7,251,356.7,135.0,91.5,620.0,3.0,20.3,7,5,7,1,2026-06-14T01:47:15.789585+05:30
Moradabad,Uttar Pradesh,28.8386,78.7733,25.8,86,0.0,979.1,7.95,34.6,149,117.6,65.4,29.2,582.0,55.0,8.1,7,5,7,1,2026-06-14T01:47:15.789591+05:30
Saharanpur,Uttar Pradesh,29.9637,77.546,23.8,94,0.0,971.3,7.55,22.0,147,190.9,105.7,69.1,628.0,28.0,23.3,3,5,7,1,2026-06-14T01:47:15.789597+05:30
Jhansi,Uttar Pradesh,25.4484,78.5685,28.6,66,0.0,974.2,8.5,47.2,124,33.5,24.0,6.9,263.0,71.0,3.8,7,5,7,1,2026-06-14T01:47:19.141146+05:30
Surat,Gujarat,21.1702,72.8311,29.8,78,0.0,1005.2,7.55,54.4,72,41.1,22.4,11.2,195.0,40.0,18.8,7,5,4,1,2026-06-14T01:47:19.141177+05:30
Vadodara,Gujarat,22.3072,73.1812,30.7,75,0.0,1001.7,8.0,50.0,70,34.5,22.9,15.2,140.0,32.0,11.8,3,5,4,1,2026-06-14T01:47:19.141188+05:30
Rajkot,Gujarat,22.3039,70.8022,28.8,72,0.0,992.2,7.55,51.8,66,39.1,17.9,4.6,98.0,46.0,5.2,7,5,7,1,2026-06-14T01:47:19.141196+05:30
Thane,Maharashtra,19.2183,72.9781,29.8,74,0.0,1007.2,7.7,46.4,69,49.4,21.0,2.7,135.0,51.0,2.5,7,5,4,1,2026-06-14T01:47:19.141205+05:30
Nagpur,Maharashtra,21.1458,79.0882,28.5,74,0.0,969.7,8.85,47.9,108,63.8,47.4,30.7,273.0,36.0,13.9,7,5,7,1,2026-06-14T01:47:19.141213+05:30
Nashik,Maharashtra,19.9975,73.7898,24.7,89,0.0,944.5,8.05,57.6,60,28.9,14.0,3.6,114.0,44.0,1.2,3,5,7,1,2026-06-14T01:47:19.141221+05:30
Aurangabad,Maharashtra,19.8762,75.3433,26.4,73,0.0,943.0,8.95,53.6,69,28.5,15.5,6.8,119.0,46.0,6.5,7,5,7,1,2026-06-14T01:47:19.141228+05:30
Solapur,Maharashtra,17.6599,75.9064,28.0,65,0.0,956.3,8.9,54.7,60,20.7,11.8,4.8,119.0,49.0,2.9,7,5,7,1,2026-06-14T01:47:19.141236+05:30
Kolhapur,Maharashtra,16.705,74.2433,24.0,93,0.0,947.8,8.75,47.2,46,13.6,8.2,4.5,135.0,43.0,1.8,3,5,7,1,2026-06-14T01:47:19.141244+05:30
Goa,Goa,15.2993,74.124,27.3,88,0.0,998.4,6.85,34.9,64,41.8,22.8,6.7,218.0,44.0,2.0,7,5,7,1,2026-06-14T01:47:19.141252+05:30
Jodhpur,Rajasthan,26.2389,73.0243,30.1,58,0.0,978.8,8.45,44.6,148,104.3,38.9,7.7,175.0,51.0,2.2,0,5,7,1,2026-06-14T01:47:19.141259+05:30
Udaipur,Rajasthan,24.5854,73.7125,26.2,66,0.0,944.2,8.85,41.0,76,47.4,23.6,4.5,129.0,60.0,2.6,7,5,7,1,2026-06-14T01:47:19.141267+05:30
Kota,Rajasthan,25.2138,75.8648,28.2,63,0.0,975.2,8.4,50.8,96,89.2,43.1,12.4,194.0,52.0,10.2,7,5,7,1,2026-06-14T01:47:19.141274+05:30
Bikaner,Rajasthan,28.0229,73.3119,29.6,63,0.0,976.7,8.5,41.8,154,118.3,44.2,2.7,144.0,77.0,2.7,7,5,7,1,2026-06-14T01:47:19.141281+05:30
Ajmer,Rajasthan,26.4499,74.6399,27.6,57,0.0,951.0,8.35,40.0,96,88.7,34.7,8.0,318.0,61.0,3.0,4,5,7,1,2026-06-14T01:47:19.141288+05:30
Gwalior,Madhya Pradesh,26.2183,78.1828,27.6,72,0.0,979.2,8.3,34.6,157,84.8,41.4,16.8,314.0,45.0,5.4,7,5,7,1,2026-06-14T01:47:19.141295+05:30
Indore,Madhya Pradesh,22.7196,75.8577,28.0,64,0.1,946.5,8.6,50.8,80,39.0,23.5,4.9,180.0,75.0,7.7,10,5,7,1,2026-06-14T01:47:19.141302+05:30
Bhopal,Madhya Pradesh,23.2599,77.4126,27.7,61,0.0,950.6,8.65,47.5,96,68.0,36.2,14.2,286.0,49.0,4.2,7,5,7,1,2026-06-14T01:47:19.141309+05:30
Jabalpur,Madhya Pradesh,23.1815,79.9864,28.2,63,0.0,957.8,8.85,26.3,99,39.7,25.8,7.6,279.0,76.0,3.4,7,5,7,1,2026-06-14T01:47:19.141317+05:30
Ujjain,Madhya Pradesh,23.1765,75.7885,21.9,99,0.8,952.6,8.55,46.4,79,42.0,24.7,4.4,237.0,70.0,8.4,6,5,7,1,2026-06-14T01:47:19.141325+05:30
Visakhapatnam,Andhra Pradesh,17.6868,83.2185,29.6,79,0.0,999.1,8.6,44.3,101,34.6,27.9,22.5,421.0,84.0,34.0,7,5,7,1,2026-06-14T01:47:19.141333+05:30
Vijayawada,Andhra Pradesh,16.5062,80.648,29.2,73,0.0,999.5,9.0,46.1,86,39.2,29.2,9.5,322.0,77.0,5.2,7,5,7,1,2026-06-14T01:47:19.141341+05:30
Guntur,Andhra Pradesh,16.3067,80.4365,28.8,74,0.0,1000.7,9.0,37.4,88,47.3,35.0,14.5,261.0,59.0,4.8,7,5,4,1,2026-06-14T01:47:19.141348+05:30
Nellore,Andhra Pradesh,14.4426,79.9865,27.3,78,0.0,1003.9,6.05,41.8,62,24.2,14.8,6.1,167.0,78.0,3.0,7,5,4,1,2026-06-14T01:47:19.141356+05:30
Kurnool,Andhra Pradesh,15.8281,78.0373,28.8,62,0.0,975.4,6.25,46.1,73,16.7,11.7,8.2,184.0,55.0,2.4,7,5,7,1,2026-06-14T01:47:19.141364+05:30
Kakinada,Andhra Pradesh,16.9891,82.2475,29.3,74,0.0,1003.4,8.95,40.3,72,32.8,22.8,3.6,504.0,102.0,3.2,7,5,4,1,2026-06-14T01:47:19.141372+05:30
Tirupati,Andhra Pradesh,13.6288,79.4192,26.8,75,0.0,989.7,8.7,34.2,57,19.0,15.1,14.5,153.0,44.0,1.4,7,5,7,1,2026-06-14T01:47:19.141379+05:30
Warangal,Telangana,17.9689,79.5941,28.4,62,0.0,975.5,8.8,33.1,106,60.1,43.5,20.7,257.0,44.0,6.3,7,5,7,1,2026-06-14T01:47:19.141386+05:30
Nizamabad,Telangana,18.6725,78.0941,29.3,53,0.0,961.9,8.25,52.9,98,67.8,36.3,17.5,349.0,64.0,6.4,4,5,7,1,2026-06-14T01:47:19.141394+05:30
Mysore,Karnataka,12.2958,76.6396,22.3,91,0.0,929.2,7.85,39.6,36,10.7,7.8,9.9,136.0,42.0,2.2,3,5,7,1,2026-06-14T01:47:19.141401+05:30
Mangalore,Karnataka,12.9141,74.856,24.6,96,0.0,1008.5,8.7,32.4,47,30.3,16.8,8.3,532.0,39.0,3.2,3,0,4,1,2026-06-14T01:47:19.141409+05:30
Hubli-Dharwad,Karnataka,15.3647,75.124,23.3,94,0.0,940.9,5.1,48.2,34,14.8,8.3,5.0,123.0,43.0,1.7,3,5,3,1,2026-06-14T01:47:19.141416+05:30
Belgaum,Karnataka,15.8497,74.4977,22.3,98,0.0,925.5,5.8,49.0,38,18.3,9.5,3.6,121.0,46.0,1.3,3,5,3,1,2026-06-14T01:47:22.481481+05:30
Coimbatore,Tamil Nadu,11.0168,76.9558,23.4,95,0.0,962.3,8.15,43.6,30,14.2,8.8,8.0,184.0,41.0,2.8,3,5,7,1,2026-06-14T01:47:22.481513+05:30
Madurai,Tamil Nadu,9.9252,78.1198,28.4,61,0.0,993.2,8.25,55.4,62,29.6,25.8,40.1,156.0,5.0,6.7,7,5,7,1,2026-06-14T01:47:22.481524+05:30
Trichy,Tamil Nadu,10.7905,78.7047,28.7,63,0.0,999.7,7.25,47.9,52,17.7,11.3,9.5,126.0,51.0,3.4,7,5,7,1,2026-06-14T01:47:22.481533+05:30
Salem,Tamil Nadu,11.6643,78.146,24.4,94,0.1,978.0,8.85,33.5,55,21.9,16.6,18.5,444.0,39.0,6.0,6,5,7,1,2026-06-14T01:47:22.481541+05:30
Tirunelveli,Tamil Nadu,8.7139,77.7567,28.5,66,0.0,1003.8,8.65,43.6,30,11.7,8.1,7.4,173.0,39.0,2.1,7,5,4,1,2026-06-14T01:47:22.481550+05:30
Vellore,Tamil Nadu,12.9165,79.1325,25.9,81,0.0,983.8,8.3,46.8,53,19.2,15.7,16.2,185.0,47.0,3.2,7,5,7,1,2026-06-14T01:47:22.481558+05:30
Erode,Tamil Nadu,11.341,77.7172,25.9,80,0.0,989.6,8.3,36.4,51,17.3,12.6,13.9,157.0,38.0,3.4,7,5,7,1,2026-06-14T01:47:22.481566+05:30
Kochi,Kerala,9.9312,76.2673,25.1,99,0.2,1010.9,4.95,36.4,61,22.6,16.0,15.4,191.0,29.0,4.0,10,0,0,1,2026-06-14T01:47:22.481573+05:30
Thiruvananthapuram,Kerala,8.5241,76.9366,25.6,90,0.1,1010.3,8.2,43.9,27,14.2,7.2,2.2,170.0,59.0,1.0,10,0,4,1,2026-06-14T01:47:22.481581+05:30
Kozhikode,Kerala,11.2588,75.7804,23.2,99,0.0,1009.9,7.8,34.2,33,19.0,7.7,1.0,522.0,65.0,0.9,3,0,4,1,2026-06-14T01:47:22.481589+05:30
Thrissur,Kerala,10.5276,76.2144,24.6,100,0.1,1008.9,7.7,31.3,62,21.4,14.9,11.4,233.0,33.0,2.9,6,0,4,1,2026-06-14T01:47:22.481597+05:30
Kannur,Kerala,11.8745,75.3704,22.9,99,0.4,1009.9,7.85,33.5,44,24.0,14.9,12.1,431.0,35.0,2.6,6,0,4,1,2026-06-14T01:47:22.481604+05:30
Patna,Bihar,25.5941,85.1376,28.0,77,0.0,996.1,8.65,31.0,161,117.6,105.2,41.4,615.0,57.0,24.0,7,5,7,1,2026-06-14T01:47:22.481611+05:30
Gaya,Bihar,24.7914,85.0002,27.9,76,0.0,989.6,8.95,29.5,166,171.8,151.3,67.6,417.0,47.0,31.2,7,5,7,1,2026-06-14T01:47:22.481619+05:30
Muzaffarpur,Bihar,26.1209,85.3647,28.2,75,0.0,995.9,8.6,23.4,160,111.5,100.1,37.2,583.0,63.0,21.0,7,5,7,1,2026-06-14T01:47:22.481626+05:30
Bhagalpur,Bihar,25.2425,87.0117,27.2,86,0.0,996.6,8.85,24.1,158,75.7,69.8,15.1,407.0,96.0,25.8,7,5,7,1,2026-06-14T01:47:22.481633+05:30
Ranchi,Jharkhand,23.3441,85.3096,24.1,83,0.0,933.9,8.6,28.8,150,68.7,56.2,11.4,284.0,92.0,8.5,3,5,7,1,2026-06-14T01:47:22.481640+05:30
Jamshedpur,Jharkhand,22.8046,86.2029,27.4,84,0.0,986.3,9.1,24.8,158,98.3,84.1,28.7,617.0,56.0,23.4,7,5,7,1,2026-06-14T01:47:22.481648+05:30
Dhanbad,Jharkhand,23.7957,86.4304,26.5,87,0.0,975.4,9.1,25.2,171,127.1,113.6,64.3,255.0,26.0,176.3,7,5,7,1,2026-06-14T01:47:22.481656+05:30
Bokaro,Jharkhand,23.6693,86.1511,26.4,86,0.0,979.2,8.9,24.1,166,116.4,99.7,45.5,342.0,39.0,124.5,7,5,7,1,2026-06-14T01:47:22.481663+05:30
Bhubaneswar,Odisha,20.2961,85.8245,29.1,92,0.0,997.6,9.05,29.2,116,39.7,35.5,13.2,414.0,95.0,8.6,7,5,7,1,2026-06-14T01:47:22.481671+05:30
Cuttack,Odisha,20.4625,85.8828,29.2,93,0.0,999.6,9.15,24.8,116,39.7,35.5,13.2,611.0,95.0,8.6,7,5,7,1,2026-06-14T01:47:22.481678+05:30
Rourkela,Odisha,22.2604,84.8536,27.7,79,0.0,980.2,8.75,34.2,150,84.5,73.6,26.5,742.0,60.0,22.8,7,5,7,1,2026-06-14T01:47:22.481686+05:30
Raipur,Chhattisgarh,21.2514,81.6296,30.3,56,0.0,970.9,8.95,47.2,139,75.4,53.9,40.4,597.0,47.0,56.5,0,5,7,1,2026-06-14T01:47:22.481693+05:30
Bhilai,Chhattisgarh,21.1938,81.3509,28.9,65,0.0,971.4,8.95,37.1,130,72.2,49.2,30.6,671.0,56.0,40.5,7,5,7,1,2026-06-14T01:47:22.481700+05:30
Guwahati,Assam,26.1158,91.7086,24.5,100,0.0,998.0,8.8,29.5,73,29.7,25.3,9.7,362.0,57.0,2.2,3,5,7,1,2026-06-14T01:47:22.481708+05:30
Agartala,Tripura,23.8315,91.2868,26.1,93,0.0,1002.3,8.65,31.7,74,22.0,18.3,13.2,238.0,46.0,2.5,7,5,4,1,2026-06-14T01:47:22.481716+05:30
Shillong,Meghalaya,25.5788,91.8933,18.3,99,0.0,853.9,7.4,23.0,52,4.3,3.6,4.8,221.0,82.0,2.2,3,10,7,1,2026-06-14T01:47:22.481723+05:30
Imphal,Manipur,24.817,93.9368,21.6,98,0.0,919.7,8.55,33.5,33,15.1,12.1,8.2,407.0,59.0,2.4,3,5,7,1,2026-06-14T01:47:22.481731+05:30
Aizawl,Mizoram,23.7271,92.7176,19.1,96,0.0,889.2,8.95,35.6,33,3.9,3.3,3.3,173.0,47.0,0.4,3,10,7,1,2026-06-14T01:47:22.481738+05:30
Kohima,Nagaland,25.6701,94.1077,19.2,90,0.0,852.5,8.7,23.8,29,4.7,3.6,4.7,259.0,64.0,0.8,3,10,7,1,2026-06-14T01:47:22.481747+05:30
Gangtok,Sikkim,27.3314,88.6138,16.1,99,0.1,834.4,9.2,39.2,64,11.9,9.3,6.7,431.0,115.0,1.6,6,10,7,0,2026-06-14T01:47:22.481754+05:30
Siliguri,West Bengal,26.7271,88.3953,23.9,99,0.1,989.5,8.75,20.5,138,48.7,38.3,8.4,475.0,119.0,5.1,6,5,7,1,2026-06-14T01:47:25.833080+05:30
Durgapur,West Bengal,23.5204,87.3119,27.3,90,0.0,990.2,8.9,30.6,158,96.9,91.0,36.5,1082.0,51.0,44.2,7,5,7,1,2026-06-14T01:47:25.833118+05:30
Asansol,West Bengal,23.6739,86.9524,26.9,85,0.0,988.8,8.9,25.9,158,98.3,88.9,42.3,559.0,45.0,60.1,7,5,7,1,2026-06-14T01:47:25.833131+05:30
Pondicherry,Puducherry,11.9139,79.8145,27.6,76,0.1,1007.7,8.4,37.4,56,16.9,13.7,15.4,267.0,51.0,10.5,10,5,4,1,2026-06-14T01:47:25.833141+05:30
Port Blair,Andaman and Nicobar Islands,11.6234,92.7265,27.1,86,0.0,1006.5,7.8,45.0,19,8.1,4.9,0.2,84.0,43.0,0.4,7,5,4,1,2026-06-14T01:47:25.833150+05:30
Haridwar,Uttarakhand,29.9457,78.1642,23.1,91,0.0,969.4,7.65,25.2,110,123.4,68.7,39.9,379.0,51.0,13.3,3,5,7,1,2026-06-14T01:47:25.833158+05:30
Rishikesh,Uttarakhand,30.0869,78.2676,21.0,89,0.0,962.0,7.75,28.8,88,87.8,39.3,12.6,389.0,114.0,6.9,3,5,7,1,2026-06-14T01:47:25.833166+05:30
Nainital,Uttarakhand,29.3919,79.4542,14.2,81,0.0,801.1,8.6,36.0,97,68.7,40.7,19.9,278.0,84.0,5.6,3,10,7,0,2026-06-14T01:47:25.833174+05:30
Mussoorie,Uttarakhand,30.4599,78.0664,15.6,60,0.0,799.7,8.15,45.4,78,53.0,30.5,39.1,215.0,44.0,6.2,0,5,7,0,2026-06-14T01:47:25.833181+05:30
Dharamshala,Himachal Pradesh,32.219,76.3234,18.9,52,0.0,865.3,8.5,37.1,33,14.0,10.1,18.2,298.0,34.0,0.0,0,5,7,0,2026-06-14T01:47:25.833189+05:30
Dalhousie,Himachal Pradesh,32.5387,75.971,11.3,74,0.0,799.0,8.75,37.1,74,29.4,22.1,49.6,301.0,15.0,1.8,3,5,7,0,2026-06-14T01:47:25.833197+05:30
Patiala,Punjab,30.3398,76.3869,24.8,78,0.0,974.0,7.7,32.0,154,125.7,61.0,21.3,467.0,57.0,12.1,3,5,7,1,2026-06-14T01:47:25.833209+05:30
Bhatinda,Punjab,30.211,74.9455,26.4,78,0.0,979.8,8.35,24.5,306,111.1,55.3,35.0,362.0,33.0,5.0,7,5,7,1,2026-06-14T01:47:25.833219+05:30
Rohtak,Haryana,28.8955,76.6066,26.3,84,0.0,977.1,7.8,28.1,502,263.6,125.3,95.3,580.0,10.0,35.9,7,5,7,1,2026-06-14T01:47:25.833226+05:30
Panipat,Haryana,29.3909,76.9635,25.2,95,0.0,975.6,7.65,28.1,693,350.2,136.9,82.0,868.0,12.0,23.8,7,5,7,1,2026-06-14T01:47:25.833234+05:30
Mathura,Uttar Pradesh,27.4924,77.6737,26.8,73,0.0,982.3,8.1,25.9,447,429.3,125.7,96.7,731.0,3.0,15.3,7,5,7,1,2026-06-14T01:47:25.833240+05:30
Vrindavan,Uttar Pradesh,27.5823,77.7027,27.1,71,0.0,982.8,8.1,26.6,447,429.3,125.7,96.7,672.0,3.0,15.3,7,5,7,1,2026-06-14T01:47:25.833247+05:30
Ayodhya,Uttar Pradesh,26.7922,82.1998,27.5,85,0.0,990.9,8.4,28.8,138,116.2,90.1,57.7,610.0,17.0,11.6,7,5,7,1,2026-06-14T01:47:25.833256+05:30
Ratlam,Madhya Pradesh,23.3315,75.0367,25.0,86,0.0,953.7,8.5,46.4,77,38.5,22.6,5.0,160.0,61.0,9.2,7,5,7,1,2026-06-14T01:47:25.833263+05:30
Sagar,Madhya Pradesh,23.8388,78.7378,27.8,60,0.0,946.6,8.75,33.5,83,35.6,23.9,10.7,183.0,62.0,2.8,4,5,7,1,2026-06-14T01:47:25.833270+05:30
Satna,Madhya Pradesh,24.6005,80.8322,27.6,75,0.0,967.4,8.8,34.6,113,74.3,53.6,24.6,254.0,53.0,5.2,7,5,7,1,2026-06-14T01:47:25.833278+05:30
Akola,Maharashtra,20.7002,77.0082,31.5,51,0.0,972.6,8.8,58.0,79,31.7,19.0,6.7,128.0,73.0,9.4,0,5,7,1,2026-06-14T01:47:25.833285+05:30
Amravati,Maharashtra,20.9374,77.7796,30.8,44,0.0,964.5,8.85,49.0,81,33.5,20.7,7.0,162.0,81.0,9.6,0,5,7,1,2026-06-14T01:47:25.833294+05:30
Latur,Maharashtra,18.4088,76.5604,27.5,63,0.0,938.4,8.9,41.0,74,28.6,17.8,4.8,140.0,79.0,6.4,7,5,7,1,2026-06-14T01:47:25.833302+05:30
Nanded,Maharashtra,19.1383,77.3091,31.6,47,0.0,966.2,8.9,49.7,91,33.4,21.7,5.6,140.0,76.0,3.8,0,5,7,1,2026-06-14T01:47:25.833309+05:30
Gulbarga,Karnataka,17.3297,76.8343,28.3,62,0.0,957.3,8.85,41.0,62,15.9,10.6,5.4,137.0,50.0,2.5,7,5,7,1,2026-06-14T01:47:25.833316+05:30
Bidar,Karnataka,17.9104,77.5199,27.4,55,0.0,933.7,8.95,38.5,86,54.8,30.2,11.1,175.0,70.0,4.2,4,5,7,1,2026-06-14T01:47:25.833323+05:30
Hospet,Karnataka,15.2689,76.3909,25.1,85,0.0,955.9,7.7,55.8,40,11.5,7.0,5.3,137.0,44.0,1.7,7,5,7,1,2026-06-14T01:47:25.833330+05:30
Tirupur,Tamil Nadu,11.1085,77.3411,24.7,86,0.0,975.9,8.35,47.9,51,18.6,13.8,16.7,138.0,32.0,4.0,3,5,7,1,2026-06-14T01:47:25.833337+05:30
Alappuzha,Kerala,9.4981,76.3388,25.8,93,0.2,1011.0,7.95,36.4,51,20.5,12.5,10.1,147.0,47.0,2.7,10,0,4,1,2026-06-14T01:47:25.833344+05:30
Munnar,Kerala,10.0889,77.0595,16.4,97,0.0,857.4,8.1,35.3,36,14.1,8.1,5.2,97.0,39.0,1.6,3,10,7,0,2026-06-14T01:47:25.833352+05:30
Silchar,Assam,24.8333,92.7789,24.7,99,0.2,1002.1,8.3,27.7,59,23.5,17.1,6.6,228.0,84.0,3.3,6,5,4,1,2026-06-14T01:47:25.833359+05:30
Dibrugarh,Assam,27.4728,94.912,24.4,98,0.0,991.6,7.25,19.8,71,11.6,11.3,7.5,245.0,68.0,1.1,3,5,7,1,2026-06-14T01:47:25.833366+05:30
