city,state,latitude,longitude,temp,humidity,rain,pressure,uv_index,wind_gusts,aqi,pm10,pm2_5,mosquito_risk,arthritis_risk,migraine_risk,frizz_risk,updated_at
Delhi,Delhi,28.6139,77.209,24.0,70,0.0,982.1,6.6,45.4,138,226.8,88.5,3,5,7,1,2026-04-03T03:11:17.373383+05:30
Mumbai,Maharashtra,19.076,72.8777,27.2,73,0.0,1008.8,7.45,22.7,67,26.3,17.5,7,0,4,1,2026-04-03T03:11:17.373412+05:30
Bangalore,Karnataka,12.9716,77.5946,21.6,63,0.0,911.8,9.6,27.0,54,26.1,25.5,3,5,7,0,2026-04-03T03:11:17.373425+05:30
Hyderabad,Telangana,17.385,78.4867,25.4,67,0.0,954.1,9.15,23.4,64,21.7,18.7,7,5,7,1,2026-04-03T03:11:17.373433+05:30
Chennai,Tamil Nadu,13.0827,80.2707,26.9,87,0.0,1008.0,9.25,37.8,45,11.5,8.8,7,0,4,1,2026-04-03T03:11:17.373440+05:30
Kolkata,West Bengal,22.5726,88.3639,26.2,92,0.0,1005.4,8.65,20.9,72,15.7,13.6,7,5,4,1,2026-04-03T03:11:17.373448+05:30
Pune,Maharashtra,18.5204,73.8567,21.7,97,0.0,948.6,8.35,36.7,140,60.8,57.2,3,5,7,1,2026-04-03T03:11:17.373457+05:30
Ahmedabad,Gujarat,23.0225,72.5714,24.9,62,0.0,1003.4,7.85,37.4,56,31.3,16.4,3,5,4,1,2026-04-03T03:11:17.373463+05:30
Jaipur,Rajasthan,26.9124,75.7873,23.5,61,0.0,959.3,7.5,52.6,109,322.2,50.2,3,5,7,0,2026-04-03T03:11:17.373469+05:30
Lucknow,Uttar Pradesh,26.8467,80.9462,24.7,60,0.0,992.5,5.25,34.6,85,78.9,31.4,0,5,3,1,2026-04-03T03:11:17.373475+05:30
Kanpur,Uttar Pradesh,26.4499,80.3319,27.0,56,0.0,990.8,6.65,26.3,98,118.7,42.5,4,5,7,1,2026-04-03T03:11:17.373480+05:30
Chandigarh,Chandigarh,30.7333,76.7794,20.6,60,0.0,968.0,5.9,50.8,67,36.2,27.6,0,5,3,0,2026-04-03T03:11:17.373486+05:30
Srinagar,Jammu and Kashmir,34.0837,74.7973,9.9,77,0.0,840.2,4.05,18.4,100,56.0,50.1,3,5,3,0,2026-04-03T03:11:17.373491+05:30
Jammu,Jammu and Kashmir,32.7266,74.857,21.3,71,0.0,973.2,4.7,38.9,73,24.8,19.0,3,5,3,0,2026-04-03T03:11:17.373497+05:30
Amritsar,Punjab,31.634,74.8723,21.1,80,0.0,980.9,4.25,37.1,88,80.3,49.2,3,5,3,1,2026-04-03T03:11:17.373502+05:30
Ludhiana,Punjab,30.901,75.8573,21.8,67,0.0,978.6,4.05,45.4,123,173.7,74.3,3,5,3,0,2026-04-03T03:11:17.373507+05:30
Jalandhar,Punjab,31.326,75.5762,21.0,72,0.0,979.8,6.2,46.1,103,165.3,69.6,3,5,7,0,2026-04-03T03:11:17.373513+05:30
Dehradun,Uttarakhand,30.6284,78.0322,15.5,52,0.0,830.5,6.15,45.4,36,11.6,8.0,0,5,7,0,2026-04-03T03:11:17.373519+05:30
Shimla,Himachal Pradesh,31.1048,77.1734,13.5,57,0.0,784.1,6.5,54.7,54,26.3,17.6,0,5,7,0,2026-04-03T03:11:17.373524+05:30
Manali,Himachal Pradesh,32.2396,77.1887,17.0,33,0.0,820.9,6.15,45.0,39,9.5,6.0,0,5,7,0,2026-04-03T03:11:17.373529+05:30
Gurgaon,Haryana,28.4595,77.0266,21.7,78,0.0,980.3,6.75,40.7,189,145.8,68.0,3,5,7,1,2026-04-03T03:11:17.373535+05:30
Noida,Uttar Pradesh,28.5355,77.391,23.3,76,0.0,983.5,6.25,42.1,189,145.8,68.0,3,5,7,1,2026-04-03T03:11:17.373540+05:30
Ghaziabad,Uttar Pradesh,28.6692,77.4538,22.9,73,0.0,981.8,6.4,41.0,120,190.9,93.1,3,5,7,1,2026-04-03T03:11:17.373544+05:30
Faridabad,Haryana,28.4089,77.3178,21.8,74,0.0,982.7,6.0,38.5,189,145.8,68.0,3,5,3,1,2026-04-03T03:11:17.373549+05:30
Meerut,Uttar Pradesh,28.9845,77.7064,22.2,65,0.0,980.8,5.25,39.2,120,190.9,93.1,3,5,3,0,2026-04-03T03:11:17.373555+05:30
Agra,Uttar Pradesh,27.1767,78.0081,24.0,68,0.0,986.9,7.25,34.9,239,272.9,79.4,3,5,7,1,2026-04-03T03:11:17.373560+05:30
Varanasi,Uttar Pradesh,25.3176,82.9739,26.4,59,0.0,996.6,6.25,33.1,89,44.1,33.4,4,5,7,1,2026-04-03T03:11:17.373567+05:30
Prayagraj,Uttar Pradesh,25.4358,81.8463,26.9,58,0.0,995.1,6.6,31.0,79,70.1,33.6,4,5,7,1,2026-04-03T03:11:17.373572+05:30
Gorakhpur,Uttar Pradesh,26.7606,83.3732,23.1,59,0.0,995.8,6.2,32.4,66,71.9,26.1,0,5,7,0,2026-04-03T03:11:17.373577+05:30
Bareilly,Uttar Pradesh,28.367,79.4304,22.2,64,0.0,986.0,4.7,23.0,69,47.4,29.0,3,5,3,0,2026-04-03T03:11:17.373582+05:30
Aligarh,Uttar Pradesh,27.8974,78.088,22.9,66,0.0,984.4,6.4,37.4,131,122.9,72.4,3,5,7,1,2026-04-03T03:11:17.373589+05:30
Moradabad,Uttar Pradesh,28.8386,78.7733,23.0,56,0.0,982.9,5.7,34.2,84,82.0,49.9,0,5,3,0,2026-04-03T03:11:17.373594+05:30
Saharanpur,Uttar Pradesh,29.9637,77.546,19.8,61,0.0,975.1,5.75,25.6,89,66.4,53.0,3,5,3,0,2026-04-03T03:11:17.373599+05:30
Jhansi,Uttar Pradesh,25.4484,78.5685,26.6,43,0.0,977.5,7.75,37.4,68,24.3,22.1,4,5,7,0,2026-04-03T03:11:20.589538+05:30
Surat,Gujarat,21.1702,72.8311,26.6,83,0.0,1007.1,7.65,28.1,92,32.9,25.9,7,5,4,1,2026-04-03T03:11:20.589558+05:30
Vadodara,Gujarat,22.3072,73.1812,25.0,84,0.0,1005.2,7.85,32.4,73,22.8,21.1,7,5,4,1,2026-04-03T03:11:20.589567+05:30
Rajkot,Gujarat,22.3039,70.8022,23.5,62,0.0,995.3,6.7,47.9,59,46.3,19.0,3,5,7,0,2026-04-03T03:11:20.589574+05:30
Thane,Maharashtra,19.2183,72.9781,24.5,84,0.0,1008.3,7.6,32.8,67,26.3,17.5,3,0,4,1,2026-04-03T03:11:20.589581+05:30
Nagpur,Maharashtra,21.1458,79.0882,24.0,82,0.0,974.5,8.65,31.3,97,44.4,39.5,3,5,7,1,2026-04-03T03:11:20.589588+05:30
Nashik,Maharashtra,19.9975,73.7898,22.4,83,0.0,945.7,8.05,33.8,72,21.6,17.4,3,5,7,1,2026-04-03T03:11:20.589594+05:30
Aurangabad,Maharashtra,19.8762,75.3433,22.7,86,0.0,944.7,8.45,28.4,107,43.0,37.1,3,5,7,1,2026-04-03T03:11:20.589600+05:30
Solapur,Maharashtra,17.6599,75.9064,23.9,84,0.0,958.2,8.95,25.2,107,46.7,42.1,3,5,7,1,2026-04-03T03:11:20.589606+05:30
Kolhapur,Maharashtra,16.705,74.2433,22.0,95,0.0,948.3,8.75,34.6,150,58.9,55.9,3,5,7,1,2026-04-03T03:11:20.589611+05:30
Goa,Goa,15.2993,74.124,27.6,85,0.0,998.4,9.0,32.4,76,36.6,31.1,7,5,7,1,2026-04-03T03:11:20.589617+05:30
Jodhpur,Rajasthan,26.2389,73.0243,23.6,54,0.0,984.5,6.3,47.2,87,85.2,18.9,0,5,7,0,2026-04-03T03:11:20.589623+05:30
Udaipur,Rajasthan,24.5854,73.7125,21.9,62,0.0,946.8,7.85,53.6,46,26.5,12.7,3,5,7,0,2026-04-03T03:11:20.589629+05:30
Kota,Rajasthan,25.2138,75.8648,24.9,45,0.0,979.0,7.75,40.3,66,22.1,20.1,0,5,7,0,2026-04-03T03:11:20.589634+05:30
Bikaner,Rajasthan,28.0229,73.3119,23.4,74,0.0,982.3,6.65,49.0,66,98.3,24.7,3,5,7,1,2026-04-03T03:11:20.589640+05:30
Ajmer,Rajasthan,26.4499,74.6399,23.2,58,0.0,955.1,7.55,61.9,59,118.3,33.9,0,5,7,0,2026-04-03T03:11:20.589645+05:30
Gwalior,Madhya Pradesh,26.2183,78.1828,27.5,61,0.0,982.7,7.6,29.2,77,43.3,29.5,7,5,7,1,2026-04-03T03:11:20.589650+05:30
Indore,Madhya Pradesh,22.7196,75.8577,23.8,65,0.0,948.7,8.3,38.5,92,35.0,31.5,3,5,7,1,2026-04-03T03:11:20.589656+05:30
Bhopal,Madhya Pradesh,23.2599,77.4126,24.1,74,0.0,954.8,8.25,34.9,89,37.5,32.5,3,5,7,1,2026-04-03T03:11:20.589661+05:30
Jabalpur,Madhya Pradesh,23.1815,79.9864,26.8,57,0.0,962.4,8.15,29.2,91,40.0,33.8,4,5,7,1,2026-04-03T03:11:20.589667+05:30
Ujjain,Madhya Pradesh,23.1765,75.7885,22.9,64,0.0,954.5,8.2,36.0,76,27.3,25.0,3,5,7,0,2026-04-03T03:11:20.589672+05:30
Visakhapatnam,Andhra Pradesh,17.6868,83.2185,26.2,90,0.0,1004.9,8.6,40.0,53,18.7,16.3,7,5,4,1,2026-04-03T03:11:20.589678+05:30
Vijayawada,Andhra Pradesh,16.5062,80.648,25.4,94,0.0,1004.0,8.65,23.8,48,14.4,13.0,7,5,4,1,2026-04-03T03:11:20.589683+05:30
Guntur,Andhra Pradesh,16.3067,80.4365,25.4,94,0.0,1005.2,8.65,29.5,43,13.0,11.6,7,5,4,1,2026-04-03T03:11:20.589689+05:30
Nellore,Andhra Pradesh,14.4426,79.9865,26.3,90,0.0,1006.9,9.15,32.8,39,10.4,8.2,7,5,4,1,2026-04-03T03:11:20.589695+05:30
Kurnool,Andhra Pradesh,15.8281,78.0373,27.5,53,0.0,977.1,9.15,24.8,51,13.7,11.8,4,5,7,1,2026-04-03T03:11:20.589701+05:30
Kakinada,Andhra Pradesh,16.9891,82.2475,25.1,95,0.0,1009.0,8.8,36.7,35,16.5,13.3,7,0,4,1,2026-04-03T03:11:20.589706+05:30
Tirupati,Andhra Pradesh,13.6288,79.4192,24.1,87,0.0,993.0,9.35,30.6,52,24.0,21.5,3,5,7,1,2026-04-03T03:11:20.589712+05:30
Warangal,Telangana,17.9689,79.5941,26.0,75,0.0,980.5,9.0,25.2,65,21.2,19.5,7,5,7,1,2026-04-03T03:11:20.589717+05:30
Nizamabad,Telangana,18.6725,78.0941,23.4,86,0.0,967.1,8.85,32.4,121,45.5,41.4,3,5,7,1,2026-04-03T03:11:20.589722+05:30
Mysore,Karnataka,12.2958,76.6396,22.7,89,0.0,928.9,9.5,40.7,84,25.4,24.3,3,5,7,1,2026-04-03T03:11:20.589728+05:30
Mangalore,Karnataka,12.9141,74.856,28.4,82,0.0,1007.2,9.15,23.8,82,40.9,37.5,7,5,4,1,2026-04-03T03:11:20.589733+05:30
Hubli-Dharwad,Karnataka,15.3647,75.124,22.8,92,0.0,941.4,9.2,33.5,86,22.6,21.1,3,5,7,1,2026-04-03T03:11:20.589739+05:30
Belgaum,Karnataka,15.8497,74.4977,21.2,99,0.0,926.0,9.25,36.7,101,43.2,39.6,3,5,7,1,2026-04-03T03:11:23.803683+05:30
Coimbatore,Tamil Nadu,11.0168,76.9558,24.1,88,0.0,962.5,9.5,42.8,59,23.9,22.1,3,5,7,1,2026-04-03T03:11:23.803704+05:30
Madurai,Tamil Nadu,9.9252,78.1198,25.5,86,0.0,994.2,8.5,18.7,52,14.9,13.2,7,5,7,1,2026-04-03T03:11:23.803713+05:30
Trichy,Tamil Nadu,10.7905,78.7047,25.2,88,0.0,1000.9,9.35,26.6,54,22.3,20.1,7,5,4,1,2026-04-03T03:11:23.803720+05:30
Salem,Tamil Nadu,11.6643,78.146,25.3,73,0.0,978.5,9.2,22.0,63,23.9,23.2,7,5,7,1,2026-04-03T03:11:23.803727+05:30
Tirunelveli,Tamil Nadu,8.7139,77.7567,26.2,80,0.0,1004.0,9.35,25.9,51,18.3,17.4,7,5,4,1,2026-04-03T03:11:23.803733+05:30
Vellore,Tamil Nadu,12.9165,79.1325,21.7,79,0.0,985.7,9.1,29.9,60,37.3,35.5,3,5,7,1,2026-04-03T03:11:23.803738+05:30
Erode,Tamil Nadu,11.341,77.7172,25.7,81,0.0,990.3,9.2,17.3,42,12.2,11.6,7,5,7,1,2026-04-03T03:11:23.803744+05:30
Kochi,Kerala,9.9312,76.2673,27.3,83,0.0,1009.6,9.25,22.7,74,30.2,28.1,7,0,4,1,2026-04-03T03:11:23.803751+05:30
Thiruvananthapuram,Kerala,8.5241,76.9366,27.8,84,0.0,1008.4,9.2,20.5,65,15.1,10.9,7,0,4,1,2026-04-03T03:11:23.803757+05:30
Kozhikode,Kerala,11.2588,75.7804,28.3,81,0.0,1008.5,9.15,25.6,58,22.1,17.8,7,0,4,1,2026-04-03T03:11:23.803762+05:30
Thrissur,Kerala,10.5276,76.2144,25.6,92,0.0,1008.0,9.2,30.6,70,31.4,28.6,7,0,4,1,2026-04-03T03:11:23.803769+05:30
Kannur,Kerala,11.8745,75.3704,27.4,84,0.0,1007.7,9.05,27.0,78,38.9,36.3,7,5,4,1,2026-04-03T03:11:23.803774+05:30
Patna,Bihar,25.5941,85.1376,25.3,65,0.0,999.4,8.25,30.6,74,34.9,28.7,7,5,7,1,2026-04-03T03:11:23.803780+05:30
Gaya,Bihar,24.7914,85.0002,27.2,52,0.0,993.2,8.3,34.2,77,38.9,30.3,4,5,7,1,2026-04-03T03:11:23.803786+05:30
Muzaffarpur,Bihar,26.1209,85.3647,23.3,59,0.0,999.2,8.0,32.8,74,34.0,27.7,0,5,7,0,2026-04-03T03:11:23.803791+05:30
Bhagalpur,Bihar,25.2425,87.0117,25.5,70,0.0,999.8,8.3,24.5,67,30.0,21.4,7,5,7,1,2026-04-03T03:11:23.803797+05:30
Ranchi,Jharkhand,23.3441,85.3096,24.0,64,0.0,938.1,8.95,31.3,77,45.6,37.3,3,5,7,1,2026-04-03T03:11:23.803803+05:30
Jamshedpur,Jharkhand,22.8046,86.2029,27.3,72,0.0,990.5,8.75,32.8,98,46.9,38.2,7,5,7,1,2026-04-03T03:11:23.803809+05:30
Dhanbad,Jharkhand,23.7957,86.4304,26.9,60,0.0,979.3,8.7,23.8,150,80.8,73.8,4,5,7,1,2026-04-03T03:11:23.803815+05:30
Bokaro,Jharkhand,23.6693,86.1511,27.6,56,0.0,983.7,8.7,25.6,150,89.9,83.8,4,5,7,1,2026-04-03T03:11:23.803820+05:30
Bhubaneswar,Odisha,20.2961,85.8245,25.7,89,0.0,1003.0,8.95,31.7,52,11.1,9.1,7,5,4,1,2026-04-03T03:11:23.803826+05:30
Cuttack,Odisha,20.4625,85.8828,25.4,91,0.0,1004.9,9.0,33.1,52,11.1,9.1,7,5,4,1,2026-04-03T03:11:23.803832+05:30
Rourkela,Odisha,22.2604,84.8536,26.3,86,0.0,985.0,8.7,54.0,110,49.6,40.0,7,5,7,1,2026-04-03T03:11:23.803837+05:30
Raipur,Chhattisgarh,21.2514,81.6296,27.4,60,0.0,975.3,8.75,27.0,146,78.9,71.5,4,5,7,1,2026-04-03T03:11:23.803843+05:30
Bhilai,Chhattisgarh,21.1938,81.3509,27.0,63,0.0,975.7,8.75,25.2,128,61.2,53.6,7,5,7,1,2026-04-03T03:11:23.803848+05:30
Guwahati,Assam,26.1158,91.7086,23.9,90,0.0,1001.1,8.25,22.0,108,43.0,39.3,3,5,4,1,2026-04-03T03:11:23.803854+05:30
Agartala,Tripura,23.8315,91.2868,25.5,95,0.0,1006.1,8.45,29.9,99,13.8,12.0,7,5,4,1,2026-04-03T03:11:23.803860+05:30
Shillong,Meghalaya,25.5788,91.8933,15.3,90,0.0,856.1,8.65,49.3,93,43.8,36.4,3,10,7,0,2026-04-03T03:11:23.803866+05:30
Imphal,Manipur,24.817,93.9368,18.0,93,0.0,923.5,8.8,63.0,119,51.9,44.6,3,10,7,1,2026-04-03T03:11:23.803872+05:30
Aizawl,Mizoram,23.7271,92.7176,18.4,90,0.0,892.5,8.7,49.3,103,53.3,41.6,3,10,7,1,2026-04-03T03:11:23.803877+05:30
Kohima,Nagaland,25.6701,94.1077,15.9,81,0.0,854.4,8.75,72.4,92,38.8,32.5,3,10,7,0,2026-04-03T03:11:23.803883+05:30
Gangtok,Sikkim,27.3314,88.6138,15.6,89,0.0,837.2,8.6,20.5,81,24.2,20.3,3,10,7,0,2026-04-03T03:11:23.803888+05:30
Siliguri,West Bengal,26.7271,88.3953,22.7,58,0.0,993.3,8.25,22.0,145,75.0,67.8,0,5,7,0,2026-04-03T03:11:27.026812+05:30
Durgapur,West Bengal,23.5204,87.3119,27.9,71,0.0,994.3,8.65,19.4,154,102.2,93.8,7,5,7,1,2026-04-03T03:11:27.026832+05:30
Asansol,West Bengal,23.6739,86.9524,27.9,66,0.0,992.8,8.65,21.6,124,55.2,47.3,7,5,7,1,2026-04-03T03:11:27.026841+05:30
Pondicherry,Puducherry,11.9139,79.8145,22.6,95,0.0,1009.5,9.3,32.0,39,12.1,9.1,3,0,4,1,2026-04-03T03:11:27.026848+05:30
Port Blair,Andaman and Nicobar Islands,11.6234,92.7265,28.5,79,0.0,1006.2,9.25,28.8,42,10.8,6.4,7,5,4,1,2026-04-03T03:11:27.026854+05:30
Haridwar,Uttarakhand,29.9457,78.1642,20.2,59,0.0,974.1,5.6,38.5,61,27.5,21.5,0,5,3,0,2026-04-03T03:11:27.026860+05:30
Rishikesh,Uttarakhand,30.0869,78.2676,21.4,49,0.0,967.2,5.0,31.0,48,21.0,13.3,0,5,3,0,2026-04-03T03:11:27.026866+05:30
Nainital,Uttarakhand,29.3919,79.4542,20.7,31,0.0,807.3,5.8,34.6,51,23.2,13.3,0,5,3,0,2026-04-03T03:11:27.026872+05:30
Mussoorie,Uttarakhand,30.4599,78.0664,18.0,42,0.0,803.7,6.25,48.2,56,25.1,19.3,0,5,7,0,2026-04-03T03:11:27.026878+05:30
Dharamshala,Himachal Pradesh,32.219,76.3234,21.0,38,0.0,869.2,4.9,47.5,33,15.5,9.0,0,5,3,0,2026-04-03T03:11:27.026884+05:30
Dalhousie,Himachal Pradesh,32.5387,75.971,17.2,40,0.0,803.3,5.75,48.6,60,25.0,19.7,0,5,3,0,2026-04-03T03:11:27.026891+05:30
Patiala,Punjab,30.3398,76.3869,21.3,66,0.0,977.9,5.15,37.8,112,118.7,60.3,3,5,3,0,2026-04-03T03:11:27.026897+05:30
Bhatinda,Punjab,30.211,74.9455,20.7,88,0.0,983.5,5.8,45.4,100,209.5,44.2,3,5,3,1,2026-04-03T03:11:27.026903+05:30
Rohtak,Haryana,28.8955,76.6066,21.2,80,0.0,980.8,6.4,37.1,154,373.5,103.6,3,5,7,1,2026-04-03T03:11:27.026909+05:30
Panipat,Haryana,29.3909,76.9635,21.6,73,0.0,980.0,5.9,31.3,154,386.5,122.0,3,5,3,1,2026-04-03T03:11:27.026915+05:30
Mathura,Uttar Pradesh,27.4924,77.6737,23.2,71,0.0,985.8,6.55,38.5,193,162.5,58.8,3,5,7,1,2026-04-03T03:11:27.026920+05:30
Vrindavan,Uttar Pradesh,27.5823,77.7027,23.3,68,0.0,986.1,6.65,37.8,193,162.5,58.8,3,5,7,1,2026-04-03T03:11:27.026926+05:30
Ayodhya,Uttar Pradesh,26.7922,82.1998,23.4,61,0.0,994.1,5.8,23.8,72,75.2,28.5,3,5,3,0,2026-04-03T03:11:27.026931+05:30
Ratlam,Madhya Pradesh,23.3315,75.0367,23.1,63,0.0,954.9,8.15,37.4,68,25.1,22.6,3,5,7,0,2026-04-03T03:11:27.026937+05:30
Sagar,Madhya Pradesh,23.8388,78.7378,26.1,57,0.0,950.9,7.15,27.7,75,30.9,27.1,4,5,7,1,2026-04-03T03:11:27.026942+05:30
Satna,Madhya Pradesh,24.6005,80.8322,29.0,45,0.0,971.4,6.4,34.9,70,27.4,23.9,4,5,7,0,2026-04-03T03:11:27.026948+05:30
Akola,Maharashtra,20.7002,77.0082,23.5,86,0.0,976.4,8.6,30.6,102,35.5,32.2,3,5,7,1,2026-04-03T03:11:27.026954+05:30
Amravati,Maharashtra,20.9374,77.7796,23.0,93,0.0,969.2,8.65,55.4,99,37.3,34.0,3,5,7,1,2026-04-03T03:11:27.026960+05:30
Latur,Maharashtra,18.4088,76.5604,22.6,86,0.0,940.8,8.95,23.0,110,48.3,40.4,3,5,7,1,2026-04-03T03:11:27.026966+05:30
Nanded,Maharashtra,19.1383,77.3091,24.0,89,0.0,970.5,8.8,26.6,121,47.3,43.1,3,5,7,1,2026-04-03T03:11:27.026971+05:30
Gulbarga,Karnataka,17.3297,76.8343,25.4,70,0.0,960.0,8.6,39.6,81,32.8,29.4,7,5,7,1,2026-04-03T03:11:27.026977+05:30
Bidar,Karnataka,17.9104,77.5199,23.0,86,0.0,936.6,8.4,25.6,100,40.4,36.6,3,5,7,1,2026-04-03T03:11:27.026983+05:30
Hospet,Karnataka,15.2689,76.3909,26.4,76,0.0,956.7,9.1,47.9,87,30.7,28.6,7,5,7,1,2026-04-03T03:11:27.026988+05:30
Tirupur,Tamil Nadu,11.1085,77.3411,25.5,82,0.0,976.2,9.45,35.6,53,22.5,21.4,7,5,7,1,2026-04-03T03:11:27.026994+05:30
Alappuzha,Kerala,9.4981,76.3388,27.5,83,0.0,1009.6,9.2,19.8,72,28.5,23.6,7,0,4,1,2026-04-03T03:11:27.026999+05:30
Munnar,Kerala,10.0889,77.0595,19.8,98,0.0,856.8,9.75,29.9,63,28.5,27.6,3,10,7,1,2026-04-03T03:11:27.027006+05:30
Silchar,Assam,24.8333,92.7789,22.0,93,0.0,1006.0,8.5,29.5,146,73.8,61.0,3,5,4,1,2026-04-03T03:11:27.027011+05:30
Dibrugarh,Assam,27.4728,94.912,21.5,94,0.0,996.6,8.3,11.9,82,23.0,21.9,3,5,7,1,2026-04-03T03:11:27.027017+05:30
