city,state,latitude,longitude,temp,humidity,rain,pressure,uv_index,wind_gusts,aqi,pm10,pm2_5,mosquito_risk,arthritis_risk,migraine_risk,frizz_risk,updated_at
Delhi,Delhi,28.6139,77.209,22.8,71,0.0,987.6,6.1,24.8,278,301.7,148.1,3,5,7,1,2026-03-11T02:08:18.514501+05:30
Mumbai,Maharashtra,19.076,72.8777,27.8,78,0.0,1009.9,7.6,19.1,137,34.1,33.4,7,0,4,1,2026-03-11T02:08:18.514550+05:30
Bangalore,Karnataka,12.9716,77.5946,19.7,82,0.0,913.3,9.25,20.9,90,22.8,21.4,3,10,7,1,2026-03-11T02:08:18.514567+05:30
Hyderabad,Telangana,17.385,78.4867,21.7,65,0.0,956.1,8.6,21.2,132,34.2,30.2,3,5,7,0,2026-03-11T02:08:18.514578+05:30
Chennai,Tamil Nadu,13.0827,80.2707,23.9,83,0.0,1011.1,9.0,28.4,73,25.4,20.4,3,0,4,1,2026-03-11T02:08:18.514588+05:30
Kolkata,West Bengal,22.5726,88.3639,23.9,96,0.0,1010.3,7.35,19.4,136,52.3,44.9,3,0,4,1,2026-03-11T02:08:18.514597+05:30
Pune,Maharashtra,18.5204,73.8567,20.9,65,0.0,950.2,8.15,33.8,76,30.9,28.2,3,5,7,0,2026-03-11T02:08:18.514609+05:30
Ahmedabad,Gujarat,23.0225,72.5714,24.5,42,0.0,1005.7,7.45,29.2,65,21.7,20.8,0,5,4,0,2026-03-11T02:08:18.514617+05:30
Jaipur,Rajasthan,26.9124,75.7873,23.8,27,0.0,963.8,6.8,37.8,120,132.7,45.2,0,5,7,0,2026-03-11T02:08:18.514625+05:30
Lucknow,Uttar Pradesh,26.8467,80.9462,24.7,78,0.0,997.9,6.6,28.8,185,173.2,143.0,3,5,7,1,2026-03-11T02:08:18.514633+05:30
Kanpur,Uttar Pradesh,26.4499,80.3319,23.7,74,0.0,996.1,6.65,22.0,177,208.6,131.3,3,5,7,1,2026-03-11T02:08:18.514641+05:30
Chandigarh,Chandigarh,30.7333,76.7794,22.3,77,0.0,973.2,5.4,18.4,151,78.5,69.4,3,5,3,1,2026-03-11T02:08:18.514648+05:30
Srinagar,Jammu and Kashmir,34.0837,74.7973,9.4,95,0.2,846.1,4.8,13.7,121,52.6,41.7,6,10,3,0,2026-03-11T02:08:18.514655+05:30
Jammu,Jammu and Kashmir,32.7266,74.857,19.6,59,0.0,976.6,5.8,37.8,112,46.8,41.2,0,5,3,0,2026-03-11T02:08:18.514663+05:30
Amritsar,Punjab,31.634,74.8723,21.3,89,0.0,984.8,6.4,22.0,158,127.6,80.8,3,5,7,1,2026-03-11T02:08:18.514670+05:30
Ludhiana,Punjab,30.901,75.8573,21.5,77,0.0,982.8,5.95,17.6,177,196.5,158.3,3,5,3,1,2026-03-11T02:08:18.514677+05:30
Jalandhar,Punjab,31.326,75.5762,21.5,85,0.0,983.9,5.85,18.7,170,211.4,149.0,3,5,3,1,2026-03-11T02:08:18.514686+05:30
Dehradun,Uttarakhand,30.6284,78.0322,14.0,90,0.0,833.5,5.85,29.5,83,35.7,27.6,3,10,3,0,2026-03-11T02:08:18.514710+05:30
Shimla,Himachal Pradesh,31.1048,77.1734,13.6,78,0.0,788.0,5.5,44.3,99,78.2,57.5,3,5,3,0,2026-03-11T02:08:18.514717+05:30
Manali,Himachal Pradesh,32.2396,77.1887,14.9,50,0.0,824.9,4.85,40.3,54,31.4,20.0,0,5,3,0,2026-03-11T02:08:18.514724+05:30
Gurgaon,Haryana,28.4595,77.0266,21.2,74,0.0,985.9,6.05,24.8,483,324.1,135.0,3,5,7,1,2026-03-11T02:08:18.514731+05:30
Noida,Uttar Pradesh,28.5355,77.391,21.9,75,0.0,989.1,6.15,24.5,483,324.1,135.0,3,5,7,1,2026-03-11T02:08:18.514738+05:30
Ghaziabad,Uttar Pradesh,28.6692,77.4538,20.5,82,0.0,987.0,6.1,22.7,179,245.9,139.2,3,5,7,1,2026-03-11T02:08:18.514747+05:30
Faridabad,Haryana,28.4089,77.3178,21.2,71,0.0,988.4,6.15,23.4,483,324.1,135.0,3,5,7,0,2026-03-11T02:08:18.514754+05:30
Meerut,Uttar Pradesh,28.9845,77.7064,20.7,87,0.0,985.7,5.45,27.7,179,245.9,139.2,3,5,3,1,2026-03-11T02:08:18.514761+05:30
Agra,Uttar Pradesh,27.1767,78.0081,21.1,77,0.0,992.3,6.5,20.5,249,407.9,143.0,3,5,7,1,2026-03-11T02:08:18.514767+05:30
Varanasi,Uttar Pradesh,25.3176,82.9739,23.5,89,0.0,1002.0,7.3,23.4,187,163.4,155.5,3,5,4,1,2026-03-11T02:08:18.514776+05:30
Prayagraj,Uttar Pradesh,25.4358,81.8463,23.9,83,0.0,1000.4,7.15,21.6,183,135.0,129.0,3,5,4,1,2026-03-11T02:08:18.514783+05:30
Gorakhpur,Uttar Pradesh,26.7606,83.3732,22.8,87,0.0,1001.6,7.0,28.1,184,194.2,178.8,3,5,4,1,2026-03-11T02:08:18.514789+05:30
Bareilly,Uttar Pradesh,28.367,79.4304,21.3,89,0.0,991.1,6.35,28.1,187,183.0,162.1,3,5,7,1,2026-03-11T02:08:18.514795+05:30
Aligarh,Uttar Pradesh,27.8974,78.088,20.5,81,0.0,989.9,6.25,24.8,189,457.3,169.5,3,5,7,1,2026-03-11T02:08:18.514804+05:30
Moradabad,Uttar Pradesh,28.8386,78.7733,21.5,86,0.0,988.1,6.15,31.3,187,208.6,170.0,3,5,7,1,2026-03-11T02:08:18.514810+05:30
Saharanpur,Uttar Pradesh,29.9637,77.546,20.3,94,0.0,980.2,5.25,30.2,165,159.3,125.7,3,5,3,1,2026-03-11T02:08:18.514816+05:30
Jhansi,Uttar Pradesh,25.4484,78.5685,22.5,49,0.0,982.0,7.1,26.6,108,148.1,43.3,0,5,7,0,2026-03-11T02:08:21.841586+05:30
Surat,Gujarat,21.1702,72.8311,27.0,46,0.0,1008.5,7.3,23.8,107,33.2,31.5,4,0,4,0,2026-03-11T02:08:21.841618+05:30
Vadodara,Gujarat,22.3072,73.1812,26.1,40,0.0,1007.0,7.45,29.2,70,29.3,28.2,4,5,4,0,2026-03-11T02:08:21.841628+05:30
Rajkot,Gujarat,22.3039,70.8022,25.3,44,0.0,997.9,7.3,31.7,65,23.5,22.1,4,5,7,0,2026-03-11T02:08:21.841636+05:30
Thane,Maharashtra,19.2183,72.9781,25.4,83,0.0,1009.4,7.6,34.6,137,34.1,33.4,7,0,4,1,2026-03-11T02:08:21.841644+05:30
Nagpur,Maharashtra,21.1458,79.0882,22.4,62,0.0,975.8,8.0,12.6,80,35.5,29.9,3,5,7,0,2026-03-11T02:08:21.841651+05:30
Nashik,Maharashtra,19.9975,73.7898,24.0,43,0.0,947.7,7.8,20.5,59,21.9,19.5,0,5,7,0,2026-03-11T02:08:21.841657+05:30
Aurangabad,Maharashtra,19.8762,75.3433,22.8,58,0.0,946.2,8.3,19.8,75,40.0,35.4,0,5,7,0,2026-03-11T02:08:21.841664+05:30
Solapur,Maharashtra,17.6599,75.9064,24.6,68,0.0,959.8,8.5,17.3,118,53.3,47.7,3,5,7,1,2026-03-11T02:08:21.841672+05:30
Kolhapur,Maharashtra,16.705,74.2433,21.9,85,0.0,949.9,8.65,32.8,130,62.9,56.9,3,5,7,1,2026-03-11T02:08:21.841678+05:30
Goa,Goa,15.2993,74.124,27.3,93,0.0,1000.1,8.65,39.2,149,70.3,62.2,7,5,4,1,2026-03-11T02:08:21.841685+05:30
Jodhpur,Rajasthan,26.2389,73.0243,23.7,31,0.0,987.5,7.15,32.4,80,47.5,19.7,0,5,7,0,2026-03-11T02:08:21.841710+05:30
Udaipur,Rajasthan,24.5854,73.7125,19.8,42,0.0,950.6,7.8,27.7,47,19.1,14.4,0,5,7,0,2026-03-11T02:08:21.841717+05:30
Kota,Rajasthan,25.2138,75.8648,20.4,56,0.0,982.5,7.2,18.0,76,71.7,30.3,0,5,7,0,2026-03-11T02:08:21.841724+05:30
Bikaner,Rajasthan,28.0229,73.3119,24.0,36,0.0,986.2,6.0,31.3,68,146.7,36.6,0,5,3,0,2026-03-11T02:08:21.841731+05:30
Ajmer,Rajasthan,26.4499,74.6399,23.9,29,0.0,958.6,7.1,32.4,70,46.3,27.1,0,5,7,0,2026-03-11T02:08:21.841738+05:30
Gwalior,Madhya Pradesh,26.2183,78.1828,23.8,55,0.0,987.4,6.8,31.3,135,283.1,65.9,0,5,7,0,2026-03-11T02:08:21.841744+05:30
Indore,Madhya Pradesh,22.7196,75.8577,19.3,54,0.0,950.5,7.7,23.8,64,30.9,21.4,0,5,7,0,2026-03-11T02:08:21.841750+05:30
Bhopal,Madhya Pradesh,23.2599,77.4126,22.2,41,0.0,956.5,7.6,25.9,53,29.6,19.4,0,5,7,0,2026-03-11T02:08:21.841756+05:30
Jabalpur,Madhya Pradesh,23.1815,79.9864,23.5,59,0.0,964.8,7.7,19.4,84,51.2,27.6,0,5,7,0,2026-03-11T02:08:21.841762+05:30
Ujjain,Madhya Pradesh,23.1765,75.7885,21.6,47,0.0,956.7,7.65,14.4,82,40.0,29.2,0,5,7,0,2026-03-11T02:08:21.841770+05:30
Visakhapatnam,Andhra Pradesh,17.6868,83.2185,23.4,90,0.0,1007.8,8.6,39.2,118,34.9,30.6,3,5,4,1,2026-03-11T02:08:21.841776+05:30
Vijayawada,Andhra Pradesh,16.5062,80.648,21.8,91,0.0,1007.0,8.7,18.7,118,37.8,34.6,3,5,4,1,2026-03-11T02:08:21.841782+05:30
Guntur,Andhra Pradesh,16.3067,80.4365,21.2,92,0.0,1008.1,8.7,19.1,110,32.9,30.4,3,0,4,1,2026-03-11T02:08:21.841788+05:30
Nellore,Andhra Pradesh,14.4426,79.9865,22.5,88,0.0,1009.9,8.9,27.0,81,22.0,18.0,3,0,4,1,2026-03-11T02:08:21.841796+05:30
Kurnool,Andhra Pradesh,15.8281,78.0373,23.7,55,0.0,980.2,8.7,19.4,97,17.8,15.3,0,5,7,0,2026-03-11T02:08:21.841802+05:30
Kakinada,Andhra Pradesh,16.9891,82.2475,20.8,94,0.0,1012.0,8.65,19.4,103,32.6,28.1,3,0,4,1,2026-03-11T02:08:21.841809+05:30
Tirupati,Andhra Pradesh,13.6288,79.4192,20.3,75,0.0,995.7,9.0,28.4,106,38.2,35.5,3,5,7,0,2026-03-11T02:08:21.841815+05:30
Warangal,Telangana,17.9689,79.5941,24.1,64,0.0,981.9,8.45,20.5,132,32.0,29.7,3,5,7,1,2026-03-11T02:08:21.841821+05:30
Nizamabad,Telangana,18.6725,78.0941,24.6,65,0.0,967.6,8.35,25.6,132,54.4,48.8,3,5,7,1,2026-03-11T02:08:21.841828+05:30
Mysore,Karnataka,12.2958,76.6396,21.4,66,0.0,929.7,9.25,28.1,91,18.4,17.6,3,5,7,0,2026-03-11T02:08:21.841834+05:30
Mangalore,Karnataka,12.9141,74.856,28.6,80,0.0,1008.3,8.9,31.0,109,48.1,41.2,7,0,4,1,2026-03-11T02:08:21.841840+05:30
Hubli-Dharwad,Karnataka,15.3647,75.124,23.1,50,0.0,942.7,8.85,32.0,124,50.9,44.8,0,5,7,0,2026-03-11T02:08:21.841847+05:30
Belgaum,Karnataka,15.8497,74.4977,22.6,61,0.0,927.3,8.9,43.2,121,56.9,49.7,3,5,7,0,2026-03-11T02:08:25.100894+05:30
Coimbatore,Tamil Nadu,11.0168,76.9558,22.7,81,0.0,964.6,9.25,40.0,93,19.2,18.5,3,5,7,1,2026-03-11T02:08:25.100929+05:30
Madurai,Tamil Nadu,9.9252,78.1198,24.2,84,0.0,996.2,8.3,29.2,86,18.8,17.9,3,5,7,1,2026-03-11T02:08:25.100940+05:30
Trichy,Tamil Nadu,10.7905,78.7047,23.6,96,0.0,1003.1,9.15,25.9,82,21.4,18.5,3,5,4,1,2026-03-11T02:08:25.100948+05:30
Salem,Tamil Nadu,11.6643,78.146,23.0,85,0.0,980.3,9.15,22.3,98,24.6,22.9,3,5,7,1,2026-03-11T02:08:25.100956+05:30
Tirunelveli,Tamil Nadu,8.7139,77.7567,24.6,83,0.0,1006.3,6.45,25.2,73,10.0,9.3,3,5,4,1,2026-03-11T02:08:25.100963+05:30
Vellore,Tamil Nadu,12.9165,79.1325,20.8,87,0.0,988.4,9.1,31.7,115,43.2,38.8,3,5,7,1,2026-03-11T02:08:25.100971+05:30
Erode,Tamil Nadu,11.341,77.7172,24.0,89,0.0,992.3,9.15,20.9,95,19.0,17.8,3,5,7,1,2026-03-11T02:08:25.100978+05:30
Kochi,Kerala,9.9312,76.2673,27.4,82,0.0,1010.2,9.1,33.8,148,68.7,64.5,7,0,4,1,2026-03-11T02:08:25.100986+05:30
Thiruvananthapuram,Kerala,8.5241,76.9366,28.1,75,0.0,1009.0,6.45,26.3,94,18.9,16.0,7,0,4,1,2026-03-11T02:08:25.100993+05:30
Kozhikode,Kerala,11.2588,75.7804,28.1,78,0.0,1009.3,8.95,31.7,114,50.6,40.7,7,0,4,1,2026-03-11T02:08:25.101001+05:30
Thrissur,Kerala,10.5276,76.2144,26.1,87,0.0,1008.6,8.95,37.8,125,54.9,51.5,7,0,4,1,2026-03-11T02:08:25.101008+05:30
Kannur,Kerala,11.8745,75.3704,27.3,84,0.0,1008.4,8.95,34.6,111,54.9,47.6,7,0,4,1,2026-03-11T02:08:25.101015+05:30
Patna,Bihar,25.5941,85.1376,25.4,82,0.0,1004.9,7.3,24.8,174,142.0,133.6,7,5,4,1,2026-03-11T02:08:25.101022+05:30
Gaya,Bihar,24.7914,85.0002,23.1,93,0.0,998.3,7.5,21.2,169,136.9,127.1,3,5,7,1,2026-03-11T02:08:25.101028+05:30
Muzaffarpur,Bihar,26.1209,85.3647,23.4,88,0.0,1004.9,7.4,20.9,181,179.7,170.9,3,5,4,1,2026-03-11T02:08:25.101034+05:30
Bhagalpur,Bihar,25.2425,87.0117,24.6,86,0.0,1005.6,7.45,17.6,164,66.4,62.2,3,5,4,1,2026-03-11T02:08:25.101041+05:30
Ranchi,Jharkhand,23.3441,85.3096,20.6,93,0.0,941.5,8.15,29.2,161,112.9,99.9,3,5,7,1,2026-03-11T02:08:25.101047+05:30
Jamshedpur,Jharkhand,22.8046,86.2029,23.5,88,0.0,995.5,8.05,28.4,147,72.4,61.7,3,5,7,1,2026-03-11T02:08:25.101053+05:30
Dhanbad,Jharkhand,23.7957,86.4304,23.1,90,0.0,984.3,7.95,23.8,170,147.6,136.4,3,5,7,1,2026-03-11T02:08:25.101060+05:30
Bokaro,Jharkhand,23.6693,86.1511,22.6,92,0.0,988.5,7.95,29.5,179,187.2,172.8,3,5,7,1,2026-03-11T02:08:25.101066+05:30
Bhubaneswar,Odisha,20.2961,85.8245,23.5,92,0.0,1006.6,8.35,28.1,118,41.8,36.3,3,5,4,1,2026-03-11T02:08:25.101073+05:30
Cuttack,Odisha,20.4625,85.8828,23.9,90,0.0,1008.6,8.4,30.2,118,41.8,36.3,3,0,4,1,2026-03-11T02:08:25.101079+05:30
Rourkela,Odisha,22.2604,84.8536,24.0,80,0.0,989.2,7.95,25.6,158,89.6,81.3,3,5,7,1,2026-03-11T02:08:25.101084+05:30
Raipur,Chhattisgarh,21.2514,81.6296,25.7,52,0.0,977.8,8.05,20.9,154,87.8,72.2,4,5,7,0,2026-03-11T02:08:25.101090+05:30
Bhilai,Chhattisgarh,21.1938,81.3509,23.9,61,0.0,978.1,8.05,17.3,151,77.1,62.4,3,5,7,0,2026-03-11T02:08:25.101096+05:30
Guwahati,Assam,26.1158,91.7086,23.3,86,0.0,1005.3,7.35,14.4,155,52.7,48.5,3,5,4,1,2026-03-11T02:08:25.101102+05:30
Agartala,Tripura,23.8315,91.2868,20.9,90,0.0,1010.0,7.7,20.2,169,97.8,90.8,3,0,4,1,2026-03-11T02:08:25.101107+05:30
Shillong,Meghalaya,25.5788,91.8933,11.0,88,0.0,857.1,6.8,17.6,140,45.5,42.0,3,10,7,0,2026-03-11T02:08:25.101114+05:30
Imphal,Manipur,24.817,93.9368,16.1,85,0.0,926.1,7.95,46.1,153,75.7,72.4,3,10,7,0,2026-03-11T02:08:25.101121+05:30
Aizawl,Mizoram,23.7271,92.7176,16.3,75,0.0,894.6,7.9,30.6,125,37.5,32.4,3,5,7,0,2026-03-11T02:08:25.101127+05:30
Kohima,Nagaland,25.6701,94.1077,14.5,79,0.0,857.3,7.0,39.6,133,49.7,47.1,3,5,7,0,2026-03-11T02:08:25.101133+05:30
Gangtok,Sikkim,27.3314,88.6138,14.3,77,0.0,839.8,6.45,20.5,143,68.7,59.5,3,5,7,0,2026-03-11T02:08:25.101139+05:30
Siliguri,West Bengal,26.7271,88.3953,21.1,68,0.0,998.5,7.4,20.9,163,118.7,105.5,3,5,7,0,2026-03-11T02:08:28.365946+05:30
Durgapur,West Bengal,23.5204,87.3119,22.8,88,0.0,999.5,7.9,22.0,154,85.2,78.0,3,5,7,1,2026-03-11T02:08:28.365981+05:30
Asansol,West Bengal,23.6739,86.9524,23.1,87,0.0,998.0,7.95,19.4,159,97.8,88.9,3,5,7,1,2026-03-11T02:08:28.365992+05:30
Pondicherry,Puducherry,11.9139,79.8145,22.5,92,0.0,1012.1,9.0,28.1,66,22.2,16.6,3,0,4,1,2026-03-11T02:08:28.366000+05:30
Port Blair,Andaman and Nicobar Islands,11.6234,92.7265,27.5,82,0.0,1009.2,8.95,20.2,69,26.5,22.2,7,0,4,1,2026-03-11T02:08:28.366007+05:30
Haridwar,Uttarakhand,29.9457,78.1642,21.6,92,0.0,979.1,5.6,35.3,157,96.9,82.4,3,5,3,1,2026-03-11T02:08:28.366014+05:30
Rishikesh,Uttarakhand,30.0869,78.2676,21.2,86,0.0,971.9,5.75,34.2,155,99.7,73.1,3,5,3,1,2026-03-11T02:08:28.366022+05:30
Nainital,Uttarakhand,29.3919,79.4542,17.1,80,0.0,809.2,6.8,67.3,176,120.6,99.9,3,5,7,0,2026-03-11T02:08:28.366028+05:30
Mussoorie,Uttarakhand,30.4599,78.0664,15.7,89,0.0,806.1,5.65,40.7,153,91.5,72.2,3,10,3,0,2026-03-11T02:08:28.366035+05:30
Dharamshala,Himachal Pradesh,32.219,76.3234,20.9,41,0.0,873.5,4.7,22.0,55,25.8,14.8,0,5,3,0,2026-03-11T02:08:28.366041+05:30
Dalhousie,Himachal Pradesh,32.5387,75.971,18.3,24,0.0,807.7,5.2,23.4,87,47.6,35.4,0,5,3,1,2026-03-11T02:08:28.366049+05:30
Patiala,Punjab,30.3398,76.3869,21.1,80,0.0,982.3,5.35,18.7,171,156.5,121.1,3,5,3,1,2026-03-11T02:08:28.366056+05:30
Bhatinda,Punjab,30.211,74.9455,20.1,77,0.0,987.9,6.1,22.3,153,134.1,79.9,3,5,7,0,2026-03-11T02:08:28.366062+05:30
Rohtak,Haryana,28.8955,76.6066,19.6,77,0.0,986.2,6.15,25.9,305,296.2,138.3,3,5,7,0,2026-03-11T02:08:28.366068+05:30
Panipat,Haryana,29.3909,76.9635,20.2,77,0.0,984.6,5.6,23.8,252,276.6,136.0,3,5,3,1,2026-03-11T02:08:28.366074+05:30
Mathura,Uttar Pradesh,27.4924,77.6737,18.8,85,0.0,991.5,6.4,24.1,332,426.5,131.3,3,10,7,1,2026-03-11T02:08:28.366081+05:30
Vrindavan,Uttar Pradesh,27.5823,77.7027,20.4,73,0.0,991.8,6.35,25.6,332,426.5,131.3,3,5,7,0,2026-03-11T02:08:28.366087+05:30
Ayodhya,Uttar Pradesh,26.7922,82.1998,24.6,85,0.0,999.8,6.8,26.6,188,154.1,144.4,3,5,7,1,2026-03-11T02:08:28.366094+05:30
Ratlam,Madhya Pradesh,23.3315,75.0367,18.5,68,0.0,957.1,7.6,23.8,68,36.7,26.8,3,5,7,0,2026-03-11T02:08:28.366100+05:30
Sagar,Madhya Pradesh,23.8388,78.7378,24.3,45,0.0,953.6,7.55,26.3,70,71.7,24.3,0,5,7,0,2026-03-11T02:08:28.366106+05:30
Satna,Madhya Pradesh,24.6005,80.8322,22.9,74,0.0,975.5,7.55,33.5,151,118.3,79.6,3,5,7,1,2026-03-11T02:08:28.366112+05:30
Akola,Maharashtra,20.7002,77.0082,26.6,43,0.0,977.5,8.0,16.6,69,35.5,29.7,4,5,7,0,2026-03-11T02:08:28.366119+05:30
Amravati,Maharashtra,20.9374,77.7796,22.4,64,0.0,969.6,8.0,13.7,70,38.2,31.7,3,5,7,0,2026-03-11T02:08:28.366125+05:30
Latur,Maharashtra,18.4088,76.5604,23.1,64,0.0,942.5,8.45,21.2,107,45.9,40.0,3,5,7,0,2026-03-11T02:08:28.366132+05:30
Nanded,Maharashtra,19.1383,77.3091,25.2,53,0.0,971.2,8.2,21.6,123,54.7,48.7,4,5,7,0,2026-03-11T02:08:28.366138+05:30
Gulbarga,Karnataka,17.3297,76.8343,25.0,58,0.0,961.7,8.5,19.1,128,47.0,42.8,4,5,7,1,2026-03-11T02:08:28.366144+05:30
Bidar,Karnataka,17.9104,77.5199,22.9,66,0.0,938.0,8.5,22.3,132,53.0,47.8,3,5,7,1,2026-03-11T02:08:28.366149+05:30
Hospet,Karnataka,15.2689,76.3909,24.9,48,0.0,958.2,8.85,22.3,116,27.1,23.7,0,5,7,0,2026-03-11T02:08:28.366155+05:30
Tirupur,Tamil Nadu,11.1085,77.3411,23.7,82,0.0,978.5,9.3,29.2,102,21.8,20.6,3,5,7,1,2026-03-11T02:08:28.366161+05:30
Alappuzha,Kerala,9.4981,76.3388,29.1,64,0.0,1010.1,8.85,33.5,142,58.1,47.8,7,0,4,1,2026-03-11T02:08:28.366167+05:30
Munnar,Kerala,10.0889,77.0595,19.6,84,0.0,857.2,5.55,25.2,87,16.1,15.7,3,10,3,1,2026-03-11T02:08:28.366173+05:30
Silchar,Assam,24.8333,92.7789,22.3,87,0.0,1008.8,7.65,15.8,162,87.3,80.6,3,0,4,1,2026-03-11T02:08:28.366179+05:30
Dibrugarh,Assam,27.4728,94.912,23.1,82,0.0,999.6,7.45,26.6,162,57.7,53.4,3,5,7,1,2026-03-11T02:08:28.366185+05:30
