city,state,latitude,longitude,temp,humidity,rain,pressure,uv_index,wind_gusts,aqi,pm10,pm2_5,no2,co,o3,so2,mosquito_risk,arthritis_risk,migraine_risk,frizz_risk,updated_at
Delhi,Delhi,28.6139,77.209,36.4,41,0.0,975.9,7.65,34.2,294,644.5,127.1,12.9,306.0,113.0,11.3,0,5,10,1,2026-07-16T17:50:56.557019+05:30
Mumbai,Maharashtra,19.076,72.8777,28.5,77,0.0,1006.0,7.45,34.6,70,37.8,20.1,12.3,228.0,56.0,10.5,7,5,4,1,2026-07-16T17:50:56.557071+05:30
Bangalore,Karnataka,12.9716,77.5946,28.5,41,0.0,911.2,8.9,41.8,62,32.9,17.0,10.2,387.0,75.0,2.8,4,5,7,0,2026-07-16T17:50:56.557087+05:30
Hyderabad,Telangana,17.385,78.4867,30.5,50,0.0,950.5,8.3,47.9,61,32.2,16.6,10.1,286.0,71.0,3.4,0,5,7,1,2026-07-16T17:50:56.557096+05:30
Chennai,Tamil Nadu,13.0827,80.2707,34.1,47,0.0,1003.8,7.9,42.8,89,41.7,26.5,7.5,288.0,132.0,6.2,0,5,4,1,2026-07-16T17:50:56.557105+05:30
Kolkata,West Bengal,22.5726,88.3639,29.8,76,0.0,997.0,8.05,35.3,63,14.7,12.5,6.7,525.0,103.0,6.1,7,5,7,1,2026-07-16T17:50:56.557113+05:30
Pune,Maharashtra,18.5204,73.8567,26.2,73,0.0,945.9,7.5,45.0,51,18.2,9.5,5.4,160.0,58.0,4.8,7,5,7,1,2026-07-16T17:50:56.557120+05:30
Ahmedabad,Gujarat,23.0225,72.5714,34.3,49,0.1,997.0,7.0,40.0,83,53.7,20.5,4.0,172.0,80.0,3.9,3,5,7,1,2026-07-16T17:50:56.557127+05:30
Jaipur,Rajasthan,26.9124,75.7873,34.8,42,0.0,954.8,8.15,40.0,185,227.2,54.8,3.3,155.0,98.0,3.2,0,5,7,1,2026-07-16T17:50:56.557134+05:30
Lucknow,Uttar Pradesh,26.8467,80.9462,30.4,84,0.0,986.7,6.5,28.8,163,137.8,65.9,9.5,307.0,132.0,9.9,3,5,7,1,2026-07-16T17:50:56.557162+05:30
Kanpur,Uttar Pradesh,26.4499,80.3319,31.5,70,0.1,985.4,7.5,33.8,166,173.7,70.8,7.8,212.0,120.0,6.9,6,5,7,1,2026-07-16T17:50:56.557170+05:30
Chandigarh,Chandigarh,30.7333,76.7794,32.8,62,0.0,961.8,7.7,32.0,191,61.5,45.5,6.0,615.0,183.0,10.4,3,5,7,1,2026-07-16T17:50:56.557180+05:30
Srinagar,Jammu and Kashmir,34.0837,74.7973,31.8,32,0.0,839.2,9.0,16.6,152,22.8,14.8,3.6,341.0,158.0,2.7,0,5,7,0,2026-07-16T17:50:56.557188+05:30
Jammu,Jammu and Kashmir,32.7266,74.857,33.9,55,0.0,965.7,8.55,21.2,173,57.2,40.9,5.1,380.0,167.0,4.8,0,5,7,1,2026-07-16T17:50:56.557194+05:30
Amritsar,Punjab,31.634,74.8723,33.8,61,0.0,973.6,8.2,19.8,199,75.4,53.7,7.7,396.0,179.0,10.2,3,5,7,1,2026-07-16T17:50:56.557200+05:30
Ludhiana,Punjab,30.901,75.8573,34.8,52,0.0,971.5,7.9,31.3,172,65.2,47.6,6.3,386.0,149.0,4.9,0,5,7,1,2026-07-16T17:50:56.557207+05:30
Jalandhar,Punjab,31.326,75.5762,33.4,62,0.0,972.6,8.2,24.5,180,80.3,54.7,6.9,461.0,169.0,6.8,3,5,7,1,2026-07-16T17:50:56.557213+05:30
Dehradun,Uttarakhand,30.6284,78.0322,21.8,90,0.0,827.8,8.0,29.2,121,46.7,31.7,2.4,320.0,164.0,6.2,3,5,7,1,2026-07-16T17:50:56.557218+05:30
Shimla,Himachal Pradesh,31.1048,77.1734,20.3,72,0.0,783.5,8.25,40.7,132,47.1,30.9,2.0,274.0,157.0,6.6,3,5,7,0,2026-07-16T17:50:56.557224+05:30
Manali,Himachal Pradesh,32.2396,77.1887,23.8,78,0.0,818.0,9.55,33.1,102,14.8,7.3,4.1,186.0,137.0,1.2,3,5,7,1,2026-07-16T17:50:56.557231+05:30
Gurgaon,Haryana,28.4595,77.0266,36.2,41,0.0,974.5,7.75,34.2,306,566.2,115.0,15.3,389.0,107.0,8.5,0,5,10,1,2026-07-16T17:50:56.557238+05:30
Noida,Uttar Pradesh,28.5355,77.391,35.5,50,0.0,977.3,7.6,27.7,306,566.2,115.0,15.3,432.0,107.0,8.5,0,5,10,1,2026-07-16T17:50:56.557244+05:30
Ghaziabad,Uttar Pradesh,28.6692,77.4538,34.7,55,0.0,975.5,7.6,33.5,195,493.6,119.7,12.3,258.0,127.0,14.8,0,5,7,1,2026-07-16T17:50:56.557250+05:30
Faridabad,Haryana,28.4089,77.3178,36.1,43,0.0,976.7,7.6,33.8,306,566.2,115.0,15.3,244.0,107.0,8.5,0,5,10,1,2026-07-16T17:50:56.557256+05:30
Meerut,Uttar Pradesh,28.9845,77.7064,33.8,61,0.0,974.3,7.6,38.2,195,493.6,119.7,12.3,250.0,127.0,14.8,3,5,7,1,2026-07-16T17:50:56.557263+05:30
Agra,Uttar Pradesh,27.1767,78.0081,35.3,50,0.0,981.1,7.9,36.4,151,198.4,58.3,8.3,174.0,107.0,4.1,0,5,10,1,2026-07-16T17:50:56.557269+05:30
Varanasi,Uttar Pradesh,25.3176,82.9739,31.5,72,0.0,990.3,7.55,28.8,187,128.5,68.7,8.3,420.0,153.0,9.9,3,5,7,1,2026-07-16T17:50:56.557275+05:30
Prayagraj,Uttar Pradesh,25.4358,81.8463,31.2,78,0.0,989.1,6.75,31.7,172,118.3,56.1,7.2,267.0,134.0,9.3,3,5,7,1,2026-07-16T17:50:56.557281+05:30
Gorakhpur,Uttar Pradesh,26.7606,83.3732,28.8,86,0.0,990.4,7.5,25.9,153,36.4,31.0,10.1,384.0,105.0,4.2,7,5,7,1,2026-07-16T17:50:56.557287+05:30
Bareilly,Uttar Pradesh,28.367,79.4304,33.2,71,0.0,979.5,7.4,28.4,177,175.1,89.6,8.6,289.0,147.0,11.3,3,5,7,1,2026-07-16T17:50:56.557298+05:30
Aligarh,Uttar Pradesh,27.8974,78.088,34.2,59,0.0,978.6,7.55,32.4,191,683.6,146.7,9.5,210.0,113.0,7.5,0,5,7,1,2026-07-16T17:50:56.557304+05:30
Moradabad,Uttar Pradesh,28.8386,78.7733,33.7,64,0.0,976.3,7.8,33.1,186,187.2,85.9,9.0,305.0,128.0,9.6,3,5,7,1,2026-07-16T17:50:56.557310+05:30
Saharanpur,Uttar Pradesh,29.9637,77.546,32.6,70,0.0,968.3,7.35,36.7,178,126.2,58.4,7.2,334.0,143.0,10.1,3,5,7,1,2026-07-16T17:50:56.557315+05:30
Jhansi,Uttar Pradesh,25.4484,78.5685,32.4,64,0.0,972.3,4.05,38.5,104,68.0,27.4,3.3,140.0,93.0,3.2,3,5,3,1,2026-07-16T17:50:59.936818+05:30
Surat,Gujarat,21.1702,72.8311,29.7,75,0.0,1003.0,7.7,41.8,76,30.2,19.6,16.7,231.0,36.0,43.7,7,5,4,1,2026-07-16T17:50:59.936853+05:30
Vadodara,Gujarat,22.3072,73.1812,32.0,60,0.0,999.8,6.5,37.8,73,37.3,21.0,6.5,150.0,90.0,11.3,0,5,7,1,2026-07-16T17:50:59.936864+05:30
Rajkot,Gujarat,22.3039,70.8022,31.3,61,0.0,989.5,7.25,34.9,71,60.8,22.9,2.4,115.0,65.0,3.3,3,5,7,1,2026-07-16T17:50:59.936873+05:30
Thane,Maharashtra,19.2183,72.9781,28.3,78,0.1,1005.4,6.75,32.0,70,37.8,20.1,12.3,221.0,56.0,10.5,10,5,4,1,2026-07-16T17:50:59.936881+05:30
Nagpur,Maharashtra,21.1458,79.0882,33.0,49,0.0,968.5,8.2,41.4,89,59.6,26.3,13.2,172.0,85.0,19.7,0,5,7,1,2026-07-16T17:50:59.936888+05:30
Nashik,Maharashtra,19.9975,73.7898,26.1,77,0.0,942.9,7.85,40.3,58,23.5,12.7,3.5,148.0,80.0,4.6,7,5,7,1,2026-07-16T17:50:59.936896+05:30
Aurangabad,Maharashtra,19.8762,75.3433,28.7,62,0.0,941.2,8.05,39.6,58,31.5,15.1,2.9,190.0,87.0,4.3,7,5,7,1,2026-07-16T17:50:59.936903+05:30
Solapur,Maharashtra,17.6599,75.9064,29.1,60,0.0,954.8,8.45,42.5,55,39.8,13.7,2.0,133.0,80.0,1.7,4,5,7,1,2026-07-16T17:50:59.936911+05:30
Kolhapur,Maharashtra,16.705,74.2433,24.6,82,0.0,946.9,7.4,47.2,50,19.5,9.9,4.9,134.0,55.0,1.9,3,5,7,1,2026-07-16T17:50:59.936918+05:30
Goa,Goa,15.2993,74.124,27.2,81,0.1,997.8,7.15,30.6,73,28.5,12.5,2.0,149.0,55.0,1.1,10,5,7,1,2026-07-16T17:50:59.936925+05:30
Jodhpur,Rajasthan,26.2389,73.0243,36.0,37,0.0,977.2,8.4,34.6,124,285.0,57.7,1.6,117.0,81.0,1.5,0,5,10,1,2026-07-16T17:50:59.936933+05:30
Udaipur,Rajasthan,24.5854,73.7125,30.8,53,0.0,942.4,8.8,30.6,80,74.7,28.2,1.4,127.0,86.0,2.7,0,5,7,1,2026-07-16T17:50:59.936940+05:30
Kota,Rajasthan,25.2138,75.8648,35.0,43,0.0,973.2,8.3,31.7,88,70.5,28.1,2.6,145.0,108.0,5.5,0,5,7,1,2026-07-16T17:50:59.936947+05:30
Bikaner,Rajasthan,28.0229,73.3119,38.4,31,0.0,975.1,8.4,37.4,135,159.3,49.2,0.6,111.0,78.0,2.0,0,5,10,1,2026-07-16T17:50:59.936954+05:30
Ajmer,Rajasthan,26.4499,74.6399,32.9,45,0.0,950.0,8.35,43.6,88,109.4,35.5,1.9,137.0,91.0,2.5,0,5,7,1,2026-07-16T17:50:59.936962+05:30
Gwalior,Madhya Pradesh,26.2183,78.1828,33.8,58,0.0,977.0,8.05,37.1,116,106.6,38.3,3.2,155.0,96.0,2.2,0,5,7,1,2026-07-16T17:50:59.936969+05:30
Indore,Madhya Pradesh,22.7196,75.8577,31.1,52,0.0,944.4,7.75,39.2,71,46.2,24.0,3.9,210.0,92.0,4.0,0,5,7,1,2026-07-16T17:50:59.936976+05:30
Bhopal,Madhya Pradesh,23.2599,77.4126,29.3,71,0.1,949.4,8.2,38.5,87,57.9,24.7,3.0,195.0,98.0,4.4,10,5,7,1,2026-07-16T17:50:59.936984+05:30
Jabalpur,Madhya Pradesh,23.1815,79.9864,25.8,93,0.3,957.1,8.45,35.3,109,54.5,27.5,3.9,180.0,92.0,3.4,10,5,7,1,2026-07-16T17:50:59.936991+05:30
Ujjain,Madhya Pradesh,23.1765,75.7885,30.8,57,0.0,949.6,8.4,36.0,73,52.5,25.4,2.1,166.0,92.0,3.8,0,5,7,1,2026-07-16T17:50:59.936999+05:30
Visakhapatnam,Andhra Pradesh,17.6868,83.2185,31.8,63,0.0,997.3,6.6,34.9,95,39.0,23.6,23.7,371.0,81.0,45.1,3,5,7,1,2026-07-16T17:50:59.937006+05:30
Vijayawada,Andhra Pradesh,16.5062,80.648,30.9,62,0.0,998.8,7.0,46.8,72,39.7,22.8,5.6,194.0,93.0,6.4,3,5,7,1,2026-07-16T17:50:59.937013+05:30
Guntur,Andhra Pradesh,16.3067,80.4365,32.9,51,0.0,999.9,7.1,45.7,70,38.4,20.8,4.6,172.0,91.0,5.2,0,5,7,1,2026-07-16T17:50:59.937020+05:30
Nellore,Andhra Pradesh,14.4426,79.9865,34.9,39,0.0,1002.3,7.95,43.2,67,45.6,21.3,6.0,133.0,95.0,4.5,0,5,4,1,2026-07-16T17:50:59.937028+05:30
Kurnool,Andhra Pradesh,15.8281,78.0373,33.4,40,0.0,974.0,8.15,41.0,65,41.9,17.3,2.7,124.0,92.0,6.3,0,5,7,1,2026-07-16T17:50:59.937037+05:30
Kakinada,Andhra Pradesh,16.9891,82.2475,31.9,62,0.0,1002.4,3.2,41.4,78,45.5,23.2,4.1,162.0,115.0,6.0,3,5,0,1,2026-07-16T17:50:59.937044+05:30
Tirupati,Andhra Pradesh,13.6288,79.4192,34.8,33,0.0,988.1,8.1,30.2,75,40.7,21.3,14.0,124.0,73.0,2.0,0,5,7,1,2026-07-16T17:50:59.937051+05:30
Warangal,Telangana,17.9689,79.5941,29.3,65,0.0,975.4,2.35,43.2,67,33.5,18.7,5.4,177.0,78.0,4.2,7,5,3,1,2026-07-16T17:50:59.937058+05:30
Nizamabad,Telangana,18.6725,78.0941,29.2,64,0.0,961.9,5.65,41.8,62,44.2,18.1,2.0,160.0,92.0,3.4,7,5,3,1,2026-07-16T17:50:59.937065+05:30
Mysore,Karnataka,12.2958,76.6396,25.1,73,0.0,928.2,8.8,42.8,60,24.4,12.7,5.1,139.0,76.0,1.8,7,5,7,1,2026-07-16T17:50:59.937072+05:30
Mangalore,Karnataka,12.9141,74.856,26.9,82,0.2,1007.5,7.95,35.3,72,28.2,13.0,2.1,125.0,55.0,1.6,10,5,4,1,2026-07-16T17:50:59.937079+05:30
Hubli-Dharwad,Karnataka,15.3647,75.124,25.7,74,0.0,939.9,7.5,46.1,55,23.9,10.9,3.0,133.0,59.0,1.0,7,5,7,1,2026-07-16T17:50:59.937087+05:30
Belgaum,Karnataka,15.8497,74.4977,24.2,75,0.0,924.9,7.9,49.3,51,14.5,6.7,3.7,110.0,54.0,1.6,3,5,7,1,2026-07-16T17:51:03.310022+05:30
Coimbatore,Tamil Nadu,11.0168,76.9558,27.8,69,0.0,960.6,8.5,52.6,59,25.5,12.9,3.2,144.0,71.0,2.3,7,5,7,1,2026-07-16T17:51:03.310058+05:30
Madurai,Tamil Nadu,9.9252,78.1198,36.0,33,0.0,990.4,8.2,45.7,86,27.4,15.3,4.1,146.0,108.0,2.2,0,5,10,1,2026-07-16T17:51:03.310070+05:30
Trichy,Tamil Nadu,10.7905,78.7047,35.4,36,0.0,996.8,8.1,45.7,68,23.1,13.4,3.4,131.0,99.0,2.2,0,5,10,1,2026-07-16T17:51:03.310081+05:30
Salem,Tamil Nadu,11.6643,78.146,32.6,45,0.0,974.8,8.1,27.0,76,27.6,15.8,5.9,184.0,103.0,5.5,0,5,7,1,2026-07-16T17:51:03.310091+05:30
Tirunelveli,Tamil Nadu,8.7139,77.7567,34.6,43,0.0,1000.7,7.95,41.0,61,21.1,11.5,2.6,136.0,77.0,1.7,0,5,4,1,2026-07-16T17:51:03.310100+05:30
Vellore,Tamil Nadu,12.9165,79.1325,35.8,26,0.0,981.3,8.3,42.1,74,55.9,28.9,10.4,173.0,87.0,3.1,0,5,10,0,2026-07-16T17:51:03.310109+05:30
Erode,Tamil Nadu,11.341,77.7172,33.6,42,0.1,986.7,8.35,41.8,67,21.1,11.9,5.1,162.0,86.0,2.2,3,5,7,1,2026-07-16T17:51:03.310118+05:30
Kochi,Kerala,9.9312,76.2673,28.0,81,0.0,1009.2,8.45,28.4,78,30.7,14.6,5.2,128.0,60.0,2.8,7,0,4,1,2026-07-16T17:51:03.310127+05:30
Thiruvananthapuram,Kerala,8.5241,76.9366,27.3,81,0.0,1008.5,7.6,39.2,67,36.4,16.3,4.4,112.0,61.0,1.2,7,0,4,1,2026-07-16T17:51:03.310135+05:30
Kozhikode,Kerala,11.2588,75.7804,27.5,81,0.0,1008.5,8.2,32.4,65,29.9,12.6,1.0,129.0,62.0,1.2,7,0,4,1,2026-07-16T17:51:03.310144+05:30
Thrissur,Kerala,10.5276,76.2144,27.7,79,0.0,1007.6,8.3,35.3,73,29.1,13.8,3.4,120.0,58.0,1.9,7,5,4,1,2026-07-16T17:51:03.310154+05:30
Kannur,Kerala,11.8745,75.3704,27.3,82,0.1,1007.9,7.95,32.8,69,29.1,13.3,4.0,118.0,50.0,1.3,10,5,4,1,2026-07-16T17:51:03.310162+05:30
Patna,Bihar,25.5941,85.1376,32.4,71,0.0,992.7,6.45,32.4,130,27.8,27.2,8.6,428.0,140.0,8.8,3,5,7,1,2026-07-16T17:51:03.310171+05:30
Gaya,Bihar,24.7914,85.0002,31.1,83,0.2,986.0,8.45,25.2,126,21.8,21.1,6.0,359.0,118.0,5.5,6,5,7,1,2026-07-16T17:51:03.310180+05:30
Muzaffarpur,Bihar,26.1209,85.3647,32.4,71,0.0,992.9,6.55,31.7,120,25.1,25.0,8.9,322.0,132.0,7.9,3,5,7,1,2026-07-16T17:51:03.310189+05:30
Bhagalpur,Bihar,25.2425,87.0117,32.0,71,0.0,993.1,8.7,31.3,94,20.9,18.4,9.9,278.0,98.0,7.3,3,5,7,1,2026-07-16T17:51:03.310197+05:30
Ranchi,Jharkhand,23.3441,85.3096,26.2,86,0.1,931.0,9.05,35.6,81,13.1,12.7,6.0,253.0,100.0,5.0,10,5,7,1,2026-07-16T17:51:03.310206+05:30
Jamshedpur,Jharkhand,22.8046,86.2029,27.6,90,0.1,982.8,6.15,36.0,82,24.9,23.7,14.2,394.0,107.0,23.8,10,5,7,1,2026-07-16T17:51:03.310214+05:30
Dhanbad,Jharkhand,23.7957,86.4304,30.6,73,0.0,971.8,8.05,33.8,100,28.6,26.4,23.4,268.0,111.0,60.7,3,5,7,1,2026-07-16T17:51:03.310223+05:30
Bokaro,Jharkhand,23.6693,86.1511,29.9,81,0.0,975.7,8.8,33.5,100,27.4,25.5,22.5,252.0,91.0,59.6,7,5,7,1,2026-07-16T17:51:03.310231+05:30
Bhubaneswar,Odisha,20.2961,85.8245,27.7,93,0.1,994.3,6.95,50.4,84,24.2,20.6,13.8,429.0,85.0,12.4,10,5,7,1,2026-07-16T17:51:03.310240+05:30
Cuttack,Odisha,20.4625,85.8828,28.4,83,0.0,996.1,6.95,36.4,84,24.2,20.6,13.8,377.0,85.0,12.4,7,5,7,1,2026-07-16T17:51:03.310248+05:30
Rourkela,Odisha,22.2604,84.8536,26.6,93,0.2,977.8,7.65,32.0,83,14.8,14.3,7.7,468.0,103.0,6.3,10,5,7,1,2026-07-16T17:51:03.310256+05:30
Raipur,Chhattisgarh,21.2514,81.6296,27.1,91,0.2,969.1,6.7,35.6,152,52.3,37.8,29.5,191.0,79.0,55.8,10,5,7,1,2026-07-16T17:51:03.310265+05:30
Bhilai,Chhattisgarh,21.1938,81.3509,27.4,89,0.1,969.7,4.2,37.4,135,52.3,34.0,21.5,890.0,88.0,41.4,10,5,3,1,2026-07-16T17:51:03.310273+05:30
Guwahati,Assam,26.1158,91.7086,29.0,85,0.0,995.1,6.75,22.7,58,11.7,10.4,6.9,333.0,62.0,1.3,7,5,7,1,2026-07-16T17:51:03.310282+05:30
Agartala,Tripura,23.8315,91.2868,28.9,81,0.0,1000.2,8.35,41.8,62,15.4,12.0,5.8,178.0,92.0,2.0,7,5,4,1,2026-07-16T17:51:03.310290+05:30
Shillong,Meghalaya,25.5788,91.8933,22.8,75,0.0,854.5,8.5,33.5,43,9.3,6.1,4.5,173.0,81.0,1.7,3,5,7,1,2026-07-16T17:51:03.310299+05:30
Imphal,Manipur,24.817,93.9368,26.2,88,0.0,918.6,8.35,24.5,58,16.1,10.7,5.2,238.0,72.0,1.8,7,5,7,1,2026-07-16T17:51:03.310307+05:30
Aizawl,Mizoram,23.7271,92.7176,22.5,84,0.0,889.0,8.1,42.1,57,10.0,6.3,5.0,150.0,55.0,0.8,3,5,7,1,2026-07-16T17:51:03.310315+05:30
Kohima,Nagaland,25.6701,94.1077,21.7,96,0.0,852.2,8.5,22.0,45,10.3,7.5,5.1,166.0,55.0,0.9,3,5,7,1,2026-07-16T17:51:03.310324+05:30
Gangtok,Sikkim,27.3314,88.6138,19.9,100,0.1,835.2,6.65,34.2,44,4.9,4.4,5.1,263.0,94.0,1.5,6,10,7,1,2026-07-16T17:51:03.310333+05:30
Siliguri,West Bengal,26.7271,88.3953,29.5,80,0.0,986.4,7.15,24.1,68,17.9,15.3,6.9,559.0,112.0,2.7,7,5,7,1,2026-07-16T17:51:06.666708+05:30
Durgapur,West Bengal,23.5204,87.3119,30.0,79,0.0,986.1,7.05,36.4,83,21.9,21.1,20.6,326.0,99.0,33.1,7,5,7,1,2026-07-16T17:51:06.666744+05:30
Asansol,West Bengal,23.6739,86.9524,30.5,73,0.0,984.9,8.05,32.8,89,21.8,20.1,19.1,325.0,112.0,30.9,3,5,7,1,2026-07-16T17:51:06.666757+05:30
Pondicherry,Puducherry,11.9139,79.8145,31.1,71,0.0,1005.1,8.2,45.7,91,50.4,35.9,21.9,224.0,130.0,7.7,3,5,4,1,2026-07-16T17:51:06.666768+05:30
Port Blair,Andaman and Nicobar Islands,11.6234,92.7265,28.2,83,0.0,1006.8,8.4,50.0,52,17.4,8.4,0.5,100.0,45.0,0.5,7,5,4,1,2026-07-16T17:51:06.666778+05:30
Haridwar,Uttarakhand,29.9457,78.1642,33.0,67,0.0,966.8,7.5,32.0,170,81.3,55.8,4.6,341.0,164.0,10.6,3,5,7,1,2026-07-16T17:51:06.666805+05:30
Rishikesh,Uttarakhand,30.0869,78.2676,31.7,70,0.0,959.8,7.6,27.0,150,82.0,52.7,2.4,348.0,178.0,10.2,3,5,7,1,2026-07-16T17:51:06.666815+05:30
Nainital,Uttarakhand,29.3919,79.4542,19.6,92,0.0,803.5,6.45,26.6,152,78.5,47.8,4.4,321.0,147.0,8.9,3,10,7,1,2026-07-16T17:51:06.666824+05:30
Mussoorie,Uttarakhand,30.4599,78.0664,20.5,88,0.0,801.3,7.3,42.1,165,68.9,50.8,4.0,315.0,178.0,9.3,3,5,7,1,2026-07-16T17:51:06.666832+05:30
Dharamshala,Himachal Pradesh,32.219,76.3234,24.7,78,0.0,866.1,8.45,31.0,110,33.1,22.9,1.6,324.0,147.0,2.5,3,5,7,1,2026-07-16T17:51:06.666839+05:30
Dalhousie,Himachal Pradesh,32.5387,75.971,21.4,80,0.0,803.4,8.0,28.8,159,43.7,31.0,3.2,315.0,170.0,3.2,3,5,7,1,2026-07-16T17:51:06.666847+05:30
Patiala,Punjab,30.3398,76.3869,33.6,62,0.0,971.0,7.6,33.8,180,523.4,109.4,6.6,312.0,139.0,7.4,3,5,7,1,2026-07-16T17:51:06.666855+05:30
Bhatinda,Punjab,30.211,74.9455,37.3,37,0.0,976.4,7.4,28.8,177,155.1,58.4,5.9,189.0,112.0,5.6,0,5,10,1,2026-07-16T17:51:06.666863+05:30
Rohtak,Haryana,28.8955,76.6066,35.0,53,0.0,974.5,7.65,31.3,522,1076.6,167.2,10.6,289.0,104.0,5.4,0,5,7,1,2026-07-16T17:51:06.666870+05:30
Panipat,Haryana,29.3909,76.9635,33.8,59,0.0,973.2,6.85,35.3,1029,3062.2,386.5,8.9,245.0,107.0,9.2,0,5,7,1,2026-07-16T17:51:06.666877+05:30
Mathura,Uttar Pradesh,27.4924,77.6737,34.7,56,0.0,980.0,7.9,33.1,472,670.6,112.5,11.9,226.0,94.0,3.3,0,5,7,1,2026-07-16T17:51:06.666884+05:30
Vrindavan,Uttar Pradesh,27.5823,77.7027,34.8,55,0.0,980.3,7.9,32.0,472,670.6,112.5,11.9,214.0,94.0,3.3,0,5,7,1,2026-07-16T17:51:06.666891+05:30
Ayodhya,Uttar Pradesh,26.7922,82.1998,29.7,84,0.0,988.7,7.2,22.3,180,96.4,58.6,9.3,367.0,127.0,5.7,7,5,7,1,2026-07-16T17:51:06.666898+05:30
Ratlam,Madhya Pradesh,23.3315,75.0367,30.7,57,0.0,950.7,7.8,32.8,72,54.1,25.2,1.6,132.0,94.0,3.6,0,5,7,1,2026-07-16T17:51:06.666905+05:30
Sagar,Madhya Pradesh,23.8388,78.7378,29.0,79,0.1,945.8,8.3,38.9,90,42.5,22.8,2.9,151.0,88.0,2.4,10,5,7,1,2026-07-16T17:51:06.666912+05:30
Satna,Madhya Pradesh,24.6005,80.8322,31.2,69,0.0,965.5,8.2,36.7,140,115.5,49.7,3.4,170.0,109.0,2.7,3,5,7,1,2026-07-16T17:51:06.666920+05:30
Akola,Maharashtra,20.7002,77.0082,32.2,53,0.0,971.1,8.7,43.6,66,43.1,18.3,2.5,131.0,92.0,5.5,0,5,7,1,2026-07-16T17:51:06.666927+05:30
Amravati,Maharashtra,20.9374,77.7796,32.9,49,0.0,963.1,8.75,42.5,69,42.1,18.4,3.3,131.0,92.0,6.2,0,5,7,1,2026-07-16T17:51:06.666936+05:30
Latur,Maharashtra,18.4088,76.5604,30.6,52,0.0,936.9,2.45,37.4,54,44.8,16.0,2.1,126.0,73.0,1.7,0,5,3,1,2026-07-16T17:51:06.666944+05:30
Nanded,Maharashtra,19.1383,77.3091,28.8,67,0.0,965.4,8.5,36.4,62,39.2,16.2,2.2,138.0,86.0,2.6,7,5,7,1,2026-07-16T17:51:06.666951+05:30
Gulbarga,Karnataka,17.3297,76.8343,31.1,49,0.0,956.0,7.85,47.9,55,42.6,14.2,2.6,131.0,85.0,2.0,0,5,7,1,2026-07-16T17:51:06.666957+05:30
Bidar,Karnataka,17.9104,77.5199,28.2,62,0.0,933.0,6.6,38.5,57,43.2,18.3,4.5,148.0,80.0,2.9,7,5,7,1,2026-07-16T17:51:06.666964+05:30
Hospet,Karnataka,15.2689,76.3909,25.4,85,0.1,954.2,8.3,46.4,55,32.6,15.4,5.1,142.0,61.0,1.8,10,5,7,1,2026-07-16T17:51:06.666971+05:30
Tirupur,Tamil Nadu,11.1085,77.3411,29.5,61,0.0,973.4,8.2,57.6,69,24.4,13.7,5.1,142.0,85.0,2.8,7,5,7,1,2026-07-16T17:51:06.666978+05:30
Alappuzha,Kerala,9.4981,76.3388,28.1,80,0.0,1009.2,7.9,32.8,72,33.9,15.5,5.2,94.0,62.0,2.6,7,0,4,1,2026-07-16T17:51:06.666985+05:30
Munnar,Kerala,10.0889,77.0595,18.1,97,0.1,857.0,8.65,31.7,57,17.8,9.4,3.1,118.0,68.0,1.7,6,10,7,1,2026-07-16T17:51:06.666993+05:30
Silchar,Assam,24.8333,92.7789,30.4,83,0.0,998.7,8.15,27.4,60,25.6,16.0,3.9,202.0,103.0,4.2,3,5,7,1,2026-07-16T17:51:06.666999+05:30
Dibrugarh,Assam,27.4728,94.912,29.7,82,0.0,989.1,8.3,28.1,48,10.5,10.0,6.8,219.0,93.0,1.9,7,5,7,1,2026-07-16T17:51:06.667007+05:30
