city,state,latitude,longitude,temp,humidity,rain,pressure,uv_index,wind_gusts,aqi,pm10,pm2_5,no2,co,o3,so2,mosquito_risk,arthritis_risk,migraine_risk,frizz_risk,updated_at
Delhi,Delhi,28.6139,77.209,37.0,25,0.0,974.6,7.6,36.0,204,334.3,71.2,6.4,420.0,227.0,24.4,0,5,10,0,2026-05-02T17:19:16.378218+05:30
Mumbai,Maharashtra,19.076,72.8777,31.3,65,0.0,1005.0,7.9,42.1,74,55.8,22.7,6.5,217.0,90.0,16.3,3,5,4,1,2026-05-02T17:19:16.378265+05:30
Bangalore,Karnataka,12.9716,77.5946,32.3,34,0.0,908.9,9.5,33.1,121,30.7,16.4,7.3,339.0,158.0,5.0,0,5,7,0,2026-05-02T17:19:16.378287+05:30
Hyderabad,Telangana,17.385,78.4867,38.7,16,0.0,948.1,9.25,32.8,83,35.0,13.1,0.5,257.0,130.0,2.7,0,5,10,0,2026-05-02T17:19:16.378298+05:30
Chennai,Tamil Nadu,13.0827,80.2707,32.8,67,0.0,1001.7,9.2,54.7,95,21.6,16.2,4.5,232.0,121.0,6.1,3,5,4,1,2026-05-02T17:19:16.378308+05:30
Kolkata,West Bengal,22.5726,88.3639,25.9,87,0.0,1000.7,8.85,42.8,66,33.3,25.0,8.8,506.0,124.0,7.9,7,5,4,1,2026-05-02T17:19:16.378317+05:30
Pune,Maharashtra,18.5204,73.8567,33.2,35,0.0,945.1,8.5,48.6,60,66.6,17.5,2.0,178.0,107.0,2.7,0,5,7,0,2026-05-02T17:19:16.378325+05:30
Ahmedabad,Gujarat,23.0225,72.5714,41.2,21,0.0,993.4,8.1,51.1,57,191.4,31.3,2.7,166.0,121.0,3.0,0,5,10,0,2026-05-02T17:19:16.378335+05:30
Jaipur,Rajasthan,26.9124,75.7873,39.5,12,0.0,952.0,8.15,35.6,119,213.3,31.0,0.0,169.0,124.0,2.2,0,5,10,0,2026-05-02T17:19:16.378344+05:30
Lucknow,Uttar Pradesh,26.8467,80.9462,34.8,34,0.0,986.0,8.1,40.7,161,94.5,30.7,2.3,304.0,178.0,7.8,0,5,7,1,2026-05-02T17:19:16.378352+05:30
Kanpur,Uttar Pradesh,26.4499,80.3319,33.5,37,0.0,984.4,8.1,37.1,168,153.7,37.1,1.6,254.0,184.0,8.2,0,5,7,1,2026-05-02T17:19:16.378360+05:30
Chandigarh,Chandigarh,30.7333,76.7794,33.5,26,0.0,961.8,7.6,33.8,165,41.1,22.6,1.7,303.0,175.0,14.7,0,5,7,0,2026-05-02T17:19:16.378371+05:30
Srinagar,Jammu and Kashmir,34.0837,74.7973,16.7,76,0.0,838.7,8.8,36.0,100,12.8,8.5,4.7,289.0,130.0,2.1,3,5,7,0,2026-05-02T17:19:16.378379+05:30
Jammu,Jammu and Kashmir,32.7266,74.857,34.2,23,0.0,965.9,8.4,31.0,120,25.6,13.1,1.5,231.0,161.0,3.3,0,5,7,0,2026-05-02T17:19:16.378387+05:30
Amritsar,Punjab,31.634,74.8723,35.5,21,0.0,973.4,8.25,29.9,152,36.6,17.8,2.1,262.0,190.0,7.4,0,5,10,0,2026-05-02T17:19:16.378394+05:30
Ludhiana,Punjab,30.901,75.8573,35.8,21,0.0,971.4,7.85,36.0,152,59.6,20.5,0.6,244.0,158.0,4.4,0,5,10,0,2026-05-02T17:19:16.378401+05:30
Jalandhar,Punjab,31.326,75.5762,35.1,23,0.0,972.5,8.05,36.7,134,58.8,19.3,0.8,295.0,162.0,4.8,0,5,10,0,2026-05-02T17:19:16.378409+05:30
Dehradun,Uttarakhand,30.6284,78.0322,19.0,64,0.0,826.1,8.05,44.6,139,49.6,24.5,0.0,263.0,169.0,6.0,3,5,7,0,2026-05-02T17:19:16.378419+05:30
Shimla,Himachal Pradesh,31.1048,77.1734,17.7,44,0.0,781.4,8.1,44.6,151,34.3,18.6,0.4,216.0,173.0,11.9,0,5,7,0,2026-05-02T17:19:16.378427+05:30
Manali,Himachal Pradesh,32.2396,77.1887,14.7,75,0.0,813.8,10.3,39.2,138,10.9,6.4,0.5,158.0,171.0,0.5,3,5,7,0,2026-05-02T17:19:16.378435+05:30
Gurgaon,Haryana,28.4595,77.0266,37.4,21,0.0,973.0,7.7,26.6,815,614.7,93.1,4.1,312.0,225.0,20.5,0,5,10,0,2026-05-02T17:19:16.378442+05:30
Noida,Uttar Pradesh,28.5355,77.391,36.0,30,0.0,976.1,7.65,24.8,815,614.7,93.1,4.1,420.0,225.0,20.5,0,5,10,0,2026-05-02T17:19:16.378450+05:30
Ghaziabad,Uttar Pradesh,28.6692,77.4538,36.2,26,0.0,974.7,7.6,25.2,168,292.4,60.1,4.3,303.0,211.0,14.3,0,5,10,0,2026-05-02T17:19:16.378457+05:30
Faridabad,Haryana,28.4089,77.3178,37.5,20,0.0,975.2,7.65,26.3,815,614.7,93.1,4.1,300.0,225.0,20.5,0,5,10,0,2026-05-02T17:19:16.378464+05:30
Meerut,Uttar Pradesh,28.9845,77.7064,33.9,34,0.0,974.0,7.5,29.5,168,292.4,60.1,4.3,269.0,211.0,14.3,0,5,7,0,2026-05-02T17:19:16.378472+05:30
Agra,Uttar Pradesh,27.1767,78.0081,34.8,28,0.0,979.9,7.95,45.7,689,845.6,88.5,1.9,200.0,166.0,7.1,0,5,7,0,2026-05-02T17:19:16.378479+05:30
Varanasi,Uttar Pradesh,25.3176,82.9739,35.2,32,0.0,989.8,8.6,34.2,189,73.8,34.2,3.1,333.0,202.0,13.7,0,5,10,1,2026-05-02T17:19:16.378486+05:30
Prayagraj,Uttar Pradesh,25.4358,81.8463,36.5,31,0.0,987.9,8.5,37.1,186,72.6,33.6,3.0,269.0,199.0,11.2,0,5,10,1,2026-05-02T17:19:16.378496+05:30
Gorakhpur,Uttar Pradesh,26.7606,83.3732,31.5,44,0.0,990.6,8.45,31.3,150,87.8,30.7,1.9,324.0,184.0,5.5,0,5,7,1,2026-05-02T17:19:16.378503+05:30
Bareilly,Uttar Pradesh,28.367,79.4304,33.6,34,0.0,979.5,7.9,32.8,164,258.0,57.3,1.5,270.0,195.0,11.8,0,5,7,0,2026-05-02T17:19:16.378510+05:30
Aligarh,Uttar Pradesh,27.8974,78.088,35.0,31,0.0,977.6,7.75,30.6,434,381.8,58.9,1.8,266.0,178.0,11.4,0,5,7,0,2026-05-02T17:19:16.378517+05:30
Moradabad,Uttar Pradesh,28.8386,78.7733,33.4,35,0.0,976.6,7.7,31.3,172,213.7,51.1,3.0,283.0,197.0,20.2,0,5,7,0,2026-05-02T17:19:16.378524+05:30
Saharanpur,Uttar Pradesh,29.9637,77.546,32.2,38,0.0,968.6,7.35,31.7,172,143.4,34.8,4.6,274.0,169.0,7.0,0,5,7,0,2026-05-02T17:19:16.378530+05:30
Jhansi,Uttar Pradesh,25.4484,78.5685,38.4,17,0.0,969.6,8.4,43.2,73,86.8,21.7,1.2,156.0,128.0,5.8,0,5,10,0,2026-05-02T17:19:19.707364+05:30
Surat,Gujarat,21.1702,72.8311,31.9,63,0.0,1001.1,7.7,54.4,65,36.1,19.2,13.1,216.0,69.0,31.7,3,5,4,1,2026-05-02T17:19:19.707395+05:30
Vadodara,Gujarat,22.3072,73.1812,37.8,40,0.0,996.8,8.05,50.4,57,51.8,18.7,2.6,193.0,121.0,6.8,0,5,10,1,2026-05-02T17:19:19.707405+05:30
Rajkot,Gujarat,22.3039,70.8022,39.6,19,0.0,987.5,7.75,55.8,53,83.8,20.5,1.4,141.0,114.0,4.9,0,5,10,0,2026-05-02T17:19:19.707414+05:30
Thane,Maharashtra,19.2183,72.9781,32.5,59,0.0,1004.1,7.9,40.3,74,55.8,22.7,6.5,212.0,90.0,16.3,0,5,4,1,2026-05-02T17:19:19.707422+05:30
Nagpur,Maharashtra,21.1458,79.0882,40.5,15,0.0,966.1,8.95,63.0,99,45.5,15.7,4.4,155.0,127.0,11.6,0,5,10,0,2026-05-02T17:19:19.707430+05:30
Nashik,Maharashtra,19.9975,73.7898,33.8,33,0.0,942.2,8.25,45.4,65,41.3,15.7,1.1,156.0,104.0,3.1,0,5,7,0,2026-05-02T17:19:19.707437+05:30
Aurangabad,Maharashtra,19.8762,75.3433,37.9,17,0.0,939.6,9.05,40.3,57,51.2,15.1,0.9,158.0,108.0,1.7,0,5,10,0,2026-05-02T17:19:19.707445+05:30
Solapur,Maharashtra,17.6599,75.9064,39.5,12,0.0,951.4,9.05,41.0,53,46.3,13.6,0.8,147.0,116.0,1.4,0,5,10,0,2026-05-02T17:19:19.707452+05:30
Kolhapur,Maharashtra,16.705,74.2433,31.7,41,0.0,945.0,8.95,50.4,65,54.5,17.6,2.1,161.0,96.0,1.5,0,5,7,1,2026-05-02T17:19:19.707459+05:30
Goa,Goa,15.2993,74.124,32.2,59,0.0,995.0,8.95,40.7,70,65.9,17.9,0.8,138.0,77.0,0.8,0,5,7,1,2026-05-02T17:19:19.707466+05:30
Jodhpur,Rajasthan,26.2389,73.0243,41.8,13,0.0,973.6,8.3,37.8,121,230.0,31.5,0.9,145.0,122.0,2.4,0,5,10,0,2026-05-02T17:19:19.707474+05:30
Udaipur,Rajasthan,24.5854,73.7125,37.7,16,0.0,940.1,8.8,40.7,56,134.1,24.4,0.7,143.0,128.0,2.6,0,5,10,0,2026-05-02T17:19:19.707481+05:30
Kota,Rajasthan,25.2138,75.8648,40.2,17,0.0,970.5,8.35,40.3,65,72.2,20.2,0.5,162.0,123.0,2.9,0,5,10,0,2026-05-02T17:19:19.707488+05:30
Bikaner,Rajasthan,28.0229,73.3119,41.2,12,0.0,972.2,8.25,40.3,66,105.0,21.0,0.1,151.0,122.0,5.0,0,5,10,0,2026-05-02T17:19:19.707495+05:30
Ajmer,Rajasthan,26.4499,74.6399,38.5,14,0.0,947.3,8.3,43.6,64,92.7,21.8,0.4,151.0,118.0,2.9,0,5,10,0,2026-05-02T17:19:19.707502+05:30
Gwalior,Madhya Pradesh,26.2183,78.1828,38.7,15,0.0,975.1,8.15,44.6,105,106.2,27.1,1.0,188.0,144.0,3.3,0,5,10,0,2026-05-02T17:19:19.707509+05:30
Indore,Madhya Pradesh,22.7196,75.8577,38.2,15,0.0,942.3,8.65,53.3,59,54.7,16.2,1.1,176.0,111.0,2.6,0,5,10,0,2026-05-02T17:19:19.707516+05:30
Bhopal,Madhya Pradesh,23.2599,77.4126,34.9,26,0.0,947.9,8.7,60.1,64,76.6,20.0,0.6,175.0,115.0,2.6,0,5,7,0,2026-05-02T17:19:19.707523+05:30
Jabalpur,Madhya Pradesh,23.1815,79.9864,36.7,22,0.0,955.4,8.85,45.4,81,60.3,18.0,1.6,158.0,119.0,3.3,0,5,10,0,2026-05-02T17:19:19.707531+05:30
Ujjain,Madhya Pradesh,23.1765,75.7885,38.7,14,0.0,947.6,8.6,49.7,57,45.8,13.9,0.6,147.0,109.0,2.4,0,5,10,0,2026-05-02T17:19:19.707538+05:30
Visakhapatnam,Andhra Pradesh,17.6868,83.2185,31.2,75,0.0,998.3,8.85,59.0,62,21.5,17.2,10.1,288.0,93.0,8.8,3,5,7,1,2026-05-02T17:19:19.707545+05:30
Vijayawada,Andhra Pradesh,16.5062,80.648,36.7,39,0.0,996.0,9.2,34.2,116,37.8,21.2,3.6,262.0,162.0,7.5,0,5,10,1,2026-05-02T17:19:19.707552+05:30
Guntur,Andhra Pradesh,16.3067,80.4365,37.0,39,0.0,996.9,9.2,35.3,119,38.3,18.5,2.5,261.0,148.0,6.0,0,5,10,1,2026-05-02T17:19:19.707559+05:30
Nellore,Andhra Pradesh,14.4426,79.9865,35.8,50,0.0,998.6,9.2,49.3,152,31.7,17.0,2.0,255.0,152.0,3.4,0,5,10,1,2026-05-02T17:19:19.707566+05:30
Kurnool,Andhra Pradesh,15.8281,78.0373,40.5,14,0.0,970.6,9.2,32.8,89,34.8,14.3,0.5,149.0,149.0,5.9,0,5,10,0,2026-05-02T17:19:19.707574+05:30
Kakinada,Andhra Pradesh,16.9891,82.2475,34.3,57,0.0,1001.4,9.15,43.6,52,20.7,15.0,2.2,240.0,105.0,2.6,0,5,4,1,2026-05-02T17:19:19.707581+05:30
Tirupati,Andhra Pradesh,13.6288,79.4192,40.5,17,0.0,984.4,9.3,38.9,140,36.0,17.0,5.5,157.0,150.0,3.5,0,5,10,0,2026-05-02T17:19:19.707588+05:30
Warangal,Telangana,17.9689,79.5941,39.1,19,0.0,972.4,9.15,32.4,107,42.0,16.0,0.7,147.0,135.0,6.2,0,5,10,0,2026-05-02T17:19:19.707595+05:30
Nizamabad,Telangana,18.6725,78.0941,40.3,12,0.0,958.1,9.1,31.7,70,41.0,15.5,0.6,168.0,130.0,2.1,0,5,10,0,2026-05-02T17:19:19.707602+05:30
Mysore,Karnataka,12.2958,76.6396,32.3,36,0.0,925.8,9.4,48.6,97,27.1,15.7,5.7,196.0,138.0,1.8,0,5,7,0,2026-05-02T17:19:19.707609+05:30
Mangalore,Karnataka,12.9141,74.856,31.2,64,0.0,1003.8,9.05,43.6,65,31.0,14.4,1.3,138.0,80.0,1.0,3,5,4,1,2026-05-02T17:19:19.707616+05:30
Hubli-Dharwad,Karnataka,15.3647,75.124,31.9,45,0.0,937.6,9.2,52.6,59,50.8,17.6,2.0,168.0,115.0,1.6,0,5,7,1,2026-05-02T17:19:19.707623+05:30
Belgaum,Karnataka,15.8497,74.4977,29.4,54,0.0,923.4,9.2,49.0,61,56.2,17.2,1.6,150.0,90.0,1.4,4,5,7,1,2026-05-02T17:19:22.976647+05:30
Coimbatore,Tamil Nadu,11.0168,76.9558,29.6,64,0.0,958.8,9.1,52.6,101,22.2,18.5,4.3,268.0,119.0,2.5,7,5,7,1,2026-05-02T17:19:22.976680+05:30
Madurai,Tamil Nadu,9.9252,78.1198,32.2,52,0.0,989.9,9.2,51.1,142,24.3,19.4,4.0,216.0,157.0,3.6,0,5,7,1,2026-05-02T17:19:22.976690+05:30
Trichy,Tamil Nadu,10.7905,78.7047,34.4,46,0.0,995.8,9.2,56.2,117,22.0,18.0,3.5,241.0,152.0,3.4,0,5,7,1,2026-05-02T17:19:22.976699+05:30
Salem,Tamil Nadu,11.6643,78.146,33.4,41,0.0,973.5,9.25,61.6,162,33.2,25.2,4.4,258.0,183.0,10.4,0,5,7,1,2026-05-02T17:19:22.976707+05:30
Tirunelveli,Tamil Nadu,8.7139,77.7567,35.6,40,0.0,999.4,9.1,33.5,59,18.1,15.1,3.4,219.0,107.0,1.0,0,5,10,1,2026-05-02T17:19:22.976715+05:30
Vellore,Tamil Nadu,12.9165,79.1325,36.5,32,0.0,978.7,9.3,44.6,142,34.3,20.6,4.3,228.0,156.0,3.7,0,5,10,1,2026-05-02T17:19:22.976723+05:30
Erode,Tamil Nadu,11.341,77.7172,33.8,44,0.0,985.2,9.25,62.3,136,27.5,20.3,5.2,263.0,156.0,1.7,0,5,7,1,2026-05-02T17:19:22.976731+05:30
Kochi,Kerala,9.9312,76.2673,28.2,83,0.1,1006.9,8.1,29.9,74,20.3,14.3,7.3,213.0,81.0,1.5,10,5,4,1,2026-05-02T17:19:22.976739+05:30
Thiruvananthapuram,Kerala,8.5241,76.9366,26.8,87,0.0,1006.5,7.1,34.6,52,16.8,11.2,1.9,182.0,94.0,0.6,7,5,4,1,2026-05-02T17:19:22.976747+05:30
Kozhikode,Kerala,11.2588,75.7804,28.9,84,0.0,1005.5,8.7,39.6,59,28.6,16.2,0.7,147.0,73.0,0.6,7,5,4,1,2026-05-02T17:19:22.976754+05:30
Thrissur,Kerala,10.5276,76.2144,29.8,73,0.0,1004.7,7.8,37.4,70,17.6,12.8,2.3,204.0,90.0,1.3,7,5,4,1,2026-05-02T17:19:22.976763+05:30
Kannur,Kerala,11.8745,75.3704,31.3,68,0.0,1004.5,9.0,50.4,76,27.4,15.3,1.4,139.0,81.0,0.7,3,5,4,1,2026-05-02T17:19:22.976770+05:30
Patna,Bihar,25.5941,85.1376,30.4,54,0.0,993.9,8.65,29.9,168,91.3,40.9,5.3,334.0,187.0,12.2,0,5,7,1,2026-05-02T17:19:22.976777+05:30
Gaya,Bihar,24.7914,85.0002,31.8,46,0.0,987.1,8.75,27.0,174,96.6,36.8,2.8,365.0,184.0,12.5,0,5,7,1,2026-05-02T17:19:22.976783+05:30
Muzaffarpur,Bihar,26.1209,85.3647,28.8,57,0.0,994.2,8.65,30.6,162,75.9,37.4,6.3,339.0,175.0,9.8,4,5,7,1,2026-05-02T17:19:22.976790+05:30
Bhagalpur,Bihar,25.2425,87.0117,27.5,64,0.0,995.7,8.65,29.9,162,75.2,46.3,6.8,358.0,191.0,5.4,7,5,7,1,2026-05-02T17:19:22.976796+05:30
Ranchi,Jharkhand,23.3441,85.3096,28.9,45,0.0,932.3,9.2,46.8,162,61.5,28.1,2.7,209.0,163.0,9.7,4,5,7,0,2026-05-02T17:19:22.976804+05:30
Jamshedpur,Jharkhand,22.8046,86.2029,31.6,39,0.0,984.3,9.0,45.4,202,75.9,44.7,13.8,365.0,187.0,39.6,0,5,7,1,2026-05-02T17:19:22.976810+05:30
Dhanbad,Jharkhand,23.7957,86.4304,29.4,64,0.0,973.9,9.0,29.5,183,96.4,59.8,16.6,470.0,228.0,42.6,7,5,7,1,2026-05-02T17:19:22.976817+05:30
Bokaro,Jharkhand,23.6693,86.1511,30.2,59,0.0,977.5,8.85,40.0,163,86.1,41.2,16.1,481.0,185.0,38.3,0,5,7,1,2026-05-02T17:19:22.976825+05:30
Bhubaneswar,Odisha,20.2961,85.8245,31.5,71,0.0,996.6,9.05,54.7,81,33.9,19.4,4.9,289.0,127.0,4.3,3,5,7,1,2026-05-02T17:19:22.976832+05:30
Cuttack,Odisha,20.4625,85.8828,32.0,69,0.0,998.3,9.1,49.7,81,33.9,19.4,4.9,293.0,127.0,4.3,3,5,7,1,2026-05-02T17:19:22.976838+05:30
Rourkela,Odisha,22.2604,84.8536,34.5,34,0.0,978.1,8.95,56.9,181,59.5,24.7,5.6,385.0,170.0,19.2,0,5,7,1,2026-05-02T17:19:22.976845+05:30
Raipur,Chhattisgarh,21.2514,81.6296,34.0,30,0.0,968.4,9.0,63.0,163,37.3,17.1,7.2,177.0,166.0,5.6,0,5,7,0,2026-05-02T17:19:22.976851+05:30
Bhilai,Chhattisgarh,21.1938,81.3509,35.6,27,0.0,968.7,9.0,51.5,148,41.0,16.9,6.9,321.0,156.0,5.1,0,5,10,0,2026-05-02T17:19:22.976858+05:30
Guwahati,Assam,26.1158,91.7086,22.5,86,0.1,998.0,4.3,22.0,62,18.8,15.8,4.6,332.0,113.0,2.2,6,5,3,1,2026-05-02T17:19:22.976866+05:30
Agartala,Tripura,23.8315,91.2868,20.8,98,0.2,1003.4,8.8,38.2,45,19.2,13.2,6.8,220.0,85.0,2.2,6,5,4,1,2026-05-02T17:19:22.976872+05:30
Shillong,Meghalaya,25.5788,91.8933,15.9,95,0.1,852.1,5.85,37.4,49,8.7,6.1,4.4,238.0,105.0,1.3,6,10,3,0,2026-05-02T17:19:22.976879+05:30
Imphal,Manipur,24.817,93.9368,20.6,80,0.0,919.5,6.3,30.2,56,10.3,6.7,4.6,280.0,80.0,1.2,3,5,7,1,2026-05-02T17:19:22.976886+05:30
Aizawl,Mizoram,23.7271,92.7176,19.3,79,0.0,889.1,9.0,43.6,38,12.6,8.2,2.9,173.0,79.0,0.5,3,5,7,0,2026-05-02T17:19:22.976893+05:30
Kohima,Nagaland,25.6701,94.1077,16.4,97,0.1,850.9,6.0,28.4,47,11.0,7.5,5.1,233.0,83.0,0.7,6,10,3,0,2026-05-02T17:19:22.976901+05:30
Gangtok,Sikkim,27.3314,88.6138,16.2,72,0.0,832.1,4.0,25.9,65,6.9,5.7,2.6,308.0,120.0,0.7,3,5,3,0,2026-05-02T17:19:22.976907+05:30
Siliguri,West Bengal,26.7271,88.3953,23.0,82,0.0,988.5,2.75,22.0,71,9.5,8.4,3.1,460.0,131.0,1.4,3,5,3,1,2026-05-02T17:19:26.254264+05:30
Durgapur,West Bengal,23.5204,87.3119,27.2,73,0.0,989.5,8.9,27.7,187,96.4,73.3,22.3,934.0,227.0,54.1,7,5,7,1,2026-05-02T17:19:26.254305+05:30
Asansol,West Bengal,23.6739,86.9524,29.0,66,0.0,987.8,8.95,27.7,194,97.6,72.4,19.8,428.0,241.0,53.7,7,5,7,1,2026-05-02T17:19:26.254319+05:30
Pondicherry,Puducherry,11.9139,79.8145,31.8,72,0.0,1003.3,9.15,56.5,100,21.6,16.2,3.4,202.0,122.0,3.2,3,5,4,1,2026-05-02T17:19:26.254331+05:30
Port Blair,Andaman and Nicobar Islands,11.6234,92.7265,31.8,56,0.0,1004.5,9.0,32.8,33,12.7,9.2,0.5,151.0,59.0,0.3,0,5,4,1,2026-05-02T17:19:26.254340+05:30
Haridwar,Uttarakhand,29.9457,78.1642,29.0,51,0.0,967.4,7.4,28.4,168,85.9,28.6,1.8,294.0,176.0,6.8,4,5,7,1,2026-05-02T17:19:26.254348+05:30
Rishikesh,Uttarakhand,30.0869,78.2676,28.0,53,0.0,960.2,7.5,29.2,165,82.7,29.6,0.6,270.0,179.0,7.0,4,5,7,1,2026-05-02T17:19:26.254356+05:30
Nainital,Uttarakhand,29.3919,79.4542,15.8,76,0.0,800.9,8.1,41.4,153,108.3,32.5,1.2,262.0,181.0,6.8,3,5,7,0,2026-05-02T17:19:26.254363+05:30
Mussoorie,Uttarakhand,30.4599,78.0664,17.1,66,0.0,798.6,7.9,47.9,174,92.9,33.1,0.5,261.0,186.0,7.9,3,5,7,0,2026-05-02T17:19:26.254372+05:30
Dharamshala,Himachal Pradesh,32.219,76.3234,23.5,38,0.0,864.9,8.25,46.1,123,18.2,10.4,0.2,189.0,155.0,1.3,0,5,7,0,2026-05-02T17:19:26.254380+05:30
Dalhousie,Himachal Pradesh,32.5387,75.971,17.8,49,0.0,801.4,8.5,42.8,140,21.7,10.6,0.0,191.0,165.0,2.5,0,5,7,0,2026-05-02T17:19:26.254388+05:30
Patiala,Punjab,30.3398,76.3869,36.2,22,0.0,970.5,7.5,33.1,253,413.5,51.1,1.2,260.0,161.0,6.8,0,5,10,0,2026-05-02T17:19:26.254396+05:30
Bhatinda,Punjab,30.211,74.9455,39.3,16,0.0,974.7,8.15,36.0,169,91.7,26.9,1.8,234.0,179.0,12.2,0,5,10,0,2026-05-02T17:19:26.254403+05:30
Rohtak,Haryana,28.8955,76.6066,37.8,20,0.0,973.4,7.65,27.7,381,406.1,71.7,0.1,312.0,203.0,11.2,0,5,10,0,2026-05-02T17:19:26.254411+05:30
Panipat,Haryana,29.3909,76.9635,35.9,27,0.0,972.7,7.45,26.3,483,545.8,82.7,2.2,284.0,208.0,20.1,0,5,10,0,2026-05-02T17:19:26.254418+05:30
Mathura,Uttar Pradesh,27.4924,77.6737,36.1,25,0.0,978.8,7.9,35.6,671,534.6,66.1,2.3,198.0,165.0,5.7,0,5,10,0,2026-05-02T17:19:26.254425+05:30
Vrindavan,Uttar Pradesh,27.5823,77.7027,36.5,22,0.0,979.1,7.85,31.7,671,534.6,66.1,2.3,215.0,165.0,5.7,0,5,10,0,2026-05-02T17:19:26.254432+05:30
Ayodhya,Uttar Pradesh,26.7922,82.1998,32.6,40,0.0,988.2,8.25,31.3,150,106.9,29.6,1.0,305.0,178.0,5.6,0,5,7,1,2026-05-02T17:19:26.254439+05:30
Ratlam,Madhya Pradesh,23.3315,75.0367,38.3,15,0.0,948.6,8.55,47.9,55,40.0,12.1,0.5,142.0,110.0,2.2,0,5,10,0,2026-05-02T17:19:26.254447+05:30
Sagar,Madhya Pradesh,23.8388,78.7378,33.8,29,0.0,944.4,8.7,53.6,67,75.2,19.2,0.4,151.0,126.0,3.6,0,5,7,0,2026-05-02T17:19:26.254454+05:30
Satna,Madhya Pradesh,24.6005,80.8322,35.0,24,0.0,964.4,8.7,66.6,113,44.5,13.9,0.4,161.0,139.0,3.5,0,5,7,0,2026-05-02T17:19:26.254461+05:30
Akola,Maharashtra,20.7002,77.0082,39.3,21,0.0,968.4,8.9,45.0,55,95.9,22.8,1.3,145.0,108.0,6.9,0,5,10,0,2026-05-02T17:19:26.254469+05:30
Amravati,Maharashtra,20.9374,77.7796,39.5,17,0.0,960.7,8.9,42.5,53,88.0,21.1,1.5,148.0,112.0,5.7,0,5,10,0,2026-05-02T17:19:26.254477+05:30
Latur,Maharashtra,18.4088,76.5604,39.5,11,0.0,934.5,9.05,32.8,56,42.3,12.5,0.6,135.0,116.0,3.5,0,5,10,0,2026-05-02T17:19:26.254484+05:30
Nanded,Maharashtra,19.1383,77.3091,40.2,13,0.0,962.2,8.95,31.3,61,45.3,14.3,0.5,153.0,124.0,1.5,0,5,10,0,2026-05-02T17:19:26.254491+05:30
Gulbarga,Karnataka,17.3297,76.8343,39.8,13,0.0,952.6,9.1,41.8,55,46.3,13.8,0.0,151.0,123.0,1.8,0,5,10,0,2026-05-02T17:19:26.254498+05:30
Bidar,Karnataka,17.9104,77.5199,38.8,12,0.0,930.2,9.1,34.9,64,41.7,14.0,1.2,121.0,127.0,3.2,0,5,10,0,2026-05-02T17:19:26.254504+05:30
Hospet,Karnataka,15.2689,76.3909,37.8,16,0.0,950.7,9.2,45.4,64,45.6,15.4,1.5,179.0,128.0,1.4,0,5,10,0,2026-05-02T17:19:26.254511+05:30
Tirupur,Tamil Nadu,11.1085,77.3411,32.4,53,0.0,971.5,9.3,48.2,133,26.9,20.7,5.7,256.0,143.0,2.7,0,5,7,1,2026-05-02T17:19:26.254518+05:30
Alappuzha,Kerala,9.4981,76.3388,28.1,81,0.1,1007.0,8.2,26.3,71,25.3,16.9,4.7,165.0,95.0,2.7,10,5,4,1,2026-05-02T17:19:26.254525+05:30
Munnar,Kerala,10.0889,77.0595,19.7,92,0.0,855.8,9.2,24.8,57,22.3,18.0,4.0,231.0,105.0,1.1,3,10,7,1,2026-05-02T17:19:26.254533+05:30
Silchar,Assam,24.8333,92.7789,24.0,82,0.0,1001.8,6.75,27.7,57,13.6,10.6,4.2,225.0,73.0,3.0,3,5,4,1,2026-05-02T17:19:26.254540+05:30
Dibrugarh,Assam,27.4728,94.912,22.2,89,0.1,993.0,7.3,22.7,79,18.3,12.1,4.4,294.0,111.0,1.4,6,5,7,1,2026-05-02T17:19:26.254547+05:30
