city,state,latitude,longitude,temp,humidity,rain,pressure,uv_index,wind_gusts,aqi,pm10,pm2_5,mosquito_risk,arthritis_risk,migraine_risk,frizz_risk,updated_at
Delhi,Delhi,28.6139,77.209,17.3,96,0.0,986.9,7.05,22.0,124,66.4,48.9,3,10,7,1,2026-04-09T05:11:01.998494+05:30
Mumbai,Maharashtra,19.076,72.8777,27.5,80,0.0,1009.2,7.95,20.9,77,89.2,23.5,7,0,4,1,2026-04-09T05:11:01.998538+05:30
Bangalore,Karnataka,12.9716,77.5946,22.5,87,0.0,911.7,9.2,25.9,69,30.9,28.5,3,5,7,1,2026-04-09T05:11:01.998553+05:30
Hyderabad,Telangana,17.385,78.4867,25.2,81,0.0,953.0,9.2,33.5,93,62.4,42.4,7,5,7,1,2026-04-09T05:11:01.998562+05:30
Chennai,Tamil Nadu,13.0827,80.2707,28.5,87,0.0,1007.3,9.35,36.4,72,22.2,15.9,7,5,4,1,2026-04-09T05:11:01.998570+05:30
Kolkata,West Bengal,22.5726,88.3639,23.2,95,0.0,1008.0,8.7,14.8,77,23.0,20.8,3,0,4,1,2026-04-09T05:11:01.998577+05:30
Pune,Maharashtra,18.5204,73.8567,20.8,87,0.0,948.8,8.55,34.2,75,45.6,23.5,3,5,7,1,2026-04-09T05:11:01.998587+05:30
Ahmedabad,Gujarat,23.0225,72.5714,23.2,70,0.0,1003.0,8.0,16.9,71,30.9,23.2,3,5,4,1,2026-04-09T05:11:01.998593+05:30
Jaipur,Rajasthan,26.9124,75.7873,19.7,75,0.0,961.9,7.7,27.0,145,316.6,57.9,3,5,7,0,2026-04-09T05:11:01.998599+05:30
Lucknow,Uttar Pradesh,26.8467,80.9462,18.1,89,0.0,997.5,7.55,35.3,118,85.9,56.0,3,10,7,1,2026-04-09T05:11:01.998606+05:30
Kanpur,Uttar Pradesh,26.4499,80.3319,18.6,88,0.0,995.6,7.6,32.4,123,98.0,57.0,3,10,7,1,2026-04-09T05:11:01.998612+05:30
Chandigarh,Chandigarh,30.7333,76.7794,15.4,88,0.0,972.7,7.05,24.5,66,25.6,20.8,3,10,7,0,2026-04-09T05:11:01.998618+05:30
Srinagar,Jammu and Kashmir,34.0837,74.7973,4.9,90,0.0,838.7,7.95,20.5,38,11.6,11.6,3,10,7,0,2026-04-09T05:11:01.998624+05:30
Jammu,Jammu and Kashmir,32.7266,74.857,14.9,87,0.0,977.4,7.65,27.4,65,29.2,27.4,3,10,7,0,2026-04-09T05:11:01.998630+05:30
Amritsar,Punjab,31.634,74.8723,15.1,92,0.0,985.0,7.6,17.3,80,39.3,29.0,3,10,7,0,2026-04-09T05:11:01.998637+05:30
Ludhiana,Punjab,30.901,75.8573,15.8,94,0.0,983.3,7.25,19.8,83,57.0,43.5,3,10,7,0,2026-04-09T05:11:01.998643+05:30
Jalandhar,Punjab,31.326,75.5762,15.6,94,0.0,984.3,7.4,21.6,85,49.8,36.8,3,10,7,0,2026-04-09T05:11:01.998650+05:30
Dehradun,Uttarakhand,30.6284,78.0322,6.8,86,0.0,827.8,7.4,24.5,46,7.2,5.6,3,10,7,0,2026-04-09T05:11:01.998656+05:30
Shimla,Himachal Pradesh,31.1048,77.1734,5.3,82,0.0,780.7,7.5,28.8,42,14.9,9.7,3,10,7,0,2026-04-09T05:11:01.998662+05:30
Manali,Himachal Pradesh,32.2396,77.1887,7.0,54,0.0,814.4,9.75,24.8,80,4.0,3.3,0,5,7,1,2026-04-09T05:11:01.998667+05:30
Gurgaon,Haryana,28.4595,77.0266,17.2,96,0.0,985.1,7.15,18.4,136,58.8,49.1,3,10,7,1,2026-04-09T05:11:01.998672+05:30
Noida,Uttar Pradesh,28.5355,77.391,17.2,97,0.0,988.6,7.1,20.5,136,58.8,49.1,3,10,7,1,2026-04-09T05:11:01.998678+05:30
Ghaziabad,Uttar Pradesh,28.6692,77.4538,16.6,98,0.0,986.7,7.05,21.6,105,75.2,46.1,3,10,7,1,2026-04-09T05:11:01.998683+05:30
Faridabad,Haryana,28.4089,77.3178,17.2,97,0.0,987.7,7.15,18.7,136,58.8,49.1,3,10,7,1,2026-04-09T05:11:01.998688+05:30
Meerut,Uttar Pradesh,28.9845,77.7064,16.2,98,0.0,985.7,6.95,26.3,105,75.2,46.1,3,10,7,0,2026-04-09T05:11:01.998693+05:30
Agra,Uttar Pradesh,27.1767,78.0081,17.7,96,0.0,991.8,7.45,23.0,492,409.8,79.6,3,10,7,1,2026-04-09T05:11:01.998699+05:30
Varanasi,Uttar Pradesh,25.3176,82.9739,20.0,81,0.0,1001.2,8.2,31.3,103,66.1,49.7,3,5,4,1,2026-04-09T05:11:01.998706+05:30
Prayagraj,Uttar Pradesh,25.4358,81.8463,20.3,81,0.0,999.7,8.05,27.4,105,68.9,50.2,3,5,7,1,2026-04-09T05:11:01.998711+05:30
Gorakhpur,Uttar Pradesh,26.7606,83.3732,17.3,85,0.0,1001.0,7.95,32.4,129,116.6,90.6,3,10,4,0,2026-04-09T05:11:01.998717+05:30
Bareilly,Uttar Pradesh,28.367,79.4304,15.3,97,0.0,991.2,7.3,30.6,95,59.4,36.0,3,10,7,0,2026-04-09T05:11:01.998724+05:30
Aligarh,Uttar Pradesh,27.8974,78.088,17.0,98,0.0,989.8,7.2,27.0,105,72.4,46.8,3,10,7,1,2026-04-09T05:11:01.998729+05:30
Moradabad,Uttar Pradesh,28.8386,78.7733,15.2,96,0.0,988.0,7.15,30.2,104,63.8,45.5,3,10,7,0,2026-04-09T05:11:01.998734+05:30
Saharanpur,Uttar Pradesh,29.9637,77.546,15.5,95,0.0,980.0,6.75,27.0,88,51.3,42.5,3,10,7,0,2026-04-09T05:11:01.998741+05:30
Jhansi,Uttar Pradesh,25.4484,78.5685,19.1,88,0.0,980.9,8.0,25.9,82,175.1,50.5,3,10,7,1,2026-04-09T05:11:05.270281+05:30
Surat,Gujarat,21.1702,72.8311,25.9,78,0.0,1007.7,7.7,28.1,72,49.5,27.4,7,5,4,1,2026-04-09T05:11:05.270310+05:30
Vadodara,Gujarat,22.3072,73.1812,25.0,64,0.0,1005.2,8.0,20.5,64,21.9,15.9,7,5,4,1,2026-04-09T05:11:05.270319+05:30
Rajkot,Gujarat,22.3039,70.8022,22.1,88,0.0,995.1,7.7,21.6,54,33.5,18.2,3,5,7,1,2026-04-09T05:11:05.270327+05:30
Thane,Maharashtra,19.2183,72.9781,26.6,81,0.0,1008.8,7.95,34.9,77,89.2,23.5,7,0,4,1,2026-04-09T05:11:05.270335+05:30
Nagpur,Maharashtra,21.1458,79.0882,23.2,62,0.0,973.4,8.75,21.2,84,66.6,33.6,3,5,7,0,2026-04-09T05:11:05.270344+05:30
Nashik,Maharashtra,19.9975,73.7898,21.7,91,0.0,946.3,8.2,25.9,65,50.1,20.3,3,5,7,1,2026-04-09T05:11:05.270351+05:30
Aurangabad,Maharashtra,19.8762,75.3433,21.9,82,0.0,944.7,8.9,29.9,65,45.9,17.7,3,5,7,1,2026-04-09T05:11:05.270359+05:30
Solapur,Maharashtra,17.6599,75.9064,24.4,61,0.0,957.3,8.95,22.7,71,37.3,22.2,3,5,7,1,2026-04-09T05:11:05.270366+05:30
Kolhapur,Maharashtra,16.705,74.2433,19.6,93,0.0,947.6,9.0,38.2,78,46.4,22.1,3,10,7,1,2026-04-09T05:11:05.270374+05:30
Goa,Goa,15.2993,74.124,26.9,81,0.0,998.4,8.95,36.4,71,58.7,25.9,7,5,7,1,2026-04-09T05:11:05.270381+05:30
Jodhpur,Rajasthan,26.2389,73.0243,21.8,52,0.0,984.9,7.95,27.7,102,99.4,19.6,0,5,7,0,2026-04-09T05:11:05.270387+05:30
Udaipur,Rajasthan,24.5854,73.7125,19.1,57,0.0,946.9,8.5,40.3,62,67.1,23.6,0,5,7,0,2026-04-09T05:11:05.270394+05:30
Kota,Rajasthan,25.2138,75.8648,21.6,66,0.0,980.3,8.0,20.5,120,88.7,36.4,3,5,7,0,2026-04-09T05:11:05.270401+05:30
Bikaner,Rajasthan,28.0229,73.3119,21.5,49,0.0,984.6,7.8,21.6,63,191.4,40.2,0,5,7,0,2026-04-09T05:11:05.270407+05:30
Ajmer,Rajasthan,26.4499,74.6399,20.8,59,0.0,955.8,7.95,25.2,79,99.4,27.0,0,5,7,0,2026-04-09T05:11:05.270414+05:30
Gwalior,Madhya Pradesh,26.2183,78.1828,19.3,87,0.0,986.7,7.75,26.6,88,231.4,60.1,3,10,7,1,2026-04-09T05:11:05.270422+05:30
Indore,Madhya Pradesh,22.7196,75.8577,20.7,73,0.0,948.4,8.4,23.8,73,44.2,29.3,3,5,7,0,2026-04-09T05:11:05.270428+05:30
Bhopal,Madhya Pradesh,23.2599,77.4126,20.9,66,0.0,954.5,8.4,26.6,71,44.0,20.2,3,5,7,0,2026-04-09T05:11:05.270435+05:30
Jabalpur,Madhya Pradesh,23.1815,79.9864,21.8,76,0.0,962.3,8.55,26.6,121,97.3,62.2,3,5,7,1,2026-04-09T05:11:05.270442+05:30
Ujjain,Madhya Pradesh,23.1765,75.7885,20.6,70,0.0,954.4,8.35,23.0,69,44.2,29.8,3,5,7,0,2026-04-09T05:11:05.270449+05:30
Visakhapatnam,Andhra Pradesh,17.6868,83.2185,26.7,93,0.0,1003.8,9.1,43.9,93,39.2,36.1,7,5,4,1,2026-04-09T05:11:05.270456+05:30
Vijayawada,Andhra Pradesh,16.5062,80.648,27.7,89,0.0,1002.5,9.15,30.6,97,22.8,19.6,7,5,4,1,2026-04-09T05:11:05.270463+05:30
Guntur,Andhra Pradesh,16.3067,80.4365,27.8,88,0.0,1003.4,9.0,33.1,96,21.2,18.2,7,5,4,1,2026-04-09T05:11:05.270470+05:30
Nellore,Andhra Pradesh,14.4426,79.9865,28.0,86,0.0,1005.3,9.3,33.8,84,23.4,20.8,7,5,4,1,2026-04-09T05:11:05.270478+05:30
Kurnool,Andhra Pradesh,15.8281,78.0373,27.8,74,0.0,976.4,9.2,28.1,75,36.0,31.8,7,5,7,1,2026-04-09T05:11:05.270485+05:30
Kakinada,Andhra Pradesh,16.9891,82.2475,26.9,94,0.0,1007.9,9.15,29.2,81,33.1,26.9,7,5,4,1,2026-04-09T05:11:05.270492+05:30
Tirupati,Andhra Pradesh,13.6288,79.4192,26.9,89,0.0,992.0,8.75,33.8,102,38.9,36.3,7,5,7,1,2026-04-09T05:11:05.270499+05:30
Warangal,Telangana,17.9689,79.5941,26.6,88,0.0,978.3,9.05,24.5,103,42.1,40.9,7,5,7,1,2026-04-09T05:11:05.270506+05:30
Nizamabad,Telangana,18.6725,78.0941,24.9,63,0.0,965.0,8.95,26.6,90,45.6,28.5,3,5,7,1,2026-04-09T05:11:05.270512+05:30
Mysore,Karnataka,12.2958,76.6396,22.7,89,0.0,928.7,9.55,34.6,46,21.4,15.7,3,5,7,1,2026-04-09T05:11:05.270519+05:30
Mangalore,Karnataka,12.9141,74.856,28.8,79,0.0,1007.1,9.15,35.3,68,57.9,27.0,7,5,4,1,2026-04-09T05:11:05.270526+05:30
Hubli-Dharwad,Karnataka,15.3647,75.124,21.2,95,0.0,940.5,9.2,40.0,64,41.2,19.6,3,5,7,1,2026-04-09T05:11:05.270534+05:30
Belgaum,Karnataka,15.8497,74.4977,18.5,96,0.0,924.7,9.2,36.4,75,66.8,24.7,3,10,7,1,2026-04-09T05:11:08.531854+05:30
Coimbatore,Tamil Nadu,11.0168,76.9558,24.5,75,0.0,962.2,9.5,43.6,49,12.4,11.2,3,5,7,1,2026-04-09T05:11:08.531883+05:30
Madurai,Tamil Nadu,9.9252,78.1198,26.4,84,0.0,993.4,9.4,32.4,95,38.9,35.2,7,5,7,1,2026-04-09T05:11:08.531922+05:30
Trichy,Tamil Nadu,10.7905,78.7047,27.0,91,0.0,1000.5,9.4,25.9,87,23.5,20.8,7,5,4,1,2026-04-09T05:11:08.531940+05:30
Salem,Tamil Nadu,11.6643,78.146,24.7,87,0.0,977.9,9.3,36.4,68,32.5,29.6,3,5,7,1,2026-04-09T05:11:08.531949+05:30
Tirunelveli,Tamil Nadu,8.7139,77.7567,26.7,82,0.0,1003.3,8.9,35.6,69,15.9,12.9,7,5,4,1,2026-04-09T05:11:08.531956+05:30
Vellore,Tamil Nadu,12.9165,79.1325,26.6,86,0.0,985.1,9.45,23.0,118,53.8,50.5,7,5,7,1,2026-04-09T05:11:08.531964+05:30
Erode,Tamil Nadu,11.341,77.7172,26.3,83,0.0,989.8,8.85,24.5,58,24.9,23.5,7,5,7,1,2026-04-09T05:11:08.531971+05:30
Kochi,Kerala,9.9312,76.2673,28.8,77,0.0,1009.1,8.55,30.2,63,28.8,26.3,7,0,4,1,2026-04-09T05:11:08.531978+05:30
Thiruvananthapuram,Kerala,8.5241,76.9366,28.6,80,0.0,1008.2,9.1,36.0,52,19.3,11.4,7,0,4,1,2026-04-09T05:11:08.531985+05:30
Kozhikode,Kerala,11.2588,75.7804,28.4,83,0.0,1008.4,9.15,29.9,55,68.5,25.6,7,0,4,1,2026-04-09T05:11:08.531992+05:30
Thrissur,Kerala,10.5276,76.2144,27.2,86,0.0,1007.4,8.6,32.8,61,26.3,23.8,7,5,4,1,2026-04-09T05:11:08.532000+05:30
Kannur,Kerala,11.8745,75.3704,27.9,81,0.0,1007.7,9.15,36.7,60,48.5,25.0,7,5,4,1,2026-04-09T05:11:08.532007+05:30
Patna,Bihar,25.5941,85.1376,20.7,87,0.0,1003.8,8.3,27.4,98,58.0,48.8,3,5,4,1,2026-04-09T05:11:08.532014+05:30
Gaya,Bihar,24.7914,85.0002,21.7,91,0.0,996.6,8.4,22.3,102,57.4,46.2,3,5,7,1,2026-04-09T05:11:08.532020+05:30
Muzaffarpur,Bihar,26.1209,85.3647,19.0,89,0.0,1003.9,8.25,20.5,117,50.8,43.5,3,10,4,1,2026-04-09T05:11:08.532027+05:30
Bhagalpur,Bihar,25.2425,87.0117,20.3,90,0.0,1004.9,8.3,23.4,109,28.2,24.9,3,5,4,1,2026-04-09T05:11:08.532034+05:30
Ranchi,Jharkhand,23.3441,85.3096,19.7,92,0.0,938.7,8.95,30.6,112,115.5,58.9,3,10,7,1,2026-04-09T05:11:08.532041+05:30
Jamshedpur,Jharkhand,22.8046,86.2029,22.2,92,0.0,993.2,8.8,17.6,103,44.0,39.8,3,5,7,1,2026-04-09T05:11:08.532047+05:30
Dhanbad,Jharkhand,23.7957,86.4304,21.9,91,0.0,981.9,8.5,23.4,152,77.3,71.0,3,5,7,1,2026-04-09T05:11:08.532054+05:30
Bokaro,Jharkhand,23.6693,86.1511,21.8,92,0.0,986.1,8.3,23.8,155,86.1,75.2,3,5,7,1,2026-04-09T05:11:08.532060+05:30
Bhubaneswar,Odisha,20.2961,85.8245,26.2,94,0.0,1002.6,9.0,29.2,74,31.4,28.8,7,5,4,1,2026-04-09T05:11:08.532067+05:30
Cuttack,Odisha,20.4625,85.8828,25.7,96,0.0,1004.8,9.05,28.4,74,31.4,28.8,7,5,4,1,2026-04-09T05:11:08.532074+05:30
Rourkela,Odisha,22.2604,84.8536,22.3,90,0.0,987.0,8.75,23.0,119,105.5,53.3,3,5,7,1,2026-04-09T05:11:08.532081+05:30
Raipur,Chhattisgarh,21.2514,81.6296,25.7,58,0.0,974.9,8.85,27.0,108,73.3,41.6,4,5,7,1,2026-04-09T05:11:08.532087+05:30
Bhilai,Chhattisgarh,21.1938,81.3509,25.5,61,0.0,975.2,8.85,24.8,101,79.4,48.9,7,5,7,1,2026-04-09T05:11:08.532094+05:30
Guwahati,Assam,26.1158,91.7086,22.2,88,0.0,1004.7,7.85,22.7,71,29.6,25.8,3,5,4,1,2026-04-09T05:11:08.532101+05:30
Agartala,Tripura,23.8315,91.2868,21.2,96,0.0,1008.7,8.45,19.1,106,37.4,35.6,3,0,4,1,2026-04-09T05:11:08.532108+05:30
Shillong,Meghalaya,25.5788,91.8933,11.1,92,0.0,855.4,8.2,42.5,57,19.8,15.1,3,10,7,0,2026-04-09T05:11:08.532115+05:30
Imphal,Manipur,24.817,93.9368,15.6,83,0.0,925.1,8.15,58.0,71,42.1,39.1,3,10,7,0,2026-04-09T05:11:08.532121+05:30
Aizawl,Mizoram,23.7271,92.7176,16.2,91,0.1,893.9,8.05,49.3,64,24.7,22.6,6,10,7,0,2026-04-09T05:11:08.532128+05:30
Kohima,Nagaland,25.6701,94.1077,13.5,71,0.0,855.4,8.1,70.9,53,20.3,17.9,3,5,7,0,2026-04-09T05:11:08.532135+05:30
Gangtok,Sikkim,27.3314,88.6138,10.7,82,0.0,836.5,8.1,22.7,62,17.8,14.4,3,10,7,0,2026-04-09T05:11:08.532141+05:30
Siliguri,West Bengal,26.7271,88.3953,18.6,71,0.0,996.6,8.05,26.3,82,26.3,21.1,3,5,7,0,2026-04-09T05:11:11.811852+05:30
Durgapur,West Bengal,23.5204,87.3119,22.4,95,0.2,997.2,8.7,18.0,121,57.2,53.4,6,5,7,1,2026-04-09T05:11:11.811889+05:30
Asansol,West Bengal,23.6739,86.9524,22.6,93,0.1,995.6,8.7,18.4,123,60.5,55.4,6,5,7,1,2026-04-09T05:11:11.811912+05:30
Pondicherry,Puducherry,11.9139,79.8145,27.4,93,0.0,1009.1,9.3,34.2,72,22.2,15.7,7,0,4,1,2026-04-09T05:11:11.811924+05:30
Port Blair,Andaman and Nicobar Islands,11.6234,92.7265,28.5,80,0.0,1008.2,9.25,11.5,31,7.8,6.0,7,0,4,1,2026-04-09T05:11:11.811934+05:30
Haridwar,Uttarakhand,29.9457,78.1642,14.3,92,0.0,978.5,6.9,29.9,69,27.0,24.2,3,10,7,0,2026-04-09T05:11:11.811944+05:30
Rishikesh,Uttarakhand,30.0869,78.2676,13.3,90,0.0,970.8,6.95,33.1,55,17.8,13.6,3,10,7,0,2026-04-09T05:11:11.811954+05:30
Nainital,Uttarakhand,29.3919,79.4542,10.4,70,0.0,804.0,7.8,41.4,59,18.0,11.1,3,5,7,0,2026-04-09T05:11:11.811963+05:30
Mussoorie,Uttarakhand,30.4599,78.0664,8.1,81,0.0,800.2,7.25,26.6,66,20.7,17.5,3,10,7,0,2026-04-09T05:11:11.811972+05:30
Dharamshala,Himachal Pradesh,32.219,76.3234,12.1,63,0.0,868.4,7.5,21.6,61,3.5,2.8,3,5,7,0,2026-04-09T05:11:11.811982+05:30
Dalhousie,Himachal Pradesh,32.5387,75.971,8.1,65,0.0,801.0,7.7,18.4,55,23.2,18.9,3,5,7,0,2026-04-09T05:11:11.811994+05:30
Patiala,Punjab,30.3398,76.3869,16.0,96,0.0,982.3,6.9,23.0,76,40.2,29.0,3,10,7,0,2026-04-09T05:11:11.812004+05:30
Bhatinda,Punjab,30.211,74.9455,17.0,91,0.0,987.5,7.6,25.2,96,39.5,34.9,3,10,7,0,2026-04-09T05:11:11.812015+05:30
Rohtak,Haryana,28.8955,76.6066,16.6,98,0.0,985.5,7.05,21.6,143,68.5,52.4,3,10,7,1,2026-04-09T05:11:11.812025+05:30
Panipat,Haryana,29.3909,76.9635,16.1,98,0.0,984.4,6.9,20.2,122,61.5,46.0,3,10,7,0,2026-04-09T05:11:11.812036+05:30
Mathura,Uttar Pradesh,27.4924,77.6737,17.6,94,0.0,990.9,7.35,22.7,273,260.8,65.9,3,10,7,1,2026-04-09T05:11:11.812046+05:30
Vrindavan,Uttar Pradesh,27.5823,77.7027,17.4,96,0.0,991.3,7.35,23.8,273,260.8,65.9,3,10,7,1,2026-04-09T05:11:11.812057+05:30
Ayodhya,Uttar Pradesh,26.7922,82.1998,17.2,89,0.0,999.4,7.7,33.8,108,81.3,56.6,3,10,7,0,2026-04-09T05:11:11.812067+05:30
Ratlam,Madhya Pradesh,23.3315,75.0367,22.1,80,0.0,955.2,8.25,27.4,63,40.5,22.4,3,5,7,1,2026-04-09T05:11:11.812077+05:30
Sagar,Madhya Pradesh,23.8388,78.7378,20.6,72,0.0,951.4,8.4,25.9,69,49.7,21.4,3,5,7,0,2026-04-09T05:11:11.812088+05:30
Satna,Madhya Pradesh,24.6005,80.8322,20.9,79,0.0,973.7,8.4,24.8,79,67.1,36.6,3,5,7,1,2026-04-09T05:11:11.812098+05:30
Akola,Maharashtra,20.7002,77.0082,23.6,67,0.0,975.9,8.7,29.5,67,37.7,21.6,3,5,7,1,2026-04-09T05:11:11.812109+05:30
Amravati,Maharashtra,20.9374,77.7796,23.5,63,0.0,967.8,8.7,20.2,67,34.3,21.0,3,5,7,0,2026-04-09T05:11:11.812120+05:30
Latur,Maharashtra,18.4088,76.5604,21.2,71,0.0,939.9,8.95,28.8,72,43.9,25.1,3,5,7,0,2026-04-09T05:11:11.812130+05:30
Nanded,Maharashtra,19.1383,77.3091,23.4,70,0.0,969.2,8.85,21.2,73,36.6,22.4,3,5,7,1,2026-04-09T05:11:11.812140+05:30
Gulbarga,Karnataka,17.3297,76.8343,26.2,47,0.0,958.8,9.05,32.0,76,30.9,20.8,4,5,7,0,2026-04-09T05:11:11.812150+05:30
Bidar,Karnataka,17.9104,77.5199,24.2,53,0.0,935.6,9.05,34.2,90,69.8,35.9,0,5,7,0,2026-04-09T05:11:11.812161+05:30
Hospet,Karnataka,15.2689,76.3909,25.9,76,0.0,956.0,9.2,21.6,61,34.3,21.2,7,5,7,1,2026-04-09T05:11:11.812170+05:30
Tirupur,Tamil Nadu,11.1085,77.3411,26.1,76,0.0,975.9,9.1,34.9,56,18.7,17.2,7,5,7,1,2026-04-09T05:11:11.812180+05:30
Alappuzha,Kerala,9.4981,76.3388,28.3,81,0.0,1009.2,8.65,28.8,58,25.0,18.6,7,0,4,1,2026-04-09T05:11:11.812198+05:30
Munnar,Kerala,10.0889,77.0595,20.5,91,0.0,856.9,7.85,32.8,62,21.0,18.9,3,5,7,1,2026-04-09T05:11:11.812208+05:30
Silchar,Assam,24.8333,92.7789,20.5,88,0.2,1008.5,4.65,26.6,83,31.7,29.2,6,0,0,1,2026-04-09T05:11:11.812219+05:30
Dibrugarh,Assam,27.4728,94.912,20.5,83,0.0,999.5,6.2,18.0,82,38.5,32.4,3,5,7,1,2026-04-09T05:11:11.812230+05:30
