city,state,latitude,longitude,temp,humidity,rain,pressure,uv_index,wind_gusts,aqi,pm10,pm2_5,mosquito_risk,arthritis_risk,migraine_risk,frizz_risk,updated_at
Delhi,Delhi,28.6139,77.209,31.3,39,0.0,984.5,5.4,28.4,148,122.0,25.3,0,5,3,0,2026-03-31T14:34:36.503756+05:30
Mumbai,Maharashtra,19.076,72.8777,27.9,78,0.0,1008.0,8.0,25.2,67,27.9,18.5,7,0,4,1,2026-03-31T14:34:36.503796+05:30
Bangalore,Karnataka,12.9716,77.5946,33.2,29,0.0,911.5,9.55,24.8,96,32.1,23.1,0,5,7,0,2026-03-31T14:34:36.503811+05:30
Hyderabad,Telangana,17.385,78.4867,32.2,46,0.0,953.8,9.05,37.4,104,37.6,30.9,0,5,7,1,2026-03-31T14:34:36.503821+05:30
Chennai,Tamil Nadu,13.0827,80.2707,33.2,52,0.0,1007.0,9.25,30.2,49,16.1,12.2,0,5,4,1,2026-03-31T14:34:36.503830+05:30
Kolkata,West Bengal,22.5726,88.3639,31.0,72,0.0,1006.0,7.6,27.0,88,35.5,29.8,3,5,4,1,2026-03-31T14:34:36.503838+05:30
Pune,Maharashtra,18.5204,73.8567,34.9,36,0.0,948.1,8.55,31.0,93,35.2,26.0,0,5,7,1,2026-03-31T14:34:36.503854+05:30
Ahmedabad,Gujarat,23.0225,72.5714,36.3,34,0.0,1001.3,7.8,27.4,68,35.7,17.3,0,5,7,1,2026-03-31T14:34:36.503861+05:30
Jaipur,Rajasthan,26.9124,75.7873,29.9,45,0.0,961.6,7.45,50.4,62,109.0,17.4,4,5,7,1,2026-03-31T14:34:36.503871+05:30
Lucknow,Uttar Pradesh,26.8467,80.9462,36.4,24,0.0,993.0,7.3,27.0,152,86.8,22.3,0,5,10,0,2026-03-31T14:34:36.503879+05:30
Kanpur,Uttar Pradesh,26.4499,80.3319,34.5,31,0.0,992.2,7.25,28.1,502,304.5,40.5,0,5,7,0,2026-03-31T14:34:36.503888+05:30
Chandigarh,Chandigarh,30.7333,76.7794,30.5,32,0.0,969.8,6.05,23.0,111,83.4,26.4,0,5,7,0,2026-03-31T14:34:36.503896+05:30
Srinagar,Jammu and Kashmir,34.0837,74.7973,16.7,58,0.0,843.5,7.65,16.9,71,20.0,8.4,0,5,7,0,2026-03-31T14:34:36.503903+05:30
Jammu,Jammu and Kashmir,32.7266,74.857,33.3,23,0.0,973.5,6.8,38.2,71,80.8,22.7,0,5,7,0,2026-03-31T14:34:36.503911+05:30
Amritsar,Punjab,31.634,74.8723,30.5,37,0.0,981.9,6.35,28.4,145,110.8,31.2,0,5,7,0,2026-03-31T14:34:36.503918+05:30
Ludhiana,Punjab,30.901,75.8573,31.7,32,0.0,979.6,6.35,20.2,304,123.9,33.4,0,5,7,0,2026-03-31T14:34:36.503924+05:30
Jalandhar,Punjab,31.326,75.5762,31.8,31,0.0,980.6,6.35,27.0,199,119.7,31.9,0,5,7,0,2026-03-31T14:34:36.503933+05:30
Dehradun,Uttarakhand,30.6284,78.0322,21.7,36,0.0,832.5,6.5,34.9,44,15.0,5.6,0,5,7,0,2026-03-31T14:34:36.503940+05:30
Shimla,Himachal Pradesh,31.1048,77.1734,18.7,55,0.0,787.2,6.5,32.4,55,32.7,12.6,0,5,7,0,2026-03-31T14:34:36.503946+05:30
Manali,Himachal Pradesh,32.2396,77.1887,21.2,36,0.0,822.0,9.0,35.6,65,5.7,2.7,0,5,7,0,2026-03-31T14:34:36.503953+05:30
Gurgaon,Haryana,28.4595,77.0266,31.4,39,0.0,983.0,5.95,27.0,364,497.3,59.8,0,5,3,0,2026-03-31T14:34:36.503959+05:30
Noida,Uttar Pradesh,28.5355,77.391,31.8,38,0.0,986.0,5.7,27.0,364,497.3,59.8,0,5,3,0,2026-03-31T14:34:36.503965+05:30
Ghaziabad,Uttar Pradesh,28.6692,77.4538,31.6,36,0.0,984.2,5.6,25.2,134,83.8,21.1,0,5,3,0,2026-03-31T14:34:36.503971+05:30
Faridabad,Haryana,28.4089,77.3178,31.7,39,0.0,985.3,5.95,29.5,364,497.3,59.8,0,5,3,1,2026-03-31T14:34:36.503977+05:30
Meerut,Uttar Pradesh,28.9845,77.7064,31.9,32,0.0,982.7,5.8,28.1,134,83.8,21.1,0,5,3,0,2026-03-31T14:34:36.503983+05:30
Agra,Uttar Pradesh,27.1767,78.0081,33.9,28,0.0,989.2,7.15,31.7,482,426.5,42.0,0,5,7,0,2026-03-31T14:34:36.503991+05:30
Varanasi,Uttar Pradesh,25.3176,82.9739,37.3,25,0.0,996.8,7.65,29.9,136,125.3,38.6,0,5,10,0,2026-03-31T14:34:36.503999+05:30
Prayagraj,Uttar Pradesh,25.4358,81.8463,37.2,24,0.0,995.6,7.8,26.6,142,83.1,29.0,0,5,10,0,2026-03-31T14:34:36.504006+05:30
Gorakhpur,Uttar Pradesh,26.7606,83.3732,34.5,38,0.0,996.8,7.45,22.0,158,54.4,27.2,0,5,7,1,2026-03-31T14:34:36.504013+05:30
Bareilly,Uttar Pradesh,28.367,79.4304,34.1,30,0.0,986.9,6.4,32.0,100,28.8,11.8,0,5,7,0,2026-03-31T14:34:36.504019+05:30
Aligarh,Uttar Pradesh,27.8974,78.088,32.4,36,0.0,987.3,6.45,36.7,525,178.8,34.9,0,5,7,0,2026-03-31T14:34:36.504025+05:30
Moradabad,Uttar Pradesh,28.8386,78.7733,33.0,30,0.0,984.1,6.3,29.9,112,52.7,17.8,0,5,7,0,2026-03-31T14:34:36.504031+05:30
Saharanpur,Uttar Pradesh,29.9637,77.546,30.9,32,0.0,976.5,5.7,26.3,153,100.8,29.1,0,5,3,0,2026-03-31T14:34:36.504039+05:30
Jhansi,Uttar Pradesh,25.4484,78.5685,37.0,21,0.0,978.2,7.75,32.8,53,30.4,13.9,0,5,10,0,2026-03-31T14:34:39.728529+05:30
Surat,Gujarat,21.1702,72.8311,31.1,62,0.0,1006.7,7.8,28.8,88,49.5,36.2,3,5,4,1,2026-03-31T14:34:39.728559+05:30
Vadodara,Gujarat,22.3072,73.1812,37.5,33,0.0,1003.3,8.0,28.4,89,35.5,25.0,0,5,7,1,2026-03-31T14:34:39.728570+05:30
Rajkot,Gujarat,22.3039,70.8022,35.2,32,0.0,993.8,7.75,40.0,58,47.6,18.9,0,5,10,1,2026-03-31T14:34:39.728578+05:30
Thane,Maharashtra,19.2183,72.9781,31.0,61,0.0,1007.7,8.05,37.4,67,27.9,18.5,3,5,4,1,2026-03-31T14:34:39.728586+05:30
Nagpur,Maharashtra,21.1458,79.0882,35.8,31,0.0,973.5,8.3,20.2,63,30.9,21.8,0,5,10,0,2026-03-31T14:34:39.728594+05:30
Nashik,Maharashtra,19.9975,73.7898,34.0,37,0.0,945.5,8.25,29.5,67,23.1,14.3,0,5,7,1,2026-03-31T14:34:39.728601+05:30
Aurangabad,Maharashtra,19.8762,75.3433,34.7,32,0.0,944.2,8.75,22.7,66,28.5,20.1,0,5,7,0,2026-03-31T14:34:39.728609+05:30
Solapur,Maharashtra,17.6599,75.9064,34.1,37,0.0,957.2,8.9,24.8,93,39.1,30.0,0,5,7,1,2026-03-31T14:34:39.728617+05:30
Kolhapur,Maharashtra,16.705,74.2433,33.7,38,0.0,947.7,8.9,34.9,96,45.9,36.6,0,5,7,1,2026-03-31T14:34:39.728625+05:30
Goa,Goa,15.2993,74.124,33.0,53,0.0,997.0,9.0,32.8,77,36.0,23.1,0,5,7,1,2026-03-31T14:34:39.728632+05:30
Jodhpur,Rajasthan,26.2389,73.0243,34.3,31,0.0,983.0,7.7,36.4,69,98.7,16.6,0,5,7,0,2026-03-31T14:34:39.728640+05:30
Udaipur,Rajasthan,24.5854,73.7125,32.2,29,0.0,946.8,8.35,37.1,39,16.2,7.0,0,5,7,0,2026-03-31T14:34:39.728647+05:30
Kota,Rajasthan,25.2138,75.8648,37.1,25,0.0,978.4,7.8,42.5,54,24.2,13.1,0,5,10,0,2026-03-31T14:34:39.728654+05:30
Bikaner,Rajasthan,28.0229,73.3119,30.6,43,0.0,982.9,7.35,38.5,73,55.1,17.1,0,5,7,1,2026-03-31T14:34:39.728662+05:30
Ajmer,Rajasthan,26.4499,74.6399,32.2,37,0.0,955.2,7.7,37.1,42,22.8,8.1,0,5,7,0,2026-03-31T14:34:39.728668+05:30
Gwalior,Madhya Pradesh,26.2183,78.1828,32.9,36,0.0,984.3,7.45,26.3,49,13.6,6.3,0,5,7,0,2026-03-31T14:34:39.728676+05:30
Indore,Madhya Pradesh,22.7196,75.8577,35.5,25,0.0,948.0,8.3,26.3,51,18.7,11.8,0,5,10,0,2026-03-31T14:34:39.728683+05:30
Bhopal,Madhya Pradesh,23.2599,77.4126,36.3,22,0.0,953.7,8.25,26.6,51,21.7,11.7,0,5,10,0,2026-03-31T14:34:39.728690+05:30
Jabalpur,Madhya Pradesh,23.1815,79.9864,35.8,29,0.0,962.0,8.35,18.0,65,66.6,18.5,0,5,10,0,2026-03-31T14:34:39.728698+05:30
Ujjain,Madhya Pradesh,23.1765,75.7885,35.6,25,0.0,953.6,8.2,27.7,50,16.8,10.0,0,5,10,0,2026-03-31T14:34:39.728706+05:30
Visakhapatnam,Andhra Pradesh,17.6868,83.2185,33.0,52,0.0,1003.8,9.05,34.6,64,26.7,22.4,0,5,4,1,2026-03-31T14:34:39.728713+05:30
Vijayawada,Andhra Pradesh,16.5062,80.648,34.7,45,0.0,1002.3,9.05,23.8,63,26.7,21.2,0,5,4,1,2026-03-31T14:34:39.728721+05:30
Guntur,Andhra Pradesh,16.3067,80.4365,35.2,46,0.0,1003.3,9.1,27.7,62,25.7,20.0,0,5,7,1,2026-03-31T14:34:39.728728+05:30
Nellore,Andhra Pradesh,14.4426,79.9865,34.8,50,0.0,1005.2,9.2,30.2,54,26.3,19.7,0,5,4,1,2026-03-31T14:34:39.728736+05:30
Kurnool,Andhra Pradesh,15.8281,78.0373,36.5,36,0.0,976.1,9.1,31.7,81,33.2,26.2,0,5,10,1,2026-03-31T14:34:39.728744+05:30
Kakinada,Andhra Pradesh,16.9891,82.2475,36.4,42,0.0,1007.0,9.05,31.3,49,18.0,13.1,0,5,7,1,2026-03-31T14:34:39.728751+05:30
Tirupati,Andhra Pradesh,13.6288,79.4192,35.9,32,0.0,990.6,9.3,32.8,78,24.8,18.9,0,5,10,1,2026-03-31T14:34:39.728758+05:30
Warangal,Telangana,17.9689,79.5941,33.5,51,0.0,978.9,8.9,26.3,103,39.9,32.4,0,5,7,1,2026-03-31T14:34:39.728765+05:30
Nizamabad,Telangana,18.6725,78.0941,35.1,36,0.0,965.0,8.8,38.5,104,53.2,41.8,0,5,10,1,2026-03-31T14:34:39.728773+05:30
Mysore,Karnataka,12.2958,76.6396,32.0,40,0.0,927.9,9.5,30.6,110,32.0,25.7,0,5,7,1,2026-03-31T14:34:39.728780+05:30
Mangalore,Karnataka,12.9141,74.856,29.5,81,0.0,1005.0,8.8,27.0,94,24.8,18.6,7,5,4,1,2026-03-31T14:34:39.728787+05:30
Hubli-Dharwad,Karnataka,15.3647,75.124,34.0,35,0.0,940.1,9.05,27.4,78,43.5,35.5,0,5,7,1,2026-03-31T14:34:39.728795+05:30
Belgaum,Karnataka,15.8497,74.4977,32.4,37,0.0,925.7,9.1,36.4,83,47.3,37.0,0,5,7,0,2026-03-31T14:34:42.961460+05:30
Coimbatore,Tamil Nadu,11.0168,76.9558,35.4,30,0.0,960.5,9.5,38.2,88,16.7,11.6,0,5,10,0,2026-03-31T14:34:42.961489+05:30
Madurai,Tamil Nadu,9.9252,78.1198,36.6,33,0.0,991.1,9.25,31.0,69,13.9,11.1,0,5,10,1,2026-03-31T14:34:42.961500+05:30
Trichy,Tamil Nadu,10.7905,78.7047,35.5,44,0.0,998.2,9.35,24.1,61,13.5,11.4,0,5,10,1,2026-03-31T14:34:42.961508+05:30
Salem,Tamil Nadu,11.6643,78.146,36.7,28,0.0,975.8,9.45,31.0,67,25.1,17.4,0,5,10,0,2026-03-31T14:34:42.961515+05:30
Tirunelveli,Tamil Nadu,8.7139,77.7567,37.4,33,0.0,1000.8,8.65,43.6,80,19.5,16.9,0,5,7,1,2026-03-31T14:34:42.961522+05:30
Vellore,Tamil Nadu,12.9165,79.1325,35.5,34,0.0,983.7,9.35,32.4,99,25.3,21.0,0,5,10,1,2026-03-31T14:34:42.961529+05:30
Erode,Tamil Nadu,11.341,77.7172,37.0,33,0.0,987.2,9.4,29.2,56,15.4,10.8,0,5,10,1,2026-03-31T14:34:42.961536+05:30
Kochi,Kerala,9.9312,76.2673,29.7,79,0.0,1006.6,9.2,27.7,112,39.8,35.2,7,5,4,1,2026-03-31T14:34:42.961543+05:30
Thiruvananthapuram,Kerala,8.5241,76.9366,29.4,76,0.0,1005.7,9.05,24.5,81,27.0,22.7,7,5,4,1,2026-03-31T14:34:42.961550+05:30
Kozhikode,Kerala,11.2588,75.7804,31.0,72,0.0,1006.0,8.95,27.7,113,41.3,34.8,3,5,4,1,2026-03-31T14:34:42.961557+05:30
Thrissur,Kerala,10.5276,76.2144,33.9,55,0.0,1005.0,8.7,37.4,132,31.9,26.9,0,5,4,1,2026-03-31T14:34:42.961565+05:30
Kannur,Kerala,11.8745,75.3704,32.0,66,0.0,1005.4,8.75,30.2,117,34.5,28.4,3,5,4,1,2026-03-31T14:34:42.961572+05:30
Patna,Bihar,25.5941,85.1376,32.3,58,0.0,1000.5,8.0,28.1,166,97.6,46.4,0,5,4,1,2026-03-31T14:34:42.961578+05:30
Gaya,Bihar,24.7914,85.0002,35.6,35,0.0,993.1,8.2,20.9,135,71.9,28.5,0,5,10,1,2026-03-31T14:34:42.961585+05:30
Muzaffarpur,Bihar,26.1209,85.3647,30.9,59,0.0,1000.6,7.8,26.6,172,108.5,60.3,0,5,4,1,2026-03-31T14:34:42.961591+05:30
Bhagalpur,Bihar,25.2425,87.0117,31.1,60,0.0,1001.1,8.15,21.6,164,98.0,72.2,0,5,4,1,2026-03-31T14:34:42.961598+05:30
Ranchi,Jharkhand,23.3441,85.3096,32.3,37,0.0,937.9,8.45,27.0,125,47.1,20.6,0,5,7,0,2026-03-31T14:34:42.961605+05:30
Jamshedpur,Jharkhand,22.8046,86.2029,35.5,40,0.0,989.8,8.65,27.4,152,69.4,53.1,0,5,10,1,2026-03-31T14:34:42.961612+05:30
Dhanbad,Jharkhand,23.7957,86.4304,35.2,32,0.0,978.9,8.55,30.2,170,74.0,45.1,0,5,10,1,2026-03-31T14:34:42.961618+05:30
Bokaro,Jharkhand,23.6693,86.1511,34.8,37,0.0,982.9,8.55,31.7,168,68.2,38.4,0,5,7,1,2026-03-31T14:34:42.961625+05:30
Bhubaneswar,Odisha,20.2961,85.8245,34.0,54,0.0,1002.0,8.85,26.6,67,44.5,36.4,0,5,4,1,2026-03-31T14:34:42.961631+05:30
Cuttack,Odisha,20.4625,85.8828,34.4,52,0.0,1003.7,8.9,30.6,67,44.5,36.4,0,5,4,1,2026-03-31T14:34:42.961637+05:30
Rourkela,Odisha,22.2604,84.8536,36.4,32,0.0,984.1,8.3,47.9,131,41.9,27.4,0,5,10,1,2026-03-31T14:34:42.961644+05:30
Raipur,Chhattisgarh,21.2514,81.6296,35.0,29,0.0,975.0,7.0,33.1,117,87.8,30.0,0,5,7,0,2026-03-31T14:34:42.961650+05:30
Bhilai,Chhattisgarh,21.1938,81.3509,34.7,32,0.0,975.4,8.35,29.2,93,63.6,22.3,0,5,7,0,2026-03-31T14:34:42.961656+05:30
Guwahati,Assam,26.1158,91.7086,28.1,69,0.0,1001.9,8.0,22.7,133,54.6,38.8,7,5,4,1,2026-03-31T14:34:42.961662+05:30
Agartala,Tripura,23.8315,91.2868,27.0,83,0.0,1006.8,8.3,20.2,112,38.3,32.6,7,5,4,1,2026-03-31T14:34:42.961668+05:30
Shillong,Meghalaya,25.5788,91.8933,17.5,80,0.0,856.9,8.35,37.4,114,37.3,26.7,3,5,7,0,2026-03-31T14:34:42.961675+05:30
Imphal,Manipur,24.817,93.9368,19.5,88,0.0,923.6,8.6,55.1,72,24.6,19.0,3,10,7,1,2026-03-31T14:34:42.961683+05:30
Aizawl,Mizoram,23.7271,92.7176,22.3,77,0.0,893.7,8.55,40.7,124,42.7,31.9,3,5,7,1,2026-03-31T14:34:42.961689+05:30
Kohima,Nagaland,25.6701,94.1077,18.1,85,0.0,855.7,8.45,66.6,73,26.6,17.4,3,10,7,0,2026-03-31T14:34:42.961696+05:30
Gangtok,Sikkim,27.3314,88.6138,19.3,70,0.0,838.4,8.15,16.6,133,37.4,29.7,3,5,7,0,2026-03-31T14:34:42.961702+05:30
Siliguri,West Bengal,26.7271,88.3953,23.2,73,0.0,994.8,7.5,20.5,164,67.3,50.5,3,5,7,1,2026-03-31T14:34:46.182955+05:30
Durgapur,West Bengal,23.5204,87.3119,33.7,52,0.0,994.2,8.5,20.9,161,100.1,85.4,0,5,7,1,2026-03-31T14:34:46.182989+05:30
Asansol,West Bengal,23.6739,86.9524,34.7,41,0.0,992.5,8.5,26.6,160,86.8,63.1,0,5,7,1,2026-03-31T14:34:46.183001+05:30
Pondicherry,Puducherry,11.9139,79.8145,33.8,53,0.0,1007.4,9.25,26.3,44,13.9,10.0,0,5,4,1,2026-03-31T14:34:46.183010+05:30
Port Blair,Andaman and Nicobar Islands,11.6234,92.7265,28.4,80,0.0,1006.5,9.15,12.6,52,18.1,15.5,7,5,4,1,2026-03-31T14:34:46.183018+05:30
Haridwar,Uttarakhand,29.9457,78.1642,32.6,25,0.0,974.8,6.0,30.6,97,70.1,21.9,0,5,3,0,2026-03-31T14:34:46.183026+05:30
Rishikesh,Uttarakhand,30.0869,78.2676,32.1,24,0.0,967.6,6.1,28.4,70,43.0,13.8,0,5,7,0,2026-03-31T14:34:46.183034+05:30
Nainital,Uttarakhand,29.3919,79.4542,26.2,34,0.0,809.8,7.4,43.6,76,24.0,10.1,4,5,7,0,2026-03-31T14:34:46.183042+05:30
Mussoorie,Uttarakhand,30.4599,78.0664,22.7,32,0.0,805.7,6.4,34.6,69,36.7,13.1,0,5,7,0,2026-03-31T14:34:46.183049+05:30
Dharamshala,Himachal Pradesh,32.219,76.3234,24.8,40,0.0,871.1,6.65,22.7,45,15.1,5.0,0,5,7,0,2026-03-31T14:34:46.183057+05:30
Dalhousie,Himachal Pradesh,32.5387,75.971,23.3,33,0.0,806.6,6.95,27.4,69,48.8,13.9,0,5,7,0,2026-03-31T14:34:46.183065+05:30
Patiala,Punjab,30.3398,76.3869,31.4,34,0.0,979.3,5.3,24.1,408,212.3,38.9,0,5,3,0,2026-03-31T14:34:46.183073+05:30
Bhatinda,Punjab,30.211,74.9455,30.0,42,0.0,985.2,6.15,34.9,115,132.7,32.6,4,5,7,0,2026-03-31T14:34:46.183080+05:30
Rohtak,Haryana,28.8955,76.6066,29.7,48,0.0,983.6,6.2,28.1,144,170.0,26.4,4,5,7,1,2026-03-31T14:34:46.183124+05:30
Panipat,Haryana,29.3909,76.9635,30.9,37,0.0,982.1,5.25,24.1,169,236.6,32.5,0,5,3,0,2026-03-31T14:34:46.183133+05:30
Mathura,Uttar Pradesh,27.4924,77.6737,32.8,38,0.0,988.6,6.9,30.6,186,255.2,30.0,0,5,7,1,2026-03-31T14:34:46.183141+05:30
Vrindavan,Uttar Pradesh,27.5823,77.7027,32.5,38,0.0,989.1,6.8,35.6,186,255.2,30.0,0,5,7,1,2026-03-31T14:34:46.183148+05:30
Ayodhya,Uttar Pradesh,26.7922,82.1998,36.5,25,0.0,994.7,7.15,30.6,125,46.7,18.9,0,5,10,0,2026-03-31T14:34:46.183155+05:30
Ratlam,Madhya Pradesh,23.3315,75.0367,35.2,32,0.0,954.6,8.1,29.2,46,15.5,9.4,0,5,10,0,2026-03-31T14:34:46.183162+05:30
Sagar,Madhya Pradesh,23.8388,78.7378,35.8,23,0.0,950.6,8.2,23.8,56,45.3,13.2,0,5,10,0,2026-03-31T14:34:46.183170+05:30
Satna,Madhya Pradesh,24.6005,80.8322,36.9,22,0.0,971.7,8.2,23.8,139,120.6,28.2,0,5,10,0,2026-03-31T14:34:46.183177+05:30
Akola,Maharashtra,20.7002,77.0082,38.0,26,0.0,974.7,8.55,18.0,72,30.6,22.2,0,5,10,0,2026-03-31T14:34:46.183186+05:30
Amravati,Maharashtra,20.9374,77.7796,37.4,27,0.0,967.3,8.55,17.3,69,29.2,21.1,0,5,10,0,2026-03-31T14:34:46.183197+05:30
Latur,Maharashtra,18.4088,76.5604,34.0,35,0.0,940.4,8.85,29.2,91,48.2,36.8,0,5,7,1,2026-03-31T14:34:46.183204+05:30
Nanded,Maharashtra,19.1383,77.3091,36.5,33,0.0,968.6,8.7,26.3,84,48.8,37.5,0,5,10,1,2026-03-31T14:34:46.183212+05:30
Gulbarga,Karnataka,17.3297,76.8343,35.3,35,0.0,958.6,8.95,40.7,115,43.9,35.6,0,5,10,1,2026-03-31T14:34:46.183219+05:30
Bidar,Karnataka,17.9104,77.5199,33.2,39,0.0,936.1,8.95,40.3,113,50.3,39.6,0,5,7,1,2026-03-31T14:34:46.183226+05:30
Hospet,Karnataka,15.2689,76.3909,33.6,45,0.0,955.4,8.8,21.6,102,44.6,39.5,0,5,7,1,2026-03-31T14:34:46.183233+05:30
Tirupur,Tamil Nadu,11.1085,77.3411,36.2,32,0.0,973.9,9.5,28.1,72,15.6,11.4,0,5,10,1,2026-03-31T14:34:46.183240+05:30
Alappuzha,Kerala,9.4981,76.3388,29.4,80,0.0,1006.8,9.2,25.9,137,44.2,39.9,7,5,4,1,2026-03-31T14:34:46.183247+05:30
Munnar,Kerala,10.0889,77.0595,27.8,56,0.0,857.7,9.75,28.4,79,15.4,11.8,4,5,7,1,2026-03-31T14:34:46.183255+05:30
Silchar,Assam,24.8333,92.7789,24.4,87,0.0,1006.6,8.35,23.4,93,28.9,23.7,3,5,4,1,2026-03-31T14:34:46.183262+05:30
Dibrugarh,Assam,27.4728,94.912,27.2,63,0.0,995.6,8.15,13.7,95,31.2,22.1,7,5,7,1,2026-03-31T14:34:46.183270+05:30
