city,state,latitude,longitude,temp,humidity,rain,pressure,uv_index,wind_gusts,aqi,pm10,pm2_5,mosquito_risk,arthritis_risk,migraine_risk,frizz_risk,updated_at
Delhi,Delhi,28.6139,77.209,22.1,68,0.0,979.9,6.05,25.9,133,132.7,61.0,3,5,7,0,2026-03-29T04:02:51.680009+05:30
Mumbai,Maharashtra,19.076,72.8777,27.7,79,0.0,1007.5,8.0,24.8,67,21.5,12.3,7,5,4,1,2026-03-29T04:02:51.680064+05:30
Bangalore,Karnataka,12.9716,77.5946,21.7,85,0.0,910.9,9.5,28.1,122,54.9,49.7,3,5,7,1,2026-03-29T04:02:51.680081+05:30
Hyderabad,Telangana,17.385,78.4867,26.3,54,0.0,950.6,9.05,28.4,116,42.6,36.9,4,5,7,1,2026-03-29T04:02:51.680092+05:30
Chennai,Tamil Nadu,13.0827,80.2707,26.4,88,0.0,1006.4,9.3,35.6,63,19.3,13.9,7,5,4,1,2026-03-29T04:02:51.680101+05:30
Kolkata,West Bengal,22.5726,88.3639,23.1,93,0.0,1005.6,8.45,26.3,140,41.2,35.3,3,5,4,1,2026-03-29T04:02:51.680118+05:30
Pune,Maharashtra,18.5204,73.8567,21.0,56,0.0,946.6,8.55,34.9,67,51.7,25.6,0,5,7,0,2026-03-29T04:02:51.680142+05:30
Ahmedabad,Gujarat,23.0225,72.5714,25.4,78,0.0,1000.4,7.85,25.6,32,21.6,6.9,7,5,4,1,2026-03-29T04:02:51.680161+05:30
Jaipur,Rajasthan,26.9124,75.7873,25.3,50,0.0,956.5,7.15,34.9,77,100.6,24.2,4,5,7,0,2026-03-29T04:02:51.680175+05:30
Lucknow,Uttar Pradesh,26.8467,80.9462,22.7,69,0.0,991.3,7.25,20.2,120,197.0,55.4,3,5,7,1,2026-03-29T04:02:51.680190+05:30
Kanpur,Uttar Pradesh,26.4499,80.3319,22.1,74,0.0,989.4,7.1,16.9,159,164.8,45.5,3,5,7,1,2026-03-29T04:02:51.680203+05:30
Chandigarh,Chandigarh,30.7333,76.7794,21.5,77,0.0,965.4,6.6,23.8,81,34.2,33.8,3,5,7,1,2026-03-29T04:02:51.680216+05:30
Srinagar,Jammu and Kashmir,34.0837,74.7973,11.3,89,0.2,837.7,7.4,22.3,92,48.8,36.8,6,10,7,0,2026-03-29T04:02:51.680230+05:30
Jammu,Jammu and Kashmir,32.7266,74.857,20.4,92,0.5,971.2,7.35,17.6,80,37.5,34.3,6,5,7,1,2026-03-29T04:02:51.680242+05:30
Amritsar,Punjab,31.634,74.8723,21.0,85,0.0,978.6,7.3,35.3,105,39.2,29.9,3,5,7,1,2026-03-29T04:02:51.680255+05:30
Ludhiana,Punjab,30.901,75.8573,22.4,72,0.0,975.3,6.95,30.6,102,50.8,39.8,3,5,7,1,2026-03-29T04:02:51.680267+05:30
Jalandhar,Punjab,31.326,75.5762,21.9,75,0.0,976.8,7.15,32.8,107,42.3,36.4,3,5,7,1,2026-03-29T04:02:51.680279+05:30
Dehradun,Uttarakhand,30.6284,78.0322,13.7,85,0.0,827.0,4.8,19.1,64,29.0,21.8,3,10,3,0,2026-03-29T04:02:51.680287+05:30
Shimla,Himachal Pradesh,31.1048,77.1734,12.7,77,0.0,781.0,6.8,26.3,70,39.7,33.3,3,5,7,0,2026-03-29T04:02:51.680295+05:30
Manali,Himachal Pradesh,32.2396,77.1887,13.9,83,0.1,816.8,8.45,25.6,47,37.8,18.3,6,10,7,0,2026-03-29T04:02:51.680302+05:30
Gurgaon,Haryana,28.4595,77.0266,21.3,70,0.0,978.1,6.1,25.6,230,294.3,75.9,3,5,7,0,2026-03-29T04:02:51.680310+05:30
Noida,Uttar Pradesh,28.5355,77.391,21.6,70,0.0,981.5,6.05,24.1,230,294.3,75.9,3,5,7,0,2026-03-29T04:02:51.680317+05:30
Ghaziabad,Uttar Pradesh,28.6692,77.4538,20.2,78,0.0,979.5,6.4,22.0,138,102.7,70.5,3,5,7,1,2026-03-29T04:02:51.680324+05:30
Faridabad,Haryana,28.4089,77.3178,21.8,64,0.0,980.8,6.15,21.6,230,294.3,75.9,3,5,7,0,2026-03-29T04:02:51.680331+05:30
Meerut,Uttar Pradesh,28.9845,77.7064,19.8,83,0.0,978.4,5.75,23.8,138,102.7,70.5,3,10,3,1,2026-03-29T04:02:51.680337+05:30
Agra,Uttar Pradesh,27.1767,78.0081,21.2,73,0.0,984.9,6.95,30.6,356,326.0,57.3,3,5,7,1,2026-03-29T04:02:51.680345+05:30
Varanasi,Uttar Pradesh,25.3176,82.9739,22.1,69,0.0,995.4,7.95,23.8,88,53.6,30.5,3,5,7,1,2026-03-29T04:02:51.680354+05:30
Prayagraj,Uttar Pradesh,25.4358,81.8463,23.0,67,0.0,993.8,7.8,20.9,97,78.0,49.6,3,5,7,1,2026-03-29T04:02:51.680361+05:30
Gorakhpur,Uttar Pradesh,26.7606,83.3732,20.3,89,0.0,995.7,7.3,25.6,103,71.2,57.9,3,5,7,1,2026-03-29T04:02:51.680367+05:30
Bareilly,Uttar Pradesh,28.367,79.4304,20.0,84,0.0,984.2,7.0,18.4,92,43.8,40.2,3,5,7,1,2026-03-29T04:02:51.680374+05:30
Aligarh,Uttar Pradesh,27.8974,78.088,19.9,78,0.0,982.4,6.8,20.2,184,222.6,59.0,3,5,7,0,2026-03-29T04:02:51.680381+05:30
Moradabad,Uttar Pradesh,28.8386,78.7733,20.9,79,0.0,980.9,6.55,22.7,124,73.6,65.2,3,5,7,1,2026-03-29T04:02:51.680390+05:30
Saharanpur,Uttar Pradesh,29.9637,77.546,20.1,86,0.0,972.7,5.7,22.3,111,49.8,45.2,3,5,3,1,2026-03-29T04:02:51.680405+05:30
Jhansi,Uttar Pradesh,25.4484,78.5685,24.9,56,0.0,974.9,7.75,25.6,80,120.6,29.0,0,5,7,0,2026-03-29T04:02:55.026043+05:30
Surat,Gujarat,21.1702,72.8311,27.0,87,0.0,1005.2,7.75,25.9,76,19.8,18.3,7,5,4,1,2026-03-29T04:02:55.026075+05:30
Vadodara,Gujarat,22.3072,73.1812,26.6,71,0.0,1002.8,7.95,25.2,54,22.8,12.0,7,5,4,1,2026-03-29T04:02:55.026086+05:30
Rajkot,Gujarat,22.3039,70.8022,25.1,84,0.0,993.2,7.75,33.1,34,19.7,7.6,7,5,7,1,2026-03-29T04:02:55.026094+05:30
Thane,Maharashtra,19.2183,72.9781,26.6,83,0.0,1007.0,8.0,37.4,67,21.5,12.3,7,5,4,1,2026-03-29T04:02:55.026101+05:30
Nagpur,Maharashtra,21.1458,79.0882,24.3,48,0.0,970.2,8.55,27.0,57,30.9,27.8,0,5,7,0,2026-03-29T04:02:55.026109+05:30
Nashik,Maharashtra,19.9975,73.7898,20.6,78,0.0,943.9,8.25,31.0,54,48.1,17.3,3,5,7,1,2026-03-29T04:02:55.026116+05:30
Aurangabad,Maharashtra,19.8762,75.3433,23.3,47,0.0,942.1,8.75,29.5,44,25.7,11.8,0,5,7,0,2026-03-29T04:02:55.026124+05:30
Solapur,Maharashtra,17.6599,75.9064,24.6,44,0.0,955.5,8.9,23.0,68,15.0,13.3,0,5,7,0,2026-03-29T04:02:55.026133+05:30
Kolhapur,Maharashtra,16.705,74.2433,18.7,78,0.0,945.8,9.0,33.8,96,21.2,19.2,3,5,7,0,2026-03-29T04:02:55.026140+05:30
Goa,Goa,15.2993,74.124,26.8,81,0.0,996.4,8.95,35.3,96,40.9,37.5,7,5,7,1,2026-03-29T04:02:55.026147+05:30
Jodhpur,Rajasthan,26.2389,73.0243,26.3,59,0.0,979.0,7.8,41.4,93,162.5,24.0,4,5,7,1,2026-03-29T04:02:55.026155+05:30
Udaipur,Rajasthan,24.5854,73.7125,23.5,65,0.0,943.6,8.4,32.8,28,14.1,6.4,3,5,7,1,2026-03-29T04:02:55.026161+05:30
Kota,Rajasthan,25.2138,75.8648,26.2,50,0.0,975.5,7.45,34.2,56,7.1,5.0,4,5,7,0,2026-03-29T04:02:55.026169+05:30
Bikaner,Rajasthan,28.0229,73.3119,27.9,47,0.0,976.3,7.55,32.4,42,202.6,44.9,4,5,7,0,2026-03-29T04:02:55.026175+05:30
Ajmer,Rajasthan,26.4499,74.6399,24.3,64,0.0,950.8,7.75,41.8,33,3.4,2.6,3,5,7,1,2026-03-29T04:02:55.026182+05:30
Gwalior,Madhya Pradesh,26.2183,78.1828,23.8,60,0.0,980.1,7.45,27.7,120,167.2,34.6,0,5,7,0,2026-03-29T04:02:55.026188+05:30
Indore,Madhya Pradesh,22.7196,75.8577,22.9,67,0.0,945.5,8.25,32.4,38,15.5,11.6,3,5,7,1,2026-03-29T04:02:55.026194+05:30
Bhopal,Madhya Pradesh,23.2599,77.4126,23.2,60,0.0,951.0,8.2,35.3,34,7.3,6.0,0,5,7,0,2026-03-29T04:02:55.026201+05:30
Jabalpur,Madhya Pradesh,23.1815,79.9864,23.8,67,0.0,958.2,8.3,33.5,58,30.7,26.0,3,5,7,1,2026-03-29T04:02:55.026207+05:30
Ujjain,Madhya Pradesh,23.1765,75.7885,22.7,68,0.0,951.2,8.15,32.8,37,15.8,11.5,3,5,7,1,2026-03-29T04:02:55.026214+05:30
Visakhapatnam,Andhra Pradesh,17.6868,83.2185,26.9,84,0.0,1001.7,9.0,40.0,84,28.1,20.9,7,5,4,1,2026-03-29T04:02:55.026220+05:30
Vijayawada,Andhra Pradesh,16.5062,80.648,26.4,90,0.0,1000.7,9.05,29.9,82,20.3,15.6,7,5,4,1,2026-03-29T04:02:55.026227+05:30
Guntur,Andhra Pradesh,16.3067,80.4365,26.5,91,0.0,1001.9,9.05,28.4,85,21.0,16.1,7,5,4,1,2026-03-29T04:02:55.026234+05:30
Nellore,Andhra Pradesh,14.4426,79.9865,25.8,86,0.0,1003.9,8.9,33.5,73,19.0,15.7,7,5,4,1,2026-03-29T04:02:55.026241+05:30
Kurnool,Andhra Pradesh,15.8281,78.0373,28.0,57,0.0,975.8,9.1,26.6,122,50.6,43.9,4,5,7,1,2026-03-29T04:02:55.026248+05:30
Kakinada,Andhra Pradesh,16.9891,82.2475,25.6,93,0.0,1005.8,9.0,28.8,68,24.8,15.5,7,5,4,1,2026-03-29T04:02:55.026254+05:30
Tirupati,Andhra Pradesh,13.6288,79.4192,24.2,84,0.0,990.9,9.1,32.0,98,33.9,31.5,3,5,7,1,2026-03-29T04:02:55.026261+05:30
Warangal,Telangana,17.9689,79.5941,26.2,72,0.0,975.7,8.9,28.4,111,40.3,36.7,7,5,7,1,2026-03-29T04:02:55.026268+05:30
Nizamabad,Telangana,18.6725,78.0941,26.1,46,0.0,962.8,8.85,28.4,79,29.9,28.2,4,5,7,0,2026-03-29T04:02:55.026274+05:30
Mysore,Karnataka,12.2958,76.6396,22.1,90,0.0,927.9,9.45,29.5,110,41.7,38.9,3,5,7,1,2026-03-29T04:02:55.026281+05:30
Mangalore,Karnataka,12.9141,74.856,28.1,83,0.0,1005.7,9.15,31.7,101,41.3,37.4,7,5,4,1,2026-03-29T04:02:55.026287+05:30
Hubli-Dharwad,Karnataka,15.3647,75.124,22.6,92,0.0,939.0,9.15,31.0,102,44.5,40.9,3,5,7,1,2026-03-29T04:02:55.026293+05:30
Belgaum,Karnataka,15.8497,74.4977,20.6,83,0.0,923.6,9.2,35.3,103,26.8,25.7,3,5,7,1,2026-03-29T04:02:58.372082+05:30
Coimbatore,Tamil Nadu,11.0168,76.9558,23.8,85,0.0,960.7,9.45,41.0,90,35.3,32.1,3,5,7,1,2026-03-29T04:02:58.372113+05:30
Madurai,Tamil Nadu,9.9252,78.1198,25.5,84,0.0,991.3,9.4,30.6,79,42.4,39.9,7,5,7,1,2026-03-29T04:02:58.372124+05:30
Trichy,Tamil Nadu,10.7905,78.7047,25.1,87,0.0,998.7,9.15,28.4,65,30.0,27.2,7,5,7,1,2026-03-29T04:02:58.372132+05:30
Salem,Tamil Nadu,11.6643,78.146,25.7,80,0.0,976.4,9.4,34.2,97,15.5,14.2,7,5,7,1,2026-03-29T04:02:58.372140+05:30
Tirunelveli,Tamil Nadu,8.7139,77.7567,26.5,70,0.0,1001.1,9.35,47.5,74,20.6,19.4,7,5,4,1,2026-03-29T04:02:58.372148+05:30
Vellore,Tamil Nadu,12.9165,79.1325,24.8,90,0.0,984.0,9.35,33.5,127,52.0,49.7,3,5,7,1,2026-03-29T04:02:58.372156+05:30
Erode,Tamil Nadu,11.341,77.7172,27.0,79,0.0,988.0,8.85,33.5,96,43.4,40.9,7,5,7,1,2026-03-29T04:02:58.372163+05:30
Kochi,Kerala,9.9312,76.2673,28.1,81,0.0,1007.3,9.15,29.2,94,33.2,30.9,7,5,4,1,2026-03-29T04:02:58.372171+05:30
Thiruvananthapuram,Kerala,8.5241,76.9366,28.1,84,0.0,1006.1,9.05,38.2,72,28.9,25.0,7,5,4,1,2026-03-29T04:02:58.372178+05:30
Kozhikode,Kerala,11.2588,75.7804,26.9,88,0.0,1006.9,9.15,30.6,80,29.0,25.0,7,5,4,1,2026-03-29T04:02:58.372185+05:30
Thrissur,Kerala,10.5276,76.2144,26.0,93,0.0,1005.9,9.15,34.9,89,34.6,31.5,7,5,4,1,2026-03-29T04:02:58.372192+05:30
Kannur,Kerala,11.8745,75.3704,26.7,84,0.0,1006.6,9.15,35.6,89,32.5,29.9,7,5,4,1,2026-03-29T04:02:58.372199+05:30
Patna,Bihar,25.5941,85.1376,21.8,88,0.0,999.2,8.1,23.8,98,61.5,47.3,3,5,7,1,2026-03-29T04:02:58.372205+05:30
Gaya,Bihar,24.7914,85.0002,20.8,85,0.0,992.1,8.15,19.1,85,40.7,34.7,3,5,7,1,2026-03-29T04:02:58.372212+05:30
Muzaffarpur,Bihar,26.1209,85.3647,20.4,92,0.0,999.8,8.05,27.7,113,61.2,49.5,3,5,7,1,2026-03-29T04:02:58.372218+05:30
Bhagalpur,Bihar,25.2425,87.0117,20.8,94,0.0,1000.8,8.1,20.5,100,65.2,47.0,3,5,4,1,2026-03-29T04:02:58.372224+05:30
Ranchi,Jharkhand,23.3441,85.3096,20.5,87,0.0,935.9,8.75,31.3,98,66.1,61.5,3,5,7,1,2026-03-29T04:02:58.372230+05:30
Jamshedpur,Jharkhand,22.8046,86.2029,24.4,84,0.0,990.1,8.55,27.4,134,57.2,50.9,3,5,7,1,2026-03-29T04:02:58.372236+05:30
Dhanbad,Jharkhand,23.7957,86.4304,22.8,82,0.0,979.0,8.5,22.7,150,83.8,76.1,3,5,7,1,2026-03-29T04:02:58.372242+05:30
Bokaro,Jharkhand,23.6693,86.1511,22.2,89,0.0,983.1,8.5,24.8,149,94.3,85.7,3,5,7,1,2026-03-29T04:02:58.372249+05:30
Bhubaneswar,Odisha,20.2961,85.8245,26.7,87,0.0,1000.6,8.8,32.0,103,25.9,19.2,7,5,4,1,2026-03-29T04:02:58.372255+05:30
Cuttack,Odisha,20.4625,85.8828,26.4,90,0.0,1002.2,8.85,35.3,103,25.9,19.2,7,5,4,1,2026-03-29T04:02:58.372261+05:30
Rourkela,Odisha,22.2604,84.8536,25.3,75,0.0,983.2,8.5,21.2,105,39.5,37.1,7,5,7,1,2026-03-29T04:02:58.372267+05:30
Raipur,Chhattisgarh,21.2514,81.6296,27.7,47,0.0,971.7,8.6,26.3,94,44.2,41.9,4,5,7,0,2026-03-29T04:02:58.372274+05:30
Bhilai,Chhattisgarh,21.1938,81.3509,26.5,53,0.0,972.0,8.6,26.6,75,32.7,30.9,4,5,7,1,2026-03-29T04:02:58.372280+05:30
Guwahati,Assam,26.1158,91.7086,20.2,95,0.0,1002.2,7.1,28.1,116,56.0,48.7,3,5,4,1,2026-03-29T04:02:58.372286+05:30
Agartala,Tripura,23.8315,91.2868,20.2,97,0.0,1006.3,8.2,36.4,122,45.5,41.3,3,5,4,1,2026-03-29T04:02:58.372292+05:30
Shillong,Meghalaya,25.5788,91.8933,10.7,91,0.0,852.7,4.1,39.2,73,29.7,16.7,3,10,3,0,2026-03-29T04:02:58.372298+05:30
Imphal,Manipur,24.817,93.9368,14.6,93,0.0,921.6,7.3,65.9,135,58.8,48.2,3,10,7,0,2026-03-29T04:02:58.372305+05:30
Aizawl,Mizoram,23.7271,92.7176,14.0,93,0.0,890.5,7.9,52.2,120,59.8,51.8,3,10,7,0,2026-03-29T04:02:58.372312+05:30
Kohima,Nagaland,25.6701,94.1077,11.8,92,0.0,851.6,6.6,81.0,106,49.5,36.9,3,10,7,0,2026-03-29T04:02:58.372317+05:30
Gangtok,Sikkim,27.3314,88.6138,9.8,80,0.0,832.3,8.15,20.5,68,15.7,13.9,3,5,7,0,2026-03-29T04:02:58.372323+05:30
Siliguri,West Bengal,26.7271,88.3953,17.0,81,0.0,993.9,6.35,11.9,134,61.0,52.6,3,10,7,0,2026-03-29T04:03:01.723987+05:30
Durgapur,West Bengal,23.5204,87.3119,22.9,90,0.0,994.7,8.45,21.6,129,65.4,59.8,3,5,7,1,2026-03-29T04:03:01.724017+05:30
Asansol,West Bengal,23.6739,86.9524,23.3,87,0.0,993.0,8.45,20.9,131,65.9,59.6,3,5,7,1,2026-03-29T04:03:01.724028+05:30
Pondicherry,Puducherry,11.9139,79.8145,25.4,95,0.0,1007.8,9.15,34.2,58,17.2,12.2,7,5,4,1,2026-03-29T04:03:01.724035+05:30
Port Blair,Andaman and Nicobar Islands,11.6234,92.7265,28.1,74,0.0,1006.0,9.15,16.6,66,22.0,17.5,7,5,4,1,2026-03-29T04:03:01.724044+05:30
Haridwar,Uttarakhand,29.9457,78.1642,21.8,76,0.0,971.7,4.2,27.7,86,38.9,36.4,3,5,3,1,2026-03-29T04:03:01.724051+05:30
Rishikesh,Uttarakhand,30.0869,78.2676,21.1,74,0.0,964.6,4.15,25.6,70,33.6,30.7,3,5,3,1,2026-03-29T04:03:01.724057+05:30
Nainital,Uttarakhand,29.3919,79.4542,16.4,69,0.0,803.0,7.25,41.0,74,30.3,27.0,3,5,7,0,2026-03-29T04:03:01.724065+05:30
Mussoorie,Uttarakhand,30.4599,78.0664,15.4,74,0.0,799.8,4.7,22.3,82,38.1,35.2,3,5,3,0,2026-03-29T04:03:01.724072+05:30
Dharamshala,Himachal Pradesh,32.219,76.3234,18.6,58,0.0,865.7,7.05,29.2,49,26.4,14.2,0,5,7,0,2026-03-29T04:03:01.724078+05:30
Dalhousie,Himachal Pradesh,32.5387,75.971,15.2,72,0.0,800.1,7.1,24.1,71,36.6,31.4,3,5,7,0,2026-03-29T04:03:01.724086+05:30
Patiala,Punjab,30.3398,76.3869,20.9,81,0.0,974.4,6.6,25.6,103,253.3,49.7,3,5,7,1,2026-03-29T04:03:01.724093+05:30
Bhatinda,Punjab,30.211,74.9455,22.3,71,0.0,980.5,6.65,36.0,76,180.2,43.3,3,5,7,1,2026-03-29T04:03:01.724100+05:30
Rohtak,Haryana,28.8955,76.6066,20.2,76,0.0,978.4,6.8,28.8,130,258.9,73.8,3,5,7,0,2026-03-29T04:03:01.724107+05:30
Panipat,Haryana,29.3909,76.9635,19.9,78,0.0,977.1,6.55,27.4,168,366.9,71.7,3,5,7,0,2026-03-29T04:03:01.724113+05:30
Mathura,Uttar Pradesh,27.4924,77.6737,21.0,75,0.0,984.0,6.95,20.5,198,299.0,59.0,3,5,7,1,2026-03-29T04:03:01.724120+05:30
Vrindavan,Uttar Pradesh,27.5823,77.7027,20.6,76,0.0,984.3,6.85,23.0,198,299.0,59.0,3,5,7,1,2026-03-29T04:03:01.724126+05:30
Ayodhya,Uttar Pradesh,26.7922,82.1998,20.0,84,0.0,993.5,7.45,22.7,111,116.6,72.2,3,5,7,1,2026-03-29T04:03:01.724132+05:30
Ratlam,Madhya Pradesh,23.3315,75.0367,23.2,71,0.0,952.1,8.1,32.4,36,16.8,11.4,3,5,7,1,2026-03-29T04:03:01.724138+05:30
Sagar,Madhya Pradesh,23.8388,78.7378,25.5,53,0.0,947.4,8.2,32.4,52,19.6,10.6,4,5,7,0,2026-03-29T04:03:01.724144+05:30
Satna,Madhya Pradesh,24.6005,80.8322,23.3,60,0.0,968.7,8.15,37.4,69,75.9,24.4,0,5,7,0,2026-03-29T04:03:01.724151+05:30
Akola,Maharashtra,20.7002,77.0082,24.1,66,0.0,972.9,8.55,27.7,42,12.9,12.0,3,5,7,1,2026-03-29T04:03:01.724157+05:30
Amravati,Maharashtra,20.9374,77.7796,23.7,62,0.0,964.8,8.5,27.0,41,10.7,9.9,3,5,7,0,2026-03-29T04:03:01.724165+05:30
Latur,Maharashtra,18.4088,76.5604,23.8,50,0.0,937.9,8.85,29.9,62,13.4,9.8,0,5,7,0,2026-03-29T04:03:01.724171+05:30
Nanded,Maharashtra,19.1383,77.3091,24.3,58,0.0,966.6,8.7,19.4,56,17.7,16.8,0,5,7,0,2026-03-29T04:03:01.724177+05:30
Gulbarga,Karnataka,17.3297,76.8343,26.3,45,0.0,956.6,8.9,32.0,81,14.6,14.1,4,5,7,0,2026-03-29T04:03:01.724183+05:30
Bidar,Karnataka,17.9104,77.5199,25.4,47,0.0,933.4,8.9,30.2,83,37.0,33.2,4,5,7,0,2026-03-29T04:03:01.724189+05:30
Hospet,Karnataka,15.2689,76.3909,25.7,81,0.0,954.7,9.15,17.6,111,37.7,34.9,7,5,7,1,2026-03-29T04:03:01.724195+05:30
Tirupur,Tamil Nadu,11.1085,77.3411,26.0,80,0.0,974.3,9.4,41.8,102,45.3,42.6,7,5,7,1,2026-03-29T04:03:01.724202+05:30
Alappuzha,Kerala,9.4981,76.3388,27.9,83,0.0,1007.3,9.15,25.9,89,33.8,30.2,7,5,4,1,2026-03-29T04:03:01.724207+05:30
Munnar,Kerala,10.0889,77.0595,18.6,93,0.0,854.4,8.85,34.2,82,29.9,28.2,3,10,7,1,2026-03-29T04:03:01.724214+05:30
Silchar,Assam,24.8333,92.7789,19.5,91,0.0,1005.4,8.0,32.4,150,64.0,55.6,3,10,4,1,2026-03-29T04:03:01.724220+05:30
Dibrugarh,Assam,27.4728,94.912,19.4,88,0.0,996.4,6.55,14.0,94,26.3,21.8,3,10,7,1,2026-03-29T04:03:01.724227+05:30
