city,state,latitude,longitude,temp,humidity,rain,pressure,uv_index,wind_gusts,aqi,pm10,pm2_5,no2,co,o3,so2,mosquito_risk,arthritis_risk,migraine_risk,frizz_risk,updated_at
Delhi,Delhi,28.6139,77.209,31.0,44,0.0,979.7,7.6,43.6,490,461.0,84.8,16.7,727.0,137.0,18.6,0,5,7,1,2026-05-03T20:21:56.153198+05:30
Mumbai,Maharashtra,19.076,72.8777,29.1,78,0.0,1006.6,7.85,41.0,70,35.9,17.3,10.6,246.0,67.0,17.2,7,5,4,1,2026-05-03T20:21:56.153266+05:30
Bangalore,Karnataka,12.9716,77.5946,28.2,51,0.0,910.8,7.85,29.2,93,82.4,51.9,81.9,569.0,47.0,20.2,4,5,7,1,2026-05-03T20:21:56.153285+05:30
Hyderabad,Telangana,17.385,78.4867,35.2,20,0.0,951.1,9.25,33.8,83,58.6,33.2,41.8,559.0,67.0,13.6,0,5,10,0,2026-05-03T20:21:56.153295+05:30
Chennai,Tamil Nadu,13.0827,80.2707,31.2,76,0.0,1004.8,8.65,51.1,165,37.0,30.4,7.5,258.0,160.0,6.2,3,5,4,1,2026-05-03T20:21:56.153304+05:30
Kolkata,West Bengal,22.5726,88.3639,24.5,91,0.0,1006.7,8.95,42.8,173,89.6,73.8,22.0,611.0,108.0,22.0,3,5,4,1,2026-05-03T20:21:56.153313+05:30
Pune,Maharashtra,18.5204,73.8567,28.0,59,0.0,947.0,8.5,47.9,62,31.4,12.6,6.5,210.0,87.0,5.1,4,5,7,1,2026-05-03T20:21:56.153321+05:30
Ahmedabad,Gujarat,23.0225,72.5714,32.0,62,0.0,996.7,8.1,47.5,81,47.7,16.7,6.2,204.0,105.0,5.3,3,5,7,1,2026-05-03T20:21:56.153330+05:30
Jaipur,Rajasthan,26.9124,75.7873,30.6,37,0.0,954.8,8.15,43.2,115,90.3,30.2,25.0,281.0,85.0,6.5,0,5,7,0,2026-05-03T20:21:56.153337+05:30
Lucknow,Uttar Pradesh,26.8467,80.9462,28.1,70,0.0,991.6,8.1,36.4,163,48.4,38.1,8.1,385.0,143.0,10.9,7,5,7,1,2026-05-03T20:21:56.153343+05:30
Kanpur,Uttar Pradesh,26.4499,80.3319,29.0,55,0.0,989.3,8.1,38.2,175,158.8,43.3,7.5,360.0,147.0,10.5,4,5,7,1,2026-05-03T20:21:56.153350+05:30
Chandigarh,Chandigarh,30.7333,76.7794,26.4,50,0.0,966.7,7.6,62.3,161,121.5,38.0,13.2,428.0,131.0,9.5,4,5,7,0,2026-05-03T20:21:56.153356+05:30
Srinagar,Jammu and Kashmir,34.0837,74.7973,11.9,95,0.0,839.9,8.75,38.9,85,28.3,17.9,12.4,554.0,103.0,3.9,3,10,7,0,2026-05-03T20:21:56.153364+05:30
Jammu,Jammu and Kashmir,32.7266,74.857,26.0,49,0.0,970.7,8.25,32.4,151,40.3,21.9,8.0,404.0,140.0,4.7,4,5,7,0,2026-05-03T20:21:56.153371+05:30
Amritsar,Punjab,31.634,74.8723,25.5,56,0.0,977.7,8.1,51.5,163,125.3,43.7,3.2,430.0,154.0,7.8,4,5,7,1,2026-05-03T20:21:56.153376+05:30
Ludhiana,Punjab,30.901,75.8573,28.1,41,0.0,975.4,7.85,47.9,170,502.9,87.3,7.9,427.0,139.0,9.1,4,5,7,0,2026-05-03T20:21:56.153382+05:30
Jalandhar,Punjab,31.326,75.5762,26.5,49,0.0,976.8,8.05,49.7,166,265.4,60.5,7.4,440.0,146.0,8.6,4,5,7,0,2026-05-03T20:21:56.153388+05:30
Dehradun,Uttarakhand,30.6284,78.0322,15.1,78,0.0,828.7,7.45,42.5,118,64.5,28.0,16.7,251.0,113.0,2.8,3,5,7,0,2026-05-03T20:21:56.153395+05:30
Shimla,Himachal Pradesh,31.1048,77.1734,10.9,77,0.0,781.6,7.65,42.1,141,90.3,30.7,13.0,341.0,143.0,11.1,3,5,7,0,2026-05-03T20:21:56.153401+05:30
Manali,Himachal Pradesh,32.2396,77.1887,9.0,83,0.0,815.3,9.7,40.7,134,22.4,11.2,12.6,246.0,138.0,0.8,3,10,7,0,2026-05-03T20:21:56.153407+05:30
Gurgaon,Haryana,28.4595,77.0266,29.8,45,0.0,977.8,7.7,45.7,1398,1967.0,221.7,17.0,560.0,131.0,17.8,4,5,7,1,2026-05-03T20:21:56.153414+05:30
Noida,Uttar Pradesh,28.5355,77.391,28.2,55,0.0,981.2,7.6,45.4,1398,1967.0,221.7,17.0,501.0,131.0,17.8,4,5,7,1,2026-05-03T20:21:56.153421+05:30
Ghaziabad,Uttar Pradesh,28.6692,77.4538,28.6,54,0.0,979.5,7.6,50.4,316,365.1,68.2,7.0,367.0,144.0,10.7,4,5,7,1,2026-05-03T20:21:56.153427+05:30
Faridabad,Haryana,28.4089,77.3178,29.6,48,0.0,980.3,7.65,49.0,1398,1967.0,221.7,17.0,530.0,131.0,17.8,4,5,7,1,2026-05-03T20:21:56.153433+05:30
Meerut,Uttar Pradesh,28.9845,77.7064,26.8,66,0.0,978.6,7.45,47.5,316,365.1,68.2,7.0,381.0,144.0,10.7,7,5,7,1,2026-05-03T20:21:56.153438+05:30
Agra,Uttar Pradesh,27.1767,78.0081,29.1,53,0.0,983.6,7.95,69.8,813,334.3,68.0,19.5,290.0,106.0,15.0,4,5,7,1,2026-05-03T20:21:56.153444+05:30
Varanasi,Uttar Pradesh,25.3176,82.9739,30.0,55,0.0,995.7,8.65,36.4,204,72.9,58.8,11.1,541.0,175.0,21.6,4,5,7,1,2026-05-03T20:21:56.153451+05:30
Prayagraj,Uttar Pradesh,25.4358,81.8463,29.9,55,0.0,993.5,8.5,36.0,200,58.4,47.1,9.8,396.0,161.0,14.3,4,5,7,1,2026-05-03T20:21:56.153459+05:30
Gorakhpur,Uttar Pradesh,26.7606,83.3732,25.7,69,0.0,996.9,7.95,37.8,158,50.1,36.4,6.4,379.0,148.0,4.8,7,5,7,1,2026-05-03T20:21:56.153465+05:30
Bareilly,Uttar Pradesh,28.367,79.4304,28.0,55,0.0,984.6,7.9,42.1,169,190.9,53.3,9.1,354.0,138.0,12.9,4,5,7,1,2026-05-03T20:21:56.153470+05:30
Aligarh,Uttar Pradesh,27.8974,78.088,28.1,57,0.0,981.8,7.75,50.4,748,564.4,90.6,5.8,320.0,143.0,10.3,4,5,7,1,2026-05-03T20:21:56.153476+05:30
Moradabad,Uttar Pradesh,28.8386,78.7733,27.5,59,0.0,981.4,7.7,46.8,169,136.0,48.9,13.1,384.0,129.0,14.2,4,5,7,1,2026-05-03T20:21:56.153482+05:30
Saharanpur,Uttar Pradesh,29.9637,77.546,26.1,69,0.0,973.5,7.3,45.4,151,120.1,46.8,16.9,451.0,115.0,12.8,7,5,7,1,2026-05-03T20:21:56.153488+05:30
Jhansi,Uttar Pradesh,25.4484,78.5685,32.9,32,0.0,973.7,8.4,29.5,136,73.1,29.0,4.8,276.0,125.0,17.2,0,5,7,0,2026-05-03T20:21:59.432725+05:30
Surat,Gujarat,21.1702,72.8311,29.2,80,0.0,1002.9,7.7,55.8,62,23.6,15.3,15.2,232.0,61.0,27.1,7,5,4,1,2026-05-03T20:21:59.432759+05:30
Vadodara,Gujarat,22.3072,73.1812,30.9,63,0.0,999.2,8.05,51.8,70,19.9,13.3,10.3,242.0,83.0,14.9,3,5,7,1,2026-05-03T20:21:59.432772+05:30
Rajkot,Gujarat,22.3039,70.8022,33.0,45,0.0,989.0,7.7,51.1,62,32.5,13.3,4.0,159.0,94.0,6.1,0,5,7,1,2026-05-03T20:21:59.432781+05:30
Thane,Maharashtra,19.2183,72.9781,29.3,75,0.0,1005.8,7.9,39.6,70,35.9,17.3,10.6,262.0,67.0,17.2,7,5,4,1,2026-05-03T20:21:59.432791+05:30
Nagpur,Maharashtra,21.1458,79.0882,35.8,19,0.0,968.9,8.9,37.1,95,78.9,27.7,17.0,246.0,89.0,14.2,0,5,10,0,2026-05-03T20:21:59.432801+05:30
Nashik,Maharashtra,19.9975,73.7898,27.3,58,0.0,943.6,8.15,49.0,64,25.7,11.2,4.7,190.0,84.0,5.1,4,5,7,1,2026-05-03T20:21:59.432811+05:30
Aurangabad,Maharashtra,19.8762,75.3433,33.0,19,0.0,941.8,9.05,50.8,72,33.1,13.1,3.3,168.0,107.0,4.2,0,5,7,0,2026-05-03T20:21:59.432820+05:30
Solapur,Maharashtra,17.6599,75.9064,34.7,15,0.0,953.7,9.1,40.7,64,41.7,15.8,7.2,268.0,93.0,2.5,0,5,7,0,2026-05-03T20:21:59.432829+05:30
Kolhapur,Maharashtra,16.705,74.2433,26.4,69,0.0,946.9,8.95,47.2,62,36.3,16.5,7.0,183.0,81.0,2.8,7,5,7,1,2026-05-03T20:21:59.432837+05:30
Goa,Goa,15.2993,74.124,29.5,71,0.0,997.7,8.9,36.7,67,45.2,15.3,3.2,166.0,66.0,1.1,7,5,7,1,2026-05-03T20:21:59.432845+05:30
Jodhpur,Rajasthan,26.2389,73.0243,31.0,41,0.0,977.2,8.3,69.8,121,200.7,33.1,3.8,230.0,117.0,3.5,0,5,7,1,2026-05-03T20:21:59.432852+05:30
Udaipur,Rajasthan,24.5854,73.7125,30.6,32,0.0,941.7,8.8,39.2,88,29.4,12.1,2.2,172.0,118.0,3.6,0,5,7,0,2026-05-03T20:21:59.432859+05:30
Kota,Rajasthan,25.2138,75.8648,33.4,24,0.0,973.0,8.35,37.8,93,79.6,26.8,6.9,214.0,97.0,4.0,0,5,7,0,2026-05-03T20:21:59.432867+05:30
Bikaner,Rajasthan,28.0229,73.3119,35.0,20,0.0,975.9,8.25,44.3,99,114.8,26.5,2.5,204.0,113.0,4.6,0,5,7,0,2026-05-03T20:21:59.432874+05:30
Ajmer,Rajasthan,26.4499,74.6399,34.3,19,0.0,949.8,8.3,45.4,95,53.9,18.8,7.2,176.0,100.0,3.8,0,5,7,0,2026-05-03T20:21:59.432881+05:30
Gwalior,Madhya Pradesh,26.2183,78.1828,32.8,33,0.0,978.6,8.15,42.8,109,81.5,26.8,5.8,272.0,106.0,5.6,0,5,7,0,2026-05-03T20:21:59.432888+05:30
Indore,Madhya Pradesh,22.7196,75.8577,33.2,23,0.0,944.4,8.7,41.8,82,17.3,12.0,6.1,258.0,114.0,5.4,0,5,7,0,2026-05-03T20:21:59.432895+05:30
Bhopal,Madhya Pradesh,23.2599,77.4126,34.3,20,0.0,949.5,8.65,32.4,76,68.0,21.9,7.3,243.0,91.0,3.7,0,5,7,0,2026-05-03T20:21:59.432902+05:30
Jabalpur,Madhya Pradesh,23.1815,79.9864,32.3,20,0.0,957.1,8.85,29.2,85,76.1,25.8,15.6,208.0,86.0,5.3,0,5,7,0,2026-05-03T20:21:59.432909+05:30
Ujjain,Madhya Pradesh,23.1765,75.7885,33.5,24,0.0,949.5,8.6,42.5,83,17.9,12.6,3.3,214.0,116.0,4.6,0,5,7,0,2026-05-03T20:21:59.432917+05:30
Visakhapatnam,Andhra Pradesh,17.6868,83.2185,28.2,91,0.0,1002.3,9.15,47.5,66,30.4,24.3,21.8,322.0,78.0,7.2,7,5,4,1,2026-05-03T20:21:59.432924+05:30
Vijayawada,Andhra Pradesh,16.5062,80.648,31.5,70,0.0,1000.0,9.15,29.2,165,38.3,32.8,7.0,279.0,149.0,7.9,3,5,4,1,2026-05-03T20:21:59.432931+05:30
Guntur,Andhra Pradesh,16.3067,80.4365,33.8,53,0.0,1001.1,9.2,34.6,145,52.3,39.6,13.1,290.0,119.0,8.5,0,5,4,1,2026-05-03T20:21:59.432939+05:30
Nellore,Andhra Pradesh,14.4426,79.9865,31.0,70,0.0,1002.7,9.2,37.1,159,34.0,27.9,4.2,239.0,161.0,6.1,3,5,4,1,2026-05-03T20:21:59.432947+05:30
Kurnool,Andhra Pradesh,15.8281,78.0373,35.0,24,0.0,973.5,9.15,41.4,98,53.6,26.0,14.6,281.0,100.0,7.3,0,5,7,0,2026-05-03T20:21:59.432955+05:30
Kakinada,Andhra Pradesh,16.9891,82.2475,29.4,83,0.0,1005.5,9.15,33.1,59,30.9,22.2,2.2,242.0,111.0,2.7,7,5,4,1,2026-05-03T20:21:59.432963+05:30
Tirupati,Andhra Pradesh,13.6288,79.4192,32.2,45,0.0,988.4,7.25,27.4,112,35.3,21.6,12.4,265.0,120.0,5.7,0,5,7,1,2026-05-03T20:21:59.432970+05:30
Warangal,Telangana,17.9689,79.5941,32.4,46,0.0,975.6,9.15,38.9,114,71.0,39.7,21.0,372.0,94.0,13.4,0,5,7,1,2026-05-03T20:21:59.432977+05:30
Nizamabad,Telangana,18.6725,78.0941,33.0,21,0.0,960.6,9.1,44.6,72,87.8,31.0,13.3,282.0,95.0,4.8,0,5,7,0,2026-05-03T20:21:59.432984+05:30
Mysore,Karnataka,12.2958,76.6396,26.4,69,0.0,928.2,8.95,36.7,80,41.3,21.4,13.5,211.0,94.0,2.9,7,5,7,1,2026-05-03T20:21:59.432991+05:30
Mangalore,Karnataka,12.9141,74.856,29.9,68,0.0,1006.5,9.0,42.8,69,56.0,16.7,2.5,154.0,68.0,1.3,7,5,4,1,2026-05-03T20:21:59.432998+05:30
Hubli-Dharwad,Karnataka,15.3647,75.124,27.1,68,0.0,939.8,9.15,44.6,59,30.3,14.6,5.3,181.0,85.0,1.7,7,5,7,1,2026-05-03T20:21:59.433005+05:30
Belgaum,Karnataka,15.8497,74.4977,24.6,80,0.0,925.0,9.15,45.0,59,28.2,13.8,6.6,172.0,67.0,2.3,3,5,7,1,2026-05-03T20:22:02.721360+05:30
Coimbatore,Tamil Nadu,11.0168,76.9558,28.1,65,0.0,960.9,9.25,49.0,64,24.6,16.9,7.9,202.0,78.0,3.2,7,5,7,1,2026-05-03T20:22:02.721394+05:30
Madurai,Tamil Nadu,9.9252,78.1198,32.0,51,0.0,992.1,8.9,33.1,142,30.5,24.7,11.0,412.0,116.0,4.1,0,5,7,1,2026-05-03T20:22:02.721405+05:30
Trichy,Tamil Nadu,10.7905,78.7047,32.1,49,0.0,997.8,9.2,40.0,132,28.3,25.2,7.3,275.0,129.0,3.4,0,5,7,1,2026-05-03T20:22:02.721413+05:30
Salem,Tamil Nadu,11.6643,78.146,33.3,40,0.0,976.0,9.25,42.1,162,37.1,28.3,17.0,225.0,129.0,12.8,0,5,7,1,2026-05-03T20:22:02.721422+05:30
Tirunelveli,Tamil Nadu,8.7139,77.7567,32.5,54,0.0,1002.3,8.15,36.0,73,21.0,17.7,5.6,251.0,84.0,1.9,0,5,4,1,2026-05-03T20:22:02.721430+05:30
Vellore,Tamil Nadu,12.9165,79.1325,34.1,35,0.0,982.5,9.3,38.9,107,34.8,26.1,10.6,272.0,123.0,4.3,0,5,7,1,2026-05-03T20:22:02.721437+05:30
Erode,Tamil Nadu,11.341,77.7172,31.4,56,0.0,987.4,9.25,46.1,111,26.6,19.6,9.3,243.0,102.0,2.3,0,5,7,1,2026-05-03T20:22:02.721445+05:30
Kochi,Kerala,9.9312,76.2673,28.9,83,0.0,1008.6,9.05,32.0,95,47.0,33.6,32.0,179.0,38.0,5.7,7,0,4,1,2026-05-03T20:22:02.721452+05:30
Thiruvananthapuram,Kerala,8.5241,76.9366,27.4,83,0.0,1008.6,8.65,36.0,56,23.7,15.3,2.3,352.0,73.0,0.8,7,0,4,1,2026-05-03T20:22:02.721460+05:30
Kozhikode,Kerala,11.2588,75.7804,28.7,77,0.0,1007.7,9.0,42.1,65,64.0,18.9,1.2,173.0,72.0,0.6,7,5,4,1,2026-05-03T20:22:02.721467+05:30
Thrissur,Kerala,10.5276,76.2144,28.0,78,0.0,1007.0,8.75,36.7,94,43.1,26.4,14.6,236.0,57.0,2.8,7,5,4,1,2026-05-03T20:22:02.721476+05:30
Kannur,Kerala,11.8745,75.3704,30.0,66,0.0,1007.0,9.0,46.8,67,57.6,18.2,2.5,162.0,68.0,0.8,7,5,4,1,2026-05-03T20:22:02.721483+05:30
Patna,Bihar,25.5941,85.1376,26.2,78,0.0,1000.0,8.55,41.8,188,67.1,57.9,10.9,428.0,156.0,9.9,7,5,4,1,2026-05-03T20:22:02.721489+05:30
Gaya,Bihar,24.7914,85.0002,27.9,67,0.0,992.6,8.7,41.0,204,70.8,59.3,7.2,406.0,171.0,10.2,7,5,7,1,2026-05-03T20:22:02.721497+05:30
Muzaffarpur,Bihar,26.1209,85.3647,25.6,76,0.0,1000.5,8.7,41.4,153,56.0,47.3,13.5,448.0,126.0,8.4,7,5,4,1,2026-05-03T20:22:02.721503+05:30
Bhagalpur,Bihar,25.2425,87.0117,24.4,84,0.0,1001.8,8.65,41.8,162,66.6,52.7,12.6,362.0,130.0,9.3,3,5,4,1,2026-05-03T20:22:02.721510+05:30
Ranchi,Jharkhand,23.3441,85.3096,24.4,67,0.0,936.3,9.25,29.2,121,53.0,31.4,9.6,1117.0,125.0,15.3,3,5,7,1,2026-05-03T20:22:02.721517+05:30
Jamshedpur,Jharkhand,22.8046,86.2029,26.2,75,0.0,989.5,9.05,38.5,205,56.5,41.0,7.4,403.0,145.0,14.8,7,5,7,1,2026-05-03T20:22:02.721524+05:30
Dhanbad,Jharkhand,23.7957,86.4304,24.8,84,0.0,979.1,9.0,30.2,202,83.1,72.6,33.0,344.0,139.0,69.6,3,5,7,1,2026-05-03T20:22:02.721532+05:30
Bokaro,Jharkhand,23.6693,86.1511,24.3,83,0.0,982.9,9.0,39.2,222,89.9,77.5,33.2,407.0,168.0,83.7,3,5,7,1,2026-05-03T20:22:02.721539+05:30
Bhubaneswar,Odisha,20.2961,85.8245,27.0,89,0.0,1001.4,9.1,41.4,102,24.0,20.7,7.4,256.0,94.0,5.2,7,5,4,1,2026-05-03T20:22:02.721546+05:30
Cuttack,Odisha,20.4625,85.8828,27.5,85,0.0,1003.2,9.15,41.0,102,24.0,20.7,7.4,294.0,94.0,5.2,7,5,4,1,2026-05-03T20:22:02.721554+05:30
Rourkela,Odisha,22.2604,84.8536,29.2,57,0.0,982.8,8.95,38.5,161,85.7,52.4,25.2,395.0,115.0,30.9,4,5,7,1,2026-05-03T20:22:02.721561+05:30
Raipur,Chhattisgarh,21.2514,81.6296,35.0,20,0.0,971.0,9.0,32.4,163,77.5,51.8,37.0,435.0,93.0,12.6,0,5,7,0,2026-05-03T20:22:02.721568+05:30
Bhilai,Chhattisgarh,21.1938,81.3509,33.9,22,0.0,971.3,9.0,35.6,126,65.0,37.8,30.1,1000.0,87.0,8.9,0,5,7,0,2026-05-03T20:22:02.721576+05:30
Guwahati,Assam,26.1158,91.7086,21.5,97,0.3,1003.8,7.2,19.1,60,16.2,14.4,8.3,275.0,74.0,1.8,6,5,4,1,2026-05-03T20:22:02.721583+05:30
Agartala,Tripura,23.8315,91.2868,22.2,95,0.0,1008.0,8.7,36.7,61,29.8,26.8,16.0,248.0,69.0,2.6,3,0,4,1,2026-05-03T20:22:02.721590+05:30
Shillong,Meghalaya,25.5788,91.8933,14.3,93,0.0,856.6,6.5,24.8,62,16.0,13.2,11.1,553.0,79.0,1.7,3,10,7,0,2026-05-03T20:22:02.721598+05:30
Imphal,Manipur,24.817,93.9368,18.8,96,0.0,924.9,9.15,37.8,63,37.8,27.4,18.7,592.0,60.0,4.4,3,10,7,1,2026-05-03T20:22:02.721605+05:30
Aizawl,Mizoram,23.7271,92.7176,17.4,91,0.0,893.1,8.5,55.1,41,15.4,11.6,6.7,236.0,55.0,0.7,3,10,7,0,2026-05-03T20:22:02.721612+05:30
Kohima,Nagaland,25.6701,94.1077,14.6,91,0.0,855.3,4.25,24.8,47,12.8,9.8,7.2,369.0,74.0,0.9,3,10,3,0,2026-05-03T20:22:02.721619+05:30
Gangtok,Sikkim,27.3314,88.6138,13.4,95,0.0,837.1,7.95,42.1,88,11.7,10.6,6.9,416.0,120.0,1.5,3,10,7,0,2026-05-03T20:22:02.721626+05:30
Siliguri,West Bengal,26.7271,88.3953,22.7,82,0.0,994.4,8.15,28.1,101,24.9,22.2,13.8,549.0,111.0,3.4,3,5,7,1,2026-05-03T20:22:06.007625+05:30
Durgapur,West Bengal,23.5204,87.3119,24.5,91,0.0,994.9,8.9,32.8,143,68.5,59.5,24.2,423.0,113.0,34.1,3,5,7,1,2026-05-03T20:22:06.007659+05:30
Asansol,West Bengal,23.6739,86.9524,24.4,87,0.0,993.3,8.95,29.2,166,74.0,64.5,28.7,367.0,124.0,52.3,3,5,7,1,2026-05-03T20:22:06.007669+05:30
Pondicherry,Puducherry,11.9139,79.8145,30.5,85,0.0,1006.1,8.55,44.3,184,30.3,23.3,4.6,225.0,138.0,1.6,3,5,4,1,2026-05-03T20:22:06.007678+05:30
Port Blair,Andaman and Nicobar Islands,11.6234,92.7265,28.4,80,0.0,1008.3,8.9,25.6,28,5.3,3.8,0.7,187.0,54.0,0.3,7,0,4,1,2026-05-03T20:22:06.007687+05:30
Haridwar,Uttarakhand,29.9457,78.1642,25.0,68,0.0,972.0,7.35,40.0,150,119.0,43.8,12.3,331.0,121.0,9.5,7,5,7,1,2026-05-03T20:22:06.007696+05:30
Rishikesh,Uttarakhand,30.0869,78.2676,24.1,67,0.0,964.9,7.45,37.4,146,144.4,40.4,8.1,374.0,132.0,6.7,3,5,7,1,2026-05-03T20:22:06.007704+05:30
Nainital,Uttarakhand,29.3919,79.4542,11.9,98,0.0,802.7,8.4,34.9,143,99.9,36.2,4.5,285.0,135.0,4.0,3,10,7,0,2026-05-03T20:22:06.007712+05:30
Mussoorie,Uttarakhand,30.4599,78.0664,12.6,83,0.0,800.6,7.3,53.3,146,131.8,41.7,18.4,364.0,120.0,11.0,3,10,7,0,2026-05-03T20:22:06.007720+05:30
Dharamshala,Himachal Pradesh,32.219,76.3234,17.0,75,0.1,866.6,6.85,41.4,125,49.8,21.5,8.2,232.0,137.0,4.2,6,5,7,0,2026-05-03T20:22:06.007728+05:30
Dalhousie,Himachal Pradesh,32.5387,75.971,11.1,96,0.0,801.7,7.95,48.2,139,60.8,26.4,16.4,348.0,133.0,4.9,3,10,7,0,2026-05-03T20:22:06.007736+05:30
Patiala,Punjab,30.3398,76.3869,29.4,47,0.0,974.7,7.5,63.0,747,998.4,130.4,8.0,371.0,137.0,10.4,4,5,7,1,2026-05-03T20:22:06.007744+05:30
Bhatinda,Punjab,30.211,74.9455,26.5,55,0.0,979.5,8.15,56.5,343,668.7,116.9,5.1,316.0,149.0,12.9,4,5,7,1,2026-05-03T20:22:06.007752+05:30
Rohtak,Haryana,28.8955,76.6066,29.2,51,0.0,978.3,7.65,52.6,768,281.3,69.8,9.8,385.0,155.0,16.0,4,5,7,1,2026-05-03T20:22:06.007759+05:30
Panipat,Haryana,29.3909,76.9635,27.5,62,0.0,977.5,7.45,54.0,1256,698.5,103.6,8.5,383.0,151.0,13.7,7,5,7,1,2026-05-03T20:22:06.007766+05:30
Mathura,Uttar Pradesh,27.4924,77.6737,28.2,56,0.0,982.6,7.9,60.8,859,773.0,99.0,12.3,293.0,115.0,8.2,4,5,7,1,2026-05-03T20:22:06.007773+05:30
Vrindavan,Uttar Pradesh,27.5823,77.7027,27.9,58,0.0,983.0,7.9,59.4,859,773.0,99.0,12.3,306.0,115.0,8.2,4,5,7,1,2026-05-03T20:22:06.007780+05:30
Ayodhya,Uttar Pradesh,26.7922,82.1998,27.2,60,0.0,994.5,8.25,40.7,161,48.9,39.3,8.0,357.0,144.0,5.4,4,5,7,1,2026-05-03T20:22:06.007788+05:30
Ratlam,Madhya Pradesh,23.3315,75.0367,31.5,28,0.0,950.4,8.5,47.2,91,15.8,10.4,1.7,172.0,122.0,4.4,0,5,7,0,2026-05-03T20:22:06.007795+05:30
Sagar,Madhya Pradesh,23.8388,78.7378,30.0,35,0.0,946.2,8.7,39.6,75,65.2,22.2,3.1,235.0,102.0,2.8,4,5,7,0,2026-05-03T20:22:06.007803+05:30
Satna,Madhya Pradesh,24.6005,80.8322,30.6,41,0.0,967.9,8.7,27.7,119,51.2,23.2,6.9,259.0,119.0,5.3,0,5,7,0,2026-05-03T20:22:06.007810+05:30
Akola,Maharashtra,20.7002,77.0082,35.0,15,0.0,970.8,8.85,41.4,74,34.6,13.9,5.8,311.0,109.0,9.0,0,5,7,0,2026-05-03T20:22:06.007818+05:30
Amravati,Maharashtra,20.9374,77.7796,35.4,13,0.0,963.4,8.85,42.1,75,38.2,14.5,6.2,169.0,107.0,8.5,0,5,10,0,2026-05-03T20:22:06.007827+05:30
Latur,Maharashtra,18.4088,76.5604,33.3,16,0.0,936.8,9.05,40.0,63,48.7,18.6,10.1,183.0,86.0,5.3,0,5,7,0,2026-05-03T20:22:06.007834+05:30
Nanded,Maharashtra,19.1383,77.3091,34.3,14,0.0,964.4,9.0,36.0,69,52.6,19.7,10.2,271.0,87.0,2.8,0,5,7,0,2026-05-03T20:22:06.007842+05:30
Gulbarga,Karnataka,17.3297,76.8343,34.9,14,0.0,955.2,9.1,41.4,76,67.5,22.4,18.9,208.0,81.0,4.0,0,5,7,0,2026-05-03T20:22:06.007849+05:30
Bidar,Karnataka,17.9104,77.5199,32.2,22,0.0,932.8,9.15,37.4,76,74.7,29.6,16.9,551.0,84.0,5.1,0,5,7,0,2026-05-03T20:22:06.007856+05:30
Hospet,Karnataka,15.2689,76.3909,30.2,37,0.0,953.2,9.2,36.7,71,68.9,32.8,30.8,336.0,75.0,4.4,0,5,7,0,2026-05-03T20:22:06.007863+05:30
Tirupur,Tamil Nadu,11.1085,77.3411,29.2,63,0.0,973.9,9.35,51.8,89,26.4,18.9,10.2,197.0,91.0,3.7,7,5,7,1,2026-05-03T20:22:06.007870+05:30
Alappuzha,Kerala,9.4981,76.3388,28.6,86,0.0,1008.8,9.0,36.0,83,43.4,26.5,14.7,126.0,61.0,3.3,7,0,4,1,2026-05-03T20:22:06.007878+05:30
Munnar,Kerala,10.0889,77.0595,17.5,98,0.0,856.8,9.3,28.1,68,25.1,18.7,6.6,219.0,84.0,1.7,3,10,7,1,2026-05-03T20:22:06.007885+05:30
Silchar,Assam,24.8333,92.7789,21.8,97,0.0,1007.6,8.35,36.4,55,46.2,32.1,8.5,317.0,86.0,5.4,3,5,4,1,2026-05-03T20:22:06.007892+05:30
Dibrugarh,Assam,27.4728,94.912,23.1,86,0.0,998.4,8.2,21.6,60,20.5,20.0,13.6,382.0,54.0,1.9,3,5,7,1,2026-05-03T20:22:06.007900+05:30
