city,state,latitude,longitude,temp,humidity,rain,pressure,uv_index,wind_gusts,aqi,pm10,pm2_5,mosquito_risk,arthritis_risk,migraine_risk,frizz_risk,updated_at
Delhi,Delhi,28.6139,77.209,23.6,58,0.0,985.7,5.9,18.7,163,271.9,121.1,0,5,3,0,2026-03-07T00:22:46.812133+05:30
Mumbai,Maharashtra,19.076,72.8777,27.0,76,0.0,1009.5,7.4,25.6,132,32.7,29.7,7,0,4,1,2026-03-07T00:22:46.812180+05:30
Bangalore,Karnataka,12.9716,77.5946,22.2,49,0.0,911.7,9.15,24.5,111,44.1,42.6,0,5,7,0,2026-03-07T00:22:46.812198+05:30
Hyderabad,Telangana,17.385,78.4867,24.6,47,0.0,953.8,8.45,24.1,99,58.0,49.4,0,5,7,0,2026-03-07T00:22:46.812208+05:30
Chennai,Tamil Nadu,13.0827,80.2707,25.3,92,0.0,1008.0,8.9,33.8,76,29.5,23.9,7,0,4,1,2026-03-07T00:22:46.812222+05:30
Kolkata,West Bengal,22.5726,88.3639,23.2,94,0.0,1009.1,7.8,13.0,155,50.9,41.1,3,0,4,1,2026-03-07T00:22:46.812232+05:30
Pune,Maharashtra,18.5204,73.8567,22.1,64,0.0,949.1,8.0,27.7,92,44.1,42.3,3,5,7,0,2026-03-07T00:22:46.812242+05:30
Ahmedabad,Gujarat,23.0225,72.5714,23.7,53,0.0,1004.0,7.25,20.5,80,70.3,67.3,0,5,4,0,2026-03-07T00:22:46.812250+05:30
Jaipur,Rajasthan,26.9124,75.7873,26.1,27,0.0,962.0,6.7,24.5,89,120.1,47.1,4,5,7,0,2026-03-07T00:22:46.812259+05:30
Lucknow,Uttar Pradesh,26.8467,80.9462,22.6,74,0.0,996.7,6.4,22.3,167,90.8,72.6,3,5,7,1,2026-03-07T00:22:46.812267+05:30
Kanpur,Uttar Pradesh,26.4499,80.3319,22.8,77,0.0,994.7,6.4,13.3,168,146.7,76.8,3,5,7,1,2026-03-07T00:22:46.812274+05:30
Chandigarh,Chandigarh,30.7333,76.7794,20.6,82,0.0,971.3,5.8,15.8,135,94.1,79.9,3,5,3,1,2026-03-07T00:22:46.812282+05:30
Srinagar,Jammu and Kashmir,34.0837,74.7973,10.6,67,0.0,841.5,6.75,16.6,137,107.3,90.6,3,5,7,0,2026-03-07T00:22:46.812289+05:30
Jammu,Jammu and Kashmir,32.7266,74.857,20.8,78,0.0,974.5,6.45,18.7,131,66.4,59.5,3,5,7,1,2026-03-07T00:22:46.812297+05:30
Amritsar,Punjab,31.634,74.8723,21.9,70,0.0,982.6,6.2,12.2,159,67.1,65.7,3,5,7,1,2026-03-07T00:22:46.812306+05:30
Ludhiana,Punjab,30.901,75.8573,22.4,72,0.0,981.1,6.05,15.1,164,177.4,114.6,3,5,7,1,2026-03-07T00:22:46.812312+05:30
Jalandhar,Punjab,31.326,75.5762,22.2,77,0.0,982.0,6.2,13.7,163,111.5,94.3,3,5,7,1,2026-03-07T00:22:46.812319+05:30
Dehradun,Uttarakhand,30.6284,78.0322,13.3,96,0.0,831.5,6.15,28.1,146,83.1,61.9,3,10,7,0,2026-03-07T00:22:46.812326+05:30
Shimla,Himachal Pradesh,31.1048,77.1734,14.0,73,0.0,786.7,6.25,34.9,103,69.6,55.1,3,5,7,0,2026-03-07T00:22:46.812333+05:30
Manali,Himachal Pradesh,32.2396,77.1887,18.1,18,0.0,823.6,7.9,39.2,101,23.9,16.0,0,5,7,1,2026-03-07T00:22:46.812340+05:30
Gurgaon,Haryana,28.4595,77.0266,21.7,55,0.0,983.7,6.0,16.9,407,270.1,120.6,0,5,3,0,2026-03-07T00:22:46.812347+05:30
Noida,Uttar Pradesh,28.5355,77.391,23.2,66,0.0,987.2,5.9,17.3,407,270.1,120.6,3,5,3,1,2026-03-07T00:22:46.812354+05:30
Ghaziabad,Uttar Pradesh,28.6692,77.4538,22.3,80,0.0,985.3,5.85,14.4,170,225.4,131.8,3,5,3,1,2026-03-07T00:22:46.812361+05:30
Faridabad,Haryana,28.4089,77.3178,21.5,57,0.0,986.3,5.95,16.6,407,270.1,120.6,0,5,3,0,2026-03-07T00:22:46.812368+05:30
Meerut,Uttar Pradesh,28.9845,77.7064,21.2,85,0.0,984.3,5.75,14.0,170,225.4,131.8,3,5,3,1,2026-03-07T00:22:46.812377+05:30
Agra,Uttar Pradesh,27.1767,78.0081,22.4,56,0.0,990.2,6.25,18.7,243,300.8,99.0,0,5,7,0,2026-03-07T00:22:46.812384+05:30
Varanasi,Uttar Pradesh,25.3176,82.9739,21.9,81,0.0,1000.5,7.1,17.6,166,162.5,134.6,3,5,4,1,2026-03-07T00:22:46.812392+05:30
Prayagraj,Uttar Pradesh,25.4358,81.8463,23.0,72,0.0,999.0,6.95,16.2,168,124.3,92.2,3,5,7,1,2026-03-07T00:22:46.812400+05:30
Gorakhpur,Uttar Pradesh,26.7606,83.3732,21.3,80,0.0,1000.5,6.75,17.3,167,95.9,84.8,3,5,4,1,2026-03-07T00:22:46.812406+05:30
Bareilly,Uttar Pradesh,28.367,79.4304,21.5,84,0.0,989.8,6.1,14.4,166,93.4,78.0,3,5,7,1,2026-03-07T00:22:46.812416+05:30
Aligarh,Uttar Pradesh,27.8974,78.088,20.7,81,0.0,988.0,6.0,16.6,216,197.0,115.9,3,5,3,1,2026-03-07T00:22:46.812423+05:30
Moradabad,Uttar Pradesh,28.8386,78.7733,21.2,85,0.0,986.9,5.9,18.4,169,107.1,88.5,3,5,3,1,2026-03-07T00:22:46.812430+05:30
Saharanpur,Uttar Pradesh,29.9637,77.546,21.7,82,0.0,978.6,5.55,19.8,164,103.4,89.4,3,5,3,1,2026-03-07T00:22:46.812437+05:30
Jhansi,Uttar Pradesh,25.4484,78.5685,22.0,49,0.0,980.0,6.85,24.1,76,79.4,34.3,0,5,7,0,2026-03-07T00:22:56.016248+05:30
Surat,Gujarat,21.1702,72.8311,24.2,83,0.0,1008.3,7.15,24.1,137,73.6,72.2,3,0,4,1,2026-03-07T00:22:56.016284+05:30
Vadodara,Gujarat,22.3072,73.1812,25.5,67,0.0,1006.0,7.25,20.2,111,71.5,69.8,7,5,4,1,2026-03-07T00:22:56.016296+05:30
Rajkot,Gujarat,22.3039,70.8022,21.4,71,0.0,996.5,7.1,24.1,56,41.9,20.0,3,5,7,0,2026-03-07T00:22:56.016306+05:30
Thane,Maharashtra,19.2183,72.9781,24.7,75,0.0,1009.0,7.4,37.8,132,32.7,29.7,3,0,4,1,2026-03-07T00:22:56.016315+05:30
Nagpur,Maharashtra,21.1458,79.0882,25.8,36,0.0,974.2,7.8,25.9,60,29.9,21.0,4,5,7,0,2026-03-07T00:22:56.016324+05:30
Nashik,Maharashtra,19.9975,73.7898,23.1,54,0.0,946.7,7.6,33.5,98,35.9,35.0,0,5,7,0,2026-03-07T00:22:56.016333+05:30
Aurangabad,Maharashtra,19.8762,75.3433,23.5,44,0.0,944.9,8.1,23.4,75,41.2,38.4,0,5,7,0,2026-03-07T00:22:56.016341+05:30
Solapur,Maharashtra,17.6599,75.9064,24.7,50,0.0,957.2,8.4,18.0,95,24.7,21.8,0,5,7,0,2026-03-07T00:22:56.016351+05:30
Kolhapur,Maharashtra,16.705,74.2433,19.2,58,0.0,948.1,8.5,31.7,142,61.0,60.1,0,5,7,0,2026-03-07T00:22:56.016360+05:30
Goa,Goa,15.2993,74.124,26.1,88,0.0,998.8,8.55,32.0,154,60.1,56.8,7,5,7,1,2026-03-07T00:22:56.016370+05:30
Jodhpur,Rajasthan,26.2389,73.0243,26.4,35,0.0,985.0,6.95,22.7,65,77.1,25.2,4,5,7,0,2026-03-07T00:22:56.016376+05:30
Udaipur,Rajasthan,24.5854,73.7125,19.5,58,0.0,948.3,7.6,22.3,49,19.3,16.4,0,5,7,0,2026-03-07T00:22:56.016383+05:30
Kota,Rajasthan,25.2138,75.8648,22.1,59,0.0,980.5,7.0,17.3,67,50.5,33.6,0,5,7,0,2026-03-07T00:22:56.016390+05:30
Bikaner,Rajasthan,28.0229,73.3119,24.2,36,0.0,983.6,6.65,23.8,57,14.8,11.5,0,5,7,0,2026-03-07T00:22:56.016396+05:30
Ajmer,Rajasthan,26.4499,74.6399,23.6,35,0.0,956.7,6.95,26.3,59,23.5,21.5,0,5,7,0,2026-03-07T00:22:56.016403+05:30
Gwalior,Madhya Pradesh,26.2183,78.1828,21.3,64,0.0,985.5,6.6,20.9,100,129.0,42.5,3,5,7,0,2026-03-07T00:22:56.016409+05:30
Indore,Madhya Pradesh,22.7196,75.8577,19.5,64,0.0,949.3,7.55,22.3,68,36.2,34.8,3,5,7,0,2026-03-07T00:22:56.016416+05:30
Bhopal,Madhya Pradesh,23.2599,77.4126,22.4,43,0.0,955.1,7.4,24.8,72,43.4,37.6,0,5,7,0,2026-03-07T00:22:56.016423+05:30
Jabalpur,Madhya Pradesh,23.1815,79.9864,23.5,46,0.0,963.0,7.5,26.6,71,54.1,27.1,0,5,7,0,2026-03-07T00:22:56.016429+05:30
Ujjain,Madhya Pradesh,23.1765,75.7885,21.1,60,0.0,955.2,7.45,19.1,72,45.8,44.4,0,5,7,0,2026-03-07T00:22:56.016436+05:30
Visakhapatnam,Andhra Pradesh,17.6868,83.2185,26.1,91,0.0,1004.9,8.45,35.3,125,36.4,32.0,7,5,4,1,2026-03-07T00:22:56.016443+05:30
Vijayawada,Andhra Pradesh,16.5062,80.648,24.7,83,0.0,1002.8,8.55,12.2,114,38.2,36.6,3,5,4,1,2026-03-07T00:22:56.016449+05:30
Guntur,Andhra Pradesh,16.3067,80.4365,24.5,82,0.0,1003.9,8.55,18.0,99,38.4,36.6,3,5,4,1,2026-03-07T00:22:56.016456+05:30
Nellore,Andhra Pradesh,14.4426,79.9865,24.5,84,0.0,1006.4,8.75,28.8,105,30.5,28.8,3,5,4,1,2026-03-07T00:22:56.016463+05:30
Kurnool,Andhra Pradesh,15.8281,78.0373,27.2,34,0.0,976.7,8.55,23.4,74,20.4,16.9,4,5,7,0,2026-03-07T00:22:56.016470+05:30
Kakinada,Andhra Pradesh,16.9891,82.2475,24.1,98,0.0,1008.2,8.5,31.0,96,33.3,27.8,3,0,4,1,2026-03-07T00:22:56.016477+05:30
Tirupati,Andhra Pradesh,13.6288,79.4192,24.9,66,0.0,992.6,8.85,30.6,108,60.3,59.0,3,5,7,1,2026-03-07T00:22:56.016500+05:30
Warangal,Telangana,17.9689,79.5941,26.9,42,0.0,978.3,8.3,24.5,80,35.6,28.8,4,5,7,0,2026-03-07T00:22:56.016508+05:30
Nizamabad,Telangana,18.6725,78.0941,22.5,53,0.0,964.8,8.2,28.8,89,52.0,41.7,0,5,7,0,2026-03-07T00:22:56.016515+05:30
Mysore,Karnataka,12.2958,76.6396,22.5,90,0.0,928.9,9.2,37.1,123,51.5,50.3,3,5,7,1,2026-03-07T00:22:56.016522+05:30
Mangalore,Karnataka,12.9141,74.856,28.9,78,0.0,1007.8,8.8,23.8,126,54.6,50.2,7,5,4,1,2026-03-07T00:22:56.016528+05:30
Hubli-Dharwad,Karnataka,15.3647,75.124,21.9,82,0.0,941.2,8.75,36.7,90,44.8,43.8,3,5,7,1,2026-03-07T00:22:56.016535+05:30
Belgaum,Karnataka,15.8497,74.4977,21.9,71,0.0,926.0,8.8,40.0,108,49.7,48.5,3,5,7,1,2026-03-07T00:22:59.639516+05:30
Coimbatore,Tamil Nadu,11.0168,76.9558,24.2,85,0.0,962.6,9.15,41.0,112,26.2,25.5,3,5,7,1,2026-03-07T00:22:59.639552+05:30
Madurai,Tamil Nadu,9.9252,78.1198,25.4,82,0.0,994.5,9.15,29.9,90,27.8,25.6,7,5,7,1,2026-03-07T00:22:59.639565+05:30
Trichy,Tamil Nadu,10.7905,78.7047,24.8,80,0.0,1001.0,9.05,26.6,81,31.1,28.6,3,5,4,1,2026-03-07T00:22:59.639575+05:30
Salem,Tamil Nadu,11.6643,78.146,26.3,67,0.0,978.0,9.05,16.2,137,35.4,34.1,7,5,7,1,2026-03-07T00:22:59.639583+05:30
Tirunelveli,Tamil Nadu,8.7139,77.7567,25.8,76,0.0,1004.4,9.15,48.6,97,36.0,34.9,7,5,4,1,2026-03-07T00:22:59.639592+05:30
Vellore,Tamil Nadu,12.9165,79.1325,24.5,72,0.0,985.6,8.95,31.3,119,65.0,63.3,3,5,7,1,2026-03-07T00:22:59.639601+05:30
Erode,Tamil Nadu,11.341,77.7172,27.1,68,0.0,990.1,9.05,19.8,120,33.4,32.0,7,5,7,1,2026-03-07T00:22:59.639609+05:30
Kochi,Kerala,9.9312,76.2673,27.7,82,0.0,1010.0,8.95,34.6,130,60.3,58.9,7,0,4,1,2026-03-07T00:22:59.639617+05:30
Thiruvananthapuram,Kerala,8.5241,76.9366,27.2,83,0.0,1009.5,9.0,35.3,82,30.3,27.1,7,0,4,1,2026-03-07T00:22:59.639624+05:30
Kozhikode,Kerala,11.2588,75.7804,28.5,78,0.0,1008.9,8.85,27.0,107,43.9,40.3,7,0,4,1,2026-03-07T00:22:59.639632+05:30
Thrissur,Kerala,10.5276,76.2144,26.7,88,0.0,1008.2,8.95,33.5,124,48.3,46.4,7,0,4,1,2026-03-07T00:22:59.639642+05:30
Kannur,Kerala,11.8745,75.3704,27.9,82,0.0,1008.3,8.85,32.0,113,54.5,51.5,7,0,4,1,2026-03-07T00:22:59.639650+05:30
Patna,Bihar,25.5941,85.1376,24.5,70,0.0,1003.4,7.25,21.6,164,72.9,66.6,3,5,4,1,2026-03-07T00:22:59.639658+05:30
Gaya,Bihar,24.7914,85.0002,22.2,80,0.0,996.5,7.35,20.5,158,61.2,56.8,3,5,7,1,2026-03-07T00:22:59.639665+05:30
Muzaffarpur,Bihar,26.1209,85.3647,22.2,78,0.0,1003.7,7.2,20.5,167,88.7,81.3,3,5,4,1,2026-03-07T00:22:59.639673+05:30
Bhagalpur,Bihar,25.2425,87.0117,22.7,78,0.0,1004.1,7.25,17.3,160,75.2,66.6,3,5,4,1,2026-03-07T00:22:59.639679+05:30
Ranchi,Jharkhand,23.3441,85.3096,22.1,67,0.0,939.4,8.0,31.0,154,62.9,48.8,3,5,7,0,2026-03-07T00:22:59.639687+05:30
Jamshedpur,Jharkhand,22.8046,86.2029,24.6,77,0.0,993.3,7.9,19.1,149,49.0,38.1,3,5,7,1,2026-03-07T00:22:59.639694+05:30
Dhanbad,Jharkhand,23.7957,86.4304,25.9,55,0.0,982.6,7.75,27.4,167,72.9,64.7,4,5,7,1,2026-03-07T00:22:59.639701+05:30
Bokaro,Jharkhand,23.6693,86.1511,24.5,62,0.0,986.6,7.75,29.5,171,78.9,69.4,3,5,7,1,2026-03-07T00:22:59.639707+05:30
Bhubaneswar,Odisha,20.2961,85.8245,25.1,89,0.0,1005.0,8.2,29.9,135,49.5,44.4,7,5,4,1,2026-03-07T00:22:59.639714+05:30
Cuttack,Odisha,20.4625,85.8828,25.2,88,0.0,1007.1,8.2,31.3,135,49.5,44.4,7,5,4,1,2026-03-07T00:22:59.639721+05:30
Rourkela,Odisha,22.2604,84.8536,25.3,61,0.0,986.4,7.8,10.4,152,80.6,64.5,7,5,7,1,2026-03-07T00:22:59.639728+05:30
Raipur,Chhattisgarh,21.2514,81.6296,24.7,50,0.0,975.4,7.9,22.7,98,110.4,84.5,0,5,7,0,2026-03-07T00:22:59.639735+05:30
Bhilai,Chhattisgarh,21.1938,81.3509,24.0,46,0.0,975.8,7.9,23.8,89,74.5,60.5,0,5,7,0,2026-03-07T00:22:59.639742+05:30
Guwahati,Assam,26.1158,91.7086,23.4,78,0.0,1004.4,7.2,20.5,153,62.9,58.8,3,5,4,1,2026-03-07T00:22:59.639749+05:30
Agartala,Tripura,23.8315,91.2868,21.5,78,0.0,1009.3,7.55,16.9,159,101.0,94.1,3,0,4,1,2026-03-07T00:22:59.639756+05:30
Shillong,Meghalaya,25.5788,91.8933,11.7,76,0.0,857.0,7.6,33.1,119,44.9,41.6,3,5,7,0,2026-03-07T00:22:59.639764+05:30
Imphal,Manipur,24.817,93.9368,17.4,61,0.0,925.5,7.8,34.9,156,95.2,90.3,3,5,7,0,2026-03-07T00:22:59.639771+05:30
Aizawl,Mizoram,23.7271,92.7176,19.5,56,0.0,895.4,7.7,34.6,183,136.9,129.5,0,5,7,0,2026-03-07T00:22:59.639778+05:30
Kohima,Nagaland,25.6701,94.1077,15.6,60,0.0,857.0,7.65,46.8,159,99.4,93.6,0,5,7,0,2026-03-07T00:22:59.639786+05:30
Gangtok,Sikkim,27.3314,88.6138,14.3,88,0.0,840.0,7.55,18.0,110,65.2,58.9,3,10,7,0,2026-03-07T00:22:59.639793+05:30
Siliguri,West Bengal,26.7271,88.3953,21.6,68,0.0,997.5,7.2,15.5,147,68.0,60.8,3,5,7,0,2026-03-07T00:23:02.907547+05:30
Durgapur,West Bengal,23.5204,87.3119,24.8,73,0.0,998.0,7.75,24.1,161,72.2,62.9,3,5,7,1,2026-03-07T00:23:02.907578+05:30
Asansol,West Bengal,23.6739,86.9524,25.6,65,0.0,996.6,7.75,21.6,161,69.4,61.0,7,5,7,1,2026-03-07T00:23:02.907588+05:30
Pondicherry,Puducherry,11.9139,79.8145,23.9,96,0.0,1009.6,8.9,32.4,73,27.2,21.0,3,0,4,1,2026-03-07T00:23:02.907596+05:30
Port Blair,Andaman and Nicobar Islands,11.6234,92.7265,27.2,70,0.0,1008.7,8.85,14.4,70,54.2,32.7,7,0,4,1,2026-03-07T00:23:02.907604+05:30
Haridwar,Uttarakhand,29.9457,78.1642,21.7,83,0.0,977.6,5.65,23.4,157,99.4,83.8,3,5,3,1,2026-03-07T00:23:02.907611+05:30
Rishikesh,Uttarakhand,30.0869,78.2676,20.8,81,0.0,970.4,5.7,21.6,159,114.3,83.6,3,5,3,1,2026-03-07T00:23:02.907619+05:30
Nainital,Uttarakhand,29.3919,79.4542,16.1,69,0.0,807.5,6.5,46.4,160,101.3,76.8,3,5,7,0,2026-03-07T00:23:02.907627+05:30
Mussoorie,Uttarakhand,30.4599,78.0664,15.0,84,0.0,804.4,6.05,40.7,154,129.5,91.3,3,10,7,0,2026-03-07T00:23:02.907634+05:30
Dharamshala,Himachal Pradesh,32.219,76.3234,21.5,58,0.0,871.9,5.75,21.2,79,31.0,21.1,0,5,3,0,2026-03-07T00:23:02.907641+05:30
Dalhousie,Himachal Pradesh,32.5387,75.971,17.5,62,0.0,805.9,5.85,20.9,94,58.6,49.8,3,5,3,0,2026-03-07T00:23:02.907649+05:30
Patiala,Punjab,30.3398,76.3869,20.9,85,0.0,980.8,5.7,13.0,162,300.8,119.7,3,5,3,1,2026-03-07T00:23:02.907656+05:30
Bhatinda,Punjab,30.211,74.9455,22.6,53,0.0,985.5,6.4,16.9,138,73.8,57.5,0,5,7,0,2026-03-07T00:23:02.907664+05:30
Rohtak,Haryana,28.8955,76.6066,21.9,55,0.0,984.1,5.9,19.4,163,290.6,122.9,0,5,3,0,2026-03-07T00:23:02.907671+05:30
Panipat,Haryana,29.3909,76.9635,21.7,78,0.0,983.1,5.7,14.0,371,403.3,133.6,3,5,3,1,2026-03-07T00:23:02.907677+05:30
Mathura,Uttar Pradesh,27.4924,77.6737,19.1,71,0.0,989.0,6.2,19.1,186,193.2,99.0,3,5,7,0,2026-03-07T00:23:02.907684+05:30
Vrindavan,Uttar Pradesh,27.5823,77.7027,20.3,72,0.0,989.7,6.15,17.6,186,193.2,99.0,3,5,7,0,2026-03-07T00:23:02.907691+05:30
Ayodhya,Uttar Pradesh,26.7922,82.1998,22.2,76,0.0,998.7,6.55,19.4,167,142.5,113.4,3,5,7,1,2026-03-07T00:23:02.907697+05:30
Ratlam,Madhya Pradesh,23.3315,75.0367,23.6,50,0.0,956.1,7.4,20.9,64,49.4,48.0,0,5,7,0,2026-03-07T00:23:02.907704+05:30
Sagar,Madhya Pradesh,23.8388,78.7378,22.1,52,0.0,951.6,7.35,21.6,62,53.3,22.7,0,5,7,0,2026-03-07T00:23:02.907710+05:30
Satna,Madhya Pradesh,24.6005,80.8322,22.0,74,0.0,973.6,7.3,31.3,118,117.6,65.7,3,5,7,1,2026-03-07T00:23:02.907716+05:30
Akola,Maharashtra,20.7002,77.0082,23.2,56,0.0,975.9,7.85,19.8,78,38.0,32.8,0,5,7,0,2026-03-07T00:23:02.907724+05:30
Amravati,Maharashtra,20.9374,77.7796,23.2,58,0.0,967.9,7.75,15.1,76,44.7,37.5,0,5,7,0,2026-03-07T00:23:02.907731+05:30
Latur,Maharashtra,18.4088,76.5604,24.9,40,0.0,940.2,8.3,31.7,85,39.0,32.4,0,5,7,0,2026-03-07T00:23:02.907738+05:30
Nanded,Maharashtra,19.1383,77.3091,25.2,49,0.0,969.0,8.1,20.9,91,60.5,51.6,4,5,7,0,2026-03-07T00:23:02.907745+05:30
Gulbarga,Karnataka,17.3297,76.8343,26.0,42,0.0,958.9,8.4,33.1,68,25.7,21.0,4,5,7,0,2026-03-07T00:23:02.907751+05:30
Bidar,Karnataka,17.9104,77.5199,25.5,39,0.0,935.8,8.35,32.8,75,37.7,27.0,4,5,7,0,2026-03-07T00:23:02.907757+05:30
Hospet,Karnataka,15.2689,76.3909,25.9,45,0.0,956.0,8.75,20.2,115,35.9,33.5,4,5,7,0,2026-03-07T00:23:02.907763+05:30
Tirupur,Tamil Nadu,11.1085,77.3411,25.5,84,0.0,976.1,9.2,30.2,126,38.8,37.5,7,5,7,1,2026-03-07T00:23:02.907770+05:30
Alappuzha,Kerala,9.4981,76.3388,27.1,85,0.0,1010.3,8.95,31.0,106,42.0,39.2,7,0,4,1,2026-03-07T00:23:02.907776+05:30
Munnar,Kerala,10.0889,77.0595,19.7,88,0.0,857.1,9.45,29.9,101,48.9,47.1,3,10,7,1,2026-03-07T00:23:02.907784+05:30
Silchar,Assam,24.8333,92.7789,26.1,62,0.0,1007.7,7.55,12.6,170,120.1,115.9,7,5,4,1,2026-03-07T00:23:02.907790+05:30
Dibrugarh,Assam,27.4728,94.912,23.7,78,0.0,997.9,7.25,16.6,95,42.7,40.3,3,5,7,1,2026-03-07T00:23:02.907797+05:30
