city,state,latitude,longitude,temp,humidity,rain,pressure,uv_index,wind_gusts,aqi,pm10,pm2_5,mosquito_risk,arthritis_risk,migraine_risk,frizz_risk,updated_at
Delhi,Delhi,28.6139,77.209,21.9,58,0.0,987.8,7.15,42.1,761,472.2,92.2,0,5,7,0,2026-04-11T08:03:17.093980+05:30
Mumbai,Maharashtra,19.076,72.8777,28.1,83,0.0,1011.2,7.95,24.8,106,69.4,41.7,7,0,4,1,2026-04-11T08:03:17.094021+05:30
Bangalore,Karnataka,12.9716,77.5946,24.4,78,0.0,915.3,9.65,28.8,87,32.9,29.4,3,5,7,1,2026-04-11T08:03:17.094036+05:30
Hyderabad,Telangana,17.385,78.4867,29.4,62,0.0,957.0,9.25,24.5,102,61.9,52.4,7,5,7,1,2026-04-11T08:03:17.094046+05:30
Chennai,Tamil Nadu,13.0827,80.2707,29.6,75,0.0,1010.8,8.95,35.3,60,20.0,14.0,7,0,4,1,2026-04-11T08:03:17.094055+05:30
Kolkata,West Bengal,22.5726,88.3639,27.5,85,0.0,1010.5,8.75,19.1,149,49.5,33.8,7,0,4,1,2026-04-11T08:03:17.094063+05:30
Pune,Maharashtra,18.5204,73.8567,26.0,72,0.0,951.5,8.55,42.8,96,81.0,55.8,7,5,7,1,2026-04-11T08:03:17.094075+05:30
Ahmedabad,Gujarat,23.0225,72.5714,25.8,47,0.0,1006.3,8.05,19.8,71,28.3,22.0,4,5,4,0,2026-04-11T08:03:17.094083+05:30
Jaipur,Rajasthan,26.9124,75.7873,24.7,44,0.0,964.4,7.8,33.8,113,93.4,30.3,0,5,7,0,2026-04-11T08:03:17.094090+05:30
Lucknow,Uttar Pradesh,26.8467,80.9462,22.8,53,0.0,997.4,7.65,43.6,213,258.9,85.4,0,5,7,0,2026-04-11T08:03:17.094098+05:30
Kanpur,Uttar Pradesh,26.4499,80.3319,21.8,62,0.0,996.3,7.65,39.6,548,666.8,130.9,3,5,7,0,2026-04-11T08:03:17.094105+05:30
Chandigarh,Chandigarh,30.7333,76.7794,20.9,66,0.0,972.1,6.6,35.3,44,11.1,10.7,3,5,7,0,2026-04-11T08:03:17.094112+05:30
Srinagar,Jammu and Kashmir,34.0837,74.7973,9.2,88,0.0,842.5,6.85,29.2,82,39.8,29.6,3,10,7,0,2026-04-11T08:03:17.094119+05:30
Jammu,Jammu and Kashmir,32.7266,74.857,19.9,72,0.0,976.1,7.4,22.0,60,40.3,30.7,3,5,7,0,2026-04-11T08:03:17.094126+05:30
Amritsar,Punjab,31.634,74.8723,20.6,77,0.0,985.0,7.7,27.7,57,50.6,23.5,3,5,7,1,2026-04-11T08:03:17.094132+05:30
Ludhiana,Punjab,30.901,75.8573,21.6,62,0.0,982.9,7.3,37.4,58,17.2,15.7,3,5,7,0,2026-04-11T08:03:17.094138+05:30
Jalandhar,Punjab,31.326,75.5762,20.8,69,0.0,983.9,7.45,32.4,61,28.9,17.2,3,5,7,0,2026-04-11T08:03:17.094147+05:30
Dehradun,Uttarakhand,30.6284,78.0322,14.1,54,0.0,830.4,7.15,38.2,29,5.6,5.2,0,5,7,0,2026-04-11T08:03:17.094153+05:30
Shimla,Himachal Pradesh,31.1048,77.1734,12.8,59,0.0,784.9,7.35,46.4,45,11.5,9.6,0,5,7,0,2026-04-11T08:03:17.094160+05:30
Manali,Himachal Pradesh,32.2396,77.1887,14.5,43,0.0,819.5,9.3,36.7,56,17.9,8.6,0,5,7,0,2026-04-11T08:03:17.094166+05:30
Gurgaon,Haryana,28.4595,77.0266,20.7,68,0.0,986.5,7.3,35.6,2038,1117.6,158.8,3,5,7,0,2026-04-11T08:03:17.094173+05:30
Noida,Uttar Pradesh,28.5355,77.391,22.3,57,0.0,989.2,7.2,43.6,2038,1117.6,158.8,0,5,7,0,2026-04-11T08:03:17.094179+05:30
Ghaziabad,Uttar Pradesh,28.6692,77.4538,21.6,61,0.0,987.0,7.15,41.0,586,269.2,56.3,3,5,7,0,2026-04-11T08:03:17.094185+05:30
Faridabad,Haryana,28.4089,77.3178,22.1,58,0.0,988.7,7.25,42.1,2038,1117.6,158.8,0,5,7,0,2026-04-11T08:03:17.094194+05:30
Meerut,Uttar Pradesh,28.9845,77.7064,21.9,60,0.0,985.1,7.05,40.7,586,269.2,56.3,0,5,7,0,2026-04-11T08:03:17.094200+05:30
Agra,Uttar Pradesh,27.1767,78.0081,23.0,59,0.0,992.9,7.55,33.5,1306,808.4,149.5,0,5,7,0,2026-04-11T08:03:17.094206+05:30
Varanasi,Uttar Pradesh,25.3176,82.9739,24.5,50,0.0,1002.2,8.3,39.6,89,208.6,48.8,0,5,4,0,2026-04-11T08:03:17.094214+05:30
Prayagraj,Uttar Pradesh,25.4358,81.8463,24.8,47,0.0,1001.1,8.15,41.0,107,261.7,63.1,0,5,4,0,2026-04-11T08:03:17.094220+05:30
Gorakhpur,Uttar Pradesh,26.7606,83.3732,23.4,48,0.0,1000.9,8.1,35.3,82,308.3,78.7,0,5,4,0,2026-04-11T08:03:17.094226+05:30
Bareilly,Uttar Pradesh,28.367,79.4304,20.9,65,0.0,989.9,7.45,46.4,93,21.1,17.4,3,5,7,0,2026-04-11T08:03:17.094232+05:30
Aligarh,Uttar Pradesh,27.8974,78.088,22.5,58,0.0,990.1,7.35,44.6,1290,635.2,107.6,0,5,7,0,2026-04-11T08:03:17.094238+05:30
Moradabad,Uttar Pradesh,28.8386,78.7733,20.7,66,0.0,986.6,7.25,42.1,108,23.7,17.6,3,5,7,0,2026-04-11T08:03:17.094244+05:30
Saharanpur,Uttar Pradesh,29.9637,77.546,20.4,65,0.0,978.7,6.8,41.8,73,42.7,31.2,3,5,7,0,2026-04-11T08:03:17.094250+05:30
Jhansi,Uttar Pradesh,25.4484,78.5685,24.8,48,0.0,983.0,8.1,27.0,60,56.2,14.3,0,5,7,0,2026-04-11T08:03:20.307950+05:30
Surat,Gujarat,21.1702,72.8311,26.6,64,0.0,1009.9,7.75,29.2,117,44.2,41.6,7,0,4,1,2026-04-11T08:03:20.307982+05:30
Vadodara,Gujarat,22.3072,73.1812,24.8,61,0.0,1008.4,8.05,14.4,56,25.4,17.7,3,0,4,1,2026-04-11T08:03:20.307991+05:30
Rajkot,Gujarat,22.3039,70.8022,25.8,71,0.0,998.8,7.75,34.2,69,39.8,24.5,7,5,7,1,2026-04-11T08:03:20.307998+05:30
Thane,Maharashtra,19.2183,72.9781,27.6,82,0.0,1010.8,7.95,38.5,106,69.4,41.7,7,0,4,1,2026-04-11T08:03:20.308005+05:30
Nagpur,Maharashtra,21.1458,79.0882,25.9,48,0.0,978.0,8.75,21.2,67,17.1,13.6,4,5,7,0,2026-04-11T08:03:20.308012+05:30
Nashik,Maharashtra,19.9975,73.7898,25.9,54,0.0,948.9,8.25,34.9,103,78.7,63.8,4,5,7,0,2026-04-11T08:03:20.308018+05:30
Aurangabad,Maharashtra,19.8762,75.3433,27.5,35,0.0,947.9,8.9,32.0,75,30.9,22.2,4,5,7,0,2026-04-11T08:03:20.308025+05:30
Solapur,Maharashtra,17.6599,75.9064,29.4,46,0.0,960.2,9.0,19.1,66,28.6,23.6,4,5,7,1,2026-04-11T08:03:20.308031+05:30
Kolhapur,Maharashtra,16.705,74.2433,24.6,70,0.0,950.4,8.6,43.9,101,79.2,58.4,3,5,7,1,2026-04-11T08:03:20.308038+05:30
Goa,Goa,15.2993,74.124,27.7,79,0.0,1001.0,9.05,34.2,103,96.6,44.9,7,5,4,1,2026-04-11T08:03:20.308044+05:30
Jodhpur,Rajasthan,26.2389,73.0243,25.0,46,0.0,987.3,8.05,26.6,63,55.5,15.7,4,5,7,0,2026-04-11T08:03:20.308050+05:30
Udaipur,Rajasthan,24.5854,73.7125,23.3,41,0.0,950.9,8.6,30.2,44,22.9,10.0,0,5,7,0,2026-04-11T08:03:20.308057+05:30
Kota,Rajasthan,25.2138,75.8648,21.4,64,0.0,983.5,8.1,18.0,78,41.4,27.8,3,5,7,0,2026-04-11T08:03:20.308063+05:30
Bikaner,Rajasthan,28.0229,73.3119,25.2,48,0.0,987.1,7.9,33.5,55,15.8,12.0,4,5,7,0,2026-04-11T08:03:20.308069+05:30
Ajmer,Rajasthan,26.4499,74.6399,24.1,46,0.0,958.7,8.0,35.3,72,72.6,28.0,0,5,7,0,2026-04-11T08:03:20.308075+05:30
Gwalior,Madhya Pradesh,26.2183,78.1828,24.8,56,0.0,988.2,7.8,27.7,98,202.6,34.7,0,5,7,0,2026-04-11T08:03:20.308082+05:30
Indore,Madhya Pradesh,22.7196,75.8577,22.8,48,0.0,952.3,8.5,20.9,59,39.1,24.6,0,5,7,0,2026-04-11T08:03:20.308088+05:30
Bhopal,Madhya Pradesh,23.2599,77.4126,25.1,37,0.0,958.7,8.5,24.5,55,29.9,18.0,4,5,7,0,2026-04-11T08:03:20.308094+05:30
Jabalpur,Madhya Pradesh,23.1815,79.9864,24.8,41,0.0,966.8,8.6,19.8,70,38.9,31.5,0,5,7,0,2026-04-11T08:03:20.308100+05:30
Ujjain,Madhya Pradesh,23.1765,75.7885,23.0,48,0.0,958.2,8.4,18.0,63,46.0,30.7,0,5,7,0,2026-04-11T08:03:20.308106+05:30
Visakhapatnam,Andhra Pradesh,17.6868,83.2185,29.6,74,0.0,1007.5,9.15,41.4,87,32.7,27.4,7,5,4,1,2026-04-11T08:03:20.308112+05:30
Vijayawada,Andhra Pradesh,16.5062,80.648,29.1,77,0.0,1006.4,9.2,26.3,77,22.3,17.3,7,5,4,1,2026-04-11T08:03:20.308118+05:30
Guntur,Andhra Pradesh,16.3067,80.4365,29.2,77,0.0,1007.5,9.25,33.8,76,19.8,16.5,7,5,4,1,2026-04-11T08:03:20.308124+05:30
Nellore,Andhra Pradesh,14.4426,79.9865,29.3,74,0.0,1009.4,9.25,41.0,66,18.0,15.1,7,0,4,1,2026-04-11T08:03:20.308132+05:30
Kurnool,Andhra Pradesh,15.8281,78.0373,31.2,55,0.0,980.2,9.25,26.6,85,30.5,28.2,0,5,7,1,2026-04-11T08:03:20.308139+05:30
Kakinada,Andhra Pradesh,16.9891,82.2475,29.7,77,0.0,1011.5,9.2,34.2,65,24.2,17.1,7,0,4,1,2026-04-11T08:03:20.308146+05:30
Tirupati,Andhra Pradesh,13.6288,79.4192,27.0,79,0.0,995.6,9.45,31.3,78,24.2,20.8,7,5,7,1,2026-04-11T08:03:20.308152+05:30
Warangal,Telangana,17.9689,79.5941,28.5,76,0.0,982.5,9.1,25.9,104,48.7,44.6,7,5,7,1,2026-04-11T08:03:20.308158+05:30
Nizamabad,Telangana,18.6725,78.0941,29.2,59,0.0,968.1,9.0,21.2,81,39.8,31.0,4,5,7,1,2026-04-11T08:03:20.308164+05:30
Mysore,Karnataka,12.2958,76.6396,23.8,82,0.0,932.0,9.1,28.8,82,33.2,23.3,3,5,7,1,2026-04-11T08:03:20.308170+05:30
Mangalore,Karnataka,12.9141,74.856,29.0,80,0.0,1010.2,8.75,26.6,79,76.1,29.3,7,0,4,1,2026-04-11T08:03:20.308176+05:30
Hubli-Dharwad,Karnataka,15.3647,75.124,24.4,85,0.0,943.9,9.25,42.1,91,67.1,42.1,3,5,7,1,2026-04-11T08:03:20.308182+05:30
Belgaum,Karnataka,15.8497,74.4977,24.1,70,0.0,928.4,9.3,38.9,94,76.8,43.8,3,5,7,1,2026-04-11T08:03:23.525004+05:30
Coimbatore,Tamil Nadu,11.0168,76.9558,25.6,80,0.0,965.6,6.9,29.5,73,28.8,18.7,7,5,7,1,2026-04-11T08:03:23.525030+05:30
Madurai,Tamil Nadu,9.9252,78.1198,28.1,85,0.0,996.4,8.85,37.4,77,30.6,28.5,7,5,7,1,2026-04-11T08:03:23.525038+05:30
Trichy,Tamil Nadu,10.7905,78.7047,28.5,84,0.0,1003.4,9.4,24.5,69,32.1,27.7,7,5,4,1,2026-04-11T08:03:23.525046+05:30
Salem,Tamil Nadu,11.6643,78.146,28.3,73,0.0,981.1,8.8,20.2,72,22.9,19.3,7,5,7,1,2026-04-11T08:03:23.525052+05:30
Tirunelveli,Tamil Nadu,8.7139,77.7567,27.9,73,0.0,1006.6,9.2,49.3,74,27.3,21.9,7,5,4,1,2026-04-11T08:03:23.525058+05:30
Vellore,Tamil Nadu,12.9165,79.1325,27.0,75,0.0,988.5,9.5,32.4,86,40.3,36.6,7,5,7,1,2026-04-11T08:03:23.525064+05:30
Erode,Tamil Nadu,11.341,77.7172,28.5,81,0.0,992.8,8.1,26.3,63,17.1,15.5,7,5,7,1,2026-04-11T08:03:23.525070+05:30
Kochi,Kerala,9.9312,76.2673,27.0,83,0.0,1012.0,9.15,32.4,69,23.4,21.2,7,0,4,1,2026-04-11T08:03:23.525076+05:30
Thiruvananthapuram,Kerala,8.5241,76.9366,27.3,84,0.0,1010.9,9.05,39.6,65,20.4,12.5,7,0,4,1,2026-04-11T08:03:23.525082+05:30
Kozhikode,Kerala,11.2588,75.7804,27.5,83,0.0,1011.7,8.95,29.9,66,24.4,12.8,7,0,4,1,2026-04-11T08:03:23.525088+05:30
Thrissur,Kerala,10.5276,76.2144,26.8,83,0.0,1010.6,8.05,33.1,69,27.0,20.8,7,0,4,1,2026-04-11T08:03:23.525094+05:30
Kannur,Kerala,11.8745,75.3704,26.2,75,0.0,1011.2,8.25,31.0,68,16.0,10.9,7,0,4,1,2026-04-11T08:03:23.525100+05:30
Patna,Bihar,25.5941,85.1376,24.2,51,0.0,1004.8,8.45,31.3,71,156.0,43.3,0,5,4,0,2026-04-11T08:03:23.525106+05:30
Gaya,Bihar,24.7914,85.0002,25.2,51,0.0,998.6,8.5,33.8,68,93.4,29.3,4,5,7,0,2026-04-11T08:03:23.525112+05:30
Muzaffarpur,Bihar,26.1209,85.3647,23.1,52,0.0,1004.7,8.4,22.7,69,169.0,43.5,0,5,4,0,2026-04-11T08:03:23.525118+05:30
Bhagalpur,Bihar,25.2425,87.0117,24.2,61,0.0,1005.5,8.45,23.8,62,40.0,26.3,3,5,4,1,2026-04-11T08:03:23.525124+05:30
Ranchi,Jharkhand,23.3441,85.3096,23.5,47,0.0,942.1,9.05,33.8,63,45.3,17.8,0,5,7,0,2026-04-11T08:03:23.525130+05:30
Jamshedpur,Jharkhand,22.8046,86.2029,25.2,75,0.0,995.7,8.85,17.6,112,72.2,59.4,7,5,7,1,2026-04-11T08:03:23.525135+05:30
Dhanbad,Jharkhand,23.7957,86.4304,24.9,52,0.0,984.6,8.8,25.9,114,62.4,53.7,0,5,7,0,2026-04-11T08:03:23.525141+05:30
Bokaro,Jharkhand,23.6693,86.1511,24.7,53,0.0,988.8,8.8,27.7,110,61.9,52.4,0,5,7,0,2026-04-11T08:03:23.525147+05:30
Bhubaneswar,Odisha,20.2961,85.8245,28.7,83,0.0,1006.7,9.0,23.4,115,63.8,49.1,7,5,4,1,2026-04-11T08:03:23.525152+05:30
Cuttack,Odisha,20.4625,85.8828,28.9,82,0.0,1008.6,9.05,18.7,115,63.8,49.1,7,0,4,1,2026-04-11T08:03:23.525158+05:30
Rourkela,Odisha,22.2604,84.8536,25.8,67,0.0,990.1,8.75,17.3,84,46.7,37.8,7,5,7,1,2026-04-11T08:03:23.525163+05:30
Raipur,Chhattisgarh,21.2514,81.6296,26.9,41,0.0,979.6,8.85,19.8,109,43.2,36.3,4,5,7,0,2026-04-11T08:03:23.525169+05:30
Bhilai,Chhattisgarh,21.1938,81.3509,26.2,44,0.0,980.1,8.85,17.6,108,31.2,26.1,4,5,7,0,2026-04-11T08:03:23.525174+05:30
Guwahati,Assam,26.1158,91.7086,22.8,83,0.0,1006.4,8.35,20.9,105,43.2,35.6,3,5,4,1,2026-04-11T08:03:23.525179+05:30
Agartala,Tripura,23.8315,91.2868,25.7,86,0.0,1010.8,8.6,26.3,142,65.4,53.6,7,0,4,1,2026-04-11T08:03:23.525185+05:30
Shillong,Meghalaya,25.5788,91.8933,16.0,48,0.0,858.6,8.75,55.8,85,29.0,20.8,0,5,7,0,2026-04-11T08:03:23.525191+05:30
Imphal,Manipur,24.817,93.9368,19.2,55,0.0,926.3,8.95,51.5,92,58.6,39.9,0,5,7,0,2026-04-11T08:03:23.525196+05:30
Aizawl,Mizoram,23.7271,92.7176,21.0,62,0.0,897.0,8.8,40.7,85,46.4,29.0,3,5,7,0,2026-04-11T08:03:23.525202+05:30
Kohima,Nagaland,25.6701,94.1077,14.9,59,0.0,857.0,8.3,77.8,68,34.6,24.4,0,5,7,0,2026-04-11T08:03:23.525207+05:30
Gangtok,Sikkim,27.3314,88.6138,13.3,84,0.0,838.6,8.55,18.7,79,34.3,26.5,3,10,7,0,2026-04-11T08:03:23.525213+05:30
Siliguri,West Bengal,26.7271,88.3953,21.0,68,0.0,998.3,8.3,17.6,120,64.0,47.5,3,5,7,0,2026-04-11T08:03:26.742257+05:30
Durgapur,West Bengal,23.5204,87.3119,26.2,66,0.0,999.6,8.75,20.2,107,69.4,61.7,7,5,7,1,2026-04-11T08:03:26.742285+05:30
Asansol,West Bengal,23.6739,86.9524,26.4,62,0.0,998.1,8.8,21.6,88,49.1,41.6,7,5,7,1,2026-04-11T08:03:26.742294+05:30
Pondicherry,Puducherry,11.9139,79.8145,29.0,81,0.0,1012.1,9.35,36.0,57,19.6,13.8,7,0,4,1,2026-04-11T08:03:26.742302+05:30
Port Blair,Andaman and Nicobar Islands,11.6234,92.7265,29.2,73,0.0,1010.3,9.25,24.1,25,8.1,5.2,7,0,4,1,2026-04-11T08:03:26.742309+05:30
Haridwar,Uttarakhand,29.9457,78.1642,20.4,78,0.0,976.9,6.9,42.8,63,26.7,25.6,3,5,7,1,2026-04-11T08:03:26.742316+05:30
Rishikesh,Uttarakhand,30.0869,78.2676,21.4,65,0.0,969.4,6.95,41.4,50,15.0,13.7,3,5,7,0,2026-04-11T08:03:26.742323+05:30
Nainital,Uttarakhand,29.3919,79.4542,18.7,48,0.0,807.2,7.75,64.8,54,12.7,10.7,0,5,7,0,2026-04-11T08:03:26.742329+05:30
Mussoorie,Uttarakhand,30.4599,78.0664,15.8,50,0.0,803.2,6.85,51.5,54,14.7,14.1,0,5,7,0,2026-04-11T08:03:26.742336+05:30
Dharamshala,Himachal Pradesh,32.219,76.3234,18.2,54,0.0,870.2,7.6,24.5,80,22.1,8.3,0,5,7,0,2026-04-11T08:03:26.742344+05:30
Dalhousie,Himachal Pradesh,32.5387,75.971,14.7,60,0.0,803.9,7.7,20.2,48,22.3,16.6,0,5,7,0,2026-04-11T08:03:26.742351+05:30
Patiala,Punjab,30.3398,76.3869,21.3,63,0.0,982.4,6.95,35.3,797,624.0,71.0,3,5,7,0,2026-04-11T08:03:26.742358+05:30
Bhatinda,Punjab,30.211,74.9455,22.0,62,0.0,988.7,7.7,28.8,59,65.4,20.8,3,5,7,0,2026-04-11T08:03:26.742364+05:30
Rohtak,Haryana,28.8955,76.6066,21.4,61,0.0,986.9,7.2,37.4,1109,793.5,123.9,3,5,7,0,2026-04-11T08:03:26.742371+05:30
Panipat,Haryana,29.3909,76.9635,21.2,62,0.0,984.7,7.0,34.6,2103,1486.4,177.4,3,5,7,0,2026-04-11T08:03:26.742377+05:30
Mathura,Uttar Pradesh,27.4924,77.6737,23.9,54,0.0,991.9,7.5,32.0,1392,756.2,142.0,0,5,7,0,2026-04-11T08:03:26.742384+05:30
Vrindavan,Uttar Pradesh,27.5823,77.7027,22.8,60,0.0,992.2,7.45,38.2,1392,756.2,142.0,0,5,7,0,2026-04-11T08:03:26.742390+05:30
Ayodhya,Uttar Pradesh,26.7922,82.1998,23.9,47,0.0,999.1,7.85,45.7,116,229.1,77.1,0,5,7,0,2026-04-11T08:03:26.742396+05:30
Ratlam,Madhya Pradesh,23.3315,75.0367,21.5,64,0.0,958.6,8.35,20.2,54,37.4,23.5,3,5,7,0,2026-04-11T08:03:26.742402+05:30
Sagar,Madhya Pradesh,23.8388,78.7378,24.5,34,0.0,955.2,8.5,26.6,53,21.9,12.7,0,5,7,0,2026-04-11T08:03:26.742409+05:30
Satna,Madhya Pradesh,24.6005,80.8322,24.8,43,0.0,976.6,8.5,33.8,57,139.2,22.9,0,5,7,0,2026-04-11T08:03:26.742415+05:30
Akola,Maharashtra,20.7002,77.0082,26.9,48,0.0,979.3,8.75,24.8,79,35.0,28.4,4,5,7,0,2026-04-11T08:03:26.742422+05:30
Amravati,Maharashtra,20.9374,77.7796,26.8,43,0.0,971.6,8.75,22.3,71,25.6,20.0,4,5,7,0,2026-04-11T08:03:26.742429+05:30
Latur,Maharashtra,18.4088,76.5604,26.0,51,0.0,943.2,9.0,17.6,73,49.7,39.2,4,5,7,0,2026-04-11T08:03:26.742436+05:30
Nanded,Maharashtra,19.1383,77.3091,28.1,55,0.0,972.1,8.9,15.5,85,36.9,29.9,4,5,7,1,2026-04-11T08:03:26.742442+05:30
Gulbarga,Karnataka,17.3297,76.8343,30.1,48,0.0,962.0,9.1,19.8,63,25.4,21.0,0,5,7,1,2026-04-11T08:03:26.742448+05:30
Bidar,Karnataka,17.9104,77.5199,28.5,55,0.0,938.9,9.05,29.2,70,38.4,30.3,4,5,7,1,2026-04-11T08:03:26.742454+05:30
Hospet,Karnataka,15.2689,76.3909,27.0,67,0.0,959.1,9.3,24.1,82,44.7,39.7,7,5,7,1,2026-04-11T08:03:26.742460+05:30
Tirupur,Tamil Nadu,11.1085,77.3411,27.2,73,0.0,979.1,8.65,26.6,74,29.4,21.8,7,5,7,1,2026-04-11T08:03:26.742466+05:30
Alappuzha,Kerala,9.4981,76.3388,27.0,86,0.0,1012.1,8.0,29.9,70,23.9,19.8,7,0,4,1,2026-04-11T08:03:26.742472+05:30
Munnar,Kerala,10.0889,77.0595,22.9,77,0.0,860.0,9.0,37.8,82,31.4,29.7,3,5,7,1,2026-04-11T08:03:26.742479+05:30
Silchar,Assam,24.8333,92.7789,23.9,75,0.0,1010.0,8.6,25.2,131,65.0,47.0,3,0,4,1,2026-04-11T08:03:26.742485+05:30
Dibrugarh,Assam,27.4728,94.912,20.2,89,0.0,1000.8,8.4,20.2,90,37.0,26.1,3,5,4,1,2026-04-11T08:03:26.742490+05:30
