city,state,latitude,longitude,temp,humidity,rain,pressure,uv_index,wind_gusts,aqi,pm10,pm2_5,no2,co,o3,so2,mosquito_risk,arthritis_risk,migraine_risk,frizz_risk,updated_at
Delhi,Delhi,28.6139,77.209,31.5,56,0.0,976.4,7.65,29.2,183,195.6,98.3,45.9,971.0,64.0,30.6,0,5,7,1,2026-05-14T00:27:37.872405+05:30
Mumbai,Maharashtra,19.076,72.8777,29.7,78,0.0,1005.0,7.85,40.7,74,31.9,17.2,7.6,300.0,75.0,5.6,7,5,4,1,2026-05-14T00:27:37.872460+05:30
Bangalore,Karnataka,12.9716,77.5946,27.0,43,0.0,908.8,9.45,37.1,78,23.9,20.7,36.8,429.0,53.0,9.4,4,5,7,0,2026-05-14T00:27:37.872475+05:30
Hyderabad,Telangana,17.385,78.4867,30.7,47,0.0,950.0,8.7,25.9,72,38.4,27.4,16.9,431.0,84.0,8.1,0,5,7,1,2026-05-14T00:27:37.872485+05:30
Chennai,Tamil Nadu,13.0827,80.2707,29.2,80,0.0,1002.4,9.1,47.2,25,9.5,6.7,7.1,228.0,39.0,4.3,7,5,4,1,2026-05-14T00:27:37.872493+05:30
Kolkata,West Bengal,22.5726,88.3639,27.9,85,0.0,1002.1,8.95,46.1,59,10.1,8.5,6.4,241.0,33.0,3.4,7,5,4,1,2026-05-14T00:27:37.872500+05:30
Pune,Maharashtra,18.5204,73.8567,26.5,78,0.0,945.1,8.5,49.3,75,47.0,26.8,13.9,306.0,77.0,16.0,7,5,7,1,2026-05-14T00:27:37.872507+05:30
Ahmedabad,Gujarat,23.0225,72.5714,32.8,53,0.0,996.1,8.15,36.4,78,40.7,22.1,7.7,227.0,78.0,4.8,0,5,7,1,2026-05-14T00:27:37.872516+05:30
Jaipur,Rajasthan,26.9124,75.7873,33.4,24,0.0,953.8,8.25,49.3,133,98.3,44.0,29.7,352.0,38.0,11.3,0,5,7,0,2026-05-14T00:27:37.872524+05:30
Lucknow,Uttar Pradesh,26.8467,80.9462,29.5,52,0.0,987.7,8.15,29.9,155,141.6,83.8,27.4,460.0,67.0,16.7,4,5,7,1,2026-05-14T00:27:37.872530+05:30
Kanpur,Uttar Pradesh,26.4499,80.3319,30.5,48,0.0,985.9,8.2,35.3,159,138.8,76.6,24.1,494.0,66.0,14.6,0,5,7,1,2026-05-14T00:27:37.872536+05:30
Chandigarh,Chandigarh,30.7333,76.7794,23.8,55,0.0,962.5,7.7,37.1,133,77.5,51.0,26.9,839.0,85.0,17.3,0,5,7,0,2026-05-14T00:27:37.872543+05:30
Srinagar,Jammu and Kashmir,34.0837,74.7973,11.7,94,0.0,840.6,8.75,32.8,63,36.8,35.7,32.2,564.0,5.0,0.0,3,10,7,0,2026-05-14T00:27:37.872550+05:30
Jammu,Jammu and Kashmir,32.7266,74.857,25.6,41,0.0,967.2,8.45,37.4,79,30.3,25.0,22.9,461.0,49.0,3.8,4,5,7,0,2026-05-14T00:27:37.872557+05:30
Amritsar,Punjab,31.634,74.8723,25.5,61,0.0,975.0,8.35,34.6,152,55.5,41.1,12.3,785.0,82.0,5.8,7,5,7,1,2026-05-14T00:27:37.872563+05:30
Ludhiana,Punjab,30.901,75.8573,25.5,63,0.0,972.5,7.95,66.6,159,67.1,53.3,20.2,1125.0,76.0,10.2,7,5,7,1,2026-05-14T00:27:37.872568+05:30
Jalandhar,Punjab,31.326,75.5762,25.2,56,0.0,973.6,8.1,56.5,143,64.5,36.9,11.4,1140.0,87.0,5.3,4,5,7,0,2026-05-14T00:27:37.872574+05:30
Dehradun,Uttarakhand,30.6284,78.0322,13.6,93,0.0,824.7,8.1,36.0,76,41.2,29.9,37.0,336.0,59.0,4.0,3,10,7,0,2026-05-14T00:27:37.872582+05:30
Shimla,Himachal Pradesh,31.1048,77.1734,11.9,68,0.0,778.9,8.2,45.7,102,37.6,23.4,22.0,398.0,83.0,5.3,3,5,7,0,2026-05-14T00:27:37.872588+05:30
Manali,Himachal Pradesh,32.2396,77.1887,9.1,84,0.0,813.8,10.0,43.2,72,6.3,4.8,47.1,244.0,73.0,0.0,3,10,7,0,2026-05-14T00:27:37.872594+05:30
Gurgaon,Haryana,28.4595,77.0266,29.6,52,0.0,974.8,7.75,33.8,679,467.5,140.2,41.6,1020.0,81.0,37.8,4,5,7,1,2026-05-14T00:27:37.872600+05:30
Noida,Uttar Pradesh,28.5355,77.391,27.4,77,0.0,977.7,7.7,27.0,679,467.5,140.2,41.6,1357.0,81.0,37.8,7,5,7,1,2026-05-14T00:27:37.872607+05:30
Ghaziabad,Uttar Pradesh,28.6692,77.4538,28.0,73,0.0,975.9,7.7,28.1,162,203.5,95.5,25.1,689.0,76.0,19.8,7,5,7,1,2026-05-14T00:27:37.872614+05:30
Faridabad,Haryana,28.4089,77.3178,28.8,70,0.0,977.1,7.75,28.4,679,467.5,140.2,41.6,926.0,81.0,37.8,7,5,7,1,2026-05-14T00:27:37.872620+05:30
Meerut,Uttar Pradesh,28.9845,77.7064,29.5,64,0.0,974.8,7.6,33.5,162,203.5,95.5,25.1,702.0,76.0,19.8,7,5,7,1,2026-05-14T00:27:37.872626+05:30
Agra,Uttar Pradesh,27.1767,78.0081,30.2,51,0.0,980.8,8.05,29.5,566,834.5,156.9,13.8,520.0,93.0,16.0,0,5,7,1,2026-05-14T00:27:37.872631+05:30
Varanasi,Uttar Pradesh,25.3176,82.9739,28.9,59,0.0,992.2,8.7,39.2,156,93.4,77.8,20.8,575.0,96.0,18.0,4,5,7,1,2026-05-14T00:27:37.872637+05:30
Prayagraj,Uttar Pradesh,25.4358,81.8463,30.0,49,0.0,990.4,8.55,47.5,155,105.0,73.8,24.5,415.0,77.0,15.1,4,5,7,1,2026-05-14T00:27:37.872645+05:30
Gorakhpur,Uttar Pradesh,26.7606,83.3732,26.0,80,0.0,993.0,8.5,38.2,139,61.5,53.7,14.2,443.0,96.0,11.3,7,5,7,1,2026-05-14T00:27:37.872650+05:30
Bareilly,Uttar Pradesh,28.367,79.4304,26.8,82,0.0,980.6,7.95,28.1,154,181.1,91.7,28.0,510.0,89.0,24.4,7,5,7,1,2026-05-14T00:27:37.872656+05:30
Aligarh,Uttar Pradesh,27.8974,78.088,28.1,69,0.0,978.8,7.85,26.3,297,233.3,90.1,16.9,579.0,87.0,13.8,7,5,7,1,2026-05-14T00:27:37.872662+05:30
Moradabad,Uttar Pradesh,28.8386,78.7733,27.3,75,0.0,977.2,7.8,27.0,155,187.7,99.2,34.1,704.0,56.0,16.8,7,5,7,1,2026-05-14T00:27:37.872668+05:30
Saharanpur,Uttar Pradesh,29.9637,77.546,25.9,68,0.0,969.4,7.4,31.0,161,154.1,86.8,26.6,755.0,108.0,23.6,7,5,7,1,2026-05-14T00:27:37.872674+05:30
Jhansi,Uttar Pradesh,25.4484,78.5685,30.8,40,0.0,971.5,8.45,50.4,113,111.5,44.7,12.2,333.0,73.0,7.8,0,5,7,0,2026-05-14T00:27:41.136703+05:30
Surat,Gujarat,21.1702,72.8311,29.9,81,0.0,1001.5,7.25,43.9,86,24.5,19.2,25.7,429.0,53.0,42.0,7,5,4,1,2026-05-14T00:27:41.136735+05:30
Vadodara,Gujarat,22.3072,73.1812,30.5,74,0.0,998.7,8.1,39.2,79,36.1,24.4,23.6,354.0,55.0,32.2,3,5,7,1,2026-05-14T00:27:41.136745+05:30
Rajkot,Gujarat,22.3039,70.8022,29.8,52,0.0,989.7,7.75,50.8,60,18.6,13.3,6.4,175.0,72.0,6.1,4,5,7,1,2026-05-14T00:27:41.136754+05:30
Thane,Maharashtra,19.2183,72.9781,29.8,76,0.0,1004.4,7.9,37.1,74,31.9,17.2,7.6,249.0,75.0,5.6,7,5,4,1,2026-05-14T00:27:41.136762+05:30
Nagpur,Maharashtra,21.1458,79.0882,33.3,37,0.0,968.3,8.95,40.3,100,63.1,37.6,21.1,296.0,80.0,14.3,0,5,7,1,2026-05-14T00:27:41.136770+05:30
Nashik,Maharashtra,19.9975,73.7898,26.0,72,0.0,942.0,8.25,42.5,69,31.0,17.1,6.7,248.0,67.0,2.1,7,5,7,1,2026-05-14T00:27:41.136778+05:30
Aurangabad,Maharashtra,19.8762,75.3433,31.6,47,0.0,940.5,8.85,40.3,89,28.1,19.7,6.7,271.0,102.0,6.0,0,5,7,1,2026-05-14T00:27:41.136786+05:30
Solapur,Maharashtra,17.6599,75.9064,28.2,71,0.0,953.4,9.1,37.4,91,66.6,42.8,22.6,538.0,77.0,7.5,7,5,7,1,2026-05-14T00:27:41.136794+05:30
Kolhapur,Maharashtra,16.705,74.2433,25.2,89,0.0,944.8,8.9,50.0,67,34.3,21.5,9.2,215.0,68.0,4.2,7,5,7,1,2026-05-14T00:27:41.136802+05:30
Goa,Goa,15.2993,74.124,27.6,93,0.0,994.7,8.9,28.1,69,60.5,29.5,7.6,234.0,59.0,2.1,7,5,7,1,2026-05-14T00:27:41.136809+05:30
Jodhpur,Rajasthan,26.2389,73.0243,34.0,25,0.0,976.8,8.4,36.0,104,205.4,47.4,10.7,202.0,78.0,3.1,0,5,7,0,2026-05-14T00:27:41.136817+05:30
Udaipur,Rajasthan,24.5854,73.7125,32.2,27,0.0,941.7,8.85,43.6,69,58.3,27.3,6.1,216.0,93.0,5.0,0,5,7,0,2026-05-14T00:27:41.136825+05:30
Kota,Rajasthan,25.2138,75.8648,35.5,22,0.0,972.3,8.4,46.8,70,35.4,21.3,8.4,355.0,78.0,4.0,0,5,10,0,2026-05-14T00:27:41.136833+05:30
Bikaner,Rajasthan,28.0229,73.3119,29.5,59,0.0,974.0,8.35,36.7,107,107.8,41.8,5.7,327.0,81.0,9.3,4,5,7,1,2026-05-14T00:27:41.136840+05:30
Ajmer,Rajasthan,26.4499,74.6399,31.4,30,0.0,948.9,8.35,47.9,72,50.8,22.9,7.0,262.0,89.0,5.9,0,5,7,0,2026-05-14T00:27:41.136848+05:30
Gwalior,Madhya Pradesh,26.2183,78.1828,33.0,24,0.0,976.6,8.25,38.5,138,170.4,59.6,12.6,363.0,75.0,9.0,0,5,7,0,2026-05-14T00:27:41.136855+05:30
Indore,Madhya Pradesh,22.7196,75.8577,34.2,24,0.0,943.7,8.7,34.2,83,39.5,29.8,15.7,294.0,69.0,8.5,0,5,7,0,2026-05-14T00:27:41.136862+05:30
Bhopal,Madhya Pradesh,23.2599,77.4126,33.5,22,0.0,948.1,8.75,43.2,87,32.0,21.7,8.3,237.0,73.0,5.4,0,5,7,0,2026-05-14T00:27:41.136869+05:30
Jabalpur,Madhya Pradesh,23.1815,79.9864,31.2,29,0.0,955.8,8.9,37.1,94,83.4,39.3,30.5,262.0,53.0,8.2,0,5,7,0,2026-05-14T00:27:41.136876+05:30
Ujjain,Madhya Pradesh,23.1765,75.7885,33.7,24,0.0,948.8,8.65,36.7,73,26.8,19.6,4.2,294.0,101.0,5.6,0,5,7,0,2026-05-14T00:27:41.136884+05:30
Visakhapatnam,Andhra Pradesh,17.6868,83.2185,29.0,80,0.0,1000.3,9.15,40.0,75,21.7,19.3,20.6,1484.0,24.0,76.4,7,5,4,1,2026-05-14T00:27:41.136891+05:30
Vijayawada,Andhra Pradesh,16.5062,80.648,29.4,77,0.0,998.9,9.2,36.0,53,11.6,9.7,9.0,143.0,31.0,6.1,7,5,7,1,2026-05-14T00:27:41.136898+05:30
Guntur,Andhra Pradesh,16.3067,80.4365,29.1,78,0.0,999.9,9.25,30.6,53,11.0,9.0,8.1,152.0,31.0,5.8,7,5,7,1,2026-05-14T00:27:41.136904+05:30
Nellore,Andhra Pradesh,14.4426,79.9865,28.3,86,0.0,1001.7,9.15,38.5,26,9.7,6.5,4.3,207.0,39.0,2.1,7,5,4,1,2026-05-14T00:27:41.136911+05:30
Kurnool,Andhra Pradesh,15.8281,78.0373,33.0,34,0.0,972.5,9.2,33.8,55,38.8,25.8,15.6,182.0,65.0,4.2,0,5,7,0,2026-05-14T00:27:41.136918+05:30
Kakinada,Andhra Pradesh,16.9891,82.2475,28.9,81,0.0,1003.8,9.15,37.8,32,7.1,4.3,1.4,172.0,48.0,0.9,7,5,4,1,2026-05-14T00:27:41.136923+05:30
Tirupati,Andhra Pradesh,13.6288,79.4192,27.6,72,0.0,987.4,9.25,36.4,51,18.6,16.2,24.3,204.0,11.0,3.3,7,5,7,1,2026-05-14T00:27:41.136929+05:30
Warangal,Telangana,17.9689,79.5941,31.1,52,0.0,974.5,9.2,41.4,68,41.3,32.4,13.0,369.0,90.0,9.0,0,5,7,1,2026-05-14T00:27:41.136935+05:30
Nizamabad,Telangana,18.6725,78.0941,31.4,46,0.0,961.5,9.15,33.8,80,48.8,33.8,14.3,312.0,82.0,6.2,0,5,7,1,2026-05-14T00:27:41.136940+05:30
Mysore,Karnataka,12.2958,76.6396,24.2,83,0.0,925.1,9.25,34.9,83,31.5,26.3,23.8,328.0,67.0,4.5,3,5,7,1,2026-05-14T00:27:41.136946+05:30
Mangalore,Karnataka,12.9141,74.856,29.0,82,0.0,1002.9,7.65,37.4,77,32.6,24.1,18.8,475.0,38.0,4.8,7,5,4,1,2026-05-14T00:27:41.136952+05:30
Hubli-Dharwad,Karnataka,15.3647,75.124,24.8,92,0.0,937.9,8.75,42.5,65,21.1,14.7,10.9,198.0,56.0,2.6,3,5,7,1,2026-05-14T00:27:41.136958+05:30
Belgaum,Karnataka,15.8497,74.4977,23.8,93,0.0,922.7,9.15,45.0,60,33.6,21.0,14.5,204.0,46.0,2.7,3,5,7,1,2026-05-14T00:27:44.394575+05:30
Coimbatore,Tamil Nadu,11.0168,76.9558,25.2,86,0.0,957.5,9.2,39.6,65,21.5,17.7,9.8,291.0,76.0,4.2,7,5,7,1,2026-05-14T00:27:44.394605+05:30
Madurai,Tamil Nadu,9.9252,78.1198,28.2,81,0.0,988.0,8.65,21.6,76,27.9,25.8,29.1,331.0,51.0,9.6,7,5,7,1,2026-05-14T00:27:44.394614+05:30
Trichy,Tamil Nadu,10.7905,78.7047,28.0,82,0.0,995.1,9.0,32.8,74,26.5,25.4,18.2,261.0,63.0,8.7,7,5,7,1,2026-05-14T00:27:44.394621+05:30
Salem,Tamil Nadu,11.6643,78.146,28.7,64,0.0,973.2,9.2,28.8,87,42.8,37.5,34.6,325.0,62.0,14.1,7,5,7,1,2026-05-14T00:27:44.394629+05:30
Tirunelveli,Tamil Nadu,8.7139,77.7567,29.2,66,0.0,998.1,7.05,20.9,58,19.2,15.4,8.3,411.0,66.0,2.8,7,5,7,1,2026-05-14T00:27:44.394636+05:30
Vellore,Tamil Nadu,12.9165,79.1325,27.8,78,0.0,980.8,9.15,27.7,67,29.4,26.5,25.9,240.0,31.0,11.1,7,5,7,1,2026-05-14T00:27:44.394643+05:30
Erode,Tamil Nadu,11.341,77.7172,28.0,74,0.0,984.8,9.15,34.2,91,36.6,31.0,36.3,342.0,51.0,5.5,7,5,7,1,2026-05-14T00:27:44.394649+05:30
Kochi,Kerala,9.9312,76.2673,27.0,94,0.0,1005.0,8.6,32.8,77,34.7,31.4,29.4,369.0,22.0,7.1,7,5,4,1,2026-05-14T00:27:44.394655+05:30
Thiruvananthapuram,Kerala,8.5241,76.9366,26.7,90,0.0,1004.2,7.1,36.0,54,16.5,9.8,2.8,340.0,92.0,1.5,7,5,4,1,2026-05-14T00:27:44.394661+05:30
Kozhikode,Kerala,11.2588,75.7804,26.3,94,0.1,1004.2,8.55,39.6,63,35.4,20.9,4.7,204.0,95.0,2.9,10,5,4,1,2026-05-14T00:27:44.394667+05:30
Thrissur,Kerala,10.5276,76.2144,25.9,97,0.0,1003.6,8.7,35.3,71,36.2,31.9,24.5,479.0,30.0,6.0,7,5,4,1,2026-05-14T00:27:44.394674+05:30
Kannur,Kerala,11.8745,75.3704,27.9,90,0.0,1003.1,8.9,36.0,78,36.7,29.7,22.6,312.0,42.0,4.2,7,5,4,1,2026-05-14T00:27:44.394680+05:30
Patna,Bihar,25.5941,85.1376,25.4,86,0.0,996.1,8.75,55.1,153,52.4,48.4,14.8,413.0,99.0,17.2,7,5,7,1,2026-05-14T00:27:44.394685+05:30
Gaya,Bihar,24.7914,85.0002,28.0,73,0.0,988.7,8.85,28.1,154,65.4,59.6,12.4,408.0,119.0,17.6,7,5,7,1,2026-05-14T00:27:44.394691+05:30
Muzaffarpur,Bihar,26.1209,85.3647,24.4,90,0.0,996.8,8.75,43.9,151,41.1,38.8,15.0,407.0,90.0,13.1,3,5,7,1,2026-05-14T00:27:44.394697+05:30
Bhagalpur,Bihar,25.2425,87.0117,24.6,93,0.1,998.1,8.75,38.2,130,51.5,43.4,13.0,349.0,98.0,17.4,6,5,7,1,2026-05-14T00:27:44.394703+05:30
Ranchi,Jharkhand,23.3441,85.3096,24.4,74,0.0,933.1,9.25,35.3,91,43.3,34.2,10.9,302.0,117.0,24.6,3,5,7,1,2026-05-14T00:27:44.394709+05:30
Jamshedpur,Jharkhand,22.8046,86.2029,27.3,83,0.0,986.4,9.15,29.5,91,34.5,27.7,17.7,361.0,77.0,20.8,7,5,7,1,2026-05-14T00:27:44.394714+05:30
Dhanbad,Jharkhand,23.7957,86.4304,27.0,87,0.0,975.6,9.1,27.7,146,63.3,53.4,41.6,197.0,72.0,93.2,7,5,7,1,2026-05-14T00:27:44.394720+05:30
Bokaro,Jharkhand,23.6693,86.1511,27.0,82,0.0,979.1,9.1,29.9,148,51.9,42.3,23.7,1787.0,100.0,58.6,7,5,7,1,2026-05-14T00:27:44.394726+05:30
Bhubaneswar,Odisha,20.2961,85.8245,28.2,83,0.0,999.2,9.0,41.0,37,8.3,7.2,6.8,185.0,33.0,2.7,7,5,7,1,2026-05-14T00:27:44.394732+05:30
Cuttack,Odisha,20.4625,85.8828,28.3,83,0.0,1001.0,9.05,39.6,37,8.3,7.2,6.8,202.0,33.0,2.7,7,5,4,1,2026-05-14T00:27:44.394738+05:30
Rourkela,Odisha,22.2604,84.8536,28.5,69,0.0,980.3,9.05,41.4,81,37.7,29.6,13.1,230.0,104.0,28.0,7,5,7,1,2026-05-14T00:27:44.394743+05:30
Raipur,Chhattisgarh,21.2514,81.6296,31.9,47,0.0,969.8,9.05,38.5,107,52.3,40.2,26.5,389.0,81.0,38.7,0,5,7,1,2026-05-14T00:27:44.394750+05:30
Bhilai,Chhattisgarh,21.1938,81.3509,29.4,63,0.1,970.0,9.05,42.8,100,55.1,41.7,29.9,481.0,79.0,45.0,10,5,7,1,2026-05-14T00:27:44.394755+05:30
Guwahati,Assam,26.1158,91.7086,22.5,97,0.0,999.6,7.4,22.3,118,10.6,9.7,10.4,448.0,62.0,1.9,3,5,7,1,2026-05-14T00:27:44.394761+05:30
Agartala,Tripura,23.8315,91.2868,24.7,93,0.0,1003.6,8.75,22.7,79,22.2,18.7,18.1,295.0,31.0,2.4,3,5,4,1,2026-05-14T00:27:44.394767+05:30
Shillong,Meghalaya,25.5788,91.8933,15.2,97,0.0,853.4,8.05,23.4,66,8.0,6.0,5.3,308.0,94.0,2.0,3,10,7,0,2026-05-14T00:27:44.394773+05:30
Imphal,Manipur,24.817,93.9368,20.8,98,0.0,920.5,9.3,29.5,82,29.2,27.8,18.5,517.0,34.0,2.3,3,5,7,1,2026-05-14T00:27:44.394778+05:30
Aizawl,Mizoram,23.7271,92.7176,16.9,99,0.0,889.1,9.1,24.1,62,14.8,11.9,7.7,224.0,57.0,2.8,3,10,7,1,2026-05-14T00:27:44.394784+05:30
Kohima,Nagaland,25.6701,94.1077,15.3,97,0.0,851.6,8.85,28.8,63,15.6,14.6,16.5,321.0,37.0,1.1,3,10,7,0,2026-05-14T00:27:44.394789+05:30
Gangtok,Sikkim,27.3314,88.6138,13.3,94,0.1,833.6,8.95,35.3,80,15.7,14.8,11.6,556.0,112.0,2.5,6,10,7,0,2026-05-14T00:27:44.394795+05:30
Siliguri,West Bengal,26.7271,88.3953,22.2,90,0.0,990.7,8.65,33.8,106,33.9,31.7,13.8,365.0,107.0,4.4,3,5,7,1,2026-05-14T00:27:47.662285+05:30
Durgapur,West Bengal,23.5204,87.3119,27.4,87,0.0,990.8,9.0,34.6,99,21.4,19.2,21.0,209.0,31.0,28.0,7,5,7,1,2026-05-14T00:27:47.662315+05:30
Asansol,West Bengal,23.6739,86.9524,27.5,84,0.0,989.2,9.05,33.1,105,36.2,30.9,26.7,371.0,54.0,39.9,7,5,7,1,2026-05-14T00:27:47.662324+05:30
Pondicherry,Puducherry,11.9139,79.8145,28.4,88,0.0,1003.7,9.0,32.4,43,8.6,5.4,2.8,203.0,42.0,0.9,7,5,4,1,2026-05-14T00:27:47.662331+05:30
Port Blair,Andaman and Nicobar Islands,11.6234,92.7265,25.2,97,0.1,1003.7,3.1,35.6,19,6.7,4.2,0.4,108.0,42.0,0.2,10,5,0,1,2026-05-14T00:27:47.662338+05:30
Haridwar,Uttarakhand,29.9457,78.1642,24.1,76,0.0,967.6,7.5,29.5,153,90.8,63.1,21.9,446.0,85.0,14.3,3,5,7,1,2026-05-14T00:27:47.662345+05:30
Rishikesh,Uttarakhand,30.0869,78.2676,20.9,88,0.0,960.1,7.6,23.8,134,79.9,51.1,16.9,464.0,98.0,9.6,3,5,7,1,2026-05-14T00:27:47.662393+05:30
Nainital,Uttarakhand,29.3919,79.4542,13.2,99,0.0,800.6,8.45,45.0,137,134.1,60.1,17.8,323.0,93.0,11.2,3,10,7,0,2026-05-14T00:27:47.662405+05:30
Mussoorie,Uttarakhand,30.4599,78.0664,15.4,61,0.0,798.6,8.0,52.2,122,84.8,57.4,36.2,361.0,76.0,12.4,3,5,7,0,2026-05-14T00:27:47.662412+05:30
Dharamshala,Himachal Pradesh,32.219,76.3234,20.6,39,0.0,864.6,8.35,45.0,46,18.7,14.8,16.2,212.0,40.0,0.5,0,5,7,0,2026-05-14T00:27:47.662418+05:30
Dalhousie,Himachal Pradesh,32.5387,75.971,11.4,69,0.0,798.0,8.6,33.1,67,38.1,29.2,51.3,557.0,22.0,2.6,3,5,7,0,2026-05-14T00:27:47.662426+05:30
Patiala,Punjab,30.3398,76.3869,27.8,47,0.0,971.8,7.6,38.2,183,170.4,99.7,40.3,499.0,45.0,16.8,4,5,7,0,2026-05-14T00:27:47.662433+05:30
Bhatinda,Punjab,30.211,74.9455,29.2,38,0.0,977.5,8.25,43.6,168,189.5,88.7,23.0,517.0,54.0,10.5,4,5,7,0,2026-05-14T00:27:47.662440+05:30
Rohtak,Haryana,28.8955,76.6066,27.9,71,0.0,974.8,7.7,31.3,381,342.7,115.5,29.3,655.0,96.0,29.3,7,5,7,1,2026-05-14T00:27:47.662446+05:30
Panipat,Haryana,29.3909,76.9635,28.1,68,0.0,973.8,7.55,34.2,553,491.7,148.5,27.9,794.0,90.0,24.9,7,5,7,1,2026-05-14T00:27:47.662453+05:30
Mathura,Uttar Pradesh,27.4924,77.6737,28.4,63,0.0,980.1,7.95,28.8,492,599.8,134.1,15.7,521.0,95.0,14.1,7,5,7,1,2026-05-14T00:27:47.662460+05:30
Vrindavan,Uttar Pradesh,27.5823,77.7027,28.4,63,0.0,980.4,7.95,29.2,492,599.8,134.1,15.7,526.0,95.0,14.1,7,5,7,1,2026-05-14T00:27:47.662466+05:30
Ayodhya,Uttar Pradesh,26.7922,82.1998,27.0,64,0.0,990.2,8.3,28.8,152,156.5,81.5,32.7,468.0,65.0,14.0,7,5,7,1,2026-05-14T00:27:47.662472+05:30
Ratlam,Madhya Pradesh,23.3315,75.0367,32.2,28,0.0,949.5,8.55,40.0,72,28.2,19.0,3.1,212.0,110.0,5.7,0,5,7,0,2026-05-14T00:27:47.662478+05:30
Sagar,Madhya Pradesh,23.8388,78.7378,31.6,28,0.0,945.1,8.8,39.6,84,53.8,26.5,21.0,228.0,45.0,4.1,0,5,7,0,2026-05-14T00:27:47.662484+05:30
Satna,Madhya Pradesh,24.6005,80.8322,29.9,36,0.0,965.4,8.75,46.8,109,76.4,42.8,25.2,341.0,82.0,8.3,4,5,7,0,2026-05-14T00:27:47.662490+05:30
Akola,Maharashtra,20.7002,77.0082,36.3,29,0.0,969.9,8.95,37.4,94,68.0,43.9,29.8,313.0,60.0,9.8,0,5,10,0,2026-05-14T00:27:47.662497+05:30
Amravati,Maharashtra,20.9374,77.7796,34.3,34,0.0,962.4,8.95,36.7,96,52.5,32.6,12.2,320.0,85.0,6.8,0,5,7,1,2026-05-14T00:27:47.662504+05:30
Latur,Maharashtra,18.4088,76.5604,27.4,67,0.0,936.0,8.95,36.0,96,73.1,47.0,17.6,341.0,82.0,7.8,7,5,7,1,2026-05-14T00:27:47.662511+05:30
Nanded,Maharashtra,19.1383,77.3091,30.7,52,0.0,964.2,9.05,30.6,93,66.4,43.4,22.2,308.0,70.0,7.7,0,5,7,1,2026-05-14T00:27:47.662517+05:30
Gulbarga,Karnataka,17.3297,76.8343,31.0,47,0.0,955.2,9.1,28.1,78,52.9,35.5,24.9,342.0,73.0,10.7,0,5,7,1,2026-05-14T00:27:47.662523+05:30
Bidar,Karnataka,17.9104,77.5199,30.0,47,0.0,932.2,9.15,36.0,74,43.5,32.0,22.6,332.0,68.0,6.3,4,5,7,1,2026-05-14T00:27:47.662529+05:30
Hospet,Karnataka,15.2689,76.3909,28.2,69,0.0,952.4,9.2,28.4,84,24.8,19.0,11.4,288.0,74.0,4.5,7,5,7,1,2026-05-14T00:27:47.662536+05:30
Tirupur,Tamil Nadu,11.1085,77.3411,26.8,78,0.0,970.9,9.25,36.0,88,32.8,27.3,28.5,227.0,59.0,6.5,7,5,7,1,2026-05-14T00:27:47.662541+05:30
Alappuzha,Kerala,9.4981,76.3388,27.6,89,0.0,1005.1,8.4,34.2,72,33.9,25.1,17.2,137.0,63.0,5.5,7,5,4,1,2026-05-14T00:27:47.662547+05:30
Munnar,Kerala,10.0889,77.0595,17.8,97,0.0,853.5,9.45,33.5,66,25.0,22.8,16.0,320.0,31.0,2.1,3,10,7,1,2026-05-14T00:27:47.662553+05:30
Silchar,Assam,24.8333,92.7789,24.8,98,0.0,1002.4,8.9,24.5,104,29.2,25.1,9.0,321.0,70.0,3.6,3,5,4,1,2026-05-14T00:27:47.662560+05:30
Dibrugarh,Assam,27.4728,94.912,22.2,98,0.1,993.8,8.7,23.8,75,26.4,25.0,21.0,290.0,19.0,1.4,6,5,7,1,2026-05-14T00:27:47.662565+05:30
