city,state,latitude,longitude,temp,humidity,rain,pressure,uv_index,wind_gusts,aqi,pm10,pm2_5,no2,co,o3,so2,mosquito_risk,arthritis_risk,migraine_risk,frizz_risk,updated_at
Delhi,Delhi,28.6139,77.209,33.8,43,0.0,980.9,7.75,47.5,676,472.2,118.0,32.0,902.0,107.0,34.3,0,5,7,1,2026-05-28T09:24:04.234301+05:30
Mumbai,Maharashtra,19.076,72.8777,32.3,62,0.0,1010.9,7.8,39.2,43,39.2,16.0,6.2,206.0,57.0,6.6,3,0,4,1,2026-05-28T09:24:04.234354+05:30
Bangalore,Karnataka,12.9716,77.5946,26.1,73,0.0,915.1,8.75,35.3,69,15.9,14.3,13.2,484.0,74.0,6.3,7,5,7,1,2026-05-28T09:24:04.234367+05:30
Hyderabad,Telangana,17.385,78.4867,30.7,59,0.0,955.3,8.9,31.7,66,19.2,17.9,12.9,528.0,75.0,8.0,0,5,7,1,2026-05-28T09:24:04.234375+05:30
Chennai,Tamil Nadu,13.0827,80.2707,35.0,49,0.0,1008.2,8.55,38.2,75,28.8,24.1,17.8,416.0,68.0,19.9,0,0,4,1,2026-05-28T09:24:04.234381+05:30
Kolkata,West Bengal,22.5726,88.3639,32.0,69,0.0,1005.7,8.9,36.7,104,56.7,38.1,3.9,348.0,120.0,7.2,3,5,4,1,2026-05-28T09:24:04.234388+05:30
Pune,Maharashtra,18.5204,73.8567,29.7,57,0.0,951.2,8.4,39.2,33,8.7,6.9,5.9,188.0,55.0,8.1,4,5,7,1,2026-05-28T09:24:04.234393+05:30
Ahmedabad,Gujarat,23.0225,72.5714,32.0,60,0.0,1003.5,8.1,42.8,69,50.8,23.3,4.0,162.0,51.0,5.6,0,5,4,1,2026-05-28T09:24:04.234399+05:30
Jaipur,Rajasthan,26.9124,75.7873,36.4,31,0.0,958.6,8.25,48.6,204,385.6,69.2,3.0,169.0,78.0,4.2,0,5,10,1,2026-05-28T09:24:04.234408+05:30
Lucknow,Uttar Pradesh,26.8467,80.9462,32.2,52,0.0,992.7,8.2,44.6,99,49.5,35.3,6.1,399.0,122.0,13.4,0,5,7,1,2026-05-28T09:24:04.234413+05:30
Kanpur,Uttar Pradesh,26.4499,80.3319,33.8,48,0.0,990.1,8.2,39.2,202,435.9,73.8,6.3,403.0,136.0,16.5,0,5,7,1,2026-05-28T09:24:04.234419+05:30
Chandigarh,Chandigarh,30.7333,76.7794,33.0,41,0.0,967.1,7.75,55.8,87,73.6,38.8,9.9,385.0,156.0,12.5,0,5,7,1,2026-05-28T09:24:04.234425+05:30
Srinagar,Jammu and Kashmir,34.0837,74.7973,20.9,48,0.0,844.5,8.9,37.8,70,35.5,17.3,7.7,393.0,108.0,5.8,0,5,7,0,2026-05-28T09:24:04.234432+05:30
Jammu,Jammu and Kashmir,32.7266,74.857,34.0,25,0.0,969.2,8.45,42.5,85,42.0,31.7,18.4,377.0,115.0,4.4,0,5,7,0,2026-05-28T09:24:04.234437+05:30
Amritsar,Punjab,31.634,74.8723,34.2,32,0.0,977.1,8.35,35.6,105,64.3,49.5,20.9,661.0,107.0,10.7,0,5,7,0,2026-05-28T09:24:04.234442+05:30
Ludhiana,Punjab,30.901,75.8573,33.6,39,0.0,975.8,8.05,65.9,92,139.7,52.7,15.3,565.0,132.0,12.9,0,5,7,1,2026-05-28T09:24:04.234447+05:30
Jalandhar,Punjab,31.326,75.5762,34.5,32,0.0,976.6,8.1,51.8,107,70.3,50.3,19.2,714.0,137.0,8.8,0,5,7,0,2026-05-28T09:24:04.234455+05:30
Dehradun,Uttarakhand,30.6284,78.0322,22.7,52,0.0,833.4,8.25,43.6,66,32.5,15.7,2.6,222.0,150.0,2.4,0,5,7,0,2026-05-28T09:24:04.234460+05:30
Shimla,Himachal Pradesh,31.1048,77.1734,24.3,21,0.0,788.9,8.3,43.9,59,29.8,14.6,3.1,184.0,148.0,1.5,0,5,7,0,2026-05-28T09:24:04.234471+05:30
Manali,Himachal Pradesh,32.2396,77.1887,24.5,25,0.0,821.9,9.6,42.1,61,14.7,7.2,12.4,163.0,126.0,0.4,0,5,7,0,2026-05-28T09:24:04.234476+05:30
Gurgaon,Haryana,28.4595,77.0266,34.1,37,0.0,979.3,7.85,61.9,994,584.9,125.3,28.2,345.0,81.0,23.3,0,5,7,1,2026-05-28T09:24:04.234483+05:30
Noida,Uttar Pradesh,28.5355,77.391,33.6,47,0.0,982.5,7.75,51.8,994,584.9,125.3,28.2,807.0,81.0,23.3,0,5,7,1,2026-05-28T09:24:04.234488+05:30
Ghaziabad,Uttar Pradesh,28.6692,77.4538,33.1,48,0.0,980.9,7.75,47.2,512,571.8,110.6,8.7,463.0,131.0,16.4,0,5,7,1,2026-05-28T09:24:04.234493+05:30
Faridabad,Haryana,28.4089,77.3178,33.3,46,0.0,981.7,7.8,59.4,994,584.9,125.3,28.2,703.0,81.0,23.3,0,5,7,1,2026-05-28T09:24:04.234498+05:30
Meerut,Uttar Pradesh,28.9845,77.7064,31.9,53,0.0,980.1,7.65,46.8,512,571.8,110.6,8.7,448.0,131.0,16.4,0,5,7,1,2026-05-28T09:24:04.234503+05:30
Agra,Uttar Pradesh,27.1767,78.0081,37.4,26,0.0,984.9,8.1,43.6,732,455.4,110.1,23.3,290.0,102.0,14.0,0,5,10,0,2026-05-28T09:24:04.234508+05:30
Varanasi,Uttar Pradesh,25.3176,82.9739,32.4,53,0.0,997.0,8.7,39.2,111,46.3,40.9,9.8,411.0,109.0,24.6,0,5,7,1,2026-05-28T09:24:04.234514+05:30
Prayagraj,Uttar Pradesh,25.4358,81.8463,33.1,50,0.0,994.8,8.6,36.4,97,48.4,41.2,8.1,424.0,118.0,20.7,0,5,7,1,2026-05-28T09:24:04.234519+05:30
Gorakhpur,Uttar Pradesh,26.7606,83.3732,30.2,57,0.0,998.4,8.6,41.4,88,41.9,35.2,4.7,356.0,120.0,8.5,0,5,7,1,2026-05-28T09:24:04.234526+05:30
Bareilly,Uttar Pradesh,28.367,79.4304,31.4,54,0.0,986.4,8.0,41.4,108,156.9,43.1,5.2,366.0,132.0,10.8,0,5,7,1,2026-05-28T09:24:04.234531+05:30
Aligarh,Uttar Pradesh,27.8974,78.088,34.2,45,0.0,983.2,7.9,39.2,734,1337.4,224.4,13.1,474.0,123.0,16.7,0,5,7,1,2026-05-28T09:24:04.234535+05:30
Moradabad,Uttar Pradesh,28.8386,78.7733,31.7,52,0.0,982.9,7.85,47.9,104,47.4,31.5,6.3,379.0,139.0,13.6,0,5,7,1,2026-05-28T09:24:04.234540+05:30
Saharanpur,Uttar Pradesh,29.9637,77.546,31.5,52,0.0,974.8,7.5,48.2,109,61.9,32.1,6.0,404.0,155.0,13.8,0,5,7,1,2026-05-28T09:24:04.234545+05:30
Jhansi,Uttar Pradesh,25.4484,78.5685,38.2,26,0.0,976.4,8.45,44.6,66,32.6,16.1,3.2,190.0,85.0,4.9,0,5,10,0,2026-05-28T09:24:07.651458+05:30
Surat,Gujarat,21.1702,72.8311,32.6,61,0.0,1008.9,7.7,48.2,79,62.2,29.0,14.4,277.0,42.0,36.8,3,0,4,1,2026-05-28T09:24:07.651495+05:30
Vadodara,Gujarat,22.3072,73.1812,32.7,58,0.0,1006.2,8.05,46.8,77,45.6,23.2,4.6,176.0,51.0,5.0,0,5,4,1,2026-05-28T09:24:07.651506+05:30
Rajkot,Gujarat,22.3039,70.8022,31.9,61,0.0,995.6,7.7,50.4,70,58.6,24.9,2.5,121.0,56.0,4.4,3,5,7,1,2026-05-28T09:24:07.651516+05:30
Thane,Maharashtra,19.2183,72.9781,33.2,58,0.0,1010.2,7.8,39.2,43,39.2,16.0,6.2,183.0,57.0,6.6,0,0,4,1,2026-05-28T09:24:07.651525+05:30
Nagpur,Maharashtra,21.1458,79.0882,38.0,28,0.0,972.9,8.9,42.8,62,43.1,25.7,7.7,219.0,116.0,17.9,0,5,10,1,2026-05-28T09:24:07.651534+05:30
Nashik,Maharashtra,19.9975,73.7898,29.6,59,0.0,948.3,8.15,41.4,34,31.4,12.6,3.6,137.0,56.0,2.4,4,5,7,1,2026-05-28T09:24:07.651542+05:30
Aurangabad,Maharashtra,19.8762,75.3433,30.2,55,0.0,946.6,9.0,41.8,40,23.6,10.9,4.2,153.0,57.0,4.6,0,5,7,1,2026-05-28T09:24:07.651550+05:30
Solapur,Maharashtra,17.6599,75.9064,30.9,57,0.0,960.1,8.95,37.4,56,7.9,6.4,4.3,147.0,64.0,5.7,0,5,7,1,2026-05-28T09:24:07.651559+05:30
Kolhapur,Maharashtra,16.705,74.2433,29.1,64,0.0,951.3,8.8,46.1,32,8.9,6.9,3.9,156.0,58.0,2.4,7,5,7,1,2026-05-28T09:24:07.651567+05:30
Goa,Goa,15.2993,74.124,29.4,79,0.1,1001.3,6.45,27.4,42,11.3,8.1,2.2,180.0,64.0,1.7,10,5,4,1,2026-05-28T09:24:07.651578+05:30
Jodhpur,Rajasthan,26.2389,73.0243,32.1,49,0.0,982.0,8.4,52.2,171,353.0,73.6,2.2,125.0,68.0,3.7,0,5,7,1,2026-05-28T09:24:07.651584+05:30
Udaipur,Rajasthan,24.5854,73.7125,31.6,46,0.0,946.9,8.8,50.0,64,42.3,20.8,2.0,143.0,63.0,3.2,0,5,7,1,2026-05-28T09:24:07.651590+05:30
Kota,Rajasthan,25.2138,75.8648,36.8,36,0.0,977.7,8.35,43.6,67,34.5,21.2,4.7,201.0,78.0,8.5,0,5,10,1,2026-05-28T09:24:07.651596+05:30
Bikaner,Rajasthan,28.0229,73.3119,35.8,38,0.0,978.4,8.4,43.6,153,346.5,117.6,1.2,132.0,74.0,3.4,0,5,10,1,2026-05-28T09:24:07.651602+05:30
Ajmer,Rajasthan,26.4499,74.6399,33.2,38,0.0,953.7,8.35,56.5,68,57.5,25.6,2.4,141.0,78.0,3.9,0,5,7,1,2026-05-28T09:24:07.651608+05:30
Gwalior,Madhya Pradesh,26.2183,78.1828,38.2,26,0.0,981.0,8.25,49.3,90,60.5,21.8,3.1,157.0,83.0,4.0,0,5,10,0,2026-05-28T09:24:07.651613+05:30
Indore,Madhya Pradesh,22.7196,75.8577,31.9,56,0.0,949.4,8.65,47.5,69,33.9,20.6,6.5,226.0,53.0,12.8,0,5,7,1,2026-05-28T09:24:07.651619+05:30
Bhopal,Madhya Pradesh,23.2599,77.4126,35.8,36,0.0,954.0,8.65,40.0,63,42.1,25.7,3.4,234.0,95.0,11.0,0,5,10,1,2026-05-28T09:24:07.651624+05:30
Jabalpur,Madhya Pradesh,23.1815,79.9864,38.6,22,0.0,961.1,8.85,38.5,62,29.5,17.3,3.6,213.0,105.0,5.7,0,5,10,0,2026-05-28T09:24:07.651630+05:30
Ujjain,Madhya Pradesh,23.1765,75.7885,32.0,57,0.0,955.0,8.6,49.0,70,31.8,19.8,5.5,177.0,53.0,12.5,0,5,7,1,2026-05-28T09:24:07.651636+05:30
Visakhapatnam,Andhra Pradesh,17.6868,83.2185,35.7,53,0.0,1002.5,9.0,47.2,123,34.1,27.5,16.6,660.0,114.0,38.8,0,5,7,1,2026-05-28T09:24:07.651642+05:30
Vijayawada,Andhra Pradesh,16.5062,80.648,35.2,46,0.0,1002.9,8.95,37.8,95,32.5,28.6,9.0,251.0,101.0,10.8,0,5,7,1,2026-05-28T09:24:07.651647+05:30
Guntur,Andhra Pradesh,16.3067,80.4365,34.7,48,0.0,1004.1,8.6,34.2,82,27.6,23.9,8.5,250.0,97.0,14.7,0,5,4,1,2026-05-28T09:24:07.651653+05:30
Nellore,Andhra Pradesh,14.4426,79.9865,33.7,52,0.0,1006.6,9.0,34.9,69,26.8,23.3,9.5,228.0,101.0,10.9,0,5,4,1,2026-05-28T09:24:07.651659+05:30
Kurnool,Andhra Pradesh,15.8281,78.0373,31.5,62,0.0,979.4,8.9,65.2,60,9.7,8.6,4.9,188.0,68.0,4.3,3,5,7,1,2026-05-28T09:24:07.651665+05:30
Kakinada,Andhra Pradesh,16.9891,82.2475,35.0,49,0.0,1006.4,9.0,51.5,86,28.9,22.2,3.5,283.0,138.0,5.9,0,5,4,1,2026-05-28T09:24:07.651671+05:30
Tirupati,Andhra Pradesh,13.6288,79.4192,33.0,53,0.0,992.8,9.0,51.5,84,34.5,28.7,10.7,213.0,121.0,6.8,0,5,7,1,2026-05-28T09:24:07.651676+05:30
Warangal,Telangana,17.9689,79.5941,34.2,44,0.0,979.6,9.05,34.9,73,26.3,22.8,7.6,259.0,102.0,7.8,0,5,7,1,2026-05-28T09:24:07.651681+05:30
Nizamabad,Telangana,18.6725,78.0941,33.6,48,0.0,966.4,8.25,35.6,66,27.5,18.0,5.4,214.0,87.0,7.2,0,5,7,1,2026-05-28T09:24:07.651686+05:30
Mysore,Karnataka,12.2958,76.6396,27.2,68,0.0,932.3,9.05,45.0,54,8.6,7.3,5.4,171.0,71.0,2.6,7,5,7,1,2026-05-28T09:24:07.651691+05:30
Mangalore,Karnataka,12.9141,74.856,28.2,80,0.0,1010.6,7.05,28.4,48,10.2,8.4,5.1,189.0,71.0,3.5,7,0,4,1,2026-05-28T09:24:07.651697+05:30
Hubli-Dharwad,Karnataka,15.3647,75.124,28.5,67,0.0,944.3,8.9,45.4,28,6.8,4.9,2.7,146.0,57.0,1.2,7,5,7,1,2026-05-28T09:24:07.651702+05:30
Belgaum,Karnataka,15.8497,74.4977,27.6,66,0.0,929.3,8.95,40.7,30,7.3,5.4,2.9,140.0,53.0,1.5,7,5,7,1,2026-05-28T09:24:11.037158+05:30
Coimbatore,Tamil Nadu,11.0168,76.9558,29.9,62,0.0,965.4,8.95,53.3,40,12.2,9.0,4.3,169.0,71.0,3.2,7,5,7,1,2026-05-28T09:24:11.037190+05:30
Madurai,Tamil Nadu,9.9252,78.1198,32.0,59,0.0,995.8,7.55,41.0,85,25.1,22.1,14.2,205.0,78.0,8.0,0,5,7,1,2026-05-28T09:24:11.037199+05:30
Trichy,Tamil Nadu,10.7905,78.7047,32.2,59,0.0,1002.3,7.45,36.7,61,10.4,8.7,6.8,154.0,57.0,4.5,0,5,4,1,2026-05-28T09:24:11.037206+05:30
Salem,Tamil Nadu,11.6643,78.146,31.8,53,0.0,980.5,8.9,30.6,67,21.0,17.5,11.0,190.0,79.0,14.6,0,5,7,1,2026-05-28T09:24:11.037213+05:30
Tirunelveli,Tamil Nadu,8.7139,77.7567,33.2,54,0.0,1006.1,7.85,32.8,29,8.3,6.2,3.6,163.0,54.0,2.1,0,5,4,1,2026-05-28T09:24:11.037219+05:30
Vellore,Tamil Nadu,12.9165,79.1325,31.8,60,0.0,986.7,8.65,35.3,85,28.3,25.4,11.9,270.0,98.0,7.7,0,5,7,1,2026-05-28T09:24:11.037225+05:30
Erode,Tamil Nadu,11.341,77.7172,31.3,58,0.0,992.3,8.8,50.8,53,13.5,11.0,6.9,223.0,63.0,3.9,0,5,7,1,2026-05-28T09:24:11.037231+05:30
Kochi,Kerala,9.9312,76.2673,26.6,90,0.0,1013.3,8.0,30.6,52,13.5,10.8,9.2,224.0,51.0,5.3,7,0,4,1,2026-05-28T09:24:11.037237+05:30
Thiruvananthapuram,Kerala,8.5241,76.9366,27.0,84,0.0,1012.8,7.0,31.0,32,11.1,5.8,2.1,117.0,49.0,0.7,7,0,4,1,2026-05-28T09:24:11.037243+05:30
Kozhikode,Kerala,11.2588,75.7804,27.4,86,0.0,1012.0,8.4,32.8,30,9.1,6.2,1.8,255.0,68.0,1.9,7,0,4,1,2026-05-28T09:24:11.037249+05:30
Thrissur,Kerala,10.5276,76.2144,26.0,90,0.1,1011.4,7.55,28.4,53,14.2,12.3,10.6,263.0,47.0,6.2,10,0,4,1,2026-05-28T09:24:11.037256+05:30
Kannur,Kerala,11.8745,75.3704,27.7,84,0.0,1011.0,8.4,37.4,39,9.7,7.4,3.7,181.0,68.0,2.6,7,0,4,1,2026-05-28T09:24:11.037261+05:30
Patna,Bihar,25.5941,85.1376,29.9,64,0.0,1000.7,8.75,50.4,108,36.3,30.0,9.6,352.0,102.0,16.6,7,5,4,1,2026-05-28T09:24:11.037267+05:30
Gaya,Bihar,24.7914,85.0002,32.2,48,0.0,993.0,8.8,34.6,128,45.3,38.4,9.4,443.0,105.0,21.6,0,5,7,1,2026-05-28T09:24:11.037273+05:30
Muzaffarpur,Bihar,26.1209,85.3647,27.9,73,0.0,1001.7,8.75,47.9,99,33.6,27.6,7.5,307.0,112.0,11.2,7,5,4,1,2026-05-28T09:24:11.037278+05:30
Bhagalpur,Bihar,25.2425,87.0117,28.2,75,0.0,1002.8,8.7,37.8,93,40.5,25.0,9.7,257.0,101.0,11.5,7,5,4,1,2026-05-28T09:24:11.037283+05:30
Ranchi,Jharkhand,23.3441,85.3096,29.5,58,0.0,937.3,9.0,36.4,142,90.3,63.8,5.1,235.0,169.0,33.2,4,5,7,1,2026-05-28T09:24:11.037288+05:30
Jamshedpur,Jharkhand,22.8046,86.2029,30.5,61,0.0,990.2,9.05,42.5,156,74.7,54.0,12.5,494.0,127.0,37.6,3,5,7,1,2026-05-28T09:24:11.037293+05:30
Dhanbad,Jharkhand,23.7957,86.4304,30.8,58,0.0,979.8,9.0,35.3,162,69.8,54.2,27.7,356.0,99.0,78.6,0,5,7,1,2026-05-28T09:24:11.037299+05:30
Bokaro,Jharkhand,23.6693,86.1511,31.0,55,0.0,983.4,9.0,35.6,167,82.4,66.1,37.2,475.0,96.0,101.0,0,5,7,1,2026-05-28T09:24:11.037304+05:30
Bhubaneswar,Odisha,20.2961,85.8245,32.8,69,0.0,1001.8,9.0,43.9,103,42.5,29.8,3.3,253.0,138.0,5.2,3,5,4,1,2026-05-28T09:24:11.037310+05:30
Cuttack,Odisha,20.4625,85.8828,32.2,70,0.0,1003.6,9.1,39.2,103,42.5,29.8,3.3,279.0,138.0,5.2,3,5,4,1,2026-05-28T09:24:11.037315+05:30
Rourkela,Odisha,22.2604,84.8536,31.1,64,0.0,984.1,8.95,25.9,155,77.8,56.9,7.3,355.0,150.0,23.9,3,5,7,1,2026-05-28T09:24:11.037320+05:30
Raipur,Chhattisgarh,21.2514,81.6296,38.8,20,0.0,973.7,8.9,36.0,94,39.2,32.8,32.6,530.0,63.0,76.6,0,5,10,0,2026-05-28T09:24:11.037326+05:30
Bhilai,Chhattisgarh,21.1938,81.3509,37.5,22,0.0,974.3,8.95,40.7,86,36.4,29.3,24.8,946.0,77.0,61.8,0,5,10,0,2026-05-28T09:24:11.037331+05:30
Guwahati,Assam,26.1158,91.7086,26.8,80,0.1,1004.5,8.75,37.4,81,40.6,25.3,2.3,355.0,122.0,3.3,10,5,4,1,2026-05-28T09:24:11.037336+05:30
Agartala,Tripura,23.8315,91.2868,26.6,82,0.0,1008.8,8.85,20.9,88,31.5,19.6,6.7,182.0,100.0,3.1,7,0,4,1,2026-05-28T09:24:11.037342+05:30
Shillong,Meghalaya,25.5788,91.8933,23.2,55,0.0,860.7,8.6,24.5,62,45.2,20.1,1.4,209.0,140.0,4.3,0,5,7,0,2026-05-28T09:24:11.037347+05:30
Imphal,Manipur,24.817,93.9368,27.5,55,0.0,925.9,9.25,32.8,104,44.1,20.8,1.4,405.0,113.0,2.7,4,5,7,1,2026-05-28T09:24:11.037352+05:30
Aizawl,Mizoram,23.7271,92.7176,25.3,50,0.0,895.7,9.05,28.8,73,28.2,13.3,1.2,182.0,97.0,1.6,4,5,7,0,2026-05-28T09:24:11.037357+05:30
Kohima,Nagaland,25.6701,94.1077,22.8,73,0.2,858.3,9.25,30.6,65,39.2,19.1,0.9,195.0,106.0,1.9,6,5,7,1,2026-05-28T09:24:11.037362+05:30
Gangtok,Sikkim,27.3314,88.6138,20.6,64,0.1,841.3,9.0,34.6,66,24.2,14.7,1.7,305.0,125.0,2.2,6,5,7,0,2026-05-28T09:24:11.037366+05:30
Siliguri,West Bengal,26.7271,88.3953,26.5,79,0.1,996.1,6.5,27.0,109,45.8,31.3,3.9,456.0,131.0,4.8,10,5,7,1,2026-05-28T09:24:14.419985+05:30
Durgapur,West Bengal,23.5204,87.3119,30.0,72,0.0,995.3,8.95,36.0,153,58.3,45.5,16.1,525.0,103.0,34.6,7,5,7,1,2026-05-28T09:24:14.420039+05:30
Asansol,West Bengal,23.6739,86.9524,30.0,68,0.0,993.9,8.95,37.4,154,57.0,43.3,16.8,520.0,103.0,37.2,7,5,7,1,2026-05-28T09:24:14.420049+05:30
Pondicherry,Puducherry,11.9139,79.8145,32.3,63,0.0,1010.1,8.05,38.2,75,25.3,22.1,13.6,355.0,70.0,8.8,3,0,4,1,2026-05-28T09:24:14.420056+05:30
Port Blair,Andaman and Nicobar Islands,11.6234,92.7265,25.5,96,0.3,1009.0,8.8,34.9,35,15.6,7.0,0.5,128.0,86.0,0.4,10,0,4,1,2026-05-28T09:24:14.420063+05:30
Haridwar,Uttarakhand,29.9457,78.1642,32.4,48,0.0,973.7,7.6,39.2,80,93.6,37.3,3.9,338.0,173.0,13.6,0,5,7,1,2026-05-28T09:24:14.420070+05:30
Rishikesh,Uttarakhand,30.0869,78.2676,32.5,43,0.0,966.6,7.7,33.8,95,110.6,40.9,3.1,360.0,186.0,12.9,0,5,7,1,2026-05-28T09:24:14.420076+05:30
Nainital,Uttarakhand,29.3919,79.4542,21.1,57,0.0,808.8,8.5,34.6,116,55.1,24.2,1.7,317.0,158.0,8.1,0,5,7,0,2026-05-28T09:24:14.420081+05:30
Mussoorie,Uttarakhand,30.4599,78.0664,21.2,54,0.0,806.3,8.1,45.7,74,81.3,35.3,4.5,239.0,174.0,13.6,0,5,7,0,2026-05-28T09:24:14.420088+05:30
Dharamshala,Himachal Pradesh,32.219,76.3234,28.0,25,0.0,870.5,8.1,46.8,49,23.4,9.5,1.6,201.0,129.0,0.9,4,5,7,0,2026-05-28T09:24:14.420094+05:30
Dalhousie,Himachal Pradesh,32.5387,75.971,25.0,23,0.0,807.8,8.05,29.9,65,31.3,15.3,5.8,219.0,141.0,1.5,4,5,7,0,2026-05-28T09:24:14.420101+05:30
Patiala,Punjab,30.3398,76.3869,33.1,44,0.0,976.1,7.7,59.0,541,1620.5,221.2,10.9,509.0,129.0,15.5,0,5,7,1,2026-05-28T09:24:14.420107+05:30
Bhatinda,Punjab,30.211,74.9455,38.2,20,0.0,979.7,8.35,62.6,81,66.1,36.6,14.4,505.0,112.0,9.2,0,5,10,0,2026-05-28T09:24:14.420113+05:30
Rohtak,Haryana,28.8955,76.6066,34.3,36,0.0,979.3,7.8,60.5,683,443.3,94.5,19.4,393.0,80.0,10.4,0,5,7,1,2026-05-28T09:24:14.420119+05:30
Panipat,Haryana,29.3909,76.9635,32.9,48,0.0,978.1,7.65,43.6,1347,1553.4,218.9,20.0,491.0,99.0,17.3,0,5,7,1,2026-05-28T09:24:14.420124+05:30
Mathura,Uttar Pradesh,27.4924,77.6737,36.0,29,0.0,984.1,8.0,58.3,608,184.4,51.0,14.4,283.0,73.0,6.1,0,5,10,0,2026-05-28T09:24:14.420130+05:30
Vrindavan,Uttar Pradesh,27.5823,77.7027,35.5,32,0.0,984.6,8.0,56.9,608,184.4,51.0,14.4,275.0,73.0,6.1,0,5,10,1,2026-05-28T09:24:14.420135+05:30
Ayodhya,Uttar Pradesh,26.7922,82.1998,30.6,59,0.0,995.9,8.35,45.4,91,43.1,36.7,5.2,405.0,118.0,10.3,0,5,7,1,2026-05-28T09:24:14.420141+05:30
Ratlam,Madhya Pradesh,23.3315,75.0367,31.3,58,0.0,956.3,8.5,51.5,73,31.0,19.3,5.2,149.0,53.0,11.8,0,5,7,1,2026-05-28T09:24:14.420147+05:30
Sagar,Madhya Pradesh,23.8388,78.7378,37.7,24,0.0,950.5,8.7,41.8,61,37.6,18.2,2.2,174.0,105.0,5.6,0,5,10,0,2026-05-28T09:24:14.420152+05:30
Satna,Madhya Pradesh,24.6005,80.8322,36.7,33,0.0,970.0,8.75,53.6,76,38.8,22.4,7.1,215.0,111.0,11.1,0,5,10,1,2026-05-28T09:24:14.420157+05:30
Akola,Maharashtra,20.7002,77.0082,34.2,45,0.0,976.3,8.8,42.8,58,39.7,19.0,4.9,146.0,70.0,8.7,0,5,7,1,2026-05-28T09:24:14.420163+05:30
Amravati,Maharashtra,20.9374,77.7796,35.0,41,0.0,968.2,8.85,40.7,58,43.4,22.4,5.3,175.0,82.0,11.1,0,5,7,1,2026-05-28T09:24:14.420170+05:30
Latur,Maharashtra,18.4088,76.5604,31.3,49,0.0,942.5,8.95,33.5,58,12.2,11.5,4.7,191.0,96.0,12.1,0,5,7,1,2026-05-28T09:24:14.420176+05:30
Nanded,Maharashtra,19.1383,77.3091,34.1,42,0.0,970.4,8.9,36.0,61,21.3,13.0,4.4,181.0,82.0,4.8,0,5,7,1,2026-05-28T09:24:14.420181+05:30
Gulbarga,Karnataka,17.3297,76.8343,31.1,59,0.0,961.4,9.0,38.5,58,7.8,6.7,5.1,173.0,69.0,5.5,0,5,7,1,2026-05-28T09:24:14.420186+05:30
Bidar,Karnataka,17.9104,77.5199,31.1,56,0.0,938.2,8.4,33.8,67,16.2,13.9,6.2,200.0,104.0,9.7,0,5,7,1,2026-05-28T09:24:14.420191+05:30
Hospet,Karnataka,15.2689,76.3909,28.8,69,0.0,959.0,8.75,54.4,41,7.2,5.5,2.9,145.0,56.0,1.9,7,5,7,1,2026-05-28T09:24:14.420196+05:30
Tirupur,Tamil Nadu,11.1085,77.3411,31.8,56,0.0,978.5,8.95,52.6,53,15.1,12.2,6.5,165.0,70.0,4.4,0,5,7,1,2026-05-28T09:24:14.420201+05:30
Alappuzha,Kerala,9.4981,76.3388,26.2,93,0.1,1013.5,7.45,28.1,41,13.0,9.0,4.8,105.0,63.0,2.3,10,0,4,1,2026-05-28T09:24:14.420207+05:30
Munnar,Kerala,10.0889,77.0595,19.3,95,0.1,860.7,8.15,27.4,28,8.6,6.3,3.1,125.0,61.0,1.3,6,10,7,1,2026-05-28T09:24:14.420212+05:30
Silchar,Assam,24.8333,92.7789,28.5,77,0.0,1007.3,8.9,24.5,114,35.0,21.6,2.1,265.0,116.0,4.5,7,5,4,1,2026-05-28T09:24:14.420218+05:30
Dibrugarh,Assam,27.4728,94.912,27.7,80,0.0,997.9,4.45,26.6,93,44.8,21.0,1.8,244.0,121.0,1.9,7,5,3,1,2026-05-28T09:24:14.420223+05:30
