[{"city":"Delhi","state":"Delhi","latitude":28.6139,"longitude":77.209,"temp":27.3,"humidity":57,"rain":0.0,"pressure":981.2,"uv_index":5.8,"wind_gusts":31.7,"aqi":188,"pm10":322.2,"pm2_5":77.5,"mosquito_risk":4,"arthritis_risk":5,"migraine_risk":3,"frizz_risk":1,"updated_at":"2026-03-29T21:05:38.879477+05:30"},{"city":"Mumbai","state":"Maharashtra","latitude":19.076,"longitude":72.8777,"temp":27.7,"humidity":85,"rain":0.0,"pressure":1008.0,"uv_index":8.0,"wind_gusts":20.5,"aqi":58,"pm10":23.8,"pm2_5":11.6,"mosquito_risk":7,"arthritis_risk":0,"migraine_risk":4,"frizz_risk":1,"updated_at":"2026-03-29T21:05:38.879521+05:30"},{"city":"Bangalore","state":"Karnataka","latitude":12.9716,"longitude":77.5946,"temp":24.4,"humidity":66,"rain":0.0,"pressure":911.7,"uv_index":9.55,"wind_gusts":33.5,"aqi":130,"pm10":56.1,"pm2_5":51.3,"mosquito_risk":3,"arthritis_risk":5,"migraine_risk":7,"frizz_risk":1,"updated_at":"2026-03-29T21:05:38.879535+05:30"},{"city":"Hyderabad","state":"Telangana","latitude":17.385,"longitude":78.4867,"temp":29.3,"humidity":55,"rain":0.0,"pressure":952.1,"uv_index":9.05,"wind_gusts":27.0,"aqi":135,"pm10":32.6,"pm2_5":31.1,"mosquito_risk":4,"arthritis_risk":5,"migraine_risk":7,"frizz_risk":1,"updated_at":"2026-03-29T21:05:38.879544+05:30"},{"city":"Chennai","state":"Tamil Nadu","latitude":13.0827,"longitude":80.2707,"temp":28.0,"humidity":81,"rain":0.0,"pressure":1006.9,"uv_index":9.25,"wind_gusts":37.4,"aqi":56,"pm10":17.3,"pm2_5":12.3,"mosquito_risk":7,"arthritis_risk":5,"migraine_risk":4,"frizz_risk":1,"updated_at":"2026-03-29T21:05:38.879553+05:30"},{"city":"Kolkata","state":"West Bengal","latitude":22.5726,"longitude":88.3639,"temp":26.1,"humidity":88,"rain":0.0,"pressure":1006.6,"uv_index":8.45,"wind_gusts":26.6,"aqi":118,"pm10":52.0,"pm2_5":46.8,"mosquito_risk":7,"arthritis_risk":5,"migraine_risk":4,"frizz_risk":1,"updated_at":"2026-03-29T21:05:38.879560+05:30"},{"city":"Pune","state":"Maharashtra","latitude":18.5204,"longitude":73.8567,"temp":26.6,"humidity":79,"rain":0.0,"pressure":948.0,"uv_index":8.55,"wind_gusts":40.3,"aqi":89,"pm10":28.2,"pm2_5":22.4,"mosquito_risk":7,"arthritis_risk":5,"migraine_risk":7,"frizz_risk":1,"updated_at":"2026-03-29T21:05:38.879570+05:30"},{"city":"Ahmedabad","state":"Gujarat","latitude":23.0225,"longitude":72.5714,"temp":29.9,"humidity":59,"rain":0.0,"pressure":1001.2,"uv_index":7.7,"wind_gusts":31.0,"aqi":43,"pm10":34.2,"pm2_5":15.3,"mosquito_risk":4,"arthritis_risk":5,"migraine_risk":4,"frizz_risk":1,"updated_at":"2026-03-29T21:05:38.879576+05:30"},{"city":"Jaipur","state":"Rajasthan","latitude":26.9124,"longitude":75.7873,"temp":29.4,"humidity":26,"rain":0.0,"pressure":958.3,"uv_index":7.45,"wind_gusts":36.7,"aqi":87,"pm10":204.0,"pm2_5":31.4,"mosquito_risk":4,"arthritis_risk":5,"migraine_risk":7,"frizz_risk":0,"updated_at":"2026-03-29T21:05:38.879582+05:30"},{"city":"Lucknow","state":"Uttar Pradesh","latitude":26.8467,"longitude":80.9462,"temp":27.5,"humidity":56,"rain":0.0,"pressure":992.5,"uv_index":7.2,"wind_gusts":16.6,"aqi":110,"pm10":68.2,"pm2_5":32.4,"mosquito_risk":4,"arthritis_risk":5,"migraine_risk":7,"frizz_risk":1,"updated_at":"2026-03-29T21:05:38.879588+05:30"},{"city":"Kanpur","state":"Uttar Pradesh","latitude":26.4499,"longitude":80.3319,"temp":28.4,"humidity":54,"rain":0.0,"pressure":990.5,"uv_index":7.25,"wind_gusts":17.3,"aqi":108,"pm10":174.6,"pm2_5":36.6,"mosquito_risk":4,"arthritis_risk":5,"migraine_risk":7,"frizz_risk":1,"updated_at":"2026-03-29T21:05:38.879596+05:30"},{"city":"Chandigarh","state":"Chandigarh","latitude":30.7333,"longitude":76.7794,"temp":23.1,"humidity":83,"rain":0.0,"pressure":967.5,"uv_index":6.5,"wind_gusts":28.1,"aqi":95,"pm10":128.1,"pm2_5":40.0,"mosquito_risk":3,"arthritis_risk":5,"migraine_risk":7,"frizz_risk":1,"updated_at":"2026-03-29T21:05:38.879602+05:30"},{"city":"Srinagar","state":"Jammu and Kashmir","latitude":34.0837,"longitude":74.7973,"temp":12.1,"humidity":80,"rain":0.0,"pressure":839.8,"uv_index":6.55,"wind_gusts":22.3,"aqi":80,"pm10":25.4,"pm2_5":22.8,"mosquito_risk":3,"arthritis_risk":5,"migraine_risk":7,"frizz_risk":0,"updated_at":"2026-03-29T21:05:38.879608+05:30"},{"city":"Jammu","state":"Jammu and Kashmir","latitude":32.7266,"longitude":74.857,"temp":22.8,"humidity":73,"rain":0.0,"pressure":971.9,"uv_index":5.4,"wind_gusts":28.1,"aqi":90,"pm10":80.8,"pm2_5":39.5,"mosquito_risk":3,"arthritis_risk":5,"migraine_risk":3,"frizz_risk":1,"updated_at":"2026-03-29T21:05:38.879614+05:30"},{"city":"Amritsar","state":"Punjab","latitude":31.634,"longitude":74.8723,"temp":22.3,"humidity":77,"rain":0.0,"pressure":979.7,"uv_index":7.3,"wind_gusts":37.1,"aqi":84,"pm10":71.0,"pm2_5":33.4,"mosquito_risk":3,"arthritis_risk":5,"migraine_risk":7,"frizz_risk":1,"updated_at":"2026-03-29T21:05:38.879619+05:30"},{"city":"Ludhiana","state":"Punjab","latitude":30.901,"longitude":75.8573,"temp":24.0,"humidity":75,"rain":0.0,"pressure":977.4,"uv_index":6.95,"wind_gusts":36.4,"aqi":106,"pm10":86.8,"pm2_5":43.0,"mosquito_risk":3,"arthritis_risk":5,"migraine_risk":7,"frizz_risk":1,"updated_at":"2026-03-29T21:05:38.879625+05:30"},{"city":"Jalandhar","state":"Punjab","latitude":31.326,"longitude":75.5762,"temp":24.0,"humidity":70,"rain":0.0,"pressure":978.8,"uv_index":7.1,"wind_gusts":33.1,"aqi":99,"pm10":59.0,"pm2_5":29.0,"mosquito_risk":3,"arthritis_risk":5,"migraine_risk":7,"frizz_risk":1,"updated_at":"2026-03-29T21:05:38.879633+05:30"},{"city":"Dehradun","state":"Uttarakhand","latitude":30.6284,"longitude":78.0322,"temp":15.2,"humidity":73,"rain":0.0,"pressure":829.1,"uv_index":6.35,"wind_gusts":19.4,"aqi":67,"pm10":48.3,"pm2_5":15.4,"mosquito_risk":3,"arthritis_risk":5,"migraine_risk":7,"frizz_risk":0,"updated_at":"2026-03-29T21:05:38.879639+05:30"},{"city":"Shimla","state":"Himachal Pradesh","latitude":31.1048,"longitude":77.1734,"temp":13.6,"humidity":71,"rain":0.0,"pressure":783.2,"uv_index":4.3,"wind_gusts":26.6,"aqi":80,"pm10":46.9,"pm2_5":17.8,"mosquito_risk":3,"arthritis_risk":5,"migraine_risk":3,"frizz_risk":0,"updated_at":"2026-03-29T21:05:38.879644+05:30"},{"city":"Manali","state":"Himachal Pradesh","latitude":32.2396,"longitude":77.1887,"temp":15.7,"humidity":61,"rain":0.0,"pressure":819.0,"uv_index":5.1,"wind_gusts":29.2,"aqi":59,"pm10":5.8,"pm2_5":5.2,"mosquito_risk":3,"arthritis_risk":5,"migraine_risk":3,"frizz_risk":0,"updated_at":"2026-03-29T21:05:38.879650+05:30"},{"city":"Gurgaon","state":"Haryana","latitude":28.4595,"longitude":77.0266,"temp":26.7,"humidity":60,"rain":0.0,"pressure":979.3,"uv_index":6.45,"wind_gusts":27.0,"aqi":571,"pm10":414.4,"pm2_5":83.1,"mosquito_risk":4,"arthritis_risk":5,"migraine_risk":7,"frizz_risk":1,"updated_at":"2026-03-29T21:05:38.879656+05:30"},{"city":"Noida","state":"Uttar Pradesh","latitude":28.5355,"longitude":77.391,"temp":26.8,"humidity":60,"rain":0.0,"pressure":982.9,"uv_index":5.9,"wind_gusts":27.4,"aqi":571,"pm10":414.4,"pm2_5":83.1,"mosquito_risk":4,"arthritis_risk":5,"migraine_risk":3,"frizz_risk":1,"updated_at":"2026-03-29T21:05:38.879661+05:30"},{"city":"Ghaziabad","state":"Uttar Pradesh","latitude":28.6692,"longitude":77.4538,"temp":25.9,"humidity":63,"rain":0.0,"pressure":981.1,"uv_index":5.9,"wind_gusts":25.6,"aqi":156,"pm10":291.5,"pm2_5":78.7,"mosquito_risk":7,"arthritis_risk":5,"migraine_risk":3,"frizz_risk":1,"updated_at":"2026-03-29T21:05:38.879667+05:30"},{"city":"Faridabad","state":"Haryana","latitude":28.4089,"longitude":77.3178,"temp":27.3,"humidity":54,"rain":0.0,"pressure":981.9,"uv_index":6.25,"wind_gusts":28.8,"aqi":571,"pm10":414.4,"pm2_5":83.1,"mosquito_risk":4,"arthritis_risk":5,"migraine_risk":7,"frizz_risk":1,"updated_at":"2026-03-29T21:05:38.879672+05:30"},{"city":"Meerut","state":"Uttar Pradesh","latitude":28.9845,"longitude":77.7064,"temp":24.2,"humidity":67,"rain":0.0,"pressure":980.1,"uv_index":6.15,"wind_gusts":24.1,"aqi":156,"pm10":291.5,"pm2_5":78.7,"mosquito_risk":3,"arthritis_risk":5,"migraine_risk":7,"frizz_risk":1,"updated_at":"2026-03-29T21:05:38.879678+05:30"},{"city":"Agra","state":"Uttar Pradesh","latitude":27.1767,"longitude":78.0081,"temp":29.2,"humidity":48,"rain":0.0,"pressure":985.6,"uv_index":7.1,"wind_gusts":33.1,"aqi":290,"pm10":215.6,"pm2_5":60.5,"mosquito_risk":4,"arthritis_risk":5,"migraine_risk":7,"frizz_risk":1,"updated_at":"2026-03-29T21:05:38.879684+05:30"},{"city":"Varanasi","state":"Uttar Pradesh","latitude":25.3176,"longitude":82.9739,"temp":26.1,"humidity":54,"rain":0.0,"pressure":996.4,"uv_index":7.9,"wind_gusts":18.4,"aqi":96,"pm10":67.5,"pm2_5":44.1,"mosquito_risk":4,"arthritis_risk":5,"migraine_risk":7,"frizz_risk":1,"updated_at":"2026-03-29T21:05:38.879691+05:30"},{"city":"Prayagraj","state":"Uttar Pradesh","latitude":25.4358,"longitude":81.8463,"temp":28.3,"humidity":53,"rain":0.0,"pressure":994.7,"uv_index":7.8,"wind_gusts":20.9,"aqi":103,"pm10":67.1,"pm2_5":40.3,"mosquito_risk":4,"arthritis_risk":5,"migraine_risk":7,"frizz_risk":1,"updated_at":"2026-03-29T21:05:38.879697+05:30"},{"city":"Gorakhpur","state":"Uttar Pradesh","latitude":26.7606,"longitude":83.3732,"temp":25.3,"humidity":59,"rain":0.0,"pressure":996.6,"uv_index":7.55,"wind_gusts":26.3,"aqi":134,"pm10":81.3,"pm2_5":50.3,"mosquito_risk":4,"arthritis_risk":5,"migraine_risk":7,"frizz_risk":1,"updated_at":"2026-03-29T21:05:38.879702+05:30"},{"city":"Bareilly","state":"Uttar Pradesh","latitude":28.367,"longitude":79.4304,"temp":25.2,"humidity":65,"rain":0.0,"pressure":985.8,"uv_index":6.95,"wind_gusts":15.8,"aqi":105,"pm10":71.2,"pm2_5":40.3,"mosquito_risk":7,"arthritis_risk":5,"migraine_risk":7,"frizz_risk":1,"updated_at":"2026-03-29T21:05:38.879707+05:30"},{"city":"Aligarh","state":"Uttar Pradesh","latitude":27.8974,"longitude":78.088,"temp":26.0,"humidity":62,"rain":0.0,"pressure":983.8,"uv_index":6.9,"wind_gusts":26.3,"aqi":180,"pm10":264.5,"pm2_5":75.9,"mosquito_risk":7,"arthritis_risk":5,"migraine_risk":7,"frizz_risk":1,"updated_at":"2026-03-29T21:05:38.879715+05:30"},{"city":"Moradabad","state":"Uttar Pradesh","latitude":28.8386,"longitude":78.7733,"temp":25.2,"humidity":62,"rain":0.0,"pressure":982.6,"uv_index":6.8,"wind_gusts":14.8,"aqi":150,"pm10":121.1,"pm2_5":82.0,"mosquito_risk":7,"arthritis_risk":5,"migraine_risk":7,"frizz_risk":1,"updated_at":"2026-03-29T21:05:38.879720+05:30"},{"city":"Saharanpur","state":"Uttar Pradesh","latitude":29.9637,"longitude":77.546,"temp":23.7,"humidity":66,"rain":0.0,"pressure":974.6,"uv_index":6.0,"wind_gusts":19.4,"aqi":104,"pm10":56.9,"pm2_5":33.4,"mosquito_risk":3,"arthritis_risk":5,"migraine_risk":3,"frizz_risk":1,"updated_at":"2026-03-29T21:05:38.879725+05:30"},{"city":"Jhansi","state":"Uttar Pradesh","latitude":25.4484,"longitude":78.5685,"temp":28.2,"humidity":51,"rain":0.0,"pressure":976.3,"uv_index":7.75,"wind_gusts":23.8,"aqi":67,"pm10":31.9,"pm2_5":17.1,"mosquito_risk":4,"arthritis_risk":5,"migraine_risk":7,"frizz_risk":1,"updated_at":"2026-03-29T21:05:42.128389+05:30"},{"city":"Surat","state":"Gujarat","latitude":21.1702,"longitude":72.8311,"temp":26.9,"humidity":87,"rain":0.0,"pressure":1006.4,"uv_index":7.75,"wind_gusts":26.3,"aqi":73,"pm10":29.9,"pm2_5":21.4,"mosquito_risk":7,"arthritis_risk":5,"migraine_risk":4,"frizz_risk":1,"updated_at":"2026-03-29T21:05:42.128417+05:30"},{"city":"Vadodara","state":"Gujarat","latitude":22.3072,"longitude":73.1812,"temp":29.4,"humidity":69,"rain":0.0,"pressure":1003.6,"uv_index":7.8,"wind_gusts":27.0,"aqi":60,"pm10":54.6,"pm2_5":26.7,"mosquito_risk":7,"arthritis_risk":5,"migraine_risk":4,"frizz_risk":1,"updated_at":"2026-03-29T21:05:42.128424+05:30"},{"city":"Rajkot","state":"Gujarat","latitude":22.3039,"longitude":70.8022,"temp":27.1,"humidity":77,"rain":0.0,"pressure":994.0,"uv_index":7.7,"wind_gusts":30.6,"aqi":51,"pm10":40.9,"pm2_5":18.3,"mosquito_risk":7,"arthritis_risk":5,"migraine_risk":7,"frizz_risk":1,"updated_at":"2026-03-29T21:05:42.128431+05:30"},{"city":"Thane","state":"Maharashtra","latitude":19.2183,"longitude":72.9781,"temp":27.0,"humidity":86,"rain":0.0,"pressure":1007.5,"uv_index":8.0,"wind_gusts":34.6,"aqi":58,"pm10":23.8,"pm2_5":11.6,"mosquito_risk":7,"arthritis_risk":5,"migraine_risk":4,"frizz_risk":1,"updated_at":"2026-03-29T21:05:42.128438+05:30"},{"city":"Nagpur","state":"Maharashtra","latitude":21.1458,"longitude":79.0882,"temp":29.8,"humidity":44,"rain":0.0,"pressure":971.3,"uv_index":8.55,"wind_gusts":27.0,"aqi":61,"pm10":51.3,"pm2_5":28.6,"mosquito_risk":4,"arthritis_risk":5,"migraine_risk":7,"frizz_risk":1,"updated_at":"2026-03-29T21:05:42.128444+05:30"},{"city":"Nashik","state":"Maharashtra","latitude":19.9975,"longitude":73.7898,"temp":25.5,"humidity":63,"rain":0.0,"pressure":945.3,"uv_index":8.25,"wind_gusts":31.7,"aqi":49,"pm10":14.0,"pm2_5":7.3,"mosquito_risk":7,"arthritis_risk":5,"migraine_risk":7,"frizz_risk":1,"updated_at":"2026-03-29T21:05:42.128450+05:30"},{"city":"Aurangabad","state":"Maharashtra","latitude":19.8762,"longitude":75.3433,"temp":29.6,"humidity":43,"rain":0.0,"pressure":943.3,"uv_index":8.75,"wind_gusts":32.0,"aqi":43,"pm10":18.7,"pm2_5":11.8,"mosquito_risk":4,"arthritis_risk":5,"migraine_risk":7,"frizz_risk":0,"updated_at":"2026-03-29T21:05:42.128456+05:30"},{"city":"Solapur","state":"Maharashtra","latitude":17.6599,"longitude":75.9064,"temp":30.7,"humidity":26,"rain":0.0,"pressure":955.3,"uv_index":8.85,"wind_gusts":23.0,"aqi":90,"pm10":33.1,"pm2_5":25.1,"mosquito_risk":0,"arthritis_risk":5,"migraine_risk":7,"frizz_risk":0,"updated_at":"2026-03-29T21:05:42.128462+05:30"},{"city":"Kolhapur","state":"Maharashtra","latitude":16.705,"longitude":74.2433,"temp":24.2,"humidity":72,"rain":0.0,"pressure":947.0,"uv_index":9.0,"wind_gusts":37.4,"aqi":68,"pm10":21.7,"pm2_5":18.0,"mosquito_risk":3,"arthritis_risk":5,"migraine_risk":7,"frizz_risk":1,"updated_at":"2026-03-29T21:05:42.128468+05:30"},{"city":"Goa","state":"Goa","latitude":15.2993,"longitude":74.124,"temp":27.9,"humidity":74,"rain":0.0,"pressure":997.0,"uv_index":8.95,"wind_gusts":37.1,"aqi":77,"pm10":18.6,"pm2_5":11.2,"mosquito_risk":7,"arthritis_risk":5,"migraine_risk":7,"frizz_risk":1,"updated_at":"2026-03-29T21:05:42.128474+05:30"},{"city":"Jodhpur","state":"Rajasthan","latitude":26.2389,"longitude":73.0243,"temp":29.8,"humidity":36,"rain":0.0,"pressure":981.0,"uv_index":7.35,"wind_gusts":46.1,"aqi":122,"pm10":223.5,"pm2_5":31.5,"mosquito_risk":4,"arthritis_risk":5,"migraine_risk":7,"frizz_risk":0,"updated_at":"2026-03-29T21:05:42.128480+05:30"},{"city":"Udaipur","state":"Rajasthan","latitude":24.5854,"longitude":73.7125,"temp":27.0,"humidity":44,"rain":0.0,"pressure":946.0,"uv_index":7.95,"wind_gusts":35.3,"aqi":48,"pm10":29.6,"pm2_5":11.2,"mosquito_risk":4,"arthritis_risk":5,"migraine_risk":7,"frizz_risk":0,"updated_at":"2026-03-29T21:05:42.128486+05:30"},{"city":"Kota","state":"Rajasthan","latitude":25.2138,"longitude":75.8648,"temp":31.0,"humidity":26,"rain":0.0,"pressure":976.6,"uv_index":7.5,"wind_gusts":34.9,"aqi":50,"pm10":20.8,"pm2_5":12.9,"mosquito_risk":0,"arthritis_risk":5,"migraine_risk":7,"frizz_risk":0,"updated_at":"2026-03-29T21:05:42.128491+05:30"},{"city":"Bikaner","state":"Rajasthan","latitude":28.0229,"longitude":73.3119,"temp":29.9,"humidity":33,"rain":0.0,"pressure":979.1,"uv_index":7.5,"wind_gusts":34.6,"aqi":103,"pm10":92.2,"pm2_5":27.0,"mosquito_risk":4,"arthritis_risk":5,"migraine_risk":7,"frizz_risk":0,"updated_at":"2026-03-29T21:05:42.128497+05:30"},{"city":"Ajmer","state":"Rajasthan","latitude":26.4499,"longitude":74.6399,"temp":27.2,"humidity":35,"rain":0.0,"pressure":953.4,"uv_index":7.7,"wind_gusts":45.0,"aqi":48,"pm10":45.3,"pm2_5":11.6,"mosquito_risk":4,"arthritis_risk":5,"migraine_risk":7,"frizz_risk":0,"updated_at":"2026-03-29T21:05:42.128502+05:30"},{"city":"Gwalior","state":"Madhya Pradesh","latitude":26.2183,"longitude":78.1828,"temp":28.0,"humidity":54,"rain":0.0,"pressure":981.2,"uv_index":7.45,"wind_gusts":25.2,"aqi":79,"pm10":41.2,"pm2_5":21.7,"mosquito_risk":4,"arthritis_risk":5,"migraine_risk":7,"frizz_risk":1,"updated_at":"2026-03-29T21:05:42.128507+05:30"},{"city":"Indore","state":"Madhya Pradesh","latitude":22.7196,"longitude":75.8577,"temp":27.0,"humidity":49,"rain":0.0,"pressure":947.4,"uv_index":8.25,"wind_gusts":33.5,"aqi":46,"pm10":24.5,"pm2_5":14.1,"mosquito_risk":4,"arthritis_risk":5,"migraine_risk":7,"frizz_risk":0,"updated_at":"2026-03-29T21:05:42.128513+05:30"},{"city":"Bhopal","state":"Madhya Pradesh","latitude":23.2599,"longitude":77.4126,"temp":28.3,"humidity":46,"rain":0.0,"pressure":952.5,"uv_index":8.2,"wind_gusts":35.6,"aqi":44,"pm10":23.7,"pm2_5":13.2,"mosquito_risk":4,"arthritis_risk":5,"migraine_risk":7,"frizz_risk":0,"updated_at":"2026-03-29T21:05:42.128519+05:30"},{"city":"Jabalpur","state":"Madhya Pradesh","latitude":23.1815,"longitude":79.9864,"temp":27.4,"humidity":57,"rain":0.0,"pressure":959.9,"uv_index":8.25,"wind_gusts":32.4,"aqi":58,"pm10":29.1,"pm2_5":16.6,"mosquito_risk":4,"arthritis_risk":5,"migraine_risk":7,"frizz_risk":1,"updated_at":"2026-03-29T21:05:42.128524+05:30"},{"city":"Ujjain","state":"Madhya Pradesh","latitude":23.1765,"longitude":75.7885,"temp":26.9,"humidity":52,"rain":0.0,"pressure":953.1,"uv_index":8.2,"wind_gusts":34.9,"aqi":44,"pm10":29.9,"pm2_5":16.2,"mosquito_risk":4,"arthritis_risk":5,"migraine_risk":7,"frizz_risk":1,"updated_at":"2026-03-29T21:05:42.128529+05:30"},{"city":"Visakhapatnam","state":"Andhra Pradesh","latitude":17.6868,"longitude":83.2185,"temp":27.5,"humidity":85,"rain":0.0,"pressure":1003.1,"uv_index":9.0,"wind_gusts":38.2,"aqi":68,"pm10":23.0,"pm2_5":16.1,"mosquito_risk":7,"arthritis_risk":5,"migraine_risk":4,"frizz_risk":1,"updated_at":"2026-03-29T21:05:42.128535+05:30"},{"city":"Vijayawada","state":"Andhra Pradesh","latitude":16.5062,"longitude":80.648,"temp":28.9,"humidity":73,"rain":0.0,"pressure":1001.5,"uv_index":9.05,"wind_gusts":29.9,"aqi":132,"pm10":31.4,"pm2_5":28.3,"mosquito_risk":7,"arthritis_risk":5,"migraine_risk":4,"frizz_risk":1,"updated_at":"2026-03-29T21:05:42.128541+05:30"},{"city":"Guntur","state":"Andhra Pradesh","latitude":16.3067,"longitude":80.4365,"temp":27.8,"humidity":84,"rain":0.0,"pressure":1002.9,"uv_index":9.05,"wind_gusts":31.3,"aqi":141,"pm10":42.8,"pm2_5":38.5,"mosquito_risk":7,"arthritis_risk":5,"migraine_risk":4,"frizz_risk":1,"updated_at":"2026-03-29T21:05:42.128546+05:30"},{"city":"Nellore","state":"Andhra Pradesh","latitude":14.4426,"longitude":79.9865,"temp":27.9,"humidity":83,"rain":0.0,"pressure":1005.1,"uv_index":8.65,"wind_gusts":31.7,"aqi":114,"pm10":17.5,"pm2_5":13.6,"mosquito_risk":7,"arthritis_risk":5,"migraine_risk":4,"frizz_risk":1,"updated_at":"2026-03-29T21:05:42.128552+05:30"},{"city":"Kurnool","state":"Andhra Pradesh","latitude":15.8281,"longitude":78.0373,"temp":32.5,"humidity":36,"rain":0.0,"pressure":974.8,"uv_index":9.1,"wind_gusts":29.2,"aqi":154,"pm10":40.4,"pm2_5":37.3,"mosquito_risk":0,"arthritis_risk":5,"migraine_risk":7,"frizz_risk":0,"updated_at":"2026-03-29T21:05:42.128559+05:30"},{"city":"Kakinada","state":"Andhra Pradesh","latitude":16.9891,"longitude":82.2475,"temp":27.1,"humidity":85,"rain":0.0,"pressure":1006.7,"uv_index":9.0,"wind_gusts":30.2,"aqi":55,"pm10":18.7,"pm2_5":11.9,"mosquito_risk":7,"arthritis_risk":5,"migraine_risk":4,"frizz_risk":1,"updated_at":"2026-03-29T21:05:42.128564+05:30"},{"city":"Tirupati","state":"Andhra Pradesh","latitude":13.6288,"longitude":79.4192,"temp":28.9,"humidity":77,"rain":0.0,"pressure":991.8,"uv_index":9.1,"wind_gusts":33.8,"aqi":122,"pm10":40.4,"pm2_5":36.7,"mosquito_risk":7,"arthritis_risk":5,"migraine_risk":7,"frizz_risk":1,"updated_at":"2026-03-29T21:05:42.128570+05:30"},{"city":"Warangal","state":"Telangana","latitude":17.9689,"longitude":79.5941,"temp":31.4,"humidity":52,"rain":0.0,"pressure":976.8,"uv_index":8.9,"wind_gusts":28.4,"aqi":132,"pm10":48.0,"pm2_5":47.1,"mosquito_risk":0,"arthritis_risk":5,"migraine_risk":7,"frizz_risk":1,"updated_at":"2026-03-29T21:05:42.128575+05:30"},{"city":"Nizamabad","state":"Telangana","latitude":18.6725,"longitude":78.0941,"temp":30.2,"humidity":42,"rain":0.0,"pressure":963.0,"uv_index":8.8,"wind_gusts":28.8,"aqi":82,"pm10":34.0,"pm2_5":30.4,"mosquito_risk":0,"arthritis_risk":5,"migraine_risk":7,"frizz_risk":0,"updated_at":"2026-03-29T21:05:42.128580+05:30"},{"city":"Mysore","state":"Karnataka","latitude":12.2958,"longitude":76.6396,"temp":25.8,"humidity":70,"rain":0.0,"pressure":927.9,"uv_index":9.45,"wind_gusts":31.7,"aqi":131,"pm10":65.7,"pm2_5":57.5,"mosquito_risk":7,"arthritis_risk":5,"migraine_risk":7,"frizz_risk":1,"updated_at":"2026-03-29T21:05:42.128586+05:30"},{"city":"Mangalore","state":"Karnataka","latitude":12.9141,"longitude":74.856,"temp":29.6,"humidity":78,"rain":0.0,"pressure":1005.5,"uv_index":9.1,"wind_gusts":31.3,"aqi":106,"pm10":14.8,"pm2_5":8.5,"mosquito_risk":7,"arthritis_risk":5,"migraine_risk":4,"frizz_risk":1,"updated_at":"2026-03-29T21:05:42.128591+05:30"},{"city":"Hubli-Dharwad","state":"Karnataka","latitude":15.3647,"longitude":75.124,"temp":27.5,"humidity":62,"rain":0.0,"pressure":939.9,"uv_index":9.15,"wind_gusts":33.8,"aqi":103,"pm10":32.9,"pm2_5":29.0,"mosquito_risk":7,"arthritis_risk":5,"migraine_risk":7,"frizz_risk":1,"updated_at":"2026-03-29T21:05:42.128597+05:30"},{"city":"Belgaum","state":"Karnataka","latitude":15.8497,"longitude":74.4977,"temp":24.4,"humidity":71,"rain":0.0,"pressure":924.9,"uv_index":9.2,"wind_gusts":37.8,"aqi":76,"pm10":22.2,"pm2_5":15.9,"mosquito_risk":3,"arthritis_risk":5,"migraine_risk":7,"frizz_risk":1,"updated_at":"2026-03-29T21:05:45.448132+05:30"},{"city":"Coimbatore","state":"Tamil Nadu","latitude":11.0168,"longitude":76.9558,"temp":26.5,"humidity":76,"rain":0.0,"pressure":961.4,"uv_index":9.25,"wind_gusts":46.1,"aqi":124,"pm10":49.5,"pm2_5":44.6,"mosquito_risk":7,"arthritis_risk":5,"migraine_risk":7,"frizz_risk":1,"updated_at":"2026-03-29T21:05:45.448160+05:30"},{"city":"Madurai","state":"Tamil Nadu","latitude":9.9252,"longitude":78.1198,"temp":29.1,"humidity":62,"rain":0.0,"pressure":993.0,"uv_index":9.25,"wind_gusts":29.2,"aqi":92,"pm10":19.1,"pm2_5":17.9,"mosquito_risk":7,"arthritis_risk":5,"migraine_risk":7,"frizz_risk":1,"updated_at":"2026-03-29T21:05:45.448170+05:30"},{"city":"Trichy","state":"Tamil Nadu","latitude":10.7905,"longitude":78.7047,"temp":28.4,"humidity":70,"rain":0.0,"pressure":999.4,"uv_index":8.8,"wind_gusts":29.2,"aqi":84,"pm10":21.3,"pm2_5":20.1,"mosquito_risk":7,"arthritis_risk":5,"migraine_risk":7,"frizz_risk":1,"updated_at":"2026-03-29T21:05:45.448178+05:30"},{"city":"Salem","state":"Tamil Nadu","latitude":11.6643,"longitude":78.146,"temp":31.3,"humidity":52,"rain":0.0,"pressure":976.7,"uv_index":9.4,"wind_gusts":30.2,"aqi":153,"pm10":28.2,"pm2_5":25.7,"mosquito_risk":0,"arthritis_risk":5,"migraine_risk":7,"frizz_risk":1,"updated_at":"2026-03-29T21:05:45.448185+05:30"},{"city":"Tirunelveli","state":"Tamil Nadu","latitude":8.7139,"longitude":77.7567,"temp":29.1,"humidity":63,"rain":0.0,"pressure":1002.8,"uv_index":9.35,"wind_gusts":51.8,"aqi":114,"pm10":27.2,"pm2_5":25.8,"mosquito_risk":7,"arthritis_risk":5,"migraine_risk":4,"frizz_risk":1,"updated_at":"2026-03-29T21:05:45.448192+05:30"},{"city":"Vellore","state":"Tamil Nadu","latitude":12.9165,"longitude":79.1325,"temp":28.9,"humidity":69,"rain":0.0,"pressure":984.4,"uv_index":9.35,"wind_gusts":33.8,"aqi":136,"pm10":29.3,"pm2_5":28.1,"mosquito_risk":7,"arthritis_risk":5,"migraine_risk":7,"frizz_risk":1,"updated_at":"2026-03-29T21:05:45.448200+05:30"},{"city":"Erode","state":"Tamil Nadu","latitude":11.341,"longitude":77.7172,"temp":31.4,"humidity":50,"rain":0.0,"pressure":988.3,"uv_index":9.35,"wind_gusts":31.0,"aqi":149,"pm10":29.3,"pm2_5":26.4,"mosquito_risk":0,"arthritis_risk":5,"migraine_risk":7,"frizz_risk":1,"updated_at":"2026-03-29T21:05:45.448207+05:30"},{"city":"Kochi","state":"Kerala","latitude":9.9312,"longitude":76.2673,"temp":30.1,"humidity":75,"rain":0.0,"pressure":1007.7,"uv_index":9.15,"wind_gusts":29.2,"aqi":122,"pm10":36.8,"pm2_5":32.5,"mosquito_risk":3,"arthritis_risk":5,"migraine_risk":4,"frizz_risk":1,"updated_at":"2026-03-29T21:05:45.448214+05:30"},{"city":"Thiruvananthapuram","state":"Kerala","latitude":8.5241,"longitude":76.9366,"temp":28.9,"humidity":81,"rain":0.0,"pressure":1007.7,"uv_index":9.2,"wind_gusts":32.4,"aqi":96,"pm10":27.6,"pm2_5":20.9,"mosquito_risk":7,"arthritis_risk":5,"migraine_risk":4,"frizz_risk":1,"updated_at":"2026-03-29T21:05:45.448221+05:30"},{"city":"Kozhikode","state":"Kerala","latitude":11.2588,"longitude":75.7804,"temp":29.5,"humidity":82,"rain":0.0,"pressure":1006.7,"uv_index":9.1,"wind_gusts":32.4,"aqi":128,"pm10":35.4,"pm2_5":30.3,"mosquito_risk":7,"arthritis_risk":5,"migraine_risk":4,"frizz_risk":1,"updated_at":"2026-03-29T21:05:45.448228+05:30"},{"city":"Thrissur","state":"Kerala","latitude":10.5276,"longitude":76.2144,"temp":29.0,"humidity":80,"rain":0.0,"pressure":1006.0,"uv_index":9.15,"wind_gusts":34.9,"aqi":112,"pm10":34.6,"pm2_5":31.1,"mosquito_risk":7,"arthritis_risk":5,"migraine_risk":4,"frizz_risk":1,"updated_at":"2026-03-29T21:05:45.448236+05:30"},{"city":"Kannur","state":"Kerala","latitude":11.8745,"longitude":75.3704,"temp":29.7,"humidity":78,"rain":0.0,"pressure":1006.0,"uv_index":9.15,"wind_gusts":34.9,"aqi":136,"pm10":34.9,"pm2_5":29.3,"mosquito_risk":7,"arthritis_risk":5,"migraine_risk":4,"frizz_risk":1,"updated_at":"2026-03-29T21:05:45.448243+05:30"},{"city":"Patna","state":"Bihar","latitude":25.5941,"longitude":85.1376,"temp":25.9,"humidity":71,"rain":0.0,"pressure":1000.4,"uv_index":8.05,"wind_gusts":23.8,"aqi":133,"pm10":74.7,"pm2_5":58.8,"mosquito_risk":7,"arthritis_risk":5,"migraine_risk":4,"frizz_risk":1,"updated_at":"2026-03-29T21:05:45.448250+05:30"},{"city":"Gaya","state":"Bihar","latitude":24.7914,"longitude":85.0002,"temp":25.0,"humidity":77,"rain":0.0,"pressure":993.4,"uv_index":8.15,"wind_gusts":19.1,"aqi":102,"pm10":65.0,"pm2_5":41.4,"mosquito_risk":7,"arthritis_risk":5,"migraine_risk":7,"frizz_risk":1,"updated_at":"2026-03-29T21:05:45.448258+05:30"},{"city":"Muzaffarpur","state":"Bihar","latitude":26.1209,"longitude":85.3647,"temp":24.0,"humidity":76,"rain":0.0,"pressure":1000.8,"uv_index":8.05,"wind_gusts":28.1,"aqi":140,"pm10":85.2,"pm2_5":66.8,"mosquito_risk":3,"arthritis_risk":5,"migraine_risk":4,"frizz_risk":1,"updated_at":"2026-03-29T21:05:45.448265+05:30"},{"city":"Bhagalpur","state":"Bihar","latitude":25.2425,"longitude":87.0117,"temp":23.4,"humidity":87,"rain":0.0,"pressure":1002.0,"uv_index":8.1,"wind_gusts":19.8,"aqi":147,"pm10":65.7,"pm2_5":56.2,"mosquito_risk":3,"arthritis_risk":5,"migraine_risk":4,"frizz_risk":1,"updated_at":"2026-03-29T21:05:45.448271+05:30"},{"city":"Ranchi","state":"Jharkhand","latitude":23.3441,"longitude":85.3096,"temp":25.1,"humidity":76,"rain":0.0,"pressure":937.5,"uv_index":8.75,"wind_gusts":31.7,"aqi":108,"pm10":33.4,"pm2_5":20.9,"mosquito_risk":7,"arthritis_risk":5,"migraine_risk":7,"frizz_risk":1,"updated_at":"2026-03-29T21:05:45.448278+05:30"},{"city":"Jamshedpur","state":"Jharkhand","latitude":22.8046,"longitude":86.2029,"temp":27.5,"humidity":75,"rain":0.0,"pressure":990.6,"uv_index":8.55,"wind_gusts":32.4,"aqi":152,"pm10":68.5,"pm2_5":51.7,"mosquito_risk":7,"arthritis_risk":5,"migraine_risk":7,"frizz_risk":1,"updated_at":"2026-03-29T21:05:45.448284+05:30"},{"city":"Dhanbad","state":"Jharkhand","latitude":23.7957,"longitude":86.4304,"temp":26.6,"humidity":70,"rain":0.0,"pressure":979.9,"uv_index":8.5,"wind_gusts":24.5,"aqi":155,"pm10":103.1,"pm2_5":85.9,"mosquito_risk":7,"arthritis_risk":5,"migraine_risk":7,"frizz_risk":1,"updated_at":"2026-03-29T21:05:45.448291+05:30"},{"city":"Bokaro","state":"Jharkhand","latitude":23.6693,"longitude":86.1511,"temp":26.1,"humidity":74,"rain":0.0,"pressure":984.1,"uv_index":8.5,"wind_gusts":29.2,"aqi":155,"pm10":79.9,"pm2_5":63.3,"mosquito_risk":7,"arthritis_risk":5,"migraine_risk":7,"frizz_risk":1,"updated_at":"2026-03-29T21:05:45.448299+05:30"},{"city":"Bhubaneswar","state":"Odisha","latitude":20.2961,"longitude":85.8245,"temp":26.8,"humidity":86,"rain":0.0,"pressure":1002.1,"uv_index":8.8,"wind_gusts":31.3,"aqi":76,"pm10":24.4,"pm2_5":20.7,"mosquito_risk":7,"arthritis_risk":5,"migraine_risk":4,"frizz_risk":1,"updated_at":"2026-03-29T21:05:45.448306+05:30"},{"city":"Cuttack","state":"Odisha","latitude":20.4625,"longitude":85.8828,"temp":27.9,"humidity":81,"rain":0.0,"pressure":1003.8,"uv_index":8.8,"wind_gusts":24.1,"aqi":76,"pm10":24.4,"pm2_5":20.7,"mosquito_risk":7,"arthritis_risk":5,"migraine_risk":4,"frizz_risk":1,"updated_at":"2026-03-29T21:05:45.448313+05:30"},{"city":"Rourkela","state":"Odisha","latitude":22.2604,"longitude":84.8536,"temp":30.0,"humidity":56,"rain":0.0,"pressure":983.3,"uv_index":8.5,"wind_gusts":30.6,"aqi":142,"pm10":59.8,"pm2_5":48.0,"mosquito_risk":4,"arthritis_risk":5,"migraine_risk":7,"frizz_risk":1,"updated_at":"2026-03-29T21:05:45.448320+05:30"},{"city":"Raipur","state":"Chhattisgarh","latitude":21.2514,"longitude":81.6296,"temp":31.3,"humidity":29,"rain":0.0,"pressure":972.4,"uv_index":8.6,"wind_gusts":26.6,"aqi":106,"pm10":51.3,"pm2_5":47.8,"mosquito_risk":0,"arthritis_risk":5,"migraine_risk":7,"frizz_risk":0,"updated_at":"2026-03-29T21:05:45.448327+05:30"},{"city":"Bhilai","state":"Chhattisgarh","latitude":21.1938,"longitude":81.3509,"temp":29.7,"humidity":35,"rain":0.0,"pressure":972.5,"uv_index":8.6,"wind_gusts":29.9,"aqi":82,"pm10":36.9,"pm2_5":34.6,"mosquito_risk":4,"arthritis_risk":5,"migraine_risk":7,"frizz_risk":0,"updated_at":"2026-03-29T21:05:45.448334+05:30"},{"city":"Guwahati","state":"Assam","latitude":26.1158,"longitude":91.7086,"temp":23.2,"humidity":80,"rain":0.0,"pressure":1003.5,"uv_index":7.1,"wind_gusts":14.4,"aqi":110,"pm10":71.2,"pm2_5":59.1,"mosquito_risk":3,"arthritis_risk":5,"migraine_risk":4,"frizz_risk":1,"updated_at":"2026-03-29T21:05:45.448340+05:30"},{"city":"Agartala","state":"Tripura","latitude":23.8315,"longitude":91.2868,"temp":22.3,"humidity":92,"rain":0.0,"pressure":1007.7,"uv_index":8.2,"wind_gusts":34.2,"aqi":137,"pm10":66.1,"pm2_5":60.5,"mosquito_risk":3,"arthritis_risk":5,"migraine_risk":4,"frizz_risk":1,"updated_at":"2026-03-29T21:05:45.448347+05:30"},{"city":"Shillong","state":"Meghalaya","latitude":25.5788,"longitude":91.8933,"temp":12.0,"humidity":95,"rain":0.0,"pressure":855.3,"uv_index":5.45,"wind_gusts":43.9,"aqi":97,"pm10":51.0,"pm2_5":41.4,"mosquito_risk":3,"arthritis_risk":10,"migraine_risk":3,"frizz_risk":0,"updated_at":"2026-03-29T21:05:45.448354+05:30"},{"city":"Imphal","state":"Manipur","latitude":24.817,"longitude":93.9368,"temp":16.4,"humidity":91,"rain":0.0,"pressure":924.0,"uv_index":7.85,"wind_gusts":68.4,"aqi":127,"pm10":85.9,"pm2_5":68.9,"mosquito_risk":3,"arthritis_risk":10,"migraine_risk":7,"frizz_risk":0,"updated_at":"2026-03-29T21:05:45.448361+05:30"},{"city":"Aizawl","state":"Mizoram","latitude":23.7271,"longitude":92.7176,"temp":16.9,"humidity":94,"rain":0.0,"pressure":893.1,"uv_index":7.7,"wind_gusts":52.9,"aqi":151,"pm10":85.7,"pm2_5":73.8,"mosquito_risk":3,"arthritis_risk":10,"migraine_risk":7,"frizz_risk":0,"updated_at":"2026-03-29T21:05:45.448368+05:30"},{"city":"Kohima","state":"Nagaland","latitude":25.6701,"longitude":94.1077,"temp":13.7,"humidity":82,"rain":0.0,"pressure":854.4,"uv_index":7.05,"wind_gusts":86.4,"aqi":103,"pm10":78.7,"pm2_5":53.8,"mosquito_risk":3,"arthritis_risk":10,"migraine_risk":7,"frizz_risk":0,"updated_at":"2026-03-29T21:05:45.448376+05:30"},{"city":"Gangtok","state":"Sikkim","latitude":27.3314,"longitude":88.6138,"temp":13.5,"humidity":89,"rain":0.0,"pressure":836.2,"uv_index":8.3,"wind_gusts":18.7,"aqi":77,"pm10":50.4,"pm2_5":41.3,"mosquito_risk":3,"arthritis_risk":10,"migraine_risk":7,"frizz_risk":0,"updated_at":"2026-03-29T21:05:45.448383+05:30"},{"city":"Siliguri","state":"West Bengal","latitude":26.7271,"longitude":88.3953,"temp":18.7,"humidity":85,"rain":0.0,"pressure":995.3,"uv_index":6.55,"wind_gusts":12.6,"aqi":124,"pm10":93.4,"pm2_5":70.1,"mosquito_risk":3,"arthritis_risk":10,"migraine_risk":7,"frizz_risk":1,"updated_at":"2026-03-29T21:05:48.708905+05:30"},{"city":"Durgapur","state":"West Bengal","latitude":23.5204,"longitude":87.3119,"temp":26.3,"humidity":82,"rain":0.0,"pressure":995.4,"uv_index":8.4,"wind_gusts":22.3,"aqi":165,"pm10":84.5,"pm2_5":77.1,"mosquito_risk":7,"arthritis_risk":5,"migraine_risk":7,"frizz_risk":1,"updated_at":"2026-03-29T21:05:48.708935+05:30"},{"city":"Asansol","state":"West Bengal","latitude":23.6739,"longitude":86.9524,"temp":26.4,"humidity":79,"rain":0.0,"pressure":993.8,"uv_index":8.45,"wind_gusts":21.6,"aqi":153,"pm10":89.6,"pm2_5":76.4,"mosquito_risk":7,"arthritis_risk":5,"migraine_risk":7,"frizz_risk":1,"updated_at":"2026-03-29T21:05:48.708945+05:30"},{"city":"Pondicherry","state":"Puducherry","latitude":11.9139,"longitude":79.8145,"temp":26.6,"humidity":91,"rain":0.0,"pressure":1008.3,"uv_index":8.95,"wind_gusts":32.8,"aqi":52,"pm10":15.7,"pm2_5":11.0,"mosquito_risk":7,"arthritis_risk":0,"migraine_risk":4,"frizz_risk":1,"updated_at":"2026-03-29T21:05:48.708954+05:30"},{"city":"Port Blair","state":"Andaman and Nicobar Islands","latitude":11.6234,"longitude":92.7265,"temp":28.5,"humidity":77,"rain":0.0,"pressure":1007.8,"uv_index":9.0,"wind_gusts":18.4,"aqi":70,"pm10":28.3,"pm2_5":22.5,"mosquito_risk":7,"arthritis_risk":5,"migraine_risk":4,"frizz_risk":1,"updated_at":"2026-03-29T21:05:48.708963+05:30"},{"city":"Haridwar","state":"Uttarakhand","latitude":29.9457,"longitude":78.1642,"temp":23.3,"humidity":72,"rain":0.0,"pressure":973.5,"uv_index":5.5,"wind_gusts":34.6,"aqi":88,"pm10":48.3,"pm2_5":30.4,"mosquito_risk":3,"arthritis_risk":5,"migraine_risk":3,"frizz_risk":1,"updated_at":"2026-03-29T21:05:48.708971+05:30"},{"city":"Rishikesh","state":"Uttarakhand","latitude":30.0869,"longitude":78.2676,"temp":22.7,"humidity":80,"rain":0.0,"pressure":966.3,"uv_index":5.75,"wind_gusts":24.8,"aqi":73,"pm10":52.2,"pm2_5":19.3,"mosquito_risk":3,"arthritis_risk":5,"migraine_risk":3,"frizz_risk":1,"updated_at":"2026-03-29T21:05:48.708978+05:30"},{"city":"Nainital","state":"Uttarakhand","latitude":29.3919,"longitude":79.4542,"temp":18.9,"humidity":62,"rain":0.0,"pressure":805.8,"uv_index":7.3,"wind_gusts":62.6,"aqi":113,"pm10":58.2,"pm2_5":33.5,"mosquito_risk":3,"arthritis_risk":5,"migraine_risk":7,"frizz_risk":0,"updated_at":"2026-03-29T21:05:48.708986+05:30"},{"city":"Mussoorie","state":"Uttarakhand","latitude":30.4599,"longitude":78.0664,"temp":16.5,"humidity":71,"rain":0.0,"pressure":801.9,"uv_index":4.9,"wind_gusts":28.1,"aqi":88,"pm10":70.3,"pm2_5":31.7,"mosquito_risk":3,"arthritis_risk":5,"migraine_risk":3,"frizz_risk":0,"updated_at":"2026-03-29T21:05:48.708993+05:30"},{"city":"Dharamshala","state":"Himachal Pradesh","latitude":32.219,"longitude":76.3234,"temp":19.6,"humidity":65,"rain":0.0,"pressure":867.8,"uv_index":5.15,"wind_gusts":26.6,"aqi":50,"pm10":28.2,"pm2_5":12.7,"mosquito_risk":3,"arthritis_risk":5,"migraine_risk":3,"frizz_risk":0,"updated_at":"2026-03-29T21:05:48.709000+05:30"},{"city":"Dalhousie","state":"Himachal Pradesh","latitude":32.5387,"longitude":75.971,"temp":15.9,"humidity":67,"rain":0.0,"pressure":801.9,"uv_index":3.45,"wind_gusts":29.5,"aqi":84,"pm10":85.2,"pm2_5":30.2,"mosquito_risk":3,"arthritis_risk":5,"migraine_risk":3,"frizz_risk":0,"updated_at":"2026-03-29T21:05:48.709009+05:30"},{"city":"Patiala","state":"Punjab","latitude":30.3398,"longitude":76.3869,"temp":23.1,"humidity":74,"rain":0.0,"pressure":976.6,"uv_index":6.4,"wind_gusts":32.8,"aqi":189,"pm10":370.7,"pm2_5":55.2,"mosquito_risk":3,"arthritis_risk":5,"migraine_risk":7,"frizz_risk":1,"updated_at":"2026-03-29T21:05:48.709016+05:30"},{"city":"Bhatinda","state":"Punjab","latitude":30.211,"longitude":74.9455,"temp":25.1,"humidity":69,"rain":0.0,"pressure":981.6,"uv_index":7.3,"wind_gusts":41.4,"aqi":140,"pm10":502.9,"pm2_5":96.9,"mosquito_risk":7,"arthritis_risk":5,"migraine_risk":7,"frizz_risk":1,"updated_at":"2026-03-29T21:05:48.709022+05:30"},{"city":"Rohtak","state":"Haryana","latitude":28.8955,"longitude":76.6066,"temp":25.6,"humidity":63,"rain":0.0,"pressure":979.5,"uv_index":6.55,"wind_gusts":35.3,"aqi":220,"pm10":443.3,"pm2_5":90.1,"mosquito_risk":7,"arthritis_risk":5,"migraine_risk":7,"frizz_risk":1,"updated_at":"2026-03-29T21:05:48.709029+05:30"},{"city":"Panipat","state":"Haryana","latitude":29.3909,"longitude":76.9635,"temp":23.8,"humidity":70,"rain":0.0,"pressure":978.8,"uv_index":5.8,"wind_gusts":30.6,"aqi":416,"pm10":385.6,"pm2_5":84.5,"mosquito_risk":3,"arthritis_risk":5,"migraine_risk":3,"frizz_risk":1,"updated_at":"2026-03-29T21:05:48.709036+05:30"},{"city":"Mathura","state":"Uttar Pradesh","latitude":27.4924,"longitude":77.6737,"temp":27.4,"humidity":54,"rain":0.0,"pressure":984.4,"uv_index":6.95,"wind_gusts":26.6,"aqi":230,"pm10":188.1,"pm2_5":49.4,"mosquito_risk":4,"arthritis_risk":5,"migraine_risk":7,"frizz_risk":1,"updated_at":"2026-03-29T21:05:48.709043+05:30"},{"city":"Vrindavan","state":"Uttar Pradesh","latitude":27.5823,"longitude":77.7027,"temp":27.2,"humidity":55,"rain":0.0,"pressure":985.1,"uv_index":6.9,"wind_gusts":29.2,"aqi":230,"pm10":188.1,"pm2_5":49.4,"mosquito_risk":4,"arthritis_risk":5,"migraine_risk":7,"frizz_risk":1,"updated_at":"2026-03-29T21:05:48.709049+05:30"},{"city":"Ayodhya","state":"Uttar Pradesh","latitude":26.7922,"longitude":82.1998,"temp":25.5,"humidity":55,"rain":0.0,"pressure":994.6,"uv_index":7.1,"wind_gusts":20.9,"aqi":140,"pm10":90.6,"pm2_5":47.4,"mosquito_risk":4,"arthritis_risk":5,"migraine_risk":7,"frizz_risk":0,"updated_at":"2026-03-29T21:05:48.709056+05:30"},{"city":"Ratlam","state":"Madhya Pradesh","latitude":23.3315,"longitude":75.0367,"temp":27.0,"humidity":62,"rain":0.0,"pressure":953.8,"uv_index":8.15,"wind_gusts":36.0,"aqi":43,"pm10":32.8,"pm2_5":16.1,"mosquito_risk":7,"arthritis_risk":5,"migraine_risk":7,"frizz_risk":1,"updated_at":"2026-03-29T21:05:48.709063+05:30"},{"city":"Sagar","state":"Madhya Pradesh","latitude":23.8388,"longitude":78.7378,"temp":28.8,"humidity":47,"rain":0.0,"pressure":949.1,"uv_index":8.15,"wind_gusts":34.6,"aqi":46,"pm10":14.4,"pm2_5":7.8,"mosquito_risk":4,"arthritis_risk":5,"migraine_risk":7,"frizz_risk":1,"updated_at":"2026-03-29T21:05:48.709070+05:30"},{"city":"Satna","state":"Madhya Pradesh","latitude":24.6005,"longitude":80.8322,"temp":27.7,"humidity":55,"rain":0.0,"pressure":970.2,"uv_index":8.15,"wind_gusts":46.8,"aqi":82,"pm10":28.1,"pm2_5":13.8,"mosquito_risk":4,"arthritis_risk":5,"migraine_risk":7,"frizz_risk":1,"updated_at":"2026-03-29T21:05:48.709077+05:30"},{"city":"Akola","state":"Maharashtra","latitude":20.7002,"longitude":77.0082,"temp":30.3,"humidity":54,"rain":0.0,"pressure":973.8,"uv_index":8.5,"wind_gusts":30.2,"aqi":52,"pm10":30.7,"pm2_5":15.1,"mosquito_risk":0,"arthritis_risk":5,"migraine_risk":7,"frizz_risk":1,"updated_at":"2026-03-29T21:05:48.709085+05:30"},{"city":"Amravati","state":"Maharashtra","latitude":20.9374,"longitude":77.7796,"temp":29.4,"humidity":48,"rain":0.0,"pressure":965.8,"uv_index":8.5,"wind_gusts":31.3,"aqi":49,"pm10":40.0,"pm2_5":18.5,"mosquito_risk":4,"arthritis_risk":5,"migraine_risk":7,"frizz_risk":1,"updated_at":"2026-03-29T21:05:48.709092+05:30"},{"city":"Latur","state":"Maharashtra","latitude":18.4088,"longitude":76.5604,"temp":28.3,"humidity":40,"rain":0.0,"pressure":938.4,"uv_index":8.85,"wind_gusts":28.4,"aqi":67,"pm10":22.6,"pm2_5":15.5,"mosquito_risk":4,"arthritis_risk":5,"migraine_risk":7,"frizz_risk":0,"updated_at":"2026-03-29T21:05:48.709100+05:30"},{"city":"Nanded","state":"Maharashtra","latitude":19.1383,"longitude":77.3091,"temp":30.4,"humidity":33,"rain":0.0,"pressure":966.6,"uv_index":8.7,"wind_gusts":20.5,"aqi":69,"pm10":24.9,"pm2_5":17.8,"mosquito_risk":0,"arthritis_risk":5,"migraine_risk":7,"frizz_risk":0,"updated_at":"2026-03-29T21:05:48.709106+05:30"},{"city":"Gulbarga","state":"Karnataka","latitude":17.3297,"longitude":76.8343,"temp":32.0,"humidity":27,"rain":0.0,"pressure":956.8,"uv_index":8.9,"wind_gusts":32.0,"aqi":118,"pm10":25.8,"pm2_5":22.4,"mosquito_risk":0,"arthritis_risk":5,"migraine_risk":7,"frizz_risk":0,"updated_at":"2026-03-29T21:05:48.709113+05:30"},{"city":"Bidar","state":"Karnataka","latitude":17.9104,"longitude":77.5199,"temp":30.6,"humidity":32,"rain":0.0,"pressure":934.2,"uv_index":8.9,"wind_gusts":30.2,"aqi":87,"pm10":25.7,"pm2_5":23.5,"mosquito_risk":0,"arthritis_risk":5,"migraine_risk":7,"frizz_risk":0,"updated_at":"2026-03-29T21:05:48.709119+05:30"},{"city":"Hospet","state":"Karnataka","latitude":15.2689,"longitude":76.3909,"temp":32.4,"humidity":38,"rain":0.0,"pressure":954.6,"uv_index":9.1,"wind_gusts":17.6,"aqi":116,"pm10":23.4,"pm2_5":20.8,"mosquito_risk":0,"arthritis_risk":5,"migraine_risk":7,"frizz_risk":1,"updated_at":"2026-03-29T21:05:48.709126+05:30"},{"city":"Tirupur","state":"Tamil Nadu","latitude":11.1085,"longitude":77.3411,"temp":28.9,"humidity":71,"rain":0.0,"pressure":974.8,"uv_index":9.25,"wind_gusts":40.0,"aqi":159,"pm10":55.3,"pm2_5":48.7,"mosquito_risk":7,"arthritis_risk":5,"migraine_risk":7,"frizz_risk":1,"updated_at":"2026-03-29T21:05:48.709133+05:30"},{"city":"Alappuzha","state":"Kerala","latitude":9.4981,"longitude":76.3388,"temp":29.4,"humidity":78,"rain":0.0,"pressure":1008.3,"uv_index":9.1,"wind_gusts":28.4,"aqi":109,"pm10":38.8,"pm2_5":32.7,"mosquito_risk":7,"arthritis_risk":0,"migraine_risk":4,"frizz_risk":1,"updated_at":"2026-03-29T21:05:48.709139+05:30"},{"city":"Munnar","state":"Kerala","latitude":10.0889,"longitude":77.0595,"temp":22.5,"humidity":80,"rain":0.0,"pressure":856.8,"uv_index":8.8,"wind_gusts":34.6,"aqi":93,"pm10":38.8,"pm2_5":36.7,"mosquito_risk":3,"arthritis_risk":5,"migraine_risk":7,"frizz_risk":1,"updated_at":"2026-03-29T21:05:48.709146+05:30"},{"city":"Silchar","state":"Assam","latitude":24.8333,"longitude":92.7789,"temp":22.3,"humidity":85,"rain":0.0,"pressure":1006.9,"uv_index":8.2,"wind_gusts":34.9,"aqi":150,"pm10":102.9,"pm2_5":81.0,"mosquito_risk":3,"arthritis_risk":5,"migraine_risk":4,"frizz_risk":1,"updated_at":"2026-03-29T21:05:48.709153+05:30"},{"city":"Dibrugarh","state":"Assam","latitude":27.4728,"longitude":94.912,"temp":21.6,"humidity":86,"rain":0.0,"pressure":998.5,"uv_index":7.35,"wind_gusts":16.9,"aqi":73,"pm10":38.3,"pm2_5":34.2,"mosquito_risk":3,"arthritis_risk":5,"migraine_risk":7,"frizz_risk":1,"updated_at":"2026-03-29T21:05:48.709160+05:30"}]