[{"city":"Delhi","state":"Delhi","latitude":28.6139,"longitude":77.209,"temp":21.0,"humidity":73,"rain":0.0,"pressure":983.1,"uv_index":6.15,"wind_gusts":31.3,"aqi":316,"pm10":345.5,"pm2_5":84.3,"mosquito_risk":3,"arthritis_risk":5,"migraine_risk":7,"frizz_risk":0,"updated_at":"2026-03-31T03:15:26.128613+05:30"},{"city":"Mumbai","state":"Maharashtra","latitude":19.076,"longitude":72.8777,"temp":27.4,"humidity":85,"rain":0.0,"pressure":1007.8,"uv_index":8.05,"wind_gusts":26.6,"aqi":71,"pm10":45.4,"pm2_5":16.6,"mosquito_risk":7,"arthritis_risk":5,"migraine_risk":4,"frizz_risk":1,"updated_at":"2026-03-31T03:15:26.128661+05:30"},{"city":"Bangalore","state":"Karnataka","latitude":12.9716,"longitude":77.5946,"temp":22.8,"humidity":67,"rain":0.0,"pressure":910.2,"uv_index":9.0,"wind_gusts":19.1,"aqi":109,"pm10":27.3,"pm2_5":26.1,"mosquito_risk":3,"arthritis_risk":5,"migraine_risk":7,"frizz_risk":1,"updated_at":"2026-03-31T03:15:26.128677+05:30"},{"city":"Hyderabad","state":"Telangana","latitude":17.385,"longitude":78.4867,"temp":23.0,"humidity":85,"rain":0.0,"pressure":953.3,"uv_index":9.05,"wind_gusts":33.1,"aqi":143,"pm10":61.0,"pm2_5":55.9,"mosquito_risk":3,"arthritis_risk":5,"migraine_risk":7,"frizz_risk":1,"updated_at":"2026-03-31T03:15:26.128686+05:30"},{"city":"Chennai","state":"Tamil Nadu","latitude":13.0827,"longitude":80.2707,"temp":26.1,"humidity":86,"rain":0.0,"pressure":1006.1,"uv_index":9.3,"wind_gusts":29.2,"aqi":48,"pm10":15.8,"pm2_5":11.6,"mosquito_risk":7,"arthritis_risk":5,"migraine_risk":4,"frizz_risk":1,"updated_at":"2026-03-31T03:15:26.128695+05:30"},{"city":"Kolkata","state":"West Bengal","latitude":22.5726,"longitude":88.3639,"temp":26.1,"humidity":93,"rain":0.0,"pressure":1005.3,"uv_index":7.8,"wind_gusts":23.8,"aqi":88,"pm10":23.5,"pm2_5":19.7,"mosquito_risk":7,"arthritis_risk":5,"migraine_risk":4,"frizz_risk":1,"updated_at":"2026-03-31T03:15:26.128702+05:30"},{"city":"Pune","state":"Maharashtra","latitude":18.5204,"longitude":73.8567,"temp":23.0,"humidity":98,"rain":0.0,"pressure":947.6,"uv_index":8.55,"wind_gusts":39.2,"aqi":89,"pm10":58.1,"pm2_5":52.3,"mosquito_risk":3,"arthritis_risk":5,"migraine_risk":7,"frizz_risk":1,"updated_at":"2026-03-31T03:15:26.128712+05:30"},{"city":"Ahmedabad","state":"Gujarat","latitude":23.0225,"longitude":72.5714,"temp":25.9,"humidity":66,"rain":0.0,"pressure":1001.6,"uv_index":7.8,"wind_gusts":26.6,"aqi":60,"pm10":35.6,"pm2_5":22.4,"mosquito_risk":7,"arthritis_risk":5,"migraine_risk":4,"frizz_risk":1,"updated_at":"2026-03-31T03:15:26.128719+05:30"},{"city":"Jaipur","state":"Rajasthan","latitude":26.9124,"longitude":75.7873,"temp":22.9,"humidity":64,"rain":0.0,"pressure":959.9,"uv_index":7.2,"wind_gusts":37.4,"aqi":108,"pm10":57.6,"pm2_5":17.8,"mosquito_risk":3,"arthritis_risk":5,"migraine_risk":7,"frizz_risk":0,"updated_at":"2026-03-31T03:15:26.128726+05:30"},{"city":"Lucknow","state":"Uttar Pradesh","latitude":26.8467,"longitude":80.9462,"temp":24.8,"humidity":65,"rain":0.0,"pressure":992.1,"uv_index":7.25,"wind_gusts":28.4,"aqi":126,"pm10":470.3,"pm2_5":109.7,"mosquito_risk":3,"arthritis_risk":5,"migraine_risk":7,"frizz_risk":1,"updated_at":"2026-03-31T03:15:26.128732+05:30"},{"city":"Kanpur","state":"Uttar Pradesh","latitude":26.4499,"longitude":80.3319,"temp":23.6,"humidity":66,"rain":0.0,"pressure":990.6,"uv_index":7.3,"wind_gusts":29.5,"aqi":200,"pm10":888.5,"pm2_5":141.1,"mosquito_risk":3,"arthritis_risk":5,"migraine_risk":7,"frizz_risk":1,"updated_at":"2026-03-31T03:15:26.128738+05:30"},{"city":"Chandigarh","state":"Chandigarh","latitude":30.7333,"longitude":76.7794,"temp":20.7,"humidity":84,"rain":0.0,"pressure":969.1,"uv_index":6.3,"wind_gusts":22.0,"aqi":118,"pm10":69.8,"pm2_5":31.1,"mosquito_risk":3,"arthritis_risk":5,"migraine_risk":7,"frizz_risk":1,"updated_at":"2026-03-31T03:15:26.128744+05:30"},{"city":"Srinagar","state":"Jammu and Kashmir","latitude":34.0837,"longitude":74.7973,"temp":9.1,"humidity":95,"rain":0.1,"pressure":843.0,"uv_index":4.95,"wind_gusts":15.5,"aqi":80,"pm10":47.1,"pm2_5":26.8,"mosquito_risk":6,"arthritis_risk":10,"migraine_risk":3,"frizz_risk":0,"updated_at":"2026-03-31T03:15:26.128750+05:30"},{"city":"Jammu","state":"Jammu and Kashmir","latitude":32.7266,"longitude":74.857,"temp":19.2,"humidity":72,"rain":0.0,"pressure":974.6,"uv_index":6.9,"wind_gusts":32.8,"aqi":70,"pm10":31.3,"pm2_5":14.4,"mosquito_risk":3,"arthritis_risk":5,"migraine_risk":7,"frizz_risk":0,"updated_at":"2026-03-31T03:15:26.128756+05:30"},{"city":"Amritsar","state":"Punjab","latitude":31.634,"longitude":74.8723,"temp":18.7,"humidity":82,"rain":0.0,"pressure":982.1,"uv_index":6.65,"wind_gusts":41.4,"aqi":95,"pm10":87.1,"pm2_5":40.0,"mosquito_risk":3,"arthritis_risk":10,"migraine_risk":7,"frizz_risk":0,"updated_at":"2026-03-31T03:15:26.128763+05:30"},{"city":"Ludhiana","state":"Punjab","latitude":30.901,"longitude":75.8573,"temp":21.3,"humidity":81,"rain":0.0,"pressure":979.6,"uv_index":6.2,"wind_gusts":27.0,"aqi":145,"pm10":115.0,"pm2_5":47.3,"mosquito_risk":3,"arthritis_risk":5,"migraine_risk":7,"frizz_risk":1,"updated_at":"2026-03-31T03:15:26.128769+05:30"},{"city":"Jalandhar","state":"Punjab","latitude":31.326,"longitude":75.5762,"temp":20.0,"humidity":84,"rain":0.0,"pressure":981.1,"uv_index":6.55,"wind_gusts":18.4,"aqi":120,"pm10":114.3,"pm2_5":47.7,"mosquito_risk":3,"arthritis_risk":5,"migraine_risk":7,"frizz_risk":1,"updated_at":"2026-03-31T03:15:26.128776+05:30"},{"city":"Dehradun","state":"Uttarakhand","latitude":30.6284,"longitude":78.0322,"temp":13.9,"humidity":69,"rain":0.0,"pressure":829.4,"uv_index":7.1,"wind_gusts":37.1,"aqi":45,"pm10":12.8,"pm2_5":6.8,"mosquito_risk":3,"arthritis_risk":5,"migraine_risk":7,"frizz_risk":0,"updated_at":"2026-03-31T03:15:26.128782+05:30"},{"city":"Shimla","state":"Himachal Pradesh","latitude":31.1048,"longitude":77.1734,"temp":12.1,"humidity":68,"rain":0.0,"pressure":783.4,"uv_index":6.95,"wind_gusts":29.9,"aqi":53,"pm10":25.6,"pm2_5":9.5,"mosquito_risk":3,"arthritis_risk":5,"migraine_risk":7,"frizz_risk":0,"updated_at":"2026-03-31T03:15:26.128788+05:30"},{"city":"Manali","state":"Himachal Pradesh","latitude":32.2396,"longitude":77.1887,"temp":14.0,"humidity":54,"rain":0.0,"pressure":819.0,"uv_index":8.55,"wind_gusts":33.1,"aqi":49,"pm10":6.8,"pm2_5":2.9,"mosquito_risk":0,"arthritis_risk":5,"migraine_risk":7,"frizz_risk":0,"updated_at":"2026-03-31T03:15:26.128793+05:30"},{"city":"Gurgaon","state":"Haryana","latitude":28.4595,"longitude":77.0266,"temp":18.9,"humidity":84,"rain":0.0,"pressure":981.4,"uv_index":6.4,"wind_gusts":25.2,"aqi":917,"pm10":240.3,"pm2_5":78.9,"mosquito_risk":3,"arthritis_risk":10,"migraine_risk":7,"frizz_risk":1,"updated_at":"2026-03-31T03:15:26.128799+05:30"},{"city":"Noida","state":"Uttar Pradesh","latitude":28.5355,"longitude":77.391,"temp":20.8,"humidity":74,"rain":0.0,"pressure":984.6,"uv_index":6.05,"wind_gusts":30.2,"aqi":917,"pm10":240.3,"pm2_5":78.9,"mosquito_risk":3,"arthritis_risk":5,"migraine_risk":7,"frizz_risk":0,"updated_at":"2026-03-31T03:15:26.128805+05:30"},{"city":"Ghaziabad","state":"Uttar Pradesh","latitude":28.6692,"longitude":77.4538,"temp":20.1,"humidity":73,"rain":0.0,"pressure":982.7,"uv_index":6.05,"wind_gusts":30.6,"aqi":229,"pm10":382.8,"pm2_5":85.7,"mosquito_risk":3,"arthritis_risk":5,"migraine_risk":7,"frizz_risk":0,"updated_at":"2026-03-31T03:15:26.128810+05:30"},{"city":"Faridabad","state":"Haryana","latitude":28.4089,"longitude":77.3178,"temp":18.7,"humidity":82,"rain":0.0,"pressure":983.7,"uv_index":6.0,"wind_gusts":23.0,"aqi":917,"pm10":240.3,"pm2_5":78.9,"mosquito_risk":3,"arthritis_risk":10,"migraine_risk":3,"frizz_risk":0,"updated_at":"2026-03-31T03:15:26.128815+05:30"},{"city":"Meerut","state":"Uttar Pradesh","latitude":28.9845,"longitude":77.7064,"temp":18.9,"humidity":73,"rain":0.0,"pressure":981.3,"uv_index":6.55,"wind_gusts":25.2,"aqi":229,"pm10":382.8,"pm2_5":85.7,"mosquito_risk":3,"arthritis_risk":5,"migraine_risk":7,"frizz_risk":0,"updated_at":"2026-03-31T03:15:26.128821+05:30"},{"city":"Agra","state":"Uttar Pradesh","latitude":27.1767,"longitude":78.0081,"temp":21.2,"humidity":67,"rain":0.0,"pressure":987.9,"uv_index":6.9,"wind_gusts":32.0,"aqi":599,"pm10":132.2,"pm2_5":35.3,"mosquito_risk":3,"arthritis_risk":5,"migraine_risk":7,"frizz_risk":0,"updated_at":"2026-03-31T03:15:26.128826+05:30"},{"city":"Varanasi","state":"Uttar Pradesh","latitude":25.3176,"longitude":82.9739,"temp":24.4,"humidity":72,"rain":0.0,"pressure":996.2,"uv_index":7.6,"wind_gusts":27.0,"aqi":99,"pm10":77.3,"pm2_5":60.5,"mosquito_risk":3,"arthritis_risk":5,"migraine_risk":7,"frizz_risk":1,"updated_at":"2026-03-31T03:15:26.128833+05:30"},{"city":"Prayagraj","state":"Uttar Pradesh","latitude":25.4358,"longitude":81.8463,"temp":24.2,"humidity":73,"rain":0.0,"pressure":994.5,"uv_index":7.85,"wind_gusts":24.5,"aqi":105,"pm10":168.6,"pm2_5":47.8,"mosquito_risk":3,"arthritis_risk":5,"migraine_risk":7,"frizz_risk":1,"updated_at":"2026-03-31T03:15:26.128838+05:30"},{"city":"Gorakhpur","state":"Uttar Pradesh","latitude":26.7606,"longitude":83.3732,"temp":23.3,"humidity":82,"rain":0.0,"pressure":996.5,"uv_index":6.25,"wind_gusts":25.6,"aqi":151,"pm10":100.4,"pm2_5":78.7,"mosquito_risk":3,"arthritis_risk":5,"migraine_risk":7,"frizz_risk":1,"updated_at":"2026-03-31T03:15:26.128844+05:30"},{"city":"Bareilly","state":"Uttar Pradesh","latitude":28.367,"longitude":79.4304,"temp":22.2,"humidity":85,"rain":0.0,"pressure":986.0,"uv_index":6.45,"wind_gusts":29.2,"aqi":116,"pm10":218.4,"pm2_5":65.7,"mosquito_risk":3,"arthritis_risk":5,"migraine_risk":7,"frizz_risk":1,"updated_at":"2026-03-31T03:15:26.128849+05:30"},{"city":"Aligarh","state":"Uttar Pradesh","latitude":27.8974,"longitude":78.088,"temp":19.6,"humidity":75,"rain":0.0,"pressure":985.4,"uv_index":6.35,"wind_gusts":29.9,"aqi":643,"pm10":439.6,"pm2_5":100.8,"mosquito_risk":3,"arthritis_risk":5,"migraine_risk":7,"frizz_risk":0,"updated_at":"2026-03-31T03:15:26.128854+05:30"},{"city":"Moradabad","state":"Uttar Pradesh","latitude":28.8386,"longitude":78.7733,"temp":21.5,"humidity":82,"rain":0.0,"pressure":983.2,"uv_index":6.65,"wind_gusts":27.7,"aqi":152,"pm10":313.9,"pm2_5":80.6,"mosquito_risk":3,"arthritis_risk":5,"migraine_risk":7,"frizz_risk":1,"updated_at":"2026-03-31T03:15:26.128859+05:30"},{"city":"Saharanpur","state":"Uttar Pradesh","latitude":29.9637,"longitude":77.546,"temp":20.3,"humidity":85,"rain":0.0,"pressure":975.6,"uv_index":6.2,"wind_gusts":24.8,"aqi":151,"pm10":295.2,"pm2_5":81.5,"mosquito_risk":3,"arthritis_risk":5,"migraine_risk":7,"frizz_risk":1,"updated_at":"2026-03-31T03:15:26.128866+05:30"},{"city":"Jhansi","state":"Uttar Pradesh","latitude":25.4484,"longitude":78.5685,"temp":23.7,"humidity":61,"rain":0.0,"pressure":977.6,"uv_index":7.8,"wind_gusts":22.3,"aqi":56,"pm10":29.9,"pm2_5":13.1,"mosquito_risk":3,"arthritis_risk":5,"migraine_risk":7,"frizz_risk":0,"updated_at":"2026-03-31T03:15:29.451587+05:30"},{"city":"Surat","state":"Gujarat","latitude":21.1702,"longitude":72.8311,"temp":27.0,"humidity":84,"rain":0.0,"pressure":1006.0,"uv_index":7.8,"wind_gusts":28.4,"aqi":105,"pm10":25.0,"pm2_5":18.8,"mosquito_risk":7,"arthritis_risk":5,"migraine_risk":4,"frizz_risk":1,"updated_at":"2026-03-31T03:15:29.451617+05:30"},{"city":"Vadodara","state":"Gujarat","latitude":22.3072,"longitude":73.1812,"temp":27.6,"humidity":78,"rain":0.0,"pressure":1003.3,"uv_index":8.0,"wind_gusts":27.4,"aqi":78,"pm10":62.6,"pm2_5":44.7,"mosquito_risk":7,"arthritis_risk":5,"migraine_risk":4,"frizz_risk":1,"updated_at":"2026-03-31T03:15:29.451627+05:30"},{"city":"Rajkot","state":"Gujarat","latitude":22.3039,"longitude":70.8022,"temp":23.4,"humidity":93,"rain":0.0,"pressure":993.9,"uv_index":7.8,"wind_gusts":37.1,"aqi":56,"pm10":33.5,"pm2_5":15.7,"mosquito_risk":3,"arthritis_risk":5,"migraine_risk":7,"frizz_risk":1,"updated_at":"2026-03-31T03:15:29.451635+05:30"},{"city":"Thane","state":"Maharashtra","latitude":19.2183,"longitude":72.9781,"temp":26.5,"humidity":87,"rain":0.0,"pressure":1007.2,"uv_index":8.05,"wind_gusts":39.2,"aqi":71,"pm10":45.4,"pm2_5":16.6,"mosquito_risk":7,"arthritis_risk":5,"migraine_risk":4,"frizz_risk":1,"updated_at":"2026-03-31T03:15:29.451643+05:30"},{"city":"Nagpur","state":"Maharashtra","latitude":21.1458,"longitude":79.0882,"temp":24.1,"humidity":80,"rain":0.0,"pressure":973.1,"uv_index":8.55,"wind_gusts":24.1,"aqi":64,"pm10":18.9,"pm2_5":15.8,"mosquito_risk":3,"arthritis_risk":5,"migraine_risk":7,"frizz_risk":1,"updated_at":"2026-03-31T03:15:29.451651+05:30"},{"city":"Nashik","state":"Maharashtra","latitude":19.9975,"longitude":73.7898,"temp":22.0,"humidity":88,"rain":0.0,"pressure":944.6,"uv_index":8.25,"wind_gusts":31.7,"aqi":63,"pm10":51.7,"pm2_5":36.8,"mosquito_risk":3,"arthritis_risk":5,"migraine_risk":7,"frizz_risk":1,"updated_at":"2026-03-31T03:15:29.451657+05:30"},{"city":"Aurangabad","state":"Maharashtra","latitude":19.8762,"longitude":75.3433,"temp":22.6,"humidity":78,"rain":0.0,"pressure":943.2,"uv_index":8.75,"wind_gusts":22.7,"aqi":56,"pm10":28.3,"pm2_5":23.1,"mosquito_risk":3,"arthritis_risk":5,"migraine_risk":7,"frizz_risk":1,"updated_at":"2026-03-31T03:15:29.451665+05:30"},{"city":"Solapur","state":"Maharashtra","latitude":17.6599,"longitude":75.9064,"temp":23.8,"humidity":76,"rain":0.0,"pressure":956.6,"uv_index":8.9,"wind_gusts":27.7,"aqi":81,"pm10":42.4,"pm2_5":38.6,"mosquito_risk":3,"arthritis_risk":5,"migraine_risk":7,"frizz_risk":1,"updated_at":"2026-03-31T03:15:29.451672+05:30"},{"city":"Kolhapur","state":"Maharashtra","latitude":16.705,"longitude":74.2433,"temp":23.2,"humidity":93,"rain":0.0,"pressure":947.3,"uv_index":8.9,"wind_gusts":32.4,"aqi":76,"pm10":47.6,"pm2_5":43.4,"mosquito_risk":3,"arthritis_risk":5,"migraine_risk":7,"frizz_risk":1,"updated_at":"2026-03-31T03:15:29.451679+05:30"},{"city":"Goa","state":"Goa","latitude":15.2993,"longitude":74.124,"temp":27.6,"humidity":81,"rain":0.0,"pressure":996.7,"uv_index":9.0,"wind_gusts":34.6,"aqi":62,"pm10":35.7,"pm2_5":25.8,"mosquito_risk":7,"arthritis_risk":5,"migraine_risk":7,"frizz_risk":1,"updated_at":"2026-03-31T03:15:29.451685+05:30"},{"city":"Jodhpur","state":"Rajasthan","latitude":26.2389,"longitude":73.0243,"temp":24.0,"humidity":69,"rain":0.0,"pressure":982.5,"uv_index":7.7,"wind_gusts":37.1,"aqi":93,"pm10":44.1,"pm2_5":15.4,"mosquito_risk":3,"arthritis_risk":5,"migraine_risk":7,"frizz_risk":1,"updated_at":"2026-03-31T03:15:29.451692+05:30"},{"city":"Udaipur","state":"Rajasthan","latitude":24.5854,"longitude":73.7125,"temp":19.0,"humidity":76,"rain":0.0,"pressure":945.7,"uv_index":8.3,"wind_gusts":34.6,"aqi":50,"pm10":38.2,"pm2_5":17.7,"mosquito_risk":3,"arthritis_risk":5,"migraine_risk":7,"frizz_risk":0,"updated_at":"2026-03-31T03:15:29.451699+05:30"},{"city":"Kota","state":"Rajasthan","latitude":25.2138,"longitude":75.8648,"temp":23.4,"humidity":64,"rain":0.0,"pressure":978.8,"uv_index":7.75,"wind_gusts":41.0,"aqi":52,"pm10":33.3,"pm2_5":19.2,"mosquito_risk":3,"arthritis_risk":5,"migraine_risk":7,"frizz_risk":1,"updated_at":"2026-03-31T03:15:29.451706+05:30"},{"city":"Bikaner","state":"Rajasthan","latitude":28.0229,"longitude":73.3119,"temp":24.8,"humidity":54,"rain":0.0,"pressure":981.3,"uv_index":6.8,"wind_gusts":21.2,"aqi":101,"pm10":80.6,"pm2_5":21.7,"mosquito_risk":0,"arthritis_risk":5,"migraine_risk":7,"frizz_risk":0,"updated_at":"2026-03-31T03:15:29.451712+05:30"},{"city":"Ajmer","state":"Rajasthan","latitude":26.4499,"longitude":74.6399,"temp":22.7,"humidity":63,"rain":0.0,"pressure":954.1,"uv_index":7.7,"wind_gusts":38.5,"aqi":45,"pm10":22.9,"pm2_5":10.8,"mosquito_risk":3,"arthritis_risk":5,"migraine_risk":7,"frizz_risk":0,"updated_at":"2026-03-31T03:15:29.451719+05:30"},{"city":"Gwalior","state":"Madhya Pradesh","latitude":26.2183,"longitude":78.1828,"temp":23.1,"humidity":65,"rain":0.0,"pressure":983.2,"uv_index":7.35,"wind_gusts":25.9,"aqi":70,"pm10":38.2,"pm2_5":15.5,"mosquito_risk":3,"arthritis_risk":5,"migraine_risk":7,"frizz_risk":1,"updated_at":"2026-03-31T03:15:29.451725+05:30"},{"city":"Indore","state":"Madhya Pradesh","latitude":22.7196,"longitude":75.8577,"temp":23.0,"humidity":71,"rain":0.0,"pressure":947.4,"uv_index":8.3,"wind_gusts":24.8,"aqi":53,"pm10":29.6,"pm2_5":17.1,"mosquito_risk":3,"arthritis_risk":5,"migraine_risk":7,"frizz_risk":1,"updated_at":"2026-03-31T03:15:29.451732+05:30"},{"city":"Bhopal","state":"Madhya Pradesh","latitude":23.2599,"longitude":77.4126,"temp":24.1,"humidity":66,"rain":0.0,"pressure":953.3,"uv_index":8.25,"wind_gusts":24.1,"aqi":41,"pm10":22.5,"pm2_5":12.7,"mosquito_risk":3,"arthritis_risk":5,"migraine_risk":7,"frizz_risk":1,"updated_at":"2026-03-31T03:15:29.451739+05:30"},{"city":"Jabalpur","state":"Madhya Pradesh","latitude":23.1815,"longitude":79.9864,"temp":24.3,"humidity":68,"rain":0.0,"pressure":960.9,"uv_index":8.35,"wind_gusts":15.8,"aqi":53,"pm10":82.4,"pm2_5":23.4,"mosquito_risk":3,"arthritis_risk":5,"migraine_risk":7,"frizz_risk":1,"updated_at":"2026-03-31T03:15:29.451745+05:30"},{"city":"Ujjain","state":"Madhya Pradesh","latitude":23.1765,"longitude":75.7885,"temp":23.7,"humidity":69,"rain":0.0,"pressure":953.2,"uv_index":8.2,"wind_gusts":23.8,"aqi":56,"pm10":29.4,"pm2_5":19.1,"mosquito_risk":3,"arthritis_risk":5,"migraine_risk":7,"frizz_risk":1,"updated_at":"2026-03-31T03:15:29.451753+05:30"},{"city":"Visakhapatnam","state":"Andhra Pradesh","latitude":17.6868,"longitude":83.2185,"temp":25.5,"humidity":87,"rain":0.0,"pressure":1002.7,"uv_index":9.0,"wind_gusts":37.1,"aqi":61,"pm10":19.0,"pm2_5":15.7,"mosquito_risk":7,"arthritis_risk":5,"migraine_risk":4,"frizz_risk":1,"updated_at":"2026-03-31T03:15:29.451760+05:30"},{"city":"Vijayawada","state":"Andhra Pradesh","latitude":16.5062,"longitude":80.648,"temp":25.1,"humidity":92,"rain":0.0,"pressure":1002.1,"uv_index":9.1,"wind_gusts":21.6,"aqi":61,"pm10":16.3,"pm2_5":13.5,"mosquito_risk":7,"arthritis_risk":5,"migraine_risk":4,"frizz_risk":1,"updated_at":"2026-03-31T03:15:29.451766+05:30"},{"city":"Guntur","state":"Andhra Pradesh","latitude":16.3067,"longitude":80.4365,"temp":25.5,"humidity":93,"rain":0.0,"pressure":1003.0,"uv_index":9.1,"wind_gusts":25.9,"aqi":65,"pm10":14.9,"pm2_5":12.3,"mosquito_risk":7,"arthritis_risk":5,"migraine_risk":4,"frizz_risk":1,"updated_at":"2026-03-31T03:15:29.451773+05:30"},{"city":"Nellore","state":"Andhra Pradesh","latitude":14.4426,"longitude":79.9865,"temp":25.4,"humidity":90,"rain":0.0,"pressure":1004.5,"uv_index":9.15,"wind_gusts":32.4,"aqi":57,"pm10":12.0,"pm2_5":9.2,"mosquito_risk":7,"arthritis_risk":5,"migraine_risk":4,"frizz_risk":1,"updated_at":"2026-03-31T03:15:29.451781+05:30"},{"city":"Kurnool","state":"Andhra Pradesh","latitude":15.8281,"longitude":78.0373,"temp":28.0,"humidity":65,"rain":0.0,"pressure":975.8,"uv_index":9.05,"wind_gusts":43.2,"aqi":117,"pm10":26.1,"pm2_5":23.8,"mosquito_risk":7,"arthritis_risk":5,"migraine_risk":7,"frizz_risk":1,"updated_at":"2026-03-31T03:15:29.451788+05:30"},{"city":"Kakinada","state":"Andhra Pradesh","latitude":16.9891,"longitude":82.2475,"temp":23.4,"humidity":96,"rain":0.0,"pressure":1006.9,"uv_index":9.05,"wind_gusts":31.3,"aqi":50,"pm10":16.1,"pm2_5":11.9,"mosquito_risk":3,"arthritis_risk":5,"migraine_risk":4,"frizz_risk":1,"updated_at":"2026-03-31T03:15:29.451795+05:30"},{"city":"Tirupati","state":"Andhra Pradesh","latitude":13.6288,"longitude":79.4192,"temp":23.7,"humidity":91,"rain":0.0,"pressure":990.7,"uv_index":9.3,"wind_gusts":32.4,"aqi":79,"pm10":27.6,"pm2_5":26.0,"mosquito_risk":3,"arthritis_risk":5,"migraine_risk":7,"frizz_risk":1,"updated_at":"2026-03-31T03:15:29.451802+05:30"},{"city":"Warangal","state":"Telangana","latitude":17.9689,"longitude":79.5941,"temp":24.9,"humidity":85,"rain":0.0,"pressure":978.8,"uv_index":8.95,"wind_gusts":22.0,"aqi":111,"pm10":23.7,"pm2_5":22.5,"mosquito_risk":3,"arthritis_risk":5,"migraine_risk":7,"frizz_risk":1,"updated_at":"2026-03-31T03:15:29.451814+05:30"},{"city":"Nizamabad","state":"Telangana","latitude":18.6725,"longitude":78.0941,"temp":24.2,"humidity":76,"rain":0.0,"pressure":964.3,"uv_index":8.85,"wind_gusts":33.8,"aqi":83,"pm10":36.2,"pm2_5":31.7,"mosquito_risk":3,"arthritis_risk":5,"migraine_risk":7,"frizz_risk":1,"updated_at":"2026-03-31T03:15:29.451820+05:30"},{"city":"Mysore","state":"Karnataka","latitude":12.2958,"longitude":76.6396,"temp":22.2,"humidity":96,"rain":0.0,"pressure":926.7,"uv_index":8.55,"wind_gusts":23.0,"aqi":119,"pm10":52.7,"pm2_5":49.1,"mosquito_risk":3,"arthritis_risk":5,"migraine_risk":7,"frizz_risk":1,"updated_at":"2026-03-31T03:15:29.451827+05:30"},{"city":"Mangalore","state":"Karnataka","latitude":12.9141,"longitude":74.856,"temp":29.8,"humidity":76,"rain":0.0,"pressure":1004.8,"uv_index":9.05,"wind_gusts":28.1,"aqi":66,"pm10":23.6,"pm2_5":20.4,"mosquito_risk":7,"arthritis_risk":5,"migraine_risk":4,"frizz_risk":1,"updated_at":"2026-03-31T03:15:29.451834+05:30"},{"city":"Hubli-Dharwad","state":"Karnataka","latitude":15.3647,"longitude":75.124,"temp":23.0,"humidity":92,"rain":0.0,"pressure":939.7,"uv_index":9.1,"wind_gusts":37.1,"aqi":60,"pm10":19.8,"pm2_5":17.9,"mosquito_risk":3,"arthritis_risk":5,"migraine_risk":7,"frizz_risk":1,"updated_at":"2026-03-31T03:15:29.451842+05:30"},{"city":"Belgaum","state":"Karnataka","latitude":15.8497,"longitude":74.4977,"temp":22.1,"humidity":96,"rain":0.0,"pressure":924.6,"uv_index":9.1,"wind_gusts":39.6,"aqi":60,"pm10":36.2,"pm2_5":30.5,"mosquito_risk":3,"arthritis_risk":5,"migraine_risk":7,"frizz_risk":1,"updated_at":"2026-03-31T03:15:32.719816+05:30"},{"city":"Coimbatore","state":"Tamil Nadu","latitude":11.0168,"longitude":76.9558,"temp":23.7,"humidity":95,"rain":0.0,"pressure":960.2,"uv_index":9.05,"wind_gusts":37.4,"aqi":98,"pm10":65.9,"pm2_5":61.7,"mosquito_risk":3,"arthritis_risk":5,"migraine_risk":7,"frizz_risk":1,"updated_at":"2026-03-31T03:15:32.719843+05:30"},{"city":"Madurai","state":"Tamil Nadu","latitude":9.9252,"longitude":78.1198,"temp":25.2,"humidity":96,"rain":0.0,"pressure":991.6,"uv_index":9.4,"wind_gusts":30.2,"aqi":70,"pm10":25.0,"pm2_5":23.2,"mosquito_risk":7,"arthritis_risk":5,"migraine_risk":7,"frizz_risk":1,"updated_at":"2026-03-31T03:15:32.719852+05:30"},{"city":"Trichy","state":"Tamil Nadu","latitude":10.7905,"longitude":78.7047,"temp":25.4,"humidity":92,"rain":0.0,"pressure":998.7,"uv_index":9.35,"wind_gusts":23.4,"aqi":60,"pm10":20.1,"pm2_5":17.6,"mosquito_risk":7,"arthritis_risk":5,"migraine_risk":7,"frizz_risk":1,"updated_at":"2026-03-31T03:15:32.719859+05:30"},{"city":"Salem","state":"Tamil Nadu","latitude":11.6643,"longitude":78.146,"temp":25.7,"humidity":82,"rain":0.0,"pressure":976.0,"uv_index":9.4,"wind_gusts":31.7,"aqi":70,"pm10":25.2,"pm2_5":24.2,"mosquito_risk":7,"arthritis_risk":5,"migraine_risk":7,"frizz_risk":1,"updated_at":"2026-03-31T03:15:32.719866+05:30"},{"city":"Tirunelveli","state":"Tamil Nadu","latitude":8.7139,"longitude":77.7567,"temp":23.9,"humidity":88,"rain":0.0,"pressure":1001.4,"uv_index":8.65,"wind_gusts":49.0,"aqi":78,"pm10":32.1,"pm2_5":29.9,"mosquito_risk":3,"arthritis_risk":5,"migraine_risk":4,"frizz_risk":1,"updated_at":"2026-03-31T03:15:32.719871+05:30"},{"city":"Vellore","state":"Tamil Nadu","latitude":12.9165,"longitude":79.1325,"temp":23.3,"humidity":96,"rain":0.0,"pressure":983.5,"uv_index":9.4,"wind_gusts":32.0,"aqi":95,"pm10":43.7,"pm2_5":41.9,"mosquito_risk":3,"arthritis_risk":5,"migraine_risk":7,"frizz_risk":1,"updated_at":"2026-03-31T03:15:32.719877+05:30"},{"city":"Erode","state":"Tamil Nadu","latitude":11.341,"longitude":77.7172,"temp":26.7,"humidity":81,"rain":0.0,"pressure":987.7,"uv_index":9.4,"wind_gusts":28.8,"aqi":60,"pm10":13.4,"pm2_5":12.8,"mosquito_risk":7,"arthritis_risk":5,"migraine_risk":7,"frizz_risk":1,"updated_at":"2026-03-31T03:15:32.719884+05:30"},{"city":"Kochi","state":"Kerala","latitude":9.9312,"longitude":76.2673,"temp":28.2,"humidity":83,"rain":0.0,"pressure":1006.5,"uv_index":8.9,"wind_gusts":26.3,"aqi":105,"pm10":48.9,"pm2_5":47.7,"mosquito_risk":7,"arthritis_risk":5,"migraine_risk":4,"frizz_risk":1,"updated_at":"2026-03-31T03:15:32.719890+05:30"},{"city":"Thiruvananthapuram","state":"Kerala","latitude":8.5241,"longitude":76.9366,"temp":28.2,"humidity":82,"rain":0.0,"pressure":1005.6,"uv_index":9.2,"wind_gusts":27.0,"aqi":77,"pm10":27.4,"pm2_5":22.5,"mosquito_risk":7,"arthritis_risk":5,"migraine_risk":4,"frizz_risk":1,"updated_at":"2026-03-31T03:15:32.719895+05:30"},{"city":"Kozhikode","state":"Kerala","latitude":11.2588,"longitude":75.7804,"temp":28.4,"humidity":83,"rain":0.0,"pressure":1006.1,"uv_index":8.25,"wind_gusts":26.3,"aqi":96,"pm10":38.1,"pm2_5":32.2,"mosquito_risk":7,"arthritis_risk":5,"migraine_risk":4,"frizz_risk":1,"updated_at":"2026-03-31T03:15:32.719901+05:30"},{"city":"Thrissur","state":"Kerala","latitude":10.5276,"longitude":76.2144,"temp":26.9,"humidity":92,"rain":0.0,"pressure":1005.2,"uv_index":8.75,"wind_gusts":34.6,"aqi":112,"pm10":66.4,"pm2_5":63.6,"mosquito_risk":7,"arthritis_risk":5,"migraine_risk":4,"frizz_risk":1,"updated_at":"2026-03-31T03:15:32.719907+05:30"},{"city":"Kannur","state":"Kerala","latitude":11.8745,"longitude":75.3704,"temp":28.2,"humidity":84,"rain":0.0,"pressure":1005.2,"uv_index":9.0,"wind_gusts":29.9,"aqi":108,"pm10":61.0,"pm2_5":57.7,"mosquito_risk":7,"arthritis_risk":5,"migraine_risk":4,"frizz_risk":1,"updated_at":"2026-03-31T03:15:32.719912+05:30"},{"city":"Patna","state":"Bihar","latitude":25.5941,"longitude":85.1376,"temp":23.4,"humidity":90,"rain":0.0,"pressure":999.9,"uv_index":8.1,"wind_gusts":28.4,"aqi":156,"pm10":92.4,"pm2_5":82.0,"mosquito_risk":3,"arthritis_risk":5,"migraine_risk":7,"frizz_risk":1,"updated_at":"2026-03-31T03:15:32.719918+05:30"},{"city":"Gaya","state":"Bihar","latitude":24.7914,"longitude":85.0002,"temp":24.5,"humidity":85,"rain":0.0,"pressure":992.6,"uv_index":8.2,"wind_gusts":24.8,"aqi":107,"pm10":60.5,"pm2_5":48.7,"mosquito_risk":3,"arthritis_risk":5,"migraine_risk":7,"frizz_risk":1,"updated_at":"2026-03-31T03:15:32.719923+05:30"},{"city":"Muzaffarpur","state":"Bihar","latitude":26.1209,"longitude":85.3647,"temp":21.9,"humidity":90,"rain":0.0,"pressure":1000.3,"uv_index":8.1,"wind_gusts":30.6,"aqi":160,"pm10":105.9,"pm2_5":92.0,"mosquito_risk":3,"arthritis_risk":5,"migraine_risk":4,"frizz_risk":1,"updated_at":"2026-03-31T03:15:32.719929+05:30"},{"city":"Bhagalpur","state":"Bihar","latitude":25.2425,"longitude":87.0117,"temp":23.0,"humidity":96,"rain":0.0,"pressure":1001.1,"uv_index":8.1,"wind_gusts":22.0,"aqi":156,"pm10":72.2,"pm2_5":68.7,"mosquito_risk":3,"arthritis_risk":5,"migraine_risk":4,"frizz_risk":1,"updated_at":"2026-03-31T03:15:32.719935+05:30"},{"city":"Ranchi","state":"Jharkhand","latitude":23.3441,"longitude":85.3096,"temp":22.0,"humidity":89,"rain":0.0,"pressure":936.9,"uv_index":8.45,"wind_gusts":42.8,"aqi":105,"pm10":39.2,"pm2_5":27.3,"mosquito_risk":3,"arthritis_risk":5,"migraine_risk":7,"frizz_risk":1,"updated_at":"2026-03-31T03:15:32.719940+05:30"},{"city":"Jamshedpur","state":"Jharkhand","latitude":22.8046,"longitude":86.2029,"temp":25.2,"humidity":85,"rain":0.0,"pressure":990.2,"uv_index":8.65,"wind_gusts":25.9,"aqi":119,"pm10":44.9,"pm2_5":38.5,"mosquito_risk":7,"arthritis_risk":5,"migraine_risk":7,"frizz_risk":1,"updated_at":"2026-03-31T03:15:32.719945+05:30"},{"city":"Dhanbad","state":"Jharkhand","latitude":23.7957,"longitude":86.4304,"temp":25.0,"humidity":80,"rain":0.0,"pressure":979.1,"uv_index":8.55,"wind_gusts":29.2,"aqi":162,"pm10":109.9,"pm2_5":102.4,"mosquito_risk":7,"arthritis_risk":5,"migraine_risk":7,"frizz_risk":1,"updated_at":"2026-03-31T03:15:32.719951+05:30"},{"city":"Bokaro","state":"Jharkhand","latitude":23.6693,"longitude":86.1511,"temp":24.4,"humidity":83,"rain":0.0,"pressure":983.2,"uv_index":8.55,"wind_gusts":34.2,"aqi":158,"pm10":93.8,"pm2_5":82.4,"mosquito_risk":3,"arthritis_risk":5,"migraine_risk":7,"frizz_risk":1,"updated_at":"2026-03-31T03:15:32.720006+05:30"},{"city":"Bhubaneswar","state":"Odisha","latitude":20.2961,"longitude":85.8245,"temp":26.2,"humidity":90,"rain":0.0,"pressure":1001.3,"uv_index":8.85,"wind_gusts":21.2,"aqi":63,"pm10":16.1,"pm2_5":12.9,"mosquito_risk":7,"arthritis_risk":5,"migraine_risk":4,"frizz_risk":1,"updated_at":"2026-03-31T03:15:32.720015+05:30"},{"city":"Cuttack","state":"Odisha","latitude":20.4625,"longitude":85.8828,"temp":26.1,"humidity":92,"rain":0.0,"pressure":1003.2,"uv_index":8.85,"wind_gusts":21.2,"aqi":63,"pm10":16.1,"pm2_5":12.9,"mosquito_risk":7,"arthritis_risk":5,"migraine_risk":4,"frizz_risk":1,"updated_at":"2026-03-31T03:15:32.720021+05:30"},{"city":"Rourkela","state":"Odisha","latitude":22.2604,"longitude":84.8536,"temp":25.6,"humidity":82,"rain":0.0,"pressure":984.7,"uv_index":8.55,"wind_gusts":37.4,"aqi":102,"pm10":51.8,"pm2_5":44.9,"mosquito_risk":7,"arthritis_risk":5,"migraine_risk":7,"frizz_risk":1,"updated_at":"2026-03-31T03:15:32.720027+05:30"},{"city":"Raipur","state":"Chhattisgarh","latitude":21.2514,"longitude":81.6296,"temp":25.7,"humidity":68,"rain":0.0,"pressure":975.0,"uv_index":8.4,"wind_gusts":27.0,"aqi":97,"pm10":57.9,"pm2_5":50.9,"mosquito_risk":7,"arthritis_risk":5,"migraine_risk":7,"frizz_risk":1,"updated_at":"2026-03-31T03:15:32.720033+05:30"},{"city":"Bhilai","state":"Chhattisgarh","latitude":21.1938,"longitude":81.3509,"temp":25.4,"humidity":69,"rain":0.0,"pressure":975.4,"uv_index":8.1,"wind_gusts":27.7,"aqi":80,"pm10":48.1,"pm2_5":39.9,"mosquito_risk":7,"arthritis_risk":5,"migraine_risk":7,"frizz_risk":1,"updated_at":"2026-03-31T03:15:32.720039+05:30"},{"city":"Guwahati","state":"Assam","latitude":26.1158,"longitude":91.7086,"temp":21.9,"humidity":93,"rain":0.0,"pressure":1002.7,"uv_index":8.05,"wind_gusts":23.4,"aqi":104,"pm10":43.5,"pm2_5":36.8,"mosquito_risk":3,"arthritis_risk":5,"migraine_risk":4,"frizz_risk":1,"updated_at":"2026-03-31T03:15:32.720044+05:30"},{"city":"Agartala","state":"Tripura","latitude":23.8315,"longitude":91.2868,"temp":22.6,"humidity":94,"rain":0.0,"pressure":1006.7,"uv_index":8.3,"wind_gusts":22.3,"aqi":103,"pm10":11.8,"pm2_5":10.2,"mosquito_risk":3,"arthritis_risk":5,"migraine_risk":4,"frizz_risk":1,"updated_at":"2026-03-31T03:15:32.720050+05:30"},{"city":"Shillong","state":"Meghalaya","latitude":25.5788,"longitude":91.8933,"temp":12.7,"humidity":91,"rain":0.0,"pressure":854.6,"uv_index":7.25,"wind_gusts":32.4,"aqi":101,"pm10":37.4,"pm2_5":32.8,"mosquito_risk":3,"arthritis_risk":10,"migraine_risk":7,"frizz_risk":0,"updated_at":"2026-03-31T03:15:32.720056+05:30"},{"city":"Imphal","state":"Manipur","latitude":24.817,"longitude":93.9368,"temp":16.6,"humidity":92,"rain":0.0,"pressure":923.1,"uv_index":8.45,"wind_gusts":56.9,"aqi":114,"pm10":6.1,"pm2_5":5.4,"mosquito_risk":3,"arthritis_risk":10,"migraine_risk":7,"frizz_risk":0,"updated_at":"2026-03-31T03:15:32.720062+05:30"},{"city":"Aizawl","state":"Mizoram","latitude":23.7271,"longitude":92.7176,"temp":17.1,"humidity":94,"rain":0.0,"pressure":892.2,"uv_index":8.55,"wind_gusts":44.6,"aqi":105,"pm10":23.2,"pm2_5":19.4,"mosquito_risk":3,"arthritis_risk":10,"migraine_risk":7,"frizz_risk":1,"updated_at":"2026-03-31T03:15:32.720068+05:30"},{"city":"Kohima","state":"Nagaland","latitude":25.6701,"longitude":94.1077,"temp":13.8,"humidity":81,"rain":0.0,"pressure":853.8,"uv_index":8.55,"wind_gusts":61.2,"aqi":98,"pm10":9.1,"pm2_5":7.4,"mosquito_risk":3,"arthritis_risk":10,"migraine_risk":7,"frizz_risk":0,"updated_at":"2026-03-31T03:15:32.720073+05:30"},{"city":"Gangtok","state":"Sikkim","latitude":27.3314,"longitude":88.6138,"temp":13.3,"humidity":93,"rain":0.0,"pressure":835.7,"uv_index":8.3,"wind_gusts":18.4,"aqi":90,"pm10":30.0,"pm2_5":25.7,"mosquito_risk":3,"arthritis_risk":10,"migraine_risk":7,"frizz_risk":0,"updated_at":"2026-03-31T03:15:32.720079+05:30"},{"city":"Siliguri","state":"West Bengal","latitude":26.7271,"longitude":88.3953,"temp":18.6,"humidity":89,"rain":0.0,"pressure":994.8,"uv_index":8.0,"wind_gusts":19.4,"aqi":154,"pm10":90.3,"pm2_5":71.2,"mosquito_risk":3,"arthritis_risk":10,"migraine_risk":7,"frizz_risk":1,"updated_at":"2026-03-31T03:15:36.003394+05:30"},{"city":"Durgapur","state":"West Bengal","latitude":23.5204,"longitude":87.3119,"temp":24.8,"humidity":94,"rain":0.0,"pressure":994.5,"uv_index":8.45,"wind_gusts":20.5,"aqi":154,"pm10":56.1,"pm2_5":52.6,"mosquito_risk":3,"arthritis_risk":5,"migraine_risk":7,"frizz_risk":1,"updated_at":"2026-03-31T03:15:36.003424+05:30"},{"city":"Asansol","state":"West Bengal","latitude":23.6739,"longitude":86.9524,"temp":25.0,"humidity":91,"rain":0.0,"pressure":993.1,"uv_index":8.55,"wind_gusts":27.7,"aqi":155,"pm10":63.1,"pm2_5":58.0,"mosquito_risk":7,"arthritis_risk":5,"migraine_risk":7,"frizz_risk":1,"updated_at":"2026-03-31T03:15:36.003433+05:30"},{"city":"Pondicherry","state":"Puducherry","latitude":11.9139,"longitude":79.8145,"temp":24.4,"humidity":96,"rain":0.0,"pressure":1007.4,"uv_index":9.25,"wind_gusts":24.8,"aqi":43,"pm10":14.5,"pm2_5":10.4,"mosquito_risk":3,"arthritis_risk":5,"migraine_risk":4,"frizz_risk":1,"updated_at":"2026-03-31T03:15:36.003441+05:30"},{"city":"Port Blair","state":"Andaman and Nicobar Islands","latitude":11.6234,"longitude":92.7265,"temp":28.4,"humidity":77,"rain":0.0,"pressure":1006.1,"uv_index":9.2,"wind_gusts":14.4,"aqi":57,"pm10":12.2,"pm2_5":9.1,"mosquito_risk":7,"arthritis_risk":5,"migraine_risk":4,"frizz_risk":1,"updated_at":"2026-03-31T03:15:36.003449+05:30"},{"city":"Haridwar","state":"Uttarakhand","latitude":29.9457,"longitude":78.1642,"temp":21.1,"humidity":83,"rain":0.0,"pressure":974.0,"uv_index":6.55,"wind_gusts":29.9,"aqi":113,"pm10":163.4,"pm2_5":51.9,"mosquito_risk":3,"arthritis_risk":5,"migraine_risk":7,"frizz_risk":1,"updated_at":"2026-03-31T03:15:36.003457+05:30"},{"city":"Rishikesh","state":"Uttarakhand","latitude":30.0869,"longitude":78.2676,"temp":20.5,"humidity":69,"rain":0.0,"pressure":966.7,"uv_index":6.65,"wind_gusts":30.6,"aqi":80,"pm10":122.5,"pm2_5":30.2,"mosquito_risk":3,"arthritis_risk":5,"migraine_risk":7,"frizz_risk":0,"updated_at":"2026-03-31T03:15:36.003465+05:30"},{"city":"Nainital","state":"Uttarakhand","latitude":29.3919,"longitude":79.4542,"temp":18.6,"humidity":53,"rain":0.0,"pressure":805.3,"uv_index":7.5,"wind_gusts":40.3,"aqi":79,"pm10":89.9,"pm2_5":36.0,"mosquito_risk":0,"arthritis_risk":5,"migraine_risk":7,"frizz_risk":0,"updated_at":"2026-03-31T03:15:36.003473+05:30"},{"city":"Mussoorie","state":"Uttarakhand","latitude":30.4599,"longitude":78.0664,"temp":16.5,"humidity":52,"rain":0.0,"pressure":802.4,"uv_index":7.0,"wind_gusts":34.2,"aqi":80,"pm10":52.9,"pm2_5":19.6,"mosquito_risk":0,"arthritis_risk":5,"migraine_risk":7,"frizz_risk":0,"updated_at":"2026-03-31T03:15:36.003480+05:30"},{"city":"Dharamshala","state":"Himachal Pradesh","latitude":32.219,"longitude":76.3234,"temp":18.8,"humidity":47,"rain":0.0,"pressure":869.1,"uv_index":7.2,"wind_gusts":38.5,"aqi":38,"pm10":6.3,"pm2_5":2.8,"mosquito_risk":0,"arthritis_risk":5,"migraine_risk":7,"frizz_risk":0,"updated_at":"2026-03-31T03:15:36.003487+05:30"},{"city":"Dalhousie","state":"Himachal Pradesh","latitude":32.5387,"longitude":75.971,"temp":14.8,"humidity":56,"rain":0.0,"pressure":803.0,"uv_index":6.7,"wind_gusts":32.8,"aqi":62,"pm10":20.4,"pm2_5":12.0,"mosquito_risk":0,"arthritis_risk":5,"migraine_risk":7,"frizz_risk":0,"updated_at":"2026-03-31T03:15:36.003495+05:30"},{"city":"Patiala","state":"Punjab","latitude":30.3398,"longitude":76.3869,"temp":20.1,"humidity":79,"rain":0.0,"pressure":978.6,"uv_index":5.9,"wind_gusts":19.8,"aqi":362,"pm10":126.7,"pm2_5":45.6,"mosquito_risk":3,"arthritis_risk":5,"migraine_risk":3,"frizz_risk":1,"updated_at":"2026-03-31T03:15:36.003502+05:30"},{"city":"Bhatinda","state":"Punjab","latitude":30.211,"longitude":74.9455,"temp":20.0,"humidity":82,"rain":0.0,"pressure":984.4,"uv_index":6.6,"wind_gusts":26.6,"aqi":152,"pm10":436.8,"pm2_5":79.4,"mosquito_risk":3,"arthritis_risk":5,"migraine_risk":7,"frizz_risk":1,"updated_at":"2026-03-31T03:15:36.003509+05:30"},{"city":"Rohtak","state":"Haryana","latitude":28.8955,"longitude":76.6066,"temp":20.3,"humidity":76,"rain":0.0,"pressure":981.9,"uv_index":6.05,"wind_gusts":30.2,"aqi":392,"pm10":261.7,"pm2_5":81.5,"mosquito_risk":3,"arthritis_risk":5,"migraine_risk":7,"frizz_risk":0,"updated_at":"2026-03-31T03:15:36.003516+05:30"},{"city":"Panipat","state":"Haryana","latitude":29.3909,"longitude":76.9635,"temp":18.4,"humidity":78,"rain":0.0,"pressure":980.6,"uv_index":6.55,"wind_gusts":19.1,"aqi":627,"pm10":482.4,"pm2_5":104.8,"mosquito_risk":3,"arthritis_risk":5,"migraine_risk":7,"frizz_risk":0,"updated_at":"2026-03-31T03:15:36.003523+05:30"},{"city":"Mathura","state":"Uttar Pradesh","latitude":27.4924,"longitude":77.6737,"temp":21.7,"humidity":63,"rain":0.0,"pressure":987.0,"uv_index":6.85,"wind_gusts":32.4,"aqi":524,"pm10":158.8,"pm2_5":50.3,"mosquito_risk":3,"arthritis_risk":5,"migraine_risk":7,"frizz_risk":0,"updated_at":"2026-03-31T03:15:36.003530+05:30"},{"city":"Vrindavan","state":"Uttar Pradesh","latitude":27.5823,"longitude":77.7027,"temp":19.9,"humidity":73,"rain":0.0,"pressure":987.3,"uv_index":6.8,"wind_gusts":26.6,"aqi":524,"pm10":158.8,"pm2_5":50.3,"mosquito_risk":3,"arthritis_risk":5,"migraine_risk":7,"frizz_risk":0,"updated_at":"2026-03-31T03:15:36.003537+05:30"},{"city":"Ayodhya","state":"Uttar Pradesh","latitude":26.7922,"longitude":82.1998,"temp":24.4,"humidity":74,"rain":0.0,"pressure":993.7,"uv_index":7.45,"wind_gusts":21.2,"aqi":122,"pm10":168.6,"pm2_5":53.0,"mosquito_risk":3,"arthritis_risk":5,"migraine_risk":7,"frizz_risk":1,"updated_at":"2026-03-31T03:15:36.003543+05:30"},{"city":"Ratlam","state":"Madhya Pradesh","latitude":23.3315,"longitude":75.0367,"temp":23.3,"humidity":72,"rain":0.0,"pressure":953.6,"uv_index":8.15,"wind_gusts":29.9,"aqi":55,"pm10":28.6,"pm2_5":18.7,"mosquito_risk":3,"arthritis_risk":5,"migraine_risk":7,"frizz_risk":1,"updated_at":"2026-03-31T03:15:36.003550+05:30"},{"city":"Sagar","state":"Madhya Pradesh","latitude":23.8388,"longitude":78.7378,"temp":25.3,"humidity":55,"rain":0.0,"pressure":949.7,"uv_index":8.2,"wind_gusts":18.4,"aqi":40,"pm10":19.6,"pm2_5":10.0,"mosquito_risk":4,"arthritis_risk":5,"migraine_risk":7,"frizz_risk":0,"updated_at":"2026-03-31T03:15:36.003557+05:30"},{"city":"Satna","state":"Madhya Pradesh","latitude":24.6005,"longitude":80.8322,"temp":24.4,"humidity":64,"rain":0.0,"pressure":970.5,"uv_index":8.2,"wind_gusts":24.5,"aqi":75,"pm10":406.1,"pm2_5":78.0,"mosquito_risk":3,"arthritis_risk":5,"migraine_risk":7,"frizz_risk":1,"updated_at":"2026-03-31T03:15:36.003563+05:30"},{"city":"Akola","state":"Maharashtra","latitude":20.7002,"longitude":77.0082,"temp":25.8,"humidity":70,"rain":0.0,"pressure":974.4,"uv_index":8.55,"wind_gusts":22.3,"aqi":51,"pm10":25.8,"pm2_5":20.0,"mosquito_risk":7,"arthritis_risk":5,"migraine_risk":7,"frizz_risk":1,"updated_at":"2026-03-31T03:15:36.003569+05:30"},{"city":"Amravati","state":"Maharashtra","latitude":20.9374,"longitude":77.7796,"temp":25.9,"humidity":68,"rain":0.0,"pressure":966.9,"uv_index":8.55,"wind_gusts":18.0,"aqi":50,"pm10":23.4,"pm2_5":18.1,"mosquito_risk":7,"arthritis_risk":5,"migraine_risk":7,"frizz_risk":1,"updated_at":"2026-03-31T03:15:36.003575+05:30"},{"city":"Latur","state":"Maharashtra","latitude":18.4088,"longitude":76.5604,"temp":22.4,"humidity":82,"rain":0.0,"pressure":939.2,"uv_index":8.85,"wind_gusts":36.0,"aqi":68,"pm10":30.3,"pm2_5":26.5,"mosquito_risk":3,"arthritis_risk":5,"migraine_risk":7,"frizz_risk":1,"updated_at":"2026-03-31T03:15:36.003581+05:30"},{"city":"Nanded","state":"Maharashtra","latitude":19.1383,"longitude":77.3091,"temp":23.1,"humidity":84,"rain":0.0,"pressure":968.3,"uv_index":8.75,"wind_gusts":24.5,"aqi":58,"pm10":24.4,"pm2_5":20.7,"mosquito_risk":3,"arthritis_risk":5,"migraine_risk":7,"frizz_risk":1,"updated_at":"2026-03-31T03:15:36.003586+05:30"},{"city":"Gulbarga","state":"Karnataka","latitude":17.3297,"longitude":76.8343,"temp":24.3,"humidity":75,"rain":0.0,"pressure":958.3,"uv_index":8.3,"wind_gusts":35.3,"aqi":107,"pm10":51.8,"pm2_5":47.3,"mosquito_risk":3,"arthritis_risk":5,"migraine_risk":7,"frizz_risk":1,"updated_at":"2026-03-31T03:15:36.003592+05:30"},{"city":"Bidar","state":"Karnataka","latitude":17.9104,"longitude":77.5199,"temp":22.9,"humidity":83,"rain":0.0,"pressure":935.2,"uv_index":7.6,"wind_gusts":32.8,"aqi":98,"pm10":43.8,"pm2_5":40.0,"mosquito_risk":3,"arthritis_risk":5,"migraine_risk":7,"frizz_risk":1,"updated_at":"2026-03-31T03:15:36.003598+05:30"},{"city":"Hospet","state":"Karnataka","latitude":15.2689,"longitude":76.3909,"temp":24.8,"humidity":83,"rain":0.0,"pressure":955.7,"uv_index":9.15,"wind_gusts":20.9,"aqi":128,"pm10":45.9,"pm2_5":42.1,"mosquito_risk":3,"arthritis_risk":5,"migraine_risk":7,"frizz_risk":1,"updated_at":"2026-03-31T03:15:36.003603+05:30"},{"city":"Tirupur","state":"Tamil Nadu","latitude":11.1085,"longitude":77.3411,"temp":26.0,"humidity":87,"rain":0.0,"pressure":973.8,"uv_index":9.5,"wind_gusts":26.6,"aqi":82,"pm10":36.1,"pm2_5":34.1,"mosquito_risk":7,"arthritis_risk":5,"migraine_risk":7,"frizz_risk":1,"updated_at":"2026-03-31T03:15:36.003609+05:30"},{"city":"Alappuzha","state":"Kerala","latitude":9.4981,"longitude":76.3388,"temp":27.9,"humidity":83,"rain":0.0,"pressure":1006.6,"uv_index":9.15,"wind_gusts":25.2,"aqi":100,"pm10":46.7,"pm2_5":43.3,"mosquito_risk":7,"arthritis_risk":5,"migraine_risk":4,"frizz_risk":1,"updated_at":"2026-03-31T03:15:36.003615+05:30"},{"city":"Munnar","state":"Kerala","latitude":10.0889,"longitude":77.0595,"temp":19.7,"humidity":90,"rain":0.0,"pressure":854.3,"uv_index":9.75,"wind_gusts":29.5,"aqi":79,"pm10":35.7,"pm2_5":33.9,"mosquito_risk":3,"arthritis_risk":10,"migraine_risk":7,"frizz_risk":1,"updated_at":"2026-03-31T03:15:36.003620+05:30"},{"city":"Silchar","state":"Assam","latitude":24.8333,"longitude":92.7789,"temp":22.5,"humidity":94,"rain":0.0,"pressure":1006.3,"uv_index":8.35,"wind_gusts":24.8,"aqi":116,"pm10":27.4,"pm2_5":22.3,"mosquito_risk":3,"arthritis_risk":5,"migraine_risk":4,"frizz_risk":1,"updated_at":"2026-03-31T03:15:36.003626+05:30"},{"city":"Dibrugarh","state":"Assam","latitude":27.4728,"longitude":94.912,"temp":21.1,"humidity":90,"rain":0.0,"pressure":997.7,"uv_index":7.95,"wind_gusts":9.0,"aqi":90,"pm10":30.5,"pm2_5":28.6,"mosquito_risk":3,"arthritis_risk":5,"migraine_risk":7,"frizz_risk":1,"updated_at":"2026-03-31T03:15:36.003632+05:30"}]