[{"city":"Delhi","state":"Delhi","latitude":28.6139,"longitude":77.209,"temp":25.5,"humidity":38,"rain":0.0,"pressure":980.9,"uv_index":7.3,"wind_gusts":32.0,"aqi":452,"pm10":597.9,"pm2_5":104.1,"mosquito_risk":4,"arthritis_risk":5,"migraine_risk":7,"frizz_risk":0,"updated_at":"2026-04-21T01:30:41.073324+05:30"},{"city":"Mumbai","state":"Maharashtra","latitude":19.076,"longitude":72.8777,"temp":28.4,"humidity":84,"rain":0.0,"pressure":1007.0,"uv_index":8.0,"wind_gusts":21.6,"aqi":78,"pm10":66.8,"pm2_5":25.5,"mosquito_risk":7,"arthritis_risk":5,"migraine_risk":4,"frizz_risk":1,"updated_at":"2026-04-21T01:30:41.073359+05:30"},{"city":"Bangalore","state":"Karnataka","latitude":12.9716,"longitude":77.5946,"temp":25.0,"humidity":63,"rain":0.0,"pressure":910.8,"uv_index":9.6,"wind_gusts":23.8,"aqi":78,"pm10":22.2,"pm2_5":20.8,"mosquito_risk":7,"arthritis_risk":5,"migraine_risk":7,"frizz_risk":1,"updated_at":"2026-04-21T01:30:41.073378+05:30"},{"city":"Hyderabad","state":"Telangana","latitude":17.385,"longitude":78.4867,"temp":27.7,"humidity":63,"rain":0.0,"pressure":951.9,"uv_index":9.3,"wind_gusts":32.8,"aqi":124,"pm10":39.8,"pm2_5":36.0,"mosquito_risk":7,"arthritis_risk":5,"migraine_risk":7,"frizz_risk":1,"updated_at":"2026-04-21T01:30:41.073387+05:30"},{"city":"Chennai","state":"Tamil Nadu","latitude":13.0827,"longitude":80.2707,"temp":28.4,"humidity":86,"rain":0.0,"pressure":1006.3,"uv_index":9.3,"wind_gusts":35.3,"aqi":40,"pm10":13.6,"pm2_5":9.1,"mosquito_risk":7,"arthritis_risk":5,"migraine_risk":4,"frizz_risk":1,"updated_at":"2026-04-21T01:30:41.073395+05:30"},{"city":"Kolkata","state":"West Bengal","latitude":22.5726,"longitude":88.3639,"temp":28.0,"humidity":91,"rain":0.0,"pressure":1001.8,"uv_index":8.95,"wind_gusts":31.7,"aqi":82,"pm10":20.3,"pm2_5":16.7,"mosquito_risk":7,"arthritis_risk":5,"migraine_risk":4,"frizz_risk":1,"updated_at":"2026-04-21T01:30:41.073403+05:30"},{"city":"Pune","state":"Maharashtra","latitude":18.5204,"longitude":73.8567,"temp":25.6,"humidity":73,"rain":0.0,"pressure":947.4,"uv_index":8.5,"wind_gusts":34.6,"aqi":145,"pm10":47.6,"pm2_5":43.5,"mosquito_risk":7,"arthritis_risk":5,"migraine_risk":7,"frizz_risk":1,"updated_at":"2026-04-21T01:30:41.073409+05:30"},{"city":"Ahmedabad","state":"Gujarat","latitude":23.0225,"longitude":72.5714,"temp":28.2,"humidity":44,"rain":0.0,"pressure":1001.2,"uv_index":8.2,"wind_gusts":24.5,"aqi":50,"pm10":16.8,"pm2_5":9.7,"mosquito_risk":4,"arthritis_risk":5,"migraine_risk":4,"frizz_risk":0,"updated_at":"2026-04-21T01:30:41.073415+05:30"},{"city":"Jaipur","state":"Rajasthan","latitude":26.9124,"longitude":75.7873,"temp":29.5,"humidity":27,"rain":0.0,"pressure":958.7,"uv_index":7.95,"wind_gusts":28.1,"aqi":141,"pm10":172.8,"pm2_5":33.5,"mosquito_risk":4,"arthritis_risk":5,"migraine_risk":7,"frizz_risk":0,"updated_at":"2026-04-21T01:30:41.073421+05:30"},{"city":"Lucknow","state":"Uttar Pradesh","latitude":26.8467,"longitude":80.9462,"temp":27.8,"humidity":49,"rain":0.0,"pressure":990.0,"uv_index":7.9,"wind_gusts":46.4,"aqi":119,"pm10":173.7,"pm2_5":44.9,"mosquito_risk":4,"arthritis_risk":5,"migraine_risk":7,"frizz_risk":1,"updated_at":"2026-04-21T01:30:41.073428+05:30"},{"city":"Kanpur","state":"Uttar Pradesh","latitude":26.4499,"longitude":80.3319,"temp":25.4,"humidity":55,"rain":0.0,"pressure":988.5,"uv_index":7.9,"wind_gusts":34.2,"aqi":193,"pm10":334.3,"pm2_5":61.0,"mosquito_risk":4,"arthritis_risk":5,"migraine_risk":7,"frizz_risk":0,"updated_at":"2026-04-21T01:30:41.073434+05:30"},{"city":"Chandigarh","state":"Chandigarh","latitude":30.7333,"longitude":76.7794,"temp":23.3,"humidity":43,"rain":0.0,"pressure":967.1,"uv_index":7.25,"wind_gusts":29.5,"aqi":60,"pm10":25.3,"pm2_5":18.2,"mosquito_risk":0,"arthritis_risk":5,"migraine_risk":7,"frizz_risk":0,"updated_at":"2026-04-21T01:30:41.073440+05:30"},{"city":"Srinagar","state":"Jammu and Kashmir","latitude":34.0837,"longitude":74.7973,"temp":9.7,"humidity":66,"rain":0.0,"pressure":840.0,"uv_index":8.45,"wind_gusts":14.4,"aqi":91,"pm10":61.5,"pm2_5":41.1,"mosquito_risk":3,"arthritis_risk":5,"migraine_risk":7,"frizz_risk":0,"updated_at":"2026-04-21T01:30:41.073448+05:30"},{"city":"Jammu","state":"Jammu and Kashmir","latitude":32.7266,"longitude":74.857,"temp":23.1,"humidity":51,"rain":0.0,"pressure":971.1,"uv_index":8.0,"wind_gusts":31.0,"aqi":64,"pm10":27.1,"pm2_5":20.8,"mosquito_risk":0,"arthritis_risk":5,"migraine_risk":7,"frizz_risk":0,"updated_at":"2026-04-21T01:30:41.073454+05:30"},{"city":"Amritsar","state":"Punjab","latitude":31.634,"longitude":74.8723,"temp":23.1,"humidity":56,"rain":0.0,"pressure":979.4,"uv_index":7.95,"wind_gusts":28.4,"aqi":72,"pm10":32.5,"pm2_5":20.0,"mosquito_risk":0,"arthritis_risk":5,"migraine_risk":7,"frizz_risk":0,"updated_at":"2026-04-21T01:30:41.073459+05:30"},{"city":"Ludhiana","state":"Punjab","latitude":30.901,"longitude":75.8573,"temp":25.0,"humidity":41,"rain":0.0,"pressure":977.3,"uv_index":7.55,"wind_gusts":29.5,"aqi":65,"pm10":33.9,"pm2_5":24.9,"mosquito_risk":4,"arthritis_risk":5,"migraine_risk":7,"frizz_risk":0,"updated_at":"2026-04-21T01:30:41.073465+05:30"},{"city":"Jalandhar","state":"Punjab","latitude":31.326,"longitude":75.5762,"temp":23.7,"humidity":49,"rain":0.0,"pressure":978.4,"uv_index":7.7,"wind_gusts":30.2,"aqi":72,"pm10":45.1,"pm2_5":30.0,"mosquito_risk":0,"arthritis_risk":5,"migraine_risk":7,"frizz_risk":0,"updated_at":"2026-04-21T01:30:41.073470+05:30"},{"city":"Dehradun","state":"Uttarakhand","latitude":30.6284,"longitude":78.0322,"temp":16.4,"humidity":46,"rain":0.0,"pressure":829.5,"uv_index":7.7,"wind_gusts":40.3,"aqi":43,"pm10":17.3,"pm2_5":12.0,"mosquito_risk":0,"arthritis_risk":5,"migraine_risk":7,"frizz_risk":0,"updated_at":"2026-04-21T01:30:41.073476+05:30"},{"city":"Shimla","state":"Himachal Pradesh","latitude":31.1048,"longitude":77.1734,"temp":16.1,"humidity":40,"rain":0.0,"pressure":784.8,"uv_index":7.75,"wind_gusts":45.7,"aqi":69,"pm10":40.0,"pm2_5":17.9,"mosquito_risk":0,"arthritis_risk":5,"migraine_risk":7,"frizz_risk":0,"updated_at":"2026-04-21T01:30:41.073481+05:30"},{"city":"Manali","state":"Himachal Pradesh","latitude":32.2396,"longitude":77.1887,"temp":16.1,"humidity":38,"rain":0.0,"pressure":820.1,"uv_index":9.2,"wind_gusts":32.4,"aqi":54,"pm10":24.9,"pm2_5":11.6,"mosquito_risk":0,"arthritis_risk":5,"migraine_risk":7,"frizz_risk":0,"updated_at":"2026-04-21T01:30:41.073487+05:30"},{"city":"Gurgaon","state":"Haryana","latitude":28.4595,"longitude":77.0266,"temp":22.5,"humidity":45,"rain":0.0,"pressure":979.1,"uv_index":7.4,"wind_gusts":33.1,"aqi":1200,"pm10":1203.3,"pm2_5":156.5,"mosquito_risk":0,"arthritis_risk":5,"migraine_risk":7,"frizz_risk":0,"updated_at":"2026-04-21T01:30:41.073492+05:30"},{"city":"Noida","state":"Uttar Pradesh","latitude":28.5355,"longitude":77.391,"temp":25.4,"humidity":40,"rain":0.0,"pressure":982.2,"uv_index":7.35,"wind_gusts":31.7,"aqi":1200,"pm10":1203.3,"pm2_5":156.5,"mosquito_risk":4,"arthritis_risk":5,"migraine_risk":7,"frizz_risk":0,"updated_at":"2026-04-21T01:30:41.073498+05:30"},{"city":"Ghaziabad","state":"Uttar Pradesh","latitude":28.6692,"longitude":77.4538,"temp":24.7,"humidity":45,"rain":0.0,"pressure":980.4,"uv_index":7.3,"wind_gusts":32.4,"aqi":252,"pm10":562.5,"pm2_5":99.0,"mosquito_risk":0,"arthritis_risk":5,"migraine_risk":7,"frizz_risk":0,"updated_at":"2026-04-21T01:30:41.073505+05:30"},{"city":"Faridabad","state":"Haryana","latitude":28.4089,"longitude":77.3178,"temp":25.4,"humidity":34,"rain":0.0,"pressure":981.3,"uv_index":7.35,"wind_gusts":32.0,"aqi":1200,"pm10":1203.3,"pm2_5":156.5,"mosquito_risk":4,"arthritis_risk":5,"migraine_risk":7,"frizz_risk":0,"updated_at":"2026-04-21T01:30:41.073511+05:30"},{"city":"Meerut","state":"Uttar Pradesh","latitude":28.9845,"longitude":77.7064,"temp":23.2,"humidity":46,"rain":0.0,"pressure":979.1,"uv_index":7.2,"wind_gusts":36.7,"aqi":252,"pm10":562.5,"pm2_5":99.0,"mosquito_risk":0,"arthritis_risk":5,"migraine_risk":7,"frizz_risk":0,"updated_at":"2026-04-21T01:30:41.073517+05:30"},{"city":"Agra","state":"Uttar Pradesh","latitude":27.1767,"longitude":78.0081,"temp":26.6,"humidity":46,"rain":0.0,"pressure":985.1,"uv_index":7.7,"wind_gusts":28.8,"aqi":848,"pm10":1035.6,"pm2_5":143.4,"mosquito_risk":4,"arthritis_risk":5,"migraine_risk":7,"frizz_risk":0,"updated_at":"2026-04-21T01:30:41.073523+05:30"},{"city":"Varanasi","state":"Uttar Pradesh","latitude":25.3176,"longitude":82.9739,"temp":27.8,"humidity":41,"rain":0.0,"pressure":993.5,"uv_index":8.55,"wind_gusts":39.2,"aqi":88,"pm10":80.6,"pm2_5":34.3,"mosquito_risk":4,"arthritis_risk":5,"migraine_risk":7,"frizz_risk":0,"updated_at":"2026-04-21T01:30:41.073531+05:30"},{"city":"Prayagraj","state":"Uttar Pradesh","latitude":25.4358,"longitude":81.8463,"temp":29.5,"humidity":43,"rain":0.0,"pressure":992.2,"uv_index":8.4,"wind_gusts":35.3,"aqi":81,"pm10":124.3,"pm2_5":34.7,"mosquito_risk":4,"arthritis_risk":5,"migraine_risk":7,"frizz_risk":0,"updated_at":"2026-04-21T01:30:41.073537+05:30"},{"city":"Gorakhpur","state":"Uttar Pradesh","latitude":26.7606,"longitude":83.3732,"temp":28.6,"humidity":39,"rain":0.0,"pressure":992.3,"uv_index":8.35,"wind_gusts":44.6,"aqi":122,"pm10":45.4,"pm2_5":21.7,"mosquito_risk":4,"arthritis_risk":5,"migraine_risk":7,"frizz_risk":0,"updated_at":"2026-04-21T01:30:41.073543+05:30"},{"city":"Bareilly","state":"Uttar Pradesh","latitude":28.367,"longitude":79.4304,"temp":23.8,"humidity":54,"rain":0.0,"pressure":983.5,"uv_index":7.6,"wind_gusts":41.8,"aqi":76,"pm10":152.7,"pm2_5":39.5,"mosquito_risk":0,"arthritis_risk":5,"migraine_risk":7,"frizz_risk":0,"updated_at":"2026-04-21T01:30:41.073549+05:30"},{"city":"Aligarh","state":"Uttar Pradesh","latitude":27.8974,"longitude":78.088,"temp":25.1,"humidity":44,"rain":0.0,"pressure":983.1,"uv_index":7.5,"wind_gusts":33.8,"aqi":662,"pm10":972.3,"pm2_5":131.3,"mosquito_risk":4,"arthritis_risk":5,"migraine_risk":7,"frizz_risk":0,"updated_at":"2026-04-21T01:30:41.073555+05:30"},{"city":"Moradabad","state":"Uttar Pradesh","latitude":28.8386,"longitude":78.7733,"temp":23.4,"humidity":49,"rain":0.0,"pressure":980.8,"uv_index":7.4,"wind_gusts":40.0,"aqi":85,"pm10":267.3,"pm2_5":61.7,"mosquito_risk":0,"arthritis_risk":5,"migraine_risk":7,"frizz_risk":0,"updated_at":"2026-04-21T01:30:41.073562+05:30"},{"city":"Saharanpur","state":"Uttar Pradesh","latitude":29.9637,"longitude":77.546,"temp":23.1,"humidity":48,"rain":0.0,"pressure":973.3,"uv_index":7.0,"wind_gusts":31.7,"aqi":77,"pm10":55.1,"pm2_5":31.3,"mosquito_risk":0,"arthritis_risk":5,"migraine_risk":7,"frizz_risk":0,"updated_at":"2026-04-21T01:30:41.073570+05:30"},{"city":"Jhansi","state":"Uttar Pradesh","latitude":25.4484,"longitude":78.5685,"temp":28.7,"humidity":37,"rain":0.0,"pressure":975.1,"uv_index":8.25,"wind_gusts":29.2,"aqi":64,"pm10":29.5,"pm2_5":11.3,"mosquito_risk":4,"arthritis_risk":5,"migraine_risk":7,"frizz_risk":0,"updated_at":"2026-04-21T01:30:45.184417+05:30"},{"city":"Surat","state":"Gujarat","latitude":21.1702,"longitude":72.8311,"temp":27.3,"humidity":84,"rain":0.0,"pressure":1005.4,"uv_index":7.85,"wind_gusts":28.1,"aqi":89,"pm10":41.6,"pm2_5":27.6,"mosquito_risk":7,"arthritis_risk":5,"migraine_risk":4,"frizz_risk":1,"updated_at":"2026-04-21T01:30:45.184448+05:30"},{"city":"Vadodara","state":"Gujarat","latitude":22.3072,"longitude":73.1812,"temp":28.3,"humidity":65,"rain":0.0,"pressure":1002.9,"uv_index":8.15,"wind_gusts":24.1,"aqi":81,"pm10":37.8,"pm2_5":31.9,"mosquito_risk":7,"arthritis_risk":5,"migraine_risk":4,"frizz_risk":1,"updated_at":"2026-04-21T01:30:45.184460+05:30"},{"city":"Rajkot","state":"Gujarat","latitude":22.3039,"longitude":70.8022,"temp":24.8,"humidity":62,"rain":0.0,"pressure":994.0,"uv_index":7.85,"wind_gusts":29.5,"aqi":52,"pm10":54.8,"pm2_5":18.4,"mosquito_risk":3,"arthritis_risk":5,"migraine_risk":7,"frizz_risk":1,"updated_at":"2026-04-21T01:30:45.184469+05:30"},{"city":"Thane","state":"Maharashtra","latitude":19.2183,"longitude":72.9781,"temp":26.6,"humidity":91,"rain":0.0,"pressure":1006.5,"uv_index":8.0,"wind_gusts":34.2,"aqi":78,"pm10":66.8,"pm2_5":25.5,"mosquito_risk":7,"arthritis_risk":5,"migraine_risk":4,"frizz_risk":1,"updated_at":"2026-04-21T01:30:45.184477+05:30"},{"city":"Nagpur","state":"Maharashtra","latitude":21.1458,"longitude":79.0882,"temp":28.1,"humidity":62,"rain":0.0,"pressure":971.1,"uv_index":8.45,"wind_gusts":19.8,"aqi":89,"pm10":40.0,"pm2_5":38.2,"mosquito_risk":7,"arthritis_risk":5,"migraine_risk":7,"frizz_risk":1,"updated_at":"2026-04-21T01:30:45.184485+05:30"},{"city":"Nashik","state":"Maharashtra","latitude":19.9975,"longitude":73.7898,"temp":25.9,"humidity":61,"rain":0.0,"pressure":944.7,"uv_index":8.3,"wind_gusts":37.8,"aqi":73,"pm10":26.3,"pm2_5":21.4,"mosquito_risk":7,"arthritis_risk":5,"migraine_risk":7,"frizz_risk":1,"updated_at":"2026-04-21T01:30:45.184494+05:30"},{"city":"Aurangabad","state":"Maharashtra","latitude":19.8762,"longitude":75.3433,"temp":29.1,"humidity":46,"rain":0.0,"pressure":943.4,"uv_index":9.0,"wind_gusts":27.4,"aqi":88,"pm10":36.0,"pm2_5":31.1,"mosquito_risk":4,"arthritis_risk":5,"migraine_risk":7,"frizz_risk":1,"updated_at":"2026-04-21T01:30:45.184502+05:30"},{"city":"Solapur","state":"Maharashtra","latitude":17.6599,"longitude":75.9064,"temp":27.4,"humidity":64,"rain":0.0,"pressure":955.4,"uv_index":9.0,"wind_gusts":35.3,"aqi":112,"pm10":65.0,"pm2_5":54.2,"mosquito_risk":7,"arthritis_risk":5,"migraine_risk":7,"frizz_risk":1,"updated_at":"2026-04-21T01:30:45.184510+05:30"},{"city":"Kolhapur","state":"Maharashtra","latitude":16.705,"longitude":74.2433,"temp":23.4,"humidity":85,"rain":0.0,"pressure":946.4,"uv_index":9.05,"wind_gusts":29.2,"aqi":119,"pm10":44.6,"pm2_5":40.9,"mosquito_risk":3,"arthritis_risk":5,"migraine_risk":7,"frizz_risk":1,"updated_at":"2026-04-21T01:30:45.184518+05:30"},{"city":"Goa","state":"Goa","latitude":15.2993,"longitude":74.124,"temp":28.3,"humidity":85,"rain":0.0,"pressure":996.5,"uv_index":9.05,"wind_gusts":27.4,"aqi":85,"pm10":42.1,"pm2_5":28.6,"mosquito_risk":7,"arthritis_risk":5,"migraine_risk":7,"frizz_risk":1,"updated_at":"2026-04-21T01:30:45.184525+05:30"},{"city":"Jodhpur","state":"Rajasthan","latitude":26.2389,"longitude":73.0243,"temp":29.8,"humidity":35,"rain":0.0,"pressure":982.0,"uv_index":7.7,"wind_gusts":32.4,"aqi":106,"pm10":172.3,"pm2_5":26.4,"mosquito_risk":4,"arthritis_risk":5,"migraine_risk":7,"frizz_risk":0,"updated_at":"2026-04-21T01:30:45.184533+05:30"},{"city":"Udaipur","state":"Rajasthan","latitude":24.5854,"longitude":73.7125,"temp":25.8,"humidity":40,"rain":0.0,"pressure":946.5,"uv_index":8.7,"wind_gusts":38.2,"aqi":47,"pm10":31.3,"pm2_5":10.9,"mosquito_risk":4,"arthritis_risk":5,"migraine_risk":7,"frizz_risk":0,"updated_at":"2026-04-21T01:30:45.184541+05:30"},{"city":"Kota","state":"Rajasthan","latitude":25.2138,"longitude":75.8648,"temp":27.7,"humidity":35,"rain":0.0,"pressure":976.9,"uv_index":8.2,"wind_gusts":28.4,"aqi":45,"pm10":11.4,"pm2_5":9.1,"mosquito_risk":4,"arthritis_risk":5,"migraine_risk":7,"frizz_risk":0,"updated_at":"2026-04-21T01:30:45.184549+05:30"},{"city":"Bikaner","state":"Rajasthan","latitude":28.0229,"longitude":73.3119,"temp":30.5,"humidity":34,"rain":0.0,"pressure":980.4,"uv_index":7.6,"wind_gusts":19.8,"aqi":56,"pm10":40.3,"pm2_5":16.1,"mosquito_risk":0,"arthritis_risk":5,"migraine_risk":7,"frizz_risk":0,"updated_at":"2026-04-21T01:30:45.184557+05:30"},{"city":"Ajmer","state":"Rajasthan","latitude":26.4499,"longitude":74.6399,"temp":26.8,"humidity":37,"rain":0.0,"pressure":953.8,"uv_index":8.15,"wind_gusts":34.9,"aqi":66,"pm10":58.2,"pm2_5":17.3,"mosquito_risk":4,"arthritis_risk":5,"migraine_risk":7,"frizz_risk":0,"updated_at":"2026-04-21T01:30:45.184565+05:30"},{"city":"Gwalior","state":"Madhya Pradesh","latitude":26.2183,"longitude":78.1828,"temp":28.4,"humidity":39,"rain":0.0,"pressure":980.3,"uv_index":7.95,"wind_gusts":30.6,"aqi":111,"pm10":284.1,"pm2_5":43.4,"mosquito_risk":4,"arthritis_risk":5,"migraine_risk":7,"frizz_risk":0,"updated_at":"2026-04-21T01:30:45.184573+05:30"},{"city":"Indore","state":"Madhya Pradesh","latitude":22.7196,"longitude":75.8577,"temp":25.8,"humidity":50,"rain":0.0,"pressure":947.1,"uv_index":8.6,"wind_gusts":35.3,"aqi":58,"pm10":21.2,"pm2_5":17.2,"mosquito_risk":4,"arthritis_risk":5,"migraine_risk":7,"frizz_risk":0,"updated_at":"2026-04-21T01:30:45.184617+05:30"},{"city":"Bhopal","state":"Madhya Pradesh","latitude":23.2599,"longitude":77.4126,"temp":27.4,"humidity":37,"rain":0.0,"pressure":952.4,"uv_index":8.6,"wind_gusts":31.0,"aqi":59,"pm10":19.6,"pm2_5":17.6,"mosquito_risk":4,"arthritis_risk":5,"migraine_risk":7,"frizz_risk":0,"updated_at":"2026-04-21T01:30:45.184628+05:30"},{"city":"Jabalpur","state":"Madhya Pradesh","latitude":23.1815,"longitude":79.9864,"temp":28.6,"humidity":49,"rain":0.0,"pressure":959.0,"uv_index":8.8,"wind_gusts":27.7,"aqi":60,"pm10":20.5,"pm2_5":18.5,"mosquito_risk":4,"arthritis_risk":5,"migraine_risk":7,"frizz_risk":1,"updated_at":"2026-04-21T01:30:45.184636+05:30"},{"city":"Ujjain","state":"Madhya Pradesh","latitude":23.1765,"longitude":75.7885,"temp":26.5,"humidity":48,"rain":0.0,"pressure":952.8,"uv_index":8.55,"wind_gusts":36.7,"aqi":70,"pm10":21.4,"pm2_5":16.0,"mosquito_risk":4,"arthritis_risk":5,"migraine_risk":7,"frizz_risk":0,"updated_at":"2026-04-21T01:30:45.184645+05:30"},{"city":"Visakhapatnam","state":"Andhra Pradesh","latitude":17.6868,"longitude":83.2185,"temp":27.4,"humidity":87,"rain":0.0,"pressure":1002.2,"uv_index":9.2,"wind_gusts":41.0,"aqi":55,"pm10":19.8,"pm2_5":15.4,"mosquito_risk":7,"arthritis_risk":5,"migraine_risk":4,"frizz_risk":1,"updated_at":"2026-04-21T01:30:45.184651+05:30"},{"city":"Vijayawada","state":"Andhra Pradesh","latitude":16.5062,"longitude":80.648,"temp":27.6,"humidity":89,"rain":0.0,"pressure":1001.6,"uv_index":9.25,"wind_gusts":28.1,"aqi":58,"pm10":14.9,"pm2_5":11.7,"mosquito_risk":7,"arthritis_risk":5,"migraine_risk":4,"frizz_risk":1,"updated_at":"2026-04-21T01:30:45.184657+05:30"},{"city":"Guntur","state":"Andhra Pradesh","latitude":16.3067,"longitude":80.4365,"temp":27.7,"humidity":88,"rain":0.0,"pressure":1002.7,"uv_index":9.25,"wind_gusts":31.0,"aqi":61,"pm10":14.8,"pm2_5":11.8,"mosquito_risk":7,"arthritis_risk":5,"migraine_risk":4,"frizz_risk":1,"updated_at":"2026-04-21T01:30:45.184664+05:30"},{"city":"Nellore","state":"Andhra Pradesh","latitude":14.4426,"longitude":79.9865,"temp":27.5,"humidity":87,"rain":0.0,"pressure":1004.4,"uv_index":9.3,"wind_gusts":36.0,"aqi":50,"pm10":11.3,"pm2_5":8.6,"mosquito_risk":7,"arthritis_risk":5,"migraine_risk":4,"frizz_risk":1,"updated_at":"2026-04-21T01:30:45.184670+05:30"},{"city":"Kurnool","state":"Andhra Pradesh","latitude":15.8281,"longitude":78.0373,"temp":31.0,"humidity":56,"rain":0.0,"pressure":975.5,"uv_index":9.25,"wind_gusts":42.8,"aqi":100,"pm10":27.1,"pm2_5":24.9,"mosquito_risk":0,"arthritis_risk":5,"migraine_risk":7,"frizz_risk":1,"updated_at":"2026-04-21T01:30:45.184677+05:30"},{"city":"Kakinada","state":"Andhra Pradesh","latitude":16.9891,"longitude":82.2475,"temp":27.1,"humidity":89,"rain":0.0,"pressure":1006.4,"uv_index":9.2,"wind_gusts":28.1,"aqi":46,"pm10":18.1,"pm2_5":12.0,"mosquito_risk":7,"arthritis_risk":5,"migraine_risk":4,"frizz_risk":1,"updated_at":"2026-04-21T01:30:45.184683+05:30"},{"city":"Tirupati","state":"Andhra Pradesh","latitude":13.6288,"longitude":79.4192,"temp":25.6,"humidity":82,"rain":0.0,"pressure":991.3,"uv_index":9.35,"wind_gusts":31.7,"aqi":63,"pm10":14.8,"pm2_5":12.8,"mosquito_risk":7,"arthritis_risk":5,"migraine_risk":7,"frizz_risk":1,"updated_at":"2026-04-21T01:30:45.184689+05:30"},{"city":"Warangal","state":"Telangana","latitude":17.9689,"longitude":79.5941,"temp":30.0,"humidity":65,"rain":0.0,"pressure":977.0,"uv_index":8.85,"wind_gusts":26.6,"aqi":109,"pm10":30.7,"pm2_5":29.3,"mosquito_risk":7,"arthritis_risk":5,"migraine_risk":7,"frizz_risk":1,"updated_at":"2026-04-21T01:30:45.184696+05:30"},{"city":"Nizamabad","state":"Telangana","latitude":18.6725,"longitude":78.0941,"temp":28.2,"humidity":56,"rain":0.0,"pressure":963.0,"uv_index":9.1,"wind_gusts":31.0,"aqi":111,"pm10":49.9,"pm2_5":43.7,"mosquito_risk":4,"arthritis_risk":5,"migraine_risk":7,"frizz_risk":1,"updated_at":"2026-04-21T01:30:45.184703+05:30"},{"city":"Mysore","state":"Karnataka","latitude":12.2958,"longitude":76.6396,"temp":23.9,"humidity":86,"rain":0.0,"pressure":927.5,"uv_index":9.5,"wind_gusts":36.0,"aqi":87,"pm10":36.0,"pm2_5":33.5,"mosquito_risk":3,"arthritis_risk":5,"migraine_risk":7,"frizz_risk":1,"updated_at":"2026-04-21T01:30:45.184708+05:30"},{"city":"Mangalore","state":"Karnataka","latitude":12.9141,"longitude":74.856,"temp":29.0,"humidity":84,"rain":0.0,"pressure":1005.4,"uv_index":9.15,"wind_gusts":24.5,"aqi":83,"pm10":45.2,"pm2_5":33.3,"mosquito_risk":7,"arthritis_risk":5,"migraine_risk":4,"frizz_risk":1,"updated_at":"2026-04-21T01:30:45.184714+05:30"},{"city":"Hubli-Dharwad","state":"Karnataka","latitude":15.3647,"longitude":75.124,"temp":24.5,"humidity":92,"rain":0.0,"pressure":939.5,"uv_index":9.25,"wind_gusts":36.7,"aqi":106,"pm10":33.4,"pm2_5":28.8,"mosquito_risk":3,"arthritis_risk":5,"migraine_risk":7,"frizz_risk":1,"updated_at":"2026-04-21T01:30:45.184720+05:30"},{"city":"Belgaum","state":"Karnataka","latitude":15.8497,"longitude":74.4977,"temp":23.1,"humidity":91,"rain":0.0,"pressure":924.2,"uv_index":9.3,"wind_gusts":33.1,"aqi":98,"pm10":35.2,"pm2_5":27.5,"mosquito_risk":3,"arthritis_risk":5,"migraine_risk":7,"frizz_risk":1,"updated_at":"2026-04-21T01:30:48.567464+05:30"},{"city":"Coimbatore","state":"Tamil Nadu","latitude":11.0168,"longitude":76.9558,"temp":25.4,"humidity":84,"rain":0.0,"pressure":960.9,"uv_index":9.25,"wind_gusts":48.2,"aqi":96,"pm10":44.5,"pm2_5":40.5,"mosquito_risk":7,"arthritis_risk":5,"migraine_risk":7,"frizz_risk":1,"updated_at":"2026-04-21T01:30:48.567498+05:30"},{"city":"Madurai","state":"Tamil Nadu","latitude":9.9252,"longitude":78.1198,"temp":27.8,"humidity":82,"rain":0.0,"pressure":992.2,"uv_index":8.85,"wind_gusts":42.5,"aqi":64,"pm10":19.8,"pm2_5":17.9,"mosquito_risk":7,"arthritis_risk":5,"migraine_risk":7,"frizz_risk":1,"updated_at":"2026-04-21T01:30:48.567515+05:30"},{"city":"Trichy","state":"Tamil Nadu","latitude":10.7905,"longitude":78.7047,"temp":27.4,"humidity":85,"rain":0.0,"pressure":998.9,"uv_index":8.95,"wind_gusts":25.2,"aqi":61,"pm10":15.9,"pm2_5":14.9,"mosquito_risk":7,"arthritis_risk":5,"migraine_risk":7,"frizz_risk":1,"updated_at":"2026-04-21T01:30:48.567525+05:30"},{"city":"Salem","state":"Tamil Nadu","latitude":11.6643,"longitude":78.146,"temp":28.0,"humidity":73,"rain":0.0,"pressure":976.6,"uv_index":9.4,"wind_gusts":16.9,"aqi":62,"pm10":21.4,"pm2_5":20.3,"mosquito_risk":7,"arthritis_risk":5,"migraine_risk":7,"frizz_risk":1,"updated_at":"2026-04-21T01:30:48.567532+05:30"},{"city":"Tirunelveli","state":"Tamil Nadu","latitude":8.7139,"longitude":77.7567,"temp":27.0,"humidity":79,"rain":0.0,"pressure":1002.3,"uv_index":8.7,"wind_gusts":36.4,"aqi":60,"pm10":18.7,"pm2_5":16.5,"mosquito_risk":7,"arthritis_risk":5,"migraine_risk":4,"frizz_risk":1,"updated_at":"2026-04-21T01:30:48.567539+05:30"},{"city":"Vellore","state":"Tamil Nadu","latitude":12.9165,"longitude":79.1325,"temp":25.8,"humidity":73,"rain":0.0,"pressure":983.9,"uv_index":9.4,"wind_gusts":28.4,"aqi":75,"pm10":30.7,"pm2_5":29.3,"mosquito_risk":7,"arthritis_risk":5,"migraine_risk":7,"frizz_risk":1,"updated_at":"2026-04-21T01:30:48.567545+05:30"},{"city":"Erode","state":"Tamil Nadu","latitude":11.341,"longitude":77.7172,"temp":29.5,"humidity":73,"rain":0.0,"pressure":988.2,"uv_index":9.2,"wind_gusts":27.0,"aqi":63,"pm10":15.7,"pm2_5":14.9,"mosquito_risk":7,"arthritis_risk":5,"migraine_risk":7,"frizz_risk":1,"updated_at":"2026-04-21T01:30:48.567551+05:30"},{"city":"Kochi","state":"Kerala","latitude":9.9312,"longitude":76.2673,"temp":27.8,"humidity":85,"rain":0.0,"pressure":1007.9,"uv_index":8.65,"wind_gusts":30.6,"aqi":63,"pm10":28.6,"pm2_5":24.6,"mosquito_risk":7,"arthritis_risk":5,"migraine_risk":4,"frizz_risk":1,"updated_at":"2026-04-21T01:30:48.567558+05:30"},{"city":"Thiruvananthapuram","state":"Kerala","latitude":8.5241,"longitude":76.9366,"temp":28.3,"humidity":84,"rain":0.0,"pressure":1006.9,"uv_index":8.4,"wind_gusts":31.0,"aqi":58,"pm10":21.2,"pm2_5":14.9,"mosquito_risk":7,"arthritis_risk":5,"migraine_risk":4,"frizz_risk":1,"updated_at":"2026-04-21T01:30:48.567563+05:30"},{"city":"Kozhikode","state":"Kerala","latitude":11.2588,"longitude":75.7804,"temp":27.9,"humidity":85,"rain":0.0,"pressure":1007.3,"uv_index":9.05,"wind_gusts":28.8,"aqi":68,"pm10":36.7,"pm2_5":23.4,"mosquito_risk":7,"arthritis_risk":5,"migraine_risk":4,"frizz_risk":1,"updated_at":"2026-04-21T01:30:48.567570+05:30"},{"city":"Thrissur","state":"Kerala","latitude":10.5276,"longitude":76.2144,"temp":27.0,"humidity":89,"rain":0.0,"pressure":1006.3,"uv_index":9.05,"wind_gusts":36.4,"aqi":68,"pm10":33.5,"pm2_5":29.7,"mosquito_risk":7,"arthritis_risk":5,"migraine_risk":4,"frizz_risk":1,"updated_at":"2026-04-21T01:30:48.567576+05:30"},{"city":"Kannur","state":"Kerala","latitude":11.8745,"longitude":75.3704,"temp":28.7,"humidity":80,"rain":0.0,"pressure":1006.1,"uv_index":9.1,"wind_gusts":31.3,"aqi":77,"pm10":38.3,"pm2_5":32.7,"mosquito_risk":7,"arthritis_risk":5,"migraine_risk":4,"frizz_risk":1,"updated_at":"2026-04-21T01:30:48.567608+05:30"},{"city":"Patna","state":"Bihar","latitude":25.5941,"longitude":85.1376,"temp":29.3,"humidity":76,"rain":0.0,"pressure":995.4,"uv_index":8.7,"wind_gusts":32.8,"aqi":124,"pm10":92.2,"pm2_5":40.7,"mosquito_risk":7,"arthritis_risk":5,"migraine_risk":7,"frizz_risk":1,"updated_at":"2026-04-21T01:30:48.567615+05:30"},{"city":"Gaya","state":"Bihar","latitude":24.7914,"longitude":85.0002,"temp":29.3,"humidity":47,"rain":0.0,"pressure":989.5,"uv_index":8.75,"wind_gusts":32.4,"aqi":93,"pm10":58.1,"pm2_5":35.5,"mosquito_risk":4,"arthritis_risk":5,"migraine_risk":7,"frizz_risk":1,"updated_at":"2026-04-21T01:30:48.567621+05:30"},{"city":"Muzaffarpur","state":"Bihar","latitude":26.1209,"longitude":85.3647,"temp":27.9,"humidity":80,"rain":0.0,"pressure":995.2,"uv_index":8.65,"wind_gusts":29.5,"aqi":126,"pm10":100.1,"pm2_5":43.3,"mosquito_risk":7,"arthritis_risk":5,"migraine_risk":7,"frizz_risk":1,"updated_at":"2026-04-21T01:30:48.567627+05:30"},{"city":"Bhagalpur","state":"Bihar","latitude":25.2425,"longitude":87.0117,"temp":28.7,"humidity":86,"rain":0.0,"pressure":995.7,"uv_index":8.7,"wind_gusts":26.6,"aqi":151,"pm10":78.2,"pm2_5":59.6,"mosquito_risk":7,"arthritis_risk":5,"migraine_risk":7,"frizz_risk":1,"updated_at":"2026-04-21T01:30:48.567632+05:30"},{"city":"Ranchi","state":"Jharkhand","latitude":23.3441,"longitude":85.3096,"temp":27.3,"humidity":57,"rain":0.0,"pressure":935.6,"uv_index":9.25,"wind_gusts":38.5,"aqi":79,"pm10":42.1,"pm2_5":21.9,"mosquito_risk":4,"arthritis_risk":5,"migraine_risk":7,"frizz_risk":1,"updated_at":"2026-04-21T01:30:48.567638+05:30"},{"city":"Jamshedpur","state":"Jharkhand","latitude":22.8046,"longitude":86.2029,"temp":29.0,"humidity":71,"rain":0.0,"pressure":987.5,"uv_index":9.05,"wind_gusts":34.6,"aqi":121,"pm10":43.8,"pm2_5":35.2,"mosquito_risk":7,"arthritis_risk":5,"migraine_risk":7,"frizz_risk":1,"updated_at":"2026-04-21T01:30:48.567643+05:30"},{"city":"Dhanbad","state":"Jharkhand","latitude":23.7957,"longitude":86.4304,"temp":30.3,"humidity":64,"rain":0.0,"pressure":975.8,"uv_index":8.85,"wind_gusts":33.5,"aqi":145,"pm10":92.7,"pm2_5":61.9,"mosquito_risk":3,"arthritis_risk":5,"migraine_risk":7,"frizz_risk":1,"updated_at":"2026-04-21T01:30:48.567649+05:30"},{"city":"Bokaro","state":"Jharkhand","latitude":23.6693,"longitude":86.1511,"temp":30.2,"humidity":51,"rain":0.0,"pressure":980.0,"uv_index":8.9,"wind_gusts":36.4,"aqi":123,"pm10":71.0,"pm2_5":51.0,"mosquito_risk":0,"arthritis_risk":5,"migraine_risk":7,"frizz_risk":1,"updated_at":"2026-04-21T01:30:48.567655+05:30"},{"city":"Bhubaneswar","state":"Odisha","latitude":20.2961,"longitude":85.8245,"temp":26.9,"humidity":94,"rain":0.0,"pressure":999.6,"uv_index":9.15,"wind_gusts":33.1,"aqi":68,"pm10":14.3,"pm2_5":11.6,"mosquito_risk":7,"arthritis_risk":5,"migraine_risk":7,"frizz_risk":1,"updated_at":"2026-04-21T01:30:48.567660+05:30"},{"city":"Cuttack","state":"Odisha","latitude":20.4625,"longitude":85.8828,"temp":27.1,"humidity":93,"rain":0.0,"pressure":1001.3,"uv_index":9.2,"wind_gusts":33.8,"aqi":68,"pm10":14.3,"pm2_5":11.6,"mosquito_risk":7,"arthritis_risk":5,"migraine_risk":4,"frizz_risk":1,"updated_at":"2026-04-21T01:30:48.567666+05:30"},{"city":"Rourkela","state":"Odisha","latitude":22.2604,"longitude":84.8536,"temp":28.0,"humidity":73,"rain":0.0,"pressure":982.1,"uv_index":8.95,"wind_gusts":34.6,"aqi":124,"pm10":58.9,"pm2_5":47.3,"mosquito_risk":7,"arthritis_risk":5,"migraine_risk":7,"frizz_risk":1,"updated_at":"2026-04-21T01:30:48.567671+05:30"},{"city":"Raipur","state":"Chhattisgarh","latitude":21.2514,"longitude":81.6296,"temp":30.5,"humidity":43,"rain":0.0,"pressure":972.3,"uv_index":9.0,"wind_gusts":35.3,"aqi":95,"pm10":38.8,"pm2_5":36.6,"mosquito_risk":0,"arthritis_risk":5,"migraine_risk":7,"frizz_risk":1,"updated_at":"2026-04-21T01:30:48.567678+05:30"},{"city":"Bhilai","state":"Chhattisgarh","latitude":21.1938,"longitude":81.3509,"temp":28.4,"humidity":54,"rain":0.0,"pressure":972.7,"uv_index":9.0,"wind_gusts":31.3,"aqi":90,"pm10":34.7,"pm2_5":32.1,"mosquito_risk":4,"arthritis_risk":5,"migraine_risk":7,"frizz_risk":1,"updated_at":"2026-04-21T01:30:48.567685+05:30"},{"city":"Guwahati","state":"Assam","latitude":26.1158,"longitude":91.7086,"temp":24.5,"humidity":90,"rain":0.0,"pressure":998.0,"uv_index":8.45,"wind_gusts":41.0,"aqi":64,"pm10":20.3,"pm2_5":17.6,"mosquito_risk":3,"arthritis_risk":5,"migraine_risk":7,"frizz_risk":1,"updated_at":"2026-04-21T01:30:48.567691+05:30"},{"city":"Agartala","state":"Tripura","latitude":23.8315,"longitude":91.2868,"temp":27.4,"humidity":89,"rain":0.0,"pressure":1003.3,"uv_index":8.8,"wind_gusts":35.6,"aqi":86,"pm10":22.4,"pm2_5":18.5,"mosquito_risk":7,"arthritis_risk":5,"migraine_risk":4,"frizz_risk":1,"updated_at":"2026-04-21T01:30:48.567697+05:30"},{"city":"Shillong","state":"Meghalaya","latitude":25.5788,"longitude":91.8933,"temp":17.0,"humidity":94,"rain":0.0,"pressure":853.9,"uv_index":9.05,"wind_gusts":78.1,"aqi":57,"pm10":8.6,"pm2_5":7.6,"mosquito_risk":3,"arthritis_risk":10,"migraine_risk":7,"frizz_risk":0,"updated_at":"2026-04-21T01:30:48.567704+05:30"},{"city":"Imphal","state":"Manipur","latitude":24.817,"longitude":93.9368,"temp":19.3,"humidity":91,"rain":0.0,"pressure":921.5,"uv_index":9.2,"wind_gusts":82.8,"aqi":104,"pm10":51.1,"pm2_5":44.8,"mosquito_risk":3,"arthritis_risk":10,"migraine_risk":7,"frizz_risk":1,"updated_at":"2026-04-21T01:30:48.567710+05:30"},{"city":"Aizawl","state":"Mizoram","latitude":23.7271,"longitude":92.7176,"temp":21.3,"humidity":82,"rain":0.0,"pressure":891.5,"uv_index":9.05,"wind_gusts":65.9,"aqi":107,"pm10":31.3,"pm2_5":25.5,"mosquito_risk":3,"arthritis_risk":5,"migraine_risk":7,"frizz_risk":1,"updated_at":"2026-04-21T01:30:48.567716+05:30"},{"city":"Kohima","state":"Nagaland","latitude":25.6701,"longitude":94.1077,"temp":17.9,"humidity":87,"rain":0.0,"pressure":852.9,"uv_index":9.15,"wind_gusts":112.0,"aqi":74,"pm10":27.2,"pm2_5":21.6,"mosquito_risk":3,"arthritis_risk":10,"migraine_risk":7,"frizz_risk":0,"updated_at":"2026-04-21T01:30:48.567721+05:30"},{"city":"Gangtok","state":"Sikkim","latitude":27.3314,"longitude":88.6138,"temp":16.2,"humidity":80,"rain":0.0,"pressure":834.2,"uv_index":9.0,"wind_gusts":19.4,"aqi":59,"pm10":20.4,"pm2_5":16.4,"mosquito_risk":3,"arthritis_risk":5,"migraine_risk":7,"frizz_risk":0,"updated_at":"2026-04-21T01:30:48.567727+05:30"},{"city":"Siliguri","state":"West Bengal","latitude":26.7271,"longitude":88.3953,"temp":23.1,"humidity":81,"rain":0.0,"pressure":989.7,"uv_index":8.15,"wind_gusts":30.6,"aqi":95,"pm10":39.7,"pm2_5":34.5,"mosquito_risk":3,"arthritis_risk":5,"migraine_risk":7,"frizz_risk":1,"updated_at":"2026-04-21T01:30:51.924319+05:30"},{"city":"Durgapur","state":"West Bengal","latitude":23.5204,"longitude":87.3119,"temp":28.4,"humidity":88,"rain":0.0,"pressure":990.8,"uv_index":8.95,"wind_gusts":29.2,"aqi":146,"pm10":65.7,"pm2_5":57.9,"mosquito_risk":7,"arthritis_risk":5,"migraine_risk":7,"frizz_risk":1,"updated_at":"2026-04-21T01:30:51.924340+05:30"},{"city":"Asansol","state":"West Bengal","latitude":23.6739,"longitude":86.9524,"temp":28.9,"humidity":81,"rain":0.0,"pressure":989.2,"uv_index":9.0,"wind_gusts":28.4,"aqi":124,"pm10":78.7,"pm2_5":53.8,"mosquito_risk":7,"arthritis_risk":5,"migraine_risk":7,"frizz_risk":1,"updated_at":"2026-04-21T01:30:51.924349+05:30"},{"city":"Pondicherry","state":"Puducherry","latitude":11.9139,"longitude":79.8145,"temp":27.7,"humidity":93,"rain":0.0,"pressure":1007.6,"uv_index":9.2,"wind_gusts":33.1,"aqi":33,"pm10":11.6,"pm2_5":7.8,"mosquito_risk":7,"arthritis_risk":5,"migraine_risk":4,"frizz_risk":1,"updated_at":"2026-04-21T01:30:51.924356+05:30"},{"city":"Port Blair","state":"Andaman and Nicobar Islands","latitude":11.6234,"longitude":92.7265,"temp":29.6,"humidity":72,"rain":0.0,"pressure":1005.9,"uv_index":8.8,"wind_gusts":15.1,"aqi":61,"pm10":14.4,"pm2_5":11.8,"mosquito_risk":7,"arthritis_risk":5,"migraine_risk":4,"frizz_risk":1,"updated_at":"2026-04-21T01:30:51.924362+05:30"},{"city":"Haridwar","state":"Uttarakhand","latitude":29.9457,"longitude":78.1642,"temp":20.9,"humidity":68,"rain":0.0,"pressure":971.9,"uv_index":7.1,"wind_gusts":36.4,"aqi":61,"pm10":39.6,"pm2_5":28.3,"mosquito_risk":3,"arthritis_risk":5,"migraine_risk":7,"frizz_risk":0,"updated_at":"2026-04-21T01:30:51.924368+05:30"},{"city":"Rishikesh","state":"Uttarakhand","latitude":30.0869,"longitude":78.2676,"temp":21.5,"humidity":56,"rain":0.0,"pressure":965.2,"uv_index":7.2,"wind_gusts":37.1,"aqi":65,"pm10":40.3,"pm2_5":21.2,"mosquito_risk":0,"arthritis_risk":5,"migraine_risk":7,"frizz_risk":0,"updated_at":"2026-04-21T01:30:51.924374+05:30"},{"city":"Nainital","state":"Uttarakhand","latitude":29.3919,"longitude":79.4542,"temp":21.8,"humidity":28,"rain":0.0,"pressure":806.1,"uv_index":8.05,"wind_gusts":71.3,"aqi":73,"pm10":79.4,"pm2_5":22.4,"mosquito_risk":0,"arthritis_risk":5,"migraine_risk":7,"frizz_risk":0,"updated_at":"2026-04-21T01:30:51.924380+05:30"},{"city":"Mussoorie","state":"Uttarakhand","latitude":30.4599,"longitude":78.0664,"temp":18.5,"humidity":40,"rain":0.0,"pressure":802.4,"uv_index":7.6,"wind_gusts":42.1,"aqi":56,"pm10":37.0,"pm2_5":25.3,"mosquito_risk":0,"arthritis_risk":5,"migraine_risk":7,"frizz_risk":0,"updated_at":"2026-04-21T01:30:51.924386+05:30"},{"city":"Dharamshala","state":"Himachal Pradesh","latitude":32.219,"longitude":76.3234,"temp":22.4,"humidity":34,"rain":0.0,"pressure":868.9,"uv_index":7.85,"wind_gusts":33.5,"aqi":47,"pm10":22.1,"pm2_5":9.5,"mosquito_risk":0,"arthritis_risk":5,"migraine_risk":7,"frizz_risk":0,"updated_at":"2026-04-21T01:30:51.924392+05:30"},{"city":"Dalhousie","state":"Himachal Pradesh","latitude":32.5387,"longitude":75.971,"temp":18.7,"humidity":33,"rain":0.0,"pressure":803.5,"uv_index":8.1,"wind_gusts":30.2,"aqi":52,"pm10":28.0,"pm2_5":20.1,"mosquito_risk":0,"arthritis_risk":5,"migraine_risk":7,"frizz_risk":0,"updated_at":"2026-04-21T01:30:51.924398+05:30"},{"city":"Patiala","state":"Punjab","latitude":30.3398,"longitude":76.3869,"temp":23.6,"humidity":40,"rain":0.0,"pressure":976.6,"uv_index":7.2,"wind_gusts":29.2,"aqi":314,"pm10":474.0,"pm2_5":67.8,"mosquito_risk":0,"arthritis_risk":5,"migraine_risk":7,"frizz_risk":0,"updated_at":"2026-04-21T01:30:51.924404+05:30"},{"city":"Bhatinda","state":"Punjab","latitude":30.211,"longitude":74.9455,"temp":26.3,"humidity":41,"rain":0.0,"pressure":982.4,"uv_index":7.85,"wind_gusts":33.5,"aqi":70,"pm10":45.9,"pm2_5":27.5,"mosquito_risk":4,"arthritis_risk":5,"migraine_risk":7,"frizz_risk":0,"updated_at":"2026-04-21T01:30:51.924410+05:30"},{"city":"Rohtak","state":"Haryana","latitude":28.8955,"longitude":76.6066,"temp":22.1,"humidity":46,"rain":0.0,"pressure":979.6,"uv_index":7.35,"wind_gusts":36.0,"aqi":697,"pm10":717.1,"pm2_5":107.6,"mosquito_risk":0,"arthritis_risk":5,"migraine_risk":7,"frizz_risk":0,"updated_at":"2026-04-21T01:30:51.924416+05:30"},{"city":"Panipat","state":"Haryana","latitude":29.3909,"longitude":76.9635,"temp":23.5,"humidity":40,"rain":0.0,"pressure":978.2,"uv_index":7.15,"wind_gusts":33.5,"aqi":1133,"pm10":1326.2,"pm2_5":163.4,"mosquito_risk":0,"arthritis_risk":5,"migraine_risk":7,"frizz_risk":0,"updated_at":"2026-04-21T01:30:51.924422+05:30"},{"city":"Mathura","state":"Uttar Pradesh","latitude":27.4924,"longitude":77.6737,"temp":28.2,"humidity":38,"rain":0.0,"pressure":984.4,"uv_index":7.6,"wind_gusts":29.2,"aqi":914,"pm10":1132.5,"pm2_5":156.5,"mosquito_risk":4,"arthritis_risk":5,"migraine_risk":7,"frizz_risk":0,"updated_at":"2026-04-21T01:30:51.924427+05:30"},{"city":"Vrindavan","state":"Uttar Pradesh","latitude":27.5823,"longitude":77.7027,"temp":25.9,"humidity":43,"rain":0.0,"pressure":984.8,"uv_index":7.6,"wind_gusts":30.2,"aqi":914,"pm10":1132.5,"pm2_5":156.5,"mosquito_risk":4,"arthritis_risk":5,"migraine_risk":7,"frizz_risk":0,"updated_at":"2026-04-21T01:30:51.924433+05:30"},{"city":"Ayodhya","state":"Uttar Pradesh","latitude":26.7922,"longitude":82.1998,"temp":27.3,"humidity":43,"rain":0.0,"pressure":991.3,"uv_index":8.1,"wind_gusts":47.5,"aqi":105,"pm10":95.7,"pm2_5":31.2,"mosquito_risk":4,"arthritis_risk":5,"migraine_risk":7,"frizz_risk":0,"updated_at":"2026-04-21T01:30:51.924439+05:30"},{"city":"Ratlam","state":"Madhya Pradesh","latitude":23.3315,"longitude":75.0367,"temp":28.0,"humidity":46,"rain":0.0,"pressure":953.8,"uv_index":8.45,"wind_gusts":31.0,"aqi":90,"pm10":22.1,"pm2_5":15.3,"mosquito_risk":4,"arthritis_risk":5,"migraine_risk":7,"frizz_risk":0,"updated_at":"2026-04-21T01:30:51.924445+05:30"},{"city":"Sagar","state":"Madhya Pradesh","latitude":23.8388,"longitude":78.7378,"temp":28.4,"humidity":42,"rain":0.0,"pressure":948.5,"uv_index":8.65,"wind_gusts":29.9,"aqi":52,"pm10":18.2,"pm2_5":14.6,"mosquito_risk":4,"arthritis_risk":5,"migraine_risk":7,"frizz_risk":0,"updated_at":"2026-04-21T01:30:51.924451+05:30"},{"city":"Satna","state":"Madhya Pradesh","latitude":24.6005,"longitude":80.8322,"temp":29.4,"humidity":36,"rain":0.0,"pressure":968.7,"uv_index":8.65,"wind_gusts":33.5,"aqi":67,"pm10":39.6,"pm2_5":18.6,"mosquito_risk":4,"arthritis_risk":5,"migraine_risk":7,"frizz_risk":0,"updated_at":"2026-04-21T01:30:51.924456+05:30"},{"city":"Akola","state":"Maharashtra","latitude":20.7002,"longitude":77.0082,"temp":28.7,"humidity":57,"rain":0.0,"pressure":973.6,"uv_index":8.85,"wind_gusts":22.3,"aqi":79,"pm10":41.2,"pm2_5":37.7,"mosquito_risk":4,"arthritis_risk":5,"migraine_risk":7,"frizz_risk":1,"updated_at":"2026-04-21T01:30:51.924463+05:30"},{"city":"Amravati","state":"Maharashtra","latitude":20.9374,"longitude":77.7796,"temp":27.4,"humidity":64,"rain":0.0,"pressure":965.6,"uv_index":8.85,"wind_gusts":19.8,"aqi":75,"pm10":35.4,"pm2_5":32.1,"mosquito_risk":7,"arthritis_risk":5,"migraine_risk":7,"frizz_risk":1,"updated_at":"2026-04-21T01:30:51.924469+05:30"},{"city":"Latur","state":"Maharashtra","latitude":18.4088,"longitude":76.5604,"temp":25.3,"humidity":68,"rain":0.0,"pressure":938.3,"uv_index":9.1,"wind_gusts":24.8,"aqi":108,"pm10":53.6,"pm2_5":46.3,"mosquito_risk":7,"arthritis_risk":5,"migraine_risk":7,"frizz_risk":1,"updated_at":"2026-04-21T01:30:51.924476+05:30"},{"city":"Nanded","state":"Maharashtra","latitude":19.1383,"longitude":77.3091,"temp":27.4,"humidity":63,"rain":0.0,"pressure":967.0,"uv_index":9.0,"wind_gusts":19.1,"aqi":106,"pm10":44.1,"pm2_5":38.5,"mosquito_risk":7,"arthritis_risk":5,"migraine_risk":7,"frizz_risk":1,"updated_at":"2026-04-21T01:30:51.924481+05:30"},{"city":"Gulbarga","state":"Karnataka","latitude":17.3297,"longitude":76.8343,"temp":28.3,"humidity":56,"rain":0.0,"pressure":957.5,"uv_index":8.2,"wind_gusts":29.9,"aqi":118,"pm10":57.6,"pm2_5":48.7,"mosquito_risk":4,"arthritis_risk":5,"migraine_risk":7,"frizz_risk":1,"updated_at":"2026-04-21T01:30:51.924488+05:30"},{"city":"Bidar","state":"Karnataka","latitude":17.9104,"longitude":77.5199,"temp":27.2,"humidity":58,"rain":0.0,"pressure":934.3,"uv_index":8.45,"wind_gusts":31.3,"aqi":116,"pm10":55.9,"pm2_5":47.4,"mosquito_risk":4,"arthritis_risk":5,"migraine_risk":7,"frizz_risk":1,"updated_at":"2026-04-21T01:30:51.924494+05:30"},{"city":"Hospet","state":"Karnataka","latitude":15.2689,"longitude":76.3909,"temp":28.3,"humidity":75,"rain":0.0,"pressure":954.8,"uv_index":9.3,"wind_gusts":29.2,"aqi":136,"pm10":41.7,"pm2_5":38.4,"mosquito_risk":7,"arthritis_risk":5,"migraine_risk":7,"frizz_risk":1,"updated_at":"2026-04-21T01:30:51.924499+05:30"},{"city":"Tirupur","state":"Tamil Nadu","latitude":11.1085,"longitude":77.3411,"temp":27.9,"humidity":78,"rain":0.0,"pressure":974.4,"uv_index":9.2,"wind_gusts":31.7,"aqi":74,"pm10":28.4,"pm2_5":25.6,"mosquito_risk":7,"arthritis_risk":5,"migraine_risk":7,"frizz_risk":1,"updated_at":"2026-04-21T01:30:51.924505+05:30"},{"city":"Alappuzha","state":"Kerala","latitude":9.4981,"longitude":76.3388,"temp":27.7,"humidity":86,"rain":0.0,"pressure":1007.9,"uv_index":7.7,"wind_gusts":29.5,"aqi":65,"pm10":26.7,"pm2_5":21.0,"mosquito_risk":7,"arthritis_risk":5,"migraine_risk":4,"frizz_risk":1,"updated_at":"2026-04-21T01:30:51.924511+05:30"},{"city":"Munnar","state":"Kerala","latitude":10.0889,"longitude":77.0595,"temp":21.3,"humidity":89,"rain":0.0,"pressure":856.1,"uv_index":9.25,"wind_gusts":37.1,"aqi":65,"pm10":29.7,"pm2_5":27.9,"mosquito_risk":3,"arthritis_risk":5,"migraine_risk":7,"frizz_risk":1,"updated_at":"2026-04-21T01:30:51.924517+05:30"},{"city":"Silchar","state":"Assam","latitude":24.8333,"longitude":92.7789,"temp":23.6,"humidity":92,"rain":0.0,"pressure":1003.4,"uv_index":8.65,"wind_gusts":46.4,"aqi":103,"pm10":31.4,"pm2_5":26.0,"mosquito_risk":3,"arthritis_risk":5,"migraine_risk":4,"frizz_risk":1,"updated_at":"2026-04-21T01:30:51.924523+05:30"},{"city":"Dibrugarh","state":"Assam","latitude":27.4728,"longitude":94.912,"temp":23.4,"humidity":91,"rain":0.0,"pressure":992.2,"uv_index":7.0,"wind_gusts":35.6,"aqi":79,"pm10":21.4,"pm2_5":19.8,"mosquito_risk":3,"arthritis_risk":5,"migraine_risk":7,"frizz_risk":1,"updated_at":"2026-04-21T01:30:51.924528+05:30"}]