[{"city":"Delhi","state":"Delhi","latitude":28.6139,"longitude":77.209,"temp":28.9,"humidity":29,"rain":0.0,"pressure":980.1,"uv_index":7.3,"wind_gusts":24.1,"aqi":187,"pm10":601.6,"pm2_5":115.5,"mosquito_risk":4,"arthritis_risk":5,"migraine_risk":7,"frizz_risk":0,"updated_at":"2026-04-16T00:52:40.689504+05:30"},{"city":"Mumbai","state":"Maharashtra","latitude":19.076,"longitude":72.8777,"temp":29.2,"humidity":79,"rain":0.0,"pressure":1006.7,"uv_index":8.0,"wind_gusts":18.4,"aqi":82,"pm10":34.2,"pm2_5":23.6,"mosquito_risk":7,"arthritis_risk":5,"migraine_risk":4,"frizz_risk":1,"updated_at":"2026-04-16T00:52:40.689546+05:30"},{"city":"Bangalore","state":"Karnataka","latitude":12.9716,"longitude":77.5946,"temp":26.4,"humidity":50,"rain":0.0,"pressure":910.9,"uv_index":9.6,"wind_gusts":27.7,"aqi":75,"pm10":32.8,"pm2_5":27.5,"mosquito_risk":4,"arthritis_risk":5,"migraine_risk":7,"frizz_risk":0,"updated_at":"2026-04-16T00:52:40.689562+05:30"},{"city":"Hyderabad","state":"Telangana","latitude":17.385,"longitude":78.4867,"temp":29.8,"humidity":47,"rain":0.0,"pressure":951.1,"uv_index":9.25,"wind_gusts":27.7,"aqi":88,"pm10":41.6,"pm2_5":38.0,"mosquito_risk":4,"arthritis_risk":5,"migraine_risk":7,"frizz_risk":1,"updated_at":"2026-04-16T00:52:40.689572+05:30"},{"city":"Chennai","state":"Tamil Nadu","latitude":13.0827,"longitude":80.2707,"temp":28.8,"humidity":82,"rain":0.0,"pressure":1005.5,"uv_index":9.35,"wind_gusts":33.5,"aqi":33,"pm10":12.4,"pm2_5":9.0,"mosquito_risk":7,"arthritis_risk":5,"migraine_risk":4,"frizz_risk":1,"updated_at":"2026-04-16T00:52:40.689581+05:30"},{"city":"Kolkata","state":"West Bengal","latitude":22.5726,"longitude":88.3639,"temp":27.7,"humidity":89,"rain":0.0,"pressure":1003.3,"uv_index":8.9,"wind_gusts":32.8,"aqi":85,"pm10":22.6,"pm2_5":17.5,"mosquito_risk":7,"arthritis_risk":5,"migraine_risk":4,"frizz_risk":1,"updated_at":"2026-04-16T00:52:40.689593+05:30"},{"city":"Pune","state":"Maharashtra","latitude":18.5204,"longitude":73.8567,"temp":25.2,"humidity":42,"rain":0.0,"pressure":946.5,"uv_index":8.6,"wind_gusts":38.9,"aqi":118,"pm10":32.4,"pm2_5":25.6,"mosquito_risk":4,"arthritis_risk":5,"migraine_risk":7,"frizz_risk":0,"updated_at":"2026-04-16T00:52:40.689601+05:30"},{"city":"Ahmedabad","state":"Gujarat","latitude":23.0225,"longitude":72.5714,"temp":29.2,"humidity":49,"rain":0.0,"pressure":999.3,"uv_index":7.7,"wind_gusts":16.6,"aqi":90,"pm10":74.3,"pm2_5":34.1,"mosquito_risk":4,"arthritis_risk":5,"migraine_risk":7,"frizz_risk":1,"updated_at":"2026-04-16T00:52:40.689609+05:30"},{"city":"Jaipur","state":"Rajasthan","latitude":26.9124,"longitude":75.7873,"temp":29.3,"humidity":25,"rain":0.0,"pressure":957.4,"uv_index":7.95,"wind_gusts":28.1,"aqi":190,"pm10":199.3,"pm2_5":37.0,"mosquito_risk":4,"arthritis_risk":5,"migraine_risk":7,"frizz_risk":0,"updated_at":"2026-04-16T00:52:40.689616+05:30"},{"city":"Lucknow","state":"Uttar Pradesh","latitude":26.8467,"longitude":80.9462,"temp":26.4,"humidity":38,"rain":0.0,"pressure":990.3,"uv_index":7.85,"wind_gusts":21.6,"aqi":105,"pm10":183.0,"pm2_5":35.4,"mosquito_risk":4,"arthritis_risk":5,"migraine_risk":7,"frizz_risk":0,"updated_at":"2026-04-16T00:52:40.689624+05:30"},{"city":"Kanpur","state":"Uttar Pradesh","latitude":26.4499,"longitude":80.3319,"temp":26.3,"humidity":45,"rain":0.0,"pressure":988.8,"uv_index":7.85,"wind_gusts":19.1,"aqi":156,"pm10":311.1,"pm2_5":48.2,"mosquito_risk":4,"arthritis_risk":5,"migraine_risk":7,"frizz_risk":0,"updated_at":"2026-04-16T00:52:40.689631+05:30"},{"city":"Chandigarh","state":"Chandigarh","latitude":30.7333,"longitude":76.7794,"temp":22.0,"humidity":50,"rain":0.0,"pressure":966.1,"uv_index":7.2,"wind_gusts":18.0,"aqi":82,"pm10":22.5,"pm2_5":20.1,"mosquito_risk":0,"arthritis_risk":5,"migraine_risk":7,"frizz_risk":0,"updated_at":"2026-04-16T00:52:40.689639+05:30"},{"city":"Srinagar","state":"Jammu and Kashmir","latitude":34.0837,"longitude":74.7973,"temp":9.9,"humidity":63,"rain":0.0,"pressure":837.5,"uv_index":7.3,"wind_gusts":17.6,"aqi":76,"pm10":42.6,"pm2_5":36.3,"mosquito_risk":3,"arthritis_risk":5,"migraine_risk":7,"frizz_risk":0,"updated_at":"2026-04-16T00:52:40.689645+05:30"},{"city":"Jammu","state":"Jammu and Kashmir","latitude":32.7266,"longitude":74.857,"temp":20.2,"humidity":61,"rain":0.0,"pressure":970.2,"uv_index":7.3,"wind_gusts":22.0,"aqi":65,"pm10":30.0,"pm2_5":28.5,"mosquito_risk":3,"arthritis_risk":5,"migraine_risk":7,"frizz_risk":0,"updated_at":"2026-04-16T00:52:40.689652+05:30"},{"city":"Amritsar","state":"Punjab","latitude":31.634,"longitude":74.8723,"temp":24.0,"humidity":56,"rain":0.0,"pressure":978.3,"uv_index":7.45,"wind_gusts":25.9,"aqi":87,"pm10":59.0,"pm2_5":52.3,"mosquito_risk":0,"arthritis_risk":5,"migraine_risk":7,"frizz_risk":0,"updated_at":"2026-04-16T00:52:40.689661+05:30"},{"city":"Ludhiana","state":"Punjab","latitude":30.901,"longitude":75.8573,"temp":25.3,"humidity":46,"rain":0.0,"pressure":976.4,"uv_index":7.4,"wind_gusts":15.1,"aqi":72,"pm10":46.7,"pm2_5":43.4,"mosquito_risk":4,"arthritis_risk":5,"migraine_risk":7,"frizz_risk":0,"updated_at":"2026-04-16T00:52:40.689669+05:30"},{"city":"Jalandhar","state":"Punjab","latitude":31.326,"longitude":75.5762,"temp":23.7,"humidity":49,"rain":0.0,"pressure":977.5,"uv_index":7.3,"wind_gusts":20.9,"aqi":78,"pm10":33.3,"pm2_5":29.7,"mosquito_risk":0,"arthritis_risk":5,"migraine_risk":7,"frizz_risk":0,"updated_at":"2026-04-16T00:52:40.689676+05:30"},{"city":"Dehradun","state":"Uttarakhand","latitude":30.6284,"longitude":78.0322,"temp":14.9,"humidity":63,"rain":0.0,"pressure":828.6,"uv_index":7.35,"wind_gusts":34.9,"aqi":109,"pm10":17.3,"pm2_5":14.3,"mosquito_risk":3,"arthritis_risk":5,"migraine_risk":7,"frizz_risk":0,"updated_at":"2026-04-16T00:52:40.689683+05:30"},{"city":"Shimla","state":"Himachal Pradesh","latitude":31.1048,"longitude":77.1734,"temp":13.1,"humidity":54,"rain":0.0,"pressure":782.7,"uv_index":7.4,"wind_gusts":42.8,"aqi":106,"pm10":22.4,"pm2_5":16.7,"mosquito_risk":0,"arthritis_risk":5,"migraine_risk":7,"frizz_risk":0,"updated_at":"2026-04-16T00:52:40.689690+05:30"},{"city":"Manali","state":"Himachal Pradesh","latitude":32.2396,"longitude":77.1887,"temp":15.9,"humidity":57,"rain":0.0,"pressure":819.4,"uv_index":8.65,"wind_gusts":34.6,"aqi":105,"pm10":23.5,"pm2_5":13.4,"mosquito_risk":0,"arthritis_risk":5,"migraine_risk":7,"frizz_risk":0,"updated_at":"2026-04-16T00:52:40.689696+05:30"},{"city":"Gurgaon","state":"Haryana","latitude":28.4595,"longitude":77.0266,"temp":26.2,"humidity":42,"rain":0.0,"pressure":978.5,"uv_index":7.4,"wind_gusts":16.6,"aqi":624,"pm10":527.1,"pm2_5":95.2,"mosquito_risk":4,"arthritis_risk":5,"migraine_risk":7,"frizz_risk":0,"updated_at":"2026-04-16T00:52:40.689703+05:30"},{"city":"Noida","state":"Uttar Pradesh","latitude":28.5355,"longitude":77.391,"temp":28.1,"humidity":32,"rain":0.0,"pressure":981.6,"uv_index":7.35,"wind_gusts":25.9,"aqi":624,"pm10":527.1,"pm2_5":95.2,"mosquito_risk":4,"arthritis_risk":5,"migraine_risk":7,"frizz_risk":0,"updated_at":"2026-04-16T00:52:40.689709+05:30"},{"city":"Ghaziabad","state":"Uttar Pradesh","latitude":28.6692,"longitude":77.4538,"temp":26.5,"humidity":37,"rain":0.0,"pressure":979.7,"uv_index":7.35,"wind_gusts":19.4,"aqi":143,"pm10":543.9,"pm2_5":107.3,"mosquito_risk":4,"arthritis_risk":5,"migraine_risk":7,"frizz_risk":0,"updated_at":"2026-04-16T00:52:40.689716+05:30"},{"city":"Faridabad","state":"Haryana","latitude":28.4089,"longitude":77.3178,"temp":27.4,"humidity":32,"rain":0.0,"pressure":980.9,"uv_index":7.4,"wind_gusts":24.8,"aqi":624,"pm10":527.1,"pm2_5":95.2,"mosquito_risk":4,"arthritis_risk":5,"migraine_risk":7,"frizz_risk":0,"updated_at":"2026-04-16T00:52:40.689722+05:30"},{"city":"Meerut","state":"Uttar Pradesh","latitude":28.9845,"longitude":77.7064,"temp":25.5,"humidity":38,"rain":0.0,"pressure":978.5,"uv_index":7.25,"wind_gusts":21.6,"aqi":143,"pm10":543.9,"pm2_5":107.3,"mosquito_risk":4,"arthritis_risk":5,"migraine_risk":7,"frizz_risk":0,"updated_at":"2026-04-16T00:52:40.689729+05:30"},{"city":"Agra","state":"Uttar Pradesh","latitude":27.1767,"longitude":78.0081,"temp":27.8,"humidity":30,"rain":0.0,"pressure":984.7,"uv_index":7.75,"wind_gusts":16.2,"aqi":344,"pm10":687.3,"pm2_5":106.6,"mosquito_risk":4,"arthritis_risk":5,"migraine_risk":7,"frizz_risk":0,"updated_at":"2026-04-16T00:52:40.689738+05:30"},{"city":"Varanasi","state":"Uttar Pradesh","latitude":25.3176,"longitude":82.9739,"temp":27.0,"humidity":44,"rain":0.0,"pressure":993.7,"uv_index":8.45,"wind_gusts":22.0,"aqi":83,"pm10":93.1,"pm2_5":41.4,"mosquito_risk":4,"arthritis_risk":5,"migraine_risk":7,"frizz_risk":0,"updated_at":"2026-04-16T00:52:40.689745+05:30"},{"city":"Prayagraj","state":"Uttar Pradesh","latitude":25.4358,"longitude":81.8463,"temp":27.8,"humidity":46,"rain":0.0,"pressure":992.4,"uv_index":8.3,"wind_gusts":22.0,"aqi":87,"pm10":69.8,"pm2_5":25.7,"mosquito_risk":4,"arthritis_risk":5,"migraine_risk":7,"frizz_risk":0,"updated_at":"2026-04-16T00:52:40.689754+05:30"},{"city":"Gorakhpur","state":"Uttar Pradesh","latitude":26.7606,"longitude":83.3732,"temp":24.3,"humidity":69,"rain":0.0,"pressure":994.4,"uv_index":8.25,"wind_gusts":28.4,"aqi":89,"pm10":53.4,"pm2_5":28.9,"mosquito_risk":3,"arthritis_risk":5,"migraine_risk":7,"frizz_risk":1,"updated_at":"2026-04-16T00:52:40.689761+05:30"},{"city":"Bareilly","state":"Uttar Pradesh","latitude":28.367,"longitude":79.4304,"temp":23.7,"humidity":51,"rain":0.0,"pressure":983.7,"uv_index":7.6,"wind_gusts":19.1,"aqi":61,"pm10":56.1,"pm2_5":31.7,"mosquito_risk":0,"arthritis_risk":5,"migraine_risk":7,"frizz_risk":0,"updated_at":"2026-04-16T00:52:40.689767+05:30"},{"city":"Aligarh","state":"Uttar Pradesh","latitude":27.8974,"longitude":78.088,"temp":25.9,"humidity":32,"rain":0.0,"pressure":982.5,"uv_index":7.5,"wind_gusts":24.8,"aqi":357,"pm10":566.2,"pm2_5":100.1,"mosquito_risk":4,"arthritis_risk":5,"migraine_risk":7,"frizz_risk":0,"updated_at":"2026-04-16T00:52:40.689774+05:30"},{"city":"Moradabad","state":"Uttar Pradesh","latitude":28.8386,"longitude":78.7733,"temp":24.5,"humidity":46,"rain":0.0,"pressure":980.5,"uv_index":7.45,"wind_gusts":19.8,"aqi":78,"pm10":116.9,"pm2_5":60.1,"mosquito_risk":0,"arthritis_risk":5,"migraine_risk":7,"frizz_risk":0,"updated_at":"2026-04-16T00:52:40.689780+05:30"},{"city":"Saharanpur","state":"Uttar Pradesh","latitude":29.9637,"longitude":77.546,"temp":20.5,"humidity":59,"rain":0.0,"pressure":972.8,"uv_index":6.9,"wind_gusts":21.6,"aqi":76,"pm10":37.6,"pm2_5":36.8,"mosquito_risk":0,"arthritis_risk":5,"migraine_risk":7,"frizz_risk":0,"updated_at":"2026-04-16T00:52:40.689786+05:30"},{"city":"Jhansi","state":"Uttar Pradesh","latitude":25.4484,"longitude":78.5685,"temp":28.8,"humidity":45,"rain":0.0,"pressure":975.3,"uv_index":8.2,"wind_gusts":29.2,"aqi":82,"pm10":163.9,"pm2_5":31.2,"mosquito_risk":4,"arthritis_risk":5,"migraine_risk":7,"frizz_risk":0,"updated_at":"2026-04-16T00:52:43.915398+05:30"},{"city":"Surat","state":"Gujarat","latitude":21.1702,"longitude":72.8311,"temp":27.5,"humidity":78,"rain":0.0,"pressure":1004.5,"uv_index":7.85,"wind_gusts":24.8,"aqi":102,"pm10":27.4,"pm2_5":22.6,"mosquito_risk":7,"arthritis_risk":5,"migraine_risk":4,"frizz_risk":1,"updated_at":"2026-04-16T00:52:43.915429+05:30"},{"city":"Vadodara","state":"Gujarat","latitude":22.3072,"longitude":73.1812,"temp":27.5,"humidity":66,"rain":0.0,"pressure":1001.7,"uv_index":8.0,"wind_gusts":23.0,"aqi":91,"pm10":36.2,"pm2_5":23.7,"mosquito_risk":7,"arthritis_risk":5,"migraine_risk":4,"frizz_risk":1,"updated_at":"2026-04-16T00:52:43.915459+05:30"},{"city":"Rajkot","state":"Gujarat","latitude":22.3039,"longitude":70.8022,"temp":25.1,"humidity":78,"rain":0.0,"pressure":992.5,"uv_index":7.2,"wind_gusts":26.3,"aqi":75,"pm10":32.4,"pm2_5":15.3,"mosquito_risk":7,"arthritis_risk":5,"migraine_risk":7,"frizz_risk":1,"updated_at":"2026-04-16T00:52:43.915468+05:30"},{"city":"Thane","state":"Maharashtra","latitude":19.2183,"longitude":72.9781,"temp":27.5,"humidity":83,"rain":0.0,"pressure":1006.2,"uv_index":8.05,"wind_gusts":30.2,"aqi":82,"pm10":34.2,"pm2_5":23.6,"mosquito_risk":7,"arthritis_risk":5,"migraine_risk":4,"frizz_risk":1,"updated_at":"2026-04-16T00:52:43.915475+05:30"},{"city":"Nagpur","state":"Maharashtra","latitude":21.1458,"longitude":79.0882,"temp":26.5,"humidity":42,"rain":0.0,"pressure":969.5,"uv_index":8.85,"wind_gusts":21.2,"aqi":70,"pm10":30.5,"pm2_5":27.1,"mosquito_risk":4,"arthritis_risk":5,"migraine_risk":7,"frizz_risk":0,"updated_at":"2026-04-16T00:52:43.915483+05:30"},{"city":"Nashik","state":"Maharashtra","latitude":19.9975,"longitude":73.7898,"temp":24.2,"humidity":56,"rain":0.0,"pressure":943.9,"uv_index":8.3,"wind_gusts":30.2,"aqi":59,"pm10":35.7,"pm2_5":22.4,"mosquito_risk":0,"arthritis_risk":5,"migraine_risk":7,"frizz_risk":0,"updated_at":"2026-04-16T00:52:43.915491+05:30"},{"city":"Aurangabad","state":"Maharashtra","latitude":19.8762,"longitude":75.3433,"temp":28.3,"humidity":45,"rain":0.0,"pressure":942.3,"uv_index":8.95,"wind_gusts":25.9,"aqi":54,"pm10":21.4,"pm2_5":11.0,"mosquito_risk":4,"arthritis_risk":5,"migraine_risk":7,"frizz_risk":0,"updated_at":"2026-04-16T00:52:43.915498+05:30"},{"city":"Solapur","state":"Maharashtra","latitude":17.6599,"longitude":75.9064,"temp":29.6,"humidity":37,"rain":0.0,"pressure":954.6,"uv_index":9.05,"wind_gusts":23.8,"aqi":75,"pm10":33.4,"pm2_5":30.7,"mosquito_risk":4,"arthritis_risk":5,"migraine_risk":7,"frizz_risk":0,"updated_at":"2026-04-16T00:52:43.915505+05:30"},{"city":"Kolhapur","state":"Maharashtra","latitude":16.705,"longitude":74.2433,"temp":23.0,"humidity":89,"rain":0.0,"pressure":946.2,"uv_index":9.0,"wind_gusts":38.9,"aqi":87,"pm10":32.1,"pm2_5":21.9,"mosquito_risk":3,"arthritis_risk":5,"migraine_risk":7,"frizz_risk":1,"updated_at":"2026-04-16T00:52:43.915513+05:30"},{"city":"Goa","state":"Goa","latitude":15.2993,"longitude":74.124,"temp":28.5,"humidity":81,"rain":0.0,"pressure":996.5,"uv_index":9.0,"wind_gusts":29.5,"aqi":82,"pm10":58.6,"pm2_5":29.7,"mosquito_risk":7,"arthritis_risk":5,"migraine_risk":7,"frizz_risk":1,"updated_at":"2026-04-16T00:52:43.915521+05:30"},{"city":"Jodhpur","state":"Rajasthan","latitude":26.2389,"longitude":73.0243,"temp":30.8,"humidity":34,"rain":0.0,"pressure":979.9,"uv_index":7.95,"wind_gusts":27.4,"aqi":72,"pm10":79.2,"pm2_5":33.3,"mosquito_risk":0,"arthritis_risk":5,"migraine_risk":7,"frizz_risk":0,"updated_at":"2026-04-16T00:52:43.915528+05:30"},{"city":"Udaipur","state":"Rajasthan","latitude":24.5854,"longitude":73.7125,"temp":26.7,"humidity":36,"rain":0.0,"pressure":944.7,"uv_index":8.7,"wind_gusts":32.0,"aqi":72,"pm10":105.5,"pm2_5":26.5,"mosquito_risk":4,"arthritis_risk":5,"migraine_risk":7,"frizz_risk":0,"updated_at":"2026-04-16T00:52:43.915535+05:30"},{"city":"Kota","state":"Rajasthan","latitude":25.2138,"longitude":75.8648,"temp":29.6,"humidity":43,"rain":0.0,"pressure":975.5,"uv_index":8.2,"wind_gusts":12.2,"aqi":60,"pm10":76.8,"pm2_5":32.8,"mosquito_risk":4,"arthritis_risk":5,"migraine_risk":7,"frizz_risk":0,"updated_at":"2026-04-16T00:52:43.915542+05:30"},{"city":"Bikaner","state":"Rajasthan","latitude":28.0229,"longitude":73.3119,"temp":28.9,"humidity":38,"rain":0.0,"pressure":978.9,"uv_index":7.75,"wind_gusts":20.9,"aqi":63,"pm10":52.9,"pm2_5":19.8,"mosquito_risk":4,"arthritis_risk":5,"migraine_risk":7,"frizz_risk":0,"updated_at":"2026-04-16T00:52:43.915548+05:30"},{"city":"Ajmer","state":"Rajasthan","latitude":26.4499,"longitude":74.6399,"temp":27.5,"humidity":31,"rain":0.0,"pressure":952.4,"uv_index":8.15,"wind_gusts":21.2,"aqi":76,"pm10":83.6,"pm2_5":21.2,"mosquito_risk":4,"arthritis_risk":5,"migraine_risk":7,"frizz_risk":0,"updated_at":"2026-04-16T00:52:43.915555+05:30"},{"city":"Gwalior","state":"Madhya Pradesh","latitude":26.2183,"longitude":78.1828,"temp":28.1,"humidity":50,"rain":0.0,"pressure":980.6,"uv_index":7.95,"wind_gusts":29.9,"aqi":106,"pm10":363.2,"pm2_5":56.6,"mosquito_risk":4,"arthritis_risk":5,"migraine_risk":7,"frizz_risk":1,"updated_at":"2026-04-16T00:52:43.915561+05:30"},{"city":"Indore","state":"Madhya Pradesh","latitude":22.7196,"longitude":75.8577,"temp":26.1,"humidity":56,"rain":0.0,"pressure":945.9,"uv_index":8.6,"wind_gusts":23.8,"aqi":68,"pm10":42.8,"pm2_5":26.4,"mosquito_risk":4,"arthritis_risk":5,"migraine_risk":7,"frizz_risk":1,"updated_at":"2026-04-16T00:52:43.915568+05:30"},{"city":"Bhopal","state":"Madhya Pradesh","latitude":23.2599,"longitude":77.4126,"temp":29.0,"humidity":43,"rain":0.0,"pressure":951.4,"uv_index":8.55,"wind_gusts":20.9,"aqi":58,"pm10":53.8,"pm2_5":26.5,"mosquito_risk":4,"arthritis_risk":5,"migraine_risk":7,"frizz_risk":0,"updated_at":"2026-04-16T00:52:43.915574+05:30"},{"city":"Jabalpur","state":"Madhya Pradesh","latitude":23.1815,"longitude":79.9864,"temp":26.7,"humidity":46,"rain":0.0,"pressure":957.8,"uv_index":8.7,"wind_gusts":21.2,"aqi":55,"pm10":20.7,"pm2_5":13.0,"mosquito_risk":4,"arthritis_risk":5,"migraine_risk":7,"frizz_risk":0,"updated_at":"2026-04-16T00:52:43.915582+05:30"},{"city":"Ujjain","state":"Madhya Pradesh","latitude":23.1765,"longitude":75.7885,"temp":26.7,"humidity":53,"rain":0.0,"pressure":951.5,"uv_index":8.5,"wind_gusts":22.3,"aqi":79,"pm10":52.5,"pm2_5":31.2,"mosquito_risk":4,"arthritis_risk":5,"migraine_risk":7,"frizz_risk":1,"updated_at":"2026-04-16T00:52:43.915589+05:30"},{"city":"Visakhapatnam","state":"Andhra Pradesh","latitude":17.6868,"longitude":83.2185,"temp":27.4,"humidity":88,"rain":0.0,"pressure":1001.5,"uv_index":9.15,"wind_gusts":44.6,"aqi":56,"pm10":15.5,"pm2_5":11.8,"mosquito_risk":7,"arthritis_risk":5,"migraine_risk":4,"frizz_risk":1,"updated_at":"2026-04-16T00:52:43.915596+05:30"},{"city":"Vijayawada","state":"Andhra Pradesh","latitude":16.5062,"longitude":80.648,"temp":27.3,"humidity":89,"rain":0.0,"pressure":1000.5,"uv_index":9.2,"wind_gusts":32.4,"aqi":46,"pm10":9.1,"pm2_5":7.0,"mosquito_risk":7,"arthritis_risk":5,"migraine_risk":4,"frizz_risk":1,"updated_at":"2026-04-16T00:52:43.915602+05:30"},{"city":"Guntur","state":"Andhra Pradesh","latitude":16.3067,"longitude":80.4365,"temp":27.7,"humidity":87,"rain":0.0,"pressure":1001.7,"uv_index":9.2,"wind_gusts":31.7,"aqi":52,"pm10":9.4,"pm2_5":7.3,"mosquito_risk":7,"arthritis_risk":5,"migraine_risk":4,"frizz_risk":1,"updated_at":"2026-04-16T00:52:43.915608+05:30"},{"city":"Nellore","state":"Andhra Pradesh","latitude":14.4426,"longitude":79.9865,"temp":27.9,"humidity":87,"rain":0.0,"pressure":1003.2,"uv_index":9.3,"wind_gusts":36.0,"aqi":48,"pm10":10.1,"pm2_5":8.4,"mosquito_risk":7,"arthritis_risk":5,"migraine_risk":4,"frizz_risk":1,"updated_at":"2026-04-16T00:52:43.915615+05:30"},{"city":"Kurnool","state":"Andhra Pradesh","latitude":15.8281,"longitude":78.0373,"temp":33.4,"humidity":30,"rain":0.0,"pressure":973.9,"uv_index":9.2,"wind_gusts":33.8,"aqi":79,"pm10":40.4,"pm2_5":35.4,"mosquito_risk":0,"arthritis_risk":5,"migraine_risk":7,"frizz_risk":0,"updated_at":"2026-04-16T00:52:43.915622+05:30"},{"city":"Kakinada","state":"Andhra Pradesh","latitude":16.9891,"longitude":82.2475,"temp":27.3,"humidity":89,"rain":0.0,"pressure":1005.5,"uv_index":9.2,"wind_gusts":33.1,"aqi":42,"pm10":12.2,"pm2_5":8.0,"mosquito_risk":7,"arthritis_risk":5,"migraine_risk":4,"frizz_risk":1,"updated_at":"2026-04-16T00:52:43.915629+05:30"},{"city":"Tirupati","state":"Andhra Pradesh","latitude":13.6288,"longitude":79.4192,"temp":27.2,"humidity":78,"rain":0.0,"pressure":990.4,"uv_index":9.4,"wind_gusts":34.2,"aqi":66,"pm10":20.3,"pm2_5":19.6,"mosquito_risk":7,"arthritis_risk":5,"migraine_risk":7,"frizz_risk":1,"updated_at":"2026-04-16T00:52:43.915637+05:30"},{"city":"Warangal","state":"Telangana","latitude":17.9689,"longitude":79.5941,"temp":29.7,"humidity":60,"rain":0.0,"pressure":976.0,"uv_index":9.1,"wind_gusts":27.7,"aqi":74,"pm10":26.0,"pm2_5":24.6,"mosquito_risk":4,"arthritis_risk":5,"migraine_risk":7,"frizz_risk":1,"updated_at":"2026-04-16T00:52:43.915643+05:30"},{"city":"Nizamabad","state":"Telangana","latitude":18.6725,"longitude":78.0941,"temp":29.3,"humidity":37,"rain":0.0,"pressure":961.7,"uv_index":9.05,"wind_gusts":28.4,"aqi":80,"pm10":40.7,"pm2_5":35.9,"mosquito_risk":4,"arthritis_risk":5,"migraine_risk":7,"frizz_risk":0,"updated_at":"2026-04-16T00:52:43.915649+05:30"},{"city":"Mysore","state":"Karnataka","latitude":12.2958,"longitude":76.6396,"temp":24.7,"humidity":84,"rain":0.0,"pressure":927.5,"uv_index":9.55,"wind_gusts":44.3,"aqi":75,"pm10":29.3,"pm2_5":26.8,"mosquito_risk":3,"arthritis_risk":5,"migraine_risk":7,"frizz_risk":1,"updated_at":"2026-04-16T00:52:43.915655+05:30"},{"city":"Mangalore","state":"Karnataka","latitude":12.9141,"longitude":74.856,"temp":29.7,"humidity":84,"rain":0.0,"pressure":1005.2,"uv_index":8.95,"wind_gusts":22.3,"aqi":69,"pm10":41.7,"pm2_5":26.8,"mosquito_risk":7,"arthritis_risk":5,"migraine_risk":4,"frizz_risk":1,"updated_at":"2026-04-16T00:52:43.915661+05:30"},{"city":"Hubli-Dharwad","state":"Karnataka","latitude":15.3647,"longitude":75.124,"temp":24.3,"humidity":91,"rain":0.0,"pressure":939.2,"uv_index":6.75,"wind_gusts":33.8,"aqi":70,"pm10":30.9,"pm2_5":17.1,"mosquito_risk":3,"arthritis_risk":5,"migraine_risk":7,"frizz_risk":1,"updated_at":"2026-04-16T00:52:43.915668+05:30"},{"city":"Belgaum","state":"Karnataka","latitude":15.8497,"longitude":74.4977,"temp":22.3,"humidity":97,"rain":0.0,"pressure":924.0,"uv_index":9.25,"wind_gusts":37.4,"aqi":72,"pm10":40.7,"pm2_5":22.2,"mosquito_risk":3,"arthritis_risk":5,"migraine_risk":7,"frizz_risk":1,"updated_at":"2026-04-16T00:52:47.133966+05:30"},{"city":"Coimbatore","state":"Tamil Nadu","latitude":11.0168,"longitude":76.9558,"temp":26.1,"humidity":85,"rain":0.0,"pressure":960.8,"uv_index":9.0,"wind_gusts":49.0,"aqi":79,"pm10":33.4,"pm2_5":29.2,"mosquito_risk":7,"arthritis_risk":5,"migraine_risk":7,"frizz_risk":1,"updated_at":"2026-04-16T00:52:47.133996+05:30"},{"city":"Madurai","state":"Tamil Nadu","latitude":9.9252,"longitude":78.1198,"temp":28.0,"humidity":83,"rain":0.0,"pressure":991.7,"uv_index":9.3,"wind_gusts":39.2,"aqi":60,"pm10":18.9,"pm2_5":17.1,"mosquito_risk":7,"arthritis_risk":5,"migraine_risk":7,"frizz_risk":1,"updated_at":"2026-04-16T00:52:47.134006+05:30"},{"city":"Trichy","state":"Tamil Nadu","latitude":10.7905,"longitude":78.7047,"temp":27.7,"humidity":85,"rain":0.0,"pressure":998.4,"uv_index":9.35,"wind_gusts":26.6,"aqi":53,"pm10":17.1,"pm2_5":16.1,"mosquito_risk":7,"arthritis_risk":5,"migraine_risk":7,"frizz_risk":1,"updated_at":"2026-04-16T00:52:47.134014+05:30"},{"city":"Salem","state":"Tamil Nadu","latitude":11.6643,"longitude":78.146,"temp":26.6,"humidity":71,"rain":0.0,"pressure":975.7,"uv_index":9.45,"wind_gusts":21.2,"aqi":67,"pm10":30.6,"pm2_5":27.0,"mosquito_risk":7,"arthritis_risk":5,"migraine_risk":7,"frizz_risk":1,"updated_at":"2026-04-16T00:52:47.134022+05:30"},{"city":"Tirunelveli","state":"Tamil Nadu","latitude":8.7139,"longitude":77.7567,"temp":28.8,"humidity":73,"rain":0.0,"pressure":1001.7,"uv_index":9.15,"wind_gusts":48.6,"aqi":64,"pm10":23.5,"pm2_5":19.1,"mosquito_risk":7,"arthritis_risk":5,"migraine_risk":4,"frizz_risk":1,"updated_at":"2026-04-16T00:52:47.134029+05:30"},{"city":"Vellore","state":"Tamil Nadu","latitude":12.9165,"longitude":79.1325,"temp":26.3,"humidity":87,"rain":0.0,"pressure":983.2,"uv_index":9.4,"wind_gusts":31.3,"aqi":88,"pm10":37.1,"pm2_5":36.1,"mosquito_risk":7,"arthritis_risk":5,"migraine_risk":7,"frizz_risk":1,"updated_at":"2026-04-16T00:52:47.134036+05:30"},{"city":"Erode","state":"Tamil Nadu","latitude":11.341,"longitude":77.7172,"temp":29.4,"humidity":62,"rain":0.0,"pressure":987.5,"uv_index":9.4,"wind_gusts":30.6,"aqi":63,"pm10":20.0,"pm2_5":18.1,"mosquito_risk":7,"arthritis_risk":5,"migraine_risk":7,"frizz_risk":1,"updated_at":"2026-04-16T00:52:47.134043+05:30"},{"city":"Kochi","state":"Kerala","latitude":9.9312,"longitude":76.2673,"temp":29.3,"humidity":80,"rain":0.0,"pressure":1007.4,"uv_index":8.7,"wind_gusts":33.5,"aqi":92,"pm10":53.1,"pm2_5":48.2,"mosquito_risk":7,"arthritis_risk":5,"migraine_risk":4,"frizz_risk":1,"updated_at":"2026-04-16T00:52:47.134050+05:30"},{"city":"Thiruvananthapuram","state":"Kerala","latitude":8.5241,"longitude":76.9366,"temp":28.9,"humidity":82,"rain":0.0,"pressure":1006.8,"uv_index":9.15,"wind_gusts":31.3,"aqi":68,"pm10":25.5,"pm2_5":17.3,"mosquito_risk":7,"arthritis_risk":5,"migraine_risk":4,"frizz_risk":1,"updated_at":"2026-04-16T00:52:47.134057+05:30"},{"city":"Kozhikode","state":"Kerala","latitude":11.2588,"longitude":75.7804,"temp":29.5,"humidity":81,"rain":0.0,"pressure":1006.5,"uv_index":9.15,"wind_gusts":30.6,"aqi":69,"pm10":34.9,"pm2_5":22.1,"mosquito_risk":7,"arthritis_risk":5,"migraine_risk":4,"frizz_risk":1,"updated_at":"2026-04-16T00:52:47.134063+05:30"},{"city":"Thrissur","state":"Kerala","latitude":10.5276,"longitude":76.2144,"temp":29.0,"humidity":83,"rain":0.0,"pressure":1005.7,"uv_index":8.95,"wind_gusts":37.4,"aqi":92,"pm10":54.2,"pm2_5":45.8,"mosquito_risk":7,"arthritis_risk":5,"migraine_risk":4,"frizz_risk":1,"updated_at":"2026-04-16T00:52:47.134071+05:30"},{"city":"Kannur","state":"Kerala","latitude":11.8745,"longitude":75.3704,"temp":29.5,"humidity":82,"rain":0.0,"pressure":1005.9,"uv_index":9.15,"wind_gusts":32.8,"aqi":68,"pm10":32.0,"pm2_5":23.6,"mosquito_risk":7,"arthritis_risk":5,"migraine_risk":4,"frizz_risk":1,"updated_at":"2026-04-16T00:52:47.134078+05:30"},{"city":"Patna","state":"Bihar","latitude":25.5941,"longitude":85.1376,"temp":26.8,"humidity":71,"rain":0.0,"pressure":998.0,"uv_index":8.55,"wind_gusts":35.3,"aqi":113,"pm10":65.4,"pm2_5":38.1,"mosquito_risk":7,"arthritis_risk":5,"migraine_risk":7,"frizz_risk":1,"updated_at":"2026-04-16T00:52:47.134085+05:30"},{"city":"Gaya","state":"Bihar","latitude":24.7914,"longitude":85.0002,"temp":26.0,"humidity":59,"rain":0.0,"pressure":990.3,"uv_index":8.65,"wind_gusts":27.0,"aqi":72,"pm10":57.7,"pm2_5":26.5,"mosquito_risk":4,"arthritis_risk":5,"migraine_risk":7,"frizz_risk":1,"updated_at":"2026-04-16T00:52:47.134091+05:30"},{"city":"Muzaffarpur","state":"Bihar","latitude":26.1209,"longitude":85.3647,"temp":25.1,"humidity":79,"rain":0.0,"pressure":998.3,"uv_index":8.55,"wind_gusts":34.9,"aqi":140,"pm10":60.3,"pm2_5":43.7,"mosquito_risk":7,"arthritis_risk":5,"migraine_risk":7,"frizz_risk":1,"updated_at":"2026-04-16T00:52:47.134098+05:30"},{"city":"Bhagalpur","state":"Bihar","latitude":25.2425,"longitude":87.0117,"temp":25.1,"humidity":89,"rain":0.0,"pressure":999.4,"uv_index":8.55,"wind_gusts":32.4,"aqi":135,"pm10":45.9,"pm2_5":40.3,"mosquito_risk":7,"arthritis_risk":5,"migraine_risk":7,"frizz_risk":1,"updated_at":"2026-04-16T00:52:47.134103+05:30"},{"city":"Ranchi","state":"Jharkhand","latitude":23.3441,"longitude":85.3096,"temp":26.2,"humidity":44,"rain":0.0,"pressure":935.5,"uv_index":9.15,"wind_gusts":43.6,"aqi":118,"pm10":64.7,"pm2_5":42.3,"mosquito_risk":4,"arthritis_risk":5,"migraine_risk":7,"frizz_risk":0,"updated_at":"2026-04-16T00:52:47.134110+05:30"},{"city":"Jamshedpur","state":"Jharkhand","latitude":22.8046,"longitude":86.2029,"temp":27.5,"humidity":81,"rain":0.0,"pressure":987.7,"uv_index":9.0,"wind_gusts":37.1,"aqi":121,"pm10":73.3,"pm2_5":49.0,"mosquito_risk":7,"arthritis_risk":5,"migraine_risk":7,"frizz_risk":1,"updated_at":"2026-04-16T00:52:47.134117+05:30"},{"city":"Dhanbad","state":"Jharkhand","latitude":23.7957,"longitude":86.4304,"temp":28.3,"humidity":80,"rain":0.0,"pressure":976.8,"uv_index":8.95,"wind_gusts":29.9,"aqi":151,"pm10":114.8,"pm2_5":91.0,"mosquito_risk":7,"arthritis_risk":5,"migraine_risk":7,"frizz_risk":1,"updated_at":"2026-04-16T00:52:47.134123+05:30"},{"city":"Bokaro","state":"Jharkhand","latitude":23.6693,"longitude":86.1511,"temp":27.0,"humidity":65,"rain":0.0,"pressure":980.8,"uv_index":8.95,"wind_gusts":32.8,"aqi":128,"pm10":101.7,"pm2_5":74.0,"mosquito_risk":7,"arthritis_risk":5,"migraine_risk":7,"frizz_risk":1,"updated_at":"2026-04-16T00:52:47.134129+05:30"},{"city":"Bhubaneswar","state":"Odisha","latitude":20.2961,"longitude":85.8245,"temp":27.1,"humidity":89,"rain":0.0,"pressure":1000.0,"uv_index":9.1,"wind_gusts":41.0,"aqi":66,"pm10":16.0,"pm2_5":11.8,"mosquito_risk":7,"arthritis_risk":5,"migraine_risk":4,"frizz_risk":1,"updated_at":"2026-04-16T00:52:47.134136+05:30"},{"city":"Cuttack","state":"Odisha","latitude":20.4625,"longitude":85.8828,"temp":27.2,"humidity":88,"rain":0.0,"pressure":1001.8,"uv_index":9.15,"wind_gusts":37.1,"aqi":66,"pm10":16.0,"pm2_5":11.8,"mosquito_risk":7,"arthritis_risk":5,"migraine_risk":4,"frizz_risk":1,"updated_at":"2026-04-16T00:52:47.134142+05:30"},{"city":"Rourkela","state":"Odisha","latitude":22.2604,"longitude":84.8536,"temp":29.2,"humidity":79,"rain":0.0,"pressure":981.3,"uv_index":8.9,"wind_gusts":46.1,"aqi":128,"pm10":57.7,"pm2_5":47.8,"mosquito_risk":7,"arthritis_risk":5,"migraine_risk":7,"frizz_risk":1,"updated_at":"2026-04-16T00:52:47.134148+05:30"},{"city":"Raipur","state":"Chhattisgarh","latitude":21.2514,"longitude":81.6296,"temp":30.0,"humidity":42,"rain":0.0,"pressure":970.5,"uv_index":8.95,"wind_gusts":31.3,"aqi":111,"pm10":34.1,"pm2_5":31.3,"mosquito_risk":4,"arthritis_risk":5,"migraine_risk":7,"frizz_risk":0,"updated_at":"2026-04-16T00:52:47.134155+05:30"},{"city":"Bhilai","state":"Chhattisgarh","latitude":21.1938,"longitude":81.3509,"temp":28.4,"humidity":48,"rain":0.0,"pressure":970.7,"uv_index":8.95,"wind_gusts":30.6,"aqi":109,"pm10":26.3,"pm2_5":23.5,"mosquito_risk":4,"arthritis_risk":5,"migraine_risk":7,"frizz_risk":1,"updated_at":"2026-04-16T00:52:47.134161+05:30"},{"city":"Guwahati","state":"Assam","latitude":26.1158,"longitude":91.7086,"temp":23.6,"humidity":88,"rain":0.0,"pressure":1001.5,"uv_index":8.45,"wind_gusts":24.1,"aqi":121,"pm10":57.3,"pm2_5":47.7,"mosquito_risk":3,"arthritis_risk":5,"migraine_risk":4,"frizz_risk":1,"updated_at":"2026-04-16T00:52:47.134167+05:30"},{"city":"Agartala","state":"Tripura","latitude":23.8315,"longitude":91.2868,"temp":23.5,"humidity":92,"rain":0.0,"pressure":1005.4,"uv_index":8.7,"wind_gusts":29.2,"aqi":100,"pm10":48.2,"pm2_5":42.7,"mosquito_risk":3,"arthritis_risk":5,"migraine_risk":4,"frizz_risk":1,"updated_at":"2026-04-16T00:52:47.134173+05:30"},{"city":"Shillong","state":"Meghalaya","latitude":25.5788,"longitude":91.8933,"temp":13.4,"humidity":94,"rain":0.0,"pressure":854.3,"uv_index":8.1,"wind_gusts":51.8,"aqi":87,"pm10":42.4,"pm2_5":30.0,"mosquito_risk":3,"arthritis_risk":10,"migraine_risk":7,"frizz_risk":0,"updated_at":"2026-04-16T00:52:47.134180+05:30"},{"city":"Imphal","state":"Manipur","latitude":24.817,"longitude":93.9368,"temp":17.5,"humidity":87,"rain":0.0,"pressure":922.9,"uv_index":9.05,"wind_gusts":71.3,"aqi":117,"pm10":50.8,"pm2_5":37.5,"mosquito_risk":3,"arthritis_risk":10,"migraine_risk":7,"frizz_risk":0,"updated_at":"2026-04-16T00:52:47.134188+05:30"},{"city":"Aizawl","state":"Mizoram","latitude":23.7271,"longitude":92.7176,"temp":18.5,"humidity":90,"rain":0.0,"pressure":891.7,"uv_index":8.95,"wind_gusts":40.7,"aqi":116,"pm10":56.8,"pm2_5":41.7,"mosquito_risk":3,"arthritis_risk":10,"migraine_risk":7,"frizz_risk":1,"updated_at":"2026-04-16T00:52:47.134194+05:30"},{"city":"Kohima","state":"Nagaland","latitude":25.6701,"longitude":94.1077,"temp":14.9,"humidity":83,"rain":0.0,"pressure":853.9,"uv_index":8.6,"wind_gusts":56.5,"aqi":101,"pm10":47.3,"pm2_5":28.7,"mosquito_risk":3,"arthritis_risk":10,"migraine_risk":7,"frizz_risk":0,"updated_at":"2026-04-16T00:52:47.134201+05:30"},{"city":"Gangtok","state":"Sikkim","latitude":27.3314,"longitude":88.6138,"temp":14.3,"humidity":96,"rain":0.1,"pressure":836.4,"uv_index":8.8,"wind_gusts":16.9,"aqi":124,"pm10":36.4,"pm2_5":29.4,"mosquito_risk":6,"arthritis_risk":10,"migraine_risk":7,"frizz_risk":0,"updated_at":"2026-04-16T00:52:47.134208+05:30"},{"city":"Siliguri","state":"West Bengal","latitude":26.7271,"longitude":88.3953,"temp":21.3,"humidity":71,"rain":0.0,"pressure":993.5,"uv_index":8.45,"wind_gusts":22.3,"aqi":158,"pm10":106.6,"pm2_5":72.9,"mosquito_risk":3,"arthritis_risk":5,"migraine_risk":7,"frizz_risk":0,"updated_at":"2026-04-16T00:52:50.369785+05:30"},{"city":"Durgapur","state":"West Bengal","latitude":23.5204,"longitude":87.3119,"temp":27.6,"humidity":88,"rain":0.0,"pressure":992.1,"uv_index":8.85,"wind_gusts":30.2,"aqi":134,"pm10":62.6,"pm2_5":53.8,"mosquito_risk":7,"arthritis_risk":5,"migraine_risk":7,"frizz_risk":1,"updated_at":"2026-04-16T00:52:50.369815+05:30"},{"city":"Asansol","state":"West Bengal","latitude":23.6739,"longitude":86.9524,"temp":28.3,"humidity":85,"rain":0.0,"pressure":990.6,"uv_index":8.9,"wind_gusts":32.0,"aqi":122,"pm10":71.7,"pm2_5":57.3,"mosquito_risk":7,"arthritis_risk":5,"migraine_risk":7,"frizz_risk":1,"updated_at":"2026-04-16T00:52:50.369825+05:30"},{"city":"Pondicherry","state":"Puducherry","latitude":11.9139,"longitude":79.8145,"temp":27.3,"humidity":96,"rain":0.0,"pressure":1006.9,"uv_index":9.25,"wind_gusts":31.3,"aqi":39,"pm10":12.4,"pm2_5":9.1,"mosquito_risk":7,"arthritis_risk":5,"migraine_risk":4,"frizz_risk":1,"updated_at":"2026-04-16T00:52:50.369833+05:30"},{"city":"Port Blair","state":"Andaman and Nicobar Islands","latitude":11.6234,"longitude":92.7265,"temp":29.3,"humidity":69,"rain":0.0,"pressure":1005.6,"uv_index":9.2,"wind_gusts":15.8,"aqi":66,"pm10":20.0,"pm2_5":14.1,"mosquito_risk":7,"arthritis_risk":5,"migraine_risk":4,"frizz_risk":1,"updated_at":"2026-04-16T00:52:50.369841+05:30"},{"city":"Haridwar","state":"Uttarakhand","latitude":29.9457,"longitude":78.1642,"temp":21.0,"humidity":63,"rain":0.0,"pressure":971.7,"uv_index":7.15,"wind_gusts":29.9,"aqi":85,"pm10":27.2,"pm2_5":26.3,"mosquito_risk":3,"arthritis_risk":5,"migraine_risk":7,"frizz_risk":0,"updated_at":"2026-04-16T00:52:50.369848+05:30"},{"city":"Rishikesh","state":"Uttarakhand","latitude":30.0869,"longitude":78.2676,"temp":20.7,"humidity":67,"rain":0.0,"pressure":964.9,"uv_index":7.1,"wind_gusts":33.5,"aqi":126,"pm10":20.5,"pm2_5":18.5,"mosquito_risk":3,"arthritis_risk":5,"migraine_risk":7,"frizz_risk":0,"updated_at":"2026-04-16T00:52:50.369856+05:30"},{"city":"Nainital","state":"Uttarakhand","latitude":29.3919,"longitude":79.4542,"temp":20.5,"humidity":35,"rain":0.0,"pressure":805.3,"uv_index":8.1,"wind_gusts":58.3,"aqi":105,"pm10":14.0,"pm2_5":13.2,"mosquito_risk":0,"arthritis_risk":5,"migraine_risk":7,"frizz_risk":0,"updated_at":"2026-04-16T00:52:50.369863+05:30"},{"city":"Mussoorie","state":"Uttarakhand","latitude":30.4599,"longitude":78.0664,"temp":17.4,"humidity":59,"rain":0.0,"pressure":801.7,"uv_index":7.4,"wind_gusts":40.3,"aqi":108,"pm10":27.2,"pm2_5":26.6,"mosquito_risk":0,"arthritis_risk":5,"migraine_risk":7,"frizz_risk":0,"updated_at":"2026-04-16T00:52:50.369871+05:30"},{"city":"Dharamshala","state":"Himachal Pradesh","latitude":32.219,"longitude":76.3234,"temp":21.4,"humidity":44,"rain":0.0,"pressure":868.3,"uv_index":7.35,"wind_gusts":22.0,"aqi":99,"pm10":18.9,"pm2_5":12.2,"mosquito_risk":0,"arthritis_risk":5,"migraine_risk":7,"frizz_risk":0,"updated_at":"2026-04-16T00:52:50.369877+05:30"},{"city":"Dalhousie","state":"Himachal Pradesh","latitude":32.5387,"longitude":75.971,"temp":17.9,"humidity":43,"rain":0.0,"pressure":802.9,"uv_index":7.55,"wind_gusts":21.2,"aqi":81,"pm10":30.9,"pm2_5":27.6,"mosquito_risk":0,"arthritis_risk":5,"migraine_risk":7,"frizz_risk":0,"updated_at":"2026-04-16T00:52:50.369885+05:30"},{"city":"Patiala","state":"Punjab","latitude":30.3398,"longitude":76.3869,"temp":22.3,"humidity":54,"rain":0.0,"pressure":975.7,"uv_index":7.05,"wind_gusts":17.6,"aqi":160,"pm10":66.6,"pm2_5":51.9,"mosquito_risk":0,"arthritis_risk":5,"migraine_risk":7,"frizz_risk":0,"updated_at":"2026-04-16T00:52:50.369892+05:30"},{"city":"Bhatinda","state":"Punjab","latitude":30.211,"longitude":74.9455,"temp":25.2,"humidity":49,"rain":0.0,"pressure":981.1,"uv_index":7.8,"wind_gusts":20.9,"aqi":63,"pm10":32.1,"pm2_5":23.2,"mosquito_risk":4,"arthritis_risk":5,"migraine_risk":7,"frizz_risk":0,"updated_at":"2026-04-16T00:52:50.369899+05:30"},{"city":"Rohtak","state":"Haryana","latitude":28.8955,"longitude":76.6066,"temp":26.0,"humidity":40,"rain":0.0,"pressure":979.0,"uv_index":7.35,"wind_gusts":21.6,"aqi":351,"pm10":579.3,"pm2_5":104.1,"mosquito_risk":4,"arthritis_risk":5,"migraine_risk":7,"frizz_risk":0,"updated_at":"2026-04-16T00:52:50.369906+05:30"},{"city":"Panipat","state":"Haryana","latitude":29.3909,"longitude":76.9635,"temp":25.6,"humidity":39,"rain":0.0,"pressure":977.6,"uv_index":7.2,"wind_gusts":19.4,"aqi":734,"pm10":691.0,"pm2_5":124.3,"mosquito_risk":4,"arthritis_risk":5,"migraine_risk":7,"frizz_risk":0,"updated_at":"2026-04-16T00:52:50.369912+05:30"},{"city":"Mathura","state":"Uttar Pradesh","latitude":27.4924,"longitude":77.6737,"temp":26.0,"humidity":32,"rain":0.0,"pressure":983.7,"uv_index":7.65,"wind_gusts":20.5,"aqi":423,"pm10":458.2,"pm2_5":76.6,"mosquito_risk":4,"arthritis_risk":5,"migraine_risk":7,"frizz_risk":0,"updated_at":"2026-04-16T00:52:50.369919+05:30"},{"city":"Vrindavan","state":"Uttar Pradesh","latitude":27.5823,"longitude":77.7027,"temp":26.4,"humidity":31,"rain":0.0,"pressure":984.1,"uv_index":7.6,"wind_gusts":22.7,"aqi":423,"pm10":458.2,"pm2_5":76.6,"mosquito_risk":4,"arthritis_risk":5,"migraine_risk":7,"frizz_risk":0,"updated_at":"2026-04-16T00:52:50.369925+05:30"},{"city":"Ayodhya","state":"Uttar Pradesh","latitude":26.7922,"longitude":82.1998,"temp":25.3,"humidity":32,"rain":0.0,"pressure":992.2,"uv_index":8.0,"wind_gusts":27.7,"aqi":87,"pm10":120.6,"pm2_5":26.3,"mosquito_risk":4,"arthritis_risk":5,"migraine_risk":7,"frizz_risk":0,"updated_at":"2026-04-16T00:52:50.369931+05:30"},{"city":"Ratlam","state":"Madhya Pradesh","latitude":23.3315,"longitude":75.0367,"temp":27.4,"humidity":51,"rain":0.0,"pressure":952.0,"uv_index":8.4,"wind_gusts":25.9,"aqi":68,"pm10":51.0,"pm2_5":25.4,"mosquito_risk":4,"arthritis_risk":5,"migraine_risk":7,"frizz_risk":1,"updated_at":"2026-04-16T00:52:50.369938+05:30"},{"city":"Sagar","state":"Madhya Pradesh","latitude":23.8388,"longitude":78.7378,"temp":27.9,"humidity":38,"rain":0.0,"pressure":947.4,"uv_index":8.6,"wind_gusts":18.4,"aqi":54,"pm10":26.1,"pm2_5":15.9,"mosquito_risk":4,"arthritis_risk":5,"migraine_risk":7,"frizz_risk":0,"updated_at":"2026-04-16T00:52:50.369945+05:30"},{"city":"Satna","state":"Madhya Pradesh","latitude":24.6005,"longitude":80.8322,"temp":28.6,"humidity":37,"rain":0.0,"pressure":968.5,"uv_index":8.6,"wind_gusts":29.2,"aqi":55,"pm10":75.9,"pm2_5":20.8,"mosquito_risk":4,"arthritis_risk":5,"migraine_risk":7,"frizz_risk":0,"updated_at":"2026-04-16T00:52:50.369951+05:30"},{"city":"Akola","state":"Maharashtra","latitude":20.7002,"longitude":77.0082,"temp":27.6,"humidity":42,"rain":0.0,"pressure":972.5,"uv_index":8.8,"wind_gusts":24.1,"aqi":73,"pm10":31.7,"pm2_5":17.4,"mosquito_risk":4,"arthritis_risk":5,"migraine_risk":7,"frizz_risk":0,"updated_at":"2026-04-16T00:52:50.369958+05:30"},{"city":"Amravati","state":"Maharashtra","latitude":20.9374,"longitude":77.7796,"temp":28.6,"humidity":33,"rain":0.0,"pressure":964.3,"uv_index":8.8,"wind_gusts":21.6,"aqi":65,"pm10":28.5,"pm2_5":16.9,"mosquito_risk":4,"arthritis_risk":5,"migraine_risk":7,"frizz_risk":0,"updated_at":"2026-04-16T00:52:50.369965+05:30"},{"city":"Latur","state":"Maharashtra","latitude":18.4088,"longitude":76.5604,"temp":25.9,"humidity":56,"rain":0.0,"pressure":937.1,"uv_index":9.05,"wind_gusts":23.8,"aqi":79,"pm10":28.7,"pm2_5":24.7,"mosquito_risk":4,"arthritis_risk":5,"migraine_risk":7,"frizz_risk":1,"updated_at":"2026-04-16T00:52:50.369972+05:30"},{"city":"Nanded","state":"Maharashtra","latitude":19.1383,"longitude":77.3091,"temp":27.3,"humidity":53,"rain":0.0,"pressure":965.3,"uv_index":8.95,"wind_gusts":16.6,"aqi":63,"pm10":36.9,"pm2_5":32.4,"mosquito_risk":4,"arthritis_risk":5,"migraine_risk":7,"frizz_risk":1,"updated_at":"2026-04-16T00:52:50.369978+05:30"},{"city":"Gulbarga","state":"Karnataka","latitude":17.3297,"longitude":76.8343,"temp":32.0,"humidity":42,"rain":0.0,"pressure":955.8,"uv_index":9.1,"wind_gusts":27.7,"aqi":113,"pm10":33.6,"pm2_5":30.4,"mosquito_risk":0,"arthritis_risk":5,"migraine_risk":7,"frizz_risk":1,"updated_at":"2026-04-16T00:52:50.369985+05:30"},{"city":"Bidar","state":"Karnataka","latitude":17.9104,"longitude":77.5199,"temp":30.7,"humidity":40,"rain":0.0,"pressure":933.1,"uv_index":9.1,"wind_gusts":31.7,"aqi":102,"pm10":36.3,"pm2_5":30.7,"mosquito_risk":0,"arthritis_risk":5,"migraine_risk":7,"frizz_risk":0,"updated_at":"2026-04-16T00:52:50.369992+05:30"},{"city":"Hospet","state":"Karnataka","latitude":15.2689,"longitude":76.3909,"temp":28.0,"humidity":79,"rain":0.0,"pressure":954.2,"uv_index":9.25,"wind_gusts":28.1,"aqi":85,"pm10":25.8,"pm2_5":22.1,"mosquito_risk":7,"arthritis_risk":5,"migraine_risk":7,"frizz_risk":1,"updated_at":"2026-04-16T00:52:50.369998+05:30"},{"city":"Tirupur","state":"Tamil Nadu","latitude":11.1085,"longitude":77.3411,"temp":27.8,"humidity":78,"rain":0.0,"pressure":973.9,"uv_index":9.35,"wind_gusts":35.6,"aqi":77,"pm10":31.8,"pm2_5":28.4,"mosquito_risk":7,"arthritis_risk":5,"migraine_risk":7,"frizz_risk":1,"updated_at":"2026-04-16T00:52:50.370004+05:30"},{"city":"Alappuzha","state":"Kerala","latitude":9.4981,"longitude":76.3388,"temp":29.2,"humidity":80,"rain":0.0,"pressure":1007.6,"uv_index":8.4,"wind_gusts":29.2,"aqi":90,"pm10":42.4,"pm2_5":31.8,"mosquito_risk":7,"arthritis_risk":5,"migraine_risk":4,"frizz_risk":1,"updated_at":"2026-04-16T00:52:50.370011+05:30"},{"city":"Munnar","state":"Kerala","latitude":10.0889,"longitude":77.0595,"temp":21.7,"humidity":95,"rain":0.0,"pressure":856.2,"uv_index":9.0,"wind_gusts":35.3,"aqi":73,"pm10":39.0,"pm2_5":35.5,"mosquito_risk":3,"arthritis_risk":5,"migraine_risk":7,"frizz_risk":1,"updated_at":"2026-04-16T00:52:50.370018+05:30"},{"city":"Silchar","state":"Assam","latitude":24.8333,"longitude":92.7789,"temp":23.1,"humidity":91,"rain":0.0,"pressure":1005.6,"uv_index":8.7,"wind_gusts":28.1,"aqi":118,"pm10":41.9,"pm2_5":28.4,"mosquito_risk":3,"arthritis_risk":5,"migraine_risk":4,"frizz_risk":1,"updated_at":"2026-04-16T00:52:50.370025+05:30"},{"city":"Dibrugarh","state":"Assam","latitude":27.4728,"longitude":94.912,"temp":20.3,"humidity":92,"rain":0.0,"pressure":996.7,"uv_index":8.55,"wind_gusts":9.7,"aqi":131,"pm10":60.5,"pm2_5":44.2,"mosquito_risk":3,"arthritis_risk":5,"migraine_risk":7,"frizz_risk":1,"updated_at":"2026-04-16T00:52:50.370032+05:30"}]