[{"city":"Delhi","state":"Delhi","latitude":28.6139,"longitude":77.209,"temp":35.1,"humidity":19,"rain":0.0,"pressure":981.2,"uv_index":7.4,"wind_gusts":33.1,"aqi":151,"pm10":353.9,"pm2_5":81.7,"mosquito_risk":0,"arthritis_risk":5,"migraine_risk":10,"frizz_risk":0,"updated_at":"2026-04-24T21:36:19.420652+05:30"},{"city":"Mumbai","state":"Maharashtra","latitude":19.076,"longitude":72.8777,"temp":30.8,"humidity":63,"rain":0.0,"pressure":1006.8,"uv_index":8.05,"wind_gusts":41.0,"aqi":111,"pm10":40.3,"pm2_5":22.6,"mosquito_risk":3,"arthritis_risk":5,"migraine_risk":4,"frizz_risk":1,"updated_at":"2026-04-24T21:36:19.420693+05:30"},{"city":"Bangalore","state":"Karnataka","latitude":12.9716,"longitude":77.5946,"temp":28.5,"humidity":35,"rain":0.0,"pressure":912.7,"uv_index":9.6,"wind_gusts":40.3,"aqi":113,"pm10":20.9,"pm2_5":19.2,"mosquito_risk":4,"arthritis_risk":5,"migraine_risk":7,"frizz_risk":0,"updated_at":"2026-04-24T21:36:19.420709+05:30"},{"city":"Hyderabad","state":"Telangana","latitude":17.385,"longitude":78.4867,"temp":31.5,"humidity":40,"rain":0.0,"pressure":954.1,"uv_index":9.25,"wind_gusts":29.5,"aqi":143,"pm10":40.7,"pm2_5":36.7,"mosquito_risk":0,"arthritis_risk":5,"migraine_risk":7,"frizz_risk":1,"updated_at":"2026-04-24T21:36:19.420719+05:30"},{"city":"Chennai","state":"Tamil Nadu","latitude":13.0827,"longitude":80.2707,"temp":29.6,"humidity":78,"rain":0.0,"pressure":1007.1,"uv_index":9.25,"wind_gusts":51.1,"aqi":28,"pm10":8.7,"pm2_5":6.2,"mosquito_risk":7,"arthritis_risk":5,"migraine_risk":4,"frizz_risk":1,"updated_at":"2026-04-24T21:36:19.420729+05:30"},{"city":"Kolkata","state":"West Bengal","latitude":22.5726,"longitude":88.3639,"temp":28.6,"humidity":82,"rain":0.0,"pressure":1005.8,"uv_index":8.9,"wind_gusts":33.8,"aqi":75,"pm10":25.4,"pm2_5":21.4,"mosquito_risk":7,"arthritis_risk":5,"migraine_risk":4,"frizz_risk":1,"updated_at":"2026-04-24T21:36:19.420741+05:30"},{"city":"Pune","state":"Maharashtra","latitude":18.5204,"longitude":73.8567,"temp":31.1,"humidity":27,"rain":0.0,"pressure":948.0,"uv_index":8.65,"wind_gusts":47.2,"aqi":136,"pm10":39.7,"pm2_5":36.9,"mosquito_risk":0,"arthritis_risk":5,"migraine_risk":7,"frizz_risk":0,"updated_at":"2026-04-24T21:36:19.420748+05:30"},{"city":"Ahmedabad","state":"Gujarat","latitude":23.0225,"longitude":72.5714,"temp":37.2,"humidity":16,"rain":0.0,"pressure":1000.7,"uv_index":8.2,"wind_gusts":30.2,"aqi":52,"pm10":87.1,"pm2_5":40.9,"mosquito_risk":0,"arthritis_risk":5,"migraine_risk":7,"frizz_risk":0,"updated_at":"2026-04-24T21:36:19.420756+05:30"},{"city":"Jaipur","state":"Rajasthan","latitude":26.9124,"longitude":75.7873,"temp":33.3,"humidity":22,"rain":0.0,"pressure":959.6,"uv_index":8.05,"wind_gusts":32.4,"aqi":101,"pm10":207.2,"pm2_5":42.0,"mosquito_risk":0,"arthritis_risk":5,"migraine_risk":7,"frizz_risk":0,"updated_at":"2026-04-24T21:36:19.420783+05:30"},{"city":"Lucknow","state":"Uttar Pradesh","latitude":26.8467,"longitude":80.9462,"temp":35.8,"humidity":17,"rain":0.0,"pressure":991.2,"uv_index":7.9,"wind_gusts":36.7,"aqi":134,"pm10":244.9,"pm2_5":60.5,"mosquito_risk":0,"arthritis_risk":5,"migraine_risk":10,"frizz_risk":0,"updated_at":"2026-04-24T21:36:19.420793+05:30"},{"city":"Kanpur","state":"Uttar Pradesh","latitude":26.4499,"longitude":80.3319,"temp":35.7,"humidity":16,"rain":0.0,"pressure":989.9,"uv_index":7.95,"wind_gusts":31.0,"aqi":134,"pm10":215.6,"pm2_5":47.6,"mosquito_risk":0,"arthritis_risk":5,"migraine_risk":10,"frizz_risk":0,"updated_at":"2026-04-24T21:36:19.420800+05:30"},{"city":"Chandigarh","state":"Chandigarh","latitude":30.7333,"longitude":76.7794,"temp":30.5,"humidity":28,"rain":0.0,"pressure":967.9,"uv_index":7.4,"wind_gusts":44.6,"aqi":106,"pm10":34.8,"pm2_5":22.9,"mosquito_risk":0,"arthritis_risk":5,"migraine_risk":7,"frizz_risk":0,"updated_at":"2026-04-24T21:36:19.420808+05:30"},{"city":"Srinagar","state":"Jammu and Kashmir","latitude":34.0837,"longitude":74.7973,"temp":13.3,"humidity":94,"rain":0.0,"pressure":845.0,"uv_index":8.6,"wind_gusts":38.2,"aqi":78,"pm10":42.0,"pm2_5":23.7,"mosquito_risk":3,"arthritis_risk":10,"migraine_risk":7,"frizz_risk":0,"updated_at":"2026-04-24T21:36:19.420815+05:30"},{"city":"Jammu","state":"Jammu and Kashmir","latitude":32.7266,"longitude":74.857,"temp":30.6,"humidity":29,"rain":0.0,"pressure":972.6,"uv_index":8.15,"wind_gusts":36.4,"aqi":76,"pm10":64.0,"pm2_5":34.3,"mosquito_risk":0,"arthritis_risk":5,"migraine_risk":7,"frizz_risk":0,"updated_at":"2026-04-24T21:36:19.420822+05:30"},{"city":"Amritsar","state":"Punjab","latitude":31.634,"longitude":74.8723,"temp":31.5,"humidity":32,"rain":0.0,"pressure":980.7,"uv_index":8.05,"wind_gusts":42.5,"aqi":95,"pm10":79.9,"pm2_5":32.5,"mosquito_risk":0,"arthritis_risk":5,"migraine_risk":7,"frizz_risk":0,"updated_at":"2026-04-24T21:36:19.420828+05:30"},{"city":"Ludhiana","state":"Punjab","latitude":30.901,"longitude":75.8573,"temp":31.7,"humidity":27,"rain":0.0,"pressure":978.2,"uv_index":7.7,"wind_gusts":38.9,"aqi":87,"pm10":81.3,"pm2_5":27.9,"mosquito_risk":0,"arthritis_risk":5,"migraine_risk":7,"frizz_risk":0,"updated_at":"2026-04-24T21:36:19.420838+05:30"},{"city":"Jalandhar","state":"Punjab","latitude":31.326,"longitude":75.5762,"temp":31.8,"humidity":28,"rain":0.0,"pressure":979.4,"uv_index":7.85,"wind_gusts":33.5,"aqi":96,"pm10":114.3,"pm2_5":31.4,"mosquito_risk":0,"arthritis_risk":5,"migraine_risk":7,"frizz_risk":0,"updated_at":"2026-04-24T21:36:19.420846+05:30"},{"city":"Dehradun","state":"Uttarakhand","latitude":30.6284,"longitude":78.0322,"temp":17.3,"humidity":53,"rain":0.0,"pressure":830.5,"uv_index":7.85,"wind_gusts":40.7,"aqi":105,"pm10":29.6,"pm2_5":19.7,"mosquito_risk":0,"arthritis_risk":5,"migraine_risk":7,"frizz_risk":0,"updated_at":"2026-04-24T21:36:19.420853+05:30"},{"city":"Shimla","state":"Himachal Pradesh","latitude":31.1048,"longitude":77.1734,"temp":16.3,"humidity":45,"rain":0.0,"pressure":786.2,"uv_index":7.9,"wind_gusts":46.4,"aqi":97,"pm10":43.1,"pm2_5":18.5,"mosquito_risk":0,"arthritis_risk":5,"migraine_risk":7,"frizz_risk":0,"updated_at":"2026-04-24T21:36:19.420860+05:30"},{"city":"Manali","state":"Himachal Pradesh","latitude":32.2396,"longitude":77.1887,"temp":11.2,"humidity":69,"rain":0.0,"pressure":817.8,"uv_index":9.95,"wind_gusts":42.1,"aqi":115,"pm10":30.5,"pm2_5":16.7,"mosquito_risk":3,"arthritis_risk":5,"migraine_risk":7,"frizz_risk":0,"updated_at":"2026-04-24T21:36:19.420867+05:30"},{"city":"Gurgaon","state":"Haryana","latitude":28.4595,"longitude":77.0266,"temp":32.4,"humidity":23,"rain":0.0,"pressure":979.7,"uv_index":7.5,"wind_gusts":31.3,"aqi":581,"pm10":540.2,"pm2_5":95.7,"mosquito_risk":0,"arthritis_risk":5,"migraine_risk":7,"frizz_risk":0,"updated_at":"2026-04-24T21:36:19.420873+05:30"},{"city":"Noida","state":"Uttar Pradesh","latitude":28.5355,"longitude":77.391,"temp":34.0,"humidity":21,"rain":0.0,"pressure":982.4,"uv_index":7.45,"wind_gusts":20.5,"aqi":581,"pm10":540.2,"pm2_5":95.7,"mosquito_risk":0,"arthritis_risk":5,"migraine_risk":7,"frizz_risk":0,"updated_at":"2026-04-24T21:36:19.420880+05:30"},{"city":"Ghaziabad","state":"Uttar Pradesh","latitude":28.6692,"longitude":77.4538,"temp":32.6,"humidity":27,"rain":0.0,"pressure":980.9,"uv_index":7.4,"wind_gusts":35.3,"aqi":151,"pm10":317.6,"pm2_5":71.2,"mosquito_risk":0,"arthritis_risk":5,"migraine_risk":7,"frizz_risk":0,"updated_at":"2026-04-24T21:36:19.420886+05:30"},{"city":"Faridabad","state":"Haryana","latitude":28.4089,"longitude":77.3178,"temp":35.7,"humidity":18,"rain":0.0,"pressure":981.8,"uv_index":7.5,"wind_gusts":40.0,"aqi":581,"pm10":540.2,"pm2_5":95.7,"mosquito_risk":0,"arthritis_risk":5,"migraine_risk":10,"frizz_risk":0,"updated_at":"2026-04-24T21:36:19.420892+05:30"},{"city":"Meerut","state":"Uttar Pradesh","latitude":28.9845,"longitude":77.7064,"temp":30.0,"humidity":43,"rain":0.0,"pressure":979.6,"uv_index":7.35,"wind_gusts":27.4,"aqi":151,"pm10":317.6,"pm2_5":71.2,"mosquito_risk":4,"arthritis_risk":5,"migraine_risk":7,"frizz_risk":0,"updated_at":"2026-04-24T21:36:19.420898+05:30"},{"city":"Agra","state":"Uttar Pradesh","latitude":27.1767,"longitude":78.0081,"temp":34.0,"humidity":23,"rain":0.0,"pressure":986.2,"uv_index":7.8,"wind_gusts":30.2,"aqi":433,"pm10":261.7,"pm2_5":96.2,"mosquito_risk":0,"arthritis_risk":5,"migraine_risk":7,"frizz_risk":0,"updated_at":"2026-04-24T21:36:19.420906+05:30"},{"city":"Varanasi","state":"Uttar Pradesh","latitude":25.3176,"longitude":82.9739,"temp":33.7,"humidity":18,"rain":0.0,"pressure":995.6,"uv_index":8.45,"wind_gusts":34.6,"aqi":133,"pm10":63.1,"pm2_5":37.1,"mosquito_risk":0,"arthritis_risk":5,"migraine_risk":7,"frizz_risk":0,"updated_at":"2026-04-24T21:36:19.420913+05:30"},{"city":"Prayagraj","state":"Uttar Pradesh","latitude":25.4358,"longitude":81.8463,"temp":32.5,"humidity":20,"rain":0.0,"pressure":994.1,"uv_index":8.35,"wind_gusts":39.2,"aqi":126,"pm10":32.4,"pm2_5":26.2,"mosquito_risk":0,"arthritis_risk":5,"migraine_risk":7,"frizz_risk":0,"updated_at":"2026-04-24T21:36:19.420919+05:30"},{"city":"Gorakhpur","state":"Uttar Pradesh","latitude":26.7606,"longitude":83.3732,"temp":31.0,"humidity":46,"rain":0.0,"pressure":996.0,"uv_index":8.3,"wind_gusts":31.3,"aqi":142,"pm10":208.2,"pm2_5":82.2,"mosquito_risk":0,"arthritis_risk":5,"migraine_risk":7,"frizz_risk":1,"updated_at":"2026-04-24T21:36:19.420928+05:30"},{"city":"Bareilly","state":"Uttar Pradesh","latitude":28.367,"longitude":79.4304,"temp":32.0,"humidity":28,"rain":0.0,"pressure":985.1,"uv_index":7.65,"wind_gusts":38.2,"aqi":139,"pm10":73.3,"pm2_5":50.3,"mosquito_risk":0,"arthritis_risk":5,"migraine_risk":7,"frizz_risk":0,"updated_at":"2026-04-24T21:36:19.420934+05:30"},{"city":"Aligarh","state":"Uttar Pradesh","latitude":27.8974,"longitude":78.088,"temp":33.0,"humidity":25,"rain":0.0,"pressure":983.8,"uv_index":7.6,"wind_gusts":30.6,"aqi":260,"pm10":348.3,"pm2_5":98.5,"mosquito_risk":0,"arthritis_risk":5,"migraine_risk":7,"frizz_risk":0,"updated_at":"2026-04-24T21:36:19.420940+05:30"},{"city":"Moradabad","state":"Uttar Pradesh","latitude":28.8386,"longitude":78.7733,"temp":31.6,"humidity":31,"rain":0.0,"pressure":981.8,"uv_index":7.5,"wind_gusts":39.6,"aqi":154,"pm10":112.9,"pm2_5":79.2,"mosquito_risk":0,"arthritis_risk":5,"migraine_risk":7,"frizz_risk":0,"updated_at":"2026-04-24T21:36:19.420947+05:30"},{"city":"Saharanpur","state":"Uttar Pradesh","latitude":29.9637,"longitude":77.546,"temp":30.8,"humidity":27,"rain":0.0,"pressure":974.2,"uv_index":7.15,"wind_gusts":30.2,"aqi":108,"pm10":116.9,"pm2_5":53.2,"mosquito_risk":0,"arthritis_risk":5,"migraine_risk":7,"frizz_risk":0,"updated_at":"2026-04-24T21:36:19.420952+05:30"},{"city":"Jhansi","state":"Uttar Pradesh","latitude":25.4484,"longitude":78.5685,"temp":32.1,"humidity":22,"rain":0.0,"pressure":976.6,"uv_index":8.3,"wind_gusts":26.6,"aqi":114,"pm10":33.9,"pm2_5":26.0,"mosquito_risk":0,"arthritis_risk":5,"migraine_risk":7,"frizz_risk":0,"updated_at":"2026-04-24T21:36:22.870940+05:30"},{"city":"Surat","state":"Gujarat","latitude":21.1702,"longitude":72.8311,"temp":30.5,"humidity":55,"rain":0.0,"pressure":1005.8,"uv_index":7.9,"wind_gusts":33.5,"aqi":99,"pm10":41.8,"pm2_5":28.6,"mosquito_risk":0,"arthritis_risk":5,"migraine_risk":4,"frizz_risk":1,"updated_at":"2026-04-24T21:36:22.870974+05:30"},{"city":"Vadodara","state":"Gujarat","latitude":22.3072,"longitude":73.1812,"temp":33.0,"humidity":28,"rain":0.0,"pressure":1003.5,"uv_index":8.15,"wind_gusts":34.2,"aqi":99,"pm10":54.8,"pm2_5":41.8,"mosquito_risk":0,"arthritis_risk":5,"migraine_risk":4,"frizz_risk":0,"updated_at":"2026-04-24T21:36:22.870986+05:30"},{"city":"Rajkot","state":"Gujarat","latitude":22.3039,"longitude":70.8022,"temp":28.5,"humidity":42,"rain":0.0,"pressure":994.1,"uv_index":7.9,"wind_gusts":43.6,"aqi":54,"pm10":25.2,"pm2_5":9.9,"mosquito_risk":4,"arthritis_risk":5,"migraine_risk":7,"frizz_risk":0,"updated_at":"2026-04-24T21:36:22.870995+05:30"},{"city":"Thane","state":"Maharashtra","latitude":19.2183,"longitude":72.9781,"temp":32.2,"humidity":49,"rain":0.0,"pressure":1006.1,"uv_index":7.4,"wind_gusts":37.1,"aqi":111,"pm10":40.3,"pm2_5":22.6,"mosquito_risk":0,"arthritis_risk":5,"migraine_risk":4,"frizz_risk":1,"updated_at":"2026-04-24T21:36:22.871004+05:30"},{"city":"Nagpur","state":"Maharashtra","latitude":21.1458,"longitude":79.0882,"temp":36.8,"humidity":15,"rain":0.0,"pressure":972.3,"uv_index":8.6,"wind_gusts":29.2,"aqi":142,"pm10":56.9,"pm2_5":50.3,"mosquito_risk":0,"arthritis_risk":5,"migraine_risk":10,"frizz_risk":0,"updated_at":"2026-04-24T21:36:22.871012+05:30"},{"city":"Nashik","state":"Maharashtra","latitude":19.9975,"longitude":73.7898,"temp":31.2,"humidity":27,"rain":0.0,"pressure":946.0,"uv_index":8.35,"wind_gusts":34.6,"aqi":135,"pm10":29.1,"pm2_5":21.8,"mosquito_risk":0,"arthritis_risk":5,"migraine_risk":7,"frizz_risk":0,"updated_at":"2026-04-24T21:36:22.871020+05:30"},{"city":"Aurangabad","state":"Maharashtra","latitude":19.8762,"longitude":75.3433,"temp":33.0,"humidity":20,"rain":0.0,"pressure":944.5,"uv_index":9.1,"wind_gusts":43.2,"aqi":121,"pm10":23.7,"pm2_5":20.4,"mosquito_risk":0,"arthritis_risk":5,"migraine_risk":7,"frizz_risk":0,"updated_at":"2026-04-24T21:36:22.871029+05:30"},{"city":"Solapur","state":"Maharashtra","latitude":17.6599,"longitude":75.9064,"temp":32.7,"humidity":29,"rain":0.0,"pressure":957.5,"uv_index":9.0,"wind_gusts":55.4,"aqi":150,"pm10":38.0,"pm2_5":33.5,"mosquito_risk":0,"arthritis_risk":5,"migraine_risk":7,"frizz_risk":0,"updated_at":"2026-04-24T21:36:22.871037+05:30"},{"city":"Kolhapur","state":"Maharashtra","latitude":16.705,"longitude":74.2433,"temp":28.5,"humidity":44,"rain":0.0,"pressure":947.5,"uv_index":9.05,"wind_gusts":37.4,"aqi":149,"pm10":73.6,"pm2_5":66.8,"mosquito_risk":4,"arthritis_risk":5,"migraine_risk":7,"frizz_risk":0,"updated_at":"2026-04-24T21:36:22.871045+05:30"},{"city":"Goa","state":"Goa","latitude":15.2993,"longitude":74.124,"temp":29.8,"humidity":78,"rain":0.0,"pressure":997.4,"uv_index":9.0,"wind_gusts":37.1,"aqi":111,"pm10":38.5,"pm2_5":30.7,"mosquito_risk":7,"arthritis_risk":5,"migraine_risk":7,"frizz_risk":1,"updated_at":"2026-04-24T21:36:22.871053+05:30"},{"city":"Jodhpur","state":"Rajasthan","latitude":26.2389,"longitude":73.0243,"temp":35.2,"humidity":21,"rain":0.0,"pressure":982.2,"uv_index":8.25,"wind_gusts":23.0,"aqi":67,"pm10":123.4,"pm2_5":28.2,"mosquito_risk":0,"arthritis_risk":5,"migraine_risk":10,"frizz_risk":0,"updated_at":"2026-04-24T21:36:22.871061+05:30"},{"city":"Udaipur","state":"Rajasthan","latitude":24.5854,"longitude":73.7125,"temp":31.3,"humidity":21,"rain":0.0,"pressure":946.6,"uv_index":8.8,"wind_gusts":33.5,"aqi":71,"pm10":42.1,"pm2_5":15.7,"mosquito_risk":0,"arthritis_risk":5,"migraine_risk":7,"frizz_risk":0,"updated_at":"2026-04-24T21:36:22.871069+05:30"},{"city":"Kota","state":"Rajasthan","latitude":25.2138,"longitude":75.8648,"temp":33.2,"humidity":21,"rain":0.0,"pressure":977.8,"uv_index":8.3,"wind_gusts":32.0,"aqi":93,"pm10":52.9,"pm2_5":33.3,"mosquito_risk":0,"arthritis_risk":5,"migraine_risk":7,"frizz_risk":0,"updated_at":"2026-04-24T21:36:22.871077+05:30"},{"city":"Bikaner","state":"Rajasthan","latitude":28.0229,"longitude":73.3119,"temp":35.7,"humidity":18,"rain":0.0,"pressure":980.6,"uv_index":8.05,"wind_gusts":26.6,"aqi":58,"pm10":54.4,"pm2_5":18.4,"mosquito_risk":0,"arthritis_risk":5,"migraine_risk":10,"frizz_risk":0,"updated_at":"2026-04-24T21:36:22.871086+05:30"},{"city":"Ajmer","state":"Rajasthan","latitude":26.4499,"longitude":74.6399,"temp":32.8,"humidity":33,"rain":0.0,"pressure":954.8,"uv_index":8.2,"wind_gusts":33.8,"aqi":61,"pm10":72.2,"pm2_5":24.3,"mosquito_risk":0,"arthritis_risk":5,"migraine_risk":7,"frizz_risk":0,"updated_at":"2026-04-24T21:36:22.871094+05:30"},{"city":"Gwalior","state":"Madhya Pradesh","latitude":26.2183,"longitude":78.1828,"temp":33.5,"humidity":19,"rain":0.0,"pressure":982.0,"uv_index":8.05,"wind_gusts":34.2,"aqi":88,"pm10":122.0,"pm2_5":34.9,"mosquito_risk":0,"arthritis_risk":5,"migraine_risk":7,"frizz_risk":0,"updated_at":"2026-04-24T21:36:22.871102+05:30"},{"city":"Indore","state":"Madhya Pradesh","latitude":22.7196,"longitude":75.8577,"temp":32.7,"humidity":15,"rain":0.0,"pressure":948.5,"uv_index":8.65,"wind_gusts":46.8,"aqi":77,"pm10":28.6,"pm2_5":19.7,"mosquito_risk":0,"arthritis_risk":5,"migraine_risk":7,"frizz_risk":0,"updated_at":"2026-04-24T21:36:22.871109+05:30"},{"city":"Bhopal","state":"Madhya Pradesh","latitude":23.2599,"longitude":77.4126,"temp":32.5,"humidity":22,"rain":0.0,"pressure":953.2,"uv_index":8.65,"wind_gusts":38.9,"aqi":64,"pm10":28.5,"pm2_5":17.8,"mosquito_risk":0,"arthritis_risk":5,"migraine_risk":7,"frizz_risk":0,"updated_at":"2026-04-24T21:36:22.871118+05:30"},{"city":"Jabalpur","state":"Madhya Pradesh","latitude":23.1815,"longitude":79.9864,"temp":32.4,"humidity":17,"rain":0.0,"pressure":960.8,"uv_index":8.75,"wind_gusts":36.4,"aqi":109,"pm10":20.9,"pm2_5":15.3,"mosquito_risk":0,"arthritis_risk":5,"migraine_risk":7,"frizz_risk":0,"updated_at":"2026-04-24T21:36:22.871126+05:30"},{"city":"Ujjain","state":"Madhya Pradesh","latitude":23.1765,"longitude":75.7885,"temp":31.7,"humidity":17,"rain":0.0,"pressure":954.1,"uv_index":8.55,"wind_gusts":40.3,"aqi":54,"pm10":36.0,"pm2_5":24.4,"mosquito_risk":0,"arthritis_risk":5,"migraine_risk":7,"frizz_risk":0,"updated_at":"2026-04-24T21:36:22.871134+05:30"},{"city":"Visakhapatnam","state":"Andhra Pradesh","latitude":17.6868,"longitude":83.2185,"temp":28.7,"humidity":84,"rain":0.0,"pressure":1003.5,"uv_index":9.2,"wind_gusts":42.5,"aqi":59,"pm10":15.8,"pm2_5":12.4,"mosquito_risk":7,"arthritis_risk":5,"migraine_risk":4,"frizz_risk":1,"updated_at":"2026-04-24T21:36:22.871143+05:30"},{"city":"Vijayawada","state":"Andhra Pradesh","latitude":16.5062,"longitude":80.648,"temp":29.9,"humidity":69,"rain":0.0,"pressure":1002.6,"uv_index":9.15,"wind_gusts":27.4,"aqi":52,"pm10":14.0,"pm2_5":12.0,"mosquito_risk":7,"arthritis_risk":5,"migraine_risk":4,"frizz_risk":1,"updated_at":"2026-04-24T21:36:22.871151+05:30"},{"city":"Guntur","state":"Andhra Pradesh","latitude":16.3067,"longitude":80.4365,"temp":28.9,"humidity":80,"rain":0.0,"pressure":1004.1,"uv_index":9.25,"wind_gusts":36.0,"aqi":53,"pm10":14.5,"pm2_5":12.5,"mosquito_risk":7,"arthritis_risk":5,"migraine_risk":4,"frizz_risk":1,"updated_at":"2026-04-24T21:36:22.871159+05:30"},{"city":"Nellore","state":"Andhra Pradesh","latitude":14.4426,"longitude":79.9865,"temp":29.0,"humidity":80,"rain":0.0,"pressure":1005.8,"uv_index":9.3,"wind_gusts":40.0,"aqi":45,"pm10":9.4,"pm2_5":7.2,"mosquito_risk":7,"arthritis_risk":5,"migraine_risk":4,"frizz_risk":1,"updated_at":"2026-04-24T21:36:22.871168+05:30"},{"city":"Kurnool","state":"Andhra Pradesh","latitude":15.8281,"longitude":78.0373,"temp":33.9,"humidity":31,"rain":0.0,"pressure":976.7,"uv_index":9.25,"wind_gusts":41.4,"aqi":114,"pm10":31.9,"pm2_5":28.1,"mosquito_risk":0,"arthritis_risk":5,"migraine_risk":7,"frizz_risk":0,"updated_at":"2026-04-24T21:36:22.871177+05:30"},{"city":"Kakinada","state":"Andhra Pradesh","latitude":16.9891,"longitude":82.2475,"temp":29.4,"humidity":75,"rain":0.0,"pressure":1007.1,"uv_index":9.05,"wind_gusts":36.4,"aqi":37,"pm10":11.7,"pm2_5":8.1,"mosquito_risk":7,"arthritis_risk":5,"migraine_risk":4,"frizz_risk":1,"updated_at":"2026-04-24T21:36:22.871185+05:30"},{"city":"Tirupati","state":"Andhra Pradesh","latitude":13.6288,"longitude":79.4192,"temp":30.7,"humidity":54,"rain":0.0,"pressure":991.2,"uv_index":9.35,"wind_gusts":33.8,"aqi":61,"pm10":14.7,"pm2_5":13.7,"mosquito_risk":0,"arthritis_risk":5,"migraine_risk":7,"frizz_risk":1,"updated_at":"2026-04-24T21:36:22.871193+05:30"},{"city":"Warangal","state":"Telangana","latitude":17.9689,"longitude":79.5941,"temp":31.4,"humidity":44,"rain":0.0,"pressure":978.7,"uv_index":9.2,"wind_gusts":34.9,"aqi":165,"pm10":41.2,"pm2_5":38.2,"mosquito_risk":0,"arthritis_risk":5,"migraine_risk":7,"frizz_risk":1,"updated_at":"2026-04-24T21:36:22.871201+05:30"},{"city":"Nizamabad","state":"Telangana","latitude":18.6725,"longitude":78.0941,"temp":32.1,"humidity":29,"rain":0.0,"pressure":964.3,"uv_index":8.8,"wind_gusts":27.7,"aqi":123,"pm10":80.3,"pm2_5":72.9,"mosquito_risk":0,"arthritis_risk":5,"migraine_risk":7,"frizz_risk":0,"updated_at":"2026-04-24T21:36:22.871208+05:30"},{"city":"Mysore","state":"Karnataka","latitude":12.2958,"longitude":76.6396,"temp":28.5,"humidity":39,"rain":0.0,"pressure":928.2,"uv_index":9.5,"wind_gusts":35.3,"aqi":123,"pm10":29.9,"pm2_5":26.4,"mosquito_risk":4,"arthritis_risk":5,"migraine_risk":7,"frizz_risk":0,"updated_at":"2026-04-24T21:36:22.871217+05:30"},{"city":"Mangalore","state":"Karnataka","latitude":12.9141,"longitude":74.856,"temp":29.9,"humidity":77,"rain":0.0,"pressure":1005.9,"uv_index":9.1,"wind_gusts":40.0,"aqi":71,"pm10":26.1,"pm2_5":18.5,"mosquito_risk":7,"arthritis_risk":5,"migraine_risk":4,"frizz_risk":1,"updated_at":"2026-04-24T21:36:22.871224+05:30"},{"city":"Hubli-Dharwad","state":"Karnataka","latitude":15.3647,"longitude":75.124,"temp":28.5,"humidity":45,"rain":0.0,"pressure":940.7,"uv_index":9.2,"wind_gusts":36.0,"aqi":105,"pm10":52.2,"pm2_5":47.7,"mosquito_risk":4,"arthritis_risk":5,"migraine_risk":7,"frizz_risk":0,"updated_at":"2026-04-24T21:36:22.871232+05:30"},{"city":"Belgaum","state":"Karnataka","latitude":15.8497,"longitude":74.4977,"temp":26.1,"humidity":71,"rain":0.0,"pressure":925.6,"uv_index":9.25,"wind_gusts":36.0,"aqi":141,"pm10":68.2,"pm2_5":61.2,"mosquito_risk":7,"arthritis_risk":5,"migraine_risk":7,"frizz_risk":1,"updated_at":"2026-04-24T21:36:26.303711+05:30"},{"city":"Coimbatore","state":"Tamil Nadu","latitude":11.0168,"longitude":76.9558,"temp":29.4,"humidity":60,"rain":0.0,"pressure":961.4,"uv_index":9.4,"wind_gusts":42.1,"aqi":97,"pm10":25.6,"pm2_5":23.4,"mosquito_risk":4,"arthritis_risk":5,"migraine_risk":7,"frizz_risk":1,"updated_at":"2026-04-24T21:36:26.303741+05:30"},{"city":"Madurai","state":"Tamil Nadu","latitude":9.9252,"longitude":78.1198,"temp":29.8,"humidity":67,"rain":0.0,"pressure":993.0,"uv_index":9.3,"wind_gusts":38.5,"aqi":50,"pm10":8.7,"pm2_5":8.2,"mosquito_risk":7,"arthritis_risk":5,"migraine_risk":7,"frizz_risk":1,"updated_at":"2026-04-24T21:36:26.303751+05:30"},{"city":"Trichy","state":"Tamil Nadu","latitude":10.7905,"longitude":78.7047,"temp":29.7,"humidity":59,"rain":0.0,"pressure":999.3,"uv_index":9.3,"wind_gusts":29.5,"aqi":50,"pm10":11.1,"pm2_5":10.9,"mosquito_risk":4,"arthritis_risk":5,"migraine_risk":7,"frizz_risk":1,"updated_at":"2026-04-24T21:36:26.303759+05:30"},{"city":"Salem","state":"Tamil Nadu","latitude":11.6643,"longitude":78.146,"temp":31.8,"humidity":40,"rain":0.0,"pressure":976.8,"uv_index":9.35,"wind_gusts":40.7,"aqi":99,"pm10":20.5,"pm2_5":19.6,"mosquito_risk":0,"arthritis_risk":5,"migraine_risk":7,"frizz_risk":1,"updated_at":"2026-04-24T21:36:26.303807+05:30"},{"city":"Tirunelveli","state":"Tamil Nadu","latitude":8.7139,"longitude":77.7567,"temp":28.4,"humidity":75,"rain":0.0,"pressure":1003.2,"uv_index":9.2,"wind_gusts":41.8,"aqi":83,"pm10":18.9,"pm2_5":17.9,"mosquito_risk":7,"arthritis_risk":5,"migraine_risk":4,"frizz_risk":1,"updated_at":"2026-04-24T21:36:26.303820+05:30"},{"city":"Vellore","state":"Tamil Nadu","latitude":12.9165,"longitude":79.1325,"temp":29.4,"humidity":66,"rain":0.0,"pressure":984.5,"uv_index":9.4,"wind_gusts":36.4,"aqi":70,"pm10":26.7,"pm2_5":26.1,"mosquito_risk":7,"arthritis_risk":5,"migraine_risk":7,"frizz_risk":1,"updated_at":"2026-04-24T21:36:26.303828+05:30"},{"city":"Erode","state":"Tamil Nadu","latitude":11.341,"longitude":77.7172,"temp":33.4,"humidity":33,"rain":0.0,"pressure":988.3,"uv_index":9.35,"wind_gusts":44.3,"aqi":76,"pm10":16.1,"pm2_5":15.0,"mosquito_risk":0,"arthritis_risk":5,"migraine_risk":7,"frizz_risk":0,"updated_at":"2026-04-24T21:36:26.303836+05:30"},{"city":"Kochi","state":"Kerala","latitude":9.9312,"longitude":76.2673,"temp":29.0,"humidity":80,"rain":0.0,"pressure":1008.0,"uv_index":8.5,"wind_gusts":38.2,"aqi":88,"pm10":41.2,"pm2_5":37.8,"mosquito_risk":7,"arthritis_risk":0,"migraine_risk":4,"frizz_risk":1,"updated_at":"2026-04-24T21:36:26.303843+05:30"},{"city":"Thiruvananthapuram","state":"Kerala","latitude":8.5241,"longitude":76.9366,"temp":26.8,"humidity":90,"rain":0.0,"pressure":1008.0,"uv_index":8.9,"wind_gusts":34.9,"aqi":71,"pm10":25.5,"pm2_5":19.8,"mosquito_risk":7,"arthritis_risk":0,"migraine_risk":4,"frizz_risk":1,"updated_at":"2026-04-24T21:36:26.303850+05:30"},{"city":"Kozhikode","state":"Kerala","latitude":11.2588,"longitude":75.7804,"temp":28.7,"humidity":86,"rain":0.0,"pressure":1006.7,"uv_index":9.1,"wind_gusts":36.4,"aqi":81,"pm10":28.4,"pm2_5":21.0,"mosquito_risk":7,"arthritis_risk":5,"migraine_risk":4,"frizz_risk":1,"updated_at":"2026-04-24T21:36:26.303857+05:30"},{"city":"Thrissur","state":"Kerala","latitude":10.5276,"longitude":76.2144,"temp":28.6,"humidity":82,"rain":0.0,"pressure":1006.2,"uv_index":9.15,"wind_gusts":37.4,"aqi":95,"pm10":41.4,"pm2_5":37.6,"mosquito_risk":7,"arthritis_risk":5,"migraine_risk":4,"frizz_risk":1,"updated_at":"2026-04-24T21:36:26.303864+05:30"},{"city":"Kannur","state":"Kerala","latitude":11.8745,"longitude":75.3704,"temp":30.0,"humidity":77,"rain":0.0,"pressure":1006.1,"uv_index":9.1,"wind_gusts":39.6,"aqi":80,"pm10":29.6,"pm2_5":22.1,"mosquito_risk":7,"arthritis_risk":5,"migraine_risk":4,"frizz_risk":1,"updated_at":"2026-04-24T21:36:26.303870+05:30"},{"city":"Patna","state":"Bihar","latitude":25.5941,"longitude":85.1376,"temp":31.2,"humidity":61,"rain":0.0,"pressure":999.8,"uv_index":8.6,"wind_gusts":30.2,"aqi":158,"pm10":105.0,"pm2_5":56.7,"mosquito_risk":3,"arthritis_risk":5,"migraine_risk":7,"frizz_risk":1,"updated_at":"2026-04-24T21:36:26.303877+05:30"},{"city":"Gaya","state":"Bihar","latitude":24.7914,"longitude":85.0002,"temp":32.7,"humidity":24,"rain":0.0,"pressure":992.7,"uv_index":8.7,"wind_gusts":32.4,"aqi":142,"pm10":117.6,"pm2_5":51.7,"mosquito_risk":0,"arthritis_risk":5,"migraine_risk":7,"frizz_risk":0,"updated_at":"2026-04-24T21:36:26.303883+05:30"},{"city":"Muzaffarpur","state":"Bihar","latitude":26.1209,"longitude":85.3647,"temp":29.9,"humidity":68,"rain":0.0,"pressure":999.7,"uv_index":8.6,"wind_gusts":32.4,"aqi":155,"pm10":110.1,"pm2_5":64.0,"mosquito_risk":7,"arthritis_risk":5,"migraine_risk":7,"frizz_risk":1,"updated_at":"2026-04-24T21:36:26.303889+05:30"},{"city":"Bhagalpur","state":"Bihar","latitude":25.2425,"longitude":87.0117,"temp":30.0,"humidity":71,"rain":0.0,"pressure":1001.1,"uv_index":8.65,"wind_gusts":37.8,"aqi":162,"pm10":66.4,"pm2_5":59.8,"mosquito_risk":7,"arthritis_risk":5,"migraine_risk":4,"frizz_risk":1,"updated_at":"2026-04-24T21:36:26.303895+05:30"},{"city":"Ranchi","state":"Jharkhand","latitude":23.3441,"longitude":85.3096,"temp":27.3,"humidity":31,"rain":0.0,"pressure":937.9,"uv_index":9.15,"wind_gusts":31.0,"aqi":118,"pm10":105.9,"pm2_5":40.6,"mosquito_risk":4,"arthritis_risk":5,"migraine_risk":7,"frizz_risk":0,"updated_at":"2026-04-24T21:36:26.303902+05:30"},{"city":"Jamshedpur","state":"Jharkhand","latitude":22.8046,"longitude":86.2029,"temp":30.1,"humidity":74,"rain":0.0,"pressure":990.4,"uv_index":8.65,"wind_gusts":37.8,"aqi":173,"pm10":57.5,"pm2_5":39.2,"mosquito_risk":3,"arthritis_risk":5,"migraine_risk":7,"frizz_risk":1,"updated_at":"2026-04-24T21:36:26.303908+05:30"},{"city":"Dhanbad","state":"Jharkhand","latitude":23.7957,"longitude":86.4304,"temp":32.0,"humidity":48,"rain":0.0,"pressure":979.6,"uv_index":8.95,"wind_gusts":37.8,"aqi":166,"pm10":116.4,"pm2_5":64.5,"mosquito_risk":0,"arthritis_risk":5,"migraine_risk":7,"frizz_risk":1,"updated_at":"2026-04-24T21:36:26.303914+05:30"},{"city":"Bokaro","state":"Jharkhand","latitude":23.6693,"longitude":86.1511,"temp":31.0,"humidity":40,"rain":0.0,"pressure":983.2,"uv_index":8.95,"wind_gusts":22.7,"aqi":162,"pm10":124.8,"pm2_5":59.8,"mosquito_risk":0,"arthritis_risk":5,"migraine_risk":7,"frizz_risk":0,"updated_at":"2026-04-24T21:36:26.303920+05:30"},{"city":"Bhubaneswar","state":"Odisha","latitude":20.2961,"longitude":85.8245,"temp":27.2,"humidity":94,"rain":0.0,"pressure":1002.4,"uv_index":9.1,"wind_gusts":39.2,"aqi":88,"pm10":19.3,"pm2_5":15.3,"mosquito_risk":7,"arthritis_risk":5,"migraine_risk":4,"frizz_risk":1,"updated_at":"2026-04-24T21:36:26.303926+05:30"},{"city":"Cuttack","state":"Odisha","latitude":20.4625,"longitude":85.8828,"temp":27.5,"humidity":93,"rain":0.0,"pressure":1004.2,"uv_index":9.15,"wind_gusts":33.1,"aqi":88,"pm10":19.3,"pm2_5":15.3,"mosquito_risk":7,"arthritis_risk":5,"migraine_risk":4,"frizz_risk":1,"updated_at":"2026-04-24T21:36:26.303932+05:30"},{"city":"Rourkela","state":"Odisha","latitude":22.2604,"longitude":84.8536,"temp":31.8,"humidity":23,"rain":0.0,"pressure":983.9,"uv_index":8.85,"wind_gusts":30.2,"aqi":139,"pm10":136.0,"pm2_5":54.6,"mosquito_risk":0,"arthritis_risk":5,"migraine_risk":7,"frizz_risk":0,"updated_at":"2026-04-24T21:36:26.303938+05:30"},{"city":"Raipur","state":"Chhattisgarh","latitude":21.2514,"longitude":81.6296,"temp":32.5,"humidity":22,"rain":0.0,"pressure":973.3,"uv_index":8.95,"wind_gusts":42.1,"aqi":159,"pm10":58.7,"pm2_5":49.4,"mosquito_risk":0,"arthritis_risk":5,"migraine_risk":7,"frizz_risk":0,"updated_at":"2026-04-24T21:36:26.303944+05:30"},{"city":"Bhilai","state":"Chhattisgarh","latitude":21.1938,"longitude":81.3509,"temp":32.8,"humidity":24,"rain":0.0,"pressure":973.8,"uv_index":8.9,"wind_gusts":42.1,"aqi":126,"pm10":57.7,"pm2_5":52.0,"mosquito_risk":0,"arthritis_risk":5,"migraine_risk":7,"frizz_risk":0,"updated_at":"2026-04-24T21:36:26.303950+05:30"},{"city":"Guwahati","state":"Assam","latitude":26.1158,"longitude":91.7086,"temp":24.9,"humidity":82,"rain":0.0,"pressure":1002.6,"uv_index":8.55,"wind_gusts":23.4,"aqi":151,"pm10":97.8,"pm2_5":75.4,"mosquito_risk":3,"arthritis_risk":5,"migraine_risk":4,"frizz_risk":1,"updated_at":"2026-04-24T21:36:26.303956+05:30"},{"city":"Agartala","state":"Tripura","latitude":23.8315,"longitude":91.2868,"temp":29.1,"humidity":69,"rain":0.0,"pressure":1006.3,"uv_index":8.65,"wind_gusts":26.3,"aqi":124,"pm10":96.4,"pm2_5":72.4,"mosquito_risk":7,"arthritis_risk":5,"migraine_risk":4,"frizz_risk":1,"updated_at":"2026-04-24T21:36:26.303962+05:30"},{"city":"Shillong","state":"Meghalaya","latitude":25.5788,"longitude":91.8933,"temp":18.8,"humidity":84,"rain":0.0,"pressure":859.0,"uv_index":6.3,"wind_gusts":26.6,"aqi":127,"pm10":68.9,"pm2_5":50.1,"mosquito_risk":3,"arthritis_risk":10,"migraine_risk":7,"frizz_risk":0,"updated_at":"2026-04-24T21:36:26.303968+05:30"},{"city":"Imphal","state":"Manipur","latitude":24.817,"longitude":93.9368,"temp":21.1,"humidity":86,"rain":0.0,"pressure":923.7,"uv_index":9.1,"wind_gusts":31.7,"aqi":151,"pm10":112.7,"pm2_5":70.3,"mosquito_risk":3,"arthritis_risk":5,"migraine_risk":7,"frizz_risk":1,"updated_at":"2026-04-24T21:36:26.303976+05:30"},{"city":"Aizawl","state":"Mizoram","latitude":23.7271,"longitude":92.7176,"temp":22.3,"humidity":69,"rain":0.0,"pressure":893.8,"uv_index":8.45,"wind_gusts":28.4,"aqi":117,"pm10":112.9,"pm2_5":49.9,"mosquito_risk":3,"arthritis_risk":5,"migraine_risk":7,"frizz_risk":1,"updated_at":"2026-04-24T21:36:26.303982+05:30"},{"city":"Kohima","state":"Nagaland","latitude":25.6701,"longitude":94.1077,"temp":18.1,"humidity":93,"rain":0.0,"pressure":856.7,"uv_index":8.55,"wind_gusts":35.3,"aqi":140,"pm10":114.1,"pm2_5":65.0,"mosquito_risk":3,"arthritis_risk":10,"migraine_risk":7,"frizz_risk":1,"updated_at":"2026-04-24T21:36:26.303988+05:30"},{"city":"Gangtok","state":"Sikkim","latitude":27.3314,"longitude":88.6138,"temp":15.1,"humidity":82,"rain":0.0,"pressure":837.8,"uv_index":6.7,"wind_gusts":38.5,"aqi":100,"pm10":56.1,"pm2_5":41.3,"mosquito_risk":3,"arthritis_risk":10,"migraine_risk":7,"frizz_risk":0,"updated_at":"2026-04-24T21:36:26.303994+05:30"},{"city":"Siliguri","state":"West Bengal","latitude":26.7271,"longitude":88.3953,"temp":24.4,"humidity":85,"rain":0.0,"pressure":994.0,"uv_index":8.45,"wind_gusts":23.8,"aqi":156,"pm10":114.8,"pm2_5":78.5,"mosquito_risk":3,"arthritis_risk":5,"migraine_risk":7,"frizz_risk":1,"updated_at":"2026-04-24T21:36:29.669961+05:30"},{"city":"Durgapur","state":"West Bengal","latitude":23.5204,"longitude":87.3119,"temp":29.8,"humidity":83,"rain":0.0,"pressure":994.5,"uv_index":8.5,"wind_gusts":31.3,"aqi":163,"pm10":63.3,"pm2_5":48.7,"mosquito_risk":7,"arthritis_risk":5,"migraine_risk":7,"frizz_risk":1,"updated_at":"2026-04-24T21:36:29.669995+05:30"},{"city":"Asansol","state":"West Bengal","latitude":23.6739,"longitude":86.9524,"temp":31.0,"humidity":68,"rain":0.0,"pressure":993.2,"uv_index":8.9,"wind_gusts":35.6,"aqi":154,"pm10":79.4,"pm2_5":48.5,"mosquito_risk":3,"arthritis_risk":5,"migraine_risk":7,"frizz_risk":1,"updated_at":"2026-04-24T21:36:29.670007+05:30"},{"city":"Pondicherry","state":"Puducherry","latitude":11.9139,"longitude":79.8145,"temp":29.5,"humidity":77,"rain":0.0,"pressure":1008.3,"uv_index":9.15,"wind_gusts":40.3,"aqi":25,"pm10":7.0,"pm2_5":4.6,"mosquito_risk":7,"arthritis_risk":0,"migraine_risk":4,"frizz_risk":1,"updated_at":"2026-04-24T21:36:29.670016+05:30"},{"city":"Port Blair","state":"Andaman and Nicobar Islands","latitude":11.6234,"longitude":92.7265,"temp":27.2,"humidity":80,"rain":0.0,"pressure":1008.0,"uv_index":9.15,"wind_gusts":30.6,"aqi":38,"pm10":10.8,"pm2_5":5.9,"mosquito_risk":7,"arthritis_risk":0,"migraine_risk":4,"frizz_risk":1,"updated_at":"2026-04-24T21:36:29.670026+05:30"},{"city":"Haridwar","state":"Uttarakhand","latitude":29.9457,"longitude":78.1642,"temp":24.7,"humidity":60,"rain":0.0,"pressure":971.9,"uv_index":7.25,"wind_gusts":23.8,"aqi":115,"pm10":58.7,"pm2_5":41.0,"mosquito_risk":0,"arthritis_risk":5,"migraine_risk":7,"frizz_risk":1,"updated_at":"2026-04-24T21:36:29.670035+05:30"},{"city":"Rishikesh","state":"Uttarakhand","latitude":30.0869,"longitude":78.2676,"temp":23.0,"humidity":55,"rain":0.0,"pressure":964.5,"uv_index":7.35,"wind_gusts":23.8,"aqi":120,"pm10":37.0,"pm2_5":24.7,"mosquito_risk":0,"arthritis_risk":5,"migraine_risk":7,"frizz_risk":0,"updated_at":"2026-04-24T21:36:29.670043+05:30"},{"city":"Nainital","state":"Uttarakhand","latitude":29.3919,"longitude":79.4542,"temp":17.2,"humidity":51,"rain":0.0,"pressure":806.8,"uv_index":8.2,"wind_gusts":43.9,"aqi":159,"pm10":50.4,"pm2_5":34.6,"mosquito_risk":0,"arthritis_risk":5,"migraine_risk":7,"frizz_risk":0,"updated_at":"2026-04-24T21:36:29.670051+05:30"},{"city":"Mussoorie","state":"Uttarakhand","latitude":30.4599,"longitude":78.0664,"temp":17.5,"humidity":44,"rain":0.0,"pressure":804.3,"uv_index":7.75,"wind_gusts":46.1,"aqi":131,"pm10":54.2,"pm2_5":36.3,"mosquito_risk":0,"arthritis_risk":5,"migraine_risk":7,"frizz_risk":0,"updated_at":"2026-04-24T21:36:29.670058+05:30"},{"city":"Dharamshala","state":"Himachal Pradesh","latitude":32.219,"longitude":76.3234,"temp":22.8,"humidity":38,"rain":0.0,"pressure":870.7,"uv_index":8.05,"wind_gusts":50.4,"aqi":81,"pm10":35.2,"pm2_5":18.1,"mosquito_risk":0,"arthritis_risk":5,"migraine_risk":7,"frizz_risk":0,"updated_at":"2026-04-24T21:36:29.670065+05:30"},{"city":"Dalhousie","state":"Himachal Pradesh","latitude":32.5387,"longitude":75.971,"temp":15.7,"humidity":57,"rain":0.0,"pressure":805.4,"uv_index":8.3,"wind_gusts":37.4,"aqi":82,"pm10":49.0,"pm2_5":25.9,"mosquito_risk":0,"arthritis_risk":5,"migraine_risk":7,"frizz_risk":0,"updated_at":"2026-04-24T21:36:29.670073+05:30"},{"city":"Patiala","state":"Punjab","latitude":30.3398,"longitude":76.3869,"temp":32.8,"humidity":27,"rain":0.0,"pressure":977.1,"uv_index":7.35,"wind_gusts":44.6,"aqi":196,"pm10":810.3,"pm2_5":98.7,"mosquito_risk":0,"arthritis_risk":5,"migraine_risk":7,"frizz_risk":0,"updated_at":"2026-04-24T21:36:29.670080+05:30"},{"city":"Bhatinda","state":"Punjab","latitude":30.211,"longitude":74.9455,"temp":33.5,"humidity":24,"rain":0.0,"pressure":983.3,"uv_index":8.0,"wind_gusts":34.9,"aqi":88,"pm10":98.0,"pm2_5":30.5,"mosquito_risk":0,"arthritis_risk":5,"migraine_risk":7,"frizz_risk":0,"updated_at":"2026-04-24T21:36:29.670087+05:30"},{"city":"Rohtak","state":"Haryana","latitude":28.8955,"longitude":76.6066,"temp":32.5,"humidity":25,"rain":0.0,"pressure":980.2,"uv_index":7.45,"wind_gusts":31.0,"aqi":167,"pm10":371.6,"pm2_5":80.1,"mosquito_risk":0,"arthritis_risk":5,"migraine_risk":7,"frizz_risk":0,"updated_at":"2026-04-24T21:36:29.670093+05:30"},{"city":"Panipat","state":"Haryana","latitude":29.3909,"longitude":76.9635,"temp":31.8,"humidity":28,"rain":0.0,"pressure":978.8,"uv_index":7.3,"wind_gusts":34.2,"aqi":328,"pm10":620.3,"pm2_5":98.5,"mosquito_risk":0,"arthritis_risk":5,"migraine_risk":7,"frizz_risk":0,"updated_at":"2026-04-24T21:36:29.670099+05:30"},{"city":"Mathura","state":"Uttar Pradesh","latitude":27.4924,"longitude":77.6737,"temp":31.9,"humidity":25,"rain":0.0,"pressure":985.1,"uv_index":7.75,"wind_gusts":26.3,"aqi":385,"pm10":384.6,"pm2_5":78.9,"mosquito_risk":0,"arthritis_risk":5,"migraine_risk":7,"frizz_risk":0,"updated_at":"2026-04-24T21:36:29.670105+05:30"},{"city":"Vrindavan","state":"Uttar Pradesh","latitude":27.5823,"longitude":77.7027,"temp":30.8,"humidity":26,"rain":0.0,"pressure":985.4,"uv_index":7.7,"wind_gusts":25.9,"aqi":385,"pm10":384.6,"pm2_5":78.9,"mosquito_risk":0,"arthritis_risk":5,"migraine_risk":7,"frizz_risk":0,"updated_at":"2026-04-24T21:36:29.670111+05:30"},{"city":"Ayodhya","state":"Uttar Pradesh","latitude":26.7922,"longitude":82.1998,"temp":31.6,"humidity":25,"rain":0.0,"pressure":993.6,"uv_index":8.05,"wind_gusts":31.3,"aqi":139,"pm10":151.8,"pm2_5":53.0,"mosquito_risk":0,"arthritis_risk":5,"migraine_risk":7,"frizz_risk":0,"updated_at":"2026-04-24T21:36:29.670117+05:30"},{"city":"Ratlam","state":"Madhya Pradesh","latitude":23.3315,"longitude":75.0367,"temp":29.5,"humidity":22,"rain":0.0,"pressure":954.5,"uv_index":8.5,"wind_gusts":37.4,"aqi":60,"pm10":26.5,"pm2_5":15.1,"mosquito_risk":4,"arthritis_risk":5,"migraine_risk":7,"frizz_risk":0,"updated_at":"2026-04-24T21:36:29.670124+05:30"},{"city":"Sagar","state":"Madhya Pradesh","latitude":23.8388,"longitude":78.7378,"temp":30.3,"humidity":18,"rain":0.0,"pressure":949.8,"uv_index":8.65,"wind_gusts":44.6,"aqi":98,"pm10":20.5,"pm2_5":13.0,"mosquito_risk":0,"arthritis_risk":5,"migraine_risk":7,"frizz_risk":0,"updated_at":"2026-04-24T21:36:29.670130+05:30"},{"city":"Satna","state":"Madhya Pradesh","latitude":24.6005,"longitude":80.8322,"temp":31.6,"humidity":20,"rain":0.0,"pressure":970.4,"uv_index":8.65,"wind_gusts":41.8,"aqi":118,"pm10":29.2,"pm2_5":27.3,"mosquito_risk":0,"arthritis_risk":5,"migraine_risk":7,"frizz_risk":0,"updated_at":"2026-04-24T21:36:29.670137+05:30"},{"city":"Akola","state":"Maharashtra","latitude":20.7002,"longitude":77.0082,"temp":34.2,"humidity":16,"rain":0.0,"pressure":974.0,"uv_index":8.85,"wind_gusts":30.2,"aqi":110,"pm10":32.4,"pm2_5":27.2,"mosquito_risk":0,"arthritis_risk":5,"migraine_risk":7,"frizz_risk":0,"updated_at":"2026-04-24T21:36:29.670144+05:30"},{"city":"Amravati","state":"Maharashtra","latitude":20.9374,"longitude":77.7796,"temp":34.8,"humidity":17,"rain":0.0,"pressure":967.0,"uv_index":8.75,"wind_gusts":29.9,"aqi":113,"pm10":41.0,"pm2_5":33.1,"mosquito_risk":0,"arthritis_risk":5,"migraine_risk":7,"frizz_risk":0,"updated_at":"2026-04-24T21:36:29.670150+05:30"},{"city":"Latur","state":"Maharashtra","latitude":18.4088,"longitude":76.5604,"temp":31.8,"humidity":29,"rain":0.0,"pressure":940.4,"uv_index":8.3,"wind_gusts":29.2,"aqi":154,"pm10":42.6,"pm2_5":38.4,"mosquito_risk":0,"arthritis_risk":5,"migraine_risk":7,"frizz_risk":0,"updated_at":"2026-04-24T21:36:29.670157+05:30"},{"city":"Nanded","state":"Maharashtra","latitude":19.1383,"longitude":77.3091,"temp":33.2,"humidity":24,"rain":0.0,"pressure":967.8,"uv_index":8.1,"wind_gusts":27.7,"aqi":132,"pm10":48.3,"pm2_5":43.5,"mosquito_risk":0,"arthritis_risk":5,"migraine_risk":7,"frizz_risk":0,"updated_at":"2026-04-24T21:36:29.670163+05:30"},{"city":"Gulbarga","state":"Karnataka","latitude":17.3297,"longitude":76.8343,"temp":31.1,"humidity":35,"rain":0.0,"pressure":959.1,"uv_index":8.7,"wind_gusts":65.9,"aqi":143,"pm10":48.0,"pm2_5":40.3,"mosquito_risk":0,"arthritis_risk":5,"migraine_risk":7,"frizz_risk":0,"updated_at":"2026-04-24T21:36:29.670169+05:30"},{"city":"Bidar","state":"Karnataka","latitude":17.9104,"longitude":77.5199,"temp":28.3,"humidity":42,"rain":0.0,"pressure":935.8,"uv_index":8.9,"wind_gusts":43.9,"aqi":132,"pm10":62.6,"pm2_5":55.3,"mosquito_risk":4,"arthritis_risk":5,"migraine_risk":7,"frizz_risk":0,"updated_at":"2026-04-24T21:36:29.670175+05:30"},{"city":"Hospet","state":"Karnataka","latitude":15.2689,"longitude":76.3909,"temp":32.7,"humidity":26,"rain":0.0,"pressure":955.3,"uv_index":9.25,"wind_gusts":27.0,"aqi":142,"pm10":32.5,"pm2_5":28.8,"mosquito_risk":0,"arthritis_risk":5,"migraine_risk":7,"frizz_risk":0,"updated_at":"2026-04-24T21:36:29.670182+05:30"},{"city":"Tirupur","state":"Tamil Nadu","latitude":11.1085,"longitude":77.3411,"temp":33.5,"humidity":31,"rain":0.0,"pressure":974.3,"uv_index":9.4,"wind_gusts":42.5,"aqi":84,"pm10":20.7,"pm2_5":18.9,"mosquito_risk":0,"arthritis_risk":5,"migraine_risk":7,"frizz_risk":0,"updated_at":"2026-04-24T21:36:29.670188+05:30"},{"city":"Alappuzha","state":"Kerala","latitude":9.4981,"longitude":76.3388,"temp":27.5,"humidity":90,"rain":0.0,"pressure":1008.3,"uv_index":9.0,"wind_gusts":36.0,"aqi":81,"pm10":44.1,"pm2_5":38.0,"mosquito_risk":7,"arthritis_risk":0,"migraine_risk":4,"frizz_risk":1,"updated_at":"2026-04-24T21:36:29.670194+05:30"},{"city":"Munnar","state":"Kerala","latitude":10.0889,"longitude":77.0595,"temp":19.2,"humidity":67,"rain":0.0,"pressure":856.8,"uv_index":9.6,"wind_gusts":20.9,"aqi":66,"pm10":26.8,"pm2_5":25.7,"mosquito_risk":3,"arthritis_risk":5,"migraine_risk":7,"frizz_risk":0,"updated_at":"2026-04-24T21:36:29.670201+05:30"},{"city":"Silchar","state":"Assam","latitude":24.8333,"longitude":92.7789,"temp":26.0,"humidity":89,"rain":0.0,"pressure":1005.2,"uv_index":8.75,"wind_gusts":19.8,"aqi":158,"pm10":152.3,"pm2_5":96.4,"mosquito_risk":7,"arthritis_risk":5,"migraine_risk":4,"frizz_risk":1,"updated_at":"2026-04-24T21:36:29.670207+05:30"},{"city":"Dibrugarh","state":"Assam","latitude":27.4728,"longitude":94.912,"temp":26.0,"humidity":82,"rain":0.0,"pressure":996.2,"uv_index":8.65,"wind_gusts":16.6,"aqi":88,"pm10":64.0,"pm2_5":50.3,"mosquito_risk":7,"arthritis_risk":5,"migraine_risk":7,"frizz_risk":1,"updated_at":"2026-04-24T21:36:29.670213+05:30"}]