[{"city":"Delhi","state":"Delhi","latitude":28.6139,"longitude":77.209,"temp":31.3,"humidity":27,"rain":0.0,"pressure":976.9,"uv_index":7.75,"wind_gusts":37.1,"aqi":615,"pm10":553.2,"pm2_5":130.9,"no2":25.4,"co":226.0,"o3":35.0,"so2":11.6,"mosquito_risk":0,"arthritis_risk":5,"migraine_risk":7,"frizz_risk":0,"updated_at":"2026-05-19T05:40:31.444172+05:30"},{"city":"Mumbai","state":"Maharashtra","latitude":19.076,"longitude":72.8777,"temp":28.1,"humidity":84,"rain":0.0,"pressure":1005.1,"uv_index":7.15,"wind_gusts":43.6,"aqi":74,"pm10":53.3,"pm2_5":22.1,"no2":7.3,"co":220.0,"o3":56.0,"so2":5.4,"mosquito_risk":7,"arthritis_risk":5,"migraine_risk":4,"frizz_risk":1,"updated_at":"2026-05-19T05:40:31.444216+05:30"},{"city":"Bangalore","state":"Karnataka","latitude":12.9716,"longitude":77.5946,"temp":21.2,"humidity":96,"rain":0.0,"pressure":909.4,"uv_index":9.3,"wind_gusts":38.9,"aqi":70,"pm10":12.6,"pm2_5":11.7,"no2":10.2,"co":252.0,"o3":60.0,"so2":6.1,"mosquito_risk":3,"arthritis_risk":5,"migraine_risk":7,"frizz_risk":1,"updated_at":"2026-05-19T05:40:31.444231+05:30"},{"city":"Hyderabad","state":"Telangana","latitude":17.385,"longitude":78.4867,"temp":28.0,"humidity":70,"rain":0.0,"pressure":949.9,"uv_index":9.25,"wind_gusts":28.8,"aqi":67,"pm10":28.9,"pm2_5":26.7,"no2":9.9,"co":302.0,"o3":84.0,"so2":8.6,"mosquito_risk":7,"arthritis_risk":5,"migraine_risk":7,"frizz_risk":1,"updated_at":"2026-05-19T05:40:31.444242+05:30"},{"city":"Chennai","state":"Tamil Nadu","latitude":13.0827,"longitude":80.2707,"temp":28.6,"humidity":78,"rain":0.0,"pressure":1003.2,"uv_index":9.15,"wind_gusts":42.5,"aqi":57,"pm10":18.5,"pm2_5":15.7,"no2":15.3,"co":314.0,"o3":58.0,"so2":15.9,"mosquito_risk":7,"arthritis_risk":5,"migraine_risk":4,"frizz_risk":1,"updated_at":"2026-05-19T05:40:31.444251+05:30"},{"city":"Kolkata","state":"West Bengal","latitude":22.5726,"longitude":88.3639,"temp":28.8,"humidity":92,"rain":0.0,"pressure":1001.1,"uv_index":8.95,"wind_gusts":33.8,"aqi":72,"pm10":18.6,"pm2_5":15.4,"no2":7.6,"co":245.0,"o3":64.0,"so2":6.6,"mosquito_risk":7,"arthritis_risk":5,"migraine_risk":4,"frizz_risk":1,"updated_at":"2026-05-19T05:40:31.444260+05:30"},{"city":"Pune","state":"Maharashtra","latitude":18.5204,"longitude":73.8567,"temp":24.6,"humidity":78,"rain":0.0,"pressure":944.9,"uv_index":6.3,"wind_gusts":41.8,"aqi":76,"pm10":35.2,"pm2_5":21.3,"no2":12.5,"co":185.0,"o3":51.0,"so2":13.4,"mosquito_risk":3,"arthritis_risk":5,"migraine_risk":7,"frizz_risk":1,"updated_at":"2026-05-19T05:40:31.444267+05:30"},{"city":"Ahmedabad","state":"Gujarat","latitude":23.0225,"longitude":72.5714,"temp":29.4,"humidity":44,"rain":0.0,"pressure":997.8,"uv_index":8.15,"wind_gusts":33.5,"aqi":67,"pm10":37.0,"pm2_5":16.8,"no2":5.2,"co":158.0,"o3":47.0,"so2":4.1,"mosquito_risk":4,"arthritis_risk":5,"migraine_risk":7,"frizz_risk":0,"updated_at":"2026-05-19T05:40:31.444275+05:30"},{"city":"Jaipur","state":"Rajasthan","latitude":26.9124,"longitude":75.7873,"temp":31.8,"humidity":20,"rain":0.0,"pressure":955.3,"uv_index":8.25,"wind_gusts":37.4,"aqi":183,"pm10":409.8,"pm2_5":74.5,"no2":4.4,"co":163.0,"o3":73.0,"so2":4.1,"mosquito_risk":0,"arthritis_risk":5,"migraine_risk":7,"frizz_risk":0,"updated_at":"2026-05-19T05:40:31.444287+05:30"},{"city":"Lucknow","state":"Uttar Pradesh","latitude":26.8467,"longitude":80.9462,"temp":30.0,"humidity":53,"rain":0.0,"pressure":987.5,"uv_index":8.25,"wind_gusts":34.9,"aqi":183,"pm10":204.9,"pm2_5":90.1,"no2":48.1,"co":423.0,"o3":21.0,"so2":16.7,"mosquito_risk":4,"arthritis_risk":5,"migraine_risk":7,"frizz_risk":1,"updated_at":"2026-05-19T05:40:31.444294+05:30"},{"city":"Kanpur","state":"Uttar Pradesh","latitude":26.4499,"longitude":80.3319,"temp":31.7,"humidity":37,"rain":0.0,"pressure":985.2,"uv_index":8.25,"wind_gusts":40.7,"aqi":428,"pm10":508.5,"pm2_5":109.7,"no2":44.5,"co":341.0,"o3":19.0,"so2":12.4,"mosquito_risk":0,"arthritis_risk":5,"migraine_risk":7,"frizz_risk":0,"updated_at":"2026-05-19T05:40:31.444302+05:30"},{"city":"Chandigarh","state":"Chandigarh","latitude":30.7333,"longitude":76.7794,"temp":30.8,"humidity":36,"rain":0.0,"pressure":961.3,"uv_index":7.75,"wind_gusts":27.7,"aqi":60,"pm10":21.5,"pm2_5":19.0,"no2":17.2,"co":305.0,"o3":60.0,"so2":7.7,"mosquito_risk":0,"arthritis_risk":5,"migraine_risk":7,"frizz_risk":0,"updated_at":"2026-05-19T05:40:31.444309+05:30"},{"city":"Srinagar","state":"Jammu and Kashmir","latitude":34.0837,"longitude":74.7973,"temp":12.8,"humidity":87,"rain":0.0,"pressure":836.9,"uv_index":8.95,"wind_gusts":41.4,"aqi":72,"pm10":41.6,"pm2_5":30.7,"no2":21.1,"co":248.0,"o3":7.0,"so2":1.0,"mosquito_risk":3,"arthritis_risk":10,"migraine_risk":7,"frizz_risk":0,"updated_at":"2026-05-19T05:40:31.444317+05:30"},{"city":"Jammu","state":"Jammu and Kashmir","latitude":32.7266,"longitude":74.857,"temp":25.5,"humidity":52,"rain":0.0,"pressure":964.9,"uv_index":8.55,"wind_gusts":30.2,"aqi":67,"pm10":21.5,"pm2_5":17.9,"no2":15.8,"co":313.0,"o3":36.0,"so2":2.7,"mosquito_risk":4,"arthritis_risk":5,"migraine_risk":7,"frizz_risk":0,"updated_at":"2026-05-19T05:40:31.444324+05:30"},{"city":"Amritsar","state":"Punjab","latitude":31.634,"longitude":74.8723,"temp":27.6,"humidity":64,"rain":0.0,"pressure":973.1,"uv_index":8.45,"wind_gusts":24.8,"aqi":94,"pm10":65.7,"pm2_5":54.2,"no2":32.0,"co":728.0,"o3":35.0,"so2":11.5,"mosquito_risk":7,"arthritis_risk":5,"migraine_risk":7,"frizz_risk":1,"updated_at":"2026-05-19T05:40:31.444331+05:30"},{"city":"Ludhiana","state":"Punjab","latitude":30.901,"longitude":75.8573,"temp":28.4,"humidity":60,"rain":0.0,"pressure":971.1,"uv_index":8.05,"wind_gusts":29.2,"aqi":90,"pm10":54.5,"pm2_5":46.2,"no2":24.7,"co":635.0,"o3":37.0,"so2":9.3,"mosquito_risk":4,"arthritis_risk":5,"migraine_risk":7,"frizz_risk":1,"updated_at":"2026-05-19T05:40:31.444338+05:30"},{"city":"Jalandhar","state":"Punjab","latitude":31.326,"longitude":75.5762,"temp":28.1,"humidity":55,"rain":0.0,"pressure":972.0,"uv_index":8.25,"wind_gusts":24.1,"aqi":108,"pm10":68.9,"pm2_5":49.7,"no2":26.6,"co":979.0,"o3":47.0,"so2":8.8,"mosquito_risk":4,"arthritis_risk":5,"migraine_risk":7,"frizz_risk":1,"updated_at":"2026-05-19T05:40:31.444344+05:30"},{"city":"Dehradun","state":"Uttarakhand","latitude":30.6284,"longitude":78.0322,"temp":12.8,"humidity":89,"rain":0.0,"pressure":823.5,"uv_index":8.2,"wind_gusts":43.2,"aqi":37,"pm10":11.3,"pm2_5":10.0,"no2":20.9,"co":272.0,"o3":11.0,"so2":0.2,"mosquito_risk":3,"arthritis_risk":10,"migraine_risk":7,"frizz_risk":0,"updated_at":"2026-05-19T05:40:31.444352+05:30"},{"city":"Shimla","state":"Himachal Pradesh","latitude":31.1048,"longitude":77.1734,"temp":15.0,"humidity":54,"rain":0.0,"pressure":780.6,"uv_index":8.3,"wind_gusts":46.1,"aqi":47,"pm10":19.3,"pm2_5":16.0,"no2":18.5,"co":203.0,"o3":80.0,"so2":2.5,"mosquito_risk":0,"arthritis_risk":5,"migraine_risk":7,"frizz_risk":0,"updated_at":"2026-05-19T05:40:31.444360+05:30"},{"city":"Manali","state":"Himachal Pradesh","latitude":32.2396,"longitude":77.1887,"temp":10.1,"humidity":38,"rain":0.0,"pressure":811.6,"uv_index":9.65,"wind_gusts":47.5,"aqi":40,"pm10":10.7,"pm2_5":5.5,"no2":39.0,"co":189.0,"o3":60.0,"so2":0.0,"mosquito_risk":0,"arthritis_risk":5,"migraine_risk":7,"frizz_risk":1,"updated_at":"2026-05-19T05:40:31.444367+05:30"},{"city":"Gurgaon","state":"Haryana","latitude":28.4595,"longitude":77.0266,"temp":30.1,"humidity":27,"rain":0.0,"pressure":975.4,"uv_index":7.85,"wind_gusts":34.2,"aqi":1359,"pm10":1896.2,"pm2_5":273.8,"no2":15.8,"co":224.0,"o3":47.0,"so2":9.1,"mosquito_risk":0,"arthritis_risk":5,"migraine_risk":7,"frizz_risk":0,"updated_at":"2026-05-19T05:40:31.444377+05:30"},{"city":"Noida","state":"Uttar Pradesh","latitude":28.5355,"longitude":77.391,"temp":29.4,"humidity":33,"rain":0.0,"pressure":977.9,"uv_index":7.75,"wind_gusts":31.3,"aqi":1359,"pm10":1896.2,"pm2_5":273.8,"no2":15.8,"co":225.0,"o3":47.0,"so2":9.1,"mosquito_risk":4,"arthritis_risk":5,"migraine_risk":7,"frizz_risk":0,"updated_at":"2026-05-19T05:40:31.444384+05:30"},{"city":"Ghaziabad","state":"Uttar Pradesh","latitude":28.6692,"longitude":77.4538,"temp":30.5,"humidity":31,"rain":0.0,"pressure":976.1,"uv_index":7.75,"wind_gusts":36.0,"aqi":519,"pm10":553.2,"pm2_5":161.1,"no2":28.9,"co":266.0,"o3":30.0,"so2":13.7,"mosquito_risk":0,"arthritis_risk":5,"migraine_risk":7,"frizz_risk":0,"updated_at":"2026-05-19T05:40:31.444391+05:30"},{"city":"Faridabad","state":"Haryana","latitude":28.4089,"longitude":77.3178,"temp":31.8,"humidity":25,"rain":0.0,"pressure":977.5,"uv_index":7.8,"wind_gusts":40.0,"aqi":1359,"pm10":1896.2,"pm2_5":273.8,"no2":15.8,"co":221.0,"o3":47.0,"so2":9.1,"mosquito_risk":0,"arthritis_risk":5,"migraine_risk":7,"frizz_risk":0,"updated_at":"2026-05-19T05:40:31.444397+05:30"},{"city":"Meerut","state":"Uttar Pradesh","latitude":28.9845,"longitude":77.7064,"temp":28.8,"humidity":38,"rain":0.0,"pressure":975.2,"uv_index":7.65,"wind_gusts":27.0,"aqi":519,"pm10":553.2,"pm2_5":161.1,"no2":28.9,"co":307.0,"o3":30.0,"so2":13.7,"mosquito_risk":4,"arthritis_risk":5,"migraine_risk":7,"frizz_risk":0,"updated_at":"2026-05-19T05:40:31.444403+05:30"},{"city":"Agra","state":"Uttar Pradesh","latitude":27.1767,"longitude":78.0081,"temp":32.0,"humidity":27,"rain":0.0,"pressure":981.5,"uv_index":8.1,"wind_gusts":41.8,"aqi":667,"pm10":640.7,"pm2_5":91.5,"no2":16.2,"co":200.0,"o3":37.0,"so2":6.0,"mosquito_risk":0,"arthritis_risk":5,"migraine_risk":7,"frizz_risk":0,"updated_at":"2026-05-19T05:40:31.444410+05:30"},{"city":"Varanasi","state":"Uttar Pradesh","latitude":25.3176,"longitude":82.9739,"temp":30.0,"humidity":61,"rain":0.0,"pressure":991.6,"uv_index":8.7,"wind_gusts":32.0,"aqi":112,"pm10":75.9,"pm2_5":46.1,"no2":20.3,"co":1034.0,"o3":70.0,"so2":15.4,"mosquito_risk":7,"arthritis_risk":5,"migraine_risk":7,"frizz_risk":1,"updated_at":"2026-05-19T05:40:31.444417+05:30"},{"city":"Prayagraj","state":"Uttar Pradesh","latitude":25.4358,"longitude":81.8463,"temp":30.8,"humidity":47,"rain":0.0,"pressure":989.6,"uv_index":8.6,"wind_gusts":36.4,"aqi":140,"pm10":96.4,"pm2_5":60.1,"no2":28.8,"co":319.0,"o3":49.0,"so2":16.3,"mosquito_risk":0,"arthritis_risk":5,"migraine_risk":7,"frizz_risk":1,"updated_at":"2026-05-19T05:40:31.444424+05:30"},{"city":"Gorakhpur","state":"Uttar Pradesh","latitude":26.7606,"longitude":83.3732,"temp":27.6,"humidity":80,"rain":0.0,"pressure":993.2,"uv_index":8.6,"wind_gusts":36.7,"aqi":160,"pm10":70.1,"pm2_5":59.0,"no2":10.4,"co":565.0,"o3":92.0,"so2":13.2,"mosquito_risk":7,"arthritis_risk":5,"migraine_risk":7,"frizz_risk":1,"updated_at":"2026-05-19T05:40:31.444432+05:30"},{"city":"Bareilly","state":"Uttar Pradesh","latitude":28.367,"longitude":79.4304,"temp":27.0,"humidity":68,"rain":0.0,"pressure":980.5,"uv_index":8.05,"wind_gusts":28.4,"aqi":151,"pm10":52.5,"pm2_5":40.7,"no2":24.3,"co":714.0,"o3":57.0,"so2":8.7,"mosquito_risk":7,"arthritis_risk":5,"migraine_risk":7,"frizz_risk":1,"updated_at":"2026-05-19T05:40:31.444439+05:30"},{"city":"Aligarh","state":"Uttar Pradesh","latitude":27.8974,"longitude":78.088,"temp":29.9,"humidity":32,"rain":0.0,"pressure":979.2,"uv_index":7.9,"wind_gusts":36.4,"aqi":796,"pm10":769.3,"pm2_5":172.3,"no2":22.7,"co":244.0,"o3":32.0,"so2":10.1,"mosquito_risk":4,"arthritis_risk":5,"migraine_risk":7,"frizz_risk":0,"updated_at":"2026-05-19T05:40:31.444446+05:30"},{"city":"Moradabad","state":"Uttar Pradesh","latitude":28.8386,"longitude":78.7733,"temp":27.3,"humidity":68,"rain":0.0,"pressure":977.2,"uv_index":7.85,"wind_gusts":26.3,"aqi":168,"pm10":135.5,"pm2_5":82.9,"no2":65.6,"co":945.0,"o3":15.0,"so2":17.9,"mosquito_risk":7,"arthritis_risk":5,"migraine_risk":7,"frizz_risk":1,"updated_at":"2026-05-19T05:40:31.444452+05:30"},{"city":"Saharanpur","state":"Uttar Pradesh","latitude":29.9637,"longitude":77.546,"temp":28.2,"humidity":48,"rain":0.0,"pressure":968.4,"uv_index":7.4,"wind_gusts":25.2,"aqi":98,"pm10":60.8,"pm2_5":45.3,"no2":42.1,"co":386.0,"o3":14.0,"so2":9.4,"mosquito_risk":4,"arthritis_risk":5,"migraine_risk":7,"frizz_risk":1,"updated_at":"2026-05-19T05:40:31.444458+05:30"},{"city":"Jhansi","state":"Uttar Pradesh","latitude":25.4484,"longitude":78.5685,"temp":31.0,"humidity":41,"rain":0.0,"pressure":971.8,"uv_index":8.5,"wind_gusts":29.9,"aqi":65,"pm10":46.9,"pm2_5":17.7,"no2":6.3,"co":166.0,"o3":49.0,"so2":2.3,"mosquito_risk":0,"arthritis_risk":5,"migraine_risk":7,"frizz_risk":1,"updated_at":"2026-05-19T05:40:34.696355+05:30"},{"city":"Surat","state":"Gujarat","latitude":21.1702,"longitude":72.8311,"temp":27.5,"humidity":77,"rain":0.0,"pressure":1002.5,"uv_index":7.75,"wind_gusts":40.3,"aqi":98,"pm10":53.8,"pm2_5":34.8,"no2":32.8,"co":321.0,"o3":24.0,"so2":41.4,"mosquito_risk":7,"arthritis_risk":5,"migraine_risk":4,"frizz_risk":1,"updated_at":"2026-05-19T05:40:34.696387+05:30"},{"city":"Vadodara","state":"Gujarat","latitude":22.3072,"longitude":73.1812,"temp":29.6,"humidity":39,"rain":0.0,"pressure":1000.1,"uv_index":7.65,"wind_gusts":44.3,"aqi":79,"pm10":36.8,"pm2_5":23.4,"no2":11.4,"co":202.0,"o3":40.0,"so2":7.3,"mosquito_risk":4,"arthritis_risk":5,"migraine_risk":4,"frizz_risk":0,"updated_at":"2026-05-19T05:40:34.696397+05:30"},{"city":"Rajkot","state":"Gujarat","latitude":22.3039,"longitude":70.8022,"temp":25.5,"humidity":90,"rain":0.0,"pressure":990.8,"uv_index":7.7,"wind_gusts":43.2,"aqi":69,"pm10":27.8,"pm2_5":10.8,"no2":5.2,"co":115.0,"o3":42.0,"so2":4.8,"mosquito_risk":7,"arthritis_risk":5,"migraine_risk":7,"frizz_risk":1,"updated_at":"2026-05-19T05:40:34.696406+05:30"},{"city":"Thane","state":"Maharashtra","latitude":19.2183,"longitude":72.9781,"temp":27.9,"humidity":87,"rain":0.0,"pressure":1004.4,"uv_index":7.2,"wind_gusts":39.6,"aqi":74,"pm10":53.3,"pm2_5":22.1,"no2":7.3,"co":216.0,"o3":56.0,"so2":5.4,"mosquito_risk":7,"arthritis_risk":5,"migraine_risk":4,"frizz_risk":1,"updated_at":"2026-05-19T05:40:34.696414+05:30"},{"city":"Nagpur","state":"Maharashtra","latitude":21.1458,"longitude":79.0882,"temp":32.5,"humidity":45,"rain":0.0,"pressure":968.9,"uv_index":8.5,"wind_gusts":40.7,"aqi":76,"pm10":24.3,"pm2_5":21.9,"no2":12.7,"co":311.0,"o3":84.0,"so2":17.4,"mosquito_risk":0,"arthritis_risk":5,"migraine_risk":7,"frizz_risk":1,"updated_at":"2026-05-19T05:40:34.696422+05:30"},{"city":"Nashik","state":"Maharashtra","latitude":19.9975,"longitude":73.7898,"temp":25.1,"humidity":56,"rain":0.0,"pressure":941.8,"uv_index":8.15,"wind_gusts":37.8,"aqi":69,"pm10":44.2,"pm2_5":22.1,"no2":7.1,"co":143.0,"o3":60.0,"so2":4.1,"mosquito_risk":4,"arthritis_risk":5,"migraine_risk":7,"frizz_risk":0,"updated_at":"2026-05-19T05:40:34.696429+05:30"},{"city":"Aurangabad","state":"Maharashtra","latitude":19.8762,"longitude":75.3433,"temp":28.6,"humidity":39,"rain":0.0,"pressure":941.0,"uv_index":9.05,"wind_gusts":36.7,"aqi":67,"pm10":40.2,"pm2_5":24.2,"no2":11.7,"co":177.0,"o3":75.0,"so2":7.9,"mosquito_risk":4,"arthritis_risk":5,"migraine_risk":7,"frizz_risk":0,"updated_at":"2026-05-19T05:40:34.696436+05:30"},{"city":"Solapur","state":"Maharashtra","latitude":17.6599,"longitude":75.9064,"temp":29.5,"humidity":65,"rain":0.0,"pressure":953.4,"uv_index":8.45,"wind_gusts":41.8,"aqi":77,"pm10":23.6,"pm2_5":17.1,"no2":9.2,"co":182.0,"o3":50.0,"so2":4.1,"mosquito_risk":7,"arthritis_risk":5,"migraine_risk":7,"frizz_risk":1,"updated_at":"2026-05-19T05:40:34.696444+05:30"},{"city":"Kolhapur","state":"Maharashtra","latitude":16.705,"longitude":74.2433,"temp":24.8,"humidity":87,"rain":0.0,"pressure":945.5,"uv_index":8.35,"wind_gusts":43.9,"aqi":60,"pm10":32.9,"pm2_5":17.5,"no2":4.7,"co":137.0,"o3":62.0,"so2":3.0,"mosquito_risk":3,"arthritis_risk":5,"migraine_risk":7,"frizz_risk":1,"updated_at":"2026-05-19T05:40:34.696452+05:30"},{"city":"Goa","state":"Goa","latitude":15.2993,"longitude":74.124,"temp":27.9,"humidity":88,"rain":0.0,"pressure":995.2,"uv_index":2.4,"wind_gusts":27.0,"aqi":68,"pm10":55.2,"pm2_5":23.6,"no2":4.4,"co":408.0,"o3":52.0,"so2":2.3,"mosquito_risk":7,"arthritis_risk":5,"migraine_risk":3,"frizz_risk":1,"updated_at":"2026-05-19T05:40:34.696459+05:30"},{"city":"Jodhpur","state":"Rajasthan","latitude":26.2389,"longitude":73.0243,"temp":29.3,"humidity":31,"rain":0.0,"pressure":978.4,"uv_index":8.45,"wind_gusts":39.6,"aqi":135,"pm10":202.6,"pm2_5":47.6,"no2":4.1,"co":139.0,"o3":57.0,"so2":3.6,"mosquito_risk":4,"arthritis_risk":5,"migraine_risk":7,"frizz_risk":0,"updated_at":"2026-05-19T05:40:34.696466+05:30"},{"city":"Udaipur","state":"Rajasthan","latitude":24.5854,"longitude":73.7125,"temp":29.0,"humidity":28,"rain":0.0,"pressure":942.1,"uv_index":8.85,"wind_gusts":41.0,"aqi":53,"pm10":33.9,"pm2_5":14.4,"no2":3.4,"co":133.0,"o3":65.0,"so2":3.6,"mosquito_risk":4,"arthritis_risk":5,"migraine_risk":7,"frizz_risk":0,"updated_at":"2026-05-19T05:40:34.696474+05:30"},{"city":"Kota","state":"Rajasthan","latitude":25.2138,"longitude":75.8648,"temp":32.5,"humidity":21,"rain":0.0,"pressure":973.7,"uv_index":8.4,"wind_gusts":32.4,"aqi":76,"pm10":18.7,"pm2_5":10.3,"no2":4.2,"co":180.0,"o3":67.0,"so2":3.3,"mosquito_risk":0,"arthritis_risk":5,"migraine_risk":7,"frizz_risk":0,"updated_at":"2026-05-19T05:40:34.696481+05:30"},{"city":"Bikaner","state":"Rajasthan","latitude":28.0229,"longitude":73.3119,"temp":30.2,"humidity":23,"rain":0.0,"pressure":976.4,"uv_index":8.4,"wind_gusts":36.0,"aqi":103,"pm10":209.1,"pm2_5":81.7,"no2":1.6,"co":129.0,"o3":82.0,"so2":2.1,"mosquito_risk":0,"arthritis_risk":5,"migraine_risk":7,"frizz_risk":0,"updated_at":"2026-05-19T05:40:34.696489+05:30"},{"city":"Ajmer","state":"Rajasthan","latitude":26.4499,"longitude":74.6399,"temp":28.9,"humidity":27,"rain":0.0,"pressure":950.5,"uv_index":8.4,"wind_gusts":41.8,"aqi":75,"pm10":54.8,"pm2_5":21.0,"no2":3.8,"co":167.0,"o3":68.0,"so2":4.1,"mosquito_risk":4,"arthritis_risk":5,"migraine_risk":7,"frizz_risk":0,"updated_at":"2026-05-19T05:40:34.696496+05:30"},{"city":"Gwalior","state":"Madhya Pradesh","latitude":26.2183,"longitude":78.1828,"temp":31.8,"humidity":28,"rain":0.0,"pressure":977.1,"uv_index":8.3,"wind_gusts":38.9,"aqi":81,"pm10":39.2,"pm2_5":18.7,"no2":8.5,"co":182.0,"o3":48.0,"so2":4.4,"mosquito_risk":0,"arthritis_risk":5,"migraine_risk":7,"frizz_risk":0,"updated_at":"2026-05-19T05:40:34.696503+05:30"},{"city":"Indore","state":"Madhya Pradesh","latitude":22.7196,"longitude":75.8577,"temp":30.8,"humidity":25,"rain":0.0,"pressure":944.2,"uv_index":8.65,"wind_gusts":42.8,"aqi":70,"pm10":26.0,"pm2_5":15.7,"no2":4.0,"co":231.0,"o3":81.0,"so2":5.9,"mosquito_risk":0,"arthritis_risk":5,"migraine_risk":7,"frizz_risk":0,"updated_at":"2026-05-19T05:40:34.696511+05:30"},{"city":"Bhopal","state":"Madhya Pradesh","latitude":23.2599,"longitude":77.4126,"temp":32.9,"humidity":23,"rain":0.0,"pressure":948.8,"uv_index":8.7,"wind_gusts":39.6,"aqi":78,"pm10":46.1,"pm2_5":27.0,"no2":9.9,"co":284.0,"o3":59.0,"so2":6.1,"mosquito_risk":0,"arthritis_risk":5,"migraine_risk":7,"frizz_risk":0,"updated_at":"2026-05-19T05:40:34.696518+05:30"},{"city":"Jabalpur","state":"Madhya Pradesh","latitude":23.1815,"longitude":79.9864,"temp":31.3,"humidity":37,"rain":0.0,"pressure":956.6,"uv_index":8.85,"wind_gusts":36.7,"aqi":81,"pm10":32.2,"pm2_5":30.3,"no2":20.2,"co":258.0,"o3":56.0,"so2":9.1,"mosquito_risk":0,"arthritis_risk":5,"migraine_risk":7,"frizz_risk":0,"updated_at":"2026-05-19T05:40:34.696526+05:30"},{"city":"Ujjain","state":"Madhya Pradesh","latitude":23.1765,"longitude":75.7885,"temp":30.6,"humidity":24,"rain":0.0,"pressure":949.4,"uv_index":8.55,"wind_gusts":44.6,"aqi":65,"pm10":24.9,"pm2_5":15.8,"no2":4.2,"co":259.0,"o3":70.0,"so2":4.8,"mosquito_risk":0,"arthritis_risk":5,"migraine_risk":7,"frizz_risk":0,"updated_at":"2026-05-19T05:40:34.696534+05:30"},{"city":"Visakhapatnam","state":"Andhra Pradesh","latitude":17.6868,"longitude":83.2185,"temp":28.4,"humidity":87,"rain":0.0,"pressure":1000.2,"uv_index":9.1,"wind_gusts":47.5,"aqi":65,"pm10":21.2,"pm2_5":16.1,"no2":17.2,"co":369.0,"o3":45.0,"so2":32.4,"mosquito_risk":7,"arthritis_risk":5,"migraine_risk":4,"frizz_risk":1,"updated_at":"2026-05-19T05:40:34.696542+05:30"},{"city":"Vijayawada","state":"Andhra Pradesh","latitude":16.5062,"longitude":80.648,"temp":29.2,"humidity":85,"rain":0.0,"pressure":998.6,"uv_index":8.4,"wind_gusts":27.0,"aqi":65,"pm10":21.1,"pm2_5":17.2,"no2":8.0,"co":262.0,"o3":78.0,"so2":6.4,"mosquito_risk":7,"arthritis_risk":5,"migraine_risk":7,"frizz_risk":1,"updated_at":"2026-05-19T05:40:34.696549+05:30"},{"city":"Guntur","state":"Andhra Pradesh","latitude":16.3067,"longitude":80.4365,"temp":29.5,"humidity":85,"rain":0.0,"pressure":999.6,"uv_index":8.45,"wind_gusts":32.0,"aqi":67,"pm10":19.0,"pm2_5":15.5,"no2":7.3,"co":256.0,"o3":83.0,"so2":5.4,"mosquito_risk":7,"arthritis_risk":5,"migraine_risk":7,"frizz_risk":1,"updated_at":"2026-05-19T05:40:34.696556+05:30"},{"city":"Nellore","state":"Andhra Pradesh","latitude":14.4426,"longitude":79.9865,"temp":29.2,"humidity":73,"rain":0.0,"pressure":1001.3,"uv_index":9.1,"wind_gusts":42.8,"aqi":62,"pm10":19.9,"pm2_5":18.5,"no2":8.4,"co":308.0,"o3":80.0,"so2":6.8,"mosquito_risk":7,"arthritis_risk":5,"migraine_risk":4,"frizz_risk":1,"updated_at":"2026-05-19T05:40:34.696565+05:30"},{"city":"Kurnool","state":"Andhra Pradesh","latitude":15.8281,"longitude":78.0373,"temp":30.9,"humidity":60,"rain":0.0,"pressure":973.3,"uv_index":9.1,"wind_gusts":40.7,"aqi":65,"pm10":26.1,"pm2_5":22.8,"no2":8.2,"co":230.0,"o3":79.0,"so2":9.8,"mosquito_risk":0,"arthritis_risk":5,"migraine_risk":7,"frizz_risk":1,"updated_at":"2026-05-19T05:40:34.696572+05:30"},{"city":"Kakinada","state":"Andhra Pradesh","latitude":16.9891,"longitude":82.2475,"temp":29.2,"humidity":85,"rain":0.0,"pressure":1004.1,"uv_index":8.5,"wind_gusts":29.5,"aqi":53,"pm10":19.3,"pm2_5":12.6,"no2":3.0,"co":267.0,"o3":71.0,"so2":1.9,"mosquito_risk":7,"arthritis_risk":5,"migraine_risk":4,"frizz_risk":1,"updated_at":"2026-05-19T05:40:34.696579+05:30"},{"city":"Tirupati","state":"Andhra Pradesh","latitude":13.6288,"longitude":79.4192,"temp":27.8,"humidity":75,"rain":0.0,"pressure":987.2,"uv_index":9.1,"wind_gusts":40.7,"aqi":67,"pm10":22.2,"pm2_5":21.1,"no2":16.0,"co":252.0,"o3":46.0,"so2":3.3,"mosquito_risk":7,"arthritis_risk":5,"migraine_risk":7,"frizz_risk":1,"updated_at":"2026-05-19T05:40:34.696586+05:30"},{"city":"Warangal","state":"Telangana","latitude":17.9689,"longitude":79.5941,"temp":27.5,"humidity":81,"rain":0.0,"pressure":974.9,"uv_index":9.15,"wind_gusts":33.5,"aqi":77,"pm10":24.1,"pm2_5":21.9,"no2":7.7,"co":283.0,"o3":87.0,"so2":9.5,"mosquito_risk":7,"arthritis_risk":5,"migraine_risk":7,"frizz_risk":1,"updated_at":"2026-05-19T05:40:34.696593+05:30"},{"city":"Nizamabad","state":"Telangana","latitude":18.6725,"longitude":78.0941,"temp":29.6,"humidity":55,"rain":0.0,"pressure":961.4,"uv_index":9.1,"wind_gusts":29.5,"aqi":76,"pm10":26.5,"pm2_5":24.2,"no2":11.9,"co":307.0,"o3":72.0,"so2":7.6,"mosquito_risk":4,"arthritis_risk":5,"migraine_risk":7,"frizz_risk":1,"updated_at":"2026-05-19T05:40:34.696600+05:30"},{"city":"Mysore","state":"Karnataka","latitude":12.2958,"longitude":76.6396,"temp":22.0,"humidity":92,"rain":0.0,"pressure":926.2,"uv_index":7.8,"wind_gusts":41.4,"aqi":54,"pm10":6.1,"pm2_5":5.8,"no2":7.1,"co":192.0,"o3":53.0,"so2":2.4,"mosquito_risk":3,"arthritis_risk":5,"migraine_risk":7,"frizz_risk":1,"updated_at":"2026-05-19T05:40:34.696607+05:30"},{"city":"Mangalore","state":"Karnataka","latitude":12.9141,"longitude":74.856,"temp":25.0,"humidity":98,"rain":0.0,"pressure":1004.8,"uv_index":6.6,"wind_gusts":34.6,"aqi":54,"pm10":9.5,"pm2_5":6.9,"no2":4.0,"co":172.0,"o3":65.0,"so2":1.6,"mosquito_risk":7,"arthritis_risk":5,"migraine_risk":4,"frizz_risk":1,"updated_at":"2026-05-19T05:40:34.696613+05:30"},{"city":"Hubli-Dharwad","state":"Karnataka","latitude":15.3647,"longitude":75.124,"temp":24.2,"humidity":89,"rain":0.0,"pressure":938.3,"uv_index":6.15,"wind_gusts":38.5,"aqi":59,"pm10":20.8,"pm2_5":10.4,"no2":3.2,"co":140.0,"o3":61.0,"so2":2.1,"mosquito_risk":3,"arthritis_risk":5,"migraine_risk":7,"frizz_risk":1,"updated_at":"2026-05-19T05:40:34.696620+05:30"},{"city":"Belgaum","state":"Karnataka","latitude":15.8497,"longitude":74.4977,"temp":23.0,"humidity":91,"rain":0.0,"pressure":923.1,"uv_index":6.45,"wind_gusts":41.0,"aqi":58,"pm10":30.7,"pm2_5":14.3,"no2":4.8,"co":126.0,"o3":53.0,"so2":1.7,"mosquito_risk":3,"arthritis_risk":5,"migraine_risk":7,"frizz_risk":1,"updated_at":"2026-05-19T05:40:37.962571+05:30"},{"city":"Coimbatore","state":"Tamil Nadu","latitude":11.0168,"longitude":76.9558,"temp":25.2,"humidity":79,"rain":0.0,"pressure":959.4,"uv_index":8.45,"wind_gusts":56.2,"aqi":27,"pm10":2.7,"pm2_5":2.5,"no2":5.4,"co":160.0,"o3":48.0,"so2":3.0,"mosquito_risk":7,"arthritis_risk":5,"migraine_risk":7,"frizz_risk":1,"updated_at":"2026-05-19T05:40:37.962604+05:30"},{"city":"Madurai","state":"Tamil Nadu","latitude":9.9252,"longitude":78.1198,"temp":26.9,"humidity":80,"rain":0.0,"pressure":990.8,"uv_index":9.0,"wind_gusts":37.4,"aqi":53,"pm10":14.8,"pm2_5":13.6,"no2":19.3,"co":311.0,"o3":20.0,"so2":4.8,"mosquito_risk":7,"arthritis_risk":5,"migraine_risk":7,"frizz_risk":1,"updated_at":"2026-05-19T05:40:37.962615+05:30"},{"city":"Trichy","state":"Tamil Nadu","latitude":10.7905,"longitude":78.7047,"temp":26.5,"humidity":85,"rain":0.0,"pressure":997.3,"uv_index":9.0,"wind_gusts":31.0,"aqi":51,"pm10":15.3,"pm2_5":14.2,"no2":19.2,"co":247.0,"o3":29.0,"so2":4.9,"mosquito_risk":7,"arthritis_risk":5,"migraine_risk":7,"frizz_risk":1,"updated_at":"2026-05-19T05:40:37.962624+05:30"},{"city":"Salem","state":"Tamil Nadu","latitude":11.6643,"longitude":78.146,"temp":25.8,"humidity":81,"rain":0.0,"pressure":975.1,"uv_index":6.85,"wind_gusts":42.1,"aqi":56,"pm10":16.7,"pm2_5":15.6,"no2":19.0,"co":255.0,"o3":33.0,"so2":6.9,"mosquito_risk":7,"arthritis_risk":5,"migraine_risk":7,"frizz_risk":1,"updated_at":"2026-05-19T05:40:37.962633+05:30"},{"city":"Tirunelveli","state":"Tamil Nadu","latitude":8.7139,"longitude":77.7567,"temp":26.9,"humidity":86,"rain":0.0,"pressure":1002.1,"uv_index":8.8,"wind_gusts":27.7,"aqi":30,"pm10":8.4,"pm2_5":6.4,"no2":5.6,"co":142.0,"o3":43.0,"so2":1.8,"mosquito_risk":7,"arthritis_risk":5,"migraine_risk":4,"frizz_risk":1,"updated_at":"2026-05-19T05:40:37.962641+05:30"},{"city":"Vellore","state":"Tamil Nadu","latitude":12.9165,"longitude":79.1325,"temp":27.4,"humidity":75,"rain":0.0,"pressure":981.2,"uv_index":9.1,"wind_gusts":39.6,"aqi":72,"pm10":26.8,"pm2_5":24.6,"no2":12.4,"co":244.0,"o3":52.0,"so2":6.1,"mosquito_risk":7,"arthritis_risk":5,"migraine_risk":7,"frizz_risk":1,"updated_at":"2026-05-19T05:40:37.962649+05:30"},{"city":"Erode","state":"Tamil Nadu","latitude":11.341,"longitude":77.7172,"temp":27.1,"humidity":71,"rain":0.0,"pressure":986.8,"uv_index":8.75,"wind_gusts":48.2,"aqi":46,"pm10":10.0,"pm2_5":9.4,"no2":14.0,"co":169.0,"o3":34.0,"so2":3.7,"mosquito_risk":7,"arthritis_risk":5,"migraine_risk":7,"frizz_risk":1,"updated_at":"2026-05-19T05:40:37.962656+05:30"},{"city":"Kochi","state":"Kerala","latitude":9.9312,"longitude":76.2673,"temp":25.5,"humidity":95,"rain":0.1,"pressure":1007.7,"uv_index":8.25,"wind_gusts":36.7,"aqi":39,"pm10":8.5,"pm2_5":7.1,"no2":8.1,"co":190.0,"o3":40.0,"so2":2.7,"mosquito_risk":10,"arthritis_risk":5,"migraine_risk":4,"frizz_risk":1,"updated_at":"2026-05-19T05:40:37.962664+05:30"},{"city":"Thiruvananthapuram","state":"Kerala","latitude":8.5241,"longitude":76.9366,"temp":24.9,"humidity":96,"rain":0.3,"pressure":1007.5,"uv_index":8.35,"wind_gusts":38.2,"aqi":43,"pm10":16.4,"pm2_5":9.3,"no2":1.3,"co":123.0,"o3":54.0,"so2":0.4,"mosquito_risk":6,"arthritis_risk":5,"migraine_risk":4,"frizz_risk":1,"updated_at":"2026-05-19T05:40:37.962672+05:30"},{"city":"Kozhikode","state":"Kerala","latitude":11.2588,"longitude":75.7804,"temp":24.6,"humidity":99,"rain":0.1,"pressure":1006.7,"uv_index":7.3,"wind_gusts":37.4,"aqi":34,"pm10":5.4,"pm2_5":3.5,"no2":1.3,"co":234.0,"o3":72.0,"so2":0.7,"mosquito_risk":6,"arthritis_risk":5,"migraine_risk":4,"frizz_risk":1,"updated_at":"2026-05-19T05:40:37.962679+05:30"},{"city":"Thrissur","state":"Kerala","latitude":10.5276,"longitude":76.2144,"temp":24.4,"humidity":99,"rain":0.1,"pressure":1005.9,"uv_index":7.65,"wind_gusts":34.9,"aqi":36,"pm10":6.8,"pm2_5":5.8,"no2":7.3,"co":208.0,"o3":44.0,"so2":3.0,"mosquito_risk":6,"arthritis_risk":5,"migraine_risk":4,"frizz_risk":1,"updated_at":"2026-05-19T05:40:37.962687+05:30"},{"city":"Kannur","state":"Kerala","latitude":11.8745,"longitude":75.3704,"temp":25.0,"humidity":97,"rain":0.2,"pressure":1005.8,"uv_index":8.05,"wind_gusts":34.2,"aqi":29,"pm10":6.3,"pm2_5":4.8,"no2":3.6,"co":201.0,"o3":58.0,"so2":1.7,"mosquito_risk":10,"arthritis_risk":5,"migraine_risk":4,"frizz_risk":1,"updated_at":"2026-05-19T05:40:37.962694+05:30"},{"city":"Patna","state":"Bihar","latitude":25.5941,"longitude":85.1376,"temp":26.9,"humidity":87,"rain":0.0,"pressure":996.0,"uv_index":8.8,"wind_gusts":41.0,"aqi":153,"pm10":67.1,"pm2_5":61.9,"no2":12.0,"co":443.0,"o3":76.0,"so2":13.0,"mosquito_risk":7,"arthritis_risk":5,"migraine_risk":7,"frizz_risk":1,"updated_at":"2026-05-19T05:40:37.962702+05:30"},{"city":"Gaya","state":"Bihar","latitude":24.7914,"longitude":85.0002,"temp":27.2,"humidity":82,"rain":0.0,"pressure":988.4,"uv_index":8.8,"wind_gusts":29.5,"aqi":130,"pm10":69.2,"pm2_5":66.8,"no2":12.8,"co":539.0,"o3":77.0,"so2":18.1,"mosquito_risk":7,"arthritis_risk":5,"migraine_risk":7,"frizz_risk":1,"updated_at":"2026-05-19T05:40:37.962709+05:30"},{"city":"Muzaffarpur","state":"Bihar","latitude":26.1209,"longitude":85.3647,"temp":26.4,"humidity":86,"rain":0.0,"pressure":996.8,"uv_index":8.8,"wind_gusts":44.6,"aqi":153,"pm10":65.4,"pm2_5":59.1,"no2":10.4,"co":414.0,"o3":80.0,"so2":11.0,"mosquito_risk":7,"arthritis_risk":5,"migraine_risk":7,"frizz_risk":1,"updated_at":"2026-05-19T05:40:37.962716+05:30"},{"city":"Bhagalpur","state":"Bihar","latitude":25.2425,"longitude":87.0117,"temp":25.8,"humidity":90,"rain":0.0,"pressure":997.8,"uv_index":8.8,"wind_gusts":39.6,"aqi":152,"pm10":52.7,"pm2_5":48.0,"no2":11.9,"co":451.0,"o3":74.0,"so2":9.2,"mosquito_risk":7,"arthritis_risk":5,"migraine_risk":7,"frizz_risk":1,"updated_at":"2026-05-19T05:40:37.962722+05:30"},{"city":"Ranchi","state":"Jharkhand","latitude":23.3441,"longitude":85.3096,"temp":25.3,"humidity":67,"rain":0.0,"pressure":933.3,"uv_index":9.25,"wind_gusts":45.0,"aqi":116,"pm10":47.7,"pm2_5":38.2,"no2":10.9,"co":299.0,"o3":108.0,"so2":28.8,"mosquito_risk":7,"arthritis_risk":5,"migraine_risk":7,"frizz_risk":1,"updated_at":"2026-05-19T05:40:37.962729+05:30"},{"city":"Jamshedpur","state":"Jharkhand","latitude":22.8046,"longitude":86.2029,"temp":27.5,"humidity":69,"rain":0.0,"pressure":986.1,"uv_index":9.1,"wind_gusts":40.0,"aqi":118,"pm10":45.9,"pm2_5":39.5,"no2":20.8,"co":343.0,"o3":71.0,"so2":26.7,"mosquito_risk":7,"arthritis_risk":5,"migraine_risk":7,"frizz_risk":1,"updated_at":"2026-05-19T05:40:37.962736+05:30"},{"city":"Dhanbad","state":"Jharkhand","latitude":23.7957,"longitude":86.4304,"temp":26.6,"humidity":67,"rain":0.0,"pressure":974.7,"uv_index":9.05,"wind_gusts":24.8,"aqi":162,"pm10":82.4,"pm2_5":70.1,"no2":57.6,"co":381.0,"o3":42.0,"so2":120.5,"mosquito_risk":7,"arthritis_risk":5,"migraine_risk":7,"frizz_risk":1,"updated_at":"2026-05-19T05:40:37.962743+05:30"},{"city":"Bokaro","state":"Jharkhand","latitude":23.6693,"longitude":86.1511,"temp":26.5,"humidity":69,"rain":0.0,"pressure":978.3,"uv_index":9.05,"wind_gusts":27.7,"aqi":159,"pm10":78.9,"pm2_5":62.6,"no2":41.3,"co":294.0,"o3":61.0,"so2":78.7,"mosquito_risk":7,"arthritis_risk":5,"migraine_risk":7,"frizz_risk":1,"updated_at":"2026-05-19T05:40:37.962751+05:30"},{"city":"Bhubaneswar","state":"Odisha","latitude":20.2961,"longitude":85.8245,"temp":28.8,"humidity":87,"rain":0.0,"pressure":998.2,"uv_index":9.15,"wind_gusts":45.7,"aqi":62,"pm10":15.2,"pm2_5":12.0,"no2":5.9,"co":207.0,"o3":61.0,"so2":6.1,"mosquito_risk":7,"arthritis_risk":5,"migraine_risk":7,"frizz_risk":1,"updated_at":"2026-05-19T05:40:37.962758+05:30"},{"city":"Cuttack","state":"Odisha","latitude":20.4625,"longitude":85.8828,"temp":28.8,"humidity":88,"rain":0.0,"pressure":999.9,"uv_index":9.2,"wind_gusts":39.2,"aqi":62,"pm10":15.2,"pm2_5":12.0,"no2":5.9,"co":224.0,"o3":61.0,"so2":6.1,"mosquito_risk":7,"arthritis_risk":5,"migraine_risk":7,"frizz_risk":1,"updated_at":"2026-05-19T05:40:37.962764+05:30"},{"city":"Rourkela","state":"Odisha","latitude":22.2604,"longitude":84.8536,"temp":27.8,"humidity":82,"rain":0.0,"pressure":980.8,"uv_index":9.0,"wind_gusts":48.2,"aqi":126,"pm10":53.4,"pm2_5":43.8,"no2":18.6,"co":406.0,"o3":63.0,"so2":16.4,"mosquito_risk":7,"arthritis_risk":5,"migraine_risk":7,"frizz_risk":1,"updated_at":"2026-05-19T05:40:37.962771+05:30"},{"city":"Raipur","state":"Chhattisgarh","latitude":21.2514,"longitude":81.6296,"temp":30.4,"humidity":55,"rain":0.0,"pressure":970.8,"uv_index":9.0,"wind_gusts":45.7,"aqi":97,"pm10":32.1,"pm2_5":29.4,"no2":28.9,"co":574.0,"o3":56.0,"so2":44.8,"mosquito_risk":0,"arthritis_risk":5,"migraine_risk":7,"frizz_risk":1,"updated_at":"2026-05-19T05:40:37.962778+05:30"},{"city":"Bhilai","state":"Chhattisgarh","latitude":21.1938,"longitude":81.3509,"temp":29.9,"humidity":57,"rain":0.0,"pressure":971.2,"uv_index":9.0,"wind_gusts":44.3,"aqi":89,"pm10":29.9,"pm2_5":27.2,"no2":24.4,"co":784.0,"o3":69.0,"so2":40.2,"mosquito_risk":4,"arthritis_risk":5,"migraine_risk":7,"frizz_risk":1,"updated_at":"2026-05-19T05:40:37.962785+05:30"},{"city":"Guwahati","state":"Assam","latitude":26.1158,"longitude":91.7086,"temp":23.0,"humidity":99,"rain":0.0,"pressure":1000.4,"uv_index":8.75,"wind_gusts":22.0,"aqi":77,"pm10":35.5,"pm2_5":30.6,"no2":10.5,"co":268.0,"o3":46.0,"so2":4.0,"mosquito_risk":3,"arthritis_risk":5,"migraine_risk":4,"frizz_risk":1,"updated_at":"2026-05-19T05:40:37.962791+05:30"},{"city":"Agartala","state":"Tripura","latitude":23.8315,"longitude":91.2868,"temp":22.8,"humidity":100,"rain":0.0,"pressure":1004.5,"uv_index":8.75,"wind_gusts":41.0,"aqi":90,"pm10":37.6,"pm2_5":26.2,"no2":10.8,"co":224.0,"o3":57.0,"so2":3.5,"mosquito_risk":3,"arthritis_risk":5,"migraine_risk":4,"frizz_risk":1,"updated_at":"2026-05-19T05:40:37.962798+05:30"},{"city":"Shillong","state":"Meghalaya","latitude":25.5788,"longitude":91.8933,"temp":18.1,"humidity":94,"rain":0.0,"pressure":855.5,"uv_index":6.85,"wind_gusts":24.8,"aqi":55,"pm10":19.0,"pm2_5":12.7,"no2":5.9,"co":296.0,"o3":74.0,"so2":4.1,"mosquito_risk":3,"arthritis_risk":10,"migraine_risk":7,"frizz_risk":1,"updated_at":"2026-05-19T05:40:37.962805+05:30"},{"city":"Imphal","state":"Manipur","latitude":24.817,"longitude":93.9368,"temp":21.2,"humidity":95,"rain":0.0,"pressure":921.3,"uv_index":9.2,"wind_gusts":33.5,"aqi":89,"pm10":45.3,"pm2_5":33.8,"no2":10.6,"co":516.0,"o3":40.0,"so2":3.4,"mosquito_risk":3,"arthritis_risk":5,"migraine_risk":7,"frizz_risk":1,"updated_at":"2026-05-19T05:40:37.962812+05:30"},{"city":"Aizawl","state":"Mizoram","latitude":23.7271,"longitude":92.7176,"temp":18.9,"humidity":92,"rain":0.0,"pressure":890.1,"uv_index":9.05,"wind_gusts":28.1,"aqi":93,"pm10":57.3,"pm2_5":40.5,"no2":11.0,"co":181.0,"o3":43.0,"so2":3.2,"mosquito_risk":3,"arthritis_risk":10,"migraine_risk":7,"frizz_risk":1,"updated_at":"2026-05-19T05:40:37.962819+05:30"},{"city":"Kohima","state":"Nagaland","latitude":25.6701,"longitude":94.1077,"temp":17.6,"humidity":93,"rain":0.1,"pressure":853.6,"uv_index":8.65,"wind_gusts":31.0,"aqi":60,"pm10":17.6,"pm2_5":9.5,"no2":8.5,"co":258.0,"o3":27.0,"so2":1.3,"mosquito_risk":6,"arthritis_risk":10,"migraine_risk":7,"frizz_risk":1,"updated_at":"2026-05-19T05:40:37.962826+05:30"},{"city":"Gangtok","state":"Sikkim","latitude":27.3314,"longitude":88.6138,"temp":15.0,"humidity":98,"rain":0.2,"pressure":835.3,"uv_index":9.1,"wind_gusts":40.3,"aqi":92,"pm10":28.1,"pm2_5":23.7,"no2":12.0,"co":747.0,"o3":20.0,"so2":0.4,"mosquito_risk":6,"arthritis_risk":10,"migraine_risk":7,"frizz_risk":0,"updated_at":"2026-05-19T05:40:37.962833+05:30"},{"city":"Siliguri","state":"West Bengal","latitude":26.7271,"longitude":88.3953,"temp":23.6,"humidity":91,"rain":0.0,"pressure":991.7,"uv_index":8.7,"wind_gusts":26.3,"aqi":150,"pm10":94.5,"pm2_5":76.8,"no2":16.7,"co":411.0,"o3":80.0,"so2":5.9,"mosquito_risk":3,"arthritis_risk":5,"migraine_risk":7,"frizz_risk":1,"updated_at":"2026-05-19T05:40:41.210888+05:30"},{"city":"Durgapur","state":"West Bengal","latitude":23.5204,"longitude":87.3119,"temp":27.5,"humidity":85,"rain":0.0,"pressure":990.1,"uv_index":9.0,"wind_gusts":28.1,"aqi":153,"pm10":55.8,"pm2_5":51.8,"no2":32.8,"co":719.0,"o3":51.0,"so2":42.5,"mosquito_risk":7,"arthritis_risk":5,"migraine_risk":7,"frizz_risk":1,"updated_at":"2026-05-19T05:40:41.210941+05:30"},{"city":"Asansol","state":"West Bengal","latitude":23.6739,"longitude":86.9524,"temp":27.3,"humidity":81,"rain":0.0,"pressure":988.4,"uv_index":9.0,"wind_gusts":32.8,"aqi":155,"pm10":64.5,"pm2_5":56.3,"no2":40.0,"co":540.0,"o3":44.0,"so2":55.7,"mosquito_risk":7,"arthritis_risk":5,"migraine_risk":7,"frizz_risk":1,"updated_at":"2026-05-19T05:40:41.210953+05:30"},{"city":"Pondicherry","state":"Puducherry","latitude":11.9139,"longitude":79.8145,"temp":27.9,"humidity":79,"rain":0.0,"pressure":1005.1,"uv_index":8.95,"wind_gusts":42.8,"aqi":57,"pm10":14.6,"pm2_5":12.9,"no2":13.5,"co":227.0,"o3":55.0,"so2":10.5,"mosquito_risk":7,"arthritis_risk":5,"migraine_risk":4,"frizz_risk":1,"updated_at":"2026-05-19T05:40:41.210962+05:30"},{"city":"Port Blair","state":"Andaman and Nicobar Islands","latitude":11.6234,"longitude":92.7265,"temp":25.2,"humidity":97,"rain":0.1,"pressure":1005.4,"uv_index":8.95,"wind_gusts":48.6,"aqi":32,"pm10":11.0,"pm2_5":6.4,"no2":0.3,"co":132.0,"o3":53.0,"so2":0.3,"mosquito_risk":10,"arthritis_risk":5,"migraine_risk":4,"frizz_risk":1,"updated_at":"2026-05-19T05:40:41.210970+05:30"},{"city":"Haridwar","state":"Uttarakhand","latitude":29.9457,"longitude":78.1642,"temp":25.6,"humidity":60,"rain":0.0,"pressure":967.2,"uv_index":7.55,"wind_gusts":36.7,"aqi":74,"pm10":32.2,"pm2_5":29.5,"no2":36.3,"co":366.0,"o3":18.0,"so2":5.0,"mosquito_risk":4,"arthritis_risk":5,"migraine_risk":7,"frizz_risk":1,"updated_at":"2026-05-19T05:40:41.210978+05:30"},{"city":"Rishikesh","state":"Uttarakhand","latitude":30.0869,"longitude":78.2676,"temp":21.0,"humidity":76,"rain":0.0,"pressure":959.5,"uv_index":7.7,"wind_gusts":32.4,"aqi":56,"pm10":21.9,"pm2_5":21.3,"no2":18.6,"co":340.0,"o3":67.0,"so2":5.8,"mosquito_risk":3,"arthritis_risk":5,"migraine_risk":7,"frizz_risk":1,"updated_at":"2026-05-19T05:40:41.210987+05:30"},{"city":"Nainital","state":"Uttarakhand","latitude":29.3919,"longitude":79.4542,"temp":15.4,"humidity":70,"rain":0.0,"pressure":802.2,"uv_index":8.55,"wind_gusts":38.2,"aqi":70,"pm10":42.0,"pm2_5":27.2,"no2":16.6,"co":257.0,"o3":99.0,"so2":7.1,"mosquito_risk":3,"arthritis_risk":5,"migraine_risk":7,"frizz_risk":0,"updated_at":"2026-05-19T05:40:41.210995+05:30"},{"city":"Mussoorie","state":"Uttarakhand","latitude":30.4599,"longitude":78.0664,"temp":18.2,"humidity":49,"rain":0.0,"pressure":800.0,"uv_index":8.1,"wind_gusts":55.4,"aqi":59,"pm10":19.0,"pm2_5":18.9,"no2":33.5,"co":228.0,"o3":16.0,"so2":3.7,"mosquito_risk":0,"arthritis_risk":5,"migraine_risk":7,"frizz_risk":0,"updated_at":"2026-05-19T05:40:41.211002+05:30"},{"city":"Dharamshala","state":"Himachal Pradesh","latitude":32.219,"longitude":76.3234,"temp":24.2,"humidity":44,"rain":0.0,"pressure":865.7,"uv_index":8.45,"wind_gusts":51.1,"aqi":35,"pm10":10.5,"pm2_5":7.7,"no2":15.0,"co":241.0,"o3":27.0,"so2":0.2,"mosquito_risk":0,"arthritis_risk":5,"migraine_risk":7,"frizz_risk":0,"updated_at":"2026-05-19T05:40:41.211010+05:30"},{"city":"Dalhousie","state":"Himachal Pradesh","latitude":32.5387,"longitude":75.971,"temp":13.3,"humidity":74,"rain":0.0,"pressure":798.6,"uv_index":8.7,"wind_gusts":52.2,"aqi":55,"pm10":17.1,"pm2_5":15.7,"no2":21.7,"co":261.0,"o3":14.0,"so2":0.7,"mosquito_risk":3,"arthritis_risk":5,"migraine_risk":7,"frizz_risk":0,"updated_at":"2026-05-19T05:40:41.211017+05:30"},{"city":"Patiala","state":"Punjab","latitude":30.3398,"longitude":76.3869,"temp":29.1,"humidity":45,"rain":0.0,"pressure":970.9,"uv_index":7.65,"wind_gusts":30.6,"aqi":406,"pm10":128.1,"pm2_5":57.2,"no2":19.9,"co":673.0,"o3":51.0,"so2":10.5,"mosquito_risk":4,"arthritis_risk":5,"migraine_risk":7,"frizz_risk":0,"updated_at":"2026-05-19T05:40:41.211025+05:30"},{"city":"Bhatinda","state":"Punjab","latitude":30.211,"longitude":74.9455,"temp":31.1,"humidity":27,"rain":0.0,"pressure":976.9,"uv_index":8.3,"wind_gusts":31.3,"aqi":91,"pm10":147.6,"pm2_5":41.9,"no2":19.0,"co":226.0,"o3":47.0,"so2":3.4,"mosquito_risk":0,"arthritis_risk":5,"migraine_risk":7,"frizz_risk":0,"updated_at":"2026-05-19T05:40:41.211032+05:30"},{"city":"Rohtak","state":"Haryana","latitude":28.8955,"longitude":76.6066,"temp":29.2,"humidity":31,"rain":0.0,"pressure":975.5,"uv_index":7.75,"wind_gusts":29.9,"aqi":727,"pm10":827.0,"pm2_5":127.6,"no2":15.6,"co":192.0,"o3":44.0,"so2":4.0,"mosquito_risk":4,"arthritis_risk":5,"migraine_risk":7,"frizz_risk":0,"updated_at":"2026-05-19T05:40:41.211039+05:30"},{"city":"Panipat","state":"Haryana","latitude":29.3909,"longitude":76.9635,"temp":28.4,"humidity":41,"rain":0.0,"pressure":973.8,"uv_index":7.6,"wind_gusts":39.2,"aqi":1555,"pm10":1408.2,"pm2_5":225.4,"no2":17.4,"co":320.0,"o3":38.0,"so2":5.6,"mosquito_risk":4,"arthritis_risk":5,"migraine_risk":7,"frizz_risk":0,"updated_at":"2026-05-19T05:40:41.211046+05:30"},{"city":"Mathura","state":"Uttar Pradesh","latitude":27.4924,"longitude":77.6737,"temp":32.5,"humidity":25,"rain":0.0,"pressure":980.5,"uv_index":8.05,"wind_gusts":41.4,"aqi":716,"pm10":851.2,"pm2_5":114.1,"no2":10.5,"co":186.0,"o3":52.0,"so2":4.5,"mosquito_risk":0,"arthritis_risk":5,"migraine_risk":7,"frizz_risk":0,"updated_at":"2026-05-19T05:40:41.211054+05:30"},{"city":"Vrindavan","state":"Uttar Pradesh","latitude":27.5823,"longitude":77.7027,"temp":31.6,"humidity":28,"rain":0.0,"pressure":980.9,"uv_index":8.0,"wind_gusts":38.5,"aqi":716,"pm10":851.2,"pm2_5":114.1,"no2":10.5,"co":186.0,"o3":52.0,"so2":4.5,"mosquito_risk":0,"arthritis_risk":5,"migraine_risk":7,"frizz_risk":0,"updated_at":"2026-05-19T05:40:41.211061+05:30"},{"city":"Ayodhya","state":"Uttar Pradesh","latitude":26.7922,"longitude":82.1998,"temp":28.6,"humidity":76,"rain":0.0,"pressure":990.4,"uv_index":8.4,"wind_gusts":36.0,"aqi":161,"pm10":59.5,"pm2_5":48.5,"no2":17.2,"co":720.0,"o3":77.0,"so2":17.2,"mosquito_risk":7,"arthritis_risk":5,"migraine_risk":7,"frizz_risk":1,"updated_at":"2026-05-19T05:40:41.211069+05:30"},{"city":"Ratlam","state":"Madhya Pradesh","latitude":23.3315,"longitude":75.0367,"temp":28.0,"humidity":33,"rain":0.0,"pressure":950.5,"uv_index":8.55,"wind_gusts":40.7,"aqi":62,"pm10":27.1,"pm2_5":17.6,"no2":5.6,"co":209.0,"o3":61.0,"so2":6.3,"mosquito_risk":4,"arthritis_risk":5,"migraine_risk":7,"frizz_risk":0,"updated_at":"2026-05-19T05:40:41.211076+05:30"},{"city":"Sagar","state":"Madhya Pradesh","latitude":23.8388,"longitude":78.7378,"temp":31.0,"humidity":31,"rain":0.0,"pressure":944.9,"uv_index":8.75,"wind_gusts":37.4,"aqi":63,"pm10":41.8,"pm2_5":19.3,"no2":15.9,"co":244.0,"o3":49.0,"so2":4.4,"mosquito_risk":0,"arthritis_risk":5,"migraine_risk":7,"frizz_risk":0,"updated_at":"2026-05-19T05:40:41.211083+05:30"},{"city":"Satna","state":"Madhya Pradesh","latitude":24.6005,"longitude":80.8322,"temp":29.5,"humidity":39,"rain":0.0,"pressure":965.5,"uv_index":8.75,"wind_gusts":44.3,"aqi":99,"pm10":232.4,"pm2_5":61.5,"no2":29.8,"co":232.0,"o3":37.0,"so2":6.2,"mosquito_risk":4,"arthritis_risk":5,"migraine_risk":7,"frizz_risk":0,"updated_at":"2026-05-19T05:40:41.211090+05:30"},{"city":"Akola","state":"Maharashtra","latitude":20.7002,"longitude":77.0082,"temp":33.8,"humidity":28,"rain":0.0,"pressure":970.6,"uv_index":8.85,"wind_gusts":39.2,"aqi":68,"pm10":30.2,"pm2_5":24.7,"no2":13.9,"co":265.0,"o3":60.0,"so2":5.8,"mosquito_risk":0,"arthritis_risk":5,"migraine_risk":7,"frizz_risk":0,"updated_at":"2026-05-19T05:40:41.211098+05:30"},{"city":"Amravati","state":"Maharashtra","latitude":20.9374,"longitude":77.7796,"temp":33.4,"humidity":37,"rain":0.0,"pressure":963.0,"uv_index":8.9,"wind_gusts":51.1,"aqi":68,"pm10":26.1,"pm2_5":23.5,"no2":9.9,"co":256.0,"o3":77.0,"so2":5.4,"mosquito_risk":0,"arthritis_risk":5,"migraine_risk":7,"frizz_risk":1,"updated_at":"2026-05-19T05:40:41.211106+05:30"},{"city":"Latur","state":"Maharashtra","latitude":18.4088,"longitude":76.5604,"temp":29.2,"humidity":58,"rain":0.0,"pressure":936.1,"uv_index":8.1,"wind_gusts":32.0,"aqi":76,"pm10":27.1,"pm2_5":22.1,"no2":9.2,"co":216.0,"o3":68.0,"so2":8.2,"mosquito_risk":4,"arthritis_risk":5,"migraine_risk":7,"frizz_risk":1,"updated_at":"2026-05-19T05:40:41.211113+05:30"},{"city":"Nanded","state":"Maharashtra","latitude":19.1383,"longitude":77.3091,"temp":31.9,"humidity":47,"rain":0.0,"pressure":964.5,"uv_index":7.95,"wind_gusts":34.9,"aqi":75,"pm10":33.4,"pm2_5":30.0,"no2":10.6,"co":237.0,"o3":83.0,"so2":7.4,"mosquito_risk":0,"arthritis_risk":5,"migraine_risk":7,"frizz_risk":1,"updated_at":"2026-05-19T05:40:41.211120+05:30"},{"city":"Gulbarga","state":"Karnataka","latitude":17.3297,"longitude":76.8343,"temp":29.0,"humidity":65,"rain":0.0,"pressure":955.1,"uv_index":9.05,"wind_gusts":37.4,"aqi":83,"pm10":28.3,"pm2_5":22.4,"no2":12.4,"co":199.0,"o3":59.0,"so2":5.7,"mosquito_risk":7,"arthritis_risk":5,"migraine_risk":7,"frizz_risk":1,"updated_at":"2026-05-19T05:40:41.211127+05:30"},{"city":"Bidar","state":"Karnataka","latitude":17.9104,"longitude":77.5199,"temp":28.1,"humidity":60,"rain":0.0,"pressure":932.2,"uv_index":9.15,"wind_gusts":29.9,"aqi":78,"pm10":24.1,"pm2_5":21.9,"no2":11.1,"co":235.0,"o3":72.0,"so2":5.8,"mosquito_risk":4,"arthritis_risk":5,"migraine_risk":7,"frizz_risk":1,"updated_at":"2026-05-19T05:40:41.211133+05:30"},{"city":"Hospet","state":"Karnataka","latitude":15.2689,"longitude":76.3909,"temp":26.6,"humidity":82,"rain":0.0,"pressure":953.1,"uv_index":7.85,"wind_gusts":40.0,"aqi":67,"pm10":10.8,"pm2_5":7.8,"no2":4.0,"co":142.0,"o3":63.0,"so2":2.1,"mosquito_risk":7,"arthritis_risk":5,"migraine_risk":7,"frizz_risk":1,"updated_at":"2026-05-19T05:40:41.211140+05:30"},{"city":"Tirupur","state":"Tamil Nadu","latitude":11.1085,"longitude":77.3411,"temp":26.3,"humidity":74,"rain":0.0,"pressure":972.7,"uv_index":8.75,"wind_gusts":56.9,"aqi":48,"pm10":9.9,"pm2_5":9.4,"no2":14.2,"co":152.0,"o3":34.0,"so2":4.4,"mosquito_risk":7,"arthritis_risk":5,"migraine_risk":7,"frizz_risk":1,"updated_at":"2026-05-19T05:40:41.211147+05:30"},{"city":"Alappuzha","state":"Kerala","latitude":9.4981,"longitude":76.3388,"temp":25.0,"humidity":100,"rain":0.1,"pressure":1007.9,"uv_index":8.6,"wind_gusts":35.6,"aqi":31,"pm10":10.2,"pm2_5":7.0,"no2":3.8,"co":125.0,"o3":59.0,"so2":1.3,"mosquito_risk":10,"arthritis_risk":5,"migraine_risk":4,"frizz_risk":1,"updated_at":"2026-05-19T05:40:41.211154+05:30"},{"city":"Munnar","state":"Kerala","latitude":10.0889,"longitude":77.0595,"temp":17.1,"humidity":100,"rain":0.0,"pressure":855.4,"uv_index":7.6,"wind_gusts":35.6,"aqi":21,"pm10":2.1,"pm2_5":2.0,"no2":5.3,"co":140.0,"o3":35.0,"so2":1.3,"mosquito_risk":3,"arthritis_risk":10,"migraine_risk":7,"frizz_risk":1,"updated_at":"2026-05-19T05:40:41.211162+05:30"},{"city":"Silchar","state":"Assam","latitude":24.8333,"longitude":92.7789,"temp":23.6,"humidity":99,"rain":0.2,"pressure":1003.3,"uv_index":8.9,"wind_gusts":25.9,"aqi":97,"pm10":53.0,"pm2_5":33.2,"no2":7.9,"co":388.0,"o3":71.0,"so2":4.6,"mosquito_risk":6,"arthritis_risk":5,"migraine_risk":4,"frizz_risk":1,"updated_at":"2026-05-19T05:40:41.211169+05:30"},{"city":"Dibrugarh","state":"Assam","latitude":27.4728,"longitude":94.912,"temp":22.0,"humidity":95,"rain":0.0,"pressure":994.4,"uv_index":8.85,"wind_gusts":15.1,"aqi":98,"pm10":78.7,"pm2_5":69.4,"no2":30.5,"co":303.0,"o3":20.0,"so2":0.5,"mosquito_risk":3,"arthritis_risk":5,"migraine_risk":7,"frizz_risk":1,"updated_at":"2026-05-19T05:40:41.211176+05:30"}]