[{"city":"Delhi","state":"Delhi","latitude":28.6139,"longitude":77.209,"temp":22.3,"humidity":72,"rain":0.0,"pressure":985.2,"uv_index":5.95,"wind_gusts":14.4,"aqi":164,"pm10":244.9,"pm2_5":109.4,"mosquito_risk":3,"arthritis_risk":5,"migraine_risk":3,"frizz_risk":1,"updated_at":"2026-03-07T02:06:01.662578+05:30"},{"city":"Mumbai","state":"Maharashtra","latitude":19.076,"longitude":72.8777,"temp":26.7,"humidity":78,"rain":0.0,"pressure":1008.7,"uv_index":7.5,"wind_gusts":25.6,"aqi":106,"pm10":30.7,"pm2_5":27.3,"mosquito_risk":7,"arthritis_risk":0,"migraine_risk":4,"frizz_risk":1,"updated_at":"2026-03-07T02:06:01.662621+05:30"},{"city":"Bangalore","state":"Karnataka","latitude":12.9716,"longitude":77.5946,"temp":21.0,"humidity":64,"rain":0.0,"pressure":910.6,"uv_index":9.2,"wind_gusts":23.0,"aqi":110,"pm10":38.9,"pm2_5":37.5,"mosquito_risk":3,"arthritis_risk":5,"migraine_risk":7,"frizz_risk":0,"updated_at":"2026-03-07T02:06:01.662637+05:30"},{"city":"Hyderabad","state":"Telangana","latitude":17.385,"longitude":78.4867,"temp":23.1,"humidity":50,"rain":0.0,"pressure":952.7,"uv_index":8.5,"wind_gusts":25.9,"aqi":97,"pm10":61.0,"pm2_5":52.2,"mosquito_risk":0,"arthritis_risk":5,"migraine_risk":7,"frizz_risk":0,"updated_at":"2026-03-07T02:06:01.662647+05:30"},{"city":"Chennai","state":"Tamil Nadu","latitude":13.0827,"longitude":80.2707,"temp":24.5,"humidity":94,"rain":0.0,"pressure":1007.2,"uv_index":8.9,"wind_gusts":36.4,"aqi":77,"pm10":29.7,"pm2_5":24.0,"mosquito_risk":3,"arthritis_risk":5,"migraine_risk":4,"frizz_risk":1,"updated_at":"2026-03-07T02:06:01.662655+05:30"},{"city":"Kolkata","state":"West Bengal","latitude":22.5726,"longitude":88.3639,"temp":22.9,"humidity":95,"rain":0.0,"pressure":1008.3,"uv_index":7.85,"wind_gusts":16.6,"aqi":153,"pm10":51.1,"pm2_5":41.7,"mosquito_risk":3,"arthritis_risk":0,"migraine_risk":4,"frizz_risk":1,"updated_at":"2026-03-07T02:06:01.662664+05:30"},{"city":"Pune","state":"Maharashtra","latitude":18.5204,"longitude":73.8567,"temp":20.4,"humidity":67,"rain":0.0,"pressure":948.0,"uv_index":8.05,"wind_gusts":25.2,"aqi":93,"pm10":53.8,"pm2_5":52.3,"mosquito_risk":3,"arthritis_risk":5,"migraine_risk":7,"frizz_risk":0,"updated_at":"2026-03-07T02:06:01.662676+05:30"},{"city":"Ahmedabad","state":"Gujarat","latitude":23.0225,"longitude":72.5714,"temp":22.5,"humidity":52,"rain":0.0,"pressure":1003.5,"uv_index":7.3,"wind_gusts":16.2,"aqi":85,"pm10":71.0,"pm2_5":67.8,"mosquito_risk":0,"arthritis_risk":5,"migraine_risk":4,"frizz_risk":0,"updated_at":"2026-03-07T02:06:01.662683+05:30"},{"city":"Jaipur","state":"Rajasthan","latitude":26.9124,"longitude":75.7873,"temp":24.8,"humidity":32,"rain":0.0,"pressure":961.5,"uv_index":6.75,"wind_gusts":17.6,"aqi":88,"pm10":99.9,"pm2_5":43.2,"mosquito_risk":0,"arthritis_risk":5,"migraine_risk":7,"frizz_risk":0,"updated_at":"2026-03-07T02:06:01.662691+05:30"},{"city":"Lucknow","state":"Uttar Pradesh","latitude":26.8467,"longitude":80.9462,"temp":21.9,"humidity":76,"rain":0.0,"pressure":996.0,"uv_index":6.45,"wind_gusts":16.2,"aqi":165,"pm10":95.9,"pm2_5":75.4,"mosquito_risk":3,"arthritis_risk":5,"migraine_risk":7,"frizz_risk":1,"updated_at":"2026-03-07T02:06:01.662699+05:30"},{"city":"Kanpur","state":"Uttar Pradesh","latitude":26.4499,"longitude":80.3319,"temp":21.7,"humidity":79,"rain":0.0,"pressure":994.2,"uv_index":6.5,"wind_gusts":13.3,"aqi":167,"pm10":117.3,"pm2_5":71.7,"mosquito_risk":3,"arthritis_risk":5,"migraine_risk":7,"frizz_risk":1,"updated_at":"2026-03-07T02:06:01.662706+05:30"},{"city":"Chandigarh","state":"Chandigarh","latitude":30.7333,"longitude":76.7794,"temp":20.3,"humidity":82,"rain":0.0,"pressure":970.9,"uv_index":5.9,"wind_gusts":22.3,"aqi":141,"pm10":76.8,"pm2_5":66.1,"mosquito_risk":3,"arthritis_risk":5,"migraine_risk":3,"frizz_risk":1,"updated_at":"2026-03-07T02:06:01.662713+05:30"},{"city":"Srinagar","state":"Jammu and Kashmir","latitude":34.0837,"longitude":74.7973,"temp":10.0,"humidity":73,"rain":0.0,"pressure":842.8,"uv_index":5.6,"wind_gusts":16.6,"aqi":137,"pm10":94.8,"pm2_5":77.5,"mosquito_risk":3,"arthritis_risk":5,"migraine_risk":3,"frizz_risk":0,"updated_at":"2026-03-07T02:06:01.662720+05:30"},{"city":"Jammu","state":"Jammu and Kashmir","latitude":32.7266,"longitude":74.857,"temp":20.0,"humidity":79,"rain":0.0,"pressure":974.6,"uv_index":5.55,"wind_gusts":13.0,"aqi":129,"pm10":50.2,"pm2_5":45.2,"mosquito_risk":3,"arthritis_risk":5,"migraine_risk":3,"frizz_risk":1,"updated_at":"2026-03-07T02:06:01.662727+05:30"},{"city":"Amritsar","state":"Punjab","latitude":31.634,"longitude":74.8723,"temp":20.5,"humidity":75,"rain":0.0,"pressure":982.2,"uv_index":6.2,"wind_gusts":17.6,"aqi":159,"pm10":68.0,"pm2_5":65.7,"mosquito_risk":3,"arthritis_risk":5,"migraine_risk":7,"frizz_risk":0,"updated_at":"2026-03-07T02:06:01.662734+05:30"},{"city":"Ludhiana","state":"Punjab","latitude":30.901,"longitude":75.8573,"temp":20.9,"humidity":79,"rain":0.0,"pressure":980.7,"uv_index":6.1,"wind_gusts":18.4,"aqi":164,"pm10":149.5,"pm2_5":101.3,"mosquito_risk":3,"arthritis_risk":5,"migraine_risk":7,"frizz_risk":1,"updated_at":"2026-03-07T02:06:01.662741+05:30"},{"city":"Jalandhar","state":"Punjab","latitude":31.326,"longitude":75.5762,"temp":20.3,"humidity":85,"rain":0.0,"pressure":981.7,"uv_index":5.9,"wind_gusts":19.4,"aqi":162,"pm10":116.9,"pm2_5":99.2,"mosquito_risk":3,"arthritis_risk":5,"migraine_risk":3,"frizz_risk":1,"updated_at":"2026-03-07T02:06:01.662751+05:30"},{"city":"Dehradun","state":"Uttarakhand","latitude":30.6284,"longitude":78.0322,"temp":12.8,"humidity":100,"rain":0.0,"pressure":830.7,"uv_index":6.2,"wind_gusts":26.6,"aqi":110,"pm10":66.1,"pm2_5":51.7,"mosquito_risk":3,"arthritis_risk":10,"migraine_risk":7,"frizz_risk":0,"updated_at":"2026-03-07T02:06:01.662758+05:30"},{"city":"Shimla","state":"Himachal Pradesh","latitude":31.1048,"longitude":77.1734,"temp":13.2,"humidity":76,"rain":0.0,"pressure":785.7,"uv_index":6.3,"wind_gusts":35.6,"aqi":89,"pm10":67.5,"pm2_5":53.6,"mosquito_risk":3,"arthritis_risk":5,"migraine_risk":7,"frizz_risk":0,"updated_at":"2026-03-07T02:06:01.662766+05:30"},{"city":"Manali","state":"Himachal Pradesh","latitude":32.2396,"longitude":77.1887,"temp":17.4,"humidity":23,"rain":0.0,"pressure":822.9,"uv_index":7.15,"wind_gusts":37.8,"aqi":77,"pm10":24.3,"pm2_5":16.4,"mosquito_risk":0,"arthritis_risk":5,"migraine_risk":7,"frizz_risk":1,"updated_at":"2026-03-07T02:06:01.662773+05:30"},{"city":"Gurgaon","state":"Haryana","latitude":28.4595,"longitude":77.0266,"temp":19.9,"humidity":64,"rain":0.0,"pressure":983.4,"uv_index":6.05,"wind_gusts":9.7,"aqi":332,"pm10":295.2,"pm2_5":121.5,"mosquito_risk":3,"arthritis_risk":5,"migraine_risk":7,"frizz_risk":0,"updated_at":"2026-03-07T02:06:01.662780+05:30"},{"city":"Noida","state":"Uttar Pradesh","latitude":28.5355,"longitude":77.391,"temp":21.3,"humidity":81,"rain":0.0,"pressure":986.9,"uv_index":5.95,"wind_gusts":13.7,"aqi":332,"pm10":295.2,"pm2_5":121.5,"mosquito_risk":3,"arthritis_risk":5,"migraine_risk":3,"frizz_risk":1,"updated_at":"2026-03-07T02:06:01.662786+05:30"},{"city":"Ghaziabad","state":"Uttar Pradesh","latitude":28.6692,"longitude":77.4538,"temp":20.6,"humidity":85,"rain":0.0,"pressure":985.0,"uv_index":5.95,"wind_gusts":14.0,"aqi":170,"pm10":174.2,"pm2_5":111.8,"mosquito_risk":3,"arthritis_risk":5,"migraine_risk":3,"frizz_risk":1,"updated_at":"2026-03-07T02:06:01.662793+05:30"},{"city":"Faridabad","state":"Haryana","latitude":28.4089,"longitude":77.3178,"temp":20.2,"humidity":66,"rain":0.0,"pressure":985.9,"uv_index":6.0,"wind_gusts":12.2,"aqi":332,"pm10":295.2,"pm2_5":121.5,"mosquito_risk":3,"arthritis_risk":5,"migraine_risk":3,"frizz_risk":0,"updated_at":"2026-03-07T02:06:01.662800+05:30"},{"city":"Meerut","state":"Uttar Pradesh","latitude":28.9845,"longitude":77.7064,"temp":20.5,"humidity":91,"rain":0.0,"pressure":983.9,"uv_index":5.8,"wind_gusts":16.2,"aqi":170,"pm10":174.2,"pm2_5":111.8,"mosquito_risk":3,"arthritis_risk":5,"migraine_risk":3,"frizz_risk":1,"updated_at":"2026-03-07T02:06:01.662808+05:30"},{"city":"Agra","state":"Uttar Pradesh","latitude":27.1767,"longitude":78.0081,"temp":20.1,"humidity":68,"rain":0.0,"pressure":989.9,"uv_index":6.3,"wind_gusts":13.3,"aqi":198,"pm10":314.8,"pm2_5":88.9,"mosquito_risk":3,"arthritis_risk":5,"migraine_risk":7,"frizz_risk":0,"updated_at":"2026-03-07T02:06:01.662815+05:30"},{"city":"Varanasi","state":"Uttar Pradesh","latitude":25.3176,"longitude":82.9739,"temp":20.6,"humidity":87,"rain":0.0,"pressure":999.9,"uv_index":7.15,"wind_gusts":19.4,"aqi":168,"pm10":164.8,"pm2_5":137.8,"mosquito_risk":3,"arthritis_risk":5,"migraine_risk":7,"frizz_risk":1,"updated_at":"2026-03-07T02:06:01.662828+05:30"},{"city":"Prayagraj","state":"Uttar Pradesh","latitude":25.4358,"longitude":81.8463,"temp":21.9,"humidity":76,"rain":0.0,"pressure":998.3,"uv_index":7.0,"wind_gusts":15.1,"aqi":168,"pm10":126.2,"pm2_5":95.9,"mosquito_risk":3,"arthritis_risk":5,"migraine_risk":7,"frizz_risk":1,"updated_at":"2026-03-07T02:06:01.662835+05:30"},{"city":"Gorakhpur","state":"Uttar Pradesh","latitude":26.7606,"longitude":83.3732,"temp":20.7,"humidity":83,"rain":0.0,"pressure":999.8,"uv_index":6.85,"wind_gusts":9.0,"aqi":165,"pm10":99.9,"pm2_5":86.8,"mosquito_risk":3,"arthritis_risk":5,"migraine_risk":7,"frizz_risk":1,"updated_at":"2026-03-07T02:06:01.662841+05:30"},{"city":"Bareilly","state":"Uttar Pradesh","latitude":28.367,"longitude":79.4304,"temp":20.4,"humidity":86,"rain":0.0,"pressure":989.5,"uv_index":6.15,"wind_gusts":11.5,"aqi":166,"pm10":89.4,"pm2_5":75.9,"mosquito_risk":3,"arthritis_risk":5,"migraine_risk":7,"frizz_risk":1,"updated_at":"2026-03-07T02:06:01.662848+05:30"},{"city":"Aligarh","state":"Uttar Pradesh","latitude":27.8974,"longitude":78.088,"temp":19.6,"humidity":89,"rain":0.0,"pressure":987.7,"uv_index":6.05,"wind_gusts":11.9,"aqi":182,"pm10":188.1,"pm2_5":107.8,"mosquito_risk":3,"arthritis_risk":10,"migraine_risk":7,"frizz_risk":1,"updated_at":"2026-03-07T02:06:01.662854+05:30"},{"city":"Moradabad","state":"Uttar Pradesh","latitude":28.8386,"longitude":78.7733,"temp":20.2,"humidity":87,"rain":0.0,"pressure":986.4,"uv_index":5.95,"wind_gusts":14.4,"aqi":168,"pm10":99.7,"pm2_5":81.5,"mosquito_risk":3,"arthritis_risk":5,"migraine_risk":3,"frizz_risk":1,"updated_at":"2026-03-07T02:06:01.662862+05:30"},{"city":"Saharanpur","state":"Uttar Pradesh","latitude":29.9637,"longitude":77.546,"temp":20.7,"humidity":86,"rain":0.0,"pressure":978.4,"uv_index":5.6,"wind_gusts":18.4,"aqi":163,"pm10":88.2,"pm2_5":80.6,"mosquito_risk":3,"arthritis_risk":5,"migraine_risk":3,"frizz_risk":1,"updated_at":"2026-03-07T02:06:01.662868+05:30"},{"city":"Jhansi","state":"Uttar Pradesh","latitude":25.4484,"longitude":78.5685,"temp":20.5,"humidity":51,"rain":0.0,"pressure":979.6,"uv_index":6.95,"wind_gusts":26.6,"aqi":78,"pm10":84.5,"pm2_5":37.1,"mosquito_risk":0,"arthritis_risk":5,"migraine_risk":7,"frizz_risk":0,"updated_at":"2026-03-07T02:06:04.912017+05:30"},{"city":"Surat","state":"Gujarat","latitude":21.1702,"longitude":72.8311,"temp":24.0,"humidity":83,"rain":0.0,"pressure":1007.7,"uv_index":7.2,"wind_gusts":25.2,"aqi":136,"pm10":69.8,"pm2_5":68.2,"mosquito_risk":3,"arthritis_risk":5,"migraine_risk":4,"frizz_risk":1,"updated_at":"2026-03-07T02:06:04.912048+05:30"},{"city":"Vadodara","state":"Gujarat","latitude":22.3072,"longitude":73.1812,"temp":24.6,"humidity":63,"rain":0.0,"pressure":1005.6,"uv_index":7.3,"wind_gusts":18.0,"aqi":113,"pm10":78.9,"pm2_5":77.3,"mosquito_risk":3,"arthritis_risk":5,"migraine_risk":4,"frizz_risk":1,"updated_at":"2026-03-07T02:06:04.912057+05:30"},{"city":"Rajkot","state":"Gujarat","latitude":22.3039,"longitude":70.8022,"temp":20.3,"humidity":87,"rain":0.0,"pressure":996.1,"uv_index":7.15,"wind_gusts":17.6,"aqi":57,"pm10":50.1,"pm2_5":19.9,"mosquito_risk":3,"arthritis_risk":5,"migraine_risk":7,"frizz_risk":1,"updated_at":"2026-03-07T02:06:04.912065+05:30"},{"city":"Thane","state":"Maharashtra","latitude":19.2183,"longitude":72.9781,"temp":23.9,"humidity":78,"rain":0.0,"pressure":1008.3,"uv_index":7.5,"wind_gusts":34.2,"aqi":106,"pm10":30.7,"pm2_5":27.3,"mosquito_risk":3,"arthritis_risk":0,"migraine_risk":4,"frizz_risk":1,"updated_at":"2026-03-07T02:06:04.912072+05:30"},{"city":"Nagpur","state":"Maharashtra","latitude":21.1458,"longitude":79.0882,"temp":23.8,"humidity":40,"rain":0.0,"pressure":973.3,"uv_index":7.85,"wind_gusts":18.7,"aqi":61,"pm10":29.1,"pm2_5":18.9,"mosquito_risk":0,"arthritis_risk":5,"migraine_risk":7,"frizz_risk":0,"updated_at":"2026-03-07T02:06:04.912079+05:30"},{"city":"Nashik","state":"Maharashtra","latitude":19.9975,"longitude":73.7898,"temp":22.1,"humidity":56,"rain":0.0,"pressure":945.8,"uv_index":7.65,"wind_gusts":31.3,"aqi":83,"pm10":41.3,"pm2_5":40.4,"mosquito_risk":0,"arthritis_risk":5,"migraine_risk":7,"frizz_risk":0,"updated_at":"2026-03-07T02:06:04.912085+05:30"},{"city":"Aurangabad","state":"Maharashtra","latitude":19.8762,"longitude":75.3433,"temp":22.3,"humidity":47,"rain":0.0,"pressure":943.9,"uv_index":8.2,"wind_gusts":22.0,"aqi":73,"pm10":40.7,"pm2_5":37.8,"mosquito_risk":0,"arthritis_risk":5,"migraine_risk":7,"frizz_risk":0,"updated_at":"2026-03-07T02:06:04.912092+05:30"},{"city":"Solapur","state":"Maharashtra","latitude":17.6599,"longitude":75.9064,"temp":23.4,"humidity":53,"rain":0.0,"pressure":956.2,"uv_index":8.4,"wind_gusts":16.2,"aqi":66,"pm10":25.2,"pm2_5":21.8,"mosquito_risk":0,"arthritis_risk":5,"migraine_risk":7,"frizz_risk":0,"updated_at":"2026-03-07T02:06:04.912099+05:30"},{"city":"Kolhapur","state":"Maharashtra","latitude":16.705,"longitude":74.2433,"temp":17.9,"humidity":62,"rain":0.0,"pressure":946.8,"uv_index":8.55,"wind_gusts":35.6,"aqi":138,"pm10":68.2,"pm2_5":67.3,"mosquito_risk":3,"arthritis_risk":5,"migraine_risk":7,"frizz_risk":0,"updated_at":"2026-03-07T02:06:04.912106+05:30"},{"city":"Goa","state":"Goa","latitude":15.2993,"longitude":74.124,"temp":25.4,"humidity":91,"rain":0.0,"pressure":997.7,"uv_index":8.6,"wind_gusts":31.7,"aqi":153,"pm10":57.9,"pm2_5":54.8,"mosquito_risk":7,"arthritis_risk":5,"migraine_risk":7,"frizz_risk":1,"updated_at":"2026-03-07T02:06:04.912113+05:30"},{"city":"Jodhpur","state":"Rajasthan","latitude":26.2389,"longitude":73.0243,"temp":24.0,"humidity":41,"rain":0.0,"pressure":984.6,"uv_index":7.0,"wind_gusts":17.6,"aqi":61,"pm10":74.7,"pm2_5":21.4,"mosquito_risk":0,"arthritis_risk":5,"migraine_risk":7,"frizz_risk":0,"updated_at":"2026-03-07T02:06:04.912120+05:30"},{"city":"Udaipur","state":"Rajasthan","latitude":24.5854,"longitude":73.7125,"temp":18.7,"humidity":65,"rain":0.0,"pressure":947.8,"uv_index":7.65,"wind_gusts":19.1,"aqi":45,"pm10":19.7,"pm2_5":16.6,"mosquito_risk":3,"arthritis_risk":5,"migraine_risk":7,"frizz_risk":0,"updated_at":"2026-03-07T02:06:04.912127+05:30"},{"city":"Kota","state":"Rajasthan","latitude":25.2138,"longitude":75.8648,"temp":19.6,"humidity":66,"rain":0.0,"pressure":980.0,"uv_index":7.05,"wind_gusts":13.7,"aqi":66,"pm10":49.4,"pm2_5":33.2,"mosquito_risk":3,"arthritis_risk":5,"migraine_risk":7,"frizz_risk":0,"updated_at":"2026-03-07T02:06:04.912133+05:30"},{"city":"Bikaner","state":"Rajasthan","latitude":28.0229,"longitude":73.3119,"temp":22.3,"humidity":41,"rain":0.0,"pressure":983.1,"uv_index":6.75,"wind_gusts":16.6,"aqi":55,"pm10":26.7,"pm2_5":12.7,"mosquito_risk":0,"arthritis_risk":5,"migraine_risk":7,"frizz_risk":0,"updated_at":"2026-03-07T02:06:04.912140+05:30"},{"city":"Ajmer","state":"Rajasthan","latitude":26.4499,"longitude":74.6399,"temp":21.9,"humidity":38,"rain":0.0,"pressure":956.0,"uv_index":7.0,"wind_gusts":18.4,"aqi":52,"pm10":22.5,"pm2_5":19.0,"mosquito_risk":0,"arthritis_risk":5,"migraine_risk":7,"frizz_risk":0,"updated_at":"2026-03-07T02:06:04.912147+05:30"},{"city":"Gwalior","state":"Madhya Pradesh","latitude":26.2183,"longitude":78.1828,"temp":20.3,"humidity":65,"rain":0.0,"pressure":985.0,"uv_index":6.65,"wind_gusts":19.4,"aqi":99,"pm10":144.4,"pm2_5":47.0,"mosquito_risk":3,"arthritis_risk":5,"migraine_risk":7,"frizz_risk":0,"updated_at":"2026-03-07T02:06:04.912153+05:30"},{"city":"Indore","state":"Madhya Pradesh","latitude":22.7196,"longitude":75.8577,"temp":18.7,"humidity":65,"rain":0.0,"pressure":948.5,"uv_index":7.6,"wind_gusts":17.6,"aqi":68,"pm10":31.4,"pm2_5":29.8,"mosquito_risk":3,"arthritis_risk":5,"migraine_risk":7,"frizz_risk":0,"updated_at":"2026-03-07T02:06:04.912160+05:30"},{"city":"Bhopal","state":"Madhya Pradesh","latitude":23.2599,"longitude":77.4126,"temp":21.4,"humidity":45,"rain":0.0,"pressure":954.2,"uv_index":7.45,"wind_gusts":19.8,"aqi":75,"pm10":42.4,"pm2_5":37.1,"mosquito_risk":0,"arthritis_risk":5,"migraine_risk":7,"frizz_risk":0,"updated_at":"2026-03-07T02:06:04.912166+05:30"},{"city":"Jabalpur","state":"Madhya Pradesh","latitude":23.1815,"longitude":79.9864,"temp":21.7,"humidity":49,"rain":0.0,"pressure":962.2,"uv_index":7.55,"wind_gusts":25.6,"aqi":72,"pm10":65.7,"pm2_5":30.0,"mosquito_risk":0,"arthritis_risk":5,"migraine_risk":7,"frizz_risk":0,"updated_at":"2026-03-07T02:06:04.912172+05:30"},{"city":"Ujjain","state":"Madhya Pradesh","latitude":23.1765,"longitude":75.7885,"temp":20.2,"humidity":59,"rain":0.0,"pressure":954.5,"uv_index":7.5,"wind_gusts":14.0,"aqi":71,"pm10":51.5,"pm2_5":50.2,"mosquito_risk":0,"arthritis_risk":5,"migraine_risk":7,"frizz_risk":0,"updated_at":"2026-03-07T02:06:04.912179+05:30"},{"city":"Visakhapatnam","state":"Andhra Pradesh","latitude":17.6868,"longitude":83.2185,"temp":25.7,"humidity":92,"rain":0.0,"pressure":1004.2,"uv_index":8.0,"wind_gusts":37.4,"aqi":120,"pm10":40.5,"pm2_5":36.2,"mosquito_risk":7,"arthritis_risk":5,"migraine_risk":4,"frizz_risk":1,"updated_at":"2026-03-07T02:06:04.912186+05:30"},{"city":"Vijayawada","state":"Andhra Pradesh","latitude":16.5062,"longitude":80.648,"temp":23.8,"humidity":89,"rain":0.0,"pressure":1002.0,"uv_index":8.55,"wind_gusts":27.7,"aqi":109,"pm10":42.0,"pm2_5":39.8,"mosquito_risk":3,"arthritis_risk":5,"migraine_risk":4,"frizz_risk":1,"updated_at":"2026-03-07T02:06:04.912193+05:30"},{"city":"Guntur","state":"Andhra Pradesh","latitude":16.3067,"longitude":80.4365,"temp":23.9,"humidity":84,"rain":0.0,"pressure":1003.0,"uv_index":8.6,"wind_gusts":32.4,"aqi":97,"pm10":38.8,"pm2_5":37.0,"mosquito_risk":3,"arthritis_risk":5,"migraine_risk":4,"frizz_risk":1,"updated_at":"2026-03-07T02:06:04.912199+05:30"},{"city":"Nellore","state":"Andhra Pradesh","latitude":14.4426,"longitude":79.9865,"temp":23.8,"humidity":87,"rain":0.0,"pressure":1005.2,"uv_index":8.75,"wind_gusts":34.6,"aqi":84,"pm10":31.8,"pm2_5":30.4,"mosquito_risk":3,"arthritis_risk":5,"migraine_risk":4,"frizz_risk":1,"updated_at":"2026-03-07T02:06:04.912206+05:30"},{"city":"Kurnool","state":"Andhra Pradesh","latitude":15.8281,"longitude":78.0373,"temp":26.5,"humidity":39,"rain":0.0,"pressure":975.7,"uv_index":8.55,"wind_gusts":24.8,"aqi":65,"pm10":20.8,"pm2_5":16.1,"mosquito_risk":4,"arthritis_risk":5,"migraine_risk":7,"frizz_risk":0,"updated_at":"2026-03-07T02:06:04.912214+05:30"},{"city":"Kakinada","state":"Andhra Pradesh","latitude":16.9891,"longitude":82.2475,"temp":23.7,"humidity":100,"rain":0.0,"pressure":1007.6,"uv_index":8.5,"wind_gusts":31.3,"aqi":93,"pm10":35.9,"pm2_5":30.2,"mosquito_risk":3,"arthritis_risk":5,"migraine_risk":4,"frizz_risk":1,"updated_at":"2026-03-07T02:06:04.912220+05:30"},{"city":"Tirupati","state":"Andhra Pradesh","latitude":13.6288,"longitude":79.4192,"temp":23.0,"humidity":75,"rain":0.0,"pressure":991.6,"uv_index":8.9,"wind_gusts":29.5,"aqi":110,"pm10":60.8,"pm2_5":59.5,"mosquito_risk":3,"arthritis_risk":5,"migraine_risk":7,"frizz_risk":1,"updated_at":"2026-03-07T02:06:04.912227+05:30"},{"city":"Warangal","state":"Telangana","latitude":17.9689,"longitude":79.5941,"temp":25.6,"humidity":44,"rain":0.0,"pressure":977.6,"uv_index":8.3,"wind_gusts":22.3,"aqi":78,"pm10":32.6,"pm2_5":26.4,"mosquito_risk":4,"arthritis_risk":5,"migraine_risk":7,"frizz_risk":0,"updated_at":"2026-03-07T02:06:04.912233+05:30"},{"city":"Nizamabad","state":"Telangana","latitude":18.6725,"longitude":78.0941,"temp":20.6,"humidity":63,"rain":0.0,"pressure":963.9,"uv_index":8.2,"wind_gusts":23.4,"aqi":88,"pm10":46.7,"pm2_5":36.4,"mosquito_risk":3,"arthritis_risk":5,"migraine_risk":7,"frizz_risk":0,"updated_at":"2026-03-07T02:06:04.912239+05:30"},{"city":"Mysore","state":"Karnataka","latitude":12.2958,"longitude":76.6396,"temp":21.9,"humidity":92,"rain":0.0,"pressure":927.7,"uv_index":9.2,"wind_gusts":40.0,"aqi":121,"pm10":36.7,"pm2_5":36.2,"mosquito_risk":3,"arthritis_risk":5,"migraine_risk":7,"frizz_risk":1,"updated_at":"2026-03-07T02:06:04.912246+05:30"},{"city":"Mangalore","state":"Karnataka","latitude":12.9141,"longitude":74.856,"temp":28.6,"humidity":77,"rain":0.0,"pressure":1006.5,"uv_index":8.85,"wind_gusts":25.9,"aqi":127,"pm10":54.7,"pm2_5":49.7,"mosquito_risk":7,"arthritis_risk":5,"migraine_risk":4,"frizz_risk":1,"updated_at":"2026-03-07T02:06:04.912252+05:30"},{"city":"Hubli-Dharwad","state":"Karnataka","latitude":15.3647,"longitude":75.124,"temp":20.4,"humidity":87,"rain":0.0,"pressure":939.8,"uv_index":8.8,"wind_gusts":25.9,"aqi":93,"pm10":52.0,"pm2_5":51.0,"mosquito_risk":3,"arthritis_risk":5,"migraine_risk":7,"frizz_risk":1,"updated_at":"2026-03-07T02:06:04.912259+05:30"},{"city":"Belgaum","state":"Karnataka","latitude":15.8497,"longitude":74.4977,"temp":21.2,"humidity":71,"rain":0.0,"pressure":924.7,"uv_index":8.8,"wind_gusts":38.5,"aqi":106,"pm10":54.1,"pm2_5":52.5,"mosquito_risk":3,"arthritis_risk":5,"migraine_risk":7,"frizz_risk":0,"updated_at":"2026-03-07T02:06:08.162216+05:30"},{"city":"Coimbatore","state":"Tamil Nadu","latitude":11.0168,"longitude":76.9558,"temp":23.5,"humidity":89,"rain":0.0,"pressure":961.5,"uv_index":9.2,"wind_gusts":39.6,"aqi":107,"pm10":27.1,"pm2_5":26.3,"mosquito_risk":3,"arthritis_risk":5,"migraine_risk":7,"frizz_risk":1,"updated_at":"2026-03-07T02:06:08.162250+05:30"},{"city":"Madurai","state":"Tamil Nadu","latitude":9.9252,"longitude":78.1198,"temp":24.6,"humidity":85,"rain":0.0,"pressure":993.0,"uv_index":9.15,"wind_gusts":30.2,"aqi":89,"pm10":31.4,"pm2_5":28.5,"mosquito_risk":3,"arthritis_risk":5,"migraine_risk":7,"frizz_risk":1,"updated_at":"2026-03-07T02:06:08.162262+05:30"},{"city":"Trichy","state":"Tamil Nadu","latitude":10.7905,"longitude":78.7047,"temp":24.1,"humidity":85,"rain":0.0,"pressure":999.8,"uv_index":9.05,"wind_gusts":26.3,"aqi":82,"pm10":29.6,"pm2_5":26.8,"mosquito_risk":3,"arthritis_risk":5,"migraine_risk":7,"frizz_risk":1,"updated_at":"2026-03-07T02:06:08.162272+05:30"},{"city":"Salem","state":"Tamil Nadu","latitude":11.6643,"longitude":78.146,"temp":25.7,"humidity":72,"rain":0.0,"pressure":977.4,"uv_index":9.1,"wind_gusts":19.4,"aqi":104,"pm10":33.2,"pm2_5":31.9,"mosquito_risk":7,"arthritis_risk":5,"migraine_risk":7,"frizz_risk":1,"updated_at":"2026-03-07T02:06:08.162281+05:30"},{"city":"Tirunelveli","state":"Tamil Nadu","latitude":8.7139,"longitude":77.7567,"temp":24.5,"humidity":82,"rain":0.0,"pressure":1003.0,"uv_index":9.15,"wind_gusts":46.8,"aqi":96,"pm10":34.8,"pm2_5":33.9,"mosquito_risk":3,"arthritis_risk":5,"migraine_risk":4,"frizz_risk":1,"updated_at":"2026-03-07T02:06:08.162290+05:30"},{"city":"Vellore","state":"Tamil Nadu","latitude":12.9165,"longitude":79.1325,"temp":23.0,"humidity":76,"rain":0.0,"pressure":984.6,"uv_index":9.0,"wind_gusts":38.5,"aqi":121,"pm10":66.8,"pm2_5":65.0,"mosquito_risk":3,"arthritis_risk":5,"migraine_risk":7,"frizz_risk":1,"updated_at":"2026-03-07T02:06:08.162298+05:30"},{"city":"Erode","state":"Tamil Nadu","latitude":11.341,"longitude":77.7172,"temp":25.8,"humidity":78,"rain":0.0,"pressure":988.8,"uv_index":9.1,"wind_gusts":20.5,"aqi":97,"pm10":36.8,"pm2_5":35.5,"mosquito_risk":7,"arthritis_risk":5,"migraine_risk":7,"frizz_risk":1,"updated_at":"2026-03-07T02:06:08.162306+05:30"},{"city":"Kochi","state":"Kerala","latitude":9.9312,"longitude":76.2673,"temp":27.2,"humidity":84,"rain":0.0,"pressure":1008.7,"uv_index":8.65,"wind_gusts":29.2,"aqi":129,"pm10":57.5,"pm2_5":56.6,"mosquito_risk":7,"arthritis_risk":0,"migraine_risk":4,"frizz_risk":1,"updated_at":"2026-03-07T02:06:08.162315+05:30"},{"city":"Thiruvananthapuram","state":"Kerala","latitude":8.5241,"longitude":76.9366,"temp":26.9,"humidity":84,"rain":0.0,"pressure":1008.1,"uv_index":9.05,"wind_gusts":33.1,"aqi":82,"pm10":29.7,"pm2_5":26.7,"mosquito_risk":7,"arthritis_risk":0,"migraine_risk":4,"frizz_risk":1,"updated_at":"2026-03-07T02:06:08.162324+05:30"},{"city":"Kozhikode","state":"Kerala","latitude":11.2588,"longitude":75.7804,"temp":28.1,"humidity":80,"rain":0.0,"pressure":1007.5,"uv_index":8.9,"wind_gusts":26.3,"aqi":108,"pm10":42.1,"pm2_5":38.9,"mosquito_risk":7,"arthritis_risk":5,"migraine_risk":4,"frizz_risk":1,"updated_at":"2026-03-07T02:06:08.162332+05:30"},{"city":"Thrissur","state":"Kerala","latitude":10.5276,"longitude":76.2144,"temp":26.1,"humidity":90,"rain":0.0,"pressure":1007.0,"uv_index":8.95,"wind_gusts":31.7,"aqi":122,"pm10":50.2,"pm2_5":48.4,"mosquito_risk":7,"arthritis_risk":5,"migraine_risk":4,"frizz_risk":1,"updated_at":"2026-03-07T02:06:08.162341+05:30"},{"city":"Kannur","state":"Kerala","latitude":11.8745,"longitude":75.3704,"temp":27.6,"humidity":83,"rain":0.0,"pressure":1006.8,"uv_index":8.9,"wind_gusts":31.3,"aqi":116,"pm10":53.9,"pm2_5":51.1,"mosquito_risk":7,"arthritis_risk":5,"migraine_risk":4,"frizz_risk":1,"updated_at":"2026-03-07T02:06:08.162350+05:30"},{"city":"Patna","state":"Bihar","latitude":25.5941,"longitude":85.1376,"temp":24.3,"humidity":71,"rain":0.0,"pressure":1002.9,"uv_index":7.3,"wind_gusts":22.0,"aqi":163,"pm10":73.3,"pm2_5":68.2,"mosquito_risk":3,"arthritis_risk":5,"migraine_risk":4,"frizz_risk":1,"updated_at":"2026-03-07T02:06:08.162358+05:30"},{"city":"Gaya","state":"Bihar","latitude":24.7914,"longitude":85.0002,"temp":21.7,"humidity":81,"rain":0.0,"pressure":995.8,"uv_index":7.4,"wind_gusts":24.5,"aqi":157,"pm10":60.3,"pm2_5":55.9,"mosquito_risk":3,"arthritis_risk":5,"migraine_risk":7,"frizz_risk":1,"updated_at":"2026-03-07T02:06:08.162366+05:30"},{"city":"Muzaffarpur","state":"Bihar","latitude":26.1209,"longitude":85.3647,"temp":21.8,"humidity":79,"rain":0.0,"pressure":1003.0,"uv_index":7.25,"wind_gusts":16.2,"aqi":166,"pm10":93.8,"pm2_5":86.8,"mosquito_risk":3,"arthritis_risk":5,"migraine_risk":4,"frizz_risk":1,"updated_at":"2026-03-07T02:06:08.162374+05:30"},{"city":"Bhagalpur","state":"Bihar","latitude":25.2425,"longitude":87.0117,"temp":22.3,"humidity":78,"rain":0.0,"pressure":1003.6,"uv_index":7.3,"wind_gusts":14.8,"aqi":159,"pm10":82.4,"pm2_5":72.2,"mosquito_risk":3,"arthritis_risk":5,"migraine_risk":4,"frizz_risk":1,"updated_at":"2026-03-07T02:06:08.162381+05:30"},{"city":"Ranchi","state":"Jharkhand","latitude":23.3441,"longitude":85.3096,"temp":20.5,"humidity":77,"rain":0.0,"pressure":939.0,"uv_index":8.0,"wind_gusts":26.6,"aqi":151,"pm10":57.4,"pm2_5":43.1,"mosquito_risk":3,"arthritis_risk":5,"migraine_risk":7,"frizz_risk":1,"updated_at":"2026-03-07T02:06:08.162389+05:30"},{"city":"Jamshedpur","state":"Jharkhand","latitude":22.8046,"longitude":86.2029,"temp":24.0,"humidity":82,"rain":0.0,"pressure":992.8,"uv_index":7.9,"wind_gusts":26.3,"aqi":146,"pm10":54.0,"pm2_5":39.0,"mosquito_risk":3,"arthritis_risk":5,"migraine_risk":7,"frizz_risk":1,"updated_at":"2026-03-07T02:06:08.162396+05:30"},{"city":"Dhanbad","state":"Jharkhand","latitude":23.7957,"longitude":86.4304,"temp":24.7,"humidity":65,"rain":0.0,"pressure":982.3,"uv_index":7.8,"wind_gusts":19.8,"aqi":167,"pm10":76.8,"pm2_5":65.7,"mosquito_risk":3,"arthritis_risk":5,"migraine_risk":7,"frizz_risk":1,"updated_at":"2026-03-07T02:06:08.162405+05:30"},{"city":"Bokaro","state":"Jharkhand","latitude":23.6693,"longitude":86.1511,"temp":23.8,"humidity":70,"rain":0.0,"pressure":986.4,"uv_index":7.8,"wind_gusts":18.7,"aqi":170,"pm10":83.8,"pm2_5":71.5,"mosquito_risk":3,"arthritis_risk":5,"migraine_risk":7,"frizz_risk":1,"updated_at":"2026-03-07T02:06:08.162412+05:30"},{"city":"Bhubaneswar","state":"Odisha","latitude":20.2961,"longitude":85.8245,"temp":24.7,"humidity":91,"rain":0.0,"pressure":1004.2,"uv_index":8.25,"wind_gusts":31.7,"aqi":134,"pm10":53.6,"pm2_5":48.1,"mosquito_risk":3,"arthritis_risk":5,"migraine_risk":4,"frizz_risk":1,"updated_at":"2026-03-07T02:06:08.162421+05:30"},{"city":"Cuttack","state":"Odisha","latitude":20.4625,"longitude":85.8828,"temp":24.9,"humidity":91,"rain":0.0,"pressure":1006.3,"uv_index":8.25,"wind_gusts":34.6,"aqi":134,"pm10":53.6,"pm2_5":48.1,"mosquito_risk":3,"arthritis_risk":5,"migraine_risk":4,"frizz_risk":1,"updated_at":"2026-03-07T02:06:08.162428+05:30"},{"city":"Rourkela","state":"Odisha","latitude":22.2604,"longitude":84.8536,"temp":24.8,"humidity":75,"rain":0.0,"pressure":986.3,"uv_index":7.85,"wind_gusts":17.6,"aqi":151,"pm10":63.3,"pm2_5":54.2,"mosquito_risk":3,"arthritis_risk":5,"migraine_risk":7,"frizz_risk":1,"updated_at":"2026-03-07T02:06:08.162436+05:30"},{"city":"Raipur","state":"Chhattisgarh","latitude":21.2514,"longitude":81.6296,"temp":23.6,"humidity":47,"rain":0.0,"pressure":974.9,"uv_index":7.95,"wind_gusts":20.9,"aqi":108,"pm10":98.0,"pm2_5":69.6,"mosquito_risk":0,"arthritis_risk":5,"migraine_risk":7,"frizz_risk":0,"updated_at":"2026-03-07T02:06:08.162444+05:30"},{"city":"Bhilai","state":"Chhattisgarh","latitude":21.1938,"longitude":81.3509,"temp":22.6,"humidity":49,"rain":0.0,"pressure":975.2,"uv_index":7.95,"wind_gusts":19.8,"aqi":95,"pm10":62.9,"pm2_5":44.1,"mosquito_risk":0,"arthritis_risk":5,"migraine_risk":7,"frizz_risk":0,"updated_at":"2026-03-07T02:06:08.162451+05:30"},{"city":"Guwahati","state":"Assam","latitude":26.1158,"longitude":91.7086,"temp":22.1,"humidity":79,"rain":0.0,"pressure":1004.0,"uv_index":7.25,"wind_gusts":17.6,"aqi":153,"pm10":56.6,"pm2_5":52.5,"mosquito_risk":3,"arthritis_risk":5,"migraine_risk":4,"frizz_risk":1,"updated_at":"2026-03-07T02:06:08.162459+05:30"},{"city":"Agartala","state":"Tripura","latitude":23.8315,"longitude":91.2868,"temp":20.9,"humidity":83,"rain":0.0,"pressure":1008.9,"uv_index":7.6,"wind_gusts":18.4,"aqi":159,"pm10":92.2,"pm2_5":85.7,"mosquito_risk":3,"arthritis_risk":0,"migraine_risk":4,"frizz_risk":1,"updated_at":"2026-03-07T02:06:08.162466+05:30"},{"city":"Shillong","state":"Meghalaya","latitude":25.5788,"longitude":91.8933,"temp":11.4,"humidity":73,"rain":0.0,"pressure":856.4,"uv_index":7.65,"wind_gusts":45.4,"aqi":117,"pm10":43.8,"pm2_5":39.9,"mosquito_risk":3,"arthritis_risk":5,"migraine_risk":7,"frizz_risk":0,"updated_at":"2026-03-07T02:06:08.162474+05:30"},{"city":"Imphal","state":"Manipur","latitude":24.817,"longitude":93.9368,"temp":18.4,"humidity":59,"rain":0.0,"pressure":925.4,"uv_index":7.85,"wind_gusts":34.9,"aqi":157,"pm10":101.0,"pm2_5":96.6,"mosquito_risk":0,"arthritis_risk":5,"migraine_risk":7,"frizz_risk":0,"updated_at":"2026-03-07T02:06:08.162481+05:30"},{"city":"Aizawl","state":"Mizoram","latitude":23.7271,"longitude":92.7176,"temp":18.9,"humidity":58,"rain":0.0,"pressure":894.7,"uv_index":7.8,"wind_gusts":31.0,"aqi":183,"pm10":140.6,"pm2_5":132.7,"mosquito_risk":0,"arthritis_risk":5,"migraine_risk":7,"frizz_risk":0,"updated_at":"2026-03-07T02:06:08.162489+05:30"},{"city":"Kohima","state":"Nagaland","latitude":25.6701,"longitude":94.1077,"temp":15.3,"humidity":63,"rain":0.0,"pressure":856.6,"uv_index":7.7,"wind_gusts":50.8,"aqi":160,"pm10":97.1,"pm2_5":92.0,"mosquito_risk":3,"arthritis_risk":5,"migraine_risk":7,"frizz_risk":0,"updated_at":"2026-03-07T02:06:08.162496+05:30"},{"city":"Gangtok","state":"Sikkim","latitude":27.3314,"longitude":88.6138,"temp":14.1,"humidity":87,"rain":0.0,"pressure":839.2,"uv_index":7.4,"wind_gusts":16.2,"aqi":113,"pm10":58.2,"pm2_5":52.4,"mosquito_risk":3,"arthritis_risk":10,"migraine_risk":7,"frizz_risk":0,"updated_at":"2026-03-07T02:06:08.162503+05:30"},{"city":"Siliguri","state":"West Bengal","latitude":26.7271,"longitude":88.3953,"temp":21.0,"humidity":74,"rain":0.2,"pressure":996.9,"uv_index":7.25,"wind_gusts":18.4,"aqi":147,"pm10":68.2,"pm2_5":61.9,"mosquito_risk":6,"arthritis_risk":5,"migraine_risk":7,"frizz_risk":1,"updated_at":"2026-03-07T02:06:11.412396+05:30"},{"city":"Durgapur","state":"West Bengal","latitude":23.5204,"longitude":87.3119,"temp":23.9,"humidity":81,"rain":0.0,"pressure":997.4,"uv_index":7.75,"wind_gusts":23.4,"aqi":161,"pm10":76.6,"pm2_5":65.9,"mosquito_risk":3,"arthritis_risk":5,"migraine_risk":7,"frizz_risk":1,"updated_at":"2026-03-07T02:06:11.412425+05:30"},{"city":"Asansol","state":"West Bengal","latitude":23.6739,"longitude":86.9524,"temp":24.5,"humidity":77,"rain":0.0,"pressure":995.9,"uv_index":7.75,"wind_gusts":18.7,"aqi":161,"pm10":69.4,"pm2_5":58.8,"mosquito_risk":3,"arthritis_risk":5,"migraine_risk":7,"frizz_risk":1,"updated_at":"2026-03-07T02:06:11.412436+05:30"},{"city":"Pondicherry","state":"Puducherry","latitude":11.9139,"longitude":79.8145,"temp":23.4,"humidity":95,"rain":0.0,"pressure":1008.7,"uv_index":8.95,"wind_gusts":31.7,"aqi":73,"pm10":25.9,"pm2_5":20.0,"mosquito_risk":3,"arthritis_risk":0,"migraine_risk":4,"frizz_risk":1,"updated_at":"2026-03-07T02:06:11.412445+05:30"},{"city":"Port Blair","state":"Andaman and Nicobar Islands","latitude":11.6234,"longitude":92.7265,"temp":27.0,"humidity":71,"rain":0.0,"pressure":1008.0,"uv_index":8.9,"wind_gusts":13.7,"aqi":73,"pm10":54.2,"pm2_5":32.8,"mosquito_risk":7,"arthritis_risk":0,"migraine_risk":4,"frizz_risk":1,"updated_at":"2026-03-07T02:06:11.412453+05:30"},{"city":"Haridwar","state":"Uttarakhand","latitude":29.9457,"longitude":78.1642,"temp":21.1,"humidity":84,"rain":0.0,"pressure":977.1,"uv_index":5.75,"wind_gusts":19.1,"aqi":157,"pm10":96.2,"pm2_5":82.0,"mosquito_risk":3,"arthritis_risk":5,"migraine_risk":3,"frizz_risk":1,"updated_at":"2026-03-07T02:06:11.412460+05:30"},{"city":"Rishikesh","state":"Uttarakhand","latitude":30.0869,"longitude":78.2676,"temp":20.4,"humidity":82,"rain":0.0,"pressure":969.8,"uv_index":5.8,"wind_gusts":22.3,"aqi":154,"pm10":112.7,"pm2_5":84.3,"mosquito_risk":3,"arthritis_risk":5,"migraine_risk":3,"frizz_risk":1,"updated_at":"2026-03-07T02:06:11.412468+05:30"},{"city":"Nainital","state":"Uttarakhand","latitude":29.3919,"longitude":79.4542,"temp":15.9,"humidity":71,"rain":0.0,"pressure":807.0,"uv_index":6.6,"wind_gusts":54.0,"aqi":160,"pm10":94.3,"pm2_5":73.3,"mosquito_risk":3,"arthritis_risk":5,"migraine_risk":7,"frizz_risk":0,"updated_at":"2026-03-07T02:06:11.412475+05:30"},{"city":"Mussoorie","state":"Uttarakhand","latitude":30.4599,"longitude":78.0664,"temp":14.9,"humidity":83,"rain":0.0,"pressure":803.7,"uv_index":6.1,"wind_gusts":39.2,"aqi":154,"pm10":122.9,"pm2_5":88.5,"mosquito_risk":3,"arthritis_risk":10,"migraine_risk":7,"frizz_risk":0,"updated_at":"2026-03-07T02:06:11.412483+05:30"},{"city":"Dharamshala","state":"Himachal Pradesh","latitude":32.219,"longitude":76.3234,"temp":20.7,"humidity":49,"rain":0.0,"pressure":871.3,"uv_index":6.4,"wind_gusts":23.8,"aqi":56,"pm10":25.2,"pm2_5":15.8,"mosquito_risk":0,"arthritis_risk":5,"migraine_risk":7,"frizz_risk":0,"updated_at":"2026-03-07T02:06:11.412490+05:30"},{"city":"Dalhousie","state":"Himachal Pradesh","latitude":32.5387,"longitude":75.971,"temp":17.6,"humidity":51,"rain":0.0,"pressure":805.6,"uv_index":6.35,"wind_gusts":20.2,"aqi":93,"pm10":43.9,"pm2_5":37.4,"mosquito_risk":0,"arthritis_risk":5,"migraine_risk":7,"frizz_risk":0,"updated_at":"2026-03-07T02:06:11.412498+05:30"},{"city":"Patiala","state":"Punjab","latitude":30.3398,"longitude":76.3869,"temp":19.7,"humidity":92,"rain":0.0,"pressure":980.4,"uv_index":5.75,"wind_gusts":19.4,"aqi":163,"pm10":174.6,"pm2_5":86.6,"mosquito_risk":3,"arthritis_risk":10,"migraine_risk":3,"frizz_risk":1,"updated_at":"2026-03-07T02:06:11.412505+05:30"},{"city":"Bhatinda","state":"Punjab","latitude":30.211,"longitude":74.9455,"temp":21.3,"humidity":55,"rain":0.0,"pressure":985.1,"uv_index":6.45,"wind_gusts":16.2,"aqi":139,"pm10":81.5,"pm2_5":48.7,"mosquito_risk":0,"arthritis_risk":5,"migraine_risk":7,"frizz_risk":0,"updated_at":"2026-03-07T02:06:11.412512+05:30"},{"city":"Rohtak","state":"Haryana","latitude":28.8955,"longitude":76.6066,"temp":19.1,"humidity":68,"rain":0.0,"pressure":983.7,"uv_index":5.95,"wind_gusts":11.5,"aqi":162,"pm10":287.8,"pm2_5":112.0,"mosquito_risk":3,"arthritis_risk":5,"migraine_risk":3,"frizz_risk":0,"updated_at":"2026-03-07T02:06:11.412518+05:30"},{"city":"Panipat","state":"Haryana","latitude":29.3909,"longitude":76.9635,"temp":20.0,"humidity":86,"rain":0.0,"pressure":982.5,"uv_index":5.75,"wind_gusts":14.8,"aqi":311,"pm10":308.3,"pm2_5":112.7,"mosquito_risk":3,"arthritis_risk":5,"migraine_risk":3,"frizz_risk":1,"updated_at":"2026-03-07T02:06:11.412525+05:30"},{"city":"Mathura","state":"Uttar Pradesh","latitude":27.4924,"longitude":77.6737,"temp":18.1,"humidity":78,"rain":0.0,"pressure":988.8,"uv_index":6.2,"wind_gusts":14.0,"aqi":167,"pm10":185.3,"pm2_5":96.2,"mosquito_risk":3,"arthritis_risk":5,"migraine_risk":7,"frizz_risk":0,"updated_at":"2026-03-07T02:06:11.412532+05:30"},{"city":"Vrindavan","state":"Uttar Pradesh","latitude":27.5823,"longitude":77.7027,"temp":19.0,"humidity":82,"rain":0.0,"pressure":989.2,"uv_index":6.2,"wind_gusts":13.0,"aqi":167,"pm10":185.3,"pm2_5":96.2,"mosquito_risk":3,"arthritis_risk":10,"migraine_risk":7,"frizz_risk":0,"updated_at":"2026-03-07T02:06:11.412539+05:30"},{"city":"Ayodhya","state":"Uttar Pradesh","latitude":26.7922,"longitude":82.1998,"temp":21.1,"humidity":80,"rain":0.0,"pressure":997.9,"uv_index":6.65,"wind_gusts":15.8,"aqi":168,"pm10":138.8,"pm2_5":115.3,"mosquito_risk":3,"arthritis_risk":5,"migraine_risk":7,"frizz_risk":1,"updated_at":"2026-03-07T02:06:11.412545+05:30"},{"city":"Ratlam","state":"Madhya Pradesh","latitude":23.3315,"longitude":75.0367,"temp":22.6,"humidity":51,"rain":0.0,"pressure":955.5,"uv_index":7.45,"wind_gusts":15.5,"aqi":66,"pm10":44.9,"pm2_5":43.7,"mosquito_risk":0,"arthritis_risk":5,"migraine_risk":7,"frizz_risk":0,"updated_at":"2026-03-07T02:06:11.412552+05:30"},{"city":"Sagar","state":"Madhya Pradesh","latitude":23.8388,"longitude":78.7378,"temp":20.4,"humidity":56,"rain":0.0,"pressure":950.9,"uv_index":7.4,"wind_gusts":23.8,"aqi":61,"pm10":61.7,"pm2_5":26.0,"mosquito_risk":0,"arthritis_risk":5,"migraine_risk":7,"frizz_risk":0,"updated_at":"2026-03-07T02:06:11.412559+05:30"},{"city":"Satna","state":"Madhya Pradesh","latitude":24.6005,"longitude":80.8322,"temp":20.5,"humidity":79,"rain":0.0,"pressure":973.0,"uv_index":7.4,"wind_gusts":22.3,"aqi":128,"pm10":113.9,"pm2_5":71.5,"mosquito_risk":3,"arthritis_risk":5,"migraine_risk":7,"frizz_risk":1,"updated_at":"2026-03-07T02:06:11.412566+05:30"},{"city":"Akola","state":"Maharashtra","latitude":20.7002,"longitude":77.0082,"temp":22.2,"humidity":64,"rain":0.0,"pressure":975.2,"uv_index":7.9,"wind_gusts":17.6,"aqi":78,"pm10":33.4,"pm2_5":29.5,"mosquito_risk":3,"arthritis_risk":5,"migraine_risk":7,"frizz_risk":0,"updated_at":"2026-03-07T02:06:11.412573+05:30"},{"city":"Amravati","state":"Maharashtra","latitude":20.9374,"longitude":77.7796,"temp":22.0,"humidity":57,"rain":0.0,"pressure":967.1,"uv_index":7.85,"wind_gusts":17.6,"aqi":77,"pm10":39.9,"pm2_5":34.0,"mosquito_risk":0,"arthritis_risk":5,"migraine_risk":7,"frizz_risk":0,"updated_at":"2026-03-07T02:06:11.412580+05:30"},{"city":"Latur","state":"Maharashtra","latitude":18.4088,"longitude":76.5604,"temp":23.8,"humidity":40,"rain":0.0,"pressure":939.3,"uv_index":8.35,"wind_gusts":26.3,"aqi":72,"pm10":38.2,"pm2_5":31.2,"mosquito_risk":0,"arthritis_risk":5,"migraine_risk":7,"frizz_risk":0,"updated_at":"2026-03-07T02:06:11.412587+05:30"},{"city":"Nanded","state":"Maharashtra","latitude":19.1383,"longitude":77.3091,"temp":23.5,"humidity":51,"rain":0.0,"pressure":968.3,"uv_index":8.1,"wind_gusts":16.9,"aqi":91,"pm10":60.8,"pm2_5":52.3,"mosquito_risk":0,"arthritis_risk":5,"migraine_risk":7,"frizz_risk":0,"updated_at":"2026-03-07T02:06:11.412593+05:30"},{"city":"Gulbarga","state":"Karnataka","latitude":17.3297,"longitude":76.8343,"temp":25.7,"humidity":45,"rain":0.0,"pressure":958.1,"uv_index":8.45,"wind_gusts":18.7,"aqi":67,"pm10":26.3,"pm2_5":21.0,"mosquito_risk":4,"arthritis_risk":5,"migraine_risk":7,"frizz_risk":0,"updated_at":"2026-03-07T02:06:11.412599+05:30"},{"city":"Bidar","state":"Karnataka","latitude":17.9104,"longitude":77.5199,"temp":24.3,"humidity":42,"rain":0.0,"pressure":934.9,"uv_index":8.35,"wind_gusts":20.2,"aqi":74,"pm10":34.8,"pm2_5":23.9,"mosquito_risk":0,"arthritis_risk":5,"migraine_risk":7,"frizz_risk":0,"updated_at":"2026-03-07T02:06:11.412605+05:30"},{"city":"Hospet","state":"Karnataka","latitude":15.2689,"longitude":76.3909,"temp":24.2,"humidity":70,"rain":0.0,"pressure":955.3,"uv_index":8.75,"wind_gusts":18.0,"aqi":91,"pm10":32.6,"pm2_5":30.4,"mosquito_risk":3,"arthritis_risk":5,"migraine_risk":7,"frizz_risk":1,"updated_at":"2026-03-07T02:06:11.412612+05:30"},{"city":"Tirupur","state":"Tamil Nadu","latitude":11.1085,"longitude":77.3411,"temp":24.7,"humidity":88,"rain":0.0,"pressure":975.0,"uv_index":9.2,"wind_gusts":31.3,"aqi":123,"pm10":36.7,"pm2_5":35.6,"mosquito_risk":3,"arthritis_risk":5,"migraine_risk":7,"frizz_risk":1,"updated_at":"2026-03-07T02:06:11.412618+05:30"},{"city":"Alappuzha","state":"Kerala","latitude":9.4981,"longitude":76.3388,"temp":26.6,"humidity":86,"rain":0.0,"pressure":1008.9,"uv_index":8.9,"wind_gusts":26.3,"aqi":103,"pm10":41.7,"pm2_5":39.0,"mosquito_risk":7,"arthritis_risk":0,"migraine_risk":4,"frizz_risk":1,"updated_at":"2026-03-07T02:06:11.412624+05:30"},{"city":"Munnar","state":"Kerala","latitude":10.0889,"longitude":77.0595,"temp":19.4,"humidity":84,"rain":0.0,"pressure":855.7,"uv_index":9.5,"wind_gusts":31.3,"aqi":100,"pm10":34.7,"pm2_5":33.1,"mosquito_risk":3,"arthritis_risk":10,"migraine_risk":7,"frizz_risk":1,"updated_at":"2026-03-07T02:06:11.412631+05:30"},{"city":"Silchar","state":"Assam","latitude":24.8333,"longitude":92.7789,"temp":24.6,"humidity":69,"rain":0.0,"pressure":1007.5,"uv_index":7.6,"wind_gusts":20.5,"aqi":170,"pm10":117.8,"pm2_5":113.2,"mosquito_risk":3,"arthritis_risk":5,"migraine_risk":4,"frizz_risk":1,"updated_at":"2026-03-07T02:06:11.412638+05:30"},{"city":"Dibrugarh","state":"Assam","latitude":27.4728,"longitude":94.912,"temp":23.5,"humidity":79,"rain":0.0,"pressure":997.4,"uv_index":7.2,"wind_gusts":13.3,"aqi":94,"pm10":35.7,"pm2_5":33.9,"mosquito_risk":3,"arthritis_risk":5,"migraine_risk":7,"frizz_risk":1,"updated_at":"2026-03-07T02:06:11.412644+05:30"}]