[{"city":"Delhi","state":"Delhi","latitude":28.6139,"longitude":77.209,"temp":29.8,"humidity":32,"rain":0.0,"pressure":981.5,"uv_index":6.85,"wind_gusts":40.7,"aqi":153,"pm10":230.5,"pm2_5":36.0,"mosquito_risk":4,"arthritis_risk":5,"migraine_risk":7,"frizz_risk":0,"updated_at":"2026-04-05T16:07:55.941149+05:30"},{"city":"Mumbai","state":"Maharashtra","latitude":19.076,"longitude":72.8777,"temp":27.8,"humidity":68,"rain":0.0,"pressure":1008.1,"uv_index":7.9,"wind_gusts":23.4,"aqi":69,"pm10":32.1,"pm2_5":16.9,"mosquito_risk":7,"arthritis_risk":0,"migraine_risk":4,"frizz_risk":1,"updated_at":"2026-04-05T16:07:55.941189+05:30"},{"city":"Bangalore","state":"Karnataka","latitude":12.9716,"longitude":77.5946,"temp":32.0,"humidity":39,"rain":0.0,"pressure":910.2,"uv_index":9.65,"wind_gusts":28.8,"aqi":108,"pm10":29.0,"pm2_5":23.7,"mosquito_risk":0,"arthritis_risk":5,"migraine_risk":7,"frizz_risk":1,"updated_at":"2026-04-05T16:07:55.941204+05:30"},{"city":"Hyderabad","state":"Telangana","latitude":17.385,"longitude":78.4867,"temp":35.5,"humidity":31,"rain":0.0,"pressure":950.5,"uv_index":9.1,"wind_gusts":26.3,"aqi":120,"pm10":51.9,"pm2_5":42.0,"mosquito_risk":0,"arthritis_risk":5,"migraine_risk":10,"frizz_risk":0,"updated_at":"2026-04-05T16:07:55.941214+05:30"},{"city":"Chennai","state":"Tamil Nadu","latitude":13.0827,"longitude":80.2707,"temp":33.3,"humidity":62,"rain":0.0,"pressure":1003.8,"uv_index":9.3,"wind_gusts":37.8,"aqi":79,"pm10":28.3,"pm2_5":22.7,"mosquito_risk":3,"arthritis_risk":5,"migraine_risk":4,"frizz_risk":1,"updated_at":"2026-04-05T16:07:55.941222+05:30"},{"city":"Kolkata","state":"West Bengal","latitude":22.5726,"longitude":88.3639,"temp":30.4,"humidity":58,"rain":0.0,"pressure":1004.0,"uv_index":8.6,"wind_gusts":29.2,"aqi":134,"pm10":44.7,"pm2_5":38.0,"mosquito_risk":0,"arthritis_risk":5,"migraine_risk":4,"frizz_risk":1,"updated_at":"2026-04-05T16:07:55.941230+05:30"},{"city":"Pune","state":"Maharashtra","latitude":18.5204,"longitude":73.8567,"temp":32.1,"humidity":40,"rain":0.0,"pressure":947.5,"uv_index":8.5,"wind_gusts":39.6,"aqi":73,"pm10":32.1,"pm2_5":15.4,"mosquito_risk":0,"arthritis_risk":5,"migraine_risk":7,"frizz_risk":1,"updated_at":"2026-04-05T16:07:55.941242+05:30"},{"city":"Ahmedabad","state":"Gujarat","latitude":23.0225,"longitude":72.5714,"temp":34.5,"humidity":21,"rain":0.0,"pressure":1000.9,"uv_index":7.9,"wind_gusts":28.1,"aqi":69,"pm10":31.9,"pm2_5":10.1,"mosquito_risk":0,"arthritis_risk":5,"migraine_risk":4,"frizz_risk":0,"updated_at":"2026-04-05T16:07:55.941250+05:30"},{"city":"Jaipur","state":"Rajasthan","latitude":26.9124,"longitude":75.7873,"temp":30.7,"humidity":20,"rain":0.0,"pressure":958.2,"uv_index":7.55,"wind_gusts":34.6,"aqi":93,"pm10":181.6,"pm2_5":24.1,"mosquito_risk":0,"arthritis_risk":5,"migraine_risk":7,"frizz_risk":0,"updated_at":"2026-04-05T16:07:55.941257+05:30"},{"city":"Lucknow","state":"Uttar Pradesh","latitude":26.8467,"longitude":80.9462,"temp":31.7,"humidity":33,"rain":0.0,"pressure":990.9,"uv_index":7.4,"wind_gusts":44.3,"aqi":118,"pm10":100.8,"pm2_5":24.6,"mosquito_risk":0,"arthritis_risk":5,"migraine_risk":7,"frizz_risk":0,"updated_at":"2026-04-05T16:07:55.941264+05:30"},{"city":"Kanpur","state":"Uttar Pradesh","latitude":26.4499,"longitude":80.3319,"temp":30.6,"humidity":39,"rain":0.0,"pressure":989.6,"uv_index":7.45,"wind_gusts":40.7,"aqi":145,"pm10":240.3,"pm2_5":35.4,"mosquito_risk":0,"arthritis_risk":5,"migraine_risk":7,"frizz_risk":0,"updated_at":"2026-04-05T16:07:55.941271+05:30"},{"city":"Chandigarh","state":"Chandigarh","latitude":30.7333,"longitude":76.7794,"temp":28.7,"humidity":29,"rain":0.0,"pressure":967.5,"uv_index":6.85,"wind_gusts":34.6,"aqi":77,"pm10":47.0,"pm2_5":17.2,"mosquito_risk":4,"arthritis_risk":5,"migraine_risk":7,"frizz_risk":0,"updated_at":"2026-04-05T16:07:55.941279+05:30"},{"city":"Srinagar","state":"Jammu and Kashmir","latitude":34.0837,"longitude":74.7973,"temp":15.8,"humidity":57,"rain":0.0,"pressure":839.3,"uv_index":7.1,"wind_gusts":18.4,"aqi":59,"pm10":32.7,"pm2_5":11.0,"mosquito_risk":0,"arthritis_risk":5,"migraine_risk":7,"frizz_risk":0,"updated_at":"2026-04-05T16:07:55.941286+05:30"},{"city":"Jammu","state":"Jammu and Kashmir","latitude":32.7266,"longitude":74.857,"temp":27.4,"humidity":37,"rain":0.0,"pressure":972.4,"uv_index":7.5,"wind_gusts":24.5,"aqi":64,"pm10":45.9,"pm2_5":14.8,"mosquito_risk":4,"arthritis_risk":5,"migraine_risk":7,"frizz_risk":0,"updated_at":"2026-04-05T16:07:55.941293+05:30"},{"city":"Amritsar","state":"Punjab","latitude":31.634,"longitude":74.8723,"temp":28.1,"humidity":32,"rain":0.0,"pressure":980.1,"uv_index":7.45,"wind_gusts":29.5,"aqi":96,"pm10":51.1,"pm2_5":19.3,"mosquito_risk":4,"arthritis_risk":5,"migraine_risk":7,"frizz_risk":0,"updated_at":"2026-04-05T16:07:55.941300+05:30"},{"city":"Ludhiana","state":"Punjab","latitude":30.901,"longitude":75.8573,"temp":28.8,"humidity":31,"rain":0.0,"pressure":977.8,"uv_index":7.05,"wind_gusts":29.5,"aqi":97,"pm10":94.1,"pm2_5":23.6,"mosquito_risk":4,"arthritis_risk":5,"migraine_risk":7,"frizz_risk":0,"updated_at":"2026-04-05T16:07:55.941306+05:30"},{"city":"Jalandhar","state":"Punjab","latitude":31.326,"longitude":75.5762,"temp":28.6,"humidity":31,"rain":0.0,"pressure":979.1,"uv_index":7.25,"wind_gusts":25.6,"aqi":88,"pm10":80.1,"pm2_5":20.4,"mosquito_risk":4,"arthritis_risk":5,"migraine_risk":7,"frizz_risk":0,"updated_at":"2026-04-05T16:07:55.941315+05:30"},{"city":"Dehradun","state":"Uttarakhand","latitude":30.6284,"longitude":78.0322,"temp":17.8,"humidity":50,"rain":0.0,"pressure":828.3,"uv_index":6.65,"wind_gusts":39.2,"aqi":59,"pm10":19.8,"pm2_5":7.7,"mosquito_risk":0,"arthritis_risk":5,"migraine_risk":7,"frizz_risk":0,"updated_at":"2026-04-05T16:07:55.941322+05:30"},{"city":"Shimla","state":"Himachal Pradesh","latitude":31.1048,"longitude":77.1734,"temp":14.5,"humidity":61,"rain":0.0,"pressure":782.9,"uv_index":5.35,"wind_gusts":29.5,"aqi":57,"pm10":30.9,"pm2_5":15.6,"mosquito_risk":3,"arthritis_risk":5,"migraine_risk":3,"frizz_risk":0,"updated_at":"2026-04-05T16:07:55.941328+05:30"},{"city":"Manali","state":"Himachal Pradesh","latitude":32.2396,"longitude":77.1887,"temp":14.1,"humidity":88,"rain":0.0,"pressure":816.4,"uv_index":9.4,"wind_gusts":29.2,"aqi":79,"pm10":13.8,"pm2_5":5.8,"mosquito_risk":3,"arthritis_risk":10,"migraine_risk":7,"frizz_risk":0,"updated_at":"2026-04-05T16:07:55.941336+05:30"},{"city":"Gurgaon","state":"Haryana","latitude":28.4595,"longitude":77.0266,"temp":29.1,"humidity":37,"rain":0.0,"pressure":980.1,"uv_index":6.65,"wind_gusts":35.6,"aqi":191,"pm10":644.5,"pm2_5":70.1,"mosquito_risk":4,"arthritis_risk":5,"migraine_risk":7,"frizz_risk":0,"updated_at":"2026-04-05T16:07:55.941343+05:30"},{"city":"Noida","state":"Uttar Pradesh","latitude":28.5355,"longitude":77.391,"temp":29.7,"humidity":35,"rain":0.0,"pressure":983.1,"uv_index":6.9,"wind_gusts":39.2,"aqi":191,"pm10":644.5,"pm2_5":70.1,"mosquito_risk":4,"arthritis_risk":5,"migraine_risk":7,"frizz_risk":0,"updated_at":"2026-04-05T16:07:55.941349+05:30"},{"city":"Ghaziabad","state":"Uttar Pradesh","latitude":28.6692,"longitude":77.4538,"temp":29.9,"humidity":33,"rain":0.0,"pressure":981.2,"uv_index":6.05,"wind_gusts":42.1,"aqi":151,"pm10":127.1,"pm2_5":29.4,"mosquito_risk":4,"arthritis_risk":5,"migraine_risk":7,"frizz_risk":0,"updated_at":"2026-04-05T16:07:55.941355+05:30"},{"city":"Faridabad","state":"Haryana","latitude":28.4089,"longitude":77.3178,"temp":28.6,"humidity":39,"rain":0.0,"pressure":982.6,"uv_index":6.2,"wind_gusts":36.4,"aqi":191,"pm10":644.5,"pm2_5":70.1,"mosquito_risk":4,"arthritis_risk":5,"migraine_risk":7,"frizz_risk":0,"updated_at":"2026-04-05T16:07:55.941361+05:30"},{"city":"Meerut","state":"Uttar Pradesh","latitude":28.9845,"longitude":77.7064,"temp":29.5,"humidity":34,"rain":0.0,"pressure":979.7,"uv_index":6.5,"wind_gusts":34.6,"aqi":151,"pm10":127.1,"pm2_5":29.4,"mosquito_risk":4,"arthritis_risk":5,"migraine_risk":7,"frizz_risk":0,"updated_at":"2026-04-05T16:07:55.941369+05:30"},{"city":"Agra","state":"Uttar Pradesh","latitude":27.1767,"longitude":78.0081,"temp":26.8,"humidity":60,"rain":0.0,"pressure":987.2,"uv_index":7.3,"wind_gusts":34.2,"aqi":287,"pm10":432.1,"pm2_5":54.7,"mosquito_risk":4,"arthritis_risk":5,"migraine_risk":7,"frizz_risk":1,"updated_at":"2026-04-05T16:07:55.941376+05:30"},{"city":"Varanasi","state":"Uttar Pradesh","latitude":25.3176,"longitude":82.9739,"temp":32.7,"humidity":37,"rain":0.0,"pressure":995.0,"uv_index":8.1,"wind_gusts":32.4,"aqi":93,"pm10":33.4,"pm2_5":17.2,"mosquito_risk":0,"arthritis_risk":5,"migraine_risk":7,"frizz_risk":1,"updated_at":"2026-04-05T16:07:55.941386+05:30"},{"city":"Prayagraj","state":"Uttar Pradesh","latitude":25.4358,"longitude":81.8463,"temp":32.1,"humidity":38,"rain":0.0,"pressure":993.7,"uv_index":7.95,"wind_gusts":30.2,"aqi":96,"pm10":34.1,"pm2_5":15.7,"mosquito_risk":0,"arthritis_risk":5,"migraine_risk":7,"frizz_risk":0,"updated_at":"2026-04-05T16:07:55.941394+05:30"},{"city":"Gorakhpur","state":"Uttar Pradesh","latitude":26.7606,"longitude":83.3732,"temp":33.5,"humidity":21,"rain":0.0,"pressure":993.8,"uv_index":7.85,"wind_gusts":45.4,"aqi":89,"pm10":43.4,"pm2_5":16.1,"mosquito_risk":0,"arthritis_risk":5,"migraine_risk":7,"frizz_risk":0,"updated_at":"2026-04-05T16:07:55.941400+05:30"},{"city":"Bareilly","state":"Uttar Pradesh","latitude":28.367,"longitude":79.4304,"temp":29.6,"humidity":37,"rain":0.0,"pressure":984.9,"uv_index":7.2,"wind_gusts":40.7,"aqi":83,"pm10":65.4,"pm2_5":24.4,"mosquito_risk":4,"arthritis_risk":5,"migraine_risk":7,"frizz_risk":0,"updated_at":"2026-04-05T16:07:55.941406+05:30"},{"city":"Aligarh","state":"Uttar Pradesh","latitude":27.8974,"longitude":78.088,"temp":28.1,"humidity":48,"rain":0.0,"pressure":984.8,"uv_index":7.1,"wind_gusts":31.0,"aqi":169,"pm10":197.9,"pm2_5":41.8,"mosquito_risk":4,"arthritis_risk":5,"migraine_risk":7,"frizz_risk":0,"updated_at":"2026-04-05T16:07:55.941412+05:30"},{"city":"Moradabad","state":"Uttar Pradesh","latitude":28.8386,"longitude":78.7733,"temp":29.4,"humidity":34,"rain":0.0,"pressure":981.7,"uv_index":7.0,"wind_gusts":29.2,"aqi":96,"pm10":73.3,"pm2_5":25.3,"mosquito_risk":4,"arthritis_risk":5,"migraine_risk":7,"frizz_risk":0,"updated_at":"2026-04-05T16:07:55.941418+05:30"},{"city":"Saharanpur","state":"Uttar Pradesh","latitude":29.9637,"longitude":77.546,"temp":30.5,"humidity":23,"rain":0.0,"pressure":973.3,"uv_index":6.6,"wind_gusts":33.8,"aqi":89,"pm10":56.0,"pm2_5":15.4,"mosquito_risk":0,"arthritis_risk":5,"migraine_risk":7,"frizz_risk":0,"updated_at":"2026-04-05T16:07:55.941424+05:30"},{"city":"Jhansi","state":"Uttar Pradesh","latitude":25.4484,"longitude":78.5685,"temp":32.6,"humidity":27,"rain":0.0,"pressure":974.9,"uv_index":7.85,"wind_gusts":33.1,"aqi":56,"pm10":21.8,"pm2_5":10.0,"mosquito_risk":0,"arthritis_risk":5,"migraine_risk":7,"frizz_risk":0,"updated_at":"2026-04-05T16:07:59.151696+05:30"},{"city":"Surat","state":"Gujarat","latitude":21.1702,"longitude":72.8311,"temp":30.0,"humidity":51,"rain":0.0,"pressure":1006.4,"uv_index":7.65,"wind_gusts":27.7,"aqi":78,"pm10":46.6,"pm2_5":34.1,"mosquito_risk":4,"arthritis_risk":5,"migraine_risk":4,"frizz_risk":1,"updated_at":"2026-04-05T16:07:59.151726+05:30"},{"city":"Vadodara","state":"Gujarat","latitude":22.3072,"longitude":73.1812,"temp":33.9,"humidity":27,"rain":0.0,"pressure":1003.1,"uv_index":7.9,"wind_gusts":19.8,"aqi":74,"pm10":25.2,"pm2_5":13.6,"mosquito_risk":0,"arthritis_risk":5,"migraine_risk":4,"frizz_risk":0,"updated_at":"2026-04-05T16:07:59.151736+05:30"},{"city":"Rajkot","state":"Gujarat","latitude":22.3039,"longitude":70.8022,"temp":33.8,"humidity":25,"rain":0.0,"pressure":993.7,"uv_index":7.65,"wind_gusts":34.6,"aqi":72,"pm10":29.9,"pm2_5":10.3,"mosquito_risk":0,"arthritis_risk":5,"migraine_risk":7,"frizz_risk":0,"updated_at":"2026-04-05T16:07:59.151744+05:30"},{"city":"Thane","state":"Maharashtra","latitude":19.2183,"longitude":72.9781,"temp":29.5,"humidity":57,"rain":0.0,"pressure":1007.5,"uv_index":7.9,"wind_gusts":34.9,"aqi":69,"pm10":32.1,"pm2_5":16.9,"mosquito_risk":4,"arthritis_risk":5,"migraine_risk":4,"frizz_risk":1,"updated_at":"2026-04-05T16:07:59.151751+05:30"},{"city":"Nagpur","state":"Maharashtra","latitude":21.1458,"longitude":79.0882,"temp":34.9,"humidity":27,"rain":0.0,"pressure":970.2,"uv_index":8.7,"wind_gusts":29.5,"aqi":94,"pm10":34.5,"pm2_5":19.1,"mosquito_risk":0,"arthritis_risk":5,"migraine_risk":7,"frizz_risk":0,"updated_at":"2026-04-05T16:07:59.151758+05:30"},{"city":"Nashik","state":"Maharashtra","latitude":19.9975,"longitude":73.7898,"temp":29.8,"humidity":43,"rain":0.0,"pressure":944.5,"uv_index":8.15,"wind_gusts":36.0,"aqi":56,"pm10":32.2,"pm2_5":12.7,"mosquito_risk":4,"arthritis_risk":5,"migraine_risk":7,"frizz_risk":0,"updated_at":"2026-04-05T16:07:59.151766+05:30"},{"city":"Aurangabad","state":"Maharashtra","latitude":19.8762,"longitude":75.3433,"temp":33.9,"humidity":24,"rain":0.0,"pressure":942.2,"uv_index":8.85,"wind_gusts":37.1,"aqi":56,"pm10":39.5,"pm2_5":14.7,"mosquito_risk":0,"arthritis_risk":5,"migraine_risk":7,"frizz_risk":0,"updated_at":"2026-04-05T16:07:59.151772+05:30"},{"city":"Solapur","state":"Maharashtra","latitude":17.6599,"longitude":75.9064,"temp":36.4,"humidity":22,"rain":0.0,"pressure":954.6,"uv_index":8.6,"wind_gusts":29.9,"aqi":78,"pm10":28.2,"pm2_5":15.8,"mosquito_risk":0,"arthritis_risk":5,"migraine_risk":10,"frizz_risk":0,"updated_at":"2026-04-05T16:07:59.151780+05:30"},{"city":"Kolhapur","state":"Maharashtra","latitude":16.705,"longitude":74.2433,"temp":31.5,"humidity":38,"rain":0.0,"pressure":946.9,"uv_index":9.05,"wind_gusts":45.0,"aqi":68,"pm10":27.2,"pm2_5":13.4,"mosquito_risk":0,"arthritis_risk":5,"migraine_risk":7,"frizz_risk":0,"updated_at":"2026-04-05T16:07:59.151787+05:30"},{"city":"Goa","state":"Goa","latitude":15.2993,"longitude":74.124,"temp":31.3,"humidity":60,"rain":0.0,"pressure":996.5,"uv_index":9.05,"wind_gusts":38.5,"aqi":63,"pm10":49.8,"pm2_5":17.8,"mosquito_risk":0,"arthritis_risk":5,"migraine_risk":7,"frizz_risk":1,"updated_at":"2026-04-05T16:07:59.151793+05:30"},{"city":"Jodhpur","state":"Rajasthan","latitude":26.2389,"longitude":73.0243,"temp":32.1,"humidity":22,"rain":0.0,"pressure":982.2,"uv_index":7.6,"wind_gusts":26.3,"aqi":85,"pm10":85.7,"pm2_5":13.2,"mosquito_risk":0,"arthritis_risk":5,"migraine_risk":7,"frizz_risk":0,"updated_at":"2026-04-05T16:07:59.151801+05:30"},{"city":"Udaipur","state":"Rajasthan","latitude":24.5854,"longitude":73.7125,"temp":28.2,"humidity":25,"rain":0.0,"pressure":946.1,"uv_index":8.3,"wind_gusts":34.2,"aqi":79,"pm10":25.3,"pm2_5":7.8,"mosquito_risk":4,"arthritis_risk":5,"migraine_risk":7,"frizz_risk":0,"updated_at":"2026-04-05T16:07:59.151808+05:30"},{"city":"Kota","state":"Rajasthan","latitude":25.2138,"longitude":75.8648,"temp":33.3,"humidity":18,"rain":0.0,"pressure":976.6,"uv_index":7.6,"wind_gusts":31.7,"aqi":79,"pm10":73.3,"pm2_5":15.0,"mosquito_risk":0,"arthritis_risk":5,"migraine_risk":7,"frizz_risk":0,"updated_at":"2026-04-05T16:07:59.151815+05:30"},{"city":"Bikaner","state":"Rajasthan","latitude":28.0229,"longitude":73.3119,"temp":31.1,"humidity":24,"rain":0.0,"pressure":981.3,"uv_index":7.6,"wind_gusts":26.6,"aqi":64,"pm10":19.3,"pm2_5":8.4,"mosquito_risk":0,"arthritis_risk":5,"migraine_risk":7,"frizz_risk":0,"updated_at":"2026-04-05T16:07:59.151822+05:30"},{"city":"Ajmer","state":"Rajasthan","latitude":26.4499,"longitude":74.6399,"temp":29.6,"humidity":24,"rain":0.0,"pressure":953.4,"uv_index":7.75,"wind_gusts":31.0,"aqi":64,"pm10":86.1,"pm2_5":14.2,"mosquito_risk":4,"arthritis_risk":5,"migraine_risk":7,"frizz_risk":0,"updated_at":"2026-04-05T16:07:59.151828+05:30"},{"city":"Gwalior","state":"Madhya Pradesh","latitude":26.2183,"longitude":78.1828,"temp":30.4,"humidity":40,"rain":0.0,"pressure":981.0,"uv_index":7.6,"wind_gusts":50.8,"aqi":62,"pm10":36.0,"pm2_5":12.0,"mosquito_risk":0,"arthritis_risk":5,"migraine_risk":7,"frizz_risk":0,"updated_at":"2026-04-05T16:07:59.151861+05:30"},{"city":"Indore","state":"Madhya Pradesh","latitude":22.7196,"longitude":75.8577,"temp":31.2,"humidity":22,"rain":0.0,"pressure":946.8,"uv_index":8.3,"wind_gusts":31.0,"aqi":86,"pm10":17.4,"pm2_5":10.9,"mosquito_risk":0,"arthritis_risk":5,"migraine_risk":7,"frizz_risk":0,"updated_at":"2026-04-05T16:07:59.151871+05:30"},{"city":"Bhopal","state":"Madhya Pradesh","latitude":23.2599,"longitude":77.4126,"temp":32.4,"humidity":23,"rain":0.0,"pressure":951.6,"uv_index":8.3,"wind_gusts":33.8,"aqi":71,"pm10":22.8,"pm2_5":7.7,"mosquito_risk":0,"arthritis_risk":5,"migraine_risk":7,"frizz_risk":0,"updated_at":"2026-04-05T16:07:59.151878+05:30"},{"city":"Jabalpur","state":"Madhya Pradesh","latitude":23.1815,"longitude":79.9864,"temp":32.1,"humidity":35,"rain":0.0,"pressure":959.2,"uv_index":8.5,"wind_gusts":31.0,"aqi":74,"pm10":37.5,"pm2_5":15.4,"mosquito_risk":0,"arthritis_risk":5,"migraine_risk":7,"frizz_risk":0,"updated_at":"2026-04-05T16:07:59.151885+05:30"},{"city":"Ujjain","state":"Madhya Pradesh","latitude":23.1765,"longitude":75.7885,"temp":31.4,"humidity":21,"rain":0.0,"pressure":952.4,"uv_index":8.2,"wind_gusts":32.8,"aqi":71,"pm10":13.7,"pm2_5":6.4,"mosquito_risk":0,"arthritis_risk":5,"migraine_risk":7,"frizz_risk":0,"updated_at":"2026-04-05T16:07:59.151892+05:30"},{"city":"Visakhapatnam","state":"Andhra Pradesh","latitude":17.6868,"longitude":83.2185,"temp":31.9,"humidity":66,"rain":0.0,"pressure":1001.3,"uv_index":9.1,"wind_gusts":36.0,"aqi":74,"pm10":42.5,"pm2_5":37.1,"mosquito_risk":3,"arthritis_risk":5,"migraine_risk":4,"frizz_risk":1,"updated_at":"2026-04-05T16:07:59.151899+05:30"},{"city":"Vijayawada","state":"Andhra Pradesh","latitude":16.5062,"longitude":80.648,"temp":34.8,"humidity":50,"rain":0.0,"pressure":999.3,"uv_index":8.45,"wind_gusts":24.1,"aqi":73,"pm10":38.2,"pm2_5":30.3,"mosquito_risk":0,"arthritis_risk":5,"migraine_risk":7,"frizz_risk":1,"updated_at":"2026-04-05T16:07:59.151905+05:30"},{"city":"Guntur","state":"Andhra Pradesh","latitude":16.3067,"longitude":80.4365,"temp":33.8,"humidity":55,"rain":0.0,"pressure":1000.5,"uv_index":8.7,"wind_gusts":31.7,"aqi":72,"pm10":36.9,"pm2_5":29.1,"mosquito_risk":0,"arthritis_risk":5,"migraine_risk":4,"frizz_risk":1,"updated_at":"2026-04-05T16:07:59.151912+05:30"},{"city":"Nellore","state":"Andhra Pradesh","latitude":14.4426,"longitude":79.9865,"temp":34.4,"humidity":60,"rain":0.0,"pressure":1002.1,"uv_index":9.3,"wind_gusts":32.0,"aqi":89,"pm10":30.4,"pm2_5":24.7,"mosquito_risk":0,"arthritis_risk":5,"migraine_risk":4,"frizz_risk":1,"updated_at":"2026-04-05T16:07:59.151919+05:30"},{"city":"Kurnool","state":"Andhra Pradesh","latitude":15.8281,"longitude":78.0373,"temp":38.4,"humidity":26,"rain":0.0,"pressure":972.9,"uv_index":9.2,"wind_gusts":33.8,"aqi":134,"pm10":51.1,"pm2_5":43.0,"mosquito_risk":0,"arthritis_risk":5,"migraine_risk":10,"frizz_risk":0,"updated_at":"2026-04-05T16:07:59.151927+05:30"},{"city":"Kakinada","state":"Andhra Pradesh","latitude":16.9891,"longitude":82.2475,"temp":34.4,"humidity":52,"rain":0.0,"pressure":1004.3,"uv_index":9.15,"wind_gusts":29.5,"aqi":56,"pm10":22.5,"pm2_5":16.6,"mosquito_risk":0,"arthritis_risk":5,"migraine_risk":4,"frizz_risk":1,"updated_at":"2026-04-05T16:07:59.151933+05:30"},{"city":"Tirupati","state":"Andhra Pradesh","latitude":13.6288,"longitude":79.4192,"temp":36.4,"humidity":37,"rain":0.0,"pressure":987.7,"uv_index":8.6,"wind_gusts":36.0,"aqi":100,"pm10":36.6,"pm2_5":31.1,"mosquito_risk":0,"arthritis_risk":5,"migraine_risk":10,"frizz_risk":1,"updated_at":"2026-04-05T16:07:59.151940+05:30"},{"city":"Warangal","state":"Telangana","latitude":17.9689,"longitude":79.5941,"temp":34.2,"humidity":48,"rain":0.0,"pressure":976.0,"uv_index":8.8,"wind_gusts":37.4,"aqi":147,"pm10":63.3,"pm2_5":51.5,"mosquito_risk":0,"arthritis_risk":5,"migraine_risk":7,"frizz_risk":1,"updated_at":"2026-04-05T16:07:59.151946+05:30"},{"city":"Nizamabad","state":"Telangana","latitude":18.6725,"longitude":78.0941,"temp":35.5,"humidity":26,"rain":0.0,"pressure":962.3,"uv_index":8.85,"wind_gusts":55.1,"aqi":116,"pm10":32.1,"pm2_5":17.7,"mosquito_risk":0,"arthritis_risk":5,"migraine_risk":10,"frizz_risk":0,"updated_at":"2026-04-05T16:07:59.151953+05:30"},{"city":"Mysore","state":"Karnataka","latitude":12.2958,"longitude":76.6396,"temp":31.2,"humidity":44,"rain":0.0,"pressure":926.8,"uv_index":9.15,"wind_gusts":36.7,"aqi":81,"pm10":27.0,"pm2_5":21.9,"mosquito_risk":0,"arthritis_risk":5,"migraine_risk":7,"frizz_risk":1,"updated_at":"2026-04-05T16:07:59.151959+05:30"},{"city":"Mangalore","state":"Karnataka","latitude":12.9141,"longitude":74.856,"temp":29.4,"humidity":77,"rain":0.0,"pressure":1004.6,"uv_index":9.15,"wind_gusts":34.6,"aqi":65,"pm10":20.9,"pm2_5":13.2,"mosquito_risk":7,"arthritis_risk":5,"migraine_risk":4,"frizz_risk":1,"updated_at":"2026-04-05T16:07:59.151965+05:30"},{"city":"Hubli-Dharwad","state":"Karnataka","latitude":15.3647,"longitude":75.124,"temp":33.8,"humidity":29,"rain":0.0,"pressure":939.1,"uv_index":9.25,"wind_gusts":38.5,"aqi":63,"pm10":21.5,"pm2_5":16.5,"mosquito_risk":0,"arthritis_risk":5,"migraine_risk":7,"frizz_risk":0,"updated_at":"2026-04-05T16:07:59.151972+05:30"},{"city":"Belgaum","state":"Karnataka","latitude":15.8497,"longitude":74.4977,"temp":30.9,"humidity":40,"rain":0.0,"pressure":924.8,"uv_index":9.3,"wind_gusts":38.5,"aqi":60,"pm10":21.9,"pm2_5":11.1,"mosquito_risk":0,"arthritis_risk":5,"migraine_risk":7,"frizz_risk":0,"updated_at":"2026-04-05T16:08:02.371583+05:30"},{"city":"Coimbatore","state":"Tamil Nadu","latitude":11.0168,"longitude":76.9558,"temp":32.1,"humidity":51,"rain":0.0,"pressure":959.6,"uv_index":9.5,"wind_gusts":45.0,"aqi":89,"pm10":28.6,"pm2_5":24.6,"mosquito_risk":0,"arthritis_risk":5,"migraine_risk":7,"frizz_risk":1,"updated_at":"2026-04-05T16:08:02.371616+05:30"},{"city":"Madurai","state":"Tamil Nadu","latitude":9.9252,"longitude":78.1198,"temp":34.9,"humidity":44,"rain":0.0,"pressure":989.8,"uv_index":2.05,"wind_gusts":23.8,"aqi":118,"pm10":23.6,"pm2_5":21.0,"mosquito_risk":0,"arthritis_risk":5,"migraine_risk":3,"frizz_risk":1,"updated_at":"2026-04-05T16:08:02.371628+05:30"},{"city":"Trichy","state":"Tamil Nadu","latitude":10.7905,"longitude":78.7047,"temp":38.3,"humidity":34,"rain":0.0,"pressure":995.1,"uv_index":9.2,"wind_gusts":36.7,"aqi":110,"pm10":37.1,"pm2_5":32.2,"mosquito_risk":0,"arthritis_risk":5,"migraine_risk":10,"frizz_risk":1,"updated_at":"2026-04-05T16:08:02.371636+05:30"},{"city":"Salem","state":"Tamil Nadu","latitude":11.6643,"longitude":78.146,"temp":37.6,"humidity":32,"rain":0.0,"pressure":973.5,"uv_index":9.2,"wind_gusts":25.9,"aqi":128,"pm10":33.3,"pm2_5":28.6,"mosquito_risk":0,"arthritis_risk":5,"migraine_risk":10,"frizz_risk":1,"updated_at":"2026-04-05T16:08:02.371644+05:30"},{"city":"Tirunelveli","state":"Tamil Nadu","latitude":8.7139,"longitude":77.7567,"temp":37.6,"humidity":30,"rain":0.0,"pressure":998.9,"uv_index":9.4,"wind_gusts":27.4,"aqi":63,"pm10":15.9,"pm2_5":14.2,"mosquito_risk":0,"arthritis_risk":5,"migraine_risk":10,"frizz_risk":1,"updated_at":"2026-04-05T16:08:02.371651+05:30"},{"city":"Vellore","state":"Tamil Nadu","latitude":12.9165,"longitude":79.1325,"temp":36.2,"humidity":36,"rain":0.0,"pressure":980.7,"uv_index":9.45,"wind_gusts":32.8,"aqi":124,"pm10":42.6,"pm2_5":36.1,"mosquito_risk":0,"arthritis_risk":5,"migraine_risk":10,"frizz_risk":1,"updated_at":"2026-04-05T16:08:02.371658+05:30"},{"city":"Erode","state":"Tamil Nadu","latitude":11.341,"longitude":77.7172,"temp":38.5,"humidity":34,"rain":0.0,"pressure":984.5,"uv_index":9.45,"wind_gusts":27.0,"aqi":112,"pm10":29.9,"pm2_5":25.3,"mosquito_risk":0,"arthritis_risk":5,"migraine_risk":10,"frizz_risk":1,"updated_at":"2026-04-05T16:08:02.371665+05:30"},{"city":"Kochi","state":"Kerala","latitude":9.9312,"longitude":76.2673,"temp":29.6,"humidity":78,"rain":0.0,"pressure":1006.3,"uv_index":8.25,"wind_gusts":31.7,"aqi":63,"pm10":17.0,"pm2_5":13.9,"mosquito_risk":7,"arthritis_risk":5,"migraine_risk":4,"frizz_risk":1,"updated_at":"2026-04-05T16:08:02.371673+05:30"},{"city":"Thiruvananthapuram","state":"Kerala","latitude":8.5241,"longitude":76.9366,"temp":29.5,"humidity":80,"rain":0.0,"pressure":1005.4,"uv_index":9.2,"wind_gusts":38.5,"aqi":54,"pm10":18.9,"pm2_5":13.4,"mosquito_risk":7,"arthritis_risk":5,"migraine_risk":4,"frizz_risk":1,"updated_at":"2026-04-05T16:08:02.371679+05:30"},{"city":"Kozhikode","state":"Kerala","latitude":11.2588,"longitude":75.7804,"temp":30.5,"humidity":74,"rain":0.0,"pressure":1005.7,"uv_index":9.2,"wind_gusts":33.8,"aqi":56,"pm10":27.6,"pm2_5":15.8,"mosquito_risk":3,"arthritis_risk":5,"migraine_risk":4,"frizz_risk":1,"updated_at":"2026-04-05T16:08:02.371686+05:30"},{"city":"Thrissur","state":"Kerala","latitude":10.5276,"longitude":76.2144,"temp":32.5,"humidity":63,"rain":0.0,"pressure":1004.8,"uv_index":9.15,"wind_gusts":36.7,"aqi":62,"pm10":19.3,"pm2_5":16.1,"mosquito_risk":3,"arthritis_risk":5,"migraine_risk":4,"frizz_risk":1,"updated_at":"2026-04-05T16:08:02.371693+05:30"},{"city":"Kannur","state":"Kerala","latitude":11.8745,"longitude":75.3704,"temp":31.7,"humidity":62,"rain":0.0,"pressure":1004.9,"uv_index":9.2,"wind_gusts":38.5,"aqi":68,"pm10":27.4,"pm2_5":15.9,"mosquito_risk":3,"arthritis_risk":5,"migraine_risk":4,"frizz_risk":1,"updated_at":"2026-04-05T16:08:02.371699+05:30"},{"city":"Patna","state":"Bihar","latitude":25.5941,"longitude":85.1376,"temp":34.4,"humidity":32,"rain":0.0,"pressure":996.6,"uv_index":8.25,"wind_gusts":45.0,"aqi":73,"pm10":23.2,"pm2_5":13.8,"mosquito_risk":0,"arthritis_risk":5,"migraine_risk":7,"frizz_risk":0,"updated_at":"2026-04-05T16:08:02.371705+05:30"},{"city":"Gaya","state":"Bihar","latitude":24.7914,"longitude":85.0002,"temp":34.5,"humidity":31,"rain":0.0,"pressure":990.3,"uv_index":8.35,"wind_gusts":41.4,"aqi":74,"pm10":30.4,"pm2_5":16.9,"mosquito_risk":0,"arthritis_risk":5,"migraine_risk":7,"frizz_risk":0,"updated_at":"2026-04-05T16:08:02.371712+05:30"},{"city":"Muzaffarpur","state":"Bihar","latitude":26.1209,"longitude":85.3647,"temp":34.6,"humidity":27,"rain":0.0,"pressure":996.2,"uv_index":8.2,"wind_gusts":33.5,"aqi":75,"pm10":19.7,"pm2_5":10.5,"mosquito_risk":0,"arthritis_risk":5,"migraine_risk":7,"frizz_risk":0,"updated_at":"2026-04-05T16:08:02.371718+05:30"},{"city":"Bhagalpur","state":"Bihar","latitude":25.2425,"longitude":87.0117,"temp":33.4,"humidity":38,"rain":0.0,"pressure":997.4,"uv_index":8.35,"wind_gusts":30.2,"aqi":78,"pm10":21.7,"pm2_5":15.1,"mosquito_risk":0,"arthritis_risk":5,"migraine_risk":7,"frizz_risk":1,"updated_at":"2026-04-05T16:08:02.371725+05:30"},{"city":"Ranchi","state":"Jharkhand","latitude":23.3441,"longitude":85.3096,"temp":29.8,"humidity":39,"rain":0.0,"pressure":936.4,"uv_index":8.9,"wind_gusts":45.7,"aqi":97,"pm10":38.3,"pm2_5":22.5,"mosquito_risk":4,"arthritis_risk":5,"migraine_risk":7,"frizz_risk":0,"updated_at":"2026-04-05T16:08:02.371731+05:30"},{"city":"Jamshedpur","state":"Jharkhand","latitude":22.8046,"longitude":86.2029,"temp":33.7,"humidity":40,"rain":0.0,"pressure":988.4,"uv_index":8.6,"wind_gusts":18.0,"aqi":107,"pm10":42.1,"pm2_5":29.9,"mosquito_risk":0,"arthritis_risk":5,"migraine_risk":7,"frizz_risk":1,"updated_at":"2026-04-05T16:08:02.371737+05:30"},{"city":"Dhanbad","state":"Jharkhand","latitude":23.7957,"longitude":86.4304,"temp":34.1,"humidity":32,"rain":0.0,"pressure":977.0,"uv_index":8.7,"wind_gusts":37.4,"aqi":97,"pm10":33.4,"pm2_5":23.8,"mosquito_risk":0,"arthritis_risk":5,"migraine_risk":7,"frizz_risk":0,"updated_at":"2026-04-05T16:08:02.371744+05:30"},{"city":"Bokaro","state":"Jharkhand","latitude":23.6693,"longitude":86.1511,"temp":33.4,"humidity":34,"rain":0.0,"pressure":981.0,"uv_index":8.65,"wind_gusts":38.2,"aqi":96,"pm10":36.0,"pm2_5":25.0,"mosquito_risk":0,"arthritis_risk":5,"migraine_risk":7,"frizz_risk":0,"updated_at":"2026-04-05T16:08:02.371750+05:30"},{"city":"Bhubaneswar","state":"Odisha","latitude":20.2961,"longitude":85.8245,"temp":29.8,"humidity":74,"rain":0.0,"pressure":1001.3,"uv_index":8.65,"wind_gusts":26.3,"aqi":148,"pm10":50.5,"pm2_5":45.1,"mosquito_risk":7,"arthritis_risk":5,"migraine_risk":4,"frizz_risk":1,"updated_at":"2026-04-05T16:08:02.371757+05:30"},{"city":"Cuttack","state":"Odisha","latitude":20.4625,"longitude":85.8828,"temp":30.4,"humidity":68,"rain":0.0,"pressure":1003.1,"uv_index":8.6,"wind_gusts":25.2,"aqi":148,"pm10":50.5,"pm2_5":45.1,"mosquito_risk":3,"arthritis_risk":5,"migraine_risk":4,"frizz_risk":1,"updated_at":"2026-04-05T16:08:02.371763+05:30"},{"city":"Rourkela","state":"Odisha","latitude":22.2604,"longitude":84.8536,"temp":34.6,"humidity":36,"rain":0.0,"pressure":982.6,"uv_index":8.65,"wind_gusts":29.9,"aqi":100,"pm10":42.8,"pm2_5":30.3,"mosquito_risk":0,"arthritis_risk":5,"migraine_risk":7,"frizz_risk":1,"updated_at":"2026-04-05T16:08:02.371769+05:30"},{"city":"Raipur","state":"Chhattisgarh","latitude":21.2514,"longitude":81.6296,"temp":35.1,"humidity":33,"rain":0.0,"pressure":971.8,"uv_index":8.7,"wind_gusts":30.2,"aqi":148,"pm10":52.7,"pm2_5":42.8,"mosquito_risk":0,"arthritis_risk":5,"migraine_risk":10,"frizz_risk":1,"updated_at":"2026-04-05T16:08:02.371775+05:30"},{"city":"Bhilai","state":"Chhattisgarh","latitude":21.1938,"longitude":81.3509,"temp":34.4,"humidity":37,"rain":0.0,"pressure":972.3,"uv_index":8.7,"wind_gusts":32.0,"aqi":143,"pm10":48.8,"pm2_5":38.3,"mosquito_risk":0,"arthritis_risk":5,"migraine_risk":7,"frizz_risk":1,"updated_at":"2026-04-05T16:08:02.371781+05:30"},{"city":"Guwahati","state":"Assam","latitude":26.1158,"longitude":91.7086,"temp":31.0,"humidity":44,"rain":0.0,"pressure":996.8,"uv_index":7.45,"wind_gusts":44.6,"aqi":141,"pm10":23.7,"pm2_5":15.3,"mosquito_risk":0,"arthritis_risk":5,"migraine_risk":7,"frizz_risk":1,"updated_at":"2026-04-05T16:08:02.371787+05:30"},{"city":"Agartala","state":"Tripura","latitude":23.8315,"longitude":91.2868,"temp":31.2,"humidity":63,"rain":0.0,"pressure":1003.6,"uv_index":8.4,"wind_gusts":31.7,"aqi":128,"pm10":44.4,"pm2_5":32.5,"mosquito_risk":3,"arthritis_risk":5,"migraine_risk":4,"frizz_risk":1,"updated_at":"2026-04-05T16:08:02.371793+05:30"},{"city":"Shillong","state":"Meghalaya","latitude":25.5788,"longitude":91.8933,"temp":18.6,"humidity":65,"rain":0.0,"pressure":854.6,"uv_index":8.1,"wind_gusts":67.0,"aqi":105,"pm10":35.4,"pm2_5":26.5,"mosquito_risk":3,"arthritis_risk":5,"migraine_risk":7,"frizz_risk":0,"updated_at":"2026-04-05T16:08:02.371799+05:30"},{"city":"Imphal","state":"Manipur","latitude":24.817,"longitude":93.9368,"temp":22.4,"humidity":70,"rain":0.0,"pressure":921.0,"uv_index":8.85,"wind_gusts":83.9,"aqi":146,"pm10":46.6,"pm2_5":40.5,"mosquito_risk":3,"arthritis_risk":5,"migraine_risk":7,"frizz_risk":1,"updated_at":"2026-04-05T16:08:02.371806+05:30"},{"city":"Aizawl","state":"Mizoram","latitude":23.7271,"longitude":92.7176,"temp":23.5,"humidity":69,"rain":0.0,"pressure":892.1,"uv_index":8.5,"wind_gusts":51.8,"aqi":150,"pm10":47.0,"pm2_5":40.6,"mosquito_risk":3,"arthritis_risk":5,"migraine_risk":7,"frizz_risk":1,"updated_at":"2026-04-05T16:08:02.371812+05:30"},{"city":"Kohima","state":"Nagaland","latitude":25.6701,"longitude":94.1077,"temp":21.2,"humidity":56,"rain":0.0,"pressure":853.4,"uv_index":8.2,"wind_gusts":95.0,"aqi":110,"pm10":38.9,"pm2_5":32.8,"mosquito_risk":0,"arthritis_risk":5,"migraine_risk":7,"frizz_risk":0,"updated_at":"2026-04-05T16:08:02.371817+05:30"},{"city":"Gangtok","state":"Sikkim","latitude":27.3314,"longitude":88.6138,"temp":16.8,"humidity":84,"rain":0.0,"pressure":835.4,"uv_index":8.35,"wind_gusts":24.5,"aqi":109,"pm10":42.8,"pm2_5":32.2,"mosquito_risk":3,"arthritis_risk":10,"migraine_risk":7,"frizz_risk":0,"updated_at":"2026-04-05T16:08:02.371824+05:30"},{"city":"Siliguri","state":"West Bengal","latitude":26.7271,"longitude":88.3953,"temp":26.9,"humidity":57,"rain":0.0,"pressure":989.9,"uv_index":8.2,"wind_gusts":36.4,"aqi":156,"pm10":35.3,"pm2_5":23.4,"mosquito_risk":4,"arthritis_risk":5,"migraine_risk":7,"frizz_risk":1,"updated_at":"2026-04-05T16:08:05.585474+05:30"},{"city":"Durgapur","state":"West Bengal","latitude":23.5204,"longitude":87.3119,"temp":33.0,"humidity":41,"rain":0.0,"pressure":992.5,"uv_index":8.0,"wind_gusts":38.2,"aqi":109,"pm10":31.5,"pm2_5":23.0,"mosquito_risk":0,"arthritis_risk":5,"migraine_risk":7,"frizz_risk":1,"updated_at":"2026-04-05T16:08:05.585507+05:30"},{"city":"Asansol","state":"West Bengal","latitude":23.6739,"longitude":86.9524,"temp":33.0,"humidity":43,"rain":0.0,"pressure":991.0,"uv_index":8.05,"wind_gusts":36.0,"aqi":87,"pm10":32.1,"pm2_5":23.2,"mosquito_risk":0,"arthritis_risk":5,"migraine_risk":7,"frizz_risk":1,"updated_at":"2026-04-05T16:08:05.585519+05:30"},{"city":"Pondicherry","state":"Puducherry","latitude":11.9139,"longitude":79.8145,"temp":37.1,"humidity":43,"rain":0.0,"pressure":1003.8,"uv_index":9.35,"wind_gusts":27.0,"aqi":81,"pm10":29.5,"pm2_5":25.3,"mosquito_risk":0,"arthritis_risk":5,"migraine_risk":7,"frizz_risk":1,"updated_at":"2026-04-05T16:08:05.585528+05:30"},{"city":"Port Blair","state":"Andaman and Nicobar Islands","latitude":11.6234,"longitude":92.7265,"temp":29.2,"humidity":72,"rain":0.0,"pressure":1005.3,"uv_index":9.25,"wind_gusts":22.7,"aqi":38,"pm10":9.4,"pm2_5":6.7,"mosquito_risk":7,"arthritis_risk":5,"migraine_risk":4,"frizz_risk":1,"updated_at":"2026-04-05T16:08:05.585538+05:30"},{"city":"Haridwar","state":"Uttarakhand","latitude":29.9457,"longitude":78.1642,"temp":31.1,"humidity":24,"rain":0.0,"pressure":971.7,"uv_index":6.7,"wind_gusts":27.7,"aqi":69,"pm10":34.6,"pm2_5":12.3,"mosquito_risk":0,"arthritis_risk":5,"migraine_risk":7,"frizz_risk":0,"updated_at":"2026-04-05T16:08:05.585547+05:30"},{"city":"Rishikesh","state":"Uttarakhand","latitude":30.0869,"longitude":78.2676,"temp":29.9,"humidity":29,"rain":0.0,"pressure":964.6,"uv_index":6.65,"wind_gusts":27.7,"aqi":55,"pm10":28.2,"pm2_5":10.4,"mosquito_risk":4,"arthritis_risk":5,"migraine_risk":7,"frizz_risk":0,"updated_at":"2026-04-05T16:08:05.585556+05:30"},{"city":"Nainital","state":"Uttarakhand","latitude":29.3919,"longitude":79.4542,"temp":20.5,"humidity":47,"rain":0.0,"pressure":804.9,"uv_index":6.8,"wind_gusts":31.7,"aqi":62,"pm10":33.4,"pm2_5":15.0,"mosquito_risk":0,"arthritis_risk":5,"migraine_risk":7,"frizz_risk":0,"updated_at":"2026-04-05T16:08:05.585565+05:30"},{"city":"Mussoorie","state":"Uttarakhand","latitude":30.4599,"longitude":78.0664,"temp":18.9,"humidity":41,"rain":0.0,"pressure":801.2,"uv_index":5.8,"wind_gusts":45.7,"aqi":60,"pm10":26.2,"pm2_5":9.8,"mosquito_risk":0,"arthritis_risk":5,"migraine_risk":3,"frizz_risk":0,"updated_at":"2026-04-05T16:08:05.585573+05:30"},{"city":"Dharamshala","state":"Himachal Pradesh","latitude":32.219,"longitude":76.3234,"temp":18.9,"humidity":68,"rain":0.0,"pressure":867.7,"uv_index":7.3,"wind_gusts":32.8,"aqi":69,"pm10":15.9,"pm2_5":5.4,"mosquito_risk":3,"arthritis_risk":5,"migraine_risk":7,"frizz_risk":0,"updated_at":"2026-04-05T16:08:05.585581+05:30"},{"city":"Dalhousie","state":"Himachal Pradesh","latitude":32.5387,"longitude":75.971,"temp":17.1,"humidity":59,"rain":0.0,"pressure":802.4,"uv_index":7.25,"wind_gusts":25.2,"aqi":57,"pm10":39.0,"pm2_5":12.6,"mosquito_risk":0,"arthritis_risk":5,"migraine_risk":7,"frizz_risk":0,"updated_at":"2026-04-05T16:08:05.585590+05:30"},{"city":"Patiala","state":"Punjab","latitude":30.3398,"longitude":76.3869,"temp":29.0,"humidity":31,"rain":0.0,"pressure":977.1,"uv_index":6.75,"wind_gusts":33.5,"aqi":111,"pm10":328.8,"pm2_5":43.5,"mosquito_risk":4,"arthritis_risk":5,"migraine_risk":7,"frizz_risk":0,"updated_at":"2026-04-05T16:08:05.585598+05:30"},{"city":"Bhatinda","state":"Punjab","latitude":30.211,"longitude":74.9455,"temp":28.7,"humidity":32,"rain":0.0,"pressure":983.0,"uv_index":7.3,"wind_gusts":30.2,"aqi":89,"pm10":77.1,"pm2_5":23.0,"mosquito_risk":4,"arthritis_risk":5,"migraine_risk":7,"frizz_risk":0,"updated_at":"2026-04-05T16:08:05.585606+05:30"},{"city":"Rohtak","state":"Haryana","latitude":28.8955,"longitude":76.6066,"temp":30.0,"humidity":32,"rain":0.0,"pressure":980.1,"uv_index":5.7,"wind_gusts":36.7,"aqi":150,"pm10":353.9,"pm2_5":39.9,"mosquito_risk":4,"arthritis_risk":5,"migraine_risk":3,"frizz_risk":0,"updated_at":"2026-04-05T16:08:05.585615+05:30"},{"city":"Panipat","state":"Haryana","latitude":29.3909,"longitude":76.9635,"temp":29.7,"humidity":32,"rain":0.0,"pressure":978.8,"uv_index":6.75,"wind_gusts":32.0,"aqi":191,"pm10":480.6,"pm2_5":51.8,"mosquito_risk":4,"arthritis_risk":5,"migraine_risk":7,"frizz_risk":0,"updated_at":"2026-04-05T16:08:05.585622+05:30"},{"city":"Mathura","state":"Uttar Pradesh","latitude":27.4924,"longitude":77.6737,"temp":28.8,"humidity":42,"rain":0.0,"pressure":985.9,"uv_index":6.3,"wind_gusts":31.3,"aqi":241,"pm10":328.8,"pm2_5":46.8,"mosquito_risk":4,"arthritis_risk":5,"migraine_risk":7,"frizz_risk":0,"updated_at":"2026-04-05T16:08:05.585630+05:30"},{"city":"Vrindavan","state":"Uttar Pradesh","latitude":27.5823,"longitude":77.7027,"temp":27.9,"humidity":48,"rain":0.0,"pressure":986.5,"uv_index":6.05,"wind_gusts":31.0,"aqi":241,"pm10":328.8,"pm2_5":46.8,"mosquito_risk":4,"arthritis_risk":5,"migraine_risk":7,"frizz_risk":0,"updated_at":"2026-04-05T16:08:05.585637+05:30"},{"city":"Ayodhya","state":"Uttar Pradesh","latitude":26.7922,"longitude":82.1998,"temp":32.4,"humidity":34,"rain":0.0,"pressure":992.4,"uv_index":7.6,"wind_gusts":46.1,"aqi":107,"pm10":41.0,"pm2_5":16.6,"mosquito_risk":0,"arthritis_risk":5,"migraine_risk":7,"frizz_risk":0,"updated_at":"2026-04-05T16:08:05.585645+05:30"},{"city":"Ratlam","state":"Madhya Pradesh","latitude":23.3315,"longitude":75.0367,"temp":30.9,"humidity":24,"rain":0.0,"pressure":953.7,"uv_index":8.1,"wind_gusts":33.5,"aqi":74,"pm10":14.9,"pm2_5":6.1,"mosquito_risk":0,"arthritis_risk":5,"migraine_risk":7,"frizz_risk":0,"updated_at":"2026-04-05T16:08:05.585653+05:30"},{"city":"Sagar","state":"Madhya Pradesh","latitude":23.8388,"longitude":78.7378,"temp":32.0,"humidity":21,"rain":0.0,"pressure":947.9,"uv_index":7.8,"wind_gusts":33.1,"aqi":65,"pm10":23.2,"pm2_5":7.4,"mosquito_risk":0,"arthritis_risk":5,"migraine_risk":7,"frizz_risk":0,"updated_at":"2026-04-05T16:08:05.585658+05:30"},{"city":"Satna","state":"Madhya Pradesh","latitude":24.6005,"longitude":80.8322,"temp":32.3,"humidity":33,"rain":0.0,"pressure":968.8,"uv_index":8.3,"wind_gusts":30.6,"aqi":73,"pm10":30.6,"pm2_5":13.2,"mosquito_risk":0,"arthritis_risk":5,"migraine_risk":7,"frizz_risk":0,"updated_at":"2026-04-05T16:08:05.585665+05:30"},{"city":"Akola","state":"Maharashtra","latitude":20.7002,"longitude":77.0082,"temp":36.1,"humidity":24,"rain":0.0,"pressure":972.3,"uv_index":8.65,"wind_gusts":36.4,"aqi":71,"pm10":32.5,"pm2_5":15.4,"mosquito_risk":0,"arthritis_risk":5,"migraine_risk":10,"frizz_risk":0,"updated_at":"2026-04-05T16:08:05.585671+05:30"},{"city":"Amravati","state":"Maharashtra","latitude":20.9374,"longitude":77.7796,"temp":36.1,"humidity":22,"rain":0.0,"pressure":964.4,"uv_index":8.65,"wind_gusts":34.9,"aqi":78,"pm10":33.8,"pm2_5":15.8,"mosquito_risk":0,"arthritis_risk":5,"migraine_risk":10,"frizz_risk":0,"updated_at":"2026-04-05T16:08:05.585679+05:30"},{"city":"Latur","state":"Maharashtra","latitude":18.4088,"longitude":76.5604,"temp":34.2,"humidity":25,"rain":0.0,"pressure":937.7,"uv_index":9.0,"wind_gusts":30.2,"aqi":90,"pm10":31.0,"pm2_5":14.6,"mosquito_risk":0,"arthritis_risk":5,"migraine_risk":7,"frizz_risk":0,"updated_at":"2026-04-05T16:08:05.585685+05:30"},{"city":"Nanded","state":"Maharashtra","latitude":19.1383,"longitude":77.3091,"temp":36.1,"humidity":24,"rain":0.0,"pressure":966.0,"uv_index":8.85,"wind_gusts":28.4,"aqi":100,"pm10":33.2,"pm2_5":16.1,"mosquito_risk":0,"arthritis_risk":5,"migraine_risk":10,"frizz_risk":0,"updated_at":"2026-04-05T16:08:05.585692+05:30"},{"city":"Gulbarga","state":"Karnataka","latitude":17.3297,"longitude":76.8343,"temp":36.4,"humidity":23,"rain":0.0,"pressure":956.1,"uv_index":8.95,"wind_gusts":34.6,"aqi":96,"pm10":24.9,"pm2_5":15.7,"mosquito_risk":0,"arthritis_risk":5,"migraine_risk":10,"frizz_risk":0,"updated_at":"2026-04-05T16:08:05.585699+05:30"},{"city":"Bidar","state":"Karnataka","latitude":17.9104,"longitude":77.5199,"temp":34.9,"humidity":24,"rain":0.0,"pressure":933.5,"uv_index":8.9,"wind_gusts":33.5,"aqi":119,"pm10":29.6,"pm2_5":17.6,"mosquito_risk":0,"arthritis_risk":5,"migraine_risk":7,"frizz_risk":0,"updated_at":"2026-04-05T16:08:05.585705+05:30"},{"city":"Hospet","state":"Karnataka","latitude":15.2689,"longitude":76.3909,"temp":35.5,"humidity":29,"rain":0.0,"pressure":953.4,"uv_index":9.2,"wind_gusts":29.2,"aqi":80,"pm10":20.5,"pm2_5":16.8,"mosquito_risk":0,"arthritis_risk":5,"migraine_risk":10,"frizz_risk":0,"updated_at":"2026-04-05T16:08:05.585710+05:30"},{"city":"Tirupur","state":"Tamil Nadu","latitude":11.1085,"longitude":77.3411,"temp":34.8,"humidity":43,"rain":0.0,"pressure":972.2,"uv_index":9.55,"wind_gusts":32.0,"aqi":109,"pm10":31.0,"pm2_5":26.3,"mosquito_risk":0,"arthritis_risk":5,"migraine_risk":7,"frizz_risk":1,"updated_at":"2026-04-05T16:08:05.585717+05:30"},{"city":"Alappuzha","state":"Kerala","latitude":9.4981,"longitude":76.3388,"temp":29.6,"humidity":79,"rain":0.0,"pressure":1006.4,"uv_index":8.9,"wind_gusts":30.6,"aqi":62,"pm10":18.5,"pm2_5":13.9,"mosquito_risk":7,"arthritis_risk":5,"migraine_risk":4,"frizz_risk":1,"updated_at":"2026-04-05T16:08:05.585723+05:30"},{"city":"Munnar","state":"Kerala","latitude":10.0889,"longitude":77.0595,"temp":25.8,"humidity":72,"rain":0.0,"pressure":856.9,"uv_index":9.75,"wind_gusts":38.5,"aqi":58,"pm10":20.7,"pm2_5":18.1,"mosquito_risk":7,"arthritis_risk":5,"migraine_risk":7,"frizz_risk":1,"updated_at":"2026-04-05T16:08:05.585730+05:30"},{"city":"Silchar","state":"Assam","latitude":24.8333,"longitude":92.7789,"temp":28.3,"humidity":74,"rain":0.0,"pressure":1002.8,"uv_index":8.4,"wind_gusts":33.1,"aqi":156,"pm10":52.5,"pm2_5":45.2,"mosquito_risk":7,"arthritis_risk":5,"migraine_risk":4,"frizz_risk":1,"updated_at":"2026-04-05T16:08:05.585736+05:30"},{"city":"Dibrugarh","state":"Assam","latitude":27.4728,"longitude":94.912,"temp":23.7,"humidity":86,"rain":0.0,"pressure":991.4,"uv_index":7.5,"wind_gusts":49.3,"aqi":147,"pm10":50.9,"pm2_5":38.2,"mosquito_risk":3,"arthritis_risk":5,"migraine_risk":7,"frizz_risk":1,"updated_at":"2026-04-05T16:08:05.585742+05:30"}]