[{"city":"Delhi","state":"Delhi","latitude":28.6139,"longitude":77.209,"temp":40.0,"humidity":26,"rain":0.0,"pressure":978.2,"uv_index":7.75,"wind_gusts":40.7,"aqi":164,"pm10":361.4,"pm2_5":88.5,"no2":5.7,"co":269.0,"o3":205.0,"so2":28.8,"mosquito_risk":0,"arthritis_risk":5,"migraine_risk":10,"frizz_risk":1,"updated_at":"2026-06-06T13:17:35.756574+05:30"},{"city":"Mumbai","state":"Maharashtra","latitude":19.076,"longitude":72.8777,"temp":34.3,"humidity":57,"rain":0.0,"pressure":1005.6,"uv_index":6.6,"wind_gusts":39.2,"aqi":75,"pm10":64.0,"pm2_5":31.5,"no2":4.6,"co":180.0,"o3":116.0,"so2":8.9,"mosquito_risk":0,"arthritis_risk":5,"migraine_risk":4,"frizz_risk":1,"updated_at":"2026-06-06T13:17:35.756616+05:30"},{"city":"Bangalore","state":"Karnataka","latitude":12.9716,"longitude":77.5946,"temp":29.2,"humidity":51,"rain":0.1,"pressure":910.8,"uv_index":8.4,"wind_gusts":43.9,"aqi":21,"pm10":2.4,"pm2_5":2.3,"no2":2.2,"co":225.0,"o3":77.0,"so2":2.5,"mosquito_risk":7,"arthritis_risk":5,"migraine_risk":7,"frizz_risk":1,"updated_at":"2026-06-06T13:17:35.756631+05:30"},{"city":"Hyderabad","state":"Telangana","latitude":17.385,"longitude":78.4867,"temp":36.2,"humidity":34,"rain":0.0,"pressure":950.4,"uv_index":9.0,"wind_gusts":37.8,"aqi":92,"pm10":46.9,"pm2_5":26.2,"no2":1.5,"co":214.0,"o3":142.0,"so2":5.7,"mosquito_risk":0,"arthritis_risk":5,"migraine_risk":10,"frizz_risk":1,"updated_at":"2026-06-06T13:17:35.756641+05:30"},{"city":"Chennai","state":"Tamil Nadu","latitude":13.0827,"longitude":80.2707,"temp":38.9,"humidity":34,"rain":0.0,"pressure":1002.6,"uv_index":8.7,"wind_gusts":45.7,"aqi":60,"pm10":18.6,"pm2_5":14.3,"no2":3.9,"co":188.0,"o3":128.0,"so2":8.0,"mosquito_risk":0,"arthritis_risk":5,"migraine_risk":7,"frizz_risk":1,"updated_at":"2026-06-06T13:17:35.756649+05:30"},{"city":"Kolkata","state":"West Bengal","latitude":22.5726,"longitude":88.3639,"temp":35.7,"humidity":60,"rain":0.0,"pressure":999.1,"uv_index":9.0,"wind_gusts":45.7,"aqi":126,"pm10":32.6,"pm2_5":31.5,"no2":10.0,"co":532.0,"o3":118.0,"so2":12.7,"mosquito_risk":0,"arthritis_risk":5,"migraine_risk":10,"frizz_risk":1,"updated_at":"2026-06-06T13:17:35.756658+05:30"},{"city":"Pune","state":"Maharashtra","latitude":18.5204,"longitude":73.8567,"temp":36.4,"humidity":30,"rain":0.0,"pressure":946.1,"uv_index":8.35,"wind_gusts":50.4,"aqi":52,"pm10":41.4,"pm2_5":18.2,"no2":1.4,"co":135.0,"o3":104.0,"so2":4.5,"mosquito_risk":0,"arthritis_risk":5,"migraine_risk":10,"frizz_risk":1,"updated_at":"2026-06-06T13:17:35.756664+05:30"},{"city":"Ahmedabad","state":"Gujarat","latitude":23.0225,"longitude":72.5714,"temp":39.5,"humidity":35,"rain":0.0,"pressure":997.8,"uv_index":8.1,"wind_gusts":36.4,"aqi":92,"pm10":85.4,"pm2_5":34.0,"no2":1.5,"co":141.0,"o3":97.0,"so2":5.7,"mosquito_risk":0,"arthritis_risk":5,"migraine_risk":10,"frizz_risk":1,"updated_at":"2026-06-06T13:17:35.756671+05:30"},{"city":"Jaipur","state":"Rajasthan","latitude":26.9124,"longitude":75.7873,"temp":39.0,"humidity":26,"rain":0.0,"pressure":956.4,"uv_index":8.25,"wind_gusts":34.2,"aqi":108,"pm10":177.4,"pm2_5":41.3,"no2":0.4,"co":133.0,"o3":110.0,"so2":2.8,"mosquito_risk":0,"arthritis_risk":5,"migraine_risk":10,"frizz_risk":1,"updated_at":"2026-06-06T13:17:35.756683+05:30"},{"city":"Lucknow","state":"Uttar Pradesh","latitude":26.8467,"longitude":80.9462,"temp":37.3,"humidity":37,"rain":0.0,"pressure":988.6,"uv_index":8.3,"wind_gusts":25.9,"aqi":155,"pm10":143.0,"pm2_5":44.8,"no2":0.8,"co":324.0,"o3":153.0,"so2":8.0,"mosquito_risk":0,"arthritis_risk":5,"migraine_risk":10,"frizz_risk":1,"updated_at":"2026-06-06T13:17:35.756690+05:30"},{"city":"Kanpur","state":"Uttar Pradesh","latitude":26.4499,"longitude":80.3319,"temp":38.4,"humidity":31,"rain":0.0,"pressure":986.7,"uv_index":8.3,"wind_gusts":37.1,"aqi":164,"pm10":232.4,"pm2_5":60.1,"no2":1.0,"co":297.0,"o3":158.0,"so2":8.9,"mosquito_risk":0,"arthritis_risk":5,"migraine_risk":10,"frizz_risk":1,"updated_at":"2026-06-06T13:17:35.756696+05:30"},{"city":"Chandigarh","state":"Chandigarh","latitude":30.7333,"longitude":76.7794,"temp":36.0,"humidity":30,"rain":0.0,"pressure":964.7,"uv_index":7.8,"wind_gusts":32.4,"aqi":131,"pm10":68.5,"pm2_5":27.0,"no2":1.8,"co":334.0,"o3":196.0,"so2":15.5,"mosquito_risk":0,"arthritis_risk":5,"migraine_risk":10,"frizz_risk":0,"updated_at":"2026-06-06T13:17:35.756703+05:30"},{"city":"Srinagar","state":"Jammu and Kashmir","latitude":34.0837,"longitude":74.7973,"temp":23.6,"humidity":49,"rain":0.0,"pressure":842.9,"uv_index":9.0,"wind_gusts":22.0,"aqi":77,"pm10":23.2,"pm2_5":13.8,"no2":1.0,"co":269.0,"o3":147.0,"so2":2.2,"mosquito_risk":0,"arthritis_risk":5,"migraine_risk":7,"frizz_risk":0,"updated_at":"2026-06-06T13:17:35.756711+05:30"},{"city":"Jammu","state":"Jammu and Kashmir","latitude":32.7266,"longitude":74.857,"temp":36.8,"humidity":22,"rain":0.0,"pressure":968.8,"uv_index":8.6,"wind_gusts":30.2,"aqi":87,"pm10":24.8,"pm2_5":14.6,"no2":0.9,"co":260.0,"o3":160.0,"so2":2.6,"mosquito_risk":0,"arthritis_risk":5,"migraine_risk":10,"frizz_risk":0,"updated_at":"2026-06-06T13:17:35.756717+05:30"},{"city":"Amritsar","state":"Punjab","latitude":31.634,"longitude":74.8723,"temp":38.6,"humidity":23,"rain":0.0,"pressure":976.4,"uv_index":8.45,"wind_gusts":25.2,"aqi":138,"pm10":38.0,"pm2_5":21.5,"no2":0.4,"co":295.0,"o3":181.0,"so2":6.1,"mosquito_risk":0,"arthritis_risk":5,"migraine_risk":10,"frizz_risk":0,"updated_at":"2026-06-06T13:17:35.756724+05:30"},{"city":"Ludhiana","state":"Punjab","latitude":30.901,"longitude":75.8573,"temp":37.7,"humidity":27,"rain":0.0,"pressure":974.4,"uv_index":8.05,"wind_gusts":28.4,"aqi":158,"pm10":138.3,"pm2_5":40.2,"no2":0.8,"co":264.0,"o3":173.0,"so2":7.7,"mosquito_risk":0,"arthritis_risk":5,"migraine_risk":10,"frizz_risk":0,"updated_at":"2026-06-06T13:17:35.756731+05:30"},{"city":"Jalandhar","state":"Punjab","latitude":31.326,"longitude":75.5762,"temp":38.4,"humidity":24,"rain":0.0,"pressure":975.3,"uv_index":8.25,"wind_gusts":21.2,"aqi":152,"pm10":82.4,"pm2_5":31.3,"no2":0.7,"co":287.0,"o3":184.0,"so2":6.7,"mosquito_risk":0,"arthritis_risk":5,"migraine_risk":10,"frizz_risk":0,"updated_at":"2026-06-06T13:17:35.756738+05:30"},{"city":"Dehradun","state":"Uttarakhand","latitude":30.6284,"longitude":78.0322,"temp":24.2,"humidity":46,"rain":0.1,"pressure":831.0,"uv_index":8.2,"wind_gusts":33.8,"aqi":65,"pm10":31.1,"pm2_5":15.9,"no2":0.7,"co":197.0,"o3":158.0,"so2":3.3,"mosquito_risk":3,"arthritis_risk":5,"migraine_risk":7,"frizz_risk":0,"updated_at":"2026-06-06T13:17:35.756744+05:30"},{"city":"Shimla","state":"Himachal Pradesh","latitude":31.1048,"longitude":77.1734,"temp":24.0,"humidity":24,"rain":0.0,"pressure":787.0,"uv_index":8.3,"wind_gusts":42.8,"aqi":87,"pm10":16.8,"pm2_5":10.1,"no2":0.7,"co":165.0,"o3":153.0,"so2":4.5,"mosquito_risk":0,"arthritis_risk":5,"migraine_risk":7,"frizz_risk":0,"updated_at":"2026-06-06T13:17:35.756753+05:30"},{"city":"Manali","state":"Himachal Pradesh","latitude":32.2396,"longitude":77.1887,"temp":23.2,"humidity":35,"rain":0.0,"pressure":819.8,"uv_index":9.9,"wind_gusts":36.7,"aqi":82,"pm10":12.6,"pm2_5":8.2,"no2":1.3,"co":138.0,"o3":169.0,"so2":0.4,"mosquito_risk":0,"arthritis_risk":5,"migraine_risk":7,"frizz_risk":0,"updated_at":"2026-06-06T13:17:35.756759+05:30"},{"city":"Gurgaon","state":"Haryana","latitude":28.4595,"longitude":77.0266,"temp":38.2,"humidity":28,"rain":0.0,"pressure":977.3,"uv_index":7.85,"wind_gusts":34.2,"aqi":293,"pm10":666.8,"pm2_5":109.9,"no2":3.6,"co":216.0,"o3":170.0,"so2":13.8,"mosquito_risk":0,"arthritis_risk":5,"migraine_risk":10,"frizz_risk":1,"updated_at":"2026-06-06T13:17:35.756787+05:30"},{"city":"Noida","state":"Uttar Pradesh","latitude":28.5355,"longitude":77.391,"temp":38.7,"humidity":32,"rain":0.0,"pressure":979.7,"uv_index":7.8,"wind_gusts":33.5,"aqi":293,"pm10":666.8,"pm2_5":109.9,"no2":3.6,"co":294.0,"o3":170.0,"so2":13.8,"mosquito_risk":0,"arthritis_risk":5,"migraine_risk":10,"frizz_risk":1,"updated_at":"2026-06-06T13:17:35.756797+05:30"},{"city":"Ghaziabad","state":"Uttar Pradesh","latitude":28.6692,"longitude":77.4538,"temp":37.5,"humidity":34,"rain":0.0,"pressure":978.1,"uv_index":7.75,"wind_gusts":29.2,"aqi":166,"pm10":350.2,"pm2_5":86.1,"no2":4.2,"co":361.0,"o3":220.0,"so2":32.1,"mosquito_risk":0,"arthritis_risk":5,"migraine_risk":10,"frizz_risk":1,"updated_at":"2026-06-06T13:17:35.756804+05:30"},{"city":"Faridabad","state":"Haryana","latitude":28.4089,"longitude":77.3178,"temp":39.2,"humidity":29,"rain":0.0,"pressure":979.0,"uv_index":7.8,"wind_gusts":27.4,"aqi":293,"pm10":666.8,"pm2_5":109.9,"no2":3.6,"co":227.0,"o3":170.0,"so2":13.8,"mosquito_risk":0,"arthritis_risk":5,"migraine_risk":10,"frizz_risk":1,"updated_at":"2026-06-06T13:17:35.756810+05:30"},{"city":"Meerut","state":"Uttar Pradesh","latitude":28.9845,"longitude":77.7064,"temp":36.4,"humidity":39,"rain":0.0,"pressure":977.2,"uv_index":7.7,"wind_gusts":27.7,"aqi":166,"pm10":350.2,"pm2_5":86.1,"no2":4.2,"co":375.0,"o3":220.0,"so2":32.1,"mosquito_risk":0,"arthritis_risk":5,"migraine_risk":10,"frizz_risk":1,"updated_at":"2026-06-06T13:17:35.756816+05:30"},{"city":"Agra","state":"Uttar Pradesh","latitude":27.1767,"longitude":78.0081,"temp":38.4,"humidity":32,"rain":0.0,"pressure":983.2,"uv_index":8.1,"wind_gusts":28.1,"aqi":457,"pm10":607.2,"pm2_5":91.5,"no2":0.8,"co":206.0,"o3":159.0,"so2":8.2,"mosquito_risk":0,"arthritis_risk":5,"migraine_risk":10,"frizz_risk":1,"updated_at":"2026-06-06T13:17:35.756822+05:30"},{"city":"Varanasi","state":"Uttar Pradesh","latitude":25.3176,"longitude":82.9739,"temp":39.1,"humidity":32,"rain":0.0,"pressure":992.0,"uv_index":8.8,"wind_gusts":32.0,"aqi":154,"pm10":110.4,"pm2_5":55.3,"no2":1.2,"co":346.0,"o3":178.0,"so2":7.7,"mosquito_risk":0,"arthritis_risk":5,"migraine_risk":10,"frizz_risk":1,"updated_at":"2026-06-06T13:17:35.756829+05:30"},{"city":"Prayagraj","state":"Uttar Pradesh","latitude":25.4358,"longitude":81.8463,"temp":36.3,"humidity":38,"rain":0.1,"pressure":991.3,"uv_index":8.7,"wind_gusts":36.7,"aqi":151,"pm10":100.6,"pm2_5":47.7,"no2":1.4,"co":268.0,"o3":170.0,"so2":7.0,"mosquito_risk":3,"arthritis_risk":5,"migraine_risk":10,"frizz_risk":1,"updated_at":"2026-06-06T13:17:35.756836+05:30"},{"city":"Gorakhpur","state":"Uttar Pradesh","latitude":26.7606,"longitude":83.3732,"temp":35.9,"humidity":44,"rain":0.0,"pressure":992.1,"uv_index":8.7,"wind_gusts":36.7,"aqi":164,"pm10":110.4,"pm2_5":77.5,"no2":1.3,"co":377.0,"o3":194.0,"so2":7.9,"mosquito_risk":0,"arthritis_risk":5,"migraine_risk":10,"frizz_risk":1,"updated_at":"2026-06-06T13:17:35.756844+05:30"},{"city":"Bareilly","state":"Uttar Pradesh","latitude":28.367,"longitude":79.4304,"temp":35.9,"humidity":44,"rain":0.0,"pressure":981.9,"uv_index":8.1,"wind_gusts":22.0,"aqi":152,"pm10":71.5,"pm2_5":44.2,"no2":1.2,"co":319.0,"o3":176.0,"so2":6.8,"mosquito_risk":0,"arthritis_risk":5,"migraine_risk":10,"frizz_risk":1,"updated_at":"2026-06-06T13:17:35.756850+05:30"},{"city":"Aligarh","state":"Uttar Pradesh","latitude":27.8974,"longitude":78.088,"temp":37.1,"humidity":37,"rain":0.0,"pressure":981.1,"uv_index":7.95,"wind_gusts":23.8,"aqi":197,"pm10":400.5,"pm2_5":81.3,"no2":1.5,"co":295.0,"o3":180.0,"so2":17.2,"mosquito_risk":0,"arthritis_risk":5,"migraine_risk":10,"frizz_risk":1,"updated_at":"2026-06-06T13:17:35.756857+05:30"},{"city":"Moradabad","state":"Uttar Pradesh","latitude":28.8386,"longitude":78.7733,"temp":36.4,"humidity":36,"rain":0.0,"pressure":979.1,"uv_index":7.9,"wind_gusts":25.9,"aqi":157,"pm10":100.8,"pm2_5":51.1,"no2":2.4,"co":340.0,"o3":216.0,"so2":19.6,"mosquito_risk":0,"arthritis_risk":5,"migraine_risk":10,"frizz_risk":1,"updated_at":"2026-06-06T13:17:35.756863+05:30"},{"city":"Saharanpur","state":"Uttar Pradesh","latitude":29.9637,"longitude":77.546,"temp":34.9,"humidity":45,"rain":0.0,"pressure":971.5,"uv_index":7.5,"wind_gusts":26.6,"aqi":153,"pm10":109.9,"pm2_5":40.4,"no2":2.1,"co":363.0,"o3":210.0,"so2":19.8,"mosquito_risk":0,"arthritis_risk":5,"migraine_risk":7,"frizz_risk":1,"updated_at":"2026-06-06T13:17:35.756870+05:30"},{"city":"Jhansi","state":"Uttar Pradesh","latitude":25.4484,"longitude":78.5685,"temp":37.5,"humidity":33,"rain":0.0,"pressure":974.2,"uv_index":8.45,"wind_gusts":32.4,"aqi":85,"pm10":192.8,"pm2_5":46.8,"no2":0.7,"co":163.0,"o3":130.0,"so2":6.3,"mosquito_risk":0,"arthritis_risk":5,"migraine_risk":10,"frizz_risk":1,"updated_at":"2026-06-06T13:17:39.118929+05:30"},{"city":"Surat","state":"Gujarat","latitude":21.1702,"longitude":72.8311,"temp":35.7,"humidity":50,"rain":0.0,"pressure":1003.4,"uv_index":7.6,"wind_gusts":45.0,"aqi":87,"pm10":63.6,"pm2_5":29.7,"no2":8.4,"co":228.0,"o3":66.0,"so2":29.6,"mosquito_risk":0,"arthritis_risk":5,"migraine_risk":7,"frizz_risk":1,"updated_at":"2026-06-06T13:17:39.118961+05:30"},{"city":"Vadodara","state":"Gujarat","latitude":22.3072,"longitude":73.1812,"temp":38.7,"humidity":36,"rain":0.0,"pressure":1000.4,"uv_index":8.0,"wind_gusts":40.0,"aqi":84,"pm10":80.1,"pm2_5":33.4,"no2":1.4,"co":132.0,"o3":97.0,"so2":3.9,"mosquito_risk":0,"arthritis_risk":5,"migraine_risk":7,"frizz_risk":1,"updated_at":"2026-06-06T13:17:39.118972+05:30"},{"city":"Rajkot","state":"Gujarat","latitude":22.3039,"longitude":70.8022,"temp":39.5,"humidity":35,"rain":0.0,"pressure":990.2,"uv_index":7.55,"wind_gusts":43.2,"aqi":83,"pm10":117.8,"pm2_5":33.8,"no2":0.8,"co":111.0,"o3":87.0,"so2":2.5,"mosquito_risk":0,"arthritis_risk":5,"migraine_risk":10,"frizz_risk":1,"updated_at":"2026-06-06T13:17:39.118981+05:30"},{"city":"Thane","state":"Maharashtra","latitude":19.2183,"longitude":72.9781,"temp":37.1,"humidity":44,"rain":0.0,"pressure":1004.4,"uv_index":7.45,"wind_gusts":40.7,"aqi":75,"pm10":64.0,"pm2_5":31.5,"no2":4.6,"co":186.0,"o3":116.0,"so2":8.9,"mosquito_risk":0,"arthritis_risk":5,"migraine_risk":7,"frizz_risk":1,"updated_at":"2026-06-06T13:17:39.118989+05:30"},{"city":"Nagpur","state":"Maharashtra","latitude":21.1458,"longitude":79.0882,"temp":38.7,"humidity":28,"rain":0.0,"pressure":969.3,"uv_index":8.65,"wind_gusts":43.9,"aqi":77,"pm10":45.5,"pm2_5":21.0,"no2":2.6,"co":155.0,"o3":138.0,"so2":11.5,"mosquito_risk":0,"arthritis_risk":5,"migraine_risk":10,"frizz_risk":1,"updated_at":"2026-06-06T13:17:39.118997+05:30"},{"city":"Nashik","state":"Maharashtra","latitude":19.9975,"longitude":73.7898,"temp":35.3,"humidity":35,"rain":0.0,"pressure":943.7,"uv_index":8.05,"wind_gusts":42.1,"aqi":62,"pm10":49.0,"pm2_5":22.6,"no2":1.1,"co":129.0,"o3":102.0,"so2":4.0,"mosquito_risk":0,"arthritis_risk":5,"migraine_risk":10,"frizz_risk":1,"updated_at":"2026-06-06T13:17:39.119005+05:30"},{"city":"Aurangabad","state":"Maharashtra","latitude":19.8762,"longitude":75.3433,"temp":37.5,"humidity":26,"rain":0.0,"pressure":942.0,"uv_index":8.95,"wind_gusts":41.0,"aqi":64,"pm10":60.8,"pm2_5":25.0,"no2":0.7,"co":128.0,"o3":106.0,"so2":3.5,"mosquito_risk":0,"arthritis_risk":5,"migraine_risk":10,"frizz_risk":0,"updated_at":"2026-06-06T13:17:39.119012+05:30"},{"city":"Solapur","state":"Maharashtra","latitude":17.6599,"longitude":75.9064,"temp":35.5,"humidity":38,"rain":0.0,"pressure":955.1,"uv_index":8.95,"wind_gusts":57.2,"aqi":70,"pm10":31.9,"pm2_5":17.2,"no2":1.1,"co":129.0,"o3":111.0,"so2":3.5,"mosquito_risk":0,"arthritis_risk":5,"migraine_risk":10,"frizz_risk":1,"updated_at":"2026-06-06T13:17:39.119020+05:30"},{"city":"Kolhapur","state":"Maharashtra","latitude":16.705,"longitude":74.2433,"temp":33.9,"humidity":48,"rain":0.0,"pressure":946.3,"uv_index":8.05,"wind_gusts":41.8,"aqi":36,"pm10":25.6,"pm2_5":12.8,"no2":1.3,"co":129.0,"o3":88.0,"so2":1.4,"mosquito_risk":0,"arthritis_risk":5,"migraine_risk":7,"frizz_risk":1,"updated_at":"2026-06-06T13:17:39.119028+05:30"},{"city":"Goa","state":"Goa","latitude":15.2993,"longitude":74.124,"temp":30.0,"humidity":74,"rain":0.1,"pressure":997.2,"uv_index":6.75,"wind_gusts":29.5,"aqi":34,"pm10":9.1,"pm2_5":4.4,"no2":0.6,"co":129.0,"o3":67.0,"so2":0.7,"mosquito_risk":10,"arthritis_risk":5,"migraine_risk":7,"frizz_risk":1,"updated_at":"2026-06-06T13:17:39.119036+05:30"},{"city":"Jodhpur","state":"Rajasthan","latitude":26.2389,"longitude":73.0243,"temp":39.6,"humidity":34,"rain":0.0,"pressure":978.7,"uv_index":8.45,"wind_gusts":34.9,"aqi":128,"pm10":242.1,"pm2_5":53.0,"no2":0.5,"co":120.0,"o3":94.0,"so2":3.2,"mosquito_risk":0,"arthritis_risk":5,"migraine_risk":10,"frizz_risk":1,"updated_at":"2026-06-06T13:17:39.119043+05:30"},{"city":"Udaipur","state":"Rajasthan","latitude":24.5854,"longitude":73.7125,"temp":35.9,"humidity":37,"rain":0.0,"pressure":944.2,"uv_index":8.8,"wind_gusts":32.4,"aqi":95,"pm10":87.1,"pm2_5":30.5,"no2":0.4,"co":118.0,"o3":92.0,"so2":2.7,"mosquito_risk":0,"arthritis_risk":5,"migraine_risk":10,"frizz_risk":1,"updated_at":"2026-06-06T13:17:39.119050+05:30"},{"city":"Kota","state":"Rajasthan","latitude":25.2138,"longitude":75.8648,"temp":38.8,"humidity":32,"rain":0.0,"pressure":975.0,"uv_index":8.4,"wind_gusts":28.1,"aqi":76,"pm10":76.6,"pm2_5":30.9,"no2":0.6,"co":140.0,"o3":119.0,"so2":4.5,"mosquito_risk":0,"arthritis_risk":5,"migraine_risk":10,"frizz_risk":1,"updated_at":"2026-06-06T13:17:39.119058+05:30"},{"city":"Bikaner","state":"Rajasthan","latitude":28.0229,"longitude":73.3119,"temp":40.6,"humidity":27,"rain":0.0,"pressure":976.8,"uv_index":8.5,"wind_gusts":41.0,"aqi":112,"pm10":227.7,"pm2_5":54.5,"no2":0.3,"co":135.0,"o3":95.0,"so2":2.8,"mosquito_risk":0,"arthritis_risk":5,"migraine_risk":10,"frizz_risk":1,"updated_at":"2026-06-06T13:17:39.119065+05:30"},{"city":"Ajmer","state":"Rajasthan","latitude":26.4499,"longitude":74.6399,"temp":36.0,"humidity":38,"rain":0.0,"pressure":951.8,"uv_index":8.35,"wind_gusts":36.0,"aqi":96,"pm10":106.6,"pm2_5":32.5,"no2":0.4,"co":123.0,"o3":104.0,"so2":2.4,"mosquito_risk":0,"arthritis_risk":5,"migraine_risk":10,"frizz_risk":1,"updated_at":"2026-06-06T13:17:39.119072+05:30"},{"city":"Gwalior","state":"Madhya Pradesh","latitude":26.2183,"longitude":78.1828,"temp":38.0,"humidity":34,"rain":0.0,"pressure":979.2,"uv_index":8.25,"wind_gusts":32.4,"aqi":231,"pm10":140.6,"pm2_5":36.3,"no2":0.4,"co":159.0,"o3":124.0,"so2":3.2,"mosquito_risk":0,"arthritis_risk":5,"migraine_risk":10,"frizz_risk":1,"updated_at":"2026-06-06T13:17:39.119079+05:30"},{"city":"Indore","state":"Madhya Pradesh","latitude":22.7196,"longitude":75.8577,"temp":35.1,"humidity":46,"rain":0.0,"pressure":946.0,"uv_index":8.65,"wind_gusts":34.9,"aqi":89,"pm10":71.7,"pm2_5":32.1,"no2":0.9,"co":169.0,"o3":113.0,"so2":6.1,"mosquito_risk":0,"arthritis_risk":5,"migraine_risk":10,"frizz_risk":1,"updated_at":"2026-06-06T13:17:39.119087+05:30"},{"city":"Bhopal","state":"Madhya Pradesh","latitude":23.2599,"longitude":77.4126,"temp":37.4,"humidity":35,"rain":0.0,"pressure":950.8,"uv_index":8.7,"wind_gusts":38.2,"aqi":86,"pm10":56.9,"pm2_5":24.7,"no2":0.6,"co":175.0,"o3":117.0,"so2":4.6,"mosquito_risk":0,"arthritis_risk":5,"migraine_risk":10,"frizz_risk":1,"updated_at":"2026-06-06T13:17:39.119094+05:30"},{"city":"Jabalpur","state":"Madhya Pradesh","latitude":23.1815,"longitude":79.9864,"temp":36.7,"humidity":32,"rain":0.0,"pressure":957.8,"uv_index":8.35,"wind_gusts":36.4,"aqi":84,"pm10":94.8,"pm2_5":27.6,"no2":0.5,"co":155.0,"o3":122.0,"so2":3.7,"mosquito_risk":0,"arthritis_risk":5,"migraine_risk":10,"frizz_risk":1,"updated_at":"2026-06-06T13:17:39.119101+05:30"},{"city":"Ujjain","state":"Madhya Pradesh","latitude":23.1765,"longitude":75.7885,"temp":35.7,"humidity":43,"rain":0.0,"pressure":951.4,"uv_index":8.6,"wind_gusts":32.8,"aqi":88,"pm10":73.1,"pm2_5":33.5,"no2":0.7,"co":148.0,"o3":108.0,"so2":6.8,"mosquito_risk":0,"arthritis_risk":5,"migraine_risk":10,"frizz_risk":1,"updated_at":"2026-06-06T13:17:39.119108+05:30"},{"city":"Visakhapatnam","state":"Andhra Pradesh","latitude":17.6868,"longitude":83.2185,"temp":37.8,"humidity":48,"rain":0.0,"pressure":996.8,"uv_index":8.9,"wind_gusts":41.8,"aqi":100,"pm10":47.0,"pm2_5":34.5,"no2":4.6,"co":331.0,"o3":179.0,"so2":24.3,"mosquito_risk":0,"arthritis_risk":5,"migraine_risk":10,"frizz_risk":1,"updated_at":"2026-06-06T13:17:39.119116+05:30"},{"city":"Vijayawada","state":"Andhra Pradesh","latitude":16.5062,"longitude":80.648,"temp":38.6,"humidity":38,"rain":0.0,"pressure":996.9,"uv_index":8.8,"wind_gusts":47.2,"aqi":70,"pm10":49.8,"pm2_5":31.8,"no2":1.3,"co":197.0,"o3":149.0,"so2":6.9,"mosquito_risk":0,"arthritis_risk":5,"migraine_risk":10,"frizz_risk":1,"updated_at":"2026-06-06T13:17:39.119123+05:30"},{"city":"Guntur","state":"Andhra Pradesh","latitude":16.3067,"longitude":80.4365,"temp":38.4,"humidity":38,"rain":0.0,"pressure":998.1,"uv_index":9.05,"wind_gusts":44.3,"aqi":67,"pm10":52.2,"pm2_5":32.5,"no2":1.1,"co":206.0,"o3":147.0,"so2":5.5,"mosquito_risk":0,"arthritis_risk":5,"migraine_risk":10,"frizz_risk":1,"updated_at":"2026-06-06T13:17:39.119131+05:30"},{"city":"Nellore","state":"Andhra Pradesh","latitude":14.4426,"longitude":79.9865,"temp":36.8,"humidity":44,"rain":0.0,"pressure":1001.0,"uv_index":8.95,"wind_gusts":41.4,"aqi":43,"pm10":17.2,"pm2_5":12.3,"no2":1.8,"co":144.0,"o3":122.0,"so2":6.4,"mosquito_risk":0,"arthritis_risk":5,"migraine_risk":7,"frizz_risk":1,"updated_at":"2026-06-06T13:17:39.119139+05:30"},{"city":"Kurnool","state":"Andhra Pradesh","latitude":15.8281,"longitude":78.0373,"temp":34.5,"humidity":49,"rain":0.0,"pressure":973.9,"uv_index":8.8,"wind_gusts":35.3,"aqi":41,"pm10":25.4,"pm2_5":16.6,"no2":1.5,"co":168.0,"o3":126.0,"so2":7.1,"mosquito_risk":0,"arthritis_risk":5,"migraine_risk":7,"frizz_risk":1,"updated_at":"2026-06-06T13:17:39.119147+05:30"},{"city":"Kakinada","state":"Andhra Pradesh","latitude":16.9891,"longitude":82.2475,"temp":37.7,"humidity":46,"rain":0.0,"pressure":1001.1,"uv_index":9.0,"wind_gusts":52.9,"aqi":72,"pm10":33.6,"pm2_5":23.2,"no2":1.7,"co":254.0,"o3":135.0,"so2":4.3,"mosquito_risk":0,"arthritis_risk":5,"migraine_risk":7,"frizz_risk":1,"updated_at":"2026-06-06T13:17:39.119155+05:30"},{"city":"Tirupati","state":"Andhra Pradesh","latitude":13.6288,"longitude":79.4192,"temp":36.9,"humidity":39,"rain":0.0,"pressure":986.8,"uv_index":8.6,"wind_gusts":37.8,"aqi":47,"pm10":7.9,"pm2_5":5.1,"no2":0.5,"co":126.0,"o3":93.0,"so2":1.2,"mosquito_risk":0,"arthritis_risk":5,"migraine_risk":10,"frizz_risk":1,"updated_at":"2026-06-06T13:17:39.119162+05:30"},{"city":"Warangal","state":"Telangana","latitude":17.9689,"longitude":79.5941,"temp":37.3,"humidity":34,"rain":0.0,"pressure":974.4,"uv_index":9.05,"wind_gusts":44.6,"aqi":103,"pm10":50.9,"pm2_5":26.4,"no2":1.1,"co":173.0,"o3":135.0,"so2":6.3,"mosquito_risk":0,"arthritis_risk":5,"migraine_risk":10,"frizz_risk":1,"updated_at":"2026-06-06T13:17:39.119169+05:30"},{"city":"Nizamabad","state":"Telangana","latitude":18.6725,"longitude":78.0941,"temp":37.2,"humidity":33,"rain":0.0,"pressure":961.6,"uv_index":9.05,"wind_gusts":42.5,"aqi":97,"pm10":46.3,"pm2_5":24.5,"no2":0.7,"co":147.0,"o3":123.0,"so2":5.1,"mosquito_risk":0,"arthritis_risk":5,"migraine_risk":10,"frizz_risk":1,"updated_at":"2026-06-06T13:17:39.119175+05:30"},{"city":"Mysore","state":"Karnataka","latitude":12.2958,"longitude":76.6396,"temp":23.1,"humidity":90,"rain":0.2,"pressure":927.9,"uv_index":7.75,"wind_gusts":49.7,"aqi":21,"pm10":2.2,"pm2_5":2.2,"no2":1.8,"co":154.0,"o3":71.0,"so2":1.5,"mosquito_risk":6,"arthritis_risk":5,"migraine_risk":7,"frizz_risk":1,"updated_at":"2026-06-06T13:17:39.119183+05:30"},{"city":"Mangalore","state":"Karnataka","latitude":12.9141,"longitude":74.856,"temp":26.7,"humidity":86,"rain":0.0,"pressure":1006.5,"uv_index":1.45,"wind_gusts":27.7,"aqi":26,"pm10":5.0,"pm2_5":4.3,"no2":6.0,"co":200.0,"o3":49.0,"so2":1.4,"mosquito_risk":7,"arthritis_risk":5,"migraine_risk":0,"frizz_risk":1,"updated_at":"2026-06-06T13:17:39.119190+05:30"},{"city":"Hubli-Dharwad","state":"Karnataka","latitude":15.3647,"longitude":75.124,"temp":25.9,"humidity":84,"rain":0.2,"pressure":939.8,"uv_index":8.7,"wind_gusts":39.6,"aqi":23,"pm10":7.9,"pm2_5":4.3,"no2":2.2,"co":131.0,"o3":68.0,"so2":0.8,"mosquito_risk":10,"arthritis_risk":5,"migraine_risk":7,"frizz_risk":1,"updated_at":"2026-06-06T13:17:39.119197+05:30"},{"city":"Belgaum","state":"Karnataka","latitude":15.8497,"longitude":74.4977,"temp":23.8,"humidity":87,"rain":0.3,"pressure":924.8,"uv_index":8.95,"wind_gusts":38.9,"aqi":26,"pm10":15.6,"pm2_5":7.5,"no2":1.5,"co":118.0,"o3":77.0,"so2":1.7,"mosquito_risk":6,"arthritis_risk":5,"migraine_risk":7,"frizz_risk":1,"updated_at":"2026-06-06T13:17:42.537729+05:30"},{"city":"Coimbatore","state":"Tamil Nadu","latitude":11.0168,"longitude":76.9558,"temp":24.3,"humidity":94,"rain":0.2,"pressure":961.3,"uv_index":8.75,"wind_gusts":41.8,"aqi":19,"pm10":1.9,"pm2_5":1.7,"no2":3.4,"co":132.0,"o3":50.0,"so2":1.5,"mosquito_risk":6,"arthritis_risk":5,"migraine_risk":7,"frizz_risk":1,"updated_at":"2026-06-06T13:17:42.537760+05:30"},{"city":"Madurai","state":"Tamil Nadu","latitude":9.9252,"longitude":78.1198,"temp":37.3,"humidity":33,"rain":0.0,"pressure":990.9,"uv_index":8.7,"wind_gusts":67.0,"aqi":26,"pm10":9.1,"pm2_5":5.0,"no2":1.3,"co":103.0,"o3":87.0,"so2":1.7,"mosquito_risk":0,"arthritis_risk":5,"migraine_risk":10,"frizz_risk":1,"updated_at":"2026-06-06T13:17:42.537807+05:30"},{"city":"Trichy","state":"Tamil Nadu","latitude":10.7905,"longitude":78.7047,"temp":33.7,"humidity":53,"rain":0.0,"pressure":997.7,"uv_index":8.8,"wind_gusts":52.6,"aqi":25,"pm10":10.9,"pm2_5":6.5,"no2":1.2,"co":125.0,"o3":91.0,"so2":2.2,"mosquito_risk":0,"arthritis_risk":5,"migraine_risk":7,"frizz_risk":1,"updated_at":"2026-06-06T13:17:42.537825+05:30"},{"city":"Salem","state":"Tamil Nadu","latitude":11.6643,"longitude":78.146,"temp":31.2,"humidity":57,"rain":0.0,"pressure":976.4,"uv_index":8.8,"wind_gusts":57.2,"aqi":38,"pm10":8.9,"pm2_5":6.6,"no2":2.1,"co":142.0,"o3":103.0,"so2":5.6,"mosquito_risk":0,"arthritis_risk":5,"migraine_risk":7,"frizz_risk":1,"updated_at":"2026-06-06T13:17:42.537839+05:30"},{"city":"Tirunelveli","state":"Tamil Nadu","latitude":8.7139,"longitude":77.7567,"temp":36.5,"humidity":40,"rain":0.0,"pressure":1002.1,"uv_index":8.45,"wind_gusts":47.5,"aqi":19,"pm10":4.5,"pm2_5":2.6,"no2":0.8,"co":108.0,"o3":58.0,"so2":0.6,"mosquito_risk":0,"arthritis_risk":5,"migraine_risk":7,"frizz_risk":1,"updated_at":"2026-06-06T13:17:42.537851+05:30"},{"city":"Vellore","state":"Tamil Nadu","latitude":12.9165,"longitude":79.1325,"temp":37.1,"humidity":36,"rain":0.0,"pressure":980.8,"uv_index":9.0,"wind_gusts":47.2,"aqi":35,"pm10":4.3,"pm2_5":3.6,"no2":1.1,"co":136.0,"o3":90.0,"so2":1.9,"mosquito_risk":0,"arthritis_risk":5,"migraine_risk":10,"frizz_risk":1,"updated_at":"2026-06-06T13:17:42.537863+05:30"},{"city":"Erode","state":"Tamil Nadu","latitude":11.341,"longitude":77.7172,"temp":28.3,"humidity":73,"rain":0.1,"pressure":988.1,"uv_index":8.8,"wind_gusts":60.5,"aqi":27,"pm10":3.3,"pm2_5":2.6,"no2":1.3,"co":123.0,"o3":78.0,"so2":1.7,"mosquito_risk":10,"arthritis_risk":5,"migraine_risk":7,"frizz_risk":1,"updated_at":"2026-06-06T13:17:42.537875+05:30"},{"city":"Kochi","state":"Kerala","latitude":9.9312,"longitude":76.2673,"temp":26.9,"humidity":83,"rain":0.1,"pressure":1010.1,"uv_index":7.9,"wind_gusts":40.3,"aqi":50,"pm10":10.7,"pm2_5":6.0,"no2":3.1,"co":104.0,"o3":48.0,"so2":1.8,"mosquito_risk":10,"arthritis_risk":0,"migraine_risk":4,"frizz_risk":1,"updated_at":"2026-06-06T13:17:42.537888+05:30"},{"city":"Thiruvananthapuram","state":"Kerala","latitude":8.5241,"longitude":76.9366,"temp":27.3,"humidity":84,"rain":0.2,"pressure":1009.3,"uv_index":8.15,"wind_gusts":45.4,"aqi":27,"pm10":13.2,"pm2_5":6.5,"no2":0.9,"co":96.0,"o3":61.0,"so2":0.8,"mosquito_risk":10,"arthritis_risk":0,"migraine_risk":4,"frizz_risk":1,"updated_at":"2026-06-06T13:17:42.537902+05:30"},{"city":"Kozhikode","state":"Kerala","latitude":11.2588,"longitude":75.7804,"temp":25.1,"humidity":97,"rain":0.9,"pressure":1009.1,"uv_index":1.0,"wind_gusts":27.0,"aqi":26,"pm10":10.6,"pm2_5":4.8,"no2":0.7,"co":112.0,"o3":58.0,"so2":0.4,"mosquito_risk":10,"arthritis_risk":0,"migraine_risk":0,"frizz_risk":1,"updated_at":"2026-06-06T13:17:42.537910+05:30"},{"city":"Thrissur","state":"Kerala","latitude":10.5276,"longitude":76.2144,"temp":25.0,"humidity":96,"rain":0.4,"pressure":1008.4,"uv_index":6.8,"wind_gusts":25.2,"aqi":48,"pm10":9.1,"pm2_5":5.8,"no2":4.2,"co":141.0,"o3":43.0,"so2":1.6,"mosquito_risk":10,"arthritis_risk":0,"migraine_risk":4,"frizz_risk":1,"updated_at":"2026-06-06T13:17:42.537918+05:30"},{"city":"Kannur","state":"Kerala","latitude":11.8745,"longitude":75.3704,"temp":25.7,"humidity":96,"rain":0.4,"pressure":1007.5,"uv_index":0.45,"wind_gusts":27.4,"aqi":25,"pm10":7.3,"pm2_5":5.0,"no2":4.7,"co":215.0,"o3":46.0,"so2":0.8,"mosquito_risk":10,"arthritis_risk":5,"migraine_risk":0,"frizz_risk":1,"updated_at":"2026-06-06T13:17:42.537925+05:30"},{"city":"Patna","state":"Bihar","latitude":25.5941,"longitude":85.1376,"temp":35.4,"humidity":53,"rain":0.0,"pressure":995.1,"uv_index":8.9,"wind_gusts":27.4,"aqi":167,"pm10":70.3,"pm2_5":61.7,"no2":2.7,"co":364.0,"o3":217.0,"so2":20.8,"mosquito_risk":0,"arthritis_risk":5,"migraine_risk":10,"frizz_risk":1,"updated_at":"2026-06-06T13:17:42.537932+05:30"},{"city":"Gaya","state":"Bihar","latitude":24.7914,"longitude":85.0002,"temp":36.6,"humidity":45,"rain":0.0,"pressure":988.4,"uv_index":8.95,"wind_gusts":34.2,"aqi":154,"pm10":80.1,"pm2_5":62.9,"no2":1.6,"co":280.0,"o3":205.0,"so2":16.3,"mosquito_risk":0,"arthritis_risk":5,"migraine_risk":10,"frizz_risk":1,"updated_at":"2026-06-06T13:17:42.537939+05:30"},{"city":"Muzaffarpur","state":"Bihar","latitude":26.1209,"longitude":85.3647,"temp":34.5,"humidity":60,"rain":0.0,"pressure":995.2,"uv_index":8.9,"wind_gusts":39.6,"aqi":167,"pm10":63.8,"pm2_5":56.3,"no2":2.5,"co":370.0,"o3":213.0,"so2":19.2,"mosquito_risk":0,"arthritis_risk":5,"migraine_risk":7,"frizz_risk":1,"updated_at":"2026-06-06T13:17:42.537946+05:30"},{"city":"Bhagalpur","state":"Bihar","latitude":25.2425,"longitude":87.0117,"temp":35.0,"humidity":58,"rain":0.1,"pressure":995.8,"uv_index":8.9,"wind_gusts":31.7,"aqi":152,"pm10":49.7,"pm2_5":45.2,"no2":5.2,"co":366.0,"o3":200.0,"so2":28.5,"mosquito_risk":3,"arthritis_risk":5,"migraine_risk":7,"frizz_risk":1,"updated_at":"2026-06-06T13:17:42.537953+05:30"},{"city":"Ranchi","state":"Jharkhand","latitude":23.3441,"longitude":85.3096,"temp":30.0,"humidity":62,"rain":0.1,"pressure":934.1,"uv_index":9.3,"wind_gusts":33.1,"aqi":123,"pm10":77.1,"pm2_5":48.7,"no2":1.2,"co":220.0,"o3":190.0,"so2":13.8,"mosquito_risk":10,"arthritis_risk":5,"migraine_risk":7,"frizz_risk":1,"updated_at":"2026-06-06T13:17:42.537959+05:30"},{"city":"Jamshedpur","state":"Jharkhand","latitude":22.8046,"longitude":86.2029,"temp":33.7,"humidity":59,"rain":0.0,"pressure":985.3,"uv_index":9.1,"wind_gusts":34.9,"aqi":153,"pm10":89.6,"pm2_5":66.1,"no2":4.2,"co":253.0,"o3":210.0,"so2":30.7,"mosquito_risk":0,"arthritis_risk":5,"migraine_risk":7,"frizz_risk":1,"updated_at":"2026-06-06T13:17:42.537966+05:30"},{"city":"Dhanbad","state":"Jharkhand","latitude":23.7957,"longitude":86.4304,"temp":31.6,"humidity":70,"rain":0.1,"pressure":975.1,"uv_index":9.1,"wind_gusts":27.0,"aqi":166,"pm10":114.6,"pm2_5":93.1,"no2":21.7,"co":299.0,"o3":228.0,"so2":85.0,"mosquito_risk":6,"arthritis_risk":5,"migraine_risk":7,"frizz_risk":1,"updated_at":"2026-06-06T13:17:42.537977+05:30"},{"city":"Bokaro","state":"Jharkhand","latitude":23.6693,"longitude":86.1511,"temp":29.6,"humidity":79,"rain":0.3,"pressure":979.0,"uv_index":8.45,"wind_gusts":30.6,"aqi":157,"pm10":97.3,"pm2_5":72.2,"no2":19.6,"co":260.0,"o3":200.0,"so2":69.6,"mosquito_risk":10,"arthritis_risk":5,"migraine_risk":7,"frizz_risk":1,"updated_at":"2026-06-06T13:17:42.537989+05:30"},{"city":"Bhubaneswar","state":"Odisha","latitude":20.2961,"longitude":85.8245,"temp":34.2,"humidity":66,"rain":0.3,"pressure":996.1,"uv_index":9.05,"wind_gusts":19.4,"aqi":153,"pm10":44.6,"pm2_5":37.1,"no2":2.2,"co":267.0,"o3":188.0,"so2":8.6,"mosquito_risk":6,"arthritis_risk":5,"migraine_risk":7,"frizz_risk":1,"updated_at":"2026-06-06T13:17:42.537996+05:30"},{"city":"Cuttack","state":"Odisha","latitude":20.4625,"longitude":85.8828,"temp":36.0,"humidity":55,"rain":0.0,"pressure":997.8,"uv_index":9.15,"wind_gusts":30.2,"aqi":153,"pm10":44.6,"pm2_5":37.1,"no2":2.2,"co":262.0,"o3":188.0,"so2":8.6,"mosquito_risk":0,"arthritis_risk":5,"migraine_risk":10,"frizz_risk":1,"updated_at":"2026-06-06T13:17:42.538003+05:30"},{"city":"Rourkela","state":"Odisha","latitude":22.2604,"longitude":84.8536,"temp":35.2,"humidity":48,"rain":0.0,"pressure":979.4,"uv_index":7.4,"wind_gusts":24.5,"aqi":153,"pm10":100.4,"pm2_5":63.8,"no2":1.6,"co":325.0,"o3":189.0,"so2":17.2,"mosquito_risk":0,"arthritis_risk":5,"migraine_risk":10,"frizz_risk":1,"updated_at":"2026-06-06T13:17:42.538010+05:30"},{"city":"Raipur","state":"Chhattisgarh","latitude":21.2514,"longitude":81.6296,"temp":40.2,"humidity":23,"rain":0.0,"pressure":969.1,"uv_index":8.95,"wind_gusts":34.9,"aqi":133,"pm10":70.5,"pm2_5":31.8,"no2":3.1,"co":164.0,"o3":145.0,"so2":19.4,"mosquito_risk":0,"arthritis_risk":5,"migraine_risk":10,"frizz_risk":0,"updated_at":"2026-06-06T13:17:42.538017+05:30"},{"city":"Bhilai","state":"Chhattisgarh","latitude":21.1938,"longitude":81.3509,"temp":38.7,"humidity":26,"rain":0.0,"pressure":969.7,"uv_index":8.95,"wind_gusts":39.6,"aqi":122,"pm10":62.4,"pm2_5":27.8,"no2":3.4,"co":254.0,"o3":133.0,"so2":16.1,"mosquito_risk":0,"arthritis_risk":5,"migraine_risk":10,"frizz_risk":0,"updated_at":"2026-06-06T13:17:42.538024+05:30"},{"city":"Guwahati","state":"Assam","latitude":26.1158,"longitude":91.7086,"temp":31.9,"humidity":69,"rain":0.0,"pressure":996.1,"uv_index":8.7,"wind_gusts":25.9,"aqi":89,"pm10":23.3,"pm2_5":21.8,"no2":1.3,"co":385.0,"o3":147.0,"so2":2.7,"mosquito_risk":3,"arthritis_risk":5,"migraine_risk":7,"frizz_risk":1,"updated_at":"2026-06-06T13:17:42.538031+05:30"},{"city":"Agartala","state":"Tripura","latitude":23.8315,"longitude":91.2868,"temp":34.6,"humidity":56,"rain":0.0,"pressure":1000.0,"uv_index":8.8,"wind_gusts":24.8,"aqi":155,"pm10":54.2,"pm2_5":43.3,"no2":2.7,"co":216.0,"o3":172.0,"so2":3.3,"mosquito_risk":0,"arthritis_risk":5,"migraine_risk":4,"frizz_risk":1,"updated_at":"2026-06-06T13:17:42.538038+05:30"},{"city":"Shillong","state":"Meghalaya","latitude":25.5788,"longitude":91.8933,"temp":25.5,"humidity":57,"rain":0.1,"pressure":855.7,"uv_index":8.95,"wind_gusts":22.0,"aqi":64,"pm10":37.0,"pm2_5":30.3,"no2":1.0,"co":236.0,"o3":137.0,"so2":2.9,"mosquito_risk":7,"arthritis_risk":5,"migraine_risk":7,"frizz_risk":1,"updated_at":"2026-06-06T13:17:42.538045+05:30"},{"city":"Imphal","state":"Manipur","latitude":24.817,"longitude":93.9368,"temp":31.0,"humidity":54,"rain":0.0,"pressure":918.7,"uv_index":9.05,"wind_gusts":32.4,"aqi":118,"pm10":35.2,"pm2_5":28.5,"no2":0.8,"co":245.0,"o3":129.0,"so2":2.5,"mosquito_risk":0,"arthritis_risk":5,"migraine_risk":7,"frizz_risk":1,"updated_at":"2026-06-06T13:17:42.538052+05:30"},{"city":"Aizawl","state":"Mizoram","latitude":23.7271,"longitude":92.7176,"temp":27.5,"humidity":59,"rain":0.0,"pressure":889.6,"uv_index":8.45,"wind_gusts":26.6,"aqi":117,"pm10":39.9,"pm2_5":31.7,"no2":0.6,"co":198.0,"o3":123.0,"so2":3.3,"mosquito_risk":4,"arthritis_risk":5,"migraine_risk":7,"frizz_risk":1,"updated_at":"2026-06-06T13:17:42.538059+05:30"},{"city":"Kohima","state":"Nagaland","latitude":25.6701,"longitude":94.1077,"temp":23.4,"humidity":87,"rain":0.1,"pressure":852.9,"uv_index":9.2,"wind_gusts":26.3,"aqi":74,"pm10":28.2,"pm2_5":22.3,"no2":0.5,"co":251.0,"o3":124.0,"so2":1.9,"mosquito_risk":6,"arthritis_risk":5,"migraine_risk":7,"frizz_risk":1,"updated_at":"2026-06-06T13:17:42.538066+05:30"},{"city":"Gangtok","state":"Sikkim","latitude":27.3314,"longitude":88.6138,"temp":21.1,"humidity":84,"rain":0.2,"pressure":835.4,"uv_index":9.1,"wind_gusts":36.0,"aqi":108,"pm10":13.1,"pm2_5":10.4,"no2":0.7,"co":296.0,"o3":144.0,"so2":2.2,"mosquito_risk":6,"arthritis_risk":5,"migraine_risk":7,"frizz_risk":1,"updated_at":"2026-06-06T13:17:42.538073+05:30"},{"city":"Siliguri","state":"West Bengal","latitude":26.7271,"longitude":88.3953,"temp":28.9,"humidity":79,"rain":0.1,"pressure":988.5,"uv_index":8.8,"wind_gusts":22.0,"aqi":123,"pm10":30.6,"pm2_5":24.9,"no2":1.4,"co":401.0,"o3":164.0,"so2":5.0,"mosquito_risk":10,"arthritis_risk":5,"migraine_risk":7,"frizz_risk":1,"updated_at":"2026-06-06T13:17:45.898241+05:30"},{"city":"Durgapur","state":"West Bengal","latitude":23.5204,"longitude":87.3119,"temp":32.8,"humidity":72,"rain":0.1,"pressure":989.3,"uv_index":9.05,"wind_gusts":36.7,"aqi":168,"pm10":70.5,"pm2_5":61.5,"no2":14.7,"co":428.0,"o3":189.0,"so2":53.0,"mosquito_risk":6,"arthritis_risk":5,"migraine_risk":7,"frizz_risk":1,"updated_at":"2026-06-06T13:17:45.898272+05:30"},{"city":"Asansol","state":"West Bengal","latitude":23.6739,"longitude":86.9524,"temp":30.8,"humidity":78,"rain":0.1,"pressure":988.4,"uv_index":9.05,"wind_gusts":29.9,"aqi":164,"pm10":100.4,"pm2_5":83.8,"no2":14.7,"co":422.0,"o3":217.0,"so2":60.8,"mosquito_risk":6,"arthritis_risk":5,"migraine_risk":7,"frizz_risk":1,"updated_at":"2026-06-06T13:17:45.898283+05:30"},{"city":"Pondicherry","state":"Puducherry","latitude":11.9139,"longitude":79.8145,"temp":37.1,"humidity":40,"rain":0.0,"pressure":1004.6,"uv_index":8.7,"wind_gusts":46.4,"aqi":61,"pm10":25.3,"pm2_5":18.7,"no2":3.5,"co":151.0,"o3":121.0,"so2":10.2,"mosquito_risk":0,"arthritis_risk":5,"migraine_risk":7,"frizz_risk":1,"updated_at":"2026-06-06T13:17:45.898292+05:30"},{"city":"Port Blair","state":"Andaman and Nicobar Islands","latitude":11.6234,"longitude":92.7265,"temp":29.2,"humidity":80,"rain":0.1,"pressure":1005.6,"uv_index":7.85,"wind_gusts":45.4,"aqi":26,"pm10":7.3,"pm2_5":4.6,"no2":0.4,"co":101.0,"o3":59.0,"so2":0.3,"mosquito_risk":10,"arthritis_risk":5,"migraine_risk":4,"frizz_risk":1,"updated_at":"2026-06-06T13:17:45.898300+05:30"},{"city":"Haridwar","state":"Uttarakhand","latitude":29.9457,"longitude":78.1642,"temp":34.9,"humidity":43,"rain":0.0,"pressure":969.8,"uv_index":7.6,"wind_gusts":22.7,"aqi":136,"pm10":76.6,"pm2_5":32.8,"no2":1.3,"co":318.0,"o3":196.0,"so2":9.9,"mosquito_risk":0,"arthritis_risk":5,"migraine_risk":7,"frizz_risk":1,"updated_at":"2026-06-06T13:17:45.898308+05:30"},{"city":"Rishikesh","state":"Uttarakhand","latitude":30.0869,"longitude":78.2676,"temp":34.8,"humidity":37,"rain":0.0,"pressure":962.5,"uv_index":7.65,"wind_gusts":28.4,"aqi":107,"pm10":58.4,"pm2_5":27.3,"no2":0.8,"co":251.0,"o3":175.0,"so2":5.8,"mosquito_risk":0,"arthritis_risk":5,"migraine_risk":7,"frizz_risk":1,"updated_at":"2026-06-06T13:17:45.898315+05:30"},{"city":"Nainital","state":"Uttarakhand","latitude":29.3919,"longitude":79.4542,"temp":21.8,"humidity":56,"rain":0.0,"pressure":806.2,"uv_index":8.3,"wind_gusts":24.1,"aqi":90,"pm10":49.7,"pm2_5":28.2,"no2":0.9,"co":213.0,"o3":157.0,"so2":3.3,"mosquito_risk":0,"arthritis_risk":5,"migraine_risk":7,"frizz_risk":0,"updated_at":"2026-06-06T13:17:45.898323+05:30"},{"city":"Mussoorie","state":"Uttarakhand","latitude":30.4599,"longitude":78.0664,"temp":23.2,"humidity":40,"rain":0.1,"pressure":804.2,"uv_index":8.1,"wind_gusts":45.0,"aqi":96,"pm10":59.4,"pm2_5":28.6,"no2":1.1,"co":200.0,"o3":187.0,"so2":8.7,"mosquito_risk":3,"arthritis_risk":5,"migraine_risk":7,"frizz_risk":0,"updated_at":"2026-06-06T13:17:45.898331+05:30"},{"city":"Dharamshala","state":"Himachal Pradesh","latitude":32.219,"longitude":76.3234,"temp":27.3,"humidity":36,"rain":0.0,"pressure":868.9,"uv_index":8.5,"wind_gusts":43.6,"aqi":58,"pm10":15.4,"pm2_5":8.9,"no2":0.4,"co":205.0,"o3":145.0,"so2":1.3,"mosquito_risk":4,"arthritis_risk":5,"migraine_risk":7,"frizz_risk":0,"updated_at":"2026-06-06T13:17:45.898339+05:30"},{"city":"Dalhousie","state":"Himachal Pradesh","latitude":32.5387,"longitude":75.971,"temp":23.5,"humidity":35,"rain":0.1,"pressure":806.5,"uv_index":8.75,"wind_gusts":35.3,"aqi":71,"pm10":21.3,"pm2_5":13.6,"no2":0.9,"co":193.0,"o3":157.0,"so2":3.0,"mosquito_risk":3,"arthritis_risk":5,"migraine_risk":7,"frizz_risk":0,"updated_at":"2026-06-06T13:17:45.898347+05:30"},{"city":"Patiala","state":"Punjab","latitude":30.3398,"longitude":76.3869,"temp":38.2,"humidity":28,"rain":0.0,"pressure":973.9,"uv_index":7.7,"wind_gusts":30.2,"aqi":200,"pm10":334.3,"pm2_5":64.5,"no2":1.1,"co":259.0,"o3":176.0,"so2":12.6,"mosquito_risk":0,"arthritis_risk":5,"migraine_risk":10,"frizz_risk":1,"updated_at":"2026-06-06T13:17:45.898354+05:30"},{"city":"Bhatinda","state":"Punjab","latitude":30.211,"longitude":74.9455,"temp":38.2,"humidity":27,"rain":0.1,"pressure":979.3,"uv_index":8.35,"wind_gusts":25.9,"aqi":159,"pm10":160.7,"pm2_5":53.0,"no2":2.7,"co":206.0,"o3":191.0,"so2":28.6,"mosquito_risk":3,"arthritis_risk":5,"migraine_risk":10,"frizz_risk":1,"updated_at":"2026-06-06T13:17:45.898361+05:30"},{"city":"Rohtak","state":"Haryana","latitude":28.8955,"longitude":76.6066,"temp":37.6,"humidity":31,"rain":0.0,"pressure":977.5,"uv_index":7.8,"wind_gusts":22.0,"aqi":256,"pm10":353.9,"pm2_5":72.2,"no2":0.5,"co":200.0,"o3":159.0,"so2":5.5,"mosquito_risk":0,"arthritis_risk":5,"migraine_risk":10,"frizz_risk":1,"updated_at":"2026-06-06T13:17:45.898368+05:30"},{"city":"Panipat","state":"Haryana","latitude":29.3909,"longitude":76.9635,"temp":37.1,"humidity":34,"rain":0.0,"pressure":976.0,"uv_index":7.65,"wind_gusts":27.0,"aqi":361,"pm10":562.5,"pm2_5":102.2,"no2":4.2,"co":288.0,"o3":181.0,"so2":27.0,"mosquito_risk":0,"arthritis_risk":5,"migraine_risk":10,"frizz_risk":1,"updated_at":"2026-06-06T13:17:45.898375+05:30"},{"city":"Mathura","state":"Uttar Pradesh","latitude":27.4924,"longitude":77.6737,"temp":37.4,"humidity":38,"rain":0.0,"pressure":982.3,"uv_index":8.05,"wind_gusts":23.8,"aqi":415,"pm10":319.4,"pm2_5":63.3,"no2":0.8,"co":175.0,"o3":149.0,"so2":5.1,"mosquito_risk":0,"arthritis_risk":5,"migraine_risk":10,"frizz_risk":1,"updated_at":"2026-06-06T13:17:45.898382+05:30"},{"city":"Vrindavan","state":"Uttar Pradesh","latitude":27.5823,"longitude":77.7027,"temp":37.7,"humidity":36,"rain":0.0,"pressure":982.7,"uv_index":8.05,"wind_gusts":26.3,"aqi":415,"pm10":319.4,"pm2_5":63.3,"no2":0.8,"co":178.0,"o3":149.0,"so2":5.1,"mosquito_risk":0,"arthritis_risk":5,"migraine_risk":10,"frizz_risk":1,"updated_at":"2026-06-06T13:17:45.898389+05:30"},{"city":"Ayodhya","state":"Uttar Pradesh","latitude":26.7922,"longitude":82.1998,"temp":34.8,"humidity":51,"rain":0.0,"pressure":990.4,"uv_index":8.0,"wind_gusts":25.9,"aqi":152,"pm10":115.3,"pm2_5":51.5,"no2":1.1,"co":320.0,"o3":169.0,"so2":5.4,"mosquito_risk":0,"arthritis_risk":5,"migraine_risk":7,"frizz_risk":1,"updated_at":"2026-06-06T13:17:45.898396+05:30"},{"city":"Ratlam","state":"Madhya Pradesh","latitude":23.3315,"longitude":75.0367,"temp":36.0,"humidity":45,"rain":0.0,"pressure":952.6,"uv_index":8.55,"wind_gusts":36.7,"aqi":86,"pm10":71.7,"pm2_5":34.1,"no2":0.7,"co":133.0,"o3":106.0,"so2":6.7,"mosquito_risk":0,"arthritis_risk":5,"migraine_risk":10,"frizz_risk":1,"updated_at":"2026-06-06T13:17:45.898403+05:30"},{"city":"Sagar","state":"Madhya Pradesh","latitude":23.8388,"longitude":78.7378,"temp":36.9,"humidity":25,"rain":0.0,"pressure":947.2,"uv_index":8.7,"wind_gusts":38.9,"aqi":77,"pm10":106.2,"pm2_5":28.5,"no2":0.4,"co":144.0,"o3":127.0,"so2":3.5,"mosquito_risk":0,"arthritis_risk":5,"migraine_risk":10,"frizz_risk":0,"updated_at":"2026-06-06T13:17:45.898410+05:30"},{"city":"Satna","state":"Madhya Pradesh","latitude":24.6005,"longitude":80.8322,"temp":36.6,"humidity":33,"rain":0.0,"pressure":967.4,"uv_index":8.35,"wind_gusts":37.1,"aqi":96,"pm10":153.7,"pm2_5":41.0,"no2":0.4,"co":168.0,"o3":131.0,"so2":3.8,"mosquito_risk":0,"arthritis_risk":5,"migraine_risk":10,"frizz_risk":1,"updated_at":"2026-06-06T13:17:45.898417+05:30"},{"city":"Akola","state":"Maharashtra","latitude":20.7002,"longitude":77.0082,"temp":38.7,"humidity":30,"rain":0.0,"pressure":971.4,"uv_index":8.8,"wind_gusts":41.4,"aqi":76,"pm10":58.4,"pm2_5":28.1,"no2":1.1,"co":135.0,"o3":117.0,"so2":6.8,"mosquito_risk":0,"arthritis_risk":5,"migraine_risk":10,"frizz_risk":1,"updated_at":"2026-06-06T13:17:45.898424+05:30"},{"city":"Amravati","state":"Maharashtra","latitude":20.9374,"longitude":77.7796,"temp":38.8,"humidity":28,"rain":0.0,"pressure":963.9,"uv_index":8.85,"wind_gusts":44.6,"aqi":79,"pm10":57.6,"pm2_5":27.9,"no2":1.2,"co":152.0,"o3":122.0,"so2":7.6,"mosquito_risk":0,"arthritis_risk":5,"migraine_risk":10,"frizz_risk":1,"updated_at":"2026-06-06T13:17:45.898432+05:30"},{"city":"Latur","state":"Maharashtra","latitude":18.4088,"longitude":76.5604,"temp":34.5,"humidity":37,"rain":0.0,"pressure":938.0,"uv_index":8.9,"wind_gusts":36.0,"aqi":75,"pm10":41.0,"pm2_5":20.3,"no2":0.8,"co":143.0,"o3":107.0,"so2":3.4,"mosquito_risk":0,"arthritis_risk":5,"migraine_risk":7,"frizz_risk":1,"updated_at":"2026-06-06T13:17:45.898440+05:30"},{"city":"Nanded","state":"Maharashtra","latitude":19.1383,"longitude":77.3091,"temp":38.1,"humidity":29,"rain":0.0,"pressure":965.5,"uv_index":8.9,"wind_gusts":32.8,"aqi":86,"pm10":47.8,"pm2_5":22.5,"no2":0.7,"co":147.0,"o3":112.0,"so2":3.2,"mosquito_risk":0,"arthritis_risk":5,"migraine_risk":10,"frizz_risk":1,"updated_at":"2026-06-06T13:17:45.898446+05:30"},{"city":"Gulbarga","state":"Karnataka","latitude":17.3297,"longitude":76.8343,"temp":35.4,"humidity":37,"rain":0.0,"pressure":956.1,"uv_index":8.95,"wind_gusts":40.7,"aqi":73,"pm10":30.5,"pm2_5":17.4,"no2":1.2,"co":138.0,"o3":124.0,"so2":4.1,"mosquito_risk":0,"arthritis_risk":5,"migraine_risk":10,"frizz_risk":1,"updated_at":"2026-06-06T13:17:45.898453+05:30"},{"city":"Bidar","state":"Karnataka","latitude":17.9104,"longitude":77.5199,"temp":34.6,"humidity":38,"rain":0.0,"pressure":933.5,"uv_index":9.0,"wind_gusts":35.3,"aqi":98,"pm10":45.5,"pm2_5":24.1,"no2":1.0,"co":145.0,"o3":129.0,"so2":6.2,"mosquito_risk":0,"arthritis_risk":5,"migraine_risk":7,"frizz_risk":1,"updated_at":"2026-06-06T13:17:45.898460+05:30"},{"city":"Hospet","state":"Karnataka","latitude":15.2689,"longitude":76.3909,"temp":24.6,"humidity":95,"rain":0.3,"pressure":954.3,"uv_index":8.95,"wind_gusts":41.4,"aqi":23,"pm10":11.3,"pm2_5":6.6,"no2":1.8,"co":134.0,"o3":75.0,"so2":2.2,"mosquito_risk":6,"arthritis_risk":5,"migraine_risk":7,"frizz_risk":1,"updated_at":"2026-06-06T13:17:45.898467+05:30"},{"city":"Tirupur","state":"Tamil Nadu","latitude":11.1085,"longitude":77.3411,"temp":26.3,"humidity":85,"rain":0.1,"pressure":974.7,"uv_index":8.95,"wind_gusts":52.9,"aqi":31,"pm10":2.9,"pm2_5":2.5,"no2":1.9,"co":116.0,"o3":72.0,"so2":2.0,"mosquito_risk":10,"arthritis_risk":5,"migraine_risk":7,"frizz_risk":1,"updated_at":"2026-06-06T13:17:45.898474+05:30"},{"city":"Alappuzha","state":"Kerala","latitude":9.4981,"longitude":76.3388,"temp":26.6,"humidity":86,"rain":0.1,"pressure":1010.3,"uv_index":8.3,"wind_gusts":36.4,"aqi":39,"pm10":12.7,"pm2_5":6.1,"no2":1.5,"co":93.0,"o3":57.0,"so2":1.1,"mosquito_risk":10,"arthritis_risk":0,"migraine_risk":4,"frizz_risk":1,"updated_at":"2026-06-06T13:17:45.898481+05:30"},{"city":"Munnar","state":"Kerala","latitude":10.0889,"longitude":77.0595,"temp":18.0,"humidity":92,"rain":0.2,"pressure":857.3,"uv_index":8.8,"wind_gusts":47.5,"aqi":18,"pm10":4.4,"pm2_5":2.7,"no2":1.2,"co":100.0,"o3":58.0,"so2":0.9,"mosquito_risk":6,"arthritis_risk":10,"migraine_risk":7,"frizz_risk":1,"updated_at":"2026-06-06T13:17:45.898489+05:30"},{"city":"Silchar","state":"Assam","latitude":24.8333,"longitude":92.7789,"temp":34.4,"humidity":57,"rain":0.0,"pressure":998.4,"uv_index":8.9,"wind_gusts":23.4,"aqi":134,"pm10":41.6,"pm2_5":33.9,"no2":1.0,"co":260.0,"o3":142.0,"so2":4.2,"mosquito_risk":0,"arthritis_risk":5,"migraine_risk":7,"frizz_risk":1,"updated_at":"2026-06-06T13:17:45.898496+05:30"},{"city":"Dibrugarh","state":"Assam","latitude":27.4728,"longitude":94.912,"temp":32.8,"humidity":60,"rain":0.0,"pressure":989.1,"uv_index":8.95,"wind_gusts":32.4,"aqi":116,"pm10":31.1,"pm2_5":27.2,"no2":1.0,"co":292.0,"o3":158.0,"so2":3.1,"mosquito_risk":0,"arthritis_risk":5,"migraine_risk":7,"frizz_risk":1,"updated_at":"2026-06-06T13:17:45.898503+05:30"}]