[{"city":"Delhi","state":"Delhi","latitude":28.6139,"longitude":77.209,"temp":29.6,"humidity":41,"rain":0.0,"pressure":983.9,"uv_index":7.15,"wind_gusts":29.2,"aqi":166,"pm10":127.6,"pm2_5":38.5,"no2":10.7,"co":332.0,"o3":201.0,"so2":22.6,"mosquito_risk":4,"arthritis_risk":5,"migraine_risk":7,"frizz_risk":0,"updated_at":"2026-05-05T16:47:14.137508+05:30"},{"city":"Mumbai","state":"Maharashtra","latitude":19.076,"longitude":72.8777,"temp":31.6,"humidity":62,"rain":0.0,"pressure":1006.8,"uv_index":7.85,"wind_gusts":42.1,"aqi":69,"pm10":68.2,"pm2_5":24.2,"no2":6.0,"co":205.0,"o3":89.0,"so2":18.9,"mosquito_risk":3,"arthritis_risk":5,"migraine_risk":4,"frizz_risk":1,"updated_at":"2026-05-05T16:47:14.137561+05:30"},{"city":"Bangalore","state":"Karnataka","latitude":12.9716,"longitude":77.5946,"temp":32.0,"humidity":30,"rain":0.0,"pressure":910.1,"uv_index":9.05,"wind_gusts":33.1,"aqi":136,"pm10":56.8,"pm2_5":26.0,"no2":15.0,"co":321.0,"o3":159.0,"so2":6.8,"mosquito_risk":0,"arthritis_risk":5,"migraine_risk":7,"frizz_risk":0,"updated_at":"2026-05-05T16:47:14.137577+05:30"},{"city":"Hyderabad","state":"Telangana","latitude":17.385,"longitude":78.4867,"temp":37.7,"humidity":15,"rain":0.0,"pressure":949.9,"uv_index":9.25,"wind_gusts":37.8,"aqi":140,"pm10":38.6,"pm2_5":16.1,"no2":1.3,"co":333.0,"o3":172.0,"so2":5.5,"mosquito_risk":0,"arthritis_risk":5,"migraine_risk":10,"frizz_risk":0,"updated_at":"2026-05-05T16:47:14.137587+05:30"},{"city":"Chennai","state":"Tamil Nadu","latitude":13.0827,"longitude":80.2707,"temp":31.5,"humidity":64,"rain":0.0,"pressure":1003.9,"uv_index":8.7,"wind_gusts":45.7,"aqi":75,"pm10":28.1,"pm2_5":17.5,"no2":4.1,"co":253.0,"o3":92.0,"so2":5.5,"mosquito_risk":3,"arthritis_risk":5,"migraine_risk":4,"frizz_risk":1,"updated_at":"2026-05-05T16:47:14.137596+05:30"},{"city":"Kolkata","state":"West Bengal","latitude":22.5726,"longitude":88.3639,"temp":28.9,"humidity":72,"rain":0.0,"pressure":1005.1,"uv_index":8.65,"wind_gusts":45.7,"aqi":77,"pm10":29.3,"pm2_5":23.8,"no2":8.8,"co":506.0,"o3":99.0,"so2":9.1,"mosquito_risk":7,"arthritis_risk":5,"migraine_risk":4,"frizz_risk":1,"updated_at":"2026-05-05T16:47:14.137605+05:30"},{"city":"Pune","state":"Maharashtra","latitude":18.5204,"longitude":73.8567,"temp":33.3,"humidity":29,"rain":0.0,"pressure":946.6,"uv_index":8.45,"wind_gusts":49.7,"aqi":55,"pm10":52.3,"pm2_5":16.0,"no2":2.1,"co":168.0,"o3":111.0,"so2":2.9,"mosquito_risk":0,"arthritis_risk":5,"migraine_risk":7,"frizz_risk":0,"updated_at":"2026-05-05T16:47:14.137612+05:30"},{"city":"Ahmedabad","state":"Gujarat","latitude":23.0225,"longitude":72.5714,"temp":39.9,"humidity":15,"rain":0.0,"pressure":998.6,"uv_index":8.1,"wind_gusts":29.9,"aqi":71,"pm10":122.5,"pm2_5":27.5,"no2":0.2,"co":164.0,"o3":141.0,"so2":5.3,"mosquito_risk":0,"arthritis_risk":5,"migraine_risk":10,"frizz_risk":0,"updated_at":"2026-05-05T16:47:14.137625+05:30"},{"city":"Jaipur","state":"Rajasthan","latitude":26.9124,"longitude":75.7873,"temp":33.8,"humidity":23,"rain":0.0,"pressure":959.0,"uv_index":8.05,"wind_gusts":28.4,"aqi":153,"pm10":167.6,"pm2_5":33.1,"no2":0.3,"co":230.0,"o3":155.0,"so2":3.9,"mosquito_risk":0,"arthritis_risk":5,"migraine_risk":7,"frizz_risk":0,"updated_at":"2026-05-05T16:47:14.137632+05:30"},{"city":"Lucknow","state":"Uttar Pradesh","latitude":26.8467,"longitude":80.9462,"temp":29.0,"humidity":58,"rain":0.0,"pressure":993.2,"uv_index":5.25,"wind_gusts":28.4,"aqi":125,"pm10":60.8,"pm2_5":41.1,"no2":2.9,"co":347.0,"o3":179.0,"so2":11.2,"mosquito_risk":4,"arthritis_risk":5,"migraine_risk":3,"frizz_risk":1,"updated_at":"2026-05-05T16:47:14.137639+05:30"},{"city":"Kanpur","state":"Uttar Pradesh","latitude":26.4499,"longitude":80.3319,"temp":27.0,"humidity":68,"rain":0.0,"pressure":991.7,"uv_index":8.05,"wind_gusts":34.9,"aqi":132,"pm10":136.4,"pm2_5":41.4,"no2":3.0,"co":334.0,"o3":180.0,"so2":9.2,"mosquito_risk":7,"arthritis_risk":5,"migraine_risk":7,"frizz_risk":1,"updated_at":"2026-05-05T16:47:14.137647+05:30"},{"city":"Chandigarh","state":"Chandigarh","latitude":30.7333,"longitude":76.7794,"temp":30.5,"humidity":26,"rain":0.0,"pressure":970.2,"uv_index":7.4,"wind_gusts":42.1,"aqi":122,"pm10":76.6,"pm2_5":19.3,"no2":0.8,"co":265.0,"o3":162.0,"so2":2.5,"mosquito_risk":0,"arthritis_risk":5,"migraine_risk":7,"frizz_risk":0,"updated_at":"2026-05-05T16:47:14.137653+05:30"},{"city":"Srinagar","state":"Jammu and Kashmir","latitude":34.0837,"longitude":74.7973,"temp":18.8,"humidity":51,"rain":0.0,"pressure":844.2,"uv_index":8.7,"wind_gusts":26.3,"aqi":99,"pm10":8.8,"pm2_5":5.5,"no2":4.4,"co":257.0,"o3":133.0,"so2":1.4,"mosquito_risk":0,"arthritis_risk":5,"migraine_risk":7,"frizz_risk":0,"updated_at":"2026-05-05T16:47:14.137660+05:30"},{"city":"Jammu","state":"Jammu and Kashmir","latitude":32.7266,"longitude":74.857,"temp":31.4,"humidity":24,"rain":0.0,"pressure":974.4,"uv_index":8.3,"wind_gusts":32.0,"aqi":118,"pm10":60.1,"pm2_5":16.1,"no2":1.0,"co":205.0,"o3":160.0,"so2":1.1,"mosquito_risk":0,"arthritis_risk":5,"migraine_risk":7,"frizz_risk":0,"updated_at":"2026-05-05T16:47:14.137667+05:30"},{"city":"Amritsar","state":"Punjab","latitude":31.634,"longitude":74.8723,"temp":32.2,"humidity":28,"rain":0.0,"pressure":982.2,"uv_index":8.2,"wind_gusts":45.0,"aqi":127,"pm10":122.9,"pm2_5":32.0,"no2":1.4,"co":222.0,"o3":163.0,"so2":5.7,"mosquito_risk":0,"arthritis_risk":5,"migraine_risk":7,"frizz_risk":0,"updated_at":"2026-05-05T16:47:14.137674+05:30"},{"city":"Ludhiana","state":"Punjab","latitude":30.901,"longitude":75.8573,"temp":29.1,"humidity":43,"rain":0.0,"pressure":980.1,"uv_index":7.8,"wind_gusts":28.8,"aqi":122,"pm10":433.1,"pm2_5":60.8,"no2":1.5,"co":245.0,"o3":160.0,"so2":4.1,"mosquito_risk":4,"arthritis_risk":5,"migraine_risk":7,"frizz_risk":0,"updated_at":"2026-05-05T16:47:14.137680+05:30"},{"city":"Jalandhar","state":"Punjab","latitude":31.326,"longitude":75.5762,"temp":30.4,"humidity":34,"rain":0.0,"pressure":981.1,"uv_index":7.95,"wind_gusts":41.8,"aqi":133,"pm10":210.9,"pm2_5":42.5,"no2":1.2,"co":298.0,"o3":167.0,"so2":6.2,"mosquito_risk":0,"arthritis_risk":5,"migraine_risk":7,"frizz_risk":0,"updated_at":"2026-05-05T16:47:14.137686+05:30"},{"city":"Dehradun","state":"Uttarakhand","latitude":30.6284,"longitude":78.0322,"temp":15.8,"humidity":67,"rain":0.0,"pressure":831.7,"uv_index":7.05,"wind_gusts":32.4,"aqi":106,"pm10":56.7,"pm2_5":13.5,"no2":0.3,"co":173.0,"o3":146.0,"so2":1.0,"mosquito_risk":3,"arthritis_risk":5,"migraine_risk":7,"frizz_risk":0,"updated_at":"2026-05-05T16:47:14.137695+05:30"},{"city":"Shimla","state":"Himachal Pradesh","latitude":31.1048,"longitude":77.1734,"temp":14.9,"humidity":46,"rain":0.0,"pressure":785.7,"uv_index":5.0,"wind_gusts":36.4,"aqi":107,"pm10":69.4,"pm2_5":18.7,"no2":1.1,"co":192.0,"o3":147.0,"so2":1.6,"mosquito_risk":0,"arthritis_risk":5,"migraine_risk":3,"frizz_risk":0,"updated_at":"2026-05-05T16:47:14.137703+05:30"},{"city":"Manali","state":"Himachal Pradesh","latitude":32.2396,"longitude":77.1887,"temp":15.0,"humidity":56,"rain":0.0,"pressure":817.9,"uv_index":9.7,"wind_gusts":41.0,"aqi":141,"pm10":22.2,"pm2_5":6.0,"no2":0.9,"co":160.0,"o3":164.0,"so2":0.3,"mosquito_risk":0,"arthritis_risk":5,"migraine_risk":7,"frizz_risk":0,"updated_at":"2026-05-05T16:47:14.137709+05:30"},{"city":"Gurgaon","state":"Haryana","latitude":28.4595,"longitude":77.0266,"temp":30.1,"humidity":39,"rain":0.0,"pressure":982.1,"uv_index":7.6,"wind_gusts":35.6,"aqi":423,"pm10":156.0,"pm2_5":42.3,"no2":9.5,"co":271.0,"o3":204.0,"so2":20.5,"mosquito_risk":0,"arthritis_risk":5,"migraine_risk":7,"frizz_risk":0,"updated_at":"2026-05-05T16:47:14.137715+05:30"},{"city":"Noida","state":"Uttar Pradesh","latitude":28.5355,"longitude":77.391,"temp":28.5,"humidity":49,"rain":0.0,"pressure":985.6,"uv_index":7.3,"wind_gusts":30.2,"aqi":423,"pm10":156.0,"pm2_5":42.3,"no2":9.5,"co":412.0,"o3":204.0,"so2":20.5,"mosquito_risk":4,"arthritis_risk":5,"migraine_risk":7,"frizz_risk":1,"updated_at":"2026-05-05T16:47:14.137722+05:30"},{"city":"Ghaziabad","state":"Uttar Pradesh","latitude":28.6692,"longitude":77.4538,"temp":29.2,"humidity":47,"rain":0.0,"pressure":983.7,"uv_index":7.0,"wind_gusts":37.4,"aqi":152,"pm10":201.6,"pm2_5":37.8,"no2":4.3,"co":246.0,"o3":161.0,"so2":5.9,"mosquito_risk":4,"arthritis_risk":5,"migraine_risk":7,"frizz_risk":1,"updated_at":"2026-05-05T16:47:14.137728+05:30"},{"city":"Faridabad","state":"Haryana","latitude":28.4089,"longitude":77.3178,"temp":28.0,"humidity":53,"rain":0.0,"pressure":984.8,"uv_index":7.25,"wind_gusts":28.8,"aqi":423,"pm10":156.0,"pm2_5":42.3,"no2":9.5,"co":382.0,"o3":204.0,"so2":20.5,"mosquito_risk":4,"arthritis_risk":5,"migraine_risk":7,"frizz_risk":1,"updated_at":"2026-05-05T16:47:14.137733+05:30"},{"city":"Meerut","state":"Uttar Pradesh","latitude":28.9845,"longitude":77.7064,"temp":26.0,"humidity":65,"rain":0.0,"pressure":983.0,"uv_index":3.4,"wind_gusts":50.8,"aqi":152,"pm10":201.6,"pm2_5":37.8,"no2":4.3,"co":259.0,"o3":161.0,"so2":5.9,"mosquito_risk":7,"arthritis_risk":5,"migraine_risk":3,"frizz_risk":1,"updated_at":"2026-05-05T16:47:14.137739+05:30"},{"city":"Agra","state":"Uttar Pradesh","latitude":27.1767,"longitude":78.0081,"temp":29.2,"humidity":55,"rain":0.0,"pressure":987.7,"uv_index":7.9,"wind_gusts":33.8,"aqi":344,"pm10":321.3,"pm2_5":57.9,"no2":3.4,"co":263.0,"o3":162.0,"so2":6.9,"mosquito_risk":4,"arthritis_risk":5,"migraine_risk":7,"frizz_risk":1,"updated_at":"2026-05-05T16:47:14.137745+05:30"},{"city":"Varanasi","state":"Uttar Pradesh","latitude":25.3176,"longitude":82.9739,"temp":30.1,"humidity":53,"rain":0.0,"pressure":996.4,"uv_index":8.25,"wind_gusts":50.4,"aqi":169,"pm10":90.1,"pm2_5":48.3,"no2":3.5,"co":417.0,"o3":199.0,"so2":15.7,"mosquito_risk":0,"arthritis_risk":5,"migraine_risk":7,"frizz_risk":1,"updated_at":"2026-05-05T16:47:14.137751+05:30"},{"city":"Prayagraj","state":"Uttar Pradesh","latitude":25.4358,"longitude":81.8463,"temp":32.1,"humidity":44,"rain":0.0,"pressure":994.8,"uv_index":8.45,"wind_gusts":51.8,"aqi":146,"pm10":74.0,"pm2_5":40.9,"no2":4.3,"co":292.0,"o3":162.0,"so2":10.2,"mosquito_risk":0,"arthritis_risk":5,"migraine_risk":7,"frizz_risk":1,"updated_at":"2026-05-05T16:47:14.137759+05:30"},{"city":"Gorakhpur","state":"Uttar Pradesh","latitude":26.7606,"longitude":83.3732,"temp":30.7,"humidity":52,"rain":0.0,"pressure":996.1,"uv_index":7.8,"wind_gusts":23.0,"aqi":151,"pm10":45.3,"pm2_5":31.3,"no2":2.3,"co":325.0,"o3":175.0,"so2":5.3,"mosquito_risk":0,"arthritis_risk":5,"migraine_risk":7,"frizz_risk":1,"updated_at":"2026-05-05T16:47:14.137765+05:30"},{"city":"Bareilly","state":"Uttar Pradesh","latitude":28.367,"longitude":79.4304,"temp":30.0,"humidity":50,"rain":0.0,"pressure":987.3,"uv_index":7.5,"wind_gusts":37.8,"aqi":136,"pm10":64.5,"pm2_5":35.9,"no2":2.8,"co":253.0,"o3":170.0,"so2":10.9,"mosquito_risk":4,"arthritis_risk":5,"migraine_risk":7,"frizz_risk":1,"updated_at":"2026-05-05T16:47:14.137771+05:30"},{"city":"Aligarh","state":"Uttar Pradesh","latitude":27.8974,"longitude":78.088,"temp":30.0,"humidity":51,"rain":0.0,"pressure":985.9,"uv_index":7.65,"wind_gusts":41.8,"aqi":223,"pm10":161.1,"pm2_5":44.8,"no2":4.5,"co":219.0,"o3":162.0,"so2":13.5,"mosquito_risk":4,"arthritis_risk":5,"migraine_risk":7,"frizz_risk":1,"updated_at":"2026-05-05T16:47:14.137778+05:30"},{"city":"Moradabad","state":"Uttar Pradesh","latitude":28.8386,"longitude":78.7733,"temp":28.5,"humidity":51,"rain":0.0,"pressure":985.0,"uv_index":6.8,"wind_gusts":46.4,"aqi":150,"pm10":66.4,"pm2_5":35.7,"no2":5.1,"co":303.0,"o3":173.0,"so2":16.7,"mosquito_risk":4,"arthritis_risk":5,"migraine_risk":7,"frizz_risk":1,"updated_at":"2026-05-05T16:47:14.137783+05:30"},{"city":"Saharanpur","state":"Uttar Pradesh","latitude":29.9637,"longitude":77.546,"temp":26.7,"humidity":55,"rain":0.0,"pressure":977.2,"uv_index":6.3,"wind_gusts":53.3,"aqi":113,"pm10":81.3,"pm2_5":21.0,"no2":5.1,"co":244.0,"o3":145.0,"so2":3.8,"mosquito_risk":4,"arthritis_risk":5,"migraine_risk":7,"frizz_risk":1,"updated_at":"2026-05-05T16:47:14.137789+05:30"},{"city":"Jhansi","state":"Uttar Pradesh","latitude":25.4484,"longitude":78.5685,"temp":29.9,"humidity":48,"rain":0.0,"pressure":977.4,"uv_index":8.35,"wind_gusts":59.8,"aqi":141,"pm10":88.7,"pm2_5":37.0,"no2":2.0,"co":260.0,"o3":159.0,"so2":13.7,"mosquito_risk":4,"arthritis_risk":5,"migraine_risk":7,"frizz_risk":1,"updated_at":"2026-05-05T16:47:17.435433+05:30"},{"city":"Surat","state":"Gujarat","latitude":21.1702,"longitude":72.8311,"temp":33.3,"humidity":53,"rain":0.0,"pressure":1004.3,"uv_index":7.7,"wind_gusts":41.8,"aqi":76,"pm10":73.1,"pm2_5":30.9,"no2":18.7,"co":318.0,"o3":66.0,"so2":45.9,"mosquito_risk":0,"arthritis_risk":5,"migraine_risk":4,"frizz_risk":1,"updated_at":"2026-05-05T16:47:17.435491+05:30"},{"city":"Vadodara","state":"Gujarat","latitude":22.3072,"longitude":73.1812,"temp":37.2,"humidity":28,"rain":0.0,"pressure":1001.2,"uv_index":8.05,"wind_gusts":44.3,"aqi":68,"pm10":74.3,"pm2_5":26.1,"no2":1.7,"co":175.0,"o3":136.0,"so2":4.7,"mosquito_risk":0,"arthritis_risk":5,"migraine_risk":7,"frizz_risk":0,"updated_at":"2026-05-05T16:47:17.435501+05:30"},{"city":"Rajkot","state":"Gujarat","latitude":22.3039,"longitude":70.8022,"temp":40.2,"humidity":14,"rain":0.0,"pressure":990.8,"uv_index":7.7,"wind_gusts":51.8,"aqi":63,"pm10":112.7,"pm2_5":25.5,"no2":1.1,"co":142.0,"o3":145.0,"so2":5.6,"mosquito_risk":0,"arthritis_risk":5,"migraine_risk":10,"frizz_risk":0,"updated_at":"2026-05-05T16:47:17.435510+05:30"},{"city":"Thane","state":"Maharashtra","latitude":19.2183,"longitude":72.9781,"temp":32.7,"humidity":57,"rain":0.0,"pressure":1005.9,"uv_index":7.85,"wind_gusts":38.9,"aqi":69,"pm10":68.2,"pm2_5":24.2,"no2":6.0,"co":186.0,"o3":89.0,"so2":18.9,"mosquito_risk":0,"arthritis_risk":5,"migraine_risk":4,"frizz_risk":1,"updated_at":"2026-05-05T16:47:17.435519+05:30"},{"city":"Nagpur","state":"Maharashtra","latitude":21.1458,"longitude":79.0882,"temp":39.5,"humidity":14,"rain":0.0,"pressure":969.1,"uv_index":8.9,"wind_gusts":34.9,"aqi":146,"pm10":39.3,"pm2_5":15.8,"no2":4.8,"co":177.0,"o3":157.0,"so2":15.5,"mosquito_risk":0,"arthritis_risk":5,"migraine_risk":10,"frizz_risk":0,"updated_at":"2026-05-05T16:47:17.435528+05:30"},{"city":"Nashik","state":"Maharashtra","latitude":19.9975,"longitude":73.7898,"temp":33.0,"humidity":32,"rain":0.0,"pressure":944.1,"uv_index":8.2,"wind_gusts":44.6,"aqi":62,"pm10":58.9,"pm2_5":19.2,"no2":1.3,"co":153.0,"o3":107.0,"so2":1.3,"mosquito_risk":0,"arthritis_risk":5,"migraine_risk":7,"frizz_risk":0,"updated_at":"2026-05-05T16:47:17.435536+05:30"},{"city":"Aurangabad","state":"Maharashtra","latitude":19.8762,"longitude":75.3433,"temp":37.2,"humidity":14,"rain":0.0,"pressure":941.8,"uv_index":9.0,"wind_gusts":42.8,"aqi":61,"pm10":65.2,"pm2_5":17.5,"no2":0.9,"co":159.0,"o3":127.0,"so2":2.1,"mosquito_risk":0,"arthritis_risk":5,"migraine_risk":10,"frizz_risk":0,"updated_at":"2026-05-05T16:47:17.435543+05:30"},{"city":"Solapur","state":"Maharashtra","latitude":17.6599,"longitude":75.9064,"temp":39.0,"humidity":13,"rain":0.0,"pressure":953.5,"uv_index":9.1,"wind_gusts":41.0,"aqi":64,"pm10":58.3,"pm2_5":15.1,"no2":0.5,"co":151.0,"o3":133.0,"so2":1.9,"mosquito_risk":0,"arthritis_risk":5,"migraine_risk":10,"frizz_risk":0,"updated_at":"2026-05-05T16:47:17.435552+05:30"},{"city":"Kolhapur","state":"Maharashtra","latitude":16.705,"longitude":74.2433,"temp":33.2,"humidity":30,"rain":0.0,"pressure":945.9,"uv_index":8.95,"wind_gusts":45.7,"aqi":60,"pm10":52.5,"pm2_5":15.2,"no2":2.2,"co":156.0,"o3":104.0,"so2":1.2,"mosquito_risk":0,"arthritis_risk":5,"migraine_risk":7,"frizz_risk":0,"updated_at":"2026-05-05T16:47:17.435560+05:30"},{"city":"Goa","state":"Goa","latitude":15.2993,"longitude":74.124,"temp":33.8,"humidity":54,"rain":0.0,"pressure":995.3,"uv_index":8.95,"wind_gusts":36.0,"aqi":68,"pm10":37.6,"pm2_5":16.1,"no2":0.9,"co":136.0,"o3":73.0,"so2":0.9,"mosquito_risk":0,"arthritis_risk":5,"migraine_risk":7,"frizz_risk":1,"updated_at":"2026-05-05T16:47:17.435567+05:30"},{"city":"Jodhpur","state":"Rajasthan","latitude":26.2389,"longitude":73.0243,"temp":37.0,"humidity":21,"rain":0.0,"pressure":981.2,"uv_index":8.3,"wind_gusts":47.5,"aqi":101,"pm10":222.6,"pm2_5":34.7,"no2":0.0,"co":152.0,"o3":149.0,"so2":3.3,"mosquito_risk":0,"arthritis_risk":5,"migraine_risk":10,"frizz_risk":0,"updated_at":"2026-05-05T16:47:17.435575+05:30"},{"city":"Udaipur","state":"Rajasthan","latitude":24.5854,"longitude":73.7125,"temp":27.3,"humidity":50,"rain":0.0,"pressure":946.6,"uv_index":8.75,"wind_gusts":50.8,"aqi":78,"pm10":121.5,"pm2_5":27.4,"no2":0.8,"co":170.0,"o3":141.0,"so2":3.6,"mosquito_risk":4,"arthritis_risk":5,"migraine_risk":7,"frizz_risk":1,"updated_at":"2026-05-05T16:47:17.435583+05:30"},{"city":"Kota","state":"Rajasthan","latitude":25.2138,"longitude":75.8648,"temp":37.0,"humidity":19,"rain":0.0,"pressure":976.4,"uv_index":8.3,"wind_gusts":28.8,"aqi":118,"pm10":94.3,"pm2_5":26.2,"no2":1.1,"co":208.0,"o3":158.0,"so2":5.2,"mosquito_risk":0,"arthritis_risk":5,"migraine_risk":10,"frizz_risk":0,"updated_at":"2026-05-05T16:47:17.435590+05:30"},{"city":"Bikaner","state":"Rajasthan","latitude":28.0229,"longitude":73.3119,"temp":35.7,"humidity":21,"rain":0.0,"pressure":981.3,"uv_index":8.2,"wind_gusts":28.8,"aqi":90,"pm10":104.5,"pm2_5":29.5,"no2":0.6,"co":191.0,"o3":159.0,"so2":7.7,"mosquito_risk":0,"arthritis_risk":5,"migraine_risk":10,"frizz_risk":0,"updated_at":"2026-05-05T16:47:17.435598+05:30"},{"city":"Ajmer","state":"Rajasthan","latitude":26.4499,"longitude":74.6399,"temp":34.2,"humidity":21,"rain":0.0,"pressure":953.7,"uv_index":8.2,"wind_gusts":35.3,"aqi":96,"pm10":71.2,"pm2_5":20.3,"no2":0.4,"co":188.0,"o3":149.0,"so2":3.2,"mosquito_risk":0,"arthritis_risk":5,"migraine_risk":7,"frizz_risk":0,"updated_at":"2026-05-05T16:47:17.435606+05:30"},{"city":"Gwalior","state":"Madhya Pradesh","latitude":26.2183,"longitude":78.1828,"temp":27.1,"humidity":68,"rain":0.0,"pressure":982.8,"uv_index":8.1,"wind_gusts":49.3,"aqi":112,"pm10":110.8,"pm2_5":31.0,"no2":1.2,"co":275.0,"o3":150.0,"so2":3.1,"mosquito_risk":7,"arthritis_risk":5,"migraine_risk":7,"frizz_risk":1,"updated_at":"2026-05-05T16:47:17.435614+05:30"},{"city":"Indore","state":"Madhya Pradesh","latitude":22.7196,"longitude":75.8577,"temp":34.8,"humidity":19,"rain":0.0,"pressure":946.4,"uv_index":8.6,"wind_gusts":46.8,"aqi":104,"pm10":57.3,"pm2_5":19.2,"no2":1.1,"co":184.0,"o3":135.0,"so2":4.0,"mosquito_risk":0,"arthritis_risk":5,"migraine_risk":7,"frizz_risk":0,"updated_at":"2026-05-05T16:47:17.435621+05:30"},{"city":"Bhopal","state":"Madhya Pradesh","latitude":23.2599,"longitude":77.4126,"temp":36.8,"humidity":17,"rain":0.0,"pressure":951.0,"uv_index":8.6,"wind_gusts":37.4,"aqi":99,"pm10":58.0,"pm2_5":17.8,"no2":0.6,"co":233.0,"o3":133.0,"so2":2.6,"mosquito_risk":0,"arthritis_risk":5,"migraine_risk":10,"frizz_risk":0,"updated_at":"2026-05-05T16:47:17.435629+05:30"},{"city":"Jabalpur","state":"Madhya Pradesh","latitude":23.1815,"longitude":79.9864,"temp":36.5,"humidity":23,"rain":0.0,"pressure":958.3,"uv_index":8.3,"wind_gusts":43.9,"aqi":142,"pm10":44.0,"pm2_5":19.3,"no2":2.1,"co":217.0,"o3":154.0,"so2":4.3,"mosquito_risk":0,"arthritis_risk":5,"migraine_risk":10,"frizz_risk":0,"updated_at":"2026-05-05T16:47:17.435637+05:30"},{"city":"Ujjain","state":"Madhya Pradesh","latitude":23.1765,"longitude":75.7885,"temp":35.4,"humidity":19,"rain":0.0,"pressure":951.9,"uv_index":8.55,"wind_gusts":44.6,"aqi":96,"pm10":42.0,"pm2_5":14.7,"no2":0.8,"co":156.0,"o3":132.0,"so2":3.2,"mosquito_risk":0,"arthritis_risk":5,"migraine_risk":10,"frizz_risk":0,"updated_at":"2026-05-05T16:47:17.435645+05:30"},{"city":"Visakhapatnam","state":"Andhra Pradesh","latitude":17.6868,"longitude":83.2185,"temp":30.6,"humidity":69,"rain":0.0,"pressure":1002.2,"uv_index":9.2,"wind_gusts":36.7,"aqi":79,"pm10":30.6,"pm2_5":22.2,"no2":17.2,"co":360.0,"o3":68.0,"so2":14.6,"mosquito_risk":3,"arthritis_risk":5,"migraine_risk":4,"frizz_risk":1,"updated_at":"2026-05-05T16:47:17.435653+05:30"},{"city":"Vijayawada","state":"Andhra Pradesh","latitude":16.5062,"longitude":80.648,"temp":35.5,"humidity":41,"rain":0.0,"pressure":999.4,"uv_index":9.2,"wind_gusts":41.4,"aqi":87,"pm10":45.4,"pm2_5":31.7,"no2":3.6,"co":203.0,"o3":119.0,"so2":7.4,"mosquito_risk":0,"arthritis_risk":5,"migraine_risk":10,"frizz_risk":1,"updated_at":"2026-05-05T16:47:17.435661+05:30"},{"city":"Guntur","state":"Andhra Pradesh","latitude":16.3067,"longitude":80.4365,"temp":34.6,"humidity":47,"rain":0.0,"pressure":1000.8,"uv_index":9.2,"wind_gusts":39.2,"aqi":98,"pm10":71.5,"pm2_5":42.7,"no2":2.8,"co":223.0,"o3":133.0,"so2":5.5,"mosquito_risk":0,"arthritis_risk":5,"migraine_risk":4,"frizz_risk":1,"updated_at":"2026-05-05T16:47:17.435669+05:30"},{"city":"Nellore","state":"Andhra Pradesh","latitude":14.4426,"longitude":79.9865,"temp":32.2,"humidity":65,"rain":0.0,"pressure":1002.6,"uv_index":8.9,"wind_gusts":40.3,"aqi":108,"pm10":41.3,"pm2_5":28.6,"no2":1.8,"co":244.0,"o3":122.0,"so2":6.7,"mosquito_risk":3,"arthritis_risk":5,"migraine_risk":4,"frizz_risk":1,"updated_at":"2026-05-05T16:47:17.435677+05:30"},{"city":"Kurnool","state":"Andhra Pradesh","latitude":15.8281,"longitude":78.0373,"temp":39.7,"humidity":15,"rain":0.0,"pressure":971.9,"uv_index":9.2,"wind_gusts":43.9,"aqi":140,"pm10":44.6,"pm2_5":18.1,"no2":0.8,"co":180.0,"o3":167.0,"so2":6.2,"mosquito_risk":0,"arthritis_risk":5,"migraine_risk":10,"frizz_risk":0,"updated_at":"2026-05-05T16:47:17.435686+05:30"},{"city":"Kakinada","state":"Andhra Pradesh","latitude":16.9891,"longitude":82.2475,"temp":31.5,"humidity":60,"rain":0.0,"pressure":1005.7,"uv_index":9.15,"wind_gusts":32.8,"aqi":66,"pm10":26.7,"pm2_5":17.4,"no2":1.4,"co":200.0,"o3":79.0,"so2":1.1,"mosquito_risk":0,"arthritis_risk":5,"migraine_risk":4,"frizz_risk":1,"updated_at":"2026-05-05T16:47:17.435693+05:30"},{"city":"Tirupati","state":"Andhra Pradesh","latitude":13.6288,"longitude":79.4192,"temp":36.4,"humidity":30,"rain":0.0,"pressure":987.3,"uv_index":9.25,"wind_gusts":31.7,"aqi":147,"pm10":65.9,"pm2_5":44.5,"no2":2.6,"co":225.0,"o3":174.0,"so2":10.7,"mosquito_risk":0,"arthritis_risk":5,"migraine_risk":10,"frizz_risk":1,"updated_at":"2026-05-05T16:47:17.435700+05:30"},{"city":"Warangal","state":"Telangana","latitude":17.9689,"longitude":79.5941,"temp":38.3,"humidity":19,"rain":0.0,"pressure":974.9,"uv_index":9.15,"wind_gusts":53.3,"aqi":111,"pm10":43.4,"pm2_5":20.1,"no2":1.8,"co":225.0,"o3":147.0,"so2":4.8,"mosquito_risk":0,"arthritis_risk":5,"migraine_risk":10,"frizz_risk":0,"updated_at":"2026-05-05T16:47:17.435708+05:30"},{"city":"Nizamabad","state":"Telangana","latitude":18.6725,"longitude":78.0941,"temp":38.2,"humidity":14,"rain":0.0,"pressure":961.3,"uv_index":9.1,"wind_gusts":32.8,"aqi":120,"pm10":44.9,"pm2_5":16.6,"no2":0.6,"co":167.0,"o3":143.0,"so2":4.9,"mosquito_risk":0,"arthritis_risk":5,"migraine_risk":10,"frizz_risk":0,"updated_at":"2026-05-05T16:47:17.435715+05:30"},{"city":"Mysore","state":"Karnataka","latitude":12.2958,"longitude":76.6396,"temp":32.2,"humidity":36,"rain":0.0,"pressure":926.2,"uv_index":9.35,"wind_gusts":31.0,"aqi":84,"pm10":41.4,"pm2_5":17.1,"no2":1.1,"co":190.0,"o3":150.0,"so2":2.1,"mosquito_risk":0,"arthritis_risk":5,"migraine_risk":7,"frizz_risk":0,"updated_at":"2026-05-05T16:47:17.435723+05:30"},{"city":"Mangalore","state":"Karnataka","latitude":12.9141,"longitude":74.856,"temp":31.5,"humidity":63,"rain":0.0,"pressure":1004.2,"uv_index":8.6,"wind_gusts":50.0,"aqi":64,"pm10":41.9,"pm2_5":16.5,"no2":1.3,"co":131.0,"o3":73.0,"so2":0.8,"mosquito_risk":3,"arthritis_risk":5,"migraine_risk":4,"frizz_risk":1,"updated_at":"2026-05-05T16:47:17.435730+05:30"},{"city":"Hubli-Dharwad","state":"Karnataka","latitude":15.3647,"longitude":75.124,"temp":35.3,"humidity":22,"rain":0.0,"pressure":937.9,"uv_index":9.2,"wind_gusts":55.4,"aqi":58,"pm10":65.4,"pm2_5":17.6,"no2":2.0,"co":166.0,"o3":122.0,"so2":1.2,"mosquito_risk":0,"arthritis_risk":5,"migraine_risk":10,"frizz_risk":0,"updated_at":"2026-05-05T16:47:17.435739+05:30"},{"city":"Belgaum","state":"Karnataka","latitude":15.8497,"longitude":74.4977,"temp":30.5,"humidity":42,"rain":0.0,"pressure":924.0,"uv_index":9.2,"wind_gusts":54.7,"aqi":59,"pm10":48.8,"pm2_5":15.4,"no2":1.7,"co":150.0,"o3":101.0,"so2":1.5,"mosquito_risk":0,"arthritis_risk":5,"migraine_risk":7,"frizz_risk":1,"updated_at":"2026-05-05T16:47:20.717559+05:30"},{"city":"Coimbatore","state":"Tamil Nadu","latitude":11.0168,"longitude":76.9558,"temp":31.1,"humidity":53,"rain":0.0,"pressure":959.3,"uv_index":9.25,"wind_gusts":38.2,"aqi":79,"pm10":41.8,"pm2_5":18.9,"no2":6.5,"co":218.0,"o3":123.0,"so2":3.4,"mosquito_risk":0,"arthritis_risk":5,"migraine_risk":7,"frizz_risk":1,"updated_at":"2026-05-05T16:47:20.717588+05:30"},{"city":"Madurai","state":"Tamil Nadu","latitude":9.9252,"longitude":78.1198,"temp":31.9,"humidity":61,"rain":0.1,"pressure":989.8,"uv_index":4.45,"wind_gusts":35.3,"aqi":130,"pm10":46.4,"pm2_5":22.5,"no2":2.8,"co":277.0,"o3":154.0,"so2":2.7,"mosquito_risk":6,"arthritis_risk":5,"migraine_risk":3,"frizz_risk":1,"updated_at":"2026-05-05T16:47:20.717597+05:30"},{"city":"Trichy","state":"Tamil Nadu","latitude":10.7905,"longitude":78.7047,"temp":36.2,"humidity":36,"rain":0.0,"pressure":995.4,"uv_index":8.65,"wind_gusts":34.6,"aqi":118,"pm10":59.0,"pm2_5":32.4,"no2":2.1,"co":227.0,"o3":168.0,"so2":4.7,"mosquito_risk":0,"arthritis_risk":5,"migraine_risk":10,"frizz_risk":1,"updated_at":"2026-05-05T16:47:20.717605+05:30"},{"city":"Salem","state":"Tamil Nadu","latitude":11.6643,"longitude":78.146,"temp":35.4,"humidity":32,"rain":0.0,"pressure":973.7,"uv_index":9.0,"wind_gusts":41.0,"aqi":148,"pm10":66.6,"pm2_5":31.0,"no2":3.9,"co":235.0,"o3":173.0,"so2":13.2,"mosquito_risk":0,"arthritis_risk":5,"migraine_risk":10,"frizz_risk":1,"updated_at":"2026-05-05T16:47:20.717612+05:30"},{"city":"Tirunelveli","state":"Tamil Nadu","latitude":8.7139,"longitude":77.7567,"temp":32.7,"humidity":49,"rain":0.0,"pressure":999.7,"uv_index":8.75,"wind_gusts":37.8,"aqi":79,"pm10":32.5,"pm2_5":16.8,"no2":2.6,"co":216.0,"o3":111.0,"so2":0.9,"mosquito_risk":0,"arthritis_risk":5,"migraine_risk":7,"frizz_risk":1,"updated_at":"2026-05-05T16:47:20.717619+05:30"},{"city":"Vellore","state":"Tamil Nadu","latitude":12.9165,"longitude":79.1325,"temp":35.8,"humidity":34,"rain":0.0,"pressure":980.8,"uv_index":8.35,"wind_gusts":34.2,"aqi":158,"pm10":66.6,"pm2_5":41.0,"no2":3.2,"co":240.0,"o3":176.0,"so2":7.6,"mosquito_risk":0,"arthritis_risk":5,"migraine_risk":10,"frizz_risk":1,"updated_at":"2026-05-05T16:47:20.717626+05:30"},{"city":"Erode","state":"Tamil Nadu","latitude":11.341,"longitude":77.7172,"temp":29.3,"humidity":64,"rain":0.1,"pressure":986.1,"uv_index":8.95,"wind_gusts":59.0,"aqi":122,"pm10":64.0,"pm2_5":26.4,"no2":4.2,"co":237.0,"o3":165.0,"so2":3.1,"mosquito_risk":10,"arthritis_risk":5,"migraine_risk":7,"frizz_risk":1,"updated_at":"2026-05-05T16:47:20.717633+05:30"},{"city":"Kochi","state":"Kerala","latitude":9.9312,"longitude":76.2673,"temp":29.7,"humidity":75,"rain":0.0,"pressure":1006.2,"uv_index":3.95,"wind_gusts":27.7,"aqi":62,"pm10":14.4,"pm2_5":9.6,"no2":6.5,"co":163.0,"o3":83.0,"so2":2.3,"mosquito_risk":7,"arthritis_risk":5,"migraine_risk":0,"frizz_risk":1,"updated_at":"2026-05-05T16:47:20.717640+05:30"},{"city":"Thiruvananthapuram","state":"Kerala","latitude":8.5241,"longitude":76.9366,"temp":28.9,"humidity":74,"rain":0.0,"pressure":1005.3,"uv_index":8.8,"wind_gusts":32.8,"aqi":67,"pm10":19.1,"pm2_5":9.5,"no2":2.2,"co":135.0,"o3":111.0,"so2":1.8,"mosquito_risk":7,"arthritis_risk":5,"migraine_risk":4,"frizz_risk":1,"updated_at":"2026-05-05T16:47:20.717647+05:30"},{"city":"Kozhikode","state":"Kerala","latitude":11.2588,"longitude":75.7804,"temp":29.8,"humidity":74,"rain":0.0,"pressure":1005.2,"uv_index":8.75,"wind_gusts":39.6,"aqi":58,"pm10":40.2,"pm2_5":14.7,"no2":0.8,"co":152.0,"o3":73.0,"so2":0.6,"mosquito_risk":7,"arthritis_risk":5,"migraine_risk":4,"frizz_risk":1,"updated_at":"2026-05-05T16:47:20.717653+05:30"},{"city":"Thrissur","state":"Kerala","latitude":10.5276,"longitude":76.2144,"temp":30.5,"humidity":69,"rain":0.0,"pressure":1004.4,"uv_index":5.7,"wind_gusts":28.8,"aqi":57,"pm10":19.5,"pm2_5":10.6,"no2":3.4,"co":125.0,"o3":91.0,"so2":1.9,"mosquito_risk":3,"arthritis_risk":5,"migraine_risk":0,"frizz_risk":1,"updated_at":"2026-05-05T16:47:20.717660+05:30"},{"city":"Kannur","state":"Kerala","latitude":11.8745,"longitude":75.3704,"temp":31.1,"humidity":65,"rain":0.0,"pressure":1004.6,"uv_index":8.7,"wind_gusts":42.1,"aqi":64,"pm10":39.8,"pm2_5":17.6,"no2":1.6,"co":145.0,"o3":80.0,"so2":1.1,"mosquito_risk":3,"arthritis_risk":5,"migraine_risk":4,"frizz_risk":1,"updated_at":"2026-05-05T16:47:20.717667+05:30"},{"city":"Patna","state":"Bihar","latitude":25.5941,"longitude":85.1376,"temp":30.1,"humidity":58,"rain":0.0,"pressure":999.0,"uv_index":8.7,"wind_gusts":29.2,"aqi":174,"pm10":70.3,"pm2_5":47.1,"no2":3.0,"co":370.0,"o3":201.0,"so2":9.2,"mosquito_risk":0,"arthritis_risk":5,"migraine_risk":7,"frizz_risk":1,"updated_at":"2026-05-05T16:47:20.717673+05:30"},{"city":"Gaya","state":"Bihar","latitude":24.7914,"longitude":85.0002,"temp":32.4,"humidity":43,"rain":0.0,"pressure":992.3,"uv_index":8.75,"wind_gusts":31.7,"aqi":167,"pm10":88.2,"pm2_5":46.4,"no2":3.6,"co":338.0,"o3":186.0,"so2":10.0,"mosquito_risk":0,"arthritis_risk":5,"migraine_risk":7,"frizz_risk":1,"updated_at":"2026-05-05T16:47:20.717680+05:30"},{"city":"Muzaffarpur","state":"Bihar","latitude":26.1209,"longitude":85.3647,"temp":30.4,"humidity":58,"rain":0.0,"pressure":998.8,"uv_index":8.6,"wind_gusts":30.6,"aqi":159,"pm10":65.2,"pm2_5":46.0,"no2":4.8,"co":355.0,"o3":185.0,"so2":9.1,"mosquito_risk":0,"arthritis_risk":5,"migraine_risk":7,"frizz_risk":1,"updated_at":"2026-05-05T16:47:20.717686+05:30"},{"city":"Bhagalpur","state":"Bihar","latitude":25.2425,"longitude":87.0117,"temp":30.1,"humidity":59,"rain":0.0,"pressure":999.8,"uv_index":8.7,"wind_gusts":25.9,"aqi":160,"pm10":48.1,"pm2_5":39.7,"no2":7.3,"co":301.0,"o3":194.0,"so2":11.4,"mosquito_risk":0,"arthritis_risk":5,"migraine_risk":7,"frizz_risk":1,"updated_at":"2026-05-05T16:47:20.717693+05:30"},{"city":"Ranchi","state":"Jharkhand","latitude":23.3441,"longitude":85.3096,"temp":27.2,"humidity":60,"rain":0.0,"pressure":937.2,"uv_index":9.2,"wind_gusts":33.5,"aqi":158,"pm10":82.9,"pm2_5":47.8,"no2":3.6,"co":267.0,"o3":164.0,"so2":10.3,"mosquito_risk":4,"arthritis_risk":5,"migraine_risk":7,"frizz_risk":1,"updated_at":"2026-05-05T16:47:20.717699+05:30"},{"city":"Jamshedpur","state":"Jharkhand","latitude":22.8046,"longitude":86.2029,"temp":27.4,"humidity":70,"rain":0.0,"pressure":991.2,"uv_index":9.0,"wind_gusts":29.5,"aqi":159,"pm10":43.7,"pm2_5":35.0,"no2":5.0,"co":236.0,"o3":173.0,"so2":14.7,"mosquito_risk":7,"arthritis_risk":5,"migraine_risk":7,"frizz_risk":1,"updated_at":"2026-05-05T16:47:20.717705+05:30"},{"city":"Dhanbad","state":"Jharkhand","latitude":23.7957,"longitude":86.4304,"temp":25.5,"humidity":81,"rain":0.0,"pressure":979.1,"uv_index":9.0,"wind_gusts":29.5,"aqi":147,"pm10":72.4,"pm2_5":59.6,"no2":25.1,"co":250.0,"o3":189.0,"so2":59.1,"mosquito_risk":7,"arthritis_risk":5,"migraine_risk":7,"frizz_risk":1,"updated_at":"2026-05-05T16:47:20.717712+05:30"},{"city":"Bokaro","state":"Jharkhand","latitude":23.6693,"longitude":86.1511,"temp":26.8,"humidity":74,"rain":0.0,"pressure":983.2,"uv_index":8.85,"wind_gusts":34.2,"aqi":191,"pm10":78.9,"pm2_5":64.7,"no2":23.5,"co":919.0,"o3":225.0,"so2":69.4,"mosquito_risk":7,"arthritis_risk":5,"migraine_risk":7,"frizz_risk":1,"updated_at":"2026-05-05T16:47:20.717718+05:30"},{"city":"Bhubaneswar","state":"Odisha","latitude":20.2961,"longitude":85.8245,"temp":27.4,"humidity":81,"rain":0.0,"pressure":1002.4,"uv_index":9.1,"wind_gusts":37.1,"aqi":49,"pm10":11.6,"pm2_5":7.8,"no2":3.2,"co":206.0,"o3":81.0,"so2":2.6,"mosquito_risk":7,"arthritis_risk":5,"migraine_risk":4,"frizz_risk":1,"updated_at":"2026-05-05T16:47:20.717724+05:30"},{"city":"Cuttack","state":"Odisha","latitude":20.4625,"longitude":85.8828,"temp":25.9,"humidity":85,"rain":0.0,"pressure":1004.5,"uv_index":9.15,"wind_gusts":30.2,"aqi":49,"pm10":11.6,"pm2_5":7.8,"no2":3.2,"co":246.0,"o3":81.0,"so2":2.6,"mosquito_risk":7,"arthritis_risk":5,"migraine_risk":4,"frizz_risk":1,"updated_at":"2026-05-05T16:47:20.717730+05:30"},{"city":"Rourkela","state":"Odisha","latitude":22.2604,"longitude":84.8536,"temp":26.6,"humidity":76,"rain":0.1,"pressure":984.6,"uv_index":9.0,"wind_gusts":43.6,"aqi":166,"pm10":56.6,"pm2_5":35.3,"no2":3.4,"co":295.0,"o3":163.0,"so2":27.2,"mosquito_risk":10,"arthritis_risk":5,"migraine_risk":7,"frizz_risk":1,"updated_at":"2026-05-05T16:47:20.717736+05:30"},{"city":"Raipur","state":"Chhattisgarh","latitude":21.2514,"longitude":81.6296,"temp":38.0,"humidity":23,"rain":0.0,"pressure":971.1,"uv_index":8.95,"wind_gusts":37.4,"aqi":159,"pm10":44.9,"pm2_5":25.7,"no2":6.5,"co":268.0,"o3":169.0,"so2":6.2,"mosquito_risk":0,"arthritis_risk":5,"migraine_risk":10,"frizz_risk":0,"updated_at":"2026-05-05T16:47:20.717743+05:30"},{"city":"Bhilai","state":"Chhattisgarh","latitude":21.1938,"longitude":81.3509,"temp":37.7,"humidity":24,"rain":0.0,"pressure":971.6,"uv_index":8.95,"wind_gusts":41.4,"aqi":152,"pm10":40.2,"pm2_5":23.5,"no2":6.1,"co":397.0,"o3":156.0,"so2":5.0,"mosquito_risk":0,"arthritis_risk":5,"migraine_risk":10,"frizz_risk":0,"updated_at":"2026-05-05T16:47:20.717748+05:30"},{"city":"Guwahati","state":"Assam","latitude":26.1158,"longitude":91.7086,"temp":28.1,"humidity":68,"rain":0.0,"pressure":999.5,"uv_index":8.65,"wind_gusts":23.8,"aqi":89,"pm10":35.4,"pm2_5":23.7,"no2":2.3,"co":318.0,"o3":126.0,"so2":1.1,"mosquito_risk":7,"arthritis_risk":5,"migraine_risk":7,"frizz_risk":1,"updated_at":"2026-05-05T16:47:20.717754+05:30"},{"city":"Agartala","state":"Tripura","latitude":23.8315,"longitude":91.2868,"temp":27.6,"humidity":80,"rain":0.0,"pressure":1004.8,"uv_index":8.75,"wind_gusts":24.1,"aqi":130,"pm10":27.5,"pm2_5":22.8,"no2":10.0,"co":210.0,"o3":149.0,"so2":4.5,"mosquito_risk":7,"arthritis_risk":5,"migraine_risk":4,"frizz_risk":1,"updated_at":"2026-05-05T16:47:20.717761+05:30"},{"city":"Shillong","state":"Meghalaya","latitude":25.5788,"longitude":91.8933,"temp":20.1,"humidity":73,"rain":0.1,"pressure":856.3,"uv_index":8.4,"wind_gusts":25.2,"aqi":96,"pm10":32.5,"pm2_5":21.8,"no2":3.2,"co":279.0,"o3":126.0,"so2":1.9,"mosquito_risk":6,"arthritis_risk":5,"migraine_risk":7,"frizz_risk":0,"updated_at":"2026-05-05T16:47:20.717767+05:30"},{"city":"Imphal","state":"Manipur","latitude":24.817,"longitude":93.9368,"temp":26.2,"humidity":57,"rain":0.0,"pressure":921.6,"uv_index":9.2,"wind_gusts":28.4,"aqi":94,"pm10":39.8,"pm2_5":21.7,"no2":4.4,"co":269.0,"o3":106.0,"so2":1.8,"mosquito_risk":4,"arthritis_risk":5,"migraine_risk":7,"frizz_risk":1,"updated_at":"2026-05-05T16:47:20.717773+05:30"},{"city":"Aizawl","state":"Mizoram","latitude":23.7271,"longitude":92.7176,"temp":22.2,"humidity":74,"rain":0.0,"pressure":892.0,"uv_index":9.05,"wind_gusts":27.0,"aqi":74,"pm10":20.8,"pm2_5":14.1,"no2":2.6,"co":210.0,"o3":83.0,"so2":0.8,"mosquito_risk":3,"arthritis_risk":5,"migraine_risk":7,"frizz_risk":1,"updated_at":"2026-05-05T16:47:20.717779+05:30"},{"city":"Kohima","state":"Nagaland","latitude":25.6701,"longitude":94.1077,"temp":21.0,"humidity":75,"rain":0.0,"pressure":854.6,"uv_index":9.15,"wind_gusts":31.3,"aqi":71,"pm10":32.1,"pm2_5":15.6,"no2":3.1,"co":284.0,"o3":106.0,"so2":0.9,"mosquito_risk":3,"arthritis_risk":5,"migraine_risk":7,"frizz_risk":1,"updated_at":"2026-05-05T16:47:20.717785+05:30"},{"city":"Gangtok","state":"Sikkim","latitude":27.3314,"longitude":88.6138,"temp":16.7,"humidity":83,"rain":0.0,"pressure":836.6,"uv_index":9.0,"wind_gusts":33.5,"aqi":86,"pm10":13.9,"pm2_5":9.6,"no2":3.5,"co":285.0,"o3":124.0,"so2":0.7,"mosquito_risk":3,"arthritis_risk":10,"migraine_risk":7,"frizz_risk":0,"updated_at":"2026-05-05T16:47:20.717792+05:30"},{"city":"Siliguri","state":"West Bengal","latitude":26.7271,"longitude":88.3953,"temp":26.1,"humidity":74,"rain":0.0,"pressure":992.0,"uv_index":8.6,"wind_gusts":29.5,"aqi":106,"pm10":30.6,"pm2_5":21.8,"no2":6.7,"co":639.0,"o3":128.0,"so2":1.7,"mosquito_risk":7,"arthritis_risk":5,"migraine_risk":7,"frizz_risk":1,"updated_at":"2026-05-05T16:47:24.003704+05:30"},{"city":"Durgapur","state":"West Bengal","latitude":23.5204,"longitude":87.3119,"temp":25.9,"humidity":84,"rain":0.0,"pressure":994.7,"uv_index":8.7,"wind_gusts":28.1,"aqi":116,"pm10":53.2,"pm2_5":45.6,"no2":17.3,"co":308.0,"o3":170.0,"so2":37.5,"mosquito_risk":7,"arthritis_risk":5,"migraine_risk":7,"frizz_risk":1,"updated_at":"2026-05-05T16:47:24.003735+05:30"},{"city":"Asansol","state":"West Bengal","latitude":23.6739,"longitude":86.9524,"temp":27.1,"humidity":76,"rain":0.0,"pressure":992.7,"uv_index":8.3,"wind_gusts":32.0,"aqi":119,"pm10":57.9,"pm2_5":48.2,"no2":18.2,"co":559.0,"o3":171.0,"so2":43.0,"mosquito_risk":7,"arthritis_risk":5,"migraine_risk":7,"frizz_risk":1,"updated_at":"2026-05-05T16:47:24.003746+05:30"},{"city":"Pondicherry","state":"Puducherry","latitude":11.9139,"longitude":79.8145,"temp":30.1,"humidity":72,"rain":0.0,"pressure":1005.2,"uv_index":8.9,"wind_gusts":41.8,"aqi":77,"pm10":28.0,"pm2_5":15.9,"no2":1.7,"co":261.0,"o3":94.0,"so2":0.6,"mosquito_risk":3,"arthritis_risk":5,"migraine_risk":4,"frizz_risk":1,"updated_at":"2026-05-05T16:47:24.003755+05:30"},{"city":"Port Blair","state":"Andaman and Nicobar Islands","latitude":11.6234,"longitude":92.7265,"temp":26.9,"humidity":85,"rain":0.0,"pressure":1006.2,"uv_index":8.4,"wind_gusts":38.9,"aqi":29,"pm10":5.0,"pm2_5":3.8,"no2":0.6,"co":206.0,"o3":62.0,"so2":0.4,"mosquito_risk":7,"arthritis_risk":5,"migraine_risk":4,"frizz_risk":1,"updated_at":"2026-05-05T16:47:24.003763+05:30"},{"city":"Haridwar","state":"Uttarakhand","latitude":29.9457,"longitude":78.1642,"temp":27.0,"humidity":49,"rain":0.0,"pressure":975.9,"uv_index":6.2,"wind_gusts":50.4,"aqi":106,"pm10":73.6,"pm2_5":19.0,"no2":1.8,"co":235.0,"o3":148.0,"so2":2.5,"mosquito_risk":4,"arthritis_risk":5,"migraine_risk":7,"frizz_risk":0,"updated_at":"2026-05-05T16:47:24.003772+05:30"},{"city":"Rishikesh","state":"Uttarakhand","latitude":30.0869,"longitude":78.2676,"temp":26.1,"humidity":50,"rain":0.0,"pressure":968.7,"uv_index":6.6,"wind_gusts":49.3,"aqi":98,"pm10":70.1,"pm2_5":18.2,"no2":1.3,"co":191.0,"o3":144.0,"so2":2.1,"mosquito_risk":4,"arthritis_risk":5,"migraine_risk":7,"frizz_risk":0,"updated_at":"2026-05-05T16:47:24.003780+05:30"},{"city":"Nainital","state":"Uttarakhand","latitude":29.3919,"longitude":79.4542,"temp":14.0,"humidity":71,"rain":0.0,"pressure":806.1,"uv_index":6.55,"wind_gusts":31.0,"aqi":111,"pm10":45.2,"pm2_5":22.2,"no2":1.1,"co":211.0,"o3":154.0,"so2":3.7,"mosquito_risk":3,"arthritis_risk":5,"migraine_risk":7,"frizz_risk":0,"updated_at":"2026-05-05T16:47:24.003789+05:30"},{"city":"Mussoorie","state":"Uttarakhand","latitude":30.4599,"longitude":78.0664,"temp":14.1,"humidity":65,"rain":0.0,"pressure":803.6,"uv_index":6.2,"wind_gusts":37.1,"aqi":106,"pm10":58.3,"pm2_5":15.4,"no2":1.6,"co":177.0,"o3":150.0,"so2":2.3,"mosquito_risk":3,"arthritis_risk":5,"migraine_risk":7,"frizz_risk":0,"updated_at":"2026-05-05T16:47:24.003796+05:30"},{"city":"Dharamshala","state":"Himachal Pradesh","latitude":32.219,"longitude":76.3234,"temp":20.7,"humidity":45,"rain":0.0,"pressure":870.2,"uv_index":6.7,"wind_gusts":45.0,"aqi":119,"pm10":38.2,"pm2_5":10.1,"no2":0.2,"co":191.0,"o3":150.0,"so2":0.6,"mosquito_risk":0,"arthritis_risk":5,"migraine_risk":7,"frizz_risk":0,"updated_at":"2026-05-05T16:47:24.003804+05:30"},{"city":"Dalhousie","state":"Himachal Pradesh","latitude":32.5387,"longitude":75.971,"temp":16.9,"humidity":49,"rain":0.0,"pressure":806.3,"uv_index":6.15,"wind_gusts":46.8,"aqi":128,"pm10":48.7,"pm2_5":13.1,"no2":0.2,"co":188.0,"o3":156.0,"so2":1.4,"mosquito_risk":0,"arthritis_risk":5,"migraine_risk":7,"frizz_risk":0,"updated_at":"2026-05-05T16:47:24.003811+05:30"},{"city":"Patiala","state":"Punjab","latitude":30.3398,"longitude":76.3869,"temp":31.1,"humidity":28,"rain":0.0,"pressure":979.3,"uv_index":7.3,"wind_gusts":66.6,"aqi":390,"pm10":592.3,"pm2_5":72.2,"no2":2.0,"co":224.0,"o3":159.0,"so2":5.3,"mosquito_risk":0,"arthritis_risk":5,"migraine_risk":7,"frizz_risk":0,"updated_at":"2026-05-05T16:47:24.003820+05:30"},{"city":"Bhatinda","state":"Punjab","latitude":30.211,"longitude":74.9455,"temp":32.3,"humidity":31,"rain":0.0,"pressure":984.4,"uv_index":8.1,"wind_gusts":37.8,"aqi":368,"pm10":253.3,"pm2_5":57.0,"no2":2.8,"co":231.0,"o3":193.0,"so2":14.7,"mosquito_risk":0,"arthritis_risk":5,"migraine_risk":7,"frizz_risk":0,"updated_at":"2026-05-05T16:47:24.003827+05:30"},{"city":"Rohtak","state":"Haryana","latitude":28.8955,"longitude":76.6066,"temp":27.4,"humidity":49,"rain":0.0,"pressure":982.7,"uv_index":7.55,"wind_gusts":50.4,"aqi":189,"pm10":197.0,"pm2_5":46.3,"no2":4.2,"co":240.0,"o3":206.0,"so2":12.9,"mosquito_risk":4,"arthritis_risk":5,"migraine_risk":7,"frizz_risk":0,"updated_at":"2026-05-05T16:47:24.003834+05:30"},{"city":"Panipat","state":"Haryana","latitude":29.3909,"longitude":76.9635,"temp":27.0,"humidity":56,"rain":0.0,"pressure":981.8,"uv_index":6.65,"wind_gusts":45.7,"aqi":633,"pm10":455.4,"pm2_5":66.6,"no2":5.4,"co":218.0,"o3":175.0,"so2":16.0,"mosquito_risk":4,"arthritis_risk":5,"migraine_risk":7,"frizz_risk":1,"updated_at":"2026-05-05T16:47:24.003841+05:30"},{"city":"Mathura","state":"Uttar Pradesh","latitude":27.4924,"longitude":77.6737,"temp":30.5,"humidity":45,"rain":0.0,"pressure":987.0,"uv_index":7.65,"wind_gusts":44.3,"aqi":272,"pm10":206.8,"pm2_5":44.6,"no2":3.1,"co":262.0,"o3":163.0,"so2":7.3,"mosquito_risk":0,"arthritis_risk":5,"migraine_risk":7,"frizz_risk":1,"updated_at":"2026-05-05T16:47:24.003849+05:30"},{"city":"Vrindavan","state":"Uttar Pradesh","latitude":27.5823,"longitude":77.7027,"temp":31.0,"humidity":42,"rain":0.0,"pressure":987.3,"uv_index":7.6,"wind_gusts":36.0,"aqi":272,"pm10":206.8,"pm2_5":44.6,"no2":3.1,"co":249.0,"o3":163.0,"so2":7.3,"mosquito_risk":0,"arthritis_risk":5,"migraine_risk":7,"frizz_risk":1,"updated_at":"2026-05-05T16:47:24.003856+05:30"},{"city":"Ayodhya","state":"Uttar Pradesh","latitude":26.7922,"longitude":82.1998,"temp":29.4,"humidity":54,"rain":0.0,"pressure":994.5,"uv_index":4.65,"wind_gusts":23.4,"aqi":135,"pm10":45.8,"pm2_5":30.6,"no2":4.4,"co":331.0,"o3":152.0,"so2":6.0,"mosquito_risk":4,"arthritis_risk":5,"migraine_risk":3,"frizz_risk":1,"updated_at":"2026-05-05T16:47:24.003863+05:30"},{"city":"Ratlam","state":"Madhya Pradesh","latitude":23.3315,"longitude":75.0367,"temp":33.6,"humidity":27,"rain":0.0,"pressure":953.5,"uv_index":8.5,"wind_gusts":39.2,"aqi":83,"pm10":40.3,"pm2_5":13.7,"no2":0.6,"co":146.0,"o3":130.0,"so2":2.3,"mosquito_risk":0,"arthritis_risk":5,"migraine_risk":7,"frizz_risk":0,"updated_at":"2026-05-05T16:47:24.003870+05:30"},{"city":"Sagar","state":"Madhya Pradesh","latitude":23.8388,"longitude":78.7378,"temp":31.9,"humidity":33,"rain":0.0,"pressure":948.6,"uv_index":8.65,"wind_gusts":48.2,"aqi":111,"pm10":53.7,"pm2_5":16.4,"no2":0.7,"co":215.0,"o3":142.0,"so2":1.9,"mosquito_risk":0,"arthritis_risk":5,"migraine_risk":7,"frizz_risk":0,"updated_at":"2026-05-05T16:47:24.003878+05:30"},{"city":"Satna","state":"Madhya Pradesh","latitude":24.6005,"longitude":80.8322,"temp":32.3,"humidity":37,"rain":0.0,"pressure":970.0,"uv_index":8.7,"wind_gusts":39.2,"aqi":161,"pm10":58.3,"pm2_5":36.7,"no2":2.5,"co":229.0,"o3":182.0,"so2":9.3,"mosquito_risk":0,"arthritis_risk":5,"migraine_risk":7,"frizz_risk":0,"updated_at":"2026-05-05T16:47:24.003885+05:30"},{"city":"Akola","state":"Maharashtra","latitude":20.7002,"longitude":77.0082,"temp":39.3,"humidity":16,"rain":0.0,"pressure":971.4,"uv_index":8.9,"wind_gusts":36.4,"aqi":85,"pm10":48.3,"pm2_5":17.2,"no2":1.5,"co":156.0,"o3":139.0,"so2":8.7,"mosquito_risk":0,"arthritis_risk":5,"migraine_risk":10,"frizz_risk":0,"updated_at":"2026-05-05T16:47:24.003893+05:30"},{"city":"Amravati","state":"Maharashtra","latitude":20.9374,"longitude":77.7796,"temp":39.0,"humidity":13,"rain":0.0,"pressure":963.7,"uv_index":8.85,"wind_gusts":32.4,"aqi":93,"pm10":46.8,"pm2_5":16.8,"no2":1.6,"co":156.0,"o3":143.0,"so2":7.2,"mosquito_risk":0,"arthritis_risk":5,"migraine_risk":10,"frizz_risk":0,"updated_at":"2026-05-05T16:47:24.003901+05:30"},{"city":"Latur","state":"Maharashtra","latitude":18.4088,"longitude":76.5604,"temp":37.2,"humidity":15,"rain":0.0,"pressure":937.3,"uv_index":9.05,"wind_gusts":38.5,"aqi":77,"pm10":64.5,"pm2_5":18.0,"no2":0.6,"co":136.0,"o3":134.0,"so2":6.1,"mosquito_risk":0,"arthritis_risk":5,"migraine_risk":10,"frizz_risk":0,"updated_at":"2026-05-05T16:47:24.003907+05:30"},{"city":"Nanded","state":"Maharashtra","latitude":19.1383,"longitude":77.3091,"temp":38.8,"humidity":16,"rain":0.0,"pressure":965.1,"uv_index":8.95,"wind_gusts":33.1,"aqi":75,"pm10":57.2,"pm2_5":16.6,"no2":0.1,"co":145.0,"o3":135.0,"so2":2.3,"mosquito_risk":0,"arthritis_risk":5,"migraine_risk":10,"frizz_risk":0,"updated_at":"2026-05-05T16:47:24.003913+05:30"},{"city":"Gulbarga","state":"Karnataka","latitude":17.3297,"longitude":76.8343,"temp":39.0,"humidity":12,"rain":0.0,"pressure":954.3,"uv_index":9.1,"wind_gusts":37.1,"aqi":90,"pm10":53.1,"pm2_5":18.1,"no2":1.3,"co":167.0,"o3":150.0,"so2":5.3,"mosquito_risk":0,"arthritis_risk":5,"migraine_risk":10,"frizz_risk":0,"updated_at":"2026-05-05T16:47:24.003919+05:30"},{"city":"Bidar","state":"Karnataka","latitude":17.9104,"longitude":77.5199,"temp":36.8,"humidity":17,"rain":0.0,"pressure":933.0,"uv_index":9.15,"wind_gusts":32.4,"aqi":100,"pm10":44.1,"pm2_5":17.0,"no2":0.2,"co":163.0,"o3":148.0,"so2":4.1,"mosquito_risk":0,"arthritis_risk":5,"migraine_risk":10,"frizz_risk":0,"updated_at":"2026-05-05T16:47:24.003924+05:30"},{"city":"Hospet","state":"Karnataka","latitude":15.2689,"longitude":76.3909,"temp":36.5,"humidity":20,"rain":0.0,"pressure":952.4,"uv_index":9.25,"wind_gusts":36.4,"aqi":63,"pm10":50.9,"pm2_5":16.4,"no2":0.2,"co":165.0,"o3":142.0,"so2":2.2,"mosquito_risk":0,"arthritis_risk":5,"migraine_risk":10,"frizz_risk":0,"updated_at":"2026-05-05T16:47:24.003930+05:30"},{"city":"Tirupur","state":"Tamil Nadu","latitude":11.1085,"longitude":77.3411,"temp":33.0,"humidity":42,"rain":0.0,"pressure":972.4,"uv_index":9.2,"wind_gusts":45.7,"aqi":117,"pm10":56.9,"pm2_5":24.4,"no2":6.4,"co":230.0,"o3":153.0,"so2":3.8,"mosquito_risk":0,"arthritis_risk":5,"migraine_risk":7,"frizz_risk":1,"updated_at":"2026-05-05T16:47:24.003936+05:30"},{"city":"Alappuzha","state":"Kerala","latitude":9.4981,"longitude":76.3388,"temp":29.8,"humidity":75,"rain":0.0,"pressure":1006.2,"uv_index":7.75,"wind_gusts":33.5,"aqi":60,"pm10":15.1,"pm2_5":9.5,"no2":6.5,"co":119.0,"o3":93.0,"so2":3.7,"mosquito_risk":7,"arthritis_risk":5,"migraine_risk":4,"frizz_risk":1,"updated_at":"2026-05-05T16:47:24.003942+05:30"},{"city":"Munnar","state":"Kerala","latitude":10.0889,"longitude":77.0595,"temp":19.8,"humidity":91,"rain":0.0,"pressure":855.6,"uv_index":7.25,"wind_gusts":24.5,"aqi":78,"pm10":35.6,"pm2_5":19.4,"no2":2.3,"co":207.0,"o3":125.0,"so2":1.6,"mosquito_risk":3,"arthritis_risk":10,"migraine_risk":7,"frizz_risk":1,"updated_at":"2026-05-05T16:47:24.003948+05:30"},{"city":"Silchar","state":"Assam","latitude":24.8333,"longitude":92.7789,"temp":29.9,"humidity":65,"rain":0.0,"pressure":1002.5,"uv_index":8.85,"wind_gusts":38.2,"aqi":99,"pm10":31.5,"pm2_5":22.4,"no2":4.8,"co":318.0,"o3":115.0,"so2":4.6,"mosquito_risk":7,"arthritis_risk":5,"migraine_risk":4,"frizz_risk":1,"updated_at":"2026-05-05T16:47:24.003953+05:30"},{"city":"Dibrugarh","state":"Assam","latitude":27.4728,"longitude":94.912,"temp":27.5,"humidity":69,"rain":0.0,"pressure":993.4,"uv_index":8.45,"wind_gusts":34.6,"aqi":73,"pm10":19.0,"pm2_5":13.8,"no2":6.2,"co":302.0,"o3":100.0,"so2":1.6,"mosquito_risk":7,"arthritis_risk":5,"migraine_risk":7,"frizz_risk":1,"updated_at":"2026-05-05T16:47:24.003959+05:30"}]