[{"city":"Delhi","state":"Delhi","latitude":28.6139,"longitude":77.209,"temp":31.9,"humidity":39,"rain":0.0,"pressure":978.6,"uv_index":7.4,"wind_gusts":68.0,"aqi":164,"pm10":364.1,"pm2_5":55.6,"mosquito_risk":0,"arthritis_risk":5,"migraine_risk":7,"frizz_risk":1,"updated_at":"2026-04-30T17:09:35.968642+05:30"},{"city":"Mumbai","state":"Maharashtra","latitude":19.076,"longitude":72.8777,"temp":31.2,"humidity":68,"rain":0.0,"pressure":1006.3,"uv_index":8.05,"wind_gusts":41.4,"aqi":69,"pm10":45.8,"pm2_5":21.2,"mosquito_risk":3,"arthritis_risk":5,"migraine_risk":4,"frizz_risk":1,"updated_at":"2026-04-30T17:09:35.968689+05:30"},{"city":"Bangalore","state":"Karnataka","latitude":12.9716,"longitude":77.5946,"temp":25.0,"humidity":73,"rain":0.0,"pressure":909.7,"uv_index":9.55,"wind_gusts":31.0,"aqi":127,"pm10":48.5,"pm2_5":35.5,"mosquito_risk":7,"arthritis_risk":5,"migraine_risk":7,"frizz_risk":1,"updated_at":"2026-04-30T17:09:35.968705+05:30"},{"city":"Hyderabad","state":"Telangana","latitude":17.385,"longitude":78.4867,"temp":39.0,"humidity":15,"rain":0.0,"pressure":949.8,"uv_index":9.25,"wind_gusts":33.1,"aqi":141,"pm10":25.8,"pm2_5":18.3,"mosquito_risk":0,"arthritis_risk":5,"migraine_risk":10,"frizz_risk":0,"updated_at":"2026-04-30T17:09:35.968717+05:30"},{"city":"Chennai","state":"Tamil Nadu","latitude":13.0827,"longitude":80.2707,"temp":32.8,"humidity":62,"rain":0.0,"pressure":1003.1,"uv_index":9.25,"wind_gusts":55.4,"aqi":46,"pm10":18.7,"pm2_5":14.1,"mosquito_risk":3,"arthritis_risk":5,"migraine_risk":4,"frizz_risk":1,"updated_at":"2026-04-30T17:09:35.968726+05:30"},{"city":"Kolkata","state":"West Bengal","latitude":22.5726,"longitude":88.3639,"temp":29.8,"humidity":70,"rain":0.0,"pressure":1002.1,"uv_index":8.8,"wind_gusts":38.9,"aqi":87,"pm10":20.1,"pm2_5":15.8,"mosquito_risk":7,"arthritis_risk":5,"migraine_risk":4,"frizz_risk":1,"updated_at":"2026-04-30T17:09:35.968735+05:30"},{"city":"Pune","state":"Maharashtra","latitude":18.5204,"longitude":73.8567,"temp":34.3,"humidity":31,"rain":0.0,"pressure":946.3,"uv_index":8.6,"wind_gusts":50.4,"aqi":57,"pm10":27.9,"pm2_5":13.7,"mosquito_risk":0,"arthritis_risk":5,"migraine_risk":7,"frizz_risk":0,"updated_at":"2026-04-30T17:09:35.968747+05:30"},{"city":"Ahmedabad","state":"Gujarat","latitude":23.0225,"longitude":72.5714,"temp":41.3,"humidity":17,"rain":0.0,"pressure":996.1,"uv_index":8.2,"wind_gusts":42.1,"aqi":58,"pm10":71.9,"pm2_5":20.1,"mosquito_risk":0,"arthritis_risk":5,"migraine_risk":10,"frizz_risk":0,"updated_at":"2026-04-30T17:09:35.968755+05:30"},{"city":"Jaipur","state":"Rajasthan","latitude":26.9124,"longitude":75.7873,"temp":38.3,"humidity":13,"rain":0.0,"pressure":954.1,"uv_index":8.1,"wind_gusts":54.0,"aqi":165,"pm10":400.5,"pm2_5":47.4,"mosquito_risk":0,"arthritis_risk":5,"migraine_risk":10,"frizz_risk":0,"updated_at":"2026-04-30T17:09:35.968762+05:30"},{"city":"Lucknow","state":"Uttar Pradesh","latitude":26.8467,"longitude":80.9462,"temp":28.3,"humidity":55,"rain":0.1,"pressure":990.6,"uv_index":7.5,"wind_gusts":41.8,"aqi":153,"pm10":88.0,"pm2_5":36.4,"mosquito_risk":7,"arthritis_risk":5,"migraine_risk":7,"frizz_risk":1,"updated_at":"2026-04-30T17:09:35.968771+05:30"},{"city":"Kanpur","state":"Uttar Pradesh","latitude":26.4499,"longitude":80.3319,"temp":31.7,"humidity":42,"rain":0.0,"pressure":987.9,"uv_index":6.65,"wind_gusts":45.7,"aqi":156,"pm10":210.9,"pm2_5":48.1,"mosquito_risk":0,"arthritis_risk":5,"migraine_risk":7,"frizz_risk":1,"updated_at":"2026-04-30T17:09:35.968778+05:30"},{"city":"Chandigarh","state":"Chandigarh","latitude":30.7333,"longitude":76.7794,"temp":30.1,"humidity":37,"rain":0.0,"pressure":965.5,"uv_index":6.8,"wind_gusts":38.9,"aqi":118,"pm10":193.7,"pm2_5":31.3,"mosquito_risk":0,"arthritis_risk":5,"migraine_risk":7,"frizz_risk":0,"updated_at":"2026-04-30T17:09:35.968785+05:30"},{"city":"Srinagar","state":"Jammu and Kashmir","latitude":34.0837,"longitude":74.7973,"temp":18.0,"humidity":65,"rain":0.0,"pressure":839.8,"uv_index":6.85,"wind_gusts":27.7,"aqi":72,"pm10":13.0,"pm2_5":10.7,"mosquito_risk":3,"arthritis_risk":5,"migraine_risk":7,"frizz_risk":0,"updated_at":"2026-04-30T17:09:35.968793+05:30"},{"city":"Jammu","state":"Jammu and Kashmir","latitude":32.7266,"longitude":74.857,"temp":30.8,"humidity":32,"rain":0.0,"pressure":968.6,"uv_index":8.3,"wind_gusts":23.0,"aqi":94,"pm10":16.9,"pm2_5":8.6,"mosquito_risk":0,"arthritis_risk":5,"migraine_risk":7,"frizz_risk":0,"updated_at":"2026-04-30T17:09:35.968801+05:30"},{"city":"Amritsar","state":"Punjab","latitude":31.634,"longitude":74.8723,"temp":30.0,"humidity":39,"rain":0.0,"pressure":976.6,"uv_index":7.85,"wind_gusts":35.3,"aqi":109,"pm10":26.8,"pm2_5":13.5,"mosquito_risk":4,"arthritis_risk":5,"migraine_risk":7,"frizz_risk":0,"updated_at":"2026-04-30T17:09:35.968808+05:30"},{"city":"Ludhiana","state":"Punjab","latitude":30.901,"longitude":75.8573,"temp":31.3,"humidity":35,"rain":0.0,"pressure":974.7,"uv_index":7.35,"wind_gusts":55.8,"aqi":110,"pm10":193.2,"pm2_5":31.2,"mosquito_risk":0,"arthritis_risk":5,"migraine_risk":7,"frizz_risk":0,"updated_at":"2026-04-30T17:09:35.968815+05:30"},{"city":"Jalandhar","state":"Punjab","latitude":31.326,"longitude":75.5762,"temp":30.0,"humidity":43,"rain":0.0,"pressure":975.6,"uv_index":7.45,"wind_gusts":42.8,"aqi":110,"pm10":46.8,"pm2_5":13.8,"mosquito_risk":4,"arthritis_risk":5,"migraine_risk":7,"frizz_risk":0,"updated_at":"2026-04-30T17:09:35.968823+05:30"},{"city":"Dehradun","state":"Uttarakhand","latitude":30.6284,"longitude":78.0322,"temp":15.7,"humidity":78,"rain":0.1,"pressure":828.1,"uv_index":7.7,"wind_gusts":44.3,"aqi":76,"pm10":26.5,"pm2_5":15.5,"mosquito_risk":6,"arthritis_risk":5,"migraine_risk":7,"frizz_risk":0,"updated_at":"2026-04-30T17:09:35.968831+05:30"},{"city":"Shimla","state":"Himachal Pradesh","latitude":31.1048,"longitude":77.1734,"temp":15.6,"humidity":54,"rain":0.0,"pressure":782.6,"uv_index":7.4,"wind_gusts":35.3,"aqi":93,"pm10":29.1,"pm2_5":12.5,"mosquito_risk":0,"arthritis_risk":5,"migraine_risk":7,"frizz_risk":0,"updated_at":"2026-04-30T17:09:35.968838+05:30"},{"city":"Manali","state":"Himachal Pradesh","latitude":32.2396,"longitude":77.1887,"temp":13.5,"humidity":79,"rain":0.0,"pressure":815.0,"uv_index":10.1,"wind_gusts":33.8,"aqi":101,"pm10":5.3,"pm2_5":4.1,"mosquito_risk":3,"arthritis_risk":5,"migraine_risk":7,"frizz_risk":0,"updated_at":"2026-04-30T17:09:35.968845+05:30"},{"city":"Gurgaon","state":"Haryana","latitude":28.4595,"longitude":77.0266,"temp":32.0,"humidity":37,"rain":0.0,"pressure":976.8,"uv_index":7.55,"wind_gusts":69.1,"aqi":754,"pm10":735.7,"pm2_5":81.5,"mosquito_risk":0,"arthritis_risk":5,"migraine_risk":7,"frizz_risk":0,"updated_at":"2026-04-30T17:09:35.968852+05:30"},{"city":"Noida","state":"Uttar Pradesh","latitude":28.5355,"longitude":77.391,"temp":29.3,"humidity":55,"rain":0.0,"pressure":980.3,"uv_index":7.45,"wind_gusts":56.5,"aqi":754,"pm10":735.7,"pm2_5":81.5,"mosquito_risk":4,"arthritis_risk":5,"migraine_risk":7,"frizz_risk":1,"updated_at":"2026-04-30T17:09:35.968862+05:30"},{"city":"Ghaziabad","state":"Uttar Pradesh","latitude":28.6692,"longitude":77.4538,"temp":28.9,"humidity":60,"rain":0.0,"pressure":978.6,"uv_index":7.3,"wind_gusts":52.9,"aqi":146,"pm10":232.8,"pm2_5":46.0,"mosquito_risk":4,"arthritis_risk":5,"migraine_risk":7,"frizz_risk":1,"updated_at":"2026-04-30T17:09:35.968869+05:30"},{"city":"Faridabad","state":"Haryana","latitude":28.4089,"longitude":77.3178,"temp":29.6,"humidity":54,"rain":0.0,"pressure":979.4,"uv_index":7.5,"wind_gusts":67.3,"aqi":754,"pm10":735.7,"pm2_5":81.5,"mosquito_risk":4,"arthritis_risk":5,"migraine_risk":7,"frizz_risk":1,"updated_at":"2026-04-30T17:09:35.968876+05:30"},{"city":"Meerut","state":"Uttar Pradesh","latitude":28.9845,"longitude":77.7064,"temp":27.5,"humidity":66,"rain":0.0,"pressure":977.9,"uv_index":5.65,"wind_gusts":62.3,"aqi":146,"pm10":232.8,"pm2_5":46.0,"mosquito_risk":7,"arthritis_risk":5,"migraine_risk":3,"frizz_risk":1,"updated_at":"2026-04-30T17:09:35.968882+05:30"},{"city":"Agra","state":"Uttar Pradesh","latitude":27.1767,"longitude":78.0081,"temp":34.6,"humidity":26,"rain":0.0,"pressure":983.3,"uv_index":7.8,"wind_gusts":39.6,"aqi":540,"pm10":358.6,"pm2_5":44.5,"mosquito_risk":0,"arthritis_risk":5,"migraine_risk":7,"frizz_risk":0,"updated_at":"2026-04-30T17:09:35.968888+05:30"},{"city":"Varanasi","state":"Uttar Pradesh","latitude":25.3176,"longitude":82.9739,"temp":33.2,"humidity":37,"rain":0.0,"pressure":993.7,"uv_index":8.45,"wind_gusts":36.0,"aqi":173,"pm10":76.4,"pm2_5":32.6,"mosquito_risk":0,"arthritis_risk":5,"migraine_risk":7,"frizz_risk":1,"updated_at":"2026-04-30T17:09:35.968898+05:30"},{"city":"Prayagraj","state":"Uttar Pradesh","latitude":25.4358,"longitude":81.8463,"temp":30.5,"humidity":42,"rain":0.0,"pressure":992.6,"uv_index":7.7,"wind_gusts":58.7,"aqi":159,"pm10":85.9,"pm2_5":30.4,"mosquito_risk":0,"arthritis_risk":5,"migraine_risk":7,"frizz_risk":1,"updated_at":"2026-04-30T17:09:35.968905+05:30"},{"city":"Gorakhpur","state":"Uttar Pradesh","latitude":26.7606,"longitude":83.3732,"temp":27.8,"humidity":60,"rain":0.0,"pressure":994.7,"uv_index":8.25,"wind_gusts":45.7,"aqi":108,"pm10":55.2,"pm2_5":25.5,"mosquito_risk":4,"arthritis_risk":5,"migraine_risk":7,"frizz_risk":1,"updated_at":"2026-04-30T17:09:35.968911+05:30"},{"city":"Bareilly","state":"Uttar Pradesh","latitude":28.367,"longitude":79.4304,"temp":27.4,"humidity":69,"rain":0.1,"pressure":984.1,"uv_index":7.7,"wind_gusts":48.2,"aqi":136,"pm10":244.9,"pm2_5":54.0,"mosquito_risk":10,"arthritis_risk":5,"migraine_risk":7,"frizz_risk":1,"updated_at":"2026-04-30T17:09:35.968917+05:30"},{"city":"Aligarh","state":"Uttar Pradesh","latitude":27.8974,"longitude":78.088,"temp":31.8,"humidity":41,"rain":0.0,"pressure":981.5,"uv_index":7.6,"wind_gusts":51.1,"aqi":286,"pm10":475.0,"pm2_5":57.9,"mosquito_risk":0,"arthritis_risk":5,"migraine_risk":7,"frizz_risk":1,"updated_at":"2026-04-30T17:09:35.968923+05:30"},{"city":"Moradabad","state":"Uttar Pradesh","latitude":28.8386,"longitude":78.7733,"temp":24.6,"humidity":80,"rain":0.1,"pressure":980.5,"uv_index":7.55,"wind_gusts":50.0,"aqi":155,"pm10":163.9,"pm2_5":45.9,"mosquito_risk":6,"arthritis_risk":5,"migraine_risk":7,"frizz_risk":1,"updated_at":"2026-04-30T17:09:35.968930+05:30"},{"city":"Saharanpur","state":"Uttar Pradesh","latitude":29.9637,"longitude":77.546,"temp":27.7,"humidity":60,"rain":0.0,"pressure":972.9,"uv_index":6.4,"wind_gusts":66.2,"aqi":112,"pm10":104.8,"pm2_5":31.4,"mosquito_risk":4,"arthritis_risk":5,"migraine_risk":7,"frizz_risk":1,"updated_at":"2026-04-30T17:09:35.968936+05:30"},{"city":"Jhansi","state":"Uttar Pradesh","latitude":25.4484,"longitude":78.5685,"temp":37.2,"humidity":19,"rain":0.0,"pressure":972.4,"uv_index":8.3,"wind_gusts":60.1,"aqi":85,"pm10":80.6,"pm2_5":21.0,"mosquito_risk":0,"arthritis_risk":5,"migraine_risk":10,"frizz_risk":0,"updated_at":"2026-04-30T17:09:39.339194+05:30"},{"city":"Surat","state":"Gujarat","latitude":21.1702,"longitude":72.8311,"temp":32.0,"humidity":63,"rain":0.0,"pressure":1003.2,"uv_index":7.85,"wind_gusts":51.8,"aqi":64,"pm10":43.2,"pm2_5":18.9,"mosquito_risk":3,"arthritis_risk":5,"migraine_risk":4,"frizz_risk":1,"updated_at":"2026-04-30T17:09:39.339229+05:30"},{"city":"Vadodara","state":"Gujarat","latitude":22.3072,"longitude":73.1812,"temp":38.2,"humidity":30,"rain":0.0,"pressure":999.3,"uv_index":8.15,"wind_gusts":45.7,"aqi":58,"pm10":55.4,"pm2_5":19.0,"mosquito_risk":0,"arthritis_risk":5,"migraine_risk":10,"frizz_risk":1,"updated_at":"2026-04-30T17:09:39.339239+05:30"},{"city":"Rajkot","state":"Gujarat","latitude":22.3039,"longitude":70.8022,"temp":39.8,"humidity":21,"rain":0.0,"pressure":989.2,"uv_index":7.9,"wind_gusts":48.6,"aqi":54,"pm10":52.4,"pm2_5":17.5,"mosquito_risk":0,"arthritis_risk":5,"migraine_risk":10,"frizz_risk":0,"updated_at":"2026-04-30T17:09:39.339247+05:30"},{"city":"Thane","state":"Maharashtra","latitude":19.2183,"longitude":72.9781,"temp":33.3,"humidity":54,"rain":0.0,"pressure":1005.3,"uv_index":8.05,"wind_gusts":39.6,"aqi":69,"pm10":45.8,"pm2_5":21.2,"mosquito_risk":0,"arthritis_risk":5,"migraine_risk":4,"frizz_risk":1,"updated_at":"2026-04-30T17:09:39.339254+05:30"},{"city":"Nagpur","state":"Maharashtra","latitude":21.1458,"longitude":79.0882,"temp":40.3,"humidity":12,"rain":0.0,"pressure":967.6,"uv_index":8.9,"wind_gusts":50.4,"aqi":94,"pm10":31.2,"pm2_5":12.3,"mosquito_risk":0,"arthritis_risk":5,"migraine_risk":10,"frizz_risk":0,"updated_at":"2026-04-30T17:09:39.339261+05:30"},{"city":"Nashik","state":"Maharashtra","latitude":19.9975,"longitude":73.7898,"temp":34.2,"humidity":22,"rain":0.0,"pressure":943.5,"uv_index":8.3,"wind_gusts":54.4,"aqi":61,"pm10":68.0,"pm2_5":17.4,"mosquito_risk":0,"arthritis_risk":5,"migraine_risk":7,"frizz_risk":0,"updated_at":"2026-04-30T17:09:39.339267+05:30"},{"city":"Aurangabad","state":"Maharashtra","latitude":19.8762,"longitude":75.3433,"temp":38.2,"humidity":12,"rain":0.0,"pressure":940.9,"uv_index":9.05,"wind_gusts":55.8,"aqi":55,"pm10":34.1,"pm2_5":14.2,"mosquito_risk":0,"arthritis_risk":5,"migraine_risk":10,"frizz_risk":0,"updated_at":"2026-04-30T17:09:39.339274+05:30"},{"city":"Solapur","state":"Maharashtra","latitude":17.6599,"longitude":75.9064,"temp":39.7,"humidity":15,"rain":0.0,"pressure":953.5,"uv_index":9.1,"wind_gusts":40.3,"aqi":78,"pm10":28.6,"pm2_5":17.9,"mosquito_risk":0,"arthritis_risk":5,"migraine_risk":10,"frizz_risk":0,"updated_at":"2026-04-30T17:09:39.339281+05:30"},{"city":"Kolhapur","state":"Maharashtra","latitude":16.705,"longitude":74.2433,"temp":34.4,"humidity":26,"rain":0.0,"pressure":946.3,"uv_index":9.0,"wind_gusts":45.4,"aqi":59,"pm10":22.6,"pm2_5":11.3,"mosquito_risk":0,"arthritis_risk":5,"migraine_risk":7,"frizz_risk":0,"updated_at":"2026-04-30T17:09:39.339287+05:30"},{"city":"Goa","state":"Goa","latitude":15.2993,"longitude":74.124,"temp":33.8,"humidity":56,"rain":0.0,"pressure":995.7,"uv_index":8.95,"wind_gusts":36.4,"aqi":57,"pm10":27.4,"pm2_5":13.6,"mosquito_risk":0,"arthritis_risk":5,"migraine_risk":7,"frizz_risk":1,"updated_at":"2026-04-30T17:09:39.339294+05:30"},{"city":"Jodhpur","state":"Rajasthan","latitude":26.2389,"longitude":73.0243,"temp":40.3,"humidity":17,"rain":0.0,"pressure":976.1,"uv_index":8.3,"wind_gusts":45.7,"aqi":123,"pm10":289.6,"pm2_5":41.4,"mosquito_risk":0,"arthritis_risk":5,"migraine_risk":10,"frizz_risk":0,"updated_at":"2026-04-30T17:09:39.339302+05:30"},{"city":"Udaipur","state":"Rajasthan","latitude":24.5854,"longitude":73.7125,"temp":36.6,"humidity":19,"rain":0.0,"pressure":942.4,"uv_index":8.8,"wind_gusts":45.7,"aqi":56,"pm10":92.0,"pm2_5":22.5,"mosquito_risk":0,"arthritis_risk":5,"migraine_risk":10,"frizz_risk":0,"updated_at":"2026-04-30T17:09:39.339308+05:30"},{"city":"Kota","state":"Rajasthan","latitude":25.2138,"longitude":75.8648,"temp":38.7,"humidity":16,"rain":0.0,"pressure":972.8,"uv_index":8.3,"wind_gusts":42.8,"aqi":79,"pm10":119.7,"pm2_5":23.7,"mosquito_risk":0,"arthritis_risk":5,"migraine_risk":10,"frizz_risk":0,"updated_at":"2026-04-30T17:09:39.339315+05:30"},{"city":"Bikaner","state":"Rajasthan","latitude":28.0229,"longitude":73.3119,"temp":40.8,"humidity":10,"rain":0.0,"pressure":974.2,"uv_index":8.2,"wind_gusts":43.2,"aqi":76,"pm10":130.4,"pm2_5":21.1,"mosquito_risk":0,"arthritis_risk":5,"migraine_risk":10,"frizz_risk":0,"updated_at":"2026-04-30T17:09:39.339322+05:30"},{"city":"Ajmer","state":"Rajasthan","latitude":26.4499,"longitude":74.6399,"temp":36.5,"humidity":19,"rain":0.0,"pressure":949.8,"uv_index":8.25,"wind_gusts":58.7,"aqi":75,"pm10":153.2,"pm2_5":25.1,"mosquito_risk":0,"arthritis_risk":5,"migraine_risk":10,"frizz_risk":0,"updated_at":"2026-04-30T17:09:39.339329+05:30"},{"city":"Gwalior","state":"Madhya Pradesh","latitude":26.2183,"longitude":78.1828,"temp":37.3,"humidity":19,"rain":0.0,"pressure":977.7,"uv_index":8.05,"wind_gusts":39.6,"aqi":114,"pm10":104.8,"pm2_5":23.1,"mosquito_risk":0,"arthritis_risk":5,"migraine_risk":10,"frizz_risk":0,"updated_at":"2026-04-30T17:09:39.339336+05:30"},{"city":"Indore","state":"Madhya Pradesh","latitude":22.7196,"longitude":75.8577,"temp":37.8,"humidity":17,"rain":0.0,"pressure":944.4,"uv_index":8.6,"wind_gusts":45.7,"aqi":58,"pm10":56.6,"pm2_5":17.6,"mosquito_risk":0,"arthritis_risk":5,"migraine_risk":10,"frizz_risk":0,"updated_at":"2026-04-30T17:09:39.339342+05:30"},{"city":"Bhopal","state":"Madhya Pradesh","latitude":23.2599,"longitude":77.4126,"temp":34.6,"humidity":23,"rain":0.0,"pressure":950.0,"uv_index":8.6,"wind_gusts":65.2,"aqi":65,"pm10":63.6,"pm2_5":18.0,"mosquito_risk":0,"arthritis_risk":5,"migraine_risk":7,"frizz_risk":0,"updated_at":"2026-04-30T17:09:39.339349+05:30"},{"city":"Jabalpur","state":"Madhya Pradesh","latitude":23.1815,"longitude":79.9864,"temp":36.2,"humidity":21,"rain":0.0,"pressure":956.7,"uv_index":8.75,"wind_gusts":54.4,"aqi":82,"pm10":58.1,"pm2_5":18.3,"mosquito_risk":0,"arthritis_risk":5,"migraine_risk":10,"frizz_risk":0,"updated_at":"2026-04-30T17:09:39.339356+05:30"},{"city":"Ujjain","state":"Madhya Pradesh","latitude":23.1765,"longitude":75.7885,"temp":37.0,"humidity":20,"rain":0.0,"pressure":950.0,"uv_index":8.55,"wind_gusts":47.2,"aqi":54,"pm10":62.9,"pm2_5":18.7,"mosquito_risk":0,"arthritis_risk":5,"migraine_risk":10,"frizz_risk":0,"updated_at":"2026-04-30T17:09:39.339363+05:30"},{"city":"Visakhapatnam","state":"Andhra Pradesh","latitude":17.6868,"longitude":83.2185,"temp":30.5,"humidity":72,"rain":0.0,"pressure":1000.4,"uv_index":9.1,"wind_gusts":50.8,"aqi":59,"pm10":20.4,"pm2_5":15.9,"mosquito_risk":3,"arthritis_risk":5,"migraine_risk":4,"frizz_risk":1,"updated_at":"2026-04-30T17:09:39.339370+05:30"},{"city":"Vijayawada","state":"Andhra Pradesh","latitude":16.5062,"longitude":80.648,"temp":36.3,"humidity":48,"rain":0.0,"pressure":998.5,"uv_index":9.2,"wind_gusts":50.4,"aqi":81,"pm10":37.1,"pm2_5":30.7,"mosquito_risk":0,"arthritis_risk":5,"migraine_risk":10,"frizz_risk":1,"updated_at":"2026-04-30T17:09:39.339377+05:30"},{"city":"Guntur","state":"Andhra Pradesh","latitude":16.3067,"longitude":80.4365,"temp":37.8,"humidity":38,"rain":0.0,"pressure":999.4,"uv_index":9.2,"wind_gusts":43.9,"aqi":97,"pm10":41.8,"pm2_5":34.1,"mosquito_risk":0,"arthritis_risk":5,"migraine_risk":10,"frizz_risk":1,"updated_at":"2026-04-30T17:09:39.339383+05:30"},{"city":"Nellore","state":"Andhra Pradesh","latitude":14.4426,"longitude":79.9865,"temp":34.9,"humidity":55,"rain":0.0,"pressure":1001.5,"uv_index":9.2,"wind_gusts":41.4,"aqi":81,"pm10":28.6,"pm2_5":21.9,"mosquito_risk":0,"arthritis_risk":5,"migraine_risk":4,"frizz_risk":1,"updated_at":"2026-04-30T17:09:39.339390+05:30"},{"city":"Kurnool","state":"Andhra Pradesh","latitude":15.8281,"longitude":78.0373,"temp":40.2,"humidity":19,"rain":0.0,"pressure":972.6,"uv_index":9.2,"wind_gusts":45.7,"aqi":131,"pm10":31.0,"pm2_5":22.8,"mosquito_risk":0,"arthritis_risk":5,"migraine_risk":10,"frizz_risk":0,"updated_at":"2026-04-30T17:09:39.339397+05:30"},{"city":"Kakinada","state":"Andhra Pradesh","latitude":16.9891,"longitude":82.2475,"temp":33.5,"humidity":58,"rain":0.0,"pressure":1004.1,"uv_index":9.15,"wind_gusts":37.1,"aqi":51,"pm10":17.3,"pm2_5":12.9,"mosquito_risk":0,"arthritis_risk":5,"migraine_risk":4,"frizz_risk":1,"updated_at":"2026-04-30T17:09:39.339404+05:30"},{"city":"Tirupati","state":"Andhra Pradesh","latitude":13.6288,"longitude":79.4192,"temp":35.3,"humidity":37,"rain":0.0,"pressure":987.1,"uv_index":9.3,"wind_gusts":41.4,"aqi":90,"pm10":34.7,"pm2_5":28.8,"mosquito_risk":0,"arthritis_risk":5,"migraine_risk":10,"frizz_risk":1,"updated_at":"2026-04-30T17:09:39.339411+05:30"},{"city":"Warangal","state":"Telangana","latitude":17.9689,"longitude":79.5941,"temp":39.5,"humidity":17,"rain":0.0,"pressure":974.6,"uv_index":9.15,"wind_gusts":37.1,"aqi":129,"pm10":32.5,"pm2_5":24.7,"mosquito_risk":0,"arthritis_risk":5,"migraine_risk":10,"frizz_risk":0,"updated_at":"2026-04-30T17:09:39.339417+05:30"},{"city":"Nizamabad","state":"Telangana","latitude":18.6725,"longitude":78.0941,"temp":39.5,"humidity":14,"rain":0.0,"pressure":960.7,"uv_index":9.1,"wind_gusts":42.8,"aqi":80,"pm10":25.4,"pm2_5":14.8,"mosquito_risk":0,"arthritis_risk":5,"migraine_risk":10,"frizz_risk":0,"updated_at":"2026-04-30T17:09:39.339423+05:30"},{"city":"Mysore","state":"Karnataka","latitude":12.2958,"longitude":76.6396,"temp":27.8,"humidity":60,"rain":0.0,"pressure":927.5,"uv_index":9.4,"wind_gusts":54.4,"aqi":95,"pm10":38.5,"pm2_5":27.8,"mosquito_risk":4,"arthritis_risk":5,"migraine_risk":7,"frizz_risk":1,"updated_at":"2026-04-30T17:09:39.339430+05:30"},{"city":"Mangalore","state":"Karnataka","latitude":12.9141,"longitude":74.856,"temp":32.3,"humidity":60,"rain":0.0,"pressure":1005.2,"uv_index":9.05,"wind_gusts":39.2,"aqi":66,"pm10":34.9,"pm2_5":17.8,"mosquito_risk":0,"arthritis_risk":5,"migraine_risk":4,"frizz_risk":1,"updated_at":"2026-04-30T17:09:39.339437+05:30"},{"city":"Hubli-Dharwad","state":"Karnataka","latitude":15.3647,"longitude":75.124,"temp":29.2,"humidity":59,"rain":0.0,"pressure":939.5,"uv_index":9.2,"wind_gusts":46.4,"aqi":68,"pm10":20.3,"pm2_5":15.1,"mosquito_risk":4,"arthritis_risk":5,"migraine_risk":7,"frizz_risk":1,"updated_at":"2026-04-30T17:09:39.339444+05:30"},{"city":"Belgaum","state":"Karnataka","latitude":15.8497,"longitude":74.4977,"temp":29.9,"humidity":54,"rain":0.0,"pressure":924.9,"uv_index":9.2,"wind_gusts":44.3,"aqi":55,"pm10":22.9,"pm2_5":14.6,"mosquito_risk":4,"arthritis_risk":5,"migraine_risk":7,"frizz_risk":1,"updated_at":"2026-04-30T17:09:42.681516+05:30"},{"city":"Coimbatore","state":"Tamil Nadu","latitude":11.0168,"longitude":76.9558,"temp":32.7,"humidity":48,"rain":0.0,"pressure":959.3,"uv_index":9.35,"wind_gusts":49.7,"aqi":73,"pm10":31.9,"pm2_5":20.9,"mosquito_risk":0,"arthritis_risk":5,"migraine_risk":7,"frizz_risk":1,"updated_at":"2026-04-30T17:09:42.681552+05:30"},{"city":"Madurai","state":"Tamil Nadu","latitude":9.9252,"longitude":78.1198,"temp":35.3,"humidity":42,"rain":0.1,"pressure":990.2,"uv_index":9.2,"wind_gusts":49.7,"aqi":113,"pm10":13.4,"pm2_5":12.3,"mosquito_risk":3,"arthritis_risk":5,"migraine_risk":10,"frizz_risk":1,"updated_at":"2026-04-30T17:09:42.681563+05:30"},{"city":"Trichy","state":"Tamil Nadu","latitude":10.7905,"longitude":78.7047,"temp":37.5,"humidity":34,"rain":0.0,"pressure":995.5,"uv_index":9.25,"wind_gusts":44.3,"aqi":88,"pm10":13.7,"pm2_5":12.3,"mosquito_risk":0,"arthritis_risk":5,"migraine_risk":10,"frizz_risk":1,"updated_at":"2026-04-30T17:09:42.681572+05:30"},{"city":"Salem","state":"Tamil Nadu","latitude":11.6643,"longitude":78.146,"temp":39.3,"humidity":24,"rain":0.0,"pressure":973.1,"uv_index":9.3,"wind_gusts":43.9,"aqi":125,"pm10":42.6,"pm2_5":28.3,"mosquito_risk":0,"arthritis_risk":5,"migraine_risk":10,"frizz_risk":0,"updated_at":"2026-04-30T17:09:42.681579+05:30"},{"city":"Tirunelveli","state":"Tamil Nadu","latitude":8.7139,"longitude":77.7567,"temp":33.7,"humidity":50,"rain":0.0,"pressure":1000.9,"uv_index":9.1,"wind_gusts":42.8,"aqi":51,"pm10":8.8,"pm2_5":8.3,"mosquito_risk":0,"arthritis_risk":5,"migraine_risk":4,"frizz_risk":1,"updated_at":"2026-04-30T17:09:42.681587+05:30"},{"city":"Vellore","state":"Tamil Nadu","latitude":12.9165,"longitude":79.1325,"temp":39.0,"humidity":25,"rain":0.0,"pressure":980.0,"uv_index":9.35,"wind_gusts":40.7,"aqi":101,"pm10":38.3,"pm2_5":29.6,"mosquito_risk":0,"arthritis_risk":5,"migraine_risk":10,"frizz_risk":0,"updated_at":"2026-04-30T17:09:42.681593+05:30"},{"city":"Erode","state":"Tamil Nadu","latitude":11.341,"longitude":77.7172,"temp":40.3,"humidity":20,"rain":0.0,"pressure":984.3,"uv_index":9.3,"wind_gusts":46.1,"aqi":92,"pm10":33.5,"pm2_5":21.0,"mosquito_risk":0,"arthritis_risk":5,"migraine_risk":10,"frizz_risk":0,"updated_at":"2026-04-30T17:09:42.681600+05:30"},{"city":"Kochi","state":"Kerala","latitude":9.9312,"longitude":76.2673,"temp":30.0,"humidity":75,"rain":0.0,"pressure":1007.3,"uv_index":8.45,"wind_gusts":33.1,"aqi":66,"pm10":18.0,"pm2_5":14.1,"mosquito_risk":7,"arthritis_risk":5,"migraine_risk":4,"frizz_risk":1,"updated_at":"2026-04-30T17:09:42.681608+05:30"},{"city":"Thiruvananthapuram","state":"Kerala","latitude":8.5241,"longitude":76.9366,"temp":26.3,"humidity":88,"rain":0.0,"pressure":1007.5,"uv_index":8.95,"wind_gusts":31.7,"aqi":47,"pm10":7.4,"pm2_5":5.2,"mosquito_risk":7,"arthritis_risk":5,"migraine_risk":4,"frizz_risk":1,"updated_at":"2026-04-30T17:09:42.681615+05:30"},{"city":"Kozhikode","state":"Kerala","latitude":11.2588,"longitude":75.7804,"temp":29.2,"humidity":81,"rain":0.0,"pressure":1006.4,"uv_index":8.9,"wind_gusts":40.3,"aqi":55,"pm10":21.3,"pm2_5":12.9,"mosquito_risk":7,"arthritis_risk":5,"migraine_risk":4,"frizz_risk":1,"updated_at":"2026-04-30T17:09:42.681622+05:30"},{"city":"Thrissur","state":"Kerala","latitude":10.5276,"longitude":76.2144,"temp":30.1,"humidity":72,"rain":0.0,"pressure":1005.6,"uv_index":8.95,"wind_gusts":42.8,"aqi":74,"pm10":19.6,"pm2_5":14.7,"mosquito_risk":3,"arthritis_risk":5,"migraine_risk":4,"frizz_risk":1,"updated_at":"2026-04-30T17:09:42.681628+05:30"},{"city":"Kannur","state":"Kerala","latitude":11.8745,"longitude":75.3704,"temp":30.5,"humidity":72,"rain":0.0,"pressure":1005.9,"uv_index":9.0,"wind_gusts":35.6,"aqi":65,"pm10":43.1,"pm2_5":21.8,"mosquito_risk":3,"arthritis_risk":5,"migraine_risk":4,"frizz_risk":1,"updated_at":"2026-04-30T17:09:42.681635+05:30"},{"city":"Patna","state":"Bihar","latitude":25.5941,"longitude":85.1376,"temp":23.7,"humidity":86,"rain":0.0,"pressure":998.0,"uv_index":8.6,"wind_gusts":42.8,"aqi":131,"pm10":55.8,"pm2_5":30.6,"mosquito_risk":3,"arthritis_risk":5,"migraine_risk":7,"frizz_risk":1,"updated_at":"2026-04-30T17:09:42.681642+05:30"},{"city":"Gaya","state":"Bihar","latitude":24.7914,"longitude":85.0002,"temp":25.6,"humidity":79,"rain":0.2,"pressure":990.4,"uv_index":8.7,"wind_gusts":50.0,"aqi":168,"pm10":61.7,"pm2_5":39.7,"mosquito_risk":10,"arthritis_risk":5,"migraine_risk":7,"frizz_risk":1,"updated_at":"2026-04-30T17:09:42.681649+05:30"},{"city":"Muzaffarpur","state":"Bihar","latitude":26.1209,"longitude":85.3647,"temp":24.8,"humidity":80,"rain":0.0,"pressure":998.7,"uv_index":8.55,"wind_gusts":43.2,"aqi":104,"pm10":72.2,"pm2_5":31.7,"mosquito_risk":3,"arthritis_risk":5,"migraine_risk":7,"frizz_risk":1,"updated_at":"2026-04-30T17:09:42.681655+05:30"},{"city":"Bhagalpur","state":"Bihar","latitude":25.2425,"longitude":87.0117,"temp":31.2,"humidity":46,"rain":0.0,"pressure":998.2,"uv_index":8.55,"wind_gusts":39.2,"aqi":99,"pm10":62.9,"pm2_5":38.2,"mosquito_risk":0,"arthritis_risk":5,"migraine_risk":7,"frizz_risk":1,"updated_at":"2026-04-30T17:09:42.681661+05:30"},{"city":"Ranchi","state":"Jharkhand","latitude":23.3441,"longitude":85.3096,"temp":26.7,"humidity":58,"rain":0.1,"pressure":935.1,"uv_index":9.15,"wind_gusts":42.5,"aqi":168,"pm10":44.4,"pm2_5":34.0,"mosquito_risk":7,"arthritis_risk":5,"migraine_risk":7,"frizz_risk":1,"updated_at":"2026-04-30T17:09:42.681668+05:30"},{"city":"Jamshedpur","state":"Jharkhand","latitude":22.8046,"longitude":86.2029,"temp":26.4,"humidity":72,"rain":0.0,"pressure":988.4,"uv_index":9.0,"wind_gusts":58.3,"aqi":170,"pm10":49.2,"pm2_5":43.7,"mosquito_risk":7,"arthritis_risk":5,"migraine_risk":7,"frizz_risk":1,"updated_at":"2026-04-30T17:09:42.681674+05:30"},{"city":"Dhanbad","state":"Jharkhand","latitude":23.7957,"longitude":86.4304,"temp":26.4,"humidity":67,"rain":0.0,"pressure":977.2,"uv_index":8.9,"wind_gusts":40.0,"aqi":150,"pm10":60.8,"pm2_5":56.7,"mosquito_risk":7,"arthritis_risk":5,"migraine_risk":7,"frizz_risk":1,"updated_at":"2026-04-30T17:09:42.681681+05:30"},{"city":"Bokaro","state":"Jharkhand","latitude":23.6693,"longitude":86.1511,"temp":27.0,"humidity":67,"rain":0.0,"pressure":980.9,"uv_index":8.9,"wind_gusts":41.8,"aqi":171,"pm10":56.8,"pm2_5":51.6,"mosquito_risk":7,"arthritis_risk":5,"migraine_risk":7,"frizz_risk":1,"updated_at":"2026-04-30T17:09:42.681687+05:30"},{"city":"Bhubaneswar","state":"Odisha","latitude":20.2961,"longitude":85.8245,"temp":31.2,"humidity":69,"rain":0.0,"pressure":998.7,"uv_index":9.05,"wind_gusts":51.8,"aqi":66,"pm10":23.6,"pm2_5":19.7,"mosquito_risk":3,"arthritis_risk":5,"migraine_risk":7,"frizz_risk":1,"updated_at":"2026-04-30T17:09:42.681694+05:30"},{"city":"Cuttack","state":"Odisha","latitude":20.4625,"longitude":85.8828,"temp":32.1,"humidity":63,"rain":0.0,"pressure":1000.2,"uv_index":9.1,"wind_gusts":42.5,"aqi":66,"pm10":23.6,"pm2_5":19.7,"mosquito_risk":3,"arthritis_risk":5,"migraine_risk":4,"frizz_risk":1,"updated_at":"2026-04-30T17:09:42.681700+05:30"},{"city":"Rourkela","state":"Odisha","latitude":22.2604,"longitude":84.8536,"temp":27.9,"humidity":67,"rain":0.0,"pressure":982.0,"uv_index":8.9,"wind_gusts":50.4,"aqi":150,"pm10":44.1,"pm2_5":29.8,"mosquito_risk":7,"arthritis_risk":5,"migraine_risk":7,"frizz_risk":1,"updated_at":"2026-04-30T17:09:42.681706+05:30"},{"city":"Raipur","state":"Chhattisgarh","latitude":21.2514,"longitude":81.6296,"temp":39.4,"humidity":15,"rain":0.0,"pressure":969.0,"uv_index":8.95,"wind_gusts":53.6,"aqi":161,"pm10":26.3,"pm2_5":16.2,"mosquito_risk":0,"arthritis_risk":5,"migraine_risk":10,"frizz_risk":0,"updated_at":"2026-04-30T17:09:42.681712+05:30"},{"city":"Bhilai","state":"Chhattisgarh","latitude":21.1938,"longitude":81.3509,"temp":38.6,"humidity":17,"rain":0.0,"pressure":969.5,"uv_index":8.95,"wind_gusts":55.4,"aqi":138,"pm10":28.0,"pm2_5":15.8,"mosquito_risk":0,"arthritis_risk":5,"migraine_risk":10,"frizz_risk":0,"updated_at":"2026-04-30T17:09:42.681718+05:30"},{"city":"Guwahati","state":"Assam","latitude":26.1158,"longitude":91.7086,"temp":24.5,"humidity":77,"rain":0.0,"pressure":999.7,"uv_index":7.65,"wind_gusts":25.2,"aqi":67,"pm10":23.9,"pm2_5":13.9,"mosquito_risk":3,"arthritis_risk":5,"migraine_risk":7,"frizz_risk":1,"updated_at":"2026-04-30T17:09:42.681724+05:30"},{"city":"Agartala","state":"Tripura","latitude":23.8315,"longitude":91.2868,"temp":27.9,"humidity":72,"rain":0.0,"pressure":1003.9,"uv_index":5.5,"wind_gusts":32.0,"aqi":101,"pm10":31.3,"pm2_5":24.7,"mosquito_risk":7,"arthritis_risk":5,"migraine_risk":0,"frizz_risk":1,"updated_at":"2026-04-30T17:09:42.681730+05:30"},{"city":"Shillong","state":"Meghalaya","latitude":25.5788,"longitude":91.8933,"temp":18.1,"humidity":74,"rain":0.0,"pressure":854.8,"uv_index":8.35,"wind_gusts":35.6,"aqi":64,"pm10":24.5,"pm2_5":13.9,"mosquito_risk":3,"arthritis_risk":5,"migraine_risk":7,"frizz_risk":0,"updated_at":"2026-04-30T17:09:42.681736+05:30"},{"city":"Imphal","state":"Manipur","latitude":24.817,"longitude":93.9368,"temp":21.9,"humidity":82,"rain":0.0,"pressure":921.2,"uv_index":9.05,"wind_gusts":30.6,"aqi":96,"pm10":20.5,"pm2_5":14.5,"mosquito_risk":3,"arthritis_risk":5,"migraine_risk":7,"frizz_risk":1,"updated_at":"2026-04-30T17:09:42.681743+05:30"},{"city":"Aizawl","state":"Mizoram","latitude":23.7271,"longitude":92.7176,"temp":21.4,"humidity":70,"rain":0.0,"pressure":891.0,"uv_index":8.3,"wind_gusts":33.8,"aqi":70,"pm10":18.2,"pm2_5":13.3,"mosquito_risk":3,"arthritis_risk":5,"migraine_risk":7,"frizz_risk":0,"updated_at":"2026-04-30T17:09:42.681749+05:30"},{"city":"Kohima","state":"Nagaland","latitude":25.6701,"longitude":94.1077,"temp":17.1,"humidity":99,"rain":0.0,"pressure":853.0,"uv_index":5.0,"wind_gusts":31.3,"aqi":72,"pm10":25.4,"pm2_5":15.4,"mosquito_risk":3,"arthritis_risk":10,"migraine_risk":3,"frizz_risk":1,"updated_at":"2026-04-30T17:09:42.681755+05:30"},{"city":"Gangtok","state":"Sikkim","latitude":27.3314,"longitude":88.6138,"temp":14.9,"humidity":97,"rain":0.1,"pressure":834.6,"uv_index":5.6,"wind_gusts":31.3,"aqi":70,"pm10":12.7,"pm2_5":7.4,"mosquito_risk":6,"arthritis_risk":10,"migraine_risk":3,"frizz_risk":0,"updated_at":"2026-04-30T17:09:42.681761+05:30"},{"city":"Siliguri","state":"West Bengal","latitude":26.7271,"longitude":88.3953,"temp":26.0,"humidity":67,"rain":0.0,"pressure":991.0,"uv_index":8.2,"wind_gusts":36.0,"aqi":82,"pm10":20.0,"pm2_5":12.0,"mosquito_risk":7,"arthritis_risk":5,"migraine_risk":7,"frizz_risk":1,"updated_at":"2026-04-30T17:09:46.060798+05:30"},{"city":"Durgapur","state":"West Bengal","latitude":23.5204,"longitude":87.3119,"temp":26.7,"humidity":77,"rain":0.0,"pressure":992.4,"uv_index":8.85,"wind_gusts":32.0,"aqi":128,"pm10":46.8,"pm2_5":44.0,"mosquito_risk":7,"arthritis_risk":5,"migraine_risk":7,"frizz_risk":1,"updated_at":"2026-04-30T17:09:46.060834+05:30"},{"city":"Asansol","state":"West Bengal","latitude":23.6739,"longitude":86.9524,"temp":24.1,"humidity":86,"rain":0.1,"pressure":991.2,"uv_index":8.6,"wind_gusts":34.6,"aqi":131,"pm10":47.3,"pm2_5":44.0,"mosquito_risk":6,"arthritis_risk":5,"migraine_risk":7,"frizz_risk":1,"updated_at":"2026-04-30T17:09:46.060844+05:30"},{"city":"Pondicherry","state":"Puducherry","latitude":11.9139,"longitude":79.8145,"temp":31.6,"humidity":75,"rain":0.0,"pressure":1004.6,"uv_index":9.2,"wind_gusts":50.4,"aqi":44,"pm10":14.7,"pm2_5":10.6,"mosquito_risk":3,"arthritis_risk":5,"migraine_risk":4,"frizz_risk":1,"updated_at":"2026-04-30T17:09:46.060853+05:30"},{"city":"Port Blair","state":"Andaman and Nicobar Islands","latitude":11.6234,"longitude":92.7265,"temp":31.4,"humidity":58,"rain":0.1,"pressure":1006.7,"uv_index":8.9,"wind_gusts":27.4,"aqi":38,"pm10":7.5,"pm2_5":7.1,"mosquito_risk":3,"arthritis_risk":5,"migraine_risk":4,"frizz_risk":1,"updated_at":"2026-04-30T17:09:46.060861+05:30"},{"city":"Haridwar","state":"Uttarakhand","latitude":29.9457,"longitude":78.1642,"temp":27.8,"humidity":59,"rain":0.0,"pressure":971.5,"uv_index":6.9,"wind_gusts":38.2,"aqi":112,"pm10":119.7,"pm2_5":32.9,"mosquito_risk":4,"arthritis_risk":5,"migraine_risk":7,"frizz_risk":1,"updated_at":"2026-04-30T17:09:46.060868+05:30"},{"city":"Rishikesh","state":"Uttarakhand","latitude":30.0869,"longitude":78.2676,"temp":26.5,"humidity":60,"rain":0.0,"pressure":964.4,"uv_index":7.3,"wind_gusts":44.3,"aqi":109,"pm10":105.2,"pm2_5":27.8,"mosquito_risk":4,"arthritis_risk":5,"migraine_risk":7,"frizz_risk":1,"updated_at":"2026-04-30T17:09:46.060875+05:30"},{"city":"Nainital","state":"Uttarakhand","latitude":29.3919,"longitude":79.4542,"temp":14.0,"humidity":78,"rain":0.0,"pressure":803.3,"uv_index":7.85,"wind_gusts":33.5,"aqi":104,"pm10":103.8,"pm2_5":31.1,"mosquito_risk":3,"arthritis_risk":5,"migraine_risk":7,"frizz_risk":0,"updated_at":"2026-04-30T17:09:46.060882+05:30"},{"city":"Mussoorie","state":"Uttarakhand","latitude":30.4599,"longitude":78.0664,"temp":14.3,"humidity":75,"rain":0.0,"pressure":800.6,"uv_index":7.6,"wind_gusts":45.7,"aqi":99,"pm10":88.5,"pm2_5":25.7,"mosquito_risk":3,"arthritis_risk":5,"migraine_risk":7,"frizz_risk":0,"updated_at":"2026-04-30T17:09:46.060889+05:30"},{"city":"Dharamshala","state":"Himachal Pradesh","latitude":32.219,"longitude":76.3234,"temp":20.6,"humidity":49,"rain":0.0,"pressure":866.6,"uv_index":7.5,"wind_gusts":52.2,"aqi":79,"pm10":15.1,"pm2_5":7.1,"mosquito_risk":0,"arthritis_risk":5,"migraine_risk":7,"frizz_risk":0,"updated_at":"2026-04-30T17:09:46.060896+05:30"},{"city":"Dalhousie","state":"Himachal Pradesh","latitude":32.5387,"longitude":75.971,"temp":13.9,"humidity":88,"rain":0.0,"pressure":801.7,"uv_index":6.35,"wind_gusts":40.7,"aqi":95,"pm10":26.9,"pm2_5":11.0,"mosquito_risk":3,"arthritis_risk":10,"migraine_risk":7,"frizz_risk":0,"updated_at":"2026-04-30T17:09:46.060904+05:30"},{"city":"Patiala","state":"Punjab","latitude":30.3398,"longitude":76.3869,"temp":31.2,"humidity":40,"rain":0.0,"pressure":974.2,"uv_index":6.9,"wind_gusts":49.0,"aqi":176,"pm10":577.4,"pm2_5":67.8,"mosquito_risk":0,"arthritis_risk":5,"migraine_risk":7,"frizz_risk":0,"updated_at":"2026-04-30T17:09:46.060912+05:30"},{"city":"Bhatinda","state":"Punjab","latitude":30.211,"longitude":74.9455,"temp":33.5,"humidity":29,"rain":0.0,"pressure":978.8,"uv_index":8.05,"wind_gusts":43.9,"aqi":129,"pm10":62.9,"pm2_5":21.6,"mosquito_risk":0,"arthritis_risk":5,"migraine_risk":7,"frizz_risk":0,"updated_at":"2026-04-30T17:09:46.060918+05:30"},{"city":"Rohtak","state":"Haryana","latitude":28.8955,"longitude":76.6066,"temp":32.5,"humidity":38,"rain":0.0,"pressure":977.2,"uv_index":7.5,"wind_gusts":51.1,"aqi":315,"pm10":378.1,"pm2_5":50.5,"mosquito_risk":0,"arthritis_risk":5,"migraine_risk":7,"frizz_risk":1,"updated_at":"2026-04-30T17:09:46.060925+05:30"},{"city":"Panipat","state":"Haryana","latitude":29.3909,"longitude":76.9635,"temp":31.4,"humidity":45,"rain":0.0,"pressure":976.4,"uv_index":6.9,"wind_gusts":51.1,"aqi":656,"pm10":750.6,"pm2_5":81.7,"mosquito_risk":0,"arthritis_risk":5,"migraine_risk":7,"frizz_risk":1,"updated_at":"2026-04-30T17:09:46.060932+05:30"},{"city":"Mathura","state":"Uttar Pradesh","latitude":27.4924,"longitude":77.6737,"temp":33.8,"humidity":29,"rain":0.0,"pressure":982.4,"uv_index":7.75,"wind_gusts":42.1,"aqi":545,"pm10":326.9,"pm2_5":46.8,"mosquito_risk":0,"arthritis_risk":5,"migraine_risk":7,"frizz_risk":0,"updated_at":"2026-04-30T17:09:46.060939+05:30"},{"city":"Vrindavan","state":"Uttar Pradesh","latitude":27.5823,"longitude":77.7027,"temp":33.7,"humidity":28,"rain":0.0,"pressure":982.8,"uv_index":7.7,"wind_gusts":44.3,"aqi":545,"pm10":326.9,"pm2_5":46.8,"mosquito_risk":0,"arthritis_risk":5,"migraine_risk":7,"frizz_risk":0,"updated_at":"2026-04-30T17:09:46.060946+05:30"},{"city":"Ayodhya","state":"Uttar Pradesh","latitude":26.7922,"longitude":82.1998,"temp":31.7,"humidity":42,"rain":0.0,"pressure":992.5,"uv_index":7.75,"wind_gusts":38.2,"aqi":133,"pm10":58.8,"pm2_5":28.9,"mosquito_risk":0,"arthritis_risk":5,"migraine_risk":7,"frizz_risk":1,"updated_at":"2026-04-30T17:09:46.060952+05:30"},{"city":"Ratlam","state":"Madhya Pradesh","latitude":23.3315,"longitude":75.0367,"temp":37.3,"humidity":19,"rain":0.0,"pressure":950.9,"uv_index":8.5,"wind_gusts":45.4,"aqi":56,"pm10":63.6,"pm2_5":19.0,"mosquito_risk":0,"arthritis_risk":5,"migraine_risk":10,"frizz_risk":0,"updated_at":"2026-04-30T17:09:46.060959+05:30"},{"city":"Sagar","state":"Madhya Pradesh","latitude":23.8388,"longitude":78.7378,"temp":33.8,"humidity":24,"rain":0.0,"pressure":945.7,"uv_index":8.45,"wind_gusts":62.6,"aqi":81,"pm10":78.5,"pm2_5":19.7,"mosquito_risk":0,"arthritis_risk":5,"migraine_risk":7,"frizz_risk":0,"updated_at":"2026-04-30T17:09:46.060965+05:30"},{"city":"Satna","state":"Madhya Pradesh","latitude":24.6005,"longitude":80.8322,"temp":35.5,"humidity":22,"rain":0.0,"pressure":966.8,"uv_index":7.2,"wind_gusts":37.4,"aqi":79,"pm10":96.4,"pm2_5":24.6,"mosquito_risk":0,"arthritis_risk":5,"migraine_risk":10,"frizz_risk":0,"updated_at":"2026-04-30T17:09:46.060972+05:30"},{"city":"Akola","state":"Maharashtra","latitude":20.7002,"longitude":77.0082,"temp":40.0,"humidity":11,"rain":0.0,"pressure":970.1,"uv_index":8.85,"wind_gusts":43.6,"aqi":51,"pm10":47.7,"pm2_5":15.0,"mosquito_risk":0,"arthritis_risk":5,"migraine_risk":10,"frizz_risk":0,"updated_at":"2026-04-30T17:09:46.060979+05:30"},{"city":"Amravati","state":"Maharashtra","latitude":20.9374,"longitude":77.7796,"temp":39.3,"humidity":12,"rain":0.0,"pressure":962.5,"uv_index":8.85,"wind_gusts":46.4,"aqi":50,"pm10":42.4,"pm2_5":13.6,"mosquito_risk":0,"arthritis_risk":5,"migraine_risk":10,"frizz_risk":0,"updated_at":"2026-04-30T17:09:46.060985+05:30"},{"city":"Latur","state":"Maharashtra","latitude":18.4088,"longitude":76.5604,"temp":39.5,"humidity":12,"rain":0.0,"pressure":936.4,"uv_index":9.05,"wind_gusts":42.8,"aqi":76,"pm10":29.4,"pm2_5":17.0,"mosquito_risk":0,"arthritis_risk":5,"migraine_risk":10,"frizz_risk":0,"updated_at":"2026-04-30T17:09:46.060992+05:30"},{"city":"Nanded","state":"Maharashtra","latitude":19.1383,"longitude":77.3091,"temp":41.0,"humidity":10,"rain":0.0,"pressure":963.3,"uv_index":9.0,"wind_gusts":58.0,"aqi":67,"pm10":26.4,"pm2_5":15.0,"mosquito_risk":0,"arthritis_risk":5,"migraine_risk":10,"frizz_risk":0,"updated_at":"2026-04-30T17:09:46.060999+05:30"},{"city":"Gulbarga","state":"Karnataka","latitude":17.3297,"longitude":76.8343,"temp":39.7,"humidity":15,"rain":0.0,"pressure":955.1,"uv_index":9.1,"wind_gusts":40.0,"aqi":100,"pm10":26.7,"pm2_5":17.3,"mosquito_risk":0,"arthritis_risk":5,"migraine_risk":10,"frizz_risk":0,"updated_at":"2026-04-30T17:09:46.061005+05:30"},{"city":"Bidar","state":"Karnataka","latitude":17.9104,"longitude":77.5199,"temp":38.5,"humidity":14,"rain":0.0,"pressure":932.7,"uv_index":9.1,"wind_gusts":39.6,"aqi":109,"pm10":26.0,"pm2_5":16.8,"mosquito_risk":0,"arthritis_risk":5,"migraine_risk":10,"frizz_risk":0,"updated_at":"2026-04-30T17:09:46.061012+05:30"},{"city":"Hospet","state":"Karnataka","latitude":15.2689,"longitude":76.3909,"temp":36.8,"humidity":28,"rain":0.0,"pressure":953.1,"uv_index":9.25,"wind_gusts":58.0,"aqi":111,"pm10":28.1,"pm2_5":22.2,"mosquito_risk":0,"arthritis_risk":5,"migraine_risk":10,"frizz_risk":0,"updated_at":"2026-04-30T17:09:46.061018+05:30"},{"city":"Tirupur","state":"Tamil Nadu","latitude":11.1085,"longitude":77.3411,"temp":38.0,"humidity":29,"rain":0.0,"pressure":971.3,"uv_index":9.35,"wind_gusts":56.5,"aqi":100,"pm10":41.1,"pm2_5":25.4,"mosquito_risk":0,"arthritis_risk":5,"migraine_risk":10,"frizz_risk":1,"updated_at":"2026-04-30T17:09:46.061024+05:30"},{"city":"Alappuzha","state":"Kerala","latitude":9.4981,"longitude":76.3388,"temp":29.8,"humidity":75,"rain":0.0,"pressure":1007.6,"uv_index":9.0,"wind_gusts":34.2,"aqi":60,"pm10":18.3,"pm2_5":13.5,"mosquito_risk":7,"arthritis_risk":5,"migraine_risk":4,"frizz_risk":1,"updated_at":"2026-04-30T17:09:46.061031+05:30"},{"city":"Munnar","state":"Kerala","latitude":10.0889,"longitude":77.0595,"temp":19.5,"humidity":95,"rain":0.0,"pressure":856.6,"uv_index":8.75,"wind_gusts":25.2,"aqi":81,"pm10":19.9,"pm2_5":16.8,"mosquito_risk":3,"arthritis_risk":10,"migraine_risk":7,"frizz_risk":1,"updated_at":"2026-04-30T17:09:46.061038+05:30"},{"city":"Silchar","state":"Assam","latitude":24.8333,"longitude":92.7789,"temp":26.5,"humidity":73,"rain":0.0,"pressure":1003.2,"uv_index":6.05,"wind_gusts":23.0,"aqi":114,"pm10":30.2,"pm2_5":19.7,"mosquito_risk":7,"arthritis_risk":5,"migraine_risk":4,"frizz_risk":1,"updated_at":"2026-04-30T17:09:46.061044+05:30"},{"city":"Dibrugarh","state":"Assam","latitude":27.4728,"longitude":94.912,"temp":23.0,"humidity":96,"rain":0.1,"pressure":994.3,"uv_index":7.9,"wind_gusts":27.7,"aqi":81,"pm10":24.0,"pm2_5":12.8,"mosquito_risk":6,"arthritis_risk":5,"migraine_risk":7,"frizz_risk":1,"updated_at":"2026-04-30T17:09:46.061051+05:30"}]