[{"city":"Delhi","state":"Delhi","latitude":28.6139,"longitude":77.209,"temp":29.8,"humidity":62,"rain":0.0,"pressure":976.7,"uv_index":7.75,"wind_gusts":32.8,"aqi":186,"pm10":540.2,"pm2_5":149.9,"no2":64.4,"co":394.0,"o3":7.0,"so2":23.8,"mosquito_risk":7,"arthritis_risk":5,"migraine_risk":7,"frizz_risk":1,"updated_at":"2026-06-24T01:48:02.687688+05:30"},{"city":"Mumbai","state":"Maharashtra","latitude":19.076,"longitude":72.8777,"temp":25.6,"humidity":95,"rain":0.6,"pressure":1005.2,"uv_index":2.15,"wind_gusts":34.2,"aqi":36,"pm10":34.7,"pm2_5":12.7,"no2":7.8,"co":374.0,"o3":50.0,"so2":5.0,"mosquito_risk":10,"arthritis_risk":5,"migraine_risk":0,"frizz_risk":1,"updated_at":"2026-06-24T01:48:02.687733+05:30"},{"city":"Bangalore","state":"Karnataka","latitude":12.9716,"longitude":77.5946,"temp":21.5,"humidity":77,"rain":0.0,"pressure":910.4,"uv_index":7.4,"wind_gusts":66.6,"aqi":20,"pm10":3.6,"pm2_5":3.3,"no2":9.1,"co":251.0,"o3":36.0,"so2":3.7,"mosquito_risk":3,"arthritis_risk":5,"migraine_risk":7,"frizz_risk":1,"updated_at":"2026-06-24T01:48:02.687748+05:30"},{"city":"Hyderabad","state":"Telangana","latitude":17.385,"longitude":78.4867,"temp":26.8,"humidity":60,"rain":0.0,"pressure":950.5,"uv_index":6.55,"wind_gusts":43.6,"aqi":27,"pm10":6.8,"pm2_5":6.0,"no2":11.4,"co":186.0,"o3":37.0,"so2":6.0,"mosquito_risk":4,"arthritis_risk":5,"migraine_risk":7,"frizz_risk":1,"updated_at":"2026-06-24T01:48:02.687756+05:30"},{"city":"Chennai","state":"Tamil Nadu","latitude":13.0827,"longitude":80.2707,"temp":29.0,"humidity":68,"rain":0.0,"pressure":1004.8,"uv_index":8.7,"wind_gusts":40.3,"aqi":52,"pm10":11.9,"pm2_5":10.9,"no2":16.0,"co":270.0,"o3":54.0,"so2":9.3,"mosquito_risk":7,"arthritis_risk":5,"migraine_risk":4,"frizz_risk":1,"updated_at":"2026-06-24T01:48:02.687764+05:30"},{"city":"Kolkata","state":"West Bengal","latitude":22.5726,"longitude":88.3639,"temp":28.1,"humidity":91,"rain":0.0,"pressure":999.8,"uv_index":5.65,"wind_gusts":24.5,"aqi":139,"pm10":41.2,"pm2_5":38.3,"no2":14.5,"co":705.0,"o3":77.0,"so2":12.2,"mosquito_risk":7,"arthritis_risk":5,"migraine_risk":3,"frizz_risk":1,"updated_at":"2026-06-24T01:48:02.687772+05:30"},{"city":"Pune","state":"Maharashtra","latitude":18.5204,"longitude":73.8567,"temp":22.2,"humidity":96,"rain":0.2,"pressure":944.5,"uv_index":2.0,"wind_gusts":36.7,"aqi":21,"pm10":4.0,"pm2_5":3.9,"no2":11.1,"co":153.0,"o3":33.0,"so2":7.2,"mosquito_risk":6,"arthritis_risk":5,"migraine_risk":3,"frizz_risk":1,"updated_at":"2026-06-24T01:48:02.687779+05:30"},{"city":"Ahmedabad","state":"Gujarat","latitude":23.0225,"longitude":72.5714,"temp":31.2,"humidity":59,"rain":0.0,"pressure":996.5,"uv_index":8.0,"wind_gusts":37.8,"aqi":74,"pm10":35.7,"pm2_5":18.0,"no2":5.6,"co":137.0,"o3":51.0,"so2":3.7,"mosquito_risk":0,"arthritis_risk":5,"migraine_risk":7,"frizz_risk":1,"updated_at":"2026-06-24T01:48:02.687785+05:30"},{"city":"Jaipur","state":"Rajasthan","latitude":26.9124,"longitude":75.7873,"temp":28.4,"humidity":61,"rain":0.0,"pressure":953.7,"uv_index":8.15,"wind_gusts":32.8,"aqi":142,"pm10":98.7,"pm2_5":48.4,"no2":34.5,"co":485.0,"o3":32.0,"so2":15.7,"mosquito_risk":7,"arthritis_risk":5,"migraine_risk":7,"frizz_risk":1,"updated_at":"2026-06-24T01:48:02.687792+05:30"},{"city":"Lucknow","state":"Uttar Pradesh","latitude":26.8467,"longitude":80.9462,"temp":33.0,"humidity":42,"rain":0.0,"pressure":987.0,"uv_index":8.3,"wind_gusts":35.6,"aqi":149,"pm10":266.4,"pm2_5":68.0,"no2":26.3,"co":299.0,"o3":60.0,"so2":9.2,"mosquito_risk":0,"arthritis_risk":5,"migraine_risk":7,"frizz_risk":1,"updated_at":"2026-06-24T01:48:02.687801+05:30"},{"city":"Kanpur","state":"Uttar Pradesh","latitude":26.4499,"longitude":80.3319,"temp":33.1,"humidity":39,"rain":0.0,"pressure":985.3,"uv_index":8.3,"wind_gusts":34.9,"aqi":180,"pm10":340.9,"pm2_5":83.4,"no2":47.9,"co":267.0,"o3":26.0,"so2":11.2,"mosquito_risk":0,"arthritis_risk":5,"migraine_risk":7,"frizz_risk":1,"updated_at":"2026-06-24T01:48:02.687809+05:30"},{"city":"Chandigarh","state":"Chandigarh","latitude":30.7333,"longitude":76.7794,"temp":27.5,"humidity":62,"rain":0.0,"pressure":962.7,"uv_index":7.8,"wind_gusts":25.9,"aqi":89,"pm10":71.0,"pm2_5":49.2,"no2":46.2,"co":941.0,"o3":36.0,"so2":10.3,"mosquito_risk":7,"arthritis_risk":5,"migraine_risk":7,"frizz_risk":1,"updated_at":"2026-06-24T01:48:02.687816+05:30"},{"city":"Srinagar","state":"Jammu and Kashmir","latitude":34.0837,"longitude":74.7973,"temp":15.6,"humidity":95,"rain":0.0,"pressure":835.7,"uv_index":9.1,"wind_gusts":20.9,"aqi":80,"pm10":38.0,"pm2_5":37.1,"no2":36.8,"co":603.0,"o3":0.0,"so2":0.4,"mosquito_risk":3,"arthritis_risk":10,"migraine_risk":7,"frizz_risk":0,"updated_at":"2026-06-24T01:48:02.687823+05:30"},{"city":"Jammu","state":"Jammu and Kashmir","latitude":32.7266,"longitude":74.857,"temp":30.3,"humidity":44,"rain":0.0,"pressure":966.0,"uv_index":8.6,"wind_gusts":31.3,"aqi":75,"pm10":35.4,"pm2_5":34.3,"no2":53.6,"co":505.0,"o3":7.0,"so2":3.7,"mosquito_risk":0,"arthritis_risk":5,"migraine_risk":7,"frizz_risk":1,"updated_at":"2026-06-24T01:48:02.687829+05:30"},{"city":"Amritsar","state":"Punjab","latitude":31.634,"longitude":74.8723,"temp":28.6,"humidity":63,"rain":0.0,"pressure":973.4,"uv_index":8.45,"wind_gusts":19.8,"aqi":131,"pm10":86.8,"pm2_5":52.0,"no2":31.7,"co":481.0,"o3":52.0,"so2":11.1,"mosquito_risk":7,"arthritis_risk":5,"migraine_risk":7,"frizz_risk":1,"updated_at":"2026-06-24T01:48:02.687835+05:30"},{"city":"Ludhiana","state":"Punjab","latitude":30.901,"longitude":75.8573,"temp":29.5,"humidity":61,"rain":0.0,"pressure":971.7,"uv_index":8.0,"wind_gusts":24.5,"aqi":118,"pm10":101.5,"pm2_5":57.7,"no2":30.1,"co":911.0,"o3":65.0,"so2":11.6,"mosquito_risk":7,"arthritis_risk":5,"migraine_risk":7,"frizz_risk":1,"updated_at":"2026-06-24T01:48:02.687842+05:30"},{"city":"Jalandhar","state":"Punjab","latitude":31.326,"longitude":75.5762,"temp":29.2,"humidity":56,"rain":0.0,"pressure":972.9,"uv_index":8.25,"wind_gusts":25.9,"aqi":122,"pm10":85.7,"pm2_5":50.4,"no2":26.4,"co":774.0,"o3":62.0,"so2":6.8,"mosquito_risk":4,"arthritis_risk":5,"migraine_risk":7,"frizz_risk":1,"updated_at":"2026-06-24T01:48:02.687847+05:30"},{"city":"Dehradun","state":"Uttarakhand","latitude":30.6284,"longitude":78.0322,"temp":14.8,"humidity":99,"rain":0.0,"pressure":825.5,"uv_index":7.7,"wind_gusts":33.8,"aqi":61,"pm10":22.1,"pm2_5":18.2,"no2":24.9,"co":242.0,"o3":44.0,"so2":0.4,"mosquito_risk":3,"arthritis_risk":10,"migraine_risk":7,"frizz_risk":0,"updated_at":"2026-06-24T01:48:02.687854+05:30"},{"city":"Shimla","state":"Himachal Pradesh","latitude":31.1048,"longitude":77.1734,"temp":13.8,"humidity":75,"rain":0.0,"pressure":780.1,"uv_index":7.7,"wind_gusts":35.3,"aqi":55,"pm10":25.3,"pm2_5":23.8,"no2":29.3,"co":359.0,"o3":34.0,"so2":2.0,"mosquito_risk":3,"arthritis_risk":5,"migraine_risk":7,"frizz_risk":0,"updated_at":"2026-06-24T01:48:02.687860+05:30"},{"city":"Manali","state":"Himachal Pradesh","latitude":32.2396,"longitude":77.1887,"temp":13.4,"humidity":87,"rain":0.0,"pressure":813.7,"uv_index":8.05,"wind_gusts":34.2,"aqi":44,"pm10":3.2,"pm2_5":2.7,"no2":88.4,"co":330.0,"o3":13.0,"so2":0.0,"mosquito_risk":3,"arthritis_risk":10,"migraine_risk":7,"frizz_risk":0,"updated_at":"2026-06-24T01:48:02.687867+05:30"},{"city":"Gurgaon","state":"Haryana","latitude":28.4595,"longitude":77.0266,"temp":28.5,"humidity":62,"rain":0.0,"pressure":975.0,"uv_index":7.8,"wind_gusts":28.4,"aqi":441,"pm10":692.9,"pm2_5":171.8,"no2":36.3,"co":394.0,"o3":27.0,"so2":13.3,"mosquito_risk":7,"arthritis_risk":5,"migraine_risk":7,"frizz_risk":1,"updated_at":"2026-06-24T01:48:02.687875+05:30"},{"city":"Noida","state":"Uttar Pradesh","latitude":28.5355,"longitude":77.391,"temp":28.7,"humidity":69,"rain":0.0,"pressure":978.0,"uv_index":7.8,"wind_gusts":19.8,"aqi":441,"pm10":692.9,"pm2_5":171.8,"no2":36.3,"co":422.0,"o3":27.0,"so2":13.3,"mosquito_risk":7,"arthritis_risk":5,"migraine_risk":7,"frizz_risk":1,"updated_at":"2026-06-24T01:48:02.687882+05:30"},{"city":"Ghaziabad","state":"Uttar Pradesh","latitude":28.6692,"longitude":77.4538,"temp":29.2,"humidity":62,"rain":0.0,"pressure":976.2,"uv_index":7.75,"wind_gusts":25.6,"aqi":167,"pm10":517.8,"pm2_5":132.7,"no2":64.8,"co":620.0,"o3":17.0,"so2":23.9,"mosquito_risk":7,"arthritis_risk":5,"migraine_risk":7,"frizz_risk":1,"updated_at":"2026-06-24T01:48:02.687888+05:30"},{"city":"Faridabad","state":"Haryana","latitude":28.4089,"longitude":77.3178,"temp":29.1,"humidity":64,"rain":0.0,"pressure":977.3,"uv_index":7.8,"wind_gusts":30.6,"aqi":441,"pm10":692.9,"pm2_5":171.8,"no2":36.3,"co":415.0,"o3":27.0,"so2":13.3,"mosquito_risk":7,"arthritis_risk":5,"migraine_risk":7,"frizz_risk":1,"updated_at":"2026-06-24T01:48:02.687893+05:30"},{"city":"Meerut","state":"Uttar Pradesh","latitude":28.9845,"longitude":77.7064,"temp":29.1,"humidity":61,"rain":0.0,"pressure":975.2,"uv_index":7.65,"wind_gusts":20.9,"aqi":167,"pm10":517.8,"pm2_5":132.7,"no2":64.8,"co":529.0,"o3":17.0,"so2":23.9,"mosquito_risk":7,"arthritis_risk":5,"migraine_risk":7,"frizz_risk":1,"updated_at":"2026-06-24T01:48:02.687899+05:30"},{"city":"Agra","state":"Uttar Pradesh","latitude":27.1767,"longitude":78.0081,"temp":30.7,"humidity":49,"rain":0.0,"pressure":981.6,"uv_index":8.1,"wind_gusts":28.4,"aqi":196,"pm10":123.9,"pm2_5":49.4,"no2":17.5,"co":332.0,"o3":49.0,"so2":5.0,"mosquito_risk":0,"arthritis_risk":5,"migraine_risk":7,"frizz_risk":1,"updated_at":"2026-06-24T01:48:02.687905+05:30"},{"city":"Varanasi","state":"Uttar Pradesh","latitude":25.3176,"longitude":82.9739,"temp":32.9,"humidity":47,"rain":0.0,"pressure":991.0,"uv_index":8.75,"wind_gusts":36.0,"aqi":121,"pm10":62.9,"pm2_5":43.7,"no2":23.3,"co":196.0,"o3":44.0,"so2":9.8,"mosquito_risk":0,"arthritis_risk":5,"migraine_risk":7,"frizz_risk":1,"updated_at":"2026-06-24T01:48:02.687912+05:30"},{"city":"Prayagraj","state":"Uttar Pradesh","latitude":25.4358,"longitude":81.8463,"temp":32.7,"humidity":48,"rain":0.0,"pressure":989.8,"uv_index":8.65,"wind_gusts":38.9,"aqi":127,"pm10":92.7,"pm2_5":52.5,"no2":39.5,"co":189.0,"o3":25.0,"so2":10.5,"mosquito_risk":0,"arthritis_risk":5,"migraine_risk":7,"frizz_risk":1,"updated_at":"2026-06-24T01:48:02.687918+05:30"},{"city":"Gorakhpur","state":"Uttar Pradesh","latitude":26.7606,"longitude":83.3732,"temp":29.6,"humidity":72,"rain":0.0,"pressure":990.5,"uv_index":8.6,"wind_gusts":25.9,"aqi":155,"pm10":188.6,"pm2_5":105.2,"no2":69.9,"co":812.0,"o3":16.0,"so2":19.8,"mosquito_risk":7,"arthritis_risk":5,"migraine_risk":7,"frizz_risk":1,"updated_at":"2026-06-24T01:48:02.687923+05:30"},{"city":"Bareilly","state":"Uttar Pradesh","latitude":28.367,"longitude":79.4304,"temp":30.9,"humidity":43,"rain":0.0,"pressure":980.3,"uv_index":8.1,"wind_gusts":32.4,"aqi":153,"pm10":117.3,"pm2_5":66.8,"no2":39.0,"co":357.0,"o3":56.0,"so2":15.5,"mosquito_risk":0,"arthritis_risk":5,"migraine_risk":7,"frizz_risk":1,"updated_at":"2026-06-24T01:48:02.687930+05:30"},{"city":"Aligarh","state":"Uttar Pradesh","latitude":27.8974,"longitude":78.088,"temp":29.0,"humidity":59,"rain":0.0,"pressure":979.3,"uv_index":7.9,"wind_gusts":29.5,"aqi":302,"pm10":597.9,"pm2_5":144.8,"no2":30.8,"co":427.0,"o3":27.0,"so2":5.8,"mosquito_risk":4,"arthritis_risk":5,"migraine_risk":7,"frizz_risk":1,"updated_at":"2026-06-24T01:48:02.687935+05:30"},{"city":"Moradabad","state":"Uttar Pradesh","latitude":28.8386,"longitude":78.7733,"temp":30.1,"humidity":52,"rain":0.0,"pressure":977.7,"uv_index":7.9,"wind_gusts":30.6,"aqi":159,"pm10":298.0,"pm2_5":113.9,"no2":61.2,"co":452.0,"o3":22.0,"so2":15.7,"mosquito_risk":0,"arthritis_risk":5,"migraine_risk":7,"frizz_risk":1,"updated_at":"2026-06-24T01:48:02.687941+05:30"},{"city":"Saharanpur","state":"Uttar Pradesh","latitude":29.9637,"longitude":77.546,"temp":28.0,"humidity":69,"rain":0.0,"pressure":969.6,"uv_index":7.45,"wind_gusts":25.2,"aqi":154,"pm10":224.4,"pm2_5":90.1,"no2":48.1,"co":596.0,"o3":36.0,"so2":13.5,"mosquito_risk":7,"arthritis_risk":5,"migraine_risk":7,"frizz_risk":1,"updated_at":"2026-06-24T01:48:02.687947+05:30"},{"city":"Jhansi","state":"Uttar Pradesh","latitude":25.4484,"longitude":78.5685,"temp":30.6,"humidity":51,"rain":0.0,"pressure":972.4,"uv_index":7.85,"wind_gusts":29.9,"aqi":89,"pm10":36.6,"pm2_5":24.0,"no2":9.9,"co":190.0,"o3":57.0,"so2":5.2,"mosquito_risk":0,"arthritis_risk":5,"migraine_risk":7,"frizz_risk":1,"updated_at":"2026-06-24T01:48:05.998202+05:30"},{"city":"Surat","state":"Gujarat","latitude":21.1702,"longitude":72.8311,"temp":28.7,"humidity":85,"rain":0.0,"pressure":1001.5,"uv_index":1.4,"wind_gusts":47.5,"aqi":70,"pm10":50.3,"pm2_5":26.5,"no2":24.2,"co":228.0,"o3":29.0,"so2":37.9,"mosquito_risk":7,"arthritis_risk":5,"migraine_risk":0,"frizz_risk":1,"updated_at":"2026-06-24T01:48:05.998235+05:30"},{"city":"Vadodara","state":"Gujarat","latitude":22.3072,"longitude":73.1812,"temp":29.3,"humidity":79,"rain":0.0,"pressure":998.8,"uv_index":4.5,"wind_gusts":48.6,"aqi":68,"pm10":32.7,"pm2_5":19.4,"no2":20.1,"co":224.0,"o3":29.0,"so2":18.8,"mosquito_risk":7,"arthritis_risk":5,"migraine_risk":3,"frizz_risk":1,"updated_at":"2026-06-24T01:48:05.998246+05:30"},{"city":"Rajkot","state":"Gujarat","latitude":22.3039,"longitude":70.8022,"temp":28.6,"humidity":76,"rain":0.0,"pressure":989.2,"uv_index":7.55,"wind_gusts":43.9,"aqi":70,"pm10":35.3,"pm2_5":16.2,"no2":5.8,"co":109.0,"o3":42.0,"so2":6.3,"mosquito_risk":7,"arthritis_risk":5,"migraine_risk":7,"frizz_risk":1,"updated_at":"2026-06-24T01:48:05.998254+05:30"},{"city":"Thane","state":"Maharashtra","latitude":19.2183,"longitude":72.9781,"temp":24.9,"humidity":99,"rain":0.3,"pressure":1004.5,"uv_index":1.8,"wind_gusts":28.8,"aqi":36,"pm10":34.7,"pm2_5":12.7,"no2":7.8,"co":313.0,"o3":50.0,"so2":5.0,"mosquito_risk":6,"arthritis_risk":5,"migraine_risk":0,"frizz_risk":1,"updated_at":"2026-06-24T01:48:05.998262+05:30"},{"city":"Nagpur","state":"Maharashtra","latitude":21.1458,"longitude":79.0882,"temp":26.8,"humidity":89,"rain":0.1,"pressure":969.6,"uv_index":8.85,"wind_gusts":28.4,"aqi":54,"pm10":10.6,"pm2_5":10.5,"no2":14.7,"co":184.0,"o3":56.0,"so2":8.0,"mosquito_risk":10,"arthritis_risk":5,"migraine_risk":7,"frizz_risk":1,"updated_at":"2026-06-24T01:48:05.998271+05:30"},{"city":"Nashik","state":"Maharashtra","latitude":19.9975,"longitude":73.7898,"temp":22.8,"humidity":96,"rain":0.0,"pressure":941.4,"uv_index":2.55,"wind_gusts":39.2,"aqi":25,"pm10":6.5,"pm2_5":4.2,"no2":9.4,"co":147.0,"o3":43.0,"so2":6.7,"mosquito_risk":3,"arthritis_risk":5,"migraine_risk":3,"frizz_risk":1,"updated_at":"2026-06-24T01:48:05.998278+05:30"},{"city":"Aurangabad","state":"Maharashtra","latitude":19.8762,"longitude":75.3433,"temp":23.5,"humidity":93,"rain":0.1,"pressure":940.0,"uv_index":2.1,"wind_gusts":39.2,"aqi":28,"pm10":6.2,"pm2_5":5.5,"no2":10.7,"co":166.0,"o3":48.0,"so2":6.5,"mosquito_risk":6,"arthritis_risk":5,"migraine_risk":3,"frizz_risk":1,"updated_at":"2026-06-24T01:48:05.998287+05:30"},{"city":"Solapur","state":"Maharashtra","latitude":17.6599,"longitude":75.9064,"temp":24.0,"humidity":92,"rain":0.0,"pressure":953.9,"uv_index":5.85,"wind_gusts":49.3,"aqi":21,"pm10":3.4,"pm2_5":3.3,"no2":7.1,"co":129.0,"o3":35.0,"so2":2.3,"mosquito_risk":3,"arthritis_risk":5,"migraine_risk":3,"frizz_risk":1,"updated_at":"2026-06-24T01:48:05.998294+05:30"},{"city":"Kolhapur","state":"Maharashtra","latitude":16.705,"longitude":74.2433,"temp":21.9,"humidity":97,"rain":0.1,"pressure":945.1,"uv_index":4.75,"wind_gusts":45.4,"aqi":19,"pm10":2.5,"pm2_5":2.4,"no2":4.9,"co":128.0,"o3":44.0,"so2":1.5,"mosquito_risk":6,"arthritis_risk":5,"migraine_risk":3,"frizz_risk":1,"updated_at":"2026-06-24T01:48:05.998301+05:30"},{"city":"Goa","state":"Goa","latitude":15.2993,"longitude":74.124,"temp":23.2,"humidity":97,"rain":0.2,"pressure":997.4,"uv_index":6.0,"wind_gusts":27.0,"aqi":31,"pm10":12.9,"pm2_5":7.1,"no2":1.8,"co":216.0,"o3":51.0,"so2":0.5,"mosquito_risk":6,"arthritis_risk":5,"migraine_risk":3,"frizz_risk":1,"updated_at":"2026-06-24T01:48:05.998309+05:30"},{"city":"Jodhpur","state":"Rajasthan","latitude":26.2389,"longitude":73.0243,"temp":31.9,"humidity":45,"rain":0.0,"pressure":975.9,"uv_index":8.4,"wind_gusts":38.2,"aqi":137,"pm10":154.6,"pm2_5":43.4,"no2":6.9,"co":144.0,"o3":46.0,"so2":2.0,"mosquito_risk":0,"arthritis_risk":5,"migraine_risk":7,"frizz_risk":1,"updated_at":"2026-06-24T01:48:05.998316+05:30"},{"city":"Udaipur","state":"Rajasthan","latitude":24.5854,"longitude":73.7125,"temp":27.9,"humidity":53,"rain":0.0,"pressure":941.3,"uv_index":8.8,"wind_gusts":31.7,"aqi":71,"pm10":75.7,"pm2_5":29.0,"no2":7.7,"co":150.0,"o3":52.0,"so2":3.9,"mosquito_risk":4,"arthritis_risk":5,"migraine_risk":7,"frizz_risk":1,"updated_at":"2026-06-24T01:48:05.998323+05:30"},{"city":"Kota","state":"Rajasthan","latitude":25.2138,"longitude":75.8648,"temp":30.3,"humidity":58,"rain":0.0,"pressure":972.8,"uv_index":8.3,"wind_gusts":32.0,"aqi":83,"pm10":38.6,"pm2_5":23.1,"no2":8.1,"co":191.0,"o3":63.0,"so2":5.0,"mosquito_risk":0,"arthritis_risk":5,"migraine_risk":7,"frizz_risk":1,"updated_at":"2026-06-24T01:48:05.998330+05:30"},{"city":"Bikaner","state":"Rajasthan","latitude":28.0229,"longitude":73.3119,"temp":32.0,"humidity":39,"rain":0.0,"pressure":974.2,"uv_index":8.45,"wind_gusts":31.0,"aqi":141,"pm10":229.1,"pm2_5":61.5,"no2":3.2,"co":152.0,"o3":61.0,"so2":3.1,"mosquito_risk":0,"arthritis_risk":5,"migraine_risk":7,"frizz_risk":1,"updated_at":"2026-06-24T01:48:05.998337+05:30"},{"city":"Ajmer","state":"Rajasthan","latitude":26.4499,"longitude":74.6399,"temp":28.4,"humidity":53,"rain":0.0,"pressure":948.5,"uv_index":8.35,"wind_gusts":41.8,"aqi":86,"pm10":77.5,"pm2_5":29.9,"no2":10.1,"co":239.0,"o3":49.0,"so2":4.4,"mosquito_risk":4,"arthritis_risk":5,"migraine_risk":7,"frizz_risk":1,"updated_at":"2026-06-24T01:48:05.998344+05:30"},{"city":"Gwalior","state":"Madhya Pradesh","latitude":26.2183,"longitude":78.1828,"temp":30.6,"humidity":53,"rain":0.0,"pressure":977.3,"uv_index":7.65,"wind_gusts":34.9,"aqi":109,"pm10":99.9,"pm2_5":40.6,"no2":12.3,"co":177.0,"o3":53.0,"so2":3.4,"mosquito_risk":0,"arthritis_risk":5,"migraine_risk":7,"frizz_risk":1,"updated_at":"2026-06-24T01:48:05.998351+05:30"},{"city":"Indore","state":"Madhya Pradesh","latitude":22.7196,"longitude":75.8577,"temp":25.5,"humidity":79,"rain":0.0,"pressure":943.4,"uv_index":7.15,"wind_gusts":48.2,"aqi":67,"pm10":41.7,"pm2_5":34.0,"no2":21.0,"co":358.0,"o3":42.0,"so2":8.2,"mosquito_risk":7,"arthritis_risk":5,"migraine_risk":7,"frizz_risk":1,"updated_at":"2026-06-24T01:48:05.998358+05:30"},{"city":"Bhopal","state":"Madhya Pradesh","latitude":23.2599,"longitude":77.4126,"temp":24.8,"humidity":87,"rain":0.0,"pressure":949.3,"uv_index":2.2,"wind_gusts":24.5,"aqi":57,"pm10":15.7,"pm2_5":13.8,"no2":7.1,"co":277.0,"o3":61.0,"so2":2.6,"mosquito_risk":3,"arthritis_risk":5,"migraine_risk":3,"frizz_risk":1,"updated_at":"2026-06-24T01:48:05.998365+05:30"},{"city":"Jabalpur","state":"Madhya Pradesh","latitude":23.1815,"longitude":79.9864,"temp":25.8,"humidity":88,"rain":0.0,"pressure":957.6,"uv_index":7.85,"wind_gusts":31.7,"aqi":66,"pm10":21.8,"pm2_5":16.1,"no2":9.0,"co":226.0,"o3":62.0,"so2":2.7,"mosquito_risk":7,"arthritis_risk":5,"migraine_risk":7,"frizz_risk":1,"updated_at":"2026-06-24T01:48:05.998372+05:30"},{"city":"Ujjain","state":"Madhya Pradesh","latitude":23.1765,"longitude":75.7885,"temp":26.6,"humidity":72,"rain":0.0,"pressure":949.2,"uv_index":7.3,"wind_gusts":34.2,"aqi":71,"pm10":39.9,"pm2_5":29.9,"no2":10.3,"co":329.0,"o3":58.0,"so2":4.7,"mosquito_risk":7,"arthritis_risk":5,"migraine_risk":7,"frizz_risk":1,"updated_at":"2026-06-24T01:48:05.998380+05:30"},{"city":"Visakhapatnam","state":"Andhra Pradesh","latitude":17.6868,"longitude":83.2185,"temp":29.0,"humidity":69,"rain":0.0,"pressure":999.7,"uv_index":8.05,"wind_gusts":38.9,"aqi":74,"pm10":25.1,"pm2_5":22.6,"no2":24.2,"co":359.0,"o3":62.0,"so2":35.5,"mosquito_risk":7,"arthritis_risk":5,"migraine_risk":7,"frizz_risk":1,"updated_at":"2026-06-24T01:48:05.998387+05:30"},{"city":"Vijayawada","state":"Andhra Pradesh","latitude":16.5062,"longitude":80.648,"temp":29.7,"humidity":60,"rain":0.0,"pressure":999.3,"uv_index":8.8,"wind_gusts":34.6,"aqi":64,"pm10":9.7,"pm2_5":9.3,"no2":8.5,"co":189.0,"o3":46.0,"so2":3.2,"mosquito_risk":4,"arthritis_risk":5,"migraine_risk":7,"frizz_risk":1,"updated_at":"2026-06-24T01:48:05.998394+05:30"},{"city":"Guntur","state":"Andhra Pradesh","latitude":16.3067,"longitude":80.4365,"temp":30.0,"humidity":55,"rain":0.0,"pressure":1000.7,"uv_index":8.7,"wind_gusts":37.4,"aqi":54,"pm10":9.1,"pm2_5":8.7,"no2":8.3,"co":169.0,"o3":45.0,"so2":2.9,"mosquito_risk":4,"arthritis_risk":5,"migraine_risk":4,"frizz_risk":1,"updated_at":"2026-06-24T01:48:05.998401+05:30"},{"city":"Nellore","state":"Andhra Pradesh","latitude":14.4426,"longitude":79.9865,"temp":29.5,"humidity":60,"rain":0.0,"pressure":1003.7,"uv_index":8.85,"wind_gusts":49.3,"aqi":38,"pm10":9.0,"pm2_5":8.3,"no2":10.3,"co":126.0,"o3":45.0,"so2":4.1,"mosquito_risk":4,"arthritis_risk":5,"migraine_risk":4,"frizz_risk":1,"updated_at":"2026-06-24T01:48:05.998409+05:30"},{"city":"Kurnool","state":"Andhra Pradesh","latitude":15.8281,"longitude":78.0373,"temp":26.9,"humidity":66,"rain":0.0,"pressure":975.2,"uv_index":7.75,"wind_gusts":56.9,"aqi":22,"pm10":3.9,"pm2_5":3.4,"no2":9.3,"co":122.0,"o3":33.0,"so2":5.7,"mosquito_risk":7,"arthritis_risk":5,"migraine_risk":7,"frizz_risk":1,"updated_at":"2026-06-24T01:48:05.998417+05:30"},{"city":"Kakinada","state":"Andhra Pradesh","latitude":16.9891,"longitude":82.2475,"temp":28.2,"humidity":88,"rain":0.0,"pressure":1003.7,"uv_index":8.85,"wind_gusts":35.6,"aqi":62,"pm10":17.1,"pm2_5":13.3,"no2":4.7,"co":391.0,"o3":77.0,"so2":4.4,"mosquito_risk":7,"arthritis_risk":5,"migraine_risk":4,"frizz_risk":1,"updated_at":"2026-06-24T01:48:05.998424+05:30"},{"city":"Tirupati","state":"Andhra Pradesh","latitude":13.6288,"longitude":79.4192,"temp":28.1,"humidity":59,"rain":0.0,"pressure":989.3,"uv_index":8.15,"wind_gusts":40.3,"aqi":30,"pm10":11.2,"pm2_5":10.4,"no2":19.4,"co":134.0,"o3":20.0,"so2":2.0,"mosquito_risk":4,"arthritis_risk":5,"migraine_risk":7,"frizz_risk":1,"updated_at":"2026-06-24T01:48:05.998431+05:30"},{"city":"Warangal","state":"Telangana","latitude":17.9689,"longitude":79.5941,"temp":28.3,"humidity":63,"rain":0.0,"pressure":975.4,"uv_index":7.95,"wind_gusts":43.6,"aqi":43,"pm10":10.2,"pm2_5":10.0,"no2":14.9,"co":190.0,"o3":30.0,"so2":3.7,"mosquito_risk":7,"arthritis_risk":5,"migraine_risk":7,"frizz_risk":1,"updated_at":"2026-06-24T01:48:05.998438+05:30"},{"city":"Nizamabad","state":"Telangana","latitude":18.6725,"longitude":78.0941,"temp":28.2,"humidity":58,"rain":0.0,"pressure":961.5,"uv_index":5.2,"wind_gusts":40.3,"aqi":27,"pm10":6.9,"pm2_5":6.5,"no2":8.8,"co":192.0,"o3":39.0,"so2":2.7,"mosquito_risk":4,"arthritis_risk":5,"migraine_risk":3,"frizz_risk":1,"updated_at":"2026-06-24T01:48:05.998445+05:30"},{"city":"Mysore","state":"Karnataka","latitude":12.2958,"longitude":76.6396,"temp":21.3,"humidity":88,"rain":0.0,"pressure":927.6,"uv_index":5.6,"wind_gusts":54.7,"aqi":21,"pm10":2.4,"pm2_5":2.2,"no2":5.6,"co":129.0,"o3":40.0,"so2":1.6,"mosquito_risk":3,"arthritis_risk":5,"migraine_risk":3,"frizz_risk":1,"updated_at":"2026-06-24T01:48:05.998452+05:30"},{"city":"Mangalore","state":"Karnataka","latitude":12.9141,"longitude":74.856,"temp":23.6,"humidity":100,"rain":0.1,"pressure":1007.8,"uv_index":8.55,"wind_gusts":42.5,"aqi":31,"pm10":13.4,"pm2_5":8.0,"no2":3.9,"co":156.0,"o3":38.0,"so2":1.5,"mosquito_risk":6,"arthritis_risk":5,"migraine_risk":4,"frizz_risk":1,"updated_at":"2026-06-24T01:48:05.998458+05:30"},{"city":"Hubli-Dharwad","state":"Karnataka","latitude":15.3647,"longitude":75.124,"temp":21.6,"humidity":97,"rain":0.0,"pressure":939.2,"uv_index":7.5,"wind_gusts":54.4,"aqi":20,"pm10":0.9,"pm2_5":0.8,"no2":3.3,"co":104.0,"o3":41.0,"so2":0.7,"mosquito_risk":3,"arthritis_risk":5,"migraine_risk":7,"frizz_risk":1,"updated_at":"2026-06-24T01:48:05.998466+05:30"},{"city":"Belgaum","state":"Karnataka","latitude":15.8497,"longitude":74.4977,"temp":20.6,"humidity":98,"rain":0.1,"pressure":923.5,"uv_index":6.2,"wind_gusts":48.2,"aqi":19,"pm10":1.5,"pm2_5":1.4,"no2":3.9,"co":103.0,"o3":45.0,"so2":0.9,"mosquito_risk":6,"arthritis_risk":5,"migraine_risk":7,"frizz_risk":1,"updated_at":"2026-06-24T01:48:09.311695+05:30"},{"city":"Coimbatore","state":"Tamil Nadu","latitude":11.0168,"longitude":76.9558,"temp":23.4,"humidity":90,"rain":0.0,"pressure":961.1,"uv_index":8.15,"wind_gusts":50.0,"aqi":19,"pm10":4.8,"pm2_5":4.0,"no2":7.5,"co":188.0,"o3":32.0,"so2":2.7,"mosquito_risk":3,"arthritis_risk":5,"migraine_risk":7,"frizz_risk":1,"updated_at":"2026-06-24T01:48:09.311729+05:30"},{"city":"Madurai","state":"Tamil Nadu","latitude":9.9252,"longitude":78.1198,"temp":28.6,"humidity":62,"rain":0.0,"pressure":992.1,"uv_index":7.4,"wind_gusts":30.2,"aqi":66,"pm10":30.6,"pm2_5":28.8,"no2":39.7,"co":165.0,"o3":3.0,"so2":8.7,"mosquito_risk":7,"arthritis_risk":5,"migraine_risk":7,"frizz_risk":1,"updated_at":"2026-06-24T01:48:09.311742+05:30"},{"city":"Trichy","state":"Tamil Nadu","latitude":10.7905,"longitude":78.7047,"temp":28.5,"humidity":64,"rain":0.0,"pressure":998.7,"uv_index":8.45,"wind_gusts":47.2,"aqi":24,"pm10":7.7,"pm2_5":6.0,"no2":6.3,"co":117.0,"o3":40.0,"so2":2.9,"mosquito_risk":7,"arthritis_risk":5,"migraine_risk":7,"frizz_risk":1,"updated_at":"2026-06-24T01:48:09.311752+05:30"},{"city":"Salem","state":"Tamil Nadu","latitude":11.6643,"longitude":78.146,"temp":26.0,"humidity":80,"rain":0.0,"pressure":976.5,"uv_index":8.45,"wind_gusts":27.4,"aqi":46,"pm10":19.6,"pm2_5":17.1,"no2":23.1,"co":353.0,"o3":30.0,"so2":7.7,"mosquito_risk":7,"arthritis_risk":5,"migraine_risk":7,"frizz_risk":1,"updated_at":"2026-06-24T01:48:09.311762+05:30"},{"city":"Tirunelveli","state":"Tamil Nadu","latitude":8.7139,"longitude":77.7567,"temp":28.4,"humidity":62,"rain":0.0,"pressure":1002.7,"uv_index":8.4,"wind_gusts":42.1,"aqi":26,"pm10":9.5,"pm2_5":7.1,"no2":5.8,"co":183.0,"o3":41.0,"so2":2.2,"mosquito_risk":7,"arthritis_risk":5,"migraine_risk":4,"frizz_risk":1,"updated_at":"2026-06-24T01:48:09.311771+05:30"},{"city":"Vellore","state":"Tamil Nadu","latitude":12.9165,"longitude":79.1325,"temp":27.7,"humidity":59,"rain":0.0,"pressure":983.0,"uv_index":8.1,"wind_gusts":45.7,"aqi":38,"pm10":14.6,"pm2_5":13.4,"no2":16.8,"co":248.0,"o3":30.0,"so2":4.1,"mosquito_risk":4,"arthritis_risk":5,"migraine_risk":7,"frizz_risk":1,"updated_at":"2026-06-24T01:48:09.311781+05:30"},{"city":"Erode","state":"Tamil Nadu","latitude":11.341,"longitude":77.7172,"temp":26.7,"humidity":74,"rain":0.0,"pressure":988.3,"uv_index":7.75,"wind_gusts":34.2,"aqi":33,"pm10":13.4,"pm2_5":11.6,"no2":16.1,"co":153.0,"o3":31.0,"so2":4.2,"mosquito_risk":7,"arthritis_risk":5,"migraine_risk":7,"frizz_risk":1,"updated_at":"2026-06-24T01:48:09.311790+05:30"},{"city":"Kochi","state":"Kerala","latitude":9.9312,"longitude":76.2673,"temp":25.8,"humidity":95,"rain":0.0,"pressure":1009.6,"uv_index":7.65,"wind_gusts":38.2,"aqi":44,"pm10":13.0,"pm2_5":10.6,"no2":12.2,"co":166.0,"o3":25.0,"so2":3.3,"mosquito_risk":7,"arthritis_risk":0,"migraine_risk":4,"frizz_risk":1,"updated_at":"2026-06-24T01:48:09.311798+05:30"},{"city":"Thiruvananthapuram","state":"Kerala","latitude":8.5241,"longitude":76.9366,"temp":25.1,"humidity":91,"rain":0.0,"pressure":1008.7,"uv_index":8.35,"wind_gusts":46.1,"aqi":32,"pm10":10.9,"pm2_5":7.0,"no2":3.1,"co":197.0,"o3":47.0,"so2":1.3,"mosquito_risk":7,"arthritis_risk":0,"migraine_risk":4,"frizz_risk":1,"updated_at":"2026-06-24T01:48:09.311805+05:30"},{"city":"Kozhikode","state":"Kerala","latitude":11.2588,"longitude":75.7804,"temp":25.2,"humidity":91,"rain":0.3,"pressure":1008.7,"uv_index":7.85,"wind_gusts":26.6,"aqi":26,"pm10":11.3,"pm2_5":5.9,"no2":1.2,"co":193.0,"o3":52.0,"so2":0.6,"mosquito_risk":10,"arthritis_risk":0,"migraine_risk":4,"frizz_risk":1,"updated_at":"2026-06-24T01:48:09.311812+05:30"},{"city":"Thrissur","state":"Kerala","latitude":10.5276,"longitude":76.2144,"temp":24.6,"humidity":97,"rain":0.1,"pressure":1007.9,"uv_index":6.85,"wind_gusts":34.2,"aqi":41,"pm10":16.5,"pm2_5":14.3,"no2":12.5,"co":299.0,"o3":24.0,"so2":3.4,"mosquito_risk":6,"arthritis_risk":5,"migraine_risk":4,"frizz_risk":1,"updated_at":"2026-06-24T01:48:09.311821+05:30"},{"city":"Kannur","state":"Kerala","latitude":11.8745,"longitude":75.3704,"temp":24.2,"humidity":98,"rain":0.1,"pressure":1008.3,"uv_index":8.6,"wind_gusts":31.3,"aqi":26,"pm10":12.8,"pm2_5":7.6,"no2":4.6,"co":171.0,"o3":38.0,"so2":1.2,"mosquito_risk":6,"arthritis_risk":0,"migraine_risk":4,"frizz_risk":1,"updated_at":"2026-06-24T01:48:09.311828+05:30"},{"city":"Patna","state":"Bihar","latitude":25.5941,"longitude":85.1376,"temp":30.5,"humidity":78,"rain":0.0,"pressure":993.4,"uv_index":8.85,"wind_gusts":26.6,"aqi":155,"pm10":139.7,"pm2_5":103.8,"no2":61.7,"co":610.0,"o3":19.0,"so2":21.6,"mosquito_risk":3,"arthritis_risk":5,"migraine_risk":7,"frizz_risk":1,"updated_at":"2026-06-24T01:48:09.311836+05:30"},{"city":"Gaya","state":"Bihar","latitude":24.7914,"longitude":85.0002,"temp":30.2,"humidity":57,"rain":0.0,"pressure":987.6,"uv_index":8.9,"wind_gusts":30.2,"aqi":124,"pm10":79.4,"pm2_5":44.2,"no2":12.9,"co":234.0,"o3":74.0,"so2":12.5,"mosquito_risk":0,"arthritis_risk":5,"migraine_risk":7,"frizz_risk":1,"updated_at":"2026-06-24T01:48:09.311843+05:30"},{"city":"Muzaffarpur","state":"Bihar","latitude":26.1209,"longitude":85.3647,"temp":28.1,"humidity":85,"rain":0.0,"pressure":993.7,"uv_index":8.85,"wind_gusts":27.4,"aqi":160,"pm10":106.4,"pm2_5":84.3,"no2":26.6,"co":968.0,"o3":61.0,"so2":16.4,"mosquito_risk":7,"arthritis_risk":5,"migraine_risk":7,"frizz_risk":1,"updated_at":"2026-06-24T01:48:09.311850+05:30"},{"city":"Bhagalpur","state":"Bihar","latitude":25.2425,"longitude":87.0117,"temp":28.5,"humidity":84,"rain":0.0,"pressure":994.3,"uv_index":8.8,"wind_gusts":30.6,"aqi":146,"pm10":72.2,"pm2_5":62.4,"no2":17.2,"co":462.0,"o3":87.0,"so2":31.7,"mosquito_risk":7,"arthritis_risk":5,"migraine_risk":7,"frizz_risk":1,"updated_at":"2026-06-24T01:48:09.311857+05:30"},{"city":"Ranchi","state":"Jharkhand","latitude":23.3441,"longitude":85.3096,"temp":24.8,"humidity":74,"rain":0.0,"pressure":933.0,"uv_index":7.3,"wind_gusts":30.6,"aqi":88,"pm10":41.9,"pm2_5":27.4,"no2":6.8,"co":227.0,"o3":81.0,"so2":2.9,"mosquito_risk":3,"arthritis_risk":5,"migraine_risk":7,"frizz_risk":1,"updated_at":"2026-06-24T01:48:09.311865+05:30"},{"city":"Jamshedpur","state":"Jharkhand","latitude":22.8046,"longitude":86.2029,"temp":27.5,"humidity":80,"rain":0.0,"pressure":985.5,"uv_index":8.65,"wind_gusts":30.2,"aqi":112,"pm10":49.1,"pm2_5":43.0,"no2":13.8,"co":261.0,"o3":105.0,"so2":27.4,"mosquito_risk":7,"arthritis_risk":5,"migraine_risk":7,"frizz_risk":1,"updated_at":"2026-06-24T01:48:09.311872+05:30"},{"city":"Dhanbad","state":"Jharkhand","latitude":23.7957,"longitude":86.4304,"temp":27.9,"humidity":72,"rain":0.0,"pressure":974.0,"uv_index":8.8,"wind_gusts":30.2,"aqi":147,"pm10":61.7,"pm2_5":48.5,"no2":33.4,"co":225.0,"o3":67.0,"so2":82.9,"mosquito_risk":7,"arthritis_risk":5,"migraine_risk":7,"frizz_risk":1,"updated_at":"2026-06-24T01:48:09.311879+05:30"},{"city":"Bokaro","state":"Jharkhand","latitude":23.6693,"longitude":86.1511,"temp":28.2,"humidity":70,"rain":0.0,"pressure":977.9,"uv_index":8.7,"wind_gusts":28.8,"aqi":124,"pm10":58.9,"pm2_5":43.4,"no2":22.2,"co":248.0,"o3":77.0,"so2":54.4,"mosquito_risk":7,"arthritis_risk":5,"migraine_risk":7,"frizz_risk":1,"updated_at":"2026-06-24T01:48:09.311886+05:30"},{"city":"Bhubaneswar","state":"Odisha","latitude":20.2961,"longitude":85.8245,"temp":27.8,"humidity":87,"rain":0.1,"pressure":997.6,"uv_index":8.9,"wind_gusts":31.3,"aqi":72,"pm10":26.4,"pm2_5":25.4,"no2":11.3,"co":320.0,"o3":75.0,"so2":7.0,"mosquito_risk":10,"arthritis_risk":5,"migraine_risk":7,"frizz_risk":1,"updated_at":"2026-06-24T01:48:09.311893+05:30"},{"city":"Cuttack","state":"Odisha","latitude":20.4625,"longitude":85.8828,"temp":27.7,"humidity":90,"rain":0.1,"pressure":999.6,"uv_index":7.35,"wind_gusts":35.6,"aqi":72,"pm10":26.4,"pm2_5":25.4,"no2":11.3,"co":341.0,"o3":75.0,"so2":7.0,"mosquito_risk":10,"arthritis_risk":5,"migraine_risk":7,"frizz_risk":1,"updated_at":"2026-06-24T01:48:09.311900+05:30"},{"city":"Rourkela","state":"Odisha","latitude":22.2604,"longitude":84.8536,"temp":25.7,"humidity":96,"rain":0.5,"pressure":980.4,"uv_index":8.5,"wind_gusts":28.4,"aqi":104,"pm10":44.0,"pm2_5":33.5,"no2":11.5,"co":392.0,"o3":72.0,"so2":8.4,"mosquito_risk":10,"arthritis_risk":5,"migraine_risk":7,"frizz_risk":1,"updated_at":"2026-06-24T01:48:09.311907+05:30"},{"city":"Raipur","state":"Chhattisgarh","latitude":21.2514,"longitude":81.6296,"temp":27.4,"humidity":78,"rain":0.0,"pressure":970.9,"uv_index":8.9,"wind_gusts":31.7,"aqi":82,"pm10":34.7,"pm2_5":34.5,"no2":47.1,"co":367.0,"o3":43.0,"so2":64.4,"mosquito_risk":7,"arthritis_risk":5,"migraine_risk":7,"frizz_risk":1,"updated_at":"2026-06-24T01:48:09.311914+05:30"},{"city":"Bhilai","state":"Chhattisgarh","latitude":21.1938,"longitude":81.3509,"temp":26.4,"humidity":85,"rain":0.0,"pressure":971.4,"uv_index":8.95,"wind_gusts":29.9,"aqi":72,"pm10":25.4,"pm2_5":25.2,"no2":29.2,"co":415.0,"o3":75.0,"so2":48.4,"mosquito_risk":7,"arthritis_risk":5,"migraine_risk":7,"frizz_risk":1,"updated_at":"2026-06-24T01:48:09.311927+05:30"},{"city":"Guwahati","state":"Assam","latitude":26.1158,"longitude":91.7086,"temp":24.5,"humidity":99,"rain":0.1,"pressure":996.3,"uv_index":8.75,"wind_gusts":25.6,"aqi":60,"pm10":22.1,"pm2_5":18.7,"no2":8.4,"co":428.0,"o3":68.0,"so2":3.3,"mosquito_risk":6,"arthritis_risk":5,"migraine_risk":7,"frizz_risk":1,"updated_at":"2026-06-24T01:48:09.311935+05:30"},{"city":"Agartala","state":"Tripura","latitude":23.8315,"longitude":91.2868,"temp":26.3,"humidity":90,"rain":0.0,"pressure":1001.1,"uv_index":8.0,"wind_gusts":28.1,"aqi":69,"pm10":17.5,"pm2_5":15.9,"no2":14.2,"co":264.0,"o3":49.0,"so2":3.1,"mosquito_risk":7,"arthritis_risk":5,"migraine_risk":4,"frizz_risk":1,"updated_at":"2026-06-24T01:48:09.311942+05:30"},{"city":"Shillong","state":"Meghalaya","latitude":25.5788,"longitude":91.8933,"temp":19.4,"humidity":96,"rain":0.0,"pressure":853.2,"uv_index":7.8,"wind_gusts":21.6,"aqi":42,"pm10":5.3,"pm2_5":4.0,"no2":4.3,"co":221.0,"o3":89.0,"so2":2.7,"mosquito_risk":3,"arthritis_risk":10,"migraine_risk":7,"frizz_risk":1,"updated_at":"2026-06-24T01:48:09.311949+05:30"},{"city":"Imphal","state":"Manipur","latitude":24.817,"longitude":93.9368,"temp":22.4,"humidity":95,"rain":0.1,"pressure":919.1,"uv_index":8.15,"wind_gusts":29.9,"aqi":53,"pm10":15.9,"pm2_5":15.3,"no2":11.3,"co":472.0,"o3":44.0,"so2":2.9,"mosquito_risk":6,"arthritis_risk":5,"migraine_risk":7,"frizz_risk":1,"updated_at":"2026-06-24T01:48:09.311956+05:30"},{"city":"Aizawl","state":"Mizoram","latitude":23.7271,"longitude":92.7176,"temp":19.5,"humidity":97,"rain":0.0,"pressure":888.2,"uv_index":8.2,"wind_gusts":19.4,"aqi":28,"pm10":5.9,"pm2_5":5.7,"no2":5.6,"co":188.0,"o3":38.0,"so2":0.5,"mosquito_risk":3,"arthritis_risk":10,"migraine_risk":7,"frizz_risk":1,"updated_at":"2026-06-24T01:48:09.311963+05:30"},{"city":"Kohima","state":"Nagaland","latitude":25.6701,"longitude":94.1077,"temp":18.1,"humidity":95,"rain":0.0,"pressure":850.8,"uv_index":8.45,"wind_gusts":25.9,"aqi":40,"pm10":8.7,"pm2_5":6.8,"no2":5.0,"co":289.0,"o3":57.0,"so2":0.9,"mosquito_risk":3,"arthritis_risk":10,"migraine_risk":7,"frizz_risk":1,"updated_at":"2026-06-24T01:48:09.311985+05:30"},{"city":"Gangtok","state":"Sikkim","latitude":27.3314,"longitude":88.6138,"temp":17.3,"humidity":97,"rain":0.1,"pressure":833.7,"uv_index":9.05,"wind_gusts":36.7,"aqi":62,"pm10":11.1,"pm2_5":8.9,"no2":6.6,"co":403.0,"o3":115.0,"so2":3.7,"mosquito_risk":6,"arthritis_risk":10,"migraine_risk":7,"frizz_risk":1,"updated_at":"2026-06-24T01:48:09.311993+05:30"},{"city":"Siliguri","state":"West Bengal","latitude":26.7271,"longitude":88.3953,"temp":24.0,"humidity":99,"rain":0.0,"pressure":987.9,"uv_index":8.65,"wind_gusts":22.7,"aqi":71,"pm10":24.6,"pm2_5":17.3,"no2":7.9,"co":413.0,"o3":120.0,"so2":5.4,"mosquito_risk":3,"arthritis_risk":5,"migraine_risk":7,"frizz_risk":1,"updated_at":"2026-06-24T01:48:12.631585+05:30"},{"city":"Durgapur","state":"West Bengal","latitude":23.5204,"longitude":87.3119,"temp":28.0,"humidity":82,"rain":0.0,"pressure":988.8,"uv_index":9.0,"wind_gusts":29.2,"aqi":158,"pm10":77.8,"pm2_5":71.0,"no2":36.4,"co":676.0,"o3":57.0,"so2":52.4,"mosquito_risk":7,"arthritis_risk":5,"migraine_risk":7,"frizz_risk":1,"updated_at":"2026-06-24T01:48:12.631618+05:30"},{"city":"Asansol","state":"West Bengal","latitude":23.6739,"longitude":86.9524,"temp":28.6,"humidity":74,"rain":0.0,"pressure":987.2,"uv_index":8.95,"wind_gusts":33.8,"aqi":152,"pm10":64.7,"pm2_5":54.1,"no2":36.0,"co":783.0,"o3":60.0,"so2":63.3,"mosquito_risk":7,"arthritis_risk":5,"migraine_risk":7,"frizz_risk":1,"updated_at":"2026-06-24T01:48:12.631631+05:30"},{"city":"Pondicherry","state":"Puducherry","latitude":11.9139,"longitude":79.8145,"temp":28.6,"humidity":70,"rain":0.0,"pressure":1006.7,"uv_index":7.65,"wind_gusts":32.8,"aqi":58,"pm10":12.3,"pm2_5":10.9,"no2":12.7,"co":349.0,"o3":64.0,"so2":9.5,"mosquito_risk":7,"arthritis_risk":5,"migraine_risk":4,"frizz_risk":1,"updated_at":"2026-06-24T01:48:12.631640+05:30"},{"city":"Port Blair","state":"Andaman and Nicobar Islands","latitude":11.6234,"longitude":92.7265,"temp":27.5,"humidity":82,"rain":0.0,"pressure":1005.7,"uv_index":8.65,"wind_gusts":43.9,"aqi":25,"pm10":6.8,"pm2_5":4.1,"no2":0.2,"co":83.0,"o3":49.0,"so2":0.3,"mosquito_risk":7,"arthritis_risk":5,"migraine_risk":4,"frizz_risk":1,"updated_at":"2026-06-24T01:48:12.631649+05:30"},{"city":"Haridwar","state":"Uttarakhand","latitude":29.9457,"longitude":78.1642,"temp":25.2,"humidity":90,"rain":0.0,"pressure":967.9,"uv_index":7.6,"wind_gusts":26.3,"aqi":116,"pm10":87.8,"pm2_5":58.8,"no2":42.6,"co":423.0,"o3":40.0,"so2":12.4,"mosquito_risk":7,"arthritis_risk":5,"migraine_risk":7,"frizz_risk":1,"updated_at":"2026-06-24T01:48:12.631658+05:30"},{"city":"Rishikesh","state":"Uttarakhand","latitude":30.0869,"longitude":78.2676,"temp":23.7,"humidity":89,"rain":0.0,"pressure":960.5,"uv_index":7.7,"wind_gusts":23.0,"aqi":95,"pm10":37.8,"pm2_5":30.2,"no2":18.6,"co":374.0,"o3":90.0,"so2":7.1,"mosquito_risk":3,"arthritis_risk":5,"migraine_risk":7,"frizz_risk":1,"updated_at":"2026-06-24T01:48:12.631666+05:30"},{"city":"Nainital","state":"Uttarakhand","latitude":29.3919,"longitude":79.4542,"temp":16.2,"humidity":87,"rain":0.0,"pressure":802.1,"uv_index":6.95,"wind_gusts":29.5,"aqi":83,"pm10":54.0,"pm2_5":37.0,"no2":26.8,"co":362.0,"o3":57.0,"so2":6.0,"mosquito_risk":3,"arthritis_risk":10,"migraine_risk":7,"frizz_risk":0,"updated_at":"2026-06-24T01:48:12.631674+05:30"},{"city":"Mussoorie","state":"Uttarakhand","latitude":30.4599,"longitude":78.0664,"temp":16.1,"humidity":86,"rain":0.0,"pressure":799.6,"uv_index":7.55,"wind_gusts":40.7,"aqi":80,"pm10":29.2,"pm2_5":26.9,"no2":31.9,"co":327.0,"o3":59.0,"so2":6.3,"mosquito_risk":3,"arthritis_risk":10,"migraine_risk":7,"frizz_risk":0,"updated_at":"2026-06-24T01:48:12.631681+05:30"},{"city":"Dharamshala","state":"Himachal Pradesh","latitude":32.219,"longitude":76.3234,"temp":21.6,"humidity":62,"rain":0.0,"pressure":865.2,"uv_index":7.85,"wind_gusts":31.0,"aqi":41,"pm10":15.0,"pm2_5":14.0,"no2":19.2,"co":213.0,"o3":23.0,"so2":0.0,"mosquito_risk":3,"arthritis_risk":5,"migraine_risk":7,"frizz_risk":0,"updated_at":"2026-06-24T01:48:12.631688+05:30"},{"city":"Dalhousie","state":"Himachal Pradesh","latitude":32.5387,"longitude":75.971,"temp":14.0,"humidity":83,"rain":0.0,"pressure":799.6,"uv_index":7.9,"wind_gusts":33.8,"aqi":69,"pm10":29.1,"pm2_5":26.7,"no2":37.1,"co":462.0,"o3":33.0,"so2":1.8,"mosquito_risk":3,"arthritis_risk":10,"migraine_risk":7,"frizz_risk":0,"updated_at":"2026-06-24T01:48:12.631696+05:30"},{"city":"Patiala","state":"Punjab","latitude":30.3398,"longitude":76.3869,"temp":29.2,"humidity":62,"rain":0.0,"pressure":971.5,"uv_index":7.55,"wind_gusts":23.4,"aqi":153,"pm10":142.0,"pm2_5":71.2,"no2":28.3,"co":522.0,"o3":68.0,"so2":13.3,"mosquito_risk":7,"arthritis_risk":5,"migraine_risk":7,"frizz_risk":1,"updated_at":"2026-06-24T01:48:12.631703+05:30"},{"city":"Bhatinda","state":"Punjab","latitude":30.211,"longitude":74.9455,"temp":30.5,"humidity":51,"rain":0.0,"pressure":976.5,"uv_index":8.25,"wind_gusts":27.7,"aqi":144,"pm10":129.9,"pm2_5":79.9,"no2":59.8,"co":401.0,"o3":25.0,"so2":12.2,"mosquito_risk":0,"arthritis_risk":5,"migraine_risk":7,"frizz_risk":1,"updated_at":"2026-06-24T01:48:12.631711+05:30"},{"city":"Rohtak","state":"Haryana","latitude":28.8955,"longitude":76.6066,"temp":27.7,"humidity":66,"rain":0.0,"pressure":975.1,"uv_index":7.75,"wind_gusts":24.1,"aqi":196,"pm10":476.8,"pm2_5":134.6,"no2":52.9,"co":254.0,"o3":7.0,"so2":7.5,"mosquito_risk":7,"arthritis_risk":5,"migraine_risk":7,"frizz_risk":1,"updated_at":"2026-06-24T01:48:12.631718+05:30"},{"city":"Panipat","state":"Haryana","latitude":29.3909,"longitude":76.9635,"temp":27.8,"humidity":70,"rain":0.0,"pressure":973.6,"uv_index":7.0,"wind_gusts":16.6,"aqi":644,"pm10":633.3,"pm2_5":153.7,"no2":60.7,"co":527.0,"o3":13.0,"so2":10.6,"mosquito_risk":7,"arthritis_risk":5,"migraine_risk":7,"frizz_risk":1,"updated_at":"2026-06-24T01:48:12.631725+05:30"},{"city":"Mathura","state":"Uttar Pradesh","latitude":27.4924,"longitude":77.6737,"temp":30.0,"humidity":59,"rain":0.0,"pressure":980.4,"uv_index":8.05,"wind_gusts":25.6,"aqi":233,"pm10":895.9,"pm2_5":136.4,"no2":21.2,"co":398.0,"o3":42.0,"so2":3.9,"mosquito_risk":4,"arthritis_risk":5,"migraine_risk":7,"frizz_risk":1,"updated_at":"2026-06-24T01:48:12.631732+05:30"},{"city":"Vrindavan","state":"Uttar Pradesh","latitude":27.5823,"longitude":77.7027,"temp":29.4,"humidity":63,"rain":0.0,"pressure":980.8,"uv_index":8.0,"wind_gusts":25.6,"aqi":233,"pm10":895.9,"pm2_5":136.4,"no2":21.2,"co":398.0,"o3":42.0,"so2":3.9,"mosquito_risk":7,"arthritis_risk":5,"migraine_risk":7,"frizz_risk":1,"updated_at":"2026-06-24T01:48:12.631739+05:30"},{"city":"Ayodhya","state":"Uttar Pradesh","latitude":26.7922,"longitude":82.1998,"temp":30.0,"humidity":62,"rain":0.0,"pressure":988.4,"uv_index":8.4,"wind_gusts":28.8,"aqi":144,"pm10":162.5,"pm2_5":57.4,"no2":22.1,"co":517.0,"o3":64.0,"so2":9.0,"mosquito_risk":7,"arthritis_risk":5,"migraine_risk":7,"frizz_risk":1,"updated_at":"2026-06-24T01:48:12.631746+05:30"},{"city":"Ratlam","state":"Madhya Pradesh","latitude":23.3315,"longitude":75.0367,"temp":26.4,"humidity":74,"rain":0.0,"pressure":950.1,"uv_index":8.0,"wind_gusts":37.4,"aqi":73,"pm10":39.0,"pm2_5":27.8,"no2":7.4,"co":228.0,"o3":68.0,"so2":6.7,"mosquito_risk":7,"arthritis_risk":5,"migraine_risk":7,"frizz_risk":1,"updated_at":"2026-06-24T01:48:12.631753+05:30"},{"city":"Sagar","state":"Madhya Pradesh","latitude":23.8388,"longitude":78.7378,"temp":26.4,"humidity":73,"rain":0.0,"pressure":945.8,"uv_index":8.6,"wind_gusts":33.5,"aqi":66,"pm10":26.9,"pm2_5":19.0,"no2":9.5,"co":166.0,"o3":57.0,"so2":2.7,"mosquito_risk":7,"arthritis_risk":5,"migraine_risk":7,"frizz_risk":1,"updated_at":"2026-06-24T01:48:12.631761+05:30"},{"city":"Satna","state":"Madhya Pradesh","latitude":24.6005,"longitude":80.8322,"temp":30.0,"humidity":56,"rain":0.0,"pressure":966.4,"uv_index":8.75,"wind_gusts":34.9,"aqi":94,"pm10":29.9,"pm2_5":23.0,"no2":7.8,"co":181.0,"o3":73.0,"so2":4.0,"mosquito_risk":4,"arthritis_risk":5,"migraine_risk":7,"frizz_risk":1,"updated_at":"2026-06-24T01:48:12.631769+05:30"},{"city":"Akola","state":"Maharashtra","latitude":20.7002,"longitude":77.0082,"temp":25.7,"humidity":93,"rain":0.1,"pressure":971.3,"uv_index":5.6,"wind_gusts":37.4,"aqi":36,"pm10":8.1,"pm2_5":7.7,"no2":8.8,"co":174.0,"o3":64.0,"so2":2.9,"mosquito_risk":10,"arthritis_risk":5,"migraine_risk":3,"frizz_risk":1,"updated_at":"2026-06-24T01:48:12.631777+05:30"},{"city":"Amravati","state":"Maharashtra","latitude":20.9374,"longitude":77.7796,"temp":25.4,"humidity":88,"rain":0.1,"pressure":963.6,"uv_index":8.5,"wind_gusts":33.5,"aqi":37,"pm10":7.7,"pm2_5":7.4,"no2":8.8,"co":169.0,"o3":61.0,"so2":3.2,"mosquito_risk":10,"arthritis_risk":5,"migraine_risk":7,"frizz_risk":1,"updated_at":"2026-06-24T01:48:12.631785+05:30"},{"city":"Latur","state":"Maharashtra","latitude":18.4088,"longitude":76.5604,"temp":24.9,"humidity":76,"rain":0.0,"pressure":936.3,"uv_index":5.4,"wind_gusts":42.8,"aqi":23,"pm10":3.0,"pm2_5":2.9,"no2":5.0,"co":130.0,"o3":40.0,"so2":1.6,"mosquito_risk":3,"arthritis_risk":5,"migraine_risk":3,"frizz_risk":1,"updated_at":"2026-06-24T01:48:12.631793+05:30"},{"city":"Nanded","state":"Maharashtra","latitude":19.1383,"longitude":77.3091,"temp":27.1,"humidity":72,"rain":0.0,"pressure":964.9,"uv_index":6.0,"wind_gusts":35.6,"aqi":24,"pm10":5.7,"pm2_5":5.4,"no2":9.3,"co":167.0,"o3":35.0,"so2":3.3,"mosquito_risk":7,"arthritis_risk":5,"migraine_risk":3,"frizz_risk":1,"updated_at":"2026-06-24T01:48:12.631800+05:30"},{"city":"Gulbarga","state":"Karnataka","latitude":17.3297,"longitude":76.8343,"temp":25.2,"humidity":75,"rain":0.1,"pressure":955.9,"uv_index":4.55,"wind_gusts":55.4,"aqi":23,"pm10":3.1,"pm2_5":2.7,"no2":6.9,"co":131.0,"o3":37.0,"so2":2.6,"mosquito_risk":10,"arthritis_risk":5,"migraine_risk":3,"frizz_risk":1,"updated_at":"2026-06-24T01:48:12.631807+05:30"},{"city":"Bidar","state":"Karnataka","latitude":17.9104,"longitude":77.5199,"temp":25.1,"humidity":70,"rain":0.0,"pressure":932.6,"uv_index":5.95,"wind_gusts":46.8,"aqi":24,"pm10":4.8,"pm2_5":4.3,"no2":8.5,"co":140.0,"o3":38.0,"so2":2.8,"mosquito_risk":7,"arthritis_risk":5,"migraine_risk":3,"frizz_risk":1,"updated_at":"2026-06-24T01:48:12.631814+05:30"},{"city":"Hospet","state":"Karnataka","latitude":15.2689,"longitude":76.3909,"temp":23.3,"humidity":85,"rain":0.0,"pressure":954.2,"uv_index":5.75,"wind_gusts":57.2,"aqi":21,"pm10":1.8,"pm2_5":1.6,"no2":4.0,"co":112.0,"o3":39.0,"so2":1.2,"mosquito_risk":3,"arthritis_risk":5,"migraine_risk":3,"frizz_risk":1,"updated_at":"2026-06-24T01:48:12.631821+05:30"},{"city":"Tirupur","state":"Tamil Nadu","latitude":11.1085,"longitude":77.3411,"temp":24.8,"humidity":82,"rain":0.0,"pressure":974.6,"uv_index":8.45,"wind_gusts":55.1,"aqi":37,"pm10":15.4,"pm2_5":13.7,"no2":20.3,"co":140.0,"o3":25.0,"so2":5.4,"mosquito_risk":3,"arthritis_risk":5,"migraine_risk":7,"frizz_risk":1,"updated_at":"2026-06-24T01:48:12.631828+05:30"},{"city":"Alappuzha","state":"Kerala","latitude":9.4981,"longitude":76.3388,"temp":25.6,"humidity":94,"rain":0.0,"pressure":1009.5,"uv_index":7.35,"wind_gusts":40.0,"aqi":39,"pm10":11.6,"pm2_5":8.2,"no2":7.0,"co":139.0,"o3":40.0,"so2":2.4,"mosquito_risk":7,"arthritis_risk":0,"migraine_risk":4,"frizz_risk":1,"updated_at":"2026-06-24T01:48:12.631835+05:30"},{"city":"Munnar","state":"Kerala","latitude":10.0889,"longitude":77.0595,"temp":16.1,"humidity":90,"rain":0.0,"pressure":856.0,"uv_index":7.2,"wind_gusts":38.9,"aqi":20,"pm10":4.0,"pm2_5":3.3,"no2":4.7,"co":89.0,"o3":34.0,"so2":1.2,"mosquito_risk":3,"arthritis_risk":10,"migraine_risk":7,"frizz_risk":0,"updated_at":"2026-06-24T01:48:12.631842+05:30"},{"city":"Silchar","state":"Assam","latitude":24.8333,"longitude":92.7789,"temp":25.0,"humidity":96,"rain":0.1,"pressure":1000.7,"uv_index":8.25,"wind_gusts":22.0,"aqi":65,"pm10":21.4,"pm2_5":17.2,"no2":8.7,"co":223.0,"o3":73.0,"so2":4.4,"mosquito_risk":10,"arthritis_risk":5,"migraine_risk":4,"frizz_risk":1,"updated_at":"2026-06-24T01:48:12.631849+05:30"},{"city":"Dibrugarh","state":"Assam","latitude":27.4728,"longitude":94.912,"temp":24.4,"humidity":99,"rain":0.3,"pressure":990.5,"uv_index":7.45,"wind_gusts":21.6,"aqi":64,"pm10":13.5,"pm2_5":11.2,"no2":8.0,"co":216.0,"o3":87.0,"so2":1.3,"mosquito_risk":6,"arthritis_risk":5,"migraine_risk":7,"frizz_risk":1,"updated_at":"2026-06-24T01:48:12.631856+05:30"}]