[{"city":"Delhi","state":"Delhi","latitude":28.6139,"longitude":77.209,"temp":23.3,"humidity":73,"rain":0.0,"pressure":984.2,"uv_index":5.95,"wind_gusts":30.2,"aqi":215,"pm10":391.2,"pm2_5":104.1,"mosquito_risk":3,"arthritis_risk":5,"migraine_risk":3,"frizz_risk":1,"updated_at":"2026-03-13T00:28:51.996674+05:30"},{"city":"Mumbai","state":"Maharashtra","latitude":19.076,"longitude":72.8777,"temp":28.7,"humidity":74,"rain":0.0,"pressure":1008.3,"uv_index":7.6,"wind_gusts":27.7,"aqi":205,"pm10":47.5,"pm2_5":46.0,"mosquito_risk":7,"arthritis_risk":0,"migraine_risk":4,"frizz_risk":1,"updated_at":"2026-03-13T00:28:51.996715+05:30"},{"city":"Bangalore","state":"Karnataka","latitude":12.9716,"longitude":77.5946,"temp":22.9,"humidity":53,"rain":0.0,"pressure":912.3,"uv_index":9.3,"wind_gusts":32.8,"aqi":74,"pm10":23.5,"pm2_5":21.7,"mosquito_risk":0,"arthritis_risk":5,"migraine_risk":7,"frizz_risk":0,"updated_at":"2026-03-13T00:28:51.996730+05:30"},{"city":"Hyderabad","state":"Telangana","latitude":17.385,"longitude":78.4867,"temp":24.7,"humidity":49,"rain":0.0,"pressure":953.5,"uv_index":8.65,"wind_gusts":23.4,"aqi":99,"pm10":43.0,"pm2_5":33.3,"mosquito_risk":0,"arthritis_risk":5,"migraine_risk":7,"frizz_risk":0,"updated_at":"2026-03-13T00:28:51.996740+05:30"},{"city":"Chennai","state":"Tamil Nadu","latitude":13.0827,"longitude":80.2707,"temp":25.4,"humidity":92,"rain":0.0,"pressure":1008.4,"uv_index":9.0,"wind_gusts":29.5,"aqi":77,"pm10":25.3,"pm2_5":21.3,"mosquito_risk":7,"arthritis_risk":0,"migraine_risk":4,"frizz_risk":1,"updated_at":"2026-03-13T00:28:51.996749+05:30"},{"city":"Kolkata","state":"West Bengal","latitude":22.5726,"longitude":88.3639,"temp":24.0,"humidity":94,"rain":0.0,"pressure":1007.3,"uv_index":7.95,"wind_gusts":20.9,"aqi":139,"pm10":33.4,"pm2_5":30.3,"mosquito_risk":3,"arthritis_risk":5,"migraine_risk":4,"frizz_risk":1,"updated_at":"2026-03-13T00:28:51.996757+05:30"},{"city":"Pune","state":"Maharashtra","latitude":18.5204,"longitude":73.8567,"temp":24.7,"humidity":62,"rain":0.0,"pressure":948.7,"uv_index":8.15,"wind_gusts":25.9,"aqi":140,"pm10":64.7,"pm2_5":62.2,"mosquito_risk":3,"arthritis_risk":5,"migraine_risk":7,"frizz_risk":1,"updated_at":"2026-03-13T00:28:51.996769+05:30"},{"city":"Ahmedabad","state":"Gujarat","latitude":23.0225,"longitude":72.5714,"temp":26.5,"humidity":35,"rain":0.0,"pressure":1003.0,"uv_index":7.45,"wind_gusts":30.6,"aqi":72,"pm10":76.1,"pm2_5":61.7,"mosquito_risk":4,"arthritis_risk":5,"migraine_risk":4,"frizz_risk":0,"updated_at":"2026-03-13T00:28:51.996777+05:30"},{"city":"Jaipur","state":"Rajasthan","latitude":26.9124,"longitude":75.7873,"temp":25.1,"humidity":24,"rain":0.0,"pressure":960.7,"uv_index":6.4,"wind_gusts":42.8,"aqi":104,"pm10":85.7,"pm2_5":32.6,"mosquito_risk":4,"arthritis_risk":5,"migraine_risk":7,"frizz_risk":0,"updated_at":"2026-03-13T00:28:51.996785+05:30"},{"city":"Lucknow","state":"Uttar Pradesh","latitude":26.8467,"longitude":80.9462,"temp":25.6,"humidity":51,"rain":0.0,"pressure":993.9,"uv_index":6.5,"wind_gusts":28.1,"aqi":155,"pm10":370.7,"pm2_5":86.8,"mosquito_risk":4,"arthritis_risk":5,"migraine_risk":7,"frizz_risk":0,"updated_at":"2026-03-13T00:28:51.996792+05:30"},{"city":"Kanpur","state":"Uttar Pradesh","latitude":26.4499,"longitude":80.3319,"temp":25.3,"humidity":61,"rain":0.0,"pressure":992.2,"uv_index":6.0,"wind_gusts":18.0,"aqi":218,"pm10":449.8,"pm2_5":98.7,"mosquito_risk":7,"arthritis_risk":5,"migraine_risk":3,"frizz_risk":1,"updated_at":"2026-03-13T00:28:51.996800+05:30"},{"city":"Chandigarh","state":"Chandigarh","latitude":30.7333,"longitude":76.7794,"temp":19.5,"humidity":79,"rain":0.0,"pressure":970.4,"uv_index":5.95,"wind_gusts":32.0,"aqi":96,"pm10":59.6,"pm2_5":49.8,"mosquito_risk":3,"arthritis_risk":5,"migraine_risk":3,"frizz_risk":0,"updated_at":"2026-03-13T00:28:51.996807+05:30"},{"city":"Srinagar","state":"Jammu and Kashmir","latitude":34.0837,"longitude":74.7973,"temp":7.4,"humidity":88,"rain":0.0,"pressure":841.9,"uv_index":6.35,"wind_gusts":23.0,"aqi":80,"pm10":33.1,"pm2_5":31.3,"mosquito_risk":3,"arthritis_risk":10,"migraine_risk":7,"frizz_risk":0,"updated_at":"2026-03-13T00:28:51.996814+05:30"},{"city":"Jammu","state":"Jammu and Kashmir","latitude":32.7266,"longitude":74.857,"temp":18.0,"humidity":89,"rain":0.0,"pressure":975.4,"uv_index":6.05,"wind_gusts":39.6,"aqi":83,"pm10":54.0,"pm2_5":41.7,"mosquito_risk":3,"arthritis_risk":10,"migraine_risk":7,"frizz_risk":1,"updated_at":"2026-03-13T00:28:51.996822+05:30"},{"city":"Amritsar","state":"Punjab","latitude":31.634,"longitude":74.8723,"temp":18.8,"humidity":88,"rain":0.0,"pressure":983.5,"uv_index":6.65,"wind_gusts":32.4,"aqi":151,"pm10":57.6,"pm2_5":35.3,"mosquito_risk":3,"arthritis_risk":10,"migraine_risk":7,"frizz_risk":1,"updated_at":"2026-03-13T00:28:51.996829+05:30"},{"city":"Ludhiana","state":"Punjab","latitude":30.901,"longitude":75.8573,"temp":20.6,"humidity":80,"rain":0.0,"pressure":981.2,"uv_index":6.2,"wind_gusts":59.4,"aqi":151,"pm10":57.4,"pm2_5":35.7,"mosquito_risk":3,"arthritis_risk":5,"migraine_risk":7,"frizz_risk":1,"updated_at":"2026-03-13T00:28:51.996835+05:30"},{"city":"Jalandhar","state":"Punjab","latitude":31.326,"longitude":75.5762,"temp":19.9,"humidity":83,"rain":0.0,"pressure":982.6,"uv_index":6.4,"wind_gusts":31.7,"aqi":134,"pm10":69.4,"pm2_5":34.3,"mosquito_risk":3,"arthritis_risk":10,"migraine_risk":7,"frizz_risk":1,"updated_at":"2026-03-13T00:28:51.996844+05:30"},{"city":"Dehradun","state":"Uttarakhand","latitude":30.6284,"longitude":78.0322,"temp":12.6,"humidity":65,"rain":0.0,"pressure":829.9,"uv_index":5.85,"wind_gusts":37.1,"aqi":55,"pm10":29.2,"pm2_5":13.0,"mosquito_risk":3,"arthritis_risk":5,"migraine_risk":3,"frizz_risk":0,"updated_at":"2026-03-13T00:28:51.996851+05:30"},{"city":"Shimla","state":"Himachal Pradesh","latitude":31.1048,"longitude":77.1734,"temp":10.4,"humidity":71,"rain":0.0,"pressure":783.5,"uv_index":6.5,"wind_gusts":42.5,"aqi":70,"pm10":47.6,"pm2_5":26.9,"mosquito_risk":3,"arthritis_risk":5,"migraine_risk":7,"frizz_risk":0,"updated_at":"2026-03-13T00:28:51.996857+05:30"},{"city":"Manali","state":"Himachal Pradesh","latitude":32.2396,"longitude":77.1887,"temp":12.1,"humidity":37,"rain":0.0,"pressure":820.0,"uv_index":3.7,"wind_gusts":44.6,"aqi":46,"pm10":10.8,"pm2_5":6.0,"mosquito_risk":0,"arthritis_risk":5,"migraine_risk":3,"frizz_risk":1,"updated_at":"2026-03-13T00:28:51.996865+05:30"},{"city":"Gurgaon","state":"Haryana","latitude":28.4595,"longitude":77.0266,"temp":21.2,"humidity":84,"rain":0.0,"pressure":982.6,"uv_index":6.15,"wind_gusts":31.0,"aqi":797,"pm10":551.3,"pm2_5":140.6,"mosquito_risk":3,"arthritis_risk":5,"migraine_risk":7,"frizz_risk":1,"updated_at":"2026-03-13T00:28:51.996872+05:30"},{"city":"Noida","state":"Uttar Pradesh","latitude":28.5355,"longitude":77.391,"temp":23.2,"humidity":72,"rain":0.0,"pressure":985.7,"uv_index":6.0,"wind_gusts":29.9,"aqi":797,"pm10":551.3,"pm2_5":140.6,"mosquito_risk":3,"arthritis_risk":5,"migraine_risk":3,"frizz_risk":1,"updated_at":"2026-03-13T00:28:51.996879+05:30"},{"city":"Ghaziabad","state":"Uttar Pradesh","latitude":28.6692,"longitude":77.4538,"temp":22.0,"humidity":78,"rain":0.0,"pressure":983.8,"uv_index":5.95,"wind_gusts":26.3,"aqi":173,"pm10":365.1,"pm2_5":105.0,"mosquito_risk":3,"arthritis_risk":5,"migraine_risk":3,"frizz_risk":1,"updated_at":"2026-03-13T00:28:51.996885+05:30"},{"city":"Faridabad","state":"Haryana","latitude":28.4089,"longitude":77.3178,"temp":21.5,"humidity":77,"rain":0.0,"pressure":984.9,"uv_index":6.2,"wind_gusts":29.9,"aqi":797,"pm10":551.3,"pm2_5":140.6,"mosquito_risk":3,"arthritis_risk":5,"migraine_risk":7,"frizz_risk":1,"updated_at":"2026-03-13T00:28:51.996891+05:30"},{"city":"Meerut","state":"Uttar Pradesh","latitude":28.9845,"longitude":77.7064,"temp":21.1,"humidity":81,"rain":0.0,"pressure":982.5,"uv_index":5.95,"wind_gusts":24.5,"aqi":173,"pm10":365.1,"pm2_5":105.0,"mosquito_risk":3,"arthritis_risk":5,"migraine_risk":3,"frizz_risk":1,"updated_at":"2026-03-13T00:28:51.996898+05:30"},{"city":"Agra","state":"Uttar Pradesh","latitude":27.1767,"longitude":78.0081,"temp":22.1,"humidity":43,"rain":0.0,"pressure":988.8,"uv_index":6.2,"wind_gusts":31.7,"aqi":365,"pm10":332.5,"pm2_5":118.7,"mosquito_risk":0,"arthritis_risk":5,"migraine_risk":7,"frizz_risk":0,"updated_at":"2026-03-13T00:28:51.996905+05:30"},{"city":"Varanasi","state":"Uttar Pradesh","latitude":25.3176,"longitude":82.9739,"temp":23.6,"humidity":61,"rain":0.0,"pressure":998.2,"uv_index":7.3,"wind_gusts":23.8,"aqi":111,"pm10":92.4,"pm2_5":47.3,"mosquito_risk":3,"arthritis_risk":5,"migraine_risk":7,"frizz_risk":0,"updated_at":"2026-03-13T00:28:51.996914+05:30"},{"city":"Prayagraj","state":"Uttar Pradesh","latitude":25.4358,"longitude":81.8463,"temp":24.5,"humidity":55,"rain":0.0,"pressure":996.8,"uv_index":6.6,"wind_gusts":23.0,"aqi":122,"pm10":156.9,"pm2_5":60.3,"mosquito_risk":0,"arthritis_risk":5,"migraine_risk":7,"frizz_risk":0,"updated_at":"2026-03-13T00:28:51.996921+05:30"},{"city":"Gorakhpur","state":"Uttar Pradesh","latitude":26.7606,"longitude":83.3732,"temp":22.8,"humidity":74,"rain":0.0,"pressure":997.9,"uv_index":7.05,"wind_gusts":18.4,"aqi":196,"pm10":137.4,"pm2_5":120.6,"mosquito_risk":3,"arthritis_risk":5,"migraine_risk":7,"frizz_risk":1,"updated_at":"2026-03-13T00:28:51.996928+05:30"},{"city":"Bareilly","state":"Uttar Pradesh","latitude":28.367,"longitude":79.4304,"temp":20.8,"humidity":72,"rain":0.0,"pressure":987.3,"uv_index":6.25,"wind_gusts":23.4,"aqi":137,"pm10":464.7,"pm2_5":99.4,"mosquito_risk":3,"arthritis_risk":5,"migraine_risk":7,"frizz_risk":0,"updated_at":"2026-03-13T00:28:51.996934+05:30"},{"city":"Aligarh","state":"Uttar Pradesh","latitude":27.8974,"longitude":78.088,"temp":20.4,"humidity":68,"rain":0.0,"pressure":986.2,"uv_index":5.9,"wind_gusts":29.9,"aqi":462,"pm10":713.4,"pm2_5":136.9,"mosquito_risk":3,"arthritis_risk":5,"migraine_risk":3,"frizz_risk":0,"updated_at":"2026-03-13T00:28:51.996941+05:30"},{"city":"Moradabad","state":"Uttar Pradesh","latitude":28.8386,"longitude":78.7733,"temp":21.4,"humidity":74,"rain":0.0,"pressure":984.4,"uv_index":6.05,"wind_gusts":26.3,"aqi":150,"pm10":202.1,"pm2_5":81.0,"mosquito_risk":3,"arthritis_risk":5,"migraine_risk":7,"frizz_risk":1,"updated_at":"2026-03-13T00:28:51.996954+05:30"},{"city":"Saharanpur","state":"Uttar Pradesh","latitude":29.9637,"longitude":77.546,"temp":20.0,"humidity":79,"rain":0.0,"pressure":976.9,"uv_index":5.25,"wind_gusts":24.8,"aqi":153,"pm10":249.6,"pm2_5":98.7,"mosquito_risk":3,"arthritis_risk":5,"migraine_risk":3,"frizz_risk":1,"updated_at":"2026-03-13T00:28:51.996960+05:30"},{"city":"Jhansi","state":"Uttar Pradesh","latitude":25.4484,"longitude":78.5685,"temp":23.6,"humidity":42,"rain":0.0,"pressure":978.7,"uv_index":6.7,"wind_gusts":29.9,"aqi":55,"pm10":15.0,"pm2_5":14.5,"mosquito_risk":0,"arthritis_risk":5,"migraine_risk":7,"frizz_risk":0,"updated_at":"2026-03-13T00:28:55.216914+05:30"},{"city":"Surat","state":"Gujarat","latitude":21.1702,"longitude":72.8311,"temp":26.4,"humidity":71,"rain":0.0,"pressure":1006.9,"uv_index":7.3,"wind_gusts":26.3,"aqi":141,"pm10":48.4,"pm2_5":47.1,"mosquito_risk":7,"arthritis_risk":5,"migraine_risk":4,"frizz_risk":1,"updated_at":"2026-03-13T00:28:55.216943+05:30"},{"city":"Vadodara","state":"Gujarat","latitude":22.3072,"longitude":73.1812,"temp":27.7,"humidity":30,"rain":0.0,"pressure":1004.8,"uv_index":7.45,"wind_gusts":26.6,"aqi":88,"pm10":69.2,"pm2_5":66.1,"mosquito_risk":4,"arthritis_risk":5,"migraine_risk":4,"frizz_risk":0,"updated_at":"2026-03-13T00:28:55.216953+05:30"},{"city":"Rajkot","state":"Gujarat","latitude":22.3039,"longitude":70.8022,"temp":24.7,"humidity":57,"rain":0.0,"pressure":995.8,"uv_index":7.3,"wind_gusts":31.3,"aqi":81,"pm10":54.6,"pm2_5":26.7,"mosquito_risk":0,"arthritis_risk":5,"migraine_risk":7,"frizz_risk":0,"updated_at":"2026-03-13T00:28:55.216961+05:30"},{"city":"Thane","state":"Maharashtra","latitude":19.2183,"longitude":72.9781,"temp":27.0,"humidity":74,"rain":0.0,"pressure":1007.8,"uv_index":7.6,"wind_gusts":41.4,"aqi":205,"pm10":47.5,"pm2_5":46.0,"mosquito_risk":7,"arthritis_risk":5,"migraine_risk":4,"frizz_risk":1,"updated_at":"2026-03-13T00:28:55.216969+05:30"},{"city":"Nagpur","state":"Maharashtra","latitude":21.1458,"longitude":79.0882,"temp":25.0,"humidity":52,"rain":0.0,"pressure":973.2,"uv_index":8.0,"wind_gusts":16.6,"aqi":89,"pm10":37.8,"pm2_5":31.0,"mosquito_risk":4,"arthritis_risk":5,"migraine_risk":7,"frizz_risk":0,"updated_at":"2026-03-13T00:28:55.216976+05:30"},{"city":"Nashik","state":"Maharashtra","latitude":19.9975,"longitude":73.7898,"temp":25.3,"humidity":40,"rain":0.0,"pressure":946.2,"uv_index":7.8,"wind_gusts":33.8,"aqi":95,"pm10":30.6,"pm2_5":29.0,"mosquito_risk":4,"arthritis_risk":5,"migraine_risk":7,"frizz_risk":0,"updated_at":"2026-03-13T00:28:55.216983+05:30"},{"city":"Aurangabad","state":"Maharashtra","latitude":19.8762,"longitude":75.3433,"temp":24.7,"humidity":37,"rain":0.0,"pressure":944.2,"uv_index":8.3,"wind_gusts":20.5,"aqi":82,"pm10":33.2,"pm2_5":32.0,"mosquito_risk":0,"arthritis_risk":5,"migraine_risk":7,"frizz_risk":0,"updated_at":"2026-03-13T00:28:55.216990+05:30"},{"city":"Solapur","state":"Maharashtra","latitude":17.6599,"longitude":75.9064,"temp":26.2,"humidity":57,"rain":0.0,"pressure":956.5,"uv_index":8.5,"wind_gusts":18.0,"aqi":97,"pm10":35.0,"pm2_5":32.5,"mosquito_risk":4,"arthritis_risk":5,"migraine_risk":7,"frizz_risk":1,"updated_at":"2026-03-13T00:28:55.216998+05:30"},{"city":"Kolhapur","state":"Maharashtra","latitude":16.705,"longitude":74.2433,"temp":22.4,"humidity":69,"rain":0.0,"pressure":947.8,"uv_index":8.65,"wind_gusts":27.7,"aqi":151,"pm10":83.8,"pm2_5":81.0,"mosquito_risk":3,"arthritis_risk":5,"migraine_risk":7,"frizz_risk":1,"updated_at":"2026-03-13T00:28:55.217005+05:30"},{"city":"Goa","state":"Goa","latitude":15.2993,"longitude":74.124,"temp":26.8,"humidity":89,"rain":0.0,"pressure":997.8,"uv_index":8.7,"wind_gusts":33.5,"aqi":141,"pm10":62.4,"pm2_5":55.5,"mosquito_risk":7,"arthritis_risk":5,"migraine_risk":7,"frizz_risk":1,"updated_at":"2026-03-13T00:28:55.217012+05:30"},{"city":"Jodhpur","state":"Rajasthan","latitude":26.2389,"longitude":73.0243,"temp":25.5,"humidity":33,"rain":0.0,"pressure":984.5,"uv_index":6.55,"wind_gusts":25.9,"aqi":72,"pm10":118.5,"pm2_5":30.0,"mosquito_risk":4,"arthritis_risk":5,"migraine_risk":7,"frizz_risk":0,"updated_at":"2026-03-13T00:28:55.217018+05:30"},{"city":"Udaipur","state":"Rajasthan","latitude":24.5854,"longitude":73.7125,"temp":22.6,"humidity":25,"rain":0.0,"pressure":948.0,"uv_index":7.55,"wind_gusts":38.5,"aqi":65,"pm10":19.0,"pm2_5":11.3,"mosquito_risk":0,"arthritis_risk":5,"migraine_risk":7,"frizz_risk":0,"updated_at":"2026-03-13T00:28:55.217025+05:30"},{"city":"Kota","state":"Rajasthan","latitude":25.2138,"longitude":75.8648,"temp":21.5,"humidity":45,"rain":0.0,"pressure":979.3,"uv_index":6.75,"wind_gusts":34.2,"aqi":73,"pm10":34.9,"pm2_5":33.6,"mosquito_risk":0,"arthritis_risk":5,"migraine_risk":7,"frizz_risk":0,"updated_at":"2026-03-13T00:28:55.217032+05:30"},{"city":"Bikaner","state":"Rajasthan","latitude":28.0229,"longitude":73.3119,"temp":25.5,"humidity":52,"rain":0.0,"pressure":983.9,"uv_index":6.15,"wind_gusts":28.4,"aqi":104,"pm10":57.9,"pm2_5":29.8,"mosquito_risk":4,"arthritis_risk":5,"migraine_risk":7,"frizz_risk":0,"updated_at":"2026-03-13T00:28:55.217039+05:30"},{"city":"Ajmer","state":"Rajasthan","latitude":26.4499,"longitude":74.6399,"temp":24.2,"humidity":36,"rain":0.0,"pressure":955.8,"uv_index":6.75,"wind_gusts":34.2,"aqi":57,"pm10":45.9,"pm2_5":21.2,"mosquito_risk":0,"arthritis_risk":5,"migraine_risk":7,"frizz_risk":0,"updated_at":"2026-03-13T00:28:55.217046+05:30"},{"city":"Gwalior","state":"Madhya Pradesh","latitude":26.2183,"longitude":78.1828,"temp":24.7,"humidity":32,"rain":0.0,"pressure":983.7,"uv_index":6.3,"wind_gusts":33.8,"aqi":55,"pm10":11.9,"pm2_5":11.7,"mosquito_risk":0,"arthritis_risk":5,"migraine_risk":7,"frizz_risk":0,"updated_at":"2026-03-13T00:28:55.217053+05:30"},{"city":"Indore","state":"Madhya Pradesh","latitude":22.7196,"longitude":75.8577,"temp":20.2,"humidity":46,"rain":0.0,"pressure":948.5,"uv_index":7.75,"wind_gusts":29.2,"aqi":76,"pm10":35.4,"pm2_5":34.7,"mosquito_risk":0,"arthritis_risk":5,"migraine_risk":7,"frizz_risk":0,"updated_at":"2026-03-13T00:28:55.217059+05:30"},{"city":"Bhopal","state":"Madhya Pradesh","latitude":23.2599,"longitude":77.4126,"temp":23.6,"humidity":43,"rain":0.0,"pressure":954.0,"uv_index":7.6,"wind_gusts":28.8,"aqi":66,"pm10":34.0,"pm2_5":30.4,"mosquito_risk":0,"arthritis_risk":5,"migraine_risk":7,"frizz_risk":0,"updated_at":"2026-03-13T00:28:55.217066+05:30"},{"city":"Jabalpur","state":"Madhya Pradesh","latitude":23.1815,"longitude":79.9864,"temp":25.1,"humidity":44,"rain":0.0,"pressure":961.7,"uv_index":7.75,"wind_gusts":20.5,"aqi":80,"pm10":48.2,"pm2_5":31.8,"mosquito_risk":4,"arthritis_risk":5,"migraine_risk":7,"frizz_risk":0,"updated_at":"2026-03-13T00:28:55.217073+05:30"},{"city":"Ujjain","state":"Madhya Pradesh","latitude":23.1765,"longitude":75.7885,"temp":22.1,"humidity":42,"rain":0.0,"pressure":954.4,"uv_index":7.65,"wind_gusts":27.7,"aqi":92,"pm10":21.2,"pm2_5":20.5,"mosquito_risk":0,"arthritis_risk":5,"migraine_risk":7,"frizz_risk":0,"updated_at":"2026-03-13T00:28:55.217080+05:30"},{"city":"Visakhapatnam","state":"Andhra Pradesh","latitude":17.6868,"longitude":83.2185,"temp":25.5,"humidity":90,"rain":0.0,"pressure":1004.6,"uv_index":8.65,"wind_gusts":40.3,"aqi":91,"pm10":33.8,"pm2_5":29.7,"mosquito_risk":7,"arthritis_risk":5,"migraine_risk":4,"frizz_risk":1,"updated_at":"2026-03-13T00:28:55.217088+05:30"},{"city":"Vijayawada","state":"Andhra Pradesh","latitude":16.5062,"longitude":80.648,"temp":25.2,"humidity":89,"rain":0.0,"pressure":1003.4,"uv_index":8.7,"wind_gusts":28.4,"aqi":75,"pm10":24.7,"pm2_5":22.8,"mosquito_risk":7,"arthritis_risk":5,"migraine_risk":4,"frizz_risk":1,"updated_at":"2026-03-13T00:28:55.217095+05:30"},{"city":"Guntur","state":"Andhra Pradesh","latitude":16.3067,"longitude":80.4365,"temp":24.7,"humidity":92,"rain":0.0,"pressure":1004.4,"uv_index":8.7,"wind_gusts":36.0,"aqi":72,"pm10":23.3,"pm2_5":21.4,"mosquito_risk":3,"arthritis_risk":5,"migraine_risk":4,"frizz_risk":1,"updated_at":"2026-03-13T00:28:55.217102+05:30"},{"city":"Nellore","state":"Andhra Pradesh","latitude":14.4426,"longitude":79.9865,"temp":24.6,"humidity":93,"rain":0.0,"pressure":1006.9,"uv_index":8.9,"wind_gusts":28.1,"aqi":72,"pm10":19.7,"pm2_5":17.8,"mosquito_risk":3,"arthritis_risk":5,"migraine_risk":4,"frizz_risk":1,"updated_at":"2026-03-13T00:28:55.217109+05:30"},{"city":"Kurnool","state":"Andhra Pradesh","latitude":15.8281,"longitude":78.0373,"temp":27.8,"humidity":44,"rain":0.0,"pressure":977.2,"uv_index":8.65,"wind_gusts":25.9,"aqi":77,"pm10":30.5,"pm2_5":27.0,"mosquito_risk":4,"arthritis_risk":5,"migraine_risk":7,"frizz_risk":0,"updated_at":"2026-03-13T00:28:55.217117+05:30"},{"city":"Kakinada","state":"Andhra Pradesh","latitude":16.9891,"longitude":82.2475,"temp":23.6,"humidity":96,"rain":0.0,"pressure":1008.6,"uv_index":8.65,"wind_gusts":41.0,"aqi":71,"pm10":28.3,"pm2_5":23.6,"mosquito_risk":3,"arthritis_risk":0,"migraine_risk":4,"frizz_risk":1,"updated_at":"2026-03-13T00:28:55.217123+05:30"},{"city":"Tirupati","state":"Andhra Pradesh","latitude":13.6288,"longitude":79.4192,"temp":24.6,"humidity":76,"rain":0.0,"pressure":993.1,"uv_index":9.05,"wind_gusts":36.4,"aqi":103,"pm10":44.0,"pm2_5":42.5,"mosquito_risk":3,"arthritis_risk":5,"migraine_risk":7,"frizz_risk":1,"updated_at":"2026-03-13T00:28:55.217129+05:30"},{"city":"Warangal","state":"Telangana","latitude":17.9689,"longitude":79.5941,"temp":26.9,"humidity":44,"rain":0.0,"pressure":978.3,"uv_index":8.45,"wind_gusts":11.9,"aqi":105,"pm10":53.4,"pm2_5":46.9,"mosquito_risk":4,"arthritis_risk":5,"migraine_risk":7,"frizz_risk":0,"updated_at":"2026-03-13T00:28:55.217136+05:30"},{"city":"Nizamabad","state":"Telangana","latitude":18.6725,"longitude":78.0941,"temp":25.0,"humidity":52,"rain":0.0,"pressure":964.4,"uv_index":8.35,"wind_gusts":19.8,"aqi":103,"pm10":61.0,"pm2_5":54.8,"mosquito_risk":4,"arthritis_risk":5,"migraine_risk":7,"frizz_risk":0,"updated_at":"2026-03-13T00:28:55.217142+05:30"},{"city":"Mysore","state":"Karnataka","latitude":12.2958,"longitude":76.6396,"temp":23.1,"humidity":49,"rain":0.0,"pressure":928.3,"uv_index":9.3,"wind_gusts":34.9,"aqi":66,"pm10":20.7,"pm2_5":19.2,"mosquito_risk":0,"arthritis_risk":5,"migraine_risk":7,"frizz_risk":0,"updated_at":"2026-03-13T00:28:55.217149+05:30"},{"city":"Mangalore","state":"Karnataka","latitude":12.9141,"longitude":74.856,"temp":29.3,"humidity":81,"rain":0.0,"pressure":1006.8,"uv_index":8.9,"wind_gusts":32.8,"aqi":105,"pm10":49.9,"pm2_5":42.6,"mosquito_risk":7,"arthritis_risk":5,"migraine_risk":4,"frizz_risk":1,"updated_at":"2026-03-13T00:28:55.217155+05:30"},{"city":"Hubli-Dharwad","state":"Karnataka","latitude":15.3647,"longitude":75.124,"temp":22.6,"humidity":47,"rain":0.0,"pressure":940.5,"uv_index":8.85,"wind_gusts":35.6,"aqi":105,"pm10":24.1,"pm2_5":21.2,"mosquito_risk":0,"arthritis_risk":5,"migraine_risk":7,"frizz_risk":0,"updated_at":"2026-03-13T00:28:55.217162+05:30"},{"city":"Belgaum","state":"Karnataka","latitude":15.8497,"longitude":74.4977,"temp":24.4,"humidity":55,"rain":0.0,"pressure":925.9,"uv_index":8.9,"wind_gusts":37.4,"aqi":104,"pm10":55.4,"pm2_5":50.8,"mosquito_risk":0,"arthritis_risk":5,"migraine_risk":7,"frizz_risk":0,"updated_at":"2026-03-13T00:28:58.434693+05:30"},{"city":"Coimbatore","state":"Tamil Nadu","latitude":11.0168,"longitude":76.9558,"temp":23.6,"humidity":66,"rain":0.0,"pressure":962.6,"uv_index":9.3,"wind_gusts":44.3,"aqi":72,"pm10":29.3,"pm2_5":28.5,"mosquito_risk":3,"arthritis_risk":5,"migraine_risk":7,"frizz_risk":1,"updated_at":"2026-03-13T00:28:58.434724+05:30"},{"city":"Madurai","state":"Tamil Nadu","latitude":9.9252,"longitude":78.1198,"temp":25.6,"humidity":85,"rain":0.0,"pressure":994.3,"uv_index":9.2,"wind_gusts":32.0,"aqi":71,"pm10":24.7,"pm2_5":23.6,"mosquito_risk":7,"arthritis_risk":5,"migraine_risk":7,"frizz_risk":1,"updated_at":"2026-03-13T00:28:58.434734+05:30"},{"city":"Trichy","state":"Tamil Nadu","latitude":10.7905,"longitude":78.7047,"temp":24.7,"humidity":93,"rain":0.0,"pressure":1001.0,"uv_index":9.15,"wind_gusts":28.1,"aqi":80,"pm10":25.4,"pm2_5":23.5,"mosquito_risk":3,"arthritis_risk":5,"migraine_risk":4,"frizz_risk":1,"updated_at":"2026-03-13T00:28:58.434743+05:30"},{"city":"Salem","state":"Tamil Nadu","latitude":11.6643,"longitude":78.146,"temp":24.9,"humidity":81,"rain":0.0,"pressure":977.9,"uv_index":9.2,"wind_gusts":27.7,"aqi":78,"pm10":36.7,"pm2_5":35.4,"mosquito_risk":3,"arthritis_risk":5,"migraine_risk":7,"frizz_risk":1,"updated_at":"2026-03-13T00:28:58.434750+05:30"},{"city":"Tirunelveli","state":"Tamil Nadu","latitude":8.7139,"longitude":77.7567,"temp":25.9,"humidity":80,"rain":0.0,"pressure":1004.5,"uv_index":8.45,"wind_gusts":27.4,"aqi":60,"pm10":20.5,"pm2_5":19.0,"mosquito_risk":7,"arthritis_risk":5,"migraine_risk":4,"frizz_risk":1,"updated_at":"2026-03-13T00:28:58.434757+05:30"},{"city":"Vellore","state":"Tamil Nadu","latitude":12.9165,"longitude":79.1325,"temp":24.1,"humidity":89,"rain":0.0,"pressure":985.9,"uv_index":9.1,"wind_gusts":36.4,"aqi":92,"pm10":46.8,"pm2_5":45.4,"mosquito_risk":3,"arthritis_risk":5,"migraine_risk":7,"frizz_risk":1,"updated_at":"2026-03-13T00:28:58.434764+05:30"},{"city":"Erode","state":"Tamil Nadu","latitude":11.341,"longitude":77.7172,"temp":25.7,"humidity":76,"rain":0.0,"pressure":989.8,"uv_index":9.15,"wind_gusts":24.5,"aqi":75,"pm10":24.9,"pm2_5":24.2,"mosquito_risk":7,"arthritis_risk":5,"migraine_risk":7,"frizz_risk":1,"updated_at":"2026-03-13T00:28:58.434770+05:30"},{"city":"Kochi","state":"Kerala","latitude":9.9312,"longitude":76.2673,"temp":27.1,"humidity":86,"rain":0.0,"pressure":1009.4,"uv_index":9.05,"wind_gusts":35.6,"aqi":93,"pm10":41.8,"pm2_5":40.5,"mosquito_risk":7,"arthritis_risk":0,"migraine_risk":4,"frizz_risk":1,"updated_at":"2026-03-13T00:28:58.434776+05:30"},{"city":"Thiruvananthapuram","state":"Kerala","latitude":8.5241,"longitude":76.9366,"temp":27.8,"humidity":81,"rain":0.0,"pressure":1008.5,"uv_index":7.9,"wind_gusts":25.9,"aqi":83,"pm10":17.2,"pm2_5":13.5,"mosquito_risk":7,"arthritis_risk":0,"migraine_risk":4,"frizz_risk":1,"updated_at":"2026-03-13T00:28:58.434783+05:30"},{"city":"Kozhikode","state":"Kerala","latitude":11.2588,"longitude":75.7804,"temp":28.8,"humidity":82,"rain":0.0,"pressure":1008.0,"uv_index":9.0,"wind_gusts":31.7,"aqi":100,"pm10":35.7,"pm2_5":29.6,"mosquito_risk":7,"arthritis_risk":0,"migraine_risk":4,"frizz_risk":1,"updated_at":"2026-03-13T00:28:58.434790+05:30"},{"city":"Thrissur","state":"Kerala","latitude":10.5276,"longitude":76.2144,"temp":26.8,"humidity":86,"rain":0.0,"pressure":1007.6,"uv_index":9.05,"wind_gusts":39.2,"aqi":95,"pm10":36.2,"pm2_5":34.3,"mosquito_risk":7,"arthritis_risk":5,"migraine_risk":4,"frizz_risk":1,"updated_at":"2026-03-13T00:28:58.434797+05:30"},{"city":"Kannur","state":"Kerala","latitude":11.8745,"longitude":75.3704,"temp":28.5,"humidity":82,"rain":0.0,"pressure":1007.4,"uv_index":9.0,"wind_gusts":34.9,"aqi":97,"pm10":45.1,"pm2_5":39.5,"mosquito_risk":7,"arthritis_risk":5,"migraine_risk":4,"frizz_risk":1,"updated_at":"2026-03-13T00:28:58.434804+05:30"},{"city":"Patna","state":"Bihar","latitude":25.5941,"longitude":85.1376,"temp":24.8,"humidity":81,"rain":0.0,"pressure":1001.3,"uv_index":7.45,"wind_gusts":22.0,"aqi":197,"pm10":162.5,"pm2_5":136.9,"mosquito_risk":3,"arthritis_risk":5,"migraine_risk":4,"frizz_risk":1,"updated_at":"2026-03-13T00:28:58.434816+05:30"},{"city":"Gaya","state":"Bihar","latitude":24.7914,"longitude":85.0002,"temp":25.8,"humidity":51,"rain":0.0,"pressure":994.7,"uv_index":7.6,"wind_gusts":21.6,"aqi":169,"pm10":189.1,"pm2_5":70.1,"mosquito_risk":4,"arthritis_risk":5,"migraine_risk":7,"frizz_risk":0,"updated_at":"2026-03-13T00:28:58.434823+05:30"},{"city":"Muzaffarpur","state":"Bihar","latitude":26.1209,"longitude":85.3647,"temp":23.3,"humidity":88,"rain":0.0,"pressure":1001.4,"uv_index":7.4,"wind_gusts":25.6,"aqi":222,"pm10":144.4,"pm2_5":138.8,"mosquito_risk":3,"arthritis_risk":5,"migraine_risk":4,"frizz_risk":1,"updated_at":"2026-03-13T00:28:58.434829+05:30"},{"city":"Bhagalpur","state":"Bihar","latitude":25.2425,"longitude":87.0117,"temp":23.9,"humidity":90,"rain":0.0,"pressure":1002.8,"uv_index":7.5,"wind_gusts":33.5,"aqi":185,"pm10":111.3,"pm2_5":105.2,"mosquito_risk":3,"arthritis_risk":5,"migraine_risk":4,"frizz_risk":1,"updated_at":"2026-03-13T00:28:58.434836+05:30"},{"city":"Ranchi","state":"Jharkhand","latitude":23.3441,"longitude":85.3096,"temp":22.2,"humidity":47,"rain":0.0,"pressure":938.7,"uv_index":8.2,"wind_gusts":33.8,"aqi":153,"pm10":100.6,"pm2_5":35.7,"mosquito_risk":0,"arthritis_risk":5,"migraine_risk":7,"frizz_risk":0,"updated_at":"2026-03-13T00:28:58.434843+05:30"},{"city":"Jamshedpur","state":"Jharkhand","latitude":22.8046,"longitude":86.2029,"temp":25.5,"humidity":87,"rain":0.0,"pressure":991.7,"uv_index":8.05,"wind_gusts":18.7,"aqi":165,"pm10":59.8,"pm2_5":58.1,"mosquito_risk":7,"arthritis_risk":5,"migraine_risk":7,"frizz_risk":1,"updated_at":"2026-03-13T00:28:58.434849+05:30"},{"city":"Dhanbad","state":"Jharkhand","latitude":23.7957,"longitude":86.4304,"temp":24.6,"humidity":86,"rain":0.0,"pressure":981.0,"uv_index":8.0,"wind_gusts":20.9,"aqi":187,"pm10":134.6,"pm2_5":122.9,"mosquito_risk":3,"arthritis_risk":5,"migraine_risk":7,"frizz_risk":1,"updated_at":"2026-03-13T00:28:58.434855+05:30"},{"city":"Bokaro","state":"Jharkhand","latitude":23.6693,"longitude":86.1511,"temp":24.3,"humidity":58,"rain":0.0,"pressure":985.2,"uv_index":8.0,"wind_gusts":23.4,"aqi":175,"pm10":131.8,"pm2_5":76.1,"mosquito_risk":0,"arthritis_risk":5,"migraine_risk":7,"frizz_risk":0,"updated_at":"2026-03-13T00:28:58.434861+05:30"},{"city":"Bhubaneswar","state":"Odisha","latitude":20.2961,"longitude":85.8245,"temp":25.7,"humidity":92,"rain":0.0,"pressure":1003.6,"uv_index":8.35,"wind_gusts":33.5,"aqi":123,"pm10":39.3,"pm2_5":35.0,"mosquito_risk":7,"arthritis_risk":5,"migraine_risk":4,"frizz_risk":1,"updated_at":"2026-03-13T00:28:58.434868+05:30"},{"city":"Cuttack","state":"Odisha","latitude":20.4625,"longitude":85.8828,"temp":25.7,"humidity":93,"rain":0.0,"pressure":1005.5,"uv_index":8.35,"wind_gusts":29.5,"aqi":123,"pm10":39.3,"pm2_5":35.0,"mosquito_risk":7,"arthritis_risk":5,"migraine_risk":4,"frizz_risk":1,"updated_at":"2026-03-13T00:28:58.434874+05:30"},{"city":"Rourkela","state":"Odisha","latitude":22.2604,"longitude":84.8536,"temp":26.9,"humidity":54,"rain":0.0,"pressure":985.7,"uv_index":8.0,"wind_gusts":16.2,"aqi":151,"pm10":110.1,"pm2_5":48.7,"mosquito_risk":4,"arthritis_risk":5,"migraine_risk":7,"frizz_risk":1,"updated_at":"2026-03-13T00:28:58.434881+05:30"},{"city":"Raipur","state":"Chhattisgarh","latitude":21.2514,"longitude":81.6296,"temp":25.2,"humidity":46,"rain":0.0,"pressure":974.6,"uv_index":8.1,"wind_gusts":16.2,"aqi":157,"pm10":61.2,"pm2_5":44.7,"mosquito_risk":4,"arthritis_risk":5,"migraine_risk":7,"frizz_risk":0,"updated_at":"2026-03-13T00:28:58.434887+05:30"},{"city":"Bhilai","state":"Chhattisgarh","latitude":21.1938,"longitude":81.3509,"temp":24.7,"humidity":46,"rain":0.0,"pressure":974.9,"uv_index":8.1,"wind_gusts":11.9,"aqi":151,"pm10":67.5,"pm2_5":50.2,"mosquito_risk":0,"arthritis_risk":5,"migraine_risk":7,"frizz_risk":0,"updated_at":"2026-03-13T00:28:58.434893+05:30"},{"city":"Guwahati","state":"Assam","latitude":26.1158,"longitude":91.7086,"temp":23.8,"humidity":91,"rain":0.0,"pressure":1003.6,"uv_index":7.15,"wind_gusts":24.1,"aqi":153,"pm10":76.1,"pm2_5":72.6,"mosquito_risk":3,"arthritis_risk":5,"migraine_risk":4,"frizz_risk":1,"updated_at":"2026-03-13T00:28:58.434899+05:30"},{"city":"Agartala","state":"Tripura","latitude":23.8315,"longitude":91.2868,"temp":21.1,"humidity":95,"rain":0.0,"pressure":1008.8,"uv_index":7.7,"wind_gusts":19.1,"aqi":154,"pm10":48.0,"pm2_5":45.5,"mosquito_risk":3,"arthritis_risk":0,"migraine_risk":4,"frizz_risk":1,"updated_at":"2026-03-13T00:28:58.434906+05:30"},{"city":"Shillong","state":"Meghalaya","latitude":25.5788,"longitude":91.8933,"temp":12.0,"humidity":89,"rain":0.0,"pressure":855.6,"uv_index":6.65,"wind_gusts":26.3,"aqi":150,"pm10":72.9,"pm2_5":66.6,"mosquito_risk":3,"arthritis_risk":10,"migraine_risk":7,"frizz_risk":0,"updated_at":"2026-03-13T00:28:58.434913+05:30"},{"city":"Imphal","state":"Manipur","latitude":24.817,"longitude":93.9368,"temp":17.1,"humidity":90,"rain":0.0,"pressure":924.8,"uv_index":8.0,"wind_gusts":31.0,"aqi":167,"pm10":100.8,"pm2_5":96.6,"mosquito_risk":3,"arthritis_risk":10,"migraine_risk":7,"frizz_risk":0,"updated_at":"2026-03-13T00:28:58.434919+05:30"},{"city":"Aizawl","state":"Mizoram","latitude":23.7271,"longitude":92.7176,"temp":16.7,"humidity":84,"rain":0.0,"pressure":893.6,"uv_index":7.9,"wind_gusts":37.1,"aqi":184,"pm10":117.6,"pm2_5":106.9,"mosquito_risk":3,"arthritis_risk":10,"migraine_risk":7,"frizz_risk":0,"updated_at":"2026-03-13T00:28:58.434926+05:30"},{"city":"Kohima","state":"Nagaland","latitude":25.6701,"longitude":94.1077,"temp":14.4,"humidity":89,"rain":0.0,"pressure":855.4,"uv_index":7.1,"wind_gusts":41.4,"aqi":151,"pm10":65.4,"pm2_5":63.3,"mosquito_risk":3,"arthritis_risk":10,"migraine_risk":7,"frizz_risk":0,"updated_at":"2026-03-13T00:28:58.434932+05:30"},{"city":"Gangtok","state":"Sikkim","latitude":27.3314,"longitude":88.6138,"temp":14.4,"humidity":96,"rain":0.0,"pressure":837.6,"uv_index":7.15,"wind_gusts":20.2,"aqi":91,"pm10":36.8,"pm2_5":34.0,"mosquito_risk":3,"arthritis_risk":10,"migraine_risk":7,"frizz_risk":0,"updated_at":"2026-03-13T00:28:58.434938+05:30"},{"city":"Siliguri","state":"West Bengal","latitude":26.7271,"longitude":88.3953,"temp":19.9,"humidity":83,"rain":0.0,"pressure":996.1,"uv_index":7.4,"wind_gusts":23.8,"aqi":161,"pm10":78.0,"pm2_5":70.1,"mosquito_risk":3,"arthritis_risk":10,"migraine_risk":7,"frizz_risk":1,"updated_at":"2026-03-13T00:29:01.651643+05:30"},{"city":"Durgapur","state":"West Bengal","latitude":23.5204,"longitude":87.3119,"temp":25.1,"humidity":89,"rain":0.0,"pressure":996.5,"uv_index":7.95,"wind_gusts":26.3,"aqi":185,"pm10":113.9,"pm2_5":107.1,"mosquito_risk":7,"arthritis_risk":5,"migraine_risk":7,"frizz_risk":1,"updated_at":"2026-03-13T00:29:01.651674+05:30"},{"city":"Asansol","state":"West Bengal","latitude":23.6739,"longitude":86.9524,"temp":25.6,"humidity":87,"rain":0.0,"pressure":995.0,"uv_index":7.35,"wind_gusts":24.5,"aqi":182,"pm10":115.7,"pm2_5":110.6,"mosquito_risk":7,"arthritis_risk":5,"migraine_risk":7,"frizz_risk":1,"updated_at":"2026-03-13T00:29:01.651686+05:30"},{"city":"Pondicherry","state":"Puducherry","latitude":11.9139,"longitude":79.8145,"temp":24.3,"humidity":96,"rain":0.0,"pressure":1009.7,"uv_index":9.0,"wind_gusts":29.5,"aqi":71,"pm10":23.2,"pm2_5":18.6,"mosquito_risk":3,"arthritis_risk":0,"migraine_risk":4,"frizz_risk":1,"updated_at":"2026-03-13T00:29:01.651696+05:30"},{"city":"Port Blair","state":"Andaman and Nicobar Islands","latitude":11.6234,"longitude":92.7265,"temp":27.6,"humidity":81,"rain":0.0,"pressure":1007.5,"uv_index":8.95,"wind_gusts":20.5,"aqi":46,"pm10":16.1,"pm2_5":13.2,"mosquito_risk":7,"arthritis_risk":5,"migraine_risk":4,"frizz_risk":1,"updated_at":"2026-03-13T00:29:01.651704+05:30"},{"city":"Haridwar","state":"Uttarakhand","latitude":29.9457,"longitude":78.1642,"temp":20.1,"humidity":77,"rain":0.0,"pressure":975.3,"uv_index":5.35,"wind_gusts":30.2,"aqi":104,"pm10":99.4,"pm2_5":51.3,"mosquito_risk":3,"arthritis_risk":5,"migraine_risk":3,"frizz_risk":0,"updated_at":"2026-03-13T00:29:01.651713+05:30"},{"city":"Rishikesh","state":"Uttarakhand","latitude":30.0869,"longitude":78.2676,"temp":19.5,"humidity":60,"rain":0.0,"pressure":968.2,"uv_index":5.45,"wind_gusts":29.5,"aqi":81,"pm10":59.3,"pm2_5":29.7,"mosquito_risk":0,"arthritis_risk":5,"migraine_risk":3,"frizz_risk":0,"updated_at":"2026-03-13T00:29:01.651722+05:30"},{"city":"Nainital","state":"Uttarakhand","latitude":29.3919,"longitude":79.4542,"temp":18.6,"humidity":52,"rain":0.0,"pressure":806.6,"uv_index":6.55,"wind_gusts":55.1,"aqi":101,"pm10":98.7,"pm2_5":40.6,"mosquito_risk":0,"arthritis_risk":5,"migraine_risk":7,"frizz_risk":0,"updated_at":"2026-03-13T00:29:01.651730+05:30"},{"city":"Mussoorie","state":"Uttarakhand","latitude":30.4599,"longitude":78.0664,"temp":15.9,"humidity":45,"rain":0.0,"pressure":803.3,"uv_index":6.1,"wind_gusts":42.8,"aqi":84,"pm10":61.0,"pm2_5":41.1,"mosquito_risk":0,"arthritis_risk":5,"migraine_risk":7,"frizz_risk":0,"updated_at":"2026-03-13T00:29:01.651737+05:30"},{"city":"Dharamshala","state":"Himachal Pradesh","latitude":32.219,"longitude":76.3234,"temp":18.1,"humidity":52,"rain":0.0,"pressure":870.4,"uv_index":6.55,"wind_gusts":50.8,"aqi":51,"pm10":17.6,"pm2_5":10.7,"mosquito_risk":0,"arthritis_risk":5,"migraine_risk":7,"frizz_risk":0,"updated_at":"2026-03-13T00:29:01.651746+05:30"},{"city":"Dalhousie","state":"Himachal Pradesh","latitude":32.5387,"longitude":75.971,"temp":14.5,"humidity":53,"rain":0.0,"pressure":804.6,"uv_index":5.85,"wind_gusts":36.0,"aqi":71,"pm10":27.9,"pm2_5":21.6,"mosquito_risk":0,"arthritis_risk":5,"migraine_risk":3,"frizz_risk":0,"updated_at":"2026-03-13T00:29:01.651755+05:30"},{"city":"Patiala","state":"Punjab","latitude":30.3398,"longitude":76.3869,"temp":20.0,"humidity":83,"rain":0.0,"pressure":980.1,"uv_index":5.65,"wind_gusts":37.4,"aqi":156,"pm10":421.9,"pm2_5":78.0,"mosquito_risk":3,"arthritis_risk":5,"migraine_risk":3,"frizz_risk":1,"updated_at":"2026-03-13T00:29:01.651763+05:30"},{"city":"Bhatinda","state":"Punjab","latitude":30.211,"longitude":74.9455,"temp":20.6,"humidity":85,"rain":0.0,"pressure":986.3,"uv_index":6.4,"wind_gusts":28.1,"aqi":154,"pm10":77.1,"pm2_5":50.2,"mosquito_risk":3,"arthritis_risk":5,"migraine_risk":7,"frizz_risk":1,"updated_at":"2026-03-13T00:29:01.651771+05:30"},{"city":"Rohtak","state":"Haryana","latitude":28.8955,"longitude":76.6066,"temp":21.1,"humidity":85,"rain":0.0,"pressure":983.1,"uv_index":5.95,"wind_gusts":27.0,"aqi":289,"pm10":418.2,"pm2_5":102.2,"mosquito_risk":3,"arthritis_risk":5,"migraine_risk":3,"frizz_risk":1,"updated_at":"2026-03-13T00:29:01.651779+05:30"},{"city":"Panipat","state":"Haryana","latitude":29.3909,"longitude":76.9635,"temp":20.3,"humidity":88,"rain":0.0,"pressure":981.8,"uv_index":5.75,"wind_gusts":20.9,"aqi":345,"pm10":579.3,"pm2_5":110.1,"mosquito_risk":3,"arthritis_risk":5,"migraine_risk":3,"frizz_risk":1,"updated_at":"2026-03-13T00:29:01.651787+05:30"},{"city":"Mathura","state":"Uttar Pradesh","latitude":27.4924,"longitude":77.6737,"temp":20.7,"humidity":61,"rain":0.0,"pressure":988.0,"uv_index":5.8,"wind_gusts":30.6,"aqi":260,"pm10":354.8,"pm2_5":90.8,"mosquito_risk":3,"arthritis_risk":5,"migraine_risk":3,"frizz_risk":0,"updated_at":"2026-03-13T00:29:01.651795+05:30"},{"city":"Vrindavan","state":"Uttar Pradesh","latitude":27.5823,"longitude":77.7027,"temp":19.9,"humidity":69,"rain":0.0,"pressure":988.3,"uv_index":5.65,"wind_gusts":32.4,"aqi":260,"pm10":354.8,"pm2_5":90.8,"mosquito_risk":3,"arthritis_risk":5,"migraine_risk":3,"frizz_risk":0,"updated_at":"2026-03-13T00:29:01.651803+05:30"},{"city":"Ayodhya","state":"Uttar Pradesh","latitude":26.7922,"longitude":82.1998,"temp":22.1,"humidity":68,"rain":0.0,"pressure":995.9,"uv_index":6.55,"wind_gusts":26.3,"aqi":153,"pm10":135.0,"pm2_5":68.7,"mosquito_risk":3,"arthritis_risk":5,"migraine_risk":7,"frizz_risk":0,"updated_at":"2026-03-13T00:29:01.651811+05:30"},{"city":"Ratlam","state":"Madhya Pradesh","latitude":23.3315,"longitude":75.0367,"temp":25.5,"humidity":29,"rain":0.0,"pressure":955.4,"uv_index":7.6,"wind_gusts":33.1,"aqi":78,"pm10":16.9,"pm2_5":16.0,"mosquito_risk":4,"arthritis_risk":5,"migraine_risk":7,"frizz_risk":0,"updated_at":"2026-03-13T00:29:01.651820+05:30"},{"city":"Sagar","state":"Madhya Pradesh","latitude":23.8388,"longitude":78.7378,"temp":24.2,"humidity":40,"rain":0.0,"pressure":950.9,"uv_index":7.55,"wind_gusts":27.0,"aqi":73,"pm10":23.7,"pm2_5":19.2,"mosquito_risk":0,"arthritis_risk":5,"migraine_risk":7,"frizz_risk":0,"updated_at":"2026-03-13T00:29:01.651828+05:30"},{"city":"Satna","state":"Madhya Pradesh","latitude":24.6005,"longitude":80.8322,"temp":24.9,"humidity":41,"rain":0.0,"pressure":972.1,"uv_index":7.55,"wind_gusts":29.2,"aqi":73,"pm10":22.9,"pm2_5":17.3,"mosquito_risk":0,"arthritis_risk":5,"migraine_risk":7,"frizz_risk":0,"updated_at":"2026-03-13T00:29:01.651836+05:30"},{"city":"Akola","state":"Maharashtra","latitude":20.7002,"longitude":77.0082,"temp":25.3,"humidity":50,"rain":0.0,"pressure":975.0,"uv_index":8.05,"wind_gusts":22.7,"aqi":95,"pm10":45.6,"pm2_5":37.7,"mosquito_risk":4,"arthritis_risk":5,"migraine_risk":7,"frizz_risk":0,"updated_at":"2026-03-13T00:29:01.651845+05:30"},{"city":"Amravati","state":"Maharashtra","latitude":20.9374,"longitude":77.7796,"temp":24.8,"humidity":45,"rain":0.0,"pressure":966.9,"uv_index":8.0,"wind_gusts":16.9,"aqi":100,"pm10":51.3,"pm2_5":42.4,"mosquito_risk":0,"arthritis_risk":5,"migraine_risk":7,"frizz_risk":0,"updated_at":"2026-03-13T00:29:01.651853+05:30"},{"city":"Latur","state":"Maharashtra","latitude":18.4088,"longitude":76.5604,"temp":24.6,"humidity":47,"rain":0.0,"pressure":939.7,"uv_index":8.45,"wind_gusts":19.1,"aqi":115,"pm10":42.6,"pm2_5":36.7,"mosquito_risk":0,"arthritis_risk":5,"migraine_risk":7,"frizz_risk":0,"updated_at":"2026-03-13T00:29:01.651861+05:30"},{"city":"Nanded","state":"Maharashtra","latitude":19.1383,"longitude":77.3091,"temp":27.2,"humidity":44,"rain":0.0,"pressure":968.4,"uv_index":8.25,"wind_gusts":16.2,"aqi":97,"pm10":62.2,"pm2_5":56.5,"mosquito_risk":4,"arthritis_risk":5,"migraine_risk":7,"frizz_risk":0,"updated_at":"2026-03-13T00:29:01.651870+05:30"},{"city":"Gulbarga","state":"Karnataka","latitude":17.3297,"longitude":76.8343,"temp":28.9,"humidity":46,"rain":0.0,"pressure":958.9,"uv_index":8.5,"wind_gusts":18.0,"aqi":109,"pm10":35.5,"pm2_5":31.0,"mosquito_risk":4,"arthritis_risk":5,"migraine_risk":7,"frizz_risk":1,"updated_at":"2026-03-13T00:29:01.651877+05:30"},{"city":"Bidar","state":"Karnataka","latitude":17.9104,"longitude":77.5199,"temp":26.4,"humidity":43,"rain":0.0,"pressure":935.7,"uv_index":8.45,"wind_gusts":19.1,"aqi":100,"pm10":57.5,"pm2_5":49.1,"mosquito_risk":4,"arthritis_risk":5,"migraine_risk":7,"frizz_risk":0,"updated_at":"2026-03-13T00:29:01.651883+05:30"},{"city":"Hospet","state":"Karnataka","latitude":15.2689,"longitude":76.3909,"temp":27.9,"humidity":45,"rain":0.0,"pressure":956.1,"uv_index":8.8,"wind_gusts":32.4,"aqi":88,"pm10":41.1,"pm2_5":35.5,"mosquito_risk":4,"arthritis_risk":5,"migraine_risk":7,"frizz_risk":0,"updated_at":"2026-03-13T00:29:01.651888+05:30"},{"city":"Tirupur","state":"Tamil Nadu","latitude":11.1085,"longitude":77.3411,"temp":26.7,"humidity":65,"rain":0.0,"pressure":976.3,"uv_index":9.3,"wind_gusts":32.8,"aqi":79,"pm10":27.0,"pm2_5":26.3,"mosquito_risk":7,"arthritis_risk":5,"migraine_risk":7,"frizz_risk":1,"updated_at":"2026-03-13T00:29:01.651895+05:30"},{"city":"Alappuzha","state":"Kerala","latitude":9.4981,"longitude":76.3388,"temp":27.6,"humidity":82,"rain":0.0,"pressure":1009.4,"uv_index":8.4,"wind_gusts":32.0,"aqi":87,"pm10":40.6,"pm2_5":37.7,"mosquito_risk":7,"arthritis_risk":0,"migraine_risk":4,"frizz_risk":1,"updated_at":"2026-03-13T00:29:01.651901+05:30"},{"city":"Munnar","state":"Kerala","latitude":10.0889,"longitude":77.0595,"temp":20.2,"humidity":77,"rain":0.0,"pressure":856.6,"uv_index":9.5,"wind_gusts":23.0,"aqi":71,"pm10":29.4,"pm2_5":28.4,"mosquito_risk":3,"arthritis_risk":5,"migraine_risk":7,"frizz_risk":1,"updated_at":"2026-03-13T00:29:01.651907+05:30"},{"city":"Silchar","state":"Assam","latitude":24.8333,"longitude":92.7789,"temp":22.0,"humidity":91,"rain":0.0,"pressure":1008.3,"uv_index":7.7,"wind_gusts":23.8,"aqi":179,"pm10":159.3,"pm2_5":148.1,"mosquito_risk":3,"arthritis_risk":0,"migraine_risk":4,"frizz_risk":1,"updated_at":"2026-03-13T00:29:01.651913+05:30"},{"city":"Dibrugarh","state":"Assam","latitude":27.4728,"longitude":94.912,"temp":23.3,"humidity":86,"rain":0.0,"pressure":998.0,"uv_index":6.3,"wind_gusts":20.2,"aqi":120,"pm10":39.9,"pm2_5":38.9,"mosquito_risk":3,"arthritis_risk":5,"migraine_risk":7,"frizz_risk":1,"updated_at":"2026-03-13T00:29:01.651919+05:30"}]