[{"city":"Delhi","state":"Delhi","latitude":28.6139,"longitude":77.209,"temp":26.8,"humidity":96,"rain":0.0,"pressure":974.0,"uv_index":6.0,"wind_gusts":25.6,"aqi":151,"pm10":93.4,"pm2_5":56.1,"no2":28.0,"co":452.0,"o3":76.0,"so2":28.0,"mosquito_risk":7,"arthritis_risk":5,"migraine_risk":3,"frizz_risk":1,"updated_at":"2026-07-08T03:06:50.694339+05:30"},{"city":"Mumbai","state":"Maharashtra","latitude":19.076,"longitude":72.8777,"temp":25.7,"humidity":95,"rain":0.2,"pressure":1000.9,"uv_index":1.5,"wind_gusts":45.0,"aqi":53,"pm10":23.2,"pm2_5":11.1,"no2":2.7,"co":132.0,"o3":64.0,"so2":2.4,"mosquito_risk":10,"arthritis_risk":5,"migraine_risk":0,"frizz_risk":1,"updated_at":"2026-07-08T03:06:50.694392+05:30"},{"city":"Bangalore","state":"Karnataka","latitude":12.9716,"longitude":77.5946,"temp":21.4,"humidity":85,"rain":0.0,"pressure":909.8,"uv_index":8.95,"wind_gusts":69.5,"aqi":21,"pm10":3.9,"pm2_5":2.7,"no2":4.4,"co":126.0,"o3":42.0,"so2":2.6,"mosquito_risk":3,"arthritis_risk":5,"migraine_risk":7,"frizz_risk":1,"updated_at":"2026-07-08T03:06:50.694407+05:30"},{"city":"Hyderabad","state":"Telangana","latitude":17.385,"longitude":78.4867,"temp":24.9,"humidity":79,"rain":0.0,"pressure":947.3,"uv_index":8.9,"wind_gusts":58.7,"aqi":24,"pm10":5.9,"pm2_5":4.0,"no2":6.0,"co":132.0,"o3":40.0,"so2":4.0,"mosquito_risk":3,"arthritis_risk":5,"migraine_risk":7,"frizz_risk":1,"updated_at":"2026-07-08T03:06:50.694419+05:30"},{"city":"Chennai","state":"Tamil Nadu","latitude":13.0827,"longitude":80.2707,"temp":31.4,"humidity":49,"rain":0.0,"pressure":1004.8,"uv_index":8.05,"wind_gusts":55.4,"aqi":59,"pm10":15.8,"pm2_5":9.6,"no2":11.1,"co":171.0,"o3":41.0,"so2":7.9,"mosquito_risk":0,"arthritis_risk":5,"migraine_risk":4,"frizz_risk":1,"updated_at":"2026-07-08T03:06:50.694428+05:30"},{"city":"Kolkata","state":"West Bengal","latitude":22.5726,"longitude":88.3639,"temp":28.2,"humidity":85,"rain":0.0,"pressure":999.9,"uv_index":6.3,"wind_gusts":30.6,"aqi":61,"pm10":22.5,"pm2_5":16.4,"no2":6.0,"co":164.0,"o3":70.0,"so2":5.8,"mosquito_risk":7,"arthritis_risk":5,"migraine_risk":7,"frizz_risk":1,"updated_at":"2026-07-08T03:06:50.694437+05:30"},{"city":"Pune","state":"Maharashtra","latitude":18.5204,"longitude":73.8567,"temp":23.2,"humidity":97,"rain":2.4,"pressure":940.2,"uv_index":2.25,"wind_gusts":53.3,"aqi":23,"pm10":2.7,"pm2_5":2.0,"no2":4.1,"co":114.0,"o3":46.0,"so2":3.3,"mosquito_risk":6,"arthritis_risk":5,"migraine_risk":3,"frizz_risk":1,"updated_at":"2026-07-08T03:06:50.694445+05:30"},{"city":"Ahmedabad","state":"Gujarat","latitude":23.0225,"longitude":72.5714,"temp":26.8,"humidity":97,"rain":0.5,"pressure":992.8,"uv_index":1.9,"wind_gusts":29.2,"aqi":88,"pm10":35.3,"pm2_5":23.2,"no2":12.1,"co":228.0,"o3":44.0,"so2":7.2,"mosquito_risk":10,"arthritis_risk":5,"migraine_risk":3,"frizz_risk":1,"updated_at":"2026-07-08T03:06:50.694452+05:30"},{"city":"Jaipur","state":"Rajasthan","latitude":26.9124,"longitude":75.7873,"temp":26.7,"humidity":89,"rain":0.0,"pressure":950.1,"uv_index":7.3,"wind_gusts":32.8,"aqi":71,"pm10":30.6,"pm2_5":26.3,"no2":15.2,"co":407.0,"o3":70.0,"so2":4.2,"mosquito_risk":7,"arthritis_risk":5,"migraine_risk":7,"frizz_risk":1,"updated_at":"2026-07-08T03:06:50.694460+05:30"},{"city":"Lucknow","state":"Uttar Pradesh","latitude":26.8467,"longitude":80.9462,"temp":26.0,"humidity":96,"rain":0.1,"pressure":983.8,"uv_index":5.65,"wind_gusts":46.1,"aqi":58,"pm10":23.3,"pm2_5":23.2,"no2":10.9,"co":303.0,"o3":83.0,"so2":8.9,"mosquito_risk":10,"arthritis_risk":5,"migraine_risk":3,"frizz_risk":1,"updated_at":"2026-07-08T03:06:50.694473+05:30"},{"city":"Kanpur","state":"Uttar Pradesh","latitude":26.4499,"longitude":80.3319,"temp":26.7,"humidity":92,"rain":0.1,"pressure":981.0,"uv_index":6.9,"wind_gusts":45.7,"aqi":58,"pm10":18.4,"pm2_5":18.2,"no2":11.5,"co":224.0,"o3":74.0,"so2":7.7,"mosquito_risk":10,"arthritis_risk":5,"migraine_risk":7,"frizz_risk":1,"updated_at":"2026-07-08T03:06:50.694482+05:30"},{"city":"Chandigarh","state":"Chandigarh","latitude":30.7333,"longitude":76.7794,"temp":26.9,"humidity":93,"rain":0.0,"pressure":960.7,"uv_index":5.55,"wind_gusts":31.3,"aqi":145,"pm10":65.7,"pm2_5":63.6,"no2":26.1,"co":464.0,"o3":68.0,"so2":10.3,"mosquito_risk":7,"arthritis_risk":5,"migraine_risk":3,"frizz_risk":1,"updated_at":"2026-07-08T03:06:50.694490+05:30"},{"city":"Srinagar","state":"Jammu and Kashmir","latitude":34.0837,"longitude":74.7973,"temp":18.5,"humidity":94,"rain":0.1,"pressure":835.5,"uv_index":9.0,"wind_gusts":27.4,"aqi":79,"pm10":56.7,"pm2_5":50.8,"no2":32.8,"co":980.0,"o3":7.0,"so2":0.7,"mosquito_risk":6,"arthritis_risk":10,"migraine_risk":7,"frizz_risk":1,"updated_at":"2026-07-08T03:06:50.694498+05:30"},{"city":"Jammu","state":"Jammu and Kashmir","latitude":32.7266,"longitude":74.857,"temp":28.6,"humidity":77,"rain":0.0,"pressure":963.6,"uv_index":8.45,"wind_gusts":33.8,"aqi":115,"pm10":58.6,"pm2_5":55.9,"no2":59.4,"co":695.0,"o3":9.0,"so2":5.2,"mosquito_risk":7,"arthritis_risk":5,"migraine_risk":7,"frizz_risk":1,"updated_at":"2026-07-08T03:06:50.694506+05:30"},{"city":"Amritsar","state":"Punjab","latitude":31.634,"longitude":74.8723,"temp":28.9,"humidity":86,"rain":0.0,"pressure":971.4,"uv_index":7.5,"wind_gusts":31.7,"aqi":156,"pm10":104.8,"pm2_5":77.5,"no2":24.8,"co":813.0,"o3":71.0,"so2":7.7,"mosquito_risk":7,"arthritis_risk":5,"migraine_risk":7,"frizz_risk":1,"updated_at":"2026-07-08T03:06:50.694516+05:30"},{"city":"Ludhiana","state":"Punjab","latitude":30.901,"longitude":75.8573,"temp":27.7,"humidity":90,"rain":0.0,"pressure":969.6,"uv_index":7.2,"wind_gusts":31.0,"aqi":154,"pm10":56.6,"pm2_5":54.5,"no2":21.8,"co":1265.0,"o3":72.0,"so2":10.2,"mosquito_risk":7,"arthritis_risk":5,"migraine_risk":7,"frizz_risk":1,"updated_at":"2026-07-08T03:06:50.694523+05:30"},{"city":"Jalandhar","state":"Punjab","latitude":31.326,"longitude":75.5762,"temp":27.8,"humidity":92,"rain":0.0,"pressure":970.5,"uv_index":7.4,"wind_gusts":29.2,"aqi":159,"pm10":77.5,"pm2_5":62.2,"no2":24.3,"co":966.0,"o3":66.0,"so2":9.4,"mosquito_risk":7,"arthritis_risk":5,"migraine_risk":7,"frizz_risk":1,"updated_at":"2026-07-08T03:06:50.694530+05:30"},{"city":"Dehradun","state":"Uttarakhand","latitude":30.6284,"longitude":78.0322,"temp":18.8,"humidity":100,"rain":0.0,"pressure":825.2,"uv_index":3.45,"wind_gusts":16.9,"aqi":56,"pm10":8.9,"pm2_5":8.7,"no2":6.8,"co":252.0,"o3":98.0,"so2":1.1,"mosquito_risk":3,"arthritis_risk":10,"migraine_risk":3,"frizz_risk":1,"updated_at":"2026-07-08T03:06:50.694538+05:30"},{"city":"Shimla","state":"Himachal Pradesh","latitude":31.1048,"longitude":77.1734,"temp":15.7,"humidity":95,"rain":0.0,"pressure":778.8,"uv_index":8.15,"wind_gusts":17.3,"aqi":77,"pm10":36.2,"pm2_5":33.9,"no2":11.4,"co":308.0,"o3":88.0,"so2":3.0,"mosquito_risk":3,"arthritis_risk":10,"migraine_risk":7,"frizz_risk":0,"updated_at":"2026-07-08T03:06:50.694547+05:30"},{"city":"Manali","state":"Himachal Pradesh","latitude":32.2396,"longitude":77.1887,"temp":19.7,"humidity":78,"rain":0.0,"pressure":814.5,"uv_index":8.4,"wind_gusts":36.4,"aqi":35,"pm10":2.1,"pm2_5":2.1,"no2":15.7,"co":224.0,"o3":92.0,"so2":0.0,"mosquito_risk":3,"arthritis_risk":5,"migraine_risk":7,"frizz_risk":0,"updated_at":"2026-07-08T03:06:50.694557+05:30"},{"city":"Gurgaon","state":"Haryana","latitude":28.4595,"longitude":77.0266,"temp":26.6,"humidity":95,"rain":0.0,"pressure":972.3,"uv_index":5.95,"wind_gusts":24.8,"aqi":144,"pm10":124.8,"pm2_5":53.8,"no2":23.1,"co":422.0,"o3":75.0,"so2":20.9,"mosquito_risk":7,"arthritis_risk":5,"migraine_risk":3,"frizz_risk":1,"updated_at":"2026-07-08T03:06:50.694565+05:30"},{"city":"Noida","state":"Uttar Pradesh","latitude":28.5355,"longitude":77.391,"temp":26.6,"humidity":92,"rain":0.0,"pressure":975.5,"uv_index":5.9,"wind_gusts":26.3,"aqi":144,"pm10":124.8,"pm2_5":53.8,"no2":23.1,"co":371.0,"o3":75.0,"so2":20.9,"mosquito_risk":7,"arthritis_risk":5,"migraine_risk":3,"frizz_risk":1,"updated_at":"2026-07-08T03:06:50.694572+05:30"},{"city":"Ghaziabad","state":"Uttar Pradesh","latitude":28.6692,"longitude":77.4538,"temp":26.3,"humidity":92,"rain":0.2,"pressure":973.9,"uv_index":6.75,"wind_gusts":29.2,"aqi":136,"pm10":46.3,"pm2_5":44.0,"no2":17.3,"co":397.0,"o3":81.0,"so2":11.4,"mosquito_risk":10,"arthritis_risk":5,"migraine_risk":7,"frizz_risk":1,"updated_at":"2026-07-08T03:06:50.694578+05:30"},{"city":"Faridabad","state":"Haryana","latitude":28.4089,"longitude":77.3178,"temp":26.7,"humidity":93,"rain":0.0,"pressure":974.8,"uv_index":6.0,"wind_gusts":29.9,"aqi":144,"pm10":124.8,"pm2_5":53.8,"no2":23.1,"co":362.0,"o3":75.0,"so2":20.9,"mosquito_risk":7,"arthritis_risk":5,"migraine_risk":3,"frizz_risk":1,"updated_at":"2026-07-08T03:06:50.694585+05:30"},{"city":"Meerut","state":"Uttar Pradesh","latitude":28.9845,"longitude":77.7064,"temp":26.5,"humidity":93,"rain":0.1,"pressure":973.1,"uv_index":6.45,"wind_gusts":32.8,"aqi":136,"pm10":46.3,"pm2_5":44.0,"no2":17.3,"co":439.0,"o3":81.0,"so2":11.4,"mosquito_risk":10,"arthritis_risk":5,"migraine_risk":7,"frizz_risk":1,"updated_at":"2026-07-08T03:06:50.694591+05:30"},{"city":"Agra","state":"Uttar Pradesh","latitude":27.1767,"longitude":78.0081,"temp":26.1,"humidity":95,"rain":0.1,"pressure":977.5,"uv_index":6.25,"wind_gusts":32.8,"aqi":103,"pm10":10.2,"pm2_5":10.2,"no2":10.1,"co":232.0,"o3":86.0,"so2":4.2,"mosquito_risk":10,"arthritis_risk":5,"migraine_risk":7,"frizz_risk":1,"updated_at":"2026-07-08T03:06:50.694598+05:30"},{"city":"Varanasi","state":"Uttar Pradesh","latitude":25.3176,"longitude":82.9739,"temp":27.9,"humidity":86,"rain":0.0,"pressure":988.6,"uv_index":6.9,"wind_gusts":32.4,"aqi":65,"pm10":28.8,"pm2_5":28.3,"no2":25.7,"co":436.0,"o3":44.0,"so2":26.7,"mosquito_risk":7,"arthritis_risk":5,"migraine_risk":7,"frizz_risk":1,"updated_at":"2026-07-08T03:06:50.694605+05:30"},{"city":"Prayagraj","state":"Uttar Pradesh","latitude":25.4358,"longitude":81.8463,"temp":28.3,"humidity":77,"rain":0.0,"pressure":986.0,"uv_index":7.45,"wind_gusts":33.8,"aqi":60,"pm10":28.8,"pm2_5":28.2,"no2":19.5,"co":226.0,"o3":55.0,"so2":17.2,"mosquito_risk":7,"arthritis_risk":5,"migraine_risk":7,"frizz_risk":1,"updated_at":"2026-07-08T03:06:50.694612+05:30"},{"city":"Gorakhpur","state":"Uttar Pradesh","latitude":26.7606,"longitude":83.3732,"temp":26.3,"humidity":96,"rain":0.0,"pressure":989.5,"uv_index":6.25,"wind_gusts":37.8,"aqi":60,"pm10":18.2,"pm2_5":18.2,"no2":11.8,"co":300.0,"o3":74.0,"so2":7.1,"mosquito_risk":7,"arthritis_risk":5,"migraine_risk":7,"frizz_risk":1,"updated_at":"2026-07-08T03:06:50.694619+05:30"},{"city":"Bareilly","state":"Uttar Pradesh","latitude":28.367,"longitude":79.4304,"temp":26.3,"humidity":95,"rain":0.0,"pressure":977.8,"uv_index":5.45,"wind_gusts":43.2,"aqi":90,"pm10":15.7,"pm2_5":15.7,"no2":9.1,"co":291.0,"o3":84.0,"so2":4.1,"mosquito_risk":7,"arthritis_risk":5,"migraine_risk":3,"frizz_risk":1,"updated_at":"2026-07-08T03:06:50.694628+05:30"},{"city":"Aligarh","state":"Uttar Pradesh","latitude":27.8974,"longitude":78.088,"temp":26.4,"humidity":95,"rain":0.1,"pressure":976.1,"uv_index":4.7,"wind_gusts":33.5,"aqi":99,"pm10":17.5,"pm2_5":17.3,"no2":13.3,"co":289.0,"o3":81.0,"so2":12.0,"mosquito_risk":10,"arthritis_risk":5,"migraine_risk":3,"frizz_risk":1,"updated_at":"2026-07-08T03:06:50.694636+05:30"},{"city":"Moradabad","state":"Uttar Pradesh","latitude":28.8386,"longitude":78.7733,"temp":26.2,"humidity":96,"rain":0.1,"pressure":975.4,"uv_index":7.65,"wind_gusts":33.1,"aqi":144,"pm10":19.8,"pm2_5":19.8,"no2":14.4,"co":312.0,"o3":68.0,"so2":8.2,"mosquito_risk":10,"arthritis_risk":5,"migraine_risk":7,"frizz_risk":1,"updated_at":"2026-07-08T03:06:50.694643+05:30"},{"city":"Saharanpur","state":"Uttar Pradesh","latitude":29.9637,"longitude":77.546,"temp":26.4,"humidity":97,"rain":0.0,"pressure":967.7,"uv_index":3.25,"wind_gusts":26.3,"aqi":154,"pm10":91.5,"pm2_5":88.5,"no2":39.9,"co":499.0,"o3":65.0,"so2":16.5,"mosquito_risk":7,"arthritis_risk":5,"migraine_risk":3,"frizz_risk":1,"updated_at":"2026-07-08T03:06:50.694650+05:30"},{"city":"Jhansi","state":"Uttar Pradesh","latitude":25.4484,"longitude":78.5685,"temp":25.8,"humidity":96,"rain":0.0,"pressure":966.2,"uv_index":5.4,"wind_gusts":27.0,"aqi":51,"pm10":5.7,"pm2_5":5.7,"no2":7.7,"co":256.0,"o3":77.0,"so2":3.6,"mosquito_risk":7,"arthritis_risk":5,"migraine_risk":3,"frizz_risk":1,"updated_at":"2026-07-08T03:06:54.073898+05:30"},{"city":"Surat","state":"Gujarat","latitude":21.1702,"longitude":72.8311,"temp":26.5,"humidity":94,"rain":2.5,"pressure":997.3,"uv_index":1.35,"wind_gusts":40.3,"aqi":100,"pm10":39.5,"pm2_5":29.5,"no2":35.4,"co":265.0,"o3":27.0,"so2":47.6,"mosquito_risk":10,"arthritis_risk":5,"migraine_risk":3,"frizz_risk":1,"updated_at":"2026-07-08T03:06:54.073929+05:30"},{"city":"Vadodara","state":"Gujarat","latitude":22.3072,"longitude":73.1812,"temp":25.8,"humidity":98,"rain":0.3,"pressure":995.1,"uv_index":1.85,"wind_gusts":37.1,"aqi":87,"pm10":26.1,"pm2_5":20.3,"no2":13.3,"co":222.0,"o3":49.0,"so2":6.6,"mosquito_risk":10,"arthritis_risk":5,"migraine_risk":3,"frizz_risk":1,"updated_at":"2026-07-08T03:06:54.073939+05:30"},{"city":"Rajkot","state":"Gujarat","latitude":22.3039,"longitude":70.8022,"temp":27.4,"humidity":91,"rain":0.0,"pressure":984.9,"uv_index":6.95,"wind_gusts":44.6,"aqi":74,"pm10":27.5,"pm2_5":14.5,"no2":5.1,"co":103.0,"o3":46.0,"so2":4.8,"mosquito_risk":7,"arthritis_risk":5,"migraine_risk":7,"frizz_risk":1,"updated_at":"2026-07-08T03:06:54.073948+05:30"},{"city":"Thane","state":"Maharashtra","latitude":19.2183,"longitude":72.9781,"temp":25.0,"humidity":97,"rain":0.2,"pressure":1000.2,"uv_index":1.05,"wind_gusts":37.8,"aqi":53,"pm10":23.2,"pm2_5":11.1,"no2":2.7,"co":136.0,"o3":64.0,"so2":2.4,"mosquito_risk":10,"arthritis_risk":5,"migraine_risk":0,"frizz_risk":1,"updated_at":"2026-07-08T03:06:54.073956+05:30"},{"city":"Nagpur","state":"Maharashtra","latitude":21.1458,"longitude":79.0882,"temp":26.1,"humidity":83,"rain":0.0,"pressure":964.2,"uv_index":6.25,"wind_gusts":46.8,"aqi":39,"pm10":7.3,"pm2_5":7.0,"no2":10.0,"co":167.0,"o3":72.0,"so2":13.3,"mosquito_risk":7,"arthritis_risk":5,"migraine_risk":7,"frizz_risk":1,"updated_at":"2026-07-08T03:06:54.073963+05:30"},{"city":"Nashik","state":"Maharashtra","latitude":19.9975,"longitude":73.7898,"temp":23.0,"humidity":97,"rain":0.0,"pressure":937.1,"uv_index":3.4,"wind_gusts":51.8,"aqi":23,"pm10":3.1,"pm2_5":2.4,"no2":4.3,"co":122.0,"o3":58.0,"so2":1.4,"mosquito_risk":3,"arthritis_risk":5,"migraine_risk":3,"frizz_risk":1,"updated_at":"2026-07-08T03:06:54.073970+05:30"},{"city":"Aurangabad","state":"Maharashtra","latitude":19.8762,"longitude":75.3433,"temp":23.3,"humidity":98,"rain":0.0,"pressure":935.1,"uv_index":6.15,"wind_gusts":55.4,"aqi":24,"pm10":4.5,"pm2_5":3.8,"no2":10.6,"co":164.0,"o3":42.0,"so2":9.0,"mosquito_risk":3,"arthritis_risk":5,"migraine_risk":7,"frizz_risk":1,"updated_at":"2026-07-08T03:06:54.073978+05:30"},{"city":"Solapur","state":"Maharashtra","latitude":17.6599,"longitude":75.9064,"temp":25.1,"humidity":81,"rain":0.0,"pressure":950.5,"uv_index":7.05,"wind_gusts":58.7,"aqi":22,"pm10":2.4,"pm2_5":2.0,"no2":3.9,"co":110.0,"o3":41.0,"so2":2.1,"mosquito_risk":7,"arthritis_risk":5,"migraine_risk":7,"frizz_risk":1,"updated_at":"2026-07-08T03:06:54.073986+05:30"},{"city":"Kolhapur","state":"Maharashtra","latitude":16.705,"longitude":74.2433,"temp":22.3,"humidity":96,"rain":0.1,"pressure":942.2,"uv_index":7.8,"wind_gusts":69.8,"aqi":21,"pm10":1.7,"pm2_5":1.4,"no2":2.4,"co":104.0,"o3":43.0,"so2":1.3,"mosquito_risk":6,"arthritis_risk":5,"migraine_risk":7,"frizz_risk":1,"updated_at":"2026-07-08T03:06:54.073993+05:30"},{"city":"Goa","state":"Goa","latitude":15.2993,"longitude":74.124,"temp":23.5,"humidity":98,"rain":0.5,"pressure":995.1,"uv_index":8.5,"wind_gusts":50.0,"aqi":57,"pm10":22.3,"pm2_5":11.8,"no2":1.2,"co":170.0,"o3":41.0,"so2":0.6,"mosquito_risk":6,"arthritis_risk":5,"migraine_risk":7,"frizz_risk":1,"updated_at":"2026-07-08T03:06:54.074001+05:30"},{"city":"Jodhpur","state":"Rajasthan","latitude":26.2389,"longitude":73.0243,"temp":27.8,"humidity":93,"rain":0.0,"pressure":973.1,"uv_index":8.15,"wind_gusts":33.8,"aqi":92,"pm10":201.6,"pm2_5":60.5,"no2":5.7,"co":179.0,"o3":54.0,"so2":3.9,"mosquito_risk":7,"arthritis_risk":5,"migraine_risk":7,"frizz_risk":1,"updated_at":"2026-07-08T03:06:54.074008+05:30"},{"city":"Udaipur","state":"Rajasthan","latitude":24.5854,"longitude":73.7125,"temp":25.0,"humidity":92,"rain":0.0,"pressure":936.8,"uv_index":7.0,"wind_gusts":36.4,"aqi":67,"pm10":45.4,"pm2_5":28.1,"no2":7.0,"co":190.0,"o3":56.0,"so2":5.1,"mosquito_risk":7,"arthritis_risk":5,"migraine_risk":7,"frizz_risk":1,"updated_at":"2026-07-08T03:06:54.074015+05:30"},{"city":"Kota","state":"Rajasthan","latitude":25.2138,"longitude":75.8648,"temp":25.7,"humidity":96,"rain":0.2,"pressure":969.2,"uv_index":7.1,"wind_gusts":40.3,"aqi":62,"pm10":19.4,"pm2_5":17.6,"no2":7.9,"co":263.0,"o3":80.0,"so2":2.1,"mosquito_risk":10,"arthritis_risk":5,"migraine_risk":7,"frizz_risk":1,"updated_at":"2026-07-08T03:06:54.074022+05:30"},{"city":"Bikaner","state":"Rajasthan","latitude":28.0229,"longitude":73.3119,"temp":29.8,"humidity":75,"rain":0.0,"pressure":971.5,"uv_index":8.45,"wind_gusts":69.8,"aqi":100,"pm10":266.4,"pm2_5":79.9,"no2":4.4,"co":157.0,"o3":58.0,"so2":3.8,"mosquito_risk":7,"arthritis_risk":5,"migraine_risk":7,"frizz_risk":1,"updated_at":"2026-07-08T03:06:54.074029+05:30"},{"city":"Ajmer","state":"Rajasthan","latitude":26.4499,"longitude":74.6399,"temp":26.3,"humidity":86,"rain":0.0,"pressure":945.2,"uv_index":8.1,"wind_gusts":39.6,"aqi":67,"pm10":51.3,"pm2_5":26.3,"no2":9.6,"co":206.0,"o3":68.0,"so2":4.0,"mosquito_risk":7,"arthritis_risk":5,"migraine_risk":7,"frizz_risk":1,"updated_at":"2026-07-08T03:06:54.074036+05:30"},{"city":"Gwalior","state":"Madhya Pradesh","latitude":26.2183,"longitude":78.1828,"temp":25.6,"humidity":96,"rain":0.4,"pressure":971.9,"uv_index":6.65,"wind_gusts":27.7,"aqi":63,"pm10":5.0,"pm2_5":5.0,"no2":6.6,"co":239.0,"o3":88.0,"so2":3.6,"mosquito_risk":10,"arthritis_risk":5,"migraine_risk":7,"frizz_risk":1,"updated_at":"2026-07-08T03:06:54.074044+05:30"},{"city":"Indore","state":"Madhya Pradesh","latitude":22.7196,"longitude":75.8577,"temp":24.6,"humidity":96,"rain":0.5,"pressure":938.2,"uv_index":7.7,"wind_gusts":46.4,"aqi":71,"pm10":12.1,"pm2_5":11.8,"no2":5.8,"co":435.0,"o3":84.0,"so2":3.2,"mosquito_risk":6,"arthritis_risk":5,"migraine_risk":7,"frizz_risk":1,"updated_at":"2026-07-08T03:06:54.074051+05:30"},{"city":"Bhopal","state":"Madhya Pradesh","latitude":23.2599,"longitude":77.4126,"temp":24.4,"humidity":97,"rain":0.1,"pressure":942.9,"uv_index":2.55,"wind_gusts":41.4,"aqi":53,"pm10":12.4,"pm2_5":12.4,"no2":7.1,"co":252.0,"o3":75.0,"so2":2.7,"mosquito_risk":6,"arthritis_risk":5,"migraine_risk":3,"frizz_risk":1,"updated_at":"2026-07-08T03:06:54.074058+05:30"},{"city":"Jabalpur","state":"Madhya Pradesh","latitude":23.1815,"longitude":79.9864,"temp":25.2,"humidity":93,"rain":0.1,"pressure":951.3,"uv_index":2.95,"wind_gusts":45.0,"aqi":38,"pm10":7.4,"pm2_5":7.3,"no2":7.7,"co":249.0,"o3":59.0,"so2":6.3,"mosquito_risk":10,"arthritis_risk":5,"migraine_risk":3,"frizz_risk":1,"updated_at":"2026-07-08T03:06:54.074088+05:30"},{"city":"Ujjain","state":"Madhya Pradesh","latitude":23.1765,"longitude":75.7885,"temp":24.9,"humidity":96,"rain":0.2,"pressure":943.9,"uv_index":2.85,"wind_gusts":43.9,"aqi":72,"pm10":12.4,"pm2_5":11.6,"no2":4.7,"co":447.0,"o3":84.0,"so2":2.5,"mosquito_risk":6,"arthritis_risk":5,"migraine_risk":3,"frizz_risk":1,"updated_at":"2026-07-08T03:06:54.074097+05:30"},{"city":"Visakhapatnam","state":"Andhra Pradesh","latitude":17.6868,"longitude":83.2185,"temp":27.8,"humidity":85,"rain":0.0,"pressure":998.9,"uv_index":9.0,"wind_gusts":54.0,"aqi":70,"pm10":30.4,"pm2_5":21.7,"no2":12.8,"co":265.0,"o3":88.0,"so2":25.1,"mosquito_risk":7,"arthritis_risk":5,"migraine_risk":7,"frizz_risk":1,"updated_at":"2026-07-08T03:06:54.074104+05:30"},{"city":"Vijayawada","state":"Andhra Pradesh","latitude":16.5062,"longitude":80.648,"temp":30.2,"humidity":58,"rain":0.0,"pressure":998.0,"uv_index":8.95,"wind_gusts":52.6,"aqi":53,"pm10":16.5,"pm2_5":12.3,"no2":9.1,"co":128.0,"o3":44.0,"so2":5.2,"mosquito_risk":0,"arthritis_risk":5,"migraine_risk":7,"frizz_risk":1,"updated_at":"2026-07-08T03:06:54.074111+05:30"},{"city":"Guntur","state":"Andhra Pradesh","latitude":16.3067,"longitude":80.4365,"temp":30.5,"humidity":56,"rain":0.0,"pressure":999.3,"uv_index":8.45,"wind_gusts":52.9,"aqi":50,"pm10":12.8,"pm2_5":9.3,"no2":8.9,"co":119.0,"o3":37.0,"so2":5.1,"mosquito_risk":0,"arthritis_risk":5,"migraine_risk":7,"frizz_risk":1,"updated_at":"2026-07-08T03:06:54.074119+05:30"},{"city":"Nellore","state":"Andhra Pradesh","latitude":14.4426,"longitude":79.9865,"temp":30.4,"humidity":55,"rain":0.0,"pressure":1002.7,"uv_index":8.5,"wind_gusts":55.4,"aqi":42,"pm10":13.2,"pm2_5":7.2,"no2":4.5,"co":107.0,"o3":42.0,"so2":3.0,"mosquito_risk":0,"arthritis_risk":5,"migraine_risk":4,"frizz_risk":1,"updated_at":"2026-07-08T03:06:54.074127+05:30"},{"city":"Kurnool","state":"Andhra Pradesh","latitude":15.8281,"longitude":78.0373,"temp":26.5,"humidity":72,"rain":0.0,"pressure":973.2,"uv_index":5.85,"wind_gusts":61.9,"aqi":22,"pm10":4.5,"pm2_5":3.1,"no2":5.2,"co":106.0,"o3":37.0,"so2":3.5,"mosquito_risk":7,"arthritis_risk":5,"migraine_risk":3,"frizz_risk":1,"updated_at":"2026-07-08T03:06:54.074135+05:30"},{"city":"Kakinada","state":"Andhra Pradesh","latitude":16.9891,"longitude":82.2475,"temp":29.2,"humidity":74,"rain":0.0,"pressure":1002.4,"uv_index":8.65,"wind_gusts":53.3,"aqi":63,"pm10":30.4,"pm2_5":19.0,"no2":3.2,"co":168.0,"o3":91.0,"so2":2.7,"mosquito_risk":7,"arthritis_risk":5,"migraine_risk":4,"frizz_risk":1,"updated_at":"2026-07-08T03:06:54.074143+05:30"},{"city":"Tirupati","state":"Andhra Pradesh","latitude":13.6288,"longitude":79.4192,"temp":28.9,"humidity":56,"rain":0.0,"pressure":988.8,"uv_index":8.65,"wind_gusts":54.0,"aqi":34,"pm10":12.4,"pm2_5":7.5,"no2":6.4,"co":112.0,"o3":39.0,"so2":2.0,"mosquito_risk":4,"arthritis_risk":5,"migraine_risk":7,"frizz_risk":1,"updated_at":"2026-07-08T03:06:54.074150+05:30"},{"city":"Warangal","state":"Telangana","latitude":17.9689,"longitude":79.5941,"temp":27.5,"humidity":68,"rain":0.0,"pressure":972.7,"uv_index":6.95,"wind_gusts":51.1,"aqi":28,"pm10":6.4,"pm2_5":5.0,"no2":6.9,"co":149.0,"o3":39.0,"so2":3.7,"mosquito_risk":7,"arthritis_risk":5,"migraine_risk":7,"frizz_risk":1,"updated_at":"2026-07-08T03:06:54.074158+05:30"},{"city":"Nizamabad","state":"Telangana","latitude":18.6725,"longitude":78.0941,"temp":26.2,"humidity":75,"rain":0.0,"pressure":957.4,"uv_index":7.7,"wind_gusts":50.8,"aqi":22,"pm10":4.2,"pm2_5":3.5,"no2":5.3,"co":120.0,"o3":40.0,"so2":2.8,"mosquito_risk":7,"arthritis_risk":5,"migraine_risk":7,"frizz_risk":1,"updated_at":"2026-07-08T03:06:54.074165+05:30"},{"city":"Mysore","state":"Karnataka","latitude":12.2958,"longitude":76.6396,"temp":21.8,"humidity":87,"rain":0.0,"pressure":927.5,"uv_index":7.4,"wind_gusts":64.1,"aqi":22,"pm10":4.6,"pm2_5":2.7,"no2":3.0,"co":98.0,"o3":43.0,"so2":1.4,"mosquito_risk":3,"arthritis_risk":5,"migraine_risk":7,"frizz_risk":1,"updated_at":"2026-07-08T03:06:54.074172+05:30"},{"city":"Mangalore","state":"Karnataka","latitude":12.9141,"longitude":74.856,"temp":24.1,"humidity":95,"rain":0.1,"pressure":1006.7,"uv_index":8.7,"wind_gusts":60.8,"aqi":62,"pm10":24.2,"pm2_5":13.2,"no2":6.8,"co":129.0,"o3":29.0,"so2":1.8,"mosquito_risk":6,"arthritis_risk":5,"migraine_risk":4,"frizz_risk":1,"updated_at":"2026-07-08T03:06:54.074180+05:30"},{"city":"Hubli-Dharwad","state":"Karnataka","latitude":15.3647,"longitude":75.124,"temp":22.0,"humidity":97,"rain":0.0,"pressure":936.7,"uv_index":7.55,"wind_gusts":66.6,"aqi":20,"pm10":2.9,"pm2_5":1.7,"no2":1.5,"co":91.0,"o3":41.0,"so2":0.7,"mosquito_risk":3,"arthritis_risk":5,"migraine_risk":7,"frizz_risk":1,"updated_at":"2026-07-08T03:06:54.074187+05:30"},{"city":"Belgaum","state":"Karnataka","latitude":15.8497,"longitude":74.4977,"temp":21.5,"humidity":97,"rain":0.1,"pressure":921.0,"uv_index":2.85,"wind_gusts":70.9,"aqi":21,"pm10":1.3,"pm2_5":0.9,"no2":1.8,"co":95.0,"o3":43.0,"so2":0.9,"mosquito_risk":6,"arthritis_risk":5,"migraine_risk":3,"frizz_risk":1,"updated_at":"2026-07-08T03:06:57.453716+05:30"},{"city":"Coimbatore","state":"Tamil Nadu","latitude":11.0168,"longitude":76.9558,"temp":22.3,"humidity":97,"rain":0.0,"pressure":960.8,"uv_index":8.7,"wind_gusts":59.8,"aqi":31,"pm10":11.4,"pm2_5":6.9,"no2":4.6,"co":174.0,"o3":38.0,"so2":2.1,"mosquito_risk":3,"arthritis_risk":5,"migraine_risk":7,"frizz_risk":1,"updated_at":"2026-07-08T03:06:57.453749+05:30"},{"city":"Madurai","state":"Tamil Nadu","latitude":9.9252,"longitude":78.1198,"temp":27.5,"humidity":60,"rain":0.0,"pressure":992.0,"uv_index":8.7,"wind_gusts":44.3,"aqi":61,"pm10":40.0,"pm2_5":28.2,"no2":29.7,"co":138.0,"o3":9.0,"so2":5.1,"mosquito_risk":4,"arthritis_risk":5,"migraine_risk":7,"frizz_risk":1,"updated_at":"2026-07-08T03:06:57.453760+05:30"},{"city":"Trichy","state":"Tamil Nadu","latitude":10.7905,"longitude":78.7047,"temp":28.9,"humidity":60,"rain":0.0,"pressure":998.6,"uv_index":8.75,"wind_gusts":63.4,"aqi":50,"pm10":16.6,"pm2_5":10.4,"no2":4.0,"co":103.0,"o3":44.0,"so2":2.2,"mosquito_risk":4,"arthritis_risk":5,"migraine_risk":7,"frizz_risk":1,"updated_at":"2026-07-08T03:06:57.453770+05:30"},{"city":"Salem","state":"Tamil Nadu","latitude":11.6643,"longitude":78.146,"temp":24.7,"humidity":83,"rain":0.0,"pressure":976.6,"uv_index":8.8,"wind_gusts":46.1,"aqi":51,"pm10":26.1,"pm2_5":18.0,"no2":16.0,"co":299.0,"o3":27.0,"so2":5.8,"mosquito_risk":3,"arthritis_risk":5,"migraine_risk":7,"frizz_risk":1,"updated_at":"2026-07-08T03:06:57.453779+05:30"},{"city":"Tirunelveli","state":"Tamil Nadu","latitude":8.7139,"longitude":77.7567,"temp":27.5,"humidity":68,"rain":0.0,"pressure":1002.9,"uv_index":8.6,"wind_gusts":56.5,"aqi":52,"pm10":13.3,"pm2_5":9.1,"no2":5.5,"co":137.0,"o3":37.0,"so2":2.1,"mosquito_risk":7,"arthritis_risk":5,"migraine_risk":4,"frizz_risk":1,"updated_at":"2026-07-08T03:06:57.453788+05:30"},{"city":"Vellore","state":"Tamil Nadu","latitude":12.9165,"longitude":79.1325,"temp":28.4,"humidity":57,"rain":0.0,"pressure":982.6,"uv_index":8.7,"wind_gusts":55.1,"aqi":32,"pm10":12.1,"pm2_5":7.3,"no2":5.9,"co":118.0,"o3":42.0,"so2":2.7,"mosquito_risk":4,"arthritis_risk":5,"migraine_risk":7,"frizz_risk":1,"updated_at":"2026-07-08T03:06:57.453796+05:30"},{"city":"Erode","state":"Tamil Nadu","latitude":11.341,"longitude":77.7172,"temp":25.5,"humidity":78,"rain":0.0,"pressure":988.4,"uv_index":8.7,"wind_gusts":42.5,"aqi":51,"pm10":21.2,"pm2_5":15.5,"no2":14.7,"co":140.0,"o3":30.0,"so2":3.5,"mosquito_risk":7,"arthritis_risk":5,"migraine_risk":7,"frizz_risk":1,"updated_at":"2026-07-08T03:06:57.453804+05:30"},{"city":"Kochi","state":"Kerala","latitude":9.9312,"longitude":76.2673,"temp":25.4,"humidity":94,"rain":0.0,"pressure":1009.7,"uv_index":8.35,"wind_gusts":43.2,"aqi":64,"pm10":20.7,"pm2_5":16.3,"no2":15.8,"co":122.0,"o3":15.0,"so2":4.1,"mosquito_risk":7,"arthritis_risk":0,"migraine_risk":4,"frizz_risk":1,"updated_at":"2026-07-08T03:06:57.453813+05:30"},{"city":"Thiruvananthapuram","state":"Kerala","latitude":8.5241,"longitude":76.9366,"temp":25.2,"humidity":95,"rain":0.1,"pressure":1008.8,"uv_index":8.4,"wind_gusts":56.5,"aqi":52,"pm10":16.4,"pm2_5":10.0,"no2":3.4,"co":96.0,"o3":42.0,"so2":1.5,"mosquito_risk":10,"arthritis_risk":0,"migraine_risk":4,"frizz_risk":1,"updated_at":"2026-07-08T03:06:57.453820+05:30"},{"city":"Kozhikode","state":"Kerala","latitude":11.2588,"longitude":75.7804,"temp":23.3,"humidity":98,"rain":0.2,"pressure":1008.9,"uv_index":8.5,"wind_gusts":35.6,"aqi":60,"pm10":24.9,"pm2_5":13.2,"no2":4.2,"co":178.0,"o3":42.0,"so2":2.3,"mosquito_risk":6,"arthritis_risk":0,"migraine_risk":4,"frizz_risk":1,"updated_at":"2026-07-08T03:06:57.453829+05:30"},{"city":"Thrissur","state":"Kerala","latitude":10.5276,"longitude":76.2144,"temp":24.2,"humidity":98,"rain":0.0,"pressure":1008.0,"uv_index":8.55,"wind_gusts":44.6,"aqi":60,"pm10":23.1,"pm2_5":18.3,"no2":14.6,"co":194.0,"o3":13.0,"so2":3.2,"mosquito_risk":3,"arthritis_risk":0,"migraine_risk":4,"frizz_risk":1,"updated_at":"2026-07-08T03:06:57.453838+05:30"},{"city":"Kannur","state":"Kerala","latitude":11.8745,"longitude":75.3704,"temp":23.6,"humidity":98,"rain":0.5,"pressure":1007.9,"uv_index":8.3,"wind_gusts":39.6,"aqi":60,"pm10":25.4,"pm2_5":12.1,"no2":6.3,"co":148.0,"o3":29.0,"so2":1.3,"mosquito_risk":6,"arthritis_risk":5,"migraine_risk":4,"frizz_risk":1,"updated_at":"2026-07-08T03:06:57.453846+05:30"},{"city":"Patna","state":"Bihar","latitude":25.5941,"longitude":85.1376,"temp":27.6,"humidity":90,"rain":0.1,"pressure":993.4,"uv_index":8.15,"wind_gusts":25.2,"aqi":65,"pm10":30.2,"pm2_5":28.3,"no2":20.7,"co":254.0,"o3":43.0,"so2":16.5,"mosquito_risk":10,"arthritis_risk":5,"migraine_risk":7,"frizz_risk":1,"updated_at":"2026-07-08T03:06:57.453854+05:30"},{"city":"Gaya","state":"Bihar","latitude":24.7914,"longitude":85.0002,"temp":27.7,"humidity":82,"rain":0.1,"pressure":986.5,"uv_index":7.45,"wind_gusts":26.3,"aqi":63,"pm10":16.7,"pm2_5":15.0,"no2":10.0,"co":209.0,"o3":64.0,"so2":9.4,"mosquito_risk":10,"arthritis_risk":5,"migraine_risk":7,"frizz_risk":1,"updated_at":"2026-07-08T03:06:57.453862+05:30"},{"city":"Muzaffarpur","state":"Bihar","latitude":26.1209,"longitude":85.3647,"temp":27.4,"humidity":93,"rain":0.0,"pressure":993.5,"uv_index":6.95,"wind_gusts":29.5,"aqi":66,"pm10":29.0,"pm2_5":27.9,"no2":18.4,"co":363.0,"o3":52.0,"so2":13.2,"mosquito_risk":7,"arthritis_risk":5,"migraine_risk":7,"frizz_risk":1,"updated_at":"2026-07-08T03:06:57.453869+05:30"},{"city":"Bhagalpur","state":"Bihar","latitude":25.2425,"longitude":87.0117,"temp":27.0,"humidity":98,"rain":0.1,"pressure":994.7,"uv_index":7.75,"wind_gusts":22.0,"aqi":66,"pm10":25.9,"pm2_5":24.4,"no2":15.6,"co":343.0,"o3":58.0,"so2":18.0,"mosquito_risk":10,"arthritis_risk":5,"migraine_risk":7,"frizz_risk":1,"updated_at":"2026-07-08T03:06:57.453876+05:30"},{"city":"Ranchi","state":"Jharkhand","latitude":23.3441,"longitude":85.3096,"temp":23.4,"humidity":97,"rain":0.0,"pressure":931.4,"uv_index":8.5,"wind_gusts":50.0,"aqi":49,"pm10":14.9,"pm2_5":13.6,"no2":10.8,"co":228.0,"o3":55.0,"so2":15.9,"mosquito_risk":3,"arthritis_risk":5,"migraine_risk":7,"frizz_risk":1,"updated_at":"2026-07-08T03:06:57.453883+05:30"},{"city":"Jamshedpur","state":"Jharkhand","latitude":22.8046,"longitude":86.2029,"temp":25.7,"humidity":96,"rain":0.3,"pressure":985.0,"uv_index":8.35,"wind_gusts":33.5,"aqi":61,"pm10":23.6,"pm2_5":21.5,"no2":16.9,"co":441.0,"o3":58.0,"so2":23.3,"mosquito_risk":10,"arthritis_risk":5,"migraine_risk":7,"frizz_risk":1,"updated_at":"2026-07-08T03:06:57.453890+05:30"},{"city":"Dhanbad","state":"Jharkhand","latitude":23.7957,"longitude":86.4304,"temp":25.6,"humidity":97,"rain":0.1,"pressure":973.8,"uv_index":6.85,"wind_gusts":32.8,"aqi":85,"pm10":39.6,"pm2_5":37.6,"no2":40.6,"co":1526.0,"o3":37.0,"so2":90.9,"mosquito_risk":10,"arthritis_risk":5,"migraine_risk":7,"frizz_risk":1,"updated_at":"2026-07-08T03:06:57.453898+05:30"},{"city":"Bokaro","state":"Jharkhand","latitude":23.6693,"longitude":86.1511,"temp":25.8,"humidity":94,"rain":0.1,"pressure":977.6,"uv_index":8.2,"wind_gusts":37.8,"aqi":72,"pm10":28.6,"pm2_5":26.8,"no2":24.8,"co":827.0,"o3":54.0,"so2":59.2,"mosquito_risk":10,"arthritis_risk":5,"migraine_risk":7,"frizz_risk":1,"updated_at":"2026-07-08T03:06:57.453905+05:30"},{"city":"Bhubaneswar","state":"Odisha","latitude":20.2961,"longitude":85.8245,"temp":28.0,"humidity":78,"rain":0.0,"pressure":997.0,"uv_index":7.95,"wind_gusts":57.2,"aqi":63,"pm10":22.1,"pm2_5":15.1,"no2":4.8,"co":137.0,"o3":77.0,"so2":5.0,"mosquito_risk":7,"arthritis_risk":5,"migraine_risk":7,"frizz_risk":1,"updated_at":"2026-07-08T03:06:57.453911+05:30"},{"city":"Cuttack","state":"Odisha","latitude":20.4625,"longitude":85.8828,"temp":28.0,"humidity":79,"rain":0.0,"pressure":998.7,"uv_index":8.2,"wind_gusts":42.8,"aqi":63,"pm10":22.1,"pm2_5":15.1,"no2":4.8,"co":140.0,"o3":77.0,"so2":5.0,"mosquito_risk":7,"arthritis_risk":5,"migraine_risk":7,"frizz_risk":1,"updated_at":"2026-07-08T03:06:57.453918+05:30"},{"city":"Rourkela","state":"Odisha","latitude":22.2604,"longitude":84.8536,"temp":25.8,"humidity":97,"rain":0.0,"pressure":978.5,"uv_index":4.85,"wind_gusts":41.0,"aqi":51,"pm10":19.3,"pm2_5":17.6,"no2":12.6,"co":257.0,"o3":53.0,"so2":17.2,"mosquito_risk":7,"arthritis_risk":5,"migraine_risk":3,"frizz_risk":1,"updated_at":"2026-07-08T03:06:57.453925+05:30"},{"city":"Raipur","state":"Chhattisgarh","latitude":21.2514,"longitude":81.6296,"temp":26.8,"humidity":77,"rain":0.0,"pressure":967.1,"uv_index":6.3,"wind_gusts":55.4,"aqi":50,"pm10":7.2,"pm2_5":7.0,"no2":11.9,"co":134.0,"o3":52.0,"so2":20.5,"mosquito_risk":7,"arthritis_risk":5,"migraine_risk":7,"frizz_risk":1,"updated_at":"2026-07-08T03:06:57.453932+05:30"},{"city":"Bhilai","state":"Chhattisgarh","latitude":21.1938,"longitude":81.3509,"temp":26.4,"humidity":80,"rain":0.0,"pressure":967.2,"uv_index":6.65,"wind_gusts":60.1,"aqi":49,"pm10":6.8,"pm2_5":6.7,"no2":12.3,"co":210.0,"o3":52.0,"so2":21.7,"mosquito_risk":7,"arthritis_risk":5,"migraine_risk":7,"frizz_risk":1,"updated_at":"2026-07-08T03:06:57.453939+05:30"},{"city":"Guwahati","state":"Assam","latitude":26.1158,"longitude":91.7086,"temp":25.8,"humidity":98,"rain":0.0,"pressure":996.1,"uv_index":8.4,"wind_gusts":22.7,"aqi":41,"pm10":11.4,"pm2_5":11.3,"no2":7.8,"co":218.0,"o3":47.0,"so2":1.9,"mosquito_risk":7,"arthritis_risk":5,"migraine_risk":7,"frizz_risk":1,"updated_at":"2026-07-08T03:06:57.453946+05:30"},{"city":"Agartala","state":"Tripura","latitude":23.8315,"longitude":91.2868,"temp":24.8,"humidity":99,"rain":0.4,"pressure":1001.8,"uv_index":1.0,"wind_gusts":37.4,"aqi":39,"pm10":13.2,"pm2_5":10.9,"no2":8.3,"co":133.0,"o3":48.0,"so2":2.2,"mosquito_risk":6,"arthritis_risk":5,"migraine_risk":0,"frizz_risk":1,"updated_at":"2026-07-08T03:06:57.453953+05:30"},{"city":"Shillong","state":"Meghalaya","latitude":25.5788,"longitude":91.8933,"temp":19.7,"humidity":98,"rain":0.0,"pressure":853.4,"uv_index":4.15,"wind_gusts":25.9,"aqi":26,"pm10":1.0,"pm2_5":1.0,"no2":5.5,"co":196.0,"o3":53.0,"so2":2.6,"mosquito_risk":3,"arthritis_risk":10,"migraine_risk":3,"frizz_risk":1,"updated_at":"2026-07-08T03:06:57.453961+05:30"},{"city":"Imphal","state":"Manipur","latitude":24.817,"longitude":93.9368,"temp":22.8,"humidity":96,"rain":0.0,"pressure":919.1,"uv_index":2.5,"wind_gusts":31.3,"aqi":22,"pm10":3.6,"pm2_5":3.6,"no2":4.6,"co":212.0,"o3":47.0,"so2":1.7,"mosquito_risk":3,"arthritis_risk":5,"migraine_risk":3,"frizz_risk":1,"updated_at":"2026-07-08T03:06:57.453969+05:30"},{"city":"Aizawl","state":"Mizoram","latitude":23.7271,"longitude":92.7176,"temp":19.2,"humidity":98,"rain":0.1,"pressure":889.0,"uv_index":1.2,"wind_gusts":42.5,"aqi":24,"pm10":0.6,"pm2_5":0.5,"no2":2.1,"co":103.0,"o3":51.0,"so2":0.9,"mosquito_risk":6,"arthritis_risk":10,"migraine_risk":3,"frizz_risk":1,"updated_at":"2026-07-08T03:06:57.453976+05:30"},{"city":"Kohima","state":"Nagaland","latitude":25.6701,"longitude":94.1077,"temp":20.2,"humidity":99,"rain":0.1,"pressure":852.0,"uv_index":4.35,"wind_gusts":20.5,"aqi":21,"pm10":1.1,"pm2_5":1.1,"no2":2.9,"co":167.0,"o3":49.0,"so2":0.6,"mosquito_risk":6,"arthritis_risk":5,"migraine_risk":3,"frizz_risk":1,"updated_at":"2026-07-08T03:06:57.453984+05:30"},{"city":"Gangtok","state":"Sikkim","latitude":27.3314,"longitude":88.6138,"temp":18.9,"humidity":98,"rain":0.0,"pressure":834.0,"uv_index":6.3,"wind_gusts":29.2,"aqi":42,"pm10":8.8,"pm2_5":8.7,"no2":6.2,"co":319.0,"o3":82.0,"so2":2.1,"mosquito_risk":3,"arthritis_risk":10,"migraine_risk":7,"frizz_risk":1,"updated_at":"2026-07-08T03:06:57.453991+05:30"},{"city":"Siliguri","state":"West Bengal","latitude":26.7271,"longitude":88.3953,"temp":25.4,"humidity":97,"rain":0.0,"pressure":987.4,"uv_index":6.1,"wind_gusts":27.0,"aqi":41,"pm10":14.8,"pm2_5":14.6,"no2":9.0,"co":334.0,"o3":83.0,"so2":3.4,"mosquito_risk":7,"arthritis_risk":5,"migraine_risk":7,"frizz_risk":1,"updated_at":"2026-07-08T03:07:00.842612+05:30"},{"city":"Durgapur","state":"West Bengal","latitude":23.5204,"longitude":87.3119,"temp":26.5,"humidity":97,"rain":0.3,"pressure":989.2,"uv_index":8.35,"wind_gusts":28.8,"aqi":81,"pm10":36.1,"pm2_5":33.3,"no2":27.3,"co":456.0,"o3":40.0,"so2":39.2,"mosquito_risk":10,"arthritis_risk":5,"migraine_risk":7,"frizz_risk":1,"updated_at":"2026-07-08T03:07:00.842646+05:30"},{"city":"Asansol","state":"West Bengal","latitude":23.6739,"longitude":86.9524,"temp":26.6,"humidity":96,"rain":0.1,"pressure":987.5,"uv_index":7.6,"wind_gusts":36.4,"aqi":73,"pm10":31.2,"pm2_5":28.8,"no2":27.3,"co":282.0,"o3":42.0,"so2":42.8,"mosquito_risk":10,"arthritis_risk":5,"migraine_risk":7,"frizz_risk":1,"updated_at":"2026-07-08T03:07:00.842657+05:30"},{"city":"Pondicherry","state":"Puducherry","latitude":11.9139,"longitude":79.8145,"temp":30.2,"humidity":50,"rain":0.0,"pressure":1006.7,"uv_index":8.2,"wind_gusts":52.6,"aqi":60,"pm10":21.5,"pm2_5":14.9,"no2":14.0,"co":152.0,"o3":39.0,"so2":4.2,"mosquito_risk":0,"arthritis_risk":5,"migraine_risk":4,"frizz_risk":1,"updated_at":"2026-07-08T03:07:00.842666+05:30"},{"city":"Port Blair","state":"Andaman and Nicobar Islands","latitude":11.6234,"longitude":92.7265,"temp":27.2,"humidity":80,"rain":0.0,"pressure":1007.9,"uv_index":8.05,"wind_gusts":43.2,"aqi":59,"pm10":29.3,"pm2_5":16.8,"no2":0.1,"co":91.0,"o3":67.0,"so2":0.5,"mosquito_risk":7,"arthritis_risk":5,"migraine_risk":4,"frizz_risk":1,"updated_at":"2026-07-08T03:07:00.842675+05:30"},{"city":"Haridwar","state":"Uttarakhand","latitude":29.9457,"longitude":78.1642,"temp":26.3,"humidity":97,"rain":0.0,"pressure":966.1,"uv_index":4.5,"wind_gusts":20.5,"aqi":122,"pm10":50.2,"pm2_5":49.2,"no2":15.2,"co":269.0,"o3":84.0,"so2":7.3,"mosquito_risk":7,"arthritis_risk":5,"migraine_risk":3,"frizz_risk":1,"updated_at":"2026-07-08T03:07:00.842683+05:30"},{"city":"Rishikesh","state":"Uttarakhand","latitude":30.0869,"longitude":78.2676,"temp":25.2,"humidity":97,"rain":0.0,"pressure":958.9,"uv_index":1.9,"wind_gusts":15.1,"aqi":79,"pm10":32.4,"pm2_5":31.7,"no2":7.7,"co":326.0,"o3":109.0,"so2":6.2,"mosquito_risk":7,"arthritis_risk":5,"migraine_risk":3,"frizz_risk":1,"updated_at":"2026-07-08T03:07:00.842692+05:30"},{"city":"Nainital","state":"Uttarakhand","latitude":29.3919,"longitude":79.4542,"temp":17.4,"humidity":99,"rain":0.1,"pressure":800.7,"uv_index":7.7,"wind_gusts":31.3,"aqi":64,"pm10":9.7,"pm2_5":9.6,"no2":6.0,"co":219.0,"o3":93.0,"so2":1.7,"mosquito_risk":6,"arthritis_risk":10,"migraine_risk":7,"frizz_risk":1,"updated_at":"2026-07-08T03:07:00.842700+05:30"},{"city":"Mussoorie","state":"Uttarakhand","latitude":30.4599,"longitude":78.0664,"temp":17.2,"humidity":100,"rain":0.0,"pressure":798.2,"uv_index":3.4,"wind_gusts":19.4,"aqi":87,"pm10":41.0,"pm2_5":39.8,"no2":27.8,"co":295.0,"o3":83.0,"so2":9.2,"mosquito_risk":3,"arthritis_risk":10,"migraine_risk":3,"frizz_risk":1,"updated_at":"2026-07-08T03:07:00.842708+05:30"},{"city":"Dharamshala","state":"Himachal Pradesh","latitude":32.219,"longitude":76.3234,"temp":22.1,"humidity":85,"rain":0.0,"pressure":862.9,"uv_index":8.05,"wind_gusts":34.6,"aqi":38,"pm10":2.4,"pm2_5":2.2,"no2":5.9,"co":373.0,"o3":69.0,"so2":0.2,"mosquito_risk":3,"arthritis_risk":5,"migraine_risk":7,"frizz_risk":1,"updated_at":"2026-07-08T03:07:00.842715+05:30"},{"city":"Dalhousie","state":"Himachal Pradesh","latitude":32.5387,"longitude":75.971,"temp":16.4,"humidity":97,"rain":0.0,"pressure":798.4,"uv_index":8.65,"wind_gusts":26.3,"aqi":85,"pm10":24.5,"pm2_5":23.6,"no2":19.6,"co":360.0,"o3":48.0,"so2":1.5,"mosquito_risk":3,"arthritis_risk":10,"migraine_risk":7,"frizz_risk":0,"updated_at":"2026-07-08T03:07:00.842723+05:30"},{"city":"Patiala","state":"Punjab","latitude":30.3398,"longitude":76.3869,"temp":27.4,"humidity":90,"rain":0.0,"pressure":969.6,"uv_index":7.55,"wind_gusts":32.0,"aqi":148,"pm10":66.4,"pm2_5":62.9,"no2":19.4,"co":763.0,"o3":87.0,"so2":15.8,"mosquito_risk":7,"arthritis_risk":5,"migraine_risk":7,"frizz_risk":1,"updated_at":"2026-07-08T03:07:00.842731+05:30"},{"city":"Bhatinda","state":"Punjab","latitude":30.211,"longitude":74.9455,"temp":29.5,"humidity":79,"rain":0.0,"pressure":974.0,"uv_index":7.65,"wind_gusts":27.7,"aqi":169,"pm10":173.2,"pm2_5":72.6,"no2":24.7,"co":542.0,"o3":64.0,"so2":7.4,"mosquito_risk":7,"arthritis_risk":5,"migraine_risk":7,"frizz_risk":1,"updated_at":"2026-07-08T03:07:00.842738+05:30"},{"city":"Rohtak","state":"Haryana","latitude":28.8955,"longitude":76.6066,"temp":27.3,"humidity":92,"rain":0.0,"pressure":972.8,"uv_index":6.2,"wind_gusts":31.7,"aqi":130,"pm10":196.5,"pm2_5":77.1,"no2":30.5,"co":771.0,"o3":82.0,"so2":38.0,"mosquito_risk":7,"arthritis_risk":5,"migraine_risk":7,"frizz_risk":1,"updated_at":"2026-07-08T03:07:00.842745+05:30"},{"city":"Panipat","state":"Haryana","latitude":29.3909,"longitude":76.9635,"temp":26.5,"humidity":97,"rain":0.0,"pressure":971.9,"uv_index":7.5,"wind_gusts":32.0,"aqi":136,"pm10":73.6,"pm2_5":69.4,"no2":23.6,"co":507.0,"o3":91.0,"so2":21.4,"mosquito_risk":7,"arthritis_risk":5,"migraine_risk":7,"frizz_risk":1,"updated_at":"2026-07-08T03:07:00.842754+05:30"},{"city":"Mathura","state":"Uttar Pradesh","latitude":27.4924,"longitude":77.6737,"temp":26.2,"humidity":95,"rain":0.1,"pressure":977.1,"uv_index":6.5,"wind_gusts":31.0,"aqi":110,"pm10":15.9,"pm2_5":14.6,"no2":10.9,"co":270.0,"o3":90.0,"so2":7.8,"mosquito_risk":10,"arthritis_risk":5,"migraine_risk":7,"frizz_risk":1,"updated_at":"2026-07-08T03:07:00.842762+05:30"},{"city":"Vrindavan","state":"Uttar Pradesh","latitude":27.5823,"longitude":77.7027,"temp":26.3,"humidity":96,"rain":0.1,"pressure":977.5,"uv_index":6.55,"wind_gusts":30.2,"aqi":110,"pm10":15.9,"pm2_5":14.6,"no2":10.9,"co":272.0,"o3":90.0,"so2":7.8,"mosquito_risk":10,"arthritis_risk":5,"migraine_risk":7,"frizz_risk":1,"updated_at":"2026-07-08T03:07:00.842769+05:30"},{"city":"Ayodhya","state":"Uttar Pradesh","latitude":26.7922,"longitude":82.1998,"temp":26.3,"humidity":96,"rain":0.0,"pressure":986.8,"uv_index":6.15,"wind_gusts":38.9,"aqi":60,"pm10":20.0,"pm2_5":19.9,"no2":10.1,"co":325.0,"o3":87.0,"so2":6.0,"mosquito_risk":7,"arthritis_risk":5,"migraine_risk":7,"frizz_risk":1,"updated_at":"2026-07-08T03:07:00.842776+05:30"},{"city":"Ratlam","state":"Madhya Pradesh","latitude":23.3315,"longitude":75.0367,"temp":25.0,"humidity":98,"rain":0.1,"pressure":945.1,"uv_index":5.45,"wind_gusts":45.4,"aqi":66,"pm10":13.7,"pm2_5":12.7,"no2":6.8,"co":250.0,"o3":68.0,"so2":4.3,"mosquito_risk":10,"arthritis_risk":5,"migraine_risk":3,"frizz_risk":1,"updated_at":"2026-07-08T03:07:00.842785+05:30"},{"city":"Sagar","state":"Madhya Pradesh","latitude":23.8388,"longitude":78.7378,"temp":24.5,"humidity":96,"rain":0.1,"pressure":938.9,"uv_index":3.55,"wind_gusts":39.2,"aqi":36,"pm10":2.7,"pm2_5":2.6,"no2":5.4,"co":243.0,"o3":86.0,"so2":2.2,"mosquito_risk":6,"arthritis_risk":5,"migraine_risk":3,"frizz_risk":1,"updated_at":"2026-07-08T03:07:00.842795+05:30"},{"city":"Satna","state":"Madhya Pradesh","latitude":24.6005,"longitude":80.8322,"temp":26.1,"humidity":86,"rain":0.0,"pressure":960.8,"uv_index":7.2,"wind_gusts":44.3,"aqi":42,"pm10":8.2,"pm2_5":8.1,"no2":11.0,"co":212.0,"o3":48.0,"so2":9.4,"mosquito_risk":7,"arthritis_risk":5,"migraine_risk":7,"frizz_risk":1,"updated_at":"2026-07-08T03:07:00.842802+05:30"},{"city":"Akola","state":"Maharashtra","latitude":20.7002,"longitude":77.0082,"temp":26.3,"humidity":83,"rain":0.0,"pressure":965.7,"uv_index":6.6,"wind_gusts":49.0,"aqi":37,"pm10":11.8,"pm2_5":10.5,"no2":9.1,"co":148.0,"o3":61.0,"so2":9.3,"mosquito_risk":7,"arthritis_risk":5,"migraine_risk":7,"frizz_risk":1,"updated_at":"2026-07-08T03:07:00.842810+05:30"},{"city":"Amravati","state":"Maharashtra","latitude":20.9374,"longitude":77.7796,"temp":26.1,"humidity":81,"rain":0.0,"pressure":957.9,"uv_index":7.75,"wind_gusts":47.9,"aqi":37,"pm10":9.4,"pm2_5":8.5,"no2":8.7,"co":161.0,"o3":61.0,"so2":9.0,"mosquito_risk":7,"arthritis_risk":5,"migraine_risk":7,"frizz_risk":1,"updated_at":"2026-07-08T03:07:00.842818+05:30"},{"city":"Latur","state":"Maharashtra","latitude":18.4088,"longitude":76.5604,"temp":24.3,"humidity":83,"rain":0.0,"pressure":932.2,"uv_index":8.05,"wind_gusts":57.2,"aqi":22,"pm10":3.5,"pm2_5":2.6,"no2":3.9,"co":118.0,"o3":43.0,"so2":2.1,"mosquito_risk":3,"arthritis_risk":5,"migraine_risk":7,"frizz_risk":1,"updated_at":"2026-07-08T03:07:00.842826+05:30"},{"city":"Nanded","state":"Maharashtra","latitude":19.1383,"longitude":77.3091,"temp":26.4,"humidity":76,"rain":0.0,"pressure":960.5,"uv_index":6.9,"wind_gusts":49.0,"aqi":24,"pm10":4.1,"pm2_5":3.2,"no2":5.8,"co":127.0,"o3":43.0,"so2":4.0,"mosquito_risk":7,"arthritis_risk":5,"migraine_risk":7,"frizz_risk":1,"updated_at":"2026-07-08T03:07:00.842834+05:30"},{"city":"Gulbarga","state":"Karnataka","latitude":17.3297,"longitude":76.8343,"temp":25.0,"humidity":79,"rain":0.0,"pressure":952.8,"uv_index":6.9,"wind_gusts":63.0,"aqi":21,"pm10":2.8,"pm2_5":2.1,"no2":4.6,"co":113.0,"o3":40.0,"so2":2.6,"mosquito_risk":7,"arthritis_risk":5,"migraine_risk":7,"frizz_risk":1,"updated_at":"2026-07-08T03:07:00.842841+05:30"},{"city":"Bidar","state":"Karnataka","latitude":17.9104,"longitude":77.5199,"temp":24.3,"humidity":81,"rain":0.0,"pressure":928.9,"uv_index":8.45,"wind_gusts":61.6,"aqi":22,"pm10":3.9,"pm2_5":2.9,"no2":4.8,"co":114.0,"o3":42.0,"so2":2.4,"mosquito_risk":3,"arthritis_risk":5,"migraine_risk":7,"frizz_risk":1,"updated_at":"2026-07-08T03:07:00.842848+05:30"},{"city":"Hospet","state":"Karnataka","latitude":15.2689,"longitude":76.3909,"temp":23.9,"humidity":87,"rain":0.0,"pressure":951.8,"uv_index":7.95,"wind_gusts":68.8,"aqi":20,"pm10":2.5,"pm2_5":1.6,"no2":2.4,"co":99.0,"o3":41.0,"so2":1.2,"mosquito_risk":3,"arthritis_risk":5,"migraine_risk":7,"frizz_risk":1,"updated_at":"2026-07-08T03:07:00.842855+05:30"},{"city":"Tirupur","state":"Tamil Nadu","latitude":11.1085,"longitude":77.3411,"temp":23.9,"humidity":86,"rain":0.0,"pressure":974.3,"uv_index":8.8,"wind_gusts":66.2,"aqi":52,"pm10":23.5,"pm2_5":17.4,"no2":18.4,"co":139.0,"o3":23.0,"so2":4.4,"mosquito_risk":3,"arthritis_risk":5,"migraine_risk":7,"frizz_risk":1,"updated_at":"2026-07-08T03:07:00.842862+05:30"},{"city":"Alappuzha","state":"Kerala","latitude":9.4981,"longitude":76.3388,"temp":25.4,"humidity":96,"rain":0.0,"pressure":1009.9,"uv_index":8.45,"wind_gusts":45.4,"aqi":62,"pm10":22.1,"pm2_5":13.6,"no2":9.0,"co":81.0,"o3":34.0,"so2":3.0,"mosquito_risk":7,"arthritis_risk":0,"migraine_risk":4,"frizz_risk":1,"updated_at":"2026-07-08T03:07:00.842870+05:30"},{"city":"Munnar","state":"Kerala","latitude":10.0889,"longitude":77.0595,"temp":16.9,"humidity":98,"rain":0.1,"pressure":856.3,"uv_index":6.85,"wind_gusts":57.2,"aqi":35,"pm10":6.5,"pm2_5":4.9,"no2":5.4,"co":84.0,"o3":25.0,"so2":1.0,"mosquito_risk":6,"arthritis_risk":10,"migraine_risk":7,"frizz_risk":1,"updated_at":"2026-07-08T03:07:00.842878+05:30"},{"city":"Silchar","state":"Assam","latitude":24.8333,"longitude":92.7789,"temp":25.6,"humidity":96,"rain":0.5,"pressure":1000.5,"uv_index":0.55,"wind_gusts":30.6,"aqi":31,"pm10":5.8,"pm2_5":4.9,"no2":4.7,"co":131.0,"o3":50.0,"so2":1.5,"mosquito_risk":10,"arthritis_risk":5,"migraine_risk":0,"frizz_risk":1,"updated_at":"2026-07-08T03:07:00.842884+05:30"},{"city":"Dibrugarh","state":"Assam","latitude":27.4728,"longitude":94.912,"temp":25.5,"humidity":97,"rain":0.1,"pressure":990.5,"uv_index":6.1,"wind_gusts":31.3,"aqi":32,"pm10":6.6,"pm2_5":6.3,"no2":6.6,"co":147.0,"o3":47.0,"so2":1.2,"mosquito_risk":10,"arthritis_risk":5,"migraine_risk":7,"frizz_risk":1,"updated_at":"2026-07-08T03:07:00.842891+05:30"}]