[{"city":"Delhi","state":"Delhi","latitude":28.6139,"longitude":77.209,"temp":20.7,"humidity":68,"rain":0.0,"pressure":986.4,"uv_index":5.4,"aqi":166,"mosquito_risk":3,"arthritis_risk":5,"migraine_risk":3,"frizz_risk":0,"updated_at":"2026-02-23T09:36:09.441175+05:30"},{"city":"Mumbai","state":"Maharashtra","latitude":19.076,"longitude":72.8777,"temp":26.6,"humidity":75,"rain":0.0,"pressure":1009.1,"uv_index":7.2,"aqi":160,"mosquito_risk":7,"arthritis_risk":0,"migraine_risk":4,"frizz_risk":1,"updated_at":"2026-02-23T09:36:09.441224+05:30"},{"city":"Bangalore","state":"Karnataka","latitude":12.9716,"longitude":77.5946,"temp":23.1,"humidity":65,"rain":0.0,"pressure":912.7,"uv_index":8.9,"aqi":53,"mosquito_risk":3,"arthritis_risk":5,"migraine_risk":7,"frizz_risk":1,"updated_at":"2026-02-23T09:36:09.441239+05:30"},{"city":"Hyderabad","state":"Telangana","latitude":17.385,"longitude":78.4867,"temp":24.3,"humidity":72,"rain":0.0,"pressure":954.8,"uv_index":6.95,"aqi":90,"mosquito_risk":3,"arthritis_risk":5,"migraine_risk":7,"frizz_risk":1,"updated_at":"2026-02-23T09:36:09.441250+05:30"},{"city":"Chennai","state":"Tamil Nadu","latitude":13.0827,"longitude":80.2707,"temp":28.4,"humidity":69,"rain":0.0,"pressure":1008.9,"uv_index":8.35,"aqi":45,"mosquito_risk":7,"arthritis_risk":0,"migraine_risk":4,"frizz_risk":1,"updated_at":"2026-02-23T09:36:09.441259+05:30"},{"city":"Kolkata","state":"West Bengal","latitude":22.5726,"longitude":88.3639,"temp":26.2,"humidity":74,"rain":0.0,"pressure":1010.1,"uv_index":7.3,"aqi":163,"mosquito_risk":7,"arthritis_risk":0,"migraine_risk":4,"frizz_risk":1,"updated_at":"2026-02-23T09:36:09.441267+05:30"},{"city":"Pune","state":"Maharashtra","latitude":18.5204,"longitude":73.8567,"temp":27.8,"humidity":39,"rain":0.0,"pressure":949.7,"uv_index":7.75,"aqi":137,"mosquito_risk":4,"arthritis_risk":5,"migraine_risk":7,"frizz_risk":0,"updated_at":"2026-02-23T09:36:09.441274+05:30"},{"city":"Ahmedabad","state":"Gujarat","latitude":23.0225,"longitude":72.5714,"temp":24.0,"humidity":53,"rain":0.0,"pressure":1004.0,"uv_index":6.45,"aqi":95,"mosquito_risk":0,"arthritis_risk":5,"migraine_risk":4,"frizz_risk":0,"updated_at":"2026-02-23T09:36:09.441282+05:30"},{"city":"Jaipur","state":"Rajasthan","latitude":26.9124,"longitude":75.7873,"temp":21.9,"humidity":57,"rain":0.0,"pressure":962.4,"uv_index":6.2,"aqi":121,"mosquito_risk":0,"arthritis_risk":5,"migraine_risk":7,"frizz_risk":0,"updated_at":"2026-02-23T09:36:09.441289+05:30"},{"city":"Lucknow","state":"Uttar Pradesh","latitude":26.8467,"longitude":80.9462,"temp":21.5,"humidity":65,"rain":0.0,"pressure":998.8,"uv_index":5.85,"aqi":158,"mosquito_risk":3,"arthritis_risk":5,"migraine_risk":3,"frizz_risk":0,"updated_at":"2026-02-23T09:36:09.441300+05:30"},{"city":"Kanpur","state":"Uttar Pradesh","latitude":26.4499,"longitude":80.3319,"temp":21.1,"humidity":70,"rain":0.0,"pressure":996.7,"uv_index":5.85,"aqi":155,"mosquito_risk":3,"arthritis_risk":5,"migraine_risk":3,"frizz_risk":0,"updated_at":"2026-02-23T09:36:09.441308+05:30"},{"city":"Chandigarh","state":"Chandigarh","latitude":30.7333,"longitude":76.7794,"temp":18.7,"humidity":71,"rain":0.0,"pressure":971.7,"uv_index":5.25,"aqi":151,"mosquito_risk":3,"arthritis_risk":5,"migraine_risk":3,"frizz_risk":0,"updated_at":"2026-02-23T09:36:09.441316+05:30"},{"city":"Srinagar","state":"Jammu and Kashmir","latitude":34.0837,"longitude":74.7973,"temp":8.7,"humidity":89,"rain":0.0,"pressure":841.2,"uv_index":6.1,"aqi":158,"mosquito_risk":3,"arthritis_risk":10,"migraine_risk":7,"frizz_risk":0,"updated_at":"2026-02-23T09:36:09.441324+05:30"},{"city":"Jammu","state":"Jammu and Kashmir","latitude":32.7266,"longitude":74.857,"temp":19.7,"humidity":72,"rain":0.0,"pressure":975.5,"uv_index":5.8,"aqi":154,"mosquito_risk":3,"arthritis_risk":5,"migraine_risk":3,"frizz_risk":0,"updated_at":"2026-02-23T09:36:09.441334+05:30"},{"city":"Amritsar","state":"Punjab","latitude":31.634,"longitude":74.8723,"temp":17.5,"humidity":87,"rain":0.0,"pressure":984.1,"uv_index":5.75,"aqi":178,"mosquito_risk":3,"arthritis_risk":10,"migraine_risk":3,"frizz_risk":0,"updated_at":"2026-02-23T09:36:09.441341+05:30"},{"city":"Ludhiana","state":"Punjab","latitude":30.901,"longitude":75.8573,"temp":18.0,"humidity":83,"rain":0.0,"pressure":981.9,"uv_index":5.45,"aqi":189,"mosquito_risk":3,"arthritis_risk":10,"migraine_risk":3,"frizz_risk":0,"updated_at":"2026-02-23T09:36:09.441348+05:30"},{"city":"Jalandhar","state":"Punjab","latitude":31.326,"longitude":75.5762,"temp":17.9,"humidity":84,"rain":0.0,"pressure":983.1,"uv_index":5.6,"aqi":187,"mosquito_risk":3,"arthritis_risk":10,"migraine_risk":3,"frizz_risk":0,"updated_at":"2026-02-23T09:36:09.441355+05:30"},{"city":"Dehradun","state":"Uttarakhand","latitude":30.6284,"longitude":78.0322,"temp":12.8,"humidity":64,"rain":0.0,"pressure":829.8,"uv_index":5.55,"aqi":93,"mosquito_risk":3,"arthritis_risk":5,"migraine_risk":3,"frizz_risk":0,"updated_at":"2026-02-23T09:36:09.441362+05:30"},{"city":"Shimla","state":"Himachal Pradesh","latitude":31.1048,"longitude":77.1734,"temp":12.1,"humidity":64,"rain":0.0,"pressure":784.1,"uv_index":5.65,"aqi":113,"mosquito_risk":3,"arthritis_risk":5,"migraine_risk":3,"frizz_risk":0,"updated_at":"2026-02-23T09:36:09.441368+05:30"},{"city":"Manali","state":"Himachal Pradesh","latitude":32.2396,"longitude":77.1887,"temp":13.9,"humidity":17,"rain":0.0,"pressure":818.0,"uv_index":6.85,"aqi":57,"mosquito_risk":0,"arthritis_risk":5,"migraine_risk":7,"frizz_risk":1,"updated_at":"2026-02-23T09:36:09.441394+05:30"},{"city":"Gurgaon","state":"Haryana","latitude":28.4595,"longitude":77.0266,"temp":20.6,"humidity":73,"rain":0.0,"pressure":984.7,"uv_index":5.5,"aqi":166,"mosquito_risk":3,"arthritis_risk":5,"migraine_risk":3,"frizz_risk":0,"updated_at":"2026-02-23T09:36:09.441401+05:30"},{"city":"Noida","state":"Uttar Pradesh","latitude":28.5355,"longitude":77.391,"temp":20.7,"humidity":70,"rain":0.0,"pressure":988.1,"uv_index":5.4,"aqi":166,"mosquito_risk":3,"arthritis_risk":5,"migraine_risk":3,"frizz_risk":0,"updated_at":"2026-02-23T09:36:09.441408+05:30"},{"city":"Ghaziabad","state":"Uttar Pradesh","latitude":28.6692,"longitude":77.4538,"temp":19.5,"humidity":79,"rain":0.0,"pressure":986.3,"uv_index":5.35,"aqi":162,"mosquito_risk":3,"arthritis_risk":5,"migraine_risk":3,"frizz_risk":0,"updated_at":"2026-02-23T09:36:09.441414+05:30"},{"city":"Faridabad","state":"Haryana","latitude":28.4089,"longitude":77.3178,"temp":20.1,"humidity":75,"rain":0.0,"pressure":987.3,"uv_index":5.4,"aqi":166,"mosquito_risk":3,"arthritis_risk":5,"migraine_risk":3,"frizz_risk":0,"updated_at":"2026-02-23T09:36:09.441422+05:30"},{"city":"Meerut","state":"Uttar Pradesh","latitude":28.9845,"longitude":77.7064,"temp":18.5,"humidity":82,"rain":0.0,"pressure":985.1,"uv_index":5.2,"aqi":162,"mosquito_risk":3,"arthritis_risk":10,"migraine_risk":3,"frizz_risk":0,"updated_at":"2026-02-23T09:36:09.441428+05:30"},{"city":"Agra","state":"Uttar Pradesh","latitude":27.1767,"longitude":78.0081,"temp":21.4,"humidity":74,"rain":0.0,"pressure":991.5,"uv_index":5.7,"aqi":165,"mosquito_risk":3,"arthritis_risk":5,"migraine_risk":3,"frizz_risk":1,"updated_at":"2026-02-23T09:36:09.441435+05:30"},{"city":"Varanasi","state":"Uttar Pradesh","latitude":25.3176,"longitude":82.9739,"temp":23.4,"humidity":67,"rain":0.0,"pressure":1002.6,"uv_index":6.5,"aqi":156,"mosquito_risk":3,"arthritis_risk":5,"migraine_risk":4,"frizz_risk":1,"updated_at":"2026-02-23T09:36:09.441442+05:30"},{"city":"Prayagraj","state":"Uttar Pradesh","latitude":25.4358,"longitude":81.8463,"temp":22.9,"humidity":71,"rain":0.0,"pressure":1000.9,"uv_index":6.4,"aqi":153,"mosquito_risk":3,"arthritis_risk":5,"migraine_risk":4,"frizz_risk":1,"updated_at":"2026-02-23T09:36:09.441450+05:30"},{"city":"Gorakhpur","state":"Uttar Pradesh","latitude":26.7606,"longitude":83.3732,"temp":20.6,"humidity":73,"rain":0.0,"pressure":1002.9,"uv_index":6.2,"aqi":153,"mosquito_risk":3,"arthritis_risk":5,"migraine_risk":4,"frizz_risk":0,"updated_at":"2026-02-23T09:36:09.441456+05:30"},{"city":"Bareilly","state":"Uttar Pradesh","latitude":28.367,"longitude":79.4304,"temp":19.2,"humidity":78,"rain":0.0,"pressure":991.4,"uv_index":5.5,"aqi":160,"mosquito_risk":3,"arthritis_risk":5,"migraine_risk":3,"frizz_risk":0,"updated_at":"2026-02-23T09:36:09.441465+05:30"},{"city":"Aligarh","state":"Uttar Pradesh","latitude":27.8974,"longitude":78.088,"temp":19.3,"humidity":76,"rain":0.0,"pressure":989.2,"uv_index":5.45,"aqi":169,"mosquito_risk":3,"arthritis_risk":5,"migraine_risk":3,"frizz_risk":0,"updated_at":"2026-02-23T09:36:09.441473+05:30"},{"city":"Moradabad","state":"Uttar Pradesh","latitude":28.8386,"longitude":78.7733,"temp":19.3,"humidity":79,"rain":0.0,"pressure":988.0,"uv_index":5.35,"aqi":167,"mosquito_risk":3,"arthritis_risk":5,"migraine_risk":3,"frizz_risk":0,"updated_at":"2026-02-23T09:36:09.441479+05:30"},{"city":"Saharanpur","state":"Uttar Pradesh","latitude":29.9637,"longitude":77.546,"temp":19.0,"humidity":75,"rain":0.0,"pressure":979.2,"uv_index":5.0,"aqi":164,"mosquito_risk":3,"arthritis_risk":5,"migraine_risk":3,"frizz_risk":0,"updated_at":"2026-02-23T09:36:09.441486+05:30"},{"city":"Jhansi","state":"Uttar Pradesh","latitude":25.4484,"longitude":78.5685,"temp":22.4,"humidity":68,"rain":0.0,"pressure":981.6,"uv_index":6.35,"aqi":114,"mosquito_risk":3,"arthritis_risk":5,"migraine_risk":7,"frizz_risk":1,"updated_at":"2026-02-23T09:36:12.691132+05:30"},{"city":"Surat","state":"Gujarat","latitude":21.1702,"longitude":72.8311,"temp":26.5,"humidity":58,"rain":0.0,"pressure":1007.7,"uv_index":6.95,"aqi":163,"mosquito_risk":4,"arthritis_risk":5,"migraine_risk":4,"frizz_risk":1,"updated_at":"2026-02-23T09:36:12.691164+05:30"},{"city":"Vadodara","state":"Gujarat","latitude":22.3072,"longitude":73.1812,"temp":26.0,"humidity":48,"rain":0.0,"pressure":1006.1,"uv_index":6.7,"aqi":123,"mosquito_risk":4,"arthritis_risk":5,"migraine_risk":4,"frizz_risk":0,"updated_at":"2026-02-23T09:36:12.691173+05:30"},{"city":"Rajkot","state":"Gujarat","latitude":22.3039,"longitude":70.8022,"temp":24.1,"humidity":54,"rain":0.0,"pressure":996.1,"uv_index":6.9,"aqi":72,"mosquito_risk":0,"arthritis_risk":5,"migraine_risk":7,"frizz_risk":0,"updated_at":"2026-02-23T09:36:12.691181+05:30"},{"city":"Thane","state":"Maharashtra","latitude":19.2183,"longitude":72.9781,"temp":26.6,"humidity":56,"rain":0.0,"pressure":1008.6,"uv_index":7.25,"aqi":160,"mosquito_risk":4,"arthritis_risk":0,"migraine_risk":4,"frizz_risk":1,"updated_at":"2026-02-23T09:36:12.691188+05:30"},{"city":"Nagpur","state":"Maharashtra","latitude":21.1458,"longitude":79.0882,"temp":25.4,"humidity":62,"rain":0.0,"pressure":976.1,"uv_index":7.35,"aqi":168,"mosquito_risk":7,"arthritis_risk":5,"migraine_risk":7,"frizz_risk":1,"updated_at":"2026-02-23T09:36:12.691195+05:30"},{"city":"Nashik","state":"Maharashtra","latitude":19.9975,"longitude":73.7898,"temp":25.5,"humidity":47,"rain":0.0,"pressure":946.9,"uv_index":7.3,"aqi":89,"mosquito_risk":4,"arthritis_risk":5,"migraine_risk":7,"frizz_risk":0,"updated_at":"2026-02-23T09:36:12.691202+05:30"},{"city":"Aurangabad","state":"Maharashtra","latitude":19.8762,"longitude":75.3433,"temp":25.0,"humidity":50,"rain":0.0,"pressure":945.6,"uv_index":7.75,"aqi":86,"mosquito_risk":4,"arthritis_risk":5,"migraine_risk":7,"frizz_risk":0,"updated_at":"2026-02-23T09:36:12.691208+05:30"},{"city":"Solapur","state":"Maharashtra","latitude":17.6599,"longitude":75.9064,"temp":26.3,"humidity":58,"rain":0.0,"pressure":958.4,"uv_index":7.8,"aqi":97,"mosquito_risk":4,"arthritis_risk":5,"migraine_risk":7,"frizz_risk":1,"updated_at":"2026-02-23T09:36:12.691215+05:30"},{"city":"Kolhapur","state":"Maharashtra","latitude":16.705,"longitude":74.2433,"temp":24.8,"humidity":68,"rain":0.0,"pressure":948.6,"uv_index":7.55,"aqi":153,"mosquito_risk":3,"arthritis_risk":5,"migraine_risk":7,"frizz_risk":1,"updated_at":"2026-02-23T09:36:12.691222+05:30"},{"city":"Goa","state":"Goa","latitude":15.2993,"longitude":74.124,"temp":28.4,"humidity":75,"rain":0.0,"pressure":998.6,"uv_index":8.25,"aqi":154,"mosquito_risk":7,"arthritis_risk":5,"migraine_risk":7,"frizz_risk":1,"updated_at":"2026-02-23T09:36:12.691229+05:30"},{"city":"Jodhpur","state":"Rajasthan","latitude":26.2389,"longitude":73.0243,"temp":23.0,"humidity":39,"rain":0.0,"pressure":985.0,"uv_index":6.5,"aqi":77,"mosquito_risk":0,"arthritis_risk":5,"migraine_risk":7,"frizz_risk":0,"updated_at":"2026-02-23T09:36:12.691236+05:30"},{"city":"Udaipur","state":"Rajasthan","latitude":24.5854,"longitude":73.7125,"temp":20.9,"humidity":63,"rain":0.0,"pressure":948.2,"uv_index":7.15,"aqi":59,"mosquito_risk":3,"arthritis_risk":5,"migraine_risk":7,"frizz_risk":0,"updated_at":"2026-02-23T09:36:12.691242+05:30"},{"city":"Kota","state":"Rajasthan","latitude":25.2138,"longitude":75.8648,"temp":22.4,"humidity":76,"rain":0.0,"pressure":981.6,"uv_index":6.55,"aqi":154,"mosquito_risk":3,"arthritis_risk":5,"migraine_risk":7,"frizz_risk":1,"updated_at":"2026-02-23T09:36:12.691249+05:30"},{"city":"Bikaner","state":"Rajasthan","latitude":28.0229,"longitude":73.3119,"temp":20.8,"humidity":60,"rain":0.0,"pressure":983.5,"uv_index":6.1,"aqi":63,"mosquito_risk":0,"arthritis_risk":5,"migraine_risk":7,"frizz_risk":0,"updated_at":"2026-02-23T09:36:12.691255+05:30"},{"city":"Ajmer","state":"Rajasthan","latitude":26.4499,"longitude":74.6399,"temp":22.4,"humidity":49,"rain":0.0,"pressure":956.5,"uv_index":6.5,"aqi":151,"mosquito_risk":0,"arthritis_risk":5,"migraine_risk":7,"frizz_risk":0,"updated_at":"2026-02-23T09:36:12.691261+05:30"},{"city":"Gwalior","state":"Madhya Pradesh","latitude":26.2183,"longitude":78.1828,"temp":23.0,"humidity":66,"rain":0.0,"pressure":986.9,"uv_index":6.05,"aqi":107,"mosquito_risk":3,"arthritis_risk":5,"migraine_risk":7,"frizz_risk":1,"updated_at":"2026-02-23T09:36:12.691268+05:30"},{"city":"Indore","state":"Madhya Pradesh","latitude":22.7196,"longitude":75.8577,"temp":22.6,"humidity":64,"rain":0.0,"pressure":949.6,"uv_index":7.1,"aqi":107,"mosquito_risk":3,"arthritis_risk":5,"migraine_risk":7,"frizz_risk":0,"updated_at":"2026-02-23T09:36:12.691274+05:30"},{"city":"Bhopal","state":"Madhya Pradesh","latitude":23.2599,"longitude":77.4126,"temp":22.6,"humidity":72,"rain":0.0,"pressure":955.4,"uv_index":6.95,"aqi":139,"mosquito_risk":3,"arthritis_risk":5,"migraine_risk":7,"frizz_risk":1,"updated_at":"2026-02-23T09:36:12.691280+05:30"},{"city":"Jabalpur","state":"Madhya Pradesh","latitude":23.1815,"longitude":79.9864,"temp":23.0,"humidity":64,"rain":0.0,"pressure":964.4,"uv_index":6.95,"aqi":153,"mosquito_risk":3,"arthritis_risk":5,"migraine_risk":7,"frizz_risk":0,"updated_at":"2026-02-23T09:36:12.691286+05:30"},{"city":"Ujjain","state":"Madhya Pradesh","latitude":23.1765,"longitude":75.7885,"temp":20.8,"humidity":81,"rain":0.0,"pressure":955.5,"uv_index":7.0,"aqi":118,"mosquito_risk":3,"arthritis_risk":5,"migraine_risk":7,"frizz_risk":1,"updated_at":"2026-02-23T09:36:12.691294+05:30"},{"city":"Visakhapatnam","state":"Andhra Pradesh","latitude":17.6868,"longitude":83.2185,"temp":28.7,"humidity":59,"rain":0.0,"pressure":1006.3,"uv_index":8.05,"aqi":117,"mosquito_risk":4,"arthritis_risk":5,"migraine_risk":4,"frizz_risk":1,"updated_at":"2026-02-23T09:36:12.691300+05:30"},{"city":"Vijayawada","state":"Andhra Pradesh","latitude":16.5062,"longitude":80.648,"temp":27.8,"humidity":68,"rain":0.0,"pressure":1005.2,"uv_index":8.15,"aqi":86,"mosquito_risk":7,"arthritis_risk":5,"migraine_risk":4,"frizz_risk":1,"updated_at":"2026-02-23T09:36:12.691306+05:30"},{"city":"Guntur","state":"Andhra Pradesh","latitude":16.3067,"longitude":80.4365,"temp":28.1,"humidity":69,"rain":0.0,"pressure":1006.2,"uv_index":8.15,"aqi":82,"mosquito_risk":7,"arthritis_risk":5,"migraine_risk":4,"frizz_risk":1,"updated_at":"2026-02-23T09:36:12.691313+05:30"},{"city":"Nellore","state":"Andhra Pradesh","latitude":14.4426,"longitude":79.9865,"temp":28.4,"humidity":69,"rain":0.0,"pressure":1008.1,"uv_index":8.4,"aqi":57,"mosquito_risk":7,"arthritis_risk":0,"migraine_risk":4,"frizz_risk":1,"updated_at":"2026-02-23T09:36:12.691320+05:30"},{"city":"Kurnool","state":"Andhra Pradesh","latitude":15.8281,"longitude":78.0373,"temp":27.0,"humidity":62,"rain":0.0,"pressure":978.7,"uv_index":8.2,"aqi":60,"mosquito_risk":7,"arthritis_risk":5,"migraine_risk":7,"frizz_risk":1,"updated_at":"2026-02-23T09:36:12.691327+05:30"},{"city":"Kakinada","state":"Andhra Pradesh","latitude":16.9891,"longitude":82.2475,"temp":29.0,"humidity":62,"rain":0.0,"pressure":1010.1,"uv_index":8.1,"aqi":67,"mosquito_risk":7,"arthritis_risk":0,"migraine_risk":4,"frizz_risk":1,"updated_at":"2026-02-23T09:36:12.691333+05:30"},{"city":"Tirupati","state":"Andhra Pradesh","latitude":13.6288,"longitude":79.4192,"temp":26.3,"humidity":72,"rain":0.0,"pressure":993.8,"uv_index":8.55,"aqi":64,"mosquito_risk":7,"arthritis_risk":5,"migraine_risk":7,"frizz_risk":1,"updated_at":"2026-02-23T09:36:12.691339+05:30"},{"city":"Warangal","state":"Telangana","latitude":17.9689,"longitude":79.5941,"temp":26.1,"humidity":74,"rain":0.0,"pressure":981.1,"uv_index":7.9,"aqi":104,"mosquito_risk":7,"arthritis_risk":5,"migraine_risk":7,"frizz_risk":1,"updated_at":"2026-02-23T09:36:12.691345+05:30"},{"city":"Nizamabad","state":"Telangana","latitude":18.6725,"longitude":78.0941,"temp":27.8,"humidity":53,"rain":0.0,"pressure":966.7,"uv_index":7.75,"aqi":130,"mosquito_risk":4,"arthritis_risk":5,"migraine_risk":7,"frizz_risk":1,"updated_at":"2026-02-23T09:36:12.691351+05:30"},{"city":"Mysore","state":"Karnataka","latitude":12.2958,"longitude":76.6396,"temp":24.8,"humidity":71,"rain":0.0,"pressure":929.3,"uv_index":8.95,"aqi":62,"mosquito_risk":3,"arthritis_risk":5,"migraine_risk":7,"frizz_risk":1,"updated_at":"2026-02-23T09:36:12.691357+05:30"},{"city":"Mangalore","state":"Karnataka","latitude":12.9141,"longitude":74.856,"temp":27.8,"humidity":81,"rain":0.0,"pressure":1007.3,"uv_index":8.55,"aqi":149,"mosquito_risk":7,"arthritis_risk":5,"migraine_risk":4,"frizz_risk":1,"updated_at":"2026-02-23T09:36:12.691364+05:30"},{"city":"Hubli-Dharwad","state":"Karnataka","latitude":15.3647,"longitude":75.124,"temp":25.1,"humidity":79,"rain":0.0,"pressure":941.6,"uv_index":8.2,"aqi":76,"mosquito_risk":7,"arthritis_risk":5,"migraine_risk":7,"frizz_risk":1,"updated_at":"2026-02-23T09:36:12.691385+05:30"},{"city":"Belgaum","state":"Karnataka","latitude":15.8497,"longitude":74.4977,"temp":24.4,"humidity":78,"rain":0.0,"pressure":926.4,"uv_index":8.15,"aqi":115,"mosquito_risk":3,"arthritis_risk":5,"migraine_risk":7,"frizz_risk":1,"updated_at":"2026-02-23T09:36:15.934315+05:30"},{"city":"Coimbatore","state":"Tamil Nadu","latitude":11.0168,"longitude":76.9558,"temp":25.6,"humidity":73,"rain":0.0,"pressure":963.2,"uv_index":8.95,"aqi":74,"mosquito_risk":7,"arthritis_risk":5,"migraine_risk":7,"frizz_risk":1,"updated_at":"2026-02-23T09:36:15.934346+05:30"},{"city":"Madurai","state":"Tamil Nadu","latitude":9.9252,"longitude":78.1198,"temp":27.2,"humidity":75,"rain":0.0,"pressure":994.5,"uv_index":8.95,"aqi":78,"mosquito_risk":7,"arthritis_risk":5,"migraine_risk":7,"frizz_risk":1,"updated_at":"2026-02-23T09:36:15.934356+05:30"},{"city":"Trichy","state":"Tamil Nadu","latitude":10.7905,"longitude":78.7047,"temp":28.2,"humidity":69,"rain":0.0,"pressure":1001.5,"uv_index":8.8,"aqi":56,"mosquito_risk":7,"arthritis_risk":5,"migraine_risk":4,"frizz_risk":1,"updated_at":"2026-02-23T09:36:15.934364+05:30"},{"city":"Salem","state":"Tamil Nadu","latitude":11.6643,"longitude":78.146,"temp":27.2,"humidity":70,"rain":0.0,"pressure":979.1,"uv_index":8.45,"aqi":63,"mosquito_risk":7,"arthritis_risk":5,"migraine_risk":7,"frizz_risk":1,"updated_at":"2026-02-23T09:36:15.934404+05:30"},{"city":"Tirunelveli","state":"Tamil Nadu","latitude":8.7139,"longitude":77.7567,"temp":27.6,"humidity":76,"rain":0.0,"pressure":1004.7,"uv_index":8.95,"aqi":59,"mosquito_risk":7,"arthritis_risk":5,"migraine_risk":4,"frizz_risk":1,"updated_at":"2026-02-23T09:36:15.934413+05:30"},{"city":"Vellore","state":"Tamil Nadu","latitude":12.9165,"longitude":79.1325,"temp":26.1,"humidity":68,"rain":0.0,"pressure":986.7,"uv_index":8.65,"aqi":61,"mosquito_risk":7,"arthritis_risk":5,"migraine_risk":7,"frizz_risk":1,"updated_at":"2026-02-23T09:36:15.934420+05:30"},{"city":"Erode","state":"Tamil Nadu","latitude":11.341,"longitude":77.7172,"temp":27.4,"humidity":72,"rain":0.0,"pressure":990.8,"uv_index":8.75,"aqi":59,"mosquito_risk":7,"arthritis_risk":5,"migraine_risk":7,"frizz_risk":1,"updated_at":"2026-02-23T09:36:15.934426+05:30"},{"city":"Kochi","state":"Kerala","latitude":9.9312,"longitude":76.2673,"temp":26.8,"humidity":82,"rain":0.0,"pressure":1009.3,"uv_index":8.7,"aqi":69,"mosquito_risk":7,"arthritis_risk":0,"migraine_risk":4,"frizz_risk":1,"updated_at":"2026-02-23T09:36:15.934433+05:30"},{"city":"Thiruvananthapuram","state":"Kerala","latitude":8.5241,"longitude":76.9366,"temp":27.1,"humidity":83,"rain":0.0,"pressure":1008.7,"uv_index":8.05,"aqi":49,"mosquito_risk":7,"arthritis_risk":0,"migraine_risk":4,"frizz_risk":1,"updated_at":"2026-02-23T09:36:15.934439+05:30"},{"city":"Kozhikode","state":"Kerala","latitude":11.2588,"longitude":75.7804,"temp":27.1,"humidity":80,"rain":0.0,"pressure":1008.9,"uv_index":8.65,"aqi":67,"mosquito_risk":7,"arthritis_risk":0,"migraine_risk":4,"frizz_risk":1,"updated_at":"2026-02-23T09:36:15.934445+05:30"},{"city":"Thrissur","state":"Kerala","latitude":10.5276,"longitude":76.2144,"temp":27.9,"humidity":79,"rain":0.0,"pressure":1007.9,"uv_index":8.1,"aqi":75,"mosquito_risk":7,"arthritis_risk":5,"migraine_risk":4,"frizz_risk":1,"updated_at":"2026-02-23T09:36:15.934453+05:30"},{"city":"Kannur","state":"Kerala","latitude":11.8745,"longitude":75.3704,"temp":26.1,"humidity":81,"rain":0.0,"pressure":1008.4,"uv_index":8.6,"aqi":106,"mosquito_risk":7,"arthritis_risk":0,"migraine_risk":4,"frizz_risk":1,"updated_at":"2026-02-23T09:36:15.934460+05:30"},{"city":"Patna","state":"Bihar","latitude":25.5941,"longitude":85.1376,"temp":22.9,"humidity":67,"rain":0.0,"pressure":1005.9,"uv_index":6.7,"aqi":160,"mosquito_risk":3,"arthritis_risk":5,"migraine_risk":4,"frizz_risk":1,"updated_at":"2026-02-23T09:36:15.934466+05:30"},{"city":"Gaya","state":"Bihar","latitude":24.7914,"longitude":85.0002,"temp":23.2,"humidity":74,"rain":0.0,"pressure":998.8,"uv_index":6.8,"aqi":151,"mosquito_risk":3,"arthritis_risk":5,"migraine_risk":7,"frizz_risk":1,"updated_at":"2026-02-23T09:36:15.934472+05:30"},{"city":"Muzaffarpur","state":"Bihar","latitude":26.1209,"longitude":85.3647,"temp":22.5,"humidity":68,"rain":0.0,"pressure":1006.1,"uv_index":6.65,"aqi":162,"mosquito_risk":3,"arthritis_risk":5,"migraine_risk":4,"frizz_risk":1,"updated_at":"2026-02-23T09:36:15.934478+05:30"},{"city":"Bhagalpur","state":"Bihar","latitude":25.2425,"longitude":87.0117,"temp":23.1,"humidity":76,"rain":0.0,"pressure":1006.5,"uv_index":6.75,"aqi":152,"mosquito_risk":3,"arthritis_risk":5,"migraine_risk":4,"frizz_risk":1,"updated_at":"2026-02-23T09:36:15.934485+05:30"},{"city":"Ranchi","state":"Jharkhand","latitude":23.3441,"longitude":85.3096,"temp":23.6,"humidity":51,"rain":0.0,"pressure":941.1,"uv_index":7.45,"aqi":110,"mosquito_risk":0,"arthritis_risk":5,"migraine_risk":7,"frizz_risk":0,"updated_at":"2026-02-23T09:36:15.934491+05:30"},{"city":"Jamshedpur","state":"Jharkhand","latitude":22.8046,"longitude":86.2029,"temp":26.0,"humidity":53,"rain":0.0,"pressure":995.0,"uv_index":7.35,"aqi":157,"mosquito_risk":4,"arthritis_risk":5,"migraine_risk":7,"frizz_risk":0,"updated_at":"2026-02-23T09:36:15.934501+05:30"},{"city":"Dhanbad","state":"Jharkhand","latitude":23.7957,"longitude":86.4304,"temp":26.5,"humidity":40,"rain":0.0,"pressure":984.1,"uv_index":7.2,"aqi":151,"mosquito_risk":4,"arthritis_risk":5,"migraine_risk":7,"frizz_risk":0,"updated_at":"2026-02-23T09:36:15.934508+05:30"},{"city":"Bokaro","state":"Jharkhand","latitude":23.6693,"longitude":86.1511,"temp":25.6,"humidity":48,"rain":0.0,"pressure":988.3,"uv_index":7.2,"aqi":151,"mosquito_risk":4,"arthritis_risk":5,"migraine_risk":7,"frizz_risk":0,"updated_at":"2026-02-23T09:36:15.934514+05:30"},{"city":"Bhubaneswar","state":"Odisha","latitude":20.2961,"longitude":85.8245,"temp":27.5,"humidity":72,"rain":0.0,"pressure":1005.9,"uv_index":7.75,"aqi":103,"mosquito_risk":7,"arthritis_risk":5,"migraine_risk":4,"frizz_risk":1,"updated_at":"2026-02-23T09:36:15.934520+05:30"},{"city":"Cuttack","state":"Odisha","latitude":20.4625,"longitude":85.8828,"temp":27.8,"humidity":70,"rain":0.0,"pressure":1007.9,"uv_index":7.8,"aqi":103,"mosquito_risk":7,"arthritis_risk":5,"migraine_risk":4,"frizz_risk":1,"updated_at":"2026-02-23T09:36:15.934526+05:30"},{"city":"Rourkela","state":"Odisha","latitude":22.2604,"longitude":84.8536,"temp":25.9,"humidity":53,"rain":0.0,"pressure":988.7,"uv_index":7.25,"aqi":128,"mosquito_risk":4,"arthritis_risk":5,"migraine_risk":7,"frizz_risk":0,"updated_at":"2026-02-23T09:36:15.934532+05:30"},{"city":"Raipur","state":"Chhattisgarh","latitude":21.2514,"longitude":81.6296,"temp":25.4,"humidity":53,"rain":0.0,"pressure":977.7,"uv_index":7.4,"aqi":163,"mosquito_risk":4,"arthritis_risk":5,"migraine_risk":7,"frizz_risk":0,"updated_at":"2026-02-23T09:36:15.934537+05:30"},{"city":"Bhilai","state":"Chhattisgarh","latitude":21.1938,"longitude":81.3509,"temp":25.1,"humidity":57,"rain":0.0,"pressure":978.2,"uv_index":7.4,"aqi":168,"mosquito_risk":4,"arthritis_risk":5,"migraine_risk":7,"frizz_risk":0,"updated_at":"2026-02-23T09:36:15.934543+05:30"},{"city":"Guwahati","state":"Assam","latitude":26.1158,"longitude":91.7086,"temp":24.0,"humidity":65,"rain":0.0,"pressure":1006.5,"uv_index":6.7,"aqi":123,"mosquito_risk":3,"arthritis_risk":5,"migraine_risk":4,"frizz_risk":1,"updated_at":"2026-02-23T09:36:15.934549+05:30"},{"city":"Agartala","state":"Tripura","latitude":23.8315,"longitude":91.2868,"temp":27.1,"humidity":62,"rain":0.0,"pressure":1010.2,"uv_index":7.05,"aqi":168,"mosquito_risk":7,"arthritis_risk":0,"migraine_risk":4,"frizz_risk":1,"updated_at":"2026-02-23T09:36:15.934555+05:30"},{"city":"Shillong","state":"Meghalaya","latitude":25.5788,"longitude":91.8933,"temp":15.4,"humidity":48,"rain":0.0,"pressure":858.3,"uv_index":7.05,"aqi":112,"mosquito_risk":0,"arthritis_risk":5,"migraine_risk":7,"frizz_risk":0,"updated_at":"2026-02-23T09:36:15.934561+05:30"},{"city":"Imphal","state":"Manipur","latitude":24.817,"longitude":93.9368,"temp":20.3,"humidity":43,"rain":0.0,"pressure":926.2,"uv_index":7.25,"aqi":153,"mosquito_risk":0,"arthritis_risk":5,"migraine_risk":7,"frizz_risk":0,"updated_at":"2026-02-23T09:36:15.934567+05:30"},{"city":"Aizawl","state":"Mizoram","latitude":23.7271,"longitude":92.7176,"temp":22.0,"humidity":42,"rain":0.0,"pressure":896.5,"uv_index":7.2,"aqi":152,"mosquito_risk":0,"arthritis_risk":5,"migraine_risk":7,"frizz_risk":0,"updated_at":"2026-02-23T09:36:15.934573+05:30"},{"city":"Kohima","state":"Nagaland","latitude":25.6701,"longitude":94.1077,"temp":15.7,"humidity":54,"rain":0.0,"pressure":857.4,"uv_index":7.1,"aqi":136,"mosquito_risk":0,"arthritis_risk":5,"migraine_risk":7,"frizz_risk":0,"updated_at":"2026-02-23T09:36:15.934580+05:30"},{"city":"Gangtok","state":"Sikkim","latitude":27.3314,"longitude":88.6138,"temp":14.2,"humidity":63,"rain":0.0,"pressure":838.7,"uv_index":6.8,"aqi":100,"mosquito_risk":3,"arthritis_risk":5,"migraine_risk":7,"frizz_risk":0,"updated_at":"2026-02-23T09:36:15.934586+05:30"},{"city":"Siliguri","state":"West Bengal","latitude":26.7271,"longitude":88.3953,"temp":21.9,"humidity":52,"rain":0.0,"pressure":998.0,"uv_index":6.65,"aqi":151,"mosquito_risk":0,"arthritis_risk":5,"migraine_risk":7,"frizz_risk":0,"updated_at":"2026-02-23T09:36:19.179927+05:30"},{"city":"Durgapur","state":"West Bengal","latitude":23.5204,"longitude":87.3119,"temp":27.9,"humidity":43,"rain":0.0,"pressure":999.3,"uv_index":7.2,"aqi":150,"mosquito_risk":4,"arthritis_risk":5,"migraine_risk":7,"frizz_risk":0,"updated_at":"2026-02-23T09:36:19.179963+05:30"},{"city":"Asansol","state":"West Bengal","latitude":23.6739,"longitude":86.9524,"temp":27.5,"humidity":39,"rain":0.0,"pressure":997.9,"uv_index":7.2,"aqi":134,"mosquito_risk":4,"arthritis_risk":5,"migraine_risk":7,"frizz_risk":0,"updated_at":"2026-02-23T09:36:19.179975+05:30"},{"city":"Pondicherry","state":"Puducherry","latitude":11.9139,"longitude":79.8145,"temp":28.3,"humidity":74,"rain":0.0,"pressure":1010.1,"uv_index":8.4,"aqi":47,"mosquito_risk":7,"arthritis_risk":0,"migraine_risk":4,"frizz_risk":1,"updated_at":"2026-02-23T09:36:19.179984+05:30"},{"city":"Port Blair","state":"Andaman and Nicobar Islands","latitude":11.6234,"longitude":92.7265,"temp":28.4,"humidity":72,"rain":0.0,"pressure":1007.4,"uv_index":5.85,"aqi":60,"mosquito_risk":7,"arthritis_risk":5,"migraine_risk":0,"frizz_risk":1,"updated_at":"2026-02-23T09:36:19.179993+05:30"},{"city":"Haridwar","state":"Uttarakhand","latitude":29.9457,"longitude":78.1642,"temp":21.5,"humidity":60,"rain":0.0,"pressure":977.9,"uv_index":5.1,"aqi":148,"mosquito_risk":0,"arthritis_risk":5,"migraine_risk":3,"frizz_risk":0,"updated_at":"2026-02-23T09:36:19.180001+05:30"},{"city":"Rishikesh","state":"Uttarakhand","latitude":30.0869,"longitude":78.2676,"temp":21.9,"humidity":57,"rain":0.0,"pressure":970.3,"uv_index":5.15,"aqi":123,"mosquito_risk":0,"arthritis_risk":5,"migraine_risk":3,"frizz_risk":0,"updated_at":"2026-02-23T09:36:19.180009+05:30"},{"city":"Nainital","state":"Uttarakhand","latitude":29.3919,"longitude":79.4542,"temp":15.6,"humidity":59,"rain":0.0,"pressure":806.7,"uv_index":5.95,"aqi":123,"mosquito_risk":0,"arthritis_risk":5,"migraine_risk":3,"frizz_risk":0,"updated_at":"2026-02-23T09:36:19.180015+05:30"},{"city":"Mussoorie","state":"Uttarakhand","latitude":30.4599,"longitude":78.0664,"temp":14.2,"humidity":60,"rain":0.0,"pressure":802.7,"uv_index":5.45,"aqi":133,"mosquito_risk":0,"arthritis_risk":5,"migraine_risk":3,"frizz_risk":0,"updated_at":"2026-02-23T09:36:19.180021+05:30"},{"city":"Dharamshala","state":"Himachal Pradesh","latitude":32.219,"longitude":76.3234,"temp":17.6,"humidity":56,"rain":0.0,"pressure":869.2,"uv_index":5.7,"aqi":70,"mosquito_risk":0,"arthritis_risk":5,"migraine_risk":3,"frizz_risk":0,"updated_at":"2026-02-23T09:36:19.180028+05:30"},{"city":"Dalhousie","state":"Himachal Pradesh","latitude":32.5387,"longitude":75.971,"temp":14.7,"humidity":45,"rain":0.0,"pressure":803.5,"uv_index":5.9,"aqi":145,"mosquito_risk":0,"arthritis_risk":5,"migraine_risk":3,"frizz_risk":0,"updated_at":"2026-02-23T09:36:19.180036+05:30"},{"city":"Patiala","state":"Punjab","latitude":30.3398,"longitude":76.3869,"temp":18.0,"humidity":86,"rain":0.0,"pressure":981.4,"uv_index":5.15,"aqi":182,"mosquito_risk":3,"arthritis_risk":10,"migraine_risk":3,"frizz_risk":0,"updated_at":"2026-02-23T09:36:19.180043+05:30"},{"city":"Bhatinda","state":"Punjab","latitude":30.211,"longitude":74.9455,"temp":19.5,"humidity":74,"rain":0.0,"pressure":987.4,"uv_index":5.85,"aqi":157,"mosquito_risk":3,"arthritis_risk":5,"migraine_risk":3,"frizz_risk":0,"updated_at":"2026-02-23T09:36:19.180050+05:30"},{"city":"Rohtak","state":"Haryana","latitude":28.8955,"longitude":76.6066,"temp":20.3,"humidity":76,"rain":0.0,"pressure":984.9,"uv_index":5.4,"aqi":169,"mosquito_risk":3,"arthritis_risk":5,"migraine_risk":3,"frizz_risk":0,"updated_at":"2026-02-23T09:36:19.180062+05:30"},{"city":"Panipat","state":"Haryana","latitude":29.3909,"longitude":76.9635,"temp":18.8,"humidity":80,"rain":0.0,"pressure":984.1,"uv_index":5.2,"aqi":169,"mosquito_risk":3,"arthritis_risk":5,"migraine_risk":3,"frizz_risk":0,"updated_at":"2026-02-23T09:36:19.180068+05:30"},{"city":"Mathura","state":"Uttar Pradesh","latitude":27.4924,"longitude":77.6737,"temp":20.5,"humidity":74,"rain":0.0,"pressure":990.6,"uv_index":5.65,"aqi":165,"mosquito_risk":3,"arthritis_risk":5,"migraine_risk":3,"frizz_risk":0,"updated_at":"2026-02-23T09:36:19.180075+05:30"},{"city":"Vrindavan","state":"Uttar Pradesh","latitude":27.5823,"longitude":77.7027,"temp":20.1,"humidity":75,"rain":0.0,"pressure":990.9,"uv_index":5.6,"aqi":165,"mosquito_risk":3,"arthritis_risk":5,"migraine_risk":3,"frizz_risk":0,"updated_at":"2026-02-23T09:36:19.180081+05:30"},{"city":"Ayodhya","state":"Uttar Pradesh","latitude":26.7922,"longitude":82.1998,"temp":21.5,"humidity":69,"rain":0.0,"pressure":1000.8,"uv_index":6.0,"aqi":155,"mosquito_risk":3,"arthritis_risk":5,"migraine_risk":0,"frizz_risk":0,"updated_at":"2026-02-23T09:36:19.180086+05:30"},{"city":"Ratlam","state":"Madhya Pradesh","latitude":23.3315,"longitude":75.0367,"temp":20.2,"humidity":80,"rain":0.0,"pressure":956.4,"uv_index":6.95,"aqi":93,"mosquito_risk":3,"arthritis_risk":5,"migraine_risk":7,"frizz_risk":1,"updated_at":"2026-02-23T09:36:19.180093+05:30"},{"city":"Sagar","state":"Madhya Pradesh","latitude":23.8388,"longitude":78.7378,"temp":22.9,"humidity":69,"rain":0.0,"pressure":952.6,"uv_index":6.85,"aqi":128,"mosquito_risk":3,"arthritis_risk":5,"migraine_risk":7,"frizz_risk":1,"updated_at":"2026-02-23T09:36:19.180100+05:30"},{"city":"Satna","state":"Madhya Pradesh","latitude":24.6005,"longitude":80.8322,"temp":23.5,"humidity":58,"rain":0.0,"pressure":975.1,"uv_index":6.75,"aqi":118,"mosquito_risk":0,"arthritis_risk":5,"migraine_risk":7,"frizz_risk":0,"updated_at":"2026-02-23T09:36:19.180106+05:30"},{"city":"Akola","state":"Maharashtra","latitude":20.7002,"longitude":77.0082,"temp":24.6,"humidity":57,"rain":0.0,"pressure":977.5,"uv_index":7.45,"aqi":151,"mosquito_risk":0,"arthritis_risk":5,"migraine_risk":7,"frizz_risk":0,"updated_at":"2026-02-23T09:36:19.180113+05:30"},{"city":"Amravati","state":"Maharashtra","latitude":20.9374,"longitude":77.7796,"temp":26.3,"humidity":52,"rain":0.0,"pressure":969.7,"uv_index":7.35,"aqi":161,"mosquito_risk":4,"arthritis_risk":5,"migraine_risk":7,"frizz_risk":0,"updated_at":"2026-02-23T09:36:19.180120+05:30"},{"city":"Latur","state":"Maharashtra","latitude":18.4088,"longitude":76.5604,"temp":24.2,"humidity":55,"rain":0.0,"pressure":941.2,"uv_index":7.8,"aqi":116,"mosquito_risk":0,"arthritis_risk":5,"migraine_risk":7,"frizz_risk":0,"updated_at":"2026-02-23T09:36:19.180126+05:30"},{"city":"Nanded","state":"Maharashtra","latitude":19.1383,"longitude":77.3091,"temp":26.7,"humidity":60,"rain":0.0,"pressure":970.6,"uv_index":7.6,"aqi":152,"mosquito_risk":4,"arthritis_risk":5,"migraine_risk":7,"frizz_risk":1,"updated_at":"2026-02-23T09:36:19.180132+05:30"},{"city":"Gulbarga","state":"Karnataka","latitude":17.3297,"longitude":76.8343,"temp":25.9,"humidity":59,"rain":0.0,"pressure":960.4,"uv_index":7.95,"aqi":95,"mosquito_risk":4,"arthritis_risk":5,"migraine_risk":7,"frizz_risk":1,"updated_at":"2026-02-23T09:36:19.180139+05:30"},{"city":"Bidar","state":"Karnataka","latitude":17.9104,"longitude":77.5199,"temp":25.7,"humidity":59,"rain":0.0,"pressure":937.2,"uv_index":6.95,"aqi":109,"mosquito_risk":4,"arthritis_risk":5,"migraine_risk":7,"frizz_risk":1,"updated_at":"2026-02-23T09:36:19.180145+05:30"},{"city":"Hospet","state":"Karnataka","latitude":15.2689,"longitude":76.3909,"temp":26.2,"humidity":60,"rain":0.0,"pressure":957.0,"uv_index":8.25,"aqi":58,"mosquito_risk":4,"arthritis_risk":5,"migraine_risk":7,"frizz_risk":1,"updated_at":"2026-02-23T09:36:19.180151+05:30"},{"city":"Tirupur","state":"Tamil Nadu","latitude":11.1085,"longitude":77.3411,"temp":26.4,"humidity":72,"rain":0.0,"pressure":976.8,"uv_index":8.85,"aqi":70,"mosquito_risk":7,"arthritis_risk":5,"migraine_risk":7,"frizz_risk":1,"updated_at":"2026-02-23T09:36:19.180157+05:30"},{"city":"Alappuzha","state":"Kerala","latitude":9.4981,"longitude":76.3388,"temp":26.8,"humidity":84,"rain":0.0,"pressure":1009.5,"uv_index":8.35,"aqi":62,"mosquito_risk":7,"arthritis_risk":0,"migraine_risk":4,"frizz_risk":1,"updated_at":"2026-02-23T09:36:19.180163+05:30"},{"city":"Munnar","state":"Kerala","latitude":10.0889,"longitude":77.0595,"temp":24.0,"humidity":69,"rain":0.0,"pressure":858.0,"uv_index":6.65,"aqi":71,"mosquito_risk":3,"arthritis_risk":5,"migraine_risk":7,"frizz_risk":1,"updated_at":"2026-02-23T09:36:19.180170+05:30"},{"city":"Silchar","state":"Assam","latitude":24.8333,"longitude":92.7789,"temp":25.2,"humidity":63,"rain":0.0,"pressure":1009.7,"uv_index":7.0,"aqi":152,"mosquito_risk":7,"arthritis_risk":0,"migraine_risk":4,"frizz_risk":1,"updated_at":"2026-02-23T09:36:19.180176+05:30"},{"city":"Dibrugarh","state":"Assam","latitude":27.4728,"longitude":94.912,"temp":21.3,"humidity":73,"rain":0.0,"pressure":1001.4,"uv_index":6.7,"aqi":145,"mosquito_risk":3,"arthritis_risk":5,"migraine_risk":4,"frizz_risk":1,"updated_at":"2026-02-23T09:36:19.180182+05:30"}]