[{"city":"Delhi","state":"Delhi","latitude":28.6139,"longitude":77.209,"temp":29.1,"humidity":45,"rain":0.0,"pressure":978.0,"uv_index":7.7,"wind_gusts":38.9,"aqi":255,"pm10":416.3,"pm2_5":123.9,"no2":32.5,"co":927.0,"o3":46.0,"so2":18.4,"mosquito_risk":4,"arthritis_risk":5,"migraine_risk":7,"frizz_risk":1,"updated_at":"2026-05-16T04:27:09.650840+05:30"},{"city":"Mumbai","state":"Maharashtra","latitude":19.076,"longitude":72.8777,"temp":29.2,"humidity":73,"rain":0.0,"pressure":1004.2,"uv_index":7.9,"wind_gusts":49.0,"aqi":61,"pm10":20.8,"pm2_5":12.3,"no2":3.0,"co":149.0,"o3":43.0,"so2":2.3,"mosquito_risk":7,"arthritis_risk":5,"migraine_risk":4,"frizz_risk":1,"updated_at":"2026-05-16T04:27:09.650880+05:30"},{"city":"Bangalore","state":"Karnataka","latitude":12.9716,"longitude":77.5946,"temp":24.5,"humidity":69,"rain":0.0,"pressure":907.3,"uv_index":8.3,"wind_gusts":33.8,"aqi":113,"pm10":52.6,"pm2_5":41.1,"no2":33.8,"co":468.0,"o3":34.0,"so2":11.2,"mosquito_risk":3,"arthritis_risk":5,"migraine_risk":7,"frizz_risk":1,"updated_at":"2026-05-16T04:27:09.650893+05:30"},{"city":"Hyderabad","state":"Telangana","latitude":17.385,"longitude":78.4867,"temp":30.2,"humidity":50,"rain":0.0,"pressure":948.1,"uv_index":9.25,"wind_gusts":27.7,"aqi":131,"pm10":52.2,"pm2_5":39.0,"no2":16.0,"co":322.0,"o3":68.0,"so2":7.0,"mosquito_risk":0,"arthritis_risk":5,"migraine_risk":7,"frizz_risk":1,"updated_at":"2026-05-16T04:27:09.650901+05:30"},{"city":"Chennai","state":"Tamil Nadu","latitude":13.0827,"longitude":80.2707,"temp":26.4,"humidity":96,"rain":0.0,"pressure":1001.7,"uv_index":9.0,"wind_gusts":32.8,"aqi":37,"pm10":17.3,"pm2_5":14.4,"no2":19.9,"co":377.0,"o3":40.0,"so2":17.8,"mosquito_risk":7,"arthritis_risk":5,"migraine_risk":4,"frizz_risk":1,"updated_at":"2026-05-16T04:27:09.650908+05:30"},{"city":"Kolkata","state":"West Bengal","latitude":22.5726,"longitude":88.3639,"temp":28.2,"humidity":89,"rain":0.0,"pressure":1001.4,"uv_index":9.0,"wind_gusts":34.9,"aqi":53,"pm10":14.1,"pm2_5":10.0,"no2":6.4,"co":174.0,"o3":38.0,"so2":4.0,"mosquito_risk":7,"arthritis_risk":5,"migraine_risk":4,"frizz_risk":1,"updated_at":"2026-05-16T04:27:09.650915+05:30"},{"city":"Pune","state":"Maharashtra","latitude":18.5204,"longitude":73.8567,"temp":23.5,"humidity":89,"rain":0.0,"pressure":943.7,"uv_index":8.5,"wind_gusts":38.2,"aqi":69,"pm10":24.7,"pm2_5":19.6,"no2":23.8,"co":237.0,"o3":36.0,"so2":25.6,"mosquito_risk":3,"arthritis_risk":5,"migraine_risk":7,"frizz_risk":1,"updated_at":"2026-05-16T04:27:09.650920+05:30"},{"city":"Ahmedabad","state":"Gujarat","latitude":23.0225,"longitude":72.5714,"temp":29.1,"humidity":65,"rain":0.0,"pressure":997.7,"uv_index":8.15,"wind_gusts":32.0,"aqi":50,"pm10":25.9,"pm2_5":13.4,"no2":4.2,"co":135.0,"o3":43.0,"so2":2.7,"mosquito_risk":7,"arthritis_risk":5,"migraine_risk":7,"frizz_risk":1,"updated_at":"2026-05-16T04:27:09.650925+05:30"},{"city":"Jaipur","state":"Rajasthan","latitude":26.9124,"longitude":75.7873,"temp":28.4,"humidity":36,"rain":0.0,"pressure":955.1,"uv_index":8.25,"wind_gusts":29.5,"aqi":135,"pm10":123.9,"pm2_5":43.3,"no2":16.3,"co":348.0,"o3":38.0,"so2":6.2,"mosquito_risk":4,"arthritis_risk":5,"migraine_risk":7,"frizz_risk":0,"updated_at":"2026-05-16T04:27:09.650934+05:30"},{"city":"Lucknow","state":"Uttar Pradesh","latitude":26.8467,"longitude":80.9462,"temp":27.0,"humidity":79,"rain":0.0,"pressure":987.8,"uv_index":8.2,"wind_gusts":30.6,"aqi":145,"pm10":190.9,"pm2_5":72.9,"no2":39.3,"co":578.0,"o3":34.0,"so2":16.7,"mosquito_risk":7,"arthritis_risk":5,"migraine_risk":7,"frizz_risk":1,"updated_at":"2026-05-16T04:27:09.650939+05:30"},{"city":"Kanpur","state":"Uttar Pradesh","latitude":26.4499,"longitude":80.3319,"temp":28.1,"humidity":61,"rain":0.0,"pressure":986.1,"uv_index":8.2,"wind_gusts":31.3,"aqi":152,"pm10":234.7,"pm2_5":77.1,"no2":28.9,"co":538.0,"o3":43.0,"so2":14.9,"mosquito_risk":7,"arthritis_risk":5,"migraine_risk":7,"frizz_risk":1,"updated_at":"2026-05-16T04:27:09.650944+05:30"},{"city":"Chandigarh","state":"Chandigarh","latitude":30.7333,"longitude":76.7794,"temp":24.4,"humidity":45,"rain":0.0,"pressure":962.6,"uv_index":7.7,"wind_gusts":41.0,"aqi":84,"pm10":33.2,"pm2_5":27.1,"no2":24.4,"co":288.0,"o3":32.0,"so2":5.2,"mosquito_risk":0,"arthritis_risk":5,"migraine_risk":7,"frizz_risk":0,"updated_at":"2026-05-16T04:27:09.650951+05:30"},{"city":"Srinagar","state":"Jammu and Kashmir","latitude":34.0837,"longitude":74.7973,"temp":9.9,"humidity":100,"rain":0.0,"pressure":838.0,"uv_index":8.85,"wind_gusts":22.0,"aqi":74,"pm10":39.6,"pm2_5":35.6,"no2":24.2,"co":453.0,"o3":15.0,"so2":0.8,"mosquito_risk":3,"arthritis_risk":10,"migraine_risk":7,"frizz_risk":0,"updated_at":"2026-05-16T04:27:09.650958+05:30"},{"city":"Jammu","state":"Jammu and Kashmir","latitude":32.7266,"longitude":74.857,"temp":20.1,"humidity":74,"rain":0.0,"pressure":966.4,"uv_index":8.5,"wind_gusts":26.3,"aqi":83,"pm10":32.0,"pm2_5":29.2,"no2":30.9,"co":262.0,"o3":10.0,"so2":1.3,"mosquito_risk":3,"arthritis_risk":5,"migraine_risk":7,"frizz_risk":0,"updated_at":"2026-05-16T04:27:09.650964+05:30"},{"city":"Amritsar","state":"Punjab","latitude":31.634,"longitude":74.8723,"temp":24.5,"humidity":62,"rain":0.0,"pressure":975.5,"uv_index":8.35,"wind_gusts":22.7,"aqi":136,"pm10":58.8,"pm2_5":50.4,"no2":19.9,"co":447.0,"o3":64.0,"so2":9.8,"mosquito_risk":3,"arthritis_risk":5,"migraine_risk":7,"frizz_risk":1,"updated_at":"2026-05-16T04:27:09.650969+05:30"},{"city":"Ludhiana","state":"Punjab","latitude":30.901,"longitude":75.8573,"temp":24.9,"humidity":62,"rain":0.0,"pressure":973.3,"uv_index":8.0,"wind_gusts":42.5,"aqi":115,"pm10":47.7,"pm2_5":41.3,"no2":12.5,"co":460.0,"o3":74.0,"so2":7.8,"mosquito_risk":3,"arthritis_risk":5,"migraine_risk":7,"frizz_risk":1,"updated_at":"2026-05-16T04:27:09.650974+05:30"},{"city":"Jalandhar","state":"Punjab","latitude":31.326,"longitude":75.5762,"temp":24.1,"humidity":64,"rain":0.0,"pressure":974.2,"uv_index":8.15,"wind_gusts":30.2,"aqi":137,"pm10":83.6,"pm2_5":59.6,"no2":16.0,"co":461.0,"o3":64.0,"so2":8.3,"mosquito_risk":3,"arthritis_risk":5,"migraine_risk":7,"frizz_risk":1,"updated_at":"2026-05-16T04:27:09.650982+05:30"},{"city":"Dehradun","state":"Uttarakhand","latitude":30.6284,"longitude":78.0322,"temp":9.7,"humidity":94,"rain":0.0,"pressure":822.4,"uv_index":8.1,"wind_gusts":40.3,"aqi":55,"pm10":11.8,"pm2_5":8.7,"no2":19.3,"co":196.0,"o3":25.0,"so2":0.0,"mosquito_risk":3,"arthritis_risk":10,"migraine_risk":7,"frizz_risk":0,"updated_at":"2026-05-16T04:27:09.650988+05:30"},{"city":"Shimla","state":"Himachal Pradesh","latitude":31.1048,"longitude":77.1734,"temp":9.8,"humidity":64,"rain":0.0,"pressure":777.3,"uv_index":8.2,"wind_gusts":48.2,"aqi":64,"pm10":32.0,"pm2_5":23.1,"no2":24.5,"co":177.0,"o3":28.0,"so2":0.1,"mosquito_risk":3,"arthritis_risk":5,"migraine_risk":7,"frizz_risk":0,"updated_at":"2026-05-16T04:27:09.650995+05:30"},{"city":"Manali","state":"Himachal Pradesh","latitude":32.2396,"longitude":77.1887,"temp":8.0,"humidity":60,"rain":0.0,"pressure":810.7,"uv_index":9.75,"wind_gusts":37.8,"aqi":44,"pm10":3.7,"pm2_5":2.8,"no2":11.7,"co":189.0,"o3":110.0,"so2":0.0,"mosquito_risk":0,"arthritis_risk":5,"migraine_risk":7,"frizz_risk":0,"updated_at":"2026-05-16T04:27:09.651002+05:30"},{"city":"Gurgaon","state":"Haryana","latitude":28.4595,"longitude":77.0266,"temp":26.5,"humidity":54,"rain":0.0,"pressure":976.3,"uv_index":7.8,"wind_gusts":37.4,"aqi":507,"pm10":514.1,"pm2_5":137.4,"no2":40.7,"co":980.0,"o3":39.0,"so2":30.3,"mosquito_risk":4,"arthritis_risk":5,"migraine_risk":7,"frizz_risk":1,"updated_at":"2026-05-16T04:27:09.651007+05:30"},{"city":"Noida","state":"Uttar Pradesh","latitude":28.5355,"longitude":77.391,"temp":27.5,"humidity":53,"rain":0.0,"pressure":979.3,"uv_index":7.7,"wind_gusts":29.5,"aqi":507,"pm10":514.1,"pm2_5":137.4,"no2":40.7,"co":898.0,"o3":39.0,"so2":30.3,"mosquito_risk":4,"arthritis_risk":5,"migraine_risk":7,"frizz_risk":1,"updated_at":"2026-05-16T04:27:09.651012+05:30"},{"city":"Ghaziabad","state":"Uttar Pradesh","latitude":28.6692,"longitude":77.4538,"temp":25.1,"humidity":62,"rain":0.0,"pressure":977.4,"uv_index":7.7,"wind_gusts":36.4,"aqi":172,"pm10":258.9,"pm2_5":86.8,"no2":23.3,"co":882.0,"o3":55.0,"so2":15.6,"mosquito_risk":7,"arthritis_risk":5,"migraine_risk":7,"frizz_risk":1,"updated_at":"2026-05-16T04:27:09.651018+05:30"},{"city":"Faridabad","state":"Haryana","latitude":28.4089,"longitude":77.3178,"temp":28.4,"humidity":47,"rain":0.0,"pressure":978.6,"uv_index":7.75,"wind_gusts":40.0,"aqi":507,"pm10":514.1,"pm2_5":137.4,"no2":40.7,"co":786.0,"o3":39.0,"so2":30.3,"mosquito_risk":4,"arthritis_risk":5,"migraine_risk":7,"frizz_risk":0,"updated_at":"2026-05-16T04:27:09.651022+05:30"},{"city":"Meerut","state":"Uttar Pradesh","latitude":28.9845,"longitude":77.7064,"temp":26.1,"humidity":47,"rain":0.0,"pressure":976.1,"uv_index":7.6,"wind_gusts":37.4,"aqi":172,"pm10":258.9,"pm2_5":86.8,"no2":23.3,"co":537.0,"o3":55.0,"so2":15.6,"mosquito_risk":4,"arthritis_risk":5,"migraine_risk":7,"frizz_risk":0,"updated_at":"2026-05-16T04:27:09.651028+05:30"},{"city":"Agra","state":"Uttar Pradesh","latitude":27.1767,"longitude":78.0081,"temp":27.8,"humidity":50,"rain":0.0,"pressure":982.3,"uv_index":8.05,"wind_gusts":29.2,"aqi":528,"pm10":412.6,"pm2_5":108.5,"no2":15.3,"co":421.0,"o3":61.0,"so2":13.9,"mosquito_risk":4,"arthritis_risk":5,"migraine_risk":7,"frizz_risk":1,"updated_at":"2026-05-16T04:27:09.651033+05:30"},{"city":"Varanasi","state":"Uttar Pradesh","latitude":25.3176,"longitude":82.9739,"temp":28.1,"humidity":62,"rain":0.0,"pressure":991.9,"uv_index":8.7,"wind_gusts":37.1,"aqi":139,"pm10":143.9,"pm2_5":85.0,"no2":53.9,"co":1115.0,"o3":29.0,"so2":19.1,"mosquito_risk":7,"arthritis_risk":5,"migraine_risk":7,"frizz_risk":1,"updated_at":"2026-05-16T04:27:09.651038+05:30"},{"city":"Prayagraj","state":"Uttar Pradesh","latitude":25.4358,"longitude":81.8463,"temp":28.4,"humidity":65,"rain":0.0,"pressure":990.4,"uv_index":8.6,"wind_gusts":32.0,"aqi":135,"pm10":109.9,"pm2_5":72.9,"no2":55.7,"co":592.0,"o3":16.0,"so2":15.8,"mosquito_risk":7,"arthritis_risk":5,"migraine_risk":7,"frizz_risk":1,"updated_at":"2026-05-16T04:27:09.651043+05:30"},{"city":"Gorakhpur","state":"Uttar Pradesh","latitude":26.7606,"longitude":83.3732,"temp":25.6,"humidity":80,"rain":0.0,"pressure":991.9,"uv_index":8.55,"wind_gusts":28.8,"aqi":153,"pm10":85.9,"pm2_5":73.1,"no2":44.1,"co":705.0,"o3":27.0,"so2":12.5,"mosquito_risk":7,"arthritis_risk":5,"migraine_risk":7,"frizz_risk":1,"updated_at":"2026-05-16T04:27:09.651050+05:30"},{"city":"Bareilly","state":"Uttar Pradesh","latitude":28.367,"longitude":79.4304,"temp":23.7,"humidity":78,"rain":0.0,"pressure":981.1,"uv_index":8.0,"wind_gusts":29.2,"aqi":152,"pm10":104.8,"pm2_5":72.9,"no2":34.4,"co":531.0,"o3":38.0,"so2":13.9,"mosquito_risk":3,"arthritis_risk":5,"migraine_risk":7,"frizz_risk":1,"updated_at":"2026-05-16T04:27:09.651054+05:30"},{"city":"Aligarh","state":"Uttar Pradesh","latitude":27.8974,"longitude":78.088,"temp":25.2,"humidity":65,"rain":0.0,"pressure":980.0,"uv_index":7.85,"wind_gusts":28.8,"aqi":318,"pm10":236.1,"pm2_5":108.5,"no2":33.6,"co":526.0,"o3":44.0,"so2":18.5,"mosquito_risk":7,"arthritis_risk":5,"migraine_risk":7,"frizz_risk":1,"updated_at":"2026-05-16T04:27:09.651059+05:30"},{"city":"Moradabad","state":"Uttar Pradesh","latitude":28.8386,"longitude":78.7733,"temp":24.9,"humidity":59,"rain":0.0,"pressure":978.1,"uv_index":7.8,"wind_gusts":36.7,"aqi":160,"pm10":89.2,"pm2_5":61.5,"no2":30.3,"co":563.0,"o3":36.0,"so2":10.7,"mosquito_risk":0,"arthritis_risk":5,"migraine_risk":7,"frizz_risk":1,"updated_at":"2026-05-16T04:27:09.651064+05:30"},{"city":"Saharanpur","state":"Uttar Pradesh","latitude":29.9637,"longitude":77.546,"temp":23.4,"humidity":62,"rain":0.0,"pressure":969.5,"uv_index":7.35,"wind_gusts":37.4,"aqi":150,"pm10":72.2,"pm2_5":58.4,"no2":46.8,"co":518.0,"o3":16.0,"so2":10.8,"mosquito_risk":3,"arthritis_risk":5,"migraine_risk":7,"frizz_risk":0,"updated_at":"2026-05-16T04:27:09.651069+05:30"},{"city":"Jhansi","state":"Uttar Pradesh","latitude":25.4484,"longitude":78.5685,"temp":28.7,"humidity":49,"rain":0.0,"pressure":972.4,"uv_index":8.5,"wind_gusts":33.5,"aqi":121,"pm10":243.1,"pm2_5":63.6,"no2":7.1,"co":394.0,"o3":62.0,"so2":6.0,"mosquito_risk":4,"arthritis_risk":5,"migraine_risk":7,"frizz_risk":1,"updated_at":"2026-05-16T04:27:13.011697+05:30"},{"city":"Surat","state":"Gujarat","latitude":21.1702,"longitude":72.8311,"temp":29.8,"humidity":72,"rain":0.0,"pressure":1002.1,"uv_index":7.75,"wind_gusts":37.1,"aqi":77,"pm10":25.8,"pm2_5":18.9,"no2":27.2,"co":341.0,"o3":20.0,"so2":42.3,"mosquito_risk":7,"arthritis_risk":5,"migraine_risk":4,"frizz_risk":1,"updated_at":"2026-05-16T04:27:13.011730+05:30"},{"city":"Vadodara","state":"Gujarat","latitude":22.3072,"longitude":73.1812,"temp":28.8,"humidity":83,"rain":0.0,"pressure":999.9,"uv_index":8.1,"wind_gusts":33.5,"aqi":55,"pm10":19.9,"pm2_5":14.6,"no2":17.9,"co":210.0,"o3":23.0,"so2":17.9,"mosquito_risk":7,"arthritis_risk":5,"migraine_risk":7,"frizz_risk":1,"updated_at":"2026-05-16T04:27:13.011739+05:30"},{"city":"Rajkot","state":"Gujarat","latitude":22.3039,"longitude":70.8022,"temp":26.7,"humidity":80,"rain":0.0,"pressure":990.3,"uv_index":7.75,"wind_gusts":42.5,"aqi":50,"pm10":19.6,"pm2_5":9.8,"no2":6.3,"co":117.0,"o3":39.0,"so2":7.0,"mosquito_risk":7,"arthritis_risk":5,"migraine_risk":7,"frizz_risk":1,"updated_at":"2026-05-16T04:27:13.011746+05:30"},{"city":"Thane","state":"Maharashtra","latitude":19.2183,"longitude":72.9781,"temp":28.4,"humidity":81,"rain":0.0,"pressure":1003.7,"uv_index":7.9,"wind_gusts":43.6,"aqi":61,"pm10":20.8,"pm2_5":12.3,"no2":3.0,"co":137.0,"o3":43.0,"so2":2.3,"mosquito_risk":7,"arthritis_risk":5,"migraine_risk":4,"frizz_risk":1,"updated_at":"2026-05-16T04:27:13.011753+05:30"},{"city":"Nagpur","state":"Maharashtra","latitude":21.1458,"longitude":79.0882,"temp":31.7,"humidity":29,"rain":0.0,"pressure":967.0,"uv_index":8.95,"wind_gusts":38.2,"aqi":91,"pm10":34.6,"pm2_5":23.1,"no2":16.7,"co":279.0,"o3":54.0,"so2":7.1,"mosquito_risk":0,"arthritis_risk":5,"migraine_risk":7,"frizz_risk":0,"updated_at":"2026-05-16T04:27:13.011759+05:30"},{"city":"Nashik","state":"Maharashtra","latitude":19.9975,"longitude":73.7898,"temp":23.8,"humidity":88,"rain":0.0,"pressure":941.7,"uv_index":8.2,"wind_gusts":37.1,"aqi":50,"pm10":13.0,"pm2_5":9.0,"no2":4.4,"co":133.0,"o3":40.0,"so2":0.8,"mosquito_risk":3,"arthritis_risk":5,"migraine_risk":7,"frizz_risk":1,"updated_at":"2026-05-16T04:27:13.011765+05:30"},{"city":"Aurangabad","state":"Maharashtra","latitude":19.8762,"longitude":75.3433,"temp":27.9,"humidity":39,"rain":0.0,"pressure":939.2,"uv_index":9.1,"wind_gusts":36.4,"aqi":58,"pm10":13.3,"pm2_5":10.6,"no2":11.3,"co":162.0,"o3":52.0,"so2":4.1,"mosquito_risk":4,"arthritis_risk":5,"migraine_risk":7,"frizz_risk":0,"updated_at":"2026-05-16T04:27:13.011771+05:30"},{"city":"Solapur","state":"Maharashtra","latitude":17.6599,"longitude":75.9064,"temp":28.5,"humidity":49,"rain":0.0,"pressure":951.9,"uv_index":8.6,"wind_gusts":31.7,"aqi":98,"pm10":37.5,"pm2_5":31.0,"no2":25.5,"co":170.0,"o3":37.0,"so2":6.4,"mosquito_risk":4,"arthritis_risk":5,"migraine_risk":7,"frizz_risk":1,"updated_at":"2026-05-16T04:27:13.011777+05:30"},{"city":"Kolhapur","state":"Maharashtra","latitude":16.705,"longitude":74.2433,"temp":23.6,"humidity":85,"rain":0.0,"pressure":942.9,"uv_index":8.55,"wind_gusts":49.3,"aqi":67,"pm10":20.5,"pm2_5":16.6,"no2":11.7,"co":219.0,"o3":45.0,"so2":4.4,"mosquito_risk":3,"arthritis_risk":5,"migraine_risk":7,"frizz_risk":1,"updated_at":"2026-05-16T04:27:13.011784+05:30"},{"city":"Goa","state":"Goa","latitude":15.2993,"longitude":74.124,"temp":27.8,"humidity":85,"rain":0.0,"pressure":993.1,"uv_index":8.9,"wind_gusts":39.2,"aqi":71,"pm10":39.8,"pm2_5":32.5,"no2":11.2,"co":226.0,"o3":47.0,"so2":2.1,"mosquito_risk":7,"arthritis_risk":5,"migraine_risk":7,"frizz_risk":1,"updated_at":"2026-05-16T04:27:13.011790+05:30"},{"city":"Jodhpur","state":"Rajasthan","latitude":26.2389,"longitude":73.0243,"temp":30.6,"humidity":34,"rain":0.0,"pressure":977.9,"uv_index":8.45,"wind_gusts":32.8,"aqi":134,"pm10":90.8,"pm2_5":22.8,"no2":6.4,"co":158.0,"o3":43.0,"so2":1.9,"mosquito_risk":0,"arthritis_risk":5,"migraine_risk":7,"frizz_risk":0,"updated_at":"2026-05-16T04:27:13.011796+05:30"},{"city":"Udaipur","state":"Rajasthan","latitude":24.5854,"longitude":73.7125,"temp":27.5,"humidity":41,"rain":0.0,"pressure":942.3,"uv_index":8.85,"wind_gusts":31.0,"aqi":47,"pm10":28.6,"pm2_5":13.9,"no2":3.1,"co":143.0,"o3":65.0,"so2":2.8,"mosquito_risk":4,"arthritis_risk":5,"migraine_risk":7,"frizz_risk":0,"updated_at":"2026-05-16T04:27:13.011802+05:30"},{"city":"Kota","state":"Rajasthan","latitude":25.2138,"longitude":75.8648,"temp":30.9,"humidity":25,"rain":0.0,"pressure":973.7,"uv_index":8.45,"wind_gusts":34.2,"aqi":83,"pm10":37.3,"pm2_5":13.7,"no2":3.5,"co":156.0,"o3":65.0,"so2":3.4,"mosquito_risk":0,"arthritis_risk":5,"migraine_risk":7,"frizz_risk":0,"updated_at":"2026-05-16T04:27:13.011807+05:30"},{"city":"Bikaner","state":"Rajasthan","latitude":28.0229,"longitude":73.3119,"temp":28.9,"humidity":38,"rain":0.0,"pressure":976.9,"uv_index":8.4,"wind_gusts":27.7,"aqi":114,"pm10":281.3,"pm2_5":69.8,"no2":5.0,"co":278.0,"o3":56.0,"so2":1.8,"mosquito_risk":4,"arthritis_risk":5,"migraine_risk":7,"frizz_risk":0,"updated_at":"2026-05-16T04:27:13.011813+05:30"},{"city":"Ajmer","state":"Rajasthan","latitude":26.4499,"longitude":74.6399,"temp":28.2,"humidity":34,"rain":0.0,"pressure":950.0,"uv_index":8.4,"wind_gusts":32.4,"aqi":78,"pm10":101.5,"pm2_5":25.0,"no2":4.1,"co":170.0,"o3":62.0,"so2":3.5,"mosquito_risk":4,"arthritis_risk":5,"migraine_risk":7,"frizz_risk":0,"updated_at":"2026-05-16T04:27:13.011819+05:30"},{"city":"Gwalior","state":"Madhya Pradesh","latitude":26.2183,"longitude":78.1828,"temp":28.5,"humidity":47,"rain":0.0,"pressure":977.9,"uv_index":8.25,"wind_gusts":37.4,"aqi":156,"pm10":301.7,"pm2_5":78.9,"no2":8.1,"co":315.0,"o3":66.0,"so2":7.9,"mosquito_risk":4,"arthritis_risk":5,"migraine_risk":7,"frizz_risk":1,"updated_at":"2026-05-16T04:27:13.011825+05:30"},{"city":"Indore","state":"Madhya Pradesh","latitude":22.7196,"longitude":75.8577,"temp":28.4,"humidity":35,"rain":0.0,"pressure":944.2,"uv_index":8.7,"wind_gusts":36.4,"aqi":55,"pm10":19.6,"pm2_5":12.3,"no2":3.9,"co":193.0,"o3":100.0,"so2":6.9,"mosquito_risk":4,"arthritis_risk":5,"migraine_risk":7,"frizz_risk":0,"updated_at":"2026-05-16T04:27:13.011830+05:30"},{"city":"Bhopal","state":"Madhya Pradesh","latitude":23.2599,"longitude":77.4126,"temp":30.9,"humidity":25,"rain":0.0,"pressure":949.2,"uv_index":8.75,"wind_gusts":37.4,"aqi":66,"pm10":20.0,"pm2_5":14.8,"no2":4.7,"co":192.0,"o3":68.0,"so2":4.4,"mosquito_risk":0,"arthritis_risk":5,"migraine_risk":7,"frizz_risk":0,"updated_at":"2026-05-16T04:27:13.011837+05:30"},{"city":"Jabalpur","state":"Madhya Pradesh","latitude":23.1815,"longitude":79.9864,"temp":29.0,"humidity":45,"rain":0.0,"pressure":956.0,"uv_index":8.9,"wind_gusts":34.2,"aqi":102,"pm10":53.9,"pm2_5":31.1,"no2":13.1,"co":311.0,"o3":63.0,"so2":7.8,"mosquito_risk":4,"arthritis_risk":5,"migraine_risk":7,"frizz_risk":0,"updated_at":"2026-05-16T04:27:13.011844+05:30"},{"city":"Ujjain","state":"Madhya Pradesh","latitude":23.1765,"longitude":75.7885,"temp":28.6,"humidity":30,"rain":0.0,"pressure":949.7,"uv_index":8.65,"wind_gusts":42.8,"aqi":54,"pm10":22.7,"pm2_5":13.9,"no2":4.3,"co":192.0,"o3":85.0,"so2":6.3,"mosquito_risk":4,"arthritis_risk":5,"migraine_risk":7,"frizz_risk":0,"updated_at":"2026-05-16T04:27:13.011850+05:30"},{"city":"Visakhapatnam","state":"Andhra Pradesh","latitude":17.6868,"longitude":83.2185,"temp":28.4,"humidity":88,"rain":0.0,"pressure":999.3,"uv_index":9.2,"wind_gusts":40.0,"aqi":75,"pm10":21.0,"pm2_5":17.5,"no2":23.2,"co":471.0,"o3":22.0,"so2":47.7,"mosquito_risk":7,"arthritis_risk":5,"migraine_risk":7,"frizz_risk":1,"updated_at":"2026-05-16T04:27:13.011855+05:30"},{"city":"Vijayawada","state":"Andhra Pradesh","latitude":16.5062,"longitude":80.648,"temp":29.1,"humidity":85,"rain":0.0,"pressure":997.5,"uv_index":9.0,"wind_gusts":32.0,"aqi":65,"pm10":13.2,"pm2_5":10.8,"no2":8.5,"co":189.0,"o3":25.0,"so2":4.3,"mosquito_risk":7,"arthritis_risk":5,"migraine_risk":7,"frizz_risk":1,"updated_at":"2026-05-16T04:27:13.011861+05:30"},{"city":"Guntur","state":"Andhra Pradesh","latitude":16.3067,"longitude":80.4365,"temp":29.1,"humidity":84,"rain":0.0,"pressure":998.6,"uv_index":8.85,"wind_gusts":33.8,"aqi":67,"pm10":12.2,"pm2_5":9.5,"no2":6.8,"co":145.0,"o3":28.0,"so2":3.2,"mosquito_risk":7,"arthritis_risk":5,"migraine_risk":7,"frizz_risk":1,"updated_at":"2026-05-16T04:27:13.011867+05:30"},{"city":"Nellore","state":"Andhra Pradesh","latitude":14.4426,"longitude":79.9865,"temp":28.2,"humidity":87,"rain":0.0,"pressure":1000.2,"uv_index":8.75,"wind_gusts":37.1,"aqi":36,"pm10":9.4,"pm2_5":7.6,"no2":12.0,"co":153.0,"o3":25.0,"so2":10.0,"mosquito_risk":7,"arthritis_risk":5,"migraine_risk":4,"frizz_risk":1,"updated_at":"2026-05-16T04:27:13.011873+05:30"},{"city":"Kurnool","state":"Andhra Pradesh","latitude":15.8281,"longitude":78.0373,"temp":31.3,"humidity":51,"rain":0.0,"pressure":970.9,"uv_index":6.3,"wind_gusts":33.5,"aqi":118,"pm10":36.1,"pm2_5":25.5,"no2":9.3,"co":178.0,"o3":58.0,"so2":4.7,"mosquito_risk":0,"arthritis_risk":5,"migraine_risk":7,"frizz_risk":1,"updated_at":"2026-05-16T04:27:13.011880+05:30"},{"city":"Kakinada","state":"Andhra Pradesh","latitude":16.9891,"longitude":82.2475,"temp":29.0,"humidity":86,"rain":0.0,"pressure":1002.8,"uv_index":9.15,"wind_gusts":38.9,"aqi":34,"pm10":10.0,"pm2_5":5.9,"no2":1.7,"co":146.0,"o3":47.0,"so2":1.0,"mosquito_risk":7,"arthritis_risk":5,"migraine_risk":4,"frizz_risk":1,"updated_at":"2026-05-16T04:27:13.011885+05:30"},{"city":"Tirupati","state":"Andhra Pradesh","latitude":13.6288,"longitude":79.4192,"temp":26.7,"humidity":91,"rain":0.0,"pressure":985.8,"uv_index":8.45,"wind_gusts":25.2,"aqi":58,"pm10":21.2,"pm2_5":18.7,"no2":29.8,"co":242.0,"o3":13.0,"so2":18.8,"mosquito_risk":7,"arthritis_risk":5,"migraine_risk":7,"frizz_risk":1,"updated_at":"2026-05-16T04:27:13.011891+05:30"},{"city":"Warangal","state":"Telangana","latitude":17.9689,"longitude":79.5941,"temp":28.4,"humidity":79,"rain":0.0,"pressure":973.6,"uv_index":8.4,"wind_gusts":42.5,"aqi":111,"pm10":23.3,"pm2_5":19.1,"no2":11.2,"co":224.0,"o3":45.0,"so2":11.4,"mosquito_risk":7,"arthritis_risk":5,"migraine_risk":7,"frizz_risk":1,"updated_at":"2026-05-16T04:27:13.011897+05:30"},{"city":"Nizamabad","state":"Telangana","latitude":18.6725,"longitude":78.0941,"temp":28.8,"humidity":50,"rain":0.0,"pressure":959.2,"uv_index":8.4,"wind_gusts":33.1,"aqi":133,"pm10":83.4,"pm2_5":63.1,"no2":42.8,"co":552.0,"o3":20.0,"so2":6.5,"mosquito_risk":4,"arthritis_risk":5,"migraine_risk":7,"frizz_risk":1,"updated_at":"2026-05-16T04:27:13.011902+05:30"},{"city":"Mysore","state":"Karnataka","latitude":12.2958,"longitude":76.6396,"temp":23.6,"humidity":83,"rain":0.0,"pressure":923.3,"uv_index":7.0,"wind_gusts":42.5,"aqi":89,"pm10":39.5,"pm2_5":30.2,"no2":10.2,"co":280.0,"o3":81.0,"so2":3.1,"mosquito_risk":3,"arthritis_risk":5,"migraine_risk":7,"frizz_risk":1,"updated_at":"2026-05-16T04:27:13.011907+05:30"},{"city":"Mangalore","state":"Karnataka","latitude":12.9141,"longitude":74.856,"temp":25.7,"humidity":98,"rain":0.2,"pressure":1002.4,"uv_index":8.4,"wind_gusts":45.7,"aqi":72,"pm10":26.1,"pm2_5":19.6,"no2":8.5,"co":178.0,"o3":50.0,"so2":2.6,"mosquito_risk":10,"arthritis_risk":5,"migraine_risk":4,"frizz_risk":1,"updated_at":"2026-05-16T04:27:13.011913+05:30"},{"city":"Hubli-Dharwad","state":"Karnataka","latitude":15.3647,"longitude":75.124,"temp":23.9,"humidity":95,"rain":0.0,"pressure":935.8,"uv_index":9.1,"wind_gusts":41.0,"aqi":75,"pm10":16.9,"pm2_5":13.9,"no2":8.0,"co":279.0,"o3":46.0,"so2":1.8,"mosquito_risk":3,"arthritis_risk":5,"migraine_risk":7,"frizz_risk":1,"updated_at":"2026-05-16T04:27:13.011918+05:30"},{"city":"Belgaum","state":"Karnataka","latitude":15.8497,"longitude":74.4977,"temp":23.2,"humidity":83,"rain":0.0,"pressure":920.8,"uv_index":9.2,"wind_gusts":43.6,"aqi":65,"pm10":28.9,"pm2_5":24.7,"no2":19.2,"co":241.0,"o3":31.0,"so2":2.9,"mosquito_risk":3,"arthritis_risk":5,"migraine_risk":7,"frizz_risk":1,"updated_at":"2026-05-16T04:27:16.377360+05:30"},{"city":"Coimbatore","state":"Tamil Nadu","latitude":11.0168,"longitude":76.9558,"temp":24.8,"humidity":92,"rain":0.0,"pressure":956.6,"uv_index":8.0,"wind_gusts":37.4,"aqi":72,"pm10":25.7,"pm2_5":17.2,"no2":11.2,"co":255.0,"o3":55.0,"so2":4.0,"mosquito_risk":3,"arthritis_risk":5,"migraine_risk":7,"frizz_risk":1,"updated_at":"2026-05-16T04:27:16.377390+05:30"},{"city":"Madurai","state":"Tamil Nadu","latitude":9.9252,"longitude":78.1198,"temp":26.4,"humidity":86,"rain":0.0,"pressure":988.0,"uv_index":9.05,"wind_gusts":43.6,"aqi":85,"pm10":46.0,"pm2_5":39.2,"no2":48.0,"co":440.0,"o3":0.0,"so2":6.3,"mosquito_risk":7,"arthritis_risk":5,"migraine_risk":7,"frizz_risk":1,"updated_at":"2026-05-16T04:27:16.377402+05:30"},{"city":"Trichy","state":"Tamil Nadu","latitude":10.7905,"longitude":78.7047,"temp":25.6,"humidity":91,"rain":0.0,"pressure":994.5,"uv_index":9.1,"wind_gusts":31.3,"aqi":80,"pm10":37.0,"pm2_5":28.9,"no2":26.3,"co":407.0,"o3":34.0,"so2":6.5,"mosquito_risk":7,"arthritis_risk":5,"migraine_risk":7,"frizz_risk":1,"updated_at":"2026-05-16T04:27:16.377410+05:30"},{"city":"Salem","state":"Tamil Nadu","latitude":11.6643,"longitude":78.146,"temp":25.7,"humidity":91,"rain":0.0,"pressure":972.1,"uv_index":8.95,"wind_gusts":22.7,"aqi":113,"pm10":31.9,"pm2_5":27.0,"no2":19.3,"co":444.0,"o3":62.0,"so2":10.7,"mosquito_risk":7,"arthritis_risk":5,"migraine_risk":7,"frizz_risk":1,"updated_at":"2026-05-16T04:27:16.377416+05:30"},{"city":"Tirunelveli","state":"Tamil Nadu","latitude":8.7139,"longitude":77.7567,"temp":26.4,"humidity":87,"rain":0.0,"pressure":998.4,"uv_index":8.9,"wind_gusts":23.8,"aqi":48,"pm10":14.6,"pm2_5":11.9,"no2":6.9,"co":243.0,"o3":56.0,"so2":3.3,"mosquito_risk":7,"arthritis_risk":5,"migraine_risk":7,"frizz_risk":1,"updated_at":"2026-05-16T04:27:16.377423+05:30"},{"city":"Vellore","state":"Tamil Nadu","latitude":12.9165,"longitude":79.1325,"temp":26.5,"humidity":89,"rain":0.0,"pressure":979.2,"uv_index":8.35,"wind_gusts":33.1,"aqi":93,"pm10":53.4,"pm2_5":50.6,"no2":19.2,"co":299.0,"o3":34.0,"so2":14.3,"mosquito_risk":7,"arthritis_risk":5,"migraine_risk":7,"frizz_risk":1,"updated_at":"2026-05-16T04:27:16.377429+05:30"},{"city":"Erode","state":"Tamil Nadu","latitude":11.341,"longitude":77.7172,"temp":25.8,"humidity":90,"rain":0.0,"pressure":984.0,"uv_index":8.8,"wind_gusts":36.4,"aqi":95,"pm10":36.8,"pm2_5":28.1,"no2":30.5,"co":238.0,"o3":38.0,"so2":4.7,"mosquito_risk":7,"arthritis_risk":5,"migraine_risk":7,"frizz_risk":1,"updated_at":"2026-05-16T04:27:16.377435+05:30"},{"city":"Kochi","state":"Kerala","latitude":9.9312,"longitude":76.2673,"temp":25.6,"humidity":94,"rain":0.1,"pressure":1004.2,"uv_index":7.7,"wind_gusts":31.7,"aqi":62,"pm10":22.2,"pm2_5":20.4,"no2":22.2,"co":308.0,"o3":26.0,"so2":6.8,"mosquito_risk":10,"arthritis_risk":5,"migraine_risk":4,"frizz_risk":1,"updated_at":"2026-05-16T04:27:16.377441+05:30"},{"city":"Thiruvananthapuram","state":"Kerala","latitude":8.5241,"longitude":76.9366,"temp":24.5,"humidity":99,"rain":0.0,"pressure":1004.1,"uv_index":8.75,"wind_gusts":33.5,"aqi":50,"pm10":24.2,"pm2_5":14.1,"no2":3.5,"co":252.0,"o3":87.0,"so2":2.1,"mosquito_risk":3,"arthritis_risk":5,"migraine_risk":4,"frizz_risk":1,"updated_at":"2026-05-16T04:27:16.377448+05:30"},{"city":"Kozhikode","state":"Kerala","latitude":11.2588,"longitude":75.7804,"temp":25.3,"humidity":96,"rain":0.0,"pressure":1003.0,"uv_index":8.35,"wind_gusts":37.1,"aqi":69,"pm10":37.5,"pm2_5":24.2,"no2":4.1,"co":352.0,"o3":76.0,"so2":2.3,"mosquito_risk":7,"arthritis_risk":5,"migraine_risk":4,"frizz_risk":1,"updated_at":"2026-05-16T04:27:16.377454+05:30"},{"city":"Thrissur","state":"Kerala","latitude":10.5276,"longitude":76.2144,"temp":25.6,"humidity":93,"rain":0.0,"pressure":1002.2,"uv_index":7.5,"wind_gusts":29.2,"aqi":60,"pm10":16.4,"pm2_5":14.9,"no2":14.8,"co":231.0,"o3":36.0,"so2":4.8,"mosquito_risk":7,"arthritis_risk":5,"migraine_risk":4,"frizz_risk":1,"updated_at":"2026-05-16T04:27:16.377460+05:30"},{"city":"Kannur","state":"Kerala","latitude":11.8745,"longitude":75.3704,"temp":24.9,"humidity":99,"rain":0.1,"pressure":1002.9,"uv_index":8.25,"wind_gusts":37.4,"aqi":73,"pm10":31.8,"pm2_5":25.1,"no2":12.2,"co":188.0,"o3":43.0,"so2":2.9,"mosquito_risk":6,"arthritis_risk":5,"migraine_risk":4,"frizz_risk":1,"updated_at":"2026-05-16T04:27:16.377466+05:30"},{"city":"Patna","state":"Bihar","latitude":25.5941,"longitude":85.1376,"temp":27.1,"humidity":82,"rain":0.0,"pressure":995.5,"uv_index":8.8,"wind_gusts":28.1,"aqi":125,"pm10":57.5,"pm2_5":53.4,"no2":22.6,"co":564.0,"o3":59.0,"so2":17.3,"mosquito_risk":7,"arthritis_risk":5,"migraine_risk":7,"frizz_risk":1,"updated_at":"2026-05-16T04:27:16.377472+05:30"},{"city":"Gaya","state":"Bihar","latitude":24.7914,"longitude":85.0002,"temp":26.0,"humidity":70,"rain":0.0,"pressure":988.6,"uv_index":8.85,"wind_gusts":31.7,"aqi":142,"pm10":88.5,"pm2_5":69.4,"no2":37.7,"co":731.0,"o3":37.0,"so2":14.4,"mosquito_risk":7,"arthritis_risk":5,"migraine_risk":7,"frizz_risk":1,"updated_at":"2026-05-16T04:27:16.377478+05:30"},{"city":"Muzaffarpur","state":"Bihar","latitude":26.1209,"longitude":85.3647,"temp":25.8,"humidity":85,"rain":0.0,"pressure":995.9,"uv_index":8.8,"wind_gusts":33.8,"aqi":145,"pm10":59.8,"pm2_5":56.1,"no2":21.9,"co":738.0,"o3":62.0,"so2":17.2,"mosquito_risk":7,"arthritis_risk":5,"migraine_risk":7,"frizz_risk":1,"updated_at":"2026-05-16T04:27:16.377484+05:30"},{"city":"Bhagalpur","state":"Bihar","latitude":25.2425,"longitude":87.0117,"temp":26.1,"humidity":91,"rain":0.0,"pressure":996.8,"uv_index":8.8,"wind_gusts":32.0,"aqi":101,"pm10":49.1,"pm2_5":45.4,"no2":18.5,"co":426.0,"o3":62.0,"so2":17.3,"mosquito_risk":7,"arthritis_risk":5,"migraine_risk":7,"frizz_risk":1,"updated_at":"2026-05-16T04:27:16.377489+05:30"},{"city":"Ranchi","state":"Jharkhand","latitude":23.3441,"longitude":85.3096,"temp":23.4,"humidity":74,"rain":0.0,"pressure":933.2,"uv_index":9.3,"wind_gusts":34.2,"aqi":127,"pm10":75.9,"pm2_5":60.1,"no2":12.8,"co":450.0,"o3":93.0,"so2":17.7,"mosquito_risk":3,"arthritis_risk":5,"migraine_risk":7,"frizz_risk":1,"updated_at":"2026-05-16T04:27:16.377494+05:30"},{"city":"Jamshedpur","state":"Jharkhand","latitude":22.8046,"longitude":86.2029,"temp":26.1,"humidity":82,"rain":0.0,"pressure":986.3,"uv_index":9.1,"wind_gusts":26.6,"aqi":97,"pm10":44.8,"pm2_5":36.0,"no2":19.9,"co":395.0,"o3":65.0,"so2":23.6,"mosquito_risk":7,"arthritis_risk":5,"migraine_risk":7,"frizz_risk":1,"updated_at":"2026-05-16T04:27:16.377499+05:30"},{"city":"Dhanbad","state":"Jharkhand","latitude":23.7957,"longitude":86.4304,"temp":25.7,"humidity":76,"rain":0.0,"pressure":974.8,"uv_index":9.05,"wind_gusts":25.2,"aqi":142,"pm10":84.3,"pm2_5":70.5,"no2":47.5,"co":2931.0,"o3":51.0,"so2":105.8,"mosquito_risk":7,"arthritis_risk":5,"migraine_risk":7,"frizz_risk":1,"updated_at":"2026-05-16T04:27:16.377504+05:30"},{"city":"Bokaro","state":"Jharkhand","latitude":23.6693,"longitude":86.1511,"temp":26.4,"humidity":70,"rain":0.0,"pressure":978.6,"uv_index":9.1,"wind_gusts":29.2,"aqi":150,"pm10":99.0,"pm2_5":82.7,"no2":40.6,"co":1283.0,"o3":44.0,"so2":65.3,"mosquito_risk":7,"arthritis_risk":5,"migraine_risk":7,"frizz_risk":1,"updated_at":"2026-05-16T04:27:16.377509+05:30"},{"city":"Bhubaneswar","state":"Odisha","latitude":20.2961,"longitude":85.8245,"temp":28.7,"humidity":85,"rain":0.0,"pressure":998.3,"uv_index":9.15,"wind_gusts":43.6,"aqi":40,"pm10":10.4,"pm2_5":8.0,"no2":5.2,"co":141.0,"o3":35.0,"so2":2.3,"mosquito_risk":7,"arthritis_risk":5,"migraine_risk":7,"frizz_risk":1,"updated_at":"2026-05-16T04:27:16.377514+05:30"},{"city":"Cuttack","state":"Odisha","latitude":20.4625,"longitude":85.8828,"temp":28.8,"humidity":86,"rain":0.0,"pressure":1000.1,"uv_index":9.15,"wind_gusts":43.6,"aqi":40,"pm10":10.4,"pm2_5":8.0,"no2":5.2,"co":152.0,"o3":35.0,"so2":2.3,"mosquito_risk":7,"arthritis_risk":5,"migraine_risk":4,"frizz_risk":1,"updated_at":"2026-05-16T04:27:16.377519+05:30"},{"city":"Rourkela","state":"Odisha","latitude":22.2604,"longitude":84.8536,"temp":26.9,"humidity":78,"rain":0.0,"pressure":980.4,"uv_index":8.85,"wind_gusts":35.6,"aqi":133,"pm10":50.1,"pm2_5":38.0,"no2":18.0,"co":200.0,"o3":59.0,"so2":18.7,"mosquito_risk":7,"arthritis_risk":5,"migraine_risk":7,"frizz_risk":1,"updated_at":"2026-05-16T04:27:16.377525+05:30"},{"city":"Raipur","state":"Chhattisgarh","latitude":21.2514,"longitude":81.6296,"temp":30.1,"humidity":55,"rain":0.0,"pressure":969.2,"uv_index":9.05,"wind_gusts":38.2,"aqi":152,"pm10":84.8,"pm2_5":72.6,"no2":44.5,"co":445.0,"o3":23.0,"so2":30.1,"mosquito_risk":0,"arthritis_risk":5,"migraine_risk":7,"frizz_risk":1,"updated_at":"2026-05-16T04:27:16.377530+05:30"},{"city":"Bhilai","state":"Chhattisgarh","latitude":21.1938,"longitude":81.3509,"temp":29.8,"humidity":60,"rain":0.0,"pressure":969.6,"uv_index":9.05,"wind_gusts":43.6,"aqi":147,"pm10":100.8,"pm2_5":85.7,"no2":62.9,"co":414.0,"o3":9.0,"so2":50.9,"mosquito_risk":4,"arthritis_risk":5,"migraine_risk":7,"frizz_risk":1,"updated_at":"2026-05-16T04:27:16.377535+05:30"},{"city":"Guwahati","state":"Assam","latitude":26.1158,"longitude":91.7086,"temp":22.5,"humidity":98,"rain":0.0,"pressure":998.6,"uv_index":7.75,"wind_gusts":27.0,"aqi":56,"pm10":11.2,"pm2_5":8.7,"no2":4.8,"co":316.0,"o3":86.0,"so2":2.0,"mosquito_risk":3,"arthritis_risk":5,"migraine_risk":7,"frizz_risk":1,"updated_at":"2026-05-16T04:27:16.377540+05:30"},{"city":"Agartala","state":"Tripura","latitude":23.8315,"longitude":91.2868,"temp":25.0,"humidity":96,"rain":0.0,"pressure":1002.9,"uv_index":6.4,"wind_gusts":33.1,"aqi":52,"pm10":12.3,"pm2_5":10.5,"no2":15.1,"co":167.0,"o3":13.0,"so2":1.9,"mosquito_risk":7,"arthritis_risk":5,"migraine_risk":4,"frizz_risk":1,"updated_at":"2026-05-16T04:27:16.377545+05:30"},{"city":"Shillong","state":"Meghalaya","latitude":25.5788,"longitude":91.8933,"temp":18.2,"humidity":94,"rain":0.0,"pressure":853.9,"uv_index":4.55,"wind_gusts":36.7,"aqi":43,"pm10":7.6,"pm2_5":4.7,"no2":4.0,"co":204.0,"o3":84.0,"so2":2.4,"mosquito_risk":3,"arthritis_risk":10,"migraine_risk":3,"frizz_risk":1,"updated_at":"2026-05-16T04:27:16.377550+05:30"},{"city":"Imphal","state":"Manipur","latitude":24.817,"longitude":93.9368,"temp":19.7,"humidity":87,"rain":0.0,"pressure":920.6,"uv_index":8.75,"wind_gusts":27.0,"aqi":56,"pm10":17.1,"pm2_5":14.7,"no2":12.6,"co":416.0,"o3":35.0,"so2":2.3,"mosquito_risk":3,"arthritis_risk":10,"migraine_risk":7,"frizz_risk":1,"updated_at":"2026-05-16T04:27:16.377555+05:30"},{"city":"Aizawl","state":"Mizoram","latitude":23.7271,"longitude":92.7176,"temp":16.3,"humidity":98,"rain":0.0,"pressure":888.5,"uv_index":8.9,"wind_gusts":34.6,"aqi":36,"pm10":13.6,"pm2_5":9.5,"no2":8.0,"co":139.0,"o3":31.0,"so2":2.1,"mosquito_risk":3,"arthritis_risk":10,"migraine_risk":7,"frizz_risk":1,"updated_at":"2026-05-16T04:27:16.377560+05:30"},{"city":"Kohima","state":"Nagaland","latitude":25.6701,"longitude":94.1077,"temp":15.1,"humidity":92,"rain":0.0,"pressure":851.0,"uv_index":9.25,"wind_gusts":28.1,"aqi":35,"pm10":4.9,"pm2_5":3.1,"no2":3.0,"co":262.0,"o3":73.0,"so2":1.6,"mosquito_risk":3,"arthritis_risk":10,"migraine_risk":7,"frizz_risk":0,"updated_at":"2026-05-16T04:27:16.377566+05:30"},{"city":"Gangtok","state":"Sikkim","latitude":27.3314,"longitude":88.6138,"temp":13.6,"humidity":96,"rain":0.1,"pressure":832.8,"uv_index":9.1,"wind_gusts":38.2,"aqi":59,"pm10":11.0,"pm2_5":9.0,"no2":5.6,"co":457.0,"o3":121.0,"so2":3.0,"mosquito_risk":6,"arthritis_risk":10,"migraine_risk":7,"frizz_risk":0,"updated_at":"2026-05-16T04:27:16.377571+05:30"},{"city":"Siliguri","state":"West Bengal","latitude":26.7271,"longitude":88.3953,"temp":21.7,"humidity":99,"rain":0.0,"pressure":990.4,"uv_index":8.4,"wind_gusts":24.8,"aqi":95,"pm10":27.0,"pm2_5":21.7,"no2":8.5,"co":360.0,"o3":113.0,"so2":3.1,"mosquito_risk":3,"arthritis_risk":5,"migraine_risk":7,"frizz_risk":1,"updated_at":"2026-05-16T04:27:19.750456+05:30"},{"city":"Durgapur","state":"West Bengal","latitude":23.5204,"longitude":87.3119,"temp":27.0,"humidity":95,"rain":0.0,"pressure":990.1,"uv_index":9.05,"wind_gusts":34.2,"aqi":116,"pm10":41.8,"pm2_5":37.1,"no2":34.8,"co":593.0,"o3":24.0,"so2":42.9,"mosquito_risk":7,"arthritis_risk":5,"migraine_risk":7,"frizz_risk":1,"updated_at":"2026-05-16T04:27:19.750487+05:30"},{"city":"Asansol","state":"West Bengal","latitude":23.6739,"longitude":86.9524,"temp":26.4,"humidity":97,"rain":0.0,"pressure":988.7,"uv_index":9.05,"wind_gusts":35.3,"aqi":117,"pm10":61.7,"pm2_5":52.9,"no2":40.3,"co":348.0,"o3":41.0,"so2":62.6,"mosquito_risk":7,"arthritis_risk":5,"migraine_risk":7,"frizz_risk":1,"updated_at":"2026-05-16T04:27:19.750497+05:30"},{"city":"Pondicherry","state":"Puducherry","latitude":11.9139,"longitude":79.8145,"temp":25.9,"humidity":96,"rain":0.0,"pressure":1003.2,"uv_index":8.55,"wind_gusts":40.3,"aqi":75,"pm10":45.4,"pm2_5":35.5,"no2":17.7,"co":589.0,"o3":58.0,"so2":23.6,"mosquito_risk":7,"arthritis_risk":5,"migraine_risk":4,"frizz_risk":1,"updated_at":"2026-05-16T04:27:19.750505+05:30"},{"city":"Port Blair","state":"Andaman and Nicobar Islands","latitude":11.6234,"longitude":92.7265,"temp":24.6,"humidity":97,"rain":0.2,"pressure":1005.0,"uv_index":6.25,"wind_gusts":45.7,"aqi":34,"pm10":5.4,"pm2_5":3.4,"no2":0.2,"co":135.0,"o3":69.0,"so2":0.2,"mosquito_risk":6,"arthritis_risk":5,"migraine_risk":4,"frizz_risk":1,"updated_at":"2026-05-16T04:27:19.750512+05:30"},{"city":"Haridwar","state":"Uttarakhand","latitude":29.9457,"longitude":78.1642,"temp":21.0,"humidity":74,"rain":0.0,"pressure":967.8,"uv_index":7.5,"wind_gusts":32.8,"aqi":112,"pm10":51.0,"pm2_5":43.4,"no2":39.8,"co":289.0,"o3":7.0,"so2":4.2,"mosquito_risk":3,"arthritis_risk":5,"migraine_risk":7,"frizz_risk":1,"updated_at":"2026-05-16T04:27:19.750519+05:30"},{"city":"Rishikesh","state":"Uttarakhand","latitude":30.0869,"longitude":78.2676,"temp":19.1,"humidity":80,"rain":0.0,"pressure":960.3,"uv_index":7.6,"wind_gusts":32.0,"aqi":89,"pm10":51.6,"pm2_5":33.6,"no2":21.4,"co":307.0,"o3":52.0,"so2":3.7,"mosquito_risk":3,"arthritis_risk":5,"migraine_risk":7,"frizz_risk":0,"updated_at":"2026-05-16T04:27:19.750525+05:30"},{"city":"Nainital","state":"Uttarakhand","latitude":29.3919,"longitude":79.4542,"temp":13.0,"humidity":67,"rain":0.0,"pressure":800.2,"uv_index":8.45,"wind_gusts":37.4,"aqi":108,"pm10":56.6,"pm2_5":38.3,"no2":24.7,"co":266.0,"o3":52.0,"so2":4.2,"mosquito_risk":3,"arthritis_risk":5,"migraine_risk":7,"frizz_risk":0,"updated_at":"2026-05-16T04:27:19.750530+05:30"},{"city":"Mussoorie","state":"Uttarakhand","latitude":30.4599,"longitude":78.0664,"temp":14.6,"humidity":53,"rain":0.0,"pressure":798.2,"uv_index":8.0,"wind_gusts":51.8,"aqi":86,"pm10":38.0,"pm2_5":28.8,"no2":40.1,"co":186.0,"o3":13.0,"so2":3.5,"mosquito_risk":0,"arthritis_risk":5,"migraine_risk":7,"frizz_risk":0,"updated_at":"2026-05-16T04:27:19.750536+05:30"},{"city":"Dharamshala","state":"Himachal Pradesh","latitude":32.219,"longitude":76.3234,"temp":18.9,"humidity":52,"rain":0.0,"pressure":864.0,"uv_index":8.35,"wind_gusts":41.4,"aqi":50,"pm10":8.7,"pm2_5":6.9,"no2":11.8,"co":195.0,"o3":37.0,"so2":0.1,"mosquito_risk":0,"arthritis_risk":5,"migraine_risk":7,"frizz_risk":0,"updated_at":"2026-05-16T04:27:19.750542+05:30"},{"city":"Dalhousie","state":"Himachal Pradesh","latitude":32.5387,"longitude":75.971,"temp":8.9,"humidity":86,"rain":0.0,"pressure":796.0,"uv_index":8.6,"wind_gusts":42.1,"aqi":66,"pm10":24.0,"pm2_5":20.0,"no2":32.5,"co":254.0,"o3":7.0,"so2":0.6,"mosquito_risk":3,"arthritis_risk":10,"migraine_risk":7,"frizz_risk":0,"updated_at":"2026-05-16T04:27:19.750548+05:30"},{"city":"Patiala","state":"Punjab","latitude":30.3398,"longitude":76.3869,"temp":25.2,"humidity":58,"rain":0.0,"pressure":972.7,"uv_index":7.6,"wind_gusts":40.7,"aqi":320,"pm10":491.7,"pm2_5":83.6,"no2":10.6,"co":453.0,"o3":73.0,"so2":8.1,"mosquito_risk":4,"arthritis_risk":5,"migraine_risk":7,"frizz_risk":1,"updated_at":"2026-05-16T04:27:19.750555+05:30"},{"city":"Bhatinda","state":"Punjab","latitude":30.211,"longitude":74.9455,"temp":26.1,"humidity":59,"rain":0.0,"pressure":978.4,"uv_index":8.25,"wind_gusts":31.7,"aqi":128,"pm10":75.2,"pm2_5":47.4,"no2":11.4,"co":486.0,"o3":65.0,"so2":6.1,"mosquito_risk":4,"arthritis_risk":5,"migraine_risk":7,"frizz_risk":1,"updated_at":"2026-05-16T04:27:19.750561+05:30"},{"city":"Rohtak","state":"Haryana","latitude":28.8955,"longitude":76.6066,"temp":25.7,"humidity":56,"rain":0.0,"pressure":976.4,"uv_index":7.75,"wind_gusts":36.7,"aqi":491,"pm10":614.7,"pm2_5":157.4,"no2":29.6,"co":580.0,"o3":46.0,"so2":11.7,"mosquito_risk":4,"arthritis_risk":5,"migraine_risk":7,"frizz_risk":1,"updated_at":"2026-05-16T04:27:19.750567+05:30"},{"city":"Panipat","state":"Haryana","latitude":29.3909,"longitude":76.9635,"temp":25.6,"humidity":54,"rain":0.0,"pressure":974.9,"uv_index":7.55,"wind_gusts":34.9,"aqi":1116,"pm10":888.5,"pm2_5":177.4,"no2":15.8,"co":365.0,"o3":58.0,"so2":8.2,"mosquito_risk":4,"arthritis_risk":5,"migraine_risk":7,"frizz_risk":0,"updated_at":"2026-05-16T04:27:19.750572+05:30"},{"city":"Mathura","state":"Uttar Pradesh","latitude":27.4924,"longitude":77.6737,"temp":26.1,"humidity":57,"rain":0.0,"pressure":981.6,"uv_index":8.0,"wind_gusts":29.2,"aqi":504,"pm10":285.0,"pm2_5":106.6,"no2":21.4,"co":478.0,"o3":58.0,"so2":14.4,"mosquito_risk":4,"arthritis_risk":5,"migraine_risk":7,"frizz_risk":1,"updated_at":"2026-05-16T04:27:19.750577+05:30"},{"city":"Vrindavan","state":"Uttar Pradesh","latitude":27.5823,"longitude":77.7027,"temp":25.6,"humidity":61,"rain":0.0,"pressure":981.9,"uv_index":8.0,"wind_gusts":28.4,"aqi":504,"pm10":285.0,"pm2_5":106.6,"no2":21.4,"co":506.0,"o3":58.0,"so2":14.4,"mosquito_risk":7,"arthritis_risk":5,"migraine_risk":7,"frizz_risk":1,"updated_at":"2026-05-16T04:27:19.750582+05:30"},{"city":"Ayodhya","state":"Uttar Pradesh","latitude":26.7922,"longitude":82.1998,"temp":25.8,"humidity":86,"rain":0.0,"pressure":989.7,"uv_index":8.35,"wind_gusts":28.1,"aqi":151,"pm10":118.3,"pm2_5":87.1,"no2":58.1,"co":606.0,"o3":11.0,"so2":13.4,"mosquito_risk":7,"arthritis_risk":5,"migraine_risk":7,"frizz_risk":1,"updated_at":"2026-05-16T04:27:19.750588+05:30"},{"city":"Ratlam","state":"Madhya Pradesh","latitude":23.3315,"longitude":75.0367,"temp":26.6,"humidity":49,"rain":0.0,"pressure":950.8,"uv_index":8.55,"wind_gusts":32.0,"aqi":52,"pm10":23.1,"pm2_5":14.6,"no2":5.6,"co":182.0,"o3":71.0,"so2":7.4,"mosquito_risk":4,"arthritis_risk":5,"migraine_risk":7,"frizz_risk":0,"updated_at":"2026-05-16T04:27:19.750593+05:30"},{"city":"Sagar","state":"Madhya Pradesh","latitude":23.8388,"longitude":78.7378,"temp":29.9,"humidity":38,"rain":0.0,"pressure":945.3,"uv_index":8.75,"wind_gusts":35.6,"aqi":87,"pm10":79.4,"pm2_5":34.2,"no2":20.1,"co":288.0,"o3":63.0,"so2":6.6,"mosquito_risk":4,"arthritis_risk":5,"migraine_risk":7,"frizz_risk":0,"updated_at":"2026-05-16T04:27:19.750599+05:30"},{"city":"Satna","state":"Madhya Pradesh","latitude":24.6005,"longitude":80.8322,"temp":28.8,"humidity":50,"rain":0.0,"pressure":966.4,"uv_index":8.8,"wind_gusts":40.3,"aqi":103,"pm10":86.4,"pm2_5":42.7,"no2":20.1,"co":379.0,"o3":61.0,"so2":9.9,"mosquito_risk":4,"arthritis_risk":5,"migraine_risk":7,"frizz_risk":1,"updated_at":"2026-05-16T04:27:19.750618+05:30"},{"city":"Akola","state":"Maharashtra","latitude":20.7002,"longitude":77.0082,"temp":31.5,"humidity":30,"rain":0.0,"pressure":970.1,"uv_index":8.9,"wind_gusts":43.6,"aqi":62,"pm10":17.1,"pm2_5":13.7,"no2":7.7,"co":179.0,"o3":75.0,"so2":6.2,"mosquito_risk":0,"arthritis_risk":5,"migraine_risk":7,"frizz_risk":0,"updated_at":"2026-05-16T04:27:19.750625+05:30"},{"city":"Amravati","state":"Maharashtra","latitude":20.9374,"longitude":77.7796,"temp":31.4,"humidity":29,"rain":0.0,"pressure":961.7,"uv_index":8.9,"wind_gusts":38.5,"aqi":66,"pm10":17.0,"pm2_5":13.2,"no2":7.4,"co":188.0,"o3":75.0,"so2":5.1,"mosquito_risk":0,"arthritis_risk":5,"migraine_risk":7,"frizz_risk":0,"updated_at":"2026-05-16T04:27:19.750632+05:30"},{"city":"Latur","state":"Maharashtra","latitude":18.4088,"longitude":76.5604,"temp":27.6,"humidity":43,"rain":0.0,"pressure":934.9,"uv_index":8.0,"wind_gusts":34.9,"aqi":101,"pm10":35.3,"pm2_5":27.8,"no2":32.9,"co":303.0,"o3":45.0,"so2":6.8,"mosquito_risk":4,"arthritis_risk":5,"migraine_risk":7,"frizz_risk":0,"updated_at":"2026-05-16T04:27:19.750638+05:30"},{"city":"Nanded","state":"Maharashtra","latitude":19.1383,"longitude":77.3091,"temp":29.0,"humidity":40,"rain":0.0,"pressure":963.2,"uv_index":8.05,"wind_gusts":29.9,"aqi":104,"pm10":27.0,"pm2_5":22.2,"no2":22.1,"co":476.0,"o3":44.0,"so2":6.3,"mosquito_risk":4,"arthritis_risk":5,"migraine_risk":7,"frizz_risk":0,"updated_at":"2026-05-16T04:27:19.750643+05:30"},{"city":"Gulbarga","state":"Karnataka","latitude":17.3297,"longitude":76.8343,"temp":28.8,"humidity":51,"rain":0.0,"pressure":953.0,"uv_index":9.0,"wind_gusts":35.3,"aqi":123,"pm10":87.5,"pm2_5":56.2,"no2":37.3,"co":352.0,"o3":37.0,"so2":7.9,"mosquito_risk":4,"arthritis_risk":5,"migraine_risk":7,"frizz_risk":1,"updated_at":"2026-05-16T04:27:19.750649+05:30"},{"city":"Bidar","state":"Karnataka","latitude":17.9104,"longitude":77.5199,"temp":27.9,"humidity":51,"rain":0.0,"pressure":930.3,"uv_index":8.85,"wind_gusts":33.5,"aqi":131,"pm10":95.2,"pm2_5":69.2,"no2":60.8,"co":349.0,"o3":15.0,"so2":7.1,"mosquito_risk":4,"arthritis_risk":5,"migraine_risk":7,"frizz_risk":1,"updated_at":"2026-05-16T04:27:19.750654+05:30"},{"city":"Hospet","state":"Karnataka","latitude":15.2689,"longitude":76.3909,"temp":27.3,"humidity":67,"rain":0.0,"pressure":950.5,"uv_index":8.3,"wind_gusts":46.8,"aqi":88,"pm10":28.3,"pm2_5":21.7,"no2":13.4,"co":257.0,"o3":59.0,"so2":2.5,"mosquito_risk":7,"arthritis_risk":5,"migraine_risk":7,"frizz_risk":1,"updated_at":"2026-05-16T04:27:19.750660+05:30"},{"city":"Tirupur","state":"Tamil Nadu","latitude":11.1085,"longitude":77.3411,"temp":25.9,"humidity":85,"rain":0.0,"pressure":969.9,"uv_index":8.9,"wind_gusts":40.3,"aqi":89,"pm10":37.3,"pm2_5":28.1,"no2":26.8,"co":216.0,"o3":51.0,"so2":6.8,"mosquito_risk":7,"arthritis_risk":5,"migraine_risk":7,"frizz_risk":1,"updated_at":"2026-05-16T04:27:19.750665+05:30"},{"city":"Alappuzha","state":"Kerala","latitude":9.4981,"longitude":76.3388,"temp":25.5,"humidity":98,"rain":0.0,"pressure":1004.0,"uv_index":5.55,"wind_gusts":31.0,"aqi":60,"pm10":30.4,"pm2_5":22.4,"no2":15.4,"co":199.0,"o3":56.0,"so2":6.3,"mosquito_risk":7,"arthritis_risk":5,"migraine_risk":0,"frizz_risk":1,"updated_at":"2026-05-16T04:27:19.750671+05:30"},{"city":"Munnar","state":"Kerala","latitude":10.0889,"longitude":77.0595,"temp":17.1,"humidity":60,"rain":0.0,"pressure":851.8,"uv_index":6.25,"wind_gusts":28.4,"aqi":45,"pm10":12.3,"pm2_5":11.5,"no2":8.7,"co":206.0,"o3":41.0,"so2":1.6,"mosquito_risk":0,"arthritis_risk":5,"migraine_risk":7,"frizz_risk":0,"updated_at":"2026-05-16T04:27:19.750677+05:30"},{"city":"Silchar","state":"Assam","latitude":24.8333,"longitude":92.7789,"temp":22.8,"humidity":96,"rain":0.2,"pressure":1002.2,"uv_index":8.95,"wind_gusts":29.5,"aqi":55,"pm10":14.3,"pm2_5":10.9,"no2":6.1,"co":212.0,"o3":62.0,"so2":2.8,"mosquito_risk":6,"arthritis_risk":5,"migraine_risk":4,"frizz_risk":1,"updated_at":"2026-05-16T04:27:19.750683+05:30"},{"city":"Dibrugarh","state":"Assam","latitude":27.4728,"longitude":94.912,"temp":21.9,"humidity":96,"rain":0.0,"pressure":993.6,"uv_index":7.75,"wind_gusts":35.3,"aqi":85,"pm10":30.0,"pm2_5":27.7,"no2":25.5,"co":236.0,"o3":9.0,"so2":1.0,"mosquito_risk":3,"arthritis_risk":5,"migraine_risk":7,"frizz_risk":1,"updated_at":"2026-05-16T04:27:19.750688+05:30"}]