[{"city":"Delhi","state":"Delhi","latitude":28.6139,"longitude":77.209,"temp":16.5,"humidity":86,"rain":0.0,"pressure":986.1,"uv_index":5.4,"aqi":162,"mosquito_risk":3,"arthritis_risk":10,"migraine_risk":3,"frizz_risk":0,"updated_at":"2026-02-22T08:23:19.047974"},{"city":"Mumbai","state":"Maharashtra","latitude":19.076,"longitude":72.8777,"temp":25.8,"humidity":76,"rain":0.0,"pressure":1008.9,"uv_index":7.2,"aqi":178,"mosquito_risk":7,"arthritis_risk":0,"migraine_risk":4,"frizz_risk":1,"updated_at":"2026-02-22T08:23:20.641430"},{"city":"Bangalore","state":"Karnataka","latitude":12.9716,"longitude":77.5946,"temp":20.2,"humidity":82,"rain":0.0,"pressure":911.6,"uv_index":8.65,"aqi":56,"mosquito_risk":3,"arthritis_risk":5,"migraine_risk":7,"frizz_risk":1,"updated_at":"2026-02-22T08:23:22.268051"},{"city":"Hyderabad","state":"Telangana","latitude":17.385,"longitude":78.4867,"temp":22.2,"humidity":69,"rain":0.0,"pressure":954.0,"uv_index":8.1,"aqi":73,"mosquito_risk":3,"arthritis_risk":5,"migraine_risk":7,"frizz_risk":1,"updated_at":"2026-02-22T08:23:23.891795"},{"city":"Chennai","state":"Tamil Nadu","latitude":13.0827,"longitude":80.2707,"temp":26.5,"humidity":81,"rain":0.0,"pressure":1008.0,"uv_index":7.8,"aqi":71,"mosquito_risk":7,"arthritis_risk":0,"migraine_risk":4,"frizz_risk":1,"updated_at":"2026-02-22T08:23:25.519518"},{"city":"Kolkata","state":"West Bengal","latitude":22.5726,"longitude":88.3639,"temp":22.9,"humidity":80,"rain":0.0,"pressure":1009.6,"uv_index":7.25,"aqi":171,"mosquito_risk":3,"arthritis_risk":0,"migraine_risk":4,"frizz_risk":1,"updated_at":"2026-02-22T08:23:27.198912"},{"city":"Pune","state":"Maharashtra","latitude":18.5204,"longitude":73.8567,"temp":23.0,"humidity":59,"rain":0.0,"pressure":948.9,"uv_index":7.7,"aqi":151,"mosquito_risk":0,"arthritis_risk":5,"migraine_risk":7,"frizz_risk":0,"updated_at":"2026-02-22T08:23:28.826793"},{"city":"Ahmedabad","state":"Gujarat","latitude":23.0225,"longitude":72.5714,"temp":19.8,"humidity":71,"rain":0.0,"pressure":1003.9,"uv_index":6.95,"aqi":153,"mosquito_risk":3,"arthritis_risk":5,"migraine_risk":4,"frizz_risk":0,"updated_at":"2026-02-22T08:23:30.527724"},{"city":"Jaipur","state":"Rajasthan","latitude":26.9124,"longitude":75.7873,"temp":18.0,"humidity":71,"rain":0.0,"pressure":962.0,"uv_index":6.2,"aqi":142,"mosquito_risk":3,"arthritis_risk":5,"migraine_risk":7,"frizz_risk":0,"updated_at":"2026-02-22T08:23:32.152784"},{"city":"Lucknow","state":"Uttar Pradesh","latitude":26.8467,"longitude":80.9462,"temp":17.6,"humidity":78,"rain":0.0,"pressure":997.4,"uv_index":5.85,"aqi":151,"mosquito_risk":3,"arthritis_risk":5,"migraine_risk":3,"frizz_risk":0,"updated_at":"2026-02-22T08:23:33.829375"},{"city":"Kanpur","state":"Uttar Pradesh","latitude":26.4499,"longitude":80.3319,"temp":16.9,"humidity":83,"rain":0.0,"pressure":995.7,"uv_index":5.85,"aqi":152,"mosquito_risk":3,"arthritis_risk":10,"migraine_risk":3,"frizz_risk":0,"updated_at":"2026-02-22T08:23:35.466691"},{"city":"Chandigarh","state":"Chandigarh","latitude":30.7333,"longitude":76.7794,"temp":15.0,"humidity":88,"rain":0.0,"pressure":970.6,"uv_index":5.2,"aqi":146,"mosquito_risk":3,"arthritis_risk":10,"migraine_risk":3,"frizz_risk":0,"updated_at":"2026-02-22T08:23:37.144897"},{"city":"Srinagar","state":"Jammu and Kashmir","latitude":34.0837,"longitude":74.7973,"temp":3.3,"humidity":86,"rain":0.0,"pressure":837.1,"uv_index":6.05,"aqi":153,"mosquito_risk":3,"arthritis_risk":10,"migraine_risk":7,"frizz_risk":0,"updated_at":"2026-02-22T08:23:38.792154"},{"city":"Jammu","state":"Jammu and Kashmir","latitude":32.7266,"longitude":74.857,"temp":14.1,"humidity":91,"rain":0.0,"pressure":974.1,"uv_index":5.75,"aqi":145,"mosquito_risk":3,"arthritis_risk":10,"migraine_risk":3,"frizz_risk":0,"updated_at":"2026-02-22T08:23:40.445158"},{"city":"Amritsar","state":"Punjab","latitude":31.634,"longitude":74.8723,"temp":12.7,"humidity":99,"rain":0.0,"pressure":982.9,"uv_index":5.7,"aqi":169,"mosquito_risk":3,"arthritis_risk":10,"migraine_risk":3,"frizz_risk":0,"updated_at":"2026-02-22T08:23:42.113185"},{"city":"Ludhiana","state":"Punjab","latitude":30.901,"longitude":75.8573,"temp":14.7,"humidity":89,"rain":0.0,"pressure":981.0,"uv_index":5.45,"aqi":176,"mosquito_risk":3,"arthritis_risk":10,"migraine_risk":3,"frizz_risk":0,"updated_at":"2026-02-22T08:23:43.766899"},{"city":"Jalandhar","state":"Punjab","latitude":31.326,"longitude":75.5762,"temp":13.4,"humidity":99,"rain":0.0,"pressure":982.1,"uv_index":5.6,"aqi":178,"mosquito_risk":3,"arthritis_risk":10,"migraine_risk":3,"frizz_risk":0,"updated_at":"2026-02-22T08:23:45.380713"},{"city":"Dehradun","state":"Uttarakhand","latitude":30.6284,"longitude":78.0322,"temp":10.4,"humidity":82,"rain":0.0,"pressure":827.8,"uv_index":5.55,"aqi":77,"mosquito_risk":3,"arthritis_risk":10,"migraine_risk":3,"frizz_risk":0,"updated_at":"2026-02-22T08:23:47.029564"},{"city":"Shimla","state":"Himachal Pradesh","latitude":31.1048,"longitude":77.1734,"temp":9.4,"humidity":85,"rain":0.0,"pressure":781.4,"uv_index":5.6,"aqi":105,"mosquito_risk":3,"arthritis_risk":10,"migraine_risk":3,"frizz_risk":0,"updated_at":"2026-02-22T08:23:48.735835"},{"city":"Manali","state":"Himachal Pradesh","latitude":32.2396,"longitude":77.1887,"temp":11.4,"humidity":22,"rain":0.0,"pressure":815.9,"uv_index":6.9,"aqi":63,"mosquito_risk":0,"arthritis_risk":5,"migraine_risk":7,"frizz_risk":1,"updated_at":"2026-02-22T08:23:50.448259"},{"city":"Gurgaon","state":"Haryana","latitude":28.4595,"longitude":77.0266,"temp":14.5,"humidity":94,"rain":0.0,"pressure":984.4,"uv_index":5.5,"aqi":166,"mosquito_risk":3,"arthritis_risk":10,"migraine_risk":3,"frizz_risk":0,"updated_at":"2026-02-22T08:23:52.140097"},{"city":"Noida","state":"Uttar Pradesh","latitude":28.5355,"longitude":77.391,"temp":16.6,"humidity":87,"rain":0.0,"pressure":987.6,"uv_index":5.4,"aqi":166,"mosquito_risk":3,"arthritis_risk":10,"migraine_risk":3,"frizz_risk":0,"updated_at":"2026-02-22T08:23:53.777718"},{"city":"Ghaziabad","state":"Uttar Pradesh","latitude":28.6692,"longitude":77.4538,"temp":16.3,"humidity":87,"rain":0.0,"pressure":985.7,"uv_index":5.35,"aqi":160,"mosquito_risk":3,"arthritis_risk":10,"migraine_risk":3,"frizz_risk":0,"updated_at":"2026-02-22T08:23:55.412746"},{"city":"Faridabad","state":"Haryana","latitude":28.4089,"longitude":77.3178,"temp":16.5,"humidity":84,"rain":0.0,"pressure":986.9,"uv_index":5.4,"aqi":166,"mosquito_risk":3,"arthritis_risk":10,"migraine_risk":3,"frizz_risk":0,"updated_at":"2026-02-22T08:23:57.018803"},{"city":"Meerut","state":"Uttar Pradesh","latitude":28.9845,"longitude":77.7064,"temp":15.7,"humidity":90,"rain":0.0,"pressure":984.4,"uv_index":5.25,"aqi":160,"mosquito_risk":3,"arthritis_risk":10,"migraine_risk":3,"frizz_risk":0,"updated_at":"2026-02-22T08:23:58.715599"},{"city":"Agra","state":"Uttar Pradesh","latitude":27.1767,"longitude":78.0081,"temp":15.2,"humidity":91,"rain":0.0,"pressure":991.5,"uv_index":5.7,"aqi":158,"mosquito_risk":3,"arthritis_risk":10,"migraine_risk":3,"frizz_risk":0,"updated_at":"2026-02-22T08:24:00.436194"},{"city":"Varanasi","state":"Uttar Pradesh","latitude":25.3176,"longitude":82.9739,"temp":19.2,"humidity":85,"rain":0.0,"pressure":1001.9,"uv_index":6.5,"aqi":152,"mosquito_risk":3,"arthritis_risk":10,"migraine_risk":4,"frizz_risk":1,"updated_at":"2026-02-22T08:24:02.066092"},{"city":"Prayagraj","state":"Uttar Pradesh","latitude":25.4358,"longitude":81.8463,"temp":18.5,"humidity":90,"rain":0.0,"pressure":1000.3,"uv_index":6.35,"aqi":151,"mosquito_risk":3,"arthritis_risk":10,"migraine_risk":4,"frizz_risk":1,"updated_at":"2026-02-22T08:24:03.746864"},{"city":"Gorakhpur","state":"Uttar Pradesh","latitude":26.7606,"longitude":83.3732,"temp":17.6,"humidity":81,"rain":0.0,"pressure":1001.4,"uv_index":6.2,"aqi":136,"mosquito_risk":3,"arthritis_risk":10,"migraine_risk":4,"frizz_risk":0,"updated_at":"2026-02-22T08:24:05.357805"},{"city":"Bareilly","state":"Uttar Pradesh","latitude":28.367,"longitude":79.4304,"temp":16.9,"humidity":88,"rain":0.0,"pressure":990.2,"uv_index":5.5,"aqi":154,"mosquito_risk":3,"arthritis_risk":10,"migraine_risk":3,"frizz_risk":0,"updated_at":"2026-02-22T08:24:06.984822"},{"city":"Aligarh","state":"Uttar Pradesh","latitude":27.8974,"longitude":78.088,"temp":15.9,"humidity":90,"rain":0.0,"pressure":988.9,"uv_index":5.5,"aqi":163,"mosquito_risk":3,"arthritis_risk":10,"migraine_risk":3,"frizz_risk":0,"updated_at":"2026-02-22T08:24:08.712568"},{"city":"Moradabad","state":"Uttar Pradesh","latitude":28.8386,"longitude":78.7733,"temp":16.3,"humidity":89,"rain":0.0,"pressure":986.8,"uv_index":5.35,"aqi":154,"mosquito_risk":3,"arthritis_risk":10,"migraine_risk":3,"frizz_risk":0,"updated_at":"2026-02-22T08:24:10.417238"},{"city":"Saharanpur","state":"Uttar Pradesh","latitude":29.9637,"longitude":77.546,"temp":14.4,"humidity":91,"rain":0.0,"pressure":978.1,"uv_index":5.0,"aqi":166,"mosquito_risk":3,"arthritis_risk":10,"migraine_risk":3,"frizz_risk":0,"updated_at":"2026-02-22T08:24:12.108828"},{"city":"Jhansi","state":"Uttar Pradesh","latitude":25.4484,"longitude":78.5685,"temp":19.1,"humidity":89,"rain":0.0,"pressure":981.4,"uv_index":6.35,"aqi":151,"mosquito_risk":3,"arthritis_risk":10,"migraine_risk":7,"frizz_risk":1,"updated_at":"2026-02-22T08:24:13.745263"},{"city":"Surat","state":"Gujarat","latitude":21.1702,"longitude":72.8311,"temp":22.8,"humidity":80,"rain":0.0,"pressure":1008.0,"uv_index":6.95,"aqi":175,"mosquito_risk":3,"arthritis_risk":0,"migraine_risk":4,"frizz_risk":1,"updated_at":"2026-02-22T08:24:15.379105"},{"city":"Vadodara","state":"Gujarat","latitude":22.3072,"longitude":73.1812,"temp":21.2,"humidity":72,"rain":0.0,"pressure":1006.2,"uv_index":7.0,"aqi":156,"mosquito_risk":3,"arthritis_risk":5,"migraine_risk":4,"frizz_risk":0,"updated_at":"2026-02-22T08:24:17.037768"},{"city":"Rajkot","state":"Gujarat","latitude":22.3039,"longitude":70.8022,"temp":21.0,"humidity":67,"rain":0.0,"pressure":995.7,"uv_index":6.9,"aqi":113,"mosquito_risk":3,"arthritis_risk":5,"migraine_risk":7,"frizz_risk":0,"updated_at":"2026-02-22T08:24:18.706353"},{"city":"Thane","state":"Maharashtra","latitude":19.2183,"longitude":72.9781,"temp":23.7,"humidity":76,"rain":0.0,"pressure":1008.4,"uv_index":7.2,"aqi":178,"mosquito_risk":3,"arthritis_risk":0,"migraine_risk":4,"frizz_risk":1,"updated_at":"2026-02-22T08:24:20.309695"},{"city":"Nagpur","state":"Maharashtra","latitude":21.1458,"longitude":79.0882,"temp":21.6,"humidity":76,"rain":0.0,"pressure":975.7,"uv_index":7.3,"aqi":167,"mosquito_risk":3,"arthritis_risk":5,"migraine_risk":7,"frizz_risk":1,"updated_at":"2026-02-22T08:24:21.964066"},{"city":"Nashik","state":"Maharashtra","latitude":19.9975,"longitude":73.7898,"temp":23.1,"humidity":63,"rain":0.0,"pressure":946.5,"uv_index":7.35,"aqi":151,"mosquito_risk":3,"arthritis_risk":5,"migraine_risk":7,"frizz_risk":0,"updated_at":"2026-02-22T08:24:23.593427"},{"city":"Aurangabad","state":"Maharashtra","latitude":19.8762,"longitude":75.3433,"temp":20.8,"humidity":72,"rain":0.0,"pressure":944.7,"uv_index":7.65,"aqi":131,"mosquito_risk":3,"arthritis_risk":5,"migraine_risk":7,"frizz_risk":0,"updated_at":"2026-02-22T08:24:25.218516"},{"city":"Solapur","state":"Maharashtra","latitude":17.6599,"longitude":75.9064,"temp":22.9,"humidity":72,"rain":0.0,"pressure":957.8,"uv_index":8.0,"aqi":73,"mosquito_risk":3,"arthritis_risk":5,"migraine_risk":7,"frizz_risk":1,"updated_at":"2026-02-22T08:24:26.864259"},{"city":"Kolhapur","state":"Maharashtra","latitude":16.705,"longitude":74.2433,"temp":23.0,"humidity":68,"rain":0.0,"pressure":948.1,"uv_index":8.25,"aqi":107,"mosquito_risk":3,"arthritis_risk":5,"migraine_risk":7,"frizz_risk":1,"updated_at":"2026-02-22T08:24:28.492948"},{"city":"Goa","state":"Goa","latitude":15.2993,"longitude":74.124,"temp":25.6,"humidity":81,"rain":0.0,"pressure":997.8,"uv_index":8.3,"aqi":94,"mosquito_risk":7,"arthritis_risk":5,"migraine_risk":7,"frizz_risk":1,"updated_at":"2026-02-22T08:24:30.125922"},{"city":"Jodhpur","state":"Rajasthan","latitude":26.2389,"longitude":73.0243,"temp":18.1,"humidity":74,"rain":0.0,"pressure":984.8,"uv_index":6.45,"aqi":108,"mosquito_risk":3,"arthritis_risk":5,"migraine_risk":7,"frizz_risk":0,"updated_at":"2026-02-22T08:24:31.838022"},{"city":"Udaipur","state":"Rajasthan","latitude":24.5854,"longitude":73.7125,"temp":15.8,"humidity":74,"rain":0.0,"pressure":947.3,"uv_index":7.15,"aqi":116,"mosquito_risk":3,"arthritis_risk":5,"migraine_risk":7,"frizz_risk":0,"updated_at":"2026-02-22T08:24:33.471351"},{"city":"Kota","state":"Rajasthan","latitude":25.2138,"longitude":75.8648,"temp":19.3,"humidity":92,"rain":0.0,"pressure":981.5,"uv_index":6.55,"aqi":160,"mosquito_risk":3,"arthritis_risk":10,"migraine_risk":7,"frizz_risk":1,"updated_at":"2026-02-22T08:24:35.119751"},{"city":"Bikaner","state":"Rajasthan","latitude":28.0229,"longitude":73.3119,"temp":17.8,"humidity":62,"rain":0.0,"pressure":983.5,"uv_index":6.1,"aqi":70,"mosquito_risk":3,"arthritis_risk":5,"migraine_risk":7,"frizz_risk":0,"updated_at":"2026-02-22T08:24:36.752101"},{"city":"Ajmer","state":"Rajasthan","latitude":26.4499,"longitude":74.6399,"temp":19.8,"humidity":75,"rain":0.0,"pressure":956.2,"uv_index":6.45,"aqi":150,"mosquito_risk":3,"arthritis_risk":5,"migraine_risk":7,"frizz_risk":0,"updated_at":"2026-02-22T08:24:38.376845"},{"city":"Gwalior","state":"Madhya Pradesh","latitude":26.2183,"longitude":78.1828,"temp":17.8,"humidity":91,"rain":0.0,"pressure":986.7,"uv_index":6.05,"aqi":145,"mosquito_risk":3,"arthritis_risk":10,"migraine_risk":7,"frizz_risk":1,"updated_at":"2026-02-22T08:24:40.038437"},{"city":"Indore","state":"Madhya Pradesh","latitude":22.7196,"longitude":75.8577,"temp":19.0,"humidity":85,"rain":0.0,"pressure":949.1,"uv_index":7.1,"aqi":164,"mosquito_risk":3,"arthritis_risk":10,"migraine_risk":7,"frizz_risk":1,"updated_at":"2026-02-22T08:24:41.729013"},{"city":"Bhopal","state":"Madhya Pradesh","latitude":23.2599,"longitude":77.4126,"temp":20.1,"humidity":78,"rain":0.0,"pressure":955.5,"uv_index":6.95,"aqi":165,"mosquito_risk":3,"arthritis_risk":5,"migraine_risk":7,"frizz_risk":1,"updated_at":"2026-02-22T08:24:43.403576"},{"city":"Jabalpur","state":"Madhya Pradesh","latitude":23.1815,"longitude":79.9864,"temp":18.6,"humidity":89,"rain":0.0,"pressure":964.1,"uv_index":7.0,"aqi":157,"mosquito_risk":3,"arthritis_risk":10,"migraine_risk":7,"frizz_risk":1,"updated_at":"2026-02-22T08:24:45.049005"},{"city":"Ujjain","state":"Madhya Pradesh","latitude":23.1765,"longitude":75.7885,"temp":19.0,"humidity":86,"rain":0.0,"pressure":955.1,"uv_index":7.0,"aqi":169,"mosquito_risk":3,"arthritis_risk":10,"migraine_risk":7,"frizz_risk":1,"updated_at":"2026-02-22T08:24:46.686340"},{"city":"Visakhapatnam","state":"Andhra Pradesh","latitude":17.6868,"longitude":83.2185,"temp":24.6,"humidity":68,"rain":0.0,"pressure":1006.2,"uv_index":8.05,"aqi":147,"mosquito_risk":3,"arthritis_risk":5,"migraine_risk":4,"frizz_risk":1,"updated_at":"2026-02-22T08:24:48.355806"},{"city":"Vijayawada","state":"Andhra Pradesh","latitude":16.5062,"longitude":80.648,"temp":24.5,"humidity":84,"rain":0.0,"pressure":1004.8,"uv_index":8.15,"aqi":102,"mosquito_risk":3,"arthritis_risk":5,"migraine_risk":4,"frizz_risk":1,"updated_at":"2026-02-22T08:24:49.957922"},{"city":"Guntur","state":"Andhra Pradesh","latitude":16.3067,"longitude":80.4365,"temp":24.5,"humidity":85,"rain":0.0,"pressure":1006.0,"uv_index":8.15,"aqi":96,"mosquito_risk":3,"arthritis_risk":5,"migraine_risk":4,"frizz_risk":1,"updated_at":"2026-02-22T08:24:51.584848"},{"city":"Nellore","state":"Andhra Pradesh","latitude":14.4426,"longitude":79.9865,"temp":24.9,"humidity":85,"rain":0.0,"pressure":1007.7,"uv_index":8.4,"aqi":77,"mosquito_risk":3,"arthritis_risk":5,"migraine_risk":4,"frizz_risk":1,"updated_at":"2026-02-22T08:24:53.338341"},{"city":"Kurnool","state":"Andhra Pradesh","latitude":15.8281,"longitude":78.0373,"temp":24.6,"humidity":66,"rain":0.0,"pressure":978.0,"uv_index":8.2,"aqi":53,"mosquito_risk":3,"arthritis_risk":5,"migraine_risk":7,"frizz_risk":1,"updated_at":"2026-02-22T08:24:55.046745"},{"city":"Kakinada","state":"Andhra Pradesh","latitude":16.9891,"longitude":82.2475,"temp":25.8,"humidity":78,"rain":0.0,"pressure":1009.6,"uv_index":8.05,"aqi":111,"mosquito_risk":7,"arthritis_risk":0,"migraine_risk":4,"frizz_risk":1,"updated_at":"2026-02-22T08:24:56.742538"},{"city":"Tirupati","state":"Andhra Pradesh","latitude":13.6288,"longitude":79.4192,"temp":23.7,"humidity":76,"rain":0.0,"pressure":992.7,"uv_index":8.2,"aqi":73,"mosquito_risk":3,"arthritis_risk":5,"migraine_risk":7,"frizz_risk":1,"updated_at":"2026-02-22T08:24:58.370146"},{"city":"Warangal","state":"Telangana","latitude":17.9689,"longitude":79.5941,"temp":22.4,"humidity":81,"rain":0.0,"pressure":981.0,"uv_index":7.9,"aqi":95,"mosquito_risk":3,"arthritis_risk":5,"migraine_risk":7,"frizz_risk":1,"updated_at":"2026-02-22T08:25:00.001772"},{"city":"Nizamabad","state":"Telangana","latitude":18.6725,"longitude":78.0941,"temp":23.2,"humidity":70,"rain":0.0,"pressure":966.1,"uv_index":7.75,"aqi":102,"mosquito_risk":3,"arthritis_risk":5,"migraine_risk":7,"frizz_risk":1,"updated_at":"2026-02-22T08:25:01.704650"},{"city":"Mysore","state":"Karnataka","latitude":12.2958,"longitude":76.6396,"temp":21.9,"humidity":81,"rain":0.0,"pressure":928.5,"uv_index":8.35,"aqi":57,"mosquito_risk":3,"arthritis_risk":5,"migraine_risk":7,"frizz_risk":1,"updated_at":"2026-02-22T08:25:03.412381"},{"city":"Mangalore","state":"Karnataka","latitude":12.9141,"longitude":74.856,"temp":27.5,"humidity":86,"rain":0.0,"pressure":1006.7,"uv_index":8.4,"aqi":133,"mosquito_risk":7,"arthritis_risk":5,"migraine_risk":4,"frizz_risk":1,"updated_at":"2026-02-22T08:25:05.062759"},{"city":"Hubli-Dharwad","state":"Karnataka","latitude":15.3647,"longitude":75.124,"temp":21.2,"humidity":85,"rain":0.0,"pressure":940.8,"uv_index":8.45,"aqi":56,"mosquito_risk":3,"arthritis_risk":5,"migraine_risk":7,"frizz_risk":1,"updated_at":"2026-02-22T08:25:06.783870"},{"city":"Belgaum","state":"Karnataka","latitude":15.8497,"longitude":74.4977,"temp":21.6,"humidity":73,"rain":0.0,"pressure":925.4,"uv_index":8.5,"aqi":84,"mosquito_risk":3,"arthritis_risk":5,"migraine_risk":7,"frizz_risk":1,"updated_at":"2026-02-22T08:25:08.480710"},{"city":"Coimbatore","state":"Tamil Nadu","latitude":11.0168,"longitude":76.9558,"temp":23.8,"humidity":85,"rain":0.0,"pressure":962.1,"uv_index":8.85,"aqi":79,"mosquito_risk":3,"arthritis_risk":5,"migraine_risk":7,"frizz_risk":1,"updated_at":"2026-02-22T08:25:10.120504"},{"city":"Madurai","state":"Tamil Nadu","latitude":9.9252,"longitude":78.1198,"temp":25.0,"humidity":85,"rain":0.0,"pressure":993.8,"uv_index":7.5,"aqi":79,"mosquito_risk":7,"arthritis_risk":5,"migraine_risk":7,"frizz_risk":1,"updated_at":"2026-02-22T08:25:11.750843"},{"city":"Trichy","state":"Tamil Nadu","latitude":10.7905,"longitude":78.7047,"temp":25.2,"humidity":87,"rain":0.0,"pressure":1000.6,"uv_index":8.75,"aqi":69,"mosquito_risk":7,"arthritis_risk":5,"migraine_risk":4,"frizz_risk":1,"updated_at":"2026-02-22T08:25:13.378026"},{"city":"Salem","state":"Tamil Nadu","latitude":11.6643,"longitude":78.146,"temp":25.1,"humidity":83,"rain":0.0,"pressure":978.2,"uv_index":8.7,"aqi":70,"mosquito_risk":7,"arthritis_risk":5,"migraine_risk":7,"frizz_risk":1,"updated_at":"2026-02-22T08:25:15.019074"},{"city":"Tirunelveli","state":"Tamil Nadu","latitude":8.7139,"longitude":77.7567,"temp":25.5,"humidity":87,"rain":0.0,"pressure":1004.0,"uv_index":7.15,"aqi":83,"mosquito_risk":7,"arthritis_risk":5,"migraine_risk":4,"frizz_risk":1,"updated_at":"2026-02-22T08:25:17.354662"},{"city":"Vellore","state":"Tamil Nadu","latitude":12.9165,"longitude":79.1325,"temp":23.4,"humidity":86,"rain":0.0,"pressure":986.0,"uv_index":7.35,"aqi":73,"mosquito_risk":3,"arthritis_risk":5,"migraine_risk":7,"frizz_risk":1,"updated_at":"2026-02-22T08:25:18.990435"},{"city":"Erode","state":"Tamil Nadu","latitude":11.341,"longitude":77.7172,"temp":25.5,"humidity":81,"rain":0.0,"pressure":989.9,"uv_index":8.7,"aqi":68,"mosquito_risk":7,"arthritis_risk":5,"migraine_risk":7,"frizz_risk":1,"updated_at":"2026-02-22T08:25:20.613848"},{"city":"Kochi","state":"Kerala","latitude":9.9312,"longitude":76.2673,"temp":26.6,"humidity":86,"rain":0.0,"pressure":1008.6,"uv_index":8.45,"aqi":97,"mosquito_risk":7,"arthritis_risk":0,"migraine_risk":4,"frizz_risk":1,"updated_at":"2026-02-22T08:25:22.229078"},{"city":"Thiruvananthapuram","state":"Kerala","latitude":8.5241,"longitude":76.9366,"temp":26.9,"humidity":84,"rain":0.0,"pressure":1007.9,"uv_index":8.2,"aqi":65,"mosquito_risk":7,"arthritis_risk":5,"migraine_risk":4,"frizz_risk":1,"updated_at":"2026-02-22T08:25:23.908420"},{"city":"Kozhikode","state":"Kerala","latitude":11.2588,"longitude":75.7804,"temp":27.1,"humidity":85,"rain":0.0,"pressure":1007.8,"uv_index":6.5,"aqi":110,"mosquito_risk":7,"arthritis_risk":5,"migraine_risk":4,"frizz_risk":1,"updated_at":"2026-02-22T08:25:25.546617"},{"city":"Thrissur","state":"Kerala","latitude":10.5276,"longitude":76.2144,"temp":25.9,"humidity":91,"rain":0.0,"pressure":1007.0,"uv_index":8.55,"aqi":92,"mosquito_risk":7,"arthritis_risk":5,"migraine_risk":4,"frizz_risk":1,"updated_at":"2026-02-22T08:25:27.160827"},{"city":"Kannur","state":"Kerala","latitude":11.8745,"longitude":75.3704,"temp":27.1,"humidity":83,"rain":0.0,"pressure":1007.1,"uv_index":8.05,"aqi":120,"mosquito_risk":7,"arthritis_risk":5,"migraine_risk":4,"frizz_risk":1,"updated_at":"2026-02-22T08:25:28.795305"},{"city":"Patna","state":"Bihar","latitude":25.5941,"longitude":85.1376,"temp":19.9,"humidity":79,"rain":0.0,"pressure":1004.9,"uv_index":6.65,"aqi":151,"mosquito_risk":3,"arthritis_risk":5,"migraine_risk":4,"frizz_risk":1,"updated_at":"2026-02-22T08:25:30.415387"},{"city":"Gaya","state":"Bihar","latitude":24.7914,"longitude":85.0002,"temp":19.6,"humidity":84,"rain":0.0,"pressure":998.3,"uv_index":6.8,"aqi":154,"mosquito_risk":3,"arthritis_risk":10,"migraine_risk":7,"frizz_risk":1,"updated_at":"2026-02-22T08:25:32.158914"},{"city":"Muzaffarpur","state":"Bihar","latitude":26.1209,"longitude":85.3647,"temp":18.9,"humidity":81,"rain":0.0,"pressure":1004.8,"uv_index":6.6,"aqi":150,"mosquito_risk":3,"arthritis_risk":10,"migraine_risk":4,"frizz_risk":0,"updated_at":"2026-02-22T08:25:33.770621"},{"city":"Bhagalpur","state":"Bihar","latitude":25.2425,"longitude":87.0117,"temp":20.6,"humidity":79,"rain":0.0,"pressure":1005.5,"uv_index":6.7,"aqi":132,"mosquito_risk":3,"arthritis_risk":5,"migraine_risk":4,"frizz_risk":1,"updated_at":"2026-02-22T08:25:35.400768"},{"city":"Ranchi","state":"Jharkhand","latitude":23.3441,"longitude":85.3096,"temp":20.8,"humidity":55,"rain":0.0,"pressure":940.5,"uv_index":7.4,"aqi":130,"mosquito_risk":0,"arthritis_risk":5,"migraine_risk":7,"frizz_risk":0,"updated_at":"2026-02-22T08:25:37.027381"},{"city":"Jamshedpur","state":"Jharkhand","latitude":22.8046,"longitude":86.2029,"temp":22.4,"humidity":72,"rain":0.0,"pressure":994.5,"uv_index":7.3,"aqi":153,"mosquito_risk":3,"arthritis_risk":5,"migraine_risk":7,"frizz_risk":1,"updated_at":"2026-02-22T08:25:38.642730"},{"city":"Dhanbad","state":"Jharkhand","latitude":23.7957,"longitude":86.4304,"temp":22.3,"humidity":56,"rain":0.0,"pressure":983.8,"uv_index":7.25,"aqi":154,"mosquito_risk":0,"arthritis_risk":5,"migraine_risk":7,"frizz_risk":0,"updated_at":"2026-02-22T08:25:40.231303"},{"city":"Bokaro","state":"Jharkhand","latitude":23.6693,"longitude":86.1511,"temp":22.0,"humidity":63,"rain":0.0,"pressure":987.9,"uv_index":7.25,"aqi":156,"mosquito_risk":3,"arthritis_risk":5,"migraine_risk":7,"frizz_risk":0,"updated_at":"2026-02-22T08:25:41.865304"},{"city":"Bhubaneswar","state":"Odisha","latitude":20.2961,"longitude":85.8245,"temp":24.1,"humidity":87,"rain":0.0,"pressure":1006.0,"uv_index":7.7,"aqi":163,"mosquito_risk":3,"arthritis_risk":5,"migraine_risk":4,"frizz_risk":1,"updated_at":"2026-02-22T08:25:43.514815"},{"city":"Cuttack","state":"Odisha","latitude":20.4625,"longitude":85.8828,"temp":24.5,"humidity":79,"rain":0.0,"pressure":1008.1,"uv_index":7.75,"aqi":163,"mosquito_risk":3,"arthritis_risk":0,"migraine_risk":4,"frizz_risk":1,"updated_at":"2026-02-22T08:25:45.136883"},{"city":"Rourkela","state":"Odisha","latitude":22.2604,"longitude":84.8536,"temp":23.5,"humidity":63,"rain":0.0,"pressure":988.6,"uv_index":7.2,"aqi":130,"mosquito_risk":3,"arthritis_risk":5,"migraine_risk":7,"frizz_risk":0,"updated_at":"2026-02-22T08:25:46.818196"},{"city":"Raipur","state":"Chhattisgarh","latitude":21.2514,"longitude":81.6296,"temp":22.7,"humidity":59,"rain":0.0,"pressure":977.5,"uv_index":7.35,"aqi":167,"mosquito_risk":0,"arthritis_risk":5,"migraine_risk":7,"frizz_risk":0,"updated_at":"2026-02-22T08:25:48.429552"},{"city":"Bhilai","state":"Chhattisgarh","latitude":21.1938,"longitude":81.3509,"temp":22.1,"humidity":66,"rain":0.0,"pressure":977.8,"uv_index":7.35,"aqi":167,"mosquito_risk":3,"arthritis_risk":5,"migraine_risk":7,"frizz_risk":0,"updated_at":"2026-02-22T08:25:50.020160"},{"city":"Guwahati","state":"Assam","latitude":26.1158,"longitude":91.7086,"temp":22.5,"humidity":70,"rain":0.0,"pressure":1005.1,"uv_index":6.65,"aqi":114,"mosquito_risk":3,"arthritis_risk":5,"migraine_risk":4,"frizz_risk":1,"updated_at":"2026-02-22T08:25:51.654601"},{"city":"Agartala","state":"Tripura","latitude":23.8315,"longitude":91.2868,"temp":23.7,"humidity":75,"rain":0.0,"pressure":1009.6,"uv_index":7.0,"aqi":155,"mosquito_risk":3,"arthritis_risk":0,"migraine_risk":4,"frizz_risk":1,"updated_at":"2026-02-22T08:25:53.404555"},{"city":"Shillong","state":"Meghalaya","latitude":25.5788,"longitude":91.8933,"temp":14.3,"humidity":47,"rain":0.0,"pressure":857.0,"uv_index":5.95,"aqi":103,"mosquito_risk":0,"arthritis_risk":5,"migraine_risk":3,"frizz_risk":0,"updated_at":"2026-02-22T08:25:55.088021"},{"city":"Imphal","state":"Manipur","latitude":24.817,"longitude":93.9368,"temp":19.3,"humidity":64,"rain":0.0,"pressure":925.2,"uv_index":7.2,"aqi":151,"mosquito_risk":3,"arthritis_risk":5,"migraine_risk":7,"frizz_risk":0,"updated_at":"2026-02-22T08:25:56.698099"},{"city":"Aizawl","state":"Mizoram","latitude":23.7271,"longitude":92.7176,"temp":19.2,"humidity":60,"rain":0.0,"pressure":894.6,"uv_index":7.15,"aqi":131,"mosquito_risk":0,"arthritis_risk":5,"migraine_risk":7,"frizz_risk":0,"updated_at":"2026-02-22T08:25:58.370544"},{"city":"Kohima","state":"Nagaland","latitude":25.6701,"longitude":94.1077,"temp":15.7,"humidity":63,"rain":0.0,"pressure":856.2,"uv_index":6.2,"aqi":81,"mosquito_risk":3,"arthritis_risk":5,"migraine_risk":7,"frizz_risk":0,"updated_at":"2026-02-22T08:26:00.020299"},{"city":"Gangtok","state":"Sikkim","latitude":27.3314,"longitude":88.6138,"temp":12.7,"humidity":59,"rain":0.0,"pressure":837.3,"uv_index":5.55,"aqi":91,"mosquito_risk":0,"arthritis_risk":5,"migraine_risk":3,"frizz_risk":0,"updated_at":"2026-02-22T08:26:01.689242"},{"city":"Siliguri","state":"West Bengal","latitude":26.7271,"longitude":88.3953,"temp":21.7,"humidity":48,"rain":0.0,"pressure":996.9,"uv_index":6.6,"aqi":139,"mosquito_risk":0,"arthritis_risk":5,"migraine_risk":7,"frizz_risk":0,"updated_at":"2026-02-22T08:26:03.295693"},{"city":"Durgapur","state":"West Bengal","latitude":23.5204,"longitude":87.3119,"temp":24.3,"humidity":51,"rain":0.0,"pressure":999.2,"uv_index":7.2,"aqi":151,"mosquito_risk":0,"arthritis_risk":5,"migraine_risk":7,"frizz_risk":0,"updated_at":"2026-02-22T08:26:04.919917"},{"city":"Asansol","state":"West Bengal","latitude":23.6739,"longitude":86.9524,"temp":24.5,"humidity":50,"rain":0.0,"pressure":997.7,"uv_index":7.2,"aqi":141,"mosquito_risk":0,"arthritis_risk":5,"migraine_risk":7,"frizz_risk":0,"updated_at":"2026-02-22T08:26:06.577533"},{"city":"Pondicherry","state":"Puducherry","latitude":11.9139,"longitude":79.8145,"temp":26.0,"humidity":84,"rain":0.0,"pressure":1009.2,"uv_index":7.7,"aqi":63,"mosquito_risk":7,"arthritis_risk":0,"migraine_risk":4,"frizz_risk":1,"updated_at":"2026-02-22T08:26:08.273821"},{"city":"Port Blair","state":"Andaman and Nicobar Islands","latitude":11.6234,"longitude":92.7265,"temp":27.3,"humidity":79,"rain":0.0,"pressure":1008.5,"uv_index":8.55,"aqi":62,"mosquito_risk":7,"arthritis_risk":0,"migraine_risk":4,"frizz_risk":1,"updated_at":"2026-02-22T08:26:10.029301"},{"city":"Haridwar","state":"Uttarakhand","latitude":29.9457,"longitude":78.1642,"temp":16.0,"humidity":94,"rain":0.0,"pressure":976.5,"uv_index":5.1,"aqi":149,"mosquito_risk":3,"arthritis_risk":10,"migraine_risk":3,"frizz_risk":0,"updated_at":"2026-02-22T08:26:11.746849"},{"city":"Rishikesh","state":"Uttarakhand","latitude":30.0869,"longitude":78.2676,"temp":18.0,"humidity":79,"rain":0.0,"pressure":968.9,"uv_index":5.15,"aqi":116,"mosquito_risk":3,"arthritis_risk":5,"migraine_risk":3,"frizz_risk":0,"updated_at":"2026-02-22T08:26:13.392936"},{"city":"Nainital","state":"Uttarakhand","latitude":29.3919,"longitude":79.4542,"temp":13.4,"humidity":68,"rain":0.0,"pressure":804.6,"uv_index":5.95,"aqi":116,"mosquito_risk":3,"arthritis_risk":5,"migraine_risk":3,"frizz_risk":0,"updated_at":"2026-02-22T08:26:15.067858"},{"city":"Mussoorie","state":"Uttarakhand","latitude":30.4599,"longitude":78.0664,"temp":12.1,"humidity":77,"rain":0.0,"pressure":800.6,"uv_index":5.45,"aqi":124,"mosquito_risk":3,"arthritis_risk":5,"migraine_risk":3,"frizz_risk":0,"updated_at":"2026-02-22T08:26:16.796021"},{"city":"Dharamshala","state":"Himachal Pradesh","latitude":32.219,"longitude":76.3234,"temp":15.1,"humidity":57,"rain":0.0,"pressure":867.4,"uv_index":5.65,"aqi":73,"mosquito_risk":0,"arthritis_risk":5,"migraine_risk":3,"frizz_risk":0,"updated_at":"2026-02-22T08:26:18.699722"},{"city":"Dalhousie","state":"Himachal Pradesh","latitude":32.5387,"longitude":75.971,"temp":11.7,"humidity":56,"rain":0.0,"pressure":800.8,"uv_index":5.85,"aqi":138,"mosquito_risk":0,"arthritis_risk":5,"migraine_risk":3,"frizz_risk":0,"updated_at":"2026-02-22T08:26:20.455649"},{"city":"Patiala","state":"Punjab","latitude":30.3398,"longitude":76.3869,"temp":14.3,"humidity":90,"rain":0.0,"pressure":980.6,"uv_index":5.15,"aqi":170,"mosquito_risk":3,"arthritis_risk":10,"migraine_risk":3,"frizz_risk":0,"updated_at":"2026-02-22T08:26:22.116157"},{"city":"Bhatinda","state":"Punjab","latitude":30.211,"longitude":74.9455,"temp":14.8,"humidity":88,"rain":0.0,"pressure":986.1,"uv_index":5.8,"aqi":173,"mosquito_risk":3,"arthritis_risk":10,"migraine_risk":3,"frizz_risk":0,"updated_at":"2026-02-22T08:26:23.787271"},{"city":"Rohtak","state":"Haryana","latitude":28.8955,"longitude":76.6066,"temp":13.8,"humidity":98,"rain":0.0,"pressure":984.6,"uv_index":5.4,"aqi":165,"mosquito_risk":3,"arthritis_risk":10,"migraine_risk":3,"frizz_risk":0,"updated_at":"2026-02-22T08:26:25.442867"},{"city":"Panipat","state":"Haryana","latitude":29.3909,"longitude":76.9635,"temp":14.9,"humidity":91,"rain":0.0,"pressure":983.2,"uv_index":5.15,"aqi":164,"mosquito_risk":3,"arthritis_risk":10,"migraine_risk":3,"frizz_risk":0,"updated_at":"2026-02-22T08:26:27.073370"},{"city":"Mathura","state":"Uttar Pradesh","latitude":27.4924,"longitude":77.6737,"temp":15.0,"humidity":93,"rain":0.0,"pressure":990.3,"uv_index":5.65,"aqi":154,"mosquito_risk":3,"arthritis_risk":10,"migraine_risk":3,"frizz_risk":0,"updated_at":"2026-02-22T08:26:28.781319"},{"city":"Vrindavan","state":"Uttar Pradesh","latitude":27.5823,"longitude":77.7027,"temp":14.6,"humidity":95,"rain":0.0,"pressure":990.7,"uv_index":5.6,"aqi":154,"mosquito_risk":3,"arthritis_risk":10,"migraine_risk":3,"frizz_risk":0,"updated_at":"2026-02-22T08:26:30.415737"},{"city":"Ayodhya","state":"Uttar Pradesh","latitude":26.7922,"longitude":82.1998,"temp":17.9,"humidity":79,"rain":0.0,"pressure":999.4,"uv_index":6.0,"aqi":147,"mosquito_risk":3,"arthritis_risk":5,"migraine_risk":3,"frizz_risk":0,"updated_at":"2026-02-22T08:26:32.053574"},{"city":"Ratlam","state":"Madhya Pradesh","latitude":23.3315,"longitude":75.0367,"temp":17.9,"humidity":94,"rain":0.0,"pressure":955.6,"uv_index":6.95,"aqi":165,"mosquito_risk":3,"arthritis_risk":10,"migraine_risk":7,"frizz_risk":1,"updated_at":"2026-02-22T08:26:33.726226"},{"city":"Sagar","state":"Madhya Pradesh","latitude":23.8388,"longitude":78.7378,"temp":18.6,"humidity":86,"rain":0.0,"pressure":952.1,"uv_index":6.85,"aqi":134,"mosquito_risk":3,"arthritis_risk":10,"migraine_risk":7,"frizz_risk":1,"updated_at":"2026-02-22T08:26:35.420035"},{"city":"Satna","state":"Madhya Pradesh","latitude":24.6005,"longitude":80.8322,"temp":19.2,"humidity":84,"rain":0.0,"pressure":974.7,"uv_index":6.75,"aqi":114,"mosquito_risk":3,"arthritis_risk":10,"migraine_risk":7,"frizz_risk":1,"updated_at":"2026-02-22T08:26:37.044170"},{"city":"Akola","state":"Maharashtra","latitude":20.7002,"longitude":77.0082,"temp":22.4,"humidity":72,"rain":0.0,"pressure":976.9,"uv_index":7.35,"aqi":156,"mosquito_risk":3,"arthritis_risk":5,"migraine_risk":7,"frizz_risk":1,"updated_at":"2026-02-22T08:26:38.733218"},{"city":"Amravati","state":"Maharashtra","latitude":20.9374,"longitude":77.7796,"temp":22.9,"humidity":65,"rain":0.0,"pressure":969.1,"uv_index":7.3,"aqi":158,"mosquito_risk":3,"arthritis_risk":5,"migraine_risk":7,"frizz_risk":0,"updated_at":"2026-02-22T08:26:40.368621"},{"city":"Latur","state":"Maharashtra","latitude":18.4088,"longitude":76.5604,"temp":21.6,"humidity":71,"rain":0.0,"pressure":940.4,"uv_index":7.85,"aqi":85,"mosquito_risk":3,"arthritis_risk":5,"migraine_risk":7,"frizz_risk":1,"updated_at":"2026-02-22T08:26:42.051907"},{"city":"Nanded","state":"Maharashtra","latitude":19.1383,"longitude":77.3091,"temp":22.5,"humidity":68,"rain":0.0,"pressure":969.8,"uv_index":7.65,"aqi":117,"mosquito_risk":3,"arthritis_risk":5,"migraine_risk":7,"frizz_risk":1,"updated_at":"2026-02-22T08:26:43.751647"},{"city":"Gulbarga","state":"Karnataka","latitude":17.3297,"longitude":76.8343,"temp":24.4,"humidity":62,"rain":0.0,"pressure":959.7,"uv_index":7.95,"aqi":64,"mosquito_risk":3,"arthritis_risk":5,"migraine_risk":7,"frizz_risk":1,"updated_at":"2026-02-22T08:26:45.409215"},{"city":"Bidar","state":"Karnataka","latitude":17.9104,"longitude":77.5199,"temp":23.0,"humidity":63,"rain":0.0,"pressure":936.1,"uv_index":7.5,"aqi":81,"mosquito_risk":3,"arthritis_risk":5,"migraine_risk":7,"frizz_risk":0,"updated_at":"2026-02-22T08:26:47.092131"},{"city":"Hospet","state":"Karnataka","latitude":15.2689,"longitude":76.3909,"temp":24.1,"humidity":70,"rain":0.0,"pressure":956.7,"uv_index":8.4,"aqi":56,"mosquito_risk":3,"arthritis_risk":5,"migraine_risk":7,"frizz_risk":1,"updated_at":"2026-02-22T08:26:48.759728"},{"city":"Tirupur","state":"Tamil Nadu","latitude":11.1085,"longitude":77.3411,"temp":24.2,"humidity":86,"rain":0.0,"pressure":975.8,"uv_index":8.95,"aqi":79,"mosquito_risk":3,"arthritis_risk":5,"migraine_risk":7,"frizz_risk":1,"updated_at":"2026-02-22T08:26:50.389972"},{"city":"Alappuzha","state":"Kerala","latitude":9.4981,"longitude":76.3388,"temp":26.6,"humidity":86,"rain":0.0,"pressure":1008.7,"uv_index":8.6,"aqi":87,"mosquito_risk":7,"arthritis_risk":0,"migraine_risk":4,"frizz_risk":1,"updated_at":"2026-02-22T08:26:52.059013"},{"city":"Munnar","state":"Kerala","latitude":10.0889,"longitude":77.0595,"temp":21.2,"humidity":83,"rain":0.0,"pressure":856.2,"uv_index":7.8,"aqi":65,"mosquito_risk":3,"arthritis_risk":5,"migraine_risk":7,"frizz_risk":1,"updated_at":"2026-02-22T08:26:53.994885"},{"city":"Silchar","state":"Assam","latitude":24.8333,"longitude":92.7789,"temp":22.4,"humidity":73,"rain":0.0,"pressure":1008.6,"uv_index":6.95,"aqi":117,"mosquito_risk":3,"arthritis_risk":0,"migraine_risk":4,"frizz_risk":1,"updated_at":"2026-02-22T08:26:56.004065"},{"city":"Dibrugarh","state":"Assam","latitude":27.4728,"longitude":94.912,"temp":20.4,"humidity":76,"rain":0.0,"pressure":999.9,"uv_index":6.55,"aqi":103,"mosquito_risk":3,"arthritis_risk":5,"migraine_risk":7,"frizz_risk":0,"updated_at":"2026-02-22T08:26:57.674723"}]