[{"city":"Delhi","state":"Delhi","latitude":28.6139,"longitude":77.209,"temp":40.7,"humidity":17,"rain":0.0,"pressure":980.9,"uv_index":7.75,"wind_gusts":45.7,"aqi":437,"pm10":421.9,"pm2_5":84.1,"no2":4.8,"co":273.0,"o3":170.0,"so2":14.9,"mosquito_risk":0,"arthritis_risk":5,"migraine_risk":10,"frizz_risk":0,"updated_at":"2026-05-23T12:05:43.607596+05:30"},{"city":"Mumbai","state":"Maharashtra","latitude":19.076,"longitude":72.8777,"temp":33.0,"humidity":62,"rain":0.0,"pressure":1010.3,"uv_index":7.75,"wind_gusts":36.0,"aqi":55,"pm10":17.9,"pm2_5":13.4,"no2":5.3,"co":205.0,"o3":105.0,"so2":9.0,"mosquito_risk":3,"arthritis_risk":0,"migraine_risk":4,"frizz_risk":1,"updated_at":"2026-05-23T12:05:43.607642+05:30"},{"city":"Bangalore","state":"Karnataka","latitude":12.9716,"longitude":77.5946,"temp":30.4,"humidity":46,"rain":0.0,"pressure":914.7,"uv_index":6.05,"wind_gusts":42.8,"aqi":45,"pm10":23.1,"pm2_5":13.7,"no2":4.4,"co":265.0,"o3":102.0,"so2":3.5,"mosquito_risk":0,"arthritis_risk":5,"migraine_risk":7,"frizz_risk":1,"updated_at":"2026-05-23T12:05:43.607658+05:30"},{"city":"Hyderabad","state":"Telangana","latitude":17.385,"longitude":78.4867,"temp":37.8,"humidity":31,"rain":0.0,"pressure":953.7,"uv_index":9.2,"wind_gusts":55.4,"aqi":87,"pm10":27.2,"pm2_5":21.6,"no2":2.2,"co":229.0,"o3":143.0,"so2":7.0,"mosquito_risk":0,"arthritis_risk":5,"migraine_risk":10,"frizz_risk":1,"updated_at":"2026-05-23T12:05:43.607668+05:30"},{"city":"Chennai","state":"Tamil Nadu","latitude":13.0827,"longitude":80.2707,"temp":38.1,"humidity":37,"rain":0.0,"pressure":1005.6,"uv_index":6.15,"wind_gusts":57.6,"aqi":73,"pm10":33.2,"pm2_5":25.8,"no2":7.7,"co":298.0,"o3":160.0,"so2":13.6,"mosquito_risk":0,"arthritis_risk":5,"migraine_risk":7,"frizz_risk":1,"updated_at":"2026-05-23T12:05:43.607676+05:30"},{"city":"Kolkata","state":"West Bengal","latitude":22.5726,"longitude":88.3639,"temp":34.8,"humidity":63,"rain":0.0,"pressure":1003.0,"uv_index":9.0,"wind_gusts":44.6,"aqi":101,"pm10":67.5,"pm2_5":41.0,"no2":2.2,"co":252.0,"o3":126.0,"so2":7.1,"mosquito_risk":3,"arthritis_risk":5,"migraine_risk":4,"frizz_risk":1,"updated_at":"2026-05-23T12:05:43.607690+05:30"},{"city":"Pune","state":"Maharashtra","latitude":18.5204,"longitude":73.8567,"temp":31.6,"humidity":55,"rain":0.0,"pressure":950.6,"uv_index":8.4,"wind_gusts":35.3,"aqi":49,"pm10":11.9,"pm2_5":8.2,"no2":2.6,"co":162.0,"o3":83.0,"so2":5.1,"mosquito_risk":0,"arthritis_risk":5,"migraine_risk":7,"frizz_risk":1,"updated_at":"2026-05-23T12:05:43.607697+05:30"},{"city":"Ahmedabad","state":"Gujarat","latitude":23.0225,"longitude":72.5714,"temp":38.0,"humidity":35,"rain":0.0,"pressure":1003.4,"uv_index":8.15,"wind_gusts":37.8,"aqi":73,"pm10":33.6,"pm2_5":20.4,"no2":1.6,"co":162.0,"o3":89.0,"so2":3.8,"mosquito_risk":0,"arthritis_risk":5,"migraine_risk":7,"frizz_risk":1,"updated_at":"2026-05-23T12:05:43.607703+05:30"},{"city":"Jaipur","state":"Rajasthan","latitude":26.9124,"longitude":75.7873,"temp":39.2,"humidity":19,"rain":0.0,"pressure":960.1,"uv_index":8.25,"wind_gusts":47.5,"aqi":157,"pm10":525.3,"pm2_5":92.9,"no2":1.0,"co":148.0,"o3":102.0,"so2":3.1,"mosquito_risk":0,"arthritis_risk":5,"migraine_risk":10,"frizz_risk":0,"updated_at":"2026-05-23T12:05:43.607712+05:30"},{"city":"Lucknow","state":"Uttar Pradesh","latitude":26.8467,"longitude":80.9462,"temp":42.0,"humidity":16,"rain":0.0,"pressure":989.8,"uv_index":8.2,"wind_gusts":52.6,"aqi":163,"pm10":150.4,"pm2_5":53.9,"no2":3.2,"co":223.0,"o3":190.0,"so2":15.1,"mosquito_risk":0,"arthritis_risk":5,"migraine_risk":10,"frizz_risk":0,"updated_at":"2026-05-23T12:05:43.607719+05:30"},{"city":"Kanpur","state":"Uttar Pradesh","latitude":26.4499,"longitude":80.3319,"temp":42.1,"humidity":15,"rain":0.0,"pressure":988.7,"uv_index":8.25,"wind_gusts":46.1,"aqi":308,"pm10":404.2,"pm2_5":71.9,"no2":2.3,"co":199.0,"o3":160.0,"so2":10.4,"mosquito_risk":0,"arthritis_risk":5,"migraine_risk":10,"frizz_risk":0,"updated_at":"2026-05-23T12:05:43.607726+05:30"},{"city":"Chandigarh","state":"Chandigarh","latitude":30.7333,"longitude":76.7794,"temp":38.5,"humidity":16,"rain":0.0,"pressure":966.7,"uv_index":7.75,"wind_gusts":42.5,"aqi":89,"pm10":89.2,"pm2_5":28.9,"no2":1.8,"co":326.0,"o3":151.0,"so2":8.7,"mosquito_risk":0,"arthritis_risk":5,"migraine_risk":10,"frizz_risk":0,"updated_at":"2026-05-23T12:05:43.607732+05:30"},{"city":"Srinagar","state":"Jammu and Kashmir","latitude":34.0837,"longitude":74.7973,"temp":21.1,"humidity":50,"rain":0.0,"pressure":845.8,"uv_index":8.85,"wind_gusts":28.8,"aqi":70,"pm10":55.6,"pm2_5":16.6,"no2":1.6,"co":234.0,"o3":127.0,"so2":2.3,"mosquito_risk":0,"arthritis_risk":5,"migraine_risk":7,"frizz_risk":0,"updated_at":"2026-05-23T12:05:43.607739+05:30"},{"city":"Jammu","state":"Jammu and Kashmir","latitude":32.7266,"longitude":74.857,"temp":37.5,"humidity":19,"rain":0.0,"pressure":971.0,"uv_index":8.5,"wind_gusts":40.3,"aqi":84,"pm10":59.6,"pm2_5":20.0,"no2":1.6,"co":164.0,"o3":135.0,"so2":2.0,"mosquito_risk":0,"arthritis_risk":5,"migraine_risk":10,"frizz_risk":0,"updated_at":"2026-05-23T12:05:43.607748+05:30"},{"city":"Amritsar","state":"Punjab","latitude":31.634,"longitude":74.8723,"temp":37.8,"humidity":23,"rain":0.0,"pressure":978.7,"uv_index":8.4,"wind_gusts":31.3,"aqi":144,"pm10":88.2,"pm2_5":33.3,"no2":2.0,"co":252.0,"o3":151.0,"so2":4.7,"mosquito_risk":0,"arthritis_risk":5,"migraine_risk":10,"frizz_risk":0,"updated_at":"2026-05-23T12:05:43.607754+05:30"},{"city":"Ludhiana","state":"Punjab","latitude":30.901,"longitude":75.8573,"temp":38.5,"humidity":20,"rain":0.0,"pressure":976.7,"uv_index":8.0,"wind_gusts":40.7,"aqi":109,"pm10":81.5,"pm2_5":29.9,"no2":1.5,"co":318.0,"o3":148.0,"so2":5.1,"mosquito_risk":0,"arthritis_risk":5,"migraine_risk":10,"frizz_risk":0,"updated_at":"2026-05-23T12:05:43.607760+05:30"},{"city":"Jalandhar","state":"Punjab","latitude":31.326,"longitude":75.5762,"temp":38.7,"humidity":19,"rain":0.0,"pressure":977.6,"uv_index":8.15,"wind_gusts":39.2,"aqi":121,"pm10":98.7,"pm2_5":34.0,"no2":1.8,"co":248.0,"o3":152.0,"so2":5.5,"mosquito_risk":0,"arthritis_risk":5,"migraine_risk":10,"frizz_risk":0,"updated_at":"2026-05-23T12:05:43.607767+05:30"},{"city":"Dehradun","state":"Uttarakhand","latitude":30.6284,"longitude":78.0322,"temp":26.9,"humidity":26,"rain":0.0,"pressure":833.1,"uv_index":8.15,"wind_gusts":43.6,"aqi":68,"pm10":89.9,"pm2_5":20.4,"no2":0.6,"co":152.0,"o3":123.0,"so2":0.7,"mosquito_risk":4,"arthritis_risk":5,"migraine_risk":7,"frizz_risk":0,"updated_at":"2026-05-23T12:05:43.607773+05:30"},{"city":"Shimla","state":"Himachal Pradesh","latitude":31.1048,"longitude":77.1734,"temp":24.5,"humidity":19,"rain":0.0,"pressure":789.1,"uv_index":8.25,"wind_gusts":49.7,"aqi":73,"pm10":100.4,"pm2_5":26.5,"no2":0.7,"co":151.0,"o3":128.0,"so2":2.6,"mosquito_risk":0,"arthritis_risk":5,"migraine_risk":7,"frizz_risk":1,"updated_at":"2026-05-23T12:05:43.607782+05:30"},{"city":"Manali","state":"Himachal Pradesh","latitude":32.2396,"longitude":77.1887,"temp":23.6,"humidity":29,"rain":0.0,"pressure":821.7,"uv_index":9.9,"wind_gusts":40.3,"aqi":47,"pm10":22.1,"pm2_5":6.2,"no2":2.8,"co":126.0,"o3":125.0,"so2":0.4,"mosquito_risk":0,"arthritis_risk":5,"migraine_risk":7,"frizz_risk":0,"updated_at":"2026-05-23T12:05:43.607789+05:30"},{"city":"Gurgaon","state":"Haryana","latitude":28.4595,"longitude":77.0266,"temp":40.3,"humidity":18,"rain":0.0,"pressure":979.6,"uv_index":7.85,"wind_gusts":42.1,"aqi":871,"pm10":1188.4,"pm2_5":161.6,"no2":4.2,"co":249.0,"o3":163.0,"so2":11.8,"mosquito_risk":0,"arthritis_risk":5,"migraine_risk":10,"frizz_risk":0,"updated_at":"2026-05-23T12:05:43.607795+05:30"},{"city":"Noida","state":"Uttar Pradesh","latitude":28.5355,"longitude":77.391,"temp":41.0,"humidity":17,"rain":0.0,"pressure":982.1,"uv_index":7.75,"wind_gusts":39.6,"aqi":871,"pm10":1188.4,"pm2_5":161.6,"no2":4.2,"co":275.0,"o3":163.0,"so2":11.8,"mosquito_risk":0,"arthritis_risk":5,"migraine_risk":10,"frizz_risk":0,"updated_at":"2026-05-23T12:05:43.607801+05:30"},{"city":"Ghaziabad","state":"Uttar Pradesh","latitude":28.6692,"longitude":77.4538,"temp":40.2,"humidity":18,"rain":0.0,"pressure":980.5,"uv_index":7.75,"wind_gusts":42.5,"aqi":169,"pm10":326.0,"pm2_5":73.3,"no2":5.0,"co":224.0,"o3":185.0,"so2":19.7,"mosquito_risk":0,"arthritis_risk":5,"migraine_risk":10,"frizz_risk":0,"updated_at":"2026-05-23T12:05:43.607807+05:30"},{"city":"Faridabad","state":"Haryana","latitude":28.4089,"longitude":77.3178,"temp":40.8,"humidity":16,"rain":0.0,"pressure":981.6,"uv_index":7.8,"wind_gusts":44.3,"aqi":871,"pm10":1188.4,"pm2_5":161.6,"no2":4.2,"co":269.0,"o3":163.0,"so2":11.8,"mosquito_risk":0,"arthritis_risk":5,"migraine_risk":10,"frizz_risk":0,"updated_at":"2026-05-23T12:05:43.607813+05:30"},{"city":"Meerut","state":"Uttar Pradesh","latitude":28.9845,"longitude":77.7064,"temp":39.1,"humidity":24,"rain":0.0,"pressure":979.3,"uv_index":7.45,"wind_gusts":48.2,"aqi":169,"pm10":326.0,"pm2_5":73.3,"no2":5.0,"co":230.0,"o3":185.0,"so2":19.7,"mosquito_risk":0,"arthritis_risk":5,"migraine_risk":10,"frizz_risk":0,"updated_at":"2026-05-23T12:05:43.607819+05:30"},{"city":"Agra","state":"Uttar Pradesh","latitude":27.1767,"longitude":78.0081,"temp":41.3,"humidity":17,"rain":0.0,"pressure":985.8,"uv_index":8.05,"wind_gusts":40.7,"aqi":566,"pm10":668.7,"pm2_5":103.6,"no2":2.7,"co":207.0,"o3":177.0,"so2":13.7,"mosquito_risk":0,"arthritis_risk":5,"migraine_risk":10,"frizz_risk":0,"updated_at":"2026-05-23T12:05:43.607825+05:30"},{"city":"Varanasi","state":"Uttar Pradesh","latitude":25.3176,"longitude":82.9739,"temp":43.0,"humidity":14,"rain":0.0,"pressure":993.3,"uv_index":8.75,"wind_gusts":50.0,"aqi":155,"pm10":163.4,"pm2_5":54.1,"no2":3.6,"co":248.0,"o3":179.0,"so2":10.8,"mosquito_risk":0,"arthritis_risk":5,"migraine_risk":10,"frizz_risk":0,"updated_at":"2026-05-23T12:05:43.607831+05:30"},{"city":"Prayagraj","state":"Uttar Pradesh","latitude":25.4358,"longitude":81.8463,"temp":42.2,"humidity":17,"rain":0.0,"pressure":992.4,"uv_index":8.65,"wind_gusts":41.8,"aqi":147,"pm10":243.1,"pm2_5":68.7,"no2":3.0,"co":209.0,"o3":180.0,"so2":12.1,"mosquito_risk":0,"arthritis_risk":5,"migraine_risk":10,"frizz_risk":0,"updated_at":"2026-05-23T12:05:43.607838+05:30"},{"city":"Gorakhpur","state":"Uttar Pradesh","latitude":26.7606,"longitude":83.3732,"temp":37.6,"humidity":48,"rain":0.0,"pressure":993.1,"uv_index":8.65,"wind_gusts":41.4,"aqi":162,"pm10":96.9,"pm2_5":64.7,"no2":2.2,"co":398.0,"o3":194.0,"so2":12.6,"mosquito_risk":0,"arthritis_risk":5,"migraine_risk":10,"frizz_risk":1,"updated_at":"2026-05-23T12:05:43.607847+05:30"},{"city":"Bareilly","state":"Uttar Pradesh","latitude":28.367,"longitude":79.4304,"temp":38.2,"humidity":28,"rain":0.0,"pressure":983.9,"uv_index":8.05,"wind_gusts":45.0,"aqi":151,"pm10":115.7,"pm2_5":44.4,"no2":2.5,"co":227.0,"o3":177.0,"so2":10.7,"mosquito_risk":0,"arthritis_risk":5,"migraine_risk":10,"frizz_risk":1,"updated_at":"2026-05-23T12:05:43.607853+05:30"},{"city":"Aligarh","state":"Uttar Pradesh","latitude":27.8974,"longitude":78.088,"temp":40.2,"humidity":19,"rain":0.0,"pressure":983.5,"uv_index":7.85,"wind_gusts":42.1,"aqi":475,"pm10":730.2,"pm2_5":113.2,"no2":3.6,"co":231.0,"o3":180.0,"so2":19.1,"mosquito_risk":0,"arthritis_risk":5,"migraine_risk":10,"frizz_risk":0,"updated_at":"2026-05-23T12:05:43.607860+05:30"},{"city":"Moradabad","state":"Uttar Pradesh","latitude":28.8386,"longitude":78.7733,"temp":38.5,"humidity":26,"rain":0.0,"pressure":981.0,"uv_index":7.85,"wind_gusts":51.5,"aqi":152,"pm10":105.0,"pm2_5":39.5,"no2":2.9,"co":251.0,"o3":177.0,"so2":10.9,"mosquito_risk":0,"arthritis_risk":5,"migraine_risk":10,"frizz_risk":0,"updated_at":"2026-05-23T12:05:43.607866+05:30"},{"city":"Saharanpur","state":"Uttar Pradesh","latitude":29.9637,"longitude":77.546,"temp":38.1,"humidity":21,"rain":0.0,"pressure":973.0,"uv_index":7.4,"wind_gusts":51.8,"aqi":120,"pm10":113.9,"pm2_5":34.3,"no2":2.1,"co":223.0,"o3":151.0,"so2":8.4,"mosquito_risk":0,"arthritis_risk":5,"migraine_risk":10,"frizz_risk":0,"updated_at":"2026-05-23T12:05:43.607872+05:30"},{"city":"Jhansi","state":"Uttar Pradesh","latitude":25.4484,"longitude":78.5685,"temp":41.1,"humidity":17,"rain":0.0,"pressure":976.7,"uv_index":8.5,"wind_gusts":43.9,"aqi":77,"pm10":194.6,"pm2_5":48.7,"no2":1.3,"co":130.0,"o3":124.0,"so2":7.2,"mosquito_risk":0,"arthritis_risk":5,"migraine_risk":10,"frizz_risk":0,"updated_at":"2026-05-23T12:05:46.844645+05:30"},{"city":"Surat","state":"Gujarat","latitude":21.1702,"longitude":72.8311,"temp":35.8,"humidity":50,"rain":0.0,"pressure":1008.5,"uv_index":7.6,"wind_gusts":40.0,"aqi":65,"pm10":20.6,"pm2_5":15.4,"no2":9.3,"co":281.0,"o3":61.0,"so2":31.6,"mosquito_risk":0,"arthritis_risk":0,"migraine_risk":7,"frizz_risk":1,"updated_at":"2026-05-23T12:05:46.844681+05:30"},{"city":"Vadodara","state":"Gujarat","latitude":22.3072,"longitude":73.1812,"temp":38.7,"humidity":36,"rain":0.0,"pressure":1005.3,"uv_index":8.1,"wind_gusts":46.4,"aqi":68,"pm10":24.9,"pm2_5":16.3,"no2":1.9,"co":164.0,"o3":89.0,"so2":5.0,"mosquito_risk":0,"arthritis_risk":5,"migraine_risk":7,"frizz_risk":1,"updated_at":"2026-05-23T12:05:46.844691+05:30"},{"city":"Rajkot","state":"Gujarat","latitude":22.3039,"longitude":70.8022,"temp":37.5,"humidity":41,"rain":0.0,"pressure":995.8,"uv_index":7.65,"wind_gusts":46.1,"aqi":68,"pm10":31.3,"pm2_5":18.7,"no2":1.2,"co":122.0,"o3":85.0,"so2":4.9,"mosquito_risk":0,"arthritis_risk":5,"migraine_risk":10,"frizz_risk":1,"updated_at":"2026-05-23T12:05:46.844700+05:30"},{"city":"Thane","state":"Maharashtra","latitude":19.2183,"longitude":72.9781,"temp":34.0,"humidity":60,"rain":0.2,"pressure":1009.4,"uv_index":7.75,"wind_gusts":34.9,"aqi":55,"pm10":17.9,"pm2_5":13.4,"no2":5.3,"co":213.0,"o3":105.0,"so2":9.0,"mosquito_risk":3,"arthritis_risk":0,"migraine_risk":4,"frizz_risk":1,"updated_at":"2026-05-23T12:05:46.844708+05:30"},{"city":"Nagpur","state":"Maharashtra","latitude":21.1458,"longitude":79.0882,"temp":42.3,"humidity":14,"rain":0.0,"pressure":972.2,"uv_index":8.95,"wind_gusts":55.8,"aqi":62,"pm10":46.3,"pm2_5":23.6,"no2":3.8,"co":167.0,"o3":141.0,"so2":14.7,"mosquito_risk":0,"arthritis_risk":5,"migraine_risk":10,"frizz_risk":0,"updated_at":"2026-05-23T12:05:46.844716+05:30"},{"city":"Nashik","state":"Maharashtra","latitude":19.9975,"longitude":73.7898,"temp":34.6,"humidity":42,"rain":0.0,"pressure":948.2,"uv_index":8.15,"wind_gusts":43.9,"aqi":51,"pm10":18.8,"pm2_5":12.3,"no2":1.7,"co":169.0,"o3":100.0,"so2":5.3,"mosquito_risk":0,"arthritis_risk":5,"migraine_risk":7,"frizz_risk":1,"updated_at":"2026-05-23T12:05:46.844723+05:30"},{"city":"Aurangabad","state":"Maharashtra","latitude":19.8762,"longitude":75.3433,"temp":37.7,"humidity":27,"rain":0.0,"pressure":946.2,"uv_index":9.05,"wind_gusts":41.8,"aqi":60,"pm10":26.5,"pm2_5":15.5,"no2":1.2,"co":148.0,"o3":113.0,"so2":4.9,"mosquito_risk":0,"arthritis_risk":5,"migraine_risk":10,"frizz_risk":0,"updated_at":"2026-05-23T12:05:46.844731+05:30"},{"city":"Solapur","state":"Maharashtra","latitude":17.6599,"longitude":75.9064,"temp":36.7,"humidity":37,"rain":0.0,"pressure":959.0,"uv_index":9.0,"wind_gusts":46.4,"aqi":70,"pm10":16.5,"pm2_5":11.7,"no2":2.0,"co":165.0,"o3":98.0,"so2":2.9,"mosquito_risk":0,"arthritis_risk":5,"migraine_risk":10,"frizz_risk":1,"updated_at":"2026-05-23T12:05:46.844739+05:30"},{"city":"Kolhapur","state":"Maharashtra","latitude":16.705,"longitude":74.2433,"temp":32.0,"humidity":52,"rain":0.0,"pressure":950.7,"uv_index":8.85,"wind_gusts":41.8,"aqi":40,"pm10":9.2,"pm2_5":7.0,"no2":1.7,"co":145.0,"o3":80.0,"so2":1.4,"mosquito_risk":0,"arthritis_risk":5,"migraine_risk":7,"frizz_risk":1,"updated_at":"2026-05-23T12:05:46.844746+05:30"},{"city":"Goa","state":"Goa","latitude":15.2993,"longitude":74.124,"temp":33.3,"humidity":61,"rain":0.1,"pressure":1000.3,"uv_index":5.8,"wind_gusts":31.7,"aqi":35,"pm10":5.7,"pm2_5":4.0,"no2":0.6,"co":131.0,"o3":66.0,"so2":0.6,"mosquito_risk":6,"arthritis_risk":5,"migraine_risk":0,"frizz_risk":1,"updated_at":"2026-05-23T12:05:46.844753+05:30"},{"city":"Jodhpur","state":"Rajasthan","latitude":26.2389,"longitude":73.0243,"temp":39.7,"humidity":21,"rain":0.0,"pressure":983.2,"uv_index":8.4,"wind_gusts":43.6,"aqi":163,"pm10":414.4,"pm2_5":90.1,"no2":1.0,"co":131.0,"o3":96.0,"so2":4.6,"mosquito_risk":0,"arthritis_risk":5,"migraine_risk":10,"frizz_risk":0,"updated_at":"2026-05-23T12:05:46.844761+05:30"},{"city":"Udaipur","state":"Rajasthan","latitude":24.5854,"longitude":73.7125,"temp":37.5,"humidity":21,"rain":0.0,"pressure":948.6,"uv_index":8.85,"wind_gusts":37.4,"aqi":86,"pm10":128.1,"pm2_5":38.4,"no2":0.7,"co":130.0,"o3":94.0,"so2":3.1,"mosquito_risk":0,"arthritis_risk":5,"migraine_risk":10,"frizz_risk":0,"updated_at":"2026-05-23T12:05:46.844768+05:30"},{"city":"Kota","state":"Rajasthan","latitude":25.2138,"longitude":75.8648,"temp":41.2,"humidity":17,"rain":0.0,"pressure":978.7,"uv_index":8.4,"wind_gusts":46.4,"aqi":76,"pm10":118.3,"pm2_5":39.8,"no2":1.0,"co":134.0,"o3":107.0,"so2":4.8,"mosquito_risk":0,"arthritis_risk":5,"migraine_risk":10,"frizz_risk":0,"updated_at":"2026-05-23T12:05:46.844776+05:30"},{"city":"Bikaner","state":"Rajasthan","latitude":28.0229,"longitude":73.3119,"temp":41.0,"humidity":18,"rain":0.0,"pressure":980.5,"uv_index":8.35,"wind_gusts":43.6,"aqi":133,"pm10":187.2,"pm2_5":67.8,"no2":0.5,"co":143.0,"o3":98.0,"so2":4.4,"mosquito_risk":0,"arthritis_risk":5,"migraine_risk":10,"frizz_risk":0,"updated_at":"2026-05-23T12:05:46.844784+05:30"},{"city":"Ajmer","state":"Rajasthan","latitude":26.4499,"longitude":74.6399,"temp":37.4,"humidity":26,"rain":0.0,"pressure":955.7,"uv_index":8.4,"wind_gusts":51.5,"aqi":100,"pm10":178.3,"pm2_5":55.2,"no2":0.8,"co":150.0,"o3":106.0,"so2":5.0,"mosquito_risk":0,"arthritis_risk":5,"migraine_risk":10,"frizz_risk":0,"updated_at":"2026-05-23T12:05:46.844791+05:30"},{"city":"Gwalior","state":"Madhya Pradesh","latitude":26.2183,"longitude":78.1828,"temp":41.1,"humidity":17,"rain":0.0,"pressure":981.5,"uv_index":8.25,"wind_gusts":44.3,"aqi":102,"pm10":245.9,"pm2_5":55.4,"no2":1.2,"co":156.0,"o3":143.0,"so2":9.0,"mosquito_risk":0,"arthritis_risk":5,"migraine_risk":10,"frizz_risk":0,"updated_at":"2026-05-23T12:05:46.844797+05:30"},{"city":"Indore","state":"Madhya Pradesh","latitude":22.7196,"longitude":75.8577,"temp":37.8,"humidity":24,"rain":0.0,"pressure":950.0,"uv_index":8.7,"wind_gusts":53.3,"aqi":64,"pm10":52.4,"pm2_5":23.6,"no2":1.3,"co":164.0,"o3":106.0,"so2":4.9,"mosquito_risk":0,"arthritis_risk":5,"migraine_risk":10,"frizz_risk":0,"updated_at":"2026-05-23T12:05:46.844804+05:30"},{"city":"Bhopal","state":"Madhya Pradesh","latitude":23.2599,"longitude":77.4126,"temp":39.5,"humidity":17,"rain":0.0,"pressure":954.5,"uv_index":8.75,"wind_gusts":43.2,"aqi":58,"pm10":88.0,"pm2_5":29.4,"no2":1.0,"co":152.0,"o3":108.0,"so2":4.6,"mosquito_risk":0,"arthritis_risk":5,"migraine_risk":10,"frizz_risk":0,"updated_at":"2026-05-23T12:05:46.844811+05:30"},{"city":"Jabalpur","state":"Madhya Pradesh","latitude":23.1815,"longitude":79.9864,"temp":41.5,"humidity":12,"rain":0.0,"pressure":960.9,"uv_index":8.9,"wind_gusts":39.6,"aqi":59,"pm10":46.1,"pm2_5":18.7,"no2":1.0,"co":144.0,"o3":121.0,"so2":3.2,"mosquito_risk":0,"arthritis_risk":5,"migraine_risk":10,"frizz_risk":0,"updated_at":"2026-05-23T12:05:46.844818+05:30"},{"city":"Ujjain","state":"Madhya Pradesh","latitude":23.1765,"longitude":75.7885,"temp":38.4,"humidity":20,"rain":0.0,"pressure":955.4,"uv_index":8.65,"wind_gusts":49.7,"aqi":64,"pm10":62.4,"pm2_5":26.4,"no2":1.0,"co":148.0,"o3":104.0,"so2":5.1,"mosquito_risk":0,"arthritis_risk":5,"migraine_risk":10,"frizz_risk":0,"updated_at":"2026-05-23T12:05:46.844826+05:30"},{"city":"Visakhapatnam","state":"Andhra Pradesh","latitude":17.6868,"longitude":83.2185,"temp":43.2,"humidity":27,"rain":0.0,"pressure":998.6,"uv_index":9.1,"wind_gusts":30.2,"aqi":138,"pm10":58.7,"pm2_5":50.1,"no2":10.6,"co":603.0,"o3":218.0,"so2":43.6,"mosquito_risk":0,"arthritis_risk":5,"migraine_risk":10,"frizz_risk":1,"updated_at":"2026-05-23T12:05:46.844834+05:30"},{"city":"Vijayawada","state":"Andhra Pradesh","latitude":16.5062,"longitude":80.648,"temp":41.5,"humidity":32,"rain":0.0,"pressure":999.1,"uv_index":8.7,"wind_gusts":48.2,"aqi":80,"pm10":41.8,"pm2_5":34.7,"no2":2.2,"co":215.0,"o3":155.0,"so2":7.4,"mosquito_risk":0,"arthritis_risk":5,"migraine_risk":10,"frizz_risk":1,"updated_at":"2026-05-23T12:05:46.844841+05:30"},{"city":"Guntur","state":"Andhra Pradesh","latitude":16.3067,"longitude":80.4365,"temp":41.0,"humidity":33,"rain":0.0,"pressure":1000.5,"uv_index":8.8,"wind_gusts":48.6,"aqi":78,"pm10":38.8,"pm2_5":31.7,"no2":1.8,"co":205.0,"o3":150.0,"so2":6.2,"mosquito_risk":0,"arthritis_risk":5,"migraine_risk":7,"frizz_risk":1,"updated_at":"2026-05-23T12:05:46.844848+05:30"},{"city":"Nellore","state":"Andhra Pradesh","latitude":14.4426,"longitude":79.9865,"temp":40.2,"humidity":32,"rain":0.0,"pressure":1003.6,"uv_index":8.9,"wind_gusts":76.3,"aqi":76,"pm10":18.9,"pm2_5":13.9,"no2":2.1,"co":172.0,"o3":124.0,"so2":6.8,"mosquito_risk":0,"arthritis_risk":5,"migraine_risk":7,"frizz_risk":1,"updated_at":"2026-05-23T12:05:46.844855+05:30"},{"city":"Kurnool","state":"Andhra Pradesh","latitude":15.8281,"longitude":78.0373,"temp":37.0,"humidity":39,"rain":0.0,"pressure":977.5,"uv_index":9.1,"wind_gusts":63.4,"aqi":59,"pm10":16.5,"pm2_5":12.7,"no2":2.2,"co":183.0,"o3":117.0,"so2":8.2,"mosquito_risk":0,"arthritis_risk":5,"migraine_risk":10,"frizz_risk":1,"updated_at":"2026-05-23T12:05:46.844863+05:30"},{"city":"Kakinada","state":"Andhra Pradesh","latitude":16.9891,"longitude":82.2475,"temp":40.5,"humidity":35,"rain":0.0,"pressure":1002.7,"uv_index":9.1,"wind_gusts":49.7,"aqi":88,"pm10":44.8,"pm2_5":38.3,"no2":3.4,"co":310.0,"o3":179.0,"so2":7.8,"mosquito_risk":0,"arthritis_risk":5,"migraine_risk":7,"frizz_risk":1,"updated_at":"2026-05-23T12:05:46.844870+05:30"},{"city":"Tirupati","state":"Andhra Pradesh","latitude":13.6288,"longitude":79.4192,"temp":38.2,"humidity":34,"rain":0.0,"pressure":990.0,"uv_index":8.05,"wind_gusts":38.5,"aqi":71,"pm10":20.4,"pm2_5":14.1,"no2":1.5,"co":155.0,"o3":113.0,"so2":2.4,"mosquito_risk":0,"arthritis_risk":5,"migraine_risk":10,"frizz_risk":1,"updated_at":"2026-05-23T12:05:46.844877+05:30"},{"city":"Warangal","state":"Telangana","latitude":17.9689,"longitude":79.5941,"temp":40.5,"humidity":25,"rain":0.0,"pressure":977.1,"uv_index":9.15,"wind_gusts":57.6,"aqi":102,"pm10":34.8,"pm2_5":27.5,"no2":2.1,"co":212.0,"o3":155.0,"so2":10.1,"mosquito_risk":0,"arthritis_risk":5,"migraine_risk":10,"frizz_risk":1,"updated_at":"2026-05-23T12:05:46.844884+05:30"},{"city":"Nizamabad","state":"Telangana","latitude":18.6725,"longitude":78.0941,"temp":39.8,"humidity":25,"rain":0.0,"pressure":965.1,"uv_index":9.1,"wind_gusts":49.3,"aqi":90,"pm10":29.5,"pm2_5":20.3,"no2":1.3,"co":172.0,"o3":133.0,"so2":5.6,"mosquito_risk":0,"arthritis_risk":5,"migraine_risk":10,"frizz_risk":0,"updated_at":"2026-05-23T12:05:46.844890+05:30"},{"city":"Mysore","state":"Karnataka","latitude":12.2958,"longitude":76.6396,"temp":31.7,"humidity":48,"rain":0.0,"pressure":931.6,"uv_index":8.7,"wind_gusts":39.6,"aqi":29,"pm10":7.6,"pm2_5":5.6,"no2":2.2,"co":157.0,"o3":93.0,"so2":1.6,"mosquito_risk":0,"arthritis_risk":5,"migraine_risk":7,"frizz_risk":1,"updated_at":"2026-05-23T12:05:46.844897+05:30"},{"city":"Mangalore","state":"Karnataka","latitude":12.9141,"longitude":74.856,"temp":29.1,"humidity":80,"rain":0.0,"pressure":1010.0,"uv_index":7.5,"wind_gusts":27.4,"aqi":33,"pm10":8.0,"pm2_5":6.2,"no2":2.3,"co":137.0,"o3":80.0,"so2":2.5,"mosquito_risk":7,"arthritis_risk":0,"migraine_risk":4,"frizz_risk":1,"updated_at":"2026-05-23T12:05:46.844904+05:30"},{"city":"Hubli-Dharwad","state":"Karnataka","latitude":15.3647,"longitude":75.124,"temp":31.8,"humidity":52,"rain":0.0,"pressure":944.0,"uv_index":9.05,"wind_gusts":45.4,"aqi":29,"pm10":6.3,"pm2_5":4.0,"no2":1.2,"co":136.0,"o3":82.0,"so2":0.6,"mosquito_risk":0,"arthritis_risk":5,"migraine_risk":7,"frizz_risk":1,"updated_at":"2026-05-23T12:05:46.844911+05:30"},{"city":"Belgaum","state":"Karnataka","latitude":15.8497,"longitude":74.4977,"temp":30.4,"humidity":55,"rain":0.0,"pressure":929.2,"uv_index":9.05,"wind_gusts":39.6,"aqi":29,"pm10":6.8,"pm2_5":4.6,"no2":1.3,"co":128.0,"o3":79.0,"so2":1.6,"mosquito_risk":0,"arthritis_risk":5,"migraine_risk":7,"frizz_risk":1,"updated_at":"2026-05-23T12:05:50.092886+05:30"},{"city":"Coimbatore","state":"Tamil Nadu","latitude":11.0168,"longitude":76.9558,"temp":33.4,"humidity":47,"rain":0.0,"pressure":963.6,"uv_index":8.9,"wind_gusts":47.5,"aqi":25,"pm10":9.6,"pm2_5":6.3,"no2":1.3,"co":154.0,"o3":88.0,"so2":1.5,"mosquito_risk":0,"arthritis_risk":5,"migraine_risk":7,"frizz_risk":1,"updated_at":"2026-05-23T12:05:50.092920+05:30"},{"city":"Madurai","state":"Tamil Nadu","latitude":9.9252,"longitude":78.1198,"temp":38.2,"humidity":32,"rain":0.0,"pressure":993.3,"uv_index":8.05,"wind_gusts":42.8,"aqi":54,"pm10":11.1,"pm2_5":9.0,"no2":2.4,"co":179.0,"o3":120.0,"so2":2.9,"mosquito_risk":0,"arthritis_risk":5,"migraine_risk":10,"frizz_risk":1,"updated_at":"2026-05-23T12:05:50.092932+05:30"},{"city":"Trichy","state":"Tamil Nadu","latitude":10.7905,"longitude":78.7047,"temp":36.2,"humidity":42,"rain":0.0,"pressure":999.7,"uv_index":8.2,"wind_gusts":46.1,"aqi":28,"pm10":9.3,"pm2_5":7.2,"no2":2.0,"co":154.0,"o3":100.0,"so2":2.9,"mosquito_risk":0,"arthritis_risk":5,"migraine_risk":10,"frizz_risk":1,"updated_at":"2026-05-23T12:05:50.092940+05:30"},{"city":"Salem","state":"Tamil Nadu","latitude":11.6643,"longitude":78.146,"temp":35.2,"humidity":42,"rain":0.0,"pressure":978.5,"uv_index":8.25,"wind_gusts":28.1,"aqi":59,"pm10":10.8,"pm2_5":9.3,"no2":3.4,"co":173.0,"o3":123.0,"so2":10.7,"mosquito_risk":0,"arthritis_risk":5,"migraine_risk":10,"frizz_risk":1,"updated_at":"2026-05-23T12:05:50.092948+05:30"},{"city":"Tirunelveli","state":"Tamil Nadu","latitude":8.7139,"longitude":77.7567,"temp":37.8,"humidity":37,"rain":0.0,"pressure":1003.7,"uv_index":8.05,"wind_gusts":42.8,"aqi":26,"pm10":8.0,"pm2_5":6.1,"no2":1.1,"co":135.0,"o3":82.0,"so2":0.9,"mosquito_risk":0,"arthritis_risk":5,"migraine_risk":7,"frizz_risk":1,"updated_at":"2026-05-23T12:05:50.092955+05:30"},{"city":"Vellore","state":"Tamil Nadu","latitude":12.9165,"longitude":79.1325,"temp":37.3,"humidity":33,"rain":0.0,"pressure":984.2,"uv_index":8.65,"wind_gusts":45.4,"aqi":75,"pm10":34.7,"pm2_5":19.4,"no2":2.0,"co":166.0,"o3":132.0,"so2":3.3,"mosquito_risk":0,"arthritis_risk":5,"migraine_risk":10,"frizz_risk":1,"updated_at":"2026-05-23T12:05:50.092962+05:30"},{"city":"Erode","state":"Tamil Nadu","latitude":11.341,"longitude":77.7172,"temp":36.4,"humidity":35,"rain":0.0,"pressure":989.8,"uv_index":8.7,"wind_gusts":40.0,"aqi":35,"pm10":9.9,"pm2_5":7.1,"no2":2.0,"co":155.0,"o3":106.0,"so2":1.7,"mosquito_risk":0,"arthritis_risk":5,"migraine_risk":10,"frizz_risk":1,"updated_at":"2026-05-23T12:05:50.092969+05:30"},{"city":"Kochi","state":"Kerala","latitude":9.9312,"longitude":76.2673,"temp":31.1,"humidity":68,"rain":0.0,"pressure":1011.5,"uv_index":7.9,"wind_gusts":37.1,"aqi":55,"pm10":12.7,"pm2_5":10.0,"no2":2.5,"co":136.0,"o3":95.0,"so2":3.4,"mosquito_risk":3,"arthritis_risk":0,"migraine_risk":4,"frizz_risk":1,"updated_at":"2026-05-23T12:05:50.092977+05:30"},{"city":"Thiruvananthapuram","state":"Kerala","latitude":8.5241,"longitude":76.9366,"temp":28.9,"humidity":78,"rain":0.0,"pressure":1011.0,"uv_index":7.95,"wind_gusts":45.0,"aqi":32,"pm10":14.4,"pm2_5":10.5,"no2":1.6,"co":106.0,"o3":89.0,"so2":1.8,"mosquito_risk":7,"arthritis_risk":0,"migraine_risk":4,"frizz_risk":1,"updated_at":"2026-05-23T12:05:50.092984+05:30"},{"city":"Kozhikode","state":"Kerala","latitude":11.2588,"longitude":75.7804,"temp":30.5,"humidity":72,"rain":0.0,"pressure":1010.5,"uv_index":8.5,"wind_gusts":37.1,"aqi":30,"pm10":7.2,"pm2_5":5.4,"no2":0.8,"co":149.0,"o3":86.0,"so2":1.5,"mosquito_risk":3,"arthritis_risk":0,"migraine_risk":4,"frizz_risk":1,"updated_at":"2026-05-23T12:05:50.092990+05:30"},{"city":"Thrissur","state":"Kerala","latitude":10.5276,"longitude":76.2144,"temp":31.6,"humidity":66,"rain":0.0,"pressure":1009.7,"uv_index":8.4,"wind_gusts":34.2,"aqi":56,"pm10":10.7,"pm2_5":8.6,"no2":1.5,"co":130.0,"o3":88.0,"so2":2.0,"mosquito_risk":3,"arthritis_risk":0,"migraine_risk":4,"frizz_risk":1,"updated_at":"2026-05-23T12:05:50.092997+05:30"},{"city":"Kannur","state":"Kerala","latitude":11.8745,"longitude":75.3704,"temp":30.6,"humidity":72,"rain":0.0,"pressure":1010.1,"uv_index":7.2,"wind_gusts":33.8,"aqi":35,"pm10":7.8,"pm2_5":5.9,"no2":1.4,"co":146.0,"o3":83.0,"so2":1.6,"mosquito_risk":3,"arthritis_risk":0,"migraine_risk":4,"frizz_risk":1,"updated_at":"2026-05-23T12:05:50.093004+05:30"},{"city":"Patna","state":"Bihar","latitude":25.5941,"longitude":85.1376,"temp":38.2,"humidity":43,"rain":0.0,"pressure":996.7,"uv_index":8.85,"wind_gusts":34.9,"aqi":156,"pm10":104.8,"pm2_5":70.5,"no2":3.1,"co":458.0,"o3":211.0,"so2":21.9,"mosquito_risk":0,"arthritis_risk":5,"migraine_risk":10,"frizz_risk":1,"updated_at":"2026-05-23T12:05:50.093011+05:30"},{"city":"Gaya","state":"Bihar","latitude":24.7914,"longitude":85.0002,"temp":41.2,"humidity":21,"rain":0.0,"pressure":990.1,"uv_index":8.9,"wind_gusts":36.4,"aqi":159,"pm10":166.7,"pm2_5":65.4,"no2":2.1,"co":306.0,"o3":209.0,"so2":14.7,"mosquito_risk":0,"arthritis_risk":5,"migraine_risk":10,"frizz_risk":0,"updated_at":"2026-05-23T12:05:50.093018+05:30"},{"city":"Muzaffarpur","state":"Bihar","latitude":26.1209,"longitude":85.3647,"temp":35.2,"humidity":60,"rain":0.0,"pressure":996.8,"uv_index":8.85,"wind_gusts":26.3,"aqi":155,"pm10":95.0,"pm2_5":65.2,"no2":3.0,"co":426.0,"o3":201.0,"so2":20.1,"mosquito_risk":0,"arthritis_risk":5,"migraine_risk":10,"frizz_risk":1,"updated_at":"2026-05-23T12:05:50.093025+05:30"},{"city":"Bhagalpur","state":"Bihar","latitude":25.2425,"longitude":87.0117,"temp":34.8,"humidity":65,"rain":0.0,"pressure":997.7,"uv_index":8.85,"wind_gusts":32.8,"aqi":139,"pm10":39.0,"pm2_5":30.5,"no2":5.3,"co":426.0,"o3":161.0,"so2":20.5,"mosquito_risk":3,"arthritis_risk":5,"migraine_risk":7,"frizz_risk":1,"updated_at":"2026-05-23T12:05:50.093031+05:30"},{"city":"Ranchi","state":"Jharkhand","latitude":23.3441,"longitude":85.3096,"temp":37.0,"humidity":19,"rain":0.0,"pressure":936.8,"uv_index":9.3,"wind_gusts":33.5,"aqi":132,"pm10":129.9,"pm2_5":28.9,"no2":0.9,"co":149.0,"o3":136.0,"so2":3.3,"mosquito_risk":0,"arthritis_risk":5,"migraine_risk":10,"frizz_risk":0,"updated_at":"2026-05-23T12:05:50.093038+05:30"},{"city":"Jamshedpur","state":"Jharkhand","latitude":22.8046,"longitude":86.2029,"temp":40.0,"humidity":30,"rain":0.0,"pressure":987.5,"uv_index":9.1,"wind_gusts":26.6,"aqi":156,"pm10":149.9,"pm2_5":76.1,"no2":3.8,"co":300.0,"o3":236.0,"so2":32.6,"mosquito_risk":0,"arthritis_risk":5,"migraine_risk":10,"frizz_risk":1,"updated_at":"2026-05-23T12:05:50.093044+05:30"},{"city":"Dhanbad","state":"Jharkhand","latitude":23.7957,"longitude":86.4304,"temp":40.2,"humidity":24,"rain":0.0,"pressure":976.9,"uv_index":9.1,"wind_gusts":38.9,"aqi":163,"pm10":203.0,"pm2_5":74.3,"no2":9.8,"co":227.0,"o3":223.0,"so2":50.4,"mosquito_risk":0,"arthritis_risk":5,"migraine_risk":10,"frizz_risk":0,"updated_at":"2026-05-23T12:05:50.093052+05:30"},{"city":"Bokaro","state":"Jharkhand","latitude":23.6693,"longitude":86.1511,"temp":40.1,"humidity":23,"rain":0.0,"pressure":980.6,"uv_index":9.1,"wind_gusts":29.9,"aqi":166,"pm10":216.5,"pm2_5":56.2,"no2":7.5,"co":230.0,"o3":180.0,"so2":33.5,"mosquito_risk":0,"arthritis_risk":5,"migraine_risk":10,"frizz_risk":0,"updated_at":"2026-05-23T12:05:50.093059+05:30"},{"city":"Bhubaneswar","state":"Odisha","latitude":20.2961,"longitude":85.8245,"temp":36.8,"humidity":56,"rain":0.0,"pressure":999.2,"uv_index":8.55,"wind_gusts":37.8,"aqi":105,"pm10":57.2,"pm2_5":42.6,"no2":1.7,"co":266.0,"o3":149.0,"so2":10.0,"mosquito_risk":0,"arthritis_risk":5,"migraine_risk":10,"frizz_risk":1,"updated_at":"2026-05-23T12:05:50.093066+05:30"},{"city":"Cuttack","state":"Odisha","latitude":20.4625,"longitude":85.8828,"temp":36.6,"humidity":58,"rain":0.0,"pressure":1000.9,"uv_index":8.65,"wind_gusts":33.5,"aqi":105,"pm10":57.2,"pm2_5":42.6,"no2":1.7,"co":289.0,"o3":149.0,"so2":10.0,"mosquito_risk":0,"arthritis_risk":5,"migraine_risk":7,"frizz_risk":1,"updated_at":"2026-05-23T12:05:50.093073+05:30"},{"city":"Rourkela","state":"Odisha","latitude":22.2604,"longitude":84.8536,"temp":40.8,"humidity":25,"rain":0.0,"pressure":982.0,"uv_index":9.0,"wind_gusts":37.4,"aqi":163,"pm10":154.6,"pm2_5":52.0,"no2":1.8,"co":362.0,"o3":181.0,"so2":13.2,"mosquito_risk":0,"arthritis_risk":5,"migraine_risk":10,"frizz_risk":1,"updated_at":"2026-05-23T12:05:50.093080+05:30"},{"city":"Raipur","state":"Chhattisgarh","latitude":21.2514,"longitude":81.6296,"temp":42.5,"humidity":14,"rain":0.0,"pressure":972.8,"uv_index":8.75,"wind_gusts":39.6,"aqi":142,"pm10":51.7,"pm2_5":29.2,"no2":11.6,"co":155.0,"o3":163.0,"so2":36.7,"mosquito_risk":0,"arthritis_risk":5,"migraine_risk":10,"frizz_risk":0,"updated_at":"2026-05-23T12:05:50.093086+05:30"},{"city":"Bhilai","state":"Chhattisgarh","latitude":21.1938,"longitude":81.3509,"temp":42.3,"humidity":14,"rain":0.0,"pressure":973.0,"uv_index":8.95,"wind_gusts":45.4,"aqi":108,"pm10":57.6,"pm2_5":26.4,"no2":12.4,"co":152.0,"o3":128.0,"so2":33.2,"mosquito_risk":0,"arthritis_risk":5,"migraine_risk":10,"frizz_risk":0,"updated_at":"2026-05-23T12:05:50.093093+05:30"},{"city":"Guwahati","state":"Assam","latitude":26.1158,"longitude":91.7086,"temp":26.5,"humidity":87,"rain":0.0,"pressure":999.7,"uv_index":8.75,"wind_gusts":29.5,"aqi":65,"pm10":12.2,"pm2_5":7.4,"no2":1.4,"co":277.0,"o3":121.0,"so2":2.9,"mosquito_risk":7,"arthritis_risk":5,"migraine_risk":7,"frizz_risk":1,"updated_at":"2026-05-23T12:05:50.093100+05:30"},{"city":"Agartala","state":"Tripura","latitude":23.8315,"longitude":91.2868,"temp":30.6,"humidity":80,"rain":0.0,"pressure":1003.7,"uv_index":8.8,"wind_gusts":36.0,"aqi":85,"pm10":42.0,"pm2_5":28.5,"no2":3.5,"co":199.0,"o3":104.0,"so2":3.4,"mosquito_risk":3,"arthritis_risk":5,"migraine_risk":4,"frizz_risk":1,"updated_at":"2026-05-23T12:05:50.093107+05:30"},{"city":"Shillong","state":"Meghalaya","latitude":25.5788,"longitude":91.8933,"temp":24.1,"humidity":74,"rain":0.1,"pressure":857.4,"uv_index":9.05,"wind_gusts":41.0,"aqi":45,"pm10":6.2,"pm2_5":3.3,"no2":2.1,"co":236.0,"o3":102.0,"so2":2.8,"mosquito_risk":6,"arthritis_risk":5,"migraine_risk":7,"frizz_risk":1,"updated_at":"2026-05-23T12:05:50.093114+05:30"},{"city":"Imphal","state":"Manipur","latitude":24.817,"longitude":93.9368,"temp":28.0,"humidity":68,"rain":0.1,"pressure":922.5,"uv_index":8.7,"wind_gusts":38.5,"aqi":65,"pm10":30.2,"pm2_5":14.9,"no2":0.8,"co":218.0,"o3":105.0,"so2":2.4,"mosquito_risk":10,"arthritis_risk":5,"migraine_risk":7,"frizz_risk":1,"updated_at":"2026-05-23T12:05:50.093121+05:30"},{"city":"Aizawl","state":"Mizoram","latitude":23.7271,"longitude":92.7176,"temp":27.2,"humidity":59,"rain":0.1,"pressure":892.7,"uv_index":9.0,"wind_gusts":36.7,"aqi":55,"pm10":38.9,"pm2_5":20.1,"no2":0.5,"co":188.0,"o3":91.0,"so2":1.7,"mosquito_risk":7,"arthritis_risk":5,"migraine_risk":7,"frizz_risk":1,"updated_at":"2026-05-23T12:05:50.093128+05:30"},{"city":"Kohima","state":"Nagaland","latitude":25.6701,"longitude":94.1077,"temp":22.6,"humidity":83,"rain":0.0,"pressure":855.2,"uv_index":9.3,"wind_gusts":26.3,"aqi":44,"pm10":6.2,"pm2_5":3.8,"no2":1.0,"co":230.0,"o3":97.0,"so2":1.5,"mosquito_risk":3,"arthritis_risk":5,"migraine_risk":7,"frizz_risk":1,"updated_at":"2026-05-23T12:05:50.093135+05:30"},{"city":"Gangtok","state":"Sikkim","latitude":27.3314,"longitude":88.6138,"temp":25.0,"humidity":49,"rain":0.1,"pressure":837.9,"uv_index":9.15,"wind_gusts":38.5,"aqi":58,"pm10":18.0,"pm2_5":10.6,"no2":0.8,"co":266.0,"o3":137.0,"so2":2.2,"mosquito_risk":7,"arthritis_risk":5,"migraine_risk":7,"frizz_risk":0,"updated_at":"2026-05-23T12:05:50.093142+05:30"},{"city":"Siliguri","state":"West Bengal","latitude":26.7271,"longitude":88.3953,"temp":29.4,"humidity":69,"rain":0.0,"pressure":990.7,"uv_index":8.75,"wind_gusts":25.2,"aqi":103,"pm10":22.2,"pm2_5":14.3,"no2":1.5,"co":373.0,"o3":148.0,"so2":3.5,"mosquito_risk":7,"arthritis_risk":5,"migraine_risk":7,"frizz_risk":1,"updated_at":"2026-05-23T12:05:53.345502+05:30"},{"city":"Durgapur","state":"West Bengal","latitude":23.5204,"longitude":87.3119,"temp":36.7,"humidity":59,"rain":0.0,"pressure":991.3,"uv_index":9.0,"wind_gusts":46.1,"aqi":152,"pm10":120.6,"pm2_5":89.9,"no2":11.5,"co":737.0,"o3":231.0,"so2":65.6,"mosquito_risk":0,"arthritis_risk":5,"migraine_risk":10,"frizz_risk":1,"updated_at":"2026-05-23T12:05:53.345537+05:30"},{"city":"Asansol","state":"West Bengal","latitude":23.6739,"longitude":86.9524,"temp":38.2,"humidity":51,"rain":0.0,"pressure":990.0,"uv_index":9.05,"wind_gusts":31.3,"aqi":152,"pm10":152.7,"pm2_5":88.2,"no2":11.7,"co":524.0,"o3":242.0,"so2":64.0,"mosquito_risk":0,"arthritis_risk":5,"migraine_risk":10,"frizz_risk":1,"updated_at":"2026-05-23T12:05:53.345549+05:30"},{"city":"Pondicherry","state":"Puducherry","latitude":11.9139,"longitude":79.8145,"temp":35.5,"humidity":47,"rain":0.0,"pressure":1007.6,"uv_index":6.25,"wind_gusts":37.4,"aqi":63,"pm10":18.2,"pm2_5":14.8,"no2":8.4,"co":223.0,"o3":107.0,"so2":5.9,"mosquito_risk":0,"arthritis_risk":5,"migraine_risk":7,"frizz_risk":1,"updated_at":"2026-05-23T12:05:53.345557+05:30"},{"city":"Port Blair","state":"Andaman and Nicobar Islands","latitude":11.6234,"longitude":92.7265,"temp":29.9,"humidity":72,"rain":0.0,"pressure":1007.1,"uv_index":8.35,"wind_gusts":41.8,"aqi":35,"pm10":5.7,"pm2_5":3.6,"no2":0.3,"co":115.0,"o3":70.0,"so2":0.3,"mosquito_risk":7,"arthritis_risk":5,"migraine_risk":4,"frizz_risk":1,"updated_at":"2026-05-23T12:05:53.345566+05:30"},{"city":"Haridwar","state":"Uttarakhand","latitude":29.9457,"longitude":78.1642,"temp":38.2,"humidity":24,"rain":0.0,"pressure":971.2,"uv_index":7.55,"wind_gusts":50.8,"aqi":115,"pm10":108.7,"pm2_5":31.9,"no2":1.4,"co":212.0,"o3":145.0,"so2":5.0,"mosquito_risk":0,"arthritis_risk":5,"migraine_risk":10,"frizz_risk":0,"updated_at":"2026-05-23T12:05:53.345573+05:30"},{"city":"Rishikesh","state":"Uttarakhand","latitude":30.0869,"longitude":78.2676,"temp":37.7,"humidity":23,"rain":0.0,"pressure":964.0,"uv_index":7.65,"wind_gusts":41.4,"aqi":114,"pm10":121.1,"pm2_5":29.5,"no2":0.7,"co":181.0,"o3":130.0,"so2":2.2,"mosquito_risk":0,"arthritis_risk":5,"migraine_risk":10,"frizz_risk":0,"updated_at":"2026-05-23T12:05:53.345581+05:30"},{"city":"Nainital","state":"Uttarakhand","latitude":29.3919,"longitude":79.4542,"temp":25.0,"humidity":27,"rain":0.0,"pressure":808.9,"uv_index":8.5,"wind_gusts":50.8,"aqi":150,"pm10":149.0,"pm2_5":41.0,"no2":1.4,"co":153.0,"o3":142.0,"so2":4.5,"mosquito_risk":4,"arthritis_risk":5,"migraine_risk":7,"frizz_risk":0,"updated_at":"2026-05-23T12:05:53.345589+05:30"},{"city":"Mussoorie","state":"Uttarakhand","latitude":30.4599,"longitude":78.0664,"temp":24.9,"humidity":24,"rain":0.0,"pressure":806.3,"uv_index":8.05,"wind_gusts":60.8,"aqi":93,"pm10":108.0,"pm2_5":27.0,"no2":0.9,"co":141.0,"o3":131.0,"so2":2.0,"mosquito_risk":0,"arthritis_risk":5,"migraine_risk":7,"frizz_risk":0,"updated_at":"2026-05-23T12:05:53.345596+05:30"},{"city":"Dharamshala","state":"Himachal Pradesh","latitude":32.219,"longitude":76.3234,"temp":27.5,"humidity":31,"rain":0.0,"pressure":870.8,"uv_index":8.1,"wind_gusts":41.4,"aqi":53,"pm10":83.1,"pm2_5":20.0,"no2":0.4,"co":159.0,"o3":123.0,"so2":1.2,"mosquito_risk":4,"arthritis_risk":5,"migraine_risk":7,"frizz_risk":0,"updated_at":"2026-05-23T12:05:53.345604+05:30"},{"city":"Dalhousie","state":"Himachal Pradesh","latitude":32.5387,"longitude":75.971,"temp":24.1,"humidity":29,"rain":0.0,"pressure":808.2,"uv_index":8.65,"wind_gusts":42.5,"aqi":71,"pm10":86.4,"pm2_5":23.5,"no2":1.3,"co":159.0,"o3":132.0,"so2":1.8,"mosquito_risk":0,"arthritis_risk":5,"migraine_risk":7,"frizz_risk":0,"updated_at":"2026-05-23T12:05:53.345611+05:30"},{"city":"Patiala","state":"Punjab","latitude":30.3398,"longitude":76.3869,"temp":39.3,"humidity":19,"rain":0.0,"pressure":976.1,"uv_index":7.65,"wind_gusts":42.5,"aqi":350,"pm10":925.7,"pm2_5":110.8,"no2":1.6,"co":259.0,"o3":153.0,"so2":8.2,"mosquito_risk":0,"arthritis_risk":5,"migraine_risk":10,"frizz_risk":0,"updated_at":"2026-05-23T12:05:53.345619+05:30"},{"city":"Bhatinda","state":"Punjab","latitude":30.211,"longitude":74.9455,"temp":39.9,"humidity":22,"rain":0.0,"pressure":981.5,"uv_index":8.3,"wind_gusts":36.4,"aqi":90,"pm10":107.3,"pm2_5":35.6,"no2":3.0,"co":186.0,"o3":152.0,"so2":13.2,"mosquito_risk":0,"arthritis_risk":5,"migraine_risk":10,"frizz_risk":0,"updated_at":"2026-05-23T12:05:53.345625+05:30"},{"city":"Rohtak","state":"Haryana","latitude":28.8955,"longitude":76.6066,"temp":40.1,"humidity":20,"rain":0.0,"pressure":979.8,"uv_index":7.75,"wind_gusts":41.8,"aqi":893,"pm10":592.3,"pm2_5":92.0,"no2":1.9,"co":225.0,"o3":153.0,"so2":6.1,"mosquito_risk":0,"arthritis_risk":5,"migraine_risk":10,"frizz_risk":0,"updated_at":"2026-05-23T12:05:53.345632+05:30"},{"city":"Panipat","state":"Haryana","latitude":29.3909,"longitude":76.9635,"temp":40.0,"humidity":20,"rain":0.0,"pressure":978.1,"uv_index":7.05,"wind_gusts":47.9,"aqi":1552,"pm10":877.3,"pm2_5":118.0,"no2":3.0,"co":225.0,"o3":158.0,"so2":12.2,"mosquito_risk":0,"arthritis_risk":5,"migraine_risk":10,"frizz_risk":0,"updated_at":"2026-05-23T12:05:53.345638+05:30"},{"city":"Mathura","state":"Uttar Pradesh","latitude":27.4924,"longitude":77.6737,"temp":41.3,"humidity":17,"rain":0.0,"pressure":984.7,"uv_index":8.0,"wind_gusts":41.8,"aqi":585,"pm10":637.0,"pm2_5":93.1,"no2":1.9,"co":208.0,"o3":153.0,"so2":8.9,"mosquito_risk":0,"arthritis_risk":5,"migraine_risk":10,"frizz_risk":0,"updated_at":"2026-05-23T12:05:53.345645+05:30"},{"city":"Vrindavan","state":"Uttar Pradesh","latitude":27.5823,"longitude":77.7027,"temp":41.0,"humidity":18,"rain":0.0,"pressure":985.1,"uv_index":8.0,"wind_gusts":40.0,"aqi":585,"pm10":637.0,"pm2_5":93.1,"no2":1.9,"co":204.0,"o3":153.0,"so2":8.9,"mosquito_risk":0,"arthritis_risk":5,"migraine_risk":10,"frizz_risk":0,"updated_at":"2026-05-23T12:05:53.345652+05:30"},{"city":"Ayodhya","state":"Uttar Pradesh","latitude":26.7922,"longitude":82.1998,"temp":39.5,"humidity":33,"rain":0.0,"pressure":991.0,"uv_index":8.35,"wind_gusts":45.0,"aqi":155,"pm10":162.1,"pm2_5":71.2,"no2":2.6,"co":354.0,"o3":214.0,"so2":16.4,"mosquito_risk":0,"arthritis_risk":5,"migraine_risk":10,"frizz_risk":1,"updated_at":"2026-05-23T12:05:53.345659+05:30"},{"city":"Ratlam","state":"Madhya Pradesh","latitude":23.3315,"longitude":75.0367,"temp":37.5,"humidity":24,"rain":0.0,"pressure":956.8,"uv_index":8.55,"wind_gusts":46.8,"aqi":65,"pm10":58.1,"pm2_5":26.2,"no2":1.0,"co":138.0,"o3":103.0,"so2":5.7,"mosquito_risk":0,"arthritis_risk":5,"migraine_risk":10,"frizz_risk":0,"updated_at":"2026-05-23T12:05:53.345665+05:30"},{"city":"Sagar","state":"Madhya Pradesh","latitude":23.8388,"longitude":78.7378,"temp":40.2,"humidity":13,"rain":0.0,"pressure":950.7,"uv_index":8.75,"wind_gusts":46.8,"aqi":57,"pm10":82.7,"pm2_5":25.7,"no2":0.8,"co":136.0,"o3":118.0,"so2":3.6,"mosquito_risk":0,"arthritis_risk":5,"migraine_risk":10,"frizz_risk":0,"updated_at":"2026-05-23T12:05:53.345672+05:30"},{"city":"Satna","state":"Madhya Pradesh","latitude":24.6005,"longitude":80.8322,"temp":41.1,"humidity":14,"rain":0.0,"pressure":969.9,"uv_index":8.8,"wind_gusts":47.9,"aqi":67,"pm10":178.8,"pm2_5":44.2,"no2":0.9,"co":143.0,"o3":135.0,"so2":5.4,"mosquito_risk":0,"arthritis_risk":5,"migraine_risk":10,"frizz_risk":0,"updated_at":"2026-05-23T12:05:53.345679+05:30"},{"city":"Akola","state":"Maharashtra","latitude":20.7002,"longitude":77.0082,"temp":40.5,"humidity":24,"rain":0.0,"pressure":975.4,"uv_index":8.9,"wind_gusts":49.3,"aqi":67,"pm10":25.3,"pm2_5":15.4,"no2":1.5,"co":148.0,"o3":107.0,"so2":6.9,"mosquito_risk":0,"arthritis_risk":5,"migraine_risk":10,"frizz_risk":0,"updated_at":"2026-05-23T12:05:53.345686+05:30"},{"city":"Amravati","state":"Maharashtra","latitude":20.9374,"longitude":77.7796,"temp":40.8,"humidity":19,"rain":0.0,"pressure":967.6,"uv_index":8.9,"wind_gusts":51.1,"aqi":67,"pm10":27.1,"pm2_5":16.3,"no2":1.7,"co":149.0,"o3":112.0,"so2":7.9,"mosquito_risk":0,"arthritis_risk":5,"migraine_risk":10,"frizz_risk":0,"updated_at":"2026-05-23T12:05:53.345693+05:30"},{"city":"Latur","state":"Maharashtra","latitude":18.4088,"longitude":76.5604,"temp":37.2,"humidity":30,"rain":0.0,"pressure":942.0,"uv_index":9.05,"wind_gusts":42.8,"aqi":82,"pm10":27.9,"pm2_5":19.3,"no2":1.2,"co":157.0,"o3":124.0,"so2":4.7,"mosquito_risk":0,"arthritis_risk":5,"migraine_risk":10,"frizz_risk":1,"updated_at":"2026-05-23T12:05:53.345700+05:30"},{"city":"Nanded","state":"Maharashtra","latitude":19.1383,"longitude":77.3091,"temp":40.0,"humidity":25,"rain":0.0,"pressure":969.2,"uv_index":9.0,"wind_gusts":46.4,"aqi":86,"pm10":28.6,"pm2_5":18.7,"no2":1.2,"co":173.0,"o3":128.0,"so2":5.4,"mosquito_risk":0,"arthritis_risk":5,"migraine_risk":10,"frizz_risk":1,"updated_at":"2026-05-23T12:05:53.345706+05:30"},{"city":"Gulbarga","state":"Karnataka","latitude":17.3297,"longitude":76.8343,"temp":36.5,"humidity":37,"rain":0.0,"pressure":960.1,"uv_index":9.05,"wind_gusts":59.0,"aqi":70,"pm10":16.8,"pm2_5":11.7,"no2":2.0,"co":199.0,"o3":104.0,"so2":3.0,"mosquito_risk":0,"arthritis_risk":5,"migraine_risk":10,"frizz_risk":1,"updated_at":"2026-05-23T12:05:53.345713+05:30"},{"city":"Bidar","state":"Karnataka","latitude":17.9104,"longitude":77.5199,"temp":37.1,"humidity":30,"rain":0.0,"pressure":937.2,"uv_index":8.9,"wind_gusts":51.5,"aqi":94,"pm10":26.5,"pm2_5":19.5,"no2":1.8,"co":166.0,"o3":136.0,"so2":8.5,"mosquito_risk":0,"arthritis_risk":5,"migraine_risk":10,"frizz_risk":1,"updated_at":"2026-05-23T12:05:53.345719+05:30"},{"city":"Hospet","state":"Karnataka","latitude":15.2689,"longitude":76.3909,"temp":32.8,"humidity":52,"rain":0.0,"pressure":958.2,"uv_index":9.0,"wind_gusts":42.8,"aqi":40,"pm10":7.5,"pm2_5":5.1,"no2":1.6,"co":144.0,"o3":90.0,"so2":2.0,"mosquito_risk":0,"arthritis_risk":5,"migraine_risk":7,"frizz_risk":1,"updated_at":"2026-05-23T12:05:53.345725+05:30"},{"city":"Tirupur","state":"Tamil Nadu","latitude":11.1085,"longitude":77.3411,"temp":35.8,"humidity":39,"rain":0.0,"pressure":976.3,"uv_index":8.95,"wind_gusts":46.4,"aqi":37,"pm10":10.2,"pm2_5":7.2,"no2":1.9,"co":163.0,"o3":102.0,"so2":1.9,"mosquito_risk":0,"arthritis_risk":5,"migraine_risk":10,"frizz_risk":1,"updated_at":"2026-05-23T12:05:53.345731+05:30"},{"city":"Alappuzha","state":"Kerala","latitude":9.4981,"longitude":76.3388,"temp":29.4,"humidity":75,"rain":0.0,"pressure":1011.9,"uv_index":7.5,"wind_gusts":37.1,"aqi":42,"pm10":14.8,"pm2_5":11.4,"no2":2.7,"co":109.0,"o3":99.0,"so2":3.9,"mosquito_risk":7,"arthritis_risk":0,"migraine_risk":4,"frizz_risk":1,"updated_at":"2026-05-23T12:05:53.345737+05:30"},{"city":"Munnar","state":"Kerala","latitude":10.0889,"longitude":77.0595,"temp":22.6,"humidity":74,"rain":0.0,"pressure":861.0,"uv_index":8.65,"wind_gusts":33.5,"aqi":24,"pm10":7.1,"pm2_5":5.6,"no2":0.8,"co":120.0,"o3":73.0,"so2":0.5,"mosquito_risk":3,"arthritis_risk":5,"migraine_risk":7,"frizz_risk":1,"updated_at":"2026-05-23T12:05:53.345744+05:30"},{"city":"Silchar","state":"Assam","latitude":24.8333,"longitude":92.7789,"temp":27.8,"humidity":84,"rain":0.0,"pressure":1003.8,"uv_index":8.45,"wind_gusts":36.0,"aqi":68,"pm10":17.9,"pm2_5":10.8,"no2":1.4,"co":207.0,"o3":97.0,"so2":2.7,"mosquito_risk":7,"arthritis_risk":5,"migraine_risk":4,"frizz_risk":1,"updated_at":"2026-05-23T12:05:53.345750+05:30"},{"city":"Dibrugarh","state":"Assam","latitude":27.4728,"longitude":94.912,"temp":26.6,"humidity":89,"rain":0.0,"pressure":993.3,"uv_index":8.9,"wind_gusts":29.9,"aqi":90,"pm10":15.7,"pm2_5":13.6,"no2":2.5,"co":265.0,"o3":108.0,"so2":1.2,"mosquito_risk":7,"arthritis_risk":5,"migraine_risk":7,"frizz_risk":1,"updated_at":"2026-05-23T12:05:53.345757+05:30"}]