[{"city":"Delhi","state":"Delhi","latitude":28.6139,"longitude":77.209,"temp":24.8,"humidity":76,"rain":0.0,"pressure":982.6,"uv_index":6.7,"wind_gusts":22.7,"aqi":151,"pm10":112.7,"pm2_5":61.5,"no2":33.3,"co":600.0,"o3":44.0,"so2":21.7,"mosquito_risk":3,"arthritis_risk":5,"migraine_risk":7,"frizz_risk":1,"updated_at":"2026-06-02T05:45:52.008544+05:30"},{"city":"Mumbai","state":"Maharashtra","latitude":19.076,"longitude":72.8777,"temp":29.3,"humidity":78,"rain":0.0,"pressure":1007.8,"uv_index":7.65,"wind_gusts":40.3,"aqi":56,"pm10":43.8,"pm2_5":18.0,"no2":8.3,"co":212.0,"o3":42.0,"so2":6.1,"mosquito_risk":7,"arthritis_risk":5,"migraine_risk":4,"frizz_risk":1,"updated_at":"2026-06-02T05:45:52.008588+05:30"},{"city":"Bangalore","state":"Karnataka","latitude":12.9716,"longitude":77.5946,"temp":22.1,"humidity":83,"rain":0.0,"pressure":911.6,"uv_index":8.5,"wind_gusts":29.5,"aqi":79,"pm10":28.5,"pm2_5":27.0,"no2":32.1,"co":443.0,"o3":35.0,"so2":11.1,"mosquito_risk":3,"arthritis_risk":5,"migraine_risk":7,"frizz_risk":1,"updated_at":"2026-06-02T05:45:52.008604+05:30"},{"city":"Hyderabad","state":"Telangana","latitude":17.385,"longitude":78.4867,"temp":27.5,"humidity":56,"rain":0.0,"pressure":952.9,"uv_index":9.0,"wind_gusts":29.9,"aqi":93,"pm10":40.2,"pm2_5":27.4,"no2":16.1,"co":332.0,"o3":75.0,"so2":7.6,"mosquito_risk":4,"arthritis_risk":5,"migraine_risk":7,"frizz_risk":1,"updated_at":"2026-06-02T05:45:52.008613+05:30"},{"city":"Chennai","state":"Tamil Nadu","latitude":13.0827,"longitude":80.2707,"temp":28.4,"humidity":87,"rain":0.0,"pressure":1006.3,"uv_index":8.65,"wind_gusts":41.0,"aqi":76,"pm10":28.1,"pm2_5":23.7,"no2":19.2,"co":260.0,"o3":47.0,"so2":14.3,"mosquito_risk":7,"arthritis_risk":5,"migraine_risk":4,"frizz_risk":1,"updated_at":"2026-06-02T05:45:52.008621+05:30"},{"city":"Kolkata","state":"West Bengal","latitude":22.5726,"longitude":88.3639,"temp":28.5,"humidity":88,"rain":0.0,"pressure":1005.5,"uv_index":8.7,"wind_gusts":33.8,"aqi":118,"pm10":69.2,"pm2_5":62.2,"no2":24.1,"co":469.0,"o3":44.0,"so2":9.6,"mosquito_risk":7,"arthritis_risk":5,"migraine_risk":4,"frizz_risk":1,"updated_at":"2026-06-02T05:45:52.008629+05:30"},{"city":"Pune","state":"Maharashtra","latitude":18.5204,"longitude":73.8567,"temp":25.0,"humidity":85,"rain":0.0,"pressure":948.6,"uv_index":8.3,"wind_gusts":46.1,"aqi":48,"pm10":21.0,"pm2_5":10.1,"no2":9.3,"co":160.0,"o3":37.0,"so2":8.8,"mosquito_risk":7,"arthritis_risk":5,"migraine_risk":7,"frizz_risk":1,"updated_at":"2026-06-02T05:45:52.008636+05:30"},{"city":"Ahmedabad","state":"Gujarat","latitude":23.0225,"longitude":72.5714,"temp":26.6,"humidity":85,"rain":0.0,"pressure":1001.2,"uv_index":8.05,"wind_gusts":28.8,"aqi":76,"pm10":48.1,"pm2_5":26.2,"no2":5.3,"co":137.0,"o3":43.0,"so2":4.9,"mosquito_risk":7,"arthritis_risk":5,"migraine_risk":4,"frizz_risk":1,"updated_at":"2026-06-02T05:45:52.008643+05:30"},{"city":"Jaipur","state":"Rajasthan","latitude":26.9124,"longitude":75.7873,"temp":25.5,"humidity":81,"rain":0.0,"pressure":959.0,"uv_index":8.2,"wind_gusts":31.0,"aqi":105,"pm10":62.6,"pm2_5":30.0,"no2":11.8,"co":288.0,"o3":41.0,"so2":5.9,"mosquito_risk":7,"arthritis_risk":5,"migraine_risk":7,"frizz_risk":1,"updated_at":"2026-06-02T05:45:52.008653+05:30"},{"city":"Lucknow","state":"Uttar Pradesh","latitude":26.8467,"longitude":80.9462,"temp":24.6,"humidity":79,"rain":0.3,"pressure":993.5,"uv_index":7.8,"wind_gusts":50.4,"aqi":132,"pm10":79.9,"pm2_5":60.3,"no2":28.6,"co":483.0,"o3":50.0,"so2":8.5,"mosquito_risk":6,"arthritis_risk":5,"migraine_risk":7,"frizz_risk":1,"updated_at":"2026-06-02T05:45:52.008661+05:30"},{"city":"Kanpur","state":"Uttar Pradesh","latitude":26.4499,"longitude":80.3319,"temp":23.1,"humidity":95,"rain":0.1,"pressure":991.9,"uv_index":8.05,"wind_gusts":49.0,"aqi":117,"pm10":70.3,"pm2_5":48.5,"no2":16.8,"co":420.0,"o3":70.0,"so2":5.3,"mosquito_risk":6,"arthritis_risk":5,"migraine_risk":7,"frizz_risk":1,"updated_at":"2026-06-02T05:45:52.008668+05:30"},{"city":"Chandigarh","state":"Chandigarh","latitude":30.7333,"longitude":76.7794,"temp":22.9,"humidity":81,"rain":0.0,"pressure":968.7,"uv_index":7.85,"wind_gusts":23.4,"aqi":86,"pm10":46.8,"pm2_5":43.9,"no2":40.6,"co":938.0,"o3":13.0,"so2":3.8,"mosquito_risk":3,"arthritis_risk":5,"migraine_risk":7,"frizz_risk":1,"updated_at":"2026-06-02T05:45:52.008675+05:30"},{"city":"Srinagar","state":"Jammu and Kashmir","latitude":34.0837,"longitude":74.7973,"temp":13.1,"humidity":94,"rain":0.0,"pressure":840.9,"uv_index":9.1,"wind_gusts":26.6,"aqi":129,"pm10":76.6,"pm2_5":51.7,"no2":24.3,"co":359.0,"o3":10.0,"so2":1.5,"mosquito_risk":3,"arthritis_risk":10,"migraine_risk":7,"frizz_risk":0,"updated_at":"2026-06-02T05:45:52.008682+05:30"},{"city":"Jammu","state":"Jammu and Kashmir","latitude":32.7266,"longitude":74.857,"temp":25.0,"humidity":60,"rain":0.0,"pressure":972.8,"uv_index":8.65,"wind_gusts":27.4,"aqi":138,"pm10":77.1,"pm2_5":49.2,"no2":23.9,"co":357.0,"o3":39.0,"so2":3.1,"mosquito_risk":4,"arthritis_risk":5,"migraine_risk":7,"frizz_risk":1,"updated_at":"2026-06-02T05:45:52.008689+05:30"},{"city":"Amritsar","state":"Punjab","latitude":31.634,"longitude":74.8723,"temp":25.4,"humidity":60,"rain":0.0,"pressure":980.7,"uv_index":8.45,"wind_gusts":22.7,"aqi":122,"pm10":269.2,"pm2_5":85.9,"no2":16.5,"co":511.0,"o3":56.0,"so2":7.6,"mosquito_risk":4,"arthritis_risk":5,"migraine_risk":7,"frizz_risk":1,"updated_at":"2026-06-02T05:45:52.008695+05:30"},{"city":"Ludhiana","state":"Punjab","latitude":30.901,"longitude":75.8573,"temp":25.5,"humidity":61,"rain":0.0,"pressure":978.7,"uv_index":8.05,"wind_gusts":22.3,"aqi":132,"pm10":156.5,"pm2_5":61.9,"no2":20.4,"co":551.0,"o3":55.0,"so2":10.5,"mosquito_risk":7,"arthritis_risk":5,"migraine_risk":7,"frizz_risk":1,"updated_at":"2026-06-02T05:45:52.008703+05:30"},{"city":"Jalandhar","state":"Punjab","latitude":31.326,"longitude":75.5762,"temp":25.6,"humidity":60,"rain":0.0,"pressure":979.7,"uv_index":8.25,"wind_gusts":27.0,"aqi":120,"pm10":131.8,"pm2_5":60.8,"no2":23.1,"co":512.0,"o3":48.0,"so2":9.7,"mosquito_risk":4,"arthritis_risk":5,"migraine_risk":7,"frizz_risk":1,"updated_at":"2026-06-02T05:45:52.008709+05:30"},{"city":"Dehradun","state":"Uttarakhand","latitude":30.6284,"longitude":78.0322,"temp":14.5,"humidity":88,"rain":0.0,"pressure":829.8,"uv_index":8.1,"wind_gusts":31.0,"aqi":50,"pm10":20.6,"pm2_5":14.8,"no2":24.6,"co":239.0,"o3":12.0,"so2":0.0,"mosquito_risk":3,"arthritis_risk":10,"migraine_risk":7,"frizz_risk":0,"updated_at":"2026-06-02T05:45:52.008716+05:30"},{"city":"Shimla","state":"Himachal Pradesh","latitude":31.1048,"longitude":77.1734,"temp":11.0,"humidity":75,"rain":0.0,"pressure":782.3,"uv_index":8.35,"wind_gusts":29.9,"aqi":54,"pm10":24.0,"pm2_5":19.6,"no2":13.7,"co":341.0,"o3":67.0,"so2":0.8,"mosquito_risk":3,"arthritis_risk":5,"migraine_risk":7,"frizz_risk":0,"updated_at":"2026-06-02T05:45:52.008724+05:30"},{"city":"Manali","state":"Himachal Pradesh","latitude":32.2396,"longitude":77.1887,"temp":11.9,"humidity":66,"rain":0.0,"pressure":817.4,"uv_index":9.6,"wind_gusts":34.9,"aqi":29,"pm10":7.4,"pm2_5":2.5,"no2":18.0,"co":181.0,"o3":86.0,"so2":0.0,"mosquito_risk":3,"arthritis_risk":5,"migraine_risk":7,"frizz_risk":0,"updated_at":"2026-06-02T05:45:52.008754+05:30"},{"city":"Gurgaon","state":"Haryana","latitude":28.4595,"longitude":77.0266,"temp":25.2,"humidity":71,"rain":0.0,"pressure":980.8,"uv_index":6.75,"wind_gusts":26.6,"aqi":391,"pm10":174.2,"pm2_5":70.1,"no2":31.9,"co":863.0,"o3":43.0,"so2":17.6,"mosquito_risk":7,"arthritis_risk":5,"migraine_risk":7,"frizz_risk":1,"updated_at":"2026-06-02T05:45:52.008762+05:30"},{"city":"Noida","state":"Uttar Pradesh","latitude":28.5355,"longitude":77.391,"temp":24.9,"humidity":74,"rain":0.0,"pressure":984.1,"uv_index":7.6,"wind_gusts":23.0,"aqi":391,"pm10":174.2,"pm2_5":70.1,"no2":31.9,"co":538.0,"o3":43.0,"so2":17.6,"mosquito_risk":3,"arthritis_risk":5,"migraine_risk":7,"frizz_risk":1,"updated_at":"2026-06-02T05:45:52.008769+05:30"},{"city":"Ghaziabad","state":"Uttar Pradesh","latitude":28.6692,"longitude":77.4538,"temp":24.5,"humidity":77,"rain":0.0,"pressure":982.4,"uv_index":7.75,"wind_gusts":24.5,"aqi":124,"pm10":88.7,"pm2_5":58.6,"no2":24.9,"co":519.0,"o3":48.0,"so2":11.4,"mosquito_risk":3,"arthritis_risk":5,"migraine_risk":7,"frizz_risk":1,"updated_at":"2026-06-02T05:45:52.008775+05:30"},{"city":"Faridabad","state":"Haryana","latitude":28.4089,"longitude":77.3178,"temp":24.8,"humidity":75,"rain":0.0,"pressure":983.3,"uv_index":7.5,"wind_gusts":23.0,"aqi":391,"pm10":174.2,"pm2_5":70.1,"no2":31.9,"co":653.0,"o3":43.0,"so2":17.6,"mosquito_risk":3,"arthritis_risk":5,"migraine_risk":7,"frizz_risk":1,"updated_at":"2026-06-02T05:45:52.008782+05:30"},{"city":"Meerut","state":"Uttar Pradesh","latitude":28.9845,"longitude":77.7064,"temp":24.2,"humidity":83,"rain":0.0,"pressure":981.4,"uv_index":7.15,"wind_gusts":26.6,"aqi":124,"pm10":88.7,"pm2_5":58.6,"no2":24.9,"co":564.0,"o3":48.0,"so2":11.4,"mosquito_risk":3,"arthritis_risk":5,"migraine_risk":7,"frizz_risk":1,"updated_at":"2026-06-02T05:45:52.008788+05:30"},{"city":"Agra","state":"Uttar Pradesh","latitude":27.1767,"longitude":78.0081,"temp":24.1,"humidity":86,"rain":0.1,"pressure":987.7,"uv_index":8.1,"wind_gusts":26.6,"aqi":199,"pm10":97.6,"pm2_5":43.3,"no2":14.5,"co":640.0,"o3":66.0,"so2":7.3,"mosquito_risk":6,"arthritis_risk":5,"migraine_risk":7,"frizz_risk":1,"updated_at":"2026-06-02T05:45:52.008795+05:30"},{"city":"Varanasi","state":"Uttar Pradesh","latitude":25.3176,"longitude":82.9739,"temp":27.9,"humidity":75,"rain":0.0,"pressure":997.1,"uv_index":7.4,"wind_gusts":23.4,"aqi":151,"pm10":97.8,"pm2_5":82.9,"no2":34.4,"co":1352.0,"o3":33.0,"so2":13.4,"mosquito_risk":7,"arthritis_risk":5,"migraine_risk":7,"frizz_risk":1,"updated_at":"2026-06-02T05:45:52.008802+05:30"},{"city":"Prayagraj","state":"Uttar Pradesh","latitude":25.4358,"longitude":81.8463,"temp":27.9,"humidity":66,"rain":0.0,"pressure":995.5,"uv_index":8.65,"wind_gusts":23.8,"aqi":125,"pm10":74.3,"pm2_5":61.0,"no2":28.1,"co":659.0,"o3":42.0,"so2":9.8,"mosquito_risk":7,"arthritis_risk":5,"migraine_risk":7,"frizz_risk":1,"updated_at":"2026-06-02T05:45:52.008809+05:30"},{"city":"Gorakhpur","state":"Uttar Pradesh","latitude":26.7606,"longitude":83.3732,"temp":26.2,"humidity":77,"rain":0.0,"pressure":996.9,"uv_index":8.35,"wind_gusts":23.4,"aqi":157,"pm10":118.7,"pm2_5":105.2,"no2":56.8,"co":527.0,"o3":28.0,"so2":15.3,"mosquito_risk":7,"arthritis_risk":5,"migraine_risk":7,"frizz_risk":1,"updated_at":"2026-06-02T05:45:52.008818+05:30"},{"city":"Bareilly","state":"Uttar Pradesh","latitude":28.367,"longitude":79.4304,"temp":24.6,"humidity":82,"rain":0.0,"pressure":987.2,"uv_index":8.0,"wind_gusts":19.8,"aqi":121,"pm10":101.7,"pm2_5":70.1,"no2":49.0,"co":461.0,"o3":27.0,"so2":12.0,"mosquito_risk":3,"arthritis_risk":5,"migraine_risk":7,"frizz_risk":1,"updated_at":"2026-06-02T05:45:52.008824+05:30"},{"city":"Aligarh","state":"Uttar Pradesh","latitude":27.8974,"longitude":78.088,"temp":25.3,"humidity":78,"rain":0.0,"pressure":984.9,"uv_index":7.95,"wind_gusts":23.8,"aqi":134,"pm10":113.4,"pm2_5":64.5,"no2":26.6,"co":528.0,"o3":35.0,"so2":8.1,"mosquito_risk":7,"arthritis_risk":5,"migraine_risk":7,"frizz_risk":1,"updated_at":"2026-06-02T05:45:52.008830+05:30"},{"city":"Moradabad","state":"Uttar Pradesh","latitude":28.8386,"longitude":78.7733,"temp":24.6,"humidity":83,"rain":0.0,"pressure":983.8,"uv_index":7.65,"wind_gusts":25.2,"aqi":124,"pm10":82.0,"pm2_5":60.5,"no2":42.0,"co":527.0,"o3":26.0,"so2":7.4,"mosquito_risk":3,"arthritis_risk":5,"migraine_risk":7,"frizz_risk":1,"updated_at":"2026-06-02T05:45:52.008837+05:30"},{"city":"Saharanpur","state":"Uttar Pradesh","latitude":29.9637,"longitude":77.546,"temp":24.4,"humidity":73,"rain":0.0,"pressure":975.8,"uv_index":7.55,"wind_gusts":21.6,"aqi":133,"pm10":95.5,"pm2_5":76.8,"no2":55.4,"co":560.0,"o3":15.0,"so2":11.2,"mosquito_risk":3,"arthritis_risk":5,"migraine_risk":7,"frizz_risk":1,"updated_at":"2026-06-02T05:45:52.008843+05:30"},{"city":"Jhansi","state":"Uttar Pradesh","latitude":25.4484,"longitude":78.5685,"temp":27.0,"humidity":67,"rain":0.0,"pressure":977.4,"uv_index":8.45,"wind_gusts":22.0,"aqi":83,"pm10":40.9,"pm2_5":21.2,"no2":9.2,"co":189.0,"o3":64.0,"so2":5.1,"mosquito_risk":7,"arthritis_risk":5,"migraine_risk":7,"frizz_risk":1,"updated_at":"2026-06-02T05:45:55.379147+05:30"},{"city":"Surat","state":"Gujarat","latitude":21.1702,"longitude":72.8311,"temp":25.6,"humidity":94,"rain":0.0,"pressure":1005.2,"uv_index":7.55,"wind_gusts":43.6,"aqi":73,"pm10":25.1,"pm2_5":17.3,"no2":25.2,"co":332.0,"o3":21.0,"so2":42.8,"mosquito_risk":7,"arthritis_risk":5,"migraine_risk":4,"frizz_risk":1,"updated_at":"2026-06-02T05:45:55.379178+05:30"},{"city":"Vadodara","state":"Gujarat","latitude":22.3072,"longitude":73.1812,"temp":26.1,"humidity":90,"rain":0.0,"pressure":1003.5,"uv_index":7.95,"wind_gusts":41.8,"aqi":71,"pm10":25.2,"pm2_5":15.7,"no2":9.3,"co":138.0,"o3":32.0,"so2":8.4,"mosquito_risk":7,"arthritis_risk":5,"migraine_risk":4,"frizz_risk":1,"updated_at":"2026-06-02T05:45:55.379189+05:30"},{"city":"Rajkot","state":"Gujarat","latitude":22.3039,"longitude":70.8022,"temp":28.2,"humidity":77,"rain":0.0,"pressure":992.6,"uv_index":7.45,"wind_gusts":44.3,"aqi":66,"pm10":35.7,"pm2_5":17.5,"no2":4.2,"co":105.0,"o3":42.0,"so2":4.5,"mosquito_risk":7,"arthritis_risk":5,"migraine_risk":7,"frizz_risk":1,"updated_at":"2026-06-02T05:45:55.379198+05:30"},{"city":"Thane","state":"Maharashtra","latitude":19.2183,"longitude":72.9781,"temp":27.6,"humidity":90,"rain":0.0,"pressure":1007.2,"uv_index":7.65,"wind_gusts":35.6,"aqi":56,"pm10":43.8,"pm2_5":18.0,"no2":8.3,"co":187.0,"o3":42.0,"so2":6.1,"mosquito_risk":7,"arthritis_risk":5,"migraine_risk":4,"frizz_risk":1,"updated_at":"2026-06-02T05:45:55.379207+05:30"},{"city":"Nagpur","state":"Maharashtra","latitude":21.1458,"longitude":79.0882,"temp":29.5,"humidity":51,"rain":0.0,"pressure":972.5,"uv_index":8.85,"wind_gusts":36.0,"aqi":82,"pm10":42.3,"pm2_5":27.4,"no2":10.1,"co":218.0,"o3":74.0,"so2":9.7,"mosquito_risk":4,"arthritis_risk":5,"migraine_risk":7,"frizz_risk":1,"updated_at":"2026-06-02T05:45:55.379215+05:30"},{"city":"Nashik","state":"Maharashtra","latitude":19.9975,"longitude":73.7898,"temp":24.0,"humidity":91,"rain":0.0,"pressure":944.2,"uv_index":8.0,"wind_gusts":40.7,"aqi":52,"pm10":33.8,"pm2_5":13.8,"no2":6.0,"co":118.0,"o3":42.0,"so2":3.9,"mosquito_risk":3,"arthritis_risk":5,"migraine_risk":7,"frizz_risk":1,"updated_at":"2026-06-02T05:45:55.379222+05:30"},{"city":"Aurangabad","state":"Maharashtra","latitude":19.8762,"longitude":75.3433,"temp":25.5,"humidity":76,"rain":0.0,"pressure":944.0,"uv_index":8.95,"wind_gusts":44.3,"aqi":57,"pm10":29.8,"pm2_5":14.6,"no2":7.8,"co":155.0,"o3":41.0,"so2":6.0,"mosquito_risk":7,"arthritis_risk":5,"migraine_risk":7,"frizz_risk":1,"updated_at":"2026-06-02T05:45:55.379230+05:30"},{"city":"Solapur","state":"Maharashtra","latitude":17.6599,"longitude":75.9064,"temp":27.9,"humidity":68,"rain":0.0,"pressure":957.5,"uv_index":8.9,"wind_gusts":43.2,"aqi":66,"pm10":39.2,"pm2_5":24.8,"no2":20.8,"co":170.0,"o3":33.0,"so2":4.5,"mosquito_risk":7,"arthritis_risk":5,"migraine_risk":7,"frizz_risk":1,"updated_at":"2026-06-02T05:45:55.379238+05:30"},{"city":"Kolhapur","state":"Maharashtra","latitude":16.705,"longitude":74.2433,"temp":24.0,"humidity":90,"rain":0.0,"pressure":948.3,"uv_index":8.7,"wind_gusts":49.3,"aqi":40,"pm10":11.8,"pm2_5":8.6,"no2":9.3,"co":166.0,"o3":33.0,"so2":3.3,"mosquito_risk":3,"arthritis_risk":5,"migraine_risk":7,"frizz_risk":1,"updated_at":"2026-06-02T05:45:55.379246+05:30"},{"city":"Goa","state":"Goa","latitude":15.2993,"longitude":74.124,"temp":26.0,"humidity":97,"rain":0.0,"pressure":998.4,"uv_index":6.65,"wind_gusts":28.8,"aqi":52,"pm10":23.4,"pm2_5":19.3,"no2":9.4,"co":382.0,"o3":38.0,"so2":3.0,"mosquito_risk":7,"arthritis_risk":5,"migraine_risk":7,"frizz_risk":1,"updated_at":"2026-06-02T05:45:55.379253+05:30"},{"city":"Jodhpur","state":"Rajasthan","latitude":26.2389,"longitude":73.0243,"temp":28.8,"humidity":59,"rain":0.0,"pressure":981.6,"uv_index":8.4,"wind_gusts":41.4,"aqi":95,"pm10":92.9,"pm2_5":31.7,"no2":8.3,"co":191.0,"o3":44.0,"so2":2.7,"mosquito_risk":4,"arthritis_risk":5,"migraine_risk":7,"frizz_risk":1,"updated_at":"2026-06-02T05:45:55.379261+05:30"},{"city":"Udaipur","state":"Rajasthan","latitude":24.5854,"longitude":73.7125,"temp":23.9,"humidity":80,"rain":0.0,"pressure":945.4,"uv_index":8.8,"wind_gusts":37.8,"aqi":75,"pm10":38.9,"pm2_5":24.3,"no2":11.1,"co":187.0,"o3":39.0,"so2":9.7,"mosquito_risk":3,"arthritis_risk":5,"migraine_risk":7,"frizz_risk":1,"updated_at":"2026-06-02T05:45:55.379269+05:30"},{"city":"Kota","state":"Rajasthan","latitude":25.2138,"longitude":75.8648,"temp":25.6,"humidity":75,"rain":0.0,"pressure":978.3,"uv_index":8.35,"wind_gusts":54.4,"aqi":77,"pm10":36.4,"pm2_5":21.4,"no2":6.9,"co":205.0,"o3":57.0,"so2":4.5,"mosquito_risk":7,"arthritis_risk":5,"migraine_risk":7,"frizz_risk":1,"updated_at":"2026-06-02T05:45:55.379276+05:30"},{"city":"Bikaner","state":"Rajasthan","latitude":28.0229,"longitude":73.3119,"temp":26.6,"humidity":72,"rain":0.0,"pressure":980.3,"uv_index":8.45,"wind_gusts":32.8,"aqi":123,"pm10":125.7,"pm2_5":48.4,"no2":5.2,"co":156.0,"o3":40.0,"so2":1.9,"mosquito_risk":7,"arthritis_risk":5,"migraine_risk":7,"frizz_risk":1,"updated_at":"2026-06-02T05:45:55.379284+05:30"},{"city":"Ajmer","state":"Rajasthan","latitude":26.4499,"longitude":74.6399,"temp":25.4,"humidity":76,"rain":0.0,"pressure":953.6,"uv_index":8.3,"wind_gusts":52.9,"aqi":78,"pm10":46.8,"pm2_5":21.7,"no2":7.5,"co":185.0,"o3":48.0,"so2":5.2,"mosquito_risk":7,"arthritis_risk":5,"migraine_risk":7,"frizz_risk":1,"updated_at":"2026-06-02T05:45:55.379291+05:30"},{"city":"Gwalior","state":"Madhya Pradesh","latitude":26.2183,"longitude":78.1828,"temp":25.9,"humidity":80,"rain":0.0,"pressure":982.5,"uv_index":8.25,"wind_gusts":21.2,"aqi":96,"pm10":54.4,"pm2_5":25.7,"no2":10.6,"co":265.0,"o3":54.0,"so2":4.9,"mosquito_risk":7,"arthritis_risk":5,"migraine_risk":7,"frizz_risk":1,"updated_at":"2026-06-02T05:45:55.379299+05:30"},{"city":"Indore","state":"Madhya Pradesh","latitude":22.7196,"longitude":75.8577,"temp":23.6,"humidity":81,"rain":0.0,"pressure":947.8,"uv_index":7.9,"wind_gusts":37.8,"aqi":82,"pm10":42.6,"pm2_5":31.0,"no2":11.4,"co":293.0,"o3":48.0,"so2":5.8,"mosquito_risk":3,"arthritis_risk":5,"migraine_risk":7,"frizz_risk":1,"updated_at":"2026-06-02T05:45:55.379306+05:30"},{"city":"Bhopal","state":"Madhya Pradesh","latitude":23.2599,"longitude":77.4126,"temp":26.0,"humidity":64,"rain":0.0,"pressure":953.3,"uv_index":8.65,"wind_gusts":28.4,"aqi":68,"pm10":36.0,"pm2_5":24.8,"no2":9.9,"co":232.0,"o3":53.0,"so2":2.7,"mosquito_risk":7,"arthritis_risk":5,"migraine_risk":7,"frizz_risk":1,"updated_at":"2026-06-02T05:45:55.379314+05:30"},{"city":"Jabalpur","state":"Madhya Pradesh","latitude":23.1815,"longitude":79.9864,"temp":28.5,"humidity":53,"rain":0.0,"pressure":960.9,"uv_index":8.85,"wind_gusts":26.3,"aqi":92,"pm10":40.6,"pm2_5":24.2,"no2":12.9,"co":228.0,"o3":54.0,"so2":3.8,"mosquito_risk":4,"arthritis_risk":5,"migraine_risk":7,"frizz_risk":1,"updated_at":"2026-06-02T05:45:55.379320+05:30"},{"city":"Ujjain","state":"Madhya Pradesh","latitude":23.1765,"longitude":75.7885,"temp":24.8,"humidity":75,"rain":0.0,"pressure":953.7,"uv_index":7.85,"wind_gusts":46.8,"aqi":81,"pm10":42.8,"pm2_5":32.2,"no2":10.2,"co":293.0,"o3":42.0,"so2":5.6,"mosquito_risk":3,"arthritis_risk":5,"migraine_risk":7,"frizz_risk":1,"updated_at":"2026-06-02T05:45:55.379328+05:30"},{"city":"Visakhapatnam","state":"Andhra Pradesh","latitude":17.6868,"longitude":83.2185,"temp":28.0,"humidity":91,"rain":0.0,"pressure":1002.2,"uv_index":9.0,"wind_gusts":38.5,"aqi":92,"pm10":38.5,"pm2_5":32.2,"no2":31.2,"co":401.0,"o3":79.0,"so2":43.7,"mosquito_risk":7,"arthritis_risk":5,"migraine_risk":4,"frizz_risk":1,"updated_at":"2026-06-02T05:45:55.379335+05:30"},{"city":"Vijayawada","state":"Andhra Pradesh","latitude":16.5062,"longitude":80.648,"temp":29.3,"humidity":84,"rain":0.0,"pressure":1000.8,"uv_index":9.0,"wind_gusts":28.8,"aqi":90,"pm10":39.1,"pm2_5":32.0,"no2":11.1,"co":247.0,"o3":85.0,"so2":7.0,"mosquito_risk":7,"arthritis_risk":5,"migraine_risk":4,"frizz_risk":1,"updated_at":"2026-06-02T05:45:55.379342+05:30"},{"city":"Guntur","state":"Andhra Pradesh","latitude":16.3067,"longitude":80.4365,"temp":28.7,"humidity":88,"rain":0.0,"pressure":1002.2,"uv_index":9.0,"wind_gusts":31.0,"aqi":94,"pm10":32.7,"pm2_5":28.2,"no2":10.5,"co":244.0,"o3":84.0,"so2":7.2,"mosquito_risk":7,"arthritis_risk":5,"migraine_risk":4,"frizz_risk":1,"updated_at":"2026-06-02T05:45:55.379349+05:30"},{"city":"Nellore","state":"Andhra Pradesh","latitude":14.4426,"longitude":79.9865,"temp":28.8,"humidity":68,"rain":0.0,"pressure":1004.3,"uv_index":8.45,"wind_gusts":32.0,"aqi":73,"pm10":27.5,"pm2_5":21.3,"no2":12.7,"co":170.0,"o3":59.0,"so2":5.3,"mosquito_risk":7,"arthritis_risk":5,"migraine_risk":4,"frizz_risk":1,"updated_at":"2026-06-02T05:45:55.379357+05:30"},{"city":"Kurnool","state":"Andhra Pradesh","latitude":15.8281,"longitude":78.0373,"temp":28.5,"humidity":58,"rain":0.0,"pressure":976.6,"uv_index":8.85,"wind_gusts":43.6,"aqi":81,"pm10":28.5,"pm2_5":21.7,"no2":18.7,"co":205.0,"o3":44.0,"so2":5.4,"mosquito_risk":4,"arthritis_risk":5,"migraine_risk":7,"frizz_risk":1,"updated_at":"2026-06-02T05:45:55.379364+05:30"},{"city":"Kakinada","state":"Andhra Pradesh","latitude":16.9891,"longitude":82.2475,"temp":27.5,"humidity":93,"rain":0.0,"pressure":1006.2,"uv_index":9.0,"wind_gusts":32.4,"aqi":80,"pm10":39.6,"pm2_5":28.1,"no2":5.3,"co":509.0,"o3":119.0,"so2":4.5,"mosquito_risk":7,"arthritis_risk":5,"migraine_risk":4,"frizz_risk":1,"updated_at":"2026-06-02T05:45:55.379371+05:30"},{"city":"Tirupati","state":"Andhra Pradesh","latitude":13.6288,"longitude":79.4192,"temp":26.9,"humidity":73,"rain":0.0,"pressure":990.4,"uv_index":9.0,"wind_gusts":26.6,"aqi":64,"pm10":25.4,"pm2_5":21.1,"no2":19.2,"co":188.0,"o3":34.0,"so2":2.8,"mosquito_risk":7,"arthritis_risk":5,"migraine_risk":7,"frizz_risk":1,"updated_at":"2026-06-02T05:45:55.379378+05:30"},{"city":"Warangal","state":"Telangana","latitude":17.9689,"longitude":79.5941,"temp":28.4,"humidity":62,"rain":0.0,"pressure":977.5,"uv_index":9.0,"wind_gusts":33.1,"aqi":127,"pm10":59.5,"pm2_5":44.2,"no2":22.1,"co":402.0,"o3":48.0,"so2":6.2,"mosquito_risk":7,"arthritis_risk":5,"migraine_risk":7,"frizz_risk":1,"updated_at":"2026-06-02T05:45:55.379385+05:30"},{"city":"Nizamabad","state":"Telangana","latitude":18.6725,"longitude":78.0941,"temp":27.4,"humidity":62,"rain":0.0,"pressure":964.1,"uv_index":8.95,"wind_gusts":50.0,"aqi":88,"pm10":49.6,"pm2_5":34.6,"no2":15.2,"co":208.0,"o3":52.0,"so2":3.5,"mosquito_risk":7,"arthritis_risk":5,"migraine_risk":7,"frizz_risk":1,"updated_at":"2026-06-02T05:45:55.379392+05:30"},{"city":"Mysore","state":"Karnataka","latitude":12.2958,"longitude":76.6396,"temp":22.0,"humidity":97,"rain":0.0,"pressure":928.4,"uv_index":8.95,"wind_gusts":40.7,"aqi":52,"pm10":21.8,"pm2_5":20.4,"no2":10.0,"co":276.0,"o3":51.0,"so2":2.8,"mosquito_risk":3,"arthritis_risk":5,"migraine_risk":7,"frizz_risk":1,"updated_at":"2026-06-02T05:45:55.379399+05:30"},{"city":"Mangalore","state":"Karnataka","latitude":12.9141,"longitude":74.856,"temp":24.5,"humidity":98,"rain":0.1,"pressure":1008.5,"uv_index":2.25,"wind_gusts":28.4,"aqi":50,"pm10":21.2,"pm2_5":17.5,"no2":11.3,"co":353.0,"o3":30.0,"so2":3.7,"mosquito_risk":6,"arthritis_risk":0,"migraine_risk":0,"frizz_risk":1,"updated_at":"2026-06-02T05:45:55.379406+05:30"},{"city":"Hubli-Dharwad","state":"Karnataka","latitude":15.3647,"longitude":75.124,"temp":23.8,"humidity":92,"rain":0.0,"pressure":941.5,"uv_index":8.5,"wind_gusts":35.3,"aqi":39,"pm10":7.9,"pm2_5":5.7,"no2":5.3,"co":152.0,"o3":40.0,"so2":1.9,"mosquito_risk":3,"arthritis_risk":5,"migraine_risk":7,"frizz_risk":1,"updated_at":"2026-06-02T05:45:55.379413+05:30"},{"city":"Belgaum","state":"Karnataka","latitude":15.8497,"longitude":74.4977,"temp":21.9,"humidity":98,"rain":0.0,"pressure":926.0,"uv_index":8.65,"wind_gusts":46.4,"aqi":40,"pm10":15.1,"pm2_5":12.6,"no2":9.8,"co":167.0,"o3":28.0,"so2":0.7,"mosquito_risk":3,"arthritis_risk":5,"migraine_risk":7,"frizz_risk":1,"updated_at":"2026-06-02T05:45:58.747320+05:30"},{"city":"Coimbatore","state":"Tamil Nadu","latitude":11.0168,"longitude":76.9558,"temp":25.0,"humidity":86,"rain":0.0,"pressure":961.8,"uv_index":9.0,"wind_gusts":48.2,"aqi":52,"pm10":14.3,"pm2_5":12.6,"no2":5.6,"co":188.0,"o3":60.0,"so2":4.3,"mosquito_risk":7,"arthritis_risk":5,"migraine_risk":7,"frizz_risk":1,"updated_at":"2026-06-02T05:45:58.747355+05:30"},{"city":"Madurai","state":"Tamil Nadu","latitude":9.9252,"longitude":78.1198,"temp":27.6,"humidity":85,"rain":0.0,"pressure":993.0,"uv_index":8.85,"wind_gusts":56.5,"aqi":73,"pm10":43.0,"pm2_5":39.5,"no2":36.8,"co":344.0,"o3":1.0,"so2":6.6,"mosquito_risk":7,"arthritis_risk":5,"migraine_risk":7,"frizz_risk":1,"updated_at":"2026-06-02T05:45:58.747368+05:30"},{"city":"Trichy","state":"Tamil Nadu","latitude":10.7905,"longitude":78.7047,"temp":27.1,"humidity":86,"rain":0.0,"pressure":999.5,"uv_index":8.85,"wind_gusts":40.3,"aqi":52,"pm10":13.4,"pm2_5":11.7,"no2":16.2,"co":186.0,"o3":29.0,"so2":5.5,"mosquito_risk":7,"arthritis_risk":5,"migraine_risk":7,"frizz_risk":1,"updated_at":"2026-06-02T05:45:58.747378+05:30"},{"city":"Salem","state":"Tamil Nadu","latitude":11.6643,"longitude":78.146,"temp":26.8,"humidity":76,"rain":0.0,"pressure":977.2,"uv_index":8.9,"wind_gusts":36.0,"aqi":68,"pm10":36.2,"pm2_5":34.3,"no2":30.5,"co":201.0,"o3":22.0,"so2":7.1,"mosquito_risk":7,"arthritis_risk":5,"migraine_risk":7,"frizz_risk":1,"updated_at":"2026-06-02T05:45:58.747389+05:30"},{"city":"Tirunelveli","state":"Tamil Nadu","latitude":8.7139,"longitude":77.7567,"temp":28.4,"humidity":72,"rain":0.0,"pressure":1003.4,"uv_index":8.75,"wind_gusts":31.3,"aqi":33,"pm10":12.4,"pm2_5":10.6,"no2":10.2,"co":141.0,"o3":30.0,"so2":2.8,"mosquito_risk":7,"arthritis_risk":5,"migraine_risk":4,"frizz_risk":1,"updated_at":"2026-06-02T05:45:58.747398+05:30"},{"city":"Vellore","state":"Tamil Nadu","latitude":12.9165,"longitude":79.1325,"temp":25.3,"humidity":89,"rain":0.0,"pressure":983.8,"uv_index":8.7,"wind_gusts":27.0,"aqi":75,"pm10":40.3,"pm2_5":34.1,"no2":22.2,"co":239.0,"o3":29.0,"so2":5.7,"mosquito_risk":7,"arthritis_risk":5,"migraine_risk":7,"frizz_risk":1,"updated_at":"2026-06-02T05:45:58.747407+05:30"},{"city":"Erode","state":"Tamil Nadu","latitude":11.341,"longitude":77.7172,"temp":26.5,"humidity":79,"rain":0.0,"pressure":989.1,"uv_index":8.9,"wind_gusts":46.1,"aqi":56,"pm10":21.0,"pm2_5":19.7,"no2":18.7,"co":326.0,"o3":32.0,"so2":4.5,"mosquito_risk":7,"arthritis_risk":5,"migraine_risk":7,"frizz_risk":1,"updated_at":"2026-06-02T05:45:58.747416+05:30"},{"city":"Kochi","state":"Kerala","latitude":9.9312,"longitude":76.2673,"temp":26.0,"humidity":96,"rain":0.0,"pressure":1009.3,"uv_index":8.3,"wind_gusts":27.7,"aqi":48,"pm10":11.2,"pm2_5":10.0,"no2":12.1,"co":288.0,"o3":25.0,"so2":4.2,"mosquito_risk":7,"arthritis_risk":0,"migraine_risk":4,"frizz_risk":1,"updated_at":"2026-06-02T05:45:58.747425+05:30"},{"city":"Thiruvananthapuram","state":"Kerala","latitude":8.5241,"longitude":76.9366,"temp":25.2,"humidity":97,"rain":0.0,"pressure":1008.8,"uv_index":8.15,"wind_gusts":37.8,"aqi":29,"pm10":8.6,"pm2_5":5.1,"no2":2.4,"co":155.0,"o3":43.0,"so2":0.9,"mosquito_risk":7,"arthritis_risk":0,"migraine_risk":4,"frizz_risk":1,"updated_at":"2026-06-02T05:45:58.747434+05:30"},{"city":"Kozhikode","state":"Kerala","latitude":11.2588,"longitude":75.7804,"temp":25.4,"humidity":99,"rain":0.2,"pressure":1008.9,"uv_index":7.5,"wind_gusts":27.7,"aqi":35,"pm10":10.5,"pm2_5":6.4,"no2":1.3,"co":330.0,"o3":79.0,"so2":0.7,"mosquito_risk":10,"arthritis_risk":0,"migraine_risk":4,"frizz_risk":1,"updated_at":"2026-06-02T05:45:58.747443+05:30"},{"city":"Thrissur","state":"Kerala","latitude":10.5276,"longitude":76.2144,"temp":24.8,"humidity":96,"rain":0.0,"pressure":1007.8,"uv_index":7.35,"wind_gusts":28.1,"aqi":51,"pm10":12.0,"pm2_5":10.5,"no2":10.2,"co":263.0,"o3":38.0,"so2":4.7,"mosquito_risk":3,"arthritis_risk":5,"migraine_risk":4,"frizz_risk":1,"updated_at":"2026-06-02T05:45:58.747452+05:30"},{"city":"Kannur","state":"Kerala","latitude":11.8745,"longitude":75.3704,"temp":24.6,"humidity":99,"rain":0.3,"pressure":1008.6,"uv_index":2.5,"wind_gusts":28.1,"aqi":38,"pm10":11.2,"pm2_5":8.4,"no2":5.8,"co":357.0,"o3":50.0,"so2":1.8,"mosquito_risk":6,"arthritis_risk":0,"migraine_risk":0,"frizz_risk":1,"updated_at":"2026-06-02T05:45:58.747461+05:30"},{"city":"Patna","state":"Bihar","latitude":25.5941,"longitude":85.1376,"temp":28.7,"humidity":71,"rain":0.0,"pressure":999.9,"uv_index":8.85,"wind_gusts":19.1,"aqi":165,"pm10":149.9,"pm2_5":136.0,"no2":68.4,"co":751.0,"o3":28.0,"so2":24.8,"mosquito_risk":7,"arthritis_risk":5,"migraine_risk":7,"frizz_risk":1,"updated_at":"2026-06-02T05:45:58.747469+05:30"},{"city":"Gaya","state":"Bihar","latitude":24.7914,"longitude":85.0002,"temp":26.5,"humidity":79,"rain":0.0,"pressure":993.4,"uv_index":8.7,"wind_gusts":20.9,"aqi":150,"pm10":77.1,"pm2_5":70.1,"no2":43.5,"co":481.0,"o3":20.0,"so2":11.9,"mosquito_risk":7,"arthritis_risk":5,"migraine_risk":7,"frizz_risk":1,"updated_at":"2026-06-02T05:45:58.747478+05:30"},{"city":"Muzaffarpur","state":"Bihar","latitude":26.1209,"longitude":85.3647,"temp":26.8,"humidity":78,"rain":0.0,"pressure":1000.0,"uv_index":8.85,"wind_gusts":20.9,"aqi":169,"pm10":155.5,"pm2_5":141.1,"no2":62.8,"co":892.0,"o3":24.0,"so2":21.7,"mosquito_risk":7,"arthritis_risk":5,"migraine_risk":4,"frizz_risk":1,"updated_at":"2026-06-02T05:45:58.747487+05:30"},{"city":"Bhagalpur","state":"Bihar","latitude":25.2425,"longitude":87.0117,"temp":28.1,"humidity":80,"rain":0.0,"pressure":1000.6,"uv_index":8.85,"wind_gusts":17.6,"aqi":147,"pm10":55.6,"pm2_5":52.4,"no2":21.5,"co":563.0,"o3":61.0,"so2":17.3,"mosquito_risk":7,"arthritis_risk":5,"migraine_risk":4,"frizz_risk":1,"updated_at":"2026-06-02T05:45:58.747495+05:30"},{"city":"Ranchi","state":"Jharkhand","latitude":23.3441,"longitude":85.3096,"temp":24.1,"humidity":75,"rain":0.0,"pressure":937.4,"uv_index":9.25,"wind_gusts":24.1,"aqi":152,"pm10":124.8,"pm2_5":104.5,"no2":44.2,"co":450.0,"o3":60.0,"so2":10.5,"mosquito_risk":3,"arthritis_risk":5,"migraine_risk":7,"frizz_risk":1,"updated_at":"2026-06-02T05:45:58.747503+05:30"},{"city":"Jamshedpur","state":"Jharkhand","latitude":22.8046,"longitude":86.2029,"temp":26.8,"humidity":86,"rain":0.0,"pressure":990.5,"uv_index":9.05,"wind_gusts":34.6,"aqi":147,"pm10":73.3,"pm2_5":68.9,"no2":38.9,"co":758.0,"o3":25.0,"so2":18.1,"mosquito_risk":7,"arthritis_risk":5,"migraine_risk":7,"frizz_risk":1,"updated_at":"2026-06-02T05:45:58.747512+05:30"},{"city":"Dhanbad","state":"Jharkhand","latitude":23.7957,"longitude":86.4304,"temp":26.4,"humidity":84,"rain":0.0,"pressure":979.5,"uv_index":9.0,"wind_gusts":23.0,"aqi":174,"pm10":143.4,"pm2_5":138.3,"no2":57.7,"co":559.0,"o3":17.0,"so2":223.9,"mosquito_risk":7,"arthritis_risk":5,"migraine_risk":7,"frizz_risk":1,"updated_at":"2026-06-02T05:45:58.747521+05:30"},{"city":"Bokaro","state":"Jharkhand","latitude":23.6693,"longitude":86.1511,"temp":26.0,"humidity":88,"rain":0.0,"pressure":983.4,"uv_index":9.05,"wind_gusts":22.3,"aqi":176,"pm10":174.6,"pm2_5":168.1,"no2":43.3,"co":694.0,"o3":75.0,"so2":216.4,"mosquito_risk":7,"arthritis_risk":5,"migraine_risk":7,"frizz_risk":1,"updated_at":"2026-06-02T05:45:58.747531+05:30"},{"city":"Bhubaneswar","state":"Odisha","latitude":20.2961,"longitude":85.8245,"temp":28.3,"humidity":95,"rain":0.0,"pressure":1001.8,"uv_index":9.0,"wind_gusts":23.8,"aqi":106,"pm10":38.9,"pm2_5":35.5,"no2":10.0,"co":311.0,"o3":114.0,"so2":7.3,"mosquito_risk":7,"arthritis_risk":5,"migraine_risk":4,"frizz_risk":1,"updated_at":"2026-06-02T05:45:58.747539+05:30"},{"city":"Cuttack","state":"Odisha","latitude":20.4625,"longitude":85.8828,"temp":28.5,"humidity":95,"rain":0.0,"pressure":1003.7,"uv_index":9.05,"wind_gusts":34.6,"aqi":106,"pm10":38.9,"pm2_5":35.5,"no2":10.0,"co":316.0,"o3":114.0,"so2":7.3,"mosquito_risk":7,"arthritis_risk":5,"migraine_risk":4,"frizz_risk":1,"updated_at":"2026-06-02T05:45:58.747548+05:30"},{"city":"Rourkela","state":"Odisha","latitude":22.2604,"longitude":84.8536,"temp":27.2,"humidity":78,"rain":0.0,"pressure":984.7,"uv_index":9.0,"wind_gusts":28.4,"aqi":156,"pm10":117.6,"pm2_5":101.7,"no2":46.1,"co":500.0,"o3":36.0,"so2":27.0,"mosquito_risk":7,"arthritis_risk":5,"migraine_risk":7,"frizz_risk":1,"updated_at":"2026-06-02T05:45:58.747556+05:30"},{"city":"Raipur","state":"Chhattisgarh","latitude":21.2514,"longitude":81.6296,"temp":29.1,"humidity":56,"rain":0.0,"pressure":973.9,"uv_index":8.95,"wind_gusts":30.2,"aqi":153,"pm10":87.3,"pm2_5":63.6,"no2":46.0,"co":464.0,"o3":30.0,"so2":49.3,"mosquito_risk":4,"arthritis_risk":5,"migraine_risk":7,"frizz_risk":1,"updated_at":"2026-06-02T05:45:58.747563+05:30"},{"city":"Bhilai","state":"Chhattisgarh","latitude":21.1938,"longitude":81.3509,"temp":26.8,"humidity":79,"rain":0.1,"pressure":974.3,"uv_index":8.95,"wind_gusts":27.0,"aqi":155,"pm10":88.5,"pm2_5":63.6,"no2":47.9,"co":790.0,"o3":37.0,"so2":56.7,"mosquito_risk":10,"arthritis_risk":5,"migraine_risk":7,"frizz_risk":1,"updated_at":"2026-06-02T05:45:58.747570+05:30"},{"city":"Guwahati","state":"Assam","latitude":26.1158,"longitude":91.7086,"temp":28.0,"humidity":76,"rain":0.0,"pressure":1001.0,"uv_index":8.7,"wind_gusts":30.6,"aqi":86,"pm10":42.7,"pm2_5":38.8,"no2":16.4,"co":378.0,"o3":22.0,"so2":1.2,"mosquito_risk":7,"arthritis_risk":5,"migraine_risk":4,"frizz_risk":1,"updated_at":"2026-06-02T05:45:58.747577+05:30"},{"city":"Agartala","state":"Tripura","latitude":23.8315,"longitude":91.2868,"temp":26.9,"humidity":91,"rain":0.0,"pressure":1006.2,"uv_index":8.75,"wind_gusts":19.8,"aqi":117,"pm10":39.6,"pm2_5":33.8,"no2":16.9,"co":260.0,"o3":19.0,"so2":3.0,"mosquito_risk":7,"arthritis_risk":5,"migraine_risk":4,"frizz_risk":1,"updated_at":"2026-06-02T05:45:58.747584+05:30"},{"city":"Shillong","state":"Meghalaya","latitude":25.5788,"longitude":91.8933,"temp":18.7,"humidity":92,"rain":0.0,"pressure":857.8,"uv_index":7.9,"wind_gusts":22.7,"aqi":55,"pm10":22.9,"pm2_5":18.1,"no2":5.4,"co":355.0,"o3":72.0,"so2":2.2,"mosquito_risk":3,"arthritis_risk":10,"migraine_risk":7,"frizz_risk":1,"updated_at":"2026-06-02T05:45:58.747591+05:30"},{"city":"Imphal","state":"Manipur","latitude":24.817,"longitude":93.9368,"temp":22.5,"humidity":94,"rain":0.0,"pressure":923.6,"uv_index":9.15,"wind_gusts":29.5,"aqi":63,"pm10":17.1,"pm2_5":15.6,"no2":6.3,"co":330.0,"o3":55.0,"so2":2.5,"mosquito_risk":3,"arthritis_risk":5,"migraine_risk":7,"frizz_risk":1,"updated_at":"2026-06-02T05:45:58.747598+05:30"},{"city":"Aizawl","state":"Mizoram","latitude":23.7271,"longitude":92.7176,"temp":19.2,"humidity":97,"rain":0.0,"pressure":892.8,"uv_index":8.2,"wind_gusts":20.5,"aqi":52,"pm10":13.4,"pm2_5":9.1,"no2":3.9,"co":225.0,"o3":71.0,"so2":2.5,"mosquito_risk":3,"arthritis_risk":10,"migraine_risk":7,"frizz_risk":1,"updated_at":"2026-06-02T05:45:58.747605+05:30"},{"city":"Kohima","state":"Nagaland","latitude":25.6701,"longitude":94.1077,"temp":20.0,"humidity":96,"rain":0.0,"pressure":856.4,"uv_index":8.1,"wind_gusts":31.7,"aqi":29,"pm10":7.5,"pm2_5":6.2,"no2":3.5,"co":208.0,"o3":66.0,"so2":0.9,"mosquito_risk":3,"arthritis_risk":5,"migraine_risk":7,"frizz_risk":1,"updated_at":"2026-06-02T05:45:58.747612+05:30"},{"city":"Gangtok","state":"Sikkim","latitude":27.3314,"longitude":88.6138,"temp":14.0,"humidity":95,"rain":0.1,"pressure":836.9,"uv_index":8.5,"wind_gusts":39.6,"aqi":64,"pm10":15.9,"pm2_5":12.6,"no2":6.4,"co":304.0,"o3":57.0,"so2":0.8,"mosquito_risk":6,"arthritis_risk":10,"migraine_risk":7,"frizz_risk":0,"updated_at":"2026-06-02T05:45:58.747619+05:30"},{"city":"Siliguri","state":"West Bengal","latitude":26.7271,"longitude":88.3953,"temp":27.5,"humidity":77,"rain":0.0,"pressure":992.6,"uv_index":8.7,"wind_gusts":29.2,"aqi":128,"pm10":44.7,"pm2_5":41.1,"no2":19.8,"co":869.0,"o3":42.0,"so2":2.6,"mosquito_risk":7,"arthritis_risk":5,"migraine_risk":7,"frizz_risk":1,"updated_at":"2026-06-02T05:46:02.126210+05:30"},{"city":"Durgapur","state":"West Bengal","latitude":23.5204,"longitude":87.3119,"temp":27.1,"humidity":92,"rain":0.0,"pressure":994.6,"uv_index":8.95,"wind_gusts":23.4,"aqi":158,"pm10":66.6,"pm2_5":62.9,"no2":38.3,"co":1081.0,"o3":31.0,"so2":49.5,"mosquito_risk":7,"arthritis_risk":5,"migraine_risk":7,"frizz_risk":1,"updated_at":"2026-06-02T05:46:02.126242+05:30"},{"city":"Asansol","state":"West Bengal","latitude":23.6739,"longitude":86.9524,"temp":26.9,"humidity":88,"rain":0.0,"pressure":993.2,"uv_index":8.95,"wind_gusts":27.0,"aqi":158,"pm10":61.0,"pm2_5":57.6,"no2":38.3,"co":1833.0,"o3":27.0,"so2":42.8,"mosquito_risk":7,"arthritis_risk":5,"migraine_risk":7,"frizz_risk":1,"updated_at":"2026-06-02T05:46:02.126253+05:30"},{"city":"Pondicherry","state":"Puducherry","latitude":11.9139,"longitude":79.8145,"temp":27.8,"humidity":82,"rain":0.0,"pressure":1007.9,"uv_index":8.85,"wind_gusts":42.1,"aqi":69,"pm10":9.0,"pm2_5":7.2,"no2":11.2,"co":240.0,"o3":36.0,"so2":9.9,"mosquito_risk":7,"arthritis_risk":5,"migraine_risk":4,"frizz_risk":1,"updated_at":"2026-06-02T05:46:02.126262+05:30"},{"city":"Port Blair","state":"Andaman and Nicobar Islands","latitude":11.6234,"longitude":92.7265,"temp":25.0,"humidity":97,"rain":0.1,"pressure":1007.5,"uv_index":2.7,"wind_gusts":34.6,"aqi":33,"pm10":9.6,"pm2_5":5.4,"no2":0.3,"co":119.0,"o3":70.0,"so2":0.4,"mosquito_risk":10,"arthritis_risk":5,"migraine_risk":0,"frizz_risk":1,"updated_at":"2026-06-02T05:46:02.126271+05:30"},{"city":"Haridwar","state":"Uttarakhand","latitude":29.9457,"longitude":78.1642,"temp":22.6,"humidity":75,"rain":0.0,"pressure":974.0,"uv_index":7.6,"wind_gusts":24.8,"aqi":92,"pm10":69.4,"pm2_5":50.9,"no2":34.1,"co":300.0,"o3":62.0,"so2":9.2,"mosquito_risk":3,"arthritis_risk":5,"migraine_risk":7,"frizz_risk":1,"updated_at":"2026-06-02T05:46:02.126279+05:30"},{"city":"Rishikesh","state":"Uttarakhand","latitude":30.0869,"longitude":78.2676,"temp":20.4,"humidity":83,"rain":0.0,"pressure":966.6,"uv_index":7.7,"wind_gusts":28.1,"aqi":73,"pm10":44.9,"pm2_5":27.8,"no2":11.1,"co":383.0,"o3":110.0,"so2":5.7,"mosquito_risk":3,"arthritis_risk":5,"migraine_risk":7,"frizz_risk":1,"updated_at":"2026-06-02T05:46:02.126287+05:30"},{"city":"Nainital","state":"Uttarakhand","latitude":29.3919,"longitude":79.4542,"temp":11.5,"humidity":85,"rain":0.0,"pressure":804.2,"uv_index":6.85,"wind_gusts":30.2,"aqi":65,"pm10":36.6,"pm2_5":26.6,"no2":24.9,"co":267.0,"o3":38.0,"so2":2.1,"mosquito_risk":3,"arthritis_risk":10,"migraine_risk":7,"frizz_risk":0,"updated_at":"2026-06-02T05:46:02.126295+05:30"},{"city":"Mussoorie","state":"Uttarakhand","latitude":30.4599,"longitude":78.0664,"temp":15.0,"humidity":70,"rain":0.0,"pressure":802.9,"uv_index":7.95,"wind_gusts":33.1,"aqi":70,"pm10":48.2,"pm2_5":35.5,"no2":42.3,"co":255.0,"o3":24.0,"so2":5.8,"mosquito_risk":3,"arthritis_risk":5,"migraine_risk":7,"frizz_risk":0,"updated_at":"2026-06-02T05:46:02.126302+05:30"},{"city":"Dharamshala","state":"Himachal Pradesh","latitude":32.219,"longitude":76.3234,"temp":20.0,"humidity":63,"rain":0.0,"pressure":869.6,"uv_index":8.55,"wind_gusts":37.4,"aqi":50,"pm10":19.0,"pm2_5":10.7,"no2":10.3,"co":230.0,"o3":53.0,"so2":0.0,"mosquito_risk":3,"arthritis_risk":5,"migraine_risk":7,"frizz_risk":0,"updated_at":"2026-06-02T05:46:02.126310+05:30"},{"city":"Dalhousie","state":"Himachal Pradesh","latitude":32.5387,"longitude":75.971,"temp":10.9,"humidity":88,"rain":0.0,"pressure":802.2,"uv_index":8.75,"wind_gusts":31.3,"aqi":71,"pm10":37.4,"pm2_5":30.7,"no2":24.5,"co":240.0,"o3":18.0,"so2":0.2,"mosquito_risk":3,"arthritis_risk":10,"migraine_risk":7,"frizz_risk":0,"updated_at":"2026-06-02T05:46:02.126318+05:30"},{"city":"Patiala","state":"Punjab","latitude":30.3398,"longitude":76.3869,"temp":24.4,"humidity":73,"rain":0.0,"pressure":978.2,"uv_index":7.7,"wind_gusts":19.8,"aqi":211,"pm10":96.2,"pm2_5":48.9,"no2":14.1,"co":653.0,"o3":64.0,"so2":8.4,"mosquito_risk":3,"arthritis_risk":5,"migraine_risk":7,"frizz_risk":1,"updated_at":"2026-06-02T05:46:02.126325+05:30"},{"city":"Bhatinda","state":"Punjab","latitude":30.211,"longitude":74.9455,"temp":26.4,"humidity":53,"rain":0.0,"pressure":983.3,"uv_index":8.3,"wind_gusts":26.3,"aqi":412,"pm10":590.5,"pm2_5":172.8,"no2":11.8,"co":346.0,"o3":81.0,"so2":11.7,"mosquito_risk":4,"arthritis_risk":5,"migraine_risk":7,"frizz_risk":1,"updated_at":"2026-06-02T05:46:02.126333+05:30"},{"city":"Rohtak","state":"Haryana","latitude":28.8955,"longitude":76.6066,"temp":25.1,"humidity":73,"rain":0.0,"pressure":981.4,"uv_index":7.8,"wind_gusts":25.2,"aqi":210,"pm10":172.3,"pm2_5":63.8,"no2":32.4,"co":479.0,"o3":43.0,"so2":20.2,"mosquito_risk":7,"arthritis_risk":5,"migraine_risk":7,"frizz_risk":1,"updated_at":"2026-06-02T05:46:02.126341+05:30"},{"city":"Panipat","state":"Haryana","latitude":29.3909,"longitude":76.9635,"temp":24.5,"humidity":78,"rain":0.0,"pressure":980.3,"uv_index":7.65,"wind_gusts":26.6,"aqi":639,"pm10":183.5,"pm2_5":62.6,"no2":22.9,"co":489.0,"o3":54.0,"so2":10.1,"mosquito_risk":3,"arthritis_risk":5,"migraine_risk":7,"frizz_risk":1,"updated_at":"2026-06-02T05:46:02.126348+05:30"},{"city":"Mathura","state":"Uttar Pradesh","latitude":27.4924,"longitude":77.6737,"temp":25.5,"humidity":75,"rain":0.1,"pressure":986.3,"uv_index":8.05,"wind_gusts":27.0,"aqi":192,"pm10":224.0,"pm2_5":71.7,"no2":18.2,"co":442.0,"o3":55.0,"so2":6.8,"mosquito_risk":10,"arthritis_risk":5,"migraine_risk":7,"frizz_risk":1,"updated_at":"2026-06-02T05:46:02.126355+05:30"},{"city":"Vrindavan","state":"Uttar Pradesh","latitude":27.5823,"longitude":77.7027,"temp":25.7,"humidity":74,"rain":0.0,"pressure":986.7,"uv_index":7.95,"wind_gusts":26.3,"aqi":192,"pm10":224.0,"pm2_5":71.7,"no2":18.2,"co":434.0,"o3":55.0,"so2":6.8,"mosquito_risk":7,"arthritis_risk":5,"migraine_risk":7,"frizz_risk":1,"updated_at":"2026-06-02T05:46:02.126362+05:30"},{"city":"Ayodhya","state":"Uttar Pradesh","latitude":26.7922,"longitude":82.1998,"temp":25.8,"humidity":79,"rain":0.0,"pressure":995.0,"uv_index":8.4,"wind_gusts":43.2,"aqi":153,"pm10":129.9,"pm2_5":109.4,"no2":67.2,"co":510.0,"o3":15.0,"so2":14.3,"mosquito_risk":7,"arthritis_risk":5,"migraine_risk":7,"frizz_risk":1,"updated_at":"2026-06-02T05:46:02.126369+05:30"},{"city":"Ratlam","state":"Madhya Pradesh","latitude":23.3315,"longitude":75.0367,"temp":24.1,"humidity":77,"rain":0.0,"pressure":954.3,"uv_index":8.5,"wind_gusts":33.1,"aqi":78,"pm10":45.1,"pm2_5":28.0,"no2":7.9,"co":202.0,"o3":46.0,"so2":10.7,"mosquito_risk":3,"arthritis_risk":5,"migraine_risk":7,"frizz_risk":1,"updated_at":"2026-06-02T05:46:02.126376+05:30"},{"city":"Sagar","state":"Madhya Pradesh","latitude":23.8388,"longitude":78.7378,"temp":25.1,"humidity":63,"rain":0.0,"pressure":949.7,"uv_index":8.7,"wind_gusts":26.6,"aqi":69,"pm10":28.1,"pm2_5":18.2,"no2":9.6,"co":204.0,"o3":62.0,"so2":1.8,"mosquito_risk":7,"arthritis_risk":5,"migraine_risk":7,"frizz_risk":1,"updated_at":"2026-06-02T05:46:02.126383+05:30"},{"city":"Satna","state":"Madhya Pradesh","latitude":24.6005,"longitude":80.8322,"temp":26.8,"humidity":70,"rain":0.0,"pressure":970.7,"uv_index":8.8,"wind_gusts":49.3,"aqi":109,"pm10":52.3,"pm2_5":42.4,"no2":16.3,"co":356.0,"o3":60.0,"so2":6.7,"mosquito_risk":7,"arthritis_risk":5,"migraine_risk":7,"frizz_risk":1,"updated_at":"2026-06-02T05:46:02.126389+05:30"},{"city":"Akola","state":"Maharashtra","latitude":20.7002,"longitude":77.0082,"temp":26.9,"humidity":70,"rain":0.0,"pressure":974.7,"uv_index":8.8,"wind_gusts":40.0,"aqi":70,"pm10":43.4,"pm2_5":21.7,"no2":8.9,"co":178.0,"o3":72.0,"so2":3.6,"mosquito_risk":7,"arthritis_risk":5,"migraine_risk":7,"frizz_risk":1,"updated_at":"2026-06-02T05:46:02.126397+05:30"},{"city":"Amravati","state":"Maharashtra","latitude":20.9374,"longitude":77.7796,"temp":27.4,"humidity":58,"rain":0.0,"pressure":966.8,"uv_index":8.8,"wind_gusts":30.6,"aqi":72,"pm10":40.0,"pm2_5":20.4,"no2":9.5,"co":194.0,"o3":74.0,"so2":3.9,"mosquito_risk":4,"arthritis_risk":5,"migraine_risk":7,"frizz_risk":1,"updated_at":"2026-06-02T05:46:02.126405+05:30"},{"city":"Latur","state":"Maharashtra","latitude":18.4088,"longitude":76.5604,"temp":26.8,"humidity":62,"rain":0.0,"pressure":939.9,"uv_index":8.95,"wind_gusts":72.0,"aqi":74,"pm10":46.0,"pm2_5":27.4,"no2":20.1,"co":184.0,"o3":36.0,"so2":4.7,"mosquito_risk":7,"arthritis_risk":5,"migraine_risk":7,"frizz_risk":1,"updated_at":"2026-06-02T05:46:02.126412+05:30"},{"city":"Nanded","state":"Maharashtra","latitude":19.1383,"longitude":77.3091,"temp":28.5,"humidity":60,"rain":0.0,"pressure":968.5,"uv_index":8.9,"wind_gusts":49.3,"aqi":81,"pm10":45.6,"pm2_5":26.7,"no2":11.6,"co":192.0,"o3":61.0,"so2":3.7,"mosquito_risk":4,"arthritis_risk":5,"migraine_risk":7,"frizz_risk":1,"updated_at":"2026-06-02T05:46:02.126418+05:30"},{"city":"Gulbarga","state":"Karnataka","latitude":17.3297,"longitude":76.8343,"temp":28.2,"humidity":65,"rain":0.0,"pressure":958.5,"uv_index":8.75,"wind_gusts":42.1,"aqi":72,"pm10":39.5,"pm2_5":24.3,"no2":12.8,"co":196.0,"o3":63.0,"so2":4.7,"mosquito_risk":7,"arthritis_risk":5,"migraine_risk":7,"frizz_risk":1,"updated_at":"2026-06-02T05:46:02.126425+05:30"},{"city":"Bidar","state":"Karnataka","latitude":17.9104,"longitude":77.5199,"temp":26.9,"humidity":62,"rain":0.0,"pressure":935.0,"uv_index":8.35,"wind_gusts":38.9,"aqi":77,"pm10":46.2,"pm2_5":31.0,"no2":16.3,"co":195.0,"o3":55.0,"so2":3.4,"mosquito_risk":7,"arthritis_risk":5,"migraine_risk":7,"frizz_risk":1,"updated_at":"2026-06-02T05:46:02.126432+05:30"},{"city":"Hospet","state":"Karnataka","latitude":15.2689,"longitude":76.3909,"temp":25.0,"humidity":88,"rain":0.0,"pressure":956.6,"uv_index":9.0,"wind_gusts":43.6,"aqi":53,"pm10":9.4,"pm2_5":7.1,"no2":6.2,"co":183.0,"o3":45.0,"so2":1.6,"mosquito_risk":7,"arthritis_risk":5,"migraine_risk":7,"frizz_risk":1,"updated_at":"2026-06-02T05:46:02.126439+05:30"},{"city":"Tirupur","state":"Tamil Nadu","latitude":11.1085,"longitude":77.3411,"temp":25.6,"humidity":84,"rain":0.0,"pressure":975.2,"uv_index":9.0,"wind_gusts":53.3,"aqi":60,"pm10":22.1,"pm2_5":20.5,"no2":19.0,"co":160.0,"o3":34.0,"so2":5.5,"mosquito_risk":7,"arthritis_risk":5,"migraine_risk":7,"frizz_risk":1,"updated_at":"2026-06-02T05:46:02.126445+05:30"},{"city":"Alappuzha","state":"Kerala","latitude":9.4981,"longitude":76.3388,"temp":25.4,"humidity":99,"rain":0.0,"pressure":1009.4,"uv_index":8.35,"wind_gusts":33.8,"aqi":40,"pm10":11.9,"pm2_5":9.5,"no2":7.9,"co":302.0,"o3":42.0,"so2":3.2,"mosquito_risk":7,"arthritis_risk":0,"migraine_risk":4,"frizz_risk":1,"updated_at":"2026-06-02T05:46:02.126452+05:30"},{"city":"Munnar","state":"Kerala","latitude":10.0889,"longitude":77.0595,"temp":17.2,"humidity":100,"rain":0.0,"pressure":857.0,"uv_index":9.15,"wind_gusts":27.4,"aqi":54,"pm10":12.0,"pm2_5":10.3,"no2":8.2,"co":183.0,"o3":33.0,"so2":1.4,"mosquito_risk":3,"arthritis_risk":10,"migraine_risk":7,"frizz_risk":1,"updated_at":"2026-06-02T05:46:02.126459+05:30"},{"city":"Silchar","state":"Assam","latitude":24.8333,"longitude":92.7789,"temp":25.2,"humidity":97,"rain":0.1,"pressure":1005.8,"uv_index":8.75,"wind_gusts":20.2,"aqi":88,"pm10":39.7,"pm2_5":35.0,"no2":11.3,"co":315.0,"o3":84.0,"so2":7.1,"mosquito_risk":10,"arthritis_risk":5,"migraine_risk":4,"frizz_risk":1,"updated_at":"2026-06-02T05:46:02.126466+05:30"},{"city":"Dibrugarh","state":"Assam","latitude":27.4728,"longitude":94.912,"temp":25.0,"humidity":96,"rain":0.1,"pressure":995.8,"uv_index":8.45,"wind_gusts":23.0,"aqi":69,"pm10":20.8,"pm2_5":19.6,"no2":12.2,"co":235.0,"o3":44.0,"so2":1.8,"mosquito_risk":10,"arthritis_risk":5,"migraine_risk":7,"frizz_risk":1,"updated_at":"2026-06-02T05:46:02.126473+05:30"}]