[{"city":"Delhi","state":"Delhi","latitude":28.6139,"longitude":77.209,"temp":37.2,"humidity":39,"rain":0.0,"pressure":978.6,"uv_index":7.65,"wind_gusts":34.6,"aqi":314,"pm10":836.3,"pm2_5":150.4,"no2":3.9,"co":228.0,"o3":158.0,"so2":12.9,"mosquito_risk":0,"arthritis_risk":5,"migraine_risk":10,"frizz_risk":1,"updated_at":"2026-07-16T12:53:07.656325+05:30"},{"city":"Mumbai","state":"Maharashtra","latitude":19.076,"longitude":72.8777,"temp":28.7,"humidity":74,"rain":0.0,"pressure":1008.1,"uv_index":6.9,"wind_gusts":32.0,"aqi":68,"pm10":34.7,"pm2_5":18.7,"no2":6.4,"co":176.0,"o3":82.0,"so2":11.7,"mosquito_risk":7,"arthritis_risk":0,"migraine_risk":4,"frizz_risk":1,"updated_at":"2026-07-16T12:53:07.656366+05:30"},{"city":"Bangalore","state":"Karnataka","latitude":12.9716,"longitude":77.5946,"temp":30.5,"humidity":35,"rain":0.0,"pressure":912.8,"uv_index":9.05,"wind_gusts":39.6,"aqi":57,"pm10":38.8,"pm2_5":17.8,"no2":2.7,"co":207.0,"o3":89.0,"so2":3.0,"mosquito_risk":0,"arthritis_risk":5,"migraine_risk":7,"frizz_risk":0,"updated_at":"2026-07-16T12:53:07.656381+05:30"},{"city":"Hyderabad","state":"Telangana","latitude":17.385,"longitude":78.4867,"temp":32.9,"humidity":45,"rain":0.0,"pressure":952.4,"uv_index":8.6,"wind_gusts":47.9,"aqi":64,"pm10":35.5,"pm2_5":15.3,"no2":1.3,"co":188.0,"o3":95.0,"so2":3.1,"mosquito_risk":0,"arthritis_risk":5,"migraine_risk":7,"frizz_risk":1,"updated_at":"2026-07-16T12:53:07.656391+05:30"},{"city":"Chennai","state":"Tamil Nadu","latitude":13.0827,"longitude":80.2707,"temp":37.6,"humidity":31,"rain":0.0,"pressure":1005.3,"uv_index":8.4,"wind_gusts":42.8,"aqi":79,"pm10":45.3,"pm2_5":28.1,"no2":6.0,"co":185.0,"o3":140.0,"so2":10.6,"mosquito_risk":0,"arthritis_risk":5,"migraine_risk":7,"frizz_risk":1,"updated_at":"2026-07-16T12:53:07.656399+05:30"},{"city":"Kolkata","state":"West Bengal","latitude":22.5726,"longitude":88.3639,"temp":32.0,"humidity":73,"rain":0.1,"pressure":997.6,"uv_index":7.6,"wind_gusts":35.3,"aqi":65,"pm10":13.9,"pm2_5":11.4,"no2":3.0,"co":243.0,"o3":111.0,"so2":7.0,"mosquito_risk":6,"arthritis_risk":5,"migraine_risk":7,"frizz_risk":1,"updated_at":"2026-07-16T12:53:07.656407+05:30"},{"city":"Pune","state":"Maharashtra","latitude":18.5204,"longitude":73.8567,"temp":28.8,"humidity":62,"rain":0.1,"pressure":947.5,"uv_index":7.95,"wind_gusts":46.1,"aqi":50,"pm10":13.6,"pm2_5":6.5,"no2":2.1,"co":141.0,"o3":69.0,"so2":4.2,"mosquito_risk":10,"arthritis_risk":5,"migraine_risk":7,"frizz_risk":1,"updated_at":"2026-07-16T12:53:07.656414+05:30"},{"city":"Ahmedabad","state":"Gujarat","latitude":23.0225,"longitude":72.5714,"temp":34.9,"humidity":43,"rain":0.2,"pressure":999.7,"uv_index":7.0,"wind_gusts":36.0,"aqi":81,"pm10":50.8,"pm2_5":21.1,"no2":2.0,"co":136.0,"o3":83.0,"so2":4.6,"mosquito_risk":3,"arthritis_risk":5,"migraine_risk":7,"frizz_risk":1,"updated_at":"2026-07-16T12:53:07.656422+05:30"},{"city":"Jaipur","state":"Rajasthan","latitude":26.9124,"longitude":75.7873,"temp":35.6,"humidity":41,"rain":0.0,"pressure":957.4,"uv_index":8.2,"wind_gusts":40.0,"aqi":195,"pm10":527.1,"pm2_5":88.7,"no2":1.3,"co":145.0,"o3":103.0,"so2":3.3,"mosquito_risk":0,"arthritis_risk":5,"migraine_risk":10,"frizz_risk":1,"updated_at":"2026-07-16T12:53:07.656428+05:30"},{"city":"Lucknow","state":"Uttar Pradesh","latitude":26.8467,"longitude":80.9462,"temp":32.9,"humidity":71,"rain":0.0,"pressure":988.4,"uv_index":6.5,"wind_gusts":29.9,"aqi":166,"pm10":245.9,"pm2_5":93.8,"no2":3.0,"co":304.0,"o3":178.0,"so2":12.5,"mosquito_risk":3,"arthritis_risk":5,"migraine_risk":7,"frizz_risk":1,"updated_at":"2026-07-16T12:53:07.656439+05:30"},{"city":"Kanpur","state":"Uttar Pradesh","latitude":26.4499,"longitude":80.3319,"temp":35.3,"humidity":55,"rain":0.0,"pressure":986.7,"uv_index":7.5,"wind_gusts":33.1,"aqi":163,"pm10":291.5,"pm2_5":93.1,"no2":2.2,"co":167.0,"o3":169.0,"so2":10.4,"mosquito_risk":0,"arthritis_risk":5,"migraine_risk":10,"frizz_risk":1,"updated_at":"2026-07-16T12:53:07.656447+05:30"},{"city":"Chandigarh","state":"Chandigarh","latitude":30.7333,"longitude":76.7794,"temp":34.5,"humidity":52,"rain":0.0,"pressure":964.3,"uv_index":7.7,"wind_gusts":32.4,"aqi":158,"pm10":108.3,"pm2_5":58.0,"no2":2.0,"co":369.0,"o3":200.0,"so2":13.9,"mosquito_risk":0,"arthritis_risk":5,"migraine_risk":7,"frizz_risk":1,"updated_at":"2026-07-16T12:53:07.656454+05:30"},{"city":"Srinagar","state":"Jammu and Kashmir","latitude":34.0837,"longitude":74.7973,"temp":30.3,"humidity":42,"rain":0.0,"pressure":841.4,"uv_index":9.0,"wind_gusts":18.0,"aqi":92,"pm10":27.2,"pm2_5":17.3,"no2":1.2,"co":356.0,"o3":177.0,"so2":4.1,"mosquito_risk":0,"arthritis_risk":5,"migraine_risk":7,"frizz_risk":0,"updated_at":"2026-07-16T12:53:07.656460+05:30"},{"city":"Jammu","state":"Jammu and Kashmir","latitude":32.7266,"longitude":74.857,"temp":34.3,"humidity":52,"rain":0.0,"pressure":968.2,"uv_index":8.55,"wind_gusts":21.2,"aqi":152,"pm10":55.9,"pm2_5":39.3,"no2":1.4,"co":404.0,"o3":188.0,"so2":5.6,"mosquito_risk":0,"arthritis_risk":5,"migraine_risk":7,"frizz_risk":1,"updated_at":"2026-07-16T12:53:07.656467+05:30"},{"city":"Amritsar","state":"Punjab","latitude":31.634,"longitude":74.8723,"temp":34.5,"humidity":54,"rain":0.0,"pressure":976.2,"uv_index":7.65,"wind_gusts":20.9,"aqi":174,"pm10":78.7,"pm2_5":52.3,"no2":1.9,"co":384.0,"o3":205.0,"so2":12.0,"mosquito_risk":0,"arthritis_risk":5,"migraine_risk":7,"frizz_risk":1,"updated_at":"2026-07-16T12:53:07.656473+05:30"},{"city":"Ludhiana","state":"Punjab","latitude":30.901,"longitude":75.8573,"temp":35.6,"humidity":49,"rain":0.0,"pressure":974.1,"uv_index":7.95,"wind_gusts":29.9,"aqi":177,"pm10":125.3,"pm2_5":64.0,"no2":0.8,"co":320.0,"o3":171.0,"so2":6.0,"mosquito_risk":0,"arthritis_risk":5,"migraine_risk":10,"frizz_risk":1,"updated_at":"2026-07-16T12:53:07.656479+05:30"},{"city":"Jalandhar","state":"Punjab","latitude":31.326,"longitude":75.5762,"temp":34.5,"humidity":55,"rain":0.0,"pressure":975.1,"uv_index":8.2,"wind_gusts":23.0,"aqi":188,"pm10":99.2,"pm2_5":58.2,"no2":0.1,"co":394.0,"o3":197.0,"so2":8.2,"mosquito_risk":0,"arthritis_risk":5,"migraine_risk":7,"frizz_risk":1,"updated_at":"2026-07-16T12:53:07.656485+05:30"},{"city":"Dehradun","state":"Uttarakhand","latitude":30.6284,"longitude":78.0322,"temp":24.8,"humidity":72,"rain":0.0,"pressure":830.7,"uv_index":7.6,"wind_gusts":29.2,"aqi":76,"pm10":36.1,"pm2_5":22.1,"no2":0.8,"co":295.0,"o3":149.0,"so2":4.1,"mosquito_risk":3,"arthritis_risk":5,"migraine_risk":7,"frizz_risk":1,"updated_at":"2026-07-16T12:53:07.656494+05:30"},{"city":"Shimla","state":"Himachal Pradesh","latitude":31.1048,"longitude":77.1734,"temp":23.8,"humidity":54,"rain":0.0,"pressure":786.7,"uv_index":8.25,"wind_gusts":41.4,"aqi":102,"pm10":55.8,"pm2_5":31.5,"no2":0.9,"co":225.0,"o3":158.0,"so2":6.6,"mosquito_risk":0,"arthritis_risk":5,"migraine_risk":7,"frizz_risk":0,"updated_at":"2026-07-16T12:53:07.656500+05:30"},{"city":"Manali","state":"Himachal Pradesh","latitude":32.2396,"longitude":77.1887,"temp":27.5,"humidity":56,"rain":0.0,"pressure":820.4,"uv_index":9.6,"wind_gusts":33.5,"aqi":44,"pm10":12.0,"pm2_5":5.0,"no2":0.8,"co":160.0,"o3":148.0,"so2":1.0,"mosquito_risk":4,"arthritis_risk":5,"migraine_risk":7,"frizz_risk":1,"updated_at":"2026-07-16T12:53:07.656514+05:30"},{"city":"Gurgaon","state":"Haryana","latitude":28.4595,"longitude":77.0266,"temp":37.4,"humidity":38,"rain":0.0,"pressure":977.2,"uv_index":7.75,"wind_gusts":34.9,"aqi":353,"pm10":951.8,"pm2_5":168.1,"no2":3.8,"co":173.0,"o3":144.0,"so2":10.2,"mosquito_risk":0,"arthritis_risk":5,"migraine_risk":10,"frizz_risk":1,"updated_at":"2026-07-16T12:53:07.656521+05:30"},{"city":"Noida","state":"Uttar Pradesh","latitude":28.5355,"longitude":77.391,"temp":36.8,"humidity":43,"rain":0.0,"pressure":979.8,"uv_index":7.65,"wind_gusts":28.1,"aqi":353,"pm10":951.8,"pm2_5":168.1,"no2":3.8,"co":255.0,"o3":144.0,"so2":10.2,"mosquito_risk":0,"arthritis_risk":5,"migraine_risk":10,"frizz_risk":1,"updated_at":"2026-07-16T12:53:07.656527+05:30"},{"city":"Ghaziabad","state":"Uttar Pradesh","latitude":28.6692,"longitude":77.4538,"temp":36.3,"humidity":44,"rain":0.0,"pressure":978.1,"uv_index":7.65,"wind_gusts":33.5,"aqi":193,"pm10":458.2,"pm2_5":118.5,"no2":3.9,"co":232.0,"o3":189.0,"so2":19.2,"mosquito_risk":0,"arthritis_risk":5,"migraine_risk":10,"frizz_risk":1,"updated_at":"2026-07-16T12:53:07.656533+05:30"},{"city":"Faridabad","state":"Haryana","latitude":28.4089,"longitude":77.3178,"temp":37.2,"humidity":39,"rain":0.0,"pressure":979.2,"uv_index":7.7,"wind_gusts":35.3,"aqi":353,"pm10":951.8,"pm2_5":168.1,"no2":3.8,"co":205.0,"o3":144.0,"so2":10.2,"mosquito_risk":0,"arthritis_risk":5,"migraine_risk":10,"frizz_risk":1,"updated_at":"2026-07-16T12:53:07.656540+05:30"},{"city":"Meerut","state":"Uttar Pradesh","latitude":28.9845,"longitude":77.7064,"temp":35.1,"humidity":51,"rain":0.0,"pressure":976.9,"uv_index":7.6,"wind_gusts":38.9,"aqi":193,"pm10":458.2,"pm2_5":118.5,"no2":3.9,"co":227.0,"o3":189.0,"so2":19.2,"mosquito_risk":0,"arthritis_risk":5,"migraine_risk":10,"frizz_risk":1,"updated_at":"2026-07-16T12:53:07.656546+05:30"},{"city":"Agra","state":"Uttar Pradesh","latitude":27.1767,"longitude":78.0081,"temp":36.4,"humidity":44,"rain":0.0,"pressure":983.4,"uv_index":6.9,"wind_gusts":36.4,"aqi":151,"pm10":190.9,"pm2_5":51.0,"no2":2.0,"co":168.0,"o3":141.0,"so2":4.2,"mosquito_risk":0,"arthritis_risk":5,"migraine_risk":10,"frizz_risk":1,"updated_at":"2026-07-16T12:53:07.656552+05:30"},{"city":"Varanasi","state":"Uttar Pradesh","latitude":25.3176,"longitude":82.9739,"temp":34.4,"humidity":63,"rain":0.1,"pressure":991.8,"uv_index":7.55,"wind_gusts":28.8,"aqi":181,"pm10":139.2,"pm2_5":67.1,"no2":2.5,"co":416.0,"o3":173.0,"so2":10.5,"mosquito_risk":6,"arthritis_risk":5,"migraine_risk":7,"frizz_risk":1,"updated_at":"2026-07-16T12:53:07.656558+05:30"},{"city":"Prayagraj","state":"Uttar Pradesh","latitude":25.4358,"longitude":81.8463,"temp":33.8,"humidity":64,"rain":0.0,"pressure":990.7,"uv_index":6.75,"wind_gusts":33.8,"aqi":169,"pm10":132.2,"pm2_5":59.8,"no2":4.1,"co":244.0,"o3":148.0,"so2":10.4,"mosquito_risk":3,"arthritis_risk":5,"migraine_risk":7,"frizz_risk":1,"updated_at":"2026-07-16T12:53:07.656565+05:30"},{"city":"Gorakhpur","state":"Uttar Pradesh","latitude":26.7606,"longitude":83.3732,"temp":32.3,"humidity":71,"rain":0.0,"pressure":991.8,"uv_index":7.95,"wind_gusts":25.2,"aqi":154,"pm10":33.3,"pm2_5":26.8,"no2":2.9,"co":387.0,"o3":151.0,"so2":7.0,"mosquito_risk":3,"arthritis_risk":5,"migraine_risk":7,"frizz_risk":1,"updated_at":"2026-07-16T12:53:07.656572+05:30"},{"city":"Bareilly","state":"Uttar Pradesh","latitude":28.367,"longitude":79.4304,"temp":34.9,"humidity":59,"rain":0.0,"pressure":981.4,"uv_index":7.8,"wind_gusts":29.2,"aqi":178,"pm10":227.2,"pm2_5":87.8,"no2":1.8,"co":370.0,"o3":193.0,"so2":16.5,"mosquito_risk":0,"arthritis_risk":5,"migraine_risk":7,"frizz_risk":1,"updated_at":"2026-07-16T12:53:07.656580+05:30"},{"city":"Aligarh","state":"Uttar Pradesh","latitude":27.8974,"longitude":78.088,"temp":35.6,"humidity":51,"rain":0.0,"pressure":980.9,"uv_index":7.8,"wind_gusts":31.7,"aqi":172,"pm10":704.1,"pm2_5":139.7,"no2":2.6,"co":192.0,"o3":156.0,"so2":10.3,"mosquito_risk":0,"arthritis_risk":5,"migraine_risk":10,"frizz_risk":1,"updated_at":"2026-07-16T12:53:07.656586+05:30"},{"city":"Moradabad","state":"Uttar Pradesh","latitude":28.8386,"longitude":78.7733,"temp":34.7,"humidity":58,"rain":0.0,"pressure":978.4,"uv_index":7.8,"wind_gusts":36.0,"aqi":194,"pm10":284.1,"pm2_5":105.9,"no2":2.6,"co":442.0,"o3":207.0,"so2":17.4,"mosquito_risk":0,"arthritis_risk":5,"migraine_risk":7,"frizz_risk":1,"updated_at":"2026-07-16T12:53:07.656593+05:30"},{"city":"Saharanpur","state":"Uttar Pradesh","latitude":29.9637,"longitude":77.546,"temp":34.0,"humidity":58,"rain":0.0,"pressure":971.0,"uv_index":7.4,"wind_gusts":34.6,"aqi":169,"pm10":121.1,"pm2_5":67.8,"no2":3.1,"co":371.0,"o3":215.0,"so2":19.7,"mosquito_risk":0,"arthritis_risk":5,"migraine_risk":7,"frizz_risk":1,"updated_at":"2026-07-16T12:53:07.656598+05:30"},{"city":"Jhansi","state":"Uttar Pradesh","latitude":25.4484,"longitude":78.5685,"temp":34.8,"humidity":51,"rain":0.0,"pressure":974.5,"uv_index":6.15,"wind_gusts":38.5,"aqi":112,"pm10":73.1,"pm2_5":28.0,"no2":1.3,"co":135.0,"o3":114.0,"so2":4.3,"mosquito_risk":0,"arthritis_risk":5,"migraine_risk":7,"frizz_risk":1,"updated_at":"2026-07-16T12:53:10.898588+05:30"},{"city":"Surat","state":"Gujarat","latitude":21.1702,"longitude":72.8311,"temp":30.2,"humidity":74,"rain":0.0,"pressure":1005.4,"uv_index":7.7,"wind_gusts":40.3,"aqi":76,"pm10":33.3,"pm2_5":20.5,"no2":13.4,"co":188.0,"o3":48.0,"so2":42.9,"mosquito_risk":3,"arthritis_risk":5,"migraine_risk":4,"frizz_risk":1,"updated_at":"2026-07-16T12:53:10.898623+05:30"},{"city":"Vadodara","state":"Gujarat","latitude":22.3072,"longitude":73.1812,"temp":32.6,"humidity":62,"rain":0.0,"pressure":1002.4,"uv_index":6.5,"wind_gusts":39.2,"aqi":71,"pm10":45.2,"pm2_5":22.2,"no2":2.5,"co":152.0,"o3":87.0,"so2":6.7,"mosquito_risk":3,"arthritis_risk":5,"migraine_risk":4,"frizz_risk":1,"updated_at":"2026-07-16T12:53:10.898636+05:30"},{"city":"Rajkot","state":"Gujarat","latitude":22.3039,"longitude":70.8022,"temp":33.3,"humidity":56,"rain":0.0,"pressure":991.8,"uv_index":6.3,"wind_gusts":34.2,"aqi":69,"pm10":52.3,"pm2_5":19.0,"no2":1.6,"co":104.0,"o3":63.0,"so2":3.3,"mosquito_risk":0,"arthritis_risk":5,"migraine_risk":7,"frizz_risk":1,"updated_at":"2026-07-16T12:53:10.898646+05:30"},{"city":"Thane","state":"Maharashtra","latitude":19.2183,"longitude":72.9781,"temp":29.9,"humidity":72,"rain":0.0,"pressure":1007.3,"uv_index":6.55,"wind_gusts":30.6,"aqi":68,"pm10":34.7,"pm2_5":18.7,"no2":6.4,"co":169.0,"o3":82.0,"so2":11.7,"mosquito_risk":7,"arthritis_risk":5,"migraine_risk":4,"frizz_risk":1,"updated_at":"2026-07-16T12:53:10.898654+05:30"},{"city":"Nagpur","state":"Maharashtra","latitude":21.1458,"longitude":79.0882,"temp":34.2,"humidity":49,"rain":0.0,"pressure":970.7,"uv_index":8.55,"wind_gusts":41.4,"aqi":91,"pm10":39.2,"pm2_5":19.3,"no2":4.7,"co":148.0,"o3":108.0,"so2":18.6,"mosquito_risk":0,"arthritis_risk":5,"migraine_risk":7,"frizz_risk":1,"updated_at":"2026-07-16T12:53:10.898662+05:30"},{"city":"Nashik","state":"Maharashtra","latitude":19.9975,"longitude":73.7898,"temp":27.8,"humidity":68,"rain":0.1,"pressure":944.8,"uv_index":7.85,"wind_gusts":40.7,"aqi":54,"pm10":31.2,"pm2_5":14.1,"no2":1.8,"co":138.0,"o3":82.0,"so2":5.5,"mosquito_risk":10,"arthritis_risk":5,"migraine_risk":7,"frizz_risk":1,"updated_at":"2026-07-16T12:53:10.898669+05:30"},{"city":"Aurangabad","state":"Maharashtra","latitude":19.8762,"longitude":75.3433,"temp":30.3,"humidity":56,"rain":0.0,"pressure":943.4,"uv_index":8.95,"wind_gusts":44.3,"aqi":55,"pm10":22.1,"pm2_5":10.6,"no2":1.2,"co":121.0,"o3":81.0,"so2":5.5,"mosquito_risk":0,"arthritis_risk":5,"migraine_risk":7,"frizz_risk":1,"updated_at":"2026-07-16T12:53:10.898677+05:30"},{"city":"Solapur","state":"Maharashtra","latitude":17.6599,"longitude":75.9064,"temp":32.1,"humidity":50,"rain":0.0,"pressure":956.9,"uv_index":8.5,"wind_gusts":45.4,"aqi":56,"pm10":16.1,"pm2_5":7.6,"no2":1.0,"co":116.0,"o3":76.0,"so2":1.8,"mosquito_risk":0,"arthritis_risk":5,"migraine_risk":7,"frizz_risk":1,"updated_at":"2026-07-16T12:53:10.898685+05:30"},{"city":"Kolhapur","state":"Maharashtra","latitude":16.705,"longitude":74.2433,"temp":26.6,"humidity":76,"rain":0.0,"pressure":948.4,"uv_index":7.75,"wind_gusts":44.6,"aqi":51,"pm10":15.1,"pm2_5":6.9,"no2":1.5,"co":126.0,"o3":65.0,"so2":1.8,"mosquito_risk":7,"arthritis_risk":5,"migraine_risk":7,"frizz_risk":1,"updated_at":"2026-07-16T12:53:10.898692+05:30"},{"city":"Goa","state":"Goa","latitude":15.2993,"longitude":74.124,"temp":29.7,"humidity":72,"rain":0.0,"pressure":998.9,"uv_index":6.15,"wind_gusts":30.2,"aqi":74,"pm10":36.3,"pm2_5":15.3,"no2":0.9,"co":124.0,"o3":60.0,"so2":1.3,"mosquito_risk":7,"arthritis_risk":5,"migraine_risk":7,"frizz_risk":1,"updated_at":"2026-07-16T12:53:10.898699+05:30"},{"city":"Jodhpur","state":"Rajasthan","latitude":26.2389,"longitude":73.0243,"temp":35.3,"humidity":42,"rain":0.0,"pressure":980.5,"uv_index":8.4,"wind_gusts":36.7,"aqi":114,"pm10":223.5,"pm2_5":52.9,"no2":0.8,"co":109.0,"o3":79.0,"so2":2.6,"mosquito_risk":0,"arthritis_risk":5,"migraine_risk":10,"frizz_risk":1,"updated_at":"2026-07-16T12:53:10.898707+05:30"},{"city":"Udaipur","state":"Rajasthan","latitude":24.5854,"longitude":73.7125,"temp":30.8,"humidity":53,"rain":0.1,"pressure":945.0,"uv_index":8.8,"wind_gusts":31.0,"aqi":75,"pm10":56.0,"pm2_5":23.6,"no2":0.7,"co":110.0,"o3":80.0,"so2":3.1,"mosquito_risk":3,"arthritis_risk":5,"migraine_risk":7,"frizz_risk":1,"updated_at":"2026-07-16T12:53:10.898714+05:30"},{"city":"Kota","state":"Rajasthan","latitude":25.2138,"longitude":75.8648,"temp":35.0,"humidity":48,"rain":0.0,"pressure":976.4,"uv_index":8.3,"wind_gusts":31.7,"aqi":90,"pm10":73.6,"pm2_5":31.1,"no2":1.2,"co":133.0,"o3":108.0,"so2":6.3,"mosquito_risk":0,"arthritis_risk":5,"migraine_risk":7,"frizz_risk":1,"updated_at":"2026-07-16T12:53:10.898722+05:30"},{"city":"Bikaner","state":"Rajasthan","latitude":28.0229,"longitude":73.3119,"temp":38.1,"humidity":34,"rain":0.0,"pressure":978.2,"uv_index":8.4,"wind_gusts":37.4,"aqi":135,"pm10":253.3,"pm2_5":69.8,"no2":0.4,"co":109.0,"o3":79.0,"so2":2.5,"mosquito_risk":0,"arthritis_risk":5,"migraine_risk":10,"frizz_risk":1,"updated_at":"2026-07-16T12:53:10.898730+05:30"},{"city":"Ajmer","state":"Rajasthan","latitude":26.4499,"longitude":74.6399,"temp":32.8,"humidity":49,"rain":0.0,"pressure":952.8,"uv_index":8.35,"wind_gusts":43.6,"aqi":86,"pm10":126.2,"pm2_5":40.4,"no2":0.8,"co":113.0,"o3":90.0,"so2":2.8,"mosquito_risk":0,"arthritis_risk":5,"migraine_risk":7,"frizz_risk":1,"updated_at":"2026-07-16T12:53:10.898737+05:30"},{"city":"Gwalior","state":"Madhya Pradesh","latitude":26.2183,"longitude":78.1828,"temp":34.9,"humidity":51,"rain":0.0,"pressure":979.4,"uv_index":8.1,"wind_gusts":37.1,"aqi":126,"pm10":130.4,"pm2_5":39.2,"no2":1.4,"co":143.0,"o3":114.0,"so2":2.8,"mosquito_risk":0,"arthritis_risk":5,"migraine_risk":7,"frizz_risk":1,"updated_at":"2026-07-16T12:53:10.898745+05:30"},{"city":"Indore","state":"Madhya Pradesh","latitude":22.7196,"longitude":75.8577,"temp":32.1,"humidity":50,"rain":0.0,"pressure":946.9,"uv_index":7.75,"wind_gusts":39.2,"aqi":70,"pm10":36.3,"pm2_5":19.5,"no2":1.6,"co":171.0,"o3":97.0,"so2":5.1,"mosquito_risk":0,"arthritis_risk":5,"migraine_risk":7,"frizz_risk":1,"updated_at":"2026-07-16T12:53:10.898752+05:30"},{"city":"Bhopal","state":"Madhya Pradesh","latitude":23.2599,"longitude":77.4126,"temp":31.8,"humidity":58,"rain":0.0,"pressure":951.8,"uv_index":8.3,"wind_gusts":38.5,"aqi":90,"pm10":48.0,"pm2_5":21.8,"no2":1.1,"co":168.0,"o3":106.0,"so2":5.9,"mosquito_risk":0,"arthritis_risk":5,"migraine_risk":7,"frizz_risk":1,"updated_at":"2026-07-16T12:53:10.898759+05:30"},{"city":"Jabalpur","state":"Madhya Pradesh","latitude":23.1815,"longitude":79.9864,"temp":32.4,"humidity":58,"rain":0.0,"pressure":958.3,"uv_index":8.7,"wind_gusts":35.3,"aqi":116,"pm10":59.3,"pm2_5":28.8,"no2":1.3,"co":159.0,"o3":121.0,"so2":5.9,"mosquito_risk":0,"arthritis_risk":5,"migraine_risk":7,"frizz_risk":1,"updated_at":"2026-07-16T12:53:10.898766+05:30"},{"city":"Ujjain","state":"Madhya Pradesh","latitude":23.1765,"longitude":75.7885,"temp":31.0,"humidity":58,"rain":0.1,"pressure":952.3,"uv_index":8.45,"wind_gusts":36.0,"aqi":70,"pm10":38.3,"pm2_5":20.5,"no2":1.2,"co":143.0,"o3":95.0,"so2":5.3,"mosquito_risk":3,"arthritis_risk":5,"migraine_risk":7,"frizz_risk":1,"updated_at":"2026-07-16T12:53:10.898774+05:30"},{"city":"Visakhapatnam","state":"Andhra Pradesh","latitude":17.6868,"longitude":83.2185,"temp":34.3,"humidity":51,"rain":0.0,"pressure":998.6,"uv_index":5.75,"wind_gusts":36.4,"aqi":100,"pm10":44.8,"pm2_5":28.4,"no2":14.6,"co":371.0,"o3":106.0,"so2":35.4,"mosquito_risk":0,"arthritis_risk":5,"migraine_risk":3,"frizz_risk":1,"updated_at":"2026-07-16T12:53:10.898781+05:30"},{"city":"Vijayawada","state":"Andhra Pradesh","latitude":16.5062,"longitude":80.648,"temp":35.2,"humidity":48,"rain":0.0,"pressure":999.8,"uv_index":7.0,"wind_gusts":46.8,"aqi":74,"pm10":33.2,"pm2_5":18.5,"no2":2.6,"co":139.0,"o3":103.0,"so2":4.9,"mosquito_risk":0,"arthritis_risk":5,"migraine_risk":10,"frizz_risk":1,"updated_at":"2026-07-16T12:53:10.898788+05:30"},{"city":"Guntur","state":"Andhra Pradesh","latitude":16.3067,"longitude":80.4365,"temp":35.1,"humidity":45,"rain":0.0,"pressure":1001.2,"uv_index":7.6,"wind_gusts":45.7,"aqi":71,"pm10":31.9,"pm2_5":17.2,"no2":1.8,"co":132.0,"o3":102.0,"so2":4.1,"mosquito_risk":0,"arthritis_risk":5,"migraine_risk":7,"frizz_risk":1,"updated_at":"2026-07-16T12:53:10.898795+05:30"},{"city":"Nellore","state":"Andhra Pradesh","latitude":14.4426,"longitude":79.9865,"temp":35.7,"humidity":39,"rain":0.0,"pressure":1004.0,"uv_index":8.0,"wind_gusts":43.2,"aqi":65,"pm10":33.4,"pm2_5":18.2,"no2":1.9,"co":119.0,"o3":104.0,"so2":6.0,"mosquito_risk":0,"arthritis_risk":5,"migraine_risk":7,"frizz_risk":1,"updated_at":"2026-07-16T12:53:10.898804+05:30"},{"city":"Kurnool","state":"Andhra Pradesh","latitude":15.8281,"longitude":78.0373,"temp":34.3,"humidity":41,"rain":0.0,"pressure":976.3,"uv_index":8.15,"wind_gusts":43.9,"aqi":68,"pm10":33.6,"pm2_5":14.8,"no2":1.3,"co":121.0,"o3":90.0,"so2":6.2,"mosquito_risk":0,"arthritis_risk":5,"migraine_risk":7,"frizz_risk":1,"updated_at":"2026-07-16T12:53:10.898812+05:30"},{"city":"Kakinada","state":"Andhra Pradesh","latitude":16.9891,"longitude":82.2475,"temp":33.4,"humidity":56,"rain":0.0,"pressure":1003.2,"uv_index":3.2,"wind_gusts":45.0,"aqi":79,"pm10":32.8,"pm2_5":19.6,"no2":3.1,"co":146.0,"o3":118.0,"so2":6.0,"mosquito_risk":0,"arthritis_risk":5,"migraine_risk":0,"frizz_risk":1,"updated_at":"2026-07-16T12:53:10.898819+05:30"},{"city":"Tirupati","state":"Andhra Pradesh","latitude":13.6288,"longitude":79.4192,"temp":36.0,"humidity":30,"rain":0.0,"pressure":989.6,"uv_index":8.25,"wind_gusts":29.2,"aqi":75,"pm10":39.7,"pm2_5":16.6,"no2":0.8,"co":115.0,"o3":83.0,"so2":1.5,"mosquito_risk":0,"arthritis_risk":5,"migraine_risk":10,"frizz_risk":0,"updated_at":"2026-07-16T12:53:10.898826+05:30"},{"city":"Warangal","state":"Telangana","latitude":17.9689,"longitude":79.5941,"temp":31.4,"humidity":57,"rain":0.0,"pressure":976.9,"uv_index":1.95,"wind_gusts":43.2,"aqi":68,"pm10":33.8,"pm2_5":17.2,"no2":2.0,"co":138.0,"o3":90.0,"so2":4.7,"mosquito_risk":0,"arthritis_risk":5,"migraine_risk":3,"frizz_risk":1,"updated_at":"2026-07-16T12:53:10.898834+05:30"},{"city":"Nizamabad","state":"Telangana","latitude":18.6725,"longitude":78.0941,"temp":31.1,"humidity":57,"rain":0.0,"pressure":963.8,"uv_index":6.35,"wind_gusts":41.8,"aqi":64,"pm10":36.1,"pm2_5":16.1,"no2":0.8,"co":127.0,"o3":90.0,"so2":3.5,"mosquito_risk":0,"arthritis_risk":5,"migraine_risk":7,"frizz_risk":1,"updated_at":"2026-07-16T12:53:10.898841+05:30"},{"city":"Mysore","state":"Karnataka","latitude":12.2958,"longitude":76.6396,"temp":29.4,"humidity":47,"rain":0.1,"pressure":929.3,"uv_index":8.75,"wind_gusts":44.3,"aqi":58,"pm10":32.6,"pm2_5":14.3,"no2":1.3,"co":119.0,"o3":82.0,"so2":1.6,"mosquito_risk":7,"arthritis_risk":5,"migraine_risk":7,"frizz_risk":1,"updated_at":"2026-07-16T12:53:10.898848+05:30"},{"city":"Mangalore","state":"Karnataka","latitude":12.9141,"longitude":74.856,"temp":28.4,"humidity":75,"rain":0.0,"pressure":1008.4,"uv_index":7.75,"wind_gusts":29.5,"aqi":73,"pm10":31.7,"pm2_5":13.4,"no2":1.3,"co":118.0,"o3":65.0,"so2":2.3,"mosquito_risk":7,"arthritis_risk":0,"migraine_risk":4,"frizz_risk":1,"updated_at":"2026-07-16T12:53:10.898854+05:30"},{"city":"Hubli-Dharwad","state":"Karnataka","latitude":15.3647,"longitude":75.124,"temp":29.1,"humidity":59,"rain":0.0,"pressure":941.3,"uv_index":6.95,"wind_gusts":47.5,"aqi":54,"pm10":23.5,"pm2_5":9.3,"no2":1.2,"co":116.0,"o3":64.0,"so2":1.1,"mosquito_risk":4,"arthritis_risk":5,"migraine_risk":7,"frizz_risk":1,"updated_at":"2026-07-16T12:53:10.898862+05:30"},{"city":"Belgaum","state":"Karnataka","latitude":15.8497,"longitude":74.4977,"temp":25.5,"humidity":71,"rain":0.1,"pressure":926.1,"uv_index":7.95,"wind_gusts":46.4,"aqi":52,"pm10":19.0,"pm2_5":8.3,"no2":1.4,"co":109.0,"o3":60.0,"so2":1.7,"mosquito_risk":10,"arthritis_risk":5,"migraine_risk":7,"frizz_risk":1,"updated_at":"2026-07-16T12:53:14.135960+05:30"},{"city":"Coimbatore","state":"Tamil Nadu","latitude":11.0168,"longitude":76.9558,"temp":31.9,"humidity":50,"rain":0.0,"pressure":962.1,"uv_index":8.55,"wind_gusts":53.6,"aqi":59,"pm10":30.3,"pm2_5":13.9,"no2":1.2,"co":145.0,"o3":82.0,"so2":2.0,"mosquito_risk":0,"arthritis_risk":5,"migraine_risk":7,"frizz_risk":1,"updated_at":"2026-07-16T12:53:14.135993+05:30"},{"city":"Madurai","state":"Tamil Nadu","latitude":9.9252,"longitude":78.1198,"temp":37.6,"humidity":28,"rain":0.0,"pressure":992.3,"uv_index":8.25,"wind_gusts":46.4,"aqi":87,"pm10":43.4,"pm2_5":25.4,"no2":2.3,"co":144.0,"o3":147.0,"so2":4.6,"mosquito_risk":0,"arthritis_risk":5,"migraine_risk":10,"frizz_risk":0,"updated_at":"2026-07-16T12:53:14.136005+05:30"},{"city":"Trichy","state":"Tamil Nadu","latitude":10.7905,"longitude":78.7047,"temp":37.2,"humidity":30,"rain":0.0,"pressure":998.6,"uv_index":8.05,"wind_gusts":45.7,"aqi":69,"pm10":30.4,"pm2_5":17.1,"no2":1.5,"co":139.0,"o3":103.0,"so2":2.7,"mosquito_risk":0,"arthritis_risk":5,"migraine_risk":10,"frizz_risk":1,"updated_at":"2026-07-16T12:53:14.136014+05:30"},{"city":"Salem","state":"Tamil Nadu","latitude":11.6643,"longitude":78.146,"temp":32.3,"humidity":50,"rain":0.0,"pressure":977.4,"uv_index":8.0,"wind_gusts":20.5,"aqi":78,"pm10":43.2,"pm2_5":23.1,"no2":2.8,"co":185.0,"o3":131.0,"so2":8.7,"mosquito_risk":0,"arthritis_risk":5,"migraine_risk":7,"frizz_risk":1,"updated_at":"2026-07-16T12:53:14.136023+05:30"},{"city":"Tirunelveli","state":"Tamil Nadu","latitude":8.7139,"longitude":77.7567,"temp":38.6,"humidity":25,"rain":0.0,"pressure":1002.4,"uv_index":8.0,"wind_gusts":40.7,"aqi":61,"pm10":25.1,"pm2_5":13.1,"no2":1.1,"co":126.0,"o3":86.0,"so2":1.5,"mosquito_risk":0,"arthritis_risk":5,"migraine_risk":7,"frizz_risk":0,"updated_at":"2026-07-16T12:53:14.136031+05:30"},{"city":"Vellore","state":"Tamil Nadu","latitude":12.9165,"longitude":79.1325,"temp":36.6,"humidity":29,"rain":0.0,"pressure":982.9,"uv_index":8.05,"wind_gusts":42.1,"aqi":71,"pm10":59.4,"pm2_5":24.2,"no2":1.3,"co":127.0,"o3":104.0,"so2":2.7,"mosquito_risk":0,"arthritis_risk":5,"migraine_risk":10,"frizz_risk":0,"updated_at":"2026-07-16T12:53:14.136039+05:30"},{"city":"Erode","state":"Tamil Nadu","latitude":11.341,"longitude":77.7172,"temp":35.9,"humidity":32,"rain":0.0,"pressure":988.6,"uv_index":8.3,"wind_gusts":47.2,"aqi":68,"pm10":35.2,"pm2_5":18.0,"no2":1.5,"co":145.0,"o3":108.0,"so2":2.4,"mosquito_risk":0,"arthritis_risk":5,"migraine_risk":10,"frizz_risk":1,"updated_at":"2026-07-16T12:53:14.136047+05:30"},{"city":"Kochi","state":"Kerala","latitude":9.9312,"longitude":76.2673,"temp":29.1,"humidity":73,"rain":0.0,"pressure":1010.5,"uv_index":8.55,"wind_gusts":28.8,"aqi":79,"pm10":34.7,"pm2_5":17.4,"no2":2.2,"co":122.0,"o3":83.0,"so2":3.6,"mosquito_risk":7,"arthritis_risk":0,"migraine_risk":4,"frizz_risk":1,"updated_at":"2026-07-16T12:53:14.136055+05:30"},{"city":"Thiruvananthapuram","state":"Kerala","latitude":8.5241,"longitude":76.9366,"temp":28.8,"humidity":74,"rain":0.0,"pressure":1009.7,"uv_index":7.75,"wind_gusts":40.7,"aqi":65,"pm10":33.2,"pm2_5":17.3,"no2":2.1,"co":116.0,"o3":82.0,"so2":1.9,"mosquito_risk":7,"arthritis_risk":0,"migraine_risk":4,"frizz_risk":1,"updated_at":"2026-07-16T12:53:14.136062+05:30"},{"city":"Kozhikode","state":"Kerala","latitude":11.2588,"longitude":75.7804,"temp":29.4,"humidity":74,"rain":0.0,"pressure":1009.5,"uv_index":8.0,"wind_gusts":34.9,"aqi":66,"pm10":31.7,"pm2_5":13.8,"no2":0.6,"co":117.0,"o3":68.0,"so2":1.5,"mosquito_risk":7,"arthritis_risk":0,"migraine_risk":4,"frizz_risk":1,"updated_at":"2026-07-16T12:53:14.136069+05:30"},{"city":"Thrissur","state":"Kerala","latitude":10.5276,"longitude":76.2144,"temp":29.5,"humidity":69,"rain":0.1,"pressure":1008.6,"uv_index":8.5,"wind_gusts":36.4,"aqi":74,"pm10":28.2,"pm2_5":13.6,"no2":1.4,"co":108.0,"o3":69.0,"so2":1.9,"mosquito_risk":10,"arthritis_risk":0,"migraine_risk":4,"frizz_risk":1,"updated_at":"2026-07-16T12:53:14.136077+05:30"},{"city":"Kannur","state":"Kerala","latitude":11.8745,"longitude":75.3704,"temp":30.1,"humidity":67,"rain":0.0,"pressure":1009.1,"uv_index":7.5,"wind_gusts":32.0,"aqi":70,"pm10":35.2,"pm2_5":15.4,"no2":0.8,"co":106.0,"o3":66.0,"so2":1.5,"mosquito_risk":3,"arthritis_risk":0,"migraine_risk":4,"frizz_risk":1,"updated_at":"2026-07-16T12:53:14.136084+05:30"},{"city":"Patna","state":"Bihar","latitude":25.5941,"longitude":85.1376,"temp":34.3,"humidity":64,"rain":0.0,"pressure":994.6,"uv_index":6.45,"wind_gusts":29.9,"aqi":151,"pm10":24.2,"pm2_5":23.3,"no2":2.7,"co":305.0,"o3":155.0,"so2":12.2,"mosquito_risk":3,"arthritis_risk":5,"migraine_risk":7,"frizz_risk":1,"updated_at":"2026-07-16T12:53:14.136092+05:30"},{"city":"Gaya","state":"Bihar","latitude":24.7914,"longitude":85.0002,"temp":34.3,"humidity":62,"rain":0.0,"pressure":987.9,"uv_index":8.45,"wind_gusts":22.7,"aqi":151,"pm10":19.8,"pm2_5":18.3,"no2":1.9,"co":283.0,"o3":139.0,"so2":6.1,"mosquito_risk":3,"arthritis_risk":5,"migraine_risk":7,"frizz_risk":1,"updated_at":"2026-07-16T12:53:14.136099+05:30"},{"city":"Muzaffarpur","state":"Bihar","latitude":26.1209,"longitude":85.3647,"temp":31.5,"humidity":74,"rain":0.2,"pressure":995.1,"uv_index":6.55,"wind_gusts":28.4,"aqi":140,"pm10":25.2,"pm2_5":24.6,"no2":3.0,"co":288.0,"o3":150.0,"so2":11.5,"mosquito_risk":6,"arthritis_risk":5,"migraine_risk":7,"frizz_risk":1,"updated_at":"2026-07-16T12:53:14.136106+05:30"},{"city":"Bhagalpur","state":"Bihar","latitude":25.2425,"longitude":87.0117,"temp":33.4,"humidity":67,"rain":0.0,"pressure":995.2,"uv_index":8.65,"wind_gusts":31.0,"aqi":99,"pm10":22.9,"pm2_5":17.3,"no2":3.0,"co":199.0,"o3":142.0,"so2":13.1,"mosquito_risk":3,"arthritis_risk":5,"migraine_risk":7,"frizz_risk":1,"updated_at":"2026-07-16T12:53:14.136113+05:30"},{"city":"Ranchi","state":"Jharkhand","latitude":23.3441,"longitude":85.3096,"temp":30.5,"humidity":65,"rain":0.0,"pressure":932.7,"uv_index":8.75,"wind_gusts":36.7,"aqi":101,"pm10":18.2,"pm2_5":16.5,"no2":2.1,"co":231.0,"o3":142.0,"so2":12.3,"mosquito_risk":3,"arthritis_risk":5,"migraine_risk":7,"frizz_risk":1,"updated_at":"2026-07-16T12:53:14.136121+05:30"},{"city":"Jamshedpur","state":"Jharkhand","latitude":22.8046,"longitude":86.2029,"temp":31.1,"humidity":74,"rain":0.0,"pressure":984.0,"uv_index":6.15,"wind_gusts":36.0,"aqi":86,"pm10":22.9,"pm2_5":18.6,"no2":2.9,"co":466.0,"o3":144.0,"so2":17.1,"mosquito_risk":3,"arthritis_risk":5,"migraine_risk":7,"frizz_risk":1,"updated_at":"2026-07-16T12:53:14.136128+05:30"},{"city":"Dhanbad","state":"Jharkhand","latitude":23.7957,"longitude":86.4304,"temp":30.8,"humidity":73,"rain":0.0,"pressure":973.7,"uv_index":8.5,"wind_gusts":33.8,"aqi":117,"pm10":28.6,"pm2_5":23.6,"no2":8.8,"co":187.0,"o3":135.0,"so2":32.8,"mosquito_risk":3,"arthritis_risk":5,"migraine_risk":7,"frizz_risk":1,"updated_at":"2026-07-16T12:53:14.136135+05:30"},{"city":"Bokaro","state":"Jharkhand","latitude":23.6693,"longitude":86.1511,"temp":30.6,"humidity":75,"rain":0.2,"pressure":977.4,"uv_index":8.35,"wind_gusts":33.5,"aqi":125,"pm10":26.3,"pm2_5":22.9,"no2":9.4,"co":195.0,"o3":134.0,"so2":37.5,"mosquito_risk":6,"arthritis_risk":5,"migraine_risk":7,"frizz_risk":1,"updated_at":"2026-07-16T12:53:14.136142+05:30"},{"city":"Bhubaneswar","state":"Odisha","latitude":20.2961,"longitude":85.8245,"temp":26.9,"humidity":95,"rain":0.5,"pressure":994.7,"uv_index":6.8,"wind_gusts":50.4,"aqi":95,"pm10":15.3,"pm2_5":14.0,"no2":10.0,"co":258.0,"o3":78.0,"so2":11.2,"mosquito_risk":10,"arthritis_risk":5,"migraine_risk":7,"frizz_risk":1,"updated_at":"2026-07-16T12:53:14.136149+05:30"},{"city":"Cuttack","state":"Odisha","latitude":20.4625,"longitude":85.8828,"temp":27.0,"humidity":94,"rain":0.5,"pressure":996.4,"uv_index":6.95,"wind_gusts":40.0,"aqi":95,"pm10":15.3,"pm2_5":14.0,"no2":10.0,"co":195.0,"o3":78.0,"so2":11.2,"mosquito_risk":10,"arthritis_risk":5,"migraine_risk":7,"frizz_risk":1,"updated_at":"2026-07-16T12:53:14.136155+05:30"},{"city":"Rourkela","state":"Odisha","latitude":22.2604,"longitude":84.8536,"temp":27.3,"humidity":93,"rain":0.2,"pressure":978.3,"uv_index":7.7,"wind_gusts":36.7,"aqi":113,"pm10":18.5,"pm2_5":14.6,"no2":2.4,"co":248.0,"o3":126.0,"so2":8.7,"mosquito_risk":10,"arthritis_risk":5,"migraine_risk":7,"frizz_risk":1,"updated_at":"2026-07-16T12:53:14.136163+05:30"},{"city":"Raipur","state":"Chhattisgarh","latitude":21.2514,"longitude":81.6296,"temp":28.8,"humidity":80,"rain":0.1,"pressure":970.7,"uv_index":5.25,"wind_gusts":38.2,"aqi":153,"pm10":71.0,"pm2_5":45.6,"no2":23.5,"co":432.0,"o3":79.0,"so2":51.0,"mosquito_risk":10,"arthritis_risk":5,"migraine_risk":3,"frizz_risk":1,"updated_at":"2026-07-16T12:53:14.136170+05:30"},{"city":"Bhilai","state":"Chhattisgarh","latitude":21.1938,"longitude":81.3509,"temp":28.1,"humidity":83,"rain":0.1,"pressure":971.6,"uv_index":4.4,"wind_gusts":36.4,"aqi":138,"pm10":69.8,"pm2_5":39.9,"no2":16.6,"co":668.0,"o3":103.0,"so2":40.0,"mosquito_risk":10,"arthritis_risk":5,"migraine_risk":3,"frizz_risk":1,"updated_at":"2026-07-16T12:53:14.136178+05:30"},{"city":"Guwahati","state":"Assam","latitude":26.1158,"longitude":91.7086,"temp":31.0,"humidity":72,"rain":0.0,"pressure":996.0,"uv_index":6.7,"wind_gusts":22.7,"aqi":56,"pm10":14.4,"pm2_5":11.1,"no2":1.4,"co":232.0,"o3":107.0,"so2":2.1,"mosquito_risk":3,"arthritis_risk":5,"migraine_risk":7,"frizz_risk":1,"updated_at":"2026-07-16T12:53:14.136185+05:30"},{"city":"Agartala","state":"Tripura","latitude":23.8315,"longitude":91.2868,"temp":30.3,"humidity":82,"rain":0.0,"pressure":1000.6,"uv_index":8.35,"wind_gusts":43.6,"aqi":63,"pm10":17.3,"pm2_5":9.2,"no2":1.7,"co":150.0,"o3":110.0,"so2":1.5,"mosquito_risk":3,"arthritis_risk":5,"migraine_risk":4,"frizz_risk":1,"updated_at":"2026-07-16T12:53:14.136192+05:30"},{"city":"Shillong","state":"Meghalaya","latitude":25.5788,"longitude":91.8933,"temp":26.4,"humidity":62,"rain":0.0,"pressure":856.2,"uv_index":8.5,"wind_gusts":33.5,"aqi":38,"pm10":14.9,"pm2_5":8.0,"no2":0.9,"co":137.0,"o3":97.0,"so2":1.5,"mosquito_risk":7,"arthritis_risk":5,"migraine_risk":7,"frizz_risk":1,"updated_at":"2026-07-16T12:53:14.136200+05:30"},{"city":"Imphal","state":"Manipur","latitude":24.817,"longitude":93.9368,"temp":29.8,"humidity":63,"rain":0.1,"pressure":919.7,"uv_index":6.9,"wind_gusts":24.1,"aqi":58,"pm10":9.1,"pm2_5":6.9,"no2":1.2,"co":187.0,"o3":95.0,"so2":1.5,"mosquito_risk":10,"arthritis_risk":5,"migraine_risk":7,"frizz_risk":1,"updated_at":"2026-07-16T12:53:14.136207+05:30"},{"city":"Aizawl","state":"Mizoram","latitude":23.7271,"longitude":92.7176,"temp":27.6,"humidity":64,"rain":0.1,"pressure":889.9,"uv_index":8.1,"wind_gusts":34.9,"aqi":57,"pm10":14.2,"pm2_5":7.5,"no2":0.7,"co":132.0,"o3":84.0,"so2":0.8,"mosquito_risk":10,"arthritis_risk":5,"migraine_risk":7,"frizz_risk":1,"updated_at":"2026-07-16T12:53:14.136215+05:30"},{"city":"Kohima","state":"Nagaland","latitude":25.6701,"longitude":94.1077,"temp":24.8,"humidity":85,"rain":0.0,"pressure":853.6,"uv_index":8.05,"wind_gusts":24.1,"aqi":45,"pm10":6.4,"pm2_5":4.9,"no2":1.0,"co":140.0,"o3":78.0,"so2":0.7,"mosquito_risk":3,"arthritis_risk":5,"migraine_risk":7,"frizz_risk":1,"updated_at":"2026-07-16T12:53:14.136222+05:30"},{"city":"Gangtok","state":"Sikkim","latitude":27.3314,"longitude":88.6138,"temp":24.1,"humidity":70,"rain":0.1,"pressure":837.2,"uv_index":7.2,"wind_gusts":37.4,"aqi":46,"pm10":2.8,"pm2_5":2.3,"no2":1.7,"co":211.0,"o3":101.0,"so2":1.8,"mosquito_risk":6,"arthritis_risk":5,"migraine_risk":7,"frizz_risk":1,"updated_at":"2026-07-16T12:53:14.136228+05:30"},{"city":"Siliguri","state":"West Bengal","latitude":26.7271,"longitude":88.3953,"temp":27.7,"humidity":94,"rain":0.4,"pressure":988.6,"uv_index":7.4,"wind_gusts":24.1,"aqi":70,"pm10":13.2,"pm2_5":9.9,"no2":2.4,"co":259.0,"o3":104.0,"so2":3.3,"mosquito_risk":10,"arthritis_risk":5,"migraine_risk":7,"frizz_risk":1,"updated_at":"2026-07-16T12:53:17.412680+05:30"},{"city":"Durgapur","state":"West Bengal","latitude":23.5204,"longitude":87.3119,"temp":33.0,"humidity":66,"rain":0.0,"pressure":987.7,"uv_index":7.05,"wind_gusts":35.3,"aqi":88,"pm10":27.3,"pm2_5":19.7,"no2":6.1,"co":228.0,"o3":139.0,"so2":23.7,"mosquito_risk":3,"arthritis_risk":5,"migraine_risk":7,"frizz_risk":1,"updated_at":"2026-07-16T12:53:17.412714+05:30"},{"city":"Asansol","state":"West Bengal","latitude":23.6739,"longitude":86.9524,"temp":32.7,"humidity":68,"rain":0.0,"pressure":986.7,"uv_index":8.05,"wind_gusts":32.8,"aqi":90,"pm10":26.3,"pm2_5":19.7,"no2":5.7,"co":198.0,"o3":143.0,"so2":21.9,"mosquito_risk":3,"arthritis_risk":5,"migraine_risk":7,"frizz_risk":1,"updated_at":"2026-07-16T12:53:17.412725+05:30"},{"city":"Pondicherry","state":"Puducherry","latitude":11.9139,"longitude":79.8145,"temp":36.7,"humidity":34,"rain":0.0,"pressure":1006.9,"uv_index":8.2,"wind_gusts":43.9,"aqi":76,"pm10":46.6,"pm2_5":30.4,"no2":4.4,"co":178.0,"o3":145.0,"so2":9.6,"mosquito_risk":0,"arthritis_risk":5,"migraine_risk":7,"frizz_risk":1,"updated_at":"2026-07-16T12:53:17.412735+05:30"},{"city":"Port Blair","state":"Andaman and Nicobar Islands","latitude":11.6234,"longitude":92.7265,"temp":31.1,"humidity":67,"rain":0.1,"pressure":1007.2,"uv_index":8.45,"wind_gusts":50.0,"aqi":53,"pm10":19.8,"pm2_5":10.4,"no2":0.2,"co":89.0,"o3":47.0,"so2":0.5,"mosquito_risk":6,"arthritis_risk":5,"migraine_risk":4,"frizz_risk":1,"updated_at":"2026-07-16T12:53:17.412744+05:30"},{"city":"Haridwar","state":"Uttarakhand","latitude":29.9457,"longitude":78.1642,"temp":34.4,"humidity":57,"rain":0.0,"pressure":969.2,"uv_index":7.5,"wind_gusts":28.8,"aqi":138,"pm10":83.1,"pm2_5":52.3,"no2":1.7,"co":422.0,"o3":193.0,"so2":14.7,"mosquito_risk":0,"arthritis_risk":5,"migraine_risk":7,"frizz_risk":1,"updated_at":"2026-07-16T12:53:17.412752+05:30"},{"city":"Rishikesh","state":"Uttarakhand","latitude":30.0869,"longitude":78.2676,"temp":33.4,"humidity":60,"rain":0.0,"pressure":962.1,"uv_index":7.6,"wind_gusts":25.2,"aqi":95,"pm10":60.3,"pm2_5":37.7,"no2":0.9,"co":364.0,"o3":165.0,"so2":9.4,"mosquito_risk":0,"arthritis_risk":5,"migraine_risk":7,"frizz_risk":1,"updated_at":"2026-07-16T12:53:17.412760+05:30"},{"city":"Nainital","state":"Uttarakhand","latitude":29.3919,"longitude":79.4542,"temp":22.9,"humidity":77,"rain":0.0,"pressure":806.1,"uv_index":6.45,"wind_gusts":28.1,"aqi":151,"pm10":61.9,"pm2_5":39.7,"no2":1.5,"co":274.0,"o3":181.0,"so2":10.7,"mosquito_risk":3,"arthritis_risk":5,"migraine_risk":7,"frizz_risk":1,"updated_at":"2026-07-16T12:53:17.412769+05:30"},{"city":"Mussoorie","state":"Uttarakhand","latitude":30.4599,"longitude":78.0664,"temp":23.4,"humidity":69,"rain":0.0,"pressure":803.9,"uv_index":7.3,"wind_gusts":41.4,"aqi":95,"pm10":61.9,"pm2_5":40.9,"no2":1.4,"co":287.0,"o3":176.0,"so2":10.5,"mosquito_risk":3,"arthritis_risk":5,"migraine_risk":7,"frizz_risk":1,"updated_at":"2026-07-16T12:53:17.412776+05:30"},{"city":"Dharamshala","state":"Himachal Pradesh","latitude":32.219,"longitude":76.3234,"temp":27.0,"humidity":56,"rain":0.0,"pressure":868.6,"uv_index":8.45,"wind_gusts":31.3,"aqi":73,"pm10":33.6,"pm2_5":21.5,"no2":0.7,"co":241.0,"o3":147.0,"so2":2.6,"mosquito_risk":4,"arthritis_risk":5,"migraine_risk":7,"frizz_risk":1,"updated_at":"2026-07-16T12:53:17.412783+05:30"},{"city":"Dalhousie","state":"Himachal Pradesh","latitude":32.5387,"longitude":75.971,"temp":23.2,"humidity":71,"rain":0.1,"pressure":805.9,"uv_index":7.75,"wind_gusts":30.2,"aqi":121,"pm10":51.9,"pm2_5":34.5,"no2":1.2,"co":262.0,"o3":177.0,"so2":4.1,"mosquito_risk":6,"arthritis_risk":5,"migraine_risk":7,"frizz_risk":1,"updated_at":"2026-07-16T12:53:17.412791+05:30"},{"city":"Patiala","state":"Punjab","latitude":30.3398,"longitude":76.3869,"temp":34.6,"humidity":55,"rain":0.0,"pressure":973.7,"uv_index":7.6,"wind_gusts":31.0,"aqi":187,"pm10":175.6,"pm2_5":73.1,"no2":1.2,"co":266.0,"o3":169.0,"so2":8.8,"mosquito_risk":0,"arthritis_risk":5,"migraine_risk":7,"frizz_risk":1,"updated_at":"2026-07-16T12:53:17.412799+05:30"},{"city":"Bhatinda","state":"Punjab","latitude":30.211,"longitude":74.9455,"temp":38.2,"humidity":36,"rain":0.0,"pressure":979.1,"uv_index":7.65,"wind_gusts":28.1,"aqi":179,"pm10":202.6,"pm2_5":72.4,"no2":2.0,"co":181.0,"o3":151.0,"so2":11.3,"mosquito_risk":0,"arthritis_risk":5,"migraine_risk":10,"frizz_risk":1,"updated_at":"2026-07-16T12:53:17.412806+05:30"},{"city":"Rohtak","state":"Haryana","latitude":28.8955,"longitude":76.6066,"temp":36.4,"humidity":43,"rain":0.0,"pressure":977.4,"uv_index":7.05,"wind_gusts":29.9,"aqi":651,"pm10":1438.0,"pm2_5":203.5,"no2":1.2,"co":158.0,"o3":124.0,"so2":4.9,"mosquito_risk":0,"arthritis_risk":5,"migraine_risk":10,"frizz_risk":1,"updated_at":"2026-07-16T12:53:17.412813+05:30"},{"city":"Panipat","state":"Haryana","latitude":29.3909,"longitude":76.9635,"temp":35.2,"humidity":50,"rain":0.0,"pressure":975.9,"uv_index":6.85,"wind_gusts":34.2,"aqi":1135,"pm10":1091.5,"pm2_5":168.1,"no2":2.2,"co":231.0,"o3":142.0,"so2":12.3,"mosquito_risk":0,"arthritis_risk":5,"migraine_risk":10,"frizz_risk":1,"updated_at":"2026-07-16T12:53:17.412821+05:30"},{"city":"Mathura","state":"Uttar Pradesh","latitude":27.4924,"longitude":77.6737,"temp":36.0,"humidity":46,"rain":0.0,"pressure":982.4,"uv_index":7.9,"wind_gusts":33.5,"aqi":462,"pm10":1199.5,"pm2_5":164.8,"no2":1.3,"co":152.0,"o3":126.0,"so2":3.1,"mosquito_risk":0,"arthritis_risk":5,"migraine_risk":10,"frizz_risk":1,"updated_at":"2026-07-16T12:53:17.412828+05:30"},{"city":"Vrindavan","state":"Uttar Pradesh","latitude":27.5823,"longitude":77.7027,"temp":36.0,"humidity":47,"rain":0.1,"pressure":982.8,"uv_index":7.9,"wind_gusts":32.0,"aqi":462,"pm10":1199.5,"pm2_5":164.8,"no2":1.3,"co":148.0,"o3":126.0,"so2":3.1,"mosquito_risk":3,"arthritis_risk":5,"migraine_risk":10,"frizz_risk":1,"updated_at":"2026-07-16T12:53:17.412835+05:30"},{"city":"Ayodhya","state":"Uttar Pradesh","latitude":26.7922,"longitude":82.1998,"temp":32.4,"humidity":72,"rain":0.0,"pressure":989.8,"uv_index":7.95,"wind_gusts":28.4,"aqi":179,"pm10":132.2,"pm2_5":67.1,"no2":1.6,"co":315.0,"o3":172.0,"so2":6.7,"mosquito_risk":3,"arthritis_risk":5,"migraine_risk":7,"frizz_risk":1,"updated_at":"2026-07-16T12:53:17.412842+05:30"},{"city":"Ratlam","state":"Madhya Pradesh","latitude":23.3315,"longitude":75.0367,"temp":31.3,"humidity":56,"rain":0.0,"pressure":953.4,"uv_index":7.8,"wind_gusts":32.8,"aqi":68,"pm10":42.5,"pm2_5":21.9,"no2":1.1,"co":122.0,"o3":92.0,"so2":5.1,"mosquito_risk":0,"arthritis_risk":5,"migraine_risk":7,"frizz_risk":1,"updated_at":"2026-07-16T12:53:17.412849+05:30"},{"city":"Sagar","state":"Madhya Pradesh","latitude":23.8388,"longitude":78.7378,"temp":32.1,"humidity":59,"rain":0.0,"pressure":947.6,"uv_index":8.3,"wind_gusts":44.6,"aqi":96,"pm10":60.1,"pm2_5":26.4,"no2":0.9,"co":149.0,"o3":116.0,"so2":5.3,"mosquito_risk":0,"arthritis_risk":5,"migraine_risk":7,"frizz_risk":1,"updated_at":"2026-07-16T12:53:17.412856+05:30"},{"city":"Satna","state":"Madhya Pradesh","latitude":24.6005,"longitude":80.8322,"temp":32.4,"humidity":61,"rain":0.0,"pressure":967.0,"uv_index":7.75,"wind_gusts":35.3,"aqi":133,"pm10":156.0,"pm2_5":54.0,"no2":1.6,"co":140.0,"o3":111.0,"so2":4.4,"mosquito_risk":3,"arthritis_risk":5,"migraine_risk":7,"frizz_risk":1,"updated_at":"2026-07-16T12:53:17.412864+05:30"},{"city":"Akola","state":"Maharashtra","latitude":20.7002,"longitude":77.0082,"temp":34.5,"humidity":47,"rain":0.0,"pressure":973.5,"uv_index":8.75,"wind_gusts":43.6,"aqi":67,"pm10":35.0,"pm2_5":16.3,"no2":1.5,"co":121.0,"o3":88.0,"so2":6.5,"mosquito_risk":0,"arthritis_risk":5,"migraine_risk":7,"frizz_risk":1,"updated_at":"2026-07-16T12:53:17.412872+05:30"},{"city":"Amravati","state":"Maharashtra","latitude":20.9374,"longitude":77.7796,"temp":33.7,"humidity":49,"rain":0.0,"pressure":965.6,"uv_index":8.75,"wind_gusts":42.5,"aqi":69,"pm10":36.8,"pm2_5":16.9,"no2":1.7,"co":123.0,"o3":87.0,"so2":6.9,"mosquito_risk":0,"arthritis_risk":5,"migraine_risk":7,"frizz_risk":1,"updated_at":"2026-07-16T12:53:17.412903+05:30"},{"city":"Latur","state":"Maharashtra","latitude":18.4088,"longitude":76.5604,"temp":31.0,"humidity":55,"rain":0.0,"pressure":939.4,"uv_index":2.5,"wind_gusts":37.4,"aqi":54,"pm10":19.3,"pm2_5":8.5,"no2":0.7,"co":115.0,"o3":69.0,"so2":1.5,"mosquito_risk":0,"arthritis_risk":5,"migraine_risk":3,"frizz_risk":1,"updated_at":"2026-07-16T12:53:17.412912+05:30"},{"city":"Nanded","state":"Maharashtra","latitude":19.1383,"longitude":77.3091,"temp":32.6,"humidity":53,"rain":0.0,"pressure":967.5,"uv_index":8.75,"wind_gusts":36.4,"aqi":63,"pm10":30.3,"pm2_5":13.9,"no2":0.9,"co":126.0,"o3":85.0,"so2":2.9,"mosquito_risk":0,"arthritis_risk":5,"migraine_risk":7,"frizz_risk":1,"updated_at":"2026-07-16T12:53:17.412919+05:30"},{"city":"Gulbarga","state":"Karnataka","latitude":17.3297,"longitude":76.8343,"temp":31.7,"humidity":50,"rain":0.0,"pressure":958.4,"uv_index":8.45,"wind_gusts":40.3,"aqi":57,"pm10":20.1,"pm2_5":9.4,"no2":1.1,"co":118.0,"o3":81.0,"so2":2.2,"mosquito_risk":0,"arthritis_risk":5,"migraine_risk":7,"frizz_risk":1,"updated_at":"2026-07-16T12:53:17.412927+05:30"},{"city":"Bidar","state":"Karnataka","latitude":17.9104,"longitude":77.5199,"temp":30.9,"humidity":54,"rain":0.0,"pressure":935.1,"uv_index":8.2,"wind_gusts":38.5,"aqi":59,"pm10":37.1,"pm2_5":14.9,"no2":1.1,"co":124.0,"o3":87.0,"so2":2.7,"mosquito_risk":0,"arthritis_risk":5,"migraine_risk":7,"frizz_risk":1,"updated_at":"2026-07-16T12:53:17.412934+05:30"},{"city":"Hospet","state":"Karnataka","latitude":15.2689,"longitude":76.3909,"temp":31.3,"humidity":49,"rain":0.0,"pressure":955.9,"uv_index":8.25,"wind_gusts":46.4,"aqi":55,"pm10":33.9,"pm2_5":12.8,"no2":1.2,"co":113.0,"o3":68.0,"so2":1.8,"mosquito_risk":0,"arthritis_risk":5,"migraine_risk":7,"frizz_risk":1,"updated_at":"2026-07-16T12:53:17.412941+05:30"},{"city":"Tirupur","state":"Tamil Nadu","latitude":11.1085,"longitude":77.3411,"temp":34.6,"humidity":39,"rain":0.0,"pressure":975.2,"uv_index":8.2,"wind_gusts":59.0,"aqi":70,"pm10":34.0,"pm2_5":17.1,"no2":1.5,"co":154.0,"o3":104.0,"so2":2.7,"mosquito_risk":0,"arthritis_risk":5,"migraine_risk":7,"frizz_risk":1,"updated_at":"2026-07-16T12:53:17.412947+05:30"},{"city":"Alappuzha","state":"Kerala","latitude":9.4981,"longitude":76.3388,"temp":29.2,"humidity":74,"rain":0.0,"pressure":1010.5,"uv_index":8.05,"wind_gusts":33.8,"aqi":73,"pm10":38.4,"pm2_5":21.9,"no2":3.4,"co":95.0,"o3":90.0,"so2":4.6,"mosquito_risk":7,"arthritis_risk":0,"migraine_risk":4,"frizz_risk":1,"updated_at":"2026-07-16T12:53:17.412954+05:30"},{"city":"Munnar","state":"Kerala","latitude":10.0889,"longitude":77.0595,"temp":20.9,"humidity":81,"rain":0.1,"pressure":858.9,"uv_index":8.75,"wind_gusts":32.8,"aqi":58,"pm10":26.5,"pm2_5":12.5,"no2":1.0,"co":102.0,"o3":74.0,"so2":1.3,"mosquito_risk":6,"arthritis_risk":5,"migraine_risk":7,"frizz_risk":1,"updated_at":"2026-07-16T12:53:17.412962+05:30"},{"city":"Silchar","state":"Assam","latitude":24.8333,"longitude":92.7789,"temp":33.9,"humidity":63,"rain":0.0,"pressure":999.2,"uv_index":8.15,"wind_gusts":45.0,"aqi":60,"pm10":27.2,"pm2_5":13.8,"no2":1.0,"co":160.0,"o3":95.0,"so2":2.7,"mosquito_risk":3,"arthritis_risk":5,"migraine_risk":7,"frizz_risk":1,"updated_at":"2026-07-16T12:53:17.412970+05:30"},{"city":"Dibrugarh","state":"Assam","latitude":27.4728,"longitude":94.912,"temp":32.0,"humidity":71,"rain":0.0,"pressure":989.5,"uv_index":8.3,"wind_gusts":25.9,"aqi":45,"pm10":4.9,"pm2_5":4.8,"no2":1.4,"co":191.0,"o3":103.0,"so2":1.1,"mosquito_risk":3,"arthritis_risk":5,"migraine_risk":7,"frizz_risk":1,"updated_at":"2026-07-16T12:53:17.412977+05:30"}]