[{"city":"Delhi","state":"Delhi","latitude":28.6139,"longitude":77.209,"temp":34.1,"humidity":26,"rain":0.0,"pressure":982.9,"uv_index":6.15,"wind_gusts":32.8,"aqi":197,"pm10":377.2,"pm2_5":60.1,"mosquito_risk":0,"arthritis_risk":5,"migraine_risk":7,"frizz_risk":0,"updated_at":"2026-03-12T14:20:31.130953+05:30"},{"city":"Mumbai","state":"Maharashtra","latitude":19.076,"longitude":72.8777,"temp":28.4,"humidity":75,"rain":0.0,"pressure":1007.6,"uv_index":7.6,"wind_gusts":26.6,"aqi":186,"pm10":115.0,"pm2_5":110.4,"mosquito_risk":7,"arthritis_risk":5,"migraine_risk":4,"frizz_risk":1,"updated_at":"2026-03-12T14:20:31.130998+05:30"},{"city":"Bangalore","state":"Karnataka","latitude":12.9716,"longitude":77.5946,"temp":32.7,"humidity":20,"rain":0.0,"pressure":912.4,"uv_index":9.3,"wind_gusts":31.7,"aqi":68,"pm10":17.9,"pm2_5":14.4,"mosquito_risk":0,"arthritis_risk":5,"migraine_risk":7,"frizz_risk":0,"updated_at":"2026-03-12T14:20:31.131013+05:30"},{"city":"Hyderabad","state":"Telangana","latitude":17.385,"longitude":78.4867,"temp":36.4,"humidity":18,"rain":0.0,"pressure":953.9,"uv_index":8.65,"wind_gusts":23.0,"aqi":102,"pm10":32.7,"pm2_5":22.6,"mosquito_risk":0,"arthritis_risk":5,"migraine_risk":10,"frizz_risk":0,"updated_at":"2026-03-12T14:20:31.131022+05:30"},{"city":"Chennai","state":"Tamil Nadu","latitude":13.0827,"longitude":80.2707,"temp":33.2,"humidity":49,"rain":0.0,"pressure":1007.7,"uv_index":9.0,"wind_gusts":29.2,"aqi":75,"pm10":30.7,"pm2_5":26.0,"mosquito_risk":0,"arthritis_risk":5,"migraine_risk":4,"frizz_risk":1,"updated_at":"2026-03-12T14:20:31.131030+05:30"},{"city":"Kolkata","state":"West Bengal","latitude":22.5726,"longitude":88.3639,"temp":30.7,"humidity":62,"rain":0.0,"pressure":1005.7,"uv_index":8.0,"wind_gusts":20.9,"aqi":132,"pm10":74.3,"pm2_5":62.9,"mosquito_risk":3,"arthritis_risk":5,"migraine_risk":4,"frizz_risk":1,"updated_at":"2026-03-12T14:20:31.131037+05:30"},{"city":"Pune","state":"Maharashtra","latitude":18.5204,"longitude":73.8567,"temp":38.2,"humidity":17,"rain":0.0,"pressure":948.9,"uv_index":8.15,"wind_gusts":25.9,"aqi":147,"pm10":30.0,"pm2_5":25.7,"mosquito_risk":0,"arthritis_risk":5,"migraine_risk":10,"frizz_risk":0,"updated_at":"2026-03-12T14:20:31.131047+05:30"},{"city":"Ahmedabad","state":"Gujarat","latitude":23.0225,"longitude":72.5714,"temp":39.0,"humidity":12,"rain":0.0,"pressure":1002.8,"uv_index":7.45,"wind_gusts":28.4,"aqi":70,"pm10":18.5,"pm2_5":14.0,"mosquito_risk":0,"arthritis_risk":5,"migraine_risk":7,"frizz_risk":0,"updated_at":"2026-03-12T14:20:31.131054+05:30"},{"city":"Jaipur","state":"Rajasthan","latitude":26.9124,"longitude":75.7873,"temp":34.3,"humidity":13,"rain":0.0,"pressure":961.1,"uv_index":5.95,"wind_gusts":43.2,"aqi":104,"pm10":189.5,"pm2_5":24.4,"mosquito_risk":0,"arthritis_risk":5,"migraine_risk":3,"frizz_risk":0,"updated_at":"2026-03-12T14:20:31.131061+05:30"},{"city":"Lucknow","state":"Uttar Pradesh","latitude":26.8467,"longitude":80.9462,"temp":34.4,"humidity":30,"rain":0.0,"pressure":993.1,"uv_index":6.5,"wind_gusts":27.7,"aqi":154,"pm10":236.6,"pm2_5":54.1,"mosquito_risk":0,"arthritis_risk":5,"migraine_risk":7,"frizz_risk":0,"updated_at":"2026-03-12T14:20:31.131068+05:30"},{"city":"Kanpur","state":"Uttar Pradesh","latitude":26.4499,"longitude":80.3319,"temp":34.6,"humidity":40,"rain":0.0,"pressure":991.5,"uv_index":5.9,"wind_gusts":22.0,"aqi":174,"pm10":251.5,"pm2_5":39.5,"mosquito_risk":0,"arthritis_risk":5,"migraine_risk":3,"frizz_risk":1,"updated_at":"2026-03-12T14:20:31.131075+05:30"},{"city":"Chandigarh","state":"Chandigarh","latitude":30.7333,"longitude":76.7794,"temp":31.5,"humidity":35,"rain":0.0,"pressure":968.9,"uv_index":6.05,"wind_gusts":32.0,"aqi":100,"pm10":63.1,"pm2_5":20.8,"mosquito_risk":0,"arthritis_risk":5,"migraine_risk":7,"frizz_risk":0,"updated_at":"2026-03-12T14:20:31.131081+05:30"},{"city":"Srinagar","state":"Jammu and Kashmir","latitude":34.0837,"longitude":74.7973,"temp":12.8,"humidity":77,"rain":0.0,"pressure":841.3,"uv_index":6.35,"wind_gusts":24.8,"aqi":102,"pm10":4.1,"pm2_5":4.0,"mosquito_risk":3,"arthritis_risk":5,"migraine_risk":7,"frizz_risk":0,"updated_at":"2026-03-12T14:20:31.131088+05:30"},{"city":"Jammu","state":"Jammu and Kashmir","latitude":32.7266,"longitude":74.857,"temp":28.0,"humidity":52,"rain":0.0,"pressure":974.2,"uv_index":6.35,"wind_gusts":39.6,"aqi":81,"pm10":59.5,"pm2_5":25.1,"mosquito_risk":4,"arthritis_risk":5,"migraine_risk":7,"frizz_risk":1,"updated_at":"2026-03-12T14:20:31.131094+05:30"},{"city":"Amritsar","state":"Punjab","latitude":31.634,"longitude":74.8723,"temp":28.0,"humidity":57,"rain":0.0,"pressure":982.0,"uv_index":6.65,"wind_gusts":32.4,"aqi":157,"pm10":82.7,"pm2_5":41.9,"mosquito_risk":4,"arthritis_risk":5,"migraine_risk":7,"frizz_risk":1,"updated_at":"2026-03-12T14:20:31.131100+05:30"},{"city":"Ludhiana","state":"Punjab","latitude":30.901,"longitude":75.8573,"temp":29.8,"humidity":41,"rain":0.0,"pressure":979.2,"uv_index":6.2,"wind_gusts":59.4,"aqi":158,"pm10":37.0,"pm2_5":24.0,"mosquito_risk":4,"arthritis_risk":5,"migraine_risk":7,"frizz_risk":0,"updated_at":"2026-03-12T14:20:31.131106+05:30"},{"city":"Jalandhar","state":"Punjab","latitude":31.326,"longitude":75.5762,"temp":29.8,"humidity":40,"rain":0.0,"pressure":980.6,"uv_index":6.45,"wind_gusts":31.7,"aqi":153,"pm10":78.9,"pm2_5":29.6,"mosquito_risk":4,"arthritis_risk":5,"migraine_risk":7,"frizz_risk":0,"updated_at":"2026-03-12T14:20:31.131113+05:30"},{"city":"Dehradun","state":"Uttarakhand","latitude":30.6284,"longitude":78.0322,"temp":22.6,"humidity":39,"rain":0.0,"pressure":832.5,"uv_index":5.7,"wind_gusts":37.4,"aqi":58,"pm10":41.9,"pm2_5":13.3,"mosquito_risk":0,"arthritis_risk":5,"migraine_risk":3,"frizz_risk":0,"updated_at":"2026-03-12T14:20:31.131120+05:30"},{"city":"Shimla","state":"Himachal Pradesh","latitude":31.1048,"longitude":77.1734,"temp":19.6,"humidity":45,"rain":0.0,"pressure":787.4,"uv_index":6.5,"wind_gusts":42.1,"aqi":70,"pm10":45.6,"pm2_5":13.4,"mosquito_risk":0,"arthritis_risk":5,"migraine_risk":7,"frizz_risk":0,"updated_at":"2026-03-12T14:20:31.131125+05:30"},{"city":"Manali","state":"Himachal Pradesh","latitude":32.2396,"longitude":77.1887,"temp":15.5,"humidity":79,"rain":0.1,"pressure":821.0,"uv_index":4.0,"wind_gusts":44.3,"aqi":46,"pm10":10.5,"pm2_5":3.6,"mosquito_risk":6,"arthritis_risk":5,"migraine_risk":3,"frizz_risk":0,"updated_at":"2026-03-12T14:20:31.131131+05:30"},{"city":"Gurgaon","state":"Haryana","latitude":28.4595,"longitude":77.0266,"temp":34.0,"humidity":26,"rain":0.0,"pressure":981.5,"uv_index":6.15,"wind_gusts":34.2,"aqi":864,"pm10":1683.8,"pm2_5":169.0,"mosquito_risk":0,"arthritis_risk":5,"migraine_risk":7,"frizz_risk":0,"updated_at":"2026-03-12T14:20:31.131137+05:30"},{"city":"Noida","state":"Uttar Pradesh","latitude":28.5355,"longitude":77.391,"temp":35.0,"humidity":21,"rain":0.0,"pressure":984.3,"uv_index":6.05,"wind_gusts":32.0,"aqi":864,"pm10":1683.8,"pm2_5":169.0,"mosquito_risk":0,"arthritis_risk":5,"migraine_risk":7,"frizz_risk":0,"updated_at":"2026-03-12T14:20:31.131142+05:30"},{"city":"Ghaziabad","state":"Uttar Pradesh","latitude":28.6692,"longitude":77.4538,"temp":33.6,"humidity":32,"rain":0.0,"pressure":982.5,"uv_index":6.1,"wind_gusts":28.1,"aqi":156,"pm10":297.1,"pm2_5":56.8,"mosquito_risk":0,"arthritis_risk":5,"migraine_risk":7,"frizz_risk":0,"updated_at":"2026-03-12T14:20:31.131148+05:30"},{"city":"Faridabad","state":"Haryana","latitude":28.4089,"longitude":77.3178,"temp":35.1,"humidity":17,"rain":0.0,"pressure":983.5,"uv_index":6.2,"wind_gusts":32.0,"aqi":864,"pm10":1683.8,"pm2_5":169.0,"mosquito_risk":0,"arthritis_risk":5,"migraine_risk":10,"frizz_risk":0,"updated_at":"2026-03-12T14:20:31.131155+05:30"},{"city":"Meerut","state":"Uttar Pradesh","latitude":28.9845,"longitude":77.7064,"temp":33.1,"humidity":35,"rain":0.0,"pressure":981.3,"uv_index":6.0,"wind_gusts":24.1,"aqi":156,"pm10":297.1,"pm2_5":56.8,"mosquito_risk":0,"arthritis_risk":5,"migraine_risk":3,"frizz_risk":0,"updated_at":"2026-03-12T14:20:31.131161+05:30"},{"city":"Agra","state":"Uttar Pradesh","latitude":27.1767,"longitude":78.0081,"temp":37.8,"humidity":12,"rain":0.0,"pressure":987.2,"uv_index":6.15,"wind_gusts":32.4,"aqi":473,"pm10":951.8,"pm2_5":95.2,"mosquito_risk":0,"arthritis_risk":5,"migraine_risk":10,"frizz_risk":0,"updated_at":"2026-03-12T14:20:31.131166+05:30"},{"city":"Varanasi","state":"Uttar Pradesh","latitude":25.3176,"longitude":82.9739,"temp":34.5,"humidity":34,"rain":0.0,"pressure":997.0,"uv_index":7.3,"wind_gusts":26.6,"aqi":152,"pm10":176.5,"pm2_5":41.2,"mosquito_risk":0,"arthritis_risk":5,"migraine_risk":7,"frizz_risk":1,"updated_at":"2026-03-12T14:20:31.131173+05:30"},{"city":"Prayagraj","state":"Uttar Pradesh","latitude":25.4358,"longitude":81.8463,"temp":35.4,"humidity":33,"rain":0.0,"pressure":995.3,"uv_index":6.6,"wind_gusts":25.6,"aqi":151,"pm10":168.1,"pm2_5":38.6,"mosquito_risk":0,"arthritis_risk":5,"migraine_risk":10,"frizz_risk":1,"updated_at":"2026-03-12T14:20:31.131179+05:30"},{"city":"Gorakhpur","state":"Uttar Pradesh","latitude":26.7606,"longitude":83.3732,"temp":32.9,"humidity":43,"rain":0.0,"pressure":996.4,"uv_index":7.0,"wind_gusts":21.6,"aqi":230,"pm10":176.0,"pm2_5":94.5,"mosquito_risk":0,"arthritis_risk":5,"migraine_risk":7,"frizz_risk":1,"updated_at":"2026-03-12T14:20:31.131184+05:30"},{"city":"Bareilly","state":"Uttar Pradesh","latitude":28.367,"longitude":79.4304,"temp":32.9,"humidity":41,"rain":0.0,"pressure":986.6,"uv_index":6.25,"wind_gusts":23.8,"aqi":129,"pm10":61.7,"pm2_5":43.1,"mosquito_risk":0,"arthritis_risk":5,"migraine_risk":7,"frizz_risk":1,"updated_at":"2026-03-12T14:20:31.131189+05:30"},{"city":"Aligarh","state":"Uttar Pradesh","latitude":27.8974,"longitude":78.088,"temp":37.0,"humidity":15,"rain":0.0,"pressure":984.9,"uv_index":5.95,"wind_gusts":33.1,"aqi":489,"pm10":774.9,"pm2_5":99.2,"mosquito_risk":0,"arthritis_risk":5,"migraine_risk":6,"frizz_risk":0,"updated_at":"2026-03-12T14:20:31.131195+05:30"},{"city":"Moradabad","state":"Uttar Pradesh","latitude":28.8386,"longitude":78.7733,"temp":33.4,"humidity":35,"rain":0.0,"pressure":983.3,"uv_index":6.05,"wind_gusts":27.0,"aqi":126,"pm10":79.6,"pm2_5":52.0,"mosquito_risk":0,"arthritis_risk":5,"migraine_risk":7,"frizz_risk":0,"updated_at":"2026-03-12T14:20:31.131200+05:30"},{"city":"Saharanpur","state":"Uttar Pradesh","latitude":29.9637,"longitude":77.546,"temp":31.3,"humidity":40,"rain":0.0,"pressure":975.9,"uv_index":5.3,"wind_gusts":31.7,"aqi":149,"pm10":76.1,"pm2_5":44.0,"mosquito_risk":0,"arthritis_risk":5,"migraine_risk":3,"frizz_risk":1,"updated_at":"2026-03-12T14:20:31.131205+05:30"},{"city":"Jhansi","state":"Uttar Pradesh","latitude":25.4484,"longitude":78.5685,"temp":38.4,"humidity":14,"rain":0.0,"pressure":978.0,"uv_index":6.65,"wind_gusts":31.3,"aqi":60,"pm10":25.6,"pm2_5":9.3,"mosquito_risk":0,"arthritis_risk":5,"migraine_risk":10,"frizz_risk":0,"updated_at":"2026-03-12T14:20:34.430640+05:30"},{"city":"Surat","state":"Gujarat","latitude":21.1702,"longitude":72.8311,"temp":38.0,"humidity":23,"rain":0.0,"pressure":1006.7,"uv_index":7.3,"wind_gusts":26.6,"aqi":150,"pm10":46.8,"pm2_5":45.8,"mosquito_risk":0,"arthritis_risk":5,"migraine_risk":7,"frizz_risk":0,"updated_at":"2026-03-12T14:20:34.430672+05:30"},{"city":"Vadodara","state":"Gujarat","latitude":22.3072,"longitude":73.1812,"temp":40.7,"humidity":13,"rain":0.0,"pressure":1004.5,"uv_index":7.45,"wind_gusts":24.5,"aqi":77,"pm10":23.9,"pm2_5":22.1,"mosquito_risk":0,"arthritis_risk":5,"migraine_risk":7,"frizz_risk":0,"updated_at":"2026-03-12T14:20:34.430681+05:30"},{"city":"Rajkot","state":"Gujarat","latitude":22.3039,"longitude":70.8022,"temp":37.0,"humidity":18,"rain":0.0,"pressure":995.4,"uv_index":7.3,"wind_gusts":29.9,"aqi":58,"pm10":36.1,"pm2_5":16.3,"mosquito_risk":0,"arthritis_risk":5,"migraine_risk":10,"frizz_risk":0,"updated_at":"2026-03-12T14:20:34.430689+05:30"},{"city":"Thane","state":"Maharashtra","latitude":19.2183,"longitude":72.9781,"temp":33.4,"humidity":54,"rain":0.0,"pressure":1007.4,"uv_index":7.6,"wind_gusts":39.6,"aqi":186,"pm10":115.0,"pm2_5":110.4,"mosquito_risk":0,"arthritis_risk":5,"migraine_risk":4,"frizz_risk":1,"updated_at":"2026-03-12T14:20:34.430697+05:30"},{"city":"Nagpur","state":"Maharashtra","latitude":21.1458,"longitude":79.0882,"temp":37.4,"humidity":16,"rain":0.0,"pressure":973.4,"uv_index":8.0,"wind_gusts":15.8,"aqi":89,"pm10":37.5,"pm2_5":18.1,"mosquito_risk":0,"arthritis_risk":5,"migraine_risk":10,"frizz_risk":0,"updated_at":"2026-03-12T14:20:34.430705+05:30"},{"city":"Nashik","state":"Maharashtra","latitude":19.9975,"longitude":73.7898,"temp":37.0,"humidity":16,"rain":0.0,"pressure":946.3,"uv_index":7.8,"wind_gusts":25.2,"aqi":106,"pm10":14.8,"pm2_5":12.0,"mosquito_risk":0,"arthritis_risk":5,"migraine_risk":10,"frizz_risk":0,"updated_at":"2026-03-12T14:20:34.430712+05:30"},{"city":"Aurangabad","state":"Maharashtra","latitude":19.8762,"longitude":75.3433,"temp":37.0,"humidity":16,"rain":0.0,"pressure":944.8,"uv_index":8.35,"wind_gusts":20.5,"aqi":96,"pm10":23.2,"pm2_5":17.4,"mosquito_risk":0,"arthritis_risk":5,"migraine_risk":10,"frizz_risk":0,"updated_at":"2026-03-12T14:20:34.430719+05:30"},{"city":"Solapur","state":"Maharashtra","latitude":17.6599,"longitude":75.9064,"temp":35.6,"humidity":27,"rain":0.0,"pressure":957.6,"uv_index":8.5,"wind_gusts":17.6,"aqi":103,"pm10":35.2,"pm2_5":28.0,"mosquito_risk":0,"arthritis_risk":5,"migraine_risk":10,"frizz_risk":0,"updated_at":"2026-03-12T14:20:34.430727+05:30"},{"city":"Kolhapur","state":"Maharashtra","latitude":16.705,"longitude":74.2433,"temp":35.4,"humidity":24,"rain":0.0,"pressure":948.4,"uv_index":8.65,"wind_gusts":25.9,"aqi":152,"pm10":34.2,"pm2_5":27.8,"mosquito_risk":0,"arthritis_risk":5,"migraine_risk":10,"frizz_risk":0,"updated_at":"2026-03-12T14:20:34.430733+05:30"},{"city":"Goa","state":"Goa","latitude":15.2993,"longitude":74.124,"temp":32.1,"humidity":63,"rain":0.0,"pressure":997.1,"uv_index":8.7,"wind_gusts":34.9,"aqi":149,"pm10":49.2,"pm2_5":42.7,"mosquito_risk":3,"arthritis_risk":5,"migraine_risk":7,"frizz_risk":1,"updated_at":"2026-03-12T14:20:34.430741+05:30"},{"city":"Jodhpur","state":"Rajasthan","latitude":26.2389,"longitude":73.0243,"temp":36.0,"humidity":20,"rain":0.0,"pressure":984.0,"uv_index":6.65,"wind_gusts":27.0,"aqi":68,"pm10":80.3,"pm2_5":19.8,"mosquito_risk":0,"arthritis_risk":5,"migraine_risk":10,"frizz_risk":0,"updated_at":"2026-03-12T14:20:34.430747+05:30"},{"city":"Udaipur","state":"Rajasthan","latitude":24.5854,"longitude":73.7125,"temp":35.1,"humidity":9,"rain":0.0,"pressure":948.5,"uv_index":7.5,"wind_gusts":38.9,"aqi":51,"pm10":9.7,"pm2_5":8.8,"mosquito_risk":0,"arthritis_risk":5,"migraine_risk":10,"frizz_risk":1,"updated_at":"2026-03-12T14:20:34.430754+05:30"},{"city":"Kota","state":"Rajasthan","latitude":25.2138,"longitude":75.8648,"temp":37.7,"humidity":8,"rain":0.0,"pressure":979.6,"uv_index":6.75,"wind_gusts":34.6,"aqi":76,"pm10":11.2,"pm2_5":10.6,"mosquito_risk":0,"arthritis_risk":5,"migraine_risk":10,"frizz_risk":1,"updated_at":"2026-03-12T14:20:34.430761+05:30"},{"city":"Bikaner","state":"Rajasthan","latitude":28.0229,"longitude":73.3119,"temp":34.4,"humidity":25,"rain":0.0,"pressure":982.5,"uv_index":6.2,"wind_gusts":22.7,"aqi":91,"pm10":79.2,"pm2_5":25.4,"mosquito_risk":0,"arthritis_risk":5,"migraine_risk":7,"frizz_risk":0,"updated_at":"2026-03-12T14:20:34.430767+05:30"},{"city":"Ajmer","state":"Rajasthan","latitude":26.4499,"longitude":74.6399,"temp":33.6,"humidity":16,"rain":0.0,"pressure":956.2,"uv_index":6.7,"wind_gusts":36.0,"aqi":55,"pm10":20.6,"pm2_5":9.1,"mosquito_risk":0,"arthritis_risk":5,"migraine_risk":7,"frizz_risk":0,"updated_at":"2026-03-12T14:20:34.430774+05:30"},{"city":"Gwalior","state":"Madhya Pradesh","latitude":26.2183,"longitude":78.1828,"temp":36.0,"humidity":15,"rain":0.0,"pressure":983.6,"uv_index":6.25,"wind_gusts":37.8,"aqi":66,"pm10":39.5,"pm2_5":11.4,"mosquito_risk":0,"arthritis_risk":5,"migraine_risk":10,"frizz_risk":0,"updated_at":"2026-03-12T14:20:34.430781+05:30"},{"city":"Indore","state":"Madhya Pradesh","latitude":22.7196,"longitude":75.8577,"temp":36.0,"humidity":16,"rain":0.0,"pressure":949.7,"uv_index":7.75,"wind_gusts":28.1,"aqi":73,"pm10":21.4,"pm2_5":12.3,"mosquito_risk":0,"arthritis_risk":5,"migraine_risk":10,"frizz_risk":0,"updated_at":"2026-03-12T14:20:34.430787+05:30"},{"city":"Bhopal","state":"Madhya Pradesh","latitude":23.2599,"longitude":77.4126,"temp":36.1,"humidity":19,"rain":0.0,"pressure":955.1,"uv_index":7.6,"wind_gusts":29.5,"aqi":63,"pm10":19.4,"pm2_5":12.3,"mosquito_risk":0,"arthritis_risk":5,"migraine_risk":10,"frizz_risk":0,"updated_at":"2026-03-12T14:20:34.430794+05:30"},{"city":"Jabalpur","state":"Madhya Pradesh","latitude":23.1815,"longitude":79.9864,"temp":35.7,"humidity":17,"rain":0.0,"pressure":962.3,"uv_index":7.65,"wind_gusts":21.2,"aqi":89,"pm10":34.3,"pm2_5":11.6,"mosquito_risk":0,"arthritis_risk":5,"migraine_risk":10,"frizz_risk":0,"updated_at":"2026-03-12T14:20:34.430801+05:30"},{"city":"Ujjain","state":"Madhya Pradesh","latitude":23.1765,"longitude":75.7885,"temp":35.5,"humidity":19,"rain":0.0,"pressure":955.4,"uv_index":7.65,"wind_gusts":27.7,"aqi":96,"pm10":17.8,"pm2_5":13.3,"mosquito_risk":0,"arthritis_risk":5,"migraine_risk":10,"frizz_risk":0,"updated_at":"2026-03-12T14:20:34.430808+05:30"},{"city":"Visakhapatnam","state":"Andhra Pradesh","latitude":17.6868,"longitude":83.2185,"temp":33.3,"humidity":45,"rain":0.0,"pressure":1003.1,"uv_index":8.65,"wind_gusts":37.1,"aqi":87,"pm10":38.8,"pm2_5":34.2,"mosquito_risk":0,"arthritis_risk":5,"migraine_risk":4,"frizz_risk":1,"updated_at":"2026-03-12T14:20:34.430815+05:30"},{"city":"Vijayawada","state":"Andhra Pradesh","latitude":16.5062,"longitude":80.648,"temp":37.6,"humidity":26,"rain":0.0,"pressure":1001.7,"uv_index":8.7,"wind_gusts":29.2,"aqi":70,"pm10":28.9,"pm2_5":24.6,"mosquito_risk":0,"arthritis_risk":5,"migraine_risk":7,"frizz_risk":0,"updated_at":"2026-03-12T14:20:34.430822+05:30"},{"city":"Guntur","state":"Andhra Pradesh","latitude":16.3067,"longitude":80.4365,"temp":37.9,"humidity":26,"rain":0.0,"pressure":1002.9,"uv_index":8.7,"wind_gusts":30.6,"aqi":67,"pm10":28.5,"pm2_5":23.1,"mosquito_risk":0,"arthritis_risk":5,"migraine_risk":7,"frizz_risk":0,"updated_at":"2026-03-12T14:20:34.430829+05:30"},{"city":"Nellore","state":"Andhra Pradesh","latitude":14.4426,"longitude":79.9865,"temp":37.0,"humidity":31,"rain":0.0,"pressure":1005.4,"uv_index":8.9,"wind_gusts":26.6,"aqi":66,"pm10":34.1,"pm2_5":29.2,"mosquito_risk":0,"arthritis_risk":5,"migraine_risk":7,"frizz_risk":1,"updated_at":"2026-03-12T14:20:34.430836+05:30"},{"city":"Kurnool","state":"Andhra Pradesh","latitude":15.8281,"longitude":78.0373,"temp":38.0,"humidity":18,"rain":0.0,"pressure":976.8,"uv_index":8.65,"wind_gusts":25.2,"aqi":74,"pm10":28.8,"pm2_5":21.2,"mosquito_risk":0,"arthritis_risk":5,"migraine_risk":10,"frizz_risk":0,"updated_at":"2026-03-12T14:20:34.430844+05:30"},{"city":"Kakinada","state":"Andhra Pradesh","latitude":16.9891,"longitude":82.2475,"temp":38.3,"humidity":27,"rain":0.0,"pressure":1006.0,"uv_index":8.65,"wind_gusts":37.1,"aqi":70,"pm10":29.1,"pm2_5":24.2,"mosquito_risk":0,"arthritis_risk":5,"migraine_risk":7,"frizz_risk":0,"updated_at":"2026-03-12T14:20:34.430850+05:30"},{"city":"Tirupati","state":"Andhra Pradesh","latitude":13.6288,"longitude":79.4192,"temp":35.7,"humidity":28,"rain":0.0,"pressure":991.3,"uv_index":9.05,"wind_gusts":34.9,"aqi":89,"pm10":25.7,"pm2_5":22.8,"mosquito_risk":0,"arthritis_risk":5,"migraine_risk":10,"frizz_risk":0,"updated_at":"2026-03-12T14:20:34.430857+05:30"},{"city":"Warangal","state":"Telangana","latitude":17.9689,"longitude":79.5941,"temp":36.6,"humidity":24,"rain":0.0,"pressure":978.9,"uv_index":8.45,"wind_gusts":14.0,"aqi":106,"pm10":44.0,"pm2_5":35.2,"mosquito_risk":0,"arthritis_risk":5,"migraine_risk":10,"frizz_risk":0,"updated_at":"2026-03-12T14:20:34.430863+05:30"},{"city":"Nizamabad","state":"Telangana","latitude":18.6725,"longitude":78.0941,"temp":36.2,"humidity":25,"rain":0.0,"pressure":965.3,"uv_index":8.35,"wind_gusts":20.2,"aqi":109,"pm10":35.4,"pm2_5":27.2,"mosquito_risk":0,"arthritis_risk":5,"migraine_risk":10,"frizz_risk":0,"updated_at":"2026-03-12T14:20:34.430869+05:30"},{"city":"Mysore","state":"Karnataka","latitude":12.2958,"longitude":76.6396,"temp":32.8,"humidity":21,"rain":0.0,"pressure":928.8,"uv_index":9.3,"wind_gusts":33.5,"aqi":64,"pm10":13.0,"pm2_5":11.1,"mosquito_risk":0,"arthritis_risk":5,"migraine_risk":7,"frizz_risk":0,"updated_at":"2026-03-12T14:20:34.430876+05:30"},{"city":"Mangalore","state":"Karnataka","latitude":12.9141,"longitude":74.856,"temp":28.5,"humidity":87,"rain":0.0,"pressure":1004.6,"uv_index":8.95,"wind_gusts":33.8,"aqi":103,"pm10":42.4,"pm2_5":36.1,"mosquito_risk":7,"arthritis_risk":5,"migraine_risk":4,"frizz_risk":1,"updated_at":"2026-03-12T14:20:34.430883+05:30"},{"city":"Hubli-Dharwad","state":"Karnataka","latitude":15.3647,"longitude":75.124,"temp":35.8,"humidity":18,"rain":0.0,"pressure":941.1,"uv_index":8.85,"wind_gusts":34.9,"aqi":68,"pm10":21.2,"pm2_5":17.3,"mosquito_risk":0,"arthritis_risk":5,"migraine_risk":10,"frizz_risk":0,"updated_at":"2026-03-12T14:20:34.430890+05:30"},{"city":"Belgaum","state":"Karnataka","latitude":15.8497,"longitude":74.4977,"temp":34.8,"humidity":19,"rain":0.0,"pressure":926.6,"uv_index":8.9,"wind_gusts":37.8,"aqi":110,"pm10":25.2,"pm2_5":21.0,"mosquito_risk":0,"arthritis_risk":5,"migraine_risk":7,"frizz_risk":0,"updated_at":"2026-03-12T14:20:37.731502+05:30"},{"city":"Coimbatore","state":"Tamil Nadu","latitude":11.0168,"longitude":76.9558,"temp":34.0,"humidity":30,"rain":0.0,"pressure":961.2,"uv_index":9.3,"wind_gusts":45.4,"aqi":74,"pm10":15.2,"pm2_5":13.8,"mosquito_risk":0,"arthritis_risk":5,"migraine_risk":7,"frizz_risk":0,"updated_at":"2026-03-12T14:20:37.731531+05:30"},{"city":"Madurai","state":"Tamil Nadu","latitude":9.9252,"longitude":78.1198,"temp":35.8,"humidity":33,"rain":0.0,"pressure":991.7,"uv_index":9.2,"wind_gusts":33.1,"aqi":72,"pm10":19.5,"pm2_5":17.2,"mosquito_risk":0,"arthritis_risk":5,"migraine_risk":10,"frizz_risk":1,"updated_at":"2026-03-12T14:20:37.731540+05:30"},{"city":"Trichy","state":"Tamil Nadu","latitude":10.7905,"longitude":78.7047,"temp":34.2,"humidity":42,"rain":0.0,"pressure":999.1,"uv_index":9.15,"wind_gusts":27.0,"aqi":79,"pm10":26.3,"pm2_5":24.2,"mosquito_risk":0,"arthritis_risk":5,"migraine_risk":7,"frizz_risk":1,"updated_at":"2026-03-12T14:20:37.731549+05:30"},{"city":"Salem","state":"Tamil Nadu","latitude":11.6643,"longitude":78.146,"temp":34.4,"humidity":37,"rain":0.0,"pressure":976.9,"uv_index":9.2,"wind_gusts":28.8,"aqi":75,"pm10":19.7,"pm2_5":18.2,"mosquito_risk":0,"arthritis_risk":5,"migraine_risk":7,"frizz_risk":1,"updated_at":"2026-03-12T14:20:37.731556+05:30"},{"city":"Tirunelveli","state":"Tamil Nadu","latitude":8.7139,"longitude":77.7567,"temp":35.3,"humidity":36,"rain":0.0,"pressure":1001.9,"uv_index":8.3,"wind_gusts":34.6,"aqi":63,"pm10":15.9,"pm2_5":13.7,"mosquito_risk":0,"arthritis_risk":5,"migraine_risk":7,"frizz_risk":1,"updated_at":"2026-03-12T14:20:37.731564+05:30"},{"city":"Vellore","state":"Tamil Nadu","latitude":12.9165,"longitude":79.1325,"temp":35.1,"humidity":26,"rain":0.0,"pressure":984.5,"uv_index":9.1,"wind_gusts":34.9,"aqi":94,"pm10":18.8,"pm2_5":17.0,"mosquito_risk":0,"arthritis_risk":5,"migraine_risk":10,"frizz_risk":0,"updated_at":"2026-03-12T14:20:37.731571+05:30"},{"city":"Erode","state":"Tamil Nadu","latitude":11.341,"longitude":77.7172,"temp":35.3,"humidity":35,"rain":0.0,"pressure":988.4,"uv_index":9.2,"wind_gusts":22.7,"aqi":75,"pm10":23.2,"pm2_5":21.5,"mosquito_risk":0,"arthritis_risk":5,"migraine_risk":10,"frizz_risk":1,"updated_at":"2026-03-12T14:20:37.731578+05:30"},{"city":"Kochi","state":"Kerala","latitude":9.9312,"longitude":76.2673,"temp":28.6,"humidity":79,"rain":0.0,"pressure":1006.9,"uv_index":9.05,"wind_gusts":33.8,"aqi":95,"pm10":31.5,"pm2_5":29.6,"mosquito_risk":7,"arthritis_risk":5,"migraine_risk":4,"frizz_risk":1,"updated_at":"2026-03-12T14:20:37.731586+05:30"},{"city":"Thiruvananthapuram","state":"Kerala","latitude":8.5241,"longitude":76.9366,"temp":28.3,"humidity":79,"rain":0.0,"pressure":1006.6,"uv_index":8.95,"wind_gusts":25.9,"aqi":79,"pm10":18.9,"pm2_5":17.2,"mosquito_risk":7,"arthritis_risk":5,"migraine_risk":4,"frizz_risk":1,"updated_at":"2026-03-12T14:20:37.731593+05:30"},{"city":"Kozhikode","state":"Kerala","latitude":11.2588,"longitude":75.7804,"temp":30.1,"humidity":75,"rain":0.0,"pressure":1006.1,"uv_index":9.0,"wind_gusts":31.3,"aqi":100,"pm10":44.2,"pm2_5":40.2,"mosquito_risk":3,"arthritis_risk":5,"migraine_risk":4,"frizz_risk":1,"updated_at":"2026-03-12T14:20:37.731600+05:30"},{"city":"Thrissur","state":"Kerala","latitude":10.5276,"longitude":76.2144,"temp":33.1,"humidity":60,"rain":0.0,"pressure":1005.4,"uv_index":9.05,"wind_gusts":39.6,"aqi":98,"pm10":18.3,"pm2_5":16.7,"mosquito_risk":0,"arthritis_risk":5,"migraine_risk":4,"frizz_risk":1,"updated_at":"2026-03-12T14:20:37.731607+05:30"},{"city":"Kannur","state":"Kerala","latitude":11.8745,"longitude":75.3704,"temp":31.6,"humidity":65,"rain":0.0,"pressure":1005.3,"uv_index":9.0,"wind_gusts":31.7,"aqi":101,"pm10":31.9,"pm2_5":28.3,"mosquito_risk":3,"arthritis_risk":5,"migraine_risk":4,"frizz_risk":1,"updated_at":"2026-03-12T14:20:37.731649+05:30"},{"city":"Patna","state":"Bihar","latitude":25.5941,"longitude":85.1376,"temp":33.6,"humidity":39,"rain":0.0,"pressure":999.9,"uv_index":7.45,"wind_gusts":24.1,"aqi":237,"pm10":163.0,"pm2_5":127.6,"mosquito_risk":0,"arthritis_risk":5,"migraine_risk":7,"frizz_risk":1,"updated_at":"2026-03-12T14:20:37.731664+05:30"},{"city":"Gaya","state":"Bihar","latitude":24.7914,"longitude":85.0002,"temp":33.5,"humidity":34,"rain":0.0,"pressure":993.6,"uv_index":7.6,"wind_gusts":22.7,"aqi":193,"pm10":172.3,"pm2_5":59.3,"mosquito_risk":0,"arthritis_risk":5,"migraine_risk":7,"frizz_risk":0,"updated_at":"2026-03-12T14:20:37.731671+05:30"},{"city":"Muzaffarpur","state":"Bihar","latitude":26.1209,"longitude":85.3647,"temp":32.8,"humidity":47,"rain":0.0,"pressure":999.9,"uv_index":7.45,"wind_gusts":25.6,"aqi":243,"pm10":170.9,"pm2_5":143.4,"mosquito_risk":0,"arthritis_risk":5,"migraine_risk":7,"frizz_risk":1,"updated_at":"2026-03-12T14:20:37.731678+05:30"},{"city":"Bhagalpur","state":"Bihar","latitude":25.2425,"longitude":87.0117,"temp":30.2,"humidity":62,"rain":0.0,"pressure":1001.3,"uv_index":7.5,"wind_gusts":33.5,"aqi":186,"pm10":97.3,"pm2_5":88.5,"mosquito_risk":3,"arthritis_risk":5,"migraine_risk":4,"frizz_risk":1,"updated_at":"2026-03-12T14:20:37.731685+05:30"},{"city":"Ranchi","state":"Jharkhand","latitude":23.3441,"longitude":85.3096,"temp":32.1,"humidity":24,"rain":0.0,"pressure":938.5,"uv_index":8.2,"wind_gusts":35.6,"aqi":166,"pm10":130.9,"pm2_5":32.9,"mosquito_risk":0,"arthritis_risk":5,"migraine_risk":7,"frizz_risk":0,"updated_at":"2026-03-12T14:20:37.731691+05:30"},{"city":"Jamshedpur","state":"Jharkhand","latitude":22.8046,"longitude":86.2029,"temp":33.9,"humidity":38,"rain":0.0,"pressure":990.3,"uv_index":8.1,"wind_gusts":19.8,"aqi":170,"pm10":112.5,"pm2_5":75.7,"mosquito_risk":0,"arthritis_risk":5,"migraine_risk":7,"frizz_risk":1,"updated_at":"2026-03-12T14:20:37.731698+05:30"},{"city":"Dhanbad","state":"Jharkhand","latitude":23.7957,"longitude":86.4304,"temp":33.8,"humidity":32,"rain":0.0,"pressure":979.5,"uv_index":8.0,"wind_gusts":21.6,"aqi":198,"pm10":126.7,"pm2_5":88.7,"mosquito_risk":0,"arthritis_risk":5,"migraine_risk":7,"frizz_risk":0,"updated_at":"2026-03-12T14:20:37.731705+05:30"},{"city":"Bokaro","state":"Jharkhand","latitude":23.6693,"longitude":86.1511,"temp":33.9,"humidity":32,"rain":0.0,"pressure":983.5,"uv_index":8.0,"wind_gusts":24.1,"aqi":191,"pm10":127.6,"pm2_5":69.8,"mosquito_risk":0,"arthritis_risk":5,"migraine_risk":7,"frizz_risk":0,"updated_at":"2026-03-12T14:20:37.731713+05:30"},{"city":"Bhubaneswar","state":"Odisha","latitude":20.2961,"longitude":85.8245,"temp":35.5,"humidity":39,"rain":0.0,"pressure":1001.3,"uv_index":8.35,"wind_gusts":31.0,"aqi":106,"pm10":76.1,"pm2_5":58.9,"mosquito_risk":0,"arthritis_risk":5,"migraine_risk":7,"frizz_risk":1,"updated_at":"2026-03-12T14:20:37.731720+05:30"},{"city":"Cuttack","state":"Odisha","latitude":20.4625,"longitude":85.8828,"temp":36.3,"humidity":31,"rain":0.0,"pressure":1003.2,"uv_index":8.35,"wind_gusts":30.2,"aqi":106,"pm10":76.1,"pm2_5":58.9,"mosquito_risk":0,"arthritis_risk":5,"migraine_risk":7,"frizz_risk":1,"updated_at":"2026-03-12T14:20:37.731728+05:30"},{"city":"Rourkela","state":"Odisha","latitude":22.2604,"longitude":84.8536,"temp":34.8,"humidity":34,"rain":0.0,"pressure":984.8,"uv_index":8.0,"wind_gusts":16.9,"aqi":158,"pm10":158.8,"pm2_5":40.2,"mosquito_risk":0,"arthritis_risk":5,"migraine_risk":7,"frizz_risk":1,"updated_at":"2026-03-12T14:20:37.731735+05:30"},{"city":"Raipur","state":"Chhattisgarh","latitude":21.2514,"longitude":81.6296,"temp":37.1,"humidity":17,"rain":0.0,"pressure":974.8,"uv_index":8.1,"wind_gusts":15.5,"aqi":164,"pm10":55.4,"pm2_5":25.7,"mosquito_risk":0,"arthritis_risk":5,"migraine_risk":10,"frizz_risk":0,"updated_at":"2026-03-12T14:20:37.731742+05:30"},{"city":"Bhilai","state":"Chhattisgarh","latitude":21.1938,"longitude":81.3509,"temp":37.6,"humidity":18,"rain":0.0,"pressure":975.1,"uv_index":8.1,"wind_gusts":13.7,"aqi":158,"pm10":56.3,"pm2_5":26.9,"mosquito_risk":0,"arthritis_risk":5,"migraine_risk":10,"frizz_risk":0,"updated_at":"2026-03-12T14:20:37.731749+05:30"},{"city":"Guwahati","state":"Assam","latitude":26.1158,"longitude":91.7086,"temp":28.8,"humidity":64,"rain":0.0,"pressure":1001.4,"uv_index":7.05,"wind_gusts":24.1,"aqi":154,"pm10":75.2,"pm2_5":68.0,"mosquito_risk":7,"arthritis_risk":5,"migraine_risk":4,"frizz_risk":1,"updated_at":"2026-03-12T14:20:37.731756+05:30"},{"city":"Agartala","state":"Tripura","latitude":23.8315,"longitude":91.2868,"temp":27.8,"humidity":71,"rain":0.0,"pressure":1006.6,"uv_index":7.7,"wind_gusts":19.1,"aqi":161,"pm10":70.5,"pm2_5":57.9,"mosquito_risk":7,"arthritis_risk":5,"migraine_risk":4,"frizz_risk":1,"updated_at":"2026-03-12T14:20:37.731763+05:30"},{"city":"Shillong","state":"Meghalaya","latitude":25.5788,"longitude":91.8933,"temp":18.9,"humidity":60,"rain":0.0,"pressure":857.2,"uv_index":6.65,"wind_gusts":26.3,"aqi":127,"pm10":68.2,"pm2_5":59.8,"mosquito_risk":0,"arthritis_risk":5,"migraine_risk":7,"frizz_risk":0,"updated_at":"2026-03-12T14:20:37.731770+05:30"},{"city":"Imphal","state":"Manipur","latitude":24.817,"longitude":93.9368,"temp":22.1,"humidity":70,"rain":0.0,"pressure":923.4,"uv_index":8.0,"wind_gusts":31.0,"aqi":171,"pm10":67.1,"pm2_5":61.0,"mosquito_risk":3,"arthritis_risk":5,"migraine_risk":7,"frizz_risk":1,"updated_at":"2026-03-12T14:20:37.731778+05:30"},{"city":"Aizawl","state":"Mizoram","latitude":23.7271,"longitude":92.7176,"temp":23.6,"humidity":57,"rain":0.0,"pressure":893.3,"uv_index":7.9,"wind_gusts":36.4,"aqi":189,"pm10":108.7,"pm2_5":95.0,"mosquito_risk":0,"arthritis_risk":5,"migraine_risk":7,"frizz_risk":0,"updated_at":"2026-03-12T14:20:37.731784+05:30"},{"city":"Kohima","state":"Nagaland","latitude":25.6701,"longitude":94.1077,"temp":18.1,"humidity":84,"rain":0.0,"pressure":855.4,"uv_index":7.1,"wind_gusts":47.5,"aqi":152,"pm10":67.8,"pm2_5":62.2,"mosquito_risk":3,"arthritis_risk":10,"migraine_risk":7,"frizz_risk":0,"updated_at":"2026-03-12T14:20:37.731791+05:30"},{"city":"Gangtok","state":"Sikkim","latitude":27.3314,"longitude":88.6138,"temp":21.5,"humidity":57,"rain":0.0,"pressure":838.5,"uv_index":7.15,"wind_gusts":22.3,"aqi":137,"pm10":52.3,"pm2_5":47.5,"mosquito_risk":0,"arthritis_risk":5,"migraine_risk":7,"frizz_risk":0,"updated_at":"2026-03-12T14:20:37.731798+05:30"},{"city":"Siliguri","state":"West Bengal","latitude":26.7271,"longitude":88.3953,"temp":22.7,"humidity":81,"rain":0.0,"pressure":994.5,"uv_index":7.35,"wind_gusts":23.8,"aqi":176,"pm10":77.8,"pm2_5":70.5,"mosquito_risk":3,"arthritis_risk":5,"migraine_risk":7,"frizz_risk":1,"updated_at":"2026-03-12T14:20:41.033484+05:30"},{"city":"Durgapur","state":"West Bengal","latitude":23.5204,"longitude":87.3119,"temp":32.2,"humidity":49,"rain":0.0,"pressure":994.6,"uv_index":7.8,"wind_gusts":25.6,"aqi":186,"pm10":81.3,"pm2_5":72.6,"mosquito_risk":0,"arthritis_risk":5,"migraine_risk":7,"frizz_risk":1,"updated_at":"2026-03-12T14:20:41.033513+05:30"},{"city":"Asansol","state":"West Bengal","latitude":23.6739,"longitude":86.9524,"temp":32.3,"humidity":47,"rain":0.0,"pressure":993.2,"uv_index":7.35,"wind_gusts":26.3,"aqi":187,"pm10":122.0,"pm2_5":99.2,"mosquito_risk":0,"arthritis_risk":5,"migraine_risk":7,"frizz_risk":1,"updated_at":"2026-03-12T14:20:41.033522+05:30"},{"city":"Pondicherry","state":"Puducherry","latitude":11.9139,"longitude":79.8145,"temp":34.1,"humidity":50,"rain":0.0,"pressure":1008.1,"uv_index":9.0,"wind_gusts":28.4,"aqi":70,"pm10":25.5,"pm2_5":21.1,"mosquito_risk":0,"arthritis_risk":0,"migraine_risk":4,"frizz_risk":1,"updated_at":"2026-03-12T14:20:41.033530+05:30"},{"city":"Port Blair","state":"Andaman and Nicobar Islands","latitude":11.6234,"longitude":92.7265,"temp":28.6,"humidity":72,"rain":0.0,"pressure":1006.1,"uv_index":8.95,"wind_gusts":21.6,"aqi":46,"pm10":16.5,"pm2_5":13.3,"mosquito_risk":7,"arthritis_risk":5,"migraine_risk":4,"frizz_risk":1,"updated_at":"2026-03-12T14:20:41.033537+05:30"},{"city":"Haridwar","state":"Uttarakhand","latitude":29.9457,"longitude":78.1642,"temp":31.6,"humidity":41,"rain":0.0,"pressure":974.4,"uv_index":5.25,"wind_gusts":29.9,"aqi":100,"pm10":61.5,"pm2_5":38.0,"mosquito_risk":0,"arthritis_risk":5,"migraine_risk":3,"frizz_risk":1,"updated_at":"2026-03-12T14:20:41.033545+05:30"},{"city":"Rishikesh","state":"Uttarakhand","latitude":30.0869,"longitude":78.2676,"temp":31.4,"humidity":37,"rain":0.0,"pressure":967.1,"uv_index":5.4,"wind_gusts":26.6,"aqi":80,"pm10":60.5,"pm2_5":28.1,"mosquito_risk":0,"arthritis_risk":5,"migraine_risk":3,"frizz_risk":0,"updated_at":"2026-03-12T14:20:41.033552+05:30"},{"city":"Nainital","state":"Uttarakhand","latitude":29.3919,"longitude":79.4542,"temp":24.4,"humidity":49,"rain":0.0,"pressure":808.8,"uv_index":6.5,"wind_gusts":55.1,"aqi":86,"pm10":54.7,"pm2_5":28.3,"mosquito_risk":0,"arthritis_risk":5,"migraine_risk":7,"frizz_risk":0,"updated_at":"2026-03-12T14:20:41.033559+05:30"},{"city":"Mussoorie","state":"Uttarakhand","latitude":30.4599,"longitude":78.0664,"temp":23.5,"humidity":39,"rain":0.0,"pressure":805.7,"uv_index":5.95,"wind_gusts":45.7,"aqi":85,"pm10":60.8,"pm2_5":24.0,"mosquito_risk":0,"arthritis_risk":5,"migraine_risk":3,"frizz_risk":0,"updated_at":"2026-03-12T14:20:41.033566+05:30"},{"city":"Dharamshala","state":"Himachal Pradesh","latitude":32.219,"longitude":76.3234,"temp":24.8,"humidity":41,"rain":0.0,"pressure":870.9,"uv_index":6.55,"wind_gusts":36.4,"aqi":55,"pm10":31.8,"pm2_5":9.6,"mosquito_risk":0,"arthritis_risk":5,"migraine_risk":7,"frizz_risk":0,"updated_at":"2026-03-12T14:20:41.033573+05:30"},{"city":"Dalhousie","state":"Himachal Pradesh","latitude":32.5387,"longitude":75.971,"temp":21.2,"humidity":42,"rain":0.0,"pressure":806.0,"uv_index":5.95,"wind_gusts":36.0,"aqi":83,"pm10":43.9,"pm2_5":14.8,"mosquito_risk":0,"arthritis_risk":5,"migraine_risk":3,"frizz_risk":0,"updated_at":"2026-03-12T14:20:41.033580+05:30"},{"city":"Patiala","state":"Punjab","latitude":30.3398,"longitude":76.3869,"temp":30.6,"humidity":43,"rain":0.0,"pressure":978.4,"uv_index":5.75,"wind_gusts":31.0,"aqi":161,"pm10":315.7,"pm2_5":53.0,"mosquito_risk":0,"arthritis_risk":5,"migraine_risk":3,"frizz_risk":1,"updated_at":"2026-03-12T14:20:41.033587+05:30"},{"city":"Bhatinda","state":"Punjab","latitude":30.211,"longitude":74.9455,"temp":29.4,"humidity":54,"rain":0.0,"pressure":984.5,"uv_index":6.45,"wind_gusts":27.4,"aqi":155,"pm10":122.0,"pm2_5":51.2,"mosquito_risk":4,"arthritis_risk":5,"migraine_risk":7,"frizz_risk":1,"updated_at":"2026-03-12T14:20:41.033594+05:30"},{"city":"Rohtak","state":"Haryana","latitude":28.8955,"longitude":76.6066,"temp":32.6,"humidity":35,"rain":0.0,"pressure":982.0,"uv_index":6.1,"wind_gusts":27.7,"aqi":326,"pm10":516.0,"pm2_5":71.5,"mosquito_risk":0,"arthritis_risk":5,"migraine_risk":7,"frizz_risk":0,"updated_at":"2026-03-12T14:20:41.033601+05:30"},{"city":"Panipat","state":"Haryana","latitude":29.3909,"longitude":76.9635,"temp":32.3,"humidity":39,"rain":0.0,"pressure":980.5,"uv_index":5.45,"wind_gusts":24.5,"aqi":448,"pm10":750.6,"pm2_5":92.7,"mosquito_risk":0,"arthritis_risk":5,"migraine_risk":3,"frizz_risk":1,"updated_at":"2026-03-12T14:20:41.033608+05:30"},{"city":"Mathura","state":"Uttar Pradesh","latitude":27.4924,"longitude":77.6737,"temp":37.8,"humidity":12,"rain":0.0,"pressure":986.3,"uv_index":5.35,"wind_gusts":35.3,"aqi":440,"pm10":709.7,"pm2_5":82.2,"mosquito_risk":0,"arthritis_risk":5,"migraine_risk":6,"frizz_risk":0,"updated_at":"2026-03-12T14:20:41.033642+05:30"},{"city":"Vrindavan","state":"Uttar Pradesh","latitude":27.5823,"longitude":77.7027,"temp":37.4,"humidity":14,"rain":0.0,"pressure":986.7,"uv_index":5.25,"wind_gusts":36.7,"aqi":440,"pm10":709.7,"pm2_5":82.2,"mosquito_risk":0,"arthritis_risk":5,"migraine_risk":6,"frizz_risk":0,"updated_at":"2026-03-12T14:20:41.033655+05:30"},{"city":"Ayodhya","state":"Uttar Pradesh","latitude":26.7922,"longitude":82.1998,"temp":34.1,"humidity":34,"rain":0.0,"pressure":994.6,"uv_index":6.45,"wind_gusts":30.6,"aqi":159,"pm10":207.7,"pm2_5":58.8,"mosquito_risk":0,"arthritis_risk":5,"migraine_risk":7,"frizz_risk":0,"updated_at":"2026-03-12T14:20:41.033664+05:30"},{"city":"Ratlam","state":"Madhya Pradesh","latitude":23.3315,"longitude":75.0367,"temp":35.9,"humidity":14,"rain":0.0,"pressure":956.5,"uv_index":7.6,"wind_gusts":32.0,"aqi":83,"pm10":13.0,"pm2_5":11.2,"mosquito_risk":0,"arthritis_risk":5,"migraine_risk":10,"frizz_risk":0,"updated_at":"2026-03-12T14:20:41.033671+05:30"},{"city":"Sagar","state":"Madhya Pradesh","latitude":23.8388,"longitude":78.7378,"temp":36.1,"humidity":15,"rain":0.0,"pressure":951.4,"uv_index":7.5,"wind_gusts":27.4,"aqi":62,"pm10":22.2,"pm2_5":9.4,"mosquito_risk":0,"arthritis_risk":5,"migraine_risk":10,"frizz_risk":0,"updated_at":"2026-03-12T14:20:41.033679+05:30"},{"city":"Satna","state":"Madhya Pradesh","latitude":24.6005,"longitude":80.8322,"temp":38.2,"humidity":14,"rain":0.0,"pressure":971.1,"uv_index":7.55,"wind_gusts":33.5,"aqi":71,"pm10":26.7,"pm2_5":9.8,"mosquito_risk":0,"arthritis_risk":5,"migraine_risk":10,"frizz_risk":0,"updated_at":"2026-03-12T14:20:41.033686+05:30"},{"city":"Akola","state":"Maharashtra","latitude":20.7002,"longitude":77.0082,"temp":38.6,"humidity":18,"rain":0.0,"pressure":975.2,"uv_index":8.05,"wind_gusts":20.9,"aqi":97,"pm10":26.7,"pm2_5":15.9,"mosquito_risk":0,"arthritis_risk":5,"migraine_risk":10,"frizz_risk":0,"updated_at":"2026-03-12T14:20:41.033694+05:30"},{"city":"Amravati","state":"Maharashtra","latitude":20.9374,"longitude":77.7796,"temp":38.4,"humidity":15,"rain":0.0,"pressure":967.6,"uv_index":8.0,"wind_gusts":16.9,"aqi":95,"pm10":26.4,"pm2_5":14.7,"mosquito_risk":0,"arthritis_risk":5,"migraine_risk":10,"frizz_risk":0,"updated_at":"2026-03-12T14:20:41.033701+05:30"},{"city":"Latur","state":"Maharashtra","latitude":18.4088,"longitude":76.5604,"temp":34.9,"humidity":23,"rain":0.0,"pressure":940.8,"uv_index":8.45,"wind_gusts":19.1,"aqi":92,"pm10":30.2,"pm2_5":24.0,"mosquito_risk":0,"arthritis_risk":5,"migraine_risk":7,"frizz_risk":0,"updated_at":"2026-03-12T14:20:41.033708+05:30"},{"city":"Nanded","state":"Maharashtra","latitude":19.1383,"longitude":77.3091,"temp":38.4,"humidity":18,"rain":0.0,"pressure":968.8,"uv_index":8.25,"wind_gusts":16.6,"aqi":97,"pm10":32.9,"pm2_5":26.4,"mosquito_risk":0,"arthritis_risk":5,"migraine_risk":10,"frizz_risk":0,"updated_at":"2026-03-12T14:20:41.033715+05:30"},{"city":"Gulbarga","state":"Karnataka","latitude":17.3297,"longitude":76.8343,"temp":36.9,"humidity":21,"rain":0.0,"pressure":959.0,"uv_index":8.55,"wind_gusts":18.0,"aqi":105,"pm10":31.1,"pm2_5":23.6,"mosquito_risk":0,"arthritis_risk":5,"migraine_risk":10,"frizz_risk":0,"updated_at":"2026-03-12T14:20:41.033722+05:30"},{"city":"Bidar","state":"Karnataka","latitude":17.9104,"longitude":77.5199,"temp":35.4,"humidity":22,"rain":0.0,"pressure":936.2,"uv_index":8.5,"wind_gusts":19.1,"aqi":103,"pm10":31.9,"pm2_5":22.8,"mosquito_risk":0,"arthritis_risk":5,"migraine_risk":10,"frizz_risk":0,"updated_at":"2026-03-12T14:20:41.033729+05:30"},{"city":"Hospet","state":"Karnataka","latitude":15.2689,"longitude":76.3909,"temp":35.4,"humidity":21,"rain":0.0,"pressure":956.1,"uv_index":8.8,"wind_gusts":32.4,"aqi":75,"pm10":26.8,"pm2_5":21.1,"mosquito_risk":0,"arthritis_risk":5,"migraine_risk":10,"frizz_risk":0,"updated_at":"2026-03-12T14:20:41.033735+05:30"},{"city":"Tirupur","state":"Tamil Nadu","latitude":11.1085,"longitude":77.3411,"temp":35.3,"humidity":26,"rain":0.0,"pressure":974.7,"uv_index":9.3,"wind_gusts":32.8,"aqi":81,"pm10":22.9,"pm2_5":21.3,"mosquito_risk":0,"arthritis_risk":5,"migraine_risk":10,"frizz_risk":0,"updated_at":"2026-03-12T14:20:41.033742+05:30"},{"city":"Alappuzha","state":"Kerala","latitude":9.4981,"longitude":76.3388,"temp":28.5,"humidity":78,"rain":0.0,"pressure":1007.2,"uv_index":8.9,"wind_gusts":30.6,"aqi":85,"pm10":28.4,"pm2_5":26.4,"mosquito_risk":7,"arthritis_risk":5,"migraine_risk":4,"frizz_risk":1,"updated_at":"2026-03-12T14:20:41.033749+05:30"},{"city":"Munnar","state":"Kerala","latitude":10.0889,"longitude":77.0595,"temp":30.9,"humidity":35,"rain":0.0,"pressure":858.5,"uv_index":9.5,"wind_gusts":20.5,"aqi":74,"pm10":14.6,"pm2_5":12.8,"mosquito_risk":0,"arthritis_risk":5,"migraine_risk":7,"frizz_risk":0,"updated_at":"2026-03-12T14:20:41.033756+05:30"},{"city":"Silchar","state":"Assam","latitude":24.8333,"longitude":92.7789,"temp":29.1,"humidity":63,"rain":0.0,"pressure":1005.2,"uv_index":7.7,"wind_gusts":23.8,"aqi":185,"pm10":96.4,"pm2_5":84.1,"mosquito_risk":7,"arthritis_risk":5,"migraine_risk":4,"frizz_risk":1,"updated_at":"2026-03-12T14:20:41.033763+05:30"},{"city":"Dibrugarh","state":"Assam","latitude":27.4728,"longitude":94.912,"temp":26.7,"humidity":67,"rain":0.0,"pressure":996.1,"uv_index":6.3,"wind_gusts":20.2,"aqi":156,"pm10":79.9,"pm2_5":72.6,"mosquito_risk":7,"arthritis_risk":5,"migraine_risk":7,"frizz_risk":1,"updated_at":"2026-03-12T14:20:41.033769+05:30"}]