[{"city":"Delhi","state":"Delhi","latitude":28.6139,"longitude":77.209,"temp":30.9,"humidity":68,"rain":0.0,"pressure":976.5,"uv_index":7.7,"wind_gusts":30.2,"aqi":492,"pm10":390.2,"pm2_5":125.3,"no2":41.4,"co":342.0,"o3":20.0,"so2":15.3,"mosquito_risk":3,"arthritis_risk":5,"migraine_risk":7,"frizz_risk":1,"updated_at":"2026-07-18T03:30:54.194111+05:30"},{"city":"Mumbai","state":"Maharashtra","latitude":19.076,"longitude":72.8777,"temp":25.3,"humidity":96,"rain":0.0,"pressure":1006.1,"uv_index":7.25,"wind_gusts":37.1,"aqi":66,"pm10":28.2,"pm2_5":12.5,"no2":5.7,"co":123.0,"o3":47.0,"so2":5.3,"mosquito_risk":7,"arthritis_risk":5,"migraine_risk":4,"frizz_risk":1,"updated_at":"2026-07-18T03:30:54.194160+05:30"},{"city":"Bangalore","state":"Karnataka","latitude":12.9716,"longitude":77.5946,"temp":20.4,"humidity":92,"rain":0.0,"pressure":910.3,"uv_index":5.05,"wind_gusts":47.5,"aqi":38,"pm10":7.8,"pm2_5":5.1,"no2":6.7,"co":147.0,"o3":38.0,"so2":3.4,"mosquito_risk":3,"arthritis_risk":5,"migraine_risk":3,"frizz_risk":1,"updated_at":"2026-07-18T03:30:54.194175+05:30"},{"city":"Hyderabad","state":"Telangana","latitude":17.385,"longitude":78.4867,"temp":23.9,"humidity":90,"rain":0.0,"pressure":950.5,"uv_index":2.7,"wind_gusts":43.6,"aqi":60,"pm10":14.8,"pm2_5":9.9,"no2":9.0,"co":170.0,"o3":39.0,"so2":4.7,"mosquito_risk":3,"arthritis_risk":5,"migraine_risk":3,"frizz_risk":1,"updated_at":"2026-07-18T03:30:54.194185+05:30"},{"city":"Chennai","state":"Tamil Nadu","latitude":13.0827,"longitude":80.2707,"temp":25.8,"humidity":92,"rain":0.1,"pressure":1005.3,"uv_index":5.15,"wind_gusts":40.0,"aqi":73,"pm10":17.5,"pm2_5":14.2,"no2":24.5,"co":218.0,"o3":24.0,"so2":11.5,"mosquito_risk":10,"arthritis_risk":5,"migraine_risk":0,"frizz_risk":1,"updated_at":"2026-07-18T03:30:54.194194+05:30"},{"city":"Kolkata","state":"West Bengal","latitude":22.5726,"longitude":88.3639,"temp":26.3,"humidity":96,"rain":0.0,"pressure":1000.0,"uv_index":8.2,"wind_gusts":37.1,"aqi":69,"pm10":14.5,"pm2_5":12.9,"no2":10.3,"co":237.0,"o3":69.0,"so2":6.9,"mosquito_risk":7,"arthritis_risk":5,"migraine_risk":4,"frizz_risk":1,"updated_at":"2026-07-18T03:30:54.194203+05:30"},{"city":"Pune","state":"Maharashtra","latitude":18.5204,"longitude":73.8567,"temp":23.0,"humidity":89,"rain":0.0,"pressure":945.8,"uv_index":7.7,"wind_gusts":45.7,"aqi":39,"pm10":3.8,"pm2_5":3.0,"no2":7.7,"co":118.0,"o3":35.0,"so2":7.0,"mosquito_risk":3,"arthritis_risk":5,"migraine_risk":7,"frizz_risk":1,"updated_at":"2026-07-18T03:30:54.194210+05:30"},{"city":"Ahmedabad","state":"Gujarat","latitude":23.0225,"longitude":72.5714,"temp":28.7,"humidity":77,"rain":0.0,"pressure":998.1,"uv_index":5.5,"wind_gusts":34.6,"aqi":69,"pm10":23.6,"pm2_5":13.7,"no2":7.6,"co":126.0,"o3":36.0,"so2":5.0,"mosquito_risk":7,"arthritis_risk":5,"migraine_risk":3,"frizz_risk":1,"updated_at":"2026-07-18T03:30:54.194217+05:30"},{"city":"Jaipur","state":"Rajasthan","latitude":26.9124,"longitude":75.7873,"temp":30.2,"humidity":56,"rain":0.0,"pressure":954.7,"uv_index":7.25,"wind_gusts":36.0,"aqi":277,"pm10":516.0,"pm2_5":88.7,"no2":11.4,"co":172.0,"o3":45.0,"so2":4.8,"mosquito_risk":0,"arthritis_risk":5,"migraine_risk":7,"frizz_risk":1,"updated_at":"2026-07-18T03:30:54.194224+05:30"},{"city":"Lucknow","state":"Uttar Pradesh","latitude":26.8467,"longitude":80.9462,"temp":27.7,"humidity":90,"rain":0.0,"pressure":987.0,"uv_index":8.2,"wind_gusts":26.3,"aqi":164,"pm10":141.6,"pm2_5":71.2,"no2":19.0,"co":398.0,"o3":61.0,"so2":9.3,"mosquito_risk":7,"arthritis_risk":5,"migraine_risk":7,"frizz_risk":1,"updated_at":"2026-07-18T03:30:54.194235+05:30"},{"city":"Kanpur","state":"Uttar Pradesh","latitude":26.4499,"longitude":80.3319,"temp":28.9,"humidity":88,"rain":0.0,"pressure":985.1,"uv_index":8.15,"wind_gusts":25.6,"aqi":165,"pm10":142.5,"pm2_5":73.6,"no2":28.6,"co":347.0,"o3":34.0,"so2":7.5,"mosquito_risk":7,"arthritis_risk":5,"migraine_risk":7,"frizz_risk":1,"updated_at":"2026-07-18T03:30:54.194243+05:30"},{"city":"Chandigarh","state":"Chandigarh","latitude":30.7333,"longitude":76.7794,"temp":28.5,"humidity":75,"rain":0.0,"pressure":962.1,"uv_index":5.8,"wind_gusts":27.7,"aqi":152,"pm10":71.9,"pm2_5":62.6,"no2":31.0,"co":750.0,"o3":53.0,"so2":13.6,"mosquito_risk":7,"arthritis_risk":5,"migraine_risk":3,"frizz_risk":1,"updated_at":"2026-07-18T03:30:54.194250+05:30"},{"city":"Srinagar","state":"Jammu and Kashmir","latitude":34.0837,"longitude":74.7973,"temp":21.9,"humidity":81,"rain":0.0,"pressure":837.6,"uv_index":9.05,"wind_gusts":25.9,"aqi":100,"pm10":56.1,"pm2_5":51.9,"no2":39.7,"co":600.0,"o3":14.0,"so2":2.8,"mosquito_risk":3,"arthritis_risk":5,"migraine_risk":7,"frizz_risk":1,"updated_at":"2026-07-18T03:30:54.194256+05:30"},{"city":"Jammu","state":"Jammu and Kashmir","latitude":32.7266,"longitude":74.857,"temp":28.6,"humidity":82,"rain":0.0,"pressure":966.2,"uv_index":8.6,"wind_gusts":25.2,"aqi":153,"pm10":70.8,"pm2_5":51.8,"no2":29.4,"co":413.0,"o3":33.0,"so2":4.5,"mosquito_risk":7,"arthritis_risk":5,"migraine_risk":7,"frizz_risk":1,"updated_at":"2026-07-18T03:30:54.194263+05:30"},{"city":"Amritsar","state":"Punjab","latitude":31.634,"longitude":74.8723,"temp":28.4,"humidity":91,"rain":0.0,"pressure":973.7,"uv_index":8.25,"wind_gusts":20.5,"aqi":170,"pm10":217.0,"pm2_5":114.1,"no2":69.8,"co":559.0,"o3":1.0,"so2":11.6,"mosquito_risk":7,"arthritis_risk":5,"migraine_risk":7,"frizz_risk":1,"updated_at":"2026-07-18T03:30:54.194271+05:30"},{"city":"Ludhiana","state":"Punjab","latitude":30.901,"longitude":75.8573,"temp":29.1,"humidity":85,"rain":0.0,"pressure":971.8,"uv_index":5.8,"wind_gusts":22.0,"aqi":179,"pm10":204.0,"pm2_5":141.6,"no2":80.0,"co":1267.0,"o3":0.0,"so2":12.5,"mosquito_risk":7,"arthritis_risk":5,"migraine_risk":3,"frizz_risk":1,"updated_at":"2026-07-18T03:30:54.194277+05:30"},{"city":"Jalandhar","state":"Punjab","latitude":31.326,"longitude":75.5762,"temp":28.8,"humidity":86,"rain":0.0,"pressure":972.8,"uv_index":8.2,"wind_gusts":18.7,"aqi":175,"pm10":166.2,"pm2_5":107.8,"no2":60.6,"co":1308.0,"o3":1.0,"so2":6.6,"mosquito_risk":7,"arthritis_risk":5,"migraine_risk":7,"frizz_risk":1,"updated_at":"2026-07-18T03:30:54.194283+05:30"},{"city":"Dehradun","state":"Uttarakhand","latitude":30.6284,"longitude":78.0322,"temp":19.5,"humidity":99,"rain":0.0,"pressure":827.4,"uv_index":6.75,"wind_gusts":25.2,"aqi":101,"pm10":40.2,"pm2_5":34.2,"no2":8.3,"co":342.0,"o3":127.0,"so2":7.7,"mosquito_risk":3,"arthritis_risk":10,"migraine_risk":7,"frizz_risk":1,"updated_at":"2026-07-18T03:30:54.194289+05:30"},{"city":"Shimla","state":"Himachal Pradesh","latitude":31.1048,"longitude":77.1734,"temp":17.0,"humidity":90,"rain":0.0,"pressure":782.3,"uv_index":5.65,"wind_gusts":36.0,"aqi":104,"pm10":37.5,"pm2_5":27.1,"no2":8.1,"co":245.0,"o3":89.0,"so2":2.9,"mosquito_risk":3,"arthritis_risk":10,"migraine_risk":3,"frizz_risk":0,"updated_at":"2026-07-18T03:30:54.194298+05:30"},{"city":"Manali","state":"Himachal Pradesh","latitude":32.2396,"longitude":77.1887,"temp":20.9,"humidity":87,"rain":0.0,"pressure":817.0,"uv_index":6.45,"wind_gusts":29.5,"aqi":51,"pm10":15.2,"pm2_5":12.6,"no2":16.5,"co":238.0,"o3":38.0,"so2":0.0,"mosquito_risk":3,"arthritis_risk":5,"migraine_risk":7,"frizz_risk":1,"updated_at":"2026-07-18T03:30:54.194306+05:30"},{"city":"Gurgaon","state":"Haryana","latitude":28.4595,"longitude":77.0266,"temp":30.6,"humidity":67,"rain":0.0,"pressure":975.0,"uv_index":6.9,"wind_gusts":33.8,"aqi":526,"pm10":339.9,"pm2_5":102.2,"no2":21.0,"co":313.0,"o3":40.0,"so2":8.2,"mosquito_risk":3,"arthritis_risk":5,"migraine_risk":7,"frizz_risk":1,"updated_at":"2026-07-18T03:30:54.194313+05:30"},{"city":"Noida","state":"Uttar Pradesh","latitude":28.5355,"longitude":77.391,"temp":30.4,"humidity":74,"rain":0.0,"pressure":977.8,"uv_index":7.7,"wind_gusts":25.6,"aqi":526,"pm10":339.9,"pm2_5":102.2,"no2":21.0,"co":368.0,"o3":40.0,"so2":8.2,"mosquito_risk":3,"arthritis_risk":5,"migraine_risk":7,"frizz_risk":1,"updated_at":"2026-07-18T03:30:54.194319+05:30"},{"city":"Ghaziabad","state":"Uttar Pradesh","latitude":28.6692,"longitude":77.4538,"temp":29.8,"humidity":79,"rain":0.0,"pressure":976.0,"uv_index":7.7,"wind_gusts":26.3,"aqi":436,"pm10":480.6,"pm2_5":162.1,"no2":61.8,"co":888.0,"o3":3.0,"so2":21.5,"mosquito_risk":7,"arthritis_risk":5,"migraine_risk":7,"frizz_risk":1,"updated_at":"2026-07-18T03:30:54.194325+05:30"},{"city":"Faridabad","state":"Haryana","latitude":28.4089,"longitude":77.3178,"temp":31.1,"humidity":66,"rain":0.0,"pressure":977.2,"uv_index":6.5,"wind_gusts":29.9,"aqi":526,"pm10":339.9,"pm2_5":102.2,"no2":21.0,"co":301.0,"o3":40.0,"so2":8.2,"mosquito_risk":3,"arthritis_risk":5,"migraine_risk":7,"frizz_risk":1,"updated_at":"2026-07-18T03:30:54.194331+05:30"},{"city":"Meerut","state":"Uttar Pradesh","latitude":28.9845,"longitude":77.7064,"temp":29.3,"humidity":82,"rain":0.0,"pressure":974.7,"uv_index":7.35,"wind_gusts":24.5,"aqi":436,"pm10":480.6,"pm2_5":162.1,"no2":61.8,"co":868.0,"o3":3.0,"so2":21.5,"mosquito_risk":7,"arthritis_risk":5,"migraine_risk":7,"frizz_risk":1,"updated_at":"2026-07-18T03:30:54.194337+05:30"},{"city":"Agra","state":"Uttar Pradesh","latitude":27.1767,"longitude":78.0081,"temp":31.1,"humidity":67,"rain":0.0,"pressure":981.1,"uv_index":6.9,"wind_gusts":31.0,"aqi":156,"pm10":37.7,"pm2_5":27.0,"no2":14.1,"co":195.0,"o3":53.0,"so2":5.2,"mosquito_risk":3,"arthritis_risk":5,"migraine_risk":7,"frizz_risk":1,"updated_at":"2026-07-18T03:30:54.194344+05:30"},{"city":"Varanasi","state":"Uttar Pradesh","latitude":25.3176,"longitude":82.9739,"temp":26.5,"humidity":96,"rain":0.0,"pressure":992.1,"uv_index":6.55,"wind_gusts":22.0,"aqi":125,"pm10":69.6,"pm2_5":46.1,"no2":15.2,"co":373.0,"o3":74.0,"so2":9.5,"mosquito_risk":7,"arthritis_risk":5,"migraine_risk":7,"frizz_risk":1,"updated_at":"2026-07-18T03:30:54.194350+05:30"},{"city":"Prayagraj","state":"Uttar Pradesh","latitude":25.4358,"longitude":81.8463,"temp":27.9,"humidity":95,"rain":0.0,"pressure":989.7,"uv_index":5.8,"wind_gusts":27.7,"aqi":154,"pm10":93.4,"pm2_5":52.6,"no2":15.9,"co":258.0,"o3":72.0,"so2":8.2,"mosquito_risk":7,"arthritis_risk":5,"migraine_risk":3,"frizz_risk":1,"updated_at":"2026-07-18T03:30:54.194357+05:30"},{"city":"Gorakhpur","state":"Uttar Pradesh","latitude":26.7606,"longitude":83.3732,"temp":26.5,"humidity":97,"rain":0.2,"pressure":991.4,"uv_index":4.55,"wind_gusts":25.9,"aqi":81,"pm10":21.0,"pm2_5":20.8,"no2":20.4,"co":373.0,"o3":49.0,"so2":5.1,"mosquito_risk":10,"arthritis_risk":5,"migraine_risk":3,"frizz_risk":1,"updated_at":"2026-07-18T03:30:54.194364+05:30"},{"city":"Bareilly","state":"Uttar Pradesh","latitude":28.367,"longitude":79.4304,"temp":27.2,"humidity":97,"rain":0.0,"pressure":980.8,"uv_index":8.0,"wind_gusts":29.5,"aqi":159,"pm10":55.2,"pm2_5":44.5,"no2":18.1,"co":446.0,"o3":67.0,"so2":6.6,"mosquito_risk":7,"arthritis_risk":5,"migraine_risk":7,"frizz_risk":1,"updated_at":"2026-07-18T03:30:54.194372+05:30"},{"city":"Aligarh","state":"Uttar Pradesh","latitude":27.8974,"longitude":78.088,"temp":29.3,"humidity":81,"rain":0.0,"pressure":978.7,"uv_index":6.9,"wind_gusts":27.7,"aqi":385,"pm10":326.0,"pm2_5":105.5,"no2":21.2,"co":328.0,"o3":37.0,"so2":5.4,"mosquito_risk":7,"arthritis_risk":5,"migraine_risk":7,"frizz_risk":1,"updated_at":"2026-07-18T03:30:54.194379+05:30"},{"city":"Moradabad","state":"Uttar Pradesh","latitude":28.8386,"longitude":78.7733,"temp":27.0,"humidity":96,"rain":0.0,"pressure":977.7,"uv_index":7.85,"wind_gusts":24.1,"aqi":173,"pm10":103.1,"pm2_5":64.0,"no2":18.6,"co":449.0,"o3":75.0,"so2":10.5,"mosquito_risk":7,"arthritis_risk":5,"migraine_risk":7,"frizz_risk":1,"updated_at":"2026-07-18T03:30:54.194385+05:30"},{"city":"Saharanpur","state":"Uttar Pradesh","latitude":29.9637,"longitude":77.546,"temp":27.9,"humidity":96,"rain":0.0,"pressure":969.3,"uv_index":7.35,"wind_gusts":32.4,"aqi":173,"pm10":235.2,"pm2_5":112.9,"no2":35.7,"co":645.0,"o3":35.0,"so2":12.2,"mosquito_risk":7,"arthritis_risk":5,"migraine_risk":7,"frizz_risk":1,"updated_at":"2026-07-18T03:30:54.194391+05:30"},{"city":"Jhansi","state":"Uttar Pradesh","latitude":25.4484,"longitude":78.5685,"temp":26.3,"humidity":94,"rain":0.1,"pressure":973.1,"uv_index":7.3,"wind_gusts":37.4,"aqi":94,"pm10":36.6,"pm2_5":23.6,"no2":10.0,"co":186.0,"o3":62.0,"so2":10.0,"mosquito_risk":10,"arthritis_risk":5,"migraine_risk":7,"frizz_risk":1,"updated_at":"2026-07-18T03:30:57.457948+05:30"},{"city":"Surat","state":"Gujarat","latitude":21.1702,"longitude":72.8311,"temp":26.1,"humidity":90,"rain":0.0,"pressure":1003.5,"uv_index":7.35,"wind_gusts":44.6,"aqi":71,"pm10":24.9,"pm2_5":17.4,"no2":23.4,"co":335.0,"o3":22.0,"so2":34.7,"mosquito_risk":7,"arthritis_risk":5,"migraine_risk":4,"frizz_risk":1,"updated_at":"2026-07-18T03:30:57.457985+05:30"},{"city":"Vadodara","state":"Gujarat","latitude":22.3072,"longitude":73.1812,"temp":28.2,"humidity":79,"rain":0.0,"pressure":1000.5,"uv_index":6.35,"wind_gusts":40.0,"aqi":68,"pm10":20.4,"pm2_5":13.5,"no2":12.1,"co":146.0,"o3":30.0,"so2":8.1,"mosquito_risk":7,"arthritis_risk":5,"migraine_risk":4,"frizz_risk":1,"updated_at":"2026-07-18T03:30:57.457997+05:30"},{"city":"Rajkot","state":"Gujarat","latitude":22.3039,"longitude":70.8022,"temp":26.4,"humidity":87,"rain":0.0,"pressure":990.5,"uv_index":7.1,"wind_gusts":48.6,"aqi":60,"pm10":14.3,"pm2_5":8.2,"no2":5.3,"co":99.0,"o3":38.0,"so2":4.8,"mosquito_risk":7,"arthritis_risk":5,"migraine_risk":7,"frizz_risk":1,"updated_at":"2026-07-18T03:30:57.458035+05:30"},{"city":"Thane","state":"Maharashtra","latitude":19.2183,"longitude":72.9781,"temp":24.5,"humidity":99,"rain":0.3,"pressure":1005.7,"uv_index":7.2,"wind_gusts":37.1,"aqi":66,"pm10":28.2,"pm2_5":12.5,"no2":5.7,"co":146.0,"o3":47.0,"so2":5.3,"mosquito_risk":6,"arthritis_risk":5,"migraine_risk":4,"frizz_risk":1,"updated_at":"2026-07-18T03:30:57.458046+05:30"},{"city":"Nagpur","state":"Maharashtra","latitude":21.1458,"longitude":79.0882,"temp":25.1,"humidity":93,"rain":0.1,"pressure":969.4,"uv_index":1.75,"wind_gusts":31.7,"aqi":82,"pm10":20.5,"pm2_5":15.1,"no2":11.6,"co":202.0,"o3":45.0,"so2":9.0,"mosquito_risk":10,"arthritis_risk":5,"migraine_risk":3,"frizz_risk":1,"updated_at":"2026-07-18T03:30:57.458056+05:30"},{"city":"Nashik","state":"Maharashtra","latitude":19.9975,"longitude":73.7898,"temp":22.6,"humidity":95,"rain":0.0,"pressure":942.6,"uv_index":6.4,"wind_gusts":42.1,"aqi":38,"pm10":4.6,"pm2_5":3.3,"no2":11.2,"co":127.0,"o3":29.0,"so2":10.8,"mosquito_risk":3,"arthritis_risk":5,"migraine_risk":7,"frizz_risk":1,"updated_at":"2026-07-18T03:30:57.458065+05:30"},{"city":"Aurangabad","state":"Maharashtra","latitude":19.8762,"longitude":75.3433,"temp":23.1,"humidity":93,"rain":0.0,"pressure":941.6,"uv_index":8.35,"wind_gusts":38.9,"aqi":51,"pm10":5.3,"pm2_5":4.2,"no2":9.2,"co":161.0,"o3":35.0,"so2":11.8,"mosquito_risk":3,"arthritis_risk":5,"migraine_risk":7,"frizz_risk":1,"updated_at":"2026-07-18T03:30:57.458074+05:30"},{"city":"Solapur","state":"Maharashtra","latitude":17.6599,"longitude":75.9064,"temp":24.1,"humidity":87,"rain":0.0,"pressure":955.4,"uv_index":3.15,"wind_gusts":37.4,"aqi":51,"pm10":6.7,"pm2_5":5.2,"no2":5.9,"co":140.0,"o3":36.0,"so2":2.5,"mosquito_risk":3,"arthritis_risk":5,"migraine_risk":3,"frizz_risk":1,"updated_at":"2026-07-18T03:30:57.458082+05:30"},{"city":"Kolhapur","state":"Maharashtra","latitude":16.705,"longitude":74.2433,"temp":22.5,"humidity":92,"rain":0.0,"pressure":946.6,"uv_index":8.1,"wind_gusts":48.2,"aqi":31,"pm10":4.6,"pm2_5":3.0,"no2":3.0,"co":109.0,"o3":44.0,"so2":1.9,"mosquito_risk":3,"arthritis_risk":5,"migraine_risk":7,"frizz_risk":1,"updated_at":"2026-07-18T03:30:57.458092+05:30"},{"city":"Goa","state":"Goa","latitude":15.2993,"longitude":74.124,"temp":24.0,"humidity":97,"rain":0.1,"pressure":997.6,"uv_index":7.35,"wind_gusts":36.0,"aqi":60,"pm10":27.5,"pm2_5":13.7,"no2":3.2,"co":264.0,"o3":45.0,"so2":1.2,"mosquito_risk":6,"arthritis_risk":5,"migraine_risk":7,"frizz_risk":1,"updated_at":"2026-07-18T03:30:57.458102+05:30"},{"city":"Jodhpur","state":"Rajasthan","latitude":26.2389,"longitude":73.0243,"temp":30.3,"humidity":57,"rain":0.0,"pressure":977.7,"uv_index":8.45,"wind_gusts":43.9,"aqi":127,"pm10":176.0,"pm2_5":42.4,"no2":5.4,"co":127.0,"o3":50.0,"so2":2.4,"mosquito_risk":0,"arthritis_risk":5,"migraine_risk":7,"frizz_risk":1,"updated_at":"2026-07-18T03:30:57.458111+05:30"},{"city":"Udaipur","state":"Rajasthan","latitude":24.5854,"longitude":73.7125,"temp":25.5,"humidity":76,"rain":0.0,"pressure":942.2,"uv_index":8.3,"wind_gusts":34.9,"aqi":71,"pm10":28.5,"pm2_5":17.5,"no2":8.9,"co":151.0,"o3":47.0,"so2":6.8,"mosquito_risk":7,"arthritis_risk":5,"migraine_risk":7,"frizz_risk":1,"updated_at":"2026-07-18T03:30:57.458120+05:30"},{"city":"Kota","state":"Rajasthan","latitude":25.2138,"longitude":75.8648,"temp":30.5,"humidity":58,"rain":0.0,"pressure":973.7,"uv_index":7.9,"wind_gusts":32.4,"aqi":82,"pm10":33.9,"pm2_5":21.2,"no2":7.8,"co":172.0,"o3":69.0,"so2":7.8,"mosquito_risk":0,"arthritis_risk":5,"migraine_risk":7,"frizz_risk":1,"updated_at":"2026-07-18T03:30:57.458129+05:30"},{"city":"Bikaner","state":"Rajasthan","latitude":28.0229,"longitude":73.3119,"temp":31.9,"humidity":51,"rain":0.0,"pressure":975.7,"uv_index":8.3,"wind_gusts":40.3,"aqi":130,"pm10":182.1,"pm2_5":58.0,"no2":2.9,"co":112.0,"o3":54.0,"so2":4.1,"mosquito_risk":0,"arthritis_risk":5,"migraine_risk":7,"frizz_risk":1,"updated_at":"2026-07-18T03:30:57.458138+05:30"},{"city":"Ajmer","state":"Rajasthan","latitude":26.4499,"longitude":74.6399,"temp":27.9,"humidity":65,"rain":0.0,"pressure":950.1,"uv_index":8.25,"wind_gusts":43.2,"aqi":76,"pm10":23.6,"pm2_5":15.3,"no2":8.1,"co":139.0,"o3":52.0,"so2":4.1,"mosquito_risk":7,"arthritis_risk":5,"migraine_risk":7,"frizz_risk":1,"updated_at":"2026-07-18T03:30:57.458146+05:30"},{"city":"Gwalior","state":"Madhya Pradesh","latitude":26.2183,"longitude":78.1828,"temp":28.3,"humidity":79,"rain":0.0,"pressure":977.2,"uv_index":6.7,"wind_gusts":31.3,"aqi":107,"pm10":34.0,"pm2_5":21.0,"no2":8.9,"co":140.0,"o3":61.0,"so2":3.7,"mosquito_risk":7,"arthritis_risk":5,"migraine_risk":7,"frizz_risk":1,"updated_at":"2026-07-18T03:30:57.458155+05:30"},{"city":"Indore","state":"Madhya Pradesh","latitude":22.7196,"longitude":75.8577,"temp":25.0,"humidity":86,"rain":0.0,"pressure":944.4,"uv_index":5.35,"wind_gusts":37.4,"aqi":70,"pm10":15.6,"pm2_5":12.1,"no2":8.5,"co":181.0,"o3":55.0,"so2":10.5,"mosquito_risk":7,"arthritis_risk":5,"migraine_risk":3,"frizz_risk":1,"updated_at":"2026-07-18T03:30:57.458163+05:30"},{"city":"Bhopal","state":"Madhya Pradesh","latitude":23.2599,"longitude":77.4126,"temp":25.9,"humidity":84,"rain":0.0,"pressure":949.3,"uv_index":1.85,"wind_gusts":32.8,"aqi":79,"pm10":28.7,"pm2_5":21.4,"no2":9.1,"co":251.0,"o3":58.0,"so2":5.9,"mosquito_risk":7,"arthritis_risk":5,"migraine_risk":3,"frizz_risk":1,"updated_at":"2026-07-18T03:30:57.458172+05:30"},{"city":"Jabalpur","state":"Madhya Pradesh","latitude":23.1815,"longitude":79.9864,"temp":24.1,"humidity":96,"rain":0.3,"pressure":957.3,"uv_index":8.8,"wind_gusts":32.8,"aqi":82,"pm10":28.3,"pm2_5":20.2,"no2":6.7,"co":212.0,"o3":65.0,"so2":4.6,"mosquito_risk":6,"arthritis_risk":5,"migraine_risk":7,"frizz_risk":1,"updated_at":"2026-07-18T03:30:57.458180+05:30"},{"city":"Ujjain","state":"Madhya Pradesh","latitude":23.1765,"longitude":75.7885,"temp":25.4,"humidity":85,"rain":0.0,"pressure":950.0,"uv_index":8.2,"wind_gusts":37.8,"aqi":71,"pm10":19.4,"pm2_5":13.5,"no2":8.4,"co":231.0,"o3":51.0,"so2":10.8,"mosquito_risk":7,"arthritis_risk":5,"migraine_risk":7,"frizz_risk":1,"updated_at":"2026-07-18T03:30:57.458189+05:30"},{"city":"Visakhapatnam","state":"Andhra Pradesh","latitude":17.6868,"longitude":83.2185,"temp":27.3,"humidity":83,"rain":0.0,"pressure":998.7,"uv_index":8.05,"wind_gusts":39.2,"aqi":85,"pm10":28.8,"pm2_5":23.5,"no2":21.2,"co":297.0,"o3":47.0,"so2":32.7,"mosquito_risk":7,"arthritis_risk":5,"migraine_risk":7,"frizz_risk":1,"updated_at":"2026-07-18T03:30:57.458198+05:30"},{"city":"Vijayawada","state":"Andhra Pradesh","latitude":16.5062,"longitude":80.648,"temp":26.1,"humidity":95,"rain":0.1,"pressure":999.6,"uv_index":2.4,"wind_gusts":42.8,"aqi":82,"pm10":21.2,"pm2_5":13.7,"no2":9.0,"co":202.0,"o3":46.0,"so2":3.5,"mosquito_risk":10,"arthritis_risk":5,"migraine_risk":3,"frizz_risk":1,"updated_at":"2026-07-18T03:30:57.458206+05:30"},{"city":"Guntur","state":"Andhra Pradesh","latitude":16.3067,"longitude":80.4365,"temp":26.1,"humidity":88,"rain":0.0,"pressure":1000.7,"uv_index":1.3,"wind_gusts":46.4,"aqi":78,"pm10":20.1,"pm2_5":12.7,"no2":9.2,"co":185.0,"o3":44.0,"so2":4.7,"mosquito_risk":7,"arthritis_risk":5,"migraine_risk":0,"frizz_risk":1,"updated_at":"2026-07-18T03:30:57.458215+05:30"},{"city":"Nellore","state":"Andhra Pradesh","latitude":14.4426,"longitude":79.9865,"temp":26.6,"humidity":83,"rain":0.1,"pressure":1003.6,"uv_index":0.65,"wind_gusts":47.2,"aqi":51,"pm10":16.2,"pm2_5":9.6,"no2":8.4,"co":133.0,"o3":43.0,"so2":5.0,"mosquito_risk":10,"arthritis_risk":5,"migraine_risk":0,"frizz_risk":1,"updated_at":"2026-07-18T03:30:57.458224+05:30"},{"city":"Kurnool","state":"Andhra Pradesh","latitude":15.8281,"longitude":78.0373,"temp":26.1,"humidity":76,"rain":0.0,"pressure":975.2,"uv_index":5.65,"wind_gusts":46.4,"aqi":54,"pm10":9.2,"pm2_5":6.5,"no2":9.2,"co":154.0,"o3":36.0,"so2":2.0,"mosquito_risk":7,"arthritis_risk":5,"migraine_risk":3,"frizz_risk":1,"updated_at":"2026-07-18T03:30:57.458234+05:30"},{"city":"Kakinada","state":"Andhra Pradesh","latitude":16.9891,"longitude":82.2475,"temp":28.2,"humidity":78,"rain":0.0,"pressure":1003.6,"uv_index":5.45,"wind_gusts":42.1,"aqi":83,"pm10":19.9,"pm2_5":13.3,"no2":6.7,"co":264.0,"o3":72.0,"so2":5.0,"mosquito_risk":7,"arthritis_risk":5,"migraine_risk":0,"frizz_risk":1,"updated_at":"2026-07-18T03:30:57.458243+05:30"},{"city":"Tirupati","state":"Andhra Pradesh","latitude":13.6288,"longitude":79.4192,"temp":26.0,"humidity":83,"rain":0.0,"pressure":989.1,"uv_index":1.4,"wind_gusts":39.2,"aqi":63,"pm10":15.7,"pm2_5":12.8,"no2":24.1,"co":164.0,"o3":11.0,"so2":2.7,"mosquito_risk":7,"arthritis_risk":5,"migraine_risk":3,"frizz_risk":1,"updated_at":"2026-07-18T03:30:57.458251+05:30"},{"city":"Warangal","state":"Telangana","latitude":17.9689,"longitude":79.5941,"temp":25.1,"humidity":91,"rain":0.1,"pressure":975.2,"uv_index":8.5,"wind_gusts":39.6,"aqi":81,"pm10":26.3,"pm2_5":16.9,"no2":10.5,"co":190.0,"o3":41.0,"so2":4.3,"mosquito_risk":10,"arthritis_risk":5,"migraine_risk":7,"frizz_risk":1,"updated_at":"2026-07-18T03:30:57.458260+05:30"},{"city":"Nizamabad","state":"Telangana","latitude":18.6725,"longitude":78.0941,"temp":24.2,"humidity":93,"rain":0.0,"pressure":962.0,"uv_index":0.9,"wind_gusts":44.6,"aqi":74,"pm10":17.6,"pm2_5":12.3,"no2":9.3,"co":165.0,"o3":47.0,"so2":7.7,"mosquito_risk":3,"arthritis_risk":5,"migraine_risk":3,"frizz_risk":1,"updated_at":"2026-07-18T03:30:57.458268+05:30"},{"city":"Mysore","state":"Karnataka","latitude":12.2958,"longitude":76.6396,"temp":21.6,"humidity":88,"rain":0.0,"pressure":927.9,"uv_index":4.25,"wind_gusts":53.6,"aqi":27,"pm10":10.1,"pm2_5":6.1,"no2":4.7,"co":109.0,"o3":40.0,"so2":1.9,"mosquito_risk":3,"arthritis_risk":5,"migraine_risk":3,"frizz_risk":1,"updated_at":"2026-07-18T03:30:57.458276+05:30"},{"city":"Mangalore","state":"Karnataka","latitude":12.9141,"longitude":74.856,"temp":23.8,"humidity":98,"rain":0.0,"pressure":1007.2,"uv_index":3.55,"wind_gusts":32.8,"aqi":57,"pm10":21.8,"pm2_5":12.6,"no2":6.7,"co":168.0,"o3":36.0,"so2":2.8,"mosquito_risk":3,"arthritis_risk":5,"migraine_risk":0,"frizz_risk":1,"updated_at":"2026-07-18T03:30:57.458285+05:30"},{"city":"Hubli-Dharwad","state":"Karnataka","latitude":15.3647,"longitude":75.124,"temp":22.0,"humidity":93,"rain":0.0,"pressure":939.7,"uv_index":8.1,"wind_gusts":50.0,"aqi":20,"pm10":3.1,"pm2_5":1.9,"no2":2.0,"co":104.0,"o3":45.0,"so2":1.2,"mosquito_risk":3,"arthritis_risk":5,"migraine_risk":7,"frizz_risk":1,"updated_at":"2026-07-18T03:30:57.458293+05:30"},{"city":"Belgaum","state":"Karnataka","latitude":15.8497,"longitude":74.4977,"temp":21.2,"humidity":95,"rain":0.0,"pressure":924.4,"uv_index":8.5,"wind_gusts":48.6,"aqi":21,"pm10":3.8,"pm2_5":2.5,"no2":3.2,"co":107.0,"o3":42.0,"so2":1.8,"mosquito_risk":3,"arthritis_risk":5,"migraine_risk":7,"frizz_risk":1,"updated_at":"2026-07-18T03:31:00.702503+05:30"},{"city":"Coimbatore","state":"Tamil Nadu","latitude":11.0168,"longitude":76.9558,"temp":22.3,"humidity":94,"rain":0.0,"pressure":961.2,"uv_index":6.6,"wind_gusts":49.7,"aqi":42,"pm10":11.6,"pm2_5":7.4,"no2":6.5,"co":175.0,"o3":33.0,"so2":3.0,"mosquito_risk":3,"arthritis_risk":5,"migraine_risk":7,"frizz_risk":1,"updated_at":"2026-07-18T03:31:00.702544+05:30"},{"city":"Madurai","state":"Tamil Nadu","latitude":9.9252,"longitude":78.1198,"temp":28.3,"humidity":59,"rain":0.0,"pressure":992.3,"uv_index":7.85,"wind_gusts":34.9,"aqi":69,"pm10":23.5,"pm2_5":16.0,"no2":17.5,"co":147.0,"o3":31.0,"so2":6.2,"mosquito_risk":4,"arthritis_risk":5,"migraine_risk":7,"frizz_risk":1,"updated_at":"2026-07-18T03:31:00.702556+05:30"},{"city":"Trichy","state":"Tamil Nadu","latitude":10.7905,"longitude":78.7047,"temp":28.2,"humidity":64,"rain":0.0,"pressure":998.9,"uv_index":7.35,"wind_gusts":41.8,"aqi":53,"pm10":12.3,"pm2_5":7.8,"no2":6.8,"co":108.0,"o3":35.0,"so2":3.2,"mosquito_risk":7,"arthritis_risk":5,"migraine_risk":7,"frizz_risk":1,"updated_at":"2026-07-18T03:31:00.702565+05:30"},{"city":"Salem","state":"Tamil Nadu","latitude":11.6643,"longitude":78.146,"temp":24.6,"humidity":86,"rain":0.0,"pressure":976.8,"uv_index":6.55,"wind_gusts":34.2,"aqi":68,"pm10":21.5,"pm2_5":16.8,"no2":21.9,"co":324.0,"o3":22.0,"so2":7.7,"mosquito_risk":3,"arthritis_risk":5,"migraine_risk":7,"frizz_risk":1,"updated_at":"2026-07-18T03:31:00.702574+05:30"},{"city":"Tirunelveli","state":"Tamil Nadu","latitude":8.7139,"longitude":77.7567,"temp":28.0,"humidity":65,"rain":0.0,"pressure":1003.5,"uv_index":8.7,"wind_gusts":46.8,"aqi":43,"pm10":8.6,"pm2_5":6.4,"no2":6.9,"co":142.0,"o3":36.0,"so2":2.6,"mosquito_risk":7,"arthritis_risk":5,"migraine_risk":4,"frizz_risk":1,"updated_at":"2026-07-18T03:31:00.702583+05:30"},{"city":"Vellore","state":"Tamil Nadu","latitude":12.9165,"longitude":79.1325,"temp":25.3,"humidity":91,"rain":0.1,"pressure":983.0,"uv_index":3.35,"wind_gusts":42.1,"aqi":49,"pm10":9.1,"pm2_5":6.9,"no2":10.9,"co":144.0,"o3":36.0,"so2":4.1,"mosquito_risk":10,"arthritis_risk":5,"migraine_risk":3,"frizz_risk":1,"updated_at":"2026-07-18T03:31:00.702592+05:30"},{"city":"Erode","state":"Tamil Nadu","latitude":11.341,"longitude":77.7172,"temp":25.0,"humidity":79,"rain":0.0,"pressure":988.7,"uv_index":5.9,"wind_gusts":44.3,"aqi":54,"pm10":14.5,"pm2_5":11.2,"no2":13.4,"co":163.0,"o3":32.0,"so2":4.3,"mosquito_risk":7,"arthritis_risk":5,"migraine_risk":3,"frizz_risk":1,"updated_at":"2026-07-18T03:31:00.702601+05:30"},{"city":"Kochi","state":"Kerala","latitude":9.9312,"longitude":76.2673,"temp":23.9,"humidity":95,"rain":0.1,"pressure":1010.4,"uv_index":8.05,"wind_gusts":42.8,"aqi":55,"pm10":14.3,"pm2_5":11.0,"no2":13.8,"co":167.0,"o3":17.0,"so2":4.7,"mosquito_risk":6,"arthritis_risk":0,"migraine_risk":4,"frizz_risk":1,"updated_at":"2026-07-18T03:31:00.702611+05:30"},{"city":"Thiruvananthapuram","state":"Kerala","latitude":8.5241,"longitude":76.9366,"temp":23.8,"humidity":99,"rain":0.0,"pressure":1009.2,"uv_index":8.35,"wind_gusts":42.5,"aqi":57,"pm10":14.6,"pm2_5":7.9,"no2":3.8,"co":128.0,"o3":48.0,"so2":2.1,"mosquito_risk":3,"arthritis_risk":0,"migraine_risk":4,"frizz_risk":1,"updated_at":"2026-07-18T03:31:00.702619+05:30"},{"city":"Kozhikode","state":"Kerala","latitude":11.2588,"longitude":75.7804,"temp":23.9,"humidity":97,"rain":0.0,"pressure":1009.1,"uv_index":8.55,"wind_gusts":34.9,"aqi":51,"pm10":19.7,"pm2_5":9.6,"no2":2.6,"co":320.0,"o3":53.0,"so2":1.7,"mosquito_risk":3,"arthritis_risk":0,"migraine_risk":4,"frizz_risk":1,"updated_at":"2026-07-18T03:31:00.702627+05:30"},{"city":"Thrissur","state":"Kerala","latitude":10.5276,"longitude":76.2144,"temp":23.4,"humidity":99,"rain":0.0,"pressure":1008.5,"uv_index":7.85,"wind_gusts":38.5,"aqi":54,"pm10":12.0,"pm2_5":9.5,"no2":12.2,"co":184.0,"o3":17.0,"so2":3.6,"mosquito_risk":3,"arthritis_risk":0,"migraine_risk":4,"frizz_risk":1,"updated_at":"2026-07-18T03:31:00.702636+05:30"},{"city":"Kannur","state":"Kerala","latitude":11.8745,"longitude":75.3704,"temp":23.9,"humidity":97,"rain":0.0,"pressure":1008.1,"uv_index":5.1,"wind_gusts":32.0,"aqi":52,"pm10":16.6,"pm2_5":9.9,"no2":12.3,"co":211.0,"o3":24.0,"so2":2.7,"mosquito_risk":3,"arthritis_risk":0,"migraine_risk":0,"frizz_risk":1,"updated_at":"2026-07-18T03:31:00.702644+05:30"},{"city":"Patna","state":"Bihar","latitude":25.5941,"longitude":85.1376,"temp":27.2,"humidity":94,"rain":0.2,"pressure":994.5,"uv_index":7.4,"wind_gusts":27.0,"aqi":94,"pm10":27.8,"pm2_5":27.1,"no2":14.5,"co":277.0,"o3":63.0,"so2":8.2,"mosquito_risk":10,"arthritis_risk":5,"migraine_risk":7,"frizz_risk":1,"updated_at":"2026-07-18T03:31:00.702653+05:30"},{"city":"Gaya","state":"Bihar","latitude":24.7914,"longitude":85.0002,"temp":26.1,"humidity":98,"rain":0.1,"pressure":988.0,"uv_index":8.2,"wind_gusts":24.1,"aqi":91,"pm10":26.6,"pm2_5":26.2,"no2":11.7,"co":428.0,"o3":81.0,"so2":6.5,"mosquito_risk":10,"arthritis_risk":5,"migraine_risk":7,"frizz_risk":1,"updated_at":"2026-07-18T03:31:00.702661+05:30"},{"city":"Muzaffarpur","state":"Bihar","latitude":26.1209,"longitude":85.3647,"temp":27.2,"humidity":94,"rain":0.0,"pressure":994.3,"uv_index":8.15,"wind_gusts":29.2,"aqi":90,"pm10":29.0,"pm2_5":28.3,"no2":14.1,"co":263.0,"o3":66.0,"so2":7.1,"mosquito_risk":7,"arthritis_risk":5,"migraine_risk":7,"frizz_risk":1,"updated_at":"2026-07-18T03:31:00.702670+05:30"},{"city":"Bhagalpur","state":"Bihar","latitude":25.2425,"longitude":87.0117,"temp":26.8,"humidity":96,"rain":0.1,"pressure":995.1,"uv_index":7.4,"wind_gusts":27.4,"aqi":71,"pm10":27.9,"pm2_5":27.9,"no2":16.0,"co":355.0,"o3":56.0,"so2":14.8,"mosquito_risk":10,"arthritis_risk":5,"migraine_risk":7,"frizz_risk":1,"updated_at":"2026-07-18T03:31:00.702678+05:30"},{"city":"Ranchi","state":"Jharkhand","latitude":23.3441,"longitude":85.3096,"temp":23.0,"humidity":98,"rain":0.0,"pressure":931.2,"uv_index":9.2,"wind_gusts":24.8,"aqi":69,"pm10":14.1,"pm2_5":13.4,"no2":6.5,"co":280.0,"o3":85.0,"so2":3.9,"mosquito_risk":3,"arthritis_risk":5,"migraine_risk":7,"frizz_risk":1,"updated_at":"2026-07-18T03:31:00.702686+05:30"},{"city":"Jamshedpur","state":"Jharkhand","latitude":22.8046,"longitude":86.2029,"temp":25.6,"humidity":99,"rain":0.0,"pressure":984.0,"uv_index":8.4,"wind_gusts":25.9,"aqi":97,"pm10":36.8,"pm2_5":36.1,"no2":28.0,"co":316.0,"o3":42.0,"so2":23.7,"mosquito_risk":7,"arthritis_risk":5,"migraine_risk":7,"frizz_risk":1,"updated_at":"2026-07-18T03:31:00.702695+05:30"},{"city":"Dhanbad","state":"Jharkhand","latitude":23.7957,"longitude":86.4304,"temp":25.4,"humidity":99,"rain":0.0,"pressure":972.8,"uv_index":7.7,"wind_gusts":27.0,"aqi":130,"pm10":89.2,"pm2_5":88.2,"no2":66.4,"co":271.0,"o3":16.0,"so2":168.4,"mosquito_risk":7,"arthritis_risk":5,"migraine_risk":7,"frizz_risk":1,"updated_at":"2026-07-18T03:31:00.702704+05:30"},{"city":"Bokaro","state":"Jharkhand","latitude":23.6693,"longitude":86.1511,"temp":25.7,"humidity":97,"rain":0.1,"pressure":976.7,"uv_index":7.7,"wind_gusts":29.9,"aqi":103,"pm10":54.6,"pm2_5":53.7,"no2":34.6,"co":549.0,"o3":52.0,"so2":124.4,"mosquito_risk":10,"arthritis_risk":5,"migraine_risk":7,"frizz_risk":1,"updated_at":"2026-07-18T03:31:00.702712+05:30"},{"city":"Bhubaneswar","state":"Odisha","latitude":20.2961,"longitude":85.8245,"temp":25.3,"humidity":99,"rain":0.2,"pressure":997.2,"uv_index":8.35,"wind_gusts":31.7,"aqi":68,"pm10":20.9,"pm2_5":17.7,"no2":8.1,"co":280.0,"o3":77.0,"so2":5.6,"mosquito_risk":10,"arthritis_risk":5,"migraine_risk":7,"frizz_risk":1,"updated_at":"2026-07-18T03:31:00.702721+05:30"},{"city":"Cuttack","state":"Odisha","latitude":20.4625,"longitude":85.8828,"temp":25.5,"humidity":98,"rain":0.1,"pressure":998.9,"uv_index":8.05,"wind_gusts":33.5,"aqi":68,"pm10":20.9,"pm2_5":17.7,"no2":8.1,"co":250.0,"o3":77.0,"so2":5.6,"mosquito_risk":10,"arthritis_risk":5,"migraine_risk":7,"frizz_risk":1,"updated_at":"2026-07-18T03:31:00.702729+05:30"},{"city":"Rourkela","state":"Odisha","latitude":22.2604,"longitude":84.8536,"temp":25.5,"humidity":98,"rain":0.0,"pressure":978.7,"uv_index":7.6,"wind_gusts":25.6,"aqi":69,"pm10":23.1,"pm2_5":20.7,"no2":12.2,"co":276.0,"o3":53.0,"so2":6.5,"mosquito_risk":7,"arthritis_risk":5,"migraine_risk":7,"frizz_risk":1,"updated_at":"2026-07-18T03:31:00.702737+05:30"},{"city":"Raipur","state":"Chhattisgarh","latitude":21.2514,"longitude":81.6296,"temp":23.5,"humidity":96,"rain":0.3,"pressure":969.8,"uv_index":6.75,"wind_gusts":36.0,"aqi":90,"pm10":28.6,"pm2_5":24.1,"no2":27.5,"co":215.0,"o3":41.0,"so2":33.9,"mosquito_risk":6,"arthritis_risk":5,"migraine_risk":7,"frizz_risk":1,"updated_at":"2026-07-18T03:31:00.702746+05:30"},{"city":"Bhilai","state":"Chhattisgarh","latitude":21.1938,"longitude":81.3509,"temp":23.3,"humidity":96,"rain":0.1,"pressure":970.3,"uv_index":8.2,"wind_gusts":39.2,"aqi":84,"pm10":26.3,"pm2_5":23.2,"no2":23.1,"co":496.0,"o3":39.0,"so2":28.6,"mosquito_risk":6,"arthritis_risk":5,"migraine_risk":7,"frizz_risk":1,"updated_at":"2026-07-18T03:31:00.702754+05:30"},{"city":"Guwahati","state":"Assam","latitude":26.1158,"longitude":91.7086,"temp":25.0,"humidity":99,"rain":0.0,"pressure":997.0,"uv_index":6.8,"wind_gusts":20.9,"aqi":54,"pm10":10.8,"pm2_5":10.1,"no2":7.8,"co":263.0,"o3":51.0,"so2":2.1,"mosquito_risk":7,"arthritis_risk":5,"migraine_risk":7,"frizz_risk":1,"updated_at":"2026-07-18T03:31:00.702763+05:30"},{"city":"Agartala","state":"Tripura","latitude":23.8315,"longitude":91.2868,"temp":25.5,"humidity":92,"rain":0.1,"pressure":1003.1,"uv_index":8.0,"wind_gusts":45.7,"aqi":52,"pm10":10.9,"pm2_5":8.6,"no2":6.0,"co":139.0,"o3":66.0,"so2":2.0,"mosquito_risk":10,"arthritis_risk":5,"migraine_risk":4,"frizz_risk":1,"updated_at":"2026-07-18T03:31:00.702770+05:30"},{"city":"Shillong","state":"Meghalaya","latitude":25.5788,"longitude":91.8933,"temp":19.7,"humidity":96,"rain":0.1,"pressure":853.6,"uv_index":3.35,"wind_gusts":38.2,"aqi":24,"pm10":0.8,"pm2_5":0.8,"no2":4.7,"co":141.0,"o3":43.0,"so2":1.9,"mosquito_risk":6,"arthritis_risk":10,"migraine_risk":3,"frizz_risk":1,"updated_at":"2026-07-18T03:31:00.702779+05:30"},{"city":"Imphal","state":"Manipur","latitude":24.817,"longitude":93.9368,"temp":22.4,"humidity":98,"rain":0.0,"pressure":920.3,"uv_index":7.35,"wind_gusts":34.2,"aqi":61,"pm10":14.9,"pm2_5":9.6,"no2":3.4,"co":313.0,"o3":57.0,"so2":1.7,"mosquito_risk":3,"arthritis_risk":5,"migraine_risk":7,"frizz_risk":1,"updated_at":"2026-07-18T03:31:00.702787+05:30"},{"city":"Aizawl","state":"Mizoram","latitude":23.7271,"longitude":92.7176,"temp":20.3,"humidity":86,"rain":0.0,"pressure":890.2,"uv_index":7.75,"wind_gusts":42.8,"aqi":53,"pm10":5.1,"pm2_5":3.5,"no2":1.3,"co":117.0,"o3":57.0,"so2":1.0,"mosquito_risk":3,"arthritis_risk":5,"migraine_risk":7,"frizz_risk":1,"updated_at":"2026-07-18T03:31:00.702795+05:30"},{"city":"Kohima","state":"Nagaland","latitude":25.6701,"longitude":94.1077,"temp":20.5,"humidity":91,"rain":0.0,"pressure":852.6,"uv_index":5.1,"wind_gusts":28.1,"aqi":51,"pm10":5.2,"pm2_5":4.2,"no2":4.1,"co":190.0,"o3":45.0,"so2":1.0,"mosquito_risk":3,"arthritis_risk":5,"migraine_risk":3,"frizz_risk":1,"updated_at":"2026-07-18T03:31:00.702803+05:30"},{"city":"Gangtok","state":"Sikkim","latitude":27.3314,"longitude":88.6138,"temp":18.6,"humidity":100,"rain":0.0,"pressure":834.5,"uv_index":7.8,"wind_gusts":23.0,"aqi":45,"pm10":3.7,"pm2_5":3.1,"no2":3.5,"co":257.0,"o3":96.0,"so2":1.9,"mosquito_risk":3,"arthritis_risk":10,"migraine_risk":7,"frizz_risk":1,"updated_at":"2026-07-18T03:31:00.702812+05:30"},{"city":"Siliguri","state":"West Bengal","latitude":26.7271,"longitude":88.3953,"temp":25.4,"humidity":97,"rain":0.3,"pressure":988.6,"uv_index":3.55,"wind_gusts":38.5,"aqi":66,"pm10":21.1,"pm2_5":17.4,"no2":7.3,"co":240.0,"o3":88.0,"so2":3.4,"mosquito_risk":10,"arthritis_risk":5,"migraine_risk":3,"frizz_risk":1,"updated_at":"2026-07-18T03:31:03.957419+05:30"},{"city":"Durgapur","state":"West Bengal","latitude":23.5204,"longitude":87.3119,"temp":26.4,"humidity":97,"rain":0.0,"pressure":988.5,"uv_index":8.65,"wind_gusts":31.3,"aqi":92,"pm10":44.1,"pm2_5":43.8,"no2":38.6,"co":822.0,"o3":32.0,"so2":46.6,"mosquito_risk":7,"arthritis_risk":5,"migraine_risk":7,"frizz_risk":1,"updated_at":"2026-07-18T03:31:03.957456+05:30"},{"city":"Asansol","state":"West Bengal","latitude":23.6739,"longitude":86.9524,"temp":26.2,"humidity":98,"rain":0.0,"pressure":986.8,"uv_index":7.8,"wind_gusts":29.5,"aqi":93,"pm10":50.6,"pm2_5":50.4,"no2":49.7,"co":350.0,"o3":26.0,"so2":69.4,"mosquito_risk":7,"arthritis_risk":5,"migraine_risk":7,"frizz_risk":1,"updated_at":"2026-07-18T03:31:03.957470+05:30"},{"city":"Pondicherry","state":"Puducherry","latitude":11.9139,"longitude":79.8145,"temp":27.1,"humidity":83,"rain":0.0,"pressure":1007.0,"uv_index":5.45,"wind_gusts":41.8,"aqi":70,"pm10":22.4,"pm2_5":16.6,"no2":15.7,"co":244.0,"o3":38.0,"so2":11.2,"mosquito_risk":7,"arthritis_risk":5,"migraine_risk":0,"frizz_risk":1,"updated_at":"2026-07-18T03:31:03.957481+05:30"},{"city":"Port Blair","state":"Andaman and Nicobar Islands","latitude":11.6234,"longitude":92.7265,"temp":26.7,"humidity":85,"rain":0.0,"pressure":1007.7,"uv_index":8.7,"wind_gusts":40.3,"aqi":40,"pm10":18.9,"pm2_5":8.6,"no2":0.1,"co":88.0,"o3":46.0,"so2":0.4,"mosquito_risk":7,"arthritis_risk":5,"migraine_risk":4,"frizz_risk":1,"updated_at":"2026-07-18T03:31:03.957491+05:30"},{"city":"Haridwar","state":"Uttarakhand","latitude":29.9457,"longitude":78.1642,"temp":27.3,"humidity":93,"rain":0.0,"pressure":967.9,"uv_index":7.4,"wind_gusts":29.2,"aqi":164,"pm10":77.8,"pm2_5":69.6,"no2":13.7,"co":383.0,"o3":93.0,"so2":11.9,"mosquito_risk":7,"arthritis_risk":5,"migraine_risk":7,"frizz_risk":1,"updated_at":"2026-07-18T03:31:03.957501+05:30"},{"city":"Rishikesh","state":"Uttarakhand","latitude":30.0869,"longitude":78.2676,"temp":26.6,"humidity":94,"rain":0.2,"pressure":960.9,"uv_index":7.0,"wind_gusts":29.2,"aqi":147,"pm10":64.0,"pm2_5":45.8,"no2":3.9,"co":288.0,"o3":151.0,"so2":9.8,"mosquito_risk":10,"arthritis_risk":5,"migraine_risk":7,"frizz_risk":1,"updated_at":"2026-07-18T03:31:03.957511+05:30"},{"city":"Nainital","state":"Uttarakhand","latitude":29.3919,"longitude":79.4542,"temp":17.8,"humidity":98,"rain":0.0,"pressure":802.6,"uv_index":7.9,"wind_gusts":23.8,"aqi":131,"pm10":29.0,"pm2_5":18.3,"no2":7.9,"co":285.0,"o3":117.0,"so2":4.1,"mosquito_risk":3,"arthritis_risk":10,"migraine_risk":7,"frizz_risk":1,"updated_at":"2026-07-18T03:31:03.957521+05:30"},{"city":"Mussoorie","state":"Uttarakhand","latitude":30.4599,"longitude":78.0664,"temp":18.0,"humidity":100,"rain":0.0,"pressure":800.3,"uv_index":7.4,"wind_gusts":27.7,"aqi":144,"pm10":71.5,"pm2_5":52.9,"no2":5.6,"co":345.0,"o3":153.0,"so2":12.7,"mosquito_risk":3,"arthritis_risk":10,"migraine_risk":7,"frizz_risk":1,"updated_at":"2026-07-18T03:31:03.957530+05:30"},{"city":"Dharamshala","state":"Himachal Pradesh","latitude":32.219,"longitude":76.3234,"temp":22.3,"humidity":96,"rain":0.0,"pressure":865.5,"uv_index":8.45,"wind_gusts":24.1,"aqi":66,"pm10":9.6,"pm2_5":7.5,"no2":7.8,"co":370.0,"o3":61.0,"so2":0.8,"mosquito_risk":3,"arthritis_risk":5,"migraine_risk":7,"frizz_risk":1,"updated_at":"2026-07-18T03:31:03.957539+05:30"},{"city":"Dalhousie","state":"Himachal Pradesh","latitude":32.5387,"longitude":75.971,"temp":18.7,"humidity":100,"rain":0.1,"pressure":802.6,"uv_index":8.65,"wind_gusts":23.4,"aqi":108,"pm10":47.3,"pm2_5":29.7,"no2":7.1,"co":289.0,"o3":119.0,"so2":3.0,"mosquito_risk":6,"arthritis_risk":10,"migraine_risk":7,"frizz_risk":1,"updated_at":"2026-07-18T03:31:03.957550+05:30"},{"city":"Patiala","state":"Punjab","latitude":30.3398,"longitude":76.3869,"temp":28.7,"humidity":86,"rain":0.0,"pressure":971.5,"uv_index":7.6,"wind_gusts":22.7,"aqi":192,"pm10":217.5,"pm2_5":127.1,"no2":68.9,"co":909.0,"o3":12.0,"so2":13.2,"mosquito_risk":7,"arthritis_risk":5,"migraine_risk":7,"frizz_risk":1,"updated_at":"2026-07-18T03:31:03.957559+05:30"},{"city":"Bhatinda","state":"Punjab","latitude":30.211,"longitude":74.9455,"temp":31.9,"humidity":57,"rain":0.0,"pressure":976.7,"uv_index":7.65,"wind_gusts":31.3,"aqi":176,"pm10":163.4,"pm2_5":95.0,"no2":58.9,"co":457.0,"o3":12.0,"so2":8.4,"mosquito_risk":0,"arthritis_risk":5,"migraine_risk":7,"frizz_risk":1,"updated_at":"2026-07-18T03:31:03.957569+05:30"},{"city":"Rohtak","state":"Haryana","latitude":28.8955,"longitude":76.6066,"temp":30.4,"humidity":64,"rain":0.0,"pressure":975.1,"uv_index":7.65,"wind_gusts":31.3,"aqi":636,"pm10":489.9,"pm2_5":118.0,"no2":30.3,"co":269.0,"o3":27.0,"so2":4.5,"mosquito_risk":3,"arthritis_risk":5,"migraine_risk":7,"frizz_risk":1,"updated_at":"2026-07-18T03:31:03.957580+05:30"},{"city":"Panipat","state":"Haryana","latitude":29.3909,"longitude":76.9635,"temp":29.2,"humidity":75,"rain":0.0,"pressure":973.5,"uv_index":6.9,"wind_gusts":28.1,"aqi":1068,"pm10":504.8,"pm2_5":156.9,"no2":54.1,"co":683.0,"o3":3.0,"so2":7.0,"mosquito_risk":7,"arthritis_risk":5,"migraine_risk":7,"frizz_risk":1,"updated_at":"2026-07-18T03:31:03.957590+05:30"},{"city":"Mathura","state":"Uttar Pradesh","latitude":27.4924,"longitude":77.6737,"temp":30.0,"humidity":70,"rain":0.0,"pressure":980.1,"uv_index":7.65,"wind_gusts":27.0,"aqi":671,"pm10":659.4,"pm2_5":113.4,"no2":19.8,"co":234.0,"o3":41.0,"so2":5.1,"mosquito_risk":7,"arthritis_risk":5,"migraine_risk":7,"frizz_risk":1,"updated_at":"2026-07-18T03:31:03.957601+05:30"},{"city":"Vrindavan","state":"Uttar Pradesh","latitude":27.5823,"longitude":77.7027,"temp":29.9,"humidity":72,"rain":0.0,"pressure":980.5,"uv_index":7.5,"wind_gusts":26.3,"aqi":671,"pm10":659.4,"pm2_5":113.4,"no2":19.8,"co":253.0,"o3":41.0,"so2":5.1,"mosquito_risk":7,"arthritis_risk":5,"migraine_risk":7,"frizz_risk":1,"updated_at":"2026-07-18T03:31:03.957611+05:30"},{"city":"Ayodhya","state":"Uttar Pradesh","latitude":26.7922,"longitude":82.1998,"temp":27.7,"humidity":96,"rain":0.0,"pressure":989.1,"uv_index":6.3,"wind_gusts":20.9,"aqi":112,"pm10":49.1,"pm2_5":38.8,"no2":14.3,"co":651.0,"o3":75.0,"so2":5.6,"mosquito_risk":7,"arthritis_risk":5,"migraine_risk":7,"frizz_risk":1,"updated_at":"2026-07-18T03:31:03.957623+05:30"},{"city":"Ratlam","state":"Madhya Pradesh","latitude":23.3315,"longitude":75.0367,"temp":24.9,"humidity":90,"rain":0.0,"pressure":951.0,"uv_index":8.05,"wind_gusts":33.8,"aqi":69,"pm10":18.9,"pm2_5":12.4,"no2":9.2,"co":211.0,"o3":45.0,"so2":12.1,"mosquito_risk":3,"arthritis_risk":5,"migraine_risk":7,"frizz_risk":1,"updated_at":"2026-07-18T03:31:03.957633+05:30"},{"city":"Sagar","state":"Madhya Pradesh","latitude":23.8388,"longitude":78.7378,"temp":24.3,"humidity":96,"rain":0.2,"pressure":945.6,"uv_index":7.1,"wind_gusts":34.9,"aqi":86,"pm10":31.3,"pm2_5":21.9,"no2":7.2,"co":241.0,"o3":63.0,"so2":4.8,"mosquito_risk":6,"arthritis_risk":5,"migraine_risk":7,"frizz_risk":1,"updated_at":"2026-07-18T03:31:03.957644+05:30"},{"city":"Satna","state":"Madhya Pradesh","latitude":24.6005,"longitude":80.8322,"temp":26.3,"humidity":91,"rain":0.0,"pressure":965.4,"uv_index":7.95,"wind_gusts":35.3,"aqi":103,"pm10":53.8,"pm2_5":32.0,"no2":9.3,"co":198.0,"o3":62.0,"so2":5.8,"mosquito_risk":7,"arthritis_risk":5,"migraine_risk":7,"frizz_risk":1,"updated_at":"2026-07-18T03:31:03.957653+05:30"},{"city":"Akola","state":"Maharashtra","latitude":20.7002,"longitude":77.0082,"temp":25.9,"humidity":93,"rain":0.2,"pressure":971.9,"uv_index":2.6,"wind_gusts":39.6,"aqi":62,"pm10":13.5,"pm2_5":8.9,"no2":8.9,"co":145.0,"o3":32.0,"so2":7.0,"mosquito_risk":10,"arthritis_risk":5,"migraine_risk":3,"frizz_risk":1,"updated_at":"2026-07-18T03:31:03.957661+05:30"},{"city":"Amravati","state":"Maharashtra","latitude":20.9374,"longitude":77.7796,"temp":25.1,"humidity":90,"rain":0.0,"pressure":963.9,"uv_index":0.95,"wind_gusts":40.0,"aqi":65,"pm10":12.9,"pm2_5":8.7,"no2":10.0,"co":150.0,"o3":31.0,"so2":7.7,"mosquito_risk":7,"arthritis_risk":5,"migraine_risk":3,"frizz_risk":1,"updated_at":"2026-07-18T03:31:03.957670+05:30"},{"city":"Latur","state":"Maharashtra","latitude":18.4088,"longitude":76.5604,"temp":23.6,"humidity":87,"rain":0.0,"pressure":937.3,"uv_index":2.3,"wind_gusts":36.0,"aqi":54,"pm10":9.3,"pm2_5":6.5,"no2":6.1,"co":154.0,"o3":37.0,"so2":3.3,"mosquito_risk":3,"arthritis_risk":5,"migraine_risk":3,"frizz_risk":1,"updated_at":"2026-07-18T03:31:03.957678+05:30"},{"city":"Nanded","state":"Maharashtra","latitude":19.1383,"longitude":77.3091,"temp":24.5,"humidity":94,"rain":0.1,"pressure":965.8,"uv_index":1.3,"wind_gusts":33.8,"aqi":65,"pm10":15.4,"pm2_5":11.2,"no2":7.4,"co":182.0,"o3":48.0,"so2":5.0,"mosquito_risk":6,"arthritis_risk":5,"migraine_risk":3,"frizz_risk":1,"updated_at":"2026-07-18T03:31:03.957686+05:30"},{"city":"Gulbarga","state":"Karnataka","latitude":17.3297,"longitude":76.8343,"temp":24.0,"humidity":90,"rain":0.0,"pressure":956.7,"uv_index":3.7,"wind_gusts":42.5,"aqi":52,"pm10":5.7,"pm2_5":4.4,"no2":5.9,"co":139.0,"o3":38.0,"so2":2.9,"mosquito_risk":3,"arthritis_risk":5,"migraine_risk":3,"frizz_risk":1,"updated_at":"2026-07-18T03:31:03.957693+05:30"},{"city":"Bidar","state":"Karnataka","latitude":17.9104,"longitude":77.5199,"temp":23.4,"humidity":90,"rain":0.0,"pressure":932.9,"uv_index":2.9,"wind_gusts":40.3,"aqi":66,"pm10":17.0,"pm2_5":11.3,"no2":7.3,"co":150.0,"o3":42.0,"so2":3.0,"mosquito_risk":3,"arthritis_risk":5,"migraine_risk":3,"frizz_risk":1,"updated_at":"2026-07-18T03:31:03.957701+05:30"},{"city":"Hospet","state":"Karnataka","latitude":15.2689,"longitude":76.3909,"temp":23.7,"humidity":85,"rain":0.0,"pressure":955.1,"uv_index":5.75,"wind_gusts":54.4,"aqi":29,"pm10":5.0,"pm2_5":3.0,"no2":2.9,"co":109.0,"o3":43.0,"so2":1.5,"mosquito_risk":3,"arthritis_risk":5,"migraine_risk":3,"frizz_risk":1,"updated_at":"2026-07-18T03:31:03.957709+05:30"},{"city":"Tirupur","state":"Tamil Nadu","latitude":11.1085,"longitude":77.3411,"temp":23.2,"humidity":89,"rain":0.0,"pressure":974.8,"uv_index":4.35,"wind_gusts":51.1,"aqi":57,"pm10":17.8,"pm2_5":13.7,"no2":16.5,"co":148.0,"o3":26.0,"so2":5.3,"mosquito_risk":3,"arthritis_risk":5,"migraine_risk":3,"frizz_risk":1,"updated_at":"2026-07-18T03:31:03.957717+05:30"},{"city":"Alappuzha","state":"Kerala","latitude":9.4981,"longitude":76.3388,"temp":24.4,"humidity":93,"rain":0.1,"pressure":1010.4,"uv_index":7.6,"wind_gusts":42.5,"aqi":57,"pm10":12.7,"pm2_5":8.0,"no2":7.9,"co":99.0,"o3":38.0,"so2":3.9,"mosquito_risk":6,"arthritis_risk":0,"migraine_risk":4,"frizz_risk":1,"updated_at":"2026-07-18T03:31:03.957724+05:30"},{"city":"Munnar","state":"Kerala","latitude":10.0889,"longitude":77.0595,"temp":15.8,"humidity":100,"rain":0.0,"pressure":856.1,"uv_index":8.2,"wind_gusts":40.7,"aqi":27,"pm10":5.0,"pm2_5":3.4,"no2":4.6,"co":90.0,"o3":29.0,"so2":1.2,"mosquito_risk":3,"arthritis_risk":10,"migraine_risk":7,"frizz_risk":0,"updated_at":"2026-07-18T03:31:03.957733+05:30"},{"city":"Silchar","state":"Assam","latitude":24.8333,"longitude":92.7789,"temp":26.2,"humidity":94,"rain":0.0,"pressure":1002.3,"uv_index":8.05,"wind_gusts":30.6,"aqi":68,"pm10":17.3,"pm2_5":11.6,"no2":5.0,"co":251.0,"o3":64.0,"so2":3.0,"mosquito_risk":7,"arthritis_risk":5,"migraine_risk":4,"frizz_risk":1,"updated_at":"2026-07-18T03:31:03.957740+05:30"},{"city":"Dibrugarh","state":"Assam","latitude":27.4728,"longitude":94.912,"temp":25.5,"humidity":98,"rain":0.0,"pressure":991.0,"uv_index":0.95,"wind_gusts":33.5,"aqi":54,"pm10":14.4,"pm2_5":12.1,"no2":6.6,"co":176.0,"o3":59.0,"so2":2.1,"mosquito_risk":7,"arthritis_risk":5,"migraine_risk":3,"frizz_risk":1,"updated_at":"2026-07-18T03:31:03.957748+05:30"}]