[{"city":"Delhi","state":"Delhi","latitude":28.6139,"longitude":77.209,"temp":33.1,"humidity":22,"rain":0.0,"pressure":981.8,"uv_index":7.2,"wind_gusts":34.6,"aqi":294,"pm10":668.7,"pm2_5":72.9,"mosquito_risk":0,"arthritis_risk":5,"migraine_risk":7,"frizz_risk":0,"updated_at":"2026-04-12T16:11:31.501204+05:30"},{"city":"Mumbai","state":"Maharashtra","latitude":19.076,"longitude":72.8777,"temp":29.2,"humidity":75,"rain":0.0,"pressure":1005.1,"uv_index":8.0,"wind_gusts":22.3,"aqi":174,"pm10":55.5,"pm2_5":34.7,"mosquito_risk":7,"arthritis_risk":5,"migraine_risk":4,"frizz_risk":1,"updated_at":"2026-04-12T16:11:31.501246+05:30"},{"city":"Bangalore","state":"Karnataka","latitude":12.9716,"longitude":77.5946,"temp":34.7,"humidity":28,"rain":0.0,"pressure":910.3,"uv_index":9.7,"wind_gusts":31.0,"aqi":116,"pm10":39.2,"pm2_5":28.7,"mosquito_risk":0,"arthritis_risk":5,"migraine_risk":7,"frizz_risk":0,"updated_at":"2026-04-12T16:11:31.501261+05:30"},{"city":"Hyderabad","state":"Telangana","latitude":17.385,"longitude":78.4867,"temp":39.6,"humidity":20,"rain":0.0,"pressure":950.4,"uv_index":9.25,"wind_gusts":29.2,"aqi":116,"pm10":31.9,"pm2_5":21.1,"mosquito_risk":0,"arthritis_risk":5,"migraine_risk":10,"frizz_risk":0,"updated_at":"2026-04-12T16:11:31.501271+05:30"},{"city":"Chennai","state":"Tamil Nadu","latitude":13.0827,"longitude":80.2707,"temp":33.3,"humidity":51,"rain":0.0,"pressure":1005.5,"uv_index":9.4,"wind_gusts":34.6,"aqi":48,"pm10":18.0,"pm2_5":9.7,"mosquito_risk":0,"arthritis_risk":5,"migraine_risk":4,"frizz_risk":1,"updated_at":"2026-04-12T16:11:31.501280+05:30"},{"city":"Kolkata","state":"West Bengal","latitude":22.5726,"longitude":88.3639,"temp":34.2,"humidity":38,"rain":0.0,"pressure":1002.9,"uv_index":8.8,"wind_gusts":22.3,"aqi":141,"pm10":86.1,"pm2_5":29.0,"mosquito_risk":0,"arthritis_risk":5,"migraine_risk":4,"frizz_risk":1,"updated_at":"2026-04-12T16:11:31.501289+05:30"},{"city":"Pune","state":"Maharashtra","latitude":18.5204,"longitude":73.8567,"temp":39.0,"humidity":21,"rain":0.0,"pressure":945.9,"uv_index":8.55,"wind_gusts":42.5,"aqi":143,"pm10":34.6,"pm2_5":21.4,"mosquito_risk":0,"arthritis_risk":5,"migraine_risk":10,"frizz_risk":0,"updated_at":"2026-04-12T16:11:31.501301+05:30"},{"city":"Ahmedabad","state":"Gujarat","latitude":23.0225,"longitude":72.5714,"temp":41.1,"humidity":15,"rain":0.0,"pressure":998.5,"uv_index":8.1,"wind_gusts":22.3,"aqi":108,"pm10":81.3,"pm2_5":21.5,"mosquito_risk":0,"arthritis_risk":5,"migraine_risk":10,"frizz_risk":0,"updated_at":"2026-04-12T16:11:31.501309+05:30"},{"city":"Jaipur","state":"Rajasthan","latitude":26.9124,"longitude":75.7873,"temp":34.9,"humidity":13,"rain":0.0,"pressure":959.2,"uv_index":7.85,"wind_gusts":30.2,"aqi":147,"pm10":208.6,"pm2_5":27.9,"mosquito_risk":0,"arthritis_risk":5,"migraine_risk":7,"frizz_risk":0,"updated_at":"2026-04-12T16:11:31.501317+05:30"},{"city":"Lucknow","state":"Uttar Pradesh","latitude":26.8467,"longitude":80.9462,"temp":35.7,"humidity":22,"rain":0.0,"pressure":990.4,"uv_index":7.7,"wind_gusts":29.2,"aqi":166,"pm10":170.0,"pm2_5":35.2,"mosquito_risk":0,"arthritis_risk":5,"migraine_risk":10,"frizz_risk":0,"updated_at":"2026-04-12T16:11:31.501324+05:30"},{"city":"Kanpur","state":"Uttar Pradesh","latitude":26.4499,"longitude":80.3319,"temp":34.0,"humidity":30,"rain":0.0,"pressure":989.3,"uv_index":7.75,"wind_gusts":24.5,"aqi":418,"pm10":368.8,"pm2_5":50.5,"mosquito_risk":0,"arthritis_risk":5,"migraine_risk":7,"frizz_risk":0,"updated_at":"2026-04-12T16:11:31.501332+05:30"},{"city":"Chandigarh","state":"Chandigarh","latitude":30.7333,"longitude":76.7794,"temp":30.0,"humidity":33,"rain":0.0,"pressure":968.2,"uv_index":7.1,"wind_gusts":31.7,"aqi":120,"pm10":33.2,"pm2_5":14.8,"mosquito_risk":4,"arthritis_risk":5,"migraine_risk":7,"frizz_risk":0,"updated_at":"2026-04-12T16:11:31.501340+05:30"},{"city":"Srinagar","state":"Jammu and Kashmir","latitude":34.0837,"longitude":74.7973,"temp":18.3,"humidity":46,"rain":0.0,"pressure":841.3,"uv_index":8.05,"wind_gusts":17.3,"aqi":97,"pm10":17.6,"pm2_5":7.3,"mosquito_risk":0,"arthritis_risk":5,"migraine_risk":7,"frizz_risk":0,"updated_at":"2026-04-12T16:11:31.501347+05:30"},{"city":"Jammu","state":"Jammu and Kashmir","latitude":32.7266,"longitude":74.857,"temp":30.0,"humidity":34,"rain":0.0,"pressure":972.5,"uv_index":7.8,"wind_gusts":27.7,"aqi":70,"pm10":38.0,"pm2_5":11.7,"mosquito_risk":4,"arthritis_risk":5,"migraine_risk":7,"frizz_risk":0,"updated_at":"2026-04-12T16:11:31.501355+05:30"},{"city":"Amritsar","state":"Punjab","latitude":31.634,"longitude":74.8723,"temp":29.8,"humidity":33,"rain":0.0,"pressure":980.9,"uv_index":7.75,"wind_gusts":25.6,"aqi":94,"pm10":35.0,"pm2_5":12.5,"mosquito_risk":4,"arthritis_risk":5,"migraine_risk":7,"frizz_risk":0,"updated_at":"2026-04-12T16:11:31.501362+05:30"},{"city":"Ludhiana","state":"Punjab","latitude":30.901,"longitude":75.8573,"temp":30.8,"humidity":29,"rain":0.0,"pressure":978.5,"uv_index":7.4,"wind_gusts":30.2,"aqi":79,"pm10":53.0,"pm2_5":14.7,"mosquito_risk":0,"arthritis_risk":5,"migraine_risk":7,"frizz_risk":0,"updated_at":"2026-04-12T16:11:31.501369+05:30"},{"city":"Jalandhar","state":"Punjab","latitude":31.326,"longitude":75.5762,"temp":30.2,"humidity":32,"rain":0.0,"pressure":979.7,"uv_index":7.55,"wind_gusts":27.0,"aqi":82,"pm10":63.1,"pm2_5":15.3,"mosquito_risk":0,"arthritis_risk":5,"migraine_risk":7,"frizz_risk":0,"updated_at":"2026-04-12T16:11:31.501379+05:30"},{"city":"Dehradun","state":"Uttarakhand","latitude":30.6284,"longitude":78.0322,"temp":19.2,"humidity":54,"rain":0.0,"pressure":829.8,"uv_index":7.45,"wind_gusts":33.5,"aqi":103,"pm10":36.4,"pm2_5":12.0,"mosquito_risk":0,"arthritis_risk":5,"migraine_risk":7,"frizz_risk":0,"updated_at":"2026-04-12T16:11:31.501386+05:30"},{"city":"Shimla","state":"Himachal Pradesh","latitude":31.1048,"longitude":77.1734,"temp":17.2,"humidity":49,"rain":0.0,"pressure":784.8,"uv_index":7.65,"wind_gusts":41.0,"aqi":111,"pm10":31.5,"pm2_5":12.3,"mosquito_risk":0,"arthritis_risk":5,"migraine_risk":7,"frizz_risk":0,"updated_at":"2026-04-12T16:11:31.501393+05:30"},{"city":"Manali","state":"Himachal Pradesh","latitude":32.2396,"longitude":77.1887,"temp":18.2,"humidity":56,"rain":0.0,"pressure":819.1,"uv_index":9.85,"wind_gusts":29.2,"aqi":154,"pm10":16.7,"pm2_5":5.9,"mosquito_risk":0,"arthritis_risk":5,"migraine_risk":7,"frizz_risk":0,"updated_at":"2026-04-12T16:11:31.501399+05:30"},{"city":"Gurgaon","state":"Haryana","latitude":28.4595,"longitude":77.0266,"temp":33.1,"humidity":21,"rain":0.0,"pressure":980.4,"uv_index":7.3,"wind_gusts":33.5,"aqi":851,"pm10":1870.1,"pm2_5":171.4,"mosquito_risk":0,"arthritis_risk":5,"migraine_risk":7,"frizz_risk":0,"updated_at":"2026-04-12T16:11:31.501406+05:30"},{"city":"Noida","state":"Uttar Pradesh","latitude":28.5355,"longitude":77.391,"temp":33.3,"humidity":22,"rain":0.0,"pressure":983.3,"uv_index":7.25,"wind_gusts":33.8,"aqi":851,"pm10":1870.1,"pm2_5":171.4,"mosquito_risk":0,"arthritis_risk":5,"migraine_risk":7,"frizz_risk":0,"updated_at":"2026-04-12T16:11:31.501413+05:30"},{"city":"Ghaziabad","state":"Uttar Pradesh","latitude":28.6692,"longitude":77.4538,"temp":32.7,"humidity":25,"rain":0.0,"pressure":981.5,"uv_index":7.2,"wind_gusts":32.8,"aqi":172,"pm10":448.0,"pm2_5":55.8,"mosquito_risk":0,"arthritis_risk":5,"migraine_risk":7,"frizz_risk":0,"updated_at":"2026-04-12T16:11:31.501420+05:30"},{"city":"Faridabad","state":"Haryana","latitude":28.4089,"longitude":77.3178,"temp":33.2,"humidity":21,"rain":0.0,"pressure":982.6,"uv_index":7.3,"wind_gusts":33.1,"aqi":851,"pm10":1870.1,"pm2_5":171.4,"mosquito_risk":0,"arthritis_risk":5,"migraine_risk":7,"frizz_risk":0,"updated_at":"2026-04-12T16:11:31.501427+05:30"},{"city":"Meerut","state":"Uttar Pradesh","latitude":28.9845,"longitude":77.7064,"temp":32.2,"humidity":26,"rain":0.0,"pressure":980.1,"uv_index":7.1,"wind_gusts":33.1,"aqi":172,"pm10":448.0,"pm2_5":55.8,"mosquito_risk":0,"arthritis_risk":5,"migraine_risk":7,"frizz_risk":0,"updated_at":"2026-04-12T16:11:31.501434+05:30"},{"city":"Agra","state":"Uttar Pradesh","latitude":27.1767,"longitude":78.0081,"temp":34.9,"humidity":18,"rain":0.0,"pressure":986.3,"uv_index":7.6,"wind_gusts":33.5,"aqi":517,"pm10":1087.8,"pm2_5":101.5,"mosquito_risk":0,"arthritis_risk":5,"migraine_risk":7,"frizz_risk":0,"updated_at":"2026-04-12T16:11:31.501440+05:30"},{"city":"Varanasi","state":"Uttar Pradesh","latitude":25.3176,"longitude":82.9739,"temp":37.7,"humidity":18,"rain":0.0,"pressure":993.9,"uv_index":8.3,"wind_gusts":25.9,"aqi":137,"pm10":27.0,"pm2_5":13.2,"mosquito_risk":0,"arthritis_risk":5,"migraine_risk":10,"frizz_risk":0,"updated_at":"2026-04-12T16:11:31.501450+05:30"},{"city":"Prayagraj","state":"Uttar Pradesh","latitude":25.4358,"longitude":81.8463,"temp":38.1,"humidity":19,"rain":0.0,"pressure":992.0,"uv_index":8.2,"wind_gusts":24.1,"aqi":156,"pm10":46.8,"pm2_5":14.4,"mosquito_risk":0,"arthritis_risk":5,"migraine_risk":10,"frizz_risk":0,"updated_at":"2026-04-12T16:11:31.501457+05:30"},{"city":"Gorakhpur","state":"Uttar Pradesh","latitude":26.7606,"longitude":83.3732,"temp":37.0,"humidity":17,"rain":0.0,"pressure":993.1,"uv_index":8.15,"wind_gusts":36.0,"aqi":105,"pm10":79.4,"pm2_5":22.9,"mosquito_risk":0,"arthritis_risk":5,"migraine_risk":10,"frizz_risk":0,"updated_at":"2026-04-12T16:11:31.501465+05:30"},{"city":"Bareilly","state":"Uttar Pradesh","latitude":28.367,"longitude":79.4304,"temp":33.3,"humidity":26,"rain":0.0,"pressure":984.7,"uv_index":7.45,"wind_gusts":34.9,"aqi":100,"pm10":67.8,"pm2_5":19.7,"mosquito_risk":0,"arthritis_risk":5,"migraine_risk":7,"frizz_risk":0,"updated_at":"2026-04-12T16:11:31.501472+05:30"},{"city":"Aligarh","state":"Uttar Pradesh","latitude":27.8974,"longitude":78.088,"temp":34.2,"humidity":20,"rain":0.0,"pressure":984.0,"uv_index":7.4,"wind_gusts":34.2,"aqi":461,"pm10":1072.9,"pm2_5":107.6,"mosquito_risk":0,"arthritis_risk":5,"migraine_risk":7,"frizz_risk":0,"updated_at":"2026-04-12T16:11:31.501479+05:30"},{"city":"Moradabad","state":"Uttar Pradesh","latitude":28.8386,"longitude":78.7733,"temp":32.2,"humidity":29,"rain":0.0,"pressure":981.9,"uv_index":7.25,"wind_gusts":36.0,"aqi":102,"pm10":48.1,"pm2_5":17.8,"mosquito_risk":0,"arthritis_risk":5,"migraine_risk":7,"frizz_risk":0,"updated_at":"2026-04-12T16:11:31.501485+05:30"},{"city":"Saharanpur","state":"Uttar Pradesh","latitude":29.9637,"longitude":77.546,"temp":30.6,"humidity":32,"rain":0.0,"pressure":974.6,"uv_index":6.9,"wind_gusts":32.0,"aqi":105,"pm10":128.5,"pm2_5":25.8,"mosquito_risk":0,"arthritis_risk":5,"migraine_risk":7,"frizz_risk":0,"updated_at":"2026-04-12T16:11:31.501491+05:30"},{"city":"Jhansi","state":"Uttar Pradesh","latitude":25.4484,"longitude":78.5685,"temp":36.4,"humidity":23,"rain":0.0,"pressure":975.7,"uv_index":8.15,"wind_gusts":36.0,"aqi":100,"pm10":184.9,"pm2_5":34.1,"mosquito_risk":0,"arthritis_risk":5,"migraine_risk":10,"frizz_risk":0,"updated_at":"2026-04-12T16:11:34.758057+05:30"},{"city":"Surat","state":"Gujarat","latitude":21.1702,"longitude":72.8311,"temp":33.9,"humidity":46,"rain":0.0,"pressure":1003.7,"uv_index":7.8,"wind_gusts":26.6,"aqi":150,"pm10":85.0,"pm2_5":58.1,"mosquito_risk":0,"arthritis_risk":5,"migraine_risk":4,"frizz_risk":1,"updated_at":"2026-04-12T16:11:34.758089+05:30"},{"city":"Vadodara","state":"Gujarat","latitude":22.3072,"longitude":73.1812,"temp":40.0,"humidity":18,"rain":0.0,"pressure":1000.8,"uv_index":8.05,"wind_gusts":22.3,"aqi":128,"pm10":54.2,"pm2_5":23.5,"mosquito_risk":0,"arthritis_risk":5,"migraine_risk":7,"frizz_risk":0,"updated_at":"2026-04-12T16:11:34.758102+05:30"},{"city":"Rajkot","state":"Gujarat","latitude":22.3039,"longitude":70.8022,"temp":39.0,"humidity":19,"rain":0.0,"pressure":991.4,"uv_index":7.8,"wind_gusts":23.4,"aqi":75,"pm10":61.5,"pm2_5":19.3,"mosquito_risk":0,"arthritis_risk":5,"migraine_risk":10,"frizz_risk":0,"updated_at":"2026-04-12T16:11:34.758111+05:30"},{"city":"Thane","state":"Maharashtra","latitude":19.2183,"longitude":72.9781,"temp":32.4,"humidity":56,"rain":0.0,"pressure":1004.8,"uv_index":8.0,"wind_gusts":34.6,"aqi":174,"pm10":55.5,"pm2_5":34.7,"mosquito_risk":0,"arthritis_risk":5,"migraine_risk":4,"frizz_risk":1,"updated_at":"2026-04-12T16:11:34.758120+05:30"},{"city":"Nagpur","state":"Maharashtra","latitude":21.1458,"longitude":79.0882,"temp":37.1,"humidity":26,"rain":0.0,"pressure":969.9,"uv_index":8.8,"wind_gusts":14.8,"aqi":167,"pm10":25.4,"pm2_5":19.3,"mosquito_risk":0,"arthritis_risk":5,"migraine_risk":10,"frizz_risk":0,"updated_at":"2026-04-12T16:11:34.758129+05:30"},{"city":"Nashik","state":"Maharashtra","latitude":19.9975,"longitude":73.7898,"temp":37.3,"humidity":21,"rain":0.0,"pressure":943.4,"uv_index":8.25,"wind_gusts":33.1,"aqi":145,"pm10":37.8,"pm2_5":19.4,"mosquito_risk":0,"arthritis_risk":5,"migraine_risk":10,"frizz_risk":0,"updated_at":"2026-04-12T16:11:34.758137+05:30"},{"city":"Aurangabad","state":"Maharashtra","latitude":19.8762,"longitude":75.3433,"temp":39.3,"humidity":15,"rain":0.0,"pressure":941.4,"uv_index":8.95,"wind_gusts":31.0,"aqi":159,"pm10":35.9,"pm2_5":21.7,"mosquito_risk":0,"arthritis_risk":5,"migraine_risk":10,"frizz_risk":0,"updated_at":"2026-04-12T16:11:34.758146+05:30"},{"city":"Solapur","state":"Maharashtra","latitude":17.6599,"longitude":75.9064,"temp":40.9,"humidity":17,"rain":0.0,"pressure":953.4,"uv_index":9.05,"wind_gusts":27.0,"aqi":121,"pm10":36.0,"pm2_5":23.7,"mosquito_risk":0,"arthritis_risk":5,"migraine_risk":10,"frizz_risk":0,"updated_at":"2026-04-12T16:11:34.758154+05:30"},{"city":"Kolhapur","state":"Maharashtra","latitude":16.705,"longitude":74.2433,"temp":35.0,"humidity":40,"rain":0.0,"pressure":945.5,"uv_index":9.05,"wind_gusts":49.3,"aqi":110,"pm10":36.4,"pm2_5":25.9,"mosquito_risk":0,"arthritis_risk":5,"migraine_risk":7,"frizz_risk":1,"updated_at":"2026-04-12T16:11:34.758162+05:30"},{"city":"Goa","state":"Goa","latitude":15.2993,"longitude":74.124,"temp":31.0,"humidity":68,"rain":0.0,"pressure":995.4,"uv_index":9.05,"wind_gusts":32.8,"aqi":101,"pm10":41.1,"pm2_5":26.4,"mosquito_risk":3,"arthritis_risk":5,"migraine_risk":7,"frizz_risk":1,"updated_at":"2026-04-12T16:11:34.758171+05:30"},{"city":"Jodhpur","state":"Rajasthan","latitude":26.2389,"longitude":73.0243,"temp":36.2,"humidity":18,"rain":0.0,"pressure":982.1,"uv_index":8.1,"wind_gusts":16.2,"aqi":95,"pm10":55.5,"pm2_5":14.3,"mosquito_risk":0,"arthritis_risk":5,"migraine_risk":10,"frizz_risk":0,"updated_at":"2026-04-12T16:11:34.758179+05:30"},{"city":"Udaipur","state":"Rajasthan","latitude":24.5854,"longitude":73.7125,"temp":35.3,"humidity":16,"rain":0.0,"pressure":945.9,"uv_index":8.7,"wind_gusts":28.4,"aqi":67,"pm10":52.5,"pm2_5":11.6,"mosquito_risk":0,"arthritis_risk":5,"migraine_risk":10,"frizz_risk":0,"updated_at":"2026-04-12T16:11:34.758187+05:30"},{"city":"Kota","state":"Rajasthan","latitude":25.2138,"longitude":75.8648,"temp":36.4,"humidity":20,"rain":0.0,"pressure":977.2,"uv_index":8.15,"wind_gusts":24.1,"aqi":79,"pm10":186.7,"pm2_5":36.8,"mosquito_risk":0,"arthritis_risk":5,"migraine_risk":10,"frizz_risk":0,"updated_at":"2026-04-12T16:11:34.758196+05:30"},{"city":"Bikaner","state":"Rajasthan","latitude":28.0229,"longitude":73.3119,"temp":36.1,"humidity":14,"rain":0.0,"pressure":981.2,"uv_index":7.95,"wind_gusts":21.2,"aqi":96,"pm10":47.1,"pm2_5":13.1,"mosquito_risk":0,"arthritis_risk":5,"migraine_risk":10,"frizz_risk":0,"updated_at":"2026-04-12T16:11:34.758204+05:30"},{"city":"Ajmer","state":"Rajasthan","latitude":26.4499,"longitude":74.6399,"temp":34.7,"humidity":13,"rain":0.0,"pressure":954.3,"uv_index":8.05,"wind_gusts":26.3,"aqi":98,"pm10":44.2,"pm2_5":13.1,"mosquito_risk":0,"arthritis_risk":5,"migraine_risk":7,"frizz_risk":0,"updated_at":"2026-04-12T16:11:34.758212+05:30"},{"city":"Gwalior","state":"Madhya Pradesh","latitude":26.2183,"longitude":78.1828,"temp":34.4,"humidity":27,"rain":0.0,"pressure":981.9,"uv_index":7.85,"wind_gusts":33.1,"aqi":101,"pm10":184.9,"pm2_5":36.0,"mosquito_risk":0,"arthritis_risk":5,"migraine_risk":7,"frizz_risk":0,"updated_at":"2026-04-12T16:11:34.758220+05:30"},{"city":"Indore","state":"Madhya Pradesh","latitude":22.7196,"longitude":75.8577,"temp":35.9,"humidity":21,"rain":0.0,"pressure":946.4,"uv_index":8.55,"wind_gusts":27.7,"aqi":80,"pm10":25.5,"pm2_5":13.2,"mosquito_risk":0,"arthritis_risk":5,"migraine_risk":10,"frizz_risk":0,"updated_at":"2026-04-12T16:11:34.758228+05:30"},{"city":"Bhopal","state":"Madhya Pradesh","latitude":23.2599,"longitude":77.4126,"temp":38.4,"humidity":15,"rain":0.0,"pressure":951.3,"uv_index":8.5,"wind_gusts":32.4,"aqi":93,"pm10":16.0,"pm2_5":10.5,"mosquito_risk":0,"arthritis_risk":5,"migraine_risk":10,"frizz_risk":0,"updated_at":"2026-04-12T16:11:34.758236+05:30"},{"city":"Jabalpur","state":"Madhya Pradesh","latitude":23.1815,"longitude":79.9864,"temp":37.6,"humidity":15,"rain":0.0,"pressure":958.6,"uv_index":8.65,"wind_gusts":33.8,"aqi":122,"pm10":18.6,"pm2_5":11.0,"mosquito_risk":0,"arthritis_risk":5,"migraine_risk":10,"frizz_risk":0,"updated_at":"2026-04-12T16:11:34.758243+05:30"},{"city":"Ujjain","state":"Madhya Pradesh","latitude":23.1765,"longitude":75.7885,"temp":36.5,"humidity":19,"rain":0.0,"pressure":952.0,"uv_index":8.45,"wind_gusts":27.4,"aqi":71,"pm10":39.1,"pm2_5":16.0,"mosquito_risk":0,"arthritis_risk":5,"migraine_risk":10,"frizz_risk":0,"updated_at":"2026-04-12T16:11:34.758251+05:30"},{"city":"Visakhapatnam","state":"Andhra Pradesh","latitude":17.6868,"longitude":83.2185,"temp":31.7,"humidity":66,"rain":0.0,"pressure":1001.7,"uv_index":9.2,"wind_gusts":38.9,"aqi":80,"pm10":31.4,"pm2_5":22.1,"mosquito_risk":3,"arthritis_risk":5,"migraine_risk":4,"frizz_risk":1,"updated_at":"2026-04-12T16:11:34.758259+05:30"},{"city":"Vijayawada","state":"Andhra Pradesh","latitude":16.5062,"longitude":80.648,"temp":37.1,"humidity":42,"rain":0.0,"pressure":999.3,"uv_index":9.25,"wind_gusts":35.6,"aqi":62,"pm10":26.0,"pm2_5":17.6,"mosquito_risk":0,"arthritis_risk":5,"migraine_risk":10,"frizz_risk":1,"updated_at":"2026-04-12T16:11:34.758267+05:30"},{"city":"Guntur","state":"Andhra Pradesh","latitude":16.3067,"longitude":80.4365,"temp":36.1,"humidity":43,"rain":0.0,"pressure":1001.0,"uv_index":9.25,"wind_gusts":34.9,"aqi":61,"pm10":25.8,"pm2_5":17.3,"mosquito_risk":0,"arthritis_risk":5,"migraine_risk":7,"frizz_risk":1,"updated_at":"2026-04-12T16:11:34.758274+05:30"},{"city":"Nellore","state":"Andhra Pradesh","latitude":14.4426,"longitude":79.9865,"temp":35.6,"humidity":46,"rain":0.0,"pressure":1003.3,"uv_index":9.35,"wind_gusts":34.6,"aqi":55,"pm10":29.8,"pm2_5":19.4,"mosquito_risk":0,"arthritis_risk":5,"migraine_risk":7,"frizz_risk":1,"updated_at":"2026-04-12T16:11:34.758283+05:30"},{"city":"Kurnool","state":"Andhra Pradesh","latitude":15.8281,"longitude":78.0373,"temp":40.9,"humidity":23,"rain":0.0,"pressure":973.2,"uv_index":9.25,"wind_gusts":31.0,"aqi":101,"pm10":35.6,"pm2_5":23.2,"mosquito_risk":0,"arthritis_risk":5,"migraine_risk":10,"frizz_risk":0,"updated_at":"2026-04-12T16:11:34.758292+05:30"},{"city":"Kakinada","state":"Andhra Pradesh","latitude":16.9891,"longitude":82.2475,"temp":34.8,"humidity":52,"rain":0.0,"pressure":1004.7,"uv_index":9.2,"wind_gusts":36.7,"aqi":56,"pm10":22.4,"pm2_5":11.7,"mosquito_risk":0,"arthritis_risk":5,"migraine_risk":4,"frizz_risk":1,"updated_at":"2026-04-12T16:11:34.758300+05:30"},{"city":"Tirupati","state":"Andhra Pradesh","latitude":13.6288,"longitude":79.4192,"temp":36.5,"humidity":33,"rain":0.0,"pressure":988.8,"uv_index":9.45,"wind_gusts":32.0,"aqi":68,"pm10":31.0,"pm2_5":21.6,"mosquito_risk":0,"arthritis_risk":5,"migraine_risk":10,"frizz_risk":1,"updated_at":"2026-04-12T16:11:34.758308+05:30"},{"city":"Warangal","state":"Telangana","latitude":17.9689,"longitude":79.5941,"temp":39.1,"humidity":27,"rain":0.0,"pressure":975.0,"uv_index":9.1,"wind_gusts":29.5,"aqi":96,"pm10":30.0,"pm2_5":21.1,"mosquito_risk":0,"arthritis_risk":5,"migraine_risk":10,"frizz_risk":1,"updated_at":"2026-04-12T16:11:34.758316+05:30"},{"city":"Nizamabad","state":"Telangana","latitude":18.6725,"longitude":78.0941,"temp":39.6,"humidity":21,"rain":0.0,"pressure":961.6,"uv_index":9.05,"wind_gusts":26.3,"aqi":159,"pm10":34.2,"pm2_5":22.2,"mosquito_risk":0,"arthritis_risk":5,"migraine_risk":10,"frizz_risk":0,"updated_at":"2026-04-12T16:11:34.758324+05:30"},{"city":"Mysore","state":"Karnataka","latitude":12.2958,"longitude":76.6396,"temp":35.5,"humidity":29,"rain":0.0,"pressure":926.2,"uv_index":9.55,"wind_gusts":44.3,"aqi":104,"pm10":37.3,"pm2_5":27.0,"mosquito_risk":0,"arthritis_risk":5,"migraine_risk":10,"frizz_risk":0,"updated_at":"2026-04-12T16:11:34.758332+05:30"},{"city":"Mangalore","state":"Karnataka","latitude":12.9141,"longitude":74.856,"temp":29.5,"humidity":79,"rain":0.0,"pressure":1004.0,"uv_index":9.2,"wind_gusts":24.1,"aqi":96,"pm10":70.8,"pm2_5":36.2,"mosquito_risk":7,"arthritis_risk":5,"migraine_risk":4,"frizz_risk":1,"updated_at":"2026-04-12T16:11:34.758340+05:30"},{"city":"Hubli-Dharwad","state":"Karnataka","latitude":15.3647,"longitude":75.124,"temp":33.4,"humidity":49,"rain":0.0,"pressure":938.4,"uv_index":9.25,"wind_gusts":35.6,"aqi":121,"pm10":41.1,"pm2_5":29.8,"mosquito_risk":0,"arthritis_risk":5,"migraine_risk":7,"frizz_risk":1,"updated_at":"2026-04-12T16:11:34.758349+05:30"},{"city":"Belgaum","state":"Karnataka","latitude":15.8497,"longitude":74.4977,"temp":31.8,"humidity":56,"rain":0.0,"pressure":923.9,"uv_index":9.3,"wind_gusts":41.8,"aqi":135,"pm10":38.3,"pm2_5":28.3,"mosquito_risk":0,"arthritis_risk":5,"migraine_risk":7,"frizz_risk":1,"updated_at":"2026-04-12T16:11:38.012917+05:30"},{"city":"Coimbatore","state":"Tamil Nadu","latitude":11.0168,"longitude":76.9558,"temp":36.4,"humidity":30,"rain":0.0,"pressure":959.0,"uv_index":9.5,"wind_gusts":37.4,"aqi":111,"pm10":30.9,"pm2_5":21.8,"mosquito_risk":0,"arthritis_risk":5,"migraine_risk":10,"frizz_risk":0,"updated_at":"2026-04-12T16:11:38.012949+05:30"},{"city":"Madurai","state":"Tamil Nadu","latitude":9.9252,"longitude":78.1198,"temp":37.8,"humidity":31,"rain":0.0,"pressure":989.5,"uv_index":9.4,"wind_gusts":32.8,"aqi":90,"pm10":20.4,"pm2_5":14.6,"mosquito_risk":0,"arthritis_risk":5,"migraine_risk":10,"frizz_risk":1,"updated_at":"2026-04-12T16:11:38.012960+05:30"},{"city":"Trichy","state":"Tamil Nadu","latitude":10.7905,"longitude":78.7047,"temp":37.4,"humidity":35,"rain":0.0,"pressure":996.4,"uv_index":9.4,"wind_gusts":27.4,"aqi":71,"pm10":16.9,"pm2_5":11.0,"mosquito_risk":0,"arthritis_risk":5,"migraine_risk":10,"frizz_risk":1,"updated_at":"2026-04-12T16:11:38.012969+05:30"},{"city":"Salem","state":"Tamil Nadu","latitude":11.6643,"longitude":78.146,"temp":37.9,"humidity":27,"rain":0.0,"pressure":974.2,"uv_index":9.45,"wind_gusts":25.9,"aqi":82,"pm10":28.2,"pm2_5":19.1,"mosquito_risk":0,"arthritis_risk":5,"migraine_risk":10,"frizz_risk":0,"updated_at":"2026-04-12T16:11:38.012977+05:30"},{"city":"Tirunelveli","state":"Tamil Nadu","latitude":8.7139,"longitude":77.7567,"temp":36.3,"humidity":38,"rain":0.0,"pressure":999.8,"uv_index":9.35,"wind_gusts":37.4,"aqi":87,"pm10":22.6,"pm2_5":16.9,"mosquito_risk":0,"arthritis_risk":5,"migraine_risk":10,"frizz_risk":1,"updated_at":"2026-04-12T16:11:38.012985+05:30"},{"city":"Vellore","state":"Tamil Nadu","latitude":12.9165,"longitude":79.1325,"temp":36.4,"humidity":30,"rain":0.0,"pressure":982.0,"uv_index":9.5,"wind_gusts":33.5,"aqi":86,"pm10":34.0,"pm2_5":25.0,"mosquito_risk":0,"arthritis_risk":5,"migraine_risk":10,"frizz_risk":1,"updated_at":"2026-04-12T16:11:38.012992+05:30"},{"city":"Erode","state":"Tamil Nadu","latitude":11.341,"longitude":77.7172,"temp":38.6,"humidity":31,"rain":0.0,"pressure":985.5,"uv_index":9.45,"wind_gusts":29.5,"aqi":74,"pm10":24.7,"pm2_5":16.6,"mosquito_risk":0,"arthritis_risk":5,"migraine_risk":10,"frizz_risk":1,"updated_at":"2026-04-12T16:11:38.012999+05:30"},{"city":"Kochi","state":"Kerala","latitude":9.9312,"longitude":76.2673,"temp":29.9,"humidity":80,"rain":0.0,"pressure":1005.5,"uv_index":8.7,"wind_gusts":28.1,"aqi":96,"pm10":46.2,"pm2_5":28.3,"mosquito_risk":7,"arthritis_risk":5,"migraine_risk":4,"frizz_risk":1,"updated_at":"2026-04-12T16:11:38.013006+05:30"},{"city":"Thiruvananthapuram","state":"Kerala","latitude":8.5241,"longitude":76.9366,"temp":29.8,"humidity":81,"rain":0.0,"pressure":1005.0,"uv_index":9.2,"wind_gusts":21.6,"aqi":80,"pm10":47.5,"pm2_5":25.6,"mosquito_risk":7,"arthritis_risk":5,"migraine_risk":4,"frizz_risk":1,"updated_at":"2026-04-12T16:11:38.013013+05:30"},{"city":"Kozhikode","state":"Kerala","latitude":11.2588,"longitude":75.7804,"temp":31.0,"humidity":75,"rain":0.0,"pressure":1004.9,"uv_index":9.1,"wind_gusts":32.4,"aqi":87,"pm10":66.1,"pm2_5":31.4,"mosquito_risk":3,"arthritis_risk":5,"migraine_risk":4,"frizz_risk":1,"updated_at":"2026-04-12T16:11:38.013020+05:30"},{"city":"Thrissur","state":"Kerala","latitude":10.5276,"longitude":76.2144,"temp":33.1,"humidity":60,"rain":0.0,"pressure":1004.0,"uv_index":8.15,"wind_gusts":32.0,"aqi":91,"pm10":40.6,"pm2_5":25.0,"mosquito_risk":0,"arthritis_risk":5,"migraine_risk":4,"frizz_risk":1,"updated_at":"2026-04-12T16:11:38.013028+05:30"},{"city":"Kannur","state":"Kerala","latitude":11.8745,"longitude":75.3704,"temp":31.2,"humidity":68,"rain":0.0,"pressure":1004.6,"uv_index":9.2,"wind_gusts":31.3,"aqi":108,"pm10":70.8,"pm2_5":34.9,"mosquito_risk":3,"arthritis_risk":5,"migraine_risk":4,"frizz_risk":1,"updated_at":"2026-04-12T16:11:38.013034+05:30"},{"city":"Patna","state":"Bihar","latitude":25.5941,"longitude":85.1376,"temp":36.6,"humidity":19,"rain":0.0,"pressure":996.4,"uv_index":8.45,"wind_gusts":36.4,"aqi":121,"pm10":99.7,"pm2_5":27.1,"mosquito_risk":0,"arthritis_risk":5,"migraine_risk":10,"frizz_risk":0,"updated_at":"2026-04-12T16:11:38.013041+05:30"},{"city":"Gaya","state":"Bihar","latitude":24.7914,"longitude":85.0002,"temp":36.3,"humidity":21,"rain":0.0,"pressure":990.3,"uv_index":8.55,"wind_gusts":26.3,"aqi":130,"pm10":112.0,"pm2_5":27.9,"mosquito_risk":0,"arthritis_risk":5,"migraine_risk":10,"frizz_risk":0,"updated_at":"2026-04-12T16:11:38.013048+05:30"},{"city":"Muzaffarpur","state":"Bihar","latitude":26.1209,"longitude":85.3647,"temp":36.3,"humidity":20,"rain":0.0,"pressure":996.1,"uv_index":8.45,"wind_gusts":34.6,"aqi":152,"pm10":96.4,"pm2_5":29.6,"mosquito_risk":0,"arthritis_risk":5,"migraine_risk":10,"frizz_risk":0,"updated_at":"2026-04-12T16:11:38.013054+05:30"},{"city":"Bhagalpur","state":"Bihar","latitude":25.2425,"longitude":87.0117,"temp":33.7,"humidity":33,"rain":0.0,"pressure":997.7,"uv_index":8.5,"wind_gusts":26.6,"aqi":150,"pm10":155.5,"pm2_5":42.1,"mosquito_risk":0,"arthritis_risk":5,"migraine_risk":7,"frizz_risk":0,"updated_at":"2026-04-12T16:11:38.013061+05:30"},{"city":"Ranchi","state":"Jharkhand","latitude":23.3441,"longitude":85.3096,"temp":33.4,"humidity":19,"rain":0.0,"pressure":936.1,"uv_index":9.1,"wind_gusts":30.6,"aqi":130,"pm10":24.7,"pm2_5":8.8,"mosquito_risk":0,"arthritis_risk":5,"migraine_risk":7,"frizz_risk":0,"updated_at":"2026-04-12T16:11:38.013068+05:30"},{"city":"Jamshedpur","state":"Jharkhand","latitude":22.8046,"longitude":86.2029,"temp":35.5,"humidity":26,"rain":0.0,"pressure":987.9,"uv_index":8.9,"wind_gusts":18.4,"aqi":158,"pm10":49.7,"pm2_5":14.6,"mosquito_risk":0,"arthritis_risk":5,"migraine_risk":10,"frizz_risk":0,"updated_at":"2026-04-12T16:11:38.013076+05:30"},{"city":"Dhanbad","state":"Jharkhand","latitude":23.7957,"longitude":86.4304,"temp":37.0,"humidity":16,"rain":0.0,"pressure":976.6,"uv_index":8.85,"wind_gusts":29.5,"aqi":131,"pm10":51.0,"pm2_5":16.5,"mosquito_risk":0,"arthritis_risk":5,"migraine_risk":10,"frizz_risk":0,"updated_at":"2026-04-12T16:11:38.013083+05:30"},{"city":"Bokaro","state":"Jharkhand","latitude":23.6693,"longitude":86.1511,"temp":36.4,"humidity":16,"rain":0.0,"pressure":980.6,"uv_index":8.85,"wind_gusts":30.2,"aqi":127,"pm10":35.9,"pm2_5":13.7,"mosquito_risk":0,"arthritis_risk":5,"migraine_risk":10,"frizz_risk":0,"updated_at":"2026-04-12T16:11:38.013090+05:30"},{"city":"Bhubaneswar","state":"Odisha","latitude":20.2961,"longitude":85.8245,"temp":33.5,"humidity":56,"rain":0.0,"pressure":1000.2,"uv_index":9.05,"wind_gusts":32.8,"aqi":113,"pm10":50.8,"pm2_5":25.4,"mosquito_risk":0,"arthritis_risk":5,"migraine_risk":4,"frizz_risk":1,"updated_at":"2026-04-12T16:11:38.013097+05:30"},{"city":"Cuttack","state":"Odisha","latitude":20.4625,"longitude":85.8828,"temp":37.3,"humidity":32,"rain":0.0,"pressure":1001.1,"uv_index":9.1,"wind_gusts":34.6,"aqi":113,"pm10":50.8,"pm2_5":25.4,"mosquito_risk":0,"arthritis_risk":5,"migraine_risk":7,"frizz_risk":1,"updated_at":"2026-04-12T16:11:38.013104+05:30"},{"city":"Rourkela","state":"Odisha","latitude":22.2604,"longitude":84.8536,"temp":37.3,"humidity":18,"rain":0.0,"pressure":982.1,"uv_index":8.85,"wind_gusts":17.6,"aqi":170,"pm10":49.4,"pm2_5":18.1,"mosquito_risk":0,"arthritis_risk":5,"migraine_risk":10,"frizz_risk":0,"updated_at":"2026-04-12T16:11:38.013110+05:30"},{"city":"Raipur","state":"Chhattisgarh","latitude":21.2514,"longitude":81.6296,"temp":39.4,"humidity":14,"rain":0.0,"pressure":971.3,"uv_index":8.9,"wind_gusts":19.8,"aqi":150,"pm10":27.3,"pm2_5":18.7,"mosquito_risk":0,"arthritis_risk":5,"migraine_risk":10,"frizz_risk":0,"updated_at":"2026-04-12T16:11:38.013116+05:30"},{"city":"Bhilai","state":"Chhattisgarh","latitude":21.1938,"longitude":81.3509,"temp":39.3,"humidity":15,"rain":0.0,"pressure":971.6,"uv_index":8.9,"wind_gusts":15.8,"aqi":130,"pm10":24.0,"pm2_5":15.8,"mosquito_risk":0,"arthritis_risk":5,"migraine_risk":10,"frizz_risk":0,"updated_at":"2026-04-12T16:11:38.013123+05:30"},{"city":"Guwahati","state":"Assam","latitude":26.1158,"longitude":91.7086,"temp":28.6,"humidity":61,"rain":0.0,"pressure":998.3,"uv_index":8.4,"wind_gusts":30.2,"aqi":149,"pm10":80.8,"pm2_5":42.6,"mosquito_risk":7,"arthritis_risk":5,"migraine_risk":7,"frizz_risk":1,"updated_at":"2026-04-12T16:11:38.013129+05:30"},{"city":"Agartala","state":"Tripura","latitude":23.8315,"longitude":91.2868,"temp":31.7,"humidity":52,"rain":0.0,"pressure":1002.6,"uv_index":8.6,"wind_gusts":29.5,"aqi":103,"pm10":66.1,"pm2_5":36.1,"mosquito_risk":0,"arthritis_risk":5,"migraine_risk":4,"frizz_risk":1,"updated_at":"2026-04-12T16:11:38.013135+05:30"},{"city":"Shillong","state":"Meghalaya","latitude":25.5788,"longitude":91.8933,"temp":17.4,"humidity":65,"rain":0.0,"pressure":853.9,"uv_index":7.05,"wind_gusts":64.4,"aqi":142,"pm10":72.9,"pm2_5":38.9,"mosquito_risk":3,"arthritis_risk":5,"migraine_risk":7,"frizz_risk":0,"updated_at":"2026-04-12T16:11:38.013142+05:30"},{"city":"Imphal","state":"Manipur","latitude":24.817,"longitude":93.9368,"temp":22.2,"humidity":58,"rain":0.0,"pressure":921.1,"uv_index":9.0,"wind_gusts":62.6,"aqi":129,"pm10":73.8,"pm2_5":28.0,"mosquito_risk":0,"arthritis_risk":5,"migraine_risk":7,"frizz_risk":0,"updated_at":"2026-04-12T16:11:38.013149+05:30"},{"city":"Aizawl","state":"Mizoram","latitude":23.7271,"longitude":92.7176,"temp":24.9,"humidity":48,"rain":0.0,"pressure":891.6,"uv_index":8.85,"wind_gusts":44.3,"aqi":131,"pm10":73.8,"pm2_5":29.3,"mosquito_risk":0,"arthritis_risk":5,"migraine_risk":7,"frizz_risk":0,"updated_at":"2026-04-12T16:11:38.013155+05:30"},{"city":"Kohima","state":"Nagaland","latitude":25.6701,"longitude":94.1077,"temp":17.3,"humidity":75,"rain":0.0,"pressure":852.8,"uv_index":8.9,"wind_gusts":88.9,"aqi":125,"pm10":74.7,"pm2_5":31.7,"mosquito_risk":3,"arthritis_risk":5,"migraine_risk":7,"frizz_risk":0,"updated_at":"2026-04-12T16:11:38.013161+05:30"},{"city":"Gangtok","state":"Sikkim","latitude":27.3314,"longitude":88.6138,"temp":15.7,"humidity":79,"rain":0.0,"pressure":834.9,"uv_index":8.05,"wind_gusts":16.6,"aqi":153,"pm10":84.8,"pm2_5":28.6,"mosquito_risk":3,"arthritis_risk":5,"migraine_risk":7,"frizz_risk":0,"updated_at":"2026-04-12T16:11:38.013168+05:30"},{"city":"Siliguri","state":"West Bengal","latitude":26.7271,"longitude":88.3953,"temp":24.6,"humidity":57,"rain":0.0,"pressure":991.2,"uv_index":7.3,"wind_gusts":18.7,"aqi":159,"pm10":109.4,"pm2_5":34.7,"mosquito_risk":0,"arthritis_risk":5,"migraine_risk":7,"frizz_risk":0,"updated_at":"2026-04-12T16:11:41.271423+05:30"},{"city":"Durgapur","state":"West Bengal","latitude":23.5204,"longitude":87.3119,"temp":35.3,"humidity":27,"rain":0.0,"pressure":991.8,"uv_index":8.8,"wind_gusts":21.2,"aqi":147,"pm10":89.4,"pm2_5":24.4,"mosquito_risk":0,"arthritis_risk":5,"migraine_risk":10,"frizz_risk":0,"updated_at":"2026-04-12T16:11:41.271457+05:30"},{"city":"Asansol","state":"West Bengal","latitude":23.6739,"longitude":86.9524,"temp":36.0,"humidity":23,"rain":0.0,"pressure":990.1,"uv_index":8.85,"wind_gusts":23.4,"aqi":126,"pm10":68.9,"pm2_5":20.3,"mosquito_risk":0,"arthritis_risk":5,"migraine_risk":10,"frizz_risk":0,"updated_at":"2026-04-12T16:11:41.271469+05:30"},{"city":"Pondicherry","state":"Puducherry","latitude":11.9139,"longitude":79.8145,"temp":34.9,"humidity":46,"rain":0.0,"pressure":1005.9,"uv_index":9.35,"wind_gusts":29.5,"aqi":48,"pm10":10.9,"pm2_5":5.9,"mosquito_risk":0,"arthritis_risk":5,"migraine_risk":4,"frizz_risk":1,"updated_at":"2026-04-12T16:11:41.271478+05:30"},{"city":"Port Blair","state":"Andaman and Nicobar Islands","latitude":11.6234,"longitude":92.7265,"temp":29.4,"humidity":76,"rain":0.0,"pressure":1005.4,"uv_index":9.25,"wind_gusts":15.8,"aqi":50,"pm10":32.0,"pm2_5":15.9,"mosquito_risk":7,"arthritis_risk":5,"migraine_risk":4,"frizz_risk":1,"updated_at":"2026-04-12T16:11:41.271488+05:30"},{"city":"Haridwar","state":"Uttarakhand","latitude":29.9457,"longitude":78.1642,"temp":30.9,"humidity":31,"rain":0.0,"pressure":972.8,"uv_index":7.0,"wind_gusts":33.8,"aqi":100,"pm10":35.9,"pm2_5":15.0,"mosquito_risk":0,"arthritis_risk":5,"migraine_risk":7,"frizz_risk":0,"updated_at":"2026-04-12T16:11:41.271497+05:30"},{"city":"Rishikesh","state":"Uttarakhand","latitude":30.0869,"longitude":78.2676,"temp":30.1,"humidity":31,"rain":0.0,"pressure":965.6,"uv_index":7.1,"wind_gusts":34.2,"aqi":97,"pm10":29.3,"pm2_5":11.0,"mosquito_risk":0,"arthritis_risk":5,"migraine_risk":7,"frizz_risk":0,"updated_at":"2026-04-12T16:11:41.271505+05:30"},{"city":"Nainital","state":"Uttarakhand","latitude":29.3919,"longitude":79.4542,"temp":23.1,"humidity":33,"rain":0.0,"pressure":806.4,"uv_index":7.95,"wind_gusts":52.2,"aqi":108,"pm10":46.7,"pm2_5":14.6,"mosquito_risk":0,"arthritis_risk":5,"migraine_risk":7,"frizz_risk":0,"updated_at":"2026-04-12T16:11:41.271514+05:30"},{"city":"Mussoorie","state":"Uttarakhand","latitude":30.4599,"longitude":78.0664,"temp":20.2,"humidity":46,"rain":0.0,"pressure":802.7,"uv_index":7.4,"wind_gusts":37.8,"aqi":97,"pm10":31.0,"pm2_5":13.9,"mosquito_risk":0,"arthritis_risk":5,"migraine_risk":7,"frizz_risk":0,"updated_at":"2026-04-12T16:11:41.271523+05:30"},{"city":"Dharamshala","state":"Himachal Pradesh","latitude":32.219,"longitude":76.3234,"temp":22.5,"humidity":54,"rain":0.0,"pressure":869.0,"uv_index":7.7,"wind_gusts":23.4,"aqi":108,"pm10":32.4,"pm2_5":8.6,"mosquito_risk":0,"arthritis_risk":5,"migraine_risk":7,"frizz_risk":0,"updated_at":"2026-04-12T16:11:41.271531+05:30"},{"city":"Dalhousie","state":"Himachal Pradesh","latitude":32.5387,"longitude":75.971,"temp":20.7,"humidity":44,"rain":0.0,"pressure":804.3,"uv_index":7.95,"wind_gusts":20.5,"aqi":95,"pm10":44.4,"pm2_5":12.6,"mosquito_risk":0,"arthritis_risk":5,"migraine_risk":7,"frizz_risk":0,"updated_at":"2026-04-12T16:11:41.271540+05:30"},{"city":"Patiala","state":"Punjab","latitude":30.3398,"longitude":76.3869,"temp":31.3,"humidity":28,"rain":0.0,"pressure":977.6,"uv_index":7.0,"wind_gusts":32.0,"aqi":212,"pm10":780.4,"pm2_5":71.5,"mosquito_risk":0,"arthritis_risk":5,"migraine_risk":7,"frizz_risk":0,"updated_at":"2026-04-12T16:11:41.271548+05:30"},{"city":"Bhatinda","state":"Punjab","latitude":30.211,"longitude":74.9455,"temp":32.8,"humidity":22,"rain":0.0,"pressure":983.4,"uv_index":7.75,"wind_gusts":32.0,"aqi":104,"pm10":55.5,"pm2_5":14.8,"mosquito_risk":0,"arthritis_risk":5,"migraine_risk":7,"frizz_risk":0,"updated_at":"2026-04-12T16:11:41.271557+05:30"},{"city":"Rohtak","state":"Haryana","latitude":28.8955,"longitude":76.6066,"temp":33.4,"humidity":20,"rain":0.0,"pressure":980.9,"uv_index":7.25,"wind_gusts":36.0,"aqi":548,"pm10":1013.3,"pm2_5":94.8,"mosquito_risk":0,"arthritis_risk":5,"migraine_risk":7,"frizz_risk":0,"updated_at":"2026-04-12T16:11:41.271565+05:30"},{"city":"Panipat","state":"Haryana","latitude":29.3909,"longitude":76.9635,"temp":32.2,"humidity":25,"rain":0.0,"pressure":979.5,"uv_index":7.05,"wind_gusts":33.8,"aqi":944,"pm10":1687.6,"pm2_5":147.1,"mosquito_risk":0,"arthritis_risk":5,"migraine_risk":7,"frizz_risk":0,"updated_at":"2026-04-12T16:11:41.271573+05:30"},{"city":"Mathura","state":"Uttar Pradesh","latitude":27.4924,"longitude":77.6737,"temp":34.5,"humidity":20,"rain":0.0,"pressure":985.5,"uv_index":7.55,"wind_gusts":28.8,"aqi":560,"pm10":1195.8,"pm2_5":106.2,"mosquito_risk":0,"arthritis_risk":5,"migraine_risk":7,"frizz_risk":0,"updated_at":"2026-04-12T16:11:41.271581+05:30"},{"city":"Vrindavan","state":"Uttar Pradesh","latitude":27.5823,"longitude":77.7027,"temp":34.1,"humidity":20,"rain":0.0,"pressure":985.9,"uv_index":7.5,"wind_gusts":32.0,"aqi":560,"pm10":1195.8,"pm2_5":106.2,"mosquito_risk":0,"arthritis_risk":5,"migraine_risk":7,"frizz_risk":0,"updated_at":"2026-04-12T16:11:41.271588+05:30"},{"city":"Ayodhya","state":"Uttar Pradesh","latitude":26.7922,"longitude":82.1998,"temp":36.8,"humidity":17,"rain":0.0,"pressure":991.7,"uv_index":7.9,"wind_gusts":36.0,"aqi":117,"pm10":117.3,"pm2_5":27.3,"mosquito_risk":0,"arthritis_risk":5,"migraine_risk":10,"frizz_risk":0,"updated_at":"2026-04-12T16:11:41.271596+05:30"},{"city":"Ratlam","state":"Madhya Pradesh","latitude":23.3315,"longitude":75.0367,"temp":34.5,"humidity":28,"rain":0.0,"pressure":953.2,"uv_index":8.35,"wind_gusts":26.6,"aqi":71,"pm10":37.0,"pm2_5":12.9,"mosquito_risk":0,"arthritis_risk":5,"migraine_risk":7,"frizz_risk":0,"updated_at":"2026-04-12T16:11:41.271605+05:30"},{"city":"Sagar","state":"Madhya Pradesh","latitude":23.8388,"longitude":78.7378,"temp":37.5,"humidity":19,"rain":0.0,"pressure":947.9,"uv_index":8.5,"wind_gusts":33.1,"aqi":100,"pm10":24.3,"pm2_5":10.2,"mosquito_risk":0,"arthritis_risk":5,"migraine_risk":10,"frizz_risk":0,"updated_at":"2026-04-12T16:11:41.271613+05:30"},{"city":"Satna","state":"Madhya Pradesh","latitude":24.6005,"longitude":80.8322,"temp":37.9,"humidity":17,"rain":0.0,"pressure":967.9,"uv_index":8.5,"wind_gusts":37.1,"aqi":123,"pm10":21.9,"pm2_5":10.4,"mosquito_risk":0,"arthritis_risk":5,"migraine_risk":10,"frizz_risk":0,"updated_at":"2026-04-12T16:11:41.271622+05:30"},{"city":"Akola","state":"Maharashtra","latitude":20.7002,"longitude":77.0082,"temp":40.7,"humidity":13,"rain":0.0,"pressure":971.5,"uv_index":8.8,"wind_gusts":27.4,"aqi":148,"pm10":34.5,"pm2_5":22.1,"mosquito_risk":0,"arthritis_risk":5,"migraine_risk":10,"frizz_risk":0,"updated_at":"2026-04-12T16:11:41.271631+05:30"},{"city":"Amravati","state":"Maharashtra","latitude":20.9374,"longitude":77.7796,"temp":39.2,"humidity":15,"rain":0.0,"pressure":964.2,"uv_index":8.8,"wind_gusts":20.5,"aqi":144,"pm10":33.2,"pm2_5":21.5,"mosquito_risk":0,"arthritis_risk":5,"migraine_risk":10,"frizz_risk":0,"updated_at":"2026-04-12T16:11:41.271640+05:30"},{"city":"Latur","state":"Maharashtra","latitude":18.4088,"longitude":76.5604,"temp":37.3,"humidity":21,"rain":0.0,"pressure":937.6,"uv_index":9.05,"wind_gusts":24.5,"aqi":115,"pm10":34.9,"pm2_5":20.5,"mosquito_risk":0,"arthritis_risk":5,"migraine_risk":10,"frizz_risk":0,"updated_at":"2026-04-12T16:11:41.271669+05:30"},{"city":"Nanded","state":"Maharashtra","latitude":19.1383,"longitude":77.3091,"temp":38.6,"humidity":24,"rain":0.0,"pressure":965.6,"uv_index":8.95,"wind_gusts":14.8,"aqi":158,"pm10":38.8,"pm2_5":24.9,"mosquito_risk":0,"arthritis_risk":5,"migraine_risk":10,"frizz_risk":0,"updated_at":"2026-04-12T16:11:41.271680+05:30"},{"city":"Gulbarga","state":"Karnataka","latitude":17.3297,"longitude":76.8343,"temp":39.9,"humidity":21,"rain":0.0,"pressure":955.3,"uv_index":9.1,"wind_gusts":28.4,"aqi":115,"pm10":38.0,"pm2_5":26.7,"mosquito_risk":0,"arthritis_risk":5,"migraine_risk":10,"frizz_risk":0,"updated_at":"2026-04-12T16:11:41.271689+05:30"},{"city":"Bidar","state":"Karnataka","latitude":17.9104,"longitude":77.5199,"temp":38.6,"humidity":22,"rain":0.0,"pressure":933.2,"uv_index":9.1,"wind_gusts":26.6,"aqi":126,"pm10":33.1,"pm2_5":20.7,"mosquito_risk":0,"arthritis_risk":5,"migraine_risk":10,"frizz_risk":0,"updated_at":"2026-04-12T16:11:41.271697+05:30"},{"city":"Hospet","state":"Karnataka","latitude":15.2689,"longitude":76.3909,"temp":36.5,"humidity":35,"rain":0.0,"pressure":953.0,"uv_index":9.3,"wind_gusts":26.6,"aqi":116,"pm10":41.6,"pm2_5":30.9,"mosquito_risk":0,"arthritis_risk":5,"migraine_risk":10,"frizz_risk":1,"updated_at":"2026-04-12T16:11:41.271704+05:30"},{"city":"Tirupur","state":"Tamil Nadu","latitude":11.1085,"longitude":77.3411,"temp":38.0,"humidity":28,"rain":0.0,"pressure":972.1,"uv_index":9.5,"wind_gusts":29.2,"aqi":93,"pm10":27.8,"pm2_5":18.8,"mosquito_risk":0,"arthritis_risk":5,"migraine_risk":10,"frizz_risk":1,"updated_at":"2026-04-12T16:11:41.271710+05:30"},{"city":"Alappuzha","state":"Kerala","latitude":9.4981,"longitude":76.3388,"temp":29.8,"humidity":81,"rain":0.0,"pressure":1005.6,"uv_index":9.2,"wind_gusts":24.5,"aqi":97,"pm10":49.8,"pm2_5":28.3,"mosquito_risk":7,"arthritis_risk":5,"migraine_risk":4,"frizz_risk":1,"updated_at":"2026-04-12T16:11:41.271717+05:30"},{"city":"Munnar","state":"Kerala","latitude":10.0889,"longitude":77.0595,"temp":29.4,"humidity":50,"rain":0.0,"pressure":857.2,"uv_index":9.75,"wind_gusts":30.6,"aqi":93,"pm10":24.6,"pm2_5":16.8,"mosquito_risk":4,"arthritis_risk":5,"migraine_risk":7,"frizz_risk":1,"updated_at":"2026-04-12T16:11:41.271724+05:30"},{"city":"Silchar","state":"Assam","latitude":24.8333,"longitude":92.7789,"temp":29.1,"humidity":66,"rain":0.0,"pressure":1002.1,"uv_index":8.65,"wind_gusts":38.2,"aqi":140,"pm10":71.2,"pm2_5":45.1,"mosquito_risk":7,"arthritis_risk":5,"migraine_risk":4,"frizz_risk":1,"updated_at":"2026-04-12T16:11:41.271731+05:30"},{"city":"Dibrugarh","state":"Assam","latitude":27.4728,"longitude":94.912,"temp":23.1,"humidity":78,"rain":0.0,"pressure":995.0,"uv_index":8.2,"wind_gusts":32.0,"aqi":110,"pm10":55.5,"pm2_5":38.4,"mosquito_risk":3,"arthritis_risk":5,"migraine_risk":7,"frizz_risk":1,"updated_at":"2026-04-12T16:11:41.271737+05:30"}]