[{"city":"Delhi","state":"Delhi","latitude":28.6139,"longitude":77.209,"temp":28.9,"humidity":85,"rain":0.0,"pressure":972.4,"uv_index":5.8,"wind_gusts":40.0,"aqi":116,"pm10":73.8,"pm2_5":31.0,"no2":13.3,"co":522.0,"o3":148.0,"so2":19.3,"mosquito_risk":7,"arthritis_risk":5,"migraine_risk":3,"frizz_risk":1,"updated_at":"2026-07-23T17:21:31.443563+05:30"},{"city":"Mumbai","state":"Maharashtra","latitude":19.076,"longitude":72.8777,"temp":27.9,"humidity":81,"rain":0.1,"pressure":1001.5,"uv_index":1.4,"wind_gusts":69.8,"aqi":53,"pm10":28.5,"pm2_5":13.6,"no2":6.9,"co":208.0,"o3":41.0,"so2":3.5,"mosquito_risk":10,"arthritis_risk":5,"migraine_risk":0,"frizz_risk":1,"updated_at":"2026-07-23T17:21:31.443613+05:30"},{"city":"Bangalore","state":"Karnataka","latitude":12.9716,"longitude":77.5946,"temp":28.4,"humidity":48,"rain":0.0,"pressure":910.0,"uv_index":9.1,"wind_gusts":49.0,"aqi":35,"pm10":14.3,"pm2_5":7.2,"no2":5.6,"co":344.0,"o3":68.0,"so2":2.1,"mosquito_risk":4,"arthritis_risk":5,"migraine_risk":7,"frizz_risk":1,"updated_at":"2026-07-23T17:21:31.443628+05:30"},{"city":"Hyderabad","state":"Telangana","latitude":17.385,"longitude":78.4867,"temp":28.8,"humidity":57,"rain":0.0,"pressure":948.3,"uv_index":8.7,"wind_gusts":57.6,"aqi":45,"pm10":35.5,"pm2_5":17.2,"no2":4.4,"co":311.0,"o3":70.0,"so2":2.8,"mosquito_risk":4,"arthritis_risk":5,"migraine_risk":7,"frizz_risk":1,"updated_at":"2026-07-23T17:21:31.443637+05:30"},{"city":"Chennai","state":"Tamil Nadu","latitude":13.0827,"longitude":80.2707,"temp":30.3,"humidity":74,"rain":0.0,"pressure":1003.2,"uv_index":8.9,"wind_gusts":37.4,"aqi":77,"pm10":28.7,"pm2_5":19.5,"no2":5.6,"co":212.0,"o3":113.0,"so2":6.7,"mosquito_risk":3,"arthritis_risk":5,"migraine_risk":4,"frizz_risk":1,"updated_at":"2026-07-23T17:21:31.443645+05:30"},{"city":"Kolkata","state":"West Bengal","latitude":22.5726,"longitude":88.3639,"temp":27.9,"humidity":89,"rain":0.1,"pressure":999.2,"uv_index":4.5,"wind_gusts":40.3,"aqi":65,"pm10":15.1,"pm2_5":12.5,"no2":6.9,"co":501.0,"o3":77.0,"so2":6.8,"mosquito_risk":10,"arthritis_risk":5,"migraine_risk":3,"frizz_risk":1,"updated_at":"2026-07-23T17:21:31.443653+05:30"},{"city":"Pune","state":"Maharashtra","latitude":18.5204,"longitude":73.8567,"temp":23.8,"humidity":89,"rain":0.1,"pressure":941.4,"uv_index":1.9,"wind_gusts":60.5,"aqi":41,"pm10":2.8,"pm2_5":1.9,"no2":5.4,"co":165.0,"o3":37.0,"so2":2.2,"mosquito_risk":6,"arthritis_risk":5,"migraine_risk":3,"frizz_risk":1,"updated_at":"2026-07-23T17:21:31.443659+05:30"},{"city":"Ahmedabad","state":"Gujarat","latitude":23.0225,"longitude":72.5714,"temp":28.5,"humidity":89,"rain":0.1,"pressure":989.3,"uv_index":2.3,"wind_gusts":42.8,"aqi":60,"pm10":31.7,"pm2_5":16.7,"no2":9.4,"co":229.0,"o3":50.0,"so2":3.7,"mosquito_risk":10,"arthritis_risk":5,"migraine_risk":3,"frizz_risk":1,"updated_at":"2026-07-23T17:21:31.443666+05:30"},{"city":"Jaipur","state":"Rajasthan","latitude":26.9124,"longitude":75.7873,"temp":27.0,"humidity":93,"rain":0.3,"pressure":949.0,"uv_index":7.6,"wind_gusts":32.4,"aqi":80,"pm10":26.7,"pm2_5":17.2,"no2":4.4,"co":355.0,"o3":134.0,"so2":4.9,"mosquito_risk":10,"arthritis_risk":5,"migraine_risk":7,"frizz_risk":1,"updated_at":"2026-07-23T17:21:31.443673+05:30"},{"city":"Lucknow","state":"Uttar Pradesh","latitude":26.8467,"longitude":80.9462,"temp":30.0,"humidity":78,"rain":0.1,"pressure":983.1,"uv_index":6.35,"wind_gusts":43.9,"aqi":71,"pm10":18.5,"pm2_5":18.4,"no2":6.4,"co":254.0,"o3":114.0,"so2":6.9,"mosquito_risk":10,"arthritis_risk":5,"migraine_risk":7,"frizz_risk":1,"updated_at":"2026-07-23T17:21:31.443685+05:30"},{"city":"Kanpur","state":"Uttar Pradesh","latitude":26.4499,"longitude":80.3319,"temp":30.6,"humidity":73,"rain":0.1,"pressure":980.9,"uv_index":5.5,"wind_gusts":45.7,"aqi":69,"pm10":17.9,"pm2_5":17.8,"no2":4.9,"co":208.0,"o3":123.0,"so2":8.4,"mosquito_risk":6,"arthritis_risk":5,"migraine_risk":3,"frizz_risk":1,"updated_at":"2026-07-23T17:21:31.443691+05:30"},{"city":"Chandigarh","state":"Chandigarh","latitude":30.7333,"longitude":76.7794,"temp":31.7,"humidity":65,"rain":0.0,"pressure":959.9,"uv_index":6.75,"wind_gusts":37.4,"aqi":83,"pm10":15.7,"pm2_5":14.7,"no2":1.9,"co":310.0,"o3":150.0,"so2":7.5,"mosquito_risk":3,"arthritis_risk":5,"migraine_risk":7,"frizz_risk":1,"updated_at":"2026-07-23T17:21:31.443698+05:30"},{"city":"Srinagar","state":"Jammu and Kashmir","latitude":34.0837,"longitude":74.7973,"temp":22.5,"humidity":72,"rain":0.0,"pressure":838.1,"uv_index":8.85,"wind_gusts":31.0,"aqi":70,"pm10":7.0,"pm2_5":7.0,"no2":4.8,"co":361.0,"o3":83.0,"so2":1.9,"mosquito_risk":3,"arthritis_risk":5,"migraine_risk":7,"frizz_risk":1,"updated_at":"2026-07-23T17:21:31.443705+05:30"},{"city":"Jammu","state":"Jammu and Kashmir","latitude":32.7266,"longitude":74.857,"temp":29.7,"humidity":69,"rain":0.0,"pressure":964.1,"uv_index":7.15,"wind_gusts":38.5,"aqi":76,"pm10":10.7,"pm2_5":10.4,"no2":2.3,"co":175.0,"o3":108.0,"so2":1.9,"mosquito_risk":7,"arthritis_risk":5,"migraine_risk":7,"frizz_risk":1,"updated_at":"2026-07-23T17:21:31.443710+05:30"},{"city":"Amritsar","state":"Punjab","latitude":31.634,"longitude":74.8723,"temp":28.5,"humidity":83,"rain":0.0,"pressure":971.7,"uv_index":1.95,"wind_gusts":28.1,"aqi":88,"pm10":22.7,"pm2_5":22.4,"no2":3.7,"co":323.0,"o3":108.0,"so2":7.2,"mosquito_risk":7,"arthritis_risk":5,"migraine_risk":3,"frizz_risk":1,"updated_at":"2026-07-23T17:21:31.443717+05:30"},{"city":"Ludhiana","state":"Punjab","latitude":30.901,"longitude":75.8573,"temp":32.0,"humidity":67,"rain":0.0,"pressure":969.0,"uv_index":6.85,"wind_gusts":36.0,"aqi":133,"pm10":20.3,"pm2_5":19.2,"no2":3.7,"co":326.0,"o3":139.0,"so2":9.0,"mosquito_risk":3,"arthritis_risk":5,"migraine_risk":7,"frizz_risk":1,"updated_at":"2026-07-23T17:21:31.443723+05:30"},{"city":"Jalandhar","state":"Punjab","latitude":31.326,"longitude":75.5762,"temp":31.4,"humidity":70,"rain":0.0,"pressure":970.2,"uv_index":7.3,"wind_gusts":32.0,"aqi":114,"pm10":20.8,"pm2_5":20.7,"no2":3.7,"co":306.0,"o3":130.0,"so2":8.9,"mosquito_risk":3,"arthritis_risk":5,"migraine_risk":7,"frizz_risk":1,"updated_at":"2026-07-23T17:21:31.443729+05:30"},{"city":"Dehradun","state":"Uttarakhand","latitude":30.6284,"longitude":78.0322,"temp":22.2,"humidity":81,"rain":0.1,"pressure":826.4,"uv_index":7.35,"wind_gusts":25.6,"aqi":45,"pm10":4.6,"pm2_5":4.5,"no2":4.0,"co":170.0,"o3":86.0,"so2":1.2,"mosquito_risk":6,"arthritis_risk":5,"migraine_risk":7,"frizz_risk":1,"updated_at":"2026-07-23T17:21:31.443734+05:30"},{"city":"Shimla","state":"Himachal Pradesh","latitude":31.1048,"longitude":77.1734,"temp":19.3,"humidity":84,"rain":0.0,"pressure":781.3,"uv_index":6.15,"wind_gusts":24.1,"aqi":51,"pm10":8.8,"pm2_5":8.7,"no2":3.4,"co":179.0,"o3":100.0,"so2":3.0,"mosquito_risk":3,"arthritis_risk":10,"migraine_risk":7,"frizz_risk":1,"updated_at":"2026-07-23T17:21:31.443740+05:30"},{"city":"Manali","state":"Himachal Pradesh","latitude":32.2396,"longitude":77.1887,"temp":24.4,"humidity":71,"rain":0.0,"pressure":815.9,"uv_index":6.4,"wind_gusts":25.2,"aqi":35,"pm10":1.7,"pm2_5":1.5,"no2":0.0,"co":157.0,"o3":80.0,"so2":0.6,"mosquito_risk":3,"arthritis_risk":5,"migraine_risk":7,"frizz_risk":1,"updated_at":"2026-07-23T17:21:31.443750+05:30"},{"city":"Gurgaon","state":"Haryana","latitude":28.4595,"longitude":77.0266,"temp":29.1,"humidity":80,"rain":0.1,"pressure":970.6,"uv_index":6.15,"wind_gusts":41.4,"aqi":105,"pm10":195.6,"pm2_5":42.1,"no2":11.0,"co":426.0,"o3":151.0,"so2":16.3,"mosquito_risk":10,"arthritis_risk":5,"migraine_risk":7,"frizz_risk":1,"updated_at":"2026-07-23T17:21:31.443755+05:30"},{"city":"Noida","state":"Uttar Pradesh","latitude":28.5355,"longitude":77.391,"temp":31.2,"humidity":74,"rain":0.0,"pressure":973.4,"uv_index":6.85,"wind_gusts":38.5,"aqi":105,"pm10":195.6,"pm2_5":42.1,"no2":11.0,"co":385.0,"o3":151.0,"so2":16.3,"mosquito_risk":3,"arthritis_risk":5,"migraine_risk":7,"frizz_risk":1,"updated_at":"2026-07-23T17:21:31.443761+05:30"},{"city":"Ghaziabad","state":"Uttar Pradesh","latitude":28.6692,"longitude":77.4538,"temp":31.5,"humidity":72,"rain":0.1,"pressure":971.9,"uv_index":6.95,"wind_gusts":39.6,"aqi":96,"pm10":31.0,"pm2_5":18.8,"no2":5.7,"co":273.0,"o3":132.0,"so2":8.9,"mosquito_risk":6,"arthritis_risk":5,"migraine_risk":7,"frizz_risk":1,"updated_at":"2026-07-23T17:21:31.443768+05:30"},{"city":"Faridabad","state":"Haryana","latitude":28.4089,"longitude":77.3178,"temp":31.3,"humidity":73,"rain":0.0,"pressure":972.7,"uv_index":6.8,"wind_gusts":42.5,"aqi":105,"pm10":195.6,"pm2_5":42.1,"no2":11.0,"co":376.0,"o3":151.0,"so2":16.3,"mosquito_risk":3,"arthritis_risk":5,"migraine_risk":7,"frizz_risk":1,"updated_at":"2026-07-23T17:21:31.443774+05:30"},{"city":"Meerut","state":"Uttar Pradesh","latitude":28.9845,"longitude":77.7064,"temp":32.0,"humidity":65,"rain":0.0,"pressure":971.1,"uv_index":7.35,"wind_gusts":44.6,"aqi":96,"pm10":31.0,"pm2_5":18.8,"no2":5.7,"co":255.0,"o3":132.0,"so2":8.9,"mosquito_risk":3,"arthritis_risk":5,"migraine_risk":7,"frizz_risk":1,"updated_at":"2026-07-23T17:21:31.443780+05:30"},{"city":"Agra","state":"Uttar Pradesh","latitude":27.1767,"longitude":78.0081,"temp":30.9,"humidity":73,"rain":0.0,"pressure":976.5,"uv_index":5.75,"wind_gusts":42.5,"aqi":77,"pm10":25.5,"pm2_5":25.5,"no2":3.9,"co":266.0,"o3":134.0,"so2":7.6,"mosquito_risk":3,"arthritis_risk":5,"migraine_risk":3,"frizz_risk":1,"updated_at":"2026-07-23T17:21:31.443786+05:30"},{"city":"Varanasi","state":"Uttar Pradesh","latitude":25.3176,"longitude":82.9739,"temp":29.7,"humidity":80,"rain":0.1,"pressure":987.9,"uv_index":7.35,"wind_gusts":37.1,"aqi":70,"pm10":14.7,"pm2_5":14.6,"no2":13.3,"co":401.0,"o3":80.0,"so2":15.2,"mosquito_risk":10,"arthritis_risk":5,"migraine_risk":7,"frizz_risk":1,"updated_at":"2026-07-23T17:21:31.443792+05:30"},{"city":"Prayagraj","state":"Uttar Pradesh","latitude":25.4358,"longitude":81.8463,"temp":30.2,"humidity":77,"rain":0.0,"pressure":986.1,"uv_index":7.35,"wind_gusts":33.1,"aqi":68,"pm10":15.7,"pm2_5":15.7,"no2":6.5,"co":232.0,"o3":105.0,"so2":9.1,"mosquito_risk":3,"arthritis_risk":5,"migraine_risk":7,"frizz_risk":1,"updated_at":"2026-07-23T17:21:31.443798+05:30"},{"city":"Gorakhpur","state":"Uttar Pradesh","latitude":26.7606,"longitude":83.3732,"temp":29.1,"humidity":86,"rain":0.0,"pressure":988.6,"uv_index":6.6,"wind_gusts":47.2,"aqi":67,"pm10":20.5,"pm2_5":20.4,"no2":5.3,"co":296.0,"o3":121.0,"so2":8.6,"mosquito_risk":7,"arthritis_risk":5,"migraine_risk":7,"frizz_risk":1,"updated_at":"2026-07-23T17:21:31.443803+05:30"},{"city":"Bareilly","state":"Uttar Pradesh","latitude":28.367,"longitude":79.4304,"temp":31.1,"humidity":73,"rain":0.0,"pressure":976.6,"uv_index":5.45,"wind_gusts":46.1,"aqi":76,"pm10":15.4,"pm2_5":15.3,"no2":5.3,"co":216.0,"o3":108.0,"so2":4.5,"mosquito_risk":3,"arthritis_risk":5,"migraine_risk":3,"frizz_risk":1,"updated_at":"2026-07-23T17:21:31.443814+05:30"},{"city":"Aligarh","state":"Uttar Pradesh","latitude":27.8974,"longitude":78.088,"temp":31.2,"humidity":72,"rain":0.0,"pressure":974.4,"uv_index":6.55,"wind_gusts":43.9,"aqi":77,"pm10":23.3,"pm2_5":17.5,"no2":4.2,"co":272.0,"o3":139.0,"so2":8.6,"mosquito_risk":3,"arthritis_risk":5,"migraine_risk":7,"frizz_risk":1,"updated_at":"2026-07-23T17:21:31.443820+05:30"},{"city":"Moradabad","state":"Uttar Pradesh","latitude":28.8386,"longitude":78.7733,"temp":30.4,"humidity":76,"rain":0.0,"pressure":973.7,"uv_index":6.75,"wind_gusts":47.5,"aqi":84,"pm10":14.6,"pm2_5":14.5,"no2":5.8,"co":232.0,"o3":117.0,"so2":6.5,"mosquito_risk":3,"arthritis_risk":5,"migraine_risk":7,"frizz_risk":1,"updated_at":"2026-07-23T17:21:31.443827+05:30"},{"city":"Saharanpur","state":"Uttar Pradesh","latitude":29.9637,"longitude":77.546,"temp":30.6,"humidity":76,"rain":0.0,"pressure":966.3,"uv_index":7.15,"wind_gusts":41.0,"aqi":69,"pm10":11.6,"pm2_5":11.4,"no2":2.9,"co":212.0,"o3":124.0,"so2":2.8,"mosquito_risk":3,"arthritis_risk":5,"migraine_risk":7,"frizz_risk":1,"updated_at":"2026-07-23T17:21:31.443833+05:30"},{"city":"Jhansi","state":"Uttar Pradesh","latitude":25.4484,"longitude":78.5685,"temp":28.6,"humidity":86,"rain":0.1,"pressure":966.5,"uv_index":6.55,"wind_gusts":28.4,"aqi":70,"pm10":13.9,"pm2_5":13.9,"no2":5.0,"co":210.0,"o3":117.0,"so2":10.4,"mosquito_risk":10,"arthritis_risk":5,"migraine_risk":7,"frizz_risk":1,"updated_at":"2026-07-23T17:21:34.946023+05:30"},{"city":"Surat","state":"Gujarat","latitude":21.1702,"longitude":72.8311,"temp":26.9,"humidity":93,"rain":0.4,"pressure":996.0,"uv_index":0.35,"wind_gusts":63.7,"aqi":65,"pm10":11.9,"pm2_5":10.2,"no2":20.5,"co":326.0,"o3":24.0,"so2":31.5,"mosquito_risk":10,"arthritis_risk":5,"migraine_risk":3,"frizz_risk":1,"updated_at":"2026-07-23T17:21:34.946057+05:30"},{"city":"Vadodara","state":"Gujarat","latitude":22.3072,"longitude":73.1812,"temp":26.3,"humidity":95,"rain":0.3,"pressure":992.0,"uv_index":0.8,"wind_gusts":36.7,"aqi":57,"pm10":19.8,"pm2_5":12.7,"no2":16.5,"co":221.0,"o3":39.0,"so2":7.1,"mosquito_risk":10,"arthritis_risk":5,"migraine_risk":3,"frizz_risk":1,"updated_at":"2026-07-23T17:21:34.946069+05:30"},{"city":"Rajkot","state":"Gujarat","latitude":22.3039,"longitude":70.8022,"temp":28.8,"humidity":80,"rain":0.1,"pressure":983.5,"uv_index":0.8,"wind_gusts":44.3,"aqi":57,"pm10":45.2,"pm2_5":19.5,"no2":4.2,"co":110.0,"o3":54.0,"so2":6.1,"mosquito_risk":10,"arthritis_risk":5,"migraine_risk":3,"frizz_risk":1,"updated_at":"2026-07-23T17:21:34.946078+05:30"},{"city":"Thane","state":"Maharashtra","latitude":19.2183,"longitude":72.9781,"temp":26.3,"humidity":93,"rain":0.1,"pressure":1001.0,"uv_index":1.15,"wind_gusts":52.2,"aqi":53,"pm10":28.5,"pm2_5":13.6,"no2":6.9,"co":211.0,"o3":41.0,"so2":3.5,"mosquito_risk":10,"arthritis_risk":5,"migraine_risk":0,"frizz_risk":1,"updated_at":"2026-07-23T17:21:34.946088+05:30"},{"city":"Nagpur","state":"Maharashtra","latitude":21.1458,"longitude":79.0882,"temp":28.8,"humidity":70,"rain":0.0,"pressure":965.1,"uv_index":4.3,"wind_gusts":59.4,"aqi":45,"pm10":27.9,"pm2_5":18.5,"no2":7.2,"co":171.0,"o3":74.0,"so2":12.0,"mosquito_risk":7,"arthritis_risk":5,"migraine_risk":3,"frizz_risk":1,"updated_at":"2026-07-23T17:21:34.946097+05:30"},{"city":"Nashik","state":"Maharashtra","latitude":19.9975,"longitude":73.7898,"temp":23.1,"humidity":95,"rain":1.2,"pressure":936.4,"uv_index":2.35,"wind_gusts":74.2,"aqi":14,"pm10":4.1,"pm2_5":2.4,"no2":5.9,"co":127.0,"o3":38.0,"so2":1.4,"mosquito_risk":6,"arthritis_risk":5,"migraine_risk":3,"frizz_risk":1,"updated_at":"2026-07-23T17:21:34.946106+05:30"},{"city":"Aurangabad","state":"Maharashtra","latitude":19.8762,"longitude":75.3433,"temp":24.6,"humidity":88,"rain":0.3,"pressure":935.9,"uv_index":6.2,"wind_gusts":73.8,"aqi":24,"pm10":3.2,"pm2_5":3.2,"no2":4.7,"co":145.0,"o3":47.0,"so2":3.0,"mosquito_risk":6,"arthritis_risk":5,"migraine_risk":7,"frizz_risk":1,"updated_at":"2026-07-23T17:21:34.946115+05:30"},{"city":"Solapur","state":"Maharashtra","latitude":17.6599,"longitude":75.9064,"temp":27.1,"humidity":68,"rain":0.0,"pressure":952.4,"uv_index":4.9,"wind_gusts":69.5,"aqi":57,"pm10":50.9,"pm2_5":26.2,"no2":3.7,"co":112.0,"o3":67.0,"so2":1.8,"mosquito_risk":7,"arthritis_risk":5,"migraine_risk":3,"frizz_risk":1,"updated_at":"2026-07-23T17:21:34.946125+05:30"},{"city":"Kolhapur","state":"Maharashtra","latitude":16.705,"longitude":74.2433,"temp":22.6,"humidity":95,"rain":0.2,"pressure":944.1,"uv_index":3.55,"wind_gusts":65.9,"aqi":58,"pm10":36.6,"pm2_5":16.8,"no2":3.6,"co":145.0,"o3":48.0,"so2":1.3,"mosquito_risk":6,"arthritis_risk":5,"migraine_risk":3,"frizz_risk":1,"updated_at":"2026-07-23T17:21:34.946133+05:30"},{"city":"Goa","state":"Goa","latitude":15.2993,"longitude":74.124,"temp":28.6,"humidity":77,"rain":0.0,"pressure":996.4,"uv_index":5.3,"wind_gusts":43.2,"aqi":70,"pm10":113.9,"pm2_5":37.1,"no2":1.2,"co":171.0,"o3":48.0,"so2":0.8,"mosquito_risk":7,"arthritis_risk":5,"migraine_risk":3,"frizz_risk":1,"updated_at":"2026-07-23T17:21:34.946142+05:30"},{"city":"Jodhpur","state":"Rajasthan","latitude":26.2389,"longitude":73.0243,"temp":28.5,"humidity":84,"rain":0.1,"pressure":971.3,"uv_index":8.15,"wind_gusts":27.7,"aqi":72,"pm10":8.1,"pm2_5":7.4,"no2":1.5,"co":230.0,"o3":130.0,"so2":1.4,"mosquito_risk":10,"arthritis_risk":5,"migraine_risk":7,"frizz_risk":1,"updated_at":"2026-07-23T17:21:34.946149+05:30"},{"city":"Udaipur","state":"Rajasthan","latitude":24.5854,"longitude":73.7125,"temp":26.3,"humidity":88,"rain":0.1,"pressure":934.5,"uv_index":8.75,"wind_gusts":24.8,"aqi":44,"pm10":7.9,"pm2_5":6.9,"no2":2.4,"co":237.0,"o3":97.0,"so2":2.1,"mosquito_risk":10,"arthritis_risk":5,"migraine_risk":7,"frizz_risk":1,"updated_at":"2026-07-23T17:21:34.946156+05:30"},{"city":"Kota","state":"Rajasthan","latitude":25.2138,"longitude":75.8648,"temp":27.8,"humidity":89,"rain":0.1,"pressure":966.2,"uv_index":7.45,"wind_gusts":35.3,"aqi":72,"pm10":21.9,"pm2_5":21.5,"no2":6.4,"co":259.0,"o3":131.0,"so2":18.1,"mosquito_risk":10,"arthritis_risk":5,"migraine_risk":7,"frizz_risk":1,"updated_at":"2026-07-23T17:21:34.946163+05:30"},{"city":"Bikaner","state":"Rajasthan","latitude":28.0229,"longitude":73.3119,"temp":32.0,"humidity":66,"rain":0.2,"pressure":970.5,"uv_index":7.25,"wind_gusts":29.9,"aqi":77,"pm10":9.5,"pm2_5":9.0,"no2":1.4,"co":258.0,"o3":138.0,"so2":4.3,"mosquito_risk":6,"arthritis_risk":5,"migraine_risk":7,"frizz_risk":1,"updated_at":"2026-07-23T17:21:34.946171+05:30"},{"city":"Ajmer","state":"Rajasthan","latitude":26.4499,"longitude":74.6399,"temp":30.9,"humidity":66,"rain":0.1,"pressure":943.3,"uv_index":7.15,"wind_gusts":27.7,"aqi":74,"pm10":16.8,"pm2_5":16.4,"no2":1.9,"co":251.0,"o3":131.0,"so2":3.2,"mosquito_risk":6,"arthritis_risk":5,"migraine_risk":7,"frizz_risk":1,"updated_at":"2026-07-23T17:21:34.946179+05:30"},{"city":"Gwalior","state":"Madhya Pradesh","latitude":26.2183,"longitude":78.1828,"temp":28.2,"humidity":87,"rain":0.2,"pressure":971.7,"uv_index":6.45,"wind_gusts":28.4,"aqi":73,"pm10":17.3,"pm2_5":17.3,"no2":3.5,"co":265.0,"o3":122.0,"so2":8.8,"mosquito_risk":10,"arthritis_risk":5,"migraine_risk":7,"frizz_risk":1,"updated_at":"2026-07-23T17:21:34.946186+05:30"},{"city":"Indore","state":"Madhya Pradesh","latitude":22.7196,"longitude":75.8577,"temp":26.1,"humidity":85,"rain":0.2,"pressure":936.6,"uv_index":7.0,"wind_gusts":36.4,"aqi":42,"pm10":4.9,"pm2_5":4.6,"no2":3.5,"co":174.0,"o3":72.0,"so2":3.8,"mosquito_risk":10,"arthritis_risk":5,"migraine_risk":7,"frizz_risk":1,"updated_at":"2026-07-23T17:21:34.946193+05:30"},{"city":"Bhopal","state":"Madhya Pradesh","latitude":23.2599,"longitude":77.4126,"temp":28.3,"humidity":73,"rain":0.0,"pressure":942.8,"uv_index":4.8,"wind_gusts":40.3,"aqi":40,"pm10":4.7,"pm2_5":4.3,"no2":4.4,"co":238.0,"o3":57.0,"so2":3.0,"mosquito_risk":7,"arthritis_risk":5,"migraine_risk":3,"frizz_risk":1,"updated_at":"2026-07-23T17:21:34.946200+05:30"},{"city":"Jabalpur","state":"Madhya Pradesh","latitude":23.1815,"longitude":79.9864,"temp":26.8,"humidity":93,"rain":0.0,"pressure":952.4,"uv_index":2.5,"wind_gusts":32.8,"aqi":38,"pm10":6.2,"pm2_5":6.1,"no2":5.5,"co":169.0,"o3":58.0,"so2":3.1,"mosquito_risk":7,"arthritis_risk":5,"migraine_risk":3,"frizz_risk":1,"updated_at":"2026-07-23T17:21:34.946207+05:30"},{"city":"Ujjain","state":"Madhya Pradesh","latitude":23.1765,"longitude":75.7885,"temp":27.0,"humidity":87,"rain":0.2,"pressure":942.1,"uv_index":5.75,"wind_gusts":33.8,"aqi":41,"pm10":4.4,"pm2_5":4.4,"no2":2.6,"co":138.0,"o3":71.0,"so2":3.2,"mosquito_risk":10,"arthritis_risk":5,"migraine_risk":3,"frizz_risk":1,"updated_at":"2026-07-23T17:21:34.946215+05:30"},{"city":"Visakhapatnam","state":"Andhra Pradesh","latitude":17.6868,"longitude":83.2185,"temp":29.8,"humidity":75,"rain":0.0,"pressure":998.2,"uv_index":6.65,"wind_gusts":48.2,"aqi":72,"pm10":32.5,"pm2_5":21.5,"no2":13.2,"co":256.0,"o3":86.0,"so2":28.4,"mosquito_risk":7,"arthritis_risk":5,"migraine_risk":7,"frizz_risk":1,"updated_at":"2026-07-23T17:21:34.946221+05:30"},{"city":"Vijayawada","state":"Andhra Pradesh","latitude":16.5062,"longitude":80.648,"temp":33.1,"humidity":57,"rain":0.0,"pressure":996.8,"uv_index":7.0,"wind_gusts":46.1,"aqi":58,"pm10":47.5,"pm2_5":20.1,"no2":4.9,"co":136.0,"o3":75.0,"so2":4.3,"mosquito_risk":0,"arthritis_risk":5,"migraine_risk":7,"frizz_risk":1,"updated_at":"2026-07-23T17:21:34.946228+05:30"},{"city":"Guntur","state":"Andhra Pradesh","latitude":16.3067,"longitude":80.4365,"temp":33.2,"humidity":55,"rain":0.1,"pressure":998.2,"uv_index":8.2,"wind_gusts":42.5,"aqi":56,"pm10":45.4,"pm2_5":18.2,"no2":3.7,"co":119.0,"o3":77.0,"so2":3.1,"mosquito_risk":3,"arthritis_risk":5,"migraine_risk":7,"frizz_risk":1,"updated_at":"2026-07-23T17:21:34.946236+05:30"},{"city":"Nellore","state":"Andhra Pradesh","latitude":14.4426,"longitude":79.9865,"temp":30.0,"humidity":77,"rain":0.3,"pressure":1001.1,"uv_index":8.95,"wind_gusts":40.7,"aqi":58,"pm10":28.0,"pm2_5":17.2,"no2":4.0,"co":125.0,"o3":104.0,"so2":3.2,"mosquito_risk":10,"arthritis_risk":5,"migraine_risk":4,"frizz_risk":1,"updated_at":"2026-07-23T17:21:34.946244+05:30"},{"city":"Kurnool","state":"Andhra Pradesh","latitude":15.8281,"longitude":78.0373,"temp":32.5,"humidity":47,"rain":0.0,"pressure":972.4,"uv_index":7.3,"wind_gusts":51.5,"aqi":40,"pm10":53.0,"pm2_5":19.7,"no2":2.0,"co":123.0,"o3":75.0,"so2":2.1,"mosquito_risk":0,"arthritis_risk":5,"migraine_risk":7,"frizz_risk":1,"updated_at":"2026-07-23T17:21:34.946252+05:30"},{"city":"Kakinada","state":"Andhra Pradesh","latitude":16.9891,"longitude":82.2475,"temp":33.1,"humidity":54,"rain":0.0,"pressure":1001.8,"uv_index":8.1,"wind_gusts":44.3,"aqi":68,"pm10":25.3,"pm2_5":15.2,"no2":2.7,"co":158.0,"o3":82.0,"so2":3.2,"mosquito_risk":0,"arthritis_risk":5,"migraine_risk":4,"frizz_risk":1,"updated_at":"2026-07-23T17:21:34.946259+05:30"},{"city":"Tirupati","state":"Andhra Pradesh","latitude":13.6288,"longitude":79.4192,"temp":32.5,"humidity":52,"rain":0.1,"pressure":987.0,"uv_index":8.8,"wind_gusts":37.1,"aqi":61,"pm10":14.5,"pm2_5":8.5,"no2":7.8,"co":131.0,"o3":77.0,"so2":1.8,"mosquito_risk":3,"arthritis_risk":5,"migraine_risk":7,"frizz_risk":1,"updated_at":"2026-07-23T17:21:34.946266+05:30"},{"city":"Warangal","state":"Telangana","latitude":17.9689,"longitude":79.5941,"temp":30.6,"humidity":61,"rain":0.1,"pressure":972.9,"uv_index":8.6,"wind_gusts":49.7,"aqi":55,"pm10":46.2,"pm2_5":21.1,"no2":2.9,"co":143.0,"o3":80.0,"so2":2.7,"mosquito_risk":6,"arthritis_risk":5,"migraine_risk":7,"frizz_risk":1,"updated_at":"2026-07-23T17:21:34.946273+05:30"},{"city":"Nizamabad","state":"Telangana","latitude":18.6725,"longitude":78.0941,"temp":28.4,"humidity":64,"rain":0.0,"pressure":958.6,"uv_index":6.9,"wind_gusts":56.9,"aqi":53,"pm10":48.0,"pm2_5":23.9,"no2":1.9,"co":132.0,"o3":79.0,"so2":1.3,"mosquito_risk":7,"arthritis_risk":5,"migraine_risk":7,"frizz_risk":1,"updated_at":"2026-07-23T17:21:34.946280+05:30"},{"city":"Mysore","state":"Karnataka","latitude":12.2958,"longitude":76.6396,"temp":27.3,"humidity":58,"rain":0.0,"pressure":927.4,"uv_index":9.0,"wind_gusts":50.0,"aqi":27,"pm10":9.8,"pm2_5":5.3,"no2":2.6,"co":136.0,"o3":63.0,"so2":1.2,"mosquito_risk":4,"arthritis_risk":5,"migraine_risk":7,"frizz_risk":1,"updated_at":"2026-07-23T17:21:34.946287+05:30"},{"city":"Mangalore","state":"Karnataka","latitude":12.9141,"longitude":74.856,"temp":25.8,"humidity":91,"rain":0.1,"pressure":1007.0,"uv_index":8.75,"wind_gusts":49.3,"aqi":52,"pm10":10.5,"pm2_5":5.5,"no2":1.5,"co":106.0,"o3":43.0,"so2":1.2,"mosquito_risk":10,"arthritis_risk":5,"migraine_risk":4,"frizz_risk":1,"updated_at":"2026-07-23T17:21:34.946294+05:30"},{"city":"Hubli-Dharwad","state":"Karnataka","latitude":15.3647,"longitude":75.124,"temp":24.0,"humidity":80,"rain":0.0,"pressure":938.8,"uv_index":5.8,"wind_gusts":60.8,"aqi":29,"pm10":67.5,"pm2_5":28.9,"no2":2.1,"co":115.0,"o3":60.0,"so2":0.9,"mosquito_risk":3,"arthritis_risk":5,"migraine_risk":3,"frizz_risk":1,"updated_at":"2026-07-23T17:21:34.946302+05:30"},{"city":"Belgaum","state":"Karnataka","latitude":15.8497,"longitude":74.4977,"temp":21.6,"humidity":94,"rain":0.1,"pressure":922.8,"uv_index":3.75,"wind_gusts":58.3,"aqi":51,"pm10":55.5,"pm2_5":23.5,"no2":2.9,"co":126.0,"o3":53.0,"so2":1.3,"mosquito_risk":6,"arthritis_risk":5,"migraine_risk":3,"frizz_risk":1,"updated_at":"2026-07-23T17:21:38.326887+05:30"},{"city":"Coimbatore","state":"Tamil Nadu","latitude":11.0168,"longitude":76.9558,"temp":30.0,"humidity":57,"rain":0.0,"pressure":959.9,"uv_index":8.95,"wind_gusts":55.4,"aqi":37,"pm10":11.3,"pm2_5":5.8,"no2":1.8,"co":146.0,"o3":64.0,"so2":1.6,"mosquito_risk":4,"arthritis_risk":5,"migraine_risk":7,"frizz_risk":1,"updated_at":"2026-07-23T17:21:38.326914+05:30"},{"city":"Madurai","state":"Tamil Nadu","latitude":9.9252,"longitude":78.1198,"temp":36.6,"humidity":34,"rain":0.0,"pressure":989.9,"uv_index":8.7,"wind_gusts":29.5,"aqi":63,"pm10":26.6,"pm2_5":12.5,"no2":2.4,"co":151.0,"o3":92.0,"so2":2.0,"mosquito_risk":0,"arthritis_risk":5,"migraine_risk":10,"frizz_risk":1,"updated_at":"2026-07-23T17:21:38.326923+05:30"},{"city":"Trichy","state":"Tamil Nadu","latitude":10.7905,"longitude":78.7047,"temp":35.3,"humidity":41,"rain":0.1,"pressure":996.1,"uv_index":7.75,"wind_gusts":42.1,"aqi":57,"pm10":24.6,"pm2_5":11.7,"no2":3.1,"co":108.0,"o3":85.0,"so2":2.0,"mosquito_risk":3,"arthritis_risk":5,"migraine_risk":10,"frizz_risk":1,"updated_at":"2026-07-23T17:21:38.326931+05:30"},{"city":"Salem","state":"Tamil Nadu","latitude":11.6643,"longitude":78.146,"temp":33.8,"humidity":46,"rain":0.0,"pressure":974.3,"uv_index":8.75,"wind_gusts":28.8,"aqi":68,"pm10":22.1,"pm2_5":11.4,"no2":3.4,"co":146.0,"o3":99.0,"so2":5.2,"mosquito_risk":0,"arthritis_risk":5,"migraine_risk":7,"frizz_risk":1,"updated_at":"2026-07-23T17:21:38.326938+05:30"},{"city":"Tirunelveli","state":"Tamil Nadu","latitude":8.7139,"longitude":77.7567,"temp":35.1,"humidity":42,"rain":0.0,"pressure":1000.6,"uv_index":8.3,"wind_gusts":48.6,"aqi":41,"pm10":10.0,"pm2_5":6.0,"no2":1.8,"co":126.0,"o3":72.0,"so2":1.5,"mosquito_risk":0,"arthritis_risk":5,"migraine_risk":7,"frizz_risk":1,"updated_at":"2026-07-23T17:21:38.326944+05:30"},{"city":"Vellore","state":"Tamil Nadu","latitude":12.9165,"longitude":79.1325,"temp":33.4,"humidity":48,"rain":0.0,"pressure":980.4,"uv_index":9.0,"wind_gusts":36.7,"aqi":64,"pm10":18.5,"pm2_5":9.3,"no2":3.3,"co":125.0,"o3":85.0,"so2":1.8,"mosquito_risk":0,"arthritis_risk":5,"migraine_risk":7,"frizz_risk":1,"updated_at":"2026-07-23T17:21:38.326951+05:30"},{"city":"Erode","state":"Tamil Nadu","latitude":11.341,"longitude":77.7172,"temp":32.6,"humidity":52,"rain":0.0,"pressure":986.0,"uv_index":8.25,"wind_gusts":39.2,"aqi":56,"pm10":15.4,"pm2_5":7.8,"no2":3.0,"co":200.0,"o3":85.0,"so2":1.9,"mosquito_risk":0,"arthritis_risk":5,"migraine_risk":7,"frizz_risk":1,"updated_at":"2026-07-23T17:21:38.326957+05:30"},{"city":"Kochi","state":"Kerala","latitude":9.9312,"longitude":76.2673,"temp":28.3,"humidity":82,"rain":0.0,"pressure":1008.6,"uv_index":8.65,"wind_gusts":30.2,"aqi":54,"pm10":15.1,"pm2_5":9.5,"no2":3.5,"co":132.0,"o3":69.0,"so2":3.3,"mosquito_risk":7,"arthritis_risk":0,"migraine_risk":4,"frizz_risk":1,"updated_at":"2026-07-23T17:21:38.326962+05:30"},{"city":"Thiruvananthapuram","state":"Kerala","latitude":8.5241,"longitude":76.9366,"temp":28.3,"humidity":79,"rain":0.0,"pressure":1008.1,"uv_index":8.0,"wind_gusts":40.7,"aqi":51,"pm10":14.2,"pm2_5":8.8,"no2":2.3,"co":115.0,"o3":67.0,"so2":1.5,"mosquito_risk":7,"arthritis_risk":0,"migraine_risk":4,"frizz_risk":1,"updated_at":"2026-07-23T17:21:38.326968+05:30"},{"city":"Kozhikode","state":"Kerala","latitude":11.2588,"longitude":75.7804,"temp":28.0,"humidity":78,"rain":0.0,"pressure":1007.8,"uv_index":8.65,"wind_gusts":39.2,"aqi":37,"pm10":10.7,"pm2_5":5.8,"no2":0.6,"co":138.0,"o3":53.0,"so2":1.1,"mosquito_risk":7,"arthritis_risk":5,"migraine_risk":4,"frizz_risk":1,"updated_at":"2026-07-23T17:21:38.326974+05:30"},{"city":"Thrissur","state":"Kerala","latitude":10.5276,"longitude":76.2144,"temp":28.5,"humidity":79,"rain":0.0,"pressure":1006.8,"uv_index":8.35,"wind_gusts":35.3,"aqi":55,"pm10":11.0,"pm2_5":7.1,"no2":2.1,"co":101.0,"o3":58.0,"so2":1.8,"mosquito_risk":7,"arthritis_risk":5,"migraine_risk":4,"frizz_risk":1,"updated_at":"2026-07-23T17:21:38.326981+05:30"},{"city":"Kannur","state":"Kerala","latitude":11.8745,"longitude":75.3704,"temp":25.4,"humidity":93,"rain":0.0,"pressure":1007.6,"uv_index":8.8,"wind_gusts":41.8,"aqi":46,"pm10":10.2,"pm2_5":5.9,"no2":1.6,"co":93.0,"o3":50.0,"so2":1.2,"mosquito_risk":7,"arthritis_risk":5,"migraine_risk":4,"frizz_risk":1,"updated_at":"2026-07-23T17:21:38.326987+05:30"},{"city":"Patna","state":"Bihar","latitude":25.5941,"longitude":85.1376,"temp":30.2,"humidity":77,"rain":0.1,"pressure":991.7,"uv_index":6.1,"wind_gusts":37.4,"aqi":69,"pm10":15.2,"pm2_5":15.1,"no2":7.6,"co":329.0,"o3":109.0,"so2":14.1,"mosquito_risk":6,"arthritis_risk":5,"migraine_risk":7,"frizz_risk":1,"updated_at":"2026-07-23T17:21:38.326993+05:30"},{"city":"Gaya","state":"Bihar","latitude":24.7914,"longitude":85.0002,"temp":29.9,"humidity":78,"rain":0.1,"pressure":985.0,"uv_index":8.3,"wind_gusts":27.0,"aqi":59,"pm10":13.9,"pm2_5":13.9,"no2":4.5,"co":201.0,"o3":106.0,"so2":11.0,"mosquito_risk":10,"arthritis_risk":5,"migraine_risk":7,"frizz_risk":1,"updated_at":"2026-07-23T17:21:38.326999+05:30"},{"city":"Muzaffarpur","state":"Bihar","latitude":26.1209,"longitude":85.3647,"temp":30.1,"humidity":78,"rain":0.0,"pressure":991.8,"uv_index":7.35,"wind_gusts":44.6,"aqi":67,"pm10":17.6,"pm2_5":17.5,"no2":7.6,"co":296.0,"o3":113.0,"so2":13.2,"mosquito_risk":3,"arthritis_risk":5,"migraine_risk":7,"frizz_risk":1,"updated_at":"2026-07-23T17:21:38.327004+05:30"},{"city":"Bhagalpur","state":"Bihar","latitude":25.2425,"longitude":87.0117,"temp":31.1,"humidity":71,"rain":0.0,"pressure":993.0,"uv_index":7.55,"wind_gusts":33.1,"aqi":62,"pm10":15.5,"pm2_5":15.4,"no2":8.8,"co":269.0,"o3":101.0,"so2":15.3,"mosquito_risk":3,"arthritis_risk":5,"migraine_risk":7,"frizz_risk":1,"updated_at":"2026-07-23T17:21:38.327010+05:30"},{"city":"Ranchi","state":"Jharkhand","latitude":23.3441,"longitude":85.3096,"temp":25.4,"humidity":85,"rain":0.0,"pressure":930.6,"uv_index":7.5,"wind_gusts":40.7,"aqi":27,"pm10":8.6,"pm2_5":7.6,"no2":4.2,"co":163.0,"o3":79.0,"so2":11.6,"mosquito_risk":7,"arthritis_risk":5,"migraine_risk":7,"frizz_risk":1,"updated_at":"2026-07-23T17:21:38.327016+05:30"},{"city":"Jamshedpur","state":"Jharkhand","latitude":22.8046,"longitude":86.2029,"temp":26.8,"humidity":95,"rain":0.1,"pressure":983.5,"uv_index":2.1,"wind_gusts":34.2,"aqi":57,"pm10":11.5,"pm2_5":9.9,"no2":10.1,"co":225.0,"o3":63.0,"so2":19.5,"mosquito_risk":10,"arthritis_risk":5,"migraine_risk":3,"frizz_risk":1,"updated_at":"2026-07-23T17:21:38.327021+05:30"},{"city":"Dhanbad","state":"Jharkhand","latitude":23.7957,"longitude":86.4304,"temp":27.1,"humidity":90,"rain":0.1,"pressure":972.1,"uv_index":6.1,"wind_gusts":30.2,"aqi":84,"pm10":15.0,"pm2_5":14.7,"no2":20.9,"co":290.0,"o3":60.0,"so2":51.0,"mosquito_risk":10,"arthritis_risk":5,"migraine_risk":7,"frizz_risk":1,"updated_at":"2026-07-23T17:21:38.327027+05:30"},{"city":"Bokaro","state":"Jharkhand","latitude":23.6693,"longitude":86.1511,"temp":27.6,"humidity":92,"rain":0.2,"pressure":975.9,"uv_index":6.9,"wind_gusts":29.9,"aqi":69,"pm10":11.1,"pm2_5":10.9,"no2":12.7,"co":295.0,"o3":77.0,"so2":35.5,"mosquito_risk":10,"arthritis_risk":5,"migraine_risk":7,"frizz_risk":1,"updated_at":"2026-07-23T17:21:38.327032+05:30"},{"city":"Bhubaneswar","state":"Odisha","latitude":20.2961,"longitude":85.8245,"temp":28.9,"humidity":81,"rain":0.1,"pressure":996.2,"uv_index":8.65,"wind_gusts":45.7,"aqi":72,"pm10":24.1,"pm2_5":16.7,"no2":6.4,"co":272.0,"o3":90.0,"so2":5.4,"mosquito_risk":10,"arthritis_risk":5,"migraine_risk":7,"frizz_risk":1,"updated_at":"2026-07-23T17:21:38.327038+05:30"},{"city":"Cuttack","state":"Odisha","latitude":20.4625,"longitude":85.8828,"temp":29.0,"humidity":80,"rain":0.1,"pressure":997.9,"uv_index":8.35,"wind_gusts":40.3,"aqi":72,"pm10":24.1,"pm2_5":16.7,"no2":6.4,"co":258.0,"o3":90.0,"so2":5.4,"mosquito_risk":10,"arthritis_risk":5,"migraine_risk":7,"frizz_risk":1,"updated_at":"2026-07-23T17:21:38.327044+05:30"},{"city":"Rourkela","state":"Odisha","latitude":22.2604,"longitude":84.8536,"temp":28.3,"humidity":85,"rain":0.0,"pressure":978.0,"uv_index":6.7,"wind_gusts":42.1,"aqi":36,"pm10":13.2,"pm2_5":10.0,"no2":4.8,"co":279.0,"o3":73.0,"so2":6.9,"mosquito_risk":7,"arthritis_risk":5,"migraine_risk":7,"frizz_risk":1,"updated_at":"2026-07-23T17:21:38.327050+05:30"},{"city":"Raipur","state":"Chhattisgarh","latitude":21.2514,"longitude":81.6296,"temp":28.9,"humidity":67,"rain":0.0,"pressure":967.7,"uv_index":4.15,"wind_gusts":55.8,"aqi":56,"pm10":17.6,"pm2_5":11.5,"no2":7.5,"co":259.0,"o3":68.0,"so2":18.3,"mosquito_risk":7,"arthritis_risk":5,"migraine_risk":3,"frizz_risk":1,"updated_at":"2026-07-23T17:21:38.327055+05:30"},{"city":"Bhilai","state":"Chhattisgarh","latitude":21.1938,"longitude":81.3509,"temp":28.5,"humidity":69,"rain":0.0,"pressure":968.0,"uv_index":3.15,"wind_gusts":57.2,"aqi":55,"pm10":17.3,"pm2_5":11.1,"no2":6.8,"co":374.0,"o3":70.0,"so2":16.3,"mosquito_risk":7,"arthritis_risk":5,"migraine_risk":3,"frizz_risk":1,"updated_at":"2026-07-23T17:21:38.327061+05:30"},{"city":"Guwahati","state":"Assam","latitude":26.1158,"longitude":91.7086,"temp":25.7,"humidity":99,"rain":0.3,"pressure":995.2,"uv_index":5.55,"wind_gusts":24.1,"aqi":39,"pm10":4.0,"pm2_5":3.9,"no2":3.7,"co":241.0,"o3":68.0,"so2":0.9,"mosquito_risk":10,"arthritis_risk":5,"migraine_risk":3,"frizz_risk":1,"updated_at":"2026-07-23T17:21:38.327066+05:30"},{"city":"Agartala","state":"Tripura","latitude":23.8315,"longitude":91.2868,"temp":26.2,"humidity":96,"rain":0.4,"pressure":1000.6,"uv_index":8.0,"wind_gusts":37.1,"aqi":41,"pm10":7.0,"pm2_5":6.6,"no2":6.2,"co":169.0,"o3":73.0,"so2":1.8,"mosquito_risk":10,"arthritis_risk":5,"migraine_risk":4,"frizz_risk":1,"updated_at":"2026-07-23T17:21:38.327072+05:30"},{"city":"Shillong","state":"Meghalaya","latitude":25.5788,"longitude":91.8933,"temp":22.2,"humidity":81,"rain":0.0,"pressure":853.7,"uv_index":5.3,"wind_gusts":28.8,"aqi":32,"pm10":2.8,"pm2_5":2.8,"no2":4.5,"co":168.0,"o3":67.0,"so2":1.7,"mosquito_risk":3,"arthritis_risk":5,"migraine_risk":3,"frizz_risk":1,"updated_at":"2026-07-23T17:21:38.327077+05:30"},{"city":"Imphal","state":"Manipur","latitude":24.817,"longitude":93.9368,"temp":25.4,"humidity":82,"rain":0.0,"pressure":918.4,"uv_index":8.6,"wind_gusts":25.9,"aqi":37,"pm10":2.9,"pm2_5":2.8,"no2":2.0,"co":175.0,"o3":70.0,"so2":1.0,"mosquito_risk":7,"arthritis_risk":5,"migraine_risk":7,"frizz_risk":1,"updated_at":"2026-07-23T17:21:38.327083+05:30"},{"city":"Aizawl","state":"Mizoram","latitude":23.7271,"longitude":92.7176,"temp":20.4,"humidity":92,"rain":0.0,"pressure":888.4,"uv_index":8.75,"wind_gusts":38.9,"aqi":30,"pm10":3.2,"pm2_5":2.6,"no2":2.7,"co":124.0,"o3":56.0,"so2":0.4,"mosquito_risk":3,"arthritis_risk":5,"migraine_risk":7,"frizz_risk":1,"updated_at":"2026-07-23T17:21:38.327088+05:30"},{"city":"Kohima","state":"Nagaland","latitude":25.6701,"longitude":94.1077,"temp":21.4,"humidity":95,"rain":0.1,"pressure":851.7,"uv_index":5.45,"wind_gusts":22.3,"aqi":34,"pm10":2.7,"pm2_5":2.6,"no2":2.9,"co":144.0,"o3":63.0,"so2":0.6,"mosquito_risk":6,"arthritis_risk":5,"migraine_risk":3,"frizz_risk":1,"updated_at":"2026-07-23T17:21:38.327094+05:30"},{"city":"Gangtok","state":"Sikkim","latitude":27.3314,"longitude":88.6138,"temp":20.0,"humidity":93,"rain":0.0,"pressure":835.0,"uv_index":6.3,"wind_gusts":34.2,"aqi":38,"pm10":2.3,"pm2_5":2.3,"no2":3.7,"co":178.0,"o3":88.0,"so2":0.7,"mosquito_risk":3,"arthritis_risk":5,"migraine_risk":7,"frizz_risk":1,"updated_at":"2026-07-23T17:21:38.327099+05:30"},{"city":"Siliguri","state":"West Bengal","latitude":26.7271,"longitude":88.3953,"temp":27.7,"humidity":92,"rain":0.2,"pressure":986.5,"uv_index":8.45,"wind_gusts":31.7,"aqi":59,"pm10":7.5,"pm2_5":7.3,"no2":4.2,"co":336.0,"o3":95.0,"so2":1.6,"mosquito_risk":10,"arthritis_risk":5,"migraine_risk":7,"frizz_risk":1,"updated_at":"2026-07-23T17:21:41.798029+05:30"},{"city":"Durgapur","state":"West Bengal","latitude":23.5204,"longitude":87.3119,"temp":28.6,"humidity":80,"rain":0.1,"pressure":987.4,"uv_index":8.0,"wind_gusts":37.1,"aqi":73,"pm10":21.1,"pm2_5":20.8,"no2":27.3,"co":533.0,"o3":46.0,"so2":42.5,"mosquito_risk":10,"arthritis_risk":5,"migraine_risk":7,"frizz_risk":1,"updated_at":"2026-07-23T17:21:41.798059+05:30"},{"city":"Asansol","state":"West Bengal","latitude":23.6739,"longitude":86.9524,"temp":28.4,"humidity":82,"rain":0.0,"pressure":985.8,"uv_index":7.4,"wind_gusts":35.3,"aqi":68,"pm10":15.8,"pm2_5":15.7,"no2":23.8,"co":224.0,"o3":53.0,"so2":44.3,"mosquito_risk":7,"arthritis_risk":5,"migraine_risk":7,"frizz_risk":1,"updated_at":"2026-07-23T17:21:41.798069+05:30"},{"city":"Pondicherry","state":"Puducherry","latitude":11.9139,"longitude":79.8145,"temp":30.6,"humidity":76,"rain":0.0,"pressure":1004.9,"uv_index":8.55,"wind_gusts":42.5,"aqi":70,"pm10":32.1,"pm2_5":23.8,"no2":14.5,"co":162.0,"o3":94.0,"so2":6.4,"mosquito_risk":3,"arthritis_risk":5,"migraine_risk":4,"frizz_risk":1,"updated_at":"2026-07-23T17:21:41.798078+05:30"},{"city":"Port Blair","state":"Andaman and Nicobar Islands","latitude":11.6234,"longitude":92.7265,"temp":27.3,"humidity":85,"rain":0.0,"pressure":1006.0,"uv_index":8.0,"wind_gusts":36.0,"aqi":39,"pm10":9.1,"pm2_5":5.3,"no2":0.5,"co":103.0,"o3":46.0,"so2":0.5,"mosquito_risk":7,"arthritis_risk":5,"migraine_risk":4,"frizz_risk":1,"updated_at":"2026-07-23T17:21:41.798086+05:30"},{"city":"Haridwar","state":"Uttarakhand","latitude":29.9457,"longitude":78.1642,"temp":30.9,"humidity":74,"rain":0.0,"pressure":964.8,"uv_index":7.3,"wind_gusts":34.9,"aqi":69,"pm10":9.8,"pm2_5":9.6,"no2":2.2,"co":196.0,"o3":115.0,"so2":2.8,"mosquito_risk":3,"arthritis_risk":5,"migraine_risk":7,"frizz_risk":1,"updated_at":"2026-07-23T17:21:41.798093+05:30"},{"city":"Rishikesh","state":"Uttarakhand","latitude":30.0869,"longitude":78.2676,"temp":29.8,"humidity":80,"rain":0.0,"pressure":957.8,"uv_index":7.4,"wind_gusts":28.4,"aqi":49,"pm10":6.5,"pm2_5":6.4,"no2":1.4,"co":212.0,"o3":100.0,"so2":1.7,"mosquito_risk":7,"arthritis_risk":5,"migraine_risk":7,"frizz_risk":1,"updated_at":"2026-07-23T17:21:41.798100+05:30"},{"city":"Nainital","state":"Uttarakhand","latitude":29.3919,"longitude":79.4542,"temp":22.1,"humidity":66,"rain":0.0,"pressure":802.4,"uv_index":6.95,"wind_gusts":45.4,"aqi":46,"pm10":6.5,"pm2_5":6.5,"no2":1.4,"co":139.0,"o3":97.0,"so2":0.8,"mosquito_risk":3,"arthritis_risk":5,"migraine_risk":7,"frizz_risk":0,"updated_at":"2026-07-23T17:21:41.798107+05:30"},{"city":"Mussoorie","state":"Uttarakhand","latitude":30.4599,"longitude":78.0664,"temp":19.4,"humidity":92,"rain":0.1,"pressure":799.1,"uv_index":6.8,"wind_gusts":33.5,"aqi":54,"pm10":8.1,"pm2_5":8.0,"no2":3.2,"co":196.0,"o3":102.0,"so2":2.5,"mosquito_risk":6,"arthritis_risk":10,"migraine_risk":7,"frizz_risk":1,"updated_at":"2026-07-23T17:21:41.798114+05:30"},{"city":"Dharamshala","state":"Himachal Pradesh","latitude":32.219,"longitude":76.3234,"temp":23.8,"humidity":83,"rain":0.0,"pressure":863.6,"uv_index":7.4,"wind_gusts":27.0,"aqi":47,"pm10":4.5,"pm2_5":4.4,"no2":1.4,"co":174.0,"o3":86.0,"so2":0.6,"mosquito_risk":3,"arthritis_risk":5,"migraine_risk":7,"frizz_risk":1,"updated_at":"2026-07-23T17:21:41.798120+05:30"},{"city":"Dalhousie","state":"Himachal Pradesh","latitude":32.5387,"longitude":75.971,"temp":20.7,"humidity":78,"rain":0.0,"pressure":801.0,"uv_index":1.1,"wind_gusts":27.7,"aqi":64,"pm10":12.0,"pm2_5":11.3,"no2":4.6,"co":199.0,"o3":103.0,"so2":1.7,"mosquito_risk":3,"arthritis_risk":5,"migraine_risk":3,"frizz_risk":1,"updated_at":"2026-07-23T17:21:41.798127+05:30"},{"city":"Patiala","state":"Punjab","latitude":30.3398,"longitude":76.3869,"temp":31.9,"humidity":67,"rain":0.0,"pressure":968.5,"uv_index":6.85,"wind_gusts":40.7,"aqi":78,"pm10":19.4,"pm2_5":14.4,"no2":2.8,"co":252.0,"o3":131.0,"so2":5.5,"mosquito_risk":3,"arthritis_risk":5,"migraine_risk":7,"frizz_risk":1,"updated_at":"2026-07-23T17:21:41.798133+05:30"},{"city":"Bhatinda","state":"Punjab","latitude":30.211,"longitude":74.9455,"temp":30.0,"humidity":85,"rain":0.1,"pressure":973.6,"uv_index":6.95,"wind_gusts":32.4,"aqi":97,"pm10":32.7,"pm2_5":32.5,"no2":7.5,"co":278.0,"o3":143.0,"so2":14.0,"mosquito_risk":10,"arthritis_risk":5,"migraine_risk":7,"frizz_risk":1,"updated_at":"2026-07-23T17:21:41.798139+05:30"},{"city":"Rohtak","state":"Haryana","latitude":28.8955,"longitude":76.6066,"temp":31.0,"humidity":73,"rain":0.1,"pressure":971.1,"uv_index":6.25,"wind_gusts":36.4,"aqi":133,"pm10":100.8,"pm2_5":32.5,"no2":7.9,"co":315.0,"o3":170.0,"so2":15.5,"mosquito_risk":6,"arthritis_risk":5,"migraine_risk":7,"frizz_risk":1,"updated_at":"2026-07-23T17:21:41.798145+05:30"},{"city":"Panipat","state":"Haryana","latitude":29.3909,"longitude":76.9635,"temp":30.9,"humidity":77,"rain":0.0,"pressure":970.1,"uv_index":7.05,"wind_gusts":38.5,"aqi":116,"pm10":43.0,"pm2_5":24.6,"no2":5.7,"co":293.0,"o3":159.0,"so2":13.1,"mosquito_risk":3,"arthritis_risk":5,"migraine_risk":7,"frizz_risk":1,"updated_at":"2026-07-23T17:21:41.798151+05:30"},{"city":"Mathura","state":"Uttar Pradesh","latitude":27.4924,"longitude":77.6737,"temp":30.4,"humidity":77,"rain":0.1,"pressure":975.6,"uv_index":6.2,"wind_gusts":39.2,"aqi":78,"pm10":15.9,"pm2_5":15.5,"no2":4.1,"co":277.0,"o3":137.0,"so2":5.1,"mosquito_risk":6,"arthritis_risk":5,"migraine_risk":7,"frizz_risk":1,"updated_at":"2026-07-23T17:21:41.798156+05:30"},{"city":"Vrindavan","state":"Uttar Pradesh","latitude":27.5823,"longitude":77.7027,"temp":30.4,"humidity":76,"rain":0.1,"pressure":976.0,"uv_index":6.15,"wind_gusts":39.2,"aqi":78,"pm10":15.9,"pm2_5":15.5,"no2":4.1,"co":282.0,"o3":137.0,"so2":5.1,"mosquito_risk":6,"arthritis_risk":5,"migraine_risk":7,"frizz_risk":1,"updated_at":"2026-07-23T17:21:41.798162+05:30"},{"city":"Ayodhya","state":"Uttar Pradesh","latitude":26.7922,"longitude":82.1998,"temp":29.1,"humidity":86,"rain":0.1,"pressure":985.8,"uv_index":6.2,"wind_gusts":44.3,"aqi":76,"pm10":18.7,"pm2_5":18.7,"no2":5.4,"co":329.0,"o3":114.0,"so2":7.8,"mosquito_risk":10,"arthritis_risk":5,"migraine_risk":7,"frizz_risk":1,"updated_at":"2026-07-23T17:21:41.798168+05:30"},{"city":"Ratlam","state":"Madhya Pradesh","latitude":23.3315,"longitude":75.0367,"temp":26.5,"humidity":87,"rain":0.1,"pressure":942.8,"uv_index":6.1,"wind_gusts":32.0,"aqi":37,"pm10":3.7,"pm2_5":3.7,"no2":2.7,"co":135.0,"o3":71.0,"so2":3.0,"mosquito_risk":10,"arthritis_risk":5,"migraine_risk":7,"frizz_risk":1,"updated_at":"2026-07-23T17:21:41.798174+05:30"},{"city":"Sagar","state":"Madhya Pradesh","latitude":23.8388,"longitude":78.7378,"temp":26.4,"humidity":93,"rain":0.2,"pressure":940.1,"uv_index":4.2,"wind_gusts":34.2,"aqi":44,"pm10":4.1,"pm2_5":4.0,"no2":3.7,"co":146.0,"o3":72.0,"so2":2.0,"mosquito_risk":10,"arthritis_risk":5,"migraine_risk":3,"frizz_risk":1,"updated_at":"2026-07-23T17:21:41.798181+05:30"},{"city":"Satna","state":"Madhya Pradesh","latitude":24.6005,"longitude":80.8322,"temp":26.9,"humidity":92,"rain":0.1,"pressure":961.7,"uv_index":7.8,"wind_gusts":33.8,"aqi":59,"pm10":6.0,"pm2_5":6.0,"no2":5.9,"co":179.0,"o3":73.0,"so2":3.8,"mosquito_risk":10,"arthritis_risk":5,"migraine_risk":7,"frizz_risk":1,"updated_at":"2026-07-23T17:21:41.798186+05:30"},{"city":"Akola","state":"Maharashtra","latitude":20.7002,"longitude":77.0082,"temp":28.5,"humidity":72,"rain":0.1,"pressure":965.9,"uv_index":2.8,"wind_gusts":63.0,"aqi":33,"pm10":14.2,"pm2_5":9.8,"no2":2.5,"co":149.0,"o3":64.0,"so2":2.5,"mosquito_risk":10,"arthritis_risk":5,"migraine_risk":3,"frizz_risk":1,"updated_at":"2026-07-23T17:21:41.798193+05:30"},{"city":"Amravati","state":"Maharashtra","latitude":20.9374,"longitude":77.7796,"temp":29.1,"humidity":69,"rain":0.1,"pressure":958.5,"uv_index":3.15,"wind_gusts":59.0,"aqi":37,"pm10":22.1,"pm2_5":14.1,"no2":2.9,"co":144.0,"o3":69.0,"so2":3.2,"mosquito_risk":10,"arthritis_risk":5,"migraine_risk":3,"frizz_risk":1,"updated_at":"2026-07-23T17:21:41.798200+05:30"},{"city":"Latur","state":"Maharashtra","latitude":18.4088,"longitude":76.5604,"temp":27.1,"humidity":65,"rain":0.0,"pressure":933.9,"uv_index":6.05,"wind_gusts":68.4,"aqi":57,"pm10":36.7,"pm2_5":21.5,"no2":2.4,"co":117.0,"o3":62.0,"so2":1.0,"mosquito_risk":7,"arthritis_risk":5,"migraine_risk":7,"frizz_risk":1,"updated_at":"2026-07-23T17:21:41.798206+05:30"},{"city":"Nanded","state":"Maharashtra","latitude":19.1383,"longitude":77.3091,"temp":29.1,"humidity":64,"rain":0.0,"pressure":961.6,"uv_index":4.8,"wind_gusts":50.8,"aqi":57,"pm10":34.9,"pm2_5":20.7,"no2":3.9,"co":138.0,"o3":66.0,"so2":3.2,"mosquito_risk":7,"arthritis_risk":5,"migraine_risk":3,"frizz_risk":1,"updated_at":"2026-07-23T17:21:41.798213+05:30"},{"city":"Gulbarga","state":"Karnataka","latitude":17.3297,"longitude":76.8343,"temp":28.3,"humidity":55,"rain":0.0,"pressure":954.1,"uv_index":6.7,"wind_gusts":67.7,"aqi":51,"pm10":66.4,"pm2_5":30.5,"no2":5.2,"co":132.0,"o3":66.0,"so2":2.0,"mosquito_risk":4,"arthritis_risk":5,"migraine_risk":7,"frizz_risk":1,"updated_at":"2026-07-23T17:21:41.798219+05:30"},{"city":"Bidar","state":"Karnataka","latitude":17.9104,"longitude":77.5199,"temp":27.7,"humidity":59,"rain":0.0,"pressure":930.4,"uv_index":7.25,"wind_gusts":71.3,"aqi":51,"pm10":60.3,"pm2_5":28.9,"no2":2.8,"co":124.0,"o3":79.0,"so2":1.7,"mosquito_risk":4,"arthritis_risk":5,"migraine_risk":7,"frizz_risk":1,"updated_at":"2026-07-23T17:21:41.798225+05:30"},{"city":"Hospet","state":"Karnataka","latitude":15.2689,"longitude":76.3909,"temp":28.1,"humidity":62,"rain":0.0,"pressure":953.1,"uv_index":6.2,"wind_gusts":58.3,"aqi":27,"pm10":22.9,"pm2_5":10.4,"no2":2.2,"co":110.0,"o3":65.0,"so2":1.5,"mosquito_risk":7,"arthritis_risk":5,"migraine_risk":7,"frizz_risk":1,"updated_at":"2026-07-23T17:21:41.798231+05:30"},{"city":"Tirupur","state":"Tamil Nadu","latitude":11.1085,"longitude":77.3411,"temp":31.9,"humidity":52,"rain":0.0,"pressure":972.5,"uv_index":8.85,"wind_gusts":60.1,"aqi":58,"pm10":13.4,"pm2_5":7.5,"no2":2.6,"co":147.0,"o3":82.0,"so2":2.2,"mosquito_risk":0,"arthritis_risk":5,"migraine_risk":7,"frizz_risk":1,"updated_at":"2026-07-23T17:21:41.798236+05:30"},{"city":"Alappuzha","state":"Kerala","latitude":9.4981,"longitude":76.3388,"temp":28.4,"humidity":81,"rain":0.0,"pressure":1008.7,"uv_index":7.9,"wind_gusts":29.5,"aqi":55,"pm10":19.0,"pm2_5":13.2,"no2":5.0,"co":98.0,"o3":75.0,"so2":3.9,"mosquito_risk":7,"arthritis_risk":0,"migraine_risk":4,"frizz_risk":1,"updated_at":"2026-07-23T17:21:41.798242+05:30"},{"city":"Munnar","state":"Kerala","latitude":10.0889,"longitude":77.0595,"temp":18.6,"humidity":92,"rain":0.1,"pressure":856.9,"uv_index":7.85,"wind_gusts":32.4,"aqi":31,"pm10":12.9,"pm2_5":5.9,"no2":2.4,"co":106.0,"o3":60.0,"so2":1.4,"mosquito_risk":6,"arthritis_risk":10,"migraine_risk":7,"frizz_risk":1,"updated_at":"2026-07-23T17:21:41.798249+05:30"},{"city":"Silchar","state":"Assam","latitude":24.8333,"longitude":92.7789,"temp":27.6,"humidity":89,"rain":0.2,"pressure":999.6,"uv_index":6.1,"wind_gusts":31.0,"aqi":53,"pm10":6.1,"pm2_5":5.3,"no2":2.6,"co":174.0,"o3":75.0,"so2":2.3,"mosquito_risk":10,"arthritis_risk":5,"migraine_risk":7,"frizz_risk":1,"updated_at":"2026-07-23T17:21:41.798255+05:30"},{"city":"Dibrugarh","state":"Assam","latitude":27.4728,"longitude":94.912,"temp":30.7,"humidity":76,"rain":0.0,"pressure":987.9,"uv_index":7.75,"wind_gusts":29.2,"aqi":52,"pm10":5.2,"pm2_5":5.0,"no2":3.5,"co":193.0,"o3":85.0,"so2":1.0,"mosquito_risk":3,"arthritis_risk":5,"migraine_risk":7,"frizz_risk":1,"updated_at":"2026-07-23T17:21:41.798260+05:30"}]