[{"city":"Delhi","state":"Delhi","latitude":28.6139,"longitude":77.209,"temp":34.3,"humidity":22,"rain":0.0,"pressure":979.5,"uv_index":7.45,"wind_gusts":50.4,"aqi":549,"pm10":342.7,"pm2_5":96.6,"mosquito_risk":0,"arthritis_risk":5,"migraine_risk":7,"frizz_risk":0,"updated_at":"2026-04-27T08:54:44.225663+05:30"},{"city":"Mumbai","state":"Maharashtra","latitude":19.076,"longitude":72.8777,"temp":30.0,"humidity":73,"rain":0.0,"pressure":1007.9,"uv_index":8.05,"wind_gusts":41.0,"aqi":92,"pm10":72.9,"pm2_5":31.3,"mosquito_risk":7,"arthritis_risk":5,"migraine_risk":4,"frizz_risk":1,"updated_at":"2026-04-27T08:54:44.225712+05:30"},{"city":"Bangalore","state":"Karnataka","latitude":12.9716,"longitude":77.5946,"temp":27.8,"humidity":51,"rain":0.0,"pressure":913.2,"uv_index":9.55,"wind_gusts":34.6,"aqi":84,"pm10":40.7,"pm2_5":36.4,"mosquito_risk":4,"arthritis_risk":5,"migraine_risk":7,"frizz_risk":1,"updated_at":"2026-04-27T08:54:44.225728+05:30"},{"city":"Hyderabad","state":"Telangana","latitude":17.385,"longitude":78.4867,"temp":31.5,"humidity":44,"rain":0.0,"pressure":953.7,"uv_index":9.25,"wind_gusts":30.2,"aqi":96,"pm10":25.6,"pm2_5":21.4,"mosquito_risk":0,"arthritis_risk":5,"migraine_risk":7,"frizz_risk":1,"updated_at":"2026-04-27T08:54:44.225739+05:30"},{"city":"Chennai","state":"Tamil Nadu","latitude":13.0827,"longitude":80.2707,"temp":31.6,"humidity":65,"rain":0.0,"pressure":1007.6,"uv_index":9.25,"wind_gusts":55.8,"aqi":52,"pm10":21.0,"pm2_5":14.4,"mosquito_risk":3,"arthritis_risk":5,"migraine_risk":4,"frizz_risk":1,"updated_at":"2026-04-27T08:54:44.225748+05:30"},{"city":"Kolkata","state":"West Bengal","latitude":22.5726,"longitude":88.3639,"temp":31.6,"humidity":67,"rain":0.0,"pressure":1003.2,"uv_index":8.85,"wind_gusts":52.2,"aqi":58,"pm10":21.2,"pm2_5":15.6,"mosquito_risk":3,"arthritis_risk":5,"migraine_risk":4,"frizz_risk":1,"updated_at":"2026-04-27T08:54:44.225757+05:30"},{"city":"Pune","state":"Maharashtra","latitude":18.5204,"longitude":73.8567,"temp":30.8,"humidity":39,"rain":0.0,"pressure":948.5,"uv_index":8.55,"wind_gusts":45.7,"aqi":69,"pm10":49.1,"pm2_5":23.2,"mosquito_risk":0,"arthritis_risk":5,"migraine_risk":7,"frizz_risk":0,"updated_at":"2026-04-27T08:54:44.225770+05:30"},{"city":"Ahmedabad","state":"Gujarat","latitude":23.0225,"longitude":72.5714,"temp":32.2,"humidity":35,"rain":0.0,"pressure":1000.6,"uv_index":8.2,"wind_gusts":44.6,"aqi":54,"pm10":25.0,"pm2_5":12.7,"mosquito_risk":0,"arthritis_risk":5,"migraine_risk":4,"frizz_risk":0,"updated_at":"2026-04-27T08:54:44.225778+05:30"},{"city":"Jaipur","state":"Rajasthan","latitude":26.9124,"longitude":75.7873,"temp":34.3,"humidity":21,"rain":0.0,"pressure":957.5,"uv_index":8.05,"wind_gusts":43.6,"aqi":126,"pm10":115.5,"pm2_5":29.7,"mosquito_risk":0,"arthritis_risk":5,"migraine_risk":7,"frizz_risk":0,"updated_at":"2026-04-27T08:54:44.225787+05:30"},{"city":"Lucknow","state":"Uttar Pradesh","latitude":26.8467,"longitude":80.9462,"temp":30.5,"humidity":54,"rain":0.0,"pressure":990.0,"uv_index":7.9,"wind_gusts":45.7,"aqi":151,"pm10":71.0,"pm2_5":54.4,"mosquito_risk":0,"arthritis_risk":5,"migraine_risk":7,"frizz_risk":1,"updated_at":"2026-04-27T08:54:44.225796+05:30"},{"city":"Kanpur","state":"Uttar Pradesh","latitude":26.4499,"longitude":80.3319,"temp":32.7,"humidity":47,"rain":0.0,"pressure":987.8,"uv_index":7.95,"wind_gusts":47.5,"aqi":340,"pm10":207.2,"pm2_5":60.8,"mosquito_risk":0,"arthritis_risk":5,"migraine_risk":7,"frizz_risk":1,"updated_at":"2026-04-27T08:54:44.225803+05:30"},{"city":"Chandigarh","state":"Chandigarh","latitude":30.7333,"longitude":76.7794,"temp":34.7,"humidity":18,"rain":0.0,"pressure":965.1,"uv_index":7.4,"wind_gusts":45.7,"aqi":52,"pm10":13.1,"pm2_5":11.6,"mosquito_risk":0,"arthritis_risk":5,"migraine_risk":7,"frizz_risk":0,"updated_at":"2026-04-27T08:54:44.225811+05:30"},{"city":"Srinagar","state":"Jammu and Kashmir","latitude":34.0837,"longitude":74.7973,"temp":16.0,"humidity":61,"rain":0.0,"pressure":841.4,"uv_index":8.2,"wind_gusts":19.8,"aqi":57,"pm10":22.6,"pm2_5":16.1,"mosquito_risk":3,"arthritis_risk":5,"migraine_risk":7,"frizz_risk":0,"updated_at":"2026-04-27T08:54:44.225820+05:30"},{"city":"Jammu","state":"Jammu and Kashmir","latitude":32.7266,"longitude":74.857,"temp":29.5,"humidity":29,"rain":0.0,"pressure":968.7,"uv_index":8.25,"wind_gusts":30.6,"aqi":59,"pm10":24.3,"pm2_5":21.1,"mosquito_risk":4,"arthritis_risk":5,"migraine_risk":7,"frizz_risk":0,"updated_at":"2026-04-27T08:54:44.225827+05:30"},{"city":"Amritsar","state":"Punjab","latitude":31.634,"longitude":74.8723,"temp":29.9,"humidity":31,"rain":0.0,"pressure":976.6,"uv_index":8.15,"wind_gusts":27.0,"aqi":61,"pm10":28.3,"pm2_5":26.5,"mosquito_risk":4,"arthritis_risk":5,"migraine_risk":7,"frizz_risk":0,"updated_at":"2026-04-27T08:54:44.225834+05:30"},{"city":"Ludhiana","state":"Punjab","latitude":30.901,"longitude":75.8573,"temp":30.0,"humidity":30,"rain":0.0,"pressure":974.7,"uv_index":7.7,"wind_gusts":36.0,"aqi":69,"pm10":27.0,"pm2_5":25.5,"mosquito_risk":4,"arthritis_risk":5,"migraine_risk":7,"frizz_risk":0,"updated_at":"2026-04-27T08:54:44.225841+05:30"},{"city":"Jalandhar","state":"Punjab","latitude":31.326,"longitude":75.5762,"temp":29.9,"humidity":31,"rain":0.0,"pressure":975.6,"uv_index":7.8,"wind_gusts":29.5,"aqi":78,"pm10":35.2,"pm2_5":32.8,"mosquito_risk":4,"arthritis_risk":5,"migraine_risk":7,"frizz_risk":0,"updated_at":"2026-04-27T08:54:44.225851+05:30"},{"city":"Dehradun","state":"Uttarakhand","latitude":30.6284,"longitude":78.0322,"temp":23.6,"humidity":30,"rain":0.0,"pressure":830.8,"uv_index":7.9,"wind_gusts":42.1,"aqi":32,"pm10":10.7,"pm2_5":4.8,"mosquito_risk":0,"arthritis_risk":5,"migraine_risk":7,"frizz_risk":0,"updated_at":"2026-04-27T08:54:44.225858+05:30"},{"city":"Shimla","state":"Himachal Pradesh","latitude":31.1048,"longitude":77.1734,"temp":20.8,"humidity":25,"rain":0.0,"pressure":785.6,"uv_index":7.75,"wind_gusts":51.1,"aqi":38,"pm10":9.2,"pm2_5":4.9,"mosquito_risk":0,"arthritis_risk":5,"migraine_risk":7,"frizz_risk":0,"updated_at":"2026-04-27T08:54:44.225865+05:30"},{"city":"Manali","state":"Himachal Pradesh","latitude":32.2396,"longitude":77.1887,"temp":20.3,"humidity":19,"rain":0.0,"pressure":818.1,"uv_index":9.3,"wind_gusts":42.5,"aqi":52,"pm10":9.8,"pm2_5":5.3,"mosquito_risk":0,"arthritis_risk":5,"migraine_risk":7,"frizz_risk":1,"updated_at":"2026-04-27T08:54:44.225872+05:30"},{"city":"Gurgaon","state":"Haryana","latitude":28.4595,"longitude":77.0266,"temp":33.2,"humidity":23,"rain":0.0,"pressure":978.0,"uv_index":7.55,"wind_gusts":49.0,"aqi":1180,"pm10":635.2,"pm2_5":119.7,"mosquito_risk":0,"arthritis_risk":5,"migraine_risk":7,"frizz_risk":0,"updated_at":"2026-04-27T08:54:44.225879+05:30"},{"city":"Noida","state":"Uttar Pradesh","latitude":28.5355,"longitude":77.391,"temp":34.2,"humidity":24,"rain":0.0,"pressure":980.8,"uv_index":7.45,"wind_gusts":45.7,"aqi":1180,"pm10":635.2,"pm2_5":119.7,"mosquito_risk":0,"arthritis_risk":5,"migraine_risk":7,"frizz_risk":0,"updated_at":"2026-04-27T08:54:44.225885+05:30"},{"city":"Ghaziabad","state":"Uttar Pradesh","latitude":28.6692,"longitude":77.4538,"temp":34.3,"humidity":21,"rain":0.0,"pressure":979.0,"uv_index":7.45,"wind_gusts":43.9,"aqi":479,"pm10":347.4,"pm2_5":95.9,"mosquito_risk":0,"arthritis_risk":5,"migraine_risk":7,"frizz_risk":0,"updated_at":"2026-04-27T08:54:44.225892+05:30"},{"city":"Faridabad","state":"Haryana","latitude":28.4089,"longitude":77.3178,"temp":34.2,"humidity":21,"rain":0.0,"pressure":980.0,"uv_index":7.5,"wind_gusts":50.8,"aqi":1180,"pm10":635.2,"pm2_5":119.7,"mosquito_risk":0,"arthritis_risk":5,"migraine_risk":7,"frizz_risk":0,"updated_at":"2026-04-27T08:54:44.225899+05:30"},{"city":"Meerut","state":"Uttar Pradesh","latitude":28.9845,"longitude":77.7064,"temp":31.6,"humidity":31,"rain":0.0,"pressure":977.8,"uv_index":7.35,"wind_gusts":37.4,"aqi":479,"pm10":347.4,"pm2_5":95.9,"mosquito_risk":0,"arthritis_risk":5,"migraine_risk":7,"frizz_risk":0,"updated_at":"2026-04-27T08:54:44.225905+05:30"},{"city":"Agra","state":"Uttar Pradesh","latitude":27.1767,"longitude":78.0081,"temp":34.9,"humidity":24,"rain":0.0,"pressure":984.0,"uv_index":7.8,"wind_gusts":46.1,"aqi":538,"pm10":905.2,"pm2_5":158.3,"mosquito_risk":0,"arthritis_risk":5,"migraine_risk":7,"frizz_risk":0,"updated_at":"2026-04-27T08:54:44.225912+05:30"},{"city":"Varanasi","state":"Uttar Pradesh","latitude":25.3176,"longitude":82.9739,"temp":30.5,"humidity":59,"rain":0.0,"pressure":993.7,"uv_index":8.5,"wind_gusts":47.5,"aqi":140,"pm10":69.4,"pm2_5":58.9,"mosquito_risk":0,"arthritis_risk":5,"migraine_risk":7,"frizz_risk":1,"updated_at":"2026-04-27T08:54:44.225921+05:30"},{"city":"Prayagraj","state":"Uttar Pradesh","latitude":25.4358,"longitude":81.8463,"temp":31.9,"humidity":56,"rain":0.0,"pressure":992.3,"uv_index":8.4,"wind_gusts":44.6,"aqi":133,"pm10":73.8,"pm2_5":55.4,"mosquito_risk":0,"arthritis_risk":5,"migraine_risk":7,"frizz_risk":1,"updated_at":"2026-04-27T08:54:44.225929+05:30"},{"city":"Gorakhpur","state":"Uttar Pradesh","latitude":26.7606,"longitude":83.3732,"temp":28.0,"humidity":57,"rain":0.0,"pressure":994.6,"uv_index":8.35,"wind_gusts":38.9,"aqi":133,"pm10":63.3,"pm2_5":50.1,"mosquito_risk":4,"arthritis_risk":5,"migraine_risk":7,"frizz_risk":1,"updated_at":"2026-04-27T08:54:44.225937+05:30"},{"city":"Bareilly","state":"Uttar Pradesh","latitude":28.367,"longitude":79.4304,"temp":29.1,"humidity":59,"rain":0.0,"pressure":983.4,"uv_index":7.7,"wind_gusts":45.4,"aqi":99,"pm10":80.8,"pm2_5":50.8,"mosquito_risk":4,"arthritis_risk":5,"migraine_risk":7,"frizz_risk":1,"updated_at":"2026-04-27T08:54:44.225944+05:30"},{"city":"Aligarh","state":"Uttar Pradesh","latitude":27.8974,"longitude":78.088,"temp":34.8,"humidity":21,"rain":0.0,"pressure":981.8,"uv_index":7.6,"wind_gusts":47.2,"aqi":826,"pm10":499.2,"pm2_5":111.8,"mosquito_risk":0,"arthritis_risk":5,"migraine_risk":7,"frizz_risk":0,"updated_at":"2026-04-27T08:54:44.225953+05:30"},{"city":"Moradabad","state":"Uttar Pradesh","latitude":28.8386,"longitude":78.7733,"temp":29.0,"humidity":55,"rain":0.0,"pressure":980.4,"uv_index":7.55,"wind_gusts":47.2,"aqi":134,"pm10":149.0,"pm2_5":60.1,"mosquito_risk":4,"arthritis_risk":5,"migraine_risk":7,"frizz_risk":1,"updated_at":"2026-04-27T08:54:44.225960+05:30"},{"city":"Saharanpur","state":"Uttar Pradesh","latitude":29.9637,"longitude":77.546,"temp":28.0,"humidity":37,"rain":0.0,"pressure":971.8,"uv_index":7.1,"wind_gusts":47.5,"aqi":85,"pm10":37.0,"pm2_5":32.8,"mosquito_risk":4,"arthritis_risk":5,"migraine_risk":7,"frizz_risk":0,"updated_at":"2026-04-27T08:54:44.225967+05:30"},{"city":"Jhansi","state":"Uttar Pradesh","latitude":25.4484,"longitude":78.5685,"temp":36.8,"humidity":19,"rain":0.0,"pressure":974.5,"uv_index":8.3,"wind_gusts":46.1,"aqi":81,"pm10":31.1,"pm2_5":17.4,"mosquito_risk":0,"arthritis_risk":5,"migraine_risk":10,"frizz_risk":0,"updated_at":"2026-04-27T08:54:47.492021+05:30"},{"city":"Surat","state":"Gujarat","latitude":21.1702,"longitude":72.8311,"temp":32.8,"humidity":59,"rain":0.0,"pressure":1005.4,"uv_index":7.85,"wind_gusts":41.0,"aqi":117,"pm10":51.1,"pm2_5":37.7,"mosquito_risk":0,"arthritis_risk":5,"migraine_risk":4,"frizz_risk":1,"updated_at":"2026-04-27T08:54:47.492055+05:30"},{"city":"Vadodara","state":"Gujarat","latitude":22.3072,"longitude":73.1812,"temp":33.1,"humidity":29,"rain":0.0,"pressure":1003.1,"uv_index":8.15,"wind_gusts":46.1,"aqi":81,"pm10":27.6,"pm2_5":19.8,"mosquito_risk":0,"arthritis_risk":5,"migraine_risk":4,"frizz_risk":0,"updated_at":"2026-04-27T08:54:47.492068+05:30"},{"city":"Rajkot","state":"Gujarat","latitude":22.3039,"longitude":70.8022,"temp":31.0,"humidity":44,"rain":0.0,"pressure":993.1,"uv_index":7.9,"wind_gusts":48.6,"aqi":53,"pm10":28.6,"pm2_5":11.6,"mosquito_risk":0,"arthritis_risk":5,"migraine_risk":7,"frizz_risk":1,"updated_at":"2026-04-27T08:54:47.492077+05:30"},{"city":"Thane","state":"Maharashtra","latitude":19.2183,"longitude":72.9781,"temp":30.0,"humidity":73,"rain":0.0,"pressure":1007.4,"uv_index":8.05,"wind_gusts":36.7,"aqi":92,"pm10":72.9,"pm2_5":31.3,"mosquito_risk":7,"arthritis_risk":5,"migraine_risk":4,"frizz_risk":1,"updated_at":"2026-04-27T08:54:47.492085+05:30"},{"city":"Nagpur","state":"Maharashtra","latitude":21.1458,"longitude":79.0882,"temp":35.5,"humidity":22,"rain":0.0,"pressure":972.0,"uv_index":8.7,"wind_gusts":31.7,"aqi":85,"pm10":46.8,"pm2_5":40.0,"mosquito_risk":0,"arthritis_risk":5,"migraine_risk":10,"frizz_risk":0,"updated_at":"2026-04-27T08:54:47.492093+05:30"},{"city":"Nashik","state":"Maharashtra","latitude":19.9975,"longitude":73.7898,"temp":31.9,"humidity":33,"rain":0.0,"pressure":945.6,"uv_index":8.3,"wind_gusts":40.0,"aqi":80,"pm10":67.5,"pm2_5":27.9,"mosquito_risk":0,"arthritis_risk":5,"migraine_risk":7,"frizz_risk":0,"updated_at":"2026-04-27T08:54:47.492100+05:30"},{"city":"Aurangabad","state":"Maharashtra","latitude":19.8762,"longitude":75.3433,"temp":34.0,"humidity":20,"rain":0.0,"pressure":944.4,"uv_index":9.05,"wind_gusts":33.5,"aqi":60,"pm10":33.3,"pm2_5":20.0,"mosquito_risk":0,"arthritis_risk":5,"migraine_risk":7,"frizz_risk":0,"updated_at":"2026-04-27T08:54:47.492106+05:30"},{"city":"Solapur","state":"Maharashtra","latitude":17.6599,"longitude":75.9064,"temp":33.5,"humidity":35,"rain":0.0,"pressure":957.5,"uv_index":9.05,"wind_gusts":32.8,"aqi":102,"pm10":31.1,"pm2_5":24.3,"mosquito_risk":0,"arthritis_risk":5,"migraine_risk":7,"frizz_risk":0,"updated_at":"2026-04-27T08:54:47.492114+05:30"},{"city":"Kolhapur","state":"Maharashtra","latitude":16.705,"longitude":74.2433,"temp":28.7,"humidity":67,"rain":0.0,"pressure":948.7,"uv_index":7.65,"wind_gusts":46.1,"aqi":87,"pm10":37.1,"pm2_5":29.5,"mosquito_risk":7,"arthritis_risk":5,"migraine_risk":7,"frizz_risk":1,"updated_at":"2026-04-27T08:54:47.492122+05:30"},{"city":"Goa","state":"Goa","latitude":15.2993,"longitude":74.124,"temp":31.6,"humidity":69,"rain":0.0,"pressure":998.3,"uv_index":8.95,"wind_gusts":39.6,"aqi":80,"pm10":31.9,"pm2_5":19.6,"mosquito_risk":3,"arthritis_risk":5,"migraine_risk":7,"frizz_risk":1,"updated_at":"2026-04-27T08:54:47.492130+05:30"},{"city":"Jodhpur","state":"Rajasthan","latitude":26.2389,"longitude":73.0243,"temp":33.1,"humidity":25,"rain":0.0,"pressure":980.3,"uv_index":8.3,"wind_gusts":42.5,"aqi":90,"pm10":202.1,"pm2_5":37.7,"mosquito_risk":0,"arthritis_risk":5,"migraine_risk":7,"frizz_risk":0,"updated_at":"2026-04-27T08:54:47.492138+05:30"},{"city":"Udaipur","state":"Rajasthan","latitude":24.5854,"longitude":73.7125,"temp":34.2,"humidity":16,"rain":0.0,"pressure":945.3,"uv_index":8.75,"wind_gusts":45.7,"aqi":37,"pm10":33.2,"pm2_5":11.4,"mosquito_risk":0,"arthritis_risk":5,"migraine_risk":7,"frizz_risk":0,"updated_at":"2026-04-27T08:54:47.492145+05:30"},{"city":"Kota","state":"Rajasthan","latitude":25.2138,"longitude":75.8648,"temp":36.2,"humidity":18,"rain":0.0,"pressure":976.4,"uv_index":8.3,"wind_gusts":32.0,"aqi":77,"pm10":19.8,"pm2_5":14.3,"mosquito_risk":0,"arthritis_risk":5,"migraine_risk":10,"frizz_risk":0,"updated_at":"2026-04-27T08:54:47.492152+05:30"},{"city":"Bikaner","state":"Rajasthan","latitude":28.0229,"longitude":73.3119,"temp":34.5,"humidity":22,"rain":0.0,"pressure":977.7,"uv_index":8.1,"wind_gusts":65.5,"aqi":65,"pm10":111.3,"pm2_5":23.6,"mosquito_risk":0,"arthritis_risk":5,"migraine_risk":7,"frizz_risk":0,"updated_at":"2026-04-27T08:54:47.492159+05:30"},{"city":"Ajmer","state":"Rajasthan","latitude":26.4499,"longitude":74.6399,"temp":33.0,"humidity":22,"rain":0.0,"pressure":952.7,"uv_index":8.25,"wind_gusts":47.5,"aqi":57,"pm10":31.0,"pm2_5":11.3,"mosquito_risk":0,"arthritis_risk":5,"migraine_risk":7,"frizz_risk":0,"updated_at":"2026-04-27T08:54:47.492166+05:30"},{"city":"Gwalior","state":"Madhya Pradesh","latitude":26.2183,"longitude":78.1828,"temp":35.4,"humidity":22,"rain":0.0,"pressure":979.7,"uv_index":8.05,"wind_gusts":44.6,"aqi":89,"pm10":158.3,"pm2_5":35.3,"mosquito_risk":0,"arthritis_risk":5,"migraine_risk":10,"frizz_risk":0,"updated_at":"2026-04-27T08:54:47.492172+05:30"},{"city":"Indore","state":"Madhya Pradesh","latitude":22.7196,"longitude":75.8577,"temp":34.0,"humidity":19,"rain":0.0,"pressure":947.7,"uv_index":8.6,"wind_gusts":47.9,"aqi":74,"pm10":20.0,"pm2_5":13.7,"mosquito_risk":0,"arthritis_risk":5,"migraine_risk":7,"frizz_risk":0,"updated_at":"2026-04-27T08:54:47.492179+05:30"},{"city":"Bhopal","state":"Madhya Pradesh","latitude":23.2599,"longitude":77.4126,"temp":36.1,"humidity":14,"rain":0.0,"pressure":952.5,"uv_index":8.6,"wind_gusts":43.6,"aqi":75,"pm10":21.9,"pm2_5":15.8,"mosquito_risk":0,"arthritis_risk":5,"migraine_risk":10,"frizz_risk":0,"updated_at":"2026-04-27T08:54:47.492186+05:30"},{"city":"Jabalpur","state":"Madhya Pradesh","latitude":23.1815,"longitude":79.9864,"temp":35.7,"humidity":21,"rain":0.0,"pressure":960.0,"uv_index":8.75,"wind_gusts":38.9,"aqi":85,"pm10":53.2,"pm2_5":24.6,"mosquito_risk":0,"arthritis_risk":5,"migraine_risk":10,"frizz_risk":0,"updated_at":"2026-04-27T08:54:47.492192+05:30"},{"city":"Ujjain","state":"Madhya Pradesh","latitude":23.1765,"longitude":75.7885,"temp":34.1,"humidity":18,"rain":0.0,"pressure":953.1,"uv_index":8.55,"wind_gusts":47.5,"aqi":69,"pm10":22.1,"pm2_5":15.0,"mosquito_risk":0,"arthritis_risk":5,"migraine_risk":7,"frizz_risk":0,"updated_at":"2026-04-27T08:54:47.492199+05:30"},{"city":"Visakhapatnam","state":"Andhra Pradesh","latitude":17.6868,"longitude":83.2185,"temp":30.6,"humidity":68,"rain":0.0,"pressure":1003.7,"uv_index":9.2,"wind_gusts":52.9,"aqi":54,"pm10":23.4,"pm2_5":17.2,"mosquito_risk":3,"arthritis_risk":5,"migraine_risk":4,"frizz_risk":1,"updated_at":"2026-04-27T08:54:47.492206+05:30"},{"city":"Vijayawada","state":"Andhra Pradesh","latitude":16.5062,"longitude":80.648,"temp":32.7,"humidity":63,"rain":0.0,"pressure":1002.4,"uv_index":9.2,"wind_gusts":36.4,"aqi":56,"pm10":21.5,"pm2_5":14.7,"mosquito_risk":3,"arthritis_risk":5,"migraine_risk":4,"frizz_risk":1,"updated_at":"2026-04-27T08:54:47.492212+05:30"},{"city":"Guntur","state":"Andhra Pradesh","latitude":16.3067,"longitude":80.4365,"temp":32.8,"humidity":62,"rain":0.0,"pressure":1003.4,"uv_index":9.1,"wind_gusts":40.0,"aqi":57,"pm10":18.9,"pm2_5":14.0,"mosquito_risk":3,"arthritis_risk":5,"migraine_risk":4,"frizz_risk":1,"updated_at":"2026-04-27T08:54:47.492218+05:30"},{"city":"Nellore","state":"Andhra Pradesh","latitude":14.4426,"longitude":79.9865,"temp":31.6,"humidity":65,"rain":0.0,"pressure":1005.9,"uv_index":9.3,"wind_gusts":46.8,"aqi":55,"pm10":17.4,"pm2_5":14.0,"mosquito_risk":3,"arthritis_risk":5,"migraine_risk":4,"frizz_risk":1,"updated_at":"2026-04-27T08:54:47.492225+05:30"},{"city":"Kurnool","state":"Andhra Pradesh","latitude":15.8281,"longitude":78.0373,"temp":34.5,"humidity":32,"rain":0.0,"pressure":977.0,"uv_index":9.2,"wind_gusts":36.7,"aqi":83,"pm10":26.1,"pm2_5":24.2,"mosquito_risk":0,"arthritis_risk":5,"migraine_risk":7,"frizz_risk":0,"updated_at":"2026-04-27T08:54:47.492233+05:30"},{"city":"Kakinada","state":"Andhra Pradesh","latitude":16.9891,"longitude":82.2475,"temp":31.9,"humidity":63,"rain":0.0,"pressure":1007.6,"uv_index":9.05,"wind_gusts":40.7,"aqi":50,"pm10":24.2,"pm2_5":15.1,"mosquito_risk":3,"arthritis_risk":5,"migraine_risk":4,"frizz_risk":1,"updated_at":"2026-04-27T08:54:47.492240+05:30"},{"city":"Tirupati","state":"Andhra Pradesh","latitude":13.6288,"longitude":79.4192,"temp":30.8,"humidity":62,"rain":0.0,"pressure":991.8,"uv_index":8.95,"wind_gusts":45.7,"aqi":64,"pm10":20.6,"pm2_5":16.9,"mosquito_risk":3,"arthritis_risk":5,"migraine_risk":7,"frizz_risk":1,"updated_at":"2026-04-27T08:54:47.492246+05:30"},{"city":"Warangal","state":"Telangana","latitude":17.9689,"longitude":79.5941,"temp":31.3,"humidity":57,"rain":0.0,"pressure":978.6,"uv_index":8.85,"wind_gusts":38.9,"aqi":73,"pm10":17.8,"pm2_5":15.1,"mosquito_risk":0,"arthritis_risk":5,"migraine_risk":7,"frizz_risk":1,"updated_at":"2026-04-27T08:54:47.492253+05:30"},{"city":"Nizamabad","state":"Telangana","latitude":18.6725,"longitude":78.0941,"temp":35.7,"humidity":27,"rain":0.0,"pressure":964.1,"uv_index":9.1,"wind_gusts":32.8,"aqi":113,"pm10":40.0,"pm2_5":37.3,"mosquito_risk":0,"arthritis_risk":5,"migraine_risk":10,"frizz_risk":0,"updated_at":"2026-04-27T08:54:47.492259+05:30"},{"city":"Mysore","state":"Karnataka","latitude":12.2958,"longitude":76.6396,"temp":27.0,"humidity":70,"rain":0.0,"pressure":929.7,"uv_index":9.45,"wind_gusts":41.8,"aqi":97,"pm10":38.1,"pm2_5":33.6,"mosquito_risk":7,"arthritis_risk":5,"migraine_risk":7,"frizz_risk":1,"updated_at":"2026-04-27T08:54:47.492265+05:30"},{"city":"Mangalore","state":"Karnataka","latitude":12.9141,"longitude":74.856,"temp":30.7,"humidity":70,"rain":0.0,"pressure":1006.9,"uv_index":8.75,"wind_gusts":38.5,"aqi":78,"pm10":27.7,"pm2_5":21.3,"mosquito_risk":3,"arthritis_risk":5,"migraine_risk":4,"frizz_risk":1,"updated_at":"2026-04-27T08:54:47.492271+05:30"},{"city":"Hubli-Dharwad","state":"Karnataka","latitude":15.3647,"longitude":75.124,"temp":28.0,"humidity":71,"rain":0.0,"pressure":941.7,"uv_index":9.2,"wind_gusts":49.3,"aqi":87,"pm10":30.5,"pm2_5":24.6,"mosquito_risk":7,"arthritis_risk":5,"migraine_risk":7,"frizz_risk":1,"updated_at":"2026-04-27T08:54:47.492278+05:30"},{"city":"Belgaum","state":"Karnataka","latitude":15.8497,"longitude":74.4977,"temp":26.8,"humidity":74,"rain":0.0,"pressure":926.7,"uv_index":9.2,"wind_gusts":49.3,"aqi":93,"pm10":36.3,"pm2_5":29.8,"mosquito_risk":7,"arthritis_risk":5,"migraine_risk":7,"frizz_risk":1,"updated_at":"2026-04-27T08:54:50.756321+05:30"},{"city":"Coimbatore","state":"Tamil Nadu","latitude":11.0168,"longitude":76.9558,"temp":29.2,"humidity":61,"rain":0.0,"pressure":962.7,"uv_index":9.35,"wind_gusts":47.2,"aqi":77,"pm10":17.8,"pm2_5":15.9,"mosquito_risk":7,"arthritis_risk":5,"migraine_risk":7,"frizz_risk":1,"updated_at":"2026-04-27T08:54:50.756383+05:30"},{"city":"Madurai","state":"Tamil Nadu","latitude":9.9252,"longitude":78.1198,"temp":32.3,"humidity":52,"rain":0.0,"pressure":993.6,"uv_index":9.1,"wind_gusts":50.8,"aqi":46,"pm10":11.8,"pm2_5":11.1,"mosquito_risk":0,"arthritis_risk":5,"migraine_risk":7,"frizz_risk":1,"updated_at":"2026-04-27T08:54:50.756396+05:30"},{"city":"Trichy","state":"Tamil Nadu","latitude":10.7905,"longitude":78.7047,"temp":31.3,"humidity":63,"rain":0.0,"pressure":1000.5,"uv_index":8.65,"wind_gusts":46.1,"aqi":55,"pm10":13.2,"pm2_5":11.4,"mosquito_risk":3,"arthritis_risk":5,"migraine_risk":4,"frizz_risk":1,"updated_at":"2026-04-27T08:54:50.756404+05:30"},{"city":"Salem","state":"Tamil Nadu","latitude":11.6643,"longitude":78.146,"temp":30.7,"humidity":57,"rain":0.0,"pressure":978.3,"uv_index":9.1,"wind_gusts":33.1,"aqi":63,"pm10":14.3,"pm2_5":12.5,"mosquito_risk":0,"arthritis_risk":5,"migraine_risk":7,"frizz_risk":1,"updated_at":"2026-04-27T08:54:50.756412+05:30"},{"city":"Tirunelveli","state":"Tamil Nadu","latitude":8.7139,"longitude":77.7567,"temp":32.0,"humidity":55,"rain":0.0,"pressure":1003.5,"uv_index":9.1,"wind_gusts":43.9,"aqi":53,"pm10":21.8,"pm2_5":19.8,"mosquito_risk":0,"arthritis_risk":5,"migraine_risk":4,"frizz_risk":1,"updated_at":"2026-04-27T08:54:50.756421+05:30"},{"city":"Vellore","state":"Tamil Nadu","latitude":12.9165,"longitude":79.1325,"temp":31.0,"humidity":59,"rain":0.0,"pressure":985.2,"uv_index":9.15,"wind_gusts":40.3,"aqi":84,"pm10":27.2,"pm2_5":23.9,"mosquito_risk":0,"arthritis_risk":5,"migraine_risk":7,"frizz_risk":1,"updated_at":"2026-04-27T08:54:50.756431+05:30"},{"city":"Erode","state":"Tamil Nadu","latitude":11.341,"longitude":77.7172,"temp":31.0,"humidity":57,"rain":0.0,"pressure":989.9,"uv_index":9.25,"wind_gusts":50.8,"aqi":55,"pm10":21.0,"pm2_5":19.8,"mosquito_risk":0,"arthritis_risk":5,"migraine_risk":7,"frizz_risk":1,"updated_at":"2026-04-27T08:54:50.756439+05:30"},{"city":"Kochi","state":"Kerala","latitude":9.9312,"longitude":76.2673,"temp":29.1,"humidity":77,"rain":0.0,"pressure":1009.2,"uv_index":9.0,"wind_gusts":36.7,"aqi":85,"pm10":28.3,"pm2_5":25.4,"mosquito_risk":7,"arthritis_risk":0,"migraine_risk":4,"frizz_risk":1,"updated_at":"2026-04-27T08:54:50.756446+05:30"},{"city":"Thiruvananthapuram","state":"Kerala","latitude":8.5241,"longitude":76.9366,"temp":29.8,"humidity":72,"rain":0.0,"pressure":1008.1,"uv_index":8.25,"wind_gusts":37.4,"aqi":47,"pm10":18.8,"pm2_5":16.6,"mosquito_risk":7,"arthritis_risk":0,"migraine_risk":4,"frizz_risk":1,"updated_at":"2026-04-27T08:54:50.756454+05:30"},{"city":"Kozhikode","state":"Kerala","latitude":11.2588,"longitude":75.7804,"temp":28.5,"humidity":84,"rain":0.0,"pressure":1008.3,"uv_index":9.0,"wind_gusts":38.5,"aqi":58,"pm10":19.0,"pm2_5":16.1,"mosquito_risk":7,"arthritis_risk":0,"migraine_risk":4,"frizz_risk":1,"updated_at":"2026-04-27T08:54:50.756461+05:30"},{"city":"Thrissur","state":"Kerala","latitude":10.5276,"longitude":76.2144,"temp":29.9,"humidity":75,"rain":0.0,"pressure":1007.5,"uv_index":8.65,"wind_gusts":36.0,"aqi":81,"pm10":23.5,"pm2_5":21.0,"mosquito_risk":7,"arthritis_risk":5,"migraine_risk":4,"frizz_risk":1,"updated_at":"2026-04-27T08:54:50.756469+05:30"},{"city":"Kannur","state":"Kerala","latitude":11.8745,"longitude":75.3704,"temp":29.4,"humidity":79,"rain":0.0,"pressure":1007.5,"uv_index":9.05,"wind_gusts":41.8,"aqi":70,"pm10":21.8,"pm2_5":17.3,"mosquito_risk":7,"arthritis_risk":5,"migraine_risk":4,"frizz_risk":1,"updated_at":"2026-04-27T08:54:50.756476+05:30"},{"city":"Patna","state":"Bihar","latitude":25.5941,"longitude":85.1376,"temp":28.4,"humidity":64,"rain":0.0,"pressure":997.4,"uv_index":8.6,"wind_gusts":35.6,"aqi":138,"pm10":53.9,"pm2_5":46.1,"mosquito_risk":7,"arthritis_risk":5,"migraine_risk":7,"frizz_risk":1,"updated_at":"2026-04-27T08:54:50.756483+05:30"},{"city":"Gaya","state":"Bihar","latitude":24.7914,"longitude":85.0002,"temp":30.8,"humidity":61,"rain":0.0,"pressure":990.1,"uv_index":8.7,"wind_gusts":39.6,"aqi":129,"pm10":48.1,"pm2_5":44.4,"mosquito_risk":3,"arthritis_risk":5,"migraine_risk":7,"frizz_risk":1,"updated_at":"2026-04-27T08:54:50.756489+05:30"},{"city":"Muzaffarpur","state":"Bihar","latitude":26.1209,"longitude":85.3647,"temp":26.6,"humidity":71,"rain":0.0,"pressure":997.9,"uv_index":8.6,"wind_gusts":39.2,"aqi":142,"pm10":57.5,"pm2_5":49.4,"mosquito_risk":7,"arthritis_risk":5,"migraine_risk":7,"frizz_risk":1,"updated_at":"2026-04-27T08:54:50.756495+05:30"},{"city":"Bhagalpur","state":"Bihar","latitude":25.2425,"longitude":87.0117,"temp":26.0,"humidity":72,"rain":0.0,"pressure":999.2,"uv_index":8.55,"wind_gusts":43.2,"aqi":129,"pm10":36.0,"pm2_5":28.2,"mosquito_risk":7,"arthritis_risk":5,"migraine_risk":7,"frizz_risk":1,"updated_at":"2026-04-27T08:54:50.756501+05:30"},{"city":"Ranchi","state":"Jharkhand","latitude":23.3441,"longitude":85.3096,"temp":31.6,"humidity":45,"rain":0.0,"pressure":936.1,"uv_index":9.15,"wind_gusts":43.9,"aqi":106,"pm10":76.1,"pm2_5":36.3,"mosquito_risk":0,"arthritis_risk":5,"migraine_risk":7,"frizz_risk":1,"updated_at":"2026-04-27T08:54:50.756508+05:30"},{"city":"Jamshedpur","state":"Jharkhand","latitude":22.8046,"longitude":86.2029,"temp":34.6,"humidity":47,"rain":0.0,"pressure":987.6,"uv_index":9.0,"wind_gusts":48.6,"aqi":114,"pm10":44.5,"pm2_5":39.5,"mosquito_risk":0,"arthritis_risk":5,"migraine_risk":7,"frizz_risk":1,"updated_at":"2026-04-27T08:54:50.756514+05:30"},{"city":"Dhanbad","state":"Jharkhand","latitude":23.7957,"longitude":86.4304,"temp":32.3,"humidity":62,"rain":0.0,"pressure":976.7,"uv_index":8.95,"wind_gusts":58.7,"aqi":140,"pm10":66.6,"pm2_5":56.9,"mosquito_risk":3,"arthritis_risk":5,"migraine_risk":7,"frizz_risk":1,"updated_at":"2026-04-27T08:54:50.756521+05:30"},{"city":"Bokaro","state":"Jharkhand","latitude":23.6693,"longitude":86.1511,"temp":32.7,"humidity":59,"rain":0.0,"pressure":980.5,"uv_index":8.75,"wind_gusts":55.4,"aqi":142,"pm10":73.1,"pm2_5":58.6,"mosquito_risk":0,"arthritis_risk":5,"migraine_risk":7,"frizz_risk":1,"updated_at":"2026-04-27T08:54:50.756527+05:30"},{"city":"Bhubaneswar","state":"Odisha","latitude":20.2961,"longitude":85.8245,"temp":31.8,"humidity":70,"rain":0.0,"pressure":1000.9,"uv_index":9.1,"wind_gusts":55.1,"aqi":54,"pm10":18.6,"pm2_5":14.2,"mosquito_risk":3,"arthritis_risk":5,"migraine_risk":4,"frizz_risk":1,"updated_at":"2026-04-27T08:54:50.756534+05:30"},{"city":"Cuttack","state":"Odisha","latitude":20.4625,"longitude":85.8828,"temp":32.0,"humidity":70,"rain":0.0,"pressure":1002.7,"uv_index":9.15,"wind_gusts":50.4,"aqi":54,"pm10":18.6,"pm2_5":14.2,"mosquito_risk":3,"arthritis_risk":5,"migraine_risk":4,"frizz_risk":1,"updated_at":"2026-04-27T08:54:50.756540+05:30"},{"city":"Rourkela","state":"Odisha","latitude":22.2604,"longitude":84.8536,"temp":34.0,"humidity":48,"rain":0.0,"pressure":982.6,"uv_index":8.9,"wind_gusts":39.6,"aqi":116,"pm10":39.5,"pm2_5":38.0,"mosquito_risk":0,"arthritis_risk":5,"migraine_risk":7,"frizz_risk":1,"updated_at":"2026-04-27T08:54:50.756547+05:30"},{"city":"Raipur","state":"Chhattisgarh","latitude":21.2514,"longitude":81.6296,"temp":34.3,"humidity":35,"rain":0.0,"pressure":973.6,"uv_index":8.55,"wind_gusts":64.1,"aqi":101,"pm10":35.9,"pm2_5":33.2,"mosquito_risk":0,"arthritis_risk":5,"migraine_risk":7,"frizz_risk":1,"updated_at":"2026-04-27T08:54:50.756553+05:30"},{"city":"Bhilai","state":"Chhattisgarh","latitude":21.1938,"longitude":81.3509,"temp":33.7,"humidity":37,"rain":0.0,"pressure":973.9,"uv_index":8.8,"wind_gusts":52.2,"aqi":95,"pm10":33.1,"pm2_5":30.5,"mosquito_risk":0,"arthritis_risk":5,"migraine_risk":7,"frizz_risk":1,"updated_at":"2026-04-27T08:54:50.756560+05:30"},{"city":"Guwahati","state":"Assam","latitude":26.1158,"longitude":91.7086,"temp":20.1,"humidity":98,"rain":1.1,"pressure":1001.7,"uv_index":4.25,"wind_gusts":22.7,"aqi":115,"pm10":41.9,"pm2_5":32.1,"mosquito_risk":6,"arthritis_risk":5,"migraine_risk":0,"frizz_risk":1,"updated_at":"2026-04-27T08:54:50.756566+05:30"},{"city":"Agartala","state":"Tripura","latitude":23.8315,"longitude":91.2868,"temp":28.6,"humidity":76,"rain":0.0,"pressure":1004.7,"uv_index":6.2,"wind_gusts":59.0,"aqi":93,"pm10":34.1,"pm2_5":23.1,"mosquito_risk":7,"arthritis_risk":5,"migraine_risk":4,"frizz_risk":1,"updated_at":"2026-04-27T08:54:50.756573+05:30"},{"city":"Shillong","state":"Meghalaya","latitude":25.5788,"longitude":91.8933,"temp":17.4,"humidity":95,"rain":0.3,"pressure":854.7,"uv_index":4.2,"wind_gusts":43.9,"aqi":122,"pm10":14.7,"pm2_5":10.5,"mosquito_risk":6,"arthritis_risk":10,"migraine_risk":3,"frizz_risk":1,"updated_at":"2026-04-27T08:54:50.756580+05:30"},{"city":"Imphal","state":"Manipur","latitude":24.817,"longitude":93.9368,"temp":23.0,"humidity":68,"rain":0.0,"pressure":923.8,"uv_index":8.7,"wind_gusts":24.8,"aqi":159,"pm10":61.0,"pm2_5":35.6,"mosquito_risk":3,"arthritis_risk":5,"migraine_risk":7,"frizz_risk":1,"updated_at":"2026-04-27T08:54:50.756587+05:30"},{"city":"Aizawl","state":"Mizoram","latitude":23.7271,"longitude":92.7176,"temp":21.1,"humidity":71,"rain":0.0,"pressure":892.9,"uv_index":8.95,"wind_gusts":52.9,"aqi":99,"pm10":55.6,"pm2_5":28.2,"mosquito_risk":3,"arthritis_risk":5,"migraine_risk":7,"frizz_risk":0,"updated_at":"2026-04-27T08:54:50.756594+05:30"},{"city":"Kohima","state":"Nagaland","latitude":25.6701,"longitude":94.1077,"temp":20.1,"humidity":76,"rain":0.0,"pressure":854.9,"uv_index":2.25,"wind_gusts":26.3,"aqi":151,"pm10":42.4,"pm2_5":24.7,"mosquito_risk":3,"arthritis_risk":5,"migraine_risk":3,"frizz_risk":0,"updated_at":"2026-04-27T08:54:50.756601+05:30"},{"city":"Gangtok","state":"Sikkim","latitude":27.3314,"longitude":88.6138,"temp":17.5,"humidity":78,"rain":0.0,"pressure":835.3,"uv_index":8.8,"wind_gusts":41.0,"aqi":64,"pm10":16.1,"pm2_5":11.5,"mosquito_risk":3,"arthritis_risk":5,"migraine_risk":7,"frizz_risk":0,"updated_at":"2026-04-27T08:54:50.756607+05:30"},{"city":"Siliguri","state":"West Bengal","latitude":26.7271,"longitude":88.3953,"temp":24.5,"humidity":72,"rain":0.0,"pressure":992.2,"uv_index":8.45,"wind_gusts":30.6,"aqi":127,"pm10":61.2,"pm2_5":41.2,"mosquito_risk":3,"arthritis_risk":5,"migraine_risk":7,"frizz_risk":1,"updated_at":"2026-04-27T08:54:54.074508+05:30"},{"city":"Durgapur","state":"West Bengal","latitude":23.5204,"longitude":87.3119,"temp":31.0,"humidity":76,"rain":0.0,"pressure":991.5,"uv_index":8.85,"wind_gusts":47.9,"aqi":108,"pm10":43.2,"pm2_5":38.9,"mosquito_risk":3,"arthritis_risk":5,"migraine_risk":7,"frizz_risk":1,"updated_at":"2026-04-27T08:54:54.074538+05:30"},{"city":"Asansol","state":"West Bengal","latitude":23.6739,"longitude":86.9524,"temp":31.8,"humidity":70,"rain":0.0,"pressure":990.2,"uv_index":8.9,"wind_gusts":52.6,"aqi":114,"pm10":46.7,"pm2_5":41.6,"mosquito_risk":3,"arthritis_risk":5,"migraine_risk":7,"frizz_risk":1,"updated_at":"2026-04-27T08:54:54.074547+05:30"},{"city":"Pondicherry","state":"Puducherry","latitude":11.9139,"longitude":79.8145,"temp":30.6,"humidity":70,"rain":0.0,"pressure":1009.1,"uv_index":9.2,"wind_gusts":46.4,"aqi":50,"pm10":19.3,"pm2_5":13.5,"mosquito_risk":3,"arthritis_risk":0,"migraine_risk":4,"frizz_risk":1,"updated_at":"2026-04-27T08:54:54.074556+05:30"},{"city":"Port Blair","state":"Andaman and Nicobar Islands","latitude":11.6234,"longitude":92.7265,"temp":33.2,"humidity":56,"rain":0.0,"pressure":1007.8,"uv_index":9.1,"wind_gusts":35.6,"aqi":54,"pm10":18.7,"pm2_5":14.1,"mosquito_risk":0,"arthritis_risk":5,"migraine_risk":4,"frizz_risk":1,"updated_at":"2026-04-27T08:54:54.074564+05:30"},{"city":"Haridwar","state":"Uttarakhand","latitude":29.9457,"longitude":78.1642,"temp":28.4,"humidity":40,"rain":0.0,"pressure":970.6,"uv_index":7.25,"wind_gusts":31.3,"aqi":61,"pm10":19.6,"pm2_5":17.5,"mosquito_risk":4,"arthritis_risk":5,"migraine_risk":7,"frizz_risk":0,"updated_at":"2026-04-27T08:54:54.074571+05:30"},{"city":"Rishikesh","state":"Uttarakhand","latitude":30.0869,"longitude":78.2676,"temp":28.3,"humidity":46,"rain":0.0,"pressure":963.2,"uv_index":7.35,"wind_gusts":28.8,"aqi":57,"pm10":18.9,"pm2_5":13.8,"mosquito_risk":4,"arthritis_risk":5,"migraine_risk":7,"frizz_risk":0,"updated_at":"2026-04-27T08:54:54.074578+05:30"},{"city":"Nainital","state":"Uttarakhand","latitude":29.3919,"longitude":79.4542,"temp":21.9,"humidity":24,"rain":0.0,"pressure":806.2,"uv_index":8.2,"wind_gusts":38.2,"aqi":60,"pm10":43.1,"pm2_5":22.3,"mosquito_risk":0,"arthritis_risk":5,"migraine_risk":7,"frizz_risk":0,"updated_at":"2026-04-27T08:54:54.074586+05:30"},{"city":"Mussoorie","state":"Uttarakhand","latitude":30.4599,"longitude":78.0664,"temp":22.0,"humidity":30,"rain":0.0,"pressure":803.6,"uv_index":7.75,"wind_gusts":56.2,"aqi":53,"pm10":15.3,"pm2_5":10.9,"mosquito_risk":0,"arthritis_risk":5,"migraine_risk":7,"frizz_risk":0,"updated_at":"2026-04-27T08:54:54.074592+05:30"},{"city":"Dharamshala","state":"Himachal Pradesh","latitude":32.219,"longitude":76.3234,"temp":25.5,"humidity":27,"rain":0.0,"pressure":868.2,"uv_index":8.0,"wind_gusts":47.2,"aqi":33,"pm10":7.2,"pm2_5":2.8,"mosquito_risk":4,"arthritis_risk":5,"migraine_risk":7,"frizz_risk":0,"updated_at":"2026-04-27T08:54:54.074600+05:30"},{"city":"Dalhousie","state":"Himachal Pradesh","latitude":32.5387,"longitude":75.971,"temp":21.9,"humidity":33,"rain":0.0,"pressure":805.1,"uv_index":8.3,"wind_gusts":43.9,"aqi":53,"pm10":11.2,"pm2_5":6.7,"mosquito_risk":0,"arthritis_risk":5,"migraine_risk":7,"frizz_risk":0,"updated_at":"2026-04-27T08:54:54.074609+05:30"},{"city":"Patiala","state":"Punjab","latitude":30.3398,"longitude":76.3869,"temp":32.3,"humidity":25,"rain":0.0,"pressure":974.4,"uv_index":7.15,"wind_gusts":41.8,"aqi":386,"pm10":174.2,"pm2_5":42.4,"mosquito_risk":0,"arthritis_risk":5,"migraine_risk":7,"frizz_risk":0,"updated_at":"2026-04-27T08:54:54.074616+05:30"},{"city":"Bhatinda","state":"Punjab","latitude":30.211,"longitude":74.9455,"temp":34.5,"humidity":21,"rain":0.0,"pressure":979.9,"uv_index":8.0,"wind_gusts":50.4,"aqi":70,"pm10":32.9,"pm2_5":19.8,"mosquito_risk":0,"arthritis_risk":5,"migraine_risk":7,"frizz_risk":0,"updated_at":"2026-04-27T08:54:54.074623+05:30"},{"city":"Rohtak","state":"Haryana","latitude":28.8955,"longitude":76.6066,"temp":33.8,"humidity":21,"rain":0.0,"pressure":978.5,"uv_index":7.5,"wind_gusts":43.2,"aqi":690,"pm10":338.1,"pm2_5":82.7,"mosquito_risk":0,"arthritis_risk":5,"migraine_risk":7,"frizz_risk":0,"updated_at":"2026-04-27T08:54:54.074630+05:30"},{"city":"Panipat","state":"Haryana","latitude":29.3909,"longitude":76.9635,"temp":33.8,"humidity":21,"rain":0.0,"pressure":976.7,"uv_index":7.3,"wind_gusts":43.6,"aqi":1295,"pm10":440.5,"pm2_5":94.8,"mosquito_risk":0,"arthritis_risk":5,"migraine_risk":7,"frizz_risk":0,"updated_at":"2026-04-27T08:54:54.074638+05:30"},{"city":"Mathura","state":"Uttar Pradesh","latitude":27.4924,"longitude":77.6737,"temp":34.5,"humidity":24,"rain":0.0,"pressure":983.0,"uv_index":7.75,"wind_gusts":37.8,"aqi":752,"pm10":566.2,"pm2_5":116.6,"mosquito_risk":0,"arthritis_risk":5,"migraine_risk":7,"frizz_risk":0,"updated_at":"2026-04-27T08:54:54.074645+05:30"},{"city":"Vrindavan","state":"Uttar Pradesh","latitude":27.5823,"longitude":77.7027,"temp":34.1,"humidity":25,"rain":0.0,"pressure":983.5,"uv_index":7.7,"wind_gusts":38.9,"aqi":752,"pm10":566.2,"pm2_5":116.6,"mosquito_risk":0,"arthritis_risk":5,"migraine_risk":7,"frizz_risk":0,"updated_at":"2026-04-27T08:54:54.074651+05:30"},{"city":"Ayodhya","state":"Uttar Pradesh","latitude":26.7922,"longitude":82.1998,"temp":28.3,"humidity":58,"rain":0.0,"pressure":992.5,"uv_index":8.1,"wind_gusts":32.8,"aqi":129,"pm10":59.5,"pm2_5":48.1,"mosquito_risk":4,"arthritis_risk":5,"migraine_risk":7,"frizz_risk":1,"updated_at":"2026-04-27T08:54:54.074658+05:30"},{"city":"Ratlam","state":"Madhya Pradesh","latitude":23.3315,"longitude":75.0367,"temp":33.5,"humidity":22,"rain":0.0,"pressure":954.0,"uv_index":8.45,"wind_gusts":46.4,"aqi":59,"pm10":27.3,"pm2_5":15.3,"mosquito_risk":0,"arthritis_risk":5,"migraine_risk":7,"frizz_risk":0,"updated_at":"2026-04-27T08:54:54.074664+05:30"},{"city":"Sagar","state":"Madhya Pradesh","latitude":23.8388,"longitude":78.7378,"temp":35.2,"humidity":17,"rain":0.0,"pressure":948.9,"uv_index":8.65,"wind_gusts":49.3,"aqi":66,"pm10":34.8,"pm2_5":17.1,"mosquito_risk":0,"arthritis_risk":5,"migraine_risk":10,"frizz_risk":0,"updated_at":"2026-04-27T08:54:54.074671+05:30"},{"city":"Satna","state":"Madhya Pradesh","latitude":24.6005,"longitude":80.8322,"temp":36.0,"humidity":22,"rain":0.0,"pressure":968.7,"uv_index":8.65,"wind_gusts":52.6,"aqi":76,"pm10":60.5,"pm2_5":20.7,"mosquito_risk":0,"arthritis_risk":5,"migraine_risk":10,"frizz_risk":0,"updated_at":"2026-04-27T08:54:54.074678+05:30"},{"city":"Akola","state":"Maharashtra","latitude":20.7002,"longitude":77.0082,"temp":35.5,"humidity":21,"rain":0.0,"pressure":974.1,"uv_index":8.85,"wind_gusts":38.2,"aqi":59,"pm10":34.9,"pm2_5":25.1,"mosquito_risk":0,"arthritis_risk":5,"migraine_risk":10,"frizz_risk":0,"updated_at":"2026-04-27T08:54:54.074685+05:30"},{"city":"Amravati","state":"Maharashtra","latitude":20.9374,"longitude":77.7796,"temp":35.7,"humidity":20,"rain":0.0,"pressure":966.3,"uv_index":8.9,"wind_gusts":35.6,"aqi":65,"pm10":40.9,"pm2_5":27.8,"mosquito_risk":0,"arthritis_risk":5,"migraine_risk":10,"frizz_risk":0,"updated_at":"2026-04-27T08:54:54.074693+05:30"},{"city":"Latur","state":"Maharashtra","latitude":18.4088,"longitude":76.5604,"temp":35.7,"humidity":18,"rain":0.0,"pressure":940.4,"uv_index":9.1,"wind_gusts":39.2,"aqi":95,"pm10":29.3,"pm2_5":26.3,"mosquito_risk":0,"arthritis_risk":5,"migraine_risk":10,"frizz_risk":0,"updated_at":"2026-04-27T08:54:54.074700+05:30"},{"city":"Nanded","state":"Maharashtra","latitude":19.1383,"longitude":77.3091,"temp":36.2,"humidity":19,"rain":0.0,"pressure":968.1,"uv_index":9.0,"wind_gusts":35.3,"aqi":85,"pm10":40.4,"pm2_5":37.3,"mosquito_risk":0,"arthritis_risk":5,"migraine_risk":10,"frizz_risk":0,"updated_at":"2026-04-27T08:54:54.074706+05:30"},{"city":"Gulbarga","state":"Karnataka","latitude":17.3297,"longitude":76.8343,"temp":33.5,"humidity":39,"rain":0.0,"pressure":958.8,"uv_index":9.05,"wind_gusts":35.3,"aqi":104,"pm10":29.5,"pm2_5":24.5,"mosquito_risk":0,"arthritis_risk":5,"migraine_risk":7,"frizz_risk":1,"updated_at":"2026-04-27T08:54:54.074713+05:30"},{"city":"Bidar","state":"Karnataka","latitude":17.9104,"longitude":77.5199,"temp":33.4,"humidity":30,"rain":0.0,"pressure":936.1,"uv_index":9.1,"wind_gusts":34.9,"aqi":105,"pm10":36.4,"pm2_5":32.8,"mosquito_risk":0,"arthritis_risk":5,"migraine_risk":7,"frizz_risk":0,"updated_at":"2026-04-27T08:54:54.074719+05:30"},{"city":"Hospet","state":"Karnataka","latitude":15.2689,"longitude":76.3909,"temp":29.0,"humidity":70,"rain":0.0,"pressure":956.7,"uv_index":9.25,"wind_gusts":36.0,"aqi":97,"pm10":28.2,"pm2_5":25.1,"mosquito_risk":7,"arthritis_risk":5,"migraine_risk":7,"frizz_risk":1,"updated_at":"2026-04-27T08:54:54.074726+05:30"},{"city":"Tirupur","state":"Tamil Nadu","latitude":11.1085,"longitude":77.3411,"temp":30.2,"humidity":64,"rain":0.0,"pressure":976.0,"uv_index":9.35,"wind_gusts":33.1,"aqi":66,"pm10":22.1,"pm2_5":20.6,"mosquito_risk":3,"arthritis_risk":5,"migraine_risk":7,"frizz_risk":1,"updated_at":"2026-04-27T08:54:54.074733+05:30"},{"city":"Alappuzha","state":"Kerala","latitude":9.4981,"longitude":76.3388,"temp":29.0,"humidity":80,"rain":0.0,"pressure":1009.2,"uv_index":8.15,"wind_gusts":34.6,"aqi":74,"pm10":23.5,"pm2_5":20.2,"mosquito_risk":7,"arthritis_risk":0,"migraine_risk":4,"frizz_risk":1,"updated_at":"2026-04-27T08:54:54.074739+05:30"},{"city":"Munnar","state":"Kerala","latitude":10.0889,"longitude":77.0595,"temp":22.4,"humidity":42,"rain":0.0,"pressure":858.7,"uv_index":9.6,"wind_gusts":27.0,"aqi":69,"pm10":23.3,"pm2_5":21.8,"mosquito_risk":0,"arthritis_risk":5,"migraine_risk":7,"frizz_risk":0,"updated_at":"2026-04-27T08:54:54.074746+05:30"},{"city":"Silchar","state":"Assam","latitude":24.8333,"longitude":92.7789,"temp":22.9,"humidity":93,"rain":0.3,"pressure":1005.1,"uv_index":8.35,"wind_gusts":25.6,"aqi":160,"pm10":62.9,"pm2_5":41.1,"mosquito_risk":6,"arthritis_risk":5,"migraine_risk":4,"frizz_risk":1,"updated_at":"2026-04-27T08:54:54.074753+05:30"},{"city":"Dibrugarh","state":"Assam","latitude":27.4728,"longitude":94.912,"temp":22.8,"humidity":84,"rain":0.0,"pressure":996.5,"uv_index":6.1,"wind_gusts":27.0,"aqi":89,"pm10":65.4,"pm2_5":36.4,"mosquito_risk":3,"arthritis_risk":5,"migraine_risk":7,"frizz_risk":1,"updated_at":"2026-04-27T08:54:54.074760+05:30"}]