[{"city":"Delhi","state":"Delhi","latitude":28.6139,"longitude":77.209,"temp":33.3,"humidity":19,"rain":0.0,"pressure":978.1,"uv_index":7.75,"wind_gusts":34.9,"aqi":697,"pm10":482.4,"pm2_5":106.9,"no2":23.3,"co":270.0,"o3":52.0,"so2":9.8,"mosquito_risk":0,"arthritis_risk":5,"migraine_risk":7,"frizz_risk":0,"updated_at":"2026-05-22T02:23:46.173691+05:30"},{"city":"Mumbai","state":"Maharashtra","latitude":19.076,"longitude":72.8777,"temp":29.9,"humidity":76,"rain":0.0,"pressure":1006.8,"uv_index":7.45,"wind_gusts":34.2,"aqi":54,"pm10":21.4,"pm2_5":13.6,"no2":10.3,"co":182.0,"o3":41.0,"so2":7.4,"mosquito_risk":7,"arthritis_risk":5,"migraine_risk":4,"frizz_risk":1,"updated_at":"2026-05-22T02:23:46.173737+05:30"},{"city":"Bangalore","state":"Karnataka","latitude":12.9716,"longitude":77.5946,"temp":22.8,"humidity":91,"rain":0.4,"pressure":911.3,"uv_index":6.3,"wind_gusts":33.1,"aqi":43,"pm10":8.3,"pm2_5":7.9,"no2":17.5,"co":310.0,"o3":44.0,"so2":4.6,"mosquito_risk":6,"arthritis_risk":5,"migraine_risk":7,"frizz_risk":1,"updated_at":"2026-05-22T02:23:46.173753+05:30"},{"city":"Hyderabad","state":"Telangana","latitude":17.385,"longitude":78.4867,"temp":31.5,"humidity":47,"rain":0.0,"pressure":950.0,"uv_index":8.75,"wind_gusts":45.7,"aqi":102,"pm10":48.4,"pm2_5":36.8,"no2":14.3,"co":363.0,"o3":90.0,"so2":10.5,"mosquito_risk":0,"arthritis_risk":5,"migraine_risk":7,"frizz_risk":1,"updated_at":"2026-05-22T02:23:46.173764+05:30"},{"city":"Chennai","state":"Tamil Nadu","latitude":13.0827,"longitude":80.2707,"temp":27.7,"humidity":90,"rain":0.2,"pressure":1003.6,"uv_index":9.05,"wind_gusts":40.3,"aqi":74,"pm10":21.5,"pm2_5":18.0,"no2":15.0,"co":308.0,"o3":63.0,"so2":10.1,"mosquito_risk":10,"arthritis_risk":5,"migraine_risk":4,"frizz_risk":1,"updated_at":"2026-05-22T02:23:46.173773+05:30"},{"city":"Kolkata","state":"West Bengal","latitude":22.5726,"longitude":88.3639,"temp":29.3,"humidity":94,"rain":0.0,"pressure":1001.8,"uv_index":8.95,"wind_gusts":29.2,"aqi":117,"pm10":41.8,"pm2_5":35.0,"no2":6.1,"co":373.0,"o3":79.0,"so2":5.2,"mosquito_risk":7,"arthritis_risk":5,"migraine_risk":4,"frizz_risk":1,"updated_at":"2026-05-22T02:23:46.173781+05:30"},{"city":"Pune","state":"Maharashtra","latitude":18.5204,"longitude":73.8567,"temp":25.9,"humidity":83,"rain":0.0,"pressure":947.0,"uv_index":8.45,"wind_gusts":47.2,"aqi":58,"pm10":17.9,"pm2_5":13.7,"no2":11.5,"co":188.0,"o3":59.0,"so2":12.7,"mosquito_risk":7,"arthritis_risk":5,"migraine_risk":7,"frizz_risk":1,"updated_at":"2026-05-22T02:23:46.173787+05:30"},{"city":"Ahmedabad","state":"Gujarat","latitude":23.0225,"longitude":72.5714,"temp":32.8,"humidity":39,"rain":0.0,"pressure":999.5,"uv_index":8.2,"wind_gusts":35.6,"aqi":74,"pm10":31.8,"pm2_5":20.1,"no2":8.4,"co":163.0,"o3":59.0,"so2":4.7,"mosquito_risk":0,"arthritis_risk":5,"migraine_risk":7,"frizz_risk":1,"updated_at":"2026-05-22T02:23:46.173794+05:30"},{"city":"Jaipur","state":"Rajasthan","latitude":26.9124,"longitude":75.7873,"temp":31.6,"humidity":23,"rain":0.0,"pressure":957.0,"uv_index":8.25,"wind_gusts":41.4,"aqi":175,"pm10":303.6,"pm2_5":61.0,"no2":7.7,"co":208.0,"o3":62.0,"so2":4.8,"mosquito_risk":0,"arthritis_risk":5,"migraine_risk":7,"frizz_risk":0,"updated_at":"2026-05-22T02:23:46.173805+05:30"},{"city":"Lucknow","state":"Uttar Pradesh","latitude":26.8467,"longitude":80.9462,"temp":32.5,"humidity":38,"rain":0.0,"pressure":988.2,"uv_index":8.25,"wind_gusts":32.8,"aqi":261,"pm10":283.1,"pm2_5":85.9,"no2":17.6,"co":401.0,"o3":52.0,"so2":7.6,"mosquito_risk":0,"arthritis_risk":5,"migraine_risk":7,"frizz_risk":1,"updated_at":"2026-05-22T02:23:46.173812+05:30"},{"city":"Kanpur","state":"Uttar Pradesh","latitude":26.4499,"longitude":80.3319,"temp":33.5,"humidity":29,"rain":0.0,"pressure":986.6,"uv_index":8.25,"wind_gusts":39.6,"aqi":423,"pm10":364.1,"pm2_5":68.0,"no2":13.4,"co":231.0,"o3":54.0,"so2":6.2,"mosquito_risk":0,"arthritis_risk":5,"migraine_risk":7,"frizz_risk":0,"updated_at":"2026-05-22T02:23:46.173819+05:30"},{"city":"Chandigarh","state":"Chandigarh","latitude":30.7333,"longitude":76.7794,"temp":28.3,"humidity":36,"rain":0.0,"pressure":962.6,"uv_index":7.75,"wind_gusts":50.4,"aqi":94,"pm10":52.4,"pm2_5":31.7,"no2":19.0,"co":381.0,"o3":68.0,"so2":13.4,"mosquito_risk":4,"arthritis_risk":5,"migraine_risk":7,"frizz_risk":0,"updated_at":"2026-05-22T02:23:46.173826+05:30"},{"city":"Srinagar","state":"Jammu and Kashmir","latitude":34.0837,"longitude":74.7973,"temp":12.9,"humidity":98,"rain":0.0,"pressure":842.9,"uv_index":8.95,"wind_gusts":37.1,"aqi":67,"pm10":44.7,"pm2_5":25.1,"no2":28.5,"co":503.0,"o3":36.0,"so2":3.0,"mosquito_risk":3,"arthritis_risk":10,"migraine_risk":7,"frizz_risk":0,"updated_at":"2026-05-22T02:23:46.173833+05:30"},{"city":"Jammu","state":"Jammu and Kashmir","latitude":32.7266,"longitude":74.857,"temp":27.8,"humidity":40,"rain":0.0,"pressure":969.1,"uv_index":8.55,"wind_gusts":45.0,"aqi":83,"pm10":63.1,"pm2_5":32.9,"no2":26.3,"co":275.0,"o3":32.0,"so2":3.3,"mosquito_risk":4,"arthritis_risk":5,"migraine_risk":7,"frizz_risk":0,"updated_at":"2026-05-22T02:23:46.173839+05:30"},{"city":"Amritsar","state":"Punjab","latitude":31.634,"longitude":74.8723,"temp":29.9,"humidity":36,"rain":0.0,"pressure":976.2,"uv_index":8.45,"wind_gusts":45.4,"aqi":94,"pm10":54.7,"pm2_5":28.7,"no2":10.4,"co":274.0,"o3":85.0,"so2":7.0,"mosquito_risk":4,"arthritis_risk":5,"migraine_risk":7,"frizz_risk":0,"updated_at":"2026-05-22T02:23:46.173845+05:30"},{"city":"Ludhiana","state":"Punjab","latitude":30.901,"longitude":75.8573,"temp":29.7,"humidity":36,"rain":0.0,"pressure":972.7,"uv_index":8.0,"wind_gusts":32.8,"aqi":119,"pm10":41.4,"pm2_5":25.7,"no2":12.1,"co":644.0,"o3":65.0,"so2":5.9,"mosquito_risk":4,"arthritis_risk":5,"migraine_risk":7,"frizz_risk":0,"updated_at":"2026-05-22T02:23:46.173851+05:30"},{"city":"Jalandhar","state":"Punjab","latitude":31.326,"longitude":75.5762,"temp":29.5,"humidity":31,"rain":0.0,"pressure":974.4,"uv_index":7.7,"wind_gusts":34.2,"aqi":101,"pm10":69.6,"pm2_5":34.2,"no2":14.1,"co":368.0,"o3":62.0,"so2":6.2,"mosquito_risk":4,"arthritis_risk":5,"migraine_risk":7,"frizz_risk":0,"updated_at":"2026-05-22T02:23:46.173859+05:30"},{"city":"Dehradun","state":"Uttarakhand","latitude":30.6284,"longitude":78.0322,"temp":16.4,"humidity":59,"rain":0.0,"pressure":826.8,"uv_index":8.2,"wind_gusts":42.8,"aqi":71,"pm10":40.5,"pm2_5":23.2,"no2":32.8,"co":242.0,"o3":26.0,"so2":2.5,"mosquito_risk":0,"arthritis_risk":5,"migraine_risk":7,"frizz_risk":0,"updated_at":"2026-05-22T02:23:46.173865+05:30"},{"city":"Shimla","state":"Himachal Pradesh","latitude":31.1048,"longitude":77.1734,"temp":15.6,"humidity":40,"rain":0.0,"pressure":782.3,"uv_index":8.3,"wind_gusts":45.7,"aqi":71,"pm10":60.1,"pm2_5":26.6,"no2":20.7,"co":215.0,"o3":80.0,"so2":7.7,"mosquito_risk":0,"arthritis_risk":5,"migraine_risk":7,"frizz_risk":0,"updated_at":"2026-05-22T02:23:46.173873+05:30"},{"city":"Manali","state":"Himachal Pradesh","latitude":32.2396,"longitude":77.1887,"temp":11.9,"humidity":66,"rain":0.0,"pressure":816.1,"uv_index":7.75,"wind_gusts":50.4,"aqi":39,"pm10":6.7,"pm2_5":3.5,"no2":36.9,"co":207.0,"o3":75.0,"so2":0.0,"mosquito_risk":3,"arthritis_risk":5,"migraine_risk":7,"frizz_risk":0,"updated_at":"2026-05-22T02:23:46.173879+05:30"},{"city":"Gurgaon","state":"Haryana","latitude":28.4595,"longitude":77.0266,"temp":31.1,"humidity":21,"rain":0.0,"pressure":976.6,"uv_index":7.85,"wind_gusts":35.3,"aqi":1918,"pm10":1929.7,"pm2_5":285.9,"no2":19.3,"co":283.0,"o3":61.0,"so2":8.9,"mosquito_risk":0,"arthritis_risk":5,"migraine_risk":7,"frizz_risk":0,"updated_at":"2026-05-22T02:23:46.173888+05:30"},{"city":"Noida","state":"Uttar Pradesh","latitude":28.5355,"longitude":77.391,"temp":33.5,"humidity":19,"rain":0.0,"pressure":979.3,"uv_index":7.8,"wind_gusts":30.6,"aqi":1918,"pm10":1929.7,"pm2_5":285.9,"no2":19.3,"co":339.0,"o3":61.0,"so2":8.9,"mosquito_risk":0,"arthritis_risk":5,"migraine_risk":7,"frizz_risk":0,"updated_at":"2026-05-22T02:23:46.173894+05:30"},{"city":"Ghaziabad","state":"Uttar Pradesh","latitude":28.6692,"longitude":77.4538,"temp":33.3,"humidity":20,"rain":0.0,"pressure":977.6,"uv_index":7.75,"wind_gusts":31.3,"aqi":624,"pm10":391.2,"pm2_5":99.4,"no2":26.2,"co":362.0,"o3":49.0,"so2":14.8,"mosquito_risk":0,"arthritis_risk":5,"migraine_risk":7,"frizz_risk":0,"updated_at":"2026-05-22T02:23:46.173900+05:30"},{"city":"Faridabad","state":"Haryana","latitude":28.4089,"longitude":77.3178,"temp":33.2,"humidity":19,"rain":0.0,"pressure":978.7,"uv_index":7.85,"wind_gusts":38.5,"aqi":1918,"pm10":1929.7,"pm2_5":285.9,"no2":19.3,"co":292.0,"o3":61.0,"so2":8.9,"mosquito_risk":0,"arthritis_risk":5,"migraine_risk":7,"frizz_risk":0,"updated_at":"2026-05-22T02:23:46.173906+05:30"},{"city":"Meerut","state":"Uttar Pradesh","latitude":28.9845,"longitude":77.7064,"temp":32.6,"humidity":24,"rain":0.0,"pressure":976.3,"uv_index":7.65,"wind_gusts":29.2,"aqi":624,"pm10":391.2,"pm2_5":99.4,"no2":26.2,"co":291.0,"o3":49.0,"so2":14.8,"mosquito_risk":0,"arthritis_risk":5,"migraine_risk":7,"frizz_risk":0,"updated_at":"2026-05-22T02:23:46.173912+05:30"},{"city":"Agra","state":"Uttar Pradesh","latitude":27.1767,"longitude":78.0081,"temp":32.4,"humidity":20,"rain":0.0,"pressure":982.9,"uv_index":8.1,"wind_gusts":41.0,"aqi":914,"pm10":1400.7,"pm2_5":179.7,"no2":10.0,"co":212.0,"o3":67.0,"so2":5.1,"mosquito_risk":0,"arthritis_risk":5,"migraine_risk":7,"frizz_risk":0,"updated_at":"2026-05-22T02:23:46.173917+05:30"},{"city":"Varanasi","state":"Uttar Pradesh","latitude":25.3176,"longitude":82.9739,"temp":31.2,"humidity":74,"rain":0.0,"pressure":992.7,"uv_index":8.75,"wind_gusts":34.2,"aqi":142,"pm10":50.6,"pm2_5":28.1,"no2":23.8,"co":647.0,"o3":43.0,"so2":8.8,"mosquito_risk":3,"arthritis_risk":5,"migraine_risk":7,"frizz_risk":1,"updated_at":"2026-05-22T02:23:46.173924+05:30"},{"city":"Prayagraj","state":"Uttar Pradesh","latitude":25.4358,"longitude":81.8463,"temp":32.5,"humidity":27,"rain":0.0,"pressure":990.5,"uv_index":8.65,"wind_gusts":37.8,"aqi":151,"pm10":97.3,"pm2_5":42.7,"no2":26.9,"co":222.0,"o3":37.0,"so2":7.5,"mosquito_risk":0,"arthritis_risk":5,"migraine_risk":7,"frizz_risk":0,"updated_at":"2026-05-22T02:23:46.173930+05:30"},{"city":"Gorakhpur","state":"Uttar Pradesh","latitude":26.7606,"longitude":83.3732,"temp":29.4,"humidity":76,"rain":0.0,"pressure":993.3,"uv_index":8.65,"wind_gusts":32.0,"aqi":160,"pm10":71.9,"pm2_5":58.3,"no2":10.6,"co":494.0,"o3":95.0,"so2":8.4,"mosquito_risk":7,"arthritis_risk":5,"migraine_risk":7,"frizz_risk":1,"updated_at":"2026-05-22T02:23:46.173938+05:30"},{"city":"Bareilly","state":"Uttar Pradesh","latitude":28.367,"longitude":79.4304,"temp":28.4,"humidity":61,"rain":0.0,"pressure":981.3,"uv_index":8.05,"wind_gusts":23.8,"aqi":189,"pm10":471.2,"pm2_5":134.1,"no2":31.3,"co":471.0,"o3":50.0,"so2":12.2,"mosquito_risk":7,"arthritis_risk":5,"migraine_risk":7,"frizz_risk":1,"updated_at":"2026-05-22T02:23:46.173943+05:30"},{"city":"Aligarh","state":"Uttar Pradesh","latitude":27.8974,"longitude":78.088,"temp":31.0,"humidity":29,"rain":0.0,"pressure":980.4,"uv_index":7.9,"wind_gusts":30.6,"aqi":1130,"pm10":711.5,"pm2_5":135.0,"no2":21.1,"co":235.0,"o3":47.0,"so2":6.9,"mosquito_risk":0,"arthritis_risk":5,"migraine_risk":7,"frizz_risk":0,"updated_at":"2026-05-22T02:23:46.173949+05:30"},{"city":"Moradabad","state":"Uttar Pradesh","latitude":28.8386,"longitude":78.7733,"temp":30.9,"humidity":39,"rain":0.0,"pressure":978.2,"uv_index":7.9,"wind_gusts":26.3,"aqi":234,"pm10":363.2,"pm2_5":133.2,"no2":45.3,"co":455.0,"o3":23.0,"so2":17.0,"mosquito_risk":0,"arthritis_risk":5,"migraine_risk":7,"frizz_risk":0,"updated_at":"2026-05-22T02:23:46.173955+05:30"},{"city":"Saharanpur","state":"Uttar Pradesh","latitude":29.9637,"longitude":77.546,"temp":29.8,"humidity":32,"rain":0.0,"pressure":970.0,"uv_index":7.4,"wind_gusts":45.4,"aqi":155,"pm10":55.5,"pm2_5":34.3,"no2":18.5,"co":324.0,"o3":76.0,"so2":12.5,"mosquito_risk":4,"arthritis_risk":5,"migraine_risk":7,"frizz_risk":0,"updated_at":"2026-05-22T02:23:46.173961+05:30"},{"city":"Jhansi","state":"Uttar Pradesh","latitude":25.4484,"longitude":78.5685,"temp":31.7,"humidity":18,"rain":0.0,"pressure":973.9,"uv_index":8.5,"wind_gusts":45.0,"aqi":61,"pm10":25.8,"pm2_5":14.6,"no2":4.2,"co":152.0,"o3":71.0,"so2":1.5,"mosquito_risk":0,"arthritis_risk":5,"migraine_risk":7,"frizz_risk":0,"updated_at":"2026-05-22T02:23:49.443641+05:30"},{"city":"Surat","state":"Gujarat","latitude":21.1702,"longitude":72.8311,"temp":28.9,"humidity":85,"rain":0.0,"pressure":1004.6,"uv_index":7.75,"wind_gusts":40.3,"aqi":77,"pm10":28.2,"pm2_5":18.9,"no2":23.3,"co":341.0,"o3":28.0,"so2":39.2,"mosquito_risk":7,"arthritis_risk":5,"migraine_risk":4,"frizz_risk":1,"updated_at":"2026-05-22T02:23:49.443675+05:30"},{"city":"Vadodara","state":"Gujarat","latitude":22.3072,"longitude":73.1812,"temp":30.6,"humidity":61,"rain":0.0,"pressure":1001.8,"uv_index":8.15,"wind_gusts":40.7,"aqi":81,"pm10":31.3,"pm2_5":17.5,"no2":17.9,"co":148.0,"o3":38.0,"so2":21.5,"mosquito_risk":3,"arthritis_risk":5,"migraine_risk":4,"frizz_risk":1,"updated_at":"2026-05-22T02:23:49.443685+05:30"},{"city":"Rajkot","state":"Gujarat","latitude":22.3039,"longitude":70.8022,"temp":28.5,"humidity":71,"rain":0.0,"pressure":992.2,"uv_index":7.75,"wind_gusts":43.6,"aqi":69,"pm10":38.8,"pm2_5":20.1,"no2":6.5,"co":136.0,"o3":48.0,"so2":6.5,"mosquito_risk":7,"arthritis_risk":5,"migraine_risk":7,"frizz_risk":1,"updated_at":"2026-05-22T02:23:49.443694+05:30"},{"city":"Thane","state":"Maharashtra","latitude":19.2183,"longitude":72.9781,"temp":29.8,"humidity":76,"rain":0.0,"pressure":1006.2,"uv_index":7.7,"wind_gusts":31.7,"aqi":54,"pm10":21.4,"pm2_5":13.6,"no2":10.3,"co":200.0,"o3":41.0,"so2":7.4,"mosquito_risk":7,"arthritis_risk":5,"migraine_risk":4,"frizz_risk":1,"updated_at":"2026-05-22T02:23:49.443701+05:30"},{"city":"Nagpur","state":"Maharashtra","latitude":21.1458,"longitude":79.0882,"temp":35.6,"humidity":24,"rain":0.0,"pressure":968.5,"uv_index":8.95,"wind_gusts":46.4,"aqi":73,"pm10":34.9,"pm2_5":26.4,"no2":12.7,"co":255.0,"o3":68.0,"so2":9.1,"mosquito_risk":0,"arthritis_risk":5,"migraine_risk":10,"frizz_risk":0,"updated_at":"2026-05-22T02:23:49.443710+05:30"},{"city":"Nashik","state":"Maharashtra","latitude":19.9975,"longitude":73.7898,"temp":25.8,"humidity":77,"rain":0.0,"pressure":944.1,"uv_index":8.15,"wind_gusts":34.2,"aqi":50,"pm10":15.4,"pm2_5":8.8,"no2":6.2,"co":165.0,"o3":41.0,"so2":2.3,"mosquito_risk":7,"arthritis_risk":5,"migraine_risk":7,"frizz_risk":1,"updated_at":"2026-05-22T02:23:49.443716+05:30"},{"city":"Aurangabad","state":"Maharashtra","latitude":19.8762,"longitude":75.3433,"temp":30.5,"humidity":51,"rain":0.0,"pressure":942.2,"uv_index":8.3,"wind_gusts":49.7,"aqi":66,"pm10":26.4,"pm2_5":17.7,"no2":8.7,"co":175.0,"o3":61.0,"so2":6.2,"mosquito_risk":0,"arthritis_risk":5,"migraine_risk":7,"frizz_risk":1,"updated_at":"2026-05-22T02:23:49.443723+05:30"},{"city":"Solapur","state":"Maharashtra","latitude":17.6599,"longitude":75.9064,"temp":30.2,"humidity":58,"rain":0.0,"pressure":955.3,"uv_index":8.8,"wind_gusts":37.1,"aqi":79,"pm10":21.0,"pm2_5":16.9,"no2":8.0,"co":210.0,"o3":66.0,"so2":4.1,"mosquito_risk":0,"arthritis_risk":5,"migraine_risk":7,"frizz_risk":1,"updated_at":"2026-05-22T02:23:49.443731+05:30"},{"city":"Kolhapur","state":"Maharashtra","latitude":16.705,"longitude":74.2433,"temp":24.6,"humidity":88,"rain":0.0,"pressure":947.1,"uv_index":8.35,"wind_gusts":42.8,"aqi":55,"pm10":14.0,"pm2_5":10.8,"no2":7.1,"co":187.0,"o3":51.0,"so2":2.9,"mosquito_risk":3,"arthritis_risk":5,"migraine_risk":7,"frizz_risk":1,"updated_at":"2026-05-22T02:23:49.443738+05:30"},{"city":"Goa","state":"Goa","latitude":15.2993,"longitude":74.124,"temp":26.9,"humidity":90,"rain":0.0,"pressure":996.8,"uv_index":6.85,"wind_gusts":30.2,"aqi":46,"pm10":21.0,"pm2_5":17.0,"no2":8.8,"co":429.0,"o3":48.0,"so2":1.7,"mosquito_risk":7,"arthritis_risk":5,"migraine_risk":7,"frizz_risk":1,"updated_at":"2026-05-22T02:23:49.443745+05:30"},{"city":"Jodhpur","state":"Rajasthan","latitude":26.2389,"longitude":73.0243,"temp":31.8,"humidity":29,"rain":0.0,"pressure":979.9,"uv_index":8.45,"wind_gusts":37.4,"aqi":173,"pm10":244.0,"pm2_5":56.9,"no2":4.9,"co":165.0,"o3":58.0,"so2":2.6,"mosquito_risk":0,"arthritis_risk":5,"migraine_risk":7,"frizz_risk":0,"updated_at":"2026-05-22T02:23:49.443752+05:30"},{"city":"Udaipur","state":"Rajasthan","latitude":24.5854,"longitude":73.7125,"temp":28.5,"humidity":28,"rain":0.0,"pressure":944.0,"uv_index":8.85,"wind_gusts":40.7,"aqi":67,"pm10":36.3,"pm2_5":16.2,"no2":3.8,"co":158.0,"o3":75.0,"so2":2.4,"mosquito_risk":4,"arthritis_risk":5,"migraine_risk":7,"frizz_risk":0,"updated_at":"2026-05-22T02:23:49.443759+05:30"},{"city":"Kota","state":"Rajasthan","latitude":25.2138,"longitude":75.8648,"temp":31.8,"humidity":20,"rain":0.0,"pressure":975.9,"uv_index":8.45,"wind_gusts":43.6,"aqi":72,"pm10":37.0,"pm2_5":24.3,"no2":13.5,"co":196.0,"o3":43.0,"so2":4.8,"mosquito_risk":0,"arthritis_risk":5,"migraine_risk":7,"frizz_risk":0,"updated_at":"2026-05-22T02:23:49.443766+05:30"},{"city":"Bikaner","state":"Rajasthan","latitude":28.0229,"longitude":73.3119,"temp":33.5,"humidity":29,"rain":0.0,"pressure":977.5,"uv_index":8.4,"wind_gusts":38.5,"aqi":168,"pm10":332.5,"pm2_5":109.2,"no2":3.8,"co":141.0,"o3":54.0,"so2":2.0,"mosquito_risk":0,"arthritis_risk":5,"migraine_risk":7,"frizz_risk":0,"updated_at":"2026-05-22T02:23:49.443773+05:30"},{"city":"Ajmer","state":"Rajasthan","latitude":26.4499,"longitude":74.6399,"temp":30.1,"humidity":29,"rain":0.0,"pressure":952.1,"uv_index":8.4,"wind_gusts":44.6,"aqi":83,"pm10":87.5,"pm2_5":28.2,"no2":4.9,"co":162.0,"o3":66.0,"so2":4.0,"mosquito_risk":0,"arthritis_risk":5,"migraine_risk":7,"frizz_risk":0,"updated_at":"2026-05-22T02:23:49.443781+05:30"},{"city":"Gwalior","state":"Madhya Pradesh","latitude":26.2183,"longitude":78.1828,"temp":33.0,"humidity":18,"rain":0.0,"pressure":979.0,"uv_index":8.3,"wind_gusts":45.0,"aqi":70,"pm10":27.5,"pm2_5":15.1,"no2":5.0,"co":148.0,"o3":72.0,"so2":2.5,"mosquito_risk":0,"arthritis_risk":5,"migraine_risk":7,"frizz_risk":0,"updated_at":"2026-05-22T02:23:49.443787+05:30"},{"city":"Indore","state":"Madhya Pradesh","latitude":22.7196,"longitude":75.8577,"temp":31.4,"humidity":26,"rain":0.0,"pressure":946.0,"uv_index":8.7,"wind_gusts":43.2,"aqi":73,"pm10":43.3,"pm2_5":23.9,"no2":4.1,"co":222.0,"o3":89.0,"so2":4.6,"mosquito_risk":0,"arthritis_risk":5,"migraine_risk":7,"frizz_risk":0,"updated_at":"2026-05-22T02:23:49.443794+05:30"},{"city":"Bhopal","state":"Madhya Pradesh","latitude":23.2599,"longitude":77.4126,"temp":32.2,"humidity":24,"rain":0.0,"pressure":951.1,"uv_index":8.7,"wind_gusts":42.5,"aqi":68,"pm10":35.9,"pm2_5":25.1,"no2":9.3,"co":264.0,"o3":53.0,"so2":4.7,"mosquito_risk":0,"arthritis_risk":5,"migraine_risk":7,"frizz_risk":0,"updated_at":"2026-05-22T02:23:49.443800+05:30"},{"city":"Jabalpur","state":"Madhya Pradesh","latitude":23.1815,"longitude":79.9864,"temp":31.6,"humidity":21,"rain":0.0,"pressure":957.4,"uv_index":8.9,"wind_gusts":37.8,"aqi":64,"pm10":34.3,"pm2_5":23.9,"no2":24.2,"co":185.0,"o3":51.0,"so2":5.3,"mosquito_risk":0,"arthritis_risk":5,"migraine_risk":7,"frizz_risk":0,"updated_at":"2026-05-22T02:23:49.443806+05:30"},{"city":"Ujjain","state":"Madhya Pradesh","latitude":23.1765,"longitude":75.7885,"temp":31.0,"humidity":25,"rain":0.0,"pressure":951.5,"uv_index":8.65,"wind_gusts":40.7,"aqi":72,"pm10":46.9,"pm2_5":25.6,"no2":3.6,"co":224.0,"o3":88.0,"so2":4.5,"mosquito_risk":0,"arthritis_risk":5,"migraine_risk":7,"frizz_risk":0,"updated_at":"2026-05-22T02:23:49.443813+05:30"},{"city":"Visakhapatnam","state":"Andhra Pradesh","latitude":17.6868,"longitude":83.2185,"temp":30.9,"humidity":82,"rain":0.0,"pressure":997.8,"uv_index":9.1,"wind_gusts":39.2,"aqi":141,"pm10":49.8,"pm2_5":39.7,"no2":27.2,"co":437.0,"o3":94.0,"so2":39.4,"mosquito_risk":3,"arthritis_risk":5,"migraine_risk":7,"frizz_risk":1,"updated_at":"2026-05-22T02:23:49.443820+05:30"},{"city":"Vijayawada","state":"Andhra Pradesh","latitude":16.5062,"longitude":80.648,"temp":32.4,"humidity":70,"rain":0.0,"pressure":996.6,"uv_index":9.15,"wind_gusts":49.0,"aqi":129,"pm10":32.1,"pm2_5":26.4,"no2":7.2,"co":295.0,"o3":110.0,"so2":6.6,"mosquito_risk":3,"arthritis_risk":5,"migraine_risk":7,"frizz_risk":1,"updated_at":"2026-05-22T02:23:49.443826+05:30"},{"city":"Guntur","state":"Andhra Pradesh","latitude":16.3067,"longitude":80.4365,"temp":32.7,"humidity":69,"rain":0.0,"pressure":997.8,"uv_index":9.15,"wind_gusts":47.9,"aqi":126,"pm10":41.4,"pm2_5":35.3,"no2":13.8,"co":278.0,"o3":82.0,"so2":7.3,"mosquito_risk":3,"arthritis_risk":5,"migraine_risk":7,"frizz_risk":1,"updated_at":"2026-05-22T02:23:49.443833+05:30"},{"city":"Nellore","state":"Andhra Pradesh","latitude":14.4426,"longitude":79.9865,"temp":30.1,"humidity":64,"rain":0.0,"pressure":1001.8,"uv_index":9.0,"wind_gusts":46.8,"aqi":98,"pm10":40.4,"pm2_5":30.2,"no2":6.1,"co":233.0,"o3":107.0,"so2":8.6,"mosquito_risk":3,"arthritis_risk":5,"migraine_risk":4,"frizz_risk":1,"updated_at":"2026-05-22T02:23:49.443840+05:30"},{"city":"Kurnool","state":"Andhra Pradesh","latitude":15.8281,"longitude":78.0373,"temp":31.6,"humidity":54,"rain":0.0,"pressure":974.3,"uv_index":9.05,"wind_gusts":55.4,"aqi":83,"pm10":22.8,"pm2_5":19.7,"no2":8.5,"co":213.0,"o3":83.0,"so2":4.7,"mosquito_risk":0,"arthritis_risk":5,"migraine_risk":7,"frizz_risk":1,"updated_at":"2026-05-22T02:23:49.443848+05:30"},{"city":"Kakinada","state":"Andhra Pradesh","latitude":16.9891,"longitude":82.2475,"temp":32.1,"humidity":70,"rain":0.0,"pressure":1001.7,"uv_index":9.1,"wind_gusts":43.6,"aqi":96,"pm10":40.9,"pm2_5":29.9,"no2":4.4,"co":327.0,"o3":123.0,"so2":4.3,"mosquito_risk":3,"arthritis_risk":5,"migraine_risk":4,"frizz_risk":1,"updated_at":"2026-05-22T02:23:49.443854+05:30"},{"city":"Tirupati","state":"Andhra Pradesh","latitude":13.6288,"longitude":79.4192,"temp":25.6,"humidity":85,"rain":0.0,"pressure":988.8,"uv_index":9.1,"wind_gusts":39.2,"aqi":68,"pm10":20.1,"pm2_5":16.0,"no2":9.2,"co":218.0,"o3":83.0,"so2":2.5,"mosquito_risk":7,"arthritis_risk":5,"migraine_risk":7,"frizz_risk":1,"updated_at":"2026-05-22T02:23:49.443861+05:30"},{"city":"Warangal","state":"Telangana","latitude":17.9689,"longitude":79.5941,"temp":32.0,"humidity":41,"rain":0.0,"pressure":973.4,"uv_index":9.0,"wind_gusts":46.8,"aqi":120,"pm10":64.7,"pm2_5":52.0,"no2":25.0,"co":316.0,"o3":57.0,"so2":9.4,"mosquito_risk":0,"arthritis_risk":5,"migraine_risk":7,"frizz_risk":1,"updated_at":"2026-05-22T02:23:49.443868+05:30"},{"city":"Nizamabad","state":"Telangana","latitude":18.6725,"longitude":78.0941,"temp":33.0,"humidity":36,"rain":0.0,"pressure":960.7,"uv_index":9.1,"wind_gusts":37.4,"aqi":112,"pm10":89.9,"pm2_5":66.6,"no2":35.1,"co":330.0,"o3":40.0,"so2":8.0,"mosquito_risk":0,"arthritis_risk":5,"migraine_risk":7,"frizz_risk":0,"updated_at":"2026-05-22T02:23:49.443874+05:30"},{"city":"Mysore","state":"Karnataka","latitude":12.2958,"longitude":76.6396,"temp":23.3,"humidity":88,"rain":0.0,"pressure":927.8,"uv_index":2.35,"wind_gusts":43.9,"aqi":28,"pm10":5.0,"pm2_5":4.6,"no2":7.3,"co":143.0,"o3":44.0,"so2":1.9,"mosquito_risk":3,"arthritis_risk":5,"migraine_risk":3,"frizz_risk":1,"updated_at":"2026-05-22T02:23:49.443881+05:30"},{"city":"Mangalore","state":"Karnataka","latitude":12.9141,"longitude":74.856,"temp":25.7,"humidity":97,"rain":0.0,"pressure":1006.2,"uv_index":8.75,"wind_gusts":38.2,"aqi":49,"pm10":13.3,"pm2_5":10.9,"no2":8.5,"co":247.0,"o3":35.0,"so2":2.5,"mosquito_risk":7,"arthritis_risk":5,"migraine_risk":4,"frizz_risk":1,"updated_at":"2026-05-22T02:23:49.443887+05:30"},{"city":"Hubli-Dharwad","state":"Karnataka","latitude":15.3647,"longitude":75.124,"temp":23.5,"humidity":96,"rain":0.0,"pressure":940.0,"uv_index":9.05,"wind_gusts":51.5,"aqi":27,"pm10":6.3,"pm2_5":5.2,"no2":6.2,"co":160.0,"o3":43.0,"so2":1.2,"mosquito_risk":3,"arthritis_risk":5,"migraine_risk":7,"frizz_risk":1,"updated_at":"2026-05-22T02:23:49.443895+05:30"},{"city":"Belgaum","state":"Karnataka","latitude":15.8497,"longitude":74.4977,"temp":22.6,"humidity":95,"rain":0.0,"pressure":924.8,"uv_index":8.85,"wind_gusts":35.6,"aqi":48,"pm10":9.5,"pm2_5":7.8,"no2":6.2,"co":174.0,"o3":46.0,"so2":1.6,"mosquito_risk":3,"arthritis_risk":5,"migraine_risk":7,"frizz_risk":1,"updated_at":"2026-05-22T02:23:52.704768+05:30"},{"city":"Coimbatore","state":"Tamil Nadu","latitude":11.0168,"longitude":76.9558,"temp":25.7,"humidity":82,"rain":0.0,"pressure":960.4,"uv_index":8.85,"wind_gusts":57.6,"aqi":26,"pm10":5.5,"pm2_5":4.6,"no2":5.9,"co":137.0,"o3":44.0,"so2":2.5,"mosquito_risk":7,"arthritis_risk":5,"migraine_risk":7,"frizz_risk":1,"updated_at":"2026-05-22T02:23:52.704802+05:30"},{"city":"Madurai","state":"Tamil Nadu","latitude":9.9252,"longitude":78.1198,"temp":29.6,"humidity":62,"rain":0.0,"pressure":991.1,"uv_index":8.4,"wind_gusts":49.0,"aqi":66,"pm10":23.8,"pm2_5":23.3,"no2":43.7,"co":156.0,"o3":2.0,"so2":7.3,"mosquito_risk":7,"arthritis_risk":5,"migraine_risk":7,"frizz_risk":1,"updated_at":"2026-05-22T02:23:52.704814+05:30"},{"city":"Trichy","state":"Tamil Nadu","latitude":10.7905,"longitude":78.7047,"temp":28.9,"humidity":66,"rain":0.0,"pressure":997.3,"uv_index":8.95,"wind_gusts":46.8,"aqi":34,"pm10":6.8,"pm2_5":5.7,"no2":7.2,"co":142.0,"o3":46.0,"so2":3.3,"mosquito_risk":7,"arthritis_risk":5,"migraine_risk":7,"frizz_risk":1,"updated_at":"2026-05-22T02:23:52.704822+05:30"},{"city":"Salem","state":"Tamil Nadu","latitude":11.6643,"longitude":78.146,"temp":28.6,"humidity":67,"rain":0.0,"pressure":975.9,"uv_index":9.0,"wind_gusts":31.7,"aqi":54,"pm10":15.5,"pm2_5":14.1,"no2":19.3,"co":268.0,"o3":38.0,"so2":6.2,"mosquito_risk":7,"arthritis_risk":5,"migraine_risk":7,"frizz_risk":1,"updated_at":"2026-05-22T02:23:52.704830+05:30"},{"city":"Tirunelveli","state":"Tamil Nadu","latitude":8.7139,"longitude":77.7567,"temp":29.1,"humidity":69,"rain":0.0,"pressure":1001.9,"uv_index":7.95,"wind_gusts":46.8,"aqi":23,"pm10":6.3,"pm2_5":5.4,"no2":6.4,"co":173.0,"o3":37.0,"so2":1.9,"mosquito_risk":7,"arthritis_risk":5,"migraine_risk":4,"frizz_risk":1,"updated_at":"2026-05-22T02:23:52.704838+05:30"},{"city":"Vellore","state":"Tamil Nadu","latitude":12.9165,"longitude":79.1325,"temp":28.4,"humidity":63,"rain":0.0,"pressure":982.7,"uv_index":8.7,"wind_gusts":44.3,"aqi":66,"pm10":16.8,"pm2_5":14.6,"no2":9.7,"co":226.0,"o3":80.0,"so2":4.1,"mosquito_risk":7,"arthritis_risk":5,"migraine_risk":7,"frizz_risk":1,"updated_at":"2026-05-22T02:23:52.704845+05:30"},{"city":"Erode","state":"Tamil Nadu","latitude":11.341,"longitude":77.7172,"temp":28.8,"humidity":67,"rain":0.0,"pressure":987.4,"uv_index":8.2,"wind_gusts":51.8,"aqi":40,"pm10":11.6,"pm2_5":10.2,"no2":14.7,"co":168.0,"o3":36.0,"so2":3.9,"mosquito_risk":7,"arthritis_risk":5,"migraine_risk":7,"frizz_risk":1,"updated_at":"2026-05-22T02:23:52.704853+05:30"},{"city":"Kochi","state":"Kerala","latitude":9.9312,"longitude":76.2673,"temp":26.0,"humidity":97,"rain":0.1,"pressure":1008.4,"uv_index":6.7,"wind_gusts":37.4,"aqi":56,"pm10":19.7,"pm2_5":18.7,"no2":26.1,"co":126.0,"o3":10.0,"so2":6.5,"mosquito_risk":10,"arthritis_risk":0,"migraine_risk":4,"frizz_risk":1,"updated_at":"2026-05-22T02:23:52.704861+05:30"},{"city":"Thiruvananthapuram","state":"Kerala","latitude":8.5241,"longitude":76.9366,"temp":25.5,"humidity":97,"rain":0.1,"pressure":1008.3,"uv_index":7.55,"wind_gusts":38.9,"aqi":26,"pm10":9.9,"pm2_5":6.5,"no2":2.9,"co":108.0,"o3":51.0,"so2":1.1,"mosquito_risk":10,"arthritis_risk":0,"migraine_risk":4,"frizz_risk":1,"updated_at":"2026-05-22T02:23:52.704867+05:30"},{"city":"Kozhikode","state":"Kerala","latitude":11.2588,"longitude":75.7804,"temp":26.1,"humidity":99,"rain":0.0,"pressure":1007.4,"uv_index":8.0,"wind_gusts":33.1,"aqi":29,"pm10":10.6,"pm2_5":6.9,"no2":1.7,"co":244.0,"o3":57.0,"so2":0.8,"mosquito_risk":7,"arthritis_risk":5,"migraine_risk":4,"frizz_risk":1,"updated_at":"2026-05-22T02:23:52.704875+05:30"},{"city":"Thrissur","state":"Kerala","latitude":10.5276,"longitude":76.2144,"temp":25.7,"humidity":94,"rain":0.0,"pressure":1006.8,"uv_index":7.15,"wind_gusts":34.6,"aqi":55,"pm10":21.6,"pm2_5":20.6,"no2":23.8,"co":251.0,"o3":7.0,"so2":5.2,"mosquito_risk":7,"arthritis_risk":5,"migraine_risk":4,"frizz_risk":1,"updated_at":"2026-05-22T02:23:52.704882+05:30"},{"city":"Kannur","state":"Kerala","latitude":11.8745,"longitude":75.3704,"temp":25.5,"humidity":98,"rain":0.0,"pressure":1006.7,"uv_index":7.6,"wind_gusts":32.4,"aqi":32,"pm10":9.6,"pm2_5":7.8,"no2":10.0,"co":205.0,"o3":33.0,"so2":2.5,"mosquito_risk":7,"arthritis_risk":5,"migraine_risk":4,"frizz_risk":1,"updated_at":"2026-05-22T02:23:52.704890+05:30"},{"city":"Patna","state":"Bihar","latitude":25.5941,"longitude":85.1376,"temp":28.5,"humidity":84,"rain":0.0,"pressure":996.7,"uv_index":8.85,"wind_gusts":28.8,"aqi":156,"pm10":35.9,"pm2_5":31.5,"no2":13.6,"co":392.0,"o3":88.0,"so2":12.5,"mosquito_risk":7,"arthritis_risk":5,"migraine_risk":7,"frizz_risk":1,"updated_at":"2026-05-22T02:23:52.704896+05:30"},{"city":"Gaya","state":"Bihar","latitude":24.7914,"longitude":85.0002,"temp":29.6,"humidity":79,"rain":0.0,"pressure":989.5,"uv_index":8.9,"wind_gusts":30.6,"aqi":156,"pm10":53.8,"pm2_5":49.9,"no2":12.4,"co":417.0,"o3":112.0,"so2":18.9,"mosquito_risk":7,"arthritis_risk":5,"migraine_risk":7,"frizz_risk":1,"updated_at":"2026-05-22T02:23:52.704902+05:30"},{"city":"Muzaffarpur","state":"Bihar","latitude":26.1209,"longitude":85.3647,"temp":27.6,"humidity":87,"rain":0.0,"pressure":997.2,"uv_index":8.85,"wind_gusts":33.5,"aqi":154,"pm10":34.1,"pm2_5":31.4,"no2":14.3,"co":399.0,"o3":81.0,"so2":10.0,"mosquito_risk":7,"arthritis_risk":5,"migraine_risk":7,"frizz_risk":1,"updated_at":"2026-05-22T02:23:52.704909+05:30"},{"city":"Bhagalpur","state":"Bihar","latitude":25.2425,"longitude":87.0117,"temp":27.5,"humidity":89,"rain":0.0,"pressure":998.1,"uv_index":8.85,"wind_gusts":33.1,"aqi":126,"pm10":46.4,"pm2_5":39.7,"no2":12.6,"co":458.0,"o3":92.0,"so2":13.3,"mosquito_risk":7,"arthritis_risk":5,"migraine_risk":7,"frizz_risk":1,"updated_at":"2026-05-22T02:23:52.704916+05:30"},{"city":"Ranchi","state":"Jharkhand","latitude":23.3441,"longitude":85.3096,"temp":25.6,"humidity":69,"rain":0.0,"pressure":933.9,"uv_index":9.3,"wind_gusts":31.3,"aqi":145,"pm10":121.1,"pm2_5":67.8,"no2":36.4,"co":538.0,"o3":56.0,"so2":17.0,"mosquito_risk":7,"arthritis_risk":5,"migraine_risk":7,"frizz_risk":1,"updated_at":"2026-05-22T02:23:52.704923+05:30"},{"city":"Jamshedpur","state":"Jharkhand","latitude":22.8046,"longitude":86.2029,"temp":28.6,"humidity":95,"rain":0.0,"pressure":986.6,"uv_index":9.1,"wind_gusts":27.4,"aqi":155,"pm10":109.0,"pm2_5":76.8,"no2":35.7,"co":498.0,"o3":44.0,"so2":26.3,"mosquito_risk":7,"arthritis_risk":5,"migraine_risk":7,"frizz_risk":1,"updated_at":"2026-05-22T02:23:52.704930+05:30"},{"city":"Dhanbad","state":"Jharkhand","latitude":23.7957,"longitude":86.4304,"temp":29.6,"humidity":84,"rain":0.0,"pressure":976.3,"uv_index":9.1,"wind_gusts":30.6,"aqi":167,"pm10":99.0,"pm2_5":84.3,"no2":46.1,"co":524.0,"o3":69.0,"so2":129.1,"mosquito_risk":7,"arthritis_risk":5,"migraine_risk":7,"frizz_risk":1,"updated_at":"2026-05-22T02:23:52.704937+05:30"},{"city":"Bokaro","state":"Jharkhand","latitude":23.6693,"longitude":86.1511,"temp":28.9,"humidity":87,"rain":0.0,"pressure":979.9,"uv_index":9.1,"wind_gusts":24.8,"aqi":166,"pm10":107.8,"pm2_5":90.3,"no2":42.6,"co":529.0,"o3":85.0,"so2":124.7,"mosquito_risk":7,"arthritis_risk":5,"migraine_risk":7,"frizz_risk":1,"updated_at":"2026-05-22T02:23:52.704943+05:30"},{"city":"Bhubaneswar","state":"Odisha","latitude":20.2961,"longitude":85.8245,"temp":29.2,"humidity":98,"rain":0.0,"pressure":997.3,"uv_index":9.15,"wind_gusts":36.7,"aqi":158,"pm10":47.4,"pm2_5":39.9,"no2":7.6,"co":361.0,"o3":107.0,"so2":7.9,"mosquito_risk":7,"arthritis_risk":5,"migraine_risk":7,"frizz_risk":1,"updated_at":"2026-05-22T02:23:52.704950+05:30"},{"city":"Cuttack","state":"Odisha","latitude":20.4625,"longitude":85.8828,"temp":29.4,"humidity":97,"rain":0.0,"pressure":999.2,"uv_index":9.2,"wind_gusts":33.5,"aqi":158,"pm10":47.4,"pm2_5":39.9,"no2":7.6,"co":397.0,"o3":107.0,"so2":7.9,"mosquito_risk":7,"arthritis_risk":5,"migraine_risk":7,"frizz_risk":1,"updated_at":"2026-05-22T02:23:52.704957+05:30"},{"city":"Rourkela","state":"Odisha","latitude":22.2604,"longitude":84.8536,"temp":30.6,"humidity":61,"rain":0.0,"pressure":980.5,"uv_index":9.05,"wind_gusts":34.6,"aqi":159,"pm10":186.7,"pm2_5":106.4,"no2":54.9,"co":806.0,"o3":34.0,"so2":23.9,"mosquito_risk":3,"arthritis_risk":5,"migraine_risk":7,"frizz_risk":1,"updated_at":"2026-05-22T02:23:52.704964+05:30"},{"city":"Raipur","state":"Chhattisgarh","latitude":21.2514,"longitude":81.6296,"temp":33.0,"humidity":37,"rain":0.0,"pressure":969.3,"uv_index":8.9,"wind_gusts":38.5,"aqi":151,"pm10":98.5,"pm2_5":82.7,"no2":72.1,"co":582.0,"o3":7.0,"so2":54.2,"mosquito_risk":0,"arthritis_risk":5,"migraine_risk":7,"frizz_risk":1,"updated_at":"2026-05-22T02:23:52.704971+05:30"},{"city":"Bhilai","state":"Chhattisgarh","latitude":21.1938,"longitude":81.3509,"temp":32.8,"humidity":33,"rain":0.0,"pressure":969.6,"uv_index":8.5,"wind_gusts":36.4,"aqi":121,"pm10":64.7,"pm2_5":49.4,"no2":44.7,"co":630.0,"o3":28.0,"so2":39.0,"mosquito_risk":0,"arthritis_risk":5,"migraine_risk":7,"frizz_risk":0,"updated_at":"2026-05-22T02:23:52.704978+05:30"},{"city":"Guwahati","state":"Assam","latitude":26.1158,"longitude":91.7086,"temp":25.2,"humidity":95,"rain":0.0,"pressure":998.9,"uv_index":8.8,"wind_gusts":26.6,"aqi":103,"pm10":54.2,"pm2_5":50.3,"no2":19.6,"co":469.0,"o3":22.0,"so2":2.5,"mosquito_risk":7,"arthritis_risk":5,"migraine_risk":7,"frizz_risk":1,"updated_at":"2026-05-22T02:23:52.704986+05:30"},{"city":"Agartala","state":"Tripura","latitude":23.8315,"longitude":91.2868,"temp":26.1,"humidity":98,"rain":0.0,"pressure":1003.3,"uv_index":8.8,"wind_gusts":33.5,"aqi":86,"pm10":34.5,"pm2_5":22.9,"no2":11.4,"co":227.0,"o3":57.0,"so2":2.3,"mosquito_risk":7,"arthritis_risk":5,"migraine_risk":4,"frizz_risk":1,"updated_at":"2026-05-22T02:23:52.704993+05:30"},{"city":"Shillong","state":"Meghalaya","latitude":25.5788,"longitude":91.8933,"temp":18.7,"humidity":95,"rain":0.0,"pressure":855.4,"uv_index":7.4,"wind_gusts":25.9,"aqi":85,"pm10":39.0,"pm2_5":31.1,"no2":7.4,"co":243.0,"o3":61.0,"so2":5.0,"mosquito_risk":3,"arthritis_risk":10,"migraine_risk":7,"frizz_risk":1,"updated_at":"2026-05-22T02:23:52.705000+05:30"},{"city":"Imphal","state":"Manipur","latitude":24.817,"longitude":93.9368,"temp":22.2,"humidity":99,"rain":0.0,"pressure":921.3,"uv_index":8.75,"wind_gusts":34.9,"aqi":136,"pm10":62.4,"pm2_5":56.8,"no2":30.6,"co":569.0,"o3":11.0,"so2":2.7,"mosquito_risk":3,"arthritis_risk":5,"migraine_risk":7,"frizz_risk":1,"updated_at":"2026-05-22T02:23:52.705007+05:30"},{"city":"Aizawl","state":"Mizoram","latitude":23.7271,"longitude":92.7176,"temp":20.1,"humidity":99,"rain":0.0,"pressure":890.0,"uv_index":8.5,"wind_gusts":30.6,"aqi":80,"pm10":26.4,"pm2_5":20.3,"no2":6.2,"co":251.0,"o3":42.0,"so2":1.6,"mosquito_risk":3,"arthritis_risk":5,"migraine_risk":7,"frizz_risk":1,"updated_at":"2026-05-22T02:23:52.705014+05:30"},{"city":"Kohima","state":"Nagaland","latitude":25.6701,"longitude":94.1077,"temp":17.6,"humidity":93,"rain":0.0,"pressure":853.0,"uv_index":9.0,"wind_gusts":26.6,"aqi":110,"pm10":45.9,"pm2_5":39.2,"no2":14.9,"co":237.0,"o3":18.0,"so2":0.7,"mosquito_risk":3,"arthritis_risk":10,"migraine_risk":7,"frizz_risk":1,"updated_at":"2026-05-22T02:23:52.705021+05:30"},{"city":"Gangtok","state":"Sikkim","latitude":27.3314,"longitude":88.6138,"temp":16.3,"humidity":81,"rain":0.0,"pressure":836.3,"uv_index":9.15,"wind_gusts":35.6,"aqi":72,"pm10":17.2,"pm2_5":14.8,"no2":7.5,"co":491.0,"o3":92.0,"so2":1.6,"mosquito_risk":3,"arthritis_risk":10,"migraine_risk":7,"frizz_risk":0,"updated_at":"2026-05-22T02:23:52.705028+05:30"},{"city":"Siliguri","state":"West Bengal","latitude":26.7271,"longitude":88.3953,"temp":25.9,"humidity":86,"rain":0.0,"pressure":990.8,"uv_index":8.0,"wind_gusts":21.2,"aqi":139,"pm10":59.6,"pm2_5":51.1,"no2":17.9,"co":480.0,"o3":95.0,"so2":6.5,"mosquito_risk":7,"arthritis_risk":5,"migraine_risk":7,"frizz_risk":1,"updated_at":"2026-05-22T02:23:55.958578+05:30"},{"city":"Durgapur","state":"West Bengal","latitude":23.5204,"longitude":87.3119,"temp":29.4,"humidity":92,"rain":0.0,"pressure":991.3,"uv_index":9.0,"wind_gusts":30.2,"aqi":162,"pm10":81.5,"pm2_5":72.9,"no2":30.8,"co":611.0,"o3":53.0,"so2":32.3,"mosquito_risk":7,"arthritis_risk":5,"migraine_risk":7,"frizz_risk":1,"updated_at":"2026-05-22T02:23:55.958629+05:30"},{"city":"Asansol","state":"West Bengal","latitude":23.6739,"longitude":86.9524,"temp":29.4,"humidity":91,"rain":0.0,"pressure":989.8,"uv_index":9.05,"wind_gusts":30.6,"aqi":161,"pm10":66.4,"pm2_5":60.3,"no2":29.6,"co":562.0,"o3":67.0,"so2":36.9,"mosquito_risk":7,"arthritis_risk":5,"migraine_risk":7,"frizz_risk":1,"updated_at":"2026-05-22T02:23:55.958640+05:30"},{"city":"Pondicherry","state":"Puducherry","latitude":11.9139,"longitude":79.8145,"temp":29.6,"humidity":71,"rain":0.0,"pressure":1004.9,"uv_index":8.95,"wind_gusts":45.4,"aqi":68,"pm10":14.5,"pm2_5":12.2,"no2":14.7,"co":292.0,"o3":46.0,"so2":6.6,"mosquito_risk":7,"arthritis_risk":5,"migraine_risk":4,"frizz_risk":1,"updated_at":"2026-05-22T02:23:55.958649+05:30"},{"city":"Port Blair","state":"Andaman and Nicobar Islands","latitude":11.6234,"longitude":92.7265,"temp":25.0,"humidity":99,"rain":0.1,"pressure":1005.4,"uv_index":3.7,"wind_gusts":39.2,"aqi":28,"pm10":8.6,"pm2_5":5.6,"no2":0.3,"co":114.0,"o3":61.0,"so2":0.3,"mosquito_risk":10,"arthritis_risk":5,"migraine_risk":0,"frizz_risk":1,"updated_at":"2026-05-22T02:23:55.958657+05:30"},{"city":"Haridwar","state":"Uttarakhand","latitude":29.9457,"longitude":78.1642,"temp":27.8,"humidity":50,"rain":0.0,"pressure":968.6,"uv_index":7.55,"wind_gusts":33.1,"aqi":132,"pm10":62.4,"pm2_5":42.1,"no2":25.6,"co":348.0,"o3":63.0,"so2":12.8,"mosquito_risk":4,"arthritis_risk":5,"migraine_risk":7,"frizz_risk":1,"updated_at":"2026-05-22T02:23:55.958665+05:30"},{"city":"Rishikesh","state":"Uttarakhand","latitude":30.0869,"longitude":78.2676,"temp":23.6,"humidity":65,"rain":0.0,"pressure":961.2,"uv_index":7.7,"wind_gusts":27.0,"aqi":108,"pm10":74.3,"pm2_5":39.9,"no2":16.5,"co":285.0,"o3":93.0,"so2":11.4,"mosquito_risk":3,"arthritis_risk":5,"migraine_risk":7,"frizz_risk":1,"updated_at":"2026-05-22T02:23:55.958672+05:30"},{"city":"Nainital","state":"Uttarakhand","latitude":29.3919,"longitude":79.4542,"temp":17.2,"humidity":53,"rain":0.0,"pressure":803.9,"uv_index":8.5,"wind_gusts":45.4,"aqi":151,"pm10":241.2,"pm2_5":72.4,"no2":19.5,"co":293.0,"o3":94.0,"so2":8.5,"mosquito_risk":0,"arthritis_risk":5,"migraine_risk":7,"frizz_risk":0,"updated_at":"2026-05-22T02:23:55.958679+05:30"},{"city":"Mussoorie","state":"Uttarakhand","latitude":30.4599,"longitude":78.0664,"temp":19.7,"humidity":35,"rain":0.0,"pressure":802.1,"uv_index":8.1,"wind_gusts":51.1,"aqi":104,"pm10":74.7,"pm2_5":47.0,"no2":42.4,"co":237.0,"o3":44.0,"so2":11.8,"mosquito_risk":0,"arthritis_risk":5,"migraine_risk":7,"frizz_risk":0,"updated_at":"2026-05-22T02:23:55.958687+05:30"},{"city":"Dharamshala","state":"Himachal Pradesh","latitude":32.219,"longitude":76.3234,"temp":24.0,"humidity":30,"rain":0.0,"pressure":867.0,"uv_index":8.3,"wind_gusts":52.6,"aqi":52,"pm10":18.8,"pm2_5":11.4,"no2":13.2,"co":225.0,"o3":41.0,"so2":0.2,"mosquito_risk":0,"arthritis_risk":5,"migraine_risk":7,"frizz_risk":0,"updated_at":"2026-05-22T02:23:55.958694+05:30"},{"city":"Dalhousie","state":"Himachal Pradesh","latitude":32.5387,"longitude":75.971,"temp":14.9,"humidity":53,"rain":0.0,"pressure":801.4,"uv_index":6.95,"wind_gusts":62.3,"aqi":71,"pm10":36.0,"pm2_5":24.9,"no2":46.7,"co":338.0,"o3":3.0,"so2":1.7,"mosquito_risk":0,"arthritis_risk":5,"migraine_risk":7,"frizz_risk":0,"updated_at":"2026-05-22T02:23:55.958701+05:30"},{"city":"Patiala","state":"Punjab","latitude":30.3398,"longitude":76.3869,"temp":29.9,"humidity":33,"rain":0.0,"pressure":972.5,"uv_index":7.7,"wind_gusts":54.0,"aqi":151,"pm10":517.8,"pm2_5":82.2,"no2":13.9,"co":452.0,"o3":58.0,"so2":6.1,"mosquito_risk":4,"arthritis_risk":5,"migraine_risk":7,"frizz_risk":0,"updated_at":"2026-05-22T02:23:55.958709+05:30"},{"city":"Bhatinda","state":"Punjab","latitude":30.211,"longitude":74.9455,"temp":31.4,"humidity":34,"rain":0.0,"pressure":978.5,"uv_index":8.35,"wind_gusts":40.3,"aqi":104,"pm10":58.2,"pm2_5":37.4,"no2":18.4,"co":291.0,"o3":50.0,"so2":7.5,"mosquito_risk":0,"arthritis_risk":5,"migraine_risk":7,"frizz_risk":0,"updated_at":"2026-05-22T02:23:55.958716+05:30"},{"city":"Rohtak","state":"Haryana","latitude":28.8955,"longitude":76.6066,"temp":32.0,"humidity":22,"rain":0.0,"pressure":976.6,"uv_index":7.8,"wind_gusts":30.2,"aqi":958,"pm10":760.0,"pm2_5":129.5,"no2":16.4,"co":207.0,"o3":58.0,"so2":3.7,"mosquito_risk":0,"arthritis_risk":5,"migraine_risk":7,"frizz_risk":0,"updated_at":"2026-05-22T02:23:55.958723+05:30"},{"city":"Panipat","state":"Haryana","latitude":29.3909,"longitude":76.9635,"temp":33.0,"humidity":22,"rain":0.0,"pressure":975.1,"uv_index":7.6,"wind_gusts":43.9,"aqi":1665,"pm10":1300.1,"pm2_5":210.5,"no2":21.5,"co":335.0,"o3":43.0,"so2":5.3,"mosquito_risk":0,"arthritis_risk":5,"migraine_risk":7,"frizz_risk":0,"updated_at":"2026-05-22T02:23:55.958731+05:30"},{"city":"Mathura","state":"Uttar Pradesh","latitude":27.4924,"longitude":77.6737,"temp":32.8,"humidity":20,"rain":0.0,"pressure":981.7,"uv_index":8.0,"wind_gusts":32.4,"aqi":851,"pm10":1087.8,"pm2_5":137.8,"no2":14.8,"co":240.0,"o3":60.0,"so2":4.4,"mosquito_risk":0,"arthritis_risk":5,"migraine_risk":7,"frizz_risk":0,"updated_at":"2026-05-22T02:23:55.958737+05:30"},{"city":"Vrindavan","state":"Uttar Pradesh","latitude":27.5823,"longitude":77.7027,"temp":32.8,"humidity":20,"rain":0.0,"pressure":982.1,"uv_index":8.0,"wind_gusts":32.0,"aqi":851,"pm10":1087.8,"pm2_5":137.8,"no2":14.8,"co":209.0,"o3":60.0,"so2":4.4,"mosquito_risk":0,"arthritis_risk":5,"migraine_risk":7,"frizz_risk":0,"updated_at":"2026-05-22T02:23:55.958743+05:30"},{"city":"Ayodhya","state":"Uttar Pradesh","latitude":26.7922,"longitude":82.1998,"temp":30.0,"humidity":75,"rain":0.0,"pressure":990.6,"uv_index":8.4,"wind_gusts":29.5,"aqi":158,"pm10":77.5,"pm2_5":70.8,"no2":15.9,"co":484.0,"o3":91.0,"so2":11.1,"mosquito_risk":7,"arthritis_risk":5,"migraine_risk":7,"frizz_risk":1,"updated_at":"2026-05-22T02:23:55.958751+05:30"},{"city":"Ratlam","state":"Madhya Pradesh","latitude":23.3315,"longitude":75.0367,"temp":29.6,"humidity":32,"rain":0.0,"pressure":952.4,"uv_index":8.6,"wind_gusts":38.9,"aqi":73,"pm10":50.9,"pm2_5":26.5,"no2":3.5,"co":195.0,"o3":87.0,"so2":4.5,"mosquito_risk":4,"arthritis_risk":5,"migraine_risk":7,"frizz_risk":0,"updated_at":"2026-05-22T02:23:55.958759+05:30"},{"city":"Sagar","state":"Madhya Pradesh","latitude":23.8388,"longitude":78.7378,"temp":31.0,"humidity":18,"rain":0.0,"pressure":947.0,"uv_index":8.75,"wind_gusts":39.6,"aqi":57,"pm10":27.4,"pm2_5":16.4,"no2":8.9,"co":173.0,"o3":69.0,"so2":4.2,"mosquito_risk":0,"arthritis_risk":5,"migraine_risk":7,"frizz_risk":0,"updated_at":"2026-05-22T02:23:55.958766+05:30"},{"city":"Satna","state":"Madhya Pradesh","latitude":24.6005,"longitude":80.8322,"temp":30.5,"humidity":25,"rain":0.0,"pressure":966.9,"uv_index":8.8,"wind_gusts":38.9,"aqi":68,"pm10":25.8,"pm2_5":14.9,"no2":10.6,"co":187.0,"o3":72.0,"so2":3.7,"mosquito_risk":0,"arthritis_risk":5,"migraine_risk":7,"frizz_risk":0,"updated_at":"2026-05-22T02:23:55.958773+05:30"},{"city":"Akola","state":"Maharashtra","latitude":20.7002,"longitude":77.0082,"temp":34.8,"humidity":29,"rain":0.0,"pressure":971.4,"uv_index":8.9,"wind_gusts":47.2,"aqi":81,"pm10":46.2,"pm2_5":31.9,"no2":18.9,"co":238.0,"o3":53.0,"so2":7.1,"mosquito_risk":0,"arthritis_risk":5,"migraine_risk":7,"frizz_risk":0,"updated_at":"2026-05-22T02:23:55.958781+05:30"},{"city":"Amravati","state":"Maharashtra","latitude":20.9374,"longitude":77.7796,"temp":35.0,"humidity":27,"rain":0.0,"pressure":963.5,"uv_index":8.9,"wind_gusts":42.1,"aqi":81,"pm10":48.1,"pm2_5":33.6,"no2":23.4,"co":244.0,"o3":46.0,"so2":6.2,"mosquito_risk":0,"arthritis_risk":5,"migraine_risk":7,"frizz_risk":0,"updated_at":"2026-05-22T02:23:55.958790+05:30"},{"city":"Latur","state":"Maharashtra","latitude":18.4088,"longitude":76.5604,"temp":30.5,"humidity":51,"rain":0.0,"pressure":937.5,"uv_index":9.0,"wind_gusts":42.8,"aqi":83,"pm10":39.3,"pm2_5":30.3,"no2":6.3,"co":219.0,"o3":99.0,"so2":6.6,"mosquito_risk":0,"arthritis_risk":5,"migraine_risk":7,"frizz_risk":1,"updated_at":"2026-05-22T02:23:55.958797+05:30"},{"city":"Nanded","state":"Maharashtra","latitude":19.1383,"longitude":77.3091,"temp":34.2,"humidity":33,"rain":0.0,"pressure":964.8,"uv_index":9.0,"wind_gusts":39.6,"aqi":93,"pm10":74.5,"pm2_5":53.4,"no2":35.1,"co":229.0,"o3":41.0,"so2":8.4,"mosquito_risk":0,"arthritis_risk":5,"migraine_risk":7,"frizz_risk":0,"updated_at":"2026-05-22T02:23:55.958805+05:30"},{"city":"Gulbarga","state":"Karnataka","latitude":17.3297,"longitude":76.8343,"temp":30.5,"humidity":56,"rain":0.0,"pressure":956.2,"uv_index":8.75,"wind_gusts":62.6,"aqi":82,"pm10":20.2,"pm2_5":17.2,"no2":14.4,"co":217.0,"o3":61.0,"so2":4.0,"mosquito_risk":0,"arthritis_risk":5,"migraine_risk":7,"frizz_risk":1,"updated_at":"2026-05-22T02:23:55.958811+05:30"},{"city":"Bidar","state":"Karnataka","latitude":17.9104,"longitude":77.5199,"temp":29.8,"humidity":51,"rain":0.0,"pressure":932.8,"uv_index":9.05,"wind_gusts":42.8,"aqi":93,"pm10":39.5,"pm2_5":30.5,"no2":11.0,"co":239.0,"o3":95.0,"so2":5.4,"mosquito_risk":4,"arthritis_risk":5,"migraine_risk":7,"frizz_risk":1,"updated_at":"2026-05-22T02:23:55.958819+05:30"},{"city":"Hospet","state":"Karnataka","latitude":15.2689,"longitude":76.3909,"temp":25.5,"humidity":80,"rain":0.0,"pressure":954.6,"uv_index":8.25,"wind_gusts":43.9,"aqi":37,"pm10":6.7,"pm2_5":5.5,"no2":5.9,"co":149.0,"o3":46.0,"so2":1.4,"mosquito_risk":7,"arthritis_risk":5,"migraine_risk":7,"frizz_risk":1,"updated_at":"2026-05-22T02:23:55.958826+05:30"},{"city":"Tirupur","state":"Tamil Nadu","latitude":11.1085,"longitude":77.3411,"temp":27.0,"humidity":79,"rain":0.0,"pressure":973.5,"uv_index":9.05,"wind_gusts":61.9,"aqi":44,"pm10":12.7,"pm2_5":11.4,"no2":17.1,"co":143.0,"o3":33.0,"so2":4.4,"mosquito_risk":7,"arthritis_risk":5,"migraine_risk":7,"frizz_risk":1,"updated_at":"2026-05-22T02:23:55.958833+05:30"},{"city":"Alappuzha","state":"Kerala","latitude":9.4981,"longitude":76.3388,"temp":26.1,"humidity":95,"rain":0.1,"pressure":1008.7,"uv_index":8.35,"wind_gusts":36.0,"aqi":42,"pm10":13.0,"pm2_5":10.4,"no2":11.0,"co":99.0,"o3":39.0,"so2":2.7,"mosquito_risk":10,"arthritis_risk":0,"migraine_risk":4,"frizz_risk":1,"updated_at":"2026-05-22T02:23:55.958840+05:30"},{"city":"Munnar","state":"Kerala","latitude":10.0889,"longitude":77.0595,"temp":17.1,"humidity":100,"rain":0.0,"pressure":856.6,"uv_index":6.45,"wind_gusts":31.7,"aqi":23,"pm10":6.4,"pm2_5":5.7,"no2":7.8,"co":112.0,"o3":32.0,"so2":1.7,"mosquito_risk":3,"arthritis_risk":10,"migraine_risk":7,"frizz_risk":1,"updated_at":"2026-05-22T02:23:55.958848+05:30"},{"city":"Silchar","state":"Assam","latitude":24.8333,"longitude":92.7789,"temp":25.9,"humidity":99,"rain":0.0,"pressure":1002.6,"uv_index":8.9,"wind_gusts":32.0,"aqi":111,"pm10":52.9,"pm2_5":41.4,"no2":9.8,"co":399.0,"o3":70.0,"so2":7.0,"mosquito_risk":7,"arthritis_risk":5,"migraine_risk":4,"frizz_risk":1,"updated_at":"2026-05-22T02:23:55.958855+05:30"},{"city":"Dibrugarh","state":"Assam","latitude":27.4728,"longitude":94.912,"temp":26.5,"humidity":92,"rain":0.0,"pressure":992.8,"uv_index":8.95,"wind_gusts":22.3,"aqi":92,"pm10":41.8,"pm2_5":38.4,"no2":30.4,"co":590.0,"o3":2.0,"so2":1.5,"mosquito_risk":7,"arthritis_risk":5,"migraine_risk":7,"frizz_risk":1,"updated_at":"2026-05-22T02:23:55.958862+05:30"}]