[{"city":"Delhi","state":"Delhi","latitude":28.6139,"longitude":77.209,"temp":34.5,"humidity":21,"rain":0.0,"pressure":980.1,"uv_index":7.55,"wind_gusts":28.4,"aqi":179,"pm10":248.7,"pm2_5":44.2,"no2":6.3,"co":306.0,"o3":189.0,"so2":15.8,"mosquito_risk":0,"arthritis_risk":5,"migraine_risk":7,"frizz_risk":0,"updated_at":"2026-05-06T17:20:26.438068+05:30"},{"city":"Mumbai","state":"Maharashtra","latitude":19.076,"longitude":72.8777,"temp":31.4,"humidity":64,"rain":0.0,"pressure":1004.1,"uv_index":7.9,"wind_gusts":48.6,"aqi":90,"pm10":70.8,"pm2_5":24.9,"no2":6.1,"co":218.0,"o3":98.0,"so2":12.6,"mosquito_risk":3,"arthritis_risk":5,"migraine_risk":4,"frizz_risk":1,"updated_at":"2026-05-06T17:20:26.438107+05:30"},{"city":"Bangalore","state":"Karnataka","latitude":12.9716,"longitude":77.5946,"temp":29.0,"humidity":47,"rain":0.1,"pressure":908.9,"uv_index":9.55,"wind_gusts":34.6,"aqi":106,"pm10":43.2,"pm2_5":23.9,"no2":8.6,"co":351.0,"o3":158.0,"so2":5.7,"mosquito_risk":7,"arthritis_risk":5,"migraine_risk":7,"frizz_risk":1,"updated_at":"2026-05-06T17:20:26.438125+05:30"},{"city":"Hyderabad","state":"Telangana","latitude":17.385,"longitude":78.4867,"temp":34.5,"humidity":30,"rain":0.0,"pressure":949.9,"uv_index":9.3,"wind_gusts":34.6,"aqi":98,"pm10":56.5,"pm2_5":27.8,"no2":3.3,"co":370.0,"o3":150.0,"so2":5.7,"mosquito_risk":0,"arthritis_risk":5,"migraine_risk":7,"frizz_risk":0,"updated_at":"2026-05-06T17:20:26.438134+05:30"},{"city":"Chennai","state":"Tamil Nadu","latitude":13.0827,"longitude":80.2707,"temp":29.6,"humidity":72,"rain":0.0,"pressure":1003.7,"uv_index":9.25,"wind_gusts":43.6,"aqi":53,"pm10":12.5,"pm2_5":8.2,"no2":4.2,"co":213.0,"o3":88.0,"so2":5.9,"mosquito_risk":7,"arthritis_risk":5,"migraine_risk":4,"frizz_risk":1,"updated_at":"2026-05-06T17:20:26.438145+05:30"},{"city":"Kolkata","state":"West Bengal","latitude":22.5726,"longitude":88.3639,"temp":26.5,"humidity":81,"rain":0.0,"pressure":1004.4,"uv_index":8.95,"wind_gusts":33.5,"aqi":96,"pm10":27.3,"pm2_5":21.9,"no2":5.1,"co":491.0,"o3":125.0,"so2":10.3,"mosquito_risk":7,"arthritis_risk":5,"migraine_risk":4,"frizz_risk":1,"updated_at":"2026-05-06T17:20:26.438153+05:30"},{"city":"Pune","state":"Maharashtra","latitude":18.5204,"longitude":73.8567,"temp":37.0,"humidity":16,"rain":0.0,"pressure":943.9,"uv_index":8.5,"wind_gusts":46.8,"aqi":85,"pm10":53.1,"pm2_5":18.9,"no2":2.0,"co":229.0,"o3":153.0,"so2":4.2,"mosquito_risk":0,"arthritis_risk":5,"migraine_risk":10,"frizz_risk":0,"updated_at":"2026-05-06T17:20:26.438159+05:30"},{"city":"Ahmedabad","state":"Gujarat","latitude":23.0225,"longitude":72.5714,"temp":40.0,"humidity":18,"rain":0.0,"pressure":997.2,"uv_index":8.1,"wind_gusts":23.8,"aqi":137,"pm10":107.1,"pm2_5":30.7,"no2":1.9,"co":200.0,"o3":172.0,"so2":7.6,"mosquito_risk":0,"arthritis_risk":5,"migraine_risk":10,"frizz_risk":0,"updated_at":"2026-05-06T17:20:26.438166+05:30"},{"city":"Jaipur","state":"Rajasthan","latitude":26.9124,"longitude":75.7873,"temp":34.7,"humidity":19,"rain":0.0,"pressure":957.3,"uv_index":8.1,"wind_gusts":32.4,"aqi":140,"pm10":215.1,"pm2_5":36.8,"no2":0.1,"co":228.0,"o3":161.0,"so2":4.4,"mosquito_risk":0,"arthritis_risk":5,"migraine_risk":7,"frizz_risk":0,"updated_at":"2026-05-06T17:20:26.438173+05:30"},{"city":"Lucknow","state":"Uttar Pradesh","latitude":26.8467,"longitude":80.9462,"temp":29.8,"humidity":51,"rain":0.0,"pressure":991.4,"uv_index":8.05,"wind_gusts":47.2,"aqi":149,"pm10":98.5,"pm2_5":30.9,"no2":1.4,"co":310.0,"o3":173.0,"so2":6.6,"mosquito_risk":4,"arthritis_risk":5,"migraine_risk":7,"frizz_risk":1,"updated_at":"2026-05-06T17:20:26.438179+05:30"},{"city":"Kanpur","state":"Uttar Pradesh","latitude":26.4499,"longitude":80.3319,"temp":31.6,"humidity":42,"rain":0.0,"pressure":989.3,"uv_index":8.05,"wind_gusts":28.4,"aqi":151,"pm10":214.7,"pm2_5":40.2,"no2":1.7,"co":290.0,"o3":170.0,"so2":5.1,"mosquito_risk":0,"arthritis_risk":5,"migraine_risk":7,"frizz_risk":1,"updated_at":"2026-05-06T17:20:26.438185+05:30"},{"city":"Chandigarh","state":"Chandigarh","latitude":30.7333,"longitude":76.7794,"temp":29.5,"humidity":32,"rain":0.0,"pressure":967.0,"uv_index":7.5,"wind_gusts":47.9,"aqi":162,"pm10":35.0,"pm2_5":19.6,"no2":1.3,"co":248.0,"o3":182.0,"so2":13.7,"mosquito_risk":4,"arthritis_risk":5,"migraine_risk":7,"frizz_risk":0,"updated_at":"2026-05-06T17:20:26.438192+05:30"},{"city":"Srinagar","state":"Jammu and Kashmir","latitude":34.0837,"longitude":74.7973,"temp":22.4,"humidity":42,"rain":0.0,"pressure":838.7,"uv_index":8.65,"wind_gusts":22.7,"aqi":123,"pm10":34.1,"pm2_5":9.5,"no2":0.2,"co":266.0,"o3":153.0,"so2":1.1,"mosquito_risk":0,"arthritis_risk":5,"migraine_risk":7,"frizz_risk":0,"updated_at":"2026-05-06T17:20:26.438198+05:30"},{"city":"Jammu","state":"Jammu and Kashmir","latitude":32.7266,"longitude":74.857,"temp":29.8,"humidity":27,"rain":0.0,"pressure":970.1,"uv_index":8.25,"wind_gusts":33.5,"aqi":129,"pm10":31.3,"pm2_5":16.1,"no2":1.7,"co":222.0,"o3":174.0,"so2":3.3,"mosquito_risk":4,"arthritis_risk":5,"migraine_risk":7,"frizz_risk":0,"updated_at":"2026-05-06T17:20:26.438205+05:30"},{"city":"Amritsar","state":"Punjab","latitude":31.634,"longitude":74.8723,"temp":32.2,"humidity":27,"rain":0.0,"pressure":977.9,"uv_index":8.15,"wind_gusts":33.5,"aqi":158,"pm10":42.3,"pm2_5":19.3,"no2":1.1,"co":216.0,"o3":199.0,"so2":6.2,"mosquito_risk":0,"arthritis_risk":5,"migraine_risk":7,"frizz_risk":0,"updated_at":"2026-05-06T17:20:26.438212+05:30"},{"city":"Ludhiana","state":"Punjab","latitude":30.901,"longitude":75.8573,"temp":29.2,"humidity":45,"rain":0.0,"pressure":976.5,"uv_index":7.8,"wind_gusts":38.5,"aqi":138,"pm10":56.1,"pm2_5":21.0,"no2":0.5,"co":282.0,"o3":170.0,"so2":3.6,"mosquito_risk":4,"arthritis_risk":5,"migraine_risk":7,"frizz_risk":1,"updated_at":"2026-05-06T17:20:26.438219+05:30"},{"city":"Jalandhar","state":"Punjab","latitude":31.326,"longitude":75.5762,"temp":29.4,"humidity":39,"rain":0.0,"pressure":977.5,"uv_index":7.95,"wind_gusts":41.8,"aqi":138,"pm10":55.3,"pm2_5":21.0,"no2":1.3,"co":371.0,"o3":176.0,"so2":4.6,"mosquito_risk":4,"arthritis_risk":5,"migraine_risk":7,"frizz_risk":0,"updated_at":"2026-05-06T17:20:26.438224+05:30"},{"city":"Dehradun","state":"Uttarakhand","latitude":30.6284,"longitude":78.0322,"temp":16.4,"humidity":62,"rain":0.0,"pressure":828.8,"uv_index":7.45,"wind_gusts":38.2,"aqi":115,"pm10":40.9,"pm2_5":18.8,"no2":1.6,"co":170.0,"o3":152.0,"so2":2.2,"mosquito_risk":3,"arthritis_risk":5,"migraine_risk":7,"frizz_risk":0,"updated_at":"2026-05-06T17:20:26.438230+05:30"},{"city":"Shimla","state":"Himachal Pradesh","latitude":31.1048,"longitude":77.1734,"temp":14.2,"humidity":51,"rain":0.0,"pressure":782.7,"uv_index":7.45,"wind_gusts":50.0,"aqi":137,"pm10":35.4,"pm2_5":17.6,"no2":0.4,"co":202.0,"o3":168.0,"so2":5.3,"mosquito_risk":0,"arthritis_risk":5,"migraine_risk":7,"frizz_risk":0,"updated_at":"2026-05-06T17:20:26.438238+05:30"},{"city":"Manali","state":"Himachal Pradesh","latitude":32.2396,"longitude":77.1887,"temp":12.8,"humidity":73,"rain":0.0,"pressure":815.0,"uv_index":9.55,"wind_gusts":36.7,"aqi":151,"pm10":7.9,"pm2_5":4.7,"no2":0.2,"co":163.0,"o3":183.0,"so2":0.2,"mosquito_risk":3,"arthritis_risk":5,"migraine_risk":7,"frizz_risk":0,"updated_at":"2026-05-06T17:20:26.438245+05:30"},{"city":"Gurgaon","state":"Haryana","latitude":28.4595,"longitude":77.0266,"temp":33.7,"humidity":23,"rain":0.0,"pressure":978.8,"uv_index":7.65,"wind_gusts":33.1,"aqi":200,"pm10":523.4,"pm2_5":71.0,"no2":4.2,"co":238.0,"o3":215.0,"so2":18.9,"mosquito_risk":0,"arthritis_risk":5,"migraine_risk":7,"frizz_risk":0,"updated_at":"2026-05-06T17:20:26.438250+05:30"},{"city":"Noida","state":"Uttar Pradesh","latitude":28.5355,"longitude":77.391,"temp":33.8,"humidity":25,"rain":0.0,"pressure":981.4,"uv_index":7.55,"wind_gusts":21.6,"aqi":200,"pm10":523.4,"pm2_5":71.0,"no2":4.2,"co":369.0,"o3":215.0,"so2":18.9,"mosquito_risk":0,"arthritis_risk":5,"migraine_risk":7,"frizz_risk":0,"updated_at":"2026-05-06T17:20:26.438256+05:30"},{"city":"Ghaziabad","state":"Uttar Pradesh","latitude":28.6692,"longitude":77.4538,"temp":33.2,"humidity":26,"rain":0.0,"pressure":979.9,"uv_index":7.55,"wind_gusts":25.6,"aqi":174,"pm10":158.3,"pm2_5":34.8,"no2":4.9,"co":222.0,"o3":195.0,"so2":13.3,"mosquito_risk":0,"arthritis_risk":5,"migraine_risk":7,"frizz_risk":0,"updated_at":"2026-05-06T17:20:26.438261+05:30"},{"city":"Faridabad","state":"Haryana","latitude":28.4089,"longitude":77.3178,"temp":33.7,"humidity":25,"rain":0.0,"pressure":980.6,"uv_index":7.6,"wind_gusts":22.0,"aqi":200,"pm10":523.4,"pm2_5":71.0,"no2":4.2,"co":270.0,"o3":215.0,"so2":18.9,"mosquito_risk":0,"arthritis_risk":5,"migraine_risk":7,"frizz_risk":0,"updated_at":"2026-05-06T17:20:26.438266+05:30"},{"city":"Meerut","state":"Uttar Pradesh","latitude":28.9845,"longitude":77.7064,"temp":31.6,"humidity":33,"rain":0.0,"pressure":979.0,"uv_index":7.45,"wind_gusts":27.4,"aqi":174,"pm10":158.3,"pm2_5":34.8,"no2":4.9,"co":270.0,"o3":195.0,"so2":13.3,"mosquito_risk":0,"arthritis_risk":5,"migraine_risk":7,"frizz_risk":0,"updated_at":"2026-05-06T17:20:26.438276+05:30"},{"city":"Agra","state":"Uttar Pradesh","latitude":27.1767,"longitude":78.0081,"temp":32.3,"humidity":39,"rain":0.0,"pressure":984.7,"uv_index":7.9,"wind_gusts":21.2,"aqi":161,"pm10":525.3,"pm2_5":65.7,"no2":0.9,"co":266.0,"o3":183.0,"so2":7.6,"mosquito_risk":0,"arthritis_risk":5,"migraine_risk":7,"frizz_risk":1,"updated_at":"2026-05-06T17:20:26.438282+05:30"},{"city":"Varanasi","state":"Uttar Pradesh","latitude":25.3176,"longitude":82.9739,"temp":31.3,"humidity":53,"rain":0.0,"pressure":994.3,"uv_index":8.6,"wind_gusts":69.1,"aqi":165,"pm10":52.0,"pm2_5":30.5,"no2":1.3,"co":422.0,"o3":185.0,"so2":9.7,"mosquito_risk":0,"arthritis_risk":5,"migraine_risk":7,"frizz_risk":1,"updated_at":"2026-05-06T17:20:26.438287+05:30"},{"city":"Prayagraj","state":"Uttar Pradesh","latitude":25.4358,"longitude":81.8463,"temp":32.2,"humidity":39,"rain":0.0,"pressure":993.2,"uv_index":8.45,"wind_gusts":60.1,"aqi":169,"pm10":64.0,"pm2_5":32.6,"no2":1.5,"co":284.0,"o3":179.0,"so2":10.4,"mosquito_risk":0,"arthritis_risk":5,"migraine_risk":7,"frizz_risk":1,"updated_at":"2026-05-06T17:20:26.438293+05:30"},{"city":"Gorakhpur","state":"Uttar Pradesh","latitude":26.7606,"longitude":83.3732,"temp":22.9,"humidity":83,"rain":0.1,"pressure":996.6,"uv_index":8.45,"wind_gusts":41.0,"aqi":159,"pm10":47.5,"pm2_5":23.6,"no2":2.0,"co":298.0,"o3":168.0,"so2":6.1,"mosquito_risk":6,"arthritis_risk":5,"migraine_risk":7,"frizz_risk":1,"updated_at":"2026-05-06T17:20:26.438298+05:30"},{"city":"Bareilly","state":"Uttar Pradesh","latitude":28.367,"longitude":79.4304,"temp":30.8,"humidity":39,"rain":0.0,"pressure":984.3,"uv_index":7.85,"wind_gusts":24.5,"aqi":162,"pm10":65.2,"pm2_5":25.7,"no2":1.7,"co":234.0,"o3":172.0,"so2":8.4,"mosquito_risk":0,"arthritis_risk":5,"migraine_risk":7,"frizz_risk":0,"updated_at":"2026-05-06T17:20:26.438303+05:30"},{"city":"Aligarh","state":"Uttar Pradesh","latitude":27.8974,"longitude":78.088,"temp":33.9,"humidity":23,"rain":0.0,"pressure":982.6,"uv_index":7.7,"wind_gusts":25.9,"aqi":182,"pm10":382.8,"pm2_5":60.5,"no2":2.9,"co":263.0,"o3":219.0,"so2":16.3,"mosquito_risk":0,"arthritis_risk":5,"migraine_risk":7,"frizz_risk":0,"updated_at":"2026-05-06T17:20:26.438308+05:30"},{"city":"Moradabad","state":"Uttar Pradesh","latitude":28.8386,"longitude":78.7733,"temp":31.1,"humidity":34,"rain":0.0,"pressure":981.2,"uv_index":7.65,"wind_gusts":32.0,"aqi":169,"pm10":49.6,"pm2_5":21.4,"no2":2.4,"co":247.0,"o3":167.0,"so2":11.5,"mosquito_risk":0,"arthritis_risk":5,"migraine_risk":7,"frizz_risk":0,"updated_at":"2026-05-06T17:20:26.438313+05:30"},{"city":"Saharanpur","state":"Uttar Pradesh","latitude":29.9637,"longitude":77.546,"temp":30.5,"humidity":37,"rain":0.0,"pressure":973.0,"uv_index":7.25,"wind_gusts":28.4,"aqi":159,"pm10":74.3,"pm2_5":25.8,"no2":2.9,"co":293.0,"o3":172.0,"so2":9.4,"mosquito_risk":0,"arthritis_risk":5,"migraine_risk":7,"frizz_risk":0,"updated_at":"2026-05-06T17:20:26.438317+05:30"},{"city":"Jhansi","state":"Uttar Pradesh","latitude":25.4484,"longitude":78.5685,"temp":34.3,"humidity":25,"rain":0.0,"pressure":975.2,"uv_index":8.35,"wind_gusts":29.2,"aqi":123,"pm10":60.8,"pm2_5":18.3,"no2":1.0,"co":216.0,"o3":157.0,"so2":7.5,"mosquito_risk":0,"arthritis_risk":5,"migraine_risk":7,"frizz_risk":0,"updated_at":"2026-05-06T17:20:29.770186+05:30"},{"city":"Surat","state":"Gujarat","latitude":21.1702,"longitude":72.8311,"temp":34.7,"humidity":44,"rain":0.0,"pressure":1002.4,"uv_index":7.7,"wind_gusts":35.3,"aqi":91,"pm10":85.9,"pm2_5":44.8,"no2":35.2,"co":841.0,"o3":68.0,"so2":89.9,"mosquito_risk":0,"arthritis_risk":5,"migraine_risk":4,"frizz_risk":1,"updated_at":"2026-05-06T17:20:29.770215+05:30"},{"city":"Vadodara","state":"Gujarat","latitude":22.3072,"longitude":73.1812,"temp":39.2,"humidity":20,"rain":0.0,"pressure":999.4,"uv_index":8.05,"wind_gusts":28.8,"aqi":84,"pm10":111.5,"pm2_5":32.8,"no2":0.9,"co":205.0,"o3":165.0,"so2":7.3,"mosquito_risk":0,"arthritis_risk":5,"migraine_risk":10,"frizz_risk":0,"updated_at":"2026-05-06T17:20:29.770224+05:30"},{"city":"Rajkot","state":"Gujarat","latitude":22.3039,"longitude":70.8022,"temp":38.2,"humidity":19,"rain":0.0,"pressure":990.1,"uv_index":7.7,"wind_gusts":44.6,"aqi":71,"pm10":97.8,"pm2_5":24.5,"no2":0.9,"co":152.0,"o3":145.0,"so2":4.9,"mosquito_risk":0,"arthritis_risk":5,"migraine_risk":10,"frizz_risk":0,"updated_at":"2026-05-06T17:20:29.770231+05:30"},{"city":"Thane","state":"Maharashtra","latitude":19.2183,"longitude":72.9781,"temp":33.0,"humidity":57,"rain":0.0,"pressure":1003.2,"uv_index":7.9,"wind_gusts":43.9,"aqi":90,"pm10":70.8,"pm2_5":24.9,"no2":6.1,"co":187.0,"o3":98.0,"so2":12.6,"mosquito_risk":0,"arthritis_risk":5,"migraine_risk":4,"frizz_risk":1,"updated_at":"2026-05-06T17:20:29.770237+05:30"},{"city":"Nagpur","state":"Maharashtra","latitude":21.1458,"longitude":79.0882,"temp":36.3,"humidity":24,"rain":0.0,"pressure":969.6,"uv_index":8.9,"wind_gusts":28.8,"aqi":152,"pm10":53.9,"pm2_5":25.8,"no2":4.3,"co":181.0,"o3":173.0,"so2":19.3,"mosquito_risk":0,"arthritis_risk":5,"migraine_risk":10,"frizz_risk":0,"updated_at":"2026-05-06T17:20:29.770242+05:30"},{"city":"Nashik","state":"Maharashtra","latitude":19.9975,"longitude":73.7898,"temp":35.3,"humidity":19,"rain":0.0,"pressure":942.3,"uv_index":8.2,"wind_gusts":36.0,"aqi":68,"pm10":44.4,"pm2_5":14.7,"no2":1.1,"co":147.0,"o3":123.0,"so2":0.7,"mosquito_risk":0,"arthritis_risk":5,"migraine_risk":10,"frizz_risk":0,"updated_at":"2026-05-06T17:20:29.770248+05:30"},{"city":"Aurangabad","state":"Maharashtra","latitude":19.8762,"longitude":75.3433,"temp":36.5,"humidity":15,"rain":0.0,"pressure":940.6,"uv_index":9.05,"wind_gusts":37.8,"aqi":94,"pm10":54.2,"pm2_5":17.9,"no2":0.9,"co":153.0,"o3":146.0,"so2":3.1,"mosquito_risk":0,"arthritis_risk":5,"migraine_risk":10,"frizz_risk":0,"updated_at":"2026-05-06T17:20:29.770253+05:30"},{"city":"Solapur","state":"Maharashtra","latitude":17.6599,"longitude":75.9064,"temp":38.2,"humidity":16,"rain":0.0,"pressure":952.4,"uv_index":9.05,"wind_gusts":42.5,"aqi":89,"pm10":46.9,"pm2_5":17.1,"no2":1.2,"co":161.0,"o3":141.0,"so2":4.9,"mosquito_risk":0,"arthritis_risk":5,"migraine_risk":10,"frizz_risk":0,"updated_at":"2026-05-06T17:20:29.770259+05:30"},{"city":"Kolhapur","state":"Maharashtra","latitude":16.705,"longitude":74.2433,"temp":35.0,"humidity":29,"rain":0.0,"pressure":943.2,"uv_index":8.95,"wind_gusts":42.5,"aqi":64,"pm10":47.7,"pm2_5":17.8,"no2":6.5,"co":169.0,"o3":125.0,"so2":2.6,"mosquito_risk":0,"arthritis_risk":5,"migraine_risk":7,"frizz_risk":0,"updated_at":"2026-05-06T17:20:29.770265+05:30"},{"city":"Goa","state":"Goa","latitude":15.2993,"longitude":74.124,"temp":33.8,"humidity":48,"rain":0.0,"pressure":992.7,"uv_index":8.3,"wind_gusts":42.5,"aqi":66,"pm10":47.8,"pm2_5":17.4,"no2":1.0,"co":142.0,"o3":87.0,"so2":1.0,"mosquito_risk":0,"arthritis_risk":5,"migraine_risk":7,"frizz_risk":1,"updated_at":"2026-05-06T17:20:29.770270+05:30"},{"city":"Jodhpur","state":"Rajasthan","latitude":26.2389,"longitude":73.0243,"temp":38.4,"humidity":12,"rain":0.0,"pressure":979.3,"uv_index":8.3,"wind_gusts":28.8,"aqi":103,"pm10":148.1,"pm2_5":24.2,"no2":0.5,"co":185.0,"o3":155.0,"so2":3.3,"mosquito_risk":0,"arthritis_risk":5,"migraine_risk":10,"frizz_risk":0,"updated_at":"2026-05-06T17:20:29.770276+05:30"},{"city":"Udaipur","state":"Rajasthan","latitude":24.5854,"longitude":73.7125,"temp":34.5,"humidity":21,"rain":0.0,"pressure":943.8,"uv_index":8.75,"wind_gusts":23.0,"aqi":124,"pm10":54.6,"pm2_5":15.5,"no2":0.6,"co":162.0,"o3":155.0,"so2":3.3,"mosquito_risk":0,"arthritis_risk":5,"migraine_risk":7,"frizz_risk":0,"updated_at":"2026-05-06T17:20:29.770282+05:30"},{"city":"Kota","state":"Rajasthan","latitude":25.2138,"longitude":75.8648,"temp":36.8,"humidity":16,"rain":0.0,"pressure":975.8,"uv_index":8.3,"wind_gusts":29.5,"aqi":130,"pm10":53.4,"pm2_5":17.5,"no2":0.4,"co":195.0,"o3":161.0,"so2":4.5,"mosquito_risk":0,"arthritis_risk":5,"migraine_risk":10,"frizz_risk":0,"updated_at":"2026-05-06T17:20:29.770287+05:30"},{"city":"Bikaner","state":"Rajasthan","latitude":28.0229,"longitude":73.3119,"temp":37.5,"humidity":13,"rain":0.0,"pressure":978.1,"uv_index":8.25,"wind_gusts":32.4,"aqi":120,"pm10":99.0,"pm2_5":24.9,"no2":0.2,"co":219.0,"o3":149.0,"so2":6.4,"mosquito_risk":0,"arthritis_risk":5,"migraine_risk":10,"frizz_risk":0,"updated_at":"2026-05-06T17:20:29.770292+05:30"},{"city":"Ajmer","state":"Rajasthan","latitude":26.4499,"longitude":74.6399,"temp":34.8,"humidity":16,"rain":0.0,"pressure":952.3,"uv_index":8.25,"wind_gusts":32.0,"aqi":118,"pm10":68.7,"pm2_5":19.2,"no2":0.1,"co":192.0,"o3":156.0,"so2":3.3,"mosquito_risk":0,"arthritis_risk":5,"migraine_risk":7,"frizz_risk":0,"updated_at":"2026-05-06T17:20:29.770297+05:30"},{"city":"Gwalior","state":"Madhya Pradesh","latitude":26.2183,"longitude":78.1828,"temp":32.5,"humidity":37,"rain":0.0,"pressure":980.1,"uv_index":8.1,"wind_gusts":21.2,"aqi":136,"pm10":126.7,"pm2_5":29.4,"no2":0.3,"co":259.0,"o3":167.0,"so2":4.2,"mosquito_risk":0,"arthritis_risk":5,"migraine_risk":7,"frizz_risk":0,"updated_at":"2026-05-06T17:20:29.770303+05:30"},{"city":"Indore","state":"Madhya Pradesh","latitude":22.7196,"longitude":75.8577,"temp":37.1,"humidity":11,"rain":0.0,"pressure":944.8,"uv_index":8.6,"wind_gusts":30.2,"aqi":118,"pm10":23.5,"pm2_5":9.1,"no2":0.8,"co":186.0,"o3":158.0,"so2":2.5,"mosquito_risk":0,"arthritis_risk":5,"migraine_risk":10,"frizz_risk":0,"updated_at":"2026-05-06T17:20:29.770308+05:30"},{"city":"Bhopal","state":"Madhya Pradesh","latitude":23.2599,"longitude":77.4126,"temp":36.8,"humidity":12,"rain":0.0,"pressure":950.4,"uv_index":8.65,"wind_gusts":37.8,"aqi":122,"pm10":20.5,"pm2_5":9.7,"no2":0.6,"co":183.0,"o3":158.0,"so2":4.0,"mosquito_risk":0,"arthritis_risk":5,"migraine_risk":10,"frizz_risk":0,"updated_at":"2026-05-06T17:20:29.770313+05:30"},{"city":"Jabalpur","state":"Madhya Pradesh","latitude":23.1815,"longitude":79.9864,"temp":36.5,"humidity":14,"rain":0.0,"pressure":957.8,"uv_index":8.8,"wind_gusts":32.4,"aqi":132,"pm10":38.1,"pm2_5":14.8,"no2":1.3,"co":183.0,"o3":159.0,"so2":3.3,"mosquito_risk":0,"arthritis_risk":5,"migraine_risk":10,"frizz_risk":0,"updated_at":"2026-05-06T17:20:29.770319+05:30"},{"city":"Ujjain","state":"Madhya Pradesh","latitude":23.1765,"longitude":75.7885,"temp":37.7,"humidity":11,"rain":0.0,"pressure":950.3,"uv_index":8.55,"wind_gusts":29.5,"aqi":109,"pm10":26.8,"pm2_5":10.2,"no2":0.4,"co":169.0,"o3":155.0,"so2":3.0,"mosquito_risk":0,"arthritis_risk":5,"migraine_risk":10,"frizz_risk":0,"updated_at":"2026-05-06T17:20:29.770325+05:30"},{"city":"Visakhapatnam","state":"Andhra Pradesh","latitude":17.6868,"longitude":83.2185,"temp":30.1,"humidity":69,"rain":0.0,"pressure":1001.4,"uv_index":9.15,"wind_gusts":36.0,"aqi":80,"pm10":16.5,"pm2_5":11.7,"no2":19.9,"co":286.0,"o3":52.0,"so2":14.3,"mosquito_risk":3,"arthritis_risk":5,"migraine_risk":4,"frizz_risk":1,"updated_at":"2026-05-06T17:20:29.770331+05:30"},{"city":"Vijayawada","state":"Andhra Pradesh","latitude":16.5062,"longitude":80.648,"temp":32.7,"humidity":55,"rain":0.0,"pressure":999.5,"uv_index":9.2,"wind_gusts":39.2,"aqi":62,"pm10":24.6,"pm2_5":17.3,"no2":3.6,"co":258.0,"o3":96.0,"so2":6.3,"mosquito_risk":0,"arthritis_risk":5,"migraine_risk":7,"frizz_risk":1,"updated_at":"2026-05-06T17:20:29.770337+05:30"},{"city":"Guntur","state":"Andhra Pradesh","latitude":16.3067,"longitude":80.4365,"temp":32.8,"humidity":53,"rain":0.0,"pressure":1000.7,"uv_index":9.2,"wind_gusts":39.2,"aqi":67,"pm10":35.6,"pm2_5":25.0,"no2":3.2,"co":187.0,"o3":118.0,"so2":4.7,"mosquito_risk":0,"arthritis_risk":5,"migraine_risk":4,"frizz_risk":1,"updated_at":"2026-05-06T17:20:29.770343+05:30"},{"city":"Nellore","state":"Andhra Pradesh","latitude":14.4426,"longitude":79.9865,"temp":31.0,"humidity":63,"rain":0.0,"pressure":1002.1,"uv_index":9.25,"wind_gusts":40.7,"aqi":55,"pm10":12.5,"pm2_5":9.3,"no2":1.6,"co":171.0,"o3":104.0,"so2":2.3,"mosquito_risk":3,"arthritis_risk":5,"migraine_risk":4,"frizz_risk":1,"updated_at":"2026-05-06T17:20:29.770349+05:30"},{"city":"Kurnool","state":"Andhra Pradesh","latitude":15.8281,"longitude":78.0373,"temp":37.5,"humidity":26,"rain":0.0,"pressure":971.9,"uv_index":9.2,"wind_gusts":38.5,"aqi":98,"pm10":50.2,"pm2_5":25.1,"no2":1.2,"co":199.0,"o3":137.0,"so2":3.0,"mosquito_risk":0,"arthritis_risk":5,"migraine_risk":10,"frizz_risk":0,"updated_at":"2026-05-06T17:20:29.770354+05:30"},{"city":"Kakinada","state":"Andhra Pradesh","latitude":16.9891,"longitude":82.2475,"temp":30.5,"humidity":69,"rain":0.0,"pressure":1004.7,"uv_index":9.15,"wind_gusts":32.0,"aqi":51,"pm10":13.0,"pm2_5":6.9,"no2":1.0,"co":158.0,"o3":66.0,"so2":0.7,"mosquito_risk":3,"arthritis_risk":5,"migraine_risk":4,"frizz_risk":1,"updated_at":"2026-05-06T17:20:29.770359+05:30"},{"city":"Tirupati","state":"Andhra Pradesh","latitude":13.6288,"longitude":79.4192,"temp":32.9,"humidity":49,"rain":0.0,"pressure":987.3,"uv_index":9.3,"wind_gusts":41.0,"aqi":107,"pm10":32.6,"pm2_5":25.6,"no2":3.1,"co":215.0,"o3":148.0,"so2":9.1,"mosquito_risk":0,"arthritis_risk":5,"migraine_risk":7,"frizz_risk":1,"updated_at":"2026-05-06T17:20:29.770365+05:30"},{"city":"Warangal","state":"Telangana","latitude":17.9689,"longitude":79.5941,"temp":36.2,"humidity":31,"rain":0.0,"pressure":974.8,"uv_index":9.2,"wind_gusts":41.0,"aqi":105,"pm10":52.7,"pm2_5":27.5,"no2":1.4,"co":216.0,"o3":151.0,"so2":5.7,"mosquito_risk":0,"arthritis_risk":5,"migraine_risk":10,"frizz_risk":1,"updated_at":"2026-05-06T17:20:29.770370+05:30"},{"city":"Nizamabad","state":"Telangana","latitude":18.6725,"longitude":78.0941,"temp":36.0,"humidity":23,"rain":0.0,"pressure":961.3,"uv_index":9.15,"wind_gusts":34.9,"aqi":111,"pm10":53.9,"pm2_5":24.3,"no2":0.3,"co":147.0,"o3":152.0,"so2":4.3,"mosquito_risk":0,"arthritis_risk":5,"migraine_risk":10,"frizz_risk":0,"updated_at":"2026-05-06T17:20:29.770375+05:30"},{"city":"Mysore","state":"Karnataka","latitude":12.2958,"longitude":76.6396,"temp":31.5,"humidity":39,"rain":0.0,"pressure":925.0,"uv_index":9.4,"wind_gusts":31.0,"aqi":76,"pm10":39.7,"pm2_5":19.0,"no2":2.2,"co":205.0,"o3":147.0,"so2":3.6,"mosquito_risk":0,"arthritis_risk":5,"migraine_risk":7,"frizz_risk":0,"updated_at":"2026-05-06T17:20:29.770380+05:30"},{"city":"Mangalore","state":"Karnataka","latitude":12.9141,"longitude":74.856,"temp":31.6,"humidity":65,"rain":0.0,"pressure":1001.2,"uv_index":9.05,"wind_gusts":55.8,"aqi":65,"pm10":41.1,"pm2_5":16.4,"no2":1.3,"co":144.0,"o3":83.0,"so2":0.7,"mosquito_risk":3,"arthritis_risk":5,"migraine_risk":4,"frizz_risk":1,"updated_at":"2026-05-06T17:20:29.770386+05:30"},{"city":"Hubli-Dharwad","state":"Karnataka","latitude":15.3647,"longitude":75.124,"temp":36.9,"humidity":18,"rain":0.0,"pressure":936.1,"uv_index":9.05,"wind_gusts":42.8,"aqi":68,"pm10":41.6,"pm2_5":16.4,"no2":0.8,"co":163.0,"o3":148.0,"so2":2.2,"mosquito_risk":0,"arthritis_risk":5,"migraine_risk":10,"frizz_risk":0,"updated_at":"2026-05-06T17:20:29.770391+05:30"},{"city":"Belgaum","state":"Karnataka","latitude":15.8497,"longitude":74.4977,"temp":34.7,"humidity":19,"rain":0.0,"pressure":921.9,"uv_index":8.8,"wind_gusts":46.4,"aqi":62,"pm10":48.7,"pm2_5":18.1,"no2":1.9,"co":161.0,"o3":134.0,"so2":2.7,"mosquito_risk":0,"arthritis_risk":5,"migraine_risk":7,"frizz_risk":0,"updated_at":"2026-05-06T17:20:33.110936+05:30"},{"city":"Coimbatore","state":"Tamil Nadu","latitude":11.0168,"longitude":76.9558,"temp":34.8,"humidity":32,"rain":0.0,"pressure":957.2,"uv_index":9.35,"wind_gusts":37.8,"aqi":114,"pm10":40.2,"pm2_5":22.7,"no2":2.7,"co":278.0,"o3":148.0,"so2":3.5,"mosquito_risk":0,"arthritis_risk":5,"migraine_risk":7,"frizz_risk":0,"updated_at":"2026-05-06T17:20:33.110967+05:30"},{"city":"Madurai","state":"Tamil Nadu","latitude":9.9252,"longitude":78.1198,"temp":31.8,"humidity":56,"rain":0.1,"pressure":989.0,"uv_index":8.9,"wind_gusts":50.0,"aqi":121,"pm10":35.9,"pm2_5":23.6,"no2":3.0,"co":241.0,"o3":149.0,"so2":3.6,"mosquito_risk":3,"arthritis_risk":5,"migraine_risk":7,"frizz_risk":1,"updated_at":"2026-05-06T17:20:33.110977+05:30"},{"city":"Trichy","state":"Tamil Nadu","latitude":10.7905,"longitude":78.7047,"temp":32.1,"humidity":58,"rain":0.0,"pressure":995.9,"uv_index":8.9,"wind_gusts":42.5,"aqi":98,"pm10":38.3,"pm2_5":26.3,"no2":3.1,"co":246.0,"o3":153.0,"so2":6.2,"mosquito_risk":0,"arthritis_risk":5,"migraine_risk":7,"frizz_risk":1,"updated_at":"2026-05-06T17:20:33.110984+05:30"},{"city":"Salem","state":"Tamil Nadu","latitude":11.6643,"longitude":78.146,"temp":32.3,"humidity":49,"rain":0.0,"pressure":973.1,"uv_index":9.25,"wind_gusts":43.2,"aqi":160,"pm10":49.1,"pm2_5":30.3,"no2":4.0,"co":239.0,"o3":188.0,"so2":10.8,"mosquito_risk":0,"arthritis_risk":5,"migraine_risk":7,"frizz_risk":1,"updated_at":"2026-05-06T17:20:33.110990+05:30"},{"city":"Tirunelveli","state":"Tamil Nadu","latitude":8.7139,"longitude":77.7567,"temp":28.9,"humidity":73,"rain":0.0,"pressure":999.6,"uv_index":8.8,"wind_gusts":48.2,"aqi":117,"pm10":45.5,"pm2_5":31.4,"no2":4.9,"co":241.0,"o3":136.0,"so2":5.8,"mosquito_risk":7,"arthritis_risk":5,"migraine_risk":7,"frizz_risk":1,"updated_at":"2026-05-06T17:20:33.110997+05:30"},{"city":"Vellore","state":"Tamil Nadu","latitude":12.9165,"longitude":79.1325,"temp":32.2,"humidity":52,"rain":0.0,"pressure":980.8,"uv_index":9.3,"wind_gusts":47.9,"aqi":143,"pm10":49.0,"pm2_5":38.6,"no2":3.5,"co":221.0,"o3":170.0,"so2":10.2,"mosquito_risk":0,"arthritis_risk":5,"migraine_risk":7,"frizz_risk":1,"updated_at":"2026-05-06T17:20:33.111003+05:30"},{"city":"Erode","state":"Tamil Nadu","latitude":11.341,"longitude":77.7172,"temp":35.7,"humidity":36,"rain":0.0,"pressure":984.2,"uv_index":9.25,"wind_gusts":42.8,"aqi":142,"pm10":66.8,"pm2_5":39.9,"no2":3.3,"co":245.0,"o3":182.0,"so2":6.8,"mosquito_risk":0,"arthritis_risk":5,"migraine_risk":10,"frizz_risk":1,"updated_at":"2026-05-06T17:20:33.111009+05:30"},{"city":"Kochi","state":"Kerala","latitude":9.9312,"longitude":76.2673,"temp":29.2,"humidity":80,"rain":0.0,"pressure":1004.2,"uv_index":7.95,"wind_gusts":37.8,"aqi":69,"pm10":36.4,"pm2_5":19.7,"no2":2.2,"co":145.0,"o3":108.0,"so2":1.8,"mosquito_risk":7,"arthritis_risk":5,"migraine_risk":4,"frizz_risk":1,"updated_at":"2026-05-06T17:20:33.111015+05:30"},{"city":"Thiruvananthapuram","state":"Kerala","latitude":8.5241,"longitude":76.9366,"temp":27.1,"humidity":85,"rain":0.0,"pressure":1004.2,"uv_index":8.35,"wind_gusts":36.7,"aqi":62,"pm10":26.6,"pm2_5":14.6,"no2":3.3,"co":232.0,"o3":110.0,"so2":2.0,"mosquito_risk":7,"arthritis_risk":5,"migraine_risk":4,"frizz_risk":1,"updated_at":"2026-05-06T17:20:33.111021+05:30"},{"city":"Kozhikode","state":"Kerala","latitude":11.2588,"longitude":75.7804,"temp":31.2,"humidity":77,"rain":0.0,"pressure":1002.5,"uv_index":9.05,"wind_gusts":43.2,"aqi":66,"pm10":42.8,"pm2_5":18.0,"no2":0.7,"co":149.0,"o3":80.0,"so2":0.7,"mosquito_risk":3,"arthritis_risk":5,"migraine_risk":4,"frizz_risk":1,"updated_at":"2026-05-06T17:20:33.111027+05:30"},{"city":"Thrissur","state":"Kerala","latitude":10.5276,"longitude":76.2144,"temp":28.5,"humidity":84,"rain":0.0,"pressure":1002.5,"uv_index":9.05,"wind_gusts":33.5,"aqi":78,"pm10":40.9,"pm2_5":23.1,"no2":1.6,"co":133.0,"o3":117.0,"so2":2.4,"mosquito_risk":7,"arthritis_risk":5,"migraine_risk":4,"frizz_risk":1,"updated_at":"2026-05-06T17:20:33.111034+05:30"},{"city":"Kannur","state":"Kerala","latitude":11.8745,"longitude":75.3704,"temp":32.5,"humidity":64,"rain":0.0,"pressure":1001.5,"uv_index":9.05,"wind_gusts":59.8,"aqi":64,"pm10":42.7,"pm2_5":17.8,"no2":1.5,"co":158.0,"o3":93.0,"so2":0.9,"mosquito_risk":3,"arthritis_risk":5,"migraine_risk":4,"frizz_risk":1,"updated_at":"2026-05-06T17:20:33.111039+05:30"},{"city":"Patna","state":"Bihar","latitude":25.5941,"longitude":85.1376,"temp":28.5,"humidity":67,"rain":0.0,"pressure":997.9,"uv_index":8.7,"wind_gusts":36.7,"aqi":163,"pm10":56.2,"pm2_5":34.5,"no2":2.5,"co":349.0,"o3":176.0,"so2":6.6,"mosquito_risk":7,"arthritis_risk":5,"migraine_risk":7,"frizz_risk":1,"updated_at":"2026-05-06T17:20:33.111044+05:30"},{"city":"Gaya","state":"Bihar","latitude":24.7914,"longitude":85.0002,"temp":31.0,"humidity":50,"rain":0.0,"pressure":991.1,"uv_index":8.75,"wind_gusts":54.7,"aqi":170,"pm10":60.8,"pm2_5":36.6,"no2":1.0,"co":330.0,"o3":174.0,"so2":3.0,"mosquito_risk":0,"arthritis_risk":5,"migraine_risk":7,"frizz_risk":1,"updated_at":"2026-05-06T17:20:33.111050+05:30"},{"city":"Muzaffarpur","state":"Bihar","latitude":26.1209,"longitude":85.3647,"temp":25.7,"humidity":73,"rain":0.0,"pressure":998.6,"uv_index":8.7,"wind_gusts":33.1,"aqi":163,"pm10":52.5,"pm2_5":32.0,"no2":3.1,"co":328.0,"o3":182.0,"so2":10.1,"mosquito_risk":7,"arthritis_risk":5,"migraine_risk":7,"frizz_risk":1,"updated_at":"2026-05-06T17:20:33.111056+05:30"},{"city":"Bhagalpur","state":"Bihar","latitude":25.2425,"longitude":87.0117,"temp":26.8,"humidity":72,"rain":0.0,"pressure":999.7,"uv_index":8.7,"wind_gusts":32.8,"aqi":186,"pm10":42.8,"pm2_5":34.5,"no2":6.4,"co":337.0,"o3":201.0,"so2":9.0,"mosquito_risk":7,"arthritis_risk":5,"migraine_risk":7,"frizz_risk":1,"updated_at":"2026-05-06T17:20:33.111061+05:30"},{"city":"Ranchi","state":"Jharkhand","latitude":23.3441,"longitude":85.3096,"temp":28.1,"humidity":46,"rain":0.0,"pressure":935.6,"uv_index":9.2,"wind_gusts":29.9,"aqi":167,"pm10":42.7,"pm2_5":23.9,"no2":2.8,"co":256.0,"o3":186.0,"so2":8.3,"mosquito_risk":4,"arthritis_risk":5,"migraine_risk":7,"frizz_risk":0,"updated_at":"2026-05-06T17:20:33.111067+05:30"},{"city":"Jamshedpur","state":"Jharkhand","latitude":22.8046,"longitude":86.2029,"temp":29.2,"humidity":55,"rain":0.0,"pressure":988.5,"uv_index":9.05,"wind_gusts":32.8,"aqi":206,"pm10":75.2,"pm2_5":61.0,"no2":10.6,"co":284.0,"o3":234.0,"so2":39.2,"mosquito_risk":4,"arthritis_risk":5,"migraine_risk":7,"frizz_risk":1,"updated_at":"2026-05-06T17:20:33.111072+05:30"},{"city":"Dhanbad","state":"Jharkhand","latitude":23.7957,"longitude":86.4304,"temp":29.4,"humidity":56,"rain":0.0,"pressure":977.7,"uv_index":8.95,"wind_gusts":27.4,"aqi":176,"pm10":78.5,"pm2_5":60.3,"no2":24.0,"co":332.0,"o3":186.0,"so2":50.4,"mosquito_risk":4,"arthritis_risk":5,"migraine_risk":7,"frizz_risk":1,"updated_at":"2026-05-06T17:20:33.111077+05:30"},{"city":"Bokaro","state":"Jharkhand","latitude":23.6693,"longitude":86.1511,"temp":30.8,"humidity":50,"rain":0.0,"pressure":981.2,"uv_index":9.0,"wind_gusts":26.3,"aqi":187,"pm10":81.5,"pm2_5":61.0,"no2":23.5,"co":329.0,"o3":202.0,"so2":56.7,"mosquito_risk":0,"arthritis_risk":5,"migraine_risk":7,"frizz_risk":1,"updated_at":"2026-05-06T17:20:33.111083+05:30"},{"city":"Bhubaneswar","state":"Odisha","latitude":20.2961,"longitude":85.8245,"temp":30.0,"humidity":67,"rain":0.0,"pressure":1000.3,"uv_index":9.1,"wind_gusts":34.9,"aqi":153,"pm10":28.3,"pm2_5":20.4,"no2":3.6,"co":248.0,"o3":113.0,"so2":4.9,"mosquito_risk":7,"arthritis_risk":5,"migraine_risk":4,"frizz_risk":1,"updated_at":"2026-05-06T17:20:33.111088+05:30"},{"city":"Cuttack","state":"Odisha","latitude":20.4625,"longitude":85.8828,"temp":30.5,"humidity":65,"rain":0.0,"pressure":1001.9,"uv_index":9.15,"wind_gusts":36.4,"aqi":153,"pm10":28.3,"pm2_5":20.4,"no2":3.6,"co":281.0,"o3":113.0,"so2":4.9,"mosquito_risk":3,"arthritis_risk":5,"migraine_risk":4,"frizz_risk":1,"updated_at":"2026-05-06T17:20:33.111093+05:30"},{"city":"Rourkela","state":"Odisha","latitude":22.2604,"longitude":84.8536,"temp":33.5,"humidity":37,"rain":0.0,"pressure":981.6,"uv_index":8.95,"wind_gusts":31.0,"aqi":169,"pm10":39.9,"pm2_5":22.1,"no2":6.2,"co":260.0,"o3":174.0,"so2":14.9,"mosquito_risk":0,"arthritis_risk":5,"migraine_risk":7,"frizz_risk":1,"updated_at":"2026-05-06T17:20:33.111098+05:30"},{"city":"Raipur","state":"Chhattisgarh","latitude":21.2514,"longitude":81.6296,"temp":36.4,"humidity":24,"rain":0.0,"pressure":971.1,"uv_index":9.0,"wind_gusts":35.6,"aqi":157,"pm10":50.1,"pm2_5":26.3,"no2":5.8,"co":258.0,"o3":177.0,"so2":4.1,"mosquito_risk":0,"arthritis_risk":5,"migraine_risk":10,"frizz_risk":0,"updated_at":"2026-05-06T17:20:33.111103+05:30"},{"city":"Bhilai","state":"Chhattisgarh","latitude":21.1938,"longitude":81.3509,"temp":36.0,"humidity":25,"rain":0.0,"pressure":971.5,"uv_index":9.0,"wind_gusts":31.7,"aqi":131,"pm10":48.1,"pm2_5":24.1,"no2":5.6,"co":374.0,"o3":158.0,"so2":3.6,"mosquito_risk":0,"arthritis_risk":5,"migraine_risk":10,"frizz_risk":0,"updated_at":"2026-05-06T17:20:33.111108+05:30"},{"city":"Guwahati","state":"Assam","latitude":26.1158,"longitude":91.7086,"temp":26.9,"humidity":78,"rain":0.0,"pressure":999.4,"uv_index":8.65,"wind_gusts":32.4,"aqi":87,"pm10":33.4,"pm2_5":25.5,"no2":2.5,"co":252.0,"o3":124.0,"so2":1.5,"mosquito_risk":7,"arthritis_risk":5,"migraine_risk":7,"frizz_risk":1,"updated_at":"2026-05-06T17:20:33.111113+05:30"},{"city":"Agartala","state":"Tripura","latitude":23.8315,"longitude":91.2868,"temp":28.9,"humidity":75,"rain":0.0,"pressure":1004.2,"uv_index":8.85,"wind_gusts":14.0,"aqi":88,"pm10":33.8,"pm2_5":27.7,"no2":11.3,"co":217.0,"o3":134.0,"so2":1.8,"mosquito_risk":7,"arthritis_risk":5,"migraine_risk":4,"frizz_risk":1,"updated_at":"2026-05-06T17:20:33.111118+05:30"},{"city":"Shillong","state":"Meghalaya","latitude":25.5788,"longitude":91.8933,"temp":18.9,"humidity":83,"rain":0.0,"pressure":856.1,"uv_index":8.25,"wind_gusts":27.0,"aqi":95,"pm10":27.2,"pm2_5":19.6,"no2":2.3,"co":246.0,"o3":129.0,"so2":1.3,"mosquito_risk":3,"arthritis_risk":10,"migraine_risk":7,"frizz_risk":0,"updated_at":"2026-05-06T17:20:33.111124+05:30"},{"city":"Imphal","state":"Manipur","latitude":24.817,"longitude":93.9368,"temp":24.8,"humidity":66,"rain":0.0,"pressure":921.5,"uv_index":8.85,"wind_gusts":33.1,"aqi":78,"pm10":22.5,"pm2_5":15.6,"no2":2.5,"co":244.0,"o3":89.0,"so2":1.3,"mosquito_risk":3,"arthritis_risk":5,"migraine_risk":7,"frizz_risk":1,"updated_at":"2026-05-06T17:20:33.111130+05:30"},{"city":"Aizawl","state":"Mizoram","latitude":23.7271,"longitude":92.7176,"temp":23.3,"humidity":68,"rain":0.0,"pressure":891.4,"uv_index":8.75,"wind_gusts":20.5,"aqi":63,"pm10":22.2,"pm2_5":13.0,"no2":3.7,"co":207.0,"o3":91.0,"so2":1.3,"mosquito_risk":3,"arthritis_risk":5,"migraine_risk":7,"frizz_risk":1,"updated_at":"2026-05-06T17:20:33.111135+05:30"},{"city":"Kohima","state":"Nagaland","latitude":25.6701,"longitude":94.1077,"temp":18.9,"humidity":92,"rain":0.1,"pressure":854.4,"uv_index":9.15,"wind_gusts":31.7,"aqi":82,"pm10":32.7,"pm2_5":21.7,"no2":3.6,"co":241.0,"o3":106.0,"so2":1.2,"mosquito_risk":6,"arthritis_risk":10,"migraine_risk":7,"frizz_risk":1,"updated_at":"2026-05-06T17:20:33.111141+05:30"},{"city":"Gangtok","state":"Sikkim","latitude":27.3314,"longitude":88.6138,"temp":16.3,"humidity":87,"rain":0.0,"pressure":835.1,"uv_index":8.7,"wind_gusts":29.9,"aqi":86,"pm10":26.5,"pm2_5":15.8,"no2":2.4,"co":277.0,"o3":133.0,"so2":1.2,"mosquito_risk":3,"arthritis_risk":10,"migraine_risk":7,"frizz_risk":0,"updated_at":"2026-05-06T17:20:33.111146+05:30"},{"city":"Siliguri","state":"West Bengal","latitude":26.7271,"longitude":88.3953,"temp":26.4,"humidity":74,"rain":0.0,"pressure":990.8,"uv_index":8.4,"wind_gusts":20.5,"aqi":100,"pm10":34.8,"pm2_5":25.1,"no2":6.3,"co":511.0,"o3":138.0,"so2":2.3,"mosquito_risk":7,"arthritis_risk":5,"migraine_risk":7,"frizz_risk":1,"updated_at":"2026-05-06T17:20:36.479077+05:30"},{"city":"Durgapur","state":"West Bengal","latitude":23.5204,"longitude":87.3119,"temp":28.7,"humidity":71,"rain":0.0,"pressure":993.0,"uv_index":8.9,"wind_gusts":27.7,"aqi":208,"pm10":95.0,"pm2_5":81.0,"no2":24.5,"co":326.0,"o3":259.0,"so2":82.3,"mosquito_risk":7,"arthritis_risk":5,"migraine_risk":7,"frizz_risk":1,"updated_at":"2026-05-06T17:20:36.479108+05:30"},{"city":"Asansol","state":"West Bengal","latitude":23.6739,"longitude":86.9524,"temp":28.7,"humidity":66,"rain":0.0,"pressure":991.6,"uv_index":8.95,"wind_gusts":27.0,"aqi":195,"pm10":78.9,"pm2_5":62.4,"no2":19.8,"co":437.0,"o3":216.0,"so2":58.5,"mosquito_risk":7,"arthritis_risk":5,"migraine_risk":7,"frizz_risk":1,"updated_at":"2026-05-06T17:20:36.479117+05:30"},{"city":"Pondicherry","state":"Puducherry","latitude":11.9139,"longitude":79.8145,"temp":30.2,"humidity":71,"rain":0.0,"pressure":1004.9,"uv_index":8.75,"wind_gusts":37.4,"aqi":68,"pm10":19.8,"pm2_5":12.1,"no2":1.7,"co":198.0,"o3":105.0,"so2":0.6,"mosquito_risk":3,"arthritis_risk":5,"migraine_risk":4,"frizz_risk":1,"updated_at":"2026-05-06T17:20:36.479125+05:30"},{"city":"Port Blair","state":"Andaman and Nicobar Islands","latitude":11.6234,"longitude":92.7265,"temp":28.1,"humidity":83,"rain":0.1,"pressure":1004.8,"uv_index":9.05,"wind_gusts":36.7,"aqi":30,"pm10":9.4,"pm2_5":7.2,"no2":0.5,"co":166.0,"o3":61.0,"so2":0.1,"mosquito_risk":10,"arthritis_risk":5,"migraine_risk":4,"frizz_risk":1,"updated_at":"2026-05-06T17:20:36.479132+05:30"},{"city":"Haridwar","state":"Uttarakhand","latitude":29.9457,"longitude":78.1642,"temp":29.1,"humidity":44,"rain":0.0,"pressure":971.6,"uv_index":7.35,"wind_gusts":26.6,"aqi":152,"pm10":41.3,"pm2_5":19.8,"no2":1.9,"co":256.0,"o3":171.0,"so2":8.2,"mosquito_risk":4,"arthritis_risk":5,"migraine_risk":7,"frizz_risk":0,"updated_at":"2026-05-06T17:20:36.479139+05:30"},{"city":"Rishikesh","state":"Uttarakhand","latitude":30.0869,"longitude":78.2676,"temp":28.1,"humidity":48,"rain":0.0,"pressure":964.3,"uv_index":7.45,"wind_gusts":23.4,"aqi":136,"pm10":39.0,"pm2_5":15.0,"no2":0.8,"co":218.0,"o3":169.0,"so2":5.3,"mosquito_risk":4,"arthritis_risk":5,"migraine_risk":7,"frizz_risk":1,"updated_at":"2026-05-06T17:20:36.479145+05:30"},{"city":"Nainital","state":"Uttarakhand","latitude":29.3919,"longitude":79.4542,"temp":15.6,"humidity":54,"rain":0.0,"pressure":803.9,"uv_index":6.55,"wind_gusts":34.2,"aqi":135,"pm10":54.9,"pm2_5":20.7,"no2":1.2,"co":214.0,"o3":170.0,"so2":4.5,"mosquito_risk":0,"arthritis_risk":5,"migraine_risk":7,"frizz_risk":0,"updated_at":"2026-05-06T17:20:36.479151+05:30"},{"city":"Mussoorie","state":"Uttarakhand","latitude":30.4599,"longitude":78.0664,"temp":12.8,"humidity":72,"rain":0.0,"pressure":800.3,"uv_index":7.3,"wind_gusts":40.0,"aqi":142,"pm10":44.5,"pm2_5":20.4,"no2":0.8,"co":173.0,"o3":172.0,"so2":7.2,"mosquito_risk":3,"arthritis_risk":5,"migraine_risk":7,"frizz_risk":0,"updated_at":"2026-05-06T17:20:36.479158+05:30"},{"city":"Dharamshala","state":"Himachal Pradesh","latitude":32.219,"longitude":76.3234,"temp":18.8,"humidity":51,"rain":0.0,"pressure":867.0,"uv_index":8.15,"wind_gusts":40.3,"aqi":127,"pm10":18.7,"pm2_5":9.8,"no2":0.3,"co":206.0,"o3":158.0,"so2":0.8,"mosquito_risk":0,"arthritis_risk":5,"migraine_risk":7,"frizz_risk":0,"updated_at":"2026-05-06T17:20:36.479164+05:30"},{"city":"Dalhousie","state":"Himachal Pradesh","latitude":32.5387,"longitude":75.971,"temp":15.9,"humidity":52,"rain":0.0,"pressure":802.6,"uv_index":8.35,"wind_gusts":38.2,"aqi":137,"pm10":26.8,"pm2_5":12.1,"no2":0.2,"co":191.0,"o3":168.0,"so2":2.4,"mosquito_risk":0,"arthritis_risk":5,"migraine_risk":7,"frizz_risk":0,"updated_at":"2026-05-06T17:20:36.479170+05:30"},{"city":"Patiala","state":"Punjab","latitude":30.3398,"longitude":76.3869,"temp":30.4,"humidity":33,"rain":0.0,"pressure":975.9,"uv_index":7.45,"wind_gusts":41.0,"aqi":163,"pm10":429.3,"pm2_5":52.9,"no2":1.3,"co":214.0,"o3":172.0,"so2":6.7,"mosquito_risk":0,"arthritis_risk":5,"migraine_risk":7,"frizz_risk":0,"updated_at":"2026-05-06T17:20:36.479176+05:30"},{"city":"Bhatinda","state":"Punjab","latitude":30.211,"longitude":74.9455,"temp":35.0,"humidity":22,"rain":0.0,"pressure":980.6,"uv_index":8.1,"wind_gusts":31.3,"aqi":153,"pm10":109.7,"pm2_5":30.0,"no2":1.8,"co":221.0,"o3":179.0,"so2":11.8,"mosquito_risk":0,"arthritis_risk":5,"migraine_risk":7,"frizz_risk":0,"updated_at":"2026-05-06T17:20:36.479181+05:30"},{"city":"Rohtak","state":"Haryana","latitude":28.8955,"longitude":76.6066,"temp":34.2,"humidity":22,"rain":0.0,"pressure":978.8,"uv_index":7.55,"wind_gusts":43.2,"aqi":164,"pm10":376.3,"pm2_5":50.4,"no2":1.4,"co":219.0,"o3":175.0,"so2":5.8,"mosquito_risk":0,"arthritis_risk":5,"migraine_risk":7,"frizz_risk":0,"updated_at":"2026-05-06T17:20:36.479187+05:30"},{"city":"Panipat","state":"Haryana","latitude":29.3909,"longitude":76.9635,"temp":32.8,"humidity":26,"rain":0.0,"pressure":977.8,"uv_index":7.4,"wind_gusts":40.7,"aqi":277,"pm10":760.0,"pm2_5":80.1,"no2":3.4,"co":207.0,"o3":171.0,"so2":11.1,"mosquito_risk":0,"arthritis_risk":5,"migraine_risk":7,"frizz_risk":0,"updated_at":"2026-05-06T17:20:36.479193+05:30"},{"city":"Mathura","state":"Uttar Pradesh","latitude":27.4924,"longitude":77.6737,"temp":33.8,"humidity":26,"rain":0.0,"pressure":983.8,"uv_index":7.8,"wind_gusts":27.4,"aqi":163,"pm10":499.2,"pm2_5":66.4,"no2":1.4,"co":243.0,"o3":190.0,"so2":9.2,"mosquito_risk":0,"arthritis_risk":5,"migraine_risk":7,"frizz_risk":0,"updated_at":"2026-05-06T17:20:36.479198+05:30"},{"city":"Vrindavan","state":"Uttar Pradesh","latitude":27.5823,"longitude":77.7027,"temp":34.2,"humidity":23,"rain":0.0,"pressure":984.3,"uv_index":7.8,"wind_gusts":27.4,"aqi":163,"pm10":499.2,"pm2_5":66.4,"no2":1.4,"co":230.0,"o3":190.0,"so2":9.2,"mosquito_risk":0,"arthritis_risk":5,"migraine_risk":7,"frizz_risk":0,"updated_at":"2026-05-06T17:20:36.479203+05:30"},{"city":"Ayodhya","state":"Uttar Pradesh","latitude":26.7922,"longitude":82.1998,"temp":22.9,"humidity":81,"rain":0.0,"pressure":994.4,"uv_index":8.2,"wind_gusts":53.6,"aqi":133,"pm10":44.9,"pm2_5":20.8,"no2":1.9,"co":274.0,"o3":150.0,"so2":4.2,"mosquito_risk":3,"arthritis_risk":5,"migraine_risk":7,"frizz_risk":1,"updated_at":"2026-05-06T17:20:36.479208+05:30"},{"city":"Ratlam","state":"Madhya Pradesh","latitude":23.3315,"longitude":75.0367,"temp":36.0,"humidity":17,"rain":0.0,"pressure":951.8,"uv_index":8.45,"wind_gusts":29.5,"aqi":112,"pm10":39.7,"pm2_5":12.6,"no2":0.2,"co":156.0,"o3":156.0,"so2":3.0,"mosquito_risk":0,"arthritis_risk":5,"migraine_risk":10,"frizz_risk":0,"updated_at":"2026-05-06T17:20:36.479214+05:30"},{"city":"Sagar","state":"Madhya Pradesh","latitude":23.8388,"longitude":78.7378,"temp":35.0,"humidity":15,"rain":0.0,"pressure":947.4,"uv_index":8.65,"wind_gusts":35.3,"aqi":127,"pm10":30.3,"pm2_5":12.5,"no2":0.3,"co":172.0,"o3":160.0,"so2":4.2,"mosquito_risk":0,"arthritis_risk":5,"migraine_risk":7,"frizz_risk":0,"updated_at":"2026-05-06T17:20:36.479220+05:30"},{"city":"Satna","state":"Madhya Pradesh","latitude":24.6005,"longitude":80.8322,"temp":32.8,"humidity":28,"rain":0.0,"pressure":968.6,"uv_index":8.7,"wind_gusts":33.1,"aqi":135,"pm10":56.0,"pm2_5":22.2,"no2":0.7,"co":214.0,"o3":162.0,"so2":4.3,"mosquito_risk":0,"arthritis_risk":5,"migraine_risk":7,"frizz_risk":0,"updated_at":"2026-05-06T17:20:36.479225+05:30"},{"city":"Akola","state":"Maharashtra","latitude":20.7002,"longitude":77.0082,"temp":38.8,"humidity":15,"rain":0.0,"pressure":970.2,"uv_index":8.85,"wind_gusts":30.2,"aqi":132,"pm10":41.9,"pm2_5":15.4,"no2":1.0,"co":157.0,"o3":161.0,"so2":9.2,"mosquito_risk":0,"arthritis_risk":5,"migraine_risk":10,"frizz_risk":0,"updated_at":"2026-05-06T17:20:36.479231+05:30"},{"city":"Amravati","state":"Maharashtra","latitude":20.9374,"longitude":77.7796,"temp":38.3,"humidity":13,"rain":0.0,"pressure":963.0,"uv_index":8.85,"wind_gusts":42.1,"aqi":120,"pm10":42.3,"pm2_5":17.5,"no2":1.7,"co":157.0,"o3":173.0,"so2":6.6,"mosquito_risk":0,"arthritis_risk":5,"migraine_risk":10,"frizz_risk":0,"updated_at":"2026-05-06T17:20:36.479237+05:30"},{"city":"Latur","state":"Maharashtra","latitude":18.4088,"longitude":76.5604,"temp":36.3,"humidity":16,"rain":0.0,"pressure":936.3,"uv_index":9.05,"wind_gusts":34.9,"aqi":89,"pm10":44.0,"pm2_5":16.7,"no2":0.4,"co":161.0,"o3":145.0,"so2":9.3,"mosquito_risk":0,"arthritis_risk":5,"migraine_risk":10,"frizz_risk":0,"updated_at":"2026-05-06T17:20:36.479242+05:30"},{"city":"Nanded","state":"Maharashtra","latitude":19.1383,"longitude":77.3091,"temp":38.0,"humidity":16,"rain":0.0,"pressure":964.1,"uv_index":9.0,"wind_gusts":29.5,"aqi":101,"pm10":43.1,"pm2_5":16.0,"no2":0.2,"co":131.0,"o3":147.0,"so2":3.9,"mosquito_risk":0,"arthritis_risk":5,"migraine_risk":10,"frizz_risk":0,"updated_at":"2026-05-06T17:20:36.479247+05:30"},{"city":"Gulbarga","state":"Karnataka","latitude":17.3297,"longitude":76.8343,"temp":37.1,"humidity":19,"rain":0.0,"pressure":954.2,"uv_index":9.1,"wind_gusts":35.6,"aqi":122,"pm10":47.0,"pm2_5":19.6,"no2":2.3,"co":157.0,"o3":161.0,"so2":5.0,"mosquito_risk":0,"arthritis_risk":5,"migraine_risk":10,"frizz_risk":0,"updated_at":"2026-05-06T17:20:36.479252+05:30"},{"city":"Bidar","state":"Karnataka","latitude":17.9104,"longitude":77.5199,"temp":35.2,"humidity":23,"rain":0.0,"pressure":932.5,"uv_index":9.15,"wind_gusts":32.8,"aqi":107,"pm10":54.4,"pm2_5":22.5,"no2":1.2,"co":163.0,"o3":150.0,"so2":4.0,"mosquito_risk":0,"arthritis_risk":5,"migraine_risk":10,"frizz_risk":0,"updated_at":"2026-05-06T17:20:36.479257+05:30"},{"city":"Hospet","state":"Karnataka","latitude":15.2689,"longitude":76.3909,"temp":35.0,"humidity":27,"rain":0.0,"pressure":951.2,"uv_index":8.85,"wind_gusts":34.9,"aqi":90,"pm10":37.8,"pm2_5":20.2,"no2":2.9,"co":171.0,"o3":175.0,"so2":7.7,"mosquito_risk":0,"arthritis_risk":5,"migraine_risk":7,"frizz_risk":0,"updated_at":"2026-05-06T17:20:36.479262+05:30"},{"city":"Tirupur","state":"Tamil Nadu","latitude":11.1085,"longitude":77.3411,"temp":35.0,"humidity":36,"rain":0.0,"pressure":970.4,"uv_index":9.35,"wind_gusts":39.6,"aqi":139,"pm10":43.7,"pm2_5":24.2,"no2":2.7,"co":255.0,"o3":174.0,"so2":4.9,"mosquito_risk":0,"arthritis_risk":5,"migraine_risk":7,"frizz_risk":1,"updated_at":"2026-05-06T17:20:36.479267+05:30"},{"city":"Alappuzha","state":"Kerala","latitude":9.4981,"longitude":76.3388,"temp":29.3,"humidity":80,"rain":0.0,"pressure":1004.2,"uv_index":8.65,"wind_gusts":37.1,"aqi":66,"pm10":38.0,"pm2_5":19.8,"no2":4.5,"co":128.0,"o3":103.0,"so2":2.5,"mosquito_risk":7,"arthritis_risk":5,"migraine_risk":4,"frizz_risk":1,"updated_at":"2026-05-06T17:20:36.479272+05:30"},{"city":"Munnar","state":"Kerala","latitude":10.0889,"longitude":77.0595,"temp":20.4,"humidity":87,"rain":0.0,"pressure":854.2,"uv_index":6.35,"wind_gusts":21.6,"aqi":90,"pm10":36.8,"pm2_5":21.6,"no2":3.0,"co":207.0,"o3":130.0,"so2":2.8,"mosquito_risk":3,"arthritis_risk":5,"migraine_risk":7,"frizz_risk":1,"updated_at":"2026-05-06T17:20:36.479277+05:30"},{"city":"Silchar","state":"Assam","latitude":24.8333,"longitude":92.7789,"temp":29.0,"humidity":74,"rain":0.0,"pressure":1002.7,"uv_index":8.75,"wind_gusts":19.8,"aqi":111,"pm10":27.0,"pm2_5":20.2,"no2":4.4,"co":316.0,"o3":106.0,"so2":4.1,"mosquito_risk":7,"arthritis_risk":5,"migraine_risk":4,"frizz_risk":1,"updated_at":"2026-05-06T17:20:36.479282+05:30"},{"city":"Dibrugarh","state":"Assam","latitude":27.4728,"longitude":94.912,"temp":24.5,"humidity":83,"rain":0.0,"pressure":994.7,"uv_index":8.8,"wind_gusts":28.1,"aqi":86,"pm10":36.0,"pm2_5":24.0,"no2":6.2,"co":258.0,"o3":118.0,"so2":1.9,"mosquito_risk":3,"arthritis_risk":5,"migraine_risk":7,"frizz_risk":1,"updated_at":"2026-05-06T17:20:36.479287+05:30"}]