[{"city":"Delhi","state":"Delhi","latitude":28.6139,"longitude":77.209,"temp":17.0,"humidity":70,"rain":0.0,"pressure":984.9,"uv_index":5.75,"wind_gusts":29.5,"aqi":157,"pm10":210.5,"pm2_5":80.8,"mosquito_risk":3,"arthritis_risk":5,"migraine_risk":3,"frizz_risk":0,"updated_at":"2026-03-01T08:07:28.080349+05:30"},{"city":"Mumbai","state":"Maharashtra","latitude":19.076,"longitude":72.8777,"temp":24.6,"humidity":81,"rain":0.0,"pressure":1010.3,"uv_index":7.3,"wind_gusts":23.0,"aqi":70,"pm10":40.3,"pm2_5":27.7,"mosquito_risk":3,"arthritis_risk":0,"migraine_risk":4,"frizz_risk":1,"updated_at":"2026-03-01T08:07:28.080388+05:30"},{"city":"Bangalore","state":"Karnataka","latitude":12.9716,"longitude":77.5946,"temp":21.1,"humidity":81,"rain":0.0,"pressure":912.3,"uv_index":9.05,"wind_gusts":25.2,"aqi":142,"pm10":90.3,"pm2_5":88.9,"mosquito_risk":3,"arthritis_risk":5,"migraine_risk":7,"frizz_risk":1,"updated_at":"2026-03-01T08:07:28.080403+05:30"},{"city":"Hyderabad","state":"Telangana","latitude":17.385,"longitude":78.4867,"temp":22.6,"humidity":78,"rain":0.0,"pressure":954.5,"uv_index":8.3,"wind_gusts":24.5,"aqi":117,"pm10":55.4,"pm2_5":54.1,"mosquito_risk":3,"arthritis_risk":5,"migraine_risk":7,"frizz_risk":1,"updated_at":"2026-03-01T08:07:28.080414+05:30"},{"city":"Chennai","state":"Tamil Nadu","latitude":13.0827,"longitude":80.2707,"temp":25.3,"humidity":84,"rain":0.0,"pressure":1009.4,"uv_index":8.75,"wind_gusts":33.1,"aqi":150,"pm10":59.8,"pm2_5":55.9,"mosquito_risk":7,"arthritis_risk":0,"migraine_risk":4,"frizz_risk":1,"updated_at":"2026-03-01T08:07:28.080422+05:30"},{"city":"Kolkata","state":"West Bengal","latitude":22.5726,"longitude":88.3639,"temp":24.7,"humidity":89,"rain":0.0,"pressure":1008.1,"uv_index":7.6,"wind_gusts":25.9,"aqi":85,"pm10":35.3,"pm2_5":33.6,"mosquito_risk":3,"arthritis_risk":0,"migraine_risk":4,"frizz_risk":1,"updated_at":"2026-03-01T08:07:28.080431+05:30"},{"city":"Pune","state":"Maharashtra","latitude":18.5204,"longitude":73.8567,"temp":17.1,"humidity":91,"rain":0.0,"pressure":948.5,"uv_index":7.85,"wind_gusts":34.9,"aqi":73,"pm10":59.3,"pm2_5":55.2,"mosquito_risk":3,"arthritis_risk":10,"migraine_risk":7,"frizz_risk":0,"updated_at":"2026-03-01T08:07:28.080443+05:30"},{"city":"Ahmedabad","state":"Gujarat","latitude":23.0225,"longitude":72.5714,"temp":19.5,"humidity":76,"rain":0.0,"pressure":1004.9,"uv_index":7.05,"wind_gusts":20.9,"aqi":97,"pm10":49.7,"pm2_5":29.2,"mosquito_risk":3,"arthritis_risk":5,"migraine_risk":4,"frizz_risk":0,"updated_at":"2026-03-01T08:07:28.080450+05:30"},{"city":"Jaipur","state":"Rajasthan","latitude":26.9124,"longitude":75.7873,"temp":20.4,"humidity":56,"rain":0.0,"pressure":961.5,"uv_index":6.45,"wind_gusts":25.9,"aqi":81,"pm10":108.7,"pm2_5":39.6,"mosquito_risk":0,"arthritis_risk":5,"migraine_risk":7,"frizz_risk":0,"updated_at":"2026-03-01T08:07:28.080458+05:30"},{"city":"Lucknow","state":"Uttar Pradesh","latitude":26.8467,"longitude":80.9462,"temp":18.0,"humidity":74,"rain":0.0,"pressure":995.2,"uv_index":6.2,"wind_gusts":37.1,"aqi":135,"pm10":104.5,"pm2_5":56.8,"mosquito_risk":3,"arthritis_risk":5,"migraine_risk":7,"frizz_risk":0,"updated_at":"2026-03-01T08:07:28.080465+05:30"},{"city":"Kanpur","state":"Uttar Pradesh","latitude":26.4499,"longitude":80.3319,"temp":17.7,"humidity":77,"rain":0.0,"pressure":993.7,"uv_index":6.2,"wind_gusts":31.0,"aqi":151,"pm10":169.5,"pm2_5":63.6,"mosquito_risk":3,"arthritis_risk":5,"migraine_risk":7,"frizz_risk":0,"updated_at":"2026-03-01T08:07:28.080472+05:30"},{"city":"Chandigarh","state":"Chandigarh","latitude":30.7333,"longitude":76.7794,"temp":15.4,"humidity":67,"rain":0.0,"pressure":969.8,"uv_index":5.6,"wind_gusts":32.0,"aqi":91,"pm10":44.5,"pm2_5":34.5,"mosquito_risk":3,"arthritis_risk":5,"migraine_risk":3,"frizz_risk":0,"updated_at":"2026-03-01T08:07:28.080480+05:30"},{"city":"Srinagar","state":"Jammu and Kashmir","latitude":34.0837,"longitude":74.7973,"temp":3.5,"humidity":75,"rain":0.0,"pressure":837.9,"uv_index":6.4,"wind_gusts":15.5,"aqi":143,"pm10":88.2,"pm2_5":64.3,"mosquito_risk":3,"arthritis_risk":5,"migraine_risk":7,"frizz_risk":1,"updated_at":"2026-03-01T08:07:28.080487+05:30"},{"city":"Jammu","state":"Jammu and Kashmir","latitude":32.7266,"longitude":74.857,"temp":13.8,"humidity":74,"rain":0.0,"pressure":974.0,"uv_index":6.15,"wind_gusts":24.1,"aqi":96,"pm10":45.4,"pm2_5":39.3,"mosquito_risk":3,"arthritis_risk":5,"migraine_risk":7,"frizz_risk":0,"updated_at":"2026-03-01T08:07:28.080494+05:30"},{"city":"Amritsar","state":"Punjab","latitude":31.634,"longitude":74.8723,"temp":14.8,"humidity":86,"rain":0.0,"pressure":982.7,"uv_index":6.1,"wind_gusts":20.5,"aqi":141,"pm10":103.8,"pm2_5":75.7,"mosquito_risk":3,"arthritis_risk":10,"migraine_risk":7,"frizz_risk":0,"updated_at":"2026-03-01T08:07:28.080501+05:30"},{"city":"Ludhiana","state":"Punjab","latitude":30.901,"longitude":75.8573,"temp":16.7,"humidity":77,"rain":0.0,"pressure":980.5,"uv_index":5.8,"wind_gusts":27.0,"aqi":153,"pm10":94.1,"pm2_5":82.0,"mosquito_risk":3,"arthritis_risk":5,"migraine_risk":3,"frizz_risk":0,"updated_at":"2026-03-01T08:07:28.080507+05:30"},{"city":"Jalandhar","state":"Punjab","latitude":31.326,"longitude":75.5762,"temp":15.8,"humidity":85,"rain":0.0,"pressure":981.6,"uv_index":5.95,"wind_gusts":23.4,"aqi":153,"pm10":115.9,"pm2_5":99.2,"mosquito_risk":3,"arthritis_risk":10,"migraine_risk":3,"frizz_risk":0,"updated_at":"2026-03-01T08:07:28.080516+05:30"},{"city":"Dehradun","state":"Uttarakhand","latitude":30.6284,"longitude":78.0322,"temp":9.6,"humidity":47,"rain":0.0,"pressure":827.0,"uv_index":5.95,"wind_gusts":34.2,"aqi":64,"pm10":19.6,"pm2_5":15.2,"mosquito_risk":0,"arthritis_risk":5,"migraine_risk":3,"frizz_risk":1,"updated_at":"2026-03-01T08:07:28.080523+05:30"},{"city":"Shimla","state":"Himachal Pradesh","latitude":31.1048,"longitude":77.1734,"temp":7.5,"humidity":62,"rain":0.0,"pressure":780.2,"uv_index":6.0,"wind_gusts":50.8,"aqi":69,"pm10":38.3,"pm2_5":26.0,"mosquito_risk":3,"arthritis_risk":5,"migraine_risk":3,"frizz_risk":0,"updated_at":"2026-03-01T08:07:28.080529+05:30"},{"city":"Manali","state":"Himachal Pradesh","latitude":32.2396,"longitude":77.1887,"temp":10.9,"humidity":9,"rain":0.0,"pressure":816.0,"uv_index":7.3,"wind_gusts":38.5,"aqi":49,"pm10":18.5,"pm2_5":12.3,"mosquito_risk":0,"arthritis_risk":5,"migraine_risk":7,"frizz_risk":1,"updated_at":"2026-03-01T08:07:28.080535+05:30"},{"city":"Gurgaon","state":"Haryana","latitude":28.4595,"longitude":77.0266,"temp":14.7,"humidity":80,"rain":0.0,"pressure":983.4,"uv_index":5.85,"wind_gusts":25.9,"aqi":196,"pm10":516.0,"pm2_5":111.3,"mosquito_risk":3,"arthritis_risk":5,"migraine_risk":3,"frizz_risk":0,"updated_at":"2026-03-01T08:07:28.080542+05:30"},{"city":"Noida","state":"Uttar Pradesh","latitude":28.5355,"longitude":77.391,"temp":17.3,"humidity":68,"rain":0.0,"pressure":986.5,"uv_index":5.75,"wind_gusts":28.8,"aqi":196,"pm10":516.0,"pm2_5":111.3,"mosquito_risk":3,"arthritis_risk":5,"migraine_risk":3,"frizz_risk":0,"updated_at":"2026-03-01T08:07:28.080548+05:30"},{"city":"Ghaziabad","state":"Uttar Pradesh","latitude":28.6692,"longitude":77.4538,"temp":16.8,"humidity":73,"rain":0.0,"pressure":984.5,"uv_index":5.7,"wind_gusts":27.4,"aqi":153,"pm10":183.9,"pm2_5":70.8,"mosquito_risk":3,"arthritis_risk":5,"migraine_risk":3,"frizz_risk":0,"updated_at":"2026-03-01T08:07:28.080555+05:30"},{"city":"Faridabad","state":"Haryana","latitude":28.4089,"longitude":77.3178,"temp":16.3,"humidity":73,"rain":0.0,"pressure":985.8,"uv_index":5.75,"wind_gusts":25.6,"aqi":196,"pm10":516.0,"pm2_5":111.3,"mosquito_risk":3,"arthritis_risk":5,"migraine_risk":3,"frizz_risk":0,"updated_at":"2026-03-01T08:07:28.080561+05:30"},{"city":"Meerut","state":"Uttar Pradesh","latitude":28.9845,"longitude":77.7064,"temp":15.6,"humidity":82,"rain":0.0,"pressure":983.0,"uv_index":5.6,"wind_gusts":32.0,"aqi":153,"pm10":183.9,"pm2_5":70.8,"mosquito_risk":3,"arthritis_risk":10,"migraine_risk":3,"frizz_risk":0,"updated_at":"2026-03-01T08:07:28.080568+05:30"},{"city":"Agra","state":"Uttar Pradesh","latitude":27.1767,"longitude":78.0081,"temp":16.3,"humidity":79,"rain":0.0,"pressure":990.2,"uv_index":6.05,"wind_gusts":21.6,"aqi":152,"pm10":326.9,"pm2_5":89.9,"mosquito_risk":3,"arthritis_risk":5,"migraine_risk":7,"frizz_risk":0,"updated_at":"2026-03-01T08:07:28.080575+05:30"},{"city":"Varanasi","state":"Uttar Pradesh","latitude":25.3176,"longitude":82.9739,"temp":20.0,"humidity":78,"rain":0.0,"pressure":999.5,"uv_index":6.85,"wind_gusts":27.7,"aqi":124,"pm10":86.8,"pm2_5":67.3,"mosquito_risk":3,"arthritis_risk":5,"migraine_risk":7,"frizz_risk":1,"updated_at":"2026-03-01T08:07:28.080583+05:30"},{"city":"Prayagraj","state":"Uttar Pradesh","latitude":25.4358,"longitude":81.8463,"temp":20.6,"humidity":80,"rain":0.0,"pressure":998.0,"uv_index":6.75,"wind_gusts":24.5,"aqi":127,"pm10":100.6,"pm2_5":73.3,"mosquito_risk":3,"arthritis_risk":5,"migraine_risk":7,"frizz_risk":1,"updated_at":"2026-03-01T08:07:28.080590+05:30"},{"city":"Gorakhpur","state":"Uttar Pradesh","latitude":26.7606,"longitude":83.3732,"temp":18.6,"humidity":83,"rain":0.0,"pressure":998.7,"uv_index":6.55,"wind_gusts":34.2,"aqi":123,"pm10":85.2,"pm2_5":58.3,"mosquito_risk":3,"arthritis_risk":10,"migraine_risk":7,"frizz_risk":0,"updated_at":"2026-03-01T08:07:28.080596+05:30"},{"city":"Bareilly","state":"Uttar Pradesh","latitude":28.367,"longitude":79.4304,"temp":15.8,"humidity":84,"rain":0.0,"pressure":988.1,"uv_index":5.9,"wind_gusts":33.1,"aqi":130,"pm10":75.9,"pm2_5":54.8,"mosquito_risk":3,"arthritis_risk":10,"migraine_risk":3,"frizz_risk":0,"updated_at":"2026-03-01T08:07:28.080604+05:30"},{"city":"Aligarh","state":"Uttar Pradesh","latitude":27.8974,"longitude":78.088,"temp":15.3,"humidity":79,"rain":0.0,"pressure":987.6,"uv_index":5.8,"wind_gusts":27.4,"aqi":154,"pm10":274.7,"pm2_5":85.0,"mosquito_risk":3,"arthritis_risk":5,"migraine_risk":3,"frizz_risk":0,"updated_at":"2026-03-01T08:07:28.080611+05:30"},{"city":"Moradabad","state":"Uttar Pradesh","latitude":28.8386,"longitude":78.7733,"temp":15.4,"humidity":85,"rain":0.0,"pressure":985.0,"uv_index":5.7,"wind_gusts":33.5,"aqi":133,"pm10":77.5,"pm2_5":59.8,"mosquito_risk":3,"arthritis_risk":10,"migraine_risk":3,"frizz_risk":0,"updated_at":"2026-03-01T08:07:28.080619+05:30"},{"city":"Saharanpur","state":"Uttar Pradesh","latitude":29.9637,"longitude":77.546,"temp":14.3,"humidity":72,"rain":0.0,"pressure":976.8,"uv_index":5.35,"wind_gusts":40.3,"aqi":137,"pm10":93.4,"pm2_5":75.9,"mosquito_risk":3,"arthritis_risk":5,"migraine_risk":3,"frizz_risk":0,"updated_at":"2026-03-01T08:07:28.080625+05:30"},{"city":"Jhansi","state":"Uttar Pradesh","latitude":25.4484,"longitude":78.5685,"temp":20.3,"humidity":63,"rain":0.0,"pressure":979.9,"uv_index":6.65,"wind_gusts":23.0,"aqi":71,"pm10":34.3,"pm2_5":24.0,"mosquito_risk":3,"arthritis_risk":5,"migraine_risk":7,"frizz_risk":0,"updated_at":"2026-03-01T08:07:31.292449+05:30"},{"city":"Surat","state":"Gujarat","latitude":21.1702,"longitude":72.8311,"temp":21.1,"humidity":92,"rain":0.0,"pressure":1009.0,"uv_index":6.95,"wind_gusts":26.6,"aqi":93,"pm10":51.0,"pm2_5":38.1,"mosquito_risk":3,"arthritis_risk":0,"migraine_risk":4,"frizz_risk":1,"updated_at":"2026-03-01T08:07:31.292481+05:30"},{"city":"Vadodara","state":"Gujarat","latitude":22.3072,"longitude":73.1812,"temp":20.4,"humidity":82,"rain":0.0,"pressure":1007.0,"uv_index":7.1,"wind_gusts":11.9,"aqi":110,"pm10":43.9,"pm2_5":39.6,"mosquito_risk":3,"arthritis_risk":5,"migraine_risk":4,"frizz_risk":1,"updated_at":"2026-03-01T08:07:31.292493+05:30"},{"city":"Rajkot","state":"Gujarat","latitude":22.3039,"longitude":70.8022,"temp":20.0,"humidity":94,"rain":0.0,"pressure":996.9,"uv_index":6.9,"wind_gusts":23.4,"aqi":62,"pm10":49.6,"pm2_5":19.3,"mosquito_risk":3,"arthritis_risk":5,"migraine_risk":7,"frizz_risk":1,"updated_at":"2026-03-01T08:07:31.292502+05:30"},{"city":"Thane","state":"Maharashtra","latitude":19.2183,"longitude":72.9781,"temp":21.1,"humidity":89,"rain":0.0,"pressure":1009.9,"uv_index":7.25,"wind_gusts":35.3,"aqi":70,"pm10":40.3,"pm2_5":27.7,"mosquito_risk":3,"arthritis_risk":0,"migraine_risk":4,"frizz_risk":1,"updated_at":"2026-03-01T08:07:31.292510+05:30"},{"city":"Nagpur","state":"Maharashtra","latitude":21.1458,"longitude":79.0882,"temp":23.7,"humidity":63,"rain":0.0,"pressure":974.4,"uv_index":7.65,"wind_gusts":26.6,"aqi":145,"pm10":35.7,"pm2_5":35.4,"mosquito_risk":3,"arthritis_risk":5,"migraine_risk":7,"frizz_risk":1,"updated_at":"2026-03-01T08:07:31.292519+05:30"},{"city":"Nashik","state":"Maharashtra","latitude":19.9975,"longitude":73.7898,"temp":18.4,"humidity":73,"rain":0.0,"pressure":946.2,"uv_index":7.45,"wind_gusts":27.0,"aqi":73,"pm10":53.8,"pm2_5":50.4,"mosquito_risk":3,"arthritis_risk":5,"migraine_risk":7,"frizz_risk":0,"updated_at":"2026-03-01T08:07:31.292527+05:30"},{"city":"Aurangabad","state":"Maharashtra","latitude":19.8762,"longitude":75.3433,"temp":19.7,"humidity":69,"rain":0.0,"pressure":944.9,"uv_index":8.0,"wind_gusts":27.0,"aqi":58,"pm10":36.2,"pm2_5":33.8,"mosquito_risk":3,"arthritis_risk":5,"migraine_risk":7,"frizz_risk":0,"updated_at":"2026-03-01T08:07:31.292535+05:30"},{"city":"Solapur","state":"Maharashtra","latitude":17.6599,"longitude":75.9064,"temp":21.2,"humidity":72,"rain":0.0,"pressure":958.1,"uv_index":8.25,"wind_gusts":18.4,"aqi":74,"pm10":21.0,"pm2_5":20.4,"mosquito_risk":3,"arthritis_risk":5,"migraine_risk":7,"frizz_risk":0,"updated_at":"2026-03-01T08:07:31.292543+05:30"},{"city":"Kolhapur","state":"Maharashtra","latitude":16.705,"longitude":74.2433,"temp":17.2,"humidity":79,"rain":0.0,"pressure":948.0,"uv_index":8.35,"wind_gusts":38.2,"aqi":59,"pm10":50.9,"pm2_5":47.1,"mosquito_risk":3,"arthritis_risk":5,"migraine_risk":7,"frizz_risk":0,"updated_at":"2026-03-01T08:07:31.292551+05:30"},{"city":"Goa","state":"Goa","latitude":15.2993,"longitude":74.124,"temp":22.3,"humidity":80,"rain":0.0,"pressure":999.1,"uv_index":8.4,"wind_gusts":34.6,"aqi":50,"pm10":30.0,"pm2_5":25.5,"mosquito_risk":3,"arthritis_risk":5,"migraine_risk":7,"frizz_risk":1,"updated_at":"2026-03-01T08:07:31.292560+05:30"},{"city":"Jodhpur","state":"Rajasthan","latitude":26.2389,"longitude":73.0243,"temp":20.1,"humidity":55,"rain":0.0,"pressure":984.7,"uv_index":6.75,"wind_gusts":18.7,"aqi":72,"pm10":74.5,"pm2_5":22.7,"mosquito_risk":0,"arthritis_risk":5,"migraine_risk":7,"frizz_risk":0,"updated_at":"2026-03-01T08:07:31.292567+05:30"},{"city":"Udaipur","state":"Rajasthan","latitude":24.5854,"longitude":73.7125,"temp":19.0,"humidity":63,"rain":0.0,"pressure":947.7,"uv_index":7.35,"wind_gusts":27.7,"aqi":61,"pm10":21.6,"pm2_5":15.7,"mosquito_risk":3,"arthritis_risk":5,"migraine_risk":7,"frizz_risk":0,"updated_at":"2026-03-01T08:07:31.292575+05:30"},{"city":"Kota","state":"Rajasthan","latitude":25.2138,"longitude":75.8648,"temp":18.8,"humidity":75,"rain":0.0,"pressure":980.7,"uv_index":6.8,"wind_gusts":18.4,"aqi":72,"pm10":34.0,"pm2_5":31.7,"mosquito_risk":3,"arthritis_risk":5,"migraine_risk":7,"frizz_risk":0,"updated_at":"2026-03-01T08:07:31.292582+05:30"},{"city":"Bikaner","state":"Rajasthan","latitude":28.0229,"longitude":73.3119,"temp":21.2,"humidity":45,"rain":0.0,"pressure":983.4,"uv_index":6.45,"wind_gusts":15.8,"aqi":61,"pm10":45.1,"pm2_5":23.1,"mosquito_risk":0,"arthritis_risk":5,"migraine_risk":7,"frizz_risk":0,"updated_at":"2026-03-01T08:07:31.292590+05:30"},{"city":"Ajmer","state":"Rajasthan","latitude":26.4499,"longitude":74.6399,"temp":19.1,"humidity":67,"rain":0.0,"pressure":955.8,"uv_index":6.7,"wind_gusts":20.2,"aqi":73,"pm10":43.1,"pm2_5":30.7,"mosquito_risk":3,"arthritis_risk":5,"migraine_risk":7,"frizz_risk":0,"updated_at":"2026-03-01T08:07:31.292598+05:30"},{"city":"Gwalior","state":"Madhya Pradesh","latitude":26.2183,"longitude":78.1828,"temp":21.2,"humidity":79,"rain":0.0,"pressure":985.5,"uv_index":6.35,"wind_gusts":24.8,"aqi":91,"pm10":179.3,"pm2_5":55.2,"mosquito_risk":3,"arthritis_risk":5,"migraine_risk":7,"frizz_risk":1,"updated_at":"2026-03-01T08:07:31.292605+05:30"},{"city":"Indore","state":"Madhya Pradesh","latitude":22.7196,"longitude":75.8577,"temp":17.6,"humidity":76,"rain":0.0,"pressure":948.9,"uv_index":7.35,"wind_gusts":19.4,"aqi":70,"pm10":31.7,"pm2_5":29.3,"mosquito_risk":3,"arthritis_risk":5,"migraine_risk":7,"frizz_risk":0,"updated_at":"2026-03-01T08:07:31.292613+05:30"},{"city":"Bhopal","state":"Madhya Pradesh","latitude":23.2599,"longitude":77.4126,"temp":17.7,"humidity":74,"rain":0.0,"pressure":954.9,"uv_index":7.2,"wind_gusts":23.0,"aqi":65,"pm10":24.7,"pm2_5":23.7,"mosquito_risk":3,"arthritis_risk":5,"migraine_risk":7,"frizz_risk":0,"updated_at":"2026-03-01T08:07:31.292620+05:30"},{"city":"Jabalpur","state":"Madhya Pradesh","latitude":23.1815,"longitude":79.9864,"temp":22.1,"humidity":65,"rain":0.0,"pressure":962.6,"uv_index":7.3,"wind_gusts":30.6,"aqi":112,"pm10":30.6,"pm2_5":30.4,"mosquito_risk":3,"arthritis_risk":5,"migraine_risk":7,"frizz_risk":0,"updated_at":"2026-03-01T08:07:31.292628+05:30"},{"city":"Ujjain","state":"Madhya Pradesh","latitude":23.1765,"longitude":75.7885,"temp":18.3,"humidity":76,"rain":0.0,"pressure":954.8,"uv_index":7.25,"wind_gusts":19.4,"aqi":82,"pm10":30.3,"pm2_5":27.6,"mosquito_risk":3,"arthritis_risk":5,"migraine_risk":7,"frizz_risk":0,"updated_at":"2026-03-01T08:07:31.292636+05:30"},{"city":"Visakhapatnam","state":"Andhra Pradesh","latitude":17.6868,"longitude":83.2185,"temp":25.2,"humidity":84,"rain":0.0,"pressure":1006.3,"uv_index":8.3,"wind_gusts":39.6,"aqi":129,"pm10":68.2,"pm2_5":66.4,"mosquito_risk":7,"arthritis_risk":5,"migraine_risk":4,"frizz_risk":1,"updated_at":"2026-03-01T08:07:31.292643+05:30"},{"city":"Vijayawada","state":"Andhra Pradesh","latitude":16.5062,"longitude":80.648,"temp":25.0,"humidity":87,"rain":0.0,"pressure":1005.0,"uv_index":8.4,"wind_gusts":25.9,"aqi":147,"pm10":73.6,"pm2_5":71.0,"mosquito_risk":7,"arthritis_risk":5,"migraine_risk":4,"frizz_risk":1,"updated_at":"2026-03-01T08:07:31.292652+05:30"},{"city":"Guntur","state":"Andhra Pradesh","latitude":16.3067,"longitude":80.4365,"temp":25.6,"humidity":85,"rain":0.0,"pressure":1006.1,"uv_index":8.4,"wind_gusts":29.2,"aqi":138,"pm10":61.7,"pm2_5":59.4,"mosquito_risk":7,"arthritis_risk":5,"migraine_risk":4,"frizz_risk":1,"updated_at":"2026-03-01T08:07:31.292660+05:30"},{"city":"Nellore","state":"Andhra Pradesh","latitude":14.4426,"longitude":79.9865,"temp":24.9,"humidity":85,"rain":0.0,"pressure":1008.0,"uv_index":8.6,"wind_gusts":29.2,"aqi":135,"pm10":60.1,"pm2_5":58.6,"mosquito_risk":3,"arthritis_risk":0,"migraine_risk":4,"frizz_risk":1,"updated_at":"2026-03-01T08:07:31.292668+05:30"},{"city":"Kurnool","state":"Andhra Pradesh","latitude":15.8281,"longitude":78.0373,"temp":25.6,"humidity":58,"rain":0.0,"pressure":978.5,"uv_index":8.4,"wind_gusts":21.6,"aqi":106,"pm10":53.6,"pm2_5":52.9,"mosquito_risk":4,"arthritis_risk":5,"migraine_risk":7,"frizz_risk":1,"updated_at":"2026-03-01T08:07:31.292676+05:30"},{"city":"Kakinada","state":"Andhra Pradesh","latitude":16.9891,"longitude":82.2475,"temp":25.3,"humidity":82,"rain":0.0,"pressure":1010.3,"uv_index":8.35,"wind_gusts":34.9,"aqi":138,"pm10":69.8,"pm2_5":65.4,"mosquito_risk":7,"arthritis_risk":0,"migraine_risk":4,"frizz_risk":1,"updated_at":"2026-03-01T08:07:31.292684+05:30"},{"city":"Tirupati","state":"Andhra Pradesh","latitude":13.6288,"longitude":79.4192,"temp":23.2,"humidity":73,"rain":0.0,"pressure":993.6,"uv_index":8.75,"wind_gusts":27.0,"aqi":150,"pm10":80.1,"pm2_5":78.2,"mosquito_risk":3,"arthritis_risk":5,"migraine_risk":7,"frizz_risk":1,"updated_at":"2026-03-01T08:07:31.292691+05:30"},{"city":"Warangal","state":"Telangana","latitude":17.9689,"longitude":79.5941,"temp":23.4,"humidity":87,"rain":0.0,"pressure":980.5,"uv_index":8.1,"wind_gusts":30.2,"aqi":126,"pm10":52.6,"pm2_5":51.9,"mosquito_risk":3,"arthritis_risk":5,"migraine_risk":7,"frizz_risk":1,"updated_at":"2026-03-01T08:07:31.292699+05:30"},{"city":"Nizamabad","state":"Telangana","latitude":18.6725,"longitude":78.0941,"temp":23.8,"humidity":72,"rain":0.0,"pressure":966.0,"uv_index":8.0,"wind_gusts":19.1,"aqi":121,"pm10":62.2,"pm2_5":61.7,"mosquito_risk":3,"arthritis_risk":5,"migraine_risk":7,"frizz_risk":1,"updated_at":"2026-03-01T08:07:31.292706+05:30"},{"city":"Mysore","state":"Karnataka","latitude":12.2958,"longitude":76.6396,"temp":21.7,"humidity":87,"rain":0.0,"pressure":929.0,"uv_index":9.05,"wind_gusts":37.4,"aqi":121,"pm10":39.9,"pm2_5":38.9,"mosquito_risk":3,"arthritis_risk":5,"migraine_risk":7,"frizz_risk":1,"updated_at":"2026-03-01T08:07:31.292714+05:30"},{"city":"Mangalore","state":"Karnataka","latitude":12.9141,"longitude":74.856,"temp":27.7,"humidity":74,"rain":0.0,"pressure":1007.6,"uv_index":8.65,"wind_gusts":32.4,"aqi":44,"pm10":22.3,"pm2_5":19.7,"mosquito_risk":7,"arthritis_risk":5,"migraine_risk":4,"frizz_risk":1,"updated_at":"2026-03-01T08:07:31.292721+05:30"},{"city":"Hubli-Dharwad","state":"Karnataka","latitude":15.3647,"longitude":75.124,"temp":19.5,"humidity":74,"rain":0.0,"pressure":941.1,"uv_index":8.6,"wind_gusts":32.4,"aqi":55,"pm10":28.9,"pm2_5":25.9,"mosquito_risk":3,"arthritis_risk":5,"migraine_risk":7,"frizz_risk":0,"updated_at":"2026-03-01T08:07:31.292729+05:30"},{"city":"Belgaum","state":"Karnataka","latitude":15.8497,"longitude":74.4977,"temp":18.0,"humidity":60,"rain":0.0,"pressure":925.2,"uv_index":8.65,"wind_gusts":38.5,"aqi":53,"pm10":33.4,"pm2_5":29.5,"mosquito_risk":0,"arthritis_risk":5,"migraine_risk":7,"frizz_risk":0,"updated_at":"2026-03-01T08:07:34.504266+05:30"},{"city":"Coimbatore","state":"Tamil Nadu","latitude":11.0168,"longitude":76.9558,"temp":23.1,"humidity":82,"rain":0.0,"pressure":963.1,"uv_index":9.05,"wind_gusts":34.2,"aqi":138,"pm10":68.7,"pm2_5":67.8,"mosquito_risk":3,"arthritis_risk":5,"migraine_risk":7,"frizz_risk":1,"updated_at":"2026-03-01T08:07:34.504298+05:30"},{"city":"Madurai","state":"Tamil Nadu","latitude":9.9252,"longitude":78.1198,"temp":23.5,"humidity":91,"rain":0.0,"pressure":994.9,"uv_index":9.05,"wind_gusts":24.1,"aqi":150,"pm10":75.7,"pm2_5":74.3,"mosquito_risk":3,"arthritis_risk":5,"migraine_risk":7,"frizz_risk":1,"updated_at":"2026-03-01T08:07:34.504308+05:30"},{"city":"Trichy","state":"Tamil Nadu","latitude":10.7905,"longitude":78.7047,"temp":23.9,"humidity":92,"rain":0.0,"pressure":1001.9,"uv_index":8.9,"wind_gusts":25.6,"aqi":151,"pm10":83.8,"pm2_5":82.0,"mosquito_risk":3,"arthritis_risk":5,"migraine_risk":4,"frizz_risk":1,"updated_at":"2026-03-01T08:07:34.504316+05:30"},{"city":"Salem","state":"Tamil Nadu","latitude":11.6643,"longitude":78.146,"temp":24.6,"humidity":80,"rain":0.0,"pressure":979.1,"uv_index":8.95,"wind_gusts":27.0,"aqi":144,"pm10":84.1,"pm2_5":82.7,"mosquito_risk":3,"arthritis_risk":5,"migraine_risk":7,"frizz_risk":1,"updated_at":"2026-03-01T08:07:34.504323+05:30"},{"city":"Tirunelveli","state":"Tamil Nadu","latitude":8.7139,"longitude":77.7567,"temp":23.9,"humidity":89,"rain":0.0,"pressure":1005.1,"uv_index":9.05,"wind_gusts":40.7,"aqi":137,"pm10":60.8,"pm2_5":60.3,"mosquito_risk":3,"arthritis_risk":5,"migraine_risk":4,"frizz_risk":1,"updated_at":"2026-03-01T08:07:34.504330+05:30"},{"city":"Vellore","state":"Tamil Nadu","latitude":12.9165,"longitude":79.1325,"temp":21.8,"humidity":73,"rain":0.0,"pressure":986.7,"uv_index":8.85,"wind_gusts":36.0,"aqi":154,"pm10":85.9,"pm2_5":84.3,"mosquito_risk":3,"arthritis_risk":5,"migraine_risk":7,"frizz_risk":1,"updated_at":"2026-03-01T08:07:34.504337+05:30"},{"city":"Erode","state":"Tamil Nadu","latitude":11.341,"longitude":77.7172,"temp":24.6,"humidity":79,"rain":0.0,"pressure":990.9,"uv_index":8.95,"wind_gusts":25.2,"aqi":131,"pm10":67.3,"pm2_5":65.7,"mosquito_risk":3,"arthritis_risk":5,"migraine_risk":7,"frizz_risk":1,"updated_at":"2026-03-01T08:07:34.504344+05:30"},{"city":"Kochi","state":"Kerala","latitude":9.9312,"longitude":76.2673,"temp":27.3,"humidity":81,"rain":0.0,"pressure":1009.4,"uv_index":8.9,"wind_gusts":38.5,"aqi":110,"pm10":43.8,"pm2_5":43.4,"mosquito_risk":7,"arthritis_risk":0,"migraine_risk":4,"frizz_risk":1,"updated_at":"2026-03-01T08:07:34.504351+05:30"},{"city":"Thiruvananthapuram","state":"Kerala","latitude":8.5241,"longitude":76.9366,"temp":26.9,"humidity":83,"rain":0.0,"pressure":1008.7,"uv_index":8.95,"wind_gusts":25.6,"aqi":92,"pm10":39.9,"pm2_5":39.1,"mosquito_risk":7,"arthritis_risk":0,"migraine_risk":4,"frizz_risk":1,"updated_at":"2026-03-01T08:07:34.504357+05:30"},{"city":"Kozhikode","state":"Kerala","latitude":11.2588,"longitude":75.7804,"temp":27.1,"humidity":80,"rain":0.0,"pressure":1008.8,"uv_index":8.75,"wind_gusts":32.8,"aqi":68,"pm10":29.0,"pm2_5":27.3,"mosquito_risk":7,"arthritis_risk":0,"migraine_risk":4,"frizz_risk":1,"updated_at":"2026-03-01T08:07:34.504363+05:30"},{"city":"Thrissur","state":"Kerala","latitude":10.5276,"longitude":76.2144,"temp":25.7,"humidity":89,"rain":0.0,"pressure":1008.0,"uv_index":8.85,"wind_gusts":39.6,"aqi":110,"pm10":48.2,"pm2_5":47.8,"mosquito_risk":7,"arthritis_risk":0,"migraine_risk":4,"frizz_risk":1,"updated_at":"2026-03-01T08:07:34.504370+05:30"},{"city":"Kannur","state":"Kerala","latitude":11.8745,"longitude":75.3704,"temp":26.4,"humidity":72,"rain":0.0,"pressure":1008.1,"uv_index":8.75,"wind_gusts":38.5,"aqi":49,"pm10":20.3,"pm2_5":19.3,"mosquito_risk":7,"arthritis_risk":0,"migraine_risk":4,"frizz_risk":1,"updated_at":"2026-03-01T08:07:34.504378+05:30"},{"city":"Patna","state":"Bihar","latitude":25.5941,"longitude":85.1376,"temp":21.4,"humidity":69,"rain":0.0,"pressure":1002.1,"uv_index":7.0,"wind_gusts":29.2,"aqi":115,"pm10":69.4,"pm2_5":56.1,"mosquito_risk":3,"arthritis_risk":5,"migraine_risk":4,"frizz_risk":0,"updated_at":"2026-03-01T08:07:34.504384+05:30"},{"city":"Gaya","state":"Bihar","latitude":24.7914,"longitude":85.0002,"temp":21.8,"humidity":75,"rain":0.0,"pressure":995.7,"uv_index":7.1,"wind_gusts":20.5,"aqi":92,"pm10":55.1,"pm2_5":44.9,"mosquito_risk":3,"arthritis_risk":5,"migraine_risk":7,"frizz_risk":1,"updated_at":"2026-03-01T08:07:34.504390+05:30"},{"city":"Muzaffarpur","state":"Bihar","latitude":26.1209,"longitude":85.3647,"temp":19.9,"humidity":73,"rain":0.0,"pressure":1002.1,"uv_index":6.95,"wind_gusts":32.8,"aqi":123,"pm10":72.2,"pm2_5":58.6,"mosquito_risk":3,"arthritis_risk":5,"migraine_risk":4,"frizz_risk":0,"updated_at":"2026-03-01T08:07:34.504396+05:30"},{"city":"Bhagalpur","state":"Bihar","latitude":25.2425,"longitude":87.0117,"temp":21.2,"humidity":76,"rain":0.0,"pressure":1002.8,"uv_index":7.05,"wind_gusts":24.5,"aqi":97,"pm10":61.2,"pm2_5":44.2,"mosquito_risk":3,"arthritis_risk":5,"migraine_risk":4,"frizz_risk":1,"updated_at":"2026-03-01T08:07:34.504402+05:30"},{"city":"Ranchi","state":"Jharkhand","latitude":23.3441,"longitude":85.3096,"temp":22.3,"humidity":46,"rain":0.0,"pressure":939.2,"uv_index":7.8,"wind_gusts":22.0,"aqi":78,"pm10":46.0,"pm2_5":40.9,"mosquito_risk":0,"arthritis_risk":5,"migraine_risk":7,"frizz_risk":0,"updated_at":"2026-03-01T08:07:34.504408+05:30"},{"city":"Jamshedpur","state":"Jharkhand","latitude":22.8046,"longitude":86.2029,"temp":22.3,"humidity":76,"rain":0.0,"pressure":992.6,"uv_index":7.7,"wind_gusts":12.6,"aqi":119,"pm10":80.8,"pm2_5":76.4,"mosquito_risk":3,"arthritis_risk":5,"migraine_risk":7,"frizz_risk":1,"updated_at":"2026-03-01T08:07:34.504414+05:30"},{"city":"Dhanbad","state":"Jharkhand","latitude":23.7957,"longitude":86.4304,"temp":23.5,"humidity":46,"rain":0.0,"pressure":981.8,"uv_index":7.55,"wind_gusts":31.0,"aqi":146,"pm10":83.1,"pm2_5":75.9,"mosquito_risk":0,"arthritis_risk":5,"migraine_risk":7,"frizz_risk":0,"updated_at":"2026-03-01T08:07:34.504421+05:30"},{"city":"Bokaro","state":"Jharkhand","latitude":23.6693,"longitude":86.1511,"temp":22.7,"humidity":52,"rain":0.0,"pressure":985.9,"uv_index":7.55,"wind_gusts":26.3,"aqi":140,"pm10":85.2,"pm2_5":79.6,"mosquito_risk":0,"arthritis_risk":5,"migraine_risk":7,"frizz_risk":0,"updated_at":"2026-03-01T08:07:34.504427+05:30"},{"city":"Bhubaneswar","state":"Odisha","latitude":20.2961,"longitude":85.8245,"temp":25.3,"humidity":85,"rain":0.0,"pressure":1004.8,"uv_index":8.05,"wind_gusts":32.0,"aqi":97,"pm10":48.1,"pm2_5":46.9,"mosquito_risk":7,"arthritis_risk":5,"migraine_risk":4,"frizz_risk":1,"updated_at":"2026-03-01T08:07:34.504433+05:30"},{"city":"Cuttack","state":"Odisha","latitude":20.4625,"longitude":85.8828,"temp":25.0,"humidity":86,"rain":0.0,"pressure":1006.8,"uv_index":8.05,"wind_gusts":33.1,"aqi":97,"pm10":48.1,"pm2_5":46.9,"mosquito_risk":7,"arthritis_risk":5,"migraine_risk":4,"frizz_risk":1,"updated_at":"2026-03-01T08:07:34.504439+05:30"},{"city":"Rourkela","state":"Odisha","latitude":22.2604,"longitude":84.8536,"temp":22.3,"humidity":66,"rain":0.0,"pressure":986.8,"uv_index":7.6,"wind_gusts":25.6,"aqi":102,"pm10":68.2,"pm2_5":66.4,"mosquito_risk":3,"arthritis_risk":5,"migraine_risk":7,"frizz_risk":0,"updated_at":"2026-03-01T08:07:34.504445+05:30"},{"city":"Raipur","state":"Chhattisgarh","latitude":21.2514,"longitude":81.6296,"temp":24.2,"humidity":66,"rain":0.0,"pressure":975.9,"uv_index":7.75,"wind_gusts":25.9,"aqi":157,"pm10":94.1,"pm2_5":93.6,"mosquito_risk":3,"arthritis_risk":5,"migraine_risk":7,"frizz_risk":1,"updated_at":"2026-03-01T08:07:34.504452+05:30"},{"city":"Bhilai","state":"Chhattisgarh","latitude":21.1938,"longitude":81.3509,"temp":23.0,"humidity":74,"rain":0.0,"pressure":976.2,"uv_index":7.75,"wind_gusts":26.6,"aqi":159,"pm10":92.9,"pm2_5":92.2,"mosquito_risk":3,"arthritis_risk":5,"migraine_risk":7,"frizz_risk":1,"updated_at":"2026-03-01T08:07:34.504457+05:30"},{"city":"Guwahati","state":"Assam","latitude":26.1158,"longitude":91.7086,"temp":21.3,"humidity":81,"rain":0.0,"pressure":1004.3,"uv_index":7.0,"wind_gusts":28.8,"aqi":163,"pm10":78.7,"pm2_5":70.3,"mosquito_risk":3,"arthritis_risk":5,"migraine_risk":4,"frizz_risk":1,"updated_at":"2026-03-01T08:07:34.504463+05:30"},{"city":"Agartala","state":"Tripura","latitude":23.8315,"longitude":91.2868,"temp":23.4,"humidity":86,"rain":0.0,"pressure":1008.9,"uv_index":7.35,"wind_gusts":24.1,"aqi":151,"pm10":39.0,"pm2_5":36.8,"mosquito_risk":3,"arthritis_risk":0,"migraine_risk":4,"frizz_risk":1,"updated_at":"2026-03-01T08:07:34.504470+05:30"},{"city":"Shillong","state":"Meghalaya","latitude":25.5788,"longitude":91.8933,"temp":13.6,"humidity":59,"rain":0.0,"pressure":855.9,"uv_index":7.35,"wind_gusts":50.4,"aqi":154,"pm10":55.5,"pm2_5":37.4,"mosquito_risk":0,"arthritis_risk":5,"migraine_risk":7,"frizz_risk":0,"updated_at":"2026-03-01T08:07:34.504476+05:30"},{"city":"Imphal","state":"Manipur","latitude":24.817,"longitude":93.9368,"temp":18.2,"humidity":57,"rain":0.0,"pressure":924.4,"uv_index":7.55,"wind_gusts":53.3,"aqi":151,"pm10":89.9,"pm2_5":75.7,"mosquito_risk":0,"arthritis_risk":5,"migraine_risk":7,"frizz_risk":0,"updated_at":"2026-03-01T08:07:34.504482+05:30"},{"city":"Aizawl","state":"Mizoram","latitude":23.7271,"longitude":92.7176,"temp":18.1,"humidity":65,"rain":0.0,"pressure":894.0,"uv_index":7.5,"wind_gusts":38.2,"aqi":122,"pm10":56.9,"pm2_5":50.6,"mosquito_risk":3,"arthritis_risk":5,"migraine_risk":7,"frizz_risk":0,"updated_at":"2026-03-01T08:07:34.504488+05:30"},{"city":"Kohima","state":"Nagaland","latitude":25.6701,"longitude":94.1077,"temp":14.5,"humidity":61,"rain":0.0,"pressure":854.8,"uv_index":7.35,"wind_gusts":79.9,"aqi":152,"pm10":67.8,"pm2_5":60.8,"mosquito_risk":3,"arthritis_risk":5,"migraine_risk":7,"frizz_risk":0,"updated_at":"2026-03-01T08:07:34.504494+05:30"},{"city":"Gangtok","state":"Sikkim","latitude":27.3314,"longitude":88.6138,"temp":10.3,"humidity":89,"rain":0.2,"pressure":835.0,"uv_index":4.45,"wind_gusts":12.2,"aqi":137,"pm10":46.4,"pm2_5":37.3,"mosquito_risk":6,"arthritis_risk":10,"migraine_risk":3,"frizz_risk":0,"updated_at":"2026-03-01T08:07:34.504500+05:30"},{"city":"Siliguri","state":"West Bengal","latitude":26.7271,"longitude":88.3953,"temp":19.4,"humidity":66,"rain":0.0,"pressure":996.0,"uv_index":7.0,"wind_gusts":22.7,"aqi":170,"pm10":127.1,"pm2_5":103.4,"mosquito_risk":3,"arthritis_risk":5,"migraine_risk":7,"frizz_risk":0,"updated_at":"2026-03-01T08:07:37.718833+05:30"},{"city":"Durgapur","state":"West Bengal","latitude":23.5204,"longitude":87.3119,"temp":23.8,"humidity":72,"rain":0.0,"pressure":997.0,"uv_index":7.55,"wind_gusts":27.7,"aqi":120,"pm10":72.2,"pm2_5":65.9,"mosquito_risk":3,"arthritis_risk":5,"migraine_risk":7,"frizz_risk":1,"updated_at":"2026-03-01T08:07:37.718864+05:30"},{"city":"Asansol","state":"West Bengal","latitude":23.6739,"longitude":86.9524,"temp":23.8,"humidity":60,"rain":0.0,"pressure":995.5,"uv_index":7.55,"wind_gusts":26.3,"aqi":105,"pm10":58.7,"pm2_5":51.6,"mosquito_risk":0,"arthritis_risk":5,"migraine_risk":7,"frizz_risk":0,"updated_at":"2026-03-01T08:07:37.718875+05:30"},{"city":"Pondicherry","state":"Puducherry","latitude":11.9139,"longitude":79.8145,"temp":24.5,"humidity":91,"rain":0.0,"pressure":1010.8,"uv_index":8.8,"wind_gusts":29.2,"aqi":141,"pm10":59.5,"pm2_5":55.5,"mosquito_risk":3,"arthritis_risk":0,"migraine_risk":4,"frizz_risk":1,"updated_at":"2026-03-01T08:07:37.718884+05:30"},{"city":"Port Blair","state":"Andaman and Nicobar Islands","latitude":11.6234,"longitude":92.7265,"temp":26.8,"humidity":70,"rain":0.0,"pressure":1008.6,"uv_index":8.75,"wind_gusts":25.9,"aqi":101,"pm10":22.9,"pm2_5":20.0,"mosquito_risk":7,"arthritis_risk":0,"migraine_risk":4,"frizz_risk":1,"updated_at":"2026-03-01T08:07:37.718894+05:30"},{"city":"Haridwar","state":"Uttarakhand","latitude":29.9457,"longitude":78.1642,"temp":15.9,"humidity":77,"rain":0.0,"pressure":975.3,"uv_index":5.45,"wind_gusts":40.0,"aqi":108,"pm10":50.6,"pm2_5":44.5,"mosquito_risk":3,"arthritis_risk":5,"migraine_risk":3,"frizz_risk":0,"updated_at":"2026-03-01T08:07:37.718903+05:30"},{"city":"Rishikesh","state":"Uttarakhand","latitude":30.0869,"longitude":78.2676,"temp":16.5,"humidity":68,"rain":0.0,"pressure":967.8,"uv_index":5.5,"wind_gusts":36.7,"aqi":92,"pm10":39.8,"pm2_5":33.8,"mosquito_risk":3,"arthritis_risk":5,"migraine_risk":3,"frizz_risk":0,"updated_at":"2026-03-01T08:07:37.718911+05:30"},{"city":"Nainital","state":"Uttarakhand","latitude":29.3919,"longitude":79.4542,"temp":14.4,"humidity":52,"rain":0.0,"pressure":803.8,"uv_index":6.3,"wind_gusts":47.2,"aqi":85,"pm10":41.6,"pm2_5":32.6,"mosquito_risk":0,"arthritis_risk":5,"migraine_risk":7,"frizz_risk":0,"updated_at":"2026-03-01T08:07:37.718918+05:30"},{"city":"Mussoorie","state":"Uttarakhand","latitude":30.4599,"longitude":78.0664,"temp":12.2,"humidity":41,"rain":0.0,"pressure":800.1,"uv_index":5.85,"wind_gusts":42.5,"aqi":89,"pm10":35.2,"pm2_5":29.3,"mosquito_risk":0,"arthritis_risk":5,"migraine_risk":3,"frizz_risk":1,"updated_at":"2026-03-01T08:07:37.718925+05:30"},{"city":"Dharamshala","state":"Himachal Pradesh","latitude":32.219,"longitude":76.3234,"temp":15.7,"humidity":39,"rain":0.0,"pressure":867.7,"uv_index":6.05,"wind_gusts":27.0,"aqi":59,"pm10":17.2,"pm2_5":11.6,"mosquito_risk":0,"arthritis_risk":5,"migraine_risk":7,"frizz_risk":0,"updated_at":"2026-03-01T08:07:37.718932+05:30"},{"city":"Dalhousie","state":"Himachal Pradesh","latitude":32.5387,"longitude":75.971,"temp":12.6,"humidity":28,"rain":0.0,"pressure":801.6,"uv_index":6.25,"wind_gusts":27.4,"aqi":88,"pm10":30.3,"pm2_5":26.5,"mosquito_risk":0,"arthritis_risk":5,"migraine_risk":7,"frizz_risk":1,"updated_at":"2026-03-01T08:07:37.718940+05:30"},{"city":"Patiala","state":"Punjab","latitude":30.3398,"longitude":76.3869,"temp":15.7,"humidity":86,"rain":0.0,"pressure":979.7,"uv_index":5.5,"wind_gusts":29.2,"aqi":155,"pm10":196.0,"pm2_5":70.1,"mosquito_risk":3,"arthritis_risk":10,"migraine_risk":3,"frizz_risk":0,"updated_at":"2026-03-01T08:07:37.718947+05:30"},{"city":"Bhatinda","state":"Punjab","latitude":30.211,"longitude":74.9455,"temp":15.8,"humidity":85,"rain":0.0,"pressure":985.9,"uv_index":6.2,"wind_gusts":20.5,"aqi":144,"pm10":102.4,"pm2_5":81.3,"mosquito_risk":3,"arthritis_risk":10,"migraine_risk":7,"frizz_risk":0,"updated_at":"2026-03-01T08:07:37.718954+05:30"},{"city":"Rohtak","state":"Haryana","latitude":28.8955,"longitude":76.6066,"temp":15.7,"humidity":78,"rain":0.0,"pressure":983.7,"uv_index":5.7,"wind_gusts":27.4,"aqi":161,"pm10":201.2,"pm2_5":81.3,"mosquito_risk":3,"arthritis_risk":5,"migraine_risk":3,"frizz_risk":0,"updated_at":"2026-03-01T08:07:37.718959+05:30"},{"city":"Panipat","state":"Haryana","latitude":29.3909,"longitude":76.9635,"temp":15.8,"humidity":82,"rain":0.0,"pressure":981.9,"uv_index":5.5,"wind_gusts":28.8,"aqi":246,"pm10":443.3,"pm2_5":103.1,"mosquito_risk":3,"arthritis_risk":10,"migraine_risk":3,"frizz_risk":0,"updated_at":"2026-03-01T08:07:37.718966+05:30"},{"city":"Mathura","state":"Uttar Pradesh","latitude":27.4924,"longitude":77.6737,"temp":17.5,"humidity":69,"rain":0.0,"pressure":989.1,"uv_index":5.95,"wind_gusts":23.0,"aqi":153,"pm10":278.5,"pm2_5":85.9,"mosquito_risk":3,"arthritis_risk":5,"migraine_risk":3,"frizz_risk":0,"updated_at":"2026-03-01T08:07:37.718971+05:30"},{"city":"Vrindavan","state":"Uttar Pradesh","latitude":27.5823,"longitude":77.7027,"temp":15.4,"humidity":83,"rain":0.0,"pressure":989.5,"uv_index":5.95,"wind_gusts":25.2,"aqi":153,"pm10":278.5,"pm2_5":85.9,"mosquito_risk":3,"arthritis_risk":10,"migraine_risk":3,"frizz_risk":0,"updated_at":"2026-03-01T08:07:37.718978+05:30"},{"city":"Ayodhya","state":"Uttar Pradesh","latitude":26.7922,"longitude":82.1998,"temp":18.7,"humidity":77,"rain":0.0,"pressure":996.8,"uv_index":6.35,"wind_gusts":36.0,"aqi":125,"pm10":87.5,"pm2_5":58.9,"mosquito_risk":3,"arthritis_risk":5,"migraine_risk":7,"frizz_risk":0,"updated_at":"2026-03-01T08:07:37.718984+05:30"},{"city":"Ratlam","state":"Madhya Pradesh","latitude":23.3315,"longitude":75.0367,"temp":19.9,"humidity":69,"rain":0.0,"pressure":955.7,"uv_index":7.2,"wind_gusts":27.7,"aqi":75,"pm10":29.2,"pm2_5":25.7,"mosquito_risk":3,"arthritis_risk":5,"migraine_risk":7,"frizz_risk":0,"updated_at":"2026-03-01T08:07:37.718990+05:30"},{"city":"Sagar","state":"Madhya Pradesh","latitude":23.8388,"longitude":78.7378,"temp":20.3,"humidity":71,"rain":0.0,"pressure":951.1,"uv_index":7.15,"wind_gusts":19.8,"aqi":59,"pm10":16.6,"pm2_5":16.2,"mosquito_risk":3,"arthritis_risk":5,"migraine_risk":7,"frizz_risk":0,"updated_at":"2026-03-01T08:07:37.718996+05:30"},{"city":"Satna","state":"Madhya Pradesh","latitude":24.6005,"longitude":80.8322,"temp":21.5,"humidity":61,"rain":0.0,"pressure":972.9,"uv_index":7.1,"wind_gusts":28.1,"aqi":96,"pm10":50.8,"pm2_5":45.5,"mosquito_risk":3,"arthritis_risk":5,"migraine_risk":7,"frizz_risk":0,"updated_at":"2026-03-01T08:07:37.719002+05:30"},{"city":"Akola","state":"Maharashtra","latitude":20.7002,"longitude":77.0082,"temp":21.9,"humidity":67,"rain":0.0,"pressure":976.8,"uv_index":7.7,"wind_gusts":28.8,"aqi":72,"pm10":20.7,"pm2_5":19.8,"mosquito_risk":3,"arthritis_risk":5,"migraine_risk":7,"frizz_risk":0,"updated_at":"2026-03-01T08:07:37.719009+05:30"},{"city":"Amravati","state":"Maharashtra","latitude":20.9374,"longitude":77.7796,"temp":21.0,"humidity":73,"rain":0.0,"pressure":968.8,"uv_index":7.65,"wind_gusts":27.0,"aqi":84,"pm10":20.6,"pm2_5":19.8,"mosquito_risk":3,"arthritis_risk":5,"migraine_risk":7,"frizz_risk":0,"updated_at":"2026-03-01T08:07:37.719016+05:30"},{"city":"Latur","state":"Maharashtra","latitude":18.4088,"longitude":76.5604,"temp":20.8,"humidity":63,"rain":0.0,"pressure":940.4,"uv_index":8.15,"wind_gusts":27.0,"aqi":74,"pm10":23.0,"pm2_5":22.4,"mosquito_risk":3,"arthritis_risk":5,"migraine_risk":7,"frizz_risk":0,"updated_at":"2026-03-01T08:07:37.719022+05:30"},{"city":"Nanded","state":"Maharashtra","latitude":19.1383,"longitude":77.3091,"temp":21.7,"humidity":68,"rain":0.0,"pressure":970.3,"uv_index":7.9,"wind_gusts":17.6,"aqi":78,"pm10":27.0,"pm2_5":26.5,"mosquito_risk":3,"arthritis_risk":5,"migraine_risk":7,"frizz_risk":0,"updated_at":"2026-03-01T08:07:37.719028+05:30"},{"city":"Gulbarga","state":"Karnataka","latitude":17.3297,"longitude":76.8343,"temp":23.5,"humidity":67,"rain":0.0,"pressure":959.9,"uv_index":8.25,"wind_gusts":15.5,"aqi":87,"pm10":33.8,"pm2_5":33.5,"mosquito_risk":3,"arthritis_risk":5,"migraine_risk":7,"frizz_risk":1,"updated_at":"2026-03-01T08:07:37.719034+05:30"},{"city":"Bidar","state":"Karnataka","latitude":17.9104,"longitude":77.5199,"temp":23.3,"humidity":65,"rain":0.0,"pressure":936.6,"uv_index":8.2,"wind_gusts":18.0,"aqi":109,"pm10":55.9,"pm2_5":55.4,"mosquito_risk":3,"arthritis_risk":5,"migraine_risk":7,"frizz_risk":1,"updated_at":"2026-03-01T08:07:37.719040+05:30"},{"city":"Hospet","state":"Karnataka","latitude":15.2689,"longitude":76.3909,"temp":23.4,"humidity":64,"rain":0.0,"pressure":956.9,"uv_index":8.55,"wind_gusts":24.5,"aqi":96,"pm10":20.1,"pm2_5":19.2,"mosquito_risk":3,"arthritis_risk":5,"migraine_risk":7,"frizz_risk":1,"updated_at":"2026-03-01T08:07:37.719046+05:30"},{"city":"Tirupur","state":"Tamil Nadu","latitude":11.1085,"longitude":77.3411,"temp":23.9,"humidity":86,"rain":0.0,"pressure":976.9,"uv_index":9.05,"wind_gusts":20.2,"aqi":148,"pm10":82.2,"pm2_5":81.0,"mosquito_risk":3,"arthritis_risk":5,"migraine_risk":7,"frizz_risk":1,"updated_at":"2026-03-01T08:07:37.719052+05:30"},{"city":"Alappuzha","state":"Kerala","latitude":9.4981,"longitude":76.3388,"temp":27.2,"humidity":82,"rain":0.0,"pressure":1009.5,"uv_index":8.9,"wind_gusts":34.6,"aqi":94,"pm10":41.3,"pm2_5":40.5,"mosquito_risk":7,"arthritis_risk":0,"migraine_risk":4,"frizz_risk":1,"updated_at":"2026-03-01T08:07:37.719080+05:30"},{"city":"Munnar","state":"Kerala","latitude":10.0889,"longitude":77.0595,"temp":20.0,"humidity":72,"rain":0.0,"pressure":856.7,"uv_index":9.4,"wind_gusts":28.1,"aqi":126,"pm10":64.5,"pm2_5":63.1,"mosquito_risk":3,"arthritis_risk":5,"migraine_risk":7,"frizz_risk":0,"updated_at":"2026-03-01T08:07:37.719089+05:30"},{"city":"Silchar","state":"Assam","latitude":24.8333,"longitude":92.7789,"temp":21.5,"humidity":73,"rain":0.0,"pressure":1008.0,"uv_index":7.3,"wind_gusts":22.3,"aqi":157,"pm10":81.3,"pm2_5":71.2,"mosquito_risk":3,"arthritis_risk":0,"migraine_risk":4,"frizz_risk":1,"updated_at":"2026-03-01T08:07:37.719096+05:30"},{"city":"Dibrugarh","state":"Assam","latitude":27.4728,"longitude":94.912,"temp":17.7,"humidity":91,"rain":0.2,"pressure":999.8,"uv_index":7.05,"wind_gusts":16.2,"aqi":154,"pm10":69.8,"pm2_5":66.1,"mosquito_risk":6,"arthritis_risk":10,"migraine_risk":7,"frizz_risk":1,"updated_at":"2026-03-01T08:07:37.719102+05:30"}]