[{"city":"Delhi","state":"Delhi","latitude":28.6139,"longitude":77.209,"temp":30.9,"humidity":80,"rain":0.0,"pressure":975.5,"uv_index":7.45,"wind_gusts":37.8,"aqi":626,"pm10":355.8,"pm2_5":88.5,"no2":28.6,"co":539.0,"o3":125.0,"so2":35.6,"mosquito_risk":3,"arthritis_risk":5,"migraine_risk":7,"frizz_risk":1,"updated_at":"2026-06-30T21:00:54.969118+05:30"},{"city":"Mumbai","state":"Maharashtra","latitude":19.076,"longitude":72.8777,"temp":26.3,"humidity":92,"rain":0.2,"pressure":1004.7,"uv_index":5.3,"wind_gusts":43.9,"aqi":38,"pm10":12.9,"pm2_5":8.2,"no2":10.5,"co":317.0,"o3":47.0,"so2":6.0,"mosquito_risk":10,"arthritis_risk":5,"migraine_risk":0,"frizz_risk":1,"updated_at":"2026-06-30T21:00:54.969161+05:30"},{"city":"Bangalore","state":"Karnataka","latitude":12.9716,"longitude":77.5946,"temp":22.2,"humidity":84,"rain":0.0,"pressure":911.7,"uv_index":8.3,"wind_gusts":58.3,"aqi":27,"pm10":5.8,"pm2_5":5.4,"no2":16.9,"co":311.0,"o3":34.0,"so2":4.2,"mosquito_risk":3,"arthritis_risk":5,"migraine_risk":7,"frizz_risk":1,"updated_at":"2026-06-30T21:00:54.969176+05:30"},{"city":"Hyderabad","state":"Telangana","latitude":17.385,"longitude":78.4867,"temp":25.0,"humidity":86,"rain":0.2,"pressure":950.7,"uv_index":6.9,"wind_gusts":47.9,"aqi":34,"pm10":5.6,"pm2_5":5.3,"no2":8.3,"co":230.0,"o3":58.0,"so2":3.7,"mosquito_risk":10,"arthritis_risk":5,"migraine_risk":7,"frizz_risk":1,"updated_at":"2026-06-30T21:00:54.969186+05:30"},{"city":"Chennai","state":"Tamil Nadu","latitude":13.0827,"longitude":80.2707,"temp":28.1,"humidity":84,"rain":0.0,"pressure":1005.7,"uv_index":8.0,"wind_gusts":40.0,"aqi":48,"pm10":13.3,"pm2_5":10.6,"no2":14.2,"co":380.0,"o3":64.0,"so2":6.8,"mosquito_risk":7,"arthritis_risk":5,"migraine_risk":4,"frizz_risk":1,"updated_at":"2026-06-30T21:00:54.969194+05:30"},{"city":"Kolkata","state":"West Bengal","latitude":22.5726,"longitude":88.3639,"temp":27.1,"humidity":97,"rain":0.0,"pressure":1001.0,"uv_index":8.9,"wind_gusts":34.9,"aqi":113,"pm10":38.8,"pm2_5":38.6,"no2":19.3,"co":1053.0,"o3":68.0,"so2":12.4,"mosquito_risk":7,"arthritis_risk":5,"migraine_risk":4,"frizz_risk":1,"updated_at":"2026-06-30T21:00:54.969201+05:30"},{"city":"Pune","state":"Maharashtra","latitude":18.5204,"longitude":73.8567,"temp":24.0,"humidity":90,"rain":0.0,"pressure":944.7,"uv_index":2.6,"wind_gusts":44.3,"aqi":23,"pm10":3.8,"pm2_5":3.7,"no2":11.8,"co":199.0,"o3":35.0,"so2":5.0,"mosquito_risk":3,"arthritis_risk":5,"migraine_risk":3,"frizz_risk":1,"updated_at":"2026-06-30T21:00:54.969208+05:30"},{"city":"Ahmedabad","state":"Gujarat","latitude":23.0225,"longitude":72.5714,"temp":31.8,"humidity":66,"rain":0.0,"pressure":995.5,"uv_index":7.95,"wind_gusts":43.2,"aqi":56,"pm10":18.3,"pm2_5":12.6,"no2":9.9,"co":164.0,"o3":63.0,"so2":6.2,"mosquito_risk":3,"arthritis_risk":5,"migraine_risk":7,"frizz_risk":1,"updated_at":"2026-06-30T21:00:54.969214+05:30"},{"city":"Jaipur","state":"Rajasthan","latitude":26.9124,"longitude":75.7873,"temp":29.0,"humidity":66,"rain":0.0,"pressure":953.3,"uv_index":8.2,"wind_gusts":48.6,"aqi":175,"pm10":67.1,"pm2_5":30.4,"no2":23.1,"co":323.0,"o3":46.0,"so2":7.5,"mosquito_risk":7,"arthritis_risk":5,"migraine_risk":7,"frizz_risk":1,"updated_at":"2026-06-30T21:00:54.969225+05:30"},{"city":"Lucknow","state":"Uttar Pradesh","latitude":26.8467,"longitude":80.9462,"temp":29.4,"humidity":74,"rain":0.0,"pressure":987.4,"uv_index":7.85,"wind_gusts":29.2,"aqi":103,"pm10":60.1,"pm2_5":36.7,"no2":18.3,"co":299.0,"o3":70.0,"so2":10.8,"mosquito_risk":7,"arthritis_risk":5,"migraine_risk":7,"frizz_risk":1,"updated_at":"2026-06-30T21:00:54.969234+05:30"},{"city":"Kanpur","state":"Uttar Pradesh","latitude":26.4499,"longitude":80.3319,"temp":30.8,"humidity":68,"rain":0.0,"pressure":985.4,"uv_index":7.7,"wind_gusts":37.4,"aqi":119,"pm10":88.0,"pm2_5":38.8,"no2":14.2,"co":266.0,"o3":83.0,"so2":8.3,"mosquito_risk":3,"arthritis_risk":5,"migraine_risk":7,"frizz_risk":1,"updated_at":"2026-06-30T21:00:54.969241+05:30"},{"city":"Chandigarh","state":"Chandigarh","latitude":30.7333,"longitude":76.7794,"temp":27.5,"humidity":90,"rain":0.0,"pressure":961.1,"uv_index":7.65,"wind_gusts":34.6,"aqi":126,"pm10":68.0,"pm2_5":54.9,"no2":46.0,"co":613.0,"o3":70.0,"so2":11.9,"mosquito_risk":7,"arthritis_risk":5,"migraine_risk":7,"frizz_risk":1,"updated_at":"2026-06-30T21:00:54.969248+05:30"},{"city":"Srinagar","state":"Jammu and Kashmir","latitude":34.0837,"longitude":74.7973,"temp":29.4,"humidity":50,"rain":0.0,"pressure":837.0,"uv_index":9.1,"wind_gusts":24.1,"aqi":139,"pm10":21.4,"pm2_5":18.6,"no2":12.6,"co":716.0,"o3":102.0,"so2":4.1,"mosquito_risk":4,"arthritis_risk":5,"migraine_risk":7,"frizz_risk":1,"updated_at":"2026-06-30T21:00:54.969254+05:30"},{"city":"Jammu","state":"Jammu and Kashmir","latitude":32.7266,"longitude":74.857,"temp":30.6,"humidity":75,"rain":0.0,"pressure":964.1,"uv_index":8.6,"wind_gusts":34.2,"aqi":150,"pm10":45.6,"pm2_5":34.2,"no2":19.4,"co":425.0,"o3":95.0,"so2":4.4,"mosquito_risk":3,"arthritis_risk":5,"migraine_risk":7,"frizz_risk":1,"updated_at":"2026-06-30T21:00:54.969260+05:30"},{"city":"Amritsar","state":"Punjab","latitude":31.634,"longitude":74.8723,"temp":31.8,"humidity":74,"rain":0.0,"pressure":971.3,"uv_index":8.45,"wind_gusts":31.7,"aqi":155,"pm10":87.8,"pm2_5":55.8,"no2":12.7,"co":422.0,"o3":113.0,"so2":8.0,"mosquito_risk":3,"arthritis_risk":5,"migraine_risk":7,"frizz_risk":1,"updated_at":"2026-06-30T21:00:54.969266+05:30"},{"city":"Ludhiana","state":"Punjab","latitude":30.901,"longitude":75.8573,"temp":31.2,"humidity":76,"rain":0.0,"pressure":969.9,"uv_index":5.85,"wind_gusts":32.4,"aqi":169,"pm10":71.5,"pm2_5":45.5,"no2":17.8,"co":577.0,"o3":125.0,"so2":13.0,"mosquito_risk":3,"arthritis_risk":5,"migraine_risk":3,"frizz_risk":1,"updated_at":"2026-06-30T21:00:54.969272+05:30"},{"city":"Jalandhar","state":"Punjab","latitude":31.326,"longitude":75.5762,"temp":31.8,"humidity":74,"rain":0.0,"pressure":970.9,"uv_index":8.0,"wind_gusts":31.7,"aqi":158,"pm10":121.5,"pm2_5":58.6,"no2":17.9,"co":501.0,"o3":134.0,"so2":17.9,"mosquito_risk":3,"arthritis_risk":5,"migraine_risk":7,"frizz_risk":1,"updated_at":"2026-06-30T21:00:54.969278+05:30"},{"city":"Dehradun","state":"Uttarakhand","latitude":30.6284,"longitude":78.0322,"temp":19.5,"humidity":99,"rain":0.0,"pressure":826.6,"uv_index":6.6,"wind_gusts":25.2,"aqi":64,"pm10":27.3,"pm2_5":13.5,"no2":22.9,"co":231.0,"o3":81.0,"so2":2.1,"mosquito_risk":3,"arthritis_risk":10,"migraine_risk":7,"frizz_risk":1,"updated_at":"2026-06-30T21:00:54.969284+05:30"},{"city":"Shimla","state":"Himachal Pradesh","latitude":31.1048,"longitude":77.1734,"temp":16.9,"humidity":97,"rain":0.0,"pressure":780.7,"uv_index":5.2,"wind_gusts":39.2,"aqi":79,"pm10":28.2,"pm2_5":18.2,"no2":19.2,"co":495.0,"o3":88.0,"so2":2.2,"mosquito_risk":3,"arthritis_risk":10,"migraine_risk":3,"frizz_risk":1,"updated_at":"2026-06-30T21:00:54.969290+05:30"},{"city":"Manali","state":"Himachal Pradesh","latitude":32.2396,"longitude":77.1887,"temp":19.9,"humidity":98,"rain":0.0,"pressure":815.3,"uv_index":7.2,"wind_gusts":35.3,"aqi":58,"pm10":29.3,"pm2_5":28.2,"no2":108.6,"co":313.0,"o3":23.0,"so2":0.3,"mosquito_risk":3,"arthritis_risk":10,"migraine_risk":7,"frizz_risk":1,"updated_at":"2026-06-30T21:00:54.969298+05:30"},{"city":"Gurgaon","state":"Haryana","latitude":28.4595,"longitude":77.0266,"temp":32.4,"humidity":69,"rain":0.0,"pressure":973.7,"uv_index":7.8,"wind_gusts":38.5,"aqi":1033,"pm10":1106.4,"pm2_5":198.8,"no2":25.9,"co":870.0,"o3":145.0,"so2":29.6,"mosquito_risk":3,"arthritis_risk":5,"migraine_risk":7,"frizz_risk":1,"updated_at":"2026-06-30T21:00:54.969305+05:30"},{"city":"Noida","state":"Uttar Pradesh","latitude":28.5355,"longitude":77.391,"temp":30.2,"humidity":84,"rain":0.0,"pressure":977.1,"uv_index":7.45,"wind_gusts":35.6,"aqi":1033,"pm10":1106.4,"pm2_5":198.8,"no2":25.9,"co":615.0,"o3":145.0,"so2":29.6,"mosquito_risk":3,"arthritis_risk":5,"migraine_risk":7,"frizz_risk":1,"updated_at":"2026-06-30T21:00:54.969312+05:30"},{"city":"Ghaziabad","state":"Uttar Pradesh","latitude":28.6692,"longitude":77.4538,"temp":29.7,"humidity":84,"rain":0.0,"pressure":975.5,"uv_index":7.25,"wind_gusts":40.3,"aqi":210,"pm10":183.0,"pm2_5":42.4,"no2":13.7,"co":427.0,"o3":114.0,"so2":15.5,"mosquito_risk":7,"arthritis_risk":5,"migraine_risk":7,"frizz_risk":1,"updated_at":"2026-06-30T21:00:54.969320+05:30"},{"city":"Faridabad","state":"Haryana","latitude":28.4089,"longitude":77.3178,"temp":30.9,"humidity":80,"rain":0.0,"pressure":976.3,"uv_index":7.75,"wind_gusts":37.1,"aqi":1033,"pm10":1106.4,"pm2_5":198.8,"no2":25.9,"co":597.0,"o3":145.0,"so2":29.6,"mosquito_risk":3,"arthritis_risk":5,"migraine_risk":7,"frizz_risk":1,"updated_at":"2026-06-30T21:00:54.969326+05:30"},{"city":"Meerut","state":"Uttar Pradesh","latitude":28.9845,"longitude":77.7064,"temp":28.2,"humidity":88,"rain":0.0,"pressure":974.6,"uv_index":7.55,"wind_gusts":36.4,"aqi":210,"pm10":183.0,"pm2_5":42.4,"no2":13.7,"co":413.0,"o3":114.0,"so2":15.5,"mosquito_risk":7,"arthritis_risk":5,"migraine_risk":7,"frizz_risk":1,"updated_at":"2026-06-30T21:00:54.969332+05:30"},{"city":"Agra","state":"Uttar Pradesh","latitude":27.1767,"longitude":78.0081,"temp":33.2,"humidity":57,"rain":0.0,"pressure":980.8,"uv_index":6.7,"wind_gusts":38.9,"aqi":408,"pm10":329.7,"pm2_5":115.7,"no2":23.1,"co":392.0,"o3":83.0,"so2":13.4,"mosquito_risk":0,"arthritis_risk":5,"migraine_risk":7,"frizz_risk":1,"updated_at":"2026-06-30T21:00:54.969338+05:30"},{"city":"Varanasi","state":"Uttar Pradesh","latitude":25.3176,"longitude":82.9739,"temp":30.5,"humidity":75,"rain":0.0,"pressure":991.8,"uv_index":8.65,"wind_gusts":39.2,"aqi":88,"pm10":36.4,"pm2_5":31.5,"no2":16.8,"co":645.0,"o3":73.0,"so2":7.7,"mosquito_risk":3,"arthritis_risk":5,"migraine_risk":7,"frizz_risk":1,"updated_at":"2026-06-30T21:00:54.969345+05:30"},{"city":"Prayagraj","state":"Uttar Pradesh","latitude":25.4358,"longitude":81.8463,"temp":31.1,"humidity":73,"rain":0.0,"pressure":990.0,"uv_index":6.7,"wind_gusts":34.9,"aqi":92,"pm10":63.3,"pm2_5":42.1,"no2":17.9,"co":298.0,"o3":95.0,"so2":12.4,"mosquito_risk":3,"arthritis_risk":5,"migraine_risk":7,"frizz_risk":1,"updated_at":"2026-06-30T21:00:54.969351+05:30"},{"city":"Gorakhpur","state":"Uttar Pradesh","latitude":26.7606,"longitude":83.3732,"temp":28.7,"humidity":83,"rain":0.0,"pressure":991.6,"uv_index":1.6,"wind_gusts":30.2,"aqi":111,"pm10":47.7,"pm2_5":45.3,"no2":22.7,"co":417.0,"o3":83.0,"so2":11.6,"mosquito_risk":7,"arthritis_risk":5,"migraine_risk":3,"frizz_risk":1,"updated_at":"2026-06-30T21:00:54.969357+05:30"},{"city":"Bareilly","state":"Uttar Pradesh","latitude":28.367,"longitude":79.4304,"temp":28.1,"humidity":86,"rain":0.0,"pressure":980.6,"uv_index":7.6,"wind_gusts":43.6,"aqi":95,"pm10":31.8,"pm2_5":25.3,"no2":15.8,"co":454.0,"o3":74.0,"so2":5.5,"mosquito_risk":7,"arthritis_risk":5,"migraine_risk":7,"frizz_risk":1,"updated_at":"2026-06-30T21:00:54.969365+05:30"},{"city":"Aligarh","state":"Uttar Pradesh","latitude":27.8974,"longitude":78.088,"temp":31.1,"humidity":76,"rain":0.0,"pressure":978.2,"uv_index":7.4,"wind_gusts":39.2,"aqi":436,"pm10":223.5,"pm2_5":70.5,"no2":14.8,"co":390.0,"o3":113.0,"so2":14.4,"mosquito_risk":3,"arthritis_risk":5,"migraine_risk":7,"frizz_risk":1,"updated_at":"2026-06-30T21:00:54.969371+05:30"},{"city":"Moradabad","state":"Uttar Pradesh","latitude":28.8386,"longitude":78.7733,"temp":27.4,"humidity":87,"rain":0.0,"pressure":977.2,"uv_index":7.65,"wind_gusts":37.8,"aqi":103,"pm10":20.7,"pm2_5":20.0,"no2":16.1,"co":502.0,"o3":78.0,"so2":10.1,"mosquito_risk":7,"arthritis_risk":5,"migraine_risk":7,"frizz_risk":1,"updated_at":"2026-06-30T21:00:54.969377+05:30"},{"city":"Saharanpur","state":"Uttar Pradesh","latitude":29.9637,"longitude":77.546,"temp":27.4,"humidity":94,"rain":0.0,"pressure":968.5,"uv_index":7.45,"wind_gusts":47.5,"aqi":128,"pm10":37.6,"pm2_5":24.3,"no2":15.8,"co":437.0,"o3":90.0,"so2":8.7,"mosquito_risk":7,"arthritis_risk":5,"migraine_risk":7,"frizz_risk":1,"updated_at":"2026-06-30T21:00:54.969383+05:30"},{"city":"Jhansi","state":"Uttar Pradesh","latitude":25.4484,"longitude":78.5685,"temp":28.1,"humidity":93,"rain":0.0,"pressure":972.2,"uv_index":7.3,"wind_gusts":40.7,"aqi":69,"pm10":33.2,"pm2_5":21.6,"no2":11.0,"co":194.0,"o3":60.0,"so2":3.5,"mosquito_risk":7,"arthritis_risk":5,"migraine_risk":7,"frizz_risk":1,"updated_at":"2026-06-30T21:00:58.344451+05:30"},{"city":"Surat","state":"Gujarat","latitude":21.1702,"longitude":72.8311,"temp":29.0,"humidity":78,"rain":0.0,"pressure":1001.2,"uv_index":7.1,"wind_gusts":41.4,"aqi":58,"pm10":19.0,"pm2_5":14.8,"no2":22.5,"co":302.0,"o3":31.0,"so2":35.5,"mosquito_risk":7,"arthritis_risk":5,"migraine_risk":4,"frizz_risk":1,"updated_at":"2026-06-30T21:00:58.344486+05:30"},{"city":"Vadodara","state":"Gujarat","latitude":22.3072,"longitude":73.1812,"temp":30.2,"humidity":71,"rain":0.0,"pressure":998.3,"uv_index":6.15,"wind_gusts":47.2,"aqi":57,"pm10":17.5,"pm2_5":13.8,"no2":16.7,"co":140.0,"o3":48.0,"so2":18.2,"mosquito_risk":3,"arthritis_risk":5,"migraine_risk":7,"frizz_risk":1,"updated_at":"2026-06-30T21:00:58.344497+05:30"},{"city":"Rajkot","state":"Gujarat","latitude":22.3039,"longitude":70.8022,"temp":31.2,"humidity":66,"rain":0.0,"pressure":987.6,"uv_index":6.05,"wind_gusts":41.4,"aqi":51,"pm10":16.3,"pm2_5":9.9,"no2":4.1,"co":123.0,"o3":56.0,"so2":4.3,"mosquito_risk":3,"arthritis_risk":5,"migraine_risk":7,"frizz_risk":1,"updated_at":"2026-06-30T21:00:58.344506+05:30"},{"city":"Thane","state":"Maharashtra","latitude":19.2183,"longitude":72.9781,"temp":25.9,"humidity":97,"rain":0.2,"pressure":1004.0,"uv_index":5.5,"wind_gusts":32.8,"aqi":38,"pm10":12.9,"pm2_5":8.2,"no2":10.5,"co":421.0,"o3":47.0,"so2":6.0,"mosquito_risk":10,"arthritis_risk":5,"migraine_risk":0,"frizz_risk":1,"updated_at":"2026-06-30T21:00:58.344515+05:30"},{"city":"Nagpur","state":"Maharashtra","latitude":21.1458,"longitude":79.0882,"temp":26.8,"humidity":91,"rain":0.1,"pressure":968.9,"uv_index":8.2,"wind_gusts":28.8,"aqi":64,"pm10":25.0,"pm2_5":21.0,"no2":19.2,"co":344.0,"o3":55.0,"so2":13.9,"mosquito_risk":10,"arthritis_risk":5,"migraine_risk":7,"frizz_risk":1,"updated_at":"2026-06-30T21:00:58.344523+05:30"},{"city":"Nashik","state":"Maharashtra","latitude":19.9975,"longitude":73.7898,"temp":23.6,"humidity":93,"rain":0.0,"pressure":941.6,"uv_index":6.85,"wind_gusts":48.2,"aqi":31,"pm10":6.2,"pm2_5":4.8,"no2":9.6,"co":212.0,"o3":48.0,"so2":4.8,"mosquito_risk":3,"arthritis_risk":5,"migraine_risk":7,"frizz_risk":1,"updated_at":"2026-06-30T21:00:58.344531+05:30"},{"city":"Aurangabad","state":"Maharashtra","latitude":19.8762,"longitude":75.3433,"temp":24.2,"humidity":92,"rain":0.0,"pressure":940.5,"uv_index":4.05,"wind_gusts":43.6,"aqi":37,"pm10":8.6,"pm2_5":8.1,"no2":9.9,"co":262.0,"o3":61.0,"so2":6.8,"mosquito_risk":3,"arthritis_risk":5,"migraine_risk":3,"frizz_risk":1,"updated_at":"2026-06-30T21:00:58.344539+05:30"},{"city":"Solapur","state":"Maharashtra","latitude":17.6599,"longitude":75.9064,"temp":26.8,"humidity":75,"rain":0.0,"pressure":954.9,"uv_index":5.5,"wind_gusts":47.9,"aqi":29,"pm10":3.6,"pm2_5":3.2,"no2":5.3,"co":188.0,"o3":45.0,"so2":2.0,"mosquito_risk":7,"arthritis_risk":5,"migraine_risk":3,"frizz_risk":1,"updated_at":"2026-06-30T21:00:58.344549+05:30"},{"city":"Kolhapur","state":"Maharashtra","latitude":16.705,"longitude":74.2433,"temp":23.1,"humidity":94,"rain":0.0,"pressure":946.0,"uv_index":7.45,"wind_gusts":48.2,"aqi":23,"pm10":3.8,"pm2_5":3.7,"no2":6.7,"co":142.0,"o3":42.0,"so2":1.9,"mosquito_risk":3,"arthritis_risk":5,"migraine_risk":7,"frizz_risk":1,"updated_at":"2026-06-30T21:00:58.344556+05:30"},{"city":"Goa","state":"Goa","latitude":15.2993,"longitude":74.124,"temp":24.9,"humidity":98,"rain":0.4,"pressure":997.8,"uv_index":5.25,"wind_gusts":36.4,"aqi":29,"pm10":11.3,"pm2_5":7.1,"no2":2.4,"co":246.0,"o3":48.0,"so2":0.6,"mosquito_risk":6,"arthritis_risk":5,"migraine_risk":3,"frizz_risk":1,"updated_at":"2026-06-30T21:00:58.344564+05:30"},{"city":"Jodhpur","state":"Rajasthan","latitude":26.2389,"longitude":73.0243,"temp":34.8,"humidity":42,"rain":0.0,"pressure":974.9,"uv_index":8.05,"wind_gusts":47.2,"aqi":168,"pm10":257.0,"pm2_5":53.1,"no2":6.2,"co":160.0,"o3":62.0,"so2":1.8,"mosquito_risk":0,"arthritis_risk":5,"migraine_risk":7,"frizz_risk":1,"updated_at":"2026-06-30T21:00:58.344572+05:30"},{"city":"Udaipur","state":"Rajasthan","latitude":24.5854,"longitude":73.7125,"temp":28.8,"humidity":64,"rain":0.0,"pressure":940.4,"uv_index":8.7,"wind_gusts":38.5,"aqi":54,"pm10":22.1,"pm2_5":13.7,"no2":5.2,"co":152.0,"o3":70.0,"so2":2.8,"mosquito_risk":7,"arthritis_risk":5,"migraine_risk":7,"frizz_risk":1,"updated_at":"2026-06-30T21:00:58.344580+05:30"},{"city":"Kota","state":"Rajasthan","latitude":25.2138,"longitude":75.8648,"temp":28.2,"humidity":86,"rain":0.0,"pressure":972.5,"uv_index":7.55,"wind_gusts":35.3,"aqi":61,"pm10":28.0,"pm2_5":20.6,"no2":10.9,"co":220.0,"o3":68.0,"so2":5.5,"mosquito_risk":7,"arthritis_risk":5,"migraine_risk":7,"frizz_risk":1,"updated_at":"2026-06-30T21:00:58.344588+05:30"},{"city":"Bikaner","state":"Rajasthan","latitude":28.0229,"longitude":73.3119,"temp":36.5,"humidity":34,"rain":0.0,"pressure":972.5,"uv_index":8.5,"wind_gusts":46.4,"aqi":164,"pm10":198.8,"pm2_5":67.1,"no2":2.8,"co":150.0,"o3":67.0,"so2":2.7,"mosquito_risk":0,"arthritis_risk":5,"migraine_risk":10,"frizz_risk":1,"updated_at":"2026-06-30T21:00:58.344595+05:30"},{"city":"Ajmer","state":"Rajasthan","latitude":26.4499,"longitude":74.6399,"temp":32.0,"humidity":51,"rain":0.0,"pressure":948.0,"uv_index":8.35,"wind_gusts":48.6,"aqi":68,"pm10":23.5,"pm2_5":16.2,"no2":10.5,"co":193.0,"o3":57.0,"so2":3.1,"mosquito_risk":0,"arthritis_risk":5,"migraine_risk":7,"frizz_risk":1,"updated_at":"2026-06-30T21:00:58.344603+05:30"},{"city":"Gwalior","state":"Madhya Pradesh","latitude":26.2183,"longitude":78.1828,"temp":29.5,"humidity":80,"rain":0.0,"pressure":976.7,"uv_index":7.65,"wind_gusts":38.5,"aqi":86,"pm10":212.3,"pm2_5":69.6,"no2":10.6,"co":213.0,"o3":78.0,"so2":4.9,"mosquito_risk":7,"arthritis_risk":5,"migraine_risk":7,"frizz_risk":1,"updated_at":"2026-06-30T21:00:58.344611+05:30"},{"city":"Indore","state":"Madhya Pradesh","latitude":22.7196,"longitude":75.8577,"temp":25.6,"humidity":91,"rain":0.0,"pressure":943.4,"uv_index":6.7,"wind_gusts":44.6,"aqi":65,"pm10":39.2,"pm2_5":33.9,"no2":30.9,"co":434.0,"o3":39.0,"so2":9.3,"mosquito_risk":7,"arthritis_risk":5,"migraine_risk":7,"frizz_risk":1,"updated_at":"2026-06-30T21:00:58.344618+05:30"},{"city":"Bhopal","state":"Madhya Pradesh","latitude":23.2599,"longitude":77.4126,"temp":25.3,"humidity":96,"rain":0.1,"pressure":948.9,"uv_index":7.9,"wind_gusts":32.0,"aqi":63,"pm10":21.6,"pm2_5":18.6,"no2":9.1,"co":347.0,"o3":67.0,"so2":4.1,"mosquito_risk":10,"arthritis_risk":5,"migraine_risk":7,"frizz_risk":1,"updated_at":"2026-06-30T21:00:58.344626+05:30"},{"city":"Jabalpur","state":"Madhya Pradesh","latitude":23.1815,"longitude":79.9864,"temp":25.2,"humidity":95,"rain":0.0,"pressure":956.5,"uv_index":2.35,"wind_gusts":36.4,"aqi":55,"pm10":21.7,"pm2_5":17.8,"no2":11.4,"co":239.0,"o3":62.0,"so2":6.4,"mosquito_risk":7,"arthritis_risk":5,"migraine_risk":3,"frizz_risk":1,"updated_at":"2026-06-30T21:00:58.344633+05:30"},{"city":"Ujjain","state":"Madhya Pradesh","latitude":23.1765,"longitude":75.7885,"temp":26.7,"humidity":85,"rain":0.0,"pressure":948.8,"uv_index":6.4,"wind_gusts":44.6,"aqi":62,"pm10":38.1,"pm2_5":29.3,"no2":11.6,"co":279.0,"o3":61.0,"so2":5.0,"mosquito_risk":7,"arthritis_risk":5,"migraine_risk":7,"frizz_risk":1,"updated_at":"2026-06-30T21:00:58.344642+05:30"},{"city":"Visakhapatnam","state":"Andhra Pradesh","latitude":17.6868,"longitude":83.2185,"temp":29.0,"humidity":88,"rain":0.0,"pressure":998.4,"uv_index":8.45,"wind_gusts":37.4,"aqi":72,"pm10":36.7,"pm2_5":34.8,"no2":43.0,"co":884.0,"o3":48.0,"so2":42.4,"mosquito_risk":7,"arthritis_risk":5,"migraine_risk":7,"frizz_risk":1,"updated_at":"2026-06-30T21:00:58.344649+05:30"},{"city":"Vijayawada","state":"Andhra Pradesh","latitude":16.5062,"longitude":80.648,"temp":29.2,"humidity":72,"rain":0.1,"pressure":999.0,"uv_index":7.45,"wind_gusts":45.7,"aqi":46,"pm10":22.6,"pm2_5":22.4,"no2":19.8,"co":179.0,"o3":39.0,"so2":6.5,"mosquito_risk":10,"arthritis_risk":5,"migraine_risk":7,"frizz_risk":1,"updated_at":"2026-06-30T21:00:58.344657+05:30"},{"city":"Guntur","state":"Andhra Pradesh","latitude":16.3067,"longitude":80.4365,"temp":28.9,"humidity":75,"rain":0.0,"pressure":1000.3,"uv_index":7.3,"wind_gusts":50.0,"aqi":40,"pm10":20.3,"pm2_5":20.0,"no2":19.2,"co":213.0,"o3":40.0,"so2":6.6,"mosquito_risk":7,"arthritis_risk":5,"migraine_risk":4,"frizz_risk":1,"updated_at":"2026-06-30T21:00:58.344665+05:30"},{"city":"Nellore","state":"Andhra Pradesh","latitude":14.4426,"longitude":79.9865,"temp":29.4,"humidity":71,"rain":0.0,"pressure":1003.3,"uv_index":7.95,"wind_gusts":52.2,"aqi":40,"pm10":9.3,"pm2_5":6.9,"no2":5.7,"co":125.0,"o3":61.0,"so2":2.5,"mosquito_risk":7,"arthritis_risk":5,"migraine_risk":4,"frizz_risk":1,"updated_at":"2026-06-30T21:00:58.344672+05:30"},{"city":"Kurnool","state":"Andhra Pradesh","latitude":15.8281,"longitude":78.0373,"temp":29.3,"humidity":61,"rain":0.0,"pressure":974.8,"uv_index":7.15,"wind_gusts":55.8,"aqi":36,"pm10":5.8,"pm2_5":4.8,"no2":7.8,"co":163.0,"o3":58.0,"so2":3.7,"mosquito_risk":7,"arthritis_risk":5,"migraine_risk":7,"frizz_risk":1,"updated_at":"2026-06-30T21:00:58.344681+05:30"},{"city":"Kakinada","state":"Andhra Pradesh","latitude":16.9891,"longitude":82.2475,"temp":29.4,"humidity":77,"rain":0.0,"pressure":1002.9,"uv_index":8.5,"wind_gusts":52.2,"aqi":55,"pm10":18.0,"pm2_5":15.4,"no2":8.6,"co":288.0,"o3":77.0,"so2":4.4,"mosquito_risk":7,"arthritis_risk":5,"migraine_risk":4,"frizz_risk":1,"updated_at":"2026-06-30T21:00:58.344689+05:30"},{"city":"Tirupati","state":"Andhra Pradesh","latitude":13.6288,"longitude":79.4192,"temp":27.6,"humidity":77,"rain":0.1,"pressure":989.9,"uv_index":7.55,"wind_gusts":48.6,"aqi":29,"pm10":8.3,"pm2_5":7.4,"no2":12.5,"co":215.0,"o3":41.0,"so2":1.8,"mosquito_risk":10,"arthritis_risk":5,"migraine_risk":7,"frizz_risk":1,"updated_at":"2026-06-30T21:00:58.344696+05:30"},{"city":"Warangal","state":"Telangana","latitude":17.9689,"longitude":79.5941,"temp":29.0,"humidity":67,"rain":0.0,"pressure":974.9,"uv_index":6.95,"wind_gusts":38.2,"aqi":40,"pm10":28.2,"pm2_5":24.1,"no2":17.1,"co":513.0,"o3":42.0,"so2":5.4,"mosquito_risk":7,"arthritis_risk":5,"migraine_risk":7,"frizz_risk":1,"updated_at":"2026-06-30T21:00:58.344704+05:30"},{"city":"Nizamabad","state":"Telangana","latitude":18.6725,"longitude":78.0941,"temp":24.6,"humidity":95,"rain":0.0,"pressure":961.9,"uv_index":7.45,"wind_gusts":41.0,"aqi":50,"pm10":10.1,"pm2_5":8.1,"no2":5.8,"co":157.0,"o3":64.0,"so2":4.6,"mosquito_risk":3,"arthritis_risk":5,"migraine_risk":7,"frizz_risk":1,"updated_at":"2026-06-30T21:00:58.344711+05:30"},{"city":"Mysore","state":"Karnataka","latitude":12.2958,"longitude":76.6396,"temp":22.0,"humidity":91,"rain":0.0,"pressure":928.9,"uv_index":7.45,"wind_gusts":56.2,"aqi":28,"pm10":3.3,"pm2_5":2.9,"no2":7.8,"co":139.0,"o3":39.0,"so2":1.7,"mosquito_risk":3,"arthritis_risk":5,"migraine_risk":7,"frizz_risk":1,"updated_at":"2026-06-30T21:00:58.344718+05:30"},{"city":"Mangalore","state":"Karnataka","latitude":12.9141,"longitude":74.856,"temp":25.1,"humidity":93,"rain":0.7,"pressure":1008.6,"uv_index":5.0,"wind_gusts":43.9,"aqi":32,"pm10":10.8,"pm2_5":7.3,"no2":6.2,"co":132.0,"o3":38.0,"so2":1.6,"mosquito_risk":10,"arthritis_risk":0,"migraine_risk":0,"frizz_risk":1,"updated_at":"2026-06-30T21:00:58.344726+05:30"},{"city":"Hubli-Dharwad","state":"Karnataka","latitude":15.3647,"longitude":75.124,"temp":22.6,"humidity":96,"rain":0.0,"pressure":940.0,"uv_index":5.5,"wind_gusts":53.3,"aqi":24,"pm10":1.9,"pm2_5":1.7,"no2":5.6,"co":137.0,"o3":42.0,"so2":1.0,"mosquito_risk":3,"arthritis_risk":5,"migraine_risk":3,"frizz_risk":1,"updated_at":"2026-06-30T21:00:58.344733+05:30"},{"city":"Belgaum","state":"Karnataka","latitude":15.8497,"longitude":74.4977,"temp":21.6,"humidity":98,"rain":0.0,"pressure":924.2,"uv_index":5.95,"wind_gusts":53.6,"aqi":22,"pm10":2.4,"pm2_5":2.2,"no2":5.3,"co":122.0,"o3":42.0,"so2":1.2,"mosquito_risk":3,"arthritis_risk":5,"migraine_risk":3,"frizz_risk":1,"updated_at":"2026-06-30T21:01:01.712512+05:30"},{"city":"Coimbatore","state":"Tamil Nadu","latitude":11.0168,"longitude":76.9558,"temp":23.5,"humidity":91,"rain":0.0,"pressure":962.3,"uv_index":8.5,"wind_gusts":63.7,"aqi":28,"pm10":7.0,"pm2_5":5.4,"no2":8.3,"co":188.0,"o3":37.0,"so2":2.7,"mosquito_risk":3,"arthritis_risk":5,"migraine_risk":7,"frizz_risk":1,"updated_at":"2026-06-30T21:01:01.712547+05:30"},{"city":"Madurai","state":"Tamil Nadu","latitude":9.9252,"longitude":78.1198,"temp":27.4,"humidity":75,"rain":0.1,"pressure":993.5,"uv_index":8.15,"wind_gusts":49.3,"aqi":59,"pm10":15.8,"pm2_5":10.3,"no2":12.2,"co":151.0,"o3":42.0,"so2":3.7,"mosquito_risk":10,"arthritis_risk":5,"migraine_risk":7,"frizz_risk":1,"updated_at":"2026-06-30T21:01:01.712559+05:30"},{"city":"Trichy","state":"Tamil Nadu","latitude":10.7905,"longitude":78.7047,"temp":25.3,"humidity":88,"rain":0.2,"pressure":1000.2,"uv_index":8.3,"wind_gusts":68.0,"aqi":34,"pm10":13.6,"pm2_5":8.1,"no2":5.4,"co":117.0,"o3":49.0,"so2":2.3,"mosquito_risk":10,"arthritis_risk":5,"migraine_risk":4,"frizz_risk":1,"updated_at":"2026-06-30T21:01:01.712568+05:30"},{"city":"Salem","state":"Tamil Nadu","latitude":11.6643,"longitude":78.146,"temp":25.8,"humidity":90,"rain":0.0,"pressure":977.7,"uv_index":7.55,"wind_gusts":49.3,"aqi":44,"pm10":20.6,"pm2_5":17.0,"no2":23.6,"co":548.0,"o3":43.0,"so2":7.2,"mosquito_risk":7,"arthritis_risk":5,"migraine_risk":7,"frizz_risk":1,"updated_at":"2026-06-30T21:01:01.712577+05:30"},{"city":"Tirunelveli","state":"Tamil Nadu","latitude":8.7139,"longitude":77.7567,"temp":28.9,"humidity":63,"rain":0.0,"pressure":1004.6,"uv_index":8.4,"wind_gusts":52.2,"aqi":30,"pm10":11.0,"pm2_5":7.3,"no2":5.5,"co":128.0,"o3":43.0,"so2":1.7,"mosquito_risk":7,"arthritis_risk":5,"migraine_risk":4,"frizz_risk":1,"updated_at":"2026-06-30T21:01:01.712586+05:30"},{"city":"Vellore","state":"Tamil Nadu","latitude":12.9165,"longitude":79.1325,"temp":27.6,"humidity":75,"rain":0.0,"pressure":983.2,"uv_index":8.8,"wind_gusts":49.7,"aqi":36,"pm10":13.8,"pm2_5":12.8,"no2":17.4,"co":170.0,"o3":43.0,"so2":4.4,"mosquito_risk":7,"arthritis_risk":5,"migraine_risk":7,"frizz_risk":1,"updated_at":"2026-06-30T21:01:01.712594+05:30"},{"city":"Erode","state":"Tamil Nadu","latitude":11.341,"longitude":77.7172,"temp":26.7,"humidity":73,"rain":0.0,"pressure":989.5,"uv_index":8.65,"wind_gusts":44.6,"aqi":43,"pm10":14.3,"pm2_5":10.8,"no2":15.3,"co":195.0,"o3":39.0,"so2":3.1,"mosquito_risk":7,"arthritis_risk":5,"migraine_risk":7,"frizz_risk":1,"updated_at":"2026-06-30T21:01:01.712602+05:30"},{"city":"Kochi","state":"Kerala","latitude":9.9312,"longitude":76.2673,"temp":25.0,"humidity":95,"rain":0.0,"pressure":1011.5,"uv_index":8.25,"wind_gusts":40.3,"aqi":45,"pm10":17.7,"pm2_5":13.1,"no2":16.6,"co":258.0,"o3":22.0,"so2":3.8,"mosquito_risk":7,"arthritis_risk":0,"migraine_risk":4,"frizz_risk":1,"updated_at":"2026-06-30T21:01:01.712610+05:30"},{"city":"Thiruvananthapuram","state":"Kerala","latitude":8.5241,"longitude":76.9366,"temp":25.4,"humidity":90,"rain":0.0,"pressure":1010.6,"uv_index":8.4,"wind_gusts":49.3,"aqi":37,"pm10":16.9,"pm2_5":9.7,"no2":3.5,"co":116.0,"o3":45.0,"so2":1.4,"mosquito_risk":7,"arthritis_risk":0,"migraine_risk":4,"frizz_risk":1,"updated_at":"2026-06-30T21:01:01.712618+05:30"},{"city":"Kozhikode","state":"Kerala","latitude":11.2588,"longitude":75.7804,"temp":24.2,"humidity":99,"rain":0.1,"pressure":1010.5,"uv_index":8.05,"wind_gusts":40.3,"aqi":26,"pm10":13.0,"pm2_5":6.7,"no2":1.5,"co":258.0,"o3":49.0,"so2":0.7,"mosquito_risk":6,"arthritis_risk":0,"migraine_risk":4,"frizz_risk":1,"updated_at":"2026-06-30T21:01:01.712625+05:30"},{"city":"Thrissur","state":"Kerala","latitude":10.5276,"longitude":76.2144,"temp":24.1,"humidity":99,"rain":0.2,"pressure":1009.9,"uv_index":7.7,"wind_gusts":37.1,"aqi":41,"pm10":15.0,"pm2_5":11.7,"no2":10.9,"co":366.0,"o3":29.0,"so2":2.7,"mosquito_risk":6,"arthritis_risk":0,"migraine_risk":4,"frizz_risk":1,"updated_at":"2026-06-30T21:01:01.712634+05:30"},{"city":"Kannur","state":"Kerala","latitude":11.8745,"longitude":75.3704,"temp":24.8,"humidity":96,"rain":0.1,"pressure":1009.7,"uv_index":8.55,"wind_gusts":46.8,"aqi":31,"pm10":13.1,"pm2_5":8.6,"no2":9.3,"co":181.0,"o3":33.0,"so2":1.7,"mosquito_risk":6,"arthritis_risk":0,"migraine_risk":4,"frizz_risk":1,"updated_at":"2026-06-30T21:01:01.712641+05:30"},{"city":"Patna","state":"Bihar","latitude":25.5941,"longitude":85.1376,"temp":29.8,"humidity":85,"rain":0.0,"pressure":994.8,"uv_index":8.5,"wind_gusts":27.7,"aqi":147,"pm10":81.7,"pm2_5":79.2,"no2":45.5,"co":396.0,"o3":76.0,"so2":25.6,"mosquito_risk":7,"arthritis_risk":5,"migraine_risk":7,"frizz_risk":1,"updated_at":"2026-06-30T21:01:01.712649+05:30"},{"city":"Gaya","state":"Bihar","latitude":24.7914,"longitude":85.0002,"temp":28.8,"humidity":88,"rain":0.0,"pressure":988.4,"uv_index":8.45,"wind_gusts":24.5,"aqi":158,"pm10":47.0,"pm2_5":45.1,"no2":14.6,"co":440.0,"o3":114.0,"so2":11.7,"mosquito_risk":7,"arthritis_risk":5,"migraine_risk":7,"frizz_risk":1,"updated_at":"2026-06-30T21:01:01.712658+05:30"},{"city":"Muzaffarpur","state":"Bihar","latitude":26.1209,"longitude":85.3647,"temp":28.7,"humidity":87,"rain":0.0,"pressure":995.1,"uv_index":8.35,"wind_gusts":29.5,"aqi":138,"pm10":69.8,"pm2_5":67.1,"no2":38.0,"co":469.0,"o3":73.0,"so2":20.6,"mosquito_risk":7,"arthritis_risk":5,"migraine_risk":7,"frizz_risk":1,"updated_at":"2026-06-30T21:01:01.712665+05:30"},{"city":"Bhagalpur","state":"Bihar","latitude":25.2425,"longitude":87.0117,"temp":28.5,"humidity":85,"rain":0.0,"pressure":996.0,"uv_index":8.05,"wind_gusts":22.3,"aqi":182,"pm10":51.2,"pm2_5":50.6,"no2":15.6,"co":353.0,"o3":127.0,"so2":19.1,"mosquito_risk":7,"arthritis_risk":5,"migraine_risk":7,"frizz_risk":1,"updated_at":"2026-06-30T21:01:01.712673+05:30"},{"city":"Ranchi","state":"Jharkhand","latitude":23.3441,"longitude":85.3096,"temp":24.5,"humidity":96,"rain":0.0,"pressure":933.2,"uv_index":6.0,"wind_gusts":29.9,"aqi":114,"pm10":36.7,"pm2_5":35.9,"no2":11.0,"co":340.0,"o3":97.0,"so2":6.5,"mosquito_risk":3,"arthritis_risk":5,"migraine_risk":3,"frizz_risk":1,"updated_at":"2026-06-30T21:01:01.712681+05:30"},{"city":"Jamshedpur","state":"Jharkhand","latitude":22.8046,"longitude":86.2029,"temp":27.6,"humidity":92,"rain":0.0,"pressure":985.8,"uv_index":8.15,"wind_gusts":25.9,"aqi":163,"pm10":48.5,"pm2_5":47.7,"no2":21.3,"co":379.0,"o3":103.0,"so2":29.6,"mosquito_risk":7,"arthritis_risk":5,"migraine_risk":7,"frizz_risk":1,"updated_at":"2026-06-30T21:01:01.712689+05:30"},{"city":"Dhanbad","state":"Jharkhand","latitude":23.7957,"longitude":86.4304,"temp":27.3,"humidity":95,"rain":0.0,"pressure":974.9,"uv_index":8.8,"wind_gusts":28.8,"aqi":168,"pm10":116.6,"pm2_5":115.5,"no2":62.6,"co":583.0,"o3":80.0,"so2":200.7,"mosquito_risk":7,"arthritis_risk":5,"migraine_risk":7,"frizz_risk":1,"updated_at":"2026-06-30T21:01:01.712696+05:30"},{"city":"Bokaro","state":"Jharkhand","latitude":23.6693,"longitude":86.1511,"temp":28.3,"humidity":92,"rain":0.0,"pressure":978.6,"uv_index":9.0,"wind_gusts":22.7,"aqi":155,"pm10":103.1,"pm2_5":102.0,"no2":53.3,"co":451.0,"o3":84.0,"so2":191.9,"mosquito_risk":7,"arthritis_risk":5,"migraine_risk":7,"frizz_risk":1,"updated_at":"2026-06-30T21:01:01.712705+05:30"},{"city":"Bhubaneswar","state":"Odisha","latitude":20.2961,"longitude":85.8245,"temp":28.1,"humidity":90,"rain":0.0,"pressure":997.7,"uv_index":3.2,"wind_gusts":23.8,"aqi":73,"pm10":23.5,"pm2_5":23.2,"no2":14.7,"co":451.0,"o3":84.0,"so2":8.6,"mosquito_risk":7,"arthritis_risk":5,"migraine_risk":3,"frizz_risk":1,"updated_at":"2026-06-30T21:01:01.712712+05:30"},{"city":"Cuttack","state":"Odisha","latitude":20.4625,"longitude":85.8828,"temp":28.5,"humidity":91,"rain":0.0,"pressure":999.4,"uv_index":3.55,"wind_gusts":21.2,"aqi":73,"pm10":23.5,"pm2_5":23.2,"no2":14.7,"co":803.0,"o3":84.0,"so2":8.6,"mosquito_risk":7,"arthritis_risk":5,"migraine_risk":3,"frizz_risk":1,"updated_at":"2026-06-30T21:01:01.712720+05:30"},{"city":"Rourkela","state":"Odisha","latitude":22.2604,"longitude":84.8536,"temp":25.9,"humidity":98,"rain":0.0,"pressure":980.3,"uv_index":6.8,"wind_gusts":32.8,"aqi":123,"pm10":26.8,"pm2_5":26.3,"no2":10.0,"co":477.0,"o3":118.0,"so2":11.8,"mosquito_risk":7,"arthritis_risk":5,"migraine_risk":7,"frizz_risk":1,"updated_at":"2026-06-30T21:01:01.712728+05:30"},{"city":"Raipur","state":"Chhattisgarh","latitude":21.2514,"longitude":81.6296,"temp":26.1,"humidity":92,"rain":0.4,"pressure":969.8,"uv_index":3.3,"wind_gusts":38.5,"aqi":80,"pm10":33.6,"pm2_5":32.7,"no2":49.9,"co":455.0,"o3":38.0,"so2":57.8,"mosquito_risk":10,"arthritis_risk":5,"migraine_risk":3,"frizz_risk":1,"updated_at":"2026-06-30T21:01:01.712735+05:30"},{"city":"Bhilai","state":"Chhattisgarh","latitude":21.1938,"longitude":81.3509,"temp":28.9,"humidity":72,"rain":0.0,"pressure":970.4,"uv_index":7.2,"wind_gusts":42.5,"aqi":77,"pm10":33.8,"pm2_5":32.2,"no2":48.1,"co":719.0,"o3":43.0,"so2":58.5,"mosquito_risk":7,"arthritis_risk":5,"migraine_risk":7,"frizz_risk":1,"updated_at":"2026-06-30T21:01:01.712743+05:30"},{"city":"Guwahati","state":"Assam","latitude":26.1158,"longitude":91.7086,"temp":26.6,"humidity":99,"rain":0.0,"pressure":997.6,"uv_index":7.7,"wind_gusts":21.6,"aqi":64,"pm10":20.1,"pm2_5":19.7,"no2":7.9,"co":375.0,"o3":68.0,"so2":2.3,"mosquito_risk":7,"arthritis_risk":5,"migraine_risk":7,"frizz_risk":1,"updated_at":"2026-06-30T21:01:01.712750+05:30"},{"city":"Agartala","state":"Tripura","latitude":23.8315,"longitude":91.2868,"temp":26.3,"humidity":98,"rain":0.0,"pressure":1001.9,"uv_index":6.95,"wind_gusts":28.4,"aqi":58,"pm10":16.3,"pm2_5":16.2,"no2":11.9,"co":278.0,"o3":58.0,"so2":2.0,"mosquito_risk":7,"arthritis_risk":5,"migraine_risk":4,"frizz_risk":1,"updated_at":"2026-06-30T21:01:01.712758+05:30"},{"city":"Shillong","state":"Meghalaya","latitude":25.5788,"longitude":91.8933,"temp":19.7,"humidity":97,"rain":0.0,"pressure":854.8,"uv_index":7.8,"wind_gusts":23.8,"aqi":35,"pm10":11.4,"pm2_5":11.3,"no2":11.5,"co":410.0,"o3":51.0,"so2":2.4,"mosquito_risk":3,"arthritis_risk":10,"migraine_risk":7,"frizz_risk":1,"updated_at":"2026-06-30T21:01:01.712766+05:30"},{"city":"Imphal","state":"Manipur","latitude":24.817,"longitude":93.9368,"temp":23.7,"humidity":96,"rain":0.0,"pressure":920.7,"uv_index":6.65,"wind_gusts":32.8,"aqi":38,"pm10":18.7,"pm2_5":18.5,"no2":19.4,"co":331.0,"o3":28.0,"so2":3.4,"mosquito_risk":3,"arthritis_risk":5,"migraine_risk":7,"frizz_risk":1,"updated_at":"2026-06-30T21:01:01.712773+05:30"},{"city":"Aizawl","state":"Mizoram","latitude":23.7271,"longitude":92.7176,"temp":20.2,"humidity":99,"rain":0.1,"pressure":889.5,"uv_index":8.4,"wind_gusts":22.3,"aqi":26,"pm10":6.2,"pm2_5":6.1,"no2":8.6,"co":173.0,"o3":33.0,"so2":0.8,"mosquito_risk":6,"arthritis_risk":5,"migraine_risk":7,"frizz_risk":1,"updated_at":"2026-06-30T21:01:01.712781+05:30"},{"city":"Kohima","state":"Nagaland","latitude":25.6701,"longitude":94.1077,"temp":21.1,"humidity":88,"rain":0.1,"pressure":853.3,"uv_index":8.7,"wind_gusts":19.8,"aqi":29,"pm10":7.6,"pm2_5":7.5,"no2":11.2,"co":371.0,"o3":34.0,"so2":0.9,"mosquito_risk":6,"arthritis_risk":5,"migraine_risk":7,"frizz_risk":1,"updated_at":"2026-06-30T21:01:01.712808+05:30"},{"city":"Gangtok","state":"Sikkim","latitude":27.3314,"longitude":88.6138,"temp":19.2,"humidity":97,"rain":0.1,"pressure":836.4,"uv_index":6.5,"wind_gusts":29.2,"aqi":77,"pm10":11.3,"pm2_5":10.6,"no2":8.9,"co":343.0,"o3":106.0,"so2":2.5,"mosquito_risk":6,"arthritis_risk":10,"migraine_risk":7,"frizz_risk":1,"updated_at":"2026-06-30T21:01:01.712818+05:30"},{"city":"Siliguri","state":"West Bengal","latitude":26.7271,"longitude":88.3953,"temp":26.5,"humidity":93,"rain":0.3,"pressure":989.0,"uv_index":7.55,"wind_gusts":26.6,"aqi":99,"pm10":44.6,"pm2_5":42.5,"no2":17.5,"co":753.0,"o3":107.0,"so2":6.9,"mosquito_risk":10,"arthritis_risk":5,"migraine_risk":7,"frizz_risk":1,"updated_at":"2026-06-30T21:01:05.115874+05:30"},{"city":"Durgapur","state":"West Bengal","latitude":23.5204,"longitude":87.3119,"temp":26.8,"humidity":96,"rain":0.0,"pressure":989.9,"uv_index":8.7,"wind_gusts":27.7,"aqi":182,"pm10":73.3,"pm2_5":72.9,"no2":27.3,"co":739.0,"o3":109.0,"so2":35.0,"mosquito_risk":7,"arthritis_risk":5,"migraine_risk":7,"frizz_risk":1,"updated_at":"2026-06-30T21:01:05.115908+05:30"},{"city":"Asansol","state":"West Bengal","latitude":23.6739,"longitude":86.9524,"temp":27.2,"humidity":95,"rain":0.0,"pressure":988.4,"uv_index":8.85,"wind_gusts":28.4,"aqi":195,"pm10":88.5,"pm2_5":87.5,"no2":38.3,"co":622.0,"o3":105.0,"so2":44.6,"mosquito_risk":7,"arthritis_risk":5,"migraine_risk":7,"frizz_risk":1,"updated_at":"2026-06-30T21:01:05.115920+05:30"},{"city":"Pondicherry","state":"Puducherry","latitude":11.9139,"longitude":79.8145,"temp":27.9,"humidity":80,"rain":0.1,"pressure":1007.7,"uv_index":8.2,"wind_gusts":43.9,"aqi":64,"pm10":15.4,"pm2_5":12.7,"no2":14.0,"co":252.0,"o3":71.0,"so2":4.8,"mosquito_risk":10,"arthritis_risk":5,"migraine_risk":4,"frizz_risk":1,"updated_at":"2026-06-30T21:01:05.115930+05:30"},{"city":"Port Blair","state":"Andaman and Nicobar Islands","latitude":11.6234,"longitude":92.7265,"temp":24.8,"humidity":98,"rain":0.2,"pressure":1007.3,"uv_index":7.85,"wind_gusts":45.0,"aqi":29,"pm10":11.5,"pm2_5":6.7,"no2":0.3,"co":94.0,"o3":58.0,"so2":0.4,"mosquito_risk":6,"arthritis_risk":5,"migraine_risk":4,"frizz_risk":1,"updated_at":"2026-06-30T21:01:05.115939+05:30"},{"city":"Haridwar","state":"Uttarakhand","latitude":29.9457,"longitude":78.1642,"temp":27.1,"humidity":82,"rain":0.0,"pressure":967.4,"uv_index":7.0,"wind_gusts":42.5,"aqi":100,"pm10":29.8,"pm2_5":21.1,"no2":13.0,"co":428.0,"o3":82.0,"so2":7.1,"mosquito_risk":7,"arthritis_risk":5,"migraine_risk":7,"frizz_risk":1,"updated_at":"2026-06-30T21:01:05.115947+05:30"},{"city":"Rishikesh","state":"Uttarakhand","latitude":30.0869,"longitude":78.2676,"temp":26.1,"humidity":98,"rain":0.0,"pressure":960.2,"uv_index":7.15,"wind_gusts":32.4,"aqi":82,"pm10":36.1,"pm2_5":18.0,"no2":8.1,"co":393.0,"o3":97.0,"so2":3.8,"mosquito_risk":7,"arthritis_risk":5,"migraine_risk":7,"frizz_risk":1,"updated_at":"2026-06-30T21:01:05.115956+05:30"},{"city":"Nainital","state":"Uttarakhand","latitude":29.3919,"longitude":79.4542,"temp":17.6,"humidity":100,"rain":0.1,"pressure":802.1,"uv_index":5.75,"wind_gusts":21.6,"aqi":61,"pm10":9.4,"pm2_5":8.9,"no2":11.8,"co":392.0,"o3":90.0,"so2":2.1,"mosquito_risk":6,"arthritis_risk":10,"migraine_risk":3,"frizz_risk":1,"updated_at":"2026-06-30T21:01:05.115964+05:30"},{"city":"Mussoorie","state":"Uttarakhand","latitude":30.4599,"longitude":78.0664,"temp":18.0,"humidity":99,"rain":0.0,"pressure":799.6,"uv_index":6.65,"wind_gusts":32.4,"aqi":83,"pm10":44.7,"pm2_5":29.3,"no2":27.1,"co":415.0,"o3":85.0,"so2":9.1,"mosquito_risk":3,"arthritis_risk":10,"migraine_risk":7,"frizz_risk":1,"updated_at":"2026-06-30T21:01:05.115973+05:30"},{"city":"Dharamshala","state":"Himachal Pradesh","latitude":32.219,"longitude":76.3234,"temp":23.4,"humidity":93,"rain":0.0,"pressure":864.4,"uv_index":6.55,"wind_gusts":27.4,"aqi":75,"pm10":9.9,"pm2_5":8.0,"no2":10.1,"co":543.0,"o3":92.0,"so2":0.7,"mosquito_risk":3,"arthritis_risk":5,"migraine_risk":7,"frizz_risk":1,"updated_at":"2026-06-30T21:01:05.115981+05:30"},{"city":"Dalhousie","state":"Himachal Pradesh","latitude":32.5387,"longitude":75.971,"temp":18.3,"humidity":99,"rain":0.0,"pressure":800.6,"uv_index":6.65,"wind_gusts":21.6,"aqi":107,"pm10":27.0,"pm2_5":19.1,"no2":20.7,"co":721.0,"o3":105.0,"so2":2.6,"mosquito_risk":3,"arthritis_risk":10,"migraine_risk":7,"frizz_risk":1,"updated_at":"2026-06-30T21:01:05.115989+05:30"},{"city":"Patiala","state":"Punjab","latitude":30.3398,"longitude":76.3869,"temp":28.6,"humidity":85,"rain":0.0,"pressure":970.0,"uv_index":7.6,"wind_gusts":46.1,"aqi":177,"pm10":51.8,"pm2_5":32.4,"no2":13.7,"co":354.0,"o3":124.0,"so2":14.2,"mosquito_risk":7,"arthritis_risk":5,"migraine_risk":7,"frizz_risk":1,"updated_at":"2026-06-30T21:01:05.115996+05:30"},{"city":"Bhatinda","state":"Punjab","latitude":30.211,"longitude":74.9455,"temp":36.6,"humidity":39,"rain":0.0,"pressure":973.9,"uv_index":8.25,"wind_gusts":34.9,"aqi":164,"pm10":208.2,"pm2_5":80.3,"no2":19.7,"co":241.0,"o3":85.0,"so2":10.6,"mosquito_risk":0,"arthritis_risk":5,"migraine_risk":10,"frizz_risk":1,"updated_at":"2026-06-30T21:01:05.116003+05:30"},{"city":"Rohtak","state":"Haryana","latitude":28.8955,"longitude":76.6066,"temp":32.2,"humidity":72,"rain":0.0,"pressure":973.4,"uv_index":7.55,"wind_gusts":35.3,"aqi":1253,"pm10":1467.8,"pm2_5":249.6,"no2":30.7,"co":853.0,"o3":136.0,"so2":34.6,"mosquito_risk":3,"arthritis_risk":5,"migraine_risk":7,"frizz_risk":1,"updated_at":"2026-06-30T21:01:05.116011+05:30"},{"city":"Panipat","state":"Haryana","latitude":29.3909,"longitude":76.9635,"temp":29.4,"humidity":85,"rain":0.0,"pressure":972.8,"uv_index":7.6,"wind_gusts":35.3,"aqi":1520,"pm10":2995.1,"pm2_5":373.5,"no2":16.0,"co":477.0,"o3":138.0,"so2":20.8,"mosquito_risk":7,"arthritis_risk":5,"migraine_risk":7,"frizz_risk":1,"updated_at":"2026-06-30T21:01:05.116019+05:30"},{"city":"Mathura","state":"Uttar Pradesh","latitude":27.4924,"longitude":77.6737,"temp":32.5,"humidity":65,"rain":0.0,"pressure":979.5,"uv_index":7.45,"wind_gusts":33.5,"aqi":532,"pm10":421.0,"pm2_5":145.8,"no2":25.9,"co":386.0,"o3":89.0,"so2":13.6,"mosquito_risk":3,"arthritis_risk":5,"migraine_risk":7,"frizz_risk":1,"updated_at":"2026-06-30T21:01:05.116027+05:30"},{"city":"Vrindavan","state":"Uttar Pradesh","latitude":27.5823,"longitude":77.7027,"temp":32.3,"humidity":67,"rain":0.0,"pressure":980.0,"uv_index":7.45,"wind_gusts":30.6,"aqi":532,"pm10":421.0,"pm2_5":145.8,"no2":25.9,"co":410.0,"o3":89.0,"so2":13.6,"mosquito_risk":3,"arthritis_risk":5,"migraine_risk":7,"frizz_risk":1,"updated_at":"2026-06-30T21:01:05.116035+05:30"},{"city":"Ayodhya","state":"Uttar Pradesh","latitude":26.7922,"longitude":82.1998,"temp":28.7,"humidity":81,"rain":0.0,"pressure":989.5,"uv_index":6.4,"wind_gusts":24.5,"aqi":96,"pm10":49.7,"pm2_5":40.4,"no2":16.4,"co":579.0,"o3":87.0,"so2":6.6,"mosquito_risk":7,"arthritis_risk":5,"migraine_risk":7,"frizz_risk":1,"updated_at":"2026-06-30T21:01:05.116042+05:30"},{"city":"Ratlam","state":"Madhya Pradesh","latitude":23.3315,"longitude":75.0367,"temp":27.8,"humidity":77,"rain":0.0,"pressure":949.6,"uv_index":7.6,"wind_gusts":42.1,"aqi":61,"pm10":33.2,"pm2_5":23.5,"no2":6.2,"co":174.0,"o3":77.0,"so2":5.0,"mosquito_risk":7,"arthritis_risk":5,"migraine_risk":7,"frizz_risk":1,"updated_at":"2026-06-30T21:01:05.116050+05:30"},{"city":"Sagar","state":"Madhya Pradesh","latitude":23.8388,"longitude":78.7378,"temp":26.2,"humidity":92,"rain":0.0,"pressure":945.2,"uv_index":8.7,"wind_gusts":37.8,"aqi":61,"pm10":19.1,"pm2_5":16.2,"no2":8.7,"co":235.0,"o3":62.0,"so2":5.0,"mosquito_risk":7,"arthritis_risk":5,"migraine_risk":7,"frizz_risk":1,"updated_at":"2026-06-30T21:01:05.116057+05:30"},{"city":"Satna","state":"Madhya Pradesh","latitude":24.6005,"longitude":80.8322,"temp":28.2,"humidity":87,"rain":0.0,"pressure":965.9,"uv_index":7.9,"wind_gusts":37.1,"aqi":71,"pm10":30.0,"pm2_5":19.6,"no2":11.0,"co":225.0,"o3":73.0,"so2":4.0,"mosquito_risk":7,"arthritis_risk":5,"migraine_risk":7,"frizz_risk":1,"updated_at":"2026-06-30T21:01:05.116064+05:30"},{"city":"Akola","state":"Maharashtra","latitude":20.7002,"longitude":77.0082,"temp":26.4,"humidity":91,"rain":0.2,"pressure":971.4,"uv_index":5.6,"wind_gusts":35.6,"aqi":57,"pm10":21.8,"pm2_5":17.4,"no2":13.2,"co":179.0,"o3":65.0,"so2":7.3,"mosquito_risk":10,"arthritis_risk":5,"migraine_risk":3,"frizz_risk":1,"updated_at":"2026-06-30T21:01:05.116073+05:30"},{"city":"Amravati","state":"Maharashtra","latitude":20.9374,"longitude":77.7796,"temp":26.8,"humidity":86,"rain":0.0,"pressure":963.5,"uv_index":7.95,"wind_gusts":38.9,"aqi":58,"pm10":21.5,"pm2_5":17.1,"no2":13.4,"co":223.0,"o3":64.0,"so2":8.3,"mosquito_risk":7,"arthritis_risk":5,"migraine_risk":7,"frizz_risk":1,"updated_at":"2026-06-30T21:01:05.116082+05:30"},{"city":"Latur","state":"Maharashtra","latitude":18.4088,"longitude":76.5604,"temp":25.3,"humidity":86,"rain":0.1,"pressure":937.2,"uv_index":6.3,"wind_gusts":40.3,"aqi":30,"pm10":4.7,"pm2_5":4.4,"no2":5.3,"co":158.0,"o3":53.0,"so2":1.7,"mosquito_risk":10,"arthritis_risk":5,"migraine_risk":7,"frizz_risk":1,"updated_at":"2026-06-30T21:01:05.116090+05:30"},{"city":"Nanded","state":"Maharashtra","latitude":19.1383,"longitude":77.3091,"temp":25.9,"humidity":86,"rain":0.0,"pressure":965.7,"uv_index":8.5,"wind_gusts":34.9,"aqi":50,"pm10":7.1,"pm2_5":6.4,"no2":7.7,"co":158.0,"o3":56.0,"so2":3.8,"mosquito_risk":7,"arthritis_risk":5,"migraine_risk":7,"frizz_risk":1,"updated_at":"2026-06-30T21:01:05.116097+05:30"},{"city":"Gulbarga","state":"Karnataka","latitude":17.3297,"longitude":76.8343,"temp":26.1,"humidity":81,"rain":0.0,"pressure":956.5,"uv_index":6.4,"wind_gusts":51.8,"aqi":31,"pm10":4.7,"pm2_5":4.1,"no2":8.7,"co":163.0,"o3":46.0,"so2":2.7,"mosquito_risk":7,"arthritis_risk":5,"migraine_risk":7,"frizz_risk":1,"updated_at":"2026-06-30T21:01:05.116104+05:30"},{"city":"Bidar","state":"Karnataka","latitude":17.9104,"longitude":77.5199,"temp":23.6,"humidity":95,"rain":0.0,"pressure":932.9,"uv_index":6.75,"wind_gusts":45.0,"aqi":33,"pm10":5.3,"pm2_5":5.1,"no2":9.6,"co":165.0,"o3":51.0,"so2":1.5,"mosquito_risk":3,"arthritis_risk":5,"migraine_risk":7,"frizz_risk":1,"updated_at":"2026-06-30T21:01:05.116112+05:30"},{"city":"Hospet","state":"Karnataka","latitude":15.2689,"longitude":76.3909,"temp":25.2,"humidity":78,"rain":0.0,"pressure":955.1,"uv_index":7.4,"wind_gusts":56.5,"aqi":28,"pm10":3.2,"pm2_5":2.5,"no2":5.0,"co":127.0,"o3":44.0,"so2":1.4,"mosquito_risk":7,"arthritis_risk":5,"migraine_risk":7,"frizz_risk":1,"updated_at":"2026-06-30T21:01:05.116119+05:30"},{"city":"Tirupur","state":"Tamil Nadu","latitude":11.1085,"longitude":77.3411,"temp":24.4,"humidity":86,"rain":0.0,"pressure":975.6,"uv_index":8.45,"wind_gusts":69.8,"aqi":49,"pm10":14.6,"pm2_5":11.3,"no2":15.7,"co":164.0,"o3":40.0,"so2":4.1,"mosquito_risk":3,"arthritis_risk":5,"migraine_risk":7,"frizz_risk":1,"updated_at":"2026-06-30T21:01:05.116127+05:30"},{"city":"Alappuzha","state":"Kerala","latitude":9.4981,"longitude":76.3388,"temp":25.8,"humidity":90,"rain":0.2,"pressure":1011.5,"uv_index":8.3,"wind_gusts":41.0,"aqi":41,"pm10":18.3,"pm2_5":11.3,"no2":9.1,"co":86.0,"o3":37.0,"so2":2.3,"mosquito_risk":10,"arthritis_risk":0,"migraine_risk":4,"frizz_risk":1,"updated_at":"2026-06-30T21:01:05.116135+05:30"},{"city":"Munnar","state":"Kerala","latitude":10.0889,"longitude":77.0595,"temp":15.8,"humidity":100,"rain":0.1,"pressure":857.5,"uv_index":7.1,"wind_gusts":49.0,"aqi":25,"pm10":5.1,"pm2_5":4.1,"no2":7.7,"co":95.0,"o3":34.0,"so2":1.6,"mosquito_risk":6,"arthritis_risk":10,"migraine_risk":7,"frizz_risk":0,"updated_at":"2026-06-30T21:01:05.116143+05:30"},{"city":"Silchar","state":"Assam","latitude":24.8333,"longitude":92.7789,"temp":26.5,"humidity":96,"rain":0.1,"pressure":1001.6,"uv_index":8.2,"wind_gusts":24.5,"aqi":62,"pm10":20.3,"pm2_5":19.8,"no2":8.9,"co":245.0,"o3":62.0,"so2":4.6,"mosquito_risk":10,"arthritis_risk":5,"migraine_risk":4,"frizz_risk":1,"updated_at":"2026-06-30T21:01:05.116150+05:30"},{"city":"Dibrugarh","state":"Assam","latitude":27.4728,"longitude":94.912,"temp":28.4,"humidity":87,"rain":0.0,"pressure":991.0,"uv_index":7.6,"wind_gusts":19.1,"aqi":74,"pm10":30.5,"pm2_5":29.8,"no2":17.3,"co":462.0,"o3":51.0,"so2":3.6,"mosquito_risk":7,"arthritis_risk":5,"migraine_risk":7,"frizz_risk":1,"updated_at":"2026-06-30T21:01:05.116158+05:30"}]