[{"city":"Delhi","state":"Delhi","latitude":28.6139,"longitude":77.209,"temp":32.2,"humidity":32,"rain":0.0,"pressure":985.0,"uv_index":6.55,"wind_gusts":46.8,"aqi":170,"pm10":228.2,"pm2_5":37.0,"mosquito_risk":0,"arthritis_risk":5,"migraine_risk":7,"frizz_risk":0,"updated_at":"2026-03-26T16:25:06.670699+05:30"},{"city":"Mumbai","state":"Maharashtra","latitude":19.076,"longitude":72.8777,"temp":29.0,"humidity":70,"rain":0.0,"pressure":1007.7,"uv_index":7.95,"wind_gusts":29.2,"aqi":94,"pm10":43.0,"pm2_5":36.0,"mosquito_risk":7,"arthritis_risk":5,"migraine_risk":4,"frizz_risk":1,"updated_at":"2026-03-26T16:25:06.670741+05:30"},{"city":"Bangalore","state":"Karnataka","latitude":12.9716,"longitude":77.5946,"temp":33.3,"humidity":21,"rain":0.0,"pressure":912.3,"uv_index":9.45,"wind_gusts":33.5,"aqi":89,"pm10":22.6,"pm2_5":16.5,"mosquito_risk":0,"arthritis_risk":5,"migraine_risk":7,"frizz_risk":0,"updated_at":"2026-03-26T16:25:06.670757+05:30"},{"city":"Hyderabad","state":"Telangana","latitude":17.385,"longitude":78.4867,"temp":33.5,"humidity":34,"rain":0.0,"pressure":954.4,"uv_index":8.95,"wind_gusts":16.2,"aqi":102,"pm10":32.5,"pm2_5":24.8,"mosquito_risk":0,"arthritis_risk":5,"migraine_risk":7,"frizz_risk":0,"updated_at":"2026-03-26T16:25:06.670766+05:30"},{"city":"Chennai","state":"Tamil Nadu","latitude":13.0827,"longitude":80.2707,"temp":31.5,"humidity":54,"rain":0.0,"pressure":1008.0,"uv_index":9.2,"wind_gusts":31.3,"aqi":58,"pm10":28.0,"pm2_5":17.2,"mosquito_risk":0,"arthritis_risk":0,"migraine_risk":4,"frizz_risk":1,"updated_at":"2026-03-26T16:25:06.670775+05:30"},{"city":"Kolkata","state":"West Bengal","latitude":22.5726,"longitude":88.3639,"temp":32.3,"humidity":52,"rain":0.0,"pressure":1006.5,"uv_index":8.45,"wind_gusts":14.0,"aqi":129,"pm10":65.2,"pm2_5":53.9,"mosquito_risk":0,"arthritis_risk":5,"migraine_risk":4,"frizz_risk":1,"updated_at":"2026-03-26T16:25:06.670784+05:30"},{"city":"Pune","state":"Maharashtra","latitude":18.5204,"longitude":73.8567,"temp":36.5,"humidity":27,"rain":0.0,"pressure":948.7,"uv_index":8.5,"wind_gusts":39.2,"aqi":103,"pm10":43.9,"pm2_5":33.1,"mosquito_risk":0,"arthritis_risk":5,"migraine_risk":10,"frizz_risk":0,"updated_at":"2026-03-26T16:25:06.670796+05:30"},{"city":"Ahmedabad","state":"Gujarat","latitude":23.0225,"longitude":72.5714,"temp":37.9,"humidity":20,"rain":0.0,"pressure":1003.0,"uv_index":7.9,"wind_gusts":27.7,"aqi":66,"pm10":31.7,"pm2_5":12.3,"mosquito_risk":0,"arthritis_risk":5,"migraine_risk":7,"frizz_risk":0,"updated_at":"2026-03-26T16:25:06.670804+05:30"},{"city":"Jaipur","state":"Rajasthan","latitude":26.9124,"longitude":75.7873,"temp":33.4,"humidity":25,"rain":0.0,"pressure":961.8,"uv_index":7.1,"wind_gusts":29.5,"aqi":87,"pm10":118.7,"pm2_5":24.1,"mosquito_risk":0,"arthritis_risk":5,"migraine_risk":7,"frizz_risk":0,"updated_at":"2026-03-26T16:25:06.670811+05:30"},{"city":"Lucknow","state":"Uttar Pradesh","latitude":26.8467,"longitude":80.9462,"temp":35.5,"humidity":20,"rain":0.0,"pressure":994.2,"uv_index":7.15,"wind_gusts":34.9,"aqi":117,"pm10":78.5,"pm2_5":22.1,"mosquito_risk":0,"arthritis_risk":5,"migraine_risk":10,"frizz_risk":0,"updated_at":"2026-03-26T16:25:06.670819+05:30"},{"city":"Kanpur","state":"Uttar Pradesh","latitude":26.4499,"longitude":80.3319,"temp":34.0,"humidity":28,"rain":0.0,"pressure":993.0,"uv_index":7.15,"wind_gusts":27.0,"aqi":175,"pm10":318.5,"pm2_5":42.3,"mosquito_risk":0,"arthritis_risk":5,"migraine_risk":7,"frizz_risk":0,"updated_at":"2026-03-26T16:25:06.670826+05:30"},{"city":"Chandigarh","state":"Chandigarh","latitude":30.7333,"longitude":76.7794,"temp":29.2,"humidity":40,"rain":0.0,"pressure":971.8,"uv_index":6.45,"wind_gusts":34.9,"aqi":65,"pm10":21.6,"pm2_5":14.5,"mosquito_risk":4,"arthritis_risk":5,"migraine_risk":7,"frizz_risk":0,"updated_at":"2026-03-26T16:25:06.670833+05:30"},{"city":"Srinagar","state":"Jammu and Kashmir","latitude":34.0837,"longitude":74.7973,"temp":15.4,"humidity":54,"rain":0.0,"pressure":844.9,"uv_index":7.3,"wind_gusts":16.2,"aqi":94,"pm10":27.8,"pm2_5":15.6,"mosquito_risk":0,"arthritis_risk":5,"migraine_risk":7,"frizz_risk":0,"updated_at":"2026-03-26T16:25:06.670839+05:30"},{"city":"Jammu","state":"Jammu and Kashmir","latitude":32.7266,"longitude":74.857,"temp":28.2,"humidity":44,"rain":0.0,"pressure":976.8,"uv_index":6.6,"wind_gusts":23.4,"aqi":79,"pm10":23.1,"pm2_5":12.0,"mosquito_risk":4,"arthritis_risk":5,"migraine_risk":7,"frizz_risk":0,"updated_at":"2026-03-26T16:25:06.670846+05:30"},{"city":"Amritsar","state":"Punjab","latitude":31.634,"longitude":74.8723,"temp":28.0,"humidity":45,"rain":0.0,"pressure":985.3,"uv_index":6.7,"wind_gusts":24.1,"aqi":88,"pm10":49.2,"pm2_5":19.6,"mosquito_risk":4,"arthritis_risk":5,"migraine_risk":7,"frizz_risk":0,"updated_at":"2026-03-26T16:25:06.670853+05:30"},{"city":"Ludhiana","state":"Punjab","latitude":30.901,"longitude":75.8573,"temp":29.0,"humidity":42,"rain":0.0,"pressure":982.6,"uv_index":6.15,"wind_gusts":32.0,"aqi":91,"pm10":29.5,"pm2_5":17.1,"mosquito_risk":4,"arthritis_risk":5,"migraine_risk":7,"frizz_risk":0,"updated_at":"2026-03-26T16:25:06.670860+05:30"},{"city":"Jalandhar","state":"Punjab","latitude":31.326,"longitude":75.5762,"temp":28.5,"humidity":44,"rain":0.0,"pressure":984.1,"uv_index":6.8,"wind_gusts":26.6,"aqi":87,"pm10":42.6,"pm2_5":16.7,"mosquito_risk":4,"arthritis_risk":5,"migraine_risk":7,"frizz_risk":0,"updated_at":"2026-03-26T16:25:06.670869+05:30"},{"city":"Dehradun","state":"Uttarakhand","latitude":30.6284,"longitude":78.0322,"temp":20.6,"humidity":42,"rain":0.0,"pressure":832.7,"uv_index":6.9,"wind_gusts":39.2,"aqi":81,"pm10":18.2,"pm2_5":9.0,"mosquito_risk":0,"arthritis_risk":5,"migraine_risk":7,"frizz_risk":0,"updated_at":"2026-03-26T16:25:06.670876+05:30"},{"city":"Shimla","state":"Himachal Pradesh","latitude":31.1048,"longitude":77.1734,"temp":17.2,"humidity":50,"rain":0.0,"pressure":788.0,"uv_index":6.95,"wind_gusts":43.2,"aqi":80,"pm10":16.2,"pm2_5":9.9,"mosquito_risk":0,"arthritis_risk":5,"migraine_risk":7,"frizz_risk":0,"updated_at":"2026-03-26T16:25:06.670882+05:30"},{"city":"Manali","state":"Himachal Pradesh","latitude":32.2396,"longitude":77.1887,"temp":18.3,"humidity":48,"rain":0.0,"pressure":822.6,"uv_index":8.75,"wind_gusts":23.4,"aqi":107,"pm10":15.1,"pm2_5":8.8,"mosquito_risk":0,"arthritis_risk":5,"migraine_risk":7,"frizz_risk":0,"updated_at":"2026-03-26T16:25:06.670889+05:30"},{"city":"Gurgaon","state":"Haryana","latitude":28.4595,"longitude":77.0266,"temp":31.6,"humidity":35,"rain":0.0,"pressure":983.8,"uv_index":5.9,"wind_gusts":36.0,"aqi":281,"pm10":815.8,"pm2_5":88.7,"mosquito_risk":0,"arthritis_risk":5,"migraine_risk":3,"frizz_risk":0,"updated_at":"2026-03-26T16:25:06.670896+05:30"},{"city":"Noida","state":"Uttar Pradesh","latitude":28.5355,"longitude":77.391,"temp":32.4,"humidity":32,"rain":0.0,"pressure":986.4,"uv_index":6.45,"wind_gusts":47.9,"aqi":281,"pm10":815.8,"pm2_5":88.7,"mosquito_risk":0,"arthritis_risk":5,"migraine_risk":7,"frizz_risk":0,"updated_at":"2026-03-26T16:25:06.670903+05:30"},{"city":"Ghaziabad","state":"Uttar Pradesh","latitude":28.6692,"longitude":77.4538,"temp":32.0,"humidity":32,"rain":0.0,"pressure":984.6,"uv_index":6.55,"wind_gusts":32.8,"aqi":140,"pm10":197.9,"pm2_5":34.3,"mosquito_risk":0,"arthritis_risk":5,"migraine_risk":7,"frizz_risk":0,"updated_at":"2026-03-26T16:25:06.670912+05:30"},{"city":"Faridabad","state":"Haryana","latitude":28.4089,"longitude":77.3178,"temp":32.3,"humidity":31,"rain":0.0,"pressure":985.7,"uv_index":6.2,"wind_gusts":47.2,"aqi":281,"pm10":815.8,"pm2_5":88.7,"mosquito_risk":0,"arthritis_risk":5,"migraine_risk":7,"frizz_risk":0,"updated_at":"2026-03-26T16:25:06.670919+05:30"},{"city":"Meerut","state":"Uttar Pradesh","latitude":28.9845,"longitude":77.7064,"temp":32.0,"humidity":31,"rain":0.0,"pressure":983.2,"uv_index":6.15,"wind_gusts":28.8,"aqi":140,"pm10":197.9,"pm2_5":34.3,"mosquito_risk":0,"arthritis_risk":5,"migraine_risk":7,"frizz_risk":0,"updated_at":"2026-03-26T16:25:06.670926+05:30"},{"city":"Agra","state":"Uttar Pradesh","latitude":27.1767,"longitude":78.0081,"temp":35.4,"humidity":21,"rain":0.0,"pressure":989.0,"uv_index":6.95,"wind_gusts":29.2,"aqi":185,"pm10":427.5,"pm2_5":50.4,"mosquito_risk":0,"arthritis_risk":5,"migraine_risk":10,"frizz_risk":0,"updated_at":"2026-03-26T16:25:06.670933+05:30"},{"city":"Varanasi","state":"Uttar Pradesh","latitude":25.3176,"longitude":82.9739,"temp":35.2,"humidity":21,"rain":0.0,"pressure":998.3,"uv_index":7.8,"wind_gusts":28.8,"aqi":123,"pm10":92.4,"pm2_5":23.3,"mosquito_risk":0,"arthritis_risk":5,"migraine_risk":10,"frizz_risk":0,"updated_at":"2026-03-26T16:25:06.670942+05:30"},{"city":"Prayagraj","state":"Uttar Pradesh","latitude":25.4358,"longitude":81.8463,"temp":34.8,"humidity":22,"rain":0.0,"pressure":997.0,"uv_index":7.7,"wind_gusts":28.1,"aqi":129,"pm10":92.0,"pm2_5":23.4,"mosquito_risk":0,"arthritis_risk":5,"migraine_risk":7,"frizz_risk":0,"updated_at":"2026-03-26T16:25:06.670949+05:30"},{"city":"Gorakhpur","state":"Uttar Pradesh","latitude":26.7606,"longitude":83.3732,"temp":33.8,"humidity":29,"rain":0.0,"pressure":997.7,"uv_index":7.55,"wind_gusts":11.5,"aqi":133,"pm10":90.1,"pm2_5":23.5,"mosquito_risk":0,"arthritis_risk":5,"migraine_risk":7,"frizz_risk":0,"updated_at":"2026-03-26T16:25:06.670955+05:30"},{"city":"Bareilly","state":"Uttar Pradesh","latitude":28.367,"longitude":79.4304,"temp":33.3,"humidity":29,"rain":0.0,"pressure":987.9,"uv_index":6.8,"wind_gusts":30.2,"aqi":86,"pm10":25.4,"pm2_5":14.8,"mosquito_risk":0,"arthritis_risk":5,"migraine_risk":7,"frizz_risk":0,"updated_at":"2026-03-26T16:25:06.670961+05:30"},{"city":"Aligarh","state":"Uttar Pradesh","latitude":27.8974,"longitude":78.088,"temp":32.9,"humidity":30,"rain":0.0,"pressure":987.2,"uv_index":6.4,"wind_gusts":28.1,"aqi":200,"pm10":363.2,"pm2_5":51.8,"mosquito_risk":0,"arthritis_risk":5,"migraine_risk":7,"frizz_risk":0,"updated_at":"2026-03-26T16:25:06.670968+05:30"},{"city":"Moradabad","state":"Uttar Pradesh","latitude":28.8386,"longitude":78.7733,"temp":32.9,"humidity":28,"rain":0.0,"pressure":984.8,"uv_index":6.6,"wind_gusts":34.2,"aqi":94,"pm10":38.3,"pm2_5":13.4,"mosquito_risk":0,"arthritis_risk":5,"migraine_risk":7,"frizz_risk":0,"updated_at":"2026-03-26T16:25:06.670976+05:30"},{"city":"Saharanpur","state":"Uttar Pradesh","latitude":29.9637,"longitude":77.546,"temp":31.0,"humidity":31,"rain":0.0,"pressure":977.8,"uv_index":6.25,"wind_gusts":41.8,"aqi":90,"pm10":56.5,"pm2_5":17.8,"mosquito_risk":0,"arthritis_risk":5,"migraine_risk":7,"frizz_risk":0,"updated_at":"2026-03-26T16:25:06.670982+05:30"},{"city":"Jhansi","state":"Uttar Pradesh","latitude":25.4484,"longitude":78.5685,"temp":36.1,"humidity":21,"rain":0.0,"pressure":979.0,"uv_index":7.6,"wind_gusts":23.0,"aqi":107,"pm10":80.6,"pm2_5":24.1,"mosquito_risk":0,"arthritis_risk":5,"migraine_risk":10,"frizz_risk":0,"updated_at":"2026-03-26T16:25:09.992489+05:30"},{"city":"Surat","state":"Gujarat","latitude":21.1702,"longitude":72.8311,"temp":34.4,"humidity":42,"rain":0.0,"pressure":1007.4,"uv_index":7.7,"wind_gusts":25.9,"aqi":99,"pm10":36.1,"pm2_5":29.0,"mosquito_risk":0,"arthritis_risk":5,"migraine_risk":4,"frizz_risk":1,"updated_at":"2026-03-26T16:25:09.992519+05:30"},{"city":"Vadodara","state":"Gujarat","latitude":22.3072,"longitude":73.1812,"temp":38.4,"humidity":22,"rain":0.0,"pressure":1004.8,"uv_index":7.9,"wind_gusts":28.8,"aqi":94,"pm10":22.7,"pm2_5":13.5,"mosquito_risk":0,"arthritis_risk":5,"migraine_risk":7,"frizz_risk":0,"updated_at":"2026-03-26T16:25:09.992528+05:30"},{"city":"Rajkot","state":"Gujarat","latitude":22.3039,"longitude":70.8022,"temp":36.6,"humidity":20,"rain":0.0,"pressure":995.8,"uv_index":7.75,"wind_gusts":29.5,"aqi":53,"pm10":25.7,"pm2_5":9.5,"mosquito_risk":0,"arthritis_risk":5,"migraine_risk":10,"frizz_risk":0,"updated_at":"2026-03-26T16:25:09.992536+05:30"},{"city":"Thane","state":"Maharashtra","latitude":19.2183,"longitude":72.9781,"temp":33.5,"humidity":45,"rain":0.0,"pressure":1007.5,"uv_index":7.95,"wind_gusts":41.8,"aqi":94,"pm10":43.0,"pm2_5":36.0,"mosquito_risk":0,"arthritis_risk":5,"migraine_risk":4,"frizz_risk":1,"updated_at":"2026-03-26T16:25:09.992544+05:30"},{"city":"Nagpur","state":"Maharashtra","latitude":21.1458,"longitude":79.0882,"temp":37.8,"humidity":21,"rain":0.0,"pressure":972.7,"uv_index":8.45,"wind_gusts":25.2,"aqi":148,"pm10":42.0,"pm2_5":34.6,"mosquito_risk":0,"arthritis_risk":5,"migraine_risk":10,"frizz_risk":0,"updated_at":"2026-03-26T16:25:09.992551+05:30"},{"city":"Nashik","state":"Maharashtra","latitude":19.9975,"longitude":73.7898,"temp":34.4,"humidity":26,"rain":0.0,"pressure":946.3,"uv_index":8.15,"wind_gusts":33.1,"aqi":79,"pm10":34.2,"pm2_5":22.5,"mosquito_risk":0,"arthritis_risk":5,"migraine_risk":7,"frizz_risk":0,"updated_at":"2026-03-26T16:25:09.992557+05:30"},{"city":"Aurangabad","state":"Maharashtra","latitude":19.8762,"longitude":75.3433,"temp":36.6,"humidity":21,"rain":0.0,"pressure":944.6,"uv_index":8.65,"wind_gusts":27.7,"aqi":85,"pm10":24.2,"pm2_5":16.4,"mosquito_risk":0,"arthritis_risk":5,"migraine_risk":10,"frizz_risk":0,"updated_at":"2026-03-26T16:25:09.992564+05:30"},{"city":"Solapur","state":"Maharashtra","latitude":17.6599,"longitude":75.9064,"temp":37.4,"humidity":24,"rain":0.0,"pressure":957.1,"uv_index":8.85,"wind_gusts":22.0,"aqi":108,"pm10":31.0,"pm2_5":23.5,"mosquito_risk":0,"arthritis_risk":5,"migraine_risk":10,"frizz_risk":0,"updated_at":"2026-03-26T16:25:09.992572+05:30"},{"city":"Kolhapur","state":"Maharashtra","latitude":16.705,"longitude":74.2433,"temp":34.9,"humidity":29,"rain":0.0,"pressure":948.1,"uv_index":8.8,"wind_gusts":30.6,"aqi":154,"pm10":39.3,"pm2_5":31.3,"mosquito_risk":0,"arthritis_risk":5,"migraine_risk":7,"frizz_risk":0,"updated_at":"2026-03-26T16:25:09.992579+05:30"},{"city":"Goa","state":"Goa","latitude":15.2993,"longitude":74.124,"temp":33.1,"humidity":61,"rain":0.0,"pressure":996.9,"uv_index":7.75,"wind_gusts":34.2,"aqi":119,"pm10":37.1,"pm2_5":29.5,"mosquito_risk":3,"arthritis_risk":5,"migraine_risk":7,"frizz_risk":1,"updated_at":"2026-03-26T16:25:09.992586+05:30"},{"city":"Jodhpur","state":"Rajasthan","latitude":26.2389,"longitude":73.0243,"temp":35.8,"humidity":20,"rain":0.0,"pressure":984.8,"uv_index":7.45,"wind_gusts":33.1,"aqi":80,"pm10":100.4,"pm2_5":19.0,"mosquito_risk":0,"arthritis_risk":5,"migraine_risk":10,"frizz_risk":0,"updated_at":"2026-03-26T16:25:09.992592+05:30"},{"city":"Udaipur","state":"Rajasthan","latitude":24.5854,"longitude":73.7125,"temp":34.0,"humidity":20,"rain":0.0,"pressure":948.6,"uv_index":8.05,"wind_gusts":35.3,"aqi":43,"pm10":17.6,"pm2_5":6.4,"mosquito_risk":0,"arthritis_risk":5,"migraine_risk":7,"frizz_risk":0,"updated_at":"2026-03-26T16:25:09.992599+05:30"},{"city":"Kota","state":"Rajasthan","latitude":25.2138,"longitude":75.8648,"temp":37.2,"humidity":21,"rain":0.0,"pressure":979.5,"uv_index":7.65,"wind_gusts":23.4,"aqi":75,"pm10":25.3,"pm2_5":15.1,"mosquito_risk":0,"arthritis_risk":5,"migraine_risk":10,"frizz_risk":0,"updated_at":"2026-03-26T16:25:09.992606+05:30"},{"city":"Bikaner","state":"Rajasthan","latitude":28.0229,"longitude":73.3119,"temp":33.2,"humidity":25,"rain":0.0,"pressure":984.1,"uv_index":7.1,"wind_gusts":24.1,"aqi":57,"pm10":40.9,"pm2_5":13.0,"mosquito_risk":0,"arthritis_risk":5,"migraine_risk":7,"frizz_risk":0,"updated_at":"2026-03-26T16:25:09.992613+05:30"},{"city":"Ajmer","state":"Rajasthan","latitude":26.4499,"longitude":74.6399,"temp":33.6,"humidity":22,"rain":0.0,"pressure":956.4,"uv_index":7.35,"wind_gusts":33.1,"aqi":82,"pm10":23.6,"pm2_5":10.9,"mosquito_risk":0,"arthritis_risk":5,"migraine_risk":7,"frizz_risk":0,"updated_at":"2026-03-26T16:25:09.992619+05:30"},{"city":"Gwalior","state":"Madhya Pradesh","latitude":26.2183,"longitude":78.1828,"temp":35.0,"humidity":27,"rain":0.0,"pressure":984.7,"uv_index":7.3,"wind_gusts":23.4,"aqi":81,"pm10":73.1,"pm2_5":16.9,"mosquito_risk":0,"arthritis_risk":5,"migraine_risk":7,"frizz_risk":0,"updated_at":"2026-03-26T16:25:09.992626+05:30"},{"city":"Indore","state":"Madhya Pradesh","latitude":22.7196,"longitude":75.8577,"temp":35.8,"humidity":20,"rain":0.0,"pressure":949.1,"uv_index":8.15,"wind_gusts":32.4,"aqi":65,"pm10":13.1,"pm2_5":6.8,"mosquito_risk":0,"arthritis_risk":5,"migraine_risk":10,"frizz_risk":0,"updated_at":"2026-03-26T16:25:09.992648+05:30"},{"city":"Bhopal","state":"Madhya Pradesh","latitude":23.2599,"longitude":77.4126,"temp":37.4,"humidity":16,"rain":0.0,"pressure":954.3,"uv_index":8.05,"wind_gusts":31.0,"aqi":68,"pm10":16.8,"pm2_5":9.5,"mosquito_risk":0,"arthritis_risk":5,"migraine_risk":10,"frizz_risk":0,"updated_at":"2026-03-26T16:25:09.992657+05:30"},{"city":"Jabalpur","state":"Madhya Pradesh","latitude":23.1815,"longitude":79.9864,"temp":35.9,"humidity":23,"rain":0.0,"pressure":962.2,"uv_index":8.2,"wind_gusts":20.5,"aqi":88,"pm10":28.3,"pm2_5":12.0,"mosquito_risk":0,"arthritis_risk":5,"migraine_risk":10,"frizz_risk":0,"updated_at":"2026-03-26T16:25:09.992664+05:30"},{"city":"Ujjain","state":"Madhya Pradesh","latitude":23.1765,"longitude":75.7885,"temp":35.5,"humidity":19,"rain":0.0,"pressure":954.9,"uv_index":8.1,"wind_gusts":31.3,"aqi":62,"pm10":9.4,"pm2_5":4.9,"mosquito_risk":0,"arthritis_risk":5,"migraine_risk":10,"frizz_risk":0,"updated_at":"2026-03-26T16:25:09.992671+05:30"},{"city":"Visakhapatnam","state":"Andhra Pradesh","latitude":17.6868,"longitude":83.2185,"temp":32.0,"humidity":59,"rain":0.0,"pressure":1004.7,"uv_index":8.75,"wind_gusts":33.8,"aqi":80,"pm10":34.1,"pm2_5":23.8,"mosquito_risk":0,"arthritis_risk":5,"migraine_risk":4,"frizz_risk":1,"updated_at":"2026-03-26T16:25:09.992678+05:30"},{"city":"Vijayawada","state":"Andhra Pradesh","latitude":16.5062,"longitude":80.648,"temp":35.0,"humidity":44,"rain":0.0,"pressure":1002.4,"uv_index":9.0,"wind_gusts":22.0,"aqi":70,"pm10":33.6,"pm2_5":23.5,"mosquito_risk":0,"arthritis_risk":5,"migraine_risk":4,"frizz_risk":1,"updated_at":"2026-03-26T16:25:09.992684+05:30"},{"city":"Guntur","state":"Andhra Pradesh","latitude":16.3067,"longitude":80.4365,"temp":35.0,"humidity":42,"rain":0.0,"pressure":1003.8,"uv_index":9.0,"wind_gusts":27.4,"aqi":66,"pm10":32.8,"pm2_5":22.6,"mosquito_risk":0,"arthritis_risk":5,"migraine_risk":4,"frizz_risk":1,"updated_at":"2026-03-26T16:25:09.992691+05:30"},{"city":"Nellore","state":"Andhra Pradesh","latitude":14.4426,"longitude":79.9865,"temp":33.1,"humidity":45,"rain":0.0,"pressure":1006.2,"uv_index":9.1,"wind_gusts":30.2,"aqi":55,"pm10":25.6,"pm2_5":16.1,"mosquito_risk":0,"arthritis_risk":5,"migraine_risk":4,"frizz_risk":1,"updated_at":"2026-03-26T16:25:09.992698+05:30"},{"city":"Kurnool","state":"Andhra Pradesh","latitude":15.8281,"longitude":78.0373,"temp":38.7,"humidity":20,"rain":0.0,"pressure":976.2,"uv_index":9.0,"wind_gusts":26.3,"aqi":86,"pm10":31.3,"pm2_5":21.9,"mosquito_risk":0,"arthritis_risk":5,"migraine_risk":10,"frizz_risk":0,"updated_at":"2026-03-26T16:25:09.992706+05:30"},{"city":"Kakinada","state":"Andhra Pradesh","latitude":16.9891,"longitude":82.2475,"temp":34.4,"humidity":49,"rain":0.0,"pressure":1007.8,"uv_index":8.95,"wind_gusts":23.8,"aqi":61,"pm10":24.0,"pm2_5":15.5,"mosquito_risk":0,"arthritis_risk":5,"migraine_risk":4,"frizz_risk":1,"updated_at":"2026-03-26T16:25:09.992713+05:30"},{"city":"Tirupati","state":"Andhra Pradesh","latitude":13.6288,"longitude":79.4192,"temp":34.6,"humidity":37,"rain":0.0,"pressure":991.6,"uv_index":9.2,"wind_gusts":34.6,"aqi":77,"pm10":30.6,"pm2_5":23.1,"mosquito_risk":0,"arthritis_risk":5,"migraine_risk":7,"frizz_risk":1,"updated_at":"2026-03-26T16:25:09.992720+05:30"},{"city":"Warangal","state":"Telangana","latitude":17.9689,"longitude":79.5941,"temp":37.2,"humidity":30,"rain":0.0,"pressure":978.3,"uv_index":8.8,"wind_gusts":25.2,"aqi":87,"pm10":37.3,"pm2_5":28.2,"mosquito_risk":0,"arthritis_risk":5,"migraine_risk":10,"frizz_risk":1,"updated_at":"2026-03-26T16:25:09.992726+05:30"},{"city":"Nizamabad","state":"Telangana","latitude":18.6725,"longitude":78.0941,"temp":37.7,"humidity":21,"rain":0.0,"pressure":964.7,"uv_index":8.75,"wind_gusts":28.1,"aqi":103,"pm10":21.2,"pm2_5":15.4,"mosquito_risk":0,"arthritis_risk":5,"migraine_risk":10,"frizz_risk":0,"updated_at":"2026-03-26T16:25:09.992732+05:30"},{"city":"Mysore","state":"Karnataka","latitude":12.2958,"longitude":76.6396,"temp":34.9,"humidity":22,"rain":0.0,"pressure":928.0,"uv_index":9.4,"wind_gusts":37.8,"aqi":100,"pm10":25.1,"pm2_5":19.0,"mosquito_risk":0,"arthritis_risk":5,"migraine_risk":7,"frizz_risk":0,"updated_at":"2026-03-26T16:25:09.992738+05:30"},{"city":"Mangalore","state":"Karnataka","latitude":12.9141,"longitude":74.856,"temp":29.8,"humidity":84,"rain":0.0,"pressure":1004.2,"uv_index":9.1,"wind_gusts":31.0,"aqi":132,"pm10":37.7,"pm2_5":30.2,"mosquito_risk":7,"arthritis_risk":5,"migraine_risk":4,"frizz_risk":1,"updated_at":"2026-03-26T16:25:09.992745+05:30"},{"city":"Hubli-Dharwad","state":"Karnataka","latitude":15.3647,"longitude":75.124,"temp":34.3,"humidity":30,"rain":0.0,"pressure":941.0,"uv_index":9.1,"wind_gusts":29.5,"aqi":116,"pm10":28.3,"pm2_5":22.2,"mosquito_risk":0,"arthritis_risk":5,"migraine_risk":7,"frizz_risk":0,"updated_at":"2026-03-26T16:25:09.992751+05:30"},{"city":"Belgaum","state":"Karnataka","latitude":15.8497,"longitude":74.4977,"temp":32.7,"humidity":35,"rain":0.0,"pressure":926.4,"uv_index":9.1,"wind_gusts":33.1,"aqi":130,"pm10":33.2,"pm2_5":26.6,"mosquito_risk":0,"arthritis_risk":5,"migraine_risk":7,"frizz_risk":0,"updated_at":"2026-03-26T16:25:13.314785+05:30"},{"city":"Coimbatore","state":"Tamil Nadu","latitude":11.0168,"longitude":76.9558,"temp":35.4,"humidity":24,"rain":0.0,"pressure":960.7,"uv_index":9.4,"wind_gusts":41.4,"aqi":85,"pm10":25.2,"pm2_5":19.5,"mosquito_risk":0,"arthritis_risk":5,"migraine_risk":10,"frizz_risk":0,"updated_at":"2026-03-26T16:25:13.314816+05:30"},{"city":"Madurai","state":"Tamil Nadu","latitude":9.9252,"longitude":78.1198,"temp":35.5,"humidity":37,"rain":0.0,"pressure":991.6,"uv_index":9.35,"wind_gusts":27.0,"aqi":62,"pm10":28.9,"pm2_5":20.0,"mosquito_risk":0,"arthritis_risk":5,"migraine_risk":10,"frizz_risk":1,"updated_at":"2026-03-26T16:25:13.314826+05:30"},{"city":"Trichy","state":"Tamil Nadu","latitude":10.7905,"longitude":78.7047,"temp":34.3,"humidity":42,"rain":0.0,"pressure":999.0,"uv_index":9.3,"wind_gusts":27.4,"aqi":67,"pm10":39.3,"pm2_5":29.9,"mosquito_risk":0,"arthritis_risk":5,"migraine_risk":7,"frizz_risk":1,"updated_at":"2026-03-26T16:25:13.314834+05:30"},{"city":"Salem","state":"Tamil Nadu","latitude":11.6643,"longitude":78.146,"temp":35.7,"humidity":32,"rain":0.0,"pressure":976.6,"uv_index":9.35,"wind_gusts":34.6,"aqi":98,"pm10":33.5,"pm2_5":25.8,"mosquito_risk":0,"arthritis_risk":5,"migraine_risk":10,"frizz_risk":1,"updated_at":"2026-03-26T16:25:13.314842+05:30"},{"city":"Tirunelveli","state":"Tamil Nadu","latitude":8.7139,"longitude":77.7567,"temp":36.8,"humidity":33,"rain":0.0,"pressure":1001.1,"uv_index":9.3,"wind_gusts":40.0,"aqi":47,"pm10":16.2,"pm2_5":11.0,"mosquito_risk":0,"arthritis_risk":5,"migraine_risk":7,"frizz_risk":1,"updated_at":"2026-03-26T16:25:13.314850+05:30"},{"city":"Vellore","state":"Tamil Nadu","latitude":12.9165,"longitude":79.1325,"temp":33.3,"humidity":40,"rain":0.0,"pressure":984.8,"uv_index":9.3,"wind_gusts":34.9,"aqi":78,"pm10":23.6,"pm2_5":16.4,"mosquito_risk":0,"arthritis_risk":5,"migraine_risk":7,"frizz_risk":1,"updated_at":"2026-03-26T16:25:13.314857+05:30"},{"city":"Erode","state":"Tamil Nadu","latitude":11.341,"longitude":77.7172,"temp":36.5,"humidity":35,"rain":0.0,"pressure":987.7,"uv_index":9.3,"wind_gusts":25.2,"aqi":63,"pm10":35.2,"pm2_5":27.6,"mosquito_risk":0,"arthritis_risk":5,"migraine_risk":10,"frizz_risk":1,"updated_at":"2026-03-26T16:25:13.314864+05:30"},{"city":"Kochi","state":"Kerala","latitude":9.9312,"longitude":76.2673,"temp":29.7,"humidity":77,"rain":0.0,"pressure":1006.0,"uv_index":9.2,"wind_gusts":36.4,"aqi":98,"pm10":34.3,"pm2_5":28.2,"mosquito_risk":7,"arthritis_risk":5,"migraine_risk":4,"frizz_risk":1,"updated_at":"2026-03-26T16:25:13.314871+05:30"},{"city":"Thiruvananthapuram","state":"Kerala","latitude":8.5241,"longitude":76.9366,"temp":29.8,"humidity":71,"rain":0.0,"pressure":1006.2,"uv_index":9.2,"wind_gusts":30.2,"aqi":92,"pm10":17.0,"pm2_5":12.4,"mosquito_risk":7,"arthritis_risk":5,"migraine_risk":4,"frizz_risk":1,"updated_at":"2026-03-26T16:25:13.314878+05:30"},{"city":"Kozhikode","state":"Kerala","latitude":11.2588,"longitude":75.7804,"temp":30.8,"humidity":75,"rain":0.0,"pressure":1005.4,"uv_index":9.1,"wind_gusts":31.7,"aqi":92,"pm10":38.4,"pm2_5":29.7,"mosquito_risk":3,"arthritis_risk":5,"migraine_risk":4,"frizz_risk":1,"updated_at":"2026-03-26T16:25:13.314885+05:30"},{"city":"Thrissur","state":"Kerala","latitude":10.5276,"longitude":76.2144,"temp":32.6,"humidity":63,"rain":0.0,"pressure":1004.6,"uv_index":9.15,"wind_gusts":40.0,"aqi":105,"pm10":27.8,"pm2_5":20.9,"mosquito_risk":3,"arthritis_risk":5,"migraine_risk":4,"frizz_risk":1,"updated_at":"2026-03-26T16:25:13.314892+05:30"},{"city":"Kannur","state":"Kerala","latitude":11.8745,"longitude":75.3704,"temp":31.7,"humidity":70,"rain":0.0,"pressure":1005.1,"uv_index":9.1,"wind_gusts":35.6,"aqi":99,"pm10":41.1,"pm2_5":32.7,"mosquito_risk":3,"arthritis_risk":5,"migraine_risk":4,"frizz_risk":1,"updated_at":"2026-03-26T16:25:13.314899+05:30"},{"city":"Patna","state":"Bihar","latitude":25.5941,"longitude":85.1376,"temp":33.1,"humidity":26,"rain":0.0,"pressure":1001.2,"uv_index":7.95,"wind_gusts":22.7,"aqi":153,"pm10":49.4,"pm2_5":17.4,"mosquito_risk":0,"arthritis_risk":5,"migraine_risk":4,"frizz_risk":0,"updated_at":"2026-03-26T16:25:13.314907+05:30"},{"city":"Gaya","state":"Bihar","latitude":24.7914,"longitude":85.0002,"temp":33.1,"humidity":25,"rain":0.0,"pressure":994.7,"uv_index":8.05,"wind_gusts":25.6,"aqi":117,"pm10":48.3,"pm2_5":14.7,"mosquito_risk":0,"arthritis_risk":5,"migraine_risk":7,"frizz_risk":0,"updated_at":"2026-03-26T16:25:13.314914+05:30"},{"city":"Muzaffarpur","state":"Bihar","latitude":26.1209,"longitude":85.3647,"temp":32.2,"humidity":33,"rain":0.0,"pressure":1001.1,"uv_index":7.95,"wind_gusts":17.6,"aqi":163,"pm10":44.4,"pm2_5":20.7,"mosquito_risk":0,"arthritis_risk":5,"migraine_risk":4,"frizz_risk":0,"updated_at":"2026-03-26T16:25:13.314920+05:30"},{"city":"Bhagalpur","state":"Bihar","latitude":25.2425,"longitude":87.0117,"temp":30.9,"humidity":46,"rain":0.0,"pressure":1002.1,"uv_index":8.0,"wind_gusts":16.2,"aqi":135,"pm10":49.9,"pm2_5":19.7,"mosquito_risk":0,"arthritis_risk":5,"migraine_risk":4,"frizz_risk":1,"updated_at":"2026-03-26T16:25:13.314927+05:30"},{"city":"Ranchi","state":"Jharkhand","latitude":23.3441,"longitude":85.3096,"temp":31.5,"humidity":21,"rain":0.0,"pressure":939.3,"uv_index":8.7,"wind_gusts":34.9,"aqi":109,"pm10":20.3,"pm2_5":6.4,"mosquito_risk":0,"arthritis_risk":5,"migraine_risk":7,"frizz_risk":0,"updated_at":"2026-03-26T16:25:13.314934+05:30"},{"city":"Jamshedpur","state":"Jharkhand","latitude":22.8046,"longitude":86.2029,"temp":35.2,"humidity":28,"rain":0.0,"pressure":991.1,"uv_index":8.55,"wind_gusts":26.6,"aqi":167,"pm10":72.6,"pm2_5":48.3,"mosquito_risk":0,"arthritis_risk":5,"migraine_risk":10,"frizz_risk":0,"updated_at":"2026-03-26T16:25:13.314941+05:30"},{"city":"Dhanbad","state":"Jharkhand","latitude":23.7957,"longitude":86.4304,"temp":34.8,"humidity":22,"rain":0.0,"pressure":980.3,"uv_index":8.45,"wind_gusts":23.0,"aqi":157,"pm10":53.1,"pm2_5":27.9,"mosquito_risk":0,"arthritis_risk":5,"migraine_risk":7,"frizz_risk":0,"updated_at":"2026-03-26T16:25:13.314948+05:30"},{"city":"Bokaro","state":"Jharkhand","latitude":23.6693,"longitude":86.1511,"temp":34.9,"humidity":20,"rain":0.0,"pressure":984.1,"uv_index":8.45,"wind_gusts":19.8,"aqi":150,"pm10":38.6,"pm2_5":17.2,"mosquito_risk":0,"arthritis_risk":5,"migraine_risk":7,"frizz_risk":0,"updated_at":"2026-03-26T16:25:13.314956+05:30"},{"city":"Bhubaneswar","state":"Odisha","latitude":20.2961,"longitude":85.8245,"temp":32.1,"humidity":54,"rain":0.0,"pressure":1003.7,"uv_index":8.75,"wind_gusts":18.7,"aqi":94,"pm10":59.5,"pm2_5":47.3,"mosquito_risk":0,"arthritis_risk":5,"migraine_risk":4,"frizz_risk":1,"updated_at":"2026-03-26T16:25:13.314963+05:30"},{"city":"Cuttack","state":"Odisha","latitude":20.4625,"longitude":85.8828,"temp":32.6,"humidity":56,"rain":0.0,"pressure":1005.5,"uv_index":8.8,"wind_gusts":15.8,"aqi":94,"pm10":59.5,"pm2_5":47.3,"mosquito_risk":0,"arthritis_risk":5,"migraine_risk":4,"frizz_risk":1,"updated_at":"2026-03-26T16:25:13.314969+05:30"},{"city":"Rourkela","state":"Odisha","latitude":22.2604,"longitude":84.8536,"temp":36.4,"humidity":25,"rain":0.0,"pressure":985.1,"uv_index":8.45,"wind_gusts":23.8,"aqi":150,"pm10":39.9,"pm2_5":15.9,"mosquito_risk":0,"arthritis_risk":5,"migraine_risk":10,"frizz_risk":0,"updated_at":"2026-03-26T16:25:13.314976+05:30"},{"city":"Raipur","state":"Chhattisgarh","latitude":21.2514,"longitude":81.6296,"temp":37.8,"humidity":21,"rain":0.0,"pressure":974.4,"uv_index":8.5,"wind_gusts":23.8,"aqi":156,"pm10":42.5,"pm2_5":30.7,"mosquito_risk":0,"arthritis_risk":5,"migraine_risk":10,"frizz_risk":0,"updated_at":"2026-03-26T16:25:13.314982+05:30"},{"city":"Bhilai","state":"Chhattisgarh","latitude":21.1938,"longitude":81.3509,"temp":37.7,"humidity":22,"rain":0.0,"pressure":974.8,"uv_index":8.5,"wind_gusts":22.3,"aqi":135,"pm10":40.9,"pm2_5":29.7,"mosquito_risk":0,"arthritis_risk":5,"migraine_risk":10,"frizz_risk":0,"updated_at":"2026-03-26T16:25:13.314988+05:30"},{"city":"Guwahati","state":"Assam","latitude":26.1158,"longitude":91.7086,"temp":28.7,"humidity":57,"rain":0.0,"pressure":1002.6,"uv_index":7.9,"wind_gusts":23.0,"aqi":131,"pm10":55.5,"pm2_5":38.3,"mosquito_risk":4,"arthritis_risk":5,"migraine_risk":4,"frizz_risk":1,"updated_at":"2026-03-26T16:25:13.314995+05:30"},{"city":"Agartala","state":"Tripura","latitude":23.8315,"longitude":91.2868,"temp":31.8,"humidity":45,"rain":0.0,"pressure":1006.4,"uv_index":8.2,"wind_gusts":17.6,"aqi":161,"pm10":58.1,"pm2_5":41.3,"mosquito_risk":0,"arthritis_risk":5,"migraine_risk":4,"frizz_risk":1,"updated_at":"2026-03-26T16:25:13.315001+05:30"},{"city":"Shillong","state":"Meghalaya","latitude":25.5788,"longitude":91.8933,"temp":18.4,"humidity":51,"rain":0.0,"pressure":857.5,"uv_index":8.3,"wind_gusts":26.3,"aqi":124,"pm10":50.4,"pm2_5":35.2,"mosquito_risk":0,"arthritis_risk":5,"migraine_risk":7,"frizz_risk":0,"updated_at":"2026-03-26T16:25:13.315008+05:30"},{"city":"Imphal","state":"Manipur","latitude":24.817,"longitude":93.9368,"temp":22.0,"humidity":43,"rain":0.0,"pressure":924.1,"uv_index":8.55,"wind_gusts":43.9,"aqi":134,"pm10":41.4,"pm2_5":28.3,"mosquito_risk":0,"arthritis_risk":5,"migraine_risk":7,"frizz_risk":0,"updated_at":"2026-03-26T16:25:13.315015+05:30"},{"city":"Aizawl","state":"Mizoram","latitude":23.7271,"longitude":92.7176,"temp":24.8,"humidity":44,"rain":0.0,"pressure":894.4,"uv_index":8.45,"wind_gusts":32.8,"aqi":131,"pm10":39.8,"pm2_5":25.5,"mosquito_risk":0,"arthritis_risk":5,"migraine_risk":7,"frizz_risk":0,"updated_at":"2026-03-26T16:25:13.315021+05:30"},{"city":"Kohima","state":"Nagaland","latitude":25.6701,"longitude":94.1077,"temp":17.4,"humidity":73,"rain":0.0,"pressure":855.9,"uv_index":8.45,"wind_gusts":47.5,"aqi":110,"pm10":38.2,"pm2_5":26.2,"mosquito_risk":3,"arthritis_risk":5,"migraine_risk":7,"frizz_risk":0,"updated_at":"2026-03-26T16:25:13.315028+05:30"},{"city":"Gangtok","state":"Sikkim","latitude":27.3314,"longitude":88.6138,"temp":16.1,"humidity":77,"rain":0.0,"pressure":838.3,"uv_index":8.05,"wind_gusts":18.7,"aqi":107,"pm10":54.9,"pm2_5":43.2,"mosquito_risk":3,"arthritis_risk":5,"migraine_risk":7,"frizz_risk":0,"updated_at":"2026-03-26T16:25:13.315034+05:30"},{"city":"Siliguri","state":"West Bengal","latitude":26.7271,"longitude":88.3953,"temp":23.9,"humidity":63,"rain":0.0,"pressure":995.7,"uv_index":7.9,"wind_gusts":32.4,"aqi":153,"pm10":60.1,"pm2_5":40.6,"mosquito_risk":3,"arthritis_risk":5,"migraine_risk":7,"frizz_risk":1,"updated_at":"2026-03-26T16:25:16.639904+05:30"},{"city":"Durgapur","state":"West Bengal","latitude":23.5204,"longitude":87.3119,"temp":34.6,"humidity":30,"rain":0.0,"pressure":995.3,"uv_index":8.4,"wind_gusts":21.2,"aqi":161,"pm10":79.2,"pm2_5":55.8,"mosquito_risk":0,"arthritis_risk":5,"migraine_risk":7,"frizz_risk":0,"updated_at":"2026-03-26T16:25:16.639934+05:30"},{"city":"Asansol","state":"West Bengal","latitude":23.6739,"longitude":86.9524,"temp":34.5,"humidity":29,"rain":0.0,"pressure":993.9,"uv_index":8.4,"wind_gusts":17.6,"aqi":153,"pm10":69.4,"pm2_5":44.6,"mosquito_risk":0,"arthritis_risk":5,"migraine_risk":7,"frizz_risk":0,"updated_at":"2026-03-26T16:25:16.639944+05:30"},{"city":"Pondicherry","state":"Puducherry","latitude":11.9139,"longitude":79.8145,"temp":31.6,"humidity":53,"rain":0.0,"pressure":1008.7,"uv_index":9.2,"wind_gusts":29.2,"aqi":55,"pm10":30.2,"pm2_5":17.5,"mosquito_risk":0,"arthritis_risk":0,"migraine_risk":4,"frizz_risk":1,"updated_at":"2026-03-26T16:25:16.639953+05:30"},{"city":"Port Blair","state":"Andaman and Nicobar Islands","latitude":11.6234,"longitude":92.7265,"temp":28.5,"humidity":77,"rain":0.0,"pressure":1006.3,"uv_index":9.15,"wind_gusts":29.5,"aqi":64,"pm10":11.8,"pm2_5":7.9,"mosquito_risk":7,"arthritis_risk":5,"migraine_risk":4,"frizz_risk":1,"updated_at":"2026-03-26T16:25:16.639961+05:30"},{"city":"Haridwar","state":"Uttarakhand","latitude":29.9457,"longitude":78.1642,"temp":32.1,"humidity":26,"rain":0.0,"pressure":976.0,"uv_index":6.4,"wind_gusts":48.6,"aqi":79,"pm10":24.0,"pm2_5":13.9,"mosquito_risk":0,"arthritis_risk":5,"migraine_risk":7,"frizz_risk":0,"updated_at":"2026-03-26T16:25:16.639969+05:30"},{"city":"Rishikesh","state":"Uttarakhand","latitude":30.0869,"longitude":78.2676,"temp":30.8,"humidity":29,"rain":0.0,"pressure":968.6,"uv_index":6.45,"wind_gusts":45.7,"aqi":64,"pm10":15.5,"pm2_5":11.0,"mosquito_risk":0,"arthritis_risk":5,"migraine_risk":7,"frizz_risk":0,"updated_at":"2026-03-26T16:25:16.639977+05:30"},{"city":"Nainital","state":"Uttarakhand","latitude":29.3919,"longitude":79.4542,"temp":23.4,"humidity":36,"rain":0.0,"pressure":809.1,"uv_index":7.25,"wind_gusts":65.9,"aqi":92,"pm10":15.3,"pm2_5":10.4,"mosquito_risk":0,"arthritis_risk":5,"migraine_risk":7,"frizz_risk":0,"updated_at":"2026-03-26T16:25:16.639984+05:30"},{"city":"Mussoorie","state":"Uttarakhand","latitude":30.4599,"longitude":78.0664,"temp":21.2,"humidity":39,"rain":0.0,"pressure":805.7,"uv_index":6.8,"wind_gusts":57.2,"aqi":70,"pm10":16.5,"pm2_5":12.0,"mosquito_risk":0,"arthritis_risk":5,"migraine_risk":7,"frizz_risk":0,"updated_at":"2026-03-26T16:25:16.639992+05:30"},{"city":"Dharamshala","state":"Himachal Pradesh","latitude":32.219,"longitude":76.3234,"temp":22.5,"humidity":49,"rain":0.0,"pressure":872.6,"uv_index":6.9,"wind_gusts":19.1,"aqi":89,"pm10":19.1,"pm2_5":9.5,"mosquito_risk":0,"arthritis_risk":5,"migraine_risk":7,"frizz_risk":0,"updated_at":"2026-03-26T16:25:16.640000+05:30"},{"city":"Dalhousie","state":"Himachal Pradesh","latitude":32.5387,"longitude":75.971,"temp":20.8,"humidity":39,"rain":0.0,"pressure":807.8,"uv_index":6.8,"wind_gusts":22.3,"aqi":69,"pm10":17.5,"pm2_5":9.2,"mosquito_risk":0,"arthritis_risk":5,"migraine_risk":7,"frizz_risk":0,"updated_at":"2026-03-26T16:25:16.640008+05:30"},{"city":"Patiala","state":"Punjab","latitude":30.3398,"longitude":76.3869,"temp":29.5,"humidity":39,"rain":0.0,"pressure":981.5,"uv_index":5.75,"wind_gusts":33.5,"aqi":155,"pm10":488.0,"pm2_5":55.3,"mosquito_risk":4,"arthritis_risk":5,"migraine_risk":3,"frizz_risk":0,"updated_at":"2026-03-26T16:25:16.640015+05:30"},{"city":"Bhatinda","state":"Punjab","latitude":30.211,"longitude":74.9455,"temp":28.8,"humidity":46,"rain":0.0,"pressure":987.8,"uv_index":5.75,"wind_gusts":29.2,"aqi":92,"pm10":40.9,"pm2_5":20.6,"mosquito_risk":4,"arthritis_risk":5,"migraine_risk":3,"frizz_risk":0,"updated_at":"2026-03-26T16:25:16.640022+05:30"},{"city":"Rohtak","state":"Haryana","latitude":28.8955,"longitude":76.6066,"temp":31.3,"humidity":36,"rain":0.0,"pressure":984.1,"uv_index":6.0,"wind_gusts":20.9,"aqi":187,"pm10":236.6,"pm2_5":37.4,"mosquito_risk":0,"arthritis_risk":5,"migraine_risk":3,"frizz_risk":0,"updated_at":"2026-03-26T16:25:16.640030+05:30"},{"city":"Panipat","state":"Haryana","latitude":29.3909,"longitude":76.9635,"temp":31.7,"humidity":31,"rain":0.0,"pressure":982.6,"uv_index":5.9,"wind_gusts":23.4,"aqi":455,"pm10":441.4,"pm2_5":51.6,"mosquito_risk":0,"arthritis_risk":5,"migraine_risk":3,"frizz_risk":0,"updated_at":"2026-03-26T16:25:16.640037+05:30"},{"city":"Mathura","state":"Uttar Pradesh","latitude":27.4924,"longitude":77.6737,"temp":34.1,"humidity":27,"rain":0.0,"pressure":988.5,"uv_index":6.8,"wind_gusts":34.9,"aqi":173,"pm10":271.9,"pm2_5":41.8,"mosquito_risk":0,"arthritis_risk":5,"migraine_risk":7,"frizz_risk":0,"updated_at":"2026-03-26T16:25:16.640044+05:30"},{"city":"Vrindavan","state":"Uttar Pradesh","latitude":27.5823,"longitude":77.7027,"temp":33.5,"humidity":27,"rain":0.0,"pressure":988.9,"uv_index":6.8,"wind_gusts":33.1,"aqi":173,"pm10":271.9,"pm2_5":41.8,"mosquito_risk":0,"arthritis_risk":5,"migraine_risk":7,"frizz_risk":0,"updated_at":"2026-03-26T16:25:16.640052+05:30"},{"city":"Ayodhya","state":"Uttar Pradesh","latitude":26.7922,"longitude":82.1998,"temp":35.4,"humidity":21,"rain":0.0,"pressure":995.6,"uv_index":7.3,"wind_gusts":32.4,"aqi":121,"pm10":64.3,"pm2_5":24.2,"mosquito_risk":0,"arthritis_risk":5,"migraine_risk":10,"frizz_risk":0,"updated_at":"2026-03-26T16:25:16.640059+05:30"},{"city":"Ratlam","state":"Madhya Pradesh","latitude":23.3315,"longitude":75.0367,"temp":35.0,"humidity":25,"rain":0.0,"pressure":955.9,"uv_index":8.05,"wind_gusts":28.8,"aqi":48,"pm10":7.8,"pm2_5":4.0,"mosquito_risk":0,"arthritis_risk":5,"migraine_risk":7,"frizz_risk":0,"updated_at":"2026-03-26T16:25:16.640067+05:30"},{"city":"Sagar","state":"Madhya Pradesh","latitude":23.8388,"longitude":78.7378,"temp":36.1,"humidity":20,"rain":0.0,"pressure":951.0,"uv_index":8.05,"wind_gusts":24.8,"aqi":80,"pm10":26.1,"pm2_5":8.8,"mosquito_risk":0,"arthritis_risk":5,"migraine_risk":10,"frizz_risk":0,"updated_at":"2026-03-26T16:25:16.640074+05:30"},{"city":"Satna","state":"Madhya Pradesh","latitude":24.6005,"longitude":80.8322,"temp":36.1,"humidity":19,"rain":0.0,"pressure":972.4,"uv_index":8.05,"wind_gusts":26.6,"aqi":106,"pm10":64.0,"pm2_5":14.8,"mosquito_risk":0,"arthritis_risk":5,"migraine_risk":10,"frizz_risk":0,"updated_at":"2026-03-26T16:25:16.640081+05:30"},{"city":"Akola","state":"Maharashtra","latitude":20.7002,"longitude":77.0082,"temp":38.7,"humidity":19,"rain":0.0,"pressure":975.0,"uv_index":8.4,"wind_gusts":28.1,"aqi":97,"pm10":22.8,"pm2_5":15.7,"mosquito_risk":0,"arthritis_risk":5,"migraine_risk":10,"frizz_risk":0,"updated_at":"2026-03-26T16:25:16.640088+05:30"},{"city":"Amravati","state":"Maharashtra","latitude":20.9374,"longitude":77.7796,"temp":38.5,"humidity":19,"rain":0.0,"pressure":967.0,"uv_index":8.4,"wind_gusts":25.9,"aqi":100,"pm10":20.8,"pm2_5":14.0,"mosquito_risk":0,"arthritis_risk":5,"migraine_risk":10,"frizz_risk":0,"updated_at":"2026-03-26T16:25:16.640096+05:30"},{"city":"Latur","state":"Maharashtra","latitude":18.4088,"longitude":76.5604,"temp":36.2,"humidity":20,"rain":0.0,"pressure":940.0,"uv_index":8.75,"wind_gusts":22.0,"aqi":86,"pm10":22.5,"pm2_5":17.1,"mosquito_risk":0,"arthritis_risk":5,"migraine_risk":10,"frizz_risk":0,"updated_at":"2026-03-26T16:25:16.640104+05:30"},{"city":"Nanded","state":"Maharashtra","latitude":19.1383,"longitude":77.3091,"temp":39.2,"humidity":18,"rain":0.0,"pressure":968.1,"uv_index":8.6,"wind_gusts":25.2,"aqi":71,"pm10":19.0,"pm2_5":13.2,"mosquito_risk":0,"arthritis_risk":5,"migraine_risk":10,"frizz_risk":0,"updated_at":"2026-03-26T16:25:16.640111+05:30"},{"city":"Gulbarga","state":"Karnataka","latitude":17.3297,"longitude":76.8343,"temp":35.9,"humidity":28,"rain":0.0,"pressure":959.3,"uv_index":8.85,"wind_gusts":16.9,"aqi":118,"pm10":32.1,"pm2_5":25.1,"mosquito_risk":0,"arthritis_risk":5,"migraine_risk":10,"frizz_risk":0,"updated_at":"2026-03-26T16:25:16.640117+05:30"},{"city":"Bidar","state":"Karnataka","latitude":17.9104,"longitude":77.5199,"temp":34.0,"humidity":28,"rain":0.0,"pressure":936.5,"uv_index":8.85,"wind_gusts":20.5,"aqi":97,"pm10":24.3,"pm2_5":18.3,"mosquito_risk":0,"arthritis_risk":5,"migraine_risk":7,"frizz_risk":0,"updated_at":"2026-03-26T16:25:16.640124+05:30"},{"city":"Hospet","state":"Karnataka","latitude":15.2689,"longitude":76.3909,"temp":36.4,"humidity":24,"rain":0.0,"pressure":955.7,"uv_index":9.05,"wind_gusts":28.1,"aqi":97,"pm10":32.9,"pm2_5":26.3,"mosquito_risk":0,"arthritis_risk":5,"migraine_risk":10,"frizz_risk":0,"updated_at":"2026-03-26T16:25:16.640131+05:30"},{"city":"Tirupur","state":"Tamil Nadu","latitude":11.1085,"longitude":77.3411,"temp":36.5,"humidity":25,"rain":0.0,"pressure":974.2,"uv_index":9.4,"wind_gusts":32.4,"aqi":75,"pm10":34.8,"pm2_5":27.5,"mosquito_risk":0,"arthritis_risk":5,"migraine_risk":10,"frizz_risk":0,"updated_at":"2026-03-26T16:25:16.640138+05:30"},{"city":"Alappuzha","state":"Kerala","latitude":9.4981,"longitude":76.3388,"temp":29.6,"humidity":77,"rain":0.0,"pressure":1006.3,"uv_index":9.15,"wind_gusts":30.2,"aqi":89,"pm10":29.0,"pm2_5":22.9,"mosquito_risk":7,"arthritis_risk":5,"migraine_risk":4,"frizz_risk":1,"updated_at":"2026-03-26T16:25:16.640146+05:30"},{"city":"Munnar","state":"Kerala","latitude":10.0889,"longitude":77.0595,"temp":32.0,"humidity":33,"rain":0.0,"pressure":858.8,"uv_index":9.7,"wind_gusts":28.8,"aqi":76,"pm10":24.6,"pm2_5":16.3,"mosquito_risk":0,"arthritis_risk":5,"migraine_risk":7,"frizz_risk":0,"updated_at":"2026-03-26T16:25:16.640154+05:30"},{"city":"Silchar","state":"Assam","latitude":24.8333,"longitude":92.7789,"temp":30.6,"humidity":48,"rain":0.0,"pressure":1005.3,"uv_index":8.25,"wind_gusts":16.6,"aqi":156,"pm10":55.5,"pm2_5":37.6,"mosquito_risk":0,"arthritis_risk":5,"migraine_risk":4,"frizz_risk":1,"updated_at":"2026-03-26T16:25:16.640161+05:30"},{"city":"Dibrugarh","state":"Assam","latitude":27.4728,"longitude":94.912,"temp":26.9,"humidity":56,"rain":0.0,"pressure":997.2,"uv_index":8.05,"wind_gusts":8.6,"aqi":97,"pm10":41.8,"pm2_5":27.6,"mosquito_risk":4,"arthritis_risk":5,"migraine_risk":7,"frizz_risk":1,"updated_at":"2026-03-26T16:25:16.640169+05:30"}]