[{"city":"Delhi","state":"Delhi","latitude":28.6139,"longitude":77.209,"temp":30.1,"humidity":35,"rain":0.0,"pressure":982.0,"uv_index":5.95,"wind_gusts":30.2,"aqi":217,"pm10":407.0,"pm2_5":81.0,"mosquito_risk":0,"arthritis_risk":5,"migraine_risk":3,"frizz_risk":0,"updated_at":"2026-03-12T18:37:39.220002+05:30"},{"city":"Mumbai","state":"Maharashtra","latitude":19.076,"longitude":72.8777,"temp":28.6,"humidity":73,"rain":0.0,"pressure":1006.2,"uv_index":7.6,"wind_gusts":27.7,"aqi":259,"pm10":55.2,"pm2_5":52.0,"mosquito_risk":7,"arthritis_risk":5,"migraine_risk":4,"frizz_risk":1,"updated_at":"2026-03-12T18:37:39.220039+05:30"},{"city":"Bangalore","state":"Karnataka","latitude":12.9716,"longitude":77.5946,"temp":29.4,"humidity":26,"rain":0.0,"pressure":911.4,"uv_index":9.3,"wind_gusts":32.8,"aqi":79,"pm10":25.0,"pm2_5":21.8,"mosquito_risk":4,"arthritis_risk":5,"migraine_risk":7,"frizz_risk":0,"updated_at":"2026-03-12T18:37:39.220055+05:30"},{"city":"Hyderabad","state":"Telangana","latitude":17.385,"longitude":78.4867,"temp":31.8,"humidity":30,"rain":0.0,"pressure":952.8,"uv_index":8.65,"wind_gusts":23.4,"aqi":167,"pm10":35.6,"pm2_5":28.2,"mosquito_risk":0,"arthritis_risk":5,"migraine_risk":7,"frizz_risk":0,"updated_at":"2026-03-12T18:37:39.220065+05:30"},{"city":"Chennai","state":"Tamil Nadu","latitude":13.0827,"longitude":80.2707,"temp":28.4,"humidity":72,"rain":0.0,"pressure":1007.1,"uv_index":9.0,"wind_gusts":29.5,"aqi":77,"pm10":24.8,"pm2_5":20.9,"mosquito_risk":7,"arthritis_risk":5,"migraine_risk":4,"frizz_risk":1,"updated_at":"2026-03-12T18:37:39.220075+05:30"},{"city":"Kolkata","state":"West Bengal","latitude":22.5726,"longitude":88.3639,"temp":26.0,"humidity":80,"rain":0.0,"pressure":1006.6,"uv_index":7.95,"wind_gusts":20.9,"aqi":144,"pm10":52.3,"pm2_5":47.3,"mosquito_risk":7,"arthritis_risk":5,"migraine_risk":4,"frizz_risk":1,"updated_at":"2026-03-12T18:37:39.220084+05:30"},{"city":"Pune","state":"Maharashtra","latitude":18.5204,"longitude":73.8567,"temp":35.7,"humidity":22,"rain":0.0,"pressure":947.0,"uv_index":8.15,"wind_gusts":25.9,"aqi":150,"pm10":22.3,"pm2_5":19.4,"mosquito_risk":0,"arthritis_risk":5,"migraine_risk":10,"frizz_risk":0,"updated_at":"2026-03-12T18:37:39.220096+05:30"},{"city":"Ahmedabad","state":"Gujarat","latitude":23.0225,"longitude":72.5714,"temp":35.1,"humidity":13,"rain":0.0,"pressure":1001.1,"uv_index":7.45,"wind_gusts":30.6,"aqi":104,"pm10":26.9,"pm2_5":17.6,"mosquito_risk":0,"arthritis_risk":5,"migraine_risk":7,"frizz_risk":0,"updated_at":"2026-03-12T18:37:39.220104+05:30"},{"city":"Jaipur","state":"Rajasthan","latitude":26.9124,"longitude":75.7873,"temp":31.3,"humidity":13,"rain":0.0,"pressure":959.3,"uv_index":6.4,"wind_gusts":42.8,"aqi":105,"pm10":119.0,"pm2_5":26.2,"mosquito_risk":0,"arthritis_risk":5,"migraine_risk":7,"frizz_risk":1,"updated_at":"2026-03-12T18:37:39.220113+05:30"},{"city":"Lucknow","state":"Uttar Pradesh","latitude":26.8467,"longitude":80.9462,"temp":30.4,"humidity":43,"rain":0.0,"pressure":992.5,"uv_index":6.5,"wind_gusts":28.1,"aqi":154,"pm10":211.4,"pm2_5":55.9,"mosquito_risk":0,"arthritis_risk":5,"migraine_risk":7,"frizz_risk":1,"updated_at":"2026-03-12T18:37:39.220122+05:30"},{"city":"Kanpur","state":"Uttar Pradesh","latitude":26.4499,"longitude":80.3319,"temp":30.0,"humidity":55,"rain":0.0,"pressure":990.7,"uv_index":6.0,"wind_gusts":18.0,"aqi":195,"pm10":330.6,"pm2_5":59.4,"mosquito_risk":4,"arthritis_risk":5,"migraine_risk":3,"frizz_risk":1,"updated_at":"2026-03-12T18:37:39.220129+05:30"},{"city":"Chandigarh","state":"Chandigarh","latitude":30.7333,"longitude":76.7794,"temp":25.4,"humidity":64,"rain":0.0,"pressure":968.6,"uv_index":5.95,"wind_gusts":32.0,"aqi":99,"pm10":56.7,"pm2_5":35.7,"mosquito_risk":7,"arthritis_risk":5,"migraine_risk":3,"frizz_risk":1,"updated_at":"2026-03-12T18:37:39.220137+05:30"},{"city":"Srinagar","state":"Jammu and Kashmir","latitude":34.0837,"longitude":74.7973,"temp":11.4,"humidity":81,"rain":0.0,"pressure":840.2,"uv_index":6.35,"wind_gusts":22.3,"aqi":101,"pm10":19.1,"pm2_5":16.8,"mosquito_risk":3,"arthritis_risk":10,"migraine_risk":7,"frizz_risk":0,"updated_at":"2026-03-12T18:37:39.220144+05:30"},{"city":"Jammu","state":"Jammu and Kashmir","latitude":32.7266,"longitude":74.857,"temp":23.5,"humidity":75,"rain":0.0,"pressure":973.9,"uv_index":6.05,"wind_gusts":39.6,"aqi":80,"pm10":65.7,"pm2_5":32.1,"mosquito_risk":3,"arthritis_risk":5,"migraine_risk":7,"frizz_risk":1,"updated_at":"2026-03-12T18:37:39.220151+05:30"},{"city":"Amritsar","state":"Punjab","latitude":31.634,"longitude":74.8723,"temp":24.6,"humidity":70,"rain":0.0,"pressure":981.7,"uv_index":6.65,"wind_gusts":32.4,"aqi":155,"pm10":56.5,"pm2_5":31.1,"mosquito_risk":3,"arthritis_risk":5,"migraine_risk":7,"frizz_risk":1,"updated_at":"2026-03-12T18:37:39.220158+05:30"},{"city":"Ludhiana","state":"Punjab","latitude":30.901,"longitude":75.8573,"temp":26.6,"humidity":61,"rain":0.0,"pressure":978.9,"uv_index":6.2,"wind_gusts":59.4,"aqi":156,"pm10":64.3,"pm2_5":45.5,"mosquito_risk":7,"arthritis_risk":5,"migraine_risk":7,"frizz_risk":1,"updated_at":"2026-03-12T18:37:39.220165+05:30"},{"city":"Jalandhar","state":"Punjab","latitude":31.326,"longitude":75.5762,"temp":25.7,"humidity":57,"rain":0.0,"pressure":980.3,"uv_index":6.4,"wind_gusts":31.7,"aqi":150,"pm10":92.4,"pm2_5":36.1,"mosquito_risk":4,"arthritis_risk":5,"migraine_risk":7,"frizz_risk":1,"updated_at":"2026-03-12T18:37:39.220173+05:30"},{"city":"Dehradun","state":"Uttarakhand","latitude":30.6284,"longitude":78.0322,"temp":17.0,"humidity":54,"rain":0.0,"pressure":831.0,"uv_index":5.85,"wind_gusts":37.1,"aqi":62,"pm10":37.8,"pm2_5":14.0,"mosquito_risk":0,"arthritis_risk":5,"migraine_risk":3,"frizz_risk":0,"updated_at":"2026-03-12T18:37:39.220180+05:30"},{"city":"Shimla","state":"Himachal Pradesh","latitude":31.1048,"longitude":77.1734,"temp":15.6,"humidity":57,"rain":0.0,"pressure":785.0,"uv_index":6.5,"wind_gusts":42.5,"aqi":71,"pm10":52.2,"pm2_5":19.5,"mosquito_risk":0,"arthritis_risk":5,"migraine_risk":7,"frizz_risk":0,"updated_at":"2026-03-12T18:37:39.220187+05:30"},{"city":"Manali","state":"Himachal Pradesh","latitude":32.2396,"longitude":77.1887,"temp":13.8,"humidity":73,"rain":0.0,"pressure":819.9,"uv_index":3.7,"wind_gusts":44.6,"aqi":48,"pm10":15.5,"pm2_5":5.7,"mosquito_risk":3,"arthritis_risk":5,"migraine_risk":3,"frizz_risk":0,"updated_at":"2026-03-12T18:37:39.220193+05:30"},{"city":"Gurgaon","state":"Haryana","latitude":28.4595,"longitude":77.0266,"temp":28.0,"humidity":42,"rain":0.0,"pressure":980.4,"uv_index":6.15,"wind_gusts":31.0,"aqi":823,"pm10":730.2,"pm2_5":103.6,"mosquito_risk":4,"arthritis_risk":5,"migraine_risk":7,"frizz_risk":0,"updated_at":"2026-03-12T18:37:39.220201+05:30"},{"city":"Noida","state":"Uttar Pradesh","latitude":28.5355,"longitude":77.391,"temp":30.1,"humidity":34,"rain":0.0,"pressure":983.4,"uv_index":6.0,"wind_gusts":29.9,"aqi":823,"pm10":730.2,"pm2_5":103.6,"mosquito_risk":0,"arthritis_risk":5,"migraine_risk":3,"frizz_risk":0,"updated_at":"2026-03-12T18:37:39.220208+05:30"},{"city":"Ghaziabad","state":"Uttar Pradesh","latitude":28.6692,"longitude":77.4538,"temp":28.8,"humidity":43,"rain":0.0,"pressure":981.7,"uv_index":5.95,"wind_gusts":26.3,"aqi":169,"pm10":312.0,"pm2_5":72.2,"mosquito_risk":4,"arthritis_risk":5,"migraine_risk":3,"frizz_risk":0,"updated_at":"2026-03-12T18:37:39.220215+05:30"},{"city":"Faridabad","state":"Haryana","latitude":28.4089,"longitude":77.3178,"temp":28.5,"humidity":35,"rain":0.0,"pressure":982.5,"uv_index":6.2,"wind_gusts":29.9,"aqi":823,"pm10":730.2,"pm2_5":103.6,"mosquito_risk":4,"arthritis_risk":5,"migraine_risk":7,"frizz_risk":0,"updated_at":"2026-03-12T18:37:39.220222+05:30"},{"city":"Meerut","state":"Uttar Pradesh","latitude":28.9845,"longitude":77.7064,"temp":27.6,"humidity":50,"rain":0.0,"pressure":980.5,"uv_index":5.95,"wind_gusts":24.5,"aqi":169,"pm10":312.0,"pm2_5":72.2,"mosquito_risk":4,"arthritis_risk":5,"migraine_risk":3,"frizz_risk":1,"updated_at":"2026-03-12T18:37:39.220230+05:30"},{"city":"Agra","state":"Uttar Pradesh","latitude":27.1767,"longitude":78.0081,"temp":29.5,"humidity":25,"rain":0.0,"pressure":986.1,"uv_index":6.2,"wind_gusts":31.7,"aqi":410,"pm10":353.0,"pm2_5":59.8,"mosquito_risk":4,"arthritis_risk":5,"migraine_risk":7,"frizz_risk":0,"updated_at":"2026-03-12T18:37:39.220236+05:30"},{"city":"Varanasi","state":"Uttar Pradesh","latitude":25.3176,"longitude":82.9739,"temp":28.8,"humidity":53,"rain":0.0,"pressure":996.6,"uv_index":7.3,"wind_gusts":23.8,"aqi":130,"pm10":60.1,"pm2_5":32.2,"mosquito_risk":4,"arthritis_risk":5,"migraine_risk":7,"frizz_risk":1,"updated_at":"2026-03-12T18:37:39.220246+05:30"},{"city":"Prayagraj","state":"Uttar Pradesh","latitude":25.4358,"longitude":81.8463,"temp":29.9,"humidity":45,"rain":0.0,"pressure":995.1,"uv_index":6.6,"wind_gusts":23.0,"aqi":135,"pm10":53.3,"pm2_5":27.0,"mosquito_risk":4,"arthritis_risk":5,"migraine_risk":7,"frizz_risk":1,"updated_at":"2026-03-12T18:37:39.220254+05:30"},{"city":"Gorakhpur","state":"Uttar Pradesh","latitude":26.7606,"longitude":83.3732,"temp":28.0,"humidity":59,"rain":0.0,"pressure":996.0,"uv_index":7.05,"wind_gusts":18.4,"aqi":217,"pm10":102.9,"pm2_5":61.9,"mosquito_risk":4,"arthritis_risk":5,"migraine_risk":7,"frizz_risk":1,"updated_at":"2026-03-12T18:37:39.220261+05:30"},{"city":"Bareilly","state":"Uttar Pradesh","latitude":28.367,"longitude":79.4304,"temp":27.8,"humidity":51,"rain":0.0,"pressure":985.4,"uv_index":6.25,"wind_gusts":23.4,"aqi":138,"pm10":197.4,"pm2_5":60.5,"mosquito_risk":4,"arthritis_risk":5,"migraine_risk":7,"frizz_risk":1,"updated_at":"2026-03-12T18:37:39.220270+05:30"},{"city":"Aligarh","state":"Uttar Pradesh","latitude":27.8974,"longitude":78.088,"temp":28.6,"humidity":31,"rain":0.0,"pressure":983.9,"uv_index":5.9,"wind_gusts":29.9,"aqi":489,"pm10":597.9,"pm2_5":92.0,"mosquito_risk":4,"arthritis_risk":5,"migraine_risk":3,"frizz_risk":0,"updated_at":"2026-03-12T18:37:39.220277+05:30"},{"city":"Moradabad","state":"Uttar Pradesh","latitude":28.8386,"longitude":78.7733,"temp":27.6,"humidity":48,"rain":0.0,"pressure":982.5,"uv_index":6.05,"wind_gusts":26.3,"aqi":143,"pm10":215.6,"pm2_5":69.6,"mosquito_risk":4,"arthritis_risk":5,"migraine_risk":7,"frizz_risk":0,"updated_at":"2026-03-12T18:37:39.220284+05:30"},{"city":"Saharanpur","state":"Uttar Pradesh","latitude":29.9637,"longitude":77.546,"temp":26.4,"humidity":61,"rain":0.0,"pressure":975.2,"uv_index":5.25,"wind_gusts":24.8,"aqi":146,"pm10":109.9,"pm2_5":52.3,"mosquito_risk":7,"arthritis_risk":5,"migraine_risk":3,"frizz_risk":1,"updated_at":"2026-03-12T18:37:39.220290+05:30"},{"city":"Jhansi","state":"Uttar Pradesh","latitude":25.4484,"longitude":78.5685,"temp":32.9,"humidity":22,"rain":0.0,"pressure":977.0,"uv_index":6.7,"wind_gusts":29.9,"aqi":109,"pm10":20.8,"pm2_5":14.3,"mosquito_risk":0,"arthritis_risk":5,"migraine_risk":7,"frizz_risk":0,"updated_at":"2026-03-12T18:37:42.528061+05:30"},{"city":"Surat","state":"Gujarat","latitude":21.1702,"longitude":72.8311,"temp":33.3,"humidity":32,"rain":0.0,"pressure":1005.0,"uv_index":7.3,"wind_gusts":26.3,"aqi":147,"pm10":57.9,"pm2_5":56.6,"mosquito_risk":0,"arthritis_risk":5,"migraine_risk":4,"frizz_risk":0,"updated_at":"2026-03-12T18:37:42.528087+05:30"},{"city":"Vadodara","state":"Gujarat","latitude":22.3072,"longitude":73.1812,"temp":36.2,"humidity":20,"rain":0.0,"pressure":1002.7,"uv_index":7.45,"wind_gusts":26.6,"aqi":162,"pm10":33.8,"pm2_5":31.9,"mosquito_risk":0,"arthritis_risk":5,"migraine_risk":7,"frizz_risk":0,"updated_at":"2026-03-12T18:37:42.528096+05:30"},{"city":"Rajkot","state":"Gujarat","latitude":22.3039,"longitude":70.8022,"temp":35.0,"humidity":14,"rain":0.0,"pressure":993.7,"uv_index":7.3,"wind_gusts":31.3,"aqi":98,"pm10":22.9,"pm2_5":16.2,"mosquito_risk":0,"arthritis_risk":5,"migraine_risk":7,"frizz_risk":0,"updated_at":"2026-03-12T18:37:42.528104+05:30"},{"city":"Thane","state":"Maharashtra","latitude":19.2183,"longitude":72.9781,"temp":29.6,"humidity":60,"rain":0.0,"pressure":1005.8,"uv_index":7.6,"wind_gusts":41.4,"aqi":259,"pm10":55.2,"pm2_5":52.0,"mosquito_risk":4,"arthritis_risk":5,"migraine_risk":4,"frizz_risk":1,"updated_at":"2026-03-12T18:37:42.528111+05:30"},{"city":"Nagpur","state":"Maharashtra","latitude":21.1458,"longitude":79.0882,"temp":32.4,"humidity":27,"rain":0.0,"pressure":971.7,"uv_index":8.0,"wind_gusts":16.6,"aqi":155,"pm10":32.7,"pm2_5":22.8,"mosquito_risk":0,"arthritis_risk":5,"migraine_risk":7,"frizz_risk":0,"updated_at":"2026-03-12T18:37:42.528117+05:30"},{"city":"Nashik","state":"Maharashtra","latitude":19.9975,"longitude":73.7898,"temp":32.6,"humidity":21,"rain":0.0,"pressure":944.9,"uv_index":7.8,"wind_gusts":33.8,"aqi":143,"pm10":16.8,"pm2_5":15.1,"mosquito_risk":0,"arthritis_risk":5,"migraine_risk":7,"frizz_risk":0,"updated_at":"2026-03-12T18:37:42.528124+05:30"},{"city":"Aurangabad","state":"Maharashtra","latitude":19.8762,"longitude":75.3433,"temp":33.3,"humidity":21,"rain":0.0,"pressure":943.3,"uv_index":8.3,"wind_gusts":20.5,"aqi":132,"pm10":12.5,"pm2_5":11.1,"mosquito_risk":0,"arthritis_risk":5,"migraine_risk":7,"frizz_risk":0,"updated_at":"2026-03-12T18:37:42.528130+05:30"},{"city":"Solapur","state":"Maharashtra","latitude":17.6599,"longitude":75.9064,"temp":31.6,"humidity":39,"rain":0.0,"pressure":956.2,"uv_index":8.5,"wind_gusts":18.0,"aqi":156,"pm10":29.3,"pm2_5":24.7,"mosquito_risk":0,"arthritis_risk":5,"migraine_risk":7,"frizz_risk":0,"updated_at":"2026-03-12T18:37:42.528137+05:30"},{"city":"Kolhapur","state":"Maharashtra","latitude":16.705,"longitude":74.2433,"temp":32.5,"humidity":26,"rain":0.0,"pressure":946.8,"uv_index":8.65,"wind_gusts":27.7,"aqi":151,"pm10":42.4,"pm2_5":38.5,"mosquito_risk":0,"arthritis_risk":5,"migraine_risk":7,"frizz_risk":0,"updated_at":"2026-03-12T18:37:42.528143+05:30"},{"city":"Goa","state":"Goa","latitude":15.2993,"longitude":74.124,"temp":28.9,"humidity":78,"rain":0.0,"pressure":996.0,"uv_index":8.7,"wind_gusts":33.5,"aqi":145,"pm10":49.2,"pm2_5":42.8,"mosquito_risk":7,"arthritis_risk":5,"migraine_risk":7,"frizz_risk":1,"updated_at":"2026-03-12T18:37:42.528149+05:30"},{"city":"Jodhpur","state":"Rajasthan","latitude":26.2389,"longitude":73.0243,"temp":33.7,"humidity":21,"rain":0.0,"pressure":982.1,"uv_index":6.55,"wind_gusts":25.9,"aqi":90,"pm10":96.2,"pm2_5":23.6,"mosquito_risk":0,"arthritis_risk":5,"migraine_risk":7,"frizz_risk":0,"updated_at":"2026-03-12T18:37:42.528156+05:30"},{"city":"Udaipur","state":"Rajasthan","latitude":24.5854,"longitude":73.7125,"temp":30.5,"humidity":13,"rain":0.0,"pressure":946.7,"uv_index":7.55,"wind_gusts":38.5,"aqi":111,"pm10":7.2,"pm2_5":6.0,"mosquito_risk":0,"arthritis_risk":5,"migraine_risk":7,"frizz_risk":1,"updated_at":"2026-03-12T18:37:42.528163+05:30"},{"city":"Kota","state":"Rajasthan","latitude":25.2138,"longitude":75.8648,"temp":32.1,"humidity":20,"rain":0.0,"pressure":977.8,"uv_index":6.75,"wind_gusts":34.2,"aqi":111,"pm10":14.2,"pm2_5":13.7,"mosquito_risk":0,"arthritis_risk":5,"migraine_risk":7,"frizz_risk":0,"updated_at":"2026-03-12T18:37:42.528170+05:30"},{"city":"Bikaner","state":"Rajasthan","latitude":28.0229,"longitude":73.3119,"temp":32.4,"humidity":25,"rain":0.0,"pressure":981.7,"uv_index":6.15,"wind_gusts":28.4,"aqi":98,"pm10":72.6,"pm2_5":29.2,"mosquito_risk":0,"arthritis_risk":5,"migraine_risk":7,"frizz_risk":0,"updated_at":"2026-03-12T18:37:42.528177+05:30"},{"city":"Ajmer","state":"Rajasthan","latitude":26.4499,"longitude":74.6399,"temp":31.0,"humidity":21,"rain":0.0,"pressure":954.3,"uv_index":6.75,"wind_gusts":34.2,"aqi":98,"pm10":33.2,"pm2_5":14.6,"mosquito_risk":0,"arthritis_risk":5,"migraine_risk":7,"frizz_risk":0,"updated_at":"2026-03-12T18:37:42.528184+05:30"},{"city":"Gwalior","state":"Madhya Pradesh","latitude":26.2183,"longitude":78.1828,"temp":30.7,"humidity":23,"rain":0.0,"pressure":982.4,"uv_index":6.3,"wind_gusts":33.8,"aqi":102,"pm10":12.8,"pm2_5":12.0,"mosquito_risk":0,"arthritis_risk":5,"migraine_risk":7,"frizz_risk":0,"updated_at":"2026-03-12T18:37:42.528190+05:30"},{"city":"Indore","state":"Madhya Pradesh","latitude":22.7196,"longitude":75.8577,"temp":30.0,"humidity":21,"rain":0.0,"pressure":947.7,"uv_index":7.75,"wind_gusts":29.2,"aqi":129,"pm10":14.9,"pm2_5":14.2,"mosquito_risk":4,"arthritis_risk":5,"migraine_risk":7,"frizz_risk":0,"updated_at":"2026-03-12T18:37:42.528196+05:30"},{"city":"Bhopal","state":"Madhya Pradesh","latitude":23.2599,"longitude":77.4126,"temp":29.7,"humidity":28,"rain":0.0,"pressure":953.4,"uv_index":7.6,"wind_gusts":28.8,"aqi":128,"pm10":18.9,"pm2_5":14.1,"mosquito_risk":4,"arthritis_risk":5,"migraine_risk":7,"frizz_risk":0,"updated_at":"2026-03-12T18:37:42.528203+05:30"},{"city":"Jabalpur","state":"Madhya Pradesh","latitude":23.1815,"longitude":79.9864,"temp":32.5,"humidity":27,"rain":0.0,"pressure":960.9,"uv_index":7.75,"wind_gusts":20.5,"aqi":122,"pm10":31.5,"pm2_5":16.8,"mosquito_risk":0,"arthritis_risk":5,"migraine_risk":7,"frizz_risk":0,"updated_at":"2026-03-12T18:37:42.528209+05:30"},{"city":"Ujjain","state":"Madhya Pradesh","latitude":23.1765,"longitude":75.7885,"temp":29.1,"humidity":27,"rain":0.0,"pressure":953.3,"uv_index":7.65,"wind_gusts":27.7,"aqi":109,"pm10":17.8,"pm2_5":17.1,"mosquito_risk":4,"arthritis_risk":5,"migraine_risk":7,"frizz_risk":0,"updated_at":"2026-03-12T18:37:42.528216+05:30"},{"city":"Visakhapatnam","state":"Andhra Pradesh","latitude":17.6868,"longitude":83.2185,"temp":27.3,"humidity":78,"rain":0.0,"pressure":1003.2,"uv_index":8.65,"wind_gusts":40.3,"aqi":91,"pm10":33.6,"pm2_5":29.3,"mosquito_risk":7,"arthritis_risk":5,"migraine_risk":4,"frizz_risk":1,"updated_at":"2026-03-12T18:37:42.528222+05:30"},{"city":"Vijayawada","state":"Andhra Pradesh","latitude":16.5062,"longitude":80.648,"temp":32.0,"humidity":50,"rain":0.0,"pressure":1001.4,"uv_index":8.7,"wind_gusts":33.1,"aqi":106,"pm10":38.4,"pm2_5":34.1,"mosquito_risk":0,"arthritis_risk":5,"migraine_risk":4,"frizz_risk":1,"updated_at":"2026-03-12T18:37:42.528229+05:30"},{"city":"Guntur","state":"Andhra Pradesh","latitude":16.3067,"longitude":80.4365,"temp":30.1,"humidity":55,"rain":0.0,"pressure":1002.9,"uv_index":8.7,"wind_gusts":36.0,"aqi":112,"pm10":40.0,"pm2_5":34.2,"mosquito_risk":0,"arthritis_risk":5,"migraine_risk":4,"frizz_risk":1,"updated_at":"2026-03-12T18:37:42.528236+05:30"},{"city":"Nellore","state":"Andhra Pradesh","latitude":14.4426,"longitude":79.9865,"temp":29.1,"humidity":63,"rain":0.0,"pressure":1005.6,"uv_index":8.9,"wind_gusts":28.1,"aqi":80,"pm10":22.9,"pm2_5":19.8,"mosquito_risk":7,"arthritis_risk":5,"migraine_risk":4,"frizz_risk":1,"updated_at":"2026-03-12T18:37:42.528243+05:30"},{"city":"Kurnool","state":"Andhra Pradesh","latitude":15.8281,"longitude":78.0373,"temp":35.1,"humidity":22,"rain":0.0,"pressure":975.5,"uv_index":8.65,"wind_gusts":25.9,"aqi":123,"pm10":30.6,"pm2_5":25.0,"mosquito_risk":0,"arthritis_risk":5,"migraine_risk":10,"frizz_risk":0,"updated_at":"2026-03-12T18:37:42.528249+05:30"},{"city":"Kakinada","state":"Andhra Pradesh","latitude":16.9891,"longitude":82.2475,"temp":28.2,"humidity":73,"rain":0.0,"pressure":1006.7,"uv_index":8.65,"wind_gusts":41.0,"aqi":70,"pm10":26.1,"pm2_5":21.8,"mosquito_risk":7,"arthritis_risk":5,"migraine_risk":4,"frizz_risk":1,"updated_at":"2026-03-12T18:37:42.528256+05:30"},{"city":"Tirupati","state":"Andhra Pradesh","latitude":13.6288,"longitude":79.4192,"temp":30.8,"humidity":39,"rain":0.0,"pressure":991.1,"uv_index":9.05,"wind_gusts":36.4,"aqi":97,"pm10":36.4,"pm2_5":32.9,"mosquito_risk":0,"arthritis_risk":5,"migraine_risk":7,"frizz_risk":0,"updated_at":"2026-03-12T18:37:42.528263+05:30"},{"city":"Warangal","state":"Telangana","latitude":17.9689,"longitude":79.5941,"temp":32.6,"humidity":39,"rain":0.0,"pressure":977.7,"uv_index":8.45,"wind_gusts":11.9,"aqi":161,"pm10":44.0,"pm2_5":35.6,"mosquito_risk":0,"arthritis_risk":5,"migraine_risk":7,"frizz_risk":1,"updated_at":"2026-03-12T18:37:42.528269+05:30"},{"city":"Nizamabad","state":"Telangana","latitude":18.6725,"longitude":78.0941,"temp":32.1,"humidity":37,"rain":0.0,"pressure":963.9,"uv_index":8.35,"wind_gusts":19.8,"aqi":148,"pm10":42.6,"pm2_5":35.3,"mosquito_risk":0,"arthritis_risk":5,"migraine_risk":7,"frizz_risk":0,"updated_at":"2026-03-12T18:37:42.528275+05:30"},{"city":"Mysore","state":"Karnataka","latitude":12.2958,"longitude":76.6396,"temp":29.8,"humidity":34,"rain":0.0,"pressure":927.6,"uv_index":9.3,"wind_gusts":34.9,"aqi":92,"pm10":21.3,"pm2_5":18.6,"mosquito_risk":4,"arthritis_risk":5,"migraine_risk":7,"frizz_risk":0,"updated_at":"2026-03-12T18:37:42.528282+05:30"},{"city":"Mangalore","state":"Karnataka","latitude":12.9141,"longitude":74.856,"temp":29.1,"humidity":83,"rain":0.0,"pressure":1004.7,"uv_index":8.9,"wind_gusts":32.8,"aqi":114,"pm10":43.2,"pm2_5":38.1,"mosquito_risk":7,"arthritis_risk":5,"migraine_risk":4,"frizz_risk":1,"updated_at":"2026-03-12T18:37:42.528288+05:30"},{"city":"Hubli-Dharwad","state":"Karnataka","latitude":15.3647,"longitude":75.124,"temp":32.5,"humidity":17,"rain":0.0,"pressure":939.8,"uv_index":8.85,"wind_gusts":35.6,"aqi":140,"pm10":19.6,"pm2_5":17.1,"mosquito_risk":0,"arthritis_risk":5,"migraine_risk":7,"frizz_risk":0,"updated_at":"2026-03-12T18:37:42.528294+05:30"},{"city":"Belgaum","state":"Karnataka","latitude":15.8497,"longitude":74.4977,"temp":32.5,"humidity":21,"rain":0.0,"pressure":925.0,"uv_index":8.9,"wind_gusts":37.4,"aqi":155,"pm10":27.5,"pm2_5":24.7,"mosquito_risk":0,"arthritis_risk":5,"migraine_risk":7,"frizz_risk":0,"updated_at":"2026-03-12T18:37:45.834085+05:30"},{"city":"Coimbatore","state":"Tamil Nadu","latitude":11.0168,"longitude":76.9558,"temp":31.1,"humidity":28,"rain":0.0,"pressure":960.3,"uv_index":9.3,"wind_gusts":44.3,"aqi":76,"pm10":20.2,"pm2_5":19.1,"mosquito_risk":0,"arthritis_risk":5,"migraine_risk":7,"frizz_risk":0,"updated_at":"2026-03-12T18:37:45.834128+05:30"},{"city":"Madurai","state":"Tamil Nadu","latitude":9.9252,"longitude":78.1198,"temp":32.0,"humidity":46,"rain":0.0,"pressure":991.5,"uv_index":9.2,"wind_gusts":32.0,"aqi":71,"pm10":18.5,"pm2_5":17.3,"mosquito_risk":0,"arthritis_risk":5,"migraine_risk":7,"frizz_risk":1,"updated_at":"2026-03-12T18:37:45.834141+05:30"},{"city":"Trichy","state":"Tamil Nadu","latitude":10.7905,"longitude":78.7047,"temp":31.4,"humidity":51,"rain":0.0,"pressure":998.5,"uv_index":9.15,"wind_gusts":28.1,"aqi":80,"pm10":22.3,"pm2_5":21.3,"mosquito_risk":0,"arthritis_risk":5,"migraine_risk":7,"frizz_risk":1,"updated_at":"2026-03-12T18:37:45.834150+05:30"},{"city":"Salem","state":"Tamil Nadu","latitude":11.6643,"longitude":78.146,"temp":31.6,"humidity":40,"rain":0.0,"pressure":975.9,"uv_index":9.2,"wind_gusts":27.7,"aqi":77,"pm10":17.6,"pm2_5":16.0,"mosquito_risk":0,"arthritis_risk":5,"migraine_risk":7,"frizz_risk":1,"updated_at":"2026-03-12T18:37:45.834160+05:30"},{"city":"Tirunelveli","state":"Tamil Nadu","latitude":8.7139,"longitude":77.7567,"temp":31.7,"humidity":51,"rain":0.0,"pressure":1001.7,"uv_index":8.45,"wind_gusts":27.4,"aqi":63,"pm10":14.7,"pm2_5":13.2,"mosquito_risk":0,"arthritis_risk":5,"migraine_risk":4,"frizz_risk":1,"updated_at":"2026-03-12T18:37:45.834168+05:30"},{"city":"Vellore","state":"Tamil Nadu","latitude":12.9165,"longitude":79.1325,"temp":30.5,"humidity":42,"rain":0.0,"pressure":983.9,"uv_index":9.1,"wind_gusts":36.4,"aqi":91,"pm10":22.6,"pm2_5":20.7,"mosquito_risk":0,"arthritis_risk":5,"migraine_risk":7,"frizz_risk":1,"updated_at":"2026-03-12T18:37:45.834177+05:30"},{"city":"Erode","state":"Tamil Nadu","latitude":11.341,"longitude":77.7172,"temp":33.6,"humidity":35,"rain":0.0,"pressure":987.2,"uv_index":9.15,"wind_gusts":24.5,"aqi":76,"pm10":20.8,"pm2_5":19.6,"mosquito_risk":0,"arthritis_risk":5,"migraine_risk":7,"frizz_risk":1,"updated_at":"2026-03-12T18:37:45.834185+05:30"},{"city":"Kochi","state":"Kerala","latitude":9.9312,"longitude":76.2673,"temp":29.0,"humidity":79,"rain":0.0,"pressure":1006.7,"uv_index":9.05,"wind_gusts":35.6,"aqi":150,"pm10":31.4,"pm2_5":29.5,"mosquito_risk":7,"arthritis_risk":5,"migraine_risk":4,"frizz_risk":1,"updated_at":"2026-03-12T18:37:45.834192+05:30"},{"city":"Thiruvananthapuram","state":"Kerala","latitude":8.5241,"longitude":76.9366,"temp":28.0,"humidity":80,"rain":0.0,"pressure":1006.9,"uv_index":7.9,"wind_gusts":25.9,"aqi":129,"pm10":20.4,"pm2_5":17.9,"mosquito_risk":7,"arthritis_risk":5,"migraine_risk":4,"frizz_risk":1,"updated_at":"2026-03-12T18:37:45.834199+05:30"},{"city":"Kozhikode","state":"Kerala","latitude":11.2588,"longitude":75.7804,"temp":29.5,"humidity":79,"rain":0.0,"pressure":1005.8,"uv_index":9.0,"wind_gusts":31.7,"aqi":112,"pm10":33.8,"pm2_5":29.2,"mosquito_risk":7,"arthritis_risk":5,"migraine_risk":4,"frizz_risk":1,"updated_at":"2026-03-12T18:37:45.834205+05:30"},{"city":"Thrissur","state":"Kerala","latitude":10.5276,"longitude":76.2144,"temp":29.5,"humidity":76,"rain":0.0,"pressure":1005.2,"uv_index":9.05,"wind_gusts":39.2,"aqi":96,"pm10":27.0,"pm2_5":25.1,"mosquito_risk":7,"arthritis_risk":5,"migraine_risk":4,"frizz_risk":1,"updated_at":"2026-03-12T18:37:45.834212+05:30"},{"city":"Kannur","state":"Kerala","latitude":11.8745,"longitude":75.3704,"temp":29.4,"humidity":75,"rain":0.0,"pressure":1005.5,"uv_index":9.0,"wind_gusts":34.9,"aqi":113,"pm10":39.3,"pm2_5":34.0,"mosquito_risk":7,"arthritis_risk":5,"migraine_risk":4,"frizz_risk":1,"updated_at":"2026-03-12T18:37:45.834218+05:30"},{"city":"Patna","state":"Bihar","latitude":25.5941,"longitude":85.1376,"temp":30.6,"humidity":46,"rain":0.0,"pressure":999.3,"uv_index":7.45,"wind_gusts":22.0,"aqi":216,"pm10":163.9,"pm2_5":73.1,"mosquito_risk":0,"arthritis_risk":5,"migraine_risk":7,"frizz_risk":1,"updated_at":"2026-03-12T18:37:45.834225+05:30"},{"city":"Gaya","state":"Bihar","latitude":24.7914,"longitude":85.0002,"temp":29.7,"humidity":52,"rain":0.0,"pressure":993.0,"uv_index":7.6,"wind_gusts":21.6,"aqi":183,"pm10":133.6,"pm2_5":43.2,"mosquito_risk":4,"arthritis_risk":5,"migraine_risk":7,"frizz_risk":1,"updated_at":"2026-03-12T18:37:45.834231+05:30"},{"city":"Muzaffarpur","state":"Bihar","latitude":26.1209,"longitude":85.3647,"temp":29.3,"humidity":57,"rain":0.0,"pressure":999.3,"uv_index":7.4,"wind_gusts":25.6,"aqi":235,"pm10":181.1,"pm2_5":126.2,"mosquito_risk":4,"arthritis_risk":5,"migraine_risk":7,"frizz_risk":1,"updated_at":"2026-03-12T18:37:45.834237+05:30"},{"city":"Bhagalpur","state":"Bihar","latitude":25.2425,"longitude":87.0117,"temp":27.4,"humidity":74,"rain":0.0,"pressure":1000.8,"uv_index":7.5,"wind_gusts":33.5,"aqi":189,"pm10":142.5,"pm2_5":128.5,"mosquito_risk":7,"arthritis_risk":5,"migraine_risk":4,"frizz_risk":1,"updated_at":"2026-03-12T18:37:45.834243+05:30"},{"city":"Ranchi","state":"Jharkhand","latitude":23.3441,"longitude":85.3096,"temp":27.2,"humidity":30,"rain":0.0,"pressure":937.7,"uv_index":8.2,"wind_gusts":33.8,"aqi":158,"pm10":81.0,"pm2_5":27.8,"mosquito_risk":4,"arthritis_risk":5,"migraine_risk":7,"frizz_risk":0,"updated_at":"2026-03-12T18:37:45.834249+05:30"},{"city":"Jamshedpur","state":"Jharkhand","latitude":22.8046,"longitude":86.2029,"temp":30.8,"humidity":47,"rain":0.0,"pressure":989.6,"uv_index":8.05,"wind_gusts":25.6,"aqi":191,"pm10":123.9,"pm2_5":74.3,"mosquito_risk":0,"arthritis_risk":5,"migraine_risk":7,"frizz_risk":1,"updated_at":"2026-03-12T18:37:45.834255+05:30"},{"city":"Dhanbad","state":"Jharkhand","latitude":23.7957,"longitude":86.4304,"temp":31.6,"humidity":36,"rain":0.0,"pressure":978.7,"uv_index":8.0,"wind_gusts":20.9,"aqi":190,"pm10":135.5,"pm2_5":84.1,"mosquito_risk":0,"arthritis_risk":5,"migraine_risk":7,"frizz_risk":0,"updated_at":"2026-03-12T18:37:45.834261+05:30"},{"city":"Bokaro","state":"Jharkhand","latitude":23.6693,"longitude":86.1511,"temp":30.2,"humidity":30,"rain":0.0,"pressure":983.0,"uv_index":8.0,"wind_gusts":23.4,"aqi":182,"pm10":133.2,"pm2_5":60.1,"mosquito_risk":0,"arthritis_risk":5,"migraine_risk":7,"frizz_risk":0,"updated_at":"2026-03-12T18:37:45.834267+05:30"},{"city":"Bhubaneswar","state":"Odisha","latitude":20.2961,"longitude":85.8245,"temp":28.0,"humidity":76,"rain":0.0,"pressure":1001.7,"uv_index":8.35,"wind_gusts":34.2,"aqi":146,"pm10":71.7,"pm2_5":56.1,"mosquito_risk":7,"arthritis_risk":5,"migraine_risk":4,"frizz_risk":1,"updated_at":"2026-03-12T18:37:45.834273+05:30"},{"city":"Cuttack","state":"Odisha","latitude":20.4625,"longitude":85.8828,"temp":32.0,"humidity":48,"rain":0.0,"pressure":1002.8,"uv_index":8.35,"wind_gusts":31.7,"aqi":146,"pm10":71.7,"pm2_5":56.1,"mosquito_risk":0,"arthritis_risk":5,"migraine_risk":4,"frizz_risk":1,"updated_at":"2026-03-12T18:37:45.834279+05:30"},{"city":"Rourkela","state":"Odisha","latitude":22.2604,"longitude":84.8536,"temp":31.6,"humidity":39,"rain":0.0,"pressure":983.7,"uv_index":8.0,"wind_gusts":16.2,"aqi":153,"pm10":124.3,"pm2_5":38.4,"mosquito_risk":0,"arthritis_risk":5,"migraine_risk":7,"frizz_risk":0,"updated_at":"2026-03-12T18:37:45.834285+05:30"},{"city":"Raipur","state":"Chhattisgarh","latitude":21.2514,"longitude":81.6296,"temp":32.7,"humidity":27,"rain":0.0,"pressure":973.5,"uv_index":8.1,"wind_gusts":16.2,"aqi":161,"pm10":67.5,"pm2_5":43.4,"mosquito_risk":0,"arthritis_risk":5,"migraine_risk":7,"frizz_risk":0,"updated_at":"2026-03-12T18:37:45.834291+05:30"},{"city":"Bhilai","state":"Chhattisgarh","latitude":21.1938,"longitude":81.3509,"temp":32.0,"humidity":31,"rain":0.0,"pressure":973.6,"uv_index":8.1,"wind_gusts":11.9,"aqi":154,"pm10":60.5,"pm2_5":38.5,"mosquito_risk":0,"arthritis_risk":5,"migraine_risk":7,"frizz_risk":0,"updated_at":"2026-03-12T18:37:45.834297+05:30"},{"city":"Guwahati","state":"Assam","latitude":26.1158,"longitude":91.7086,"temp":25.2,"humidity":81,"rain":0.0,"pressure":1002.5,"uv_index":7.15,"wind_gusts":24.1,"aqi":153,"pm10":72.6,"pm2_5":68.5,"mosquito_risk":7,"arthritis_risk":5,"migraine_risk":4,"frizz_risk":1,"updated_at":"2026-03-12T18:37:45.834303+05:30"},{"city":"Agartala","state":"Tripura","latitude":23.8315,"longitude":91.2868,"temp":25.2,"humidity":84,"rain":0.0,"pressure":1006.7,"uv_index":7.7,"wind_gusts":19.1,"aqi":156,"pm10":74.7,"pm2_5":65.9,"mosquito_risk":7,"arthritis_risk":5,"migraine_risk":4,"frizz_risk":1,"updated_at":"2026-03-12T18:37:45.834310+05:30"},{"city":"Shillong","state":"Meghalaya","latitude":25.5788,"longitude":91.8933,"temp":14.2,"humidity":90,"rain":0.0,"pressure":856.0,"uv_index":6.65,"wind_gusts":26.3,"aqi":139,"pm10":74.3,"pm2_5":67.8,"mosquito_risk":3,"arthritis_risk":10,"migraine_risk":7,"frizz_risk":0,"updated_at":"2026-03-12T18:37:45.834316+05:30"},{"city":"Imphal","state":"Manipur","latitude":24.817,"longitude":93.9368,"temp":18.4,"humidity":87,"rain":0.0,"pressure":923.6,"uv_index":8.0,"wind_gusts":31.0,"aqi":169,"pm10":78.9,"pm2_5":74.7,"mosquito_risk":3,"arthritis_risk":10,"migraine_risk":7,"frizz_risk":1,"updated_at":"2026-03-12T18:37:45.834323+05:30"},{"city":"Aizawl","state":"Mizoram","latitude":23.7271,"longitude":92.7176,"temp":18.5,"humidity":86,"rain":0.0,"pressure":892.8,"uv_index":7.9,"wind_gusts":37.1,"aqi":186,"pm10":117.6,"pm2_5":104.8,"mosquito_risk":3,"arthritis_risk":10,"migraine_risk":7,"frizz_risk":1,"updated_at":"2026-03-12T18:37:45.834329+05:30"},{"city":"Kohima","state":"Nagaland","latitude":25.6701,"longitude":94.1077,"temp":15.4,"humidity":93,"rain":0.0,"pressure":855.0,"uv_index":7.1,"wind_gusts":41.4,"aqi":151,"pm10":69.4,"pm2_5":65.2,"mosquito_risk":3,"arthritis_risk":10,"migraine_risk":7,"frizz_risk":0,"updated_at":"2026-03-12T18:37:45.834335+05:30"},{"city":"Gangtok","state":"Sikkim","latitude":27.3314,"longitude":88.6138,"temp":16.5,"humidity":86,"rain":0.0,"pressure":837.5,"uv_index":7.15,"wind_gusts":20.2,"aqi":105,"pm10":35.0,"pm2_5":32.4,"mosquito_risk":3,"arthritis_risk":10,"migraine_risk":7,"frizz_risk":0,"updated_at":"2026-03-12T18:37:45.834341+05:30"},{"city":"Siliguri","state":"West Bengal","latitude":26.7271,"longitude":88.3953,"temp":21.0,"humidity":90,"rain":0.0,"pressure":994.8,"uv_index":7.4,"wind_gusts":23.8,"aqi":168,"pm10":68.5,"pm2_5":61.9,"mosquito_risk":3,"arthritis_risk":5,"migraine_risk":7,"frizz_risk":1,"updated_at":"2026-03-12T18:37:49.150043+05:30"},{"city":"Durgapur","state":"West Bengal","latitude":23.5204,"longitude":87.3119,"temp":27.4,"humidity":70,"rain":0.0,"pressure":994.6,"uv_index":7.95,"wind_gusts":26.6,"aqi":189,"pm10":122.0,"pm2_5":112.5,"mosquito_risk":7,"arthritis_risk":5,"migraine_risk":7,"frizz_risk":1,"updated_at":"2026-03-12T18:37:49.150075+05:30"},{"city":"Asansol","state":"West Bengal","latitude":23.6739,"longitude":86.9524,"temp":29.1,"humidity":62,"rain":0.0,"pressure":992.9,"uv_index":7.35,"wind_gusts":29.5,"aqi":185,"pm10":116.6,"pm2_5":99.0,"mosquito_risk":7,"arthritis_risk":5,"migraine_risk":7,"frizz_risk":1,"updated_at":"2026-03-12T18:37:49.150086+05:30"},{"city":"Pondicherry","state":"Puducherry","latitude":11.9139,"longitude":79.8145,"temp":28.0,"humidity":77,"rain":0.0,"pressure":1008.0,"uv_index":9.0,"wind_gusts":29.5,"aqi":71,"pm10":23.5,"pm2_5":19.2,"mosquito_risk":7,"arthritis_risk":0,"migraine_risk":4,"frizz_risk":1,"updated_at":"2026-03-12T18:37:49.150095+05:30"},{"city":"Port Blair","state":"Andaman and Nicobar Islands","latitude":11.6234,"longitude":92.7265,"temp":28.1,"humidity":76,"rain":0.0,"pressure":1006.7,"uv_index":8.95,"wind_gusts":20.5,"aqi":46,"pm10":14.7,"pm2_5":12.0,"mosquito_risk":7,"arthritis_risk":5,"migraine_risk":4,"frizz_risk":1,"updated_at":"2026-03-12T18:37:49.150104+05:30"},{"city":"Haridwar","state":"Uttarakhand","latitude":29.9457,"longitude":78.1642,"temp":27.1,"humidity":55,"rain":0.0,"pressure":973.8,"uv_index":5.35,"wind_gusts":30.2,"aqi":123,"pm10":74.3,"pm2_5":37.0,"mosquito_risk":4,"arthritis_risk":5,"migraine_risk":3,"frizz_risk":1,"updated_at":"2026-03-12T18:37:49.150113+05:30"},{"city":"Rishikesh","state":"Uttarakhand","latitude":30.0869,"longitude":78.2676,"temp":26.3,"humidity":58,"rain":0.0,"pressure":966.7,"uv_index":5.45,"wind_gusts":29.5,"aqi":109,"pm10":58.3,"pm2_5":25.3,"mosquito_risk":4,"arthritis_risk":5,"migraine_risk":3,"frizz_risk":1,"updated_at":"2026-03-12T18:37:49.150122+05:30"},{"city":"Nainital","state":"Uttarakhand","latitude":29.3919,"longitude":79.4542,"temp":21.0,"humidity":43,"rain":0.0,"pressure":806.7,"uv_index":6.55,"wind_gusts":55.1,"aqi":123,"pm10":71.0,"pm2_5":36.4,"mosquito_risk":0,"arthritis_risk":5,"migraine_risk":7,"frizz_risk":0,"updated_at":"2026-03-12T18:37:49.150130+05:30"},{"city":"Mussoorie","state":"Uttarakhand","latitude":30.4599,"longitude":78.0664,"temp":18.5,"humidity":55,"rain":0.0,"pressure":803.4,"uv_index":6.1,"wind_gusts":42.8,"aqi":95,"pm10":60.3,"pm2_5":31.4,"mosquito_risk":0,"arthritis_risk":5,"migraine_risk":7,"frizz_risk":0,"updated_at":"2026-03-12T18:37:49.150139+05:30"},{"city":"Dharamshala","state":"Himachal Pradesh","latitude":32.219,"longitude":76.3234,"temp":20.7,"humidity":62,"rain":0.0,"pressure":869.5,"uv_index":6.55,"wind_gusts":50.8,"aqi":55,"pm10":38.0,"pm2_5":13.7,"mosquito_risk":3,"arthritis_risk":5,"migraine_risk":7,"frizz_risk":0,"updated_at":"2026-03-12T18:37:49.150147+05:30"},{"city":"Dalhousie","state":"Himachal Pradesh","latitude":32.5387,"longitude":75.971,"temp":16.0,"humidity":65,"rain":0.0,"pressure":803.2,"uv_index":5.85,"wind_gusts":36.0,"aqi":80,"pm10":48.9,"pm2_5":23.8,"mosquito_risk":3,"arthritis_risk":5,"migraine_risk":3,"frizz_risk":0,"updated_at":"2026-03-12T18:37:49.150156+05:30"},{"city":"Patiala","state":"Punjab","latitude":30.3398,"longitude":76.3869,"temp":24.3,"humidity":73,"rain":0.0,"pressure":978.2,"uv_index":5.65,"wind_gusts":37.4,"aqi":156,"pm10":162.5,"pm2_5":57.5,"mosquito_risk":3,"arthritis_risk":5,"migraine_risk":3,"frizz_risk":1,"updated_at":"2026-03-12T18:37:49.150163+05:30"},{"city":"Bhatinda","state":"Punjab","latitude":30.211,"longitude":74.9455,"temp":26.9,"humidity":63,"rain":0.0,"pressure":984.0,"uv_index":6.4,"wind_gusts":28.1,"aqi":153,"pm10":97.3,"pm2_5":61.0,"mosquito_risk":7,"arthritis_risk":5,"migraine_risk":7,"frizz_risk":1,"updated_at":"2026-03-12T18:37:49.150171+05:30"},{"city":"Rohtak","state":"Haryana","latitude":28.8955,"longitude":76.6066,"temp":27.7,"humidity":50,"rain":0.0,"pressure":981.0,"uv_index":5.95,"wind_gusts":27.0,"aqi":315,"pm10":385.6,"pm2_5":87.5,"mosquito_risk":4,"arthritis_risk":5,"migraine_risk":3,"frizz_risk":1,"updated_at":"2026-03-12T18:37:49.150179+05:30"},{"city":"Panipat","state":"Haryana","latitude":29.3909,"longitude":76.9635,"temp":26.9,"humidity":57,"rain":0.0,"pressure":980.0,"uv_index":5.75,"wind_gusts":22.3,"aqi":399,"pm10":446.1,"pm2_5":88.2,"mosquito_risk":4,"arthritis_risk":5,"migraine_risk":3,"frizz_risk":1,"updated_at":"2026-03-12T18:37:49.150186+05:30"},{"city":"Mathura","state":"Uttar Pradesh","latitude":27.4924,"longitude":77.6737,"temp":30.2,"humidity":24,"rain":0.0,"pressure":985.0,"uv_index":5.8,"wind_gusts":30.6,"aqi":356,"pm10":276.6,"pm2_5":52.0,"mosquito_risk":0,"arthritis_risk":5,"migraine_risk":3,"frizz_risk":0,"updated_at":"2026-03-12T18:37:49.150194+05:30"},{"city":"Vrindavan","state":"Uttar Pradesh","latitude":27.5823,"longitude":77.7027,"temp":30.0,"humidity":27,"rain":0.0,"pressure":985.5,"uv_index":5.65,"wind_gusts":32.4,"aqi":356,"pm10":276.6,"pm2_5":52.0,"mosquito_risk":4,"arthritis_risk":5,"migraine_risk":3,"frizz_risk":0,"updated_at":"2026-03-12T18:37:49.150201+05:30"},{"city":"Ayodhya","state":"Uttar Pradesh","latitude":26.7922,"longitude":82.1998,"temp":28.4,"humidity":52,"rain":0.0,"pressure":994.1,"uv_index":6.55,"wind_gusts":26.3,"aqi":155,"pm10":77.3,"pm2_5":43.3,"mosquito_risk":4,"arthritis_risk":5,"migraine_risk":7,"frizz_risk":1,"updated_at":"2026-03-12T18:37:49.150209+05:30"},{"city":"Ratlam","state":"Madhya Pradesh","latitude":23.3315,"longitude":75.0367,"temp":31.3,"humidity":19,"rain":0.0,"pressure":954.4,"uv_index":7.6,"wind_gusts":33.1,"aqi":110,"pm10":16.2,"pm2_5":15.3,"mosquito_risk":0,"arthritis_risk":5,"migraine_risk":7,"frizz_risk":0,"updated_at":"2026-03-12T18:37:49.150217+05:30"},{"city":"Sagar","state":"Madhya Pradesh","latitude":23.8388,"longitude":78.7378,"temp":30.7,"humidity":33,"rain":0.0,"pressure":949.7,"uv_index":7.55,"wind_gusts":27.0,"aqi":122,"pm10":16.2,"pm2_5":10.9,"mosquito_risk":0,"arthritis_risk":5,"migraine_risk":7,"frizz_risk":0,"updated_at":"2026-03-12T18:37:49.150224+05:30"},{"city":"Satna","state":"Madhya Pradesh","latitude":24.6005,"longitude":80.8322,"temp":31.5,"humidity":20,"rain":0.0,"pressure":970.6,"uv_index":7.55,"wind_gusts":29.2,"aqi":114,"pm10":14.1,"pm2_5":10.2,"mosquito_risk":0,"arthritis_risk":5,"migraine_risk":7,"frizz_risk":0,"updated_at":"2026-03-12T18:37:49.150232+05:30"},{"city":"Akola","state":"Maharashtra","latitude":20.7002,"longitude":77.0082,"temp":34.4,"humidity":24,"rain":0.0,"pressure":973.7,"uv_index":8.05,"wind_gusts":22.7,"aqi":172,"pm10":31.7,"pm2_5":22.5,"mosquito_risk":0,"arthritis_risk":5,"migraine_risk":7,"frizz_risk":0,"updated_at":"2026-03-12T18:37:49.150240+05:30"},{"city":"Amravati","state":"Maharashtra","latitude":20.9374,"longitude":77.7796,"temp":33.3,"humidity":29,"rain":0.0,"pressure":965.7,"uv_index":8.0,"wind_gusts":16.9,"aqi":170,"pm10":31.5,"pm2_5":21.7,"mosquito_risk":0,"arthritis_risk":5,"migraine_risk":7,"frizz_risk":0,"updated_at":"2026-03-12T18:37:49.150249+05:30"},{"city":"Latur","state":"Maharashtra","latitude":18.4088,"longitude":76.5604,"temp":31.0,"humidity":34,"rain":0.0,"pressure":939.3,"uv_index":8.45,"wind_gusts":19.1,"aqi":147,"pm10":28.2,"pm2_5":24.5,"mosquito_risk":0,"arthritis_risk":5,"migraine_risk":7,"frizz_risk":0,"updated_at":"2026-03-12T18:37:49.150257+05:30"},{"city":"Nanded","state":"Maharashtra","latitude":19.1383,"longitude":77.3091,"temp":33.6,"humidity":27,"rain":0.0,"pressure":967.4,"uv_index":8.25,"wind_gusts":16.2,"aqi":155,"pm10":33.6,"pm2_5":27.3,"mosquito_risk":0,"arthritis_risk":5,"migraine_risk":7,"frizz_risk":0,"updated_at":"2026-03-12T18:37:49.150265+05:30"},{"city":"Gulbarga","state":"Karnataka","latitude":17.3297,"longitude":76.8343,"temp":34.1,"humidity":29,"rain":0.0,"pressure":957.6,"uv_index":8.5,"wind_gusts":18.0,"aqi":162,"pm10":28.8,"pm2_5":24.5,"mosquito_risk":0,"arthritis_risk":5,"migraine_risk":7,"frizz_risk":0,"updated_at":"2026-03-12T18:37:49.150272+05:30"},{"city":"Bidar","state":"Karnataka","latitude":17.9104,"longitude":77.5199,"temp":31.9,"humidity":34,"rain":0.0,"pressure":935.0,"uv_index":8.45,"wind_gusts":19.1,"aqi":148,"pm10":35.4,"pm2_5":29.5,"mosquito_risk":0,"arthritis_risk":5,"migraine_risk":7,"frizz_risk":0,"updated_at":"2026-03-12T18:37:49.150279+05:30"},{"city":"Hospet","state":"Karnataka","latitude":15.2689,"longitude":76.3909,"temp":33.8,"humidity":20,"rain":0.0,"pressure":954.8,"uv_index":8.8,"wind_gusts":32.4,"aqi":139,"pm10":24.5,"pm2_5":21.0,"mosquito_risk":0,"arthritis_risk":5,"migraine_risk":7,"frizz_risk":0,"updated_at":"2026-03-12T18:37:49.150286+05:30"},{"city":"Tirupur","state":"Tamil Nadu","latitude":11.1085,"longitude":77.3411,"temp":33.0,"humidity":29,"rain":0.0,"pressure":973.8,"uv_index":9.3,"wind_gusts":32.8,"aqi":86,"pm10":23.6,"pm2_5":22.2,"mosquito_risk":0,"arthritis_risk":5,"migraine_risk":7,"frizz_risk":0,"updated_at":"2026-03-12T18:37:49.150293+05:30"},{"city":"Alappuzha","state":"Kerala","latitude":9.4981,"longitude":76.3388,"temp":28.8,"humidity":79,"rain":0.0,"pressure":1007.0,"uv_index":8.4,"wind_gusts":32.0,"aqi":150,"pm10":29.3,"pm2_5":26.6,"mosquito_risk":7,"arthritis_risk":5,"migraine_risk":4,"frizz_risk":1,"updated_at":"2026-03-12T18:37:49.150301+05:30"},{"city":"Munnar","state":"Kerala","latitude":10.0889,"longitude":77.0595,"temp":25.2,"humidity":65,"rain":0.0,"pressure":856.8,"uv_index":9.5,"wind_gusts":23.0,"aqi":72,"pm10":18.6,"pm2_5":17.5,"mosquito_risk":7,"arthritis_risk":5,"migraine_risk":7,"frizz_risk":1,"updated_at":"2026-03-12T18:37:49.150309+05:30"},{"city":"Silchar","state":"Assam","latitude":24.8333,"longitude":92.7789,"temp":26.0,"humidity":80,"rain":0.0,"pressure":1005.7,"uv_index":7.7,"wind_gusts":23.8,"aqi":178,"pm10":118.3,"pm2_5":108.0,"mosquito_risk":7,"arthritis_risk":5,"migraine_risk":4,"frizz_risk":1,"updated_at":"2026-03-12T18:37:49.150316+05:30"},{"city":"Dibrugarh","state":"Assam","latitude":27.4728,"longitude":94.912,"temp":24.4,"humidity":79,"rain":0.0,"pressure":997.3,"uv_index":6.3,"wind_gusts":20.2,"aqi":136,"pm10":61.0,"pm2_5":57.3,"mosquito_risk":3,"arthritis_risk":5,"migraine_risk":7,"frizz_risk":1,"updated_at":"2026-03-12T18:37:49.150324+05:30"}]