[{"city":"Delhi","state":"Delhi","latitude":28.6139,"longitude":77.209,"temp":32.5,"humidity":44,"rain":0.0,"pressure":982.1,"uv_index":7.8,"wind_gusts":30.6,"aqi":513,"pm10":510.4,"pm2_5":119.0,"no2":28.2,"co":689.0,"o3":104.0,"so2":41.3,"mosquito_risk":0,"arthritis_risk":5,"migraine_risk":7,"frizz_risk":1,"updated_at":"2026-06-16T10:11:45.117090+05:30"},{"city":"Mumbai","state":"Maharashtra","latitude":19.076,"longitude":72.8777,"temp":32.0,"humidity":62,"rain":0.0,"pressure":1008.9,"uv_index":7.7,"wind_gusts":45.0,"aqi":60,"pm10":43.1,"pm2_5":19.1,"no2":7.2,"co":234.0,"o3":66.0,"so2":9.1,"mosquito_risk":3,"arthritis_risk":0,"migraine_risk":4,"frizz_risk":1,"updated_at":"2026-06-16T10:11:45.117138+05:30"},{"city":"Bangalore","state":"Karnataka","latitude":12.9716,"longitude":77.5946,"temp":26.6,"humidity":63,"rain":0.0,"pressure":913.7,"uv_index":8.5,"wind_gusts":33.8,"aqi":71,"pm10":29.6,"pm2_5":15.0,"no2":7.5,"co":413.0,"o3":59.0,"so2":4.3,"mosquito_risk":7,"arthritis_risk":5,"migraine_risk":7,"frizz_risk":1,"updated_at":"2026-06-16T10:11:45.117154+05:30"},{"city":"Hyderabad","state":"Telangana","latitude":17.385,"longitude":78.4867,"temp":31.7,"humidity":45,"rain":0.0,"pressure":953.8,"uv_index":7.5,"wind_gusts":37.1,"aqi":117,"pm10":31.0,"pm2_5":21.0,"no2":6.8,"co":333.0,"o3":87.0,"so2":8.1,"mosquito_risk":0,"arthritis_risk":5,"migraine_risk":7,"frizz_risk":1,"updated_at":"2026-06-16T10:11:45.117164+05:30"},{"city":"Chennai","state":"Tamil Nadu","latitude":13.0827,"longitude":80.2707,"temp":34.7,"humidity":48,"rain":0.0,"pressure":1006.3,"uv_index":8.35,"wind_gusts":35.6,"aqi":90,"pm10":45.5,"pm2_5":32.9,"no2":15.8,"co":477.0,"o3":95.0,"so2":13.2,"mosquito_risk":0,"arthritis_risk":5,"migraine_risk":4,"frizz_risk":1,"updated_at":"2026-06-16T10:11:45.117172+05:30"},{"city":"Kolkata","state":"West Bengal","latitude":22.5726,"longitude":88.3639,"temp":34.5,"humidity":60,"rain":0.0,"pressure":1003.9,"uv_index":9.0,"wind_gusts":46.8,"aqi":130,"pm10":54.1,"pm2_5":40.2,"no2":3.3,"co":527.0,"o3":159.0,"so2":11.2,"mosquito_risk":0,"arthritis_risk":5,"migraine_risk":4,"frizz_risk":1,"updated_at":"2026-06-16T10:11:45.117179+05:30"},{"city":"Pune","state":"Maharashtra","latitude":18.5204,"longitude":73.8567,"temp":30.5,"humidity":53,"rain":0.0,"pressure":949.4,"uv_index":8.3,"wind_gusts":47.2,"aqi":54,"pm10":29.1,"pm2_5":14.9,"no2":4.2,"co":170.0,"o3":70.0,"so2":7.4,"mosquito_risk":0,"arthritis_risk":5,"migraine_risk":7,"frizz_risk":1,"updated_at":"2026-06-16T10:11:45.117185+05:30"},{"city":"Ahmedabad","state":"Gujarat","latitude":23.0225,"longitude":72.5714,"temp":33.4,"humidity":50,"rain":0.0,"pressure":1001.5,"uv_index":8.05,"wind_gusts":40.7,"aqi":64,"pm10":46.7,"pm2_5":17.9,"no2":3.3,"co":146.0,"o3":59.0,"so2":5.0,"mosquito_risk":0,"arthritis_risk":5,"migraine_risk":4,"frizz_risk":1,"updated_at":"2026-06-16T10:11:45.117191+05:30"},{"city":"Jaipur","state":"Rajasthan","latitude":26.9124,"longitude":75.7873,"temp":32.7,"humidity":49,"rain":0.0,"pressure":959.1,"uv_index":8.2,"wind_gusts":34.2,"aqi":120,"pm10":254.3,"pm2_5":54.6,"no2":3.5,"co":241.0,"o3":77.0,"so2":5.2,"mosquito_risk":0,"arthritis_risk":5,"migraine_risk":7,"frizz_risk":1,"updated_at":"2026-06-16T10:11:45.117203+05:30"},{"city":"Lucknow","state":"Uttar Pradesh","latitude":26.8467,"longitude":80.9462,"temp":34.8,"humidity":45,"rain":0.0,"pressure":991.8,"uv_index":8.35,"wind_gusts":29.5,"aqi":163,"pm10":141.6,"pm2_5":62.2,"no2":9.6,"co":358.0,"o3":139.0,"so2":19.9,"mosquito_risk":0,"arthritis_risk":5,"migraine_risk":7,"frizz_risk":1,"updated_at":"2026-06-16T10:11:45.117210+05:30"},{"city":"Kanpur","state":"Uttar Pradesh","latitude":26.4499,"longitude":80.3319,"temp":36.1,"humidity":34,"rain":0.0,"pressure":990.4,"uv_index":8.3,"wind_gusts":29.5,"aqi":169,"pm10":321.3,"pm2_5":92.7,"no2":9.0,"co":246.0,"o3":139.0,"so2":17.0,"mosquito_risk":0,"arthritis_risk":5,"migraine_risk":10,"frizz_risk":1,"updated_at":"2026-06-16T10:11:45.117216+05:30"},{"city":"Chandigarh","state":"Chandigarh","latitude":30.7333,"longitude":76.7794,"temp":31.6,"humidity":46,"rain":0.0,"pressure":967.5,"uv_index":7.8,"wind_gusts":22.7,"aqi":123,"pm10":56.6,"pm2_5":31.2,"no2":6.2,"co":564.0,"o3":158.0,"so2":10.1,"mosquito_risk":0,"arthritis_risk":5,"migraine_risk":7,"frizz_risk":1,"updated_at":"2026-06-16T10:11:45.117223+05:30"},{"city":"Srinagar","state":"Jammu and Kashmir","latitude":34.0837,"longitude":74.7973,"temp":23.0,"humidity":52,"rain":0.0,"pressure":843.7,"uv_index":8.65,"wind_gusts":30.6,"aqi":78,"pm10":46.8,"pm2_5":30.0,"no2":5.4,"co":429.0,"o3":114.0,"so2":4.2,"mosquito_risk":0,"arthritis_risk":5,"migraine_risk":7,"frizz_risk":0,"updated_at":"2026-06-16T10:11:45.117229+05:30"},{"city":"Jammu","state":"Jammu and Kashmir","latitude":32.7266,"longitude":74.857,"temp":33.2,"humidity":39,"rain":0.0,"pressure":971.3,"uv_index":8.3,"wind_gusts":31.7,"aqi":98,"pm10":32.0,"pm2_5":20.3,"no2":8.0,"co":291.0,"o3":131.0,"so2":4.0,"mosquito_risk":0,"arthritis_risk":5,"migraine_risk":7,"frizz_risk":1,"updated_at":"2026-06-16T10:11:45.117235+05:30"},{"city":"Amritsar","state":"Punjab","latitude":31.634,"longitude":74.8723,"temp":30.6,"humidity":58,"rain":0.0,"pressure":979.2,"uv_index":8.0,"wind_gusts":29.9,"aqi":107,"pm10":105.7,"pm2_5":49.0,"no2":8.2,"co":436.0,"o3":130.0,"so2":9.1,"mosquito_risk":0,"arthritis_risk":5,"migraine_risk":7,"frizz_risk":1,"updated_at":"2026-06-16T10:11:45.117244+05:30"},{"city":"Ludhiana","state":"Punjab","latitude":30.901,"longitude":75.8573,"temp":31.9,"humidity":46,"rain":0.0,"pressure":977.1,"uv_index":8.05,"wind_gusts":34.2,"aqi":163,"pm10":197.9,"pm2_5":75.0,"no2":8.2,"co":466.0,"o3":133.0,"so2":16.8,"mosquito_risk":0,"arthritis_risk":5,"migraine_risk":7,"frizz_risk":1,"updated_at":"2026-06-16T10:11:45.117250+05:30"},{"city":"Jalandhar","state":"Punjab","latitude":31.326,"longitude":75.5762,"temp":30.8,"humidity":54,"rain":0.0,"pressure":978.1,"uv_index":8.25,"wind_gusts":25.6,"aqi":150,"pm10":178.8,"pm2_5":68.7,"no2":9.1,"co":378.0,"o3":137.0,"so2":14.5,"mosquito_risk":0,"arthritis_risk":5,"migraine_risk":7,"frizz_risk":1,"updated_at":"2026-06-16T10:11:45.117256+05:30"},{"city":"Dehradun","state":"Uttarakhand","latitude":30.6284,"longitude":78.0322,"temp":24.4,"humidity":40,"rain":0.0,"pressure":833.0,"uv_index":7.95,"wind_gusts":32.4,"aqi":39,"pm10":9.6,"pm2_5":4.9,"no2":0.3,"co":172.0,"o3":135.0,"so2":0.9,"mosquito_risk":0,"arthritis_risk":5,"migraine_risk":7,"frizz_risk":0,"updated_at":"2026-06-16T10:11:45.117262+05:30"},{"city":"Shimla","state":"Himachal Pradesh","latitude":31.1048,"longitude":77.1734,"temp":21.6,"humidity":36,"rain":0.0,"pressure":787.5,"uv_index":7.75,"wind_gusts":34.9,"aqi":54,"pm10":6.5,"pm2_5":5.3,"no2":1.1,"co":175.0,"o3":142.0,"so2":1.1,"mosquito_risk":0,"arthritis_risk":5,"migraine_risk":7,"frizz_risk":0,"updated_at":"2026-06-16T10:11:45.117270+05:30"},{"city":"Manali","state":"Himachal Pradesh","latitude":32.2396,"longitude":77.1887,"temp":22.6,"humidity":48,"rain":0.0,"pressure":821.4,"uv_index":8.95,"wind_gusts":39.6,"aqi":39,"pm10":5.0,"pm2_5":3.6,"no2":9.6,"co":160.0,"o3":109.0,"so2":0.3,"mosquito_risk":0,"arthritis_risk":5,"migraine_risk":7,"frizz_risk":0,"updated_at":"2026-06-16T10:11:45.117276+05:30"},{"city":"Gurgaon","state":"Haryana","latitude":28.4595,"longitude":77.0266,"temp":33.7,"humidity":38,"rain":0.0,"pressure":980.5,"uv_index":7.9,"wind_gusts":32.8,"aqi":696,"pm10":730.2,"pm2_5":132.7,"no2":18.4,"co":464.0,"o3":106.0,"so2":25.4,"mosquito_risk":0,"arthritis_risk":5,"migraine_risk":7,"frizz_risk":1,"updated_at":"2026-06-16T10:11:45.117282+05:30"},{"city":"Noida","state":"Uttar Pradesh","latitude":28.5355,"longitude":77.391,"temp":32.6,"humidity":46,"rain":0.0,"pressure":983.5,"uv_index":7.85,"wind_gusts":23.4,"aqi":696,"pm10":730.2,"pm2_5":132.7,"no2":18.4,"co":582.0,"o3":106.0,"so2":25.4,"mosquito_risk":0,"arthritis_risk":5,"migraine_risk":7,"frizz_risk":1,"updated_at":"2026-06-16T10:11:45.117288+05:30"},{"city":"Ghaziabad","state":"Uttar Pradesh","latitude":28.6692,"longitude":77.4538,"temp":32.3,"humidity":44,"rain":0.0,"pressure":981.8,"uv_index":7.8,"wind_gusts":19.4,"aqi":434,"pm10":640.7,"pm2_5":148.1,"no2":26.4,"co":221.0,"o3":123.0,"so2":42.1,"mosquito_risk":0,"arthritis_risk":5,"migraine_risk":7,"frizz_risk":1,"updated_at":"2026-06-16T10:11:45.117296+05:30"},{"city":"Faridabad","state":"Haryana","latitude":28.4089,"longitude":77.3178,"temp":33.6,"humidity":36,"rain":0.0,"pressure":982.8,"uv_index":7.85,"wind_gusts":30.2,"aqi":696,"pm10":730.2,"pm2_5":132.7,"no2":18.4,"co":494.0,"o3":106.0,"so2":25.4,"mosquito_risk":0,"arthritis_risk":5,"migraine_risk":7,"frizz_risk":1,"updated_at":"2026-06-16T10:11:45.117302+05:30"},{"city":"Meerut","state":"Uttar Pradesh","latitude":28.9845,"longitude":77.7064,"temp":33.0,"humidity":45,"rain":0.0,"pressure":980.5,"uv_index":7.7,"wind_gusts":25.9,"aqi":434,"pm10":640.7,"pm2_5":148.1,"no2":26.4,"co":228.0,"o3":123.0,"so2":42.1,"mosquito_risk":0,"arthritis_risk":5,"migraine_risk":7,"frizz_risk":1,"updated_at":"2026-06-16T10:11:45.117308+05:30"},{"city":"Agra","state":"Uttar Pradesh","latitude":27.1767,"longitude":78.0081,"temp":35.3,"humidity":27,"rain":0.0,"pressure":986.7,"uv_index":8.05,"wind_gusts":24.8,"aqi":955,"pm10":1072.9,"pm2_5":172.8,"no2":12.3,"co":278.0,"o3":106.0,"so2":12.6,"mosquito_risk":0,"arthritis_risk":5,"migraine_risk":10,"frizz_risk":0,"updated_at":"2026-06-16T10:11:45.117315+05:30"},{"city":"Varanasi","state":"Uttar Pradesh","latitude":25.3176,"longitude":82.9739,"temp":38.5,"humidity":30,"rain":0.0,"pressure":995.3,"uv_index":8.8,"wind_gusts":33.8,"aqi":155,"pm10":90.3,"pm2_5":42.8,"no2":8.0,"co":358.0,"o3":115.0,"so2":12.5,"mosquito_risk":0,"arthritis_risk":5,"migraine_risk":10,"frizz_risk":1,"updated_at":"2026-06-16T10:11:45.117321+05:30"},{"city":"Prayagraj","state":"Uttar Pradesh","latitude":25.4358,"longitude":81.8463,"temp":37.9,"humidity":33,"rain":0.0,"pressure":993.9,"uv_index":8.75,"wind_gusts":34.9,"aqi":151,"pm10":193.7,"pm2_5":65.2,"no2":9.0,"co":216.0,"o3":120.0,"so2":12.4,"mosquito_risk":0,"arthritis_risk":5,"migraine_risk":10,"frizz_risk":1,"updated_at":"2026-06-16T10:11:45.117328+05:30"},{"city":"Gorakhpur","state":"Uttar Pradesh","latitude":26.7606,"longitude":83.3732,"temp":34.9,"humidity":54,"rain":0.0,"pressure":994.9,"uv_index":8.7,"wind_gusts":24.5,"aqi":155,"pm10":134.6,"pm2_5":75.4,"no2":7.8,"co":480.0,"o3":177.0,"so2":15.7,"mosquito_risk":0,"arthritis_risk":5,"migraine_risk":7,"frizz_risk":1,"updated_at":"2026-06-16T10:11:45.117336+05:30"},{"city":"Bareilly","state":"Uttar Pradesh","latitude":28.367,"longitude":79.4304,"temp":33.1,"humidity":48,"rain":0.0,"pressure":985.3,"uv_index":8.15,"wind_gusts":29.9,"aqi":158,"pm10":202.6,"pm2_5":74.5,"no2":6.0,"co":331.0,"o3":157.0,"so2":15.6,"mosquito_risk":0,"arthritis_risk":5,"migraine_risk":7,"frizz_risk":1,"updated_at":"2026-06-16T10:11:45.117342+05:30"},{"city":"Aligarh","state":"Uttar Pradesh","latitude":27.8974,"longitude":78.088,"temp":33.0,"humidity":40,"rain":0.0,"pressure":984.4,"uv_index":8.0,"wind_gusts":20.9,"aqi":571,"pm10":650.1,"pm2_5":125.7,"no2":7.5,"co":259.0,"o3":118.0,"so2":17.8,"mosquito_risk":0,"arthritis_risk":5,"migraine_risk":7,"frizz_risk":1,"updated_at":"2026-06-16T10:11:45.117348+05:30"},{"city":"Moradabad","state":"Uttar Pradesh","latitude":28.8386,"longitude":78.7733,"temp":33.1,"humidity":47,"rain":0.0,"pressure":982.3,"uv_index":7.95,"wind_gusts":29.9,"aqi":172,"pm10":349.2,"pm2_5":109.0,"no2":7.8,"co":475.0,"o3":145.0,"so2":16.3,"mosquito_risk":0,"arthritis_risk":5,"migraine_risk":7,"frizz_risk":1,"updated_at":"2026-06-16T10:11:45.117354+05:30"},{"city":"Saharanpur","state":"Uttar Pradesh","latitude":29.9637,"longitude":77.546,"temp":31.4,"humidity":54,"rain":0.0,"pressure":974.6,"uv_index":7.55,"wind_gusts":21.6,"aqi":158,"pm10":183.5,"pm2_5":72.6,"no2":10.6,"co":480.0,"o3":153.0,"so2":17.0,"mosquito_risk":0,"arthritis_risk":5,"migraine_risk":7,"frizz_risk":1,"updated_at":"2026-06-16T10:11:45.117360+05:30"},{"city":"Jhansi","state":"Uttar Pradesh","latitude":25.4484,"longitude":78.5685,"temp":35.8,"humidity":38,"rain":0.0,"pressure":977.0,"uv_index":8.45,"wind_gusts":30.6,"aqi":89,"pm10":61.0,"pm2_5":29.3,"no2":3.2,"co":160.0,"o3":90.0,"so2":8.9,"mosquito_risk":0,"arthritis_risk":5,"migraine_risk":10,"frizz_risk":1,"updated_at":"2026-06-16T10:11:48.345823+05:30"},{"city":"Surat","state":"Gujarat","latitude":21.1702,"longitude":72.8311,"temp":31.4,"humidity":65,"rain":0.0,"pressure":1006.7,"uv_index":7.55,"wind_gusts":48.6,"aqi":70,"pm10":39.2,"pm2_5":20.7,"no2":13.7,"co":364.0,"o3":45.0,"so2":39.8,"mosquito_risk":3,"arthritis_risk":5,"migraine_risk":4,"frizz_risk":1,"updated_at":"2026-06-16T10:11:48.345859+05:30"},{"city":"Vadodara","state":"Gujarat","latitude":22.3072,"longitude":73.1812,"temp":33.5,"humidity":51,"rain":0.0,"pressure":1004.0,"uv_index":8.0,"wind_gusts":51.1,"aqi":66,"pm10":46.8,"pm2_5":17.0,"no2":3.5,"co":147.0,"o3":58.0,"so2":4.4,"mosquito_risk":0,"arthritis_risk":5,"migraine_risk":4,"frizz_risk":1,"updated_at":"2026-06-16T10:11:48.345869+05:30"},{"city":"Rajkot","state":"Gujarat","latitude":22.3039,"longitude":70.8022,"temp":33.0,"humidity":52,"rain":0.0,"pressure":993.3,"uv_index":7.55,"wind_gusts":46.4,"aqi":57,"pm10":33.8,"pm2_5":13.2,"no2":2.1,"co":107.0,"o3":57.0,"so2":3.1,"mosquito_risk":0,"arthritis_risk":5,"migraine_risk":7,"frizz_risk":1,"updated_at":"2026-06-16T10:11:48.345878+05:30"},{"city":"Thane","state":"Maharashtra","latitude":19.2183,"longitude":72.9781,"temp":32.3,"humidity":61,"rain":0.1,"pressure":1008.3,"uv_index":7.7,"wind_gusts":41.8,"aqi":60,"pm10":43.1,"pm2_5":19.1,"no2":7.2,"co":172.0,"o3":66.0,"so2":9.1,"mosquito_risk":6,"arthritis_risk":0,"migraine_risk":4,"frizz_risk":1,"updated_at":"2026-06-16T10:11:48.345886+05:30"},{"city":"Nagpur","state":"Maharashtra","latitude":21.1458,"longitude":79.0882,"temp":34.6,"humidity":38,"rain":0.0,"pressure":972.6,"uv_index":8.9,"wind_gusts":59.4,"aqi":116,"pm10":89.4,"pm2_5":40.4,"no2":8.6,"co":211.0,"o3":104.0,"so2":20.9,"mosquito_risk":0,"arthritis_risk":5,"migraine_risk":7,"frizz_risk":1,"updated_at":"2026-06-16T10:11:48.345893+05:30"},{"city":"Nashik","state":"Maharashtra","latitude":19.9975,"longitude":73.7898,"temp":30.4,"humidity":53,"rain":0.0,"pressure":946.5,"uv_index":8.05,"wind_gusts":44.6,"aqi":53,"pm10":36.3,"pm2_5":15.3,"no2":2.6,"co":122.0,"o3":64.0,"so2":3.1,"mosquito_risk":0,"arthritis_risk":5,"migraine_risk":7,"frizz_risk":1,"updated_at":"2026-06-16T10:11:48.345931+05:30"},{"city":"Aurangabad","state":"Maharashtra","latitude":19.8762,"longitude":75.3433,"temp":31.3,"humidity":46,"rain":0.0,"pressure":945.2,"uv_index":8.95,"wind_gusts":44.6,"aqi":57,"pm10":35.0,"pm2_5":15.3,"no2":2.6,"co":132.0,"o3":66.0,"so2":4.7,"mosquito_risk":0,"arthritis_risk":5,"migraine_risk":7,"frizz_risk":1,"updated_at":"2026-06-16T10:11:48.345943+05:30"},{"city":"Solapur","state":"Maharashtra","latitude":17.6599,"longitude":75.9064,"temp":32.1,"humidity":43,"rain":0.0,"pressure":958.6,"uv_index":8.9,"wind_gusts":43.2,"aqi":60,"pm10":31.3,"pm2_5":15.5,"no2":2.7,"co":139.0,"o3":74.0,"so2":5.1,"mosquito_risk":0,"arthritis_risk":5,"migraine_risk":7,"frizz_risk":1,"updated_at":"2026-06-16T10:11:48.345955+05:30"},{"city":"Kolhapur","state":"Maharashtra","latitude":16.705,"longitude":74.2433,"temp":30.6,"humidity":53,"rain":0.0,"pressure":950.0,"uv_index":8.75,"wind_gusts":49.3,"aqi":54,"pm10":18.8,"pm2_5":10.6,"no2":3.1,"co":134.0,"o3":63.0,"so2":2.1,"mosquito_risk":0,"arthritis_risk":5,"migraine_risk":7,"frizz_risk":1,"updated_at":"2026-06-16T10:11:48.345966+05:30"},{"city":"Goa","state":"Goa","latitude":15.2993,"longitude":74.124,"temp":29.7,"humidity":78,"rain":0.0,"pressure":999.7,"uv_index":8.1,"wind_gusts":30.2,"aqi":56,"pm10":19.2,"pm2_5":10.0,"no2":1.7,"co":185.0,"o3":58.0,"so2":1.9,"mosquito_risk":7,"arthritis_risk":5,"migraine_risk":7,"frizz_risk":1,"updated_at":"2026-06-16T10:11:48.345974+05:30"},{"city":"Jodhpur","state":"Rajasthan","latitude":26.2389,"longitude":73.0243,"temp":33.0,"humidity":53,"rain":0.0,"pressure":981.6,"uv_index":8.45,"wind_gusts":42.1,"aqi":143,"pm10":197.9,"pm2_5":47.1,"no2":1.4,"co":113.0,"o3":64.0,"so2":2.8,"mosquito_risk":0,"arthritis_risk":5,"migraine_risk":7,"frizz_risk":1,"updated_at":"2026-06-16T10:11:48.345981+05:30"},{"city":"Udaipur","state":"Rajasthan","latitude":24.5854,"longitude":73.7125,"temp":30.5,"humidity":54,"rain":0.0,"pressure":946.4,"uv_index":8.8,"wind_gusts":38.5,"aqi":68,"pm10":50.5,"pm2_5":17.8,"no2":1.1,"co":117.0,"o3":63.0,"so2":2.7,"mosquito_risk":0,"arthritis_risk":5,"migraine_risk":7,"frizz_risk":1,"updated_at":"2026-06-16T10:11:48.345989+05:30"},{"city":"Kota","state":"Rajasthan","latitude":25.2138,"longitude":75.8648,"temp":34.8,"humidity":45,"rain":0.0,"pressure":977.8,"uv_index":8.35,"wind_gusts":29.5,"aqi":85,"pm10":54.9,"pm2_5":28.0,"no2":4.2,"co":151.0,"o3":75.0,"so2":7.1,"mosquito_risk":0,"arthritis_risk":5,"migraine_risk":7,"frizz_risk":1,"updated_at":"2026-06-16T10:11:48.345996+05:30"},{"city":"Bikaner","state":"Rajasthan","latitude":28.0229,"longitude":73.3119,"temp":35.4,"humidity":46,"rain":0.0,"pressure":979.0,"uv_index":8.45,"wind_gusts":64.1,"aqi":137,"pm10":291.5,"pm2_5":93.6,"no2":0.8,"co":117.0,"o3":70.0,"so2":2.8,"mosquito_risk":0,"arthritis_risk":5,"migraine_risk":10,"frizz_risk":1,"updated_at":"2026-06-16T10:11:48.346004+05:30"},{"city":"Ajmer","state":"Rajasthan","latitude":26.4499,"longitude":74.6399,"temp":31.6,"humidity":56,"rain":0.0,"pressure":953.6,"uv_index":8.35,"wind_gusts":55.4,"aqi":84,"pm10":148.5,"pm2_5":42.7,"no2":1.6,"co":128.0,"o3":69.0,"so2":3.3,"mosquito_risk":0,"arthritis_risk":5,"migraine_risk":7,"frizz_risk":1,"updated_at":"2026-06-16T10:11:48.346011+05:30"},{"city":"Gwalior","state":"Madhya Pradesh","latitude":26.2183,"longitude":78.1828,"temp":36.1,"humidity":31,"rain":0.0,"pressure":982.1,"uv_index":8.3,"wind_gusts":27.7,"aqi":157,"pm10":48.3,"pm2_5":27.4,"no2":3.6,"co":180.0,"o3":88.0,"so2":10.6,"mosquito_risk":0,"arthritis_risk":5,"migraine_risk":10,"frizz_risk":1,"updated_at":"2026-06-16T10:11:48.346017+05:30"},{"city":"Indore","state":"Madhya Pradesh","latitude":22.7196,"longitude":75.8577,"temp":31.9,"humidity":53,"rain":0.0,"pressure":948.6,"uv_index":8.6,"wind_gusts":38.2,"aqi":85,"pm10":43.3,"pm2_5":22.6,"no2":4.0,"co":192.0,"o3":64.0,"so2":9.4,"mosquito_risk":0,"arthritis_risk":5,"migraine_risk":7,"frizz_risk":1,"updated_at":"2026-06-16T10:11:48.346024+05:30"},{"city":"Bhopal","state":"Madhya Pradesh","latitude":23.2599,"longitude":77.4126,"temp":31.3,"humidity":56,"rain":0.0,"pressure":953.6,"uv_index":8.65,"wind_gusts":29.2,"aqi":92,"pm10":56.3,"pm2_5":32.2,"no2":2.9,"co":215.0,"o3":91.0,"so2":7.0,"mosquito_risk":0,"arthritis_risk":5,"migraine_risk":7,"frizz_risk":1,"updated_at":"2026-06-16T10:11:48.346031+05:30"},{"city":"Jabalpur","state":"Madhya Pradesh","latitude":23.1815,"longitude":79.9864,"temp":32.8,"humidity":48,"rain":0.0,"pressure":961.1,"uv_index":8.85,"wind_gusts":32.4,"aqi":96,"pm10":55.4,"pm2_5":26.5,"no2":2.8,"co":194.0,"o3":98.0,"so2":3.4,"mosquito_risk":0,"arthritis_risk":5,"migraine_risk":7,"frizz_risk":1,"updated_at":"2026-06-16T10:11:48.346038+05:30"},{"city":"Ujjain","state":"Madhya Pradesh","latitude":23.1765,"longitude":75.7885,"temp":32.3,"humidity":51,"rain":0.0,"pressure":954.1,"uv_index":8.55,"wind_gusts":37.8,"aqi":80,"pm10":41.9,"pm2_5":21.4,"no2":3.7,"co":160.0,"o3":63.0,"so2":9.5,"mosquito_risk":0,"arthritis_risk":5,"migraine_risk":7,"frizz_risk":1,"updated_at":"2026-06-16T10:11:48.346046+05:30"},{"city":"Visakhapatnam","state":"Andhra Pradesh","latitude":17.6868,"longitude":83.2185,"temp":34.7,"humidity":60,"rain":0.0,"pressure":1001.0,"uv_index":8.55,"wind_gusts":29.5,"aqi":161,"pm10":94.5,"pm2_5":69.8,"no2":55.7,"co":666.0,"o3":84.0,"so2":147.0,"mosquito_risk":0,"arthritis_risk":5,"migraine_risk":4,"frizz_risk":1,"updated_at":"2026-06-16T10:11:48.346053+05:30"},{"city":"Vijayawada","state":"Andhra Pradesh","latitude":16.5062,"longitude":80.648,"temp":31.0,"humidity":65,"rain":0.0,"pressure":1001.2,"uv_index":8.95,"wind_gusts":42.5,"aqi":156,"pm10":66.4,"pm2_5":38.6,"no2":4.0,"co":248.0,"o3":107.0,"so2":8.4,"mosquito_risk":3,"arthritis_risk":5,"migraine_risk":4,"frizz_risk":1,"updated_at":"2026-06-16T10:11:48.346060+05:30"},{"city":"Guntur","state":"Andhra Pradesh","latitude":16.3067,"longitude":80.4365,"temp":32.1,"humidity":57,"rain":0.0,"pressure":1002.5,"uv_index":8.95,"wind_gusts":35.3,"aqi":160,"pm10":70.1,"pm2_5":41.3,"no2":5.4,"co":246.0,"o3":103.0,"so2":6.7,"mosquito_risk":0,"arthritis_risk":5,"migraine_risk":4,"frizz_risk":1,"updated_at":"2026-06-16T10:11:48.346067+05:30"},{"city":"Nellore","state":"Andhra Pradesh","latitude":14.4426,"longitude":79.9865,"temp":33.7,"humidity":52,"rain":0.0,"pressure":1005.0,"uv_index":8.25,"wind_gusts":37.8,"aqi":98,"pm10":22.6,"pm2_5":15.3,"no2":4.3,"co":162.0,"o3":83.0,"so2":7.0,"mosquito_risk":0,"arthritis_risk":5,"migraine_risk":4,"frizz_risk":1,"updated_at":"2026-06-16T10:11:48.346075+05:30"},{"city":"Kurnool","state":"Andhra Pradesh","latitude":15.8281,"longitude":78.0373,"temp":32.3,"humidity":48,"rain":0.0,"pressure":977.4,"uv_index":4.85,"wind_gusts":40.3,"aqi":80,"pm10":25.8,"pm2_5":17.2,"no2":4.3,"co":158.0,"o3":76.0,"so2":9.1,"mosquito_risk":0,"arthritis_risk":5,"migraine_risk":3,"frizz_risk":1,"updated_at":"2026-06-16T10:11:48.346082+05:30"},{"city":"Kakinada","state":"Andhra Pradesh","latitude":16.9891,"longitude":82.2475,"temp":34.2,"humidity":55,"rain":0.0,"pressure":1005.0,"uv_index":9.0,"wind_gusts":35.6,"aqi":131,"pm10":69.2,"pm2_5":41.1,"no2":4.3,"co":391.0,"o3":130.0,"so2":7.5,"mosquito_risk":0,"arthritis_risk":5,"migraine_risk":4,"frizz_risk":1,"updated_at":"2026-06-16T10:11:48.346089+05:30"},{"city":"Tirupati","state":"Andhra Pradesh","latitude":13.6288,"longitude":79.4192,"temp":34.1,"humidity":45,"rain":0.0,"pressure":990.6,"uv_index":8.55,"wind_gusts":29.5,"aqi":102,"pm10":24.3,"pm2_5":14.0,"no2":1.3,"co":154.0,"o3":88.0,"so2":2.5,"mosquito_risk":0,"arthritis_risk":5,"migraine_risk":7,"frizz_risk":1,"updated_at":"2026-06-16T10:11:48.346095+05:30"},{"city":"Warangal","state":"Telangana","latitude":17.9689,"longitude":79.5941,"temp":33.3,"humidity":48,"rain":0.0,"pressure":978.0,"uv_index":8.75,"wind_gusts":34.2,"aqi":156,"pm10":113.6,"pm2_5":61.7,"no2":9.4,"co":256.0,"o3":104.0,"so2":10.5,"mosquito_risk":0,"arthritis_risk":5,"migraine_risk":7,"frizz_risk":1,"updated_at":"2026-06-16T10:11:48.346101+05:30"},{"city":"Nizamabad","state":"Telangana","latitude":18.6725,"longitude":78.0941,"temp":32.8,"humidity":46,"rain":0.0,"pressure":965.4,"uv_index":8.3,"wind_gusts":34.2,"aqi":96,"pm10":34.8,"pm2_5":19.7,"no2":2.4,"co":148.0,"o3":75.0,"so2":3.6,"mosquito_risk":0,"arthritis_risk":5,"migraine_risk":7,"frizz_risk":1,"updated_at":"2026-06-16T10:11:48.346108+05:30"},{"city":"Mysore","state":"Karnataka","latitude":12.2958,"longitude":76.6396,"temp":27.4,"humidity":65,"rain":0.0,"pressure":930.6,"uv_index":8.35,"wind_gusts":29.5,"aqi":58,"pm10":28.6,"pm2_5":13.8,"no2":3.8,"co":183.0,"o3":65.0,"so2":2.2,"mosquito_risk":7,"arthritis_risk":5,"migraine_risk":7,"frizz_risk":1,"updated_at":"2026-06-16T10:11:48.346115+05:30"},{"city":"Mangalore","state":"Karnataka","latitude":12.9141,"longitude":74.856,"temp":29.1,"humidity":80,"rain":0.1,"pressure":1008.7,"uv_index":8.2,"wind_gusts":43.9,"aqi":57,"pm10":31.7,"pm2_5":16.4,"no2":3.5,"co":149.0,"o3":59.0,"so2":2.7,"mosquito_risk":10,"arthritis_risk":0,"migraine_risk":4,"frizz_risk":1,"updated_at":"2026-06-16T10:11:48.346122+05:30"},{"city":"Hubli-Dharwad","state":"Karnataka","latitude":15.3647,"longitude":75.124,"temp":29.1,"humidity":60,"rain":0.0,"pressure":942.9,"uv_index":8.85,"wind_gusts":48.6,"aqi":48,"pm10":17.4,"pm2_5":9.1,"no2":2.9,"co":134.0,"o3":60.0,"so2":1.6,"mosquito_risk":4,"arthritis_risk":5,"migraine_risk":7,"frizz_risk":1,"updated_at":"2026-06-16T10:11:48.346128+05:30"},{"city":"Belgaum","state":"Karnataka","latitude":15.8497,"longitude":74.4977,"temp":28.1,"humidity":61,"rain":0.0,"pressure":928.0,"uv_index":7.0,"wind_gusts":40.3,"aqi":51,"pm10":15.4,"pm2_5":8.4,"no2":2.5,"co":119.0,"o3":59.0,"so2":1.5,"mosquito_risk":7,"arthritis_risk":5,"migraine_risk":7,"frizz_risk":1,"updated_at":"2026-06-16T10:11:51.574706+05:30"},{"city":"Coimbatore","state":"Tamil Nadu","latitude":11.0168,"longitude":76.9558,"temp":28.2,"humidity":73,"rain":0.0,"pressure":963.4,"uv_index":8.55,"wind_gusts":40.7,"aqi":63,"pm10":30.3,"pm2_5":16.5,"no2":4.5,"co":230.0,"o3":73.0,"so2":4.5,"mosquito_risk":7,"arthritis_risk":5,"migraine_risk":7,"frizz_risk":1,"updated_at":"2026-06-16T10:11:51.574741+05:30"},{"city":"Madurai","state":"Tamil Nadu","latitude":9.9252,"longitude":78.1198,"temp":35.1,"humidity":40,"rain":0.0,"pressure":993.7,"uv_index":8.6,"wind_gusts":35.3,"aqi":85,"pm10":34.2,"pm2_5":18.3,"no2":7.9,"co":170.0,"o3":87.0,"so2":5.6,"mosquito_risk":0,"arthritis_risk":5,"migraine_risk":10,"frizz_risk":1,"updated_at":"2026-06-16T10:11:51.574752+05:30"},{"city":"Trichy","state":"Tamil Nadu","latitude":10.7905,"longitude":78.7047,"temp":33.8,"humidity":50,"rain":0.0,"pressure":1000.1,"uv_index":8.05,"wind_gusts":37.8,"aqi":78,"pm10":26.8,"pm2_5":15.4,"no2":5.1,"co":175.0,"o3":73.0,"so2":4.4,"mosquito_risk":0,"arthritis_risk":5,"migraine_risk":4,"frizz_risk":1,"updated_at":"2026-06-16T10:11:51.574760+05:30"},{"city":"Salem","state":"Tamil Nadu","latitude":11.6643,"longitude":78.146,"temp":30.9,"humidity":58,"rain":0.0,"pressure":978.6,"uv_index":8.55,"wind_gusts":31.7,"aqi":78,"pm10":42.4,"pm2_5":25.3,"no2":9.3,"co":170.0,"o3":92.0,"so2":14.0,"mosquito_risk":0,"arthritis_risk":5,"migraine_risk":7,"frizz_risk":1,"updated_at":"2026-06-16T10:11:51.574768+05:30"},{"city":"Tirunelveli","state":"Tamil Nadu","latitude":8.7139,"longitude":77.7567,"temp":36.0,"humidity":40,"rain":0.0,"pressure":1003.5,"uv_index":8.6,"wind_gusts":38.5,"aqi":53,"pm10":11.1,"pm2_5":7.1,"no2":3.3,"co":143.0,"o3":65.0,"so2":2.2,"mosquito_risk":0,"arthritis_risk":5,"migraine_risk":7,"frizz_risk":1,"updated_at":"2026-06-16T10:11:51.574775+05:30"},{"city":"Vellore","state":"Tamil Nadu","latitude":12.9165,"longitude":79.1325,"temp":32.3,"humidity":53,"rain":0.0,"pressure":984.4,"uv_index":8.0,"wind_gusts":36.0,"aqi":111,"pm10":25.6,"pm2_5":16.3,"no2":4.6,"co":175.0,"o3":86.0,"so2":4.7,"mosquito_risk":0,"arthritis_risk":5,"migraine_risk":7,"frizz_risk":1,"updated_at":"2026-06-16T10:11:51.574783+05:30"},{"city":"Erode","state":"Tamil Nadu","latitude":11.341,"longitude":77.7172,"temp":31.9,"humidity":56,"rain":0.0,"pressure":990.2,"uv_index":8.25,"wind_gusts":28.8,"aqi":70,"pm10":32.5,"pm2_5":19.4,"no2":7.2,"co":215.0,"o3":78.0,"so2":3.9,"mosquito_risk":0,"arthritis_risk":5,"migraine_risk":7,"frizz_risk":1,"updated_at":"2026-06-16T10:11:51.574789+05:30"},{"city":"Kochi","state":"Kerala","latitude":9.9312,"longitude":76.2673,"temp":28.2,"humidity":79,"rain":0.0,"pressure":1011.0,"uv_index":7.5,"wind_gusts":32.0,"aqi":62,"pm10":20.6,"pm2_5":12.6,"no2":6.3,"co":177.0,"o3":60.0,"so2":4.6,"mosquito_risk":7,"arthritis_risk":0,"migraine_risk":4,"frizz_risk":1,"updated_at":"2026-06-16T10:11:51.574796+05:30"},{"city":"Thiruvananthapuram","state":"Kerala","latitude":8.5241,"longitude":76.9366,"temp":28.8,"humidity":74,"rain":0.0,"pressure":1010.1,"uv_index":7.8,"wind_gusts":41.0,"aqi":57,"pm10":19.4,"pm2_5":11.0,"no2":3.2,"co":199.0,"o3":66.0,"so2":2.5,"mosquito_risk":7,"arthritis_risk":0,"migraine_risk":4,"frizz_risk":1,"updated_at":"2026-06-16T10:11:51.574804+05:30"},{"city":"Kozhikode","state":"Kerala","latitude":11.2588,"longitude":75.7804,"temp":29.7,"humidity":76,"rain":0.0,"pressure":1009.4,"uv_index":7.3,"wind_gusts":41.8,"aqi":53,"pm10":25.0,"pm2_5":11.6,"no2":1.3,"co":143.0,"o3":62.0,"so2":1.9,"mosquito_risk":7,"arthritis_risk":0,"migraine_risk":4,"frizz_risk":1,"updated_at":"2026-06-16T10:11:51.574811+05:30"},{"city":"Thrissur","state":"Kerala","latitude":10.5276,"longitude":76.2144,"temp":28.2,"humidity":82,"rain":0.0,"pressure":1009.0,"uv_index":6.25,"wind_gusts":36.0,"aqi":65,"pm10":20.6,"pm2_5":12.6,"no2":3.9,"co":173.0,"o3":60.0,"so2":2.8,"mosquito_risk":7,"arthritis_risk":0,"migraine_risk":4,"frizz_risk":1,"updated_at":"2026-06-16T10:11:51.574819+05:30"},{"city":"Kannur","state":"Kerala","latitude":11.8745,"longitude":75.3704,"temp":29.9,"humidity":75,"rain":0.0,"pressure":1008.8,"uv_index":7.6,"wind_gusts":44.6,"aqi":54,"pm10":26.5,"pm2_5":13.9,"no2":3.2,"co":169.0,"o3":63.0,"so2":2.6,"mosquito_risk":7,"arthritis_risk":0,"migraine_risk":4,"frizz_risk":1,"updated_at":"2026-06-16T10:11:51.574826+05:30"},{"city":"Patna","state":"Bihar","latitude":25.5941,"longitude":85.1376,"temp":34.4,"humidity":58,"rain":0.0,"pressure":998.4,"uv_index":8.85,"wind_gusts":23.8,"aqi":159,"pm10":89.2,"pm2_5":67.3,"no2":8.3,"co":543.0,"o3":189.0,"so2":19.7,"mosquito_risk":0,"arthritis_risk":5,"migraine_risk":7,"frizz_risk":1,"updated_at":"2026-06-16T10:11:51.574833+05:30"},{"city":"Gaya","state":"Bihar","latitude":24.7914,"longitude":85.0002,"temp":36.7,"humidity":39,"rain":0.0,"pressure":991.6,"uv_index":8.95,"wind_gusts":24.1,"aqi":149,"pm10":149.0,"pm2_5":52.3,"no2":3.8,"co":299.0,"o3":171.0,"so2":11.2,"mosquito_risk":0,"arthritis_risk":5,"migraine_risk":10,"frizz_risk":1,"updated_at":"2026-06-16T10:11:51.574840+05:30"},{"city":"Muzaffarpur","state":"Bihar","latitude":26.1209,"longitude":85.3647,"temp":32.4,"humidity":68,"rain":0.0,"pressure":998.6,"uv_index":8.85,"wind_gusts":28.1,"aqi":157,"pm10":81.3,"pm2_5":71.5,"no2":7.5,"co":500.0,"o3":176.0,"so2":20.7,"mosquito_risk":3,"arthritis_risk":5,"migraine_risk":7,"frizz_risk":1,"updated_at":"2026-06-16T10:11:51.574847+05:30"},{"city":"Bhagalpur","state":"Bihar","latitude":25.2425,"longitude":87.0117,"temp":34.2,"humidity":61,"rain":0.0,"pressure":999.2,"uv_index":8.85,"wind_gusts":39.2,"aqi":153,"pm10":84.5,"pm2_5":73.3,"no2":7.3,"co":560.0,"o3":185.0,"so2":34.2,"mosquito_risk":3,"arthritis_risk":5,"migraine_risk":7,"frizz_risk":1,"updated_at":"2026-06-16T10:11:51.574854+05:30"},{"city":"Ranchi","state":"Jharkhand","latitude":23.3441,"longitude":85.3096,"temp":32.1,"humidity":46,"rain":0.0,"pressure":937.5,"uv_index":9.25,"wind_gusts":22.3,"aqi":129,"pm10":73.6,"pm2_5":42.4,"no2":3.0,"co":291.0,"o3":159.0,"so2":21.4,"mosquito_risk":0,"arthritis_risk":5,"migraine_risk":7,"frizz_risk":1,"updated_at":"2026-06-16T10:11:51.574861+05:30"},{"city":"Jamshedpur","state":"Jharkhand","latitude":22.8046,"longitude":86.2029,"temp":34.7,"humidity":52,"rain":0.0,"pressure":989.0,"uv_index":9.1,"wind_gusts":21.2,"aqi":156,"pm10":91.7,"pm2_5":69.8,"no2":8.4,"co":426.0,"o3":188.0,"so2":45.9,"mosquito_risk":0,"arthritis_risk":5,"migraine_risk":7,"frizz_risk":1,"updated_at":"2026-06-16T10:11:51.574867+05:30"},{"city":"Dhanbad","state":"Jharkhand","latitude":23.7957,"longitude":86.4304,"temp":36.0,"humidity":39,"rain":0.0,"pressure":978.2,"uv_index":9.1,"wind_gusts":28.1,"aqi":160,"pm10":101.7,"pm2_5":82.0,"no2":33.2,"co":481.0,"o3":153.0,"so2":103.7,"mosquito_risk":0,"arthritis_risk":5,"migraine_risk":10,"frizz_risk":1,"updated_at":"2026-06-16T10:11:51.574875+05:30"},{"city":"Bokaro","state":"Jharkhand","latitude":23.6693,"longitude":86.1511,"temp":35.4,"humidity":43,"rain":0.0,"pressure":981.9,"uv_index":9.1,"wind_gusts":26.3,"aqi":162,"pm10":89.2,"pm2_5":62.6,"no2":17.1,"co":440.0,"o3":173.0,"so2":60.8,"mosquito_risk":0,"arthritis_risk":5,"migraine_risk":10,"frizz_risk":1,"updated_at":"2026-06-16T10:11:51.574882+05:30"},{"city":"Bhubaneswar","state":"Odisha","latitude":20.2961,"longitude":85.8245,"temp":34.1,"humidity":65,"rain":0.0,"pressure":1000.4,"uv_index":9.05,"wind_gusts":39.6,"aqi":118,"pm10":47.1,"pm2_5":33.2,"no2":3.1,"co":270.0,"o3":148.0,"so2":10.3,"mosquito_risk":3,"arthritis_risk":5,"migraine_risk":4,"frizz_risk":1,"updated_at":"2026-06-16T10:11:51.574889+05:30"},{"city":"Cuttack","state":"Odisha","latitude":20.4625,"longitude":85.8828,"temp":33.6,"humidity":70,"rain":0.0,"pressure":1002.2,"uv_index":9.1,"wind_gusts":45.0,"aqi":118,"pm10":47.1,"pm2_5":33.2,"no2":3.1,"co":314.0,"o3":148.0,"so2":10.3,"mosquito_risk":3,"arthritis_risk":5,"migraine_risk":4,"frizz_risk":1,"updated_at":"2026-06-16T10:11:51.574895+05:30"},{"city":"Rourkela","state":"Odisha","latitude":22.2604,"longitude":84.8536,"temp":34.4,"humidity":55,"rain":0.0,"pressure":983.4,"uv_index":9.05,"wind_gusts":35.6,"aqi":144,"pm10":57.4,"pm2_5":41.0,"no2":3.6,"co":350.0,"o3":160.0,"so2":20.2,"mosquito_risk":0,"arthritis_risk":5,"migraine_risk":7,"frizz_risk":1,"updated_at":"2026-06-16T10:11:51.574902+05:30"},{"city":"Raipur","state":"Chhattisgarh","latitude":21.2514,"longitude":81.6296,"temp":34.2,"humidity":45,"rain":0.0,"pressure":973.4,"uv_index":8.95,"wind_gusts":33.5,"aqi":150,"pm10":107.6,"pm2_5":63.8,"no2":42.4,"co":536.0,"o3":81.0,"so2":120.1,"mosquito_risk":0,"arthritis_risk":5,"migraine_risk":7,"frizz_risk":1,"updated_at":"2026-06-16T10:11:51.574924+05:30"},{"city":"Bhilai","state":"Chhattisgarh","latitude":21.1938,"longitude":81.3509,"temp":34.8,"humidity":43,"rain":0.0,"pressure":973.7,"uv_index":8.95,"wind_gusts":28.1,"aqi":153,"pm10":123.9,"pm2_5":72.4,"no2":48.3,"co":1170.0,"o3":74.0,"so2":147.7,"mosquito_risk":0,"arthritis_risk":5,"migraine_risk":7,"frizz_risk":1,"updated_at":"2026-06-16T10:11:51.574931+05:30"},{"city":"Guwahati","state":"Assam","latitude":26.1158,"longitude":91.7086,"temp":28.7,"humidity":80,"rain":0.0,"pressure":1001.2,"uv_index":8.5,"wind_gusts":20.5,"aqi":82,"pm10":44.6,"pm2_5":35.2,"no2":1.5,"co":356.0,"o3":134.0,"so2":5.3,"mosquito_risk":7,"arthritis_risk":5,"migraine_risk":4,"frizz_risk":1,"updated_at":"2026-06-16T10:11:51.574937+05:30"},{"city":"Agartala","state":"Tripura","latitude":23.8315,"longitude":91.2868,"temp":31.4,"humidity":69,"rain":0.0,"pressure":1005.1,"uv_index":8.8,"wind_gusts":25.9,"aqi":101,"pm10":31.7,"pm2_5":22.5,"no2":4.4,"co":193.0,"o3":116.0,"so2":3.1,"mosquito_risk":3,"arthritis_risk":5,"migraine_risk":4,"frizz_risk":1,"updated_at":"2026-06-16T10:11:51.574944+05:30"},{"city":"Shillong","state":"Meghalaya","latitude":25.5788,"longitude":91.8933,"temp":24.0,"humidity":72,"rain":0.0,"pressure":858.7,"uv_index":8.1,"wind_gusts":19.4,"aqi":60,"pm10":34.7,"pm2_5":24.3,"no2":1.3,"co":220.0,"o3":135.0,"so2":3.8,"mosquito_risk":3,"arthritis_risk":5,"migraine_risk":7,"frizz_risk":1,"updated_at":"2026-06-16T10:11:51.574951+05:30"},{"city":"Imphal","state":"Manipur","latitude":24.817,"longitude":93.9368,"temp":28.1,"humidity":66,"rain":0.0,"pressure":922.9,"uv_index":9.1,"wind_gusts":35.3,"aqi":69,"pm10":28.8,"pm2_5":19.8,"no2":1.4,"co":203.0,"o3":111.0,"so2":2.3,"mosquito_risk":7,"arthritis_risk":5,"migraine_risk":7,"frizz_risk":1,"updated_at":"2026-06-16T10:11:51.574958+05:30"},{"city":"Aizawl","state":"Mizoram","latitude":23.7271,"longitude":92.7176,"temp":25.8,"humidity":67,"rain":0.0,"pressure":892.9,"uv_index":6.9,"wind_gusts":19.8,"aqi":53,"pm10":11.9,"pm2_5":8.7,"no2":1.3,"co":157.0,"o3":85.0,"so2":1.6,"mosquito_risk":7,"arthritis_risk":5,"migraine_risk":7,"frizz_risk":1,"updated_at":"2026-06-16T10:11:51.574965+05:30"},{"city":"Kohima","state":"Nagaland","latitude":25.6701,"longitude":94.1077,"temp":21.7,"humidity":90,"rain":0.1,"pressure":855.7,"uv_index":7.45,"wind_gusts":23.4,"aqi":51,"pm10":32.0,"pm2_5":21.4,"no2":0.7,"co":222.0,"o3":110.0,"so2":2.2,"mosquito_risk":6,"arthritis_risk":5,"migraine_risk":7,"frizz_risk":1,"updated_at":"2026-06-16T10:11:51.574972+05:30"},{"city":"Gangtok","state":"Sikkim","latitude":27.3314,"longitude":88.6138,"temp":23.2,"humidity":66,"rain":0.0,"pressure":839.6,"uv_index":8.9,"wind_gusts":36.4,"aqi":65,"pm10":20.8,"pm2_5":16.6,"no2":1.1,"co":287.0,"o3":144.0,"so2":2.9,"mosquito_risk":3,"arthritis_risk":5,"migraine_risk":7,"frizz_risk":1,"updated_at":"2026-06-16T10:11:51.574979+05:30"},{"city":"Siliguri","state":"West Bengal","latitude":26.7271,"longitude":88.3953,"temp":28.8,"humidity":74,"rain":0.0,"pressure":992.5,"uv_index":8.65,"wind_gusts":23.0,"aqi":119,"pm10":43.3,"pm2_5":35.6,"no2":2.2,"co":467.0,"o3":165.0,"so2":5.0,"mosquito_risk":7,"arthritis_risk":5,"migraine_risk":7,"frizz_risk":1,"updated_at":"2026-06-16T10:11:54.808257+05:30"},{"city":"Durgapur","state":"West Bengal","latitude":23.5204,"longitude":87.3119,"temp":34.1,"humidity":63,"rain":0.0,"pressure":992.9,"uv_index":9.0,"wind_gusts":24.5,"aqi":166,"pm10":95.2,"pm2_5":80.8,"no2":24.8,"co":911.0,"o3":157.0,"so2":81.6,"mosquito_risk":3,"arthritis_risk":5,"migraine_risk":7,"frizz_risk":1,"updated_at":"2026-06-16T10:11:54.808293+05:30"},{"city":"Asansol","state":"West Bengal","latitude":23.6739,"longitude":86.9524,"temp":34.4,"humidity":60,"rain":0.0,"pressure":991.4,"uv_index":9.05,"wind_gusts":33.1,"aqi":157,"pm10":100.6,"pm2_5":84.1,"no2":27.6,"co":642.0,"o3":155.0,"so2":90.4,"mosquito_risk":0,"arthritis_risk":5,"migraine_risk":7,"frizz_risk":1,"updated_at":"2026-06-16T10:11:54.808305+05:30"},{"city":"Pondicherry","state":"Puducherry","latitude":11.9139,"longitude":79.8145,"temp":33.5,"humidity":53,"rain":0.0,"pressure":1007.9,"uv_index":8.05,"wind_gusts":32.8,"aqi":86,"pm10":39.5,"pm2_5":27.2,"no2":10.8,"co":276.0,"o3":91.0,"so2":9.6,"mosquito_risk":0,"arthritis_risk":5,"migraine_risk":4,"frizz_risk":1,"updated_at":"2026-06-16T10:11:54.808314+05:30"},{"city":"Port Blair","state":"Andaman and Nicobar Islands","latitude":11.6234,"longitude":92.7265,"temp":30.5,"humidity":71,"rain":0.0,"pressure":1009.1,"uv_index":8.2,"wind_gusts":46.8,"aqi":32,"pm10":10.0,"pm2_5":5.9,"no2":0.3,"co":96.0,"o3":40.0,"so2":0.5,"mosquito_risk":3,"arthritis_risk":0,"migraine_risk":4,"frizz_risk":1,"updated_at":"2026-06-16T10:11:54.808322+05:30"},{"city":"Haridwar","state":"Uttarakhand","latitude":29.9457,"longitude":78.1642,"temp":32.6,"humidity":40,"rain":0.0,"pressure":972.8,"uv_index":7.6,"wind_gusts":24.8,"aqi":122,"pm10":93.1,"pm2_5":39.3,"no2":2.6,"co":369.0,"o3":168.0,"so2":8.4,"mosquito_risk":0,"arthritis_risk":5,"migraine_risk":7,"frizz_risk":1,"updated_at":"2026-06-16T10:11:54.808330+05:30"},{"city":"Rishikesh","state":"Uttarakhand","latitude":30.0869,"longitude":78.2676,"temp":32.1,"humidity":42,"rain":0.0,"pressure":965.6,"uv_index":7.7,"wind_gusts":21.6,"aqi":76,"pm10":32.2,"pm2_5":16.8,"no2":1.2,"co":265.0,"o3":153.0,"so2":3.5,"mosquito_risk":0,"arthritis_risk":5,"migraine_risk":7,"frizz_risk":1,"updated_at":"2026-06-16T10:11:54.808337+05:30"},{"city":"Nainital","state":"Uttarakhand","latitude":29.3919,"longitude":79.4542,"temp":23.3,"humidity":42,"rain":0.0,"pressure":808.9,"uv_index":8.05,"wind_gusts":28.8,"aqi":83,"pm10":23.9,"pm2_5":18.3,"no2":0.0,"co":205.0,"o3":164.0,"so2":6.0,"mosquito_risk":0,"arthritis_risk":5,"migraine_risk":7,"frizz_risk":0,"updated_at":"2026-06-16T10:11:54.808344+05:30"},{"city":"Mussoorie","state":"Uttarakhand","latitude":30.4599,"longitude":78.0664,"temp":22.7,"humidity":39,"rain":0.0,"pressure":806.0,"uv_index":7.6,"wind_gusts":34.9,"aqi":69,"pm10":20.3,"pm2_5":10.6,"no2":1.2,"co":193.0,"o3":157.0,"so2":3.4,"mosquito_risk":0,"arthritis_risk":5,"migraine_risk":7,"frizz_risk":0,"updated_at":"2026-06-16T10:11:54.808352+05:30"},{"city":"Dharamshala","state":"Himachal Pradesh","latitude":32.219,"longitude":76.3234,"temp":24.6,"humidity":52,"rain":0.0,"pressure":870.0,"uv_index":8.55,"wind_gusts":45.7,"aqi":33,"pm10":10.8,"pm2_5":6.6,"no2":0.9,"co":184.0,"o3":127.0,"so2":0.7,"mosquito_risk":0,"arthritis_risk":5,"migraine_risk":7,"frizz_risk":0,"updated_at":"2026-06-16T10:11:54.808359+05:30"},{"city":"Dalhousie","state":"Himachal Pradesh","latitude":32.5387,"longitude":75.971,"temp":20.8,"humidity":52,"rain":0.1,"pressure":806.4,"uv_index":8.8,"wind_gusts":30.6,"aqi":67,"pm10":25.8,"pm2_5":14.8,"no2":2.0,"co":217.0,"o3":144.0,"so2":1.2,"mosquito_risk":3,"arthritis_risk":5,"migraine_risk":7,"frizz_risk":0,"updated_at":"2026-06-16T10:11:54.808367+05:30"},{"city":"Patiala","state":"Punjab","latitude":30.3398,"longitude":76.3869,"temp":33.6,"humidity":44,"rain":0.0,"pressure":976.7,"uv_index":7.7,"wind_gusts":34.6,"aqi":191,"pm10":258.9,"pm2_5":74.3,"no2":3.1,"co":244.0,"o3":137.0,"so2":12.7,"mosquito_risk":0,"arthritis_risk":5,"migraine_risk":7,"frizz_risk":1,"updated_at":"2026-06-16T10:11:54.808375+05:30"},{"city":"Bhatinda","state":"Punjab","latitude":30.211,"longitude":74.9455,"temp":34.3,"humidity":40,"rain":0.0,"pressure":981.4,"uv_index":8.3,"wind_gusts":28.8,"aqi":156,"pm10":195.1,"pm2_5":60.3,"no2":8.4,"co":214.0,"o3":101.0,"so2":9.0,"mosquito_risk":0,"arthritis_risk":5,"migraine_risk":7,"frizz_risk":1,"updated_at":"2026-06-16T10:11:54.808382+05:30"},{"city":"Rohtak","state":"Haryana","latitude":28.8955,"longitude":76.6066,"temp":32.3,"humidity":46,"rain":0.0,"pressure":980.7,"uv_index":7.8,"wind_gusts":50.8,"aqi":526,"pm10":514.1,"pm2_5":104.5,"no2":12.4,"co":431.0,"o3":105.0,"so2":20.1,"mosquito_risk":0,"arthritis_risk":5,"migraine_risk":7,"frizz_risk":1,"updated_at":"2026-06-16T10:11:54.808389+05:30"},{"city":"Panipat","state":"Haryana","latitude":29.3909,"longitude":76.9635,"temp":33.2,"humidity":41,"rain":0.0,"pressure":979.3,"uv_index":7.65,"wind_gusts":22.7,"aqi":738,"pm10":836.3,"pm2_5":141.6,"no2":12.7,"co":242.0,"o3":92.0,"so2":20.9,"mosquito_risk":0,"arthritis_risk":5,"migraine_risk":7,"frizz_risk":1,"updated_at":"2026-06-16T10:11:54.808396+05:30"},{"city":"Mathura","state":"Uttar Pradesh","latitude":27.4924,"longitude":77.6737,"temp":33.8,"humidity":37,"rain":0.0,"pressure":985.6,"uv_index":8.1,"wind_gusts":23.8,"aqi":759,"pm10":778.6,"pm2_5":146.7,"no2":12.5,"co":293.0,"o3":102.0,"so2":12.7,"mosquito_risk":0,"arthritis_risk":5,"migraine_risk":7,"frizz_risk":1,"updated_at":"2026-06-16T10:11:54.808402+05:30"},{"city":"Vrindavan","state":"Uttar Pradesh","latitude":27.5823,"longitude":77.7027,"temp":34.1,"humidity":36,"rain":0.0,"pressure":986.2,"uv_index":8.05,"wind_gusts":23.8,"aqi":759,"pm10":778.6,"pm2_5":146.7,"no2":12.5,"co":268.0,"o3":102.0,"so2":12.7,"mosquito_risk":0,"arthritis_risk":5,"migraine_risk":7,"frizz_risk":1,"updated_at":"2026-06-16T10:11:54.808409+05:30"},{"city":"Ayodhya","state":"Uttar Pradesh","latitude":26.7922,"longitude":82.1998,"temp":34.5,"humidity":54,"rain":0.0,"pressure":993.1,"uv_index":8.4,"wind_gusts":23.8,"aqi":159,"pm10":146.2,"pm2_5":69.8,"no2":11.5,"co":403.0,"o3":157.0,"so2":13.0,"mosquito_risk":0,"arthritis_risk":5,"migraine_risk":7,"frizz_risk":1,"updated_at":"2026-06-16T10:11:54.808415+05:30"},{"city":"Ratlam","state":"Madhya Pradesh","latitude":23.3315,"longitude":75.0367,"temp":31.8,"humidity":52,"rain":0.0,"pressure":955.0,"uv_index":8.5,"wind_gusts":39.2,"aqi":77,"pm10":41.6,"pm2_5":21.1,"no2":3.6,"co":133.0,"o3":63.0,"so2":8.8,"mosquito_risk":0,"arthritis_risk":5,"migraine_risk":7,"frizz_risk":1,"updated_at":"2026-06-16T10:11:54.808422+05:30"},{"city":"Sagar","state":"Madhya Pradesh","latitude":23.8388,"longitude":78.7378,"temp":32.4,"humidity":47,"rain":0.0,"pressure":950.2,"uv_index":8.6,"wind_gusts":38.9,"aqi":88,"pm10":71.5,"pm2_5":31.9,"no2":2.2,"co":186.0,"o3":96.0,"so2":3.5,"mosquito_risk":0,"arthritis_risk":5,"migraine_risk":7,"frizz_risk":1,"updated_at":"2026-06-16T10:11:54.808428+05:30"},{"city":"Satna","state":"Madhya Pradesh","latitude":24.6005,"longitude":80.8322,"temp":36.2,"humidity":35,"rain":0.0,"pressure":970.3,"uv_index":8.8,"wind_gusts":25.6,"aqi":87,"pm10":121.1,"pm2_5":34.6,"no2":2.7,"co":167.0,"o3":104.0,"so2":5.2,"mosquito_risk":0,"arthritis_risk":5,"migraine_risk":10,"frizz_risk":1,"updated_at":"2026-06-16T10:11:54.808434+05:30"},{"city":"Akola","state":"Maharashtra","latitude":20.7002,"longitude":77.0082,"temp":34.0,"humidity":48,"rain":0.0,"pressure":975.3,"uv_index":8.8,"wind_gusts":45.0,"aqi":78,"pm10":37.1,"pm2_5":19.3,"no2":3.7,"co":122.0,"o3":67.0,"so2":8.2,"mosquito_risk":0,"arthritis_risk":5,"migraine_risk":7,"frizz_risk":1,"updated_at":"2026-06-16T10:11:54.808441+05:30"},{"city":"Amravati","state":"Maharashtra","latitude":20.9374,"longitude":77.7796,"temp":33.4,"humidity":49,"rain":0.0,"pressure":967.4,"uv_index":8.7,"wind_gusts":40.7,"aqi":92,"pm10":38.5,"pm2_5":20.8,"no2":4.4,"co":137.0,"o3":72.0,"so2":10.0,"mosquito_risk":0,"arthritis_risk":5,"migraine_risk":7,"frizz_risk":1,"updated_at":"2026-06-16T10:11:54.808449+05:30"},{"city":"Latur","state":"Maharashtra","latitude":18.4088,"longitude":76.5604,"temp":31.2,"humidity":49,"rain":0.0,"pressure":941.1,"uv_index":8.9,"wind_gusts":34.6,"aqi":65,"pm10":32.0,"pm2_5":15.7,"no2":2.9,"co":150.0,"o3":70.0,"so2":5.4,"mosquito_risk":0,"arthritis_risk":5,"migraine_risk":7,"frizz_risk":1,"updated_at":"2026-06-16T10:11:54.808456+05:30"},{"city":"Nanded","state":"Maharashtra","latitude":19.1383,"longitude":77.3091,"temp":33.3,"humidity":47,"rain":0.0,"pressure":969.3,"uv_index":8.9,"wind_gusts":35.6,"aqi":71,"pm10":33.4,"pm2_5":17.8,"no2":2.5,"co":145.0,"o3":76.0,"so2":3.5,"mosquito_risk":0,"arthritis_risk":5,"migraine_risk":7,"frizz_risk":1,"updated_at":"2026-06-16T10:11:54.808463+05:30"},{"city":"Gulbarga","state":"Karnataka","latitude":17.3297,"longitude":76.8343,"temp":31.5,"humidity":46,"rain":0.0,"pressure":959.8,"uv_index":8.9,"wind_gusts":40.3,"aqi":70,"pm10":28.1,"pm2_5":15.5,"no2":3.7,"co":155.0,"o3":73.0,"so2":6.1,"mosquito_risk":0,"arthritis_risk":5,"migraine_risk":7,"frizz_risk":1,"updated_at":"2026-06-16T10:11:54.808469+05:30"},{"city":"Bidar","state":"Karnataka","latitude":17.9104,"longitude":77.5199,"temp":30.6,"humidity":52,"rain":0.0,"pressure":936.7,"uv_index":8.95,"wind_gusts":35.6,"aqi":88,"pm10":34.3,"pm2_5":18.9,"no2":3.7,"co":151.0,"o3":77.0,"so2":6.0,"mosquito_risk":0,"arthritis_risk":5,"migraine_risk":7,"frizz_risk":1,"updated_at":"2026-06-16T10:11:54.808477+05:30"},{"city":"Hospet","state":"Karnataka","latitude":15.2689,"longitude":76.3909,"temp":28.9,"humidity":62,"rain":0.0,"pressure":957.5,"uv_index":8.3,"wind_gusts":33.1,"aqi":59,"pm10":25.6,"pm2_5":13.3,"no2":3.5,"co":161.0,"o3":63.0,"so2":3.3,"mosquito_risk":7,"arthritis_risk":5,"migraine_risk":7,"frizz_risk":1,"updated_at":"2026-06-16T10:11:54.808483+05:30"},{"city":"Tirupur","state":"Tamil Nadu","latitude":11.1085,"longitude":77.3411,"temp":31.3,"humidity":58,"rain":0.0,"pressure":976.7,"uv_index":8.35,"wind_gusts":51.1,"aqi":73,"pm10":33.9,"pm2_5":20.1,"no2":7.4,"co":201.0,"o3":79.0,"so2":4.8,"mosquito_risk":0,"arthritis_risk":5,"migraine_risk":7,"frizz_risk":1,"updated_at":"2026-06-16T10:11:54.808490+05:30"},{"city":"Alappuzha","state":"Kerala","latitude":9.4981,"longitude":76.3388,"temp":28.3,"humidity":78,"rain":0.0,"pressure":1011.1,"uv_index":8.0,"wind_gusts":33.8,"aqi":61,"pm10":20.2,"pm2_5":12.0,"no2":6.0,"co":101.0,"o3":64.0,"so2":4.3,"mosquito_risk":7,"arthritis_risk":0,"migraine_risk":4,"frizz_risk":1,"updated_at":"2026-06-16T10:11:54.808496+05:30"},{"city":"Munnar","state":"Kerala","latitude":10.0889,"longitude":77.0595,"temp":22.1,"humidity":69,"rain":0.0,"pressure":859.6,"uv_index":8.65,"wind_gusts":28.8,"aqi":52,"pm10":10.3,"pm2_5":5.5,"no2":2.7,"co":122.0,"o3":62.0,"so2":2.1,"mosquito_risk":3,"arthritis_risk":5,"migraine_risk":7,"frizz_risk":1,"updated_at":"2026-06-16T10:11:54.808503+05:30"},{"city":"Silchar","state":"Assam","latitude":24.8333,"longitude":92.7789,"temp":30.2,"humidity":75,"rain":0.0,"pressure":1004.0,"uv_index":8.75,"wind_gusts":24.8,"aqi":110,"pm10":25.0,"pm2_5":20.2,"no2":1.0,"co":211.0,"o3":120.0,"so2":4.5,"mosquito_risk":3,"arthritis_risk":5,"migraine_risk":4,"frizz_risk":1,"updated_at":"2026-06-16T10:11:54.808509+05:30"},{"city":"Dibrugarh","state":"Assam","latitude":27.4728,"longitude":94.912,"temp":30.6,"humidity":73,"rain":0.0,"pressure":994.1,"uv_index":8.55,"wind_gusts":20.2,"aqi":61,"pm10":16.2,"pm2_5":14.2,"no2":1.1,"co":269.0,"o3":133.0,"so2":1.3,"mosquito_risk":3,"arthritis_risk":5,"migraine_risk":7,"frizz_risk":1,"updated_at":"2026-06-16T10:11:54.808515+05:30"}]