[{"city":"Delhi","state":"Delhi","latitude":28.6139,"longitude":77.209,"temp":29.8,"humidity":34,"rain":0.0,"pressure":986.9,"uv_index":5.8,"wind_gusts":39.2,"aqi":272,"pm10":421.0,"pm2_5":79.6,"mosquito_risk":4,"arthritis_risk":5,"migraine_risk":3,"frizz_risk":0,"updated_at":"2026-03-03T13:17:41.274307+05:30"},{"city":"Mumbai","state":"Maharashtra","latitude":19.076,"longitude":72.8777,"temp":27.1,"humidity":78,"rain":0.0,"pressure":1010.3,"uv_index":7.35,"wind_gusts":28.8,"aqi":94,"pm10":53.3,"pm2_5":47.1,"mosquito_risk":7,"arthritis_risk":0,"migraine_risk":4,"frizz_risk":1,"updated_at":"2026-03-03T13:17:41.274354+05:30"},{"city":"Bangalore","state":"Karnataka","latitude":12.9716,"longitude":77.5946,"temp":31.8,"humidity":22,"rain":0.0,"pressure":914.1,"uv_index":9.1,"wind_gusts":38.2,"aqi":113,"pm10":27.5,"pm2_5":26.6,"mosquito_risk":0,"arthritis_risk":5,"migraine_risk":7,"frizz_risk":0,"updated_at":"2026-03-03T13:17:41.274370+05:30"},{"city":"Hyderabad","state":"Telangana","latitude":17.385,"longitude":78.4867,"temp":33.7,"humidity":30,"rain":0.0,"pressure":955.9,"uv_index":8.35,"wind_gusts":23.8,"aqi":143,"pm10":27.1,"pm2_5":26.3,"mosquito_risk":0,"arthritis_risk":5,"migraine_risk":7,"frizz_risk":0,"updated_at":"2026-03-03T13:17:41.274380+05:30"},{"city":"Chennai","state":"Tamil Nadu","latitude":13.0827,"longitude":80.2707,"temp":32.7,"humidity":38,"rain":0.0,"pressure":1010.0,"uv_index":8.8,"wind_gusts":29.5,"aqi":118,"pm10":40.6,"pm2_5":35.9,"mosquito_risk":0,"arthritis_risk":0,"migraine_risk":4,"frizz_risk":1,"updated_at":"2026-03-03T13:17:41.274397+05:30"},{"city":"Kolkata","state":"West Bengal","latitude":22.5726,"longitude":88.3639,"temp":31.6,"humidity":30,"rain":0.0,"pressure":1008.7,"uv_index":7.7,"wind_gusts":20.5,"aqi":179,"pm10":85.9,"pm2_5":45.3,"mosquito_risk":0,"arthritis_risk":0,"migraine_risk":4,"frizz_risk":0,"updated_at":"2026-03-03T13:17:41.274408+05:30"},{"city":"Pune","state":"Maharashtra","latitude":18.5204,"longitude":73.8567,"temp":35.8,"humidity":23,"rain":0.0,"pressure":951.0,"uv_index":7.9,"wind_gusts":33.1,"aqi":84,"pm10":19.6,"pm2_5":19.3,"mosquito_risk":0,"arthritis_risk":5,"migraine_risk":10,"frizz_risk":0,"updated_at":"2026-03-03T13:17:41.274424+05:30"},{"city":"Ahmedabad","state":"Gujarat","latitude":23.0225,"longitude":72.5714,"temp":36.0,"humidity":25,"rain":0.0,"pressure":1006.1,"uv_index":7.15,"wind_gusts":15.5,"aqi":101,"pm10":28.8,"pm2_5":17.9,"mosquito_risk":0,"arthritis_risk":5,"migraine_risk":7,"frizz_risk":0,"updated_at":"2026-03-03T13:17:41.274434+05:30"},{"city":"Jaipur","state":"Rajasthan","latitude":26.9124,"longitude":75.7873,"temp":33.6,"humidity":14,"rain":0.0,"pressure":964.7,"uv_index":6.6,"wind_gusts":31.0,"aqi":100,"pm10":110.1,"pm2_5":29.3,"mosquito_risk":0,"arthritis_risk":5,"migraine_risk":7,"frizz_risk":0,"updated_at":"2026-03-03T13:17:41.274442+05:30"},{"city":"Lucknow","state":"Uttar Pradesh","latitude":26.8467,"longitude":80.9462,"temp":30.0,"humidity":35,"rain":0.0,"pressure":997.0,"uv_index":6.3,"wind_gusts":38.5,"aqi":153,"pm10":128.5,"pm2_5":50.1,"mosquito_risk":4,"arthritis_risk":5,"migraine_risk":7,"frizz_risk":0,"updated_at":"2026-03-03T13:17:41.274451+05:30"},{"city":"Kanpur","state":"Uttar Pradesh","latitude":26.4499,"longitude":80.3319,"temp":30.4,"humidity":32,"rain":0.0,"pressure":995.6,"uv_index":6.3,"wind_gusts":31.7,"aqi":181,"pm10":231.4,"pm2_5":55.8,"mosquito_risk":0,"arthritis_risk":5,"migraine_risk":7,"frizz_risk":0,"updated_at":"2026-03-03T13:17:41.274458+05:30"},{"city":"Chandigarh","state":"Chandigarh","latitude":30.7333,"longitude":76.7794,"temp":28.4,"humidity":37,"rain":0.0,"pressure":972.0,"uv_index":5.7,"wind_gusts":35.6,"aqi":82,"pm10":31.1,"pm2_5":26.5,"mosquito_risk":4,"arthritis_risk":5,"migraine_risk":3,"frizz_risk":0,"updated_at":"2026-03-03T13:17:41.274467+05:30"},{"city":"Srinagar","state":"Jammu and Kashmir","latitude":34.0837,"longitude":74.7973,"temp":18.6,"humidity":22,"rain":0.0,"pressure":846.6,"uv_index":6.6,"wind_gusts":15.8,"aqi":139,"pm10":33.6,"pm2_5":26.5,"mosquito_risk":0,"arthritis_risk":5,"migraine_risk":7,"frizz_risk":1,"updated_at":"2026-03-03T13:17:41.274474+05:30"},{"city":"Jammu","state":"Jammu and Kashmir","latitude":32.7266,"longitude":74.857,"temp":27.6,"humidity":40,"rain":0.0,"pressure":975.9,"uv_index":6.3,"wind_gusts":23.8,"aqi":101,"pm10":31.1,"pm2_5":24.6,"mosquito_risk":4,"arthritis_risk":5,"migraine_risk":7,"frizz_risk":0,"updated_at":"2026-03-03T13:17:41.274482+05:30"},{"city":"Amritsar","state":"Punjab","latitude":31.634,"longitude":74.8723,"temp":28.8,"humidity":35,"rain":0.0,"pressure":984.8,"uv_index":6.25,"wind_gusts":29.5,"aqi":87,"pm10":26.1,"pm2_5":21.9,"mosquito_risk":4,"arthritis_risk":5,"migraine_risk":7,"frizz_risk":0,"updated_at":"2026-03-03T13:17:41.274489+05:30"},{"city":"Ludhiana","state":"Punjab","latitude":30.901,"longitude":75.8573,"temp":28.3,"humidity":35,"rain":0.0,"pressure":982.7,"uv_index":5.9,"wind_gusts":31.7,"aqi":137,"pm10":58.3,"pm2_5":41.6,"mosquito_risk":4,"arthritis_risk":5,"migraine_risk":3,"frizz_risk":0,"updated_at":"2026-03-03T13:17:41.274497+05:30"},{"city":"Jalandhar","state":"Punjab","latitude":31.326,"longitude":75.5762,"temp":27.8,"humidity":38,"rain":0.0,"pressure":983.8,"uv_index":6.1,"wind_gusts":27.0,"aqi":140,"pm10":59.0,"pm2_5":34.1,"mosquito_risk":4,"arthritis_risk":5,"migraine_risk":7,"frizz_risk":0,"updated_at":"2026-03-03T13:17:41.274508+05:30"},{"city":"Dehradun","state":"Uttarakhand","latitude":30.6284,"longitude":78.0322,"temp":21.2,"humidity":43,"rain":0.0,"pressure":832.8,"uv_index":6.05,"wind_gusts":31.3,"aqi":57,"pm10":16.8,"pm2_5":11.7,"mosquito_risk":0,"arthritis_risk":5,"migraine_risk":7,"frizz_risk":0,"updated_at":"2026-03-03T13:17:41.274515+05:30"},{"city":"Shimla","state":"Himachal Pradesh","latitude":31.1048,"longitude":77.1734,"temp":20.1,"humidity":34,"rain":0.0,"pressure":788.7,"uv_index":6.1,"wind_gusts":44.3,"aqi":71,"pm10":17.6,"pm2_5":11.3,"mosquito_risk":0,"arthritis_risk":5,"migraine_risk":7,"frizz_risk":0,"updated_at":"2026-03-03T13:17:41.274523+05:30"},{"city":"Manali","state":"Himachal Pradesh","latitude":32.2396,"longitude":77.1887,"temp":25.3,"humidity":11,"rain":0.0,"pressure":823.8,"uv_index":7.7,"wind_gusts":34.6,"aqi":52,"pm10":8.7,"pm2_5":5.5,"mosquito_risk":4,"arthritis_risk":5,"migraine_risk":7,"frizz_risk":1,"updated_at":"2026-03-03T13:17:41.274532+05:30"},{"city":"Gurgaon","state":"Haryana","latitude":28.4595,"longitude":77.0266,"temp":30.1,"humidity":32,"rain":0.0,"pressure":985.6,"uv_index":5.9,"wind_gusts":36.0,"aqi":1049,"pm10":1542.3,"pm2_5":173.7,"mosquito_risk":0,"arthritis_risk":5,"migraine_risk":3,"frizz_risk":0,"updated_at":"2026-03-03T13:17:41.274540+05:30"},{"city":"Noida","state":"Uttar Pradesh","latitude":28.5355,"longitude":77.391,"temp":30.3,"humidity":32,"rain":0.0,"pressure":988.4,"uv_index":5.85,"wind_gusts":38.5,"aqi":1049,"pm10":1542.3,"pm2_5":173.7,"mosquito_risk":0,"arthritis_risk":5,"migraine_risk":3,"frizz_risk":0,"updated_at":"2026-03-03T13:17:41.274546+05:30"},{"city":"Ghaziabad","state":"Uttar Pradesh","latitude":28.6692,"longitude":77.4538,"temp":29.3,"humidity":37,"rain":0.0,"pressure":986.4,"uv_index":5.8,"wind_gusts":38.2,"aqi":194,"pm10":306.4,"pm2_5":65.4,"mosquito_risk":4,"arthritis_risk":5,"migraine_risk":3,"frizz_risk":0,"updated_at":"2026-03-03T13:17:41.274554+05:30"},{"city":"Faridabad","state":"Haryana","latitude":28.4089,"longitude":77.3178,"temp":29.6,"humidity":34,"rain":0.0,"pressure":987.9,"uv_index":5.85,"wind_gusts":35.3,"aqi":1049,"pm10":1542.3,"pm2_5":173.7,"mosquito_risk":4,"arthritis_risk":5,"migraine_risk":3,"frizz_risk":0,"updated_at":"2026-03-03T13:17:41.274561+05:30"},{"city":"Meerut","state":"Uttar Pradesh","latitude":28.9845,"longitude":77.7064,"temp":29.8,"humidity":37,"rain":0.0,"pressure":984.7,"uv_index":5.65,"wind_gusts":43.9,"aqi":194,"pm10":306.4,"pm2_5":65.4,"mosquito_risk":4,"arthritis_risk":5,"migraine_risk":3,"frizz_risk":0,"updated_at":"2026-03-03T13:17:41.274569+05:30"},{"city":"Agra","state":"Uttar Pradesh","latitude":27.1767,"longitude":78.0081,"temp":31.7,"humidity":26,"rain":0.0,"pressure":992.2,"uv_index":6.15,"wind_gusts":31.0,"aqi":445,"pm10":536.4,"pm2_5":69.4,"mosquito_risk":0,"arthritis_risk":5,"migraine_risk":7,"frizz_risk":0,"updated_at":"2026-03-03T13:17:41.274576+05:30"},{"city":"Varanasi","state":"Uttar Pradesh","latitude":25.3176,"longitude":82.9739,"temp":29.9,"humidity":42,"rain":0.0,"pressure":1001.6,"uv_index":6.95,"wind_gusts":25.6,"aqi":98,"pm10":99.7,"pm2_5":36.4,"mosquito_risk":4,"arthritis_risk":5,"migraine_risk":4,"frizz_risk":0,"updated_at":"2026-03-03T13:17:41.274588+05:30"},{"city":"Prayagraj","state":"Uttar Pradesh","latitude":25.4358,"longitude":81.8463,"temp":30.5,"humidity":41,"rain":0.0,"pressure":999.9,"uv_index":6.8,"wind_gusts":25.6,"aqi":117,"pm10":96.6,"pm2_5":38.1,"mosquito_risk":0,"arthritis_risk":5,"migraine_risk":7,"frizz_risk":0,"updated_at":"2026-03-03T13:17:41.274595+05:30"},{"city":"Gorakhpur","state":"Uttar Pradesh","latitude":26.7606,"longitude":83.3732,"temp":28.1,"humidity":53,"rain":0.0,"pressure":1000.8,"uv_index":6.7,"wind_gusts":19.4,"aqi":146,"pm10":173.7,"pm2_5":60.8,"mosquito_risk":4,"arthritis_risk":5,"migraine_risk":4,"frizz_risk":1,"updated_at":"2026-03-03T13:17:41.274624+05:30"},{"city":"Bareilly","state":"Uttar Pradesh","latitude":28.367,"longitude":79.4304,"temp":28.1,"humidity":43,"rain":0.0,"pressure":989.9,"uv_index":6.0,"wind_gusts":32.0,"aqi":124,"pm10":75.2,"pm2_5":44.6,"mosquito_risk":4,"arthritis_risk":5,"migraine_risk":3,"frizz_risk":0,"updated_at":"2026-03-03T13:17:41.274638+05:30"},{"city":"Aligarh","state":"Uttar Pradesh","latitude":27.8974,"longitude":78.088,"temp":30.3,"humidity":31,"rain":0.0,"pressure":989.5,"uv_index":5.95,"wind_gusts":37.1,"aqi":584,"pm10":793.5,"pm2_5":118.5,"mosquito_risk":0,"arthritis_risk":5,"migraine_risk":3,"frizz_risk":0,"updated_at":"2026-03-03T13:17:41.274646+05:30"},{"city":"Moradabad","state":"Uttar Pradesh","latitude":28.8386,"longitude":78.7733,"temp":28.5,"humidity":42,"rain":0.0,"pressure":986.7,"uv_index":5.8,"wind_gusts":31.7,"aqi":130,"pm10":92.0,"pm2_5":45.2,"mosquito_risk":4,"arthritis_risk":5,"migraine_risk":3,"frizz_risk":0,"updated_at":"2026-03-03T13:17:41.274653+05:30"},{"city":"Saharanpur","state":"Uttar Pradesh","latitude":29.9637,"longitude":77.546,"temp":29.1,"humidity":32,"rain":0.0,"pressure":978.1,"uv_index":5.45,"wind_gusts":47.9,"aqi":120,"pm10":90.1,"pm2_5":41.0,"mosquito_risk":4,"arthritis_risk":5,"migraine_risk":3,"frizz_risk":0,"updated_at":"2026-03-03T13:17:41.274660+05:30"},{"city":"Jhansi","state":"Uttar Pradesh","latitude":25.4484,"longitude":78.5685,"temp":33.1,"humidity":28,"rain":0.0,"pressure":982.2,"uv_index":6.75,"wind_gusts":27.0,"aqi":85,"pm10":92.2,"pm2_5":34.0,"mosquito_risk":0,"arthritis_risk":5,"migraine_risk":7,"frizz_risk":0,"updated_at":"2026-03-03T13:17:44.526355+05:30"},{"city":"Surat","state":"Gujarat","latitude":21.1702,"longitude":72.8311,"temp":34.9,"humidity":27,"rain":0.0,"pressure":1009.9,"uv_index":7.05,"wind_gusts":26.3,"aqi":161,"pm10":72.2,"pm2_5":66.8,"mosquito_risk":0,"arthritis_risk":0,"migraine_risk":4,"frizz_risk":0,"updated_at":"2026-03-03T13:17:44.526385+05:30"},{"city":"Vadodara","state":"Gujarat","latitude":22.3072,"longitude":73.1812,"temp":36.5,"humidity":26,"rain":0.0,"pressure":1007.9,"uv_index":7.15,"wind_gusts":13.3,"aqi":155,"pm10":34.7,"pm2_5":27.9,"mosquito_risk":0,"arthritis_risk":5,"migraine_risk":7,"frizz_risk":0,"updated_at":"2026-03-03T13:17:44.526395+05:30"},{"city":"Rajkot","state":"Gujarat","latitude":22.3039,"longitude":70.8022,"temp":34.8,"humidity":26,"rain":0.0,"pressure":998.4,"uv_index":7.0,"wind_gusts":18.0,"aqi":64,"pm10":20.3,"pm2_5":12.6,"mosquito_risk":0,"arthritis_risk":5,"migraine_risk":7,"frizz_risk":0,"updated_at":"2026-03-03T13:17:44.526403+05:30"},{"city":"Thane","state":"Maharashtra","latitude":19.2183,"longitude":72.9781,"temp":34.1,"humidity":44,"rain":0.0,"pressure":1010.0,"uv_index":7.35,"wind_gusts":39.6,"aqi":94,"pm10":53.3,"pm2_5":47.1,"mosquito_risk":0,"arthritis_risk":0,"migraine_risk":4,"frizz_risk":1,"updated_at":"2026-03-03T13:17:44.526410+05:30"},{"city":"Nagpur","state":"Maharashtra","latitude":21.1458,"longitude":79.0882,"temp":33.7,"humidity":25,"rain":0.0,"pressure":976.7,"uv_index":7.75,"wind_gusts":18.0,"aqi":69,"pm10":27.2,"pm2_5":18.7,"mosquito_risk":0,"arthritis_risk":5,"migraine_risk":7,"frizz_risk":0,"updated_at":"2026-03-03T13:17:44.526417+05:30"},{"city":"Nashik","state":"Maharashtra","latitude":19.9975,"longitude":73.7898,"temp":34.2,"humidity":23,"rain":0.0,"pressure":948.9,"uv_index":7.55,"wind_gusts":32.0,"aqi":86,"pm10":21.0,"pm2_5":20.1,"mosquito_risk":0,"arthritis_risk":5,"migraine_risk":7,"frizz_risk":0,"updated_at":"2026-03-03T13:17:44.526424+05:30"},{"city":"Aurangabad","state":"Maharashtra","latitude":19.8762,"longitude":75.3433,"temp":33.9,"humidity":26,"rain":0.0,"pressure":947.4,"uv_index":8.05,"wind_gusts":25.2,"aqi":75,"pm10":18.6,"pm2_5":17.3,"mosquito_risk":0,"arthritis_risk":5,"migraine_risk":7,"frizz_risk":0,"updated_at":"2026-03-03T13:17:44.526431+05:30"},{"city":"Solapur","state":"Maharashtra","latitude":17.6599,"longitude":75.9064,"temp":33.6,"humidity":35,"rain":0.0,"pressure":959.8,"uv_index":8.3,"wind_gusts":18.0,"aqi":121,"pm10":34.9,"pm2_5":34.2,"mosquito_risk":0,"arthritis_risk":5,"migraine_risk":7,"frizz_risk":1,"updated_at":"2026-03-03T13:17:44.526438+05:30"},{"city":"Kolhapur","state":"Maharashtra","latitude":16.705,"longitude":74.2433,"temp":34.0,"humidity":29,"rain":0.0,"pressure":950.1,"uv_index":8.4,"wind_gusts":41.4,"aqi":126,"pm10":47.5,"pm2_5":46.7,"mosquito_risk":0,"arthritis_risk":5,"migraine_risk":7,"frizz_risk":0,"updated_at":"2026-03-03T13:17:44.526444+05:30"},{"city":"Goa","state":"Goa","latitude":15.2993,"longitude":74.124,"temp":31.4,"humidity":58,"rain":0.0,"pressure":999.5,"uv_index":8.45,"wind_gusts":35.6,"aqi":73,"pm10":28.7,"pm2_5":24.2,"mosquito_risk":0,"arthritis_risk":5,"migraine_risk":7,"frizz_risk":1,"updated_at":"2026-03-03T13:17:44.526451+05:30"},{"city":"Jodhpur","state":"Rajasthan","latitude":26.2389,"longitude":73.0243,"temp":34.5,"humidity":21,"rain":0.0,"pressure":988.3,"uv_index":6.85,"wind_gusts":15.5,"aqi":74,"pm10":50.9,"pm2_5":17.0,"mosquito_risk":0,"arthritis_risk":5,"migraine_risk":7,"frizz_risk":0,"updated_at":"2026-03-03T13:17:44.526458+05:30"},{"city":"Udaipur","state":"Rajasthan","latitude":24.5854,"longitude":73.7125,"temp":32.8,"humidity":21,"rain":0.0,"pressure":951.6,"uv_index":7.45,"wind_gusts":18.7,"aqi":66,"pm10":30.5,"pm2_5":15.7,"mosquito_risk":0,"arthritis_risk":5,"migraine_risk":7,"frizz_risk":0,"updated_at":"2026-03-03T13:17:44.526465+05:30"},{"city":"Kota","state":"Rajasthan","latitude":25.2138,"longitude":75.8648,"temp":34.2,"humidity":27,"rain":0.0,"pressure":983.4,"uv_index":6.85,"wind_gusts":21.2,"aqi":86,"pm10":60.5,"pm2_5":23.9,"mosquito_risk":0,"arthritis_risk":5,"migraine_risk":7,"frizz_risk":0,"updated_at":"2026-03-03T13:17:44.526471+05:30"},{"city":"Bikaner","state":"Rajasthan","latitude":28.0229,"longitude":73.3119,"temp":32.1,"humidity":26,"rain":0.0,"pressure":987.5,"uv_index":6.55,"wind_gusts":20.9,"aqi":70,"pm10":51.8,"pm2_5":20.7,"mosquito_risk":0,"arthritis_risk":5,"migraine_risk":7,"frizz_risk":0,"updated_at":"2026-03-03T13:17:44.526478+05:30"},{"city":"Ajmer","state":"Rajasthan","latitude":26.4499,"longitude":74.6399,"temp":32.8,"humidity":18,"rain":0.0,"pressure":959.8,"uv_index":6.8,"wind_gusts":25.6,"aqi":75,"pm10":49.6,"pm2_5":18.3,"mosquito_risk":0,"arthritis_risk":5,"migraine_risk":7,"frizz_risk":0,"updated_at":"2026-03-03T13:17:44.526484+05:30"},{"city":"Gwalior","state":"Madhya Pradesh","latitude":26.2183,"longitude":78.1828,"temp":31.4,"humidity":34,"rain":0.0,"pressure":987.7,"uv_index":6.45,"wind_gusts":29.5,"aqi":127,"pm10":51.7,"pm2_5":27.0,"mosquito_risk":0,"arthritis_risk":5,"migraine_risk":7,"frizz_risk":0,"updated_at":"2026-03-03T13:17:44.526491+05:30"},{"city":"Indore","state":"Madhya Pradesh","latitude":22.7196,"longitude":75.8577,"temp":32.2,"humidity":26,"rain":0.0,"pressure":952.3,"uv_index":7.45,"wind_gusts":16.6,"aqi":91,"pm10":23.3,"pm2_5":17.9,"mosquito_risk":0,"arthritis_risk":5,"migraine_risk":7,"frizz_risk":0,"updated_at":"2026-03-03T13:17:44.526497+05:30"},{"city":"Bhopal","state":"Madhya Pradesh","latitude":23.2599,"longitude":77.4126,"temp":32.6,"humidity":28,"rain":0.0,"pressure":958.0,"uv_index":7.3,"wind_gusts":23.8,"aqi":79,"pm10":27.5,"pm2_5":17.2,"mosquito_risk":0,"arthritis_risk":5,"migraine_risk":7,"frizz_risk":0,"updated_at":"2026-03-03T13:17:44.526503+05:30"},{"city":"Jabalpur","state":"Madhya Pradesh","latitude":23.1815,"longitude":79.9864,"temp":31.9,"humidity":29,"rain":0.0,"pressure":965.6,"uv_index":7.4,"wind_gusts":21.6,"aqi":71,"pm10":28.3,"pm2_5":16.2,"mosquito_risk":0,"arthritis_risk":5,"migraine_risk":7,"frizz_risk":0,"updated_at":"2026-03-03T13:17:44.526510+05:30"},{"city":"Ujjain","state":"Madhya Pradesh","latitude":23.1765,"longitude":75.7885,"temp":32.0,"humidity":31,"rain":0.0,"pressure":958.2,"uv_index":7.3,"wind_gusts":15.5,"aqi":104,"pm10":24.0,"pm2_5":18.8,"mosquito_risk":0,"arthritis_risk":5,"migraine_risk":7,"frizz_risk":0,"updated_at":"2026-03-03T13:17:44.526518+05:30"},{"city":"Visakhapatnam","state":"Andhra Pradesh","latitude":17.6868,"longitude":83.2185,"temp":34.6,"humidity":37,"rain":0.0,"pressure":1005.6,"uv_index":8.35,"wind_gusts":36.0,"aqi":132,"pm10":59.3,"pm2_5":56.1,"mosquito_risk":0,"arthritis_risk":5,"migraine_risk":4,"frizz_risk":1,"updated_at":"2026-03-03T13:17:44.526524+05:30"},{"city":"Vijayawada","state":"Andhra Pradesh","latitude":16.5062,"longitude":80.648,"temp":34.1,"humidity":37,"rain":0.0,"pressure":1004.8,"uv_index":8.4,"wind_gusts":25.9,"aqi":139,"pm10":43.9,"pm2_5":41.3,"mosquito_risk":0,"arthritis_risk":5,"migraine_risk":4,"frizz_risk":1,"updated_at":"2026-03-03T13:17:44.526531+05:30"},{"city":"Guntur","state":"Andhra Pradesh","latitude":16.3067,"longitude":80.4365,"temp":35.2,"humidity":31,"rain":0.0,"pressure":1005.9,"uv_index":8.4,"wind_gusts":28.4,"aqi":132,"pm10":41.6,"pm2_5":39.5,"mosquito_risk":0,"arthritis_risk":5,"migraine_risk":7,"frizz_risk":0,"updated_at":"2026-03-03T13:17:44.526537+05:30"},{"city":"Nellore","state":"Andhra Pradesh","latitude":14.4426,"longitude":79.9865,"temp":35.6,"humidity":28,"rain":0.0,"pressure":1008.0,"uv_index":8.65,"wind_gusts":29.2,"aqi":115,"pm10":39.5,"pm2_5":36.0,"mosquito_risk":0,"arthritis_risk":0,"migraine_risk":7,"frizz_risk":0,"updated_at":"2026-03-03T13:17:44.526545+05:30"},{"city":"Kurnool","state":"Andhra Pradesh","latitude":15.8281,"longitude":78.0373,"temp":36.5,"humidity":24,"rain":0.0,"pressure":979.0,"uv_index":8.45,"wind_gusts":28.8,"aqi":123,"pm10":36.6,"pm2_5":35.2,"mosquito_risk":0,"arthritis_risk":5,"migraine_risk":10,"frizz_risk":0,"updated_at":"2026-03-03T13:17:44.526552+05:30"},{"city":"Kakinada","state":"Andhra Pradesh","latitude":16.9891,"longitude":82.2475,"temp":36.1,"humidity":31,"rain":0.0,"pressure":1009.0,"uv_index":8.35,"wind_gusts":35.3,"aqi":127,"pm10":49.4,"pm2_5":46.0,"mosquito_risk":0,"arthritis_risk":0,"migraine_risk":7,"frizz_risk":1,"updated_at":"2026-03-03T13:17:44.526560+05:30"},{"city":"Tirupati","state":"Andhra Pradesh","latitude":13.6288,"longitude":79.4192,"temp":34.7,"humidity":24,"rain":0.0,"pressure":993.7,"uv_index":8.75,"wind_gusts":36.0,"aqi":152,"pm10":36.8,"pm2_5":34.3,"mosquito_risk":0,"arthritis_risk":5,"migraine_risk":7,"frizz_risk":0,"updated_at":"2026-03-03T13:17:44.526566+05:30"},{"city":"Warangal","state":"Telangana","latitude":17.9689,"longitude":79.5941,"temp":34.1,"humidity":37,"rain":0.0,"pressure":981.3,"uv_index":8.2,"wind_gusts":16.2,"aqi":151,"pm10":28.5,"pm2_5":27.0,"mosquito_risk":0,"arthritis_risk":5,"migraine_risk":7,"frizz_risk":1,"updated_at":"2026-03-03T13:17:44.526573+05:30"},{"city":"Nizamabad","state":"Telangana","latitude":18.6725,"longitude":78.0941,"temp":34.5,"humidity":27,"rain":0.0,"pressure":967.8,"uv_index":8.1,"wind_gusts":26.3,"aqi":92,"pm10":22.4,"pm2_5":19.4,"mosquito_risk":0,"arthritis_risk":5,"migraine_risk":7,"frizz_risk":0,"updated_at":"2026-03-03T13:17:44.526579+05:30"},{"city":"Mysore","state":"Karnataka","latitude":12.2958,"longitude":76.6396,"temp":32.5,"humidity":27,"rain":0.0,"pressure":930.4,"uv_index":9.15,"wind_gusts":33.8,"aqi":137,"pm10":32.7,"pm2_5":31.9,"mosquito_risk":0,"arthritis_risk":5,"migraine_risk":7,"frizz_risk":0,"updated_at":"2026-03-03T13:17:44.526585+05:30"},{"city":"Mangalore","state":"Karnataka","latitude":12.9141,"longitude":74.856,"temp":28.1,"humidity":82,"rain":0.0,"pressure":1008.1,"uv_index":8.75,"wind_gusts":28.8,"aqi":61,"pm10":28.3,"pm2_5":24.0,"mosquito_risk":7,"arthritis_risk":0,"migraine_risk":4,"frizz_risk":1,"updated_at":"2026-03-03T13:17:44.526591+05:30"},{"city":"Hubli-Dharwad","state":"Karnataka","latitude":15.3647,"longitude":75.124,"temp":34.1,"humidity":29,"rain":0.0,"pressure":942.9,"uv_index":8.65,"wind_gusts":29.2,"aqi":91,"pm10":38.5,"pm2_5":37.7,"mosquito_risk":0,"arthritis_risk":5,"migraine_risk":7,"frizz_risk":0,"updated_at":"2026-03-03T13:17:44.526616+05:30"},{"city":"Belgaum","state":"Karnataka","latitude":15.8497,"longitude":74.4977,"temp":33.7,"humidity":28,"rain":0.0,"pressure":928.1,"uv_index":8.65,"wind_gusts":33.5,"aqi":85,"pm10":41.8,"pm2_5":40.9,"mosquito_risk":0,"arthritis_risk":5,"migraine_risk":7,"frizz_risk":0,"updated_at":"2026-03-03T13:17:47.781447+05:30"},{"city":"Coimbatore","state":"Tamil Nadu","latitude":11.0168,"longitude":76.9558,"temp":33.2,"humidity":29,"rain":0.0,"pressure":963.8,"uv_index":9.15,"wind_gusts":42.1,"aqi":128,"pm10":32.5,"pm2_5":31.7,"mosquito_risk":0,"arthritis_risk":5,"migraine_risk":7,"frizz_risk":0,"updated_at":"2026-03-03T13:17:47.781477+05:30"},{"city":"Madurai","state":"Tamil Nadu","latitude":9.9252,"longitude":78.1198,"temp":33.5,"humidity":34,"rain":0.0,"pressure":995.0,"uv_index":9.1,"wind_gusts":32.4,"aqi":117,"pm10":33.2,"pm2_5":30.3,"mosquito_risk":0,"arthritis_risk":5,"migraine_risk":7,"frizz_risk":0,"updated_at":"2026-03-03T13:17:47.781487+05:30"},{"city":"Trichy","state":"Tamil Nadu","latitude":10.7905,"longitude":78.7047,"temp":34.1,"humidity":34,"rain":0.0,"pressure":1001.7,"uv_index":9.0,"wind_gusts":29.9,"aqi":119,"pm10":32.6,"pm2_5":29.3,"mosquito_risk":0,"arthritis_risk":5,"migraine_risk":4,"frizz_risk":1,"updated_at":"2026-03-03T13:17:47.781495+05:30"},{"city":"Salem","state":"Tamil Nadu","latitude":11.6643,"longitude":78.146,"temp":35.6,"humidity":24,"rain":0.0,"pressure":978.8,"uv_index":9.05,"wind_gusts":38.5,"aqi":138,"pm10":43.8,"pm2_5":42.4,"mosquito_risk":0,"arthritis_risk":5,"migraine_risk":10,"frizz_risk":0,"updated_at":"2026-03-03T13:17:47.781502+05:30"},{"city":"Tirunelveli","state":"Tamil Nadu","latitude":8.7139,"longitude":77.7567,"temp":34.6,"humidity":30,"rain":0.0,"pressure":1005.0,"uv_index":9.1,"wind_gusts":40.0,"aqi":109,"pm10":27.3,"pm2_5":25.2,"mosquito_risk":0,"arthritis_risk":5,"migraine_risk":4,"frizz_risk":0,"updated_at":"2026-03-03T13:17:47.781509+05:30"},{"city":"Vellore","state":"Tamil Nadu","latitude":12.9165,"longitude":79.1325,"temp":34.2,"humidity":24,"rain":0.0,"pressure":986.8,"uv_index":8.85,"wind_gusts":38.2,"aqi":151,"pm10":36.7,"pm2_5":34.1,"mosquito_risk":0,"arthritis_risk":5,"migraine_risk":7,"frizz_risk":0,"updated_at":"2026-03-03T13:17:47.781516+05:30"},{"city":"Erode","state":"Tamil Nadu","latitude":11.341,"longitude":77.7172,"temp":35.3,"humidity":30,"rain":0.0,"pressure":990.5,"uv_index":9.05,"wind_gusts":33.5,"aqi":118,"pm10":43.5,"pm2_5":42.0,"mosquito_risk":0,"arthritis_risk":5,"migraine_risk":10,"frizz_risk":0,"updated_at":"2026-03-03T13:17:47.781523+05:30"},{"city":"Kochi","state":"Kerala","latitude":9.9312,"longitude":76.2673,"temp":28.3,"humidity":77,"rain":0.0,"pressure":1010.1,"uv_index":8.95,"wind_gusts":32.8,"aqi":107,"pm10":36.8,"pm2_5":34.7,"mosquito_risk":7,"arthritis_risk":0,"migraine_risk":4,"frizz_risk":1,"updated_at":"2026-03-03T13:17:47.781530+05:30"},{"city":"Thiruvananthapuram","state":"Kerala","latitude":8.5241,"longitude":76.9366,"temp":27.7,"humidity":78,"rain":0.0,"pressure":1009.6,"uv_index":9.0,"wind_gusts":27.4,"aqi":83,"pm10":35.6,"pm2_5":33.5,"mosquito_risk":7,"arthritis_risk":0,"migraine_risk":4,"frizz_risk":1,"updated_at":"2026-03-03T13:17:47.781537+05:30"},{"city":"Kozhikode","state":"Kerala","latitude":11.2588,"longitude":75.7804,"temp":29.7,"humidity":69,"rain":0.0,"pressure":1009.2,"uv_index":8.85,"wind_gusts":34.2,"aqi":65,"pm10":23.4,"pm2_5":20.5,"mosquito_risk":7,"arthritis_risk":0,"migraine_risk":4,"frizz_risk":1,"updated_at":"2026-03-03T13:17:47.781543+05:30"},{"city":"Thrissur","state":"Kerala","latitude":10.5276,"longitude":76.2144,"temp":34.1,"humidity":49,"rain":0.0,"pressure":1007.9,"uv_index":8.95,"wind_gusts":42.5,"aqi":107,"pm10":38.8,"pm2_5":37.5,"mosquito_risk":0,"arthritis_risk":5,"migraine_risk":4,"frizz_risk":1,"updated_at":"2026-03-03T13:17:47.781550+05:30"},{"city":"Kannur","state":"Kerala","latitude":11.8745,"longitude":75.3704,"temp":30.9,"humidity":63,"rain":0.0,"pressure":1008.5,"uv_index":8.85,"wind_gusts":36.4,"aqi":62,"pm10":24.0,"pm2_5":20.7,"mosquito_risk":3,"arthritis_risk":0,"migraine_risk":4,"frizz_risk":1,"updated_at":"2026-03-03T13:17:47.781557+05:30"},{"city":"Patna","state":"Bihar","latitude":25.5941,"longitude":85.1376,"temp":29.6,"humidity":40,"rain":0.0,"pressure":1004.3,"uv_index":7.1,"wind_gusts":19.4,"aqi":139,"pm10":238.4,"pm2_5":67.3,"mosquito_risk":4,"arthritis_risk":5,"migraine_risk":4,"frizz_risk":0,"updated_at":"2026-03-03T13:17:47.781563+05:30"},{"city":"Gaya","state":"Bihar","latitude":24.7914,"longitude":85.0002,"temp":30.1,"humidity":33,"rain":0.0,"pressure":997.4,"uv_index":7.2,"wind_gusts":25.9,"aqi":93,"pm10":202.6,"pm2_5":48.4,"mosquito_risk":0,"arthritis_risk":5,"migraine_risk":7,"frizz_risk":0,"updated_at":"2026-03-03T13:17:47.781570+05:30"},{"city":"Muzaffarpur","state":"Bihar","latitude":26.1209,"longitude":85.3647,"temp":29.7,"humidity":36,"rain":0.0,"pressure":1004.3,"uv_index":7.05,"wind_gusts":11.2,"aqi":153,"pm10":157.9,"pm2_5":60.8,"mosquito_risk":4,"arthritis_risk":5,"migraine_risk":4,"frizz_risk":0,"updated_at":"2026-03-03T13:17:47.781576+05:30"},{"city":"Bhagalpur","state":"Bihar","latitude":25.2425,"longitude":87.0117,"temp":28.9,"humidity":42,"rain":0.0,"pressure":1004.9,"uv_index":7.15,"wind_gusts":14.4,"aqi":121,"pm10":75.0,"pm2_5":48.7,"mosquito_risk":4,"arthritis_risk":5,"migraine_risk":4,"frizz_risk":0,"updated_at":"2026-03-03T13:17:47.781583+05:30"},{"city":"Ranchi","state":"Jharkhand","latitude":23.3441,"longitude":85.3096,"temp":29.9,"humidity":22,"rain":0.0,"pressure":941.1,"uv_index":7.9,"wind_gusts":44.3,"aqi":64,"pm10":65.4,"pm2_5":21.7,"mosquito_risk":4,"arthritis_risk":5,"migraine_risk":7,"frizz_risk":0,"updated_at":"2026-03-03T13:17:47.781589+05:30"},{"city":"Jamshedpur","state":"Jharkhand","latitude":22.8046,"longitude":86.2029,"temp":32.6,"humidity":22,"rain":0.0,"pressure":993.8,"uv_index":7.8,"wind_gusts":14.4,"aqi":92,"pm10":92.0,"pm2_5":29.0,"mosquito_risk":0,"arthritis_risk":5,"migraine_risk":7,"frizz_risk":0,"updated_at":"2026-03-03T13:17:47.781595+05:30"},{"city":"Dhanbad","state":"Jharkhand","latitude":23.7957,"longitude":86.4304,"temp":32.8,"humidity":22,"rain":0.0,"pressure":982.7,"uv_index":7.65,"wind_gusts":32.8,"aqi":99,"pm10":102.9,"pm2_5":32.1,"mosquito_risk":0,"arthritis_risk":5,"migraine_risk":7,"frizz_risk":0,"updated_at":"2026-03-03T13:17:47.781620+05:30"},{"city":"Bokaro","state":"Jharkhand","latitude":23.6693,"longitude":86.1511,"temp":32.5,"humidity":23,"rain":0.0,"pressure":986.6,"uv_index":7.65,"wind_gusts":36.4,"aqi":101,"pm10":104.8,"pm2_5":31.9,"mosquito_risk":0,"arthritis_risk":5,"migraine_risk":7,"frizz_risk":0,"updated_at":"2026-03-03T13:17:47.781628+05:30"},{"city":"Bhubaneswar","state":"Odisha","latitude":20.2961,"longitude":85.8245,"temp":35.9,"humidity":24,"rain":0.0,"pressure":1004.6,"uv_index":8.1,"wind_gusts":27.0,"aqi":154,"pm10":49.7,"pm2_5":31.5,"mosquito_risk":0,"arthritis_risk":5,"migraine_risk":7,"frizz_risk":0,"updated_at":"2026-03-03T13:17:47.781634+05:30"},{"city":"Cuttack","state":"Odisha","latitude":20.4625,"longitude":85.8828,"temp":36.5,"humidity":17,"rain":0.0,"pressure":1006.7,"uv_index":8.1,"wind_gusts":25.2,"aqi":154,"pm10":49.7,"pm2_5":31.5,"mosquito_risk":0,"arthritis_risk":5,"migraine_risk":7,"frizz_risk":0,"updated_at":"2026-03-03T13:17:47.781641+05:30"},{"city":"Rourkela","state":"Odisha","latitude":22.2604,"longitude":84.8536,"temp":33.8,"humidity":23,"rain":0.0,"pressure":988.0,"uv_index":7.7,"wind_gusts":25.9,"aqi":79,"pm10":62.9,"pm2_5":24.7,"mosquito_risk":0,"arthritis_risk":5,"migraine_risk":7,"frizz_risk":0,"updated_at":"2026-03-03T13:17:47.781647+05:30"},{"city":"Raipur","state":"Chhattisgarh","latitude":21.2514,"longitude":81.6296,"temp":34.1,"humidity":20,"rain":0.0,"pressure":977.9,"uv_index":7.8,"wind_gusts":14.4,"aqi":117,"pm10":36.0,"pm2_5":23.9,"mosquito_risk":0,"arthritis_risk":5,"migraine_risk":7,"frizz_risk":0,"updated_at":"2026-03-03T13:17:47.781654+05:30"},{"city":"Bhilai","state":"Chhattisgarh","latitude":21.1938,"longitude":81.3509,"temp":34.5,"humidity":20,"rain":0.0,"pressure":978.2,"uv_index":7.8,"wind_gusts":13.7,"aqi":114,"pm10":37.5,"pm2_5":26.1,"mosquito_risk":0,"arthritis_risk":5,"migraine_risk":7,"frizz_risk":0,"updated_at":"2026-03-03T13:17:47.781660+05:30"},{"city":"Guwahati","state":"Assam","latitude":26.1158,"longitude":91.7086,"temp":29.0,"humidity":41,"rain":0.0,"pressure":1004.4,"uv_index":7.1,"wind_gusts":22.0,"aqi":154,"pm10":91.0,"pm2_5":68.9,"mosquito_risk":4,"arthritis_risk":5,"migraine_risk":4,"frizz_risk":0,"updated_at":"2026-03-03T13:17:47.781666+05:30"},{"city":"Agartala","state":"Tripura","latitude":23.8315,"longitude":91.2868,"temp":28.1,"humidity":62,"rain":0.0,"pressure":1008.8,"uv_index":7.5,"wind_gusts":15.8,"aqi":180,"pm10":84.8,"pm2_5":74.0,"mosquito_risk":7,"arthritis_risk":0,"migraine_risk":4,"frizz_risk":1,"updated_at":"2026-03-03T13:17:47.781673+05:30"},{"city":"Shillong","state":"Meghalaya","latitude":25.5788,"longitude":91.8933,"temp":18.6,"humidity":38,"rain":0.0,"pressure":858.3,"uv_index":7.45,"wind_gusts":28.1,"aqi":135,"pm10":83.1,"pm2_5":59.4,"mosquito_risk":0,"arthritis_risk":5,"migraine_risk":7,"frizz_risk":0,"updated_at":"2026-03-03T13:17:47.781679+05:30"},{"city":"Imphal","state":"Manipur","latitude":24.817,"longitude":93.9368,"temp":21.9,"humidity":46,"rain":0.0,"pressure":924.8,"uv_index":7.65,"wind_gusts":28.8,"aqi":160,"pm10":73.1,"pm2_5":63.3,"mosquito_risk":0,"arthritis_risk":5,"migraine_risk":7,"frizz_risk":0,"updated_at":"2026-03-03T13:17:47.781686+05:30"},{"city":"Aizawl","state":"Mizoram","latitude":23.7271,"longitude":92.7176,"temp":23.8,"humidity":37,"rain":0.0,"pressure":894.9,"uv_index":7.65,"wind_gusts":32.8,"aqi":162,"pm10":49.9,"pm2_5":40.3,"mosquito_risk":0,"arthritis_risk":5,"migraine_risk":7,"frizz_risk":0,"updated_at":"2026-03-03T13:17:47.781693+05:30"},{"city":"Kohima","state":"Nagaland","latitude":25.6701,"longitude":94.1077,"temp":16.3,"humidity":63,"rain":0.0,"pressure":856.1,"uv_index":6.65,"wind_gusts":45.0,"aqi":152,"pm10":76.6,"pm2_5":59.1,"mosquito_risk":3,"arthritis_risk":5,"migraine_risk":7,"frizz_risk":0,"updated_at":"2026-03-03T13:17:47.781699+05:30"},{"city":"Gangtok","state":"Sikkim","latitude":27.3314,"longitude":88.6138,"temp":16.8,"humidity":64,"rain":0.0,"pressure":839.6,"uv_index":7.4,"wind_gusts":18.4,"aqi":150,"pm10":59.6,"pm2_5":43.4,"mosquito_risk":3,"arthritis_risk":5,"migraine_risk":7,"frizz_risk":0,"updated_at":"2026-03-03T13:17:47.781705+05:30"},{"city":"Siliguri","state":"West Bengal","latitude":26.7271,"longitude":88.3953,"temp":22.3,"humidity":64,"rain":0.0,"pressure":997.7,"uv_index":7.1,"wind_gusts":20.2,"aqi":165,"pm10":89.4,"pm2_5":57.7,"mosquito_risk":3,"arthritis_risk":5,"migraine_risk":7,"frizz_risk":0,"updated_at":"2026-03-03T13:17:51.031758+05:30"},{"city":"Durgapur","state":"West Bengal","latitude":23.5204,"longitude":87.3119,"temp":33.9,"humidity":20,"rain":0.0,"pressure":997.8,"uv_index":7.65,"wind_gusts":28.4,"aqi":85,"pm10":102.7,"pm2_5":35.6,"mosquito_risk":0,"arthritis_risk":5,"migraine_risk":7,"frizz_risk":0,"updated_at":"2026-03-03T13:17:51.031792+05:30"},{"city":"Asansol","state":"West Bengal","latitude":23.6739,"longitude":86.9524,"temp":33.7,"humidity":21,"rain":0.0,"pressure":996.4,"uv_index":7.65,"wind_gusts":23.8,"aqi":81,"pm10":104.5,"pm2_5":33.4,"mosquito_risk":0,"arthritis_risk":5,"migraine_risk":7,"frizz_risk":0,"updated_at":"2026-03-03T13:17:51.031804+05:30"},{"city":"Pondicherry","state":"Puducherry","latitude":11.9139,"longitude":79.8145,"temp":33.1,"humidity":45,"rain":0.0,"pressure":1010.6,"uv_index":8.85,"wind_gusts":25.9,"aqi":109,"pm10":40.9,"pm2_5":36.3,"mosquito_risk":0,"arthritis_risk":0,"migraine_risk":4,"frizz_risk":1,"updated_at":"2026-03-03T13:17:51.031814+05:30"},{"city":"Port Blair","state":"Andaman and Nicobar Islands","latitude":11.6234,"longitude":92.7265,"temp":27.4,"humidity":75,"rain":0.0,"pressure":1007.9,"uv_index":8.8,"wind_gusts":17.6,"aqi":84,"pm10":39.2,"pm2_5":28.1,"mosquito_risk":7,"arthritis_risk":5,"migraine_risk":4,"frizz_risk":1,"updated_at":"2026-03-03T13:17:51.031823+05:30"},{"city":"Haridwar","state":"Uttarakhand","latitude":29.9457,"longitude":78.1642,"temp":27.1,"humidity":47,"rain":0.0,"pressure":976.8,"uv_index":5.55,"wind_gusts":23.0,"aqi":98,"pm10":42.8,"pm2_5":32.6,"mosquito_risk":4,"arthritis_risk":5,"migraine_risk":3,"frizz_risk":0,"updated_at":"2026-03-03T13:17:51.031832+05:30"},{"city":"Rishikesh","state":"Uttarakhand","latitude":30.0869,"longitude":78.2676,"temp":27.4,"humidity":45,"rain":0.0,"pressure":969.3,"uv_index":5.6,"wind_gusts":23.8,"aqi":75,"pm10":24.4,"pm2_5":20.5,"mosquito_risk":4,"arthritis_risk":5,"migraine_risk":3,"frizz_risk":0,"updated_at":"2026-03-03T13:17:51.031841+05:30"},{"city":"Nainital","state":"Uttarakhand","latitude":29.3919,"longitude":79.4542,"temp":19.4,"humidity":64,"rain":0.0,"pressure":808.1,"uv_index":6.45,"wind_gusts":51.5,"aqi":82,"pm10":43.9,"pm2_5":31.8,"mosquito_risk":3,"arthritis_risk":5,"migraine_risk":7,"frizz_risk":0,"updated_at":"2026-03-03T13:17:51.031849+05:30"},{"city":"Mussoorie","state":"Uttarakhand","latitude":30.4599,"longitude":78.0664,"temp":20.3,"humidity":49,"rain":0.0,"pressure":805.4,"uv_index":5.95,"wind_gusts":40.0,"aqi":78,"pm10":27.5,"pm2_5":23.7,"mosquito_risk":0,"arthritis_risk":5,"migraine_risk":3,"frizz_risk":0,"updated_at":"2026-03-03T13:17:51.031857+05:30"},{"city":"Dharamshala","state":"Himachal Pradesh","latitude":32.219,"longitude":76.3234,"temp":23.5,"humidity":39,"rain":0.0,"pressure":872.3,"uv_index":6.2,"wind_gusts":23.0,"aqi":51,"pm10":11.0,"pm2_5":5.8,"mosquito_risk":0,"arthritis_risk":5,"migraine_risk":7,"frizz_risk":0,"updated_at":"2026-03-03T13:17:51.031866+05:30"},{"city":"Dalhousie","state":"Himachal Pradesh","latitude":32.5387,"longitude":75.971,"temp":23.4,"humidity":20,"rain":0.0,"pressure":808.3,"uv_index":6.4,"wind_gusts":20.5,"aqi":90,"pm10":20.2,"pm2_5":14.5,"mosquito_risk":0,"arthritis_risk":5,"migraine_risk":7,"frizz_risk":1,"updated_at":"2026-03-03T13:17:51.031875+05:30"},{"city":"Patiala","state":"Punjab","latitude":30.3398,"longitude":76.3869,"temp":28.9,"humidity":33,"rain":0.0,"pressure":981.9,"uv_index":5.6,"wind_gusts":36.4,"aqi":193,"pm10":420.0,"pm2_5":70.5,"mosquito_risk":4,"arthritis_risk":5,"migraine_risk":3,"frizz_risk":0,"updated_at":"2026-03-03T13:17:51.031884+05:30"},{"city":"Bhatinda","state":"Punjab","latitude":30.211,"longitude":74.9455,"temp":30.0,"humidity":38,"rain":0.0,"pressure":988.3,"uv_index":6.25,"wind_gusts":30.2,"aqi":136,"pm10":67.3,"pm2_5":46.3,"mosquito_risk":4,"arthritis_risk":5,"migraine_risk":7,"frizz_risk":0,"updated_at":"2026-03-03T13:17:51.031892+05:30"},{"city":"Rohtak","state":"Haryana","latitude":28.8955,"longitude":76.6066,"temp":29.9,"humidity":34,"rain":0.0,"pressure":986.0,"uv_index":5.8,"wind_gusts":36.4,"aqi":406,"pm10":624.0,"pm2_5":95.2,"mosquito_risk":4,"arthritis_risk":5,"migraine_risk":3,"frizz_risk":0,"updated_at":"2026-03-03T13:17:51.031900+05:30"},{"city":"Panipat","state":"Haryana","latitude":29.3909,"longitude":76.9635,"temp":29.5,"humidity":36,"rain":0.0,"pressure":984.1,"uv_index":5.6,"wind_gusts":40.7,"aqi":931,"pm10":1292.7,"pm2_5":155.1,"mosquito_risk":4,"arthritis_risk":5,"migraine_risk":3,"frizz_risk":0,"updated_at":"2026-03-03T13:17:51.031908+05:30"},{"city":"Mathura","state":"Uttar Pradesh","latitude":27.4924,"longitude":77.6737,"temp":31.0,"humidity":30,"rain":0.0,"pressure":991.3,"uv_index":6.1,"wind_gusts":30.6,"aqi":493,"pm10":579.3,"pm2_5":75.2,"mosquito_risk":0,"arthritis_risk":5,"migraine_risk":7,"frizz_risk":0,"updated_at":"2026-03-03T13:17:51.031916+05:30"},{"city":"Vrindavan","state":"Uttar Pradesh","latitude":27.5823,"longitude":77.7027,"temp":30.6,"humidity":31,"rain":0.0,"pressure":991.6,"uv_index":6.05,"wind_gusts":33.8,"aqi":493,"pm10":579.3,"pm2_5":75.2,"mosquito_risk":0,"arthritis_risk":5,"migraine_risk":7,"frizz_risk":0,"updated_at":"2026-03-03T13:17:51.031924+05:30"},{"city":"Ayodhya","state":"Uttar Pradesh","latitude":26.7922,"longitude":82.1998,"temp":29.2,"humidity":42,"rain":0.0,"pressure":998.9,"uv_index":6.45,"wind_gusts":28.8,"aqi":142,"pm10":114.8,"pm2_5":51.0,"mosquito_risk":4,"arthritis_risk":5,"migraine_risk":7,"frizz_risk":0,"updated_at":"2026-03-03T13:17:51.031931+05:30"},{"city":"Ratlam","state":"Madhya Pradesh","latitude":23.3315,"longitude":75.0367,"temp":32.4,"humidity":29,"rain":0.0,"pressure":959.0,"uv_index":7.3,"wind_gusts":12.2,"aqi":91,"pm10":24.3,"pm2_5":18.6,"mosquito_risk":0,"arthritis_risk":5,"migraine_risk":7,"frizz_risk":0,"updated_at":"2026-03-03T13:17:51.031939+05:30"},{"city":"Sagar","state":"Madhya Pradesh","latitude":23.8388,"longitude":78.7378,"temp":32.1,"humidity":25,"rain":0.0,"pressure":954.5,"uv_index":7.25,"wind_gusts":27.4,"aqi":63,"pm10":36.2,"pm2_5":15.1,"mosquito_risk":0,"arthritis_risk":5,"migraine_risk":7,"frizz_risk":0,"updated_at":"2026-03-03T13:17:51.031947+05:30"},{"city":"Satna","state":"Madhya Pradesh","latitude":24.6005,"longitude":80.8322,"temp":33.2,"humidity":27,"rain":0.0,"pressure":975.2,"uv_index":7.2,"wind_gusts":33.1,"aqi":71,"pm10":79.6,"pm2_5":25.3,"mosquito_risk":0,"arthritis_risk":5,"migraine_risk":7,"frizz_risk":0,"updated_at":"2026-03-03T13:17:51.031954+05:30"},{"city":"Akola","state":"Maharashtra","latitude":20.7002,"longitude":77.0082,"temp":35.3,"humidity":25,"rain":0.0,"pressure":978.4,"uv_index":7.8,"wind_gusts":20.2,"aqi":78,"pm10":25.1,"pm2_5":20.5,"mosquito_risk":0,"arthritis_risk":5,"migraine_risk":10,"frizz_risk":0,"updated_at":"2026-03-03T13:17:51.031963+05:30"},{"city":"Amravati","state":"Maharashtra","latitude":20.9374,"longitude":77.7796,"temp":35.2,"humidity":22,"rain":0.0,"pressure":970.8,"uv_index":7.75,"wind_gusts":16.6,"aqi":75,"pm10":23.1,"pm2_5":17.9,"mosquito_risk":0,"arthritis_risk":5,"migraine_risk":10,"frizz_risk":0,"updated_at":"2026-03-03T13:17:51.031972+05:30"},{"city":"Latur","state":"Maharashtra","latitude":18.4088,"longitude":76.5604,"temp":33.1,"humidity":27,"rain":0.0,"pressure":943.0,"uv_index":8.2,"wind_gusts":31.0,"aqi":84,"pm10":21.2,"pm2_5":20.5,"mosquito_risk":0,"arthritis_risk":5,"migraine_risk":7,"frizz_risk":0,"updated_at":"2026-03-03T13:17:51.031980+05:30"},{"city":"Nanded","state":"Maharashtra","latitude":19.1383,"longitude":77.3091,"temp":35.7,"humidity":24,"rain":0.0,"pressure":971.6,"uv_index":8.0,"wind_gusts":20.9,"aqi":96,"pm10":19.9,"pm2_5":17.1,"mosquito_risk":0,"arthritis_risk":5,"migraine_risk":10,"frizz_risk":0,"updated_at":"2026-03-03T13:17:51.031988+05:30"},{"city":"Gulbarga","state":"Karnataka","latitude":17.3297,"longitude":76.8343,"temp":35.1,"humidity":29,"rain":0.0,"pressure":961.2,"uv_index":8.3,"wind_gusts":18.7,"aqi":134,"pm10":34.1,"pm2_5":33.3,"mosquito_risk":0,"arthritis_risk":5,"migraine_risk":10,"frizz_risk":0,"updated_at":"2026-03-03T13:17:51.031995+05:30"},{"city":"Bidar","state":"Karnataka","latitude":17.9104,"longitude":77.5199,"temp":33.8,"humidity":28,"rain":0.0,"pressure":938.4,"uv_index":8.25,"wind_gusts":21.6,"aqi":107,"pm10":24.6,"pm2_5":23.6,"mosquito_risk":0,"arthritis_risk":5,"migraine_risk":7,"frizz_risk":0,"updated_at":"2026-03-03T13:17:51.032003+05:30"},{"city":"Hospet","state":"Karnataka","latitude":15.2689,"longitude":76.3909,"temp":34.0,"humidity":31,"rain":0.0,"pressure":958.0,"uv_index":8.6,"wind_gusts":26.3,"aqi":109,"pm10":40.7,"pm2_5":39.9,"mosquito_risk":0,"arthritis_risk":5,"migraine_risk":7,"frizz_risk":0,"updated_at":"2026-03-03T13:17:51.032010+05:30"},{"city":"Tirupur","state":"Tamil Nadu","latitude":11.1085,"longitude":77.3411,"temp":34.5,"humidity":28,"rain":0.0,"pressure":977.2,"uv_index":9.15,"wind_gusts":31.7,"aqi":131,"pm10":42.0,"pm2_5":40.7,"mosquito_risk":0,"arthritis_risk":5,"migraine_risk":7,"frizz_risk":0,"updated_at":"2026-03-03T13:17:51.032017+05:30"},{"city":"Alappuzha","state":"Kerala","latitude":9.4981,"longitude":76.3388,"temp":27.9,"humidity":78,"rain":0.0,"pressure":1010.3,"uv_index":8.95,"wind_gusts":28.4,"aqi":95,"pm10":37.4,"pm2_5":34.9,"mosquito_risk":7,"arthritis_risk":0,"migraine_risk":4,"frizz_risk":1,"updated_at":"2026-03-03T13:17:51.032025+05:30"},{"city":"Munnar","state":"Kerala","latitude":10.0889,"longitude":77.0595,"temp":29.7,"humidity":31,"rain":0.0,"pressure":860.3,"uv_index":9.45,"wind_gusts":20.2,"aqi":105,"pm10":32.7,"pm2_5":31.5,"mosquito_risk":4,"arthritis_risk":5,"migraine_risk":7,"frizz_risk":0,"updated_at":"2026-03-03T13:17:51.032034+05:30"},{"city":"Silchar","state":"Assam","latitude":24.8333,"longitude":92.7789,"temp":30.1,"humidity":35,"rain":0.0,"pressure":1007.1,"uv_index":7.4,"wind_gusts":20.2,"aqi":162,"pm10":84.5,"pm2_5":65.7,"mosquito_risk":0,"arthritis_risk":5,"migraine_risk":4,"frizz_risk":0,"updated_at":"2026-03-03T13:17:51.032042+05:30"},{"city":"Dibrugarh","state":"Assam","latitude":27.4728,"longitude":94.912,"temp":26.1,"humidity":57,"rain":0.0,"pressure":998.6,"uv_index":7.1,"wind_gusts":11.2,"aqi":156,"pm10":78.0,"pm2_5":53.0,"mosquito_risk":4,"arthritis_risk":5,"migraine_risk":7,"frizz_risk":1,"updated_at":"2026-03-03T13:17:51.032049+05:30"}]