[{"city":"Delhi","state":"Delhi","latitude":28.6139,"longitude":77.209,"temp":25.5,"humidity":74,"rain":0.0,"pressure":978.2,"uv_index":7.8,"wind_gusts":51.5,"aqi":712,"pm10":181.6,"pm2_5":51.7,"no2":12.5,"co":304.0,"o3":98.0,"so2":13.1,"mosquito_risk":7,"arthritis_risk":5,"migraine_risk":7,"frizz_risk":1,"updated_at":"2026-06-12T04:55:00.654031+05:30"},{"city":"Mumbai","state":"Maharashtra","latitude":19.076,"longitude":72.8777,"temp":30.2,"humidity":73,"rain":0.0,"pressure":1005.0,"uv_index":7.7,"wind_gusts":47.5,"aqi":81,"pm10":65.4,"pm2_5":26.5,"no2":3.8,"co":115.0,"o3":56.0,"so2":4.0,"mosquito_risk":3,"arthritis_risk":5,"migraine_risk":4,"frizz_risk":1,"updated_at":"2026-06-12T04:55:00.654072+05:30"},{"city":"Bangalore","state":"Karnataka","latitude":12.9716,"longitude":77.5946,"temp":20.8,"humidity":96,"rain":0.0,"pressure":910.6,"uv_index":7.2,"wind_gusts":46.4,"aqi":54,"pm10":19.8,"pm2_5":11.5,"no2":14.0,"co":219.0,"o3":31.0,"so2":5.5,"mosquito_risk":3,"arthritis_risk":5,"migraine_risk":7,"frizz_risk":1,"updated_at":"2026-06-12T04:55:00.654087+05:30"},{"city":"Hyderabad","state":"Telangana","latitude":17.385,"longitude":78.4867,"temp":26.4,"humidity":67,"rain":0.0,"pressure":950.2,"uv_index":9.1,"wind_gusts":36.7,"aqi":75,"pm10":25.9,"pm2_5":19.4,"no2":10.8,"co":196.0,"o3":48.0,"so2":6.8,"mosquito_risk":7,"arthritis_risk":5,"migraine_risk":7,"frizz_risk":1,"updated_at":"2026-06-12T04:55:00.654097+05:30"},{"city":"Chennai","state":"Tamil Nadu","latitude":13.0827,"longitude":80.2707,"temp":28.6,"humidity":81,"rain":0.0,"pressure":1004.7,"uv_index":6.95,"wind_gusts":37.1,"aqi":64,"pm10":21.0,"pm2_5":16.4,"no2":16.0,"co":256.0,"o3":50.0,"so2":13.5,"mosquito_risk":7,"arthritis_risk":5,"migraine_risk":4,"frizz_risk":1,"updated_at":"2026-06-12T04:55:00.654105+05:30"},{"city":"Kolkata","state":"West Bengal","latitude":22.5726,"longitude":88.3639,"temp":26.2,"humidity":95,"rain":0.0,"pressure":1003.5,"uv_index":8.75,"wind_gusts":25.6,"aqi":160,"pm10":81.7,"pm2_5":68.7,"no2":21.5,"co":597.0,"o3":50.0,"so2":10.5,"mosquito_risk":7,"arthritis_risk":5,"migraine_risk":4,"frizz_risk":1,"updated_at":"2026-06-12T04:55:00.654113+05:30"},{"city":"Pune","state":"Maharashtra","latitude":18.5204,"longitude":73.8567,"temp":24.7,"humidity":87,"rain":0.0,"pressure":945.6,"uv_index":8.3,"wind_gusts":46.1,"aqi":62,"pm10":26.3,"pm2_5":13.6,"no2":6.2,"co":108.0,"o3":42.0,"so2":4.9,"mosquito_risk":3,"arthritis_risk":5,"migraine_risk":7,"frizz_risk":1,"updated_at":"2026-06-12T04:55:00.654120+05:30"},{"city":"Ahmedabad","state":"Gujarat","latitude":23.0225,"longitude":72.5714,"temp":30.3,"humidity":66,"rain":0.0,"pressure":996.7,"uv_index":8.1,"wind_gusts":48.2,"aqi":75,"pm10":43.3,"pm2_5":19.8,"no2":4.9,"co":119.0,"o3":48.0,"so2":4.2,"mosquito_risk":3,"arthritis_risk":5,"migraine_risk":7,"frizz_risk":1,"updated_at":"2026-06-12T04:55:00.654127+05:30"},{"city":"Jaipur","state":"Rajasthan","latitude":26.9124,"longitude":75.7873,"temp":29.7,"humidity":63,"rain":0.0,"pressure":953.2,"uv_index":8.25,"wind_gusts":50.4,"aqi":146,"pm10":211.4,"pm2_5":57.0,"no2":7.5,"co":173.0,"o3":59.0,"so2":6.2,"mosquito_risk":7,"arthritis_risk":5,"migraine_risk":7,"frizz_risk":1,"updated_at":"2026-06-12T04:55:00.654137+05:30"},{"city":"Lucknow","state":"Uttar Pradesh","latitude":26.8467,"longitude":80.9462,"temp":25.9,"humidity":80,"rain":0.0,"pressure":990.2,"uv_index":8.35,"wind_gusts":37.8,"aqi":124,"pm10":29.3,"pm2_5":20.7,"no2":12.0,"co":316.0,"o3":89.0,"so2":8.6,"mosquito_risk":7,"arthritis_risk":5,"migraine_risk":7,"frizz_risk":1,"updated_at":"2026-06-12T04:55:00.654144+05:30"},{"city":"Kanpur","state":"Uttar Pradesh","latitude":26.4499,"longitude":80.3319,"temp":27.5,"humidity":73,"rain":0.0,"pressure":987.7,"uv_index":8.35,"wind_gusts":47.2,"aqi":157,"pm10":35.5,"pm2_5":22.7,"no2":11.7,"co":346.0,"o3":85.0,"so2":6.6,"mosquito_risk":7,"arthritis_risk":5,"migraine_risk":7,"frizz_risk":1,"updated_at":"2026-06-12T04:55:00.654152+05:30"},{"city":"Chandigarh","state":"Chandigarh","latitude":30.7333,"longitude":76.7794,"temp":25.9,"humidity":73,"rain":0.0,"pressure":963.7,"uv_index":5.15,"wind_gusts":54.7,"aqi":134,"pm10":99.7,"pm2_5":49.6,"no2":11.1,"co":233.0,"o3":95.0,"so2":9.7,"mosquito_risk":7,"arthritis_risk":5,"migraine_risk":3,"frizz_risk":1,"updated_at":"2026-06-12T04:55:00.654159+05:30"},{"city":"Srinagar","state":"Jammu and Kashmir","latitude":34.0837,"longitude":74.7973,"temp":14.7,"humidity":90,"rain":0.0,"pressure":838.4,"uv_index":7.1,"wind_gusts":30.2,"aqi":79,"pm10":40.4,"pm2_5":35.5,"no2":19.6,"co":269.0,"o3":20.0,"so2":0.2,"mosquito_risk":3,"arthritis_risk":10,"migraine_risk":7,"frizz_risk":0,"updated_at":"2026-06-12T04:55:00.654166+05:30"},{"city":"Jammu","state":"Jammu and Kashmir","latitude":32.7266,"longitude":74.857,"temp":26.2,"humidity":50,"rain":0.0,"pressure":966.9,"uv_index":8.55,"wind_gusts":45.7,"aqi":100,"pm10":44.2,"pm2_5":40.0,"no2":34.0,"co":397.0,"o3":11.0,"so2":2.7,"mosquito_risk":4,"arthritis_risk":5,"migraine_risk":7,"frizz_risk":0,"updated_at":"2026-06-12T04:55:00.654173+05:30"},{"city":"Amritsar","state":"Punjab","latitude":31.634,"longitude":74.8723,"temp":27.3,"humidity":72,"rain":0.0,"pressure":974.9,"uv_index":8.4,"wind_gusts":52.2,"aqi":191,"pm10":276.6,"pm2_5":76.1,"no2":7.7,"co":308.0,"o3":98.0,"so2":8.7,"mosquito_risk":7,"arthritis_risk":5,"migraine_risk":7,"frizz_risk":1,"updated_at":"2026-06-12T04:55:00.654180+05:30"},{"city":"Ludhiana","state":"Punjab","latitude":30.901,"longitude":75.8573,"temp":26.0,"humidity":74,"rain":0.0,"pressure":972.9,"uv_index":7.3,"wind_gusts":59.0,"aqi":606,"pm10":812.1,"pm2_5":174.2,"no2":6.7,"co":284.0,"o3":107.0,"so2":10.2,"mosquito_risk":7,"arthritis_risk":5,"migraine_risk":7,"frizz_risk":1,"updated_at":"2026-06-12T04:55:00.654186+05:30"},{"city":"Jalandhar","state":"Punjab","latitude":31.326,"longitude":75.5762,"temp":26.6,"humidity":73,"rain":0.0,"pressure":973.9,"uv_index":7.35,"wind_gusts":55.8,"aqi":407,"pm10":502.9,"pm2_5":123.4,"no2":7.9,"co":276.0,"o3":103.0,"so2":10.7,"mosquito_risk":7,"arthritis_risk":5,"migraine_risk":7,"frizz_risk":1,"updated_at":"2026-06-12T04:55:00.654192+05:30"},{"city":"Dehradun","state":"Uttarakhand","latitude":30.6284,"longitude":78.0322,"temp":15.4,"humidity":98,"rain":0.0,"pressure":826.8,"uv_index":6.25,"wind_gusts":28.1,"aqi":76,"pm10":45.2,"pm2_5":21.4,"no2":33.4,"co":223.0,"o3":8.0,"so2":0.5,"mosquito_risk":3,"arthritis_risk":10,"migraine_risk":7,"frizz_risk":0,"updated_at":"2026-06-12T04:55:00.654201+05:30"},{"city":"Shimla","state":"Himachal Pradesh","latitude":31.1048,"longitude":77.1734,"temp":11.4,"humidity":88,"rain":0.0,"pressure":778.2,"uv_index":8.25,"wind_gusts":33.1,"aqi":91,"pm10":33.3,"pm2_5":29.5,"no2":18.8,"co":263.0,"o3":48.0,"so2":1.8,"mosquito_risk":3,"arthritis_risk":10,"migraine_risk":7,"frizz_risk":0,"updated_at":"2026-06-12T04:55:00.654209+05:30"},{"city":"Manali","state":"Himachal Pradesh","latitude":32.2396,"longitude":77.1887,"temp":14.3,"humidity":80,"rain":0.0,"pressure":815.3,"uv_index":6.9,"wind_gusts":40.0,"aqi":41,"pm10":5.0,"pm2_5":3.6,"no2":14.6,"co":224.0,"o3":117.0,"so2":0.0,"mosquito_risk":3,"arthritis_risk":5,"migraine_risk":7,"frizz_risk":0,"updated_at":"2026-06-12T04:55:00.654216+05:30"},{"city":"Gurgaon","state":"Haryana","latitude":28.4595,"longitude":77.0266,"temp":25.9,"humidity":76,"rain":0.0,"pressure":976.3,"uv_index":7.9,"wind_gusts":57.2,"aqi":1552,"pm10":360.4,"pm2_5":86.1,"no2":11.3,"co":287.0,"o3":103.0,"so2":11.7,"mosquito_risk":7,"arthritis_risk":5,"migraine_risk":7,"frizz_risk":1,"updated_at":"2026-06-12T04:55:00.654222+05:30"},{"city":"Noida","state":"Uttar Pradesh","latitude":28.5355,"longitude":77.391,"temp":25.3,"humidity":73,"rain":0.0,"pressure":980.0,"uv_index":7.85,"wind_gusts":49.0,"aqi":1552,"pm10":360.4,"pm2_5":86.1,"no2":11.3,"co":317.0,"o3":103.0,"so2":11.7,"mosquito_risk":7,"arthritis_risk":5,"migraine_risk":7,"frizz_risk":1,"updated_at":"2026-06-12T04:55:00.654228+05:30"},{"city":"Ghaziabad","state":"Uttar Pradesh","latitude":28.6692,"longitude":77.4538,"temp":24.7,"humidity":76,"rain":0.0,"pressure":978.3,"uv_index":7.7,"wind_gusts":51.8,"aqi":473,"pm10":52.0,"pm2_5":30.7,"no2":8.9,"co":306.0,"o3":101.0,"so2":6.4,"mosquito_risk":3,"arthritis_risk":5,"migraine_risk":7,"frizz_risk":1,"updated_at":"2026-06-12T04:55:00.654235+05:30"},{"city":"Faridabad","state":"Haryana","latitude":28.4089,"longitude":77.3178,"temp":25.0,"humidity":79,"rain":0.0,"pressure":979.2,"uv_index":7.75,"wind_gusts":54.4,"aqi":1552,"pm10":360.4,"pm2_5":86.1,"no2":11.3,"co":320.0,"o3":103.0,"so2":11.7,"mosquito_risk":7,"arthritis_risk":5,"migraine_risk":7,"frizz_risk":1,"updated_at":"2026-06-12T04:55:00.654241+05:30"},{"city":"Meerut","state":"Uttar Pradesh","latitude":28.9845,"longitude":77.7064,"temp":23.3,"humidity":96,"rain":0.0,"pressure":977.2,"uv_index":6.65,"wind_gusts":44.6,"aqi":473,"pm10":52.0,"pm2_5":30.7,"no2":8.9,"co":312.0,"o3":101.0,"so2":6.4,"mosquito_risk":3,"arthritis_risk":5,"migraine_risk":7,"frizz_risk":1,"updated_at":"2026-06-12T04:55:00.654247+05:30"},{"city":"Agra","state":"Uttar Pradesh","latitude":27.1767,"longitude":78.0081,"temp":29.4,"humidity":65,"rain":0.0,"pressure":983.1,"uv_index":8.15,"wind_gusts":48.6,"aqi":960,"pm10":1885.0,"pm2_5":221.2,"no2":6.4,"co":172.0,"o3":116.0,"so2":7.0,"mosquito_risk":7,"arthritis_risk":5,"migraine_risk":7,"frizz_risk":1,"updated_at":"2026-06-12T04:55:00.654254+05:30"},{"city":"Varanasi","state":"Uttar Pradesh","latitude":25.3176,"longitude":82.9739,"temp":27.6,"humidity":74,"rain":0.0,"pressure":994.0,"uv_index":8.75,"wind_gusts":43.6,"aqi":146,"pm10":51.5,"pm2_5":43.2,"no2":14.5,"co":418.0,"o3":86.0,"so2":18.1,"mosquito_risk":7,"arthritis_risk":5,"migraine_risk":7,"frizz_risk":1,"updated_at":"2026-06-12T04:55:00.654260+05:30"},{"city":"Prayagraj","state":"Uttar Pradesh","latitude":25.4358,"longitude":81.8463,"temp":28.7,"humidity":65,"rain":0.0,"pressure":992.0,"uv_index":8.75,"wind_gusts":39.2,"aqi":146,"pm10":44.8,"pm2_5":36.0,"no2":12.3,"co":404.0,"o3":96.0,"so2":13.5,"mosquito_risk":7,"arthritis_risk":5,"migraine_risk":7,"frizz_risk":1,"updated_at":"2026-06-12T04:55:00.654268+05:30"},{"city":"Gorakhpur","state":"Uttar Pradesh","latitude":26.7606,"longitude":83.3732,"temp":25.2,"humidity":88,"rain":0.0,"pressure":994.8,"uv_index":8.7,"wind_gusts":40.3,"aqi":94,"pm10":57.0,"pm2_5":33.5,"no2":12.4,"co":439.0,"o3":87.0,"so2":9.0,"mosquito_risk":7,"arthritis_risk":5,"migraine_risk":7,"frizz_risk":1,"updated_at":"2026-06-12T04:55:00.654276+05:30"},{"city":"Bareilly","state":"Uttar Pradesh","latitude":28.367,"longitude":79.4304,"temp":24.5,"humidity":94,"rain":0.4,"pressure":984.6,"uv_index":7.9,"wind_gusts":46.1,"aqi":153,"pm10":45.9,"pm2_5":28.1,"no2":9.8,"co":294.0,"o3":101.0,"so2":5.6,"mosquito_risk":6,"arthritis_risk":5,"migraine_risk":7,"frizz_risk":1,"updated_at":"2026-06-12T04:55:00.654283+05:30"},{"city":"Aligarh","state":"Uttar Pradesh","latitude":27.8974,"longitude":78.088,"temp":26.5,"humidity":71,"rain":0.0,"pressure":982.2,"uv_index":7.9,"wind_gusts":49.0,"aqi":997,"pm10":60.8,"pm2_5":28.5,"no2":9.9,"co":318.0,"o3":106.0,"so2":7.0,"mosquito_risk":7,"arthritis_risk":5,"migraine_risk":7,"frizz_risk":1,"updated_at":"2026-06-12T04:55:00.654290+05:30"},{"city":"Moradabad","state":"Uttar Pradesh","latitude":28.8386,"longitude":78.7733,"temp":24.2,"humidity":94,"rain":0.6,"pressure":981.4,"uv_index":7.6,"wind_gusts":35.3,"aqi":152,"pm10":75.7,"pm2_5":39.7,"no2":11.1,"co":269.0,"o3":96.0,"so2":6.6,"mosquito_risk":6,"arthritis_risk":5,"migraine_risk":7,"frizz_risk":1,"updated_at":"2026-06-12T04:55:00.654296+05:30"},{"city":"Saharanpur","state":"Uttar Pradesh","latitude":29.9637,"longitude":77.546,"temp":23.3,"humidity":91,"rain":0.3,"pressure":972.8,"uv_index":7.05,"wind_gusts":54.4,"aqi":152,"pm10":104.3,"pm2_5":50.2,"no2":8.6,"co":255.0,"o3":99.0,"so2":8.2,"mosquito_risk":6,"arthritis_risk":5,"migraine_risk":7,"frizz_risk":1,"updated_at":"2026-06-12T04:55:00.654302+05:30"},{"city":"Jhansi","state":"Uttar Pradesh","latitude":25.4484,"longitude":78.5685,"temp":28.8,"humidity":63,"rain":0.0,"pressure":973.9,"uv_index":8.55,"wind_gusts":64.4,"aqi":92,"pm10":77.5,"pm2_5":39.1,"no2":8.9,"co":187.0,"o3":80.0,"so2":4.7,"mosquito_risk":7,"arthritis_risk":5,"migraine_risk":7,"frizz_risk":1,"updated_at":"2026-06-12T04:55:03.997434+05:30"},{"city":"Surat","state":"Gujarat","latitude":21.1702,"longitude":72.8311,"temp":29.6,"humidity":80,"rain":0.0,"pressure":1002.3,"uv_index":7.6,"wind_gusts":58.0,"aqi":89,"pm10":57.6,"pm2_5":29.8,"no2":14.9,"co":226.0,"o3":44.0,"so2":26.3,"mosquito_risk":7,"arthritis_risk":5,"migraine_risk":4,"frizz_risk":1,"updated_at":"2026-06-12T04:55:03.997462+05:30"},{"city":"Vadodara","state":"Gujarat","latitude":22.3072,"longitude":73.1812,"temp":29.6,"humidity":77,"rain":0.0,"pressure":999.5,"uv_index":8.05,"wind_gusts":57.2,"aqi":85,"pm10":49.0,"pm2_5":25.4,"no2":7.0,"co":107.0,"o3":47.0,"so2":7.8,"mosquito_risk":7,"arthritis_risk":5,"migraine_risk":7,"frizz_risk":1,"updated_at":"2026-06-12T04:55:03.997472+05:30"},{"city":"Rajkot","state":"Gujarat","latitude":22.3039,"longitude":70.8022,"temp":28.1,"humidity":82,"rain":0.0,"pressure":989.0,"uv_index":7.6,"wind_gusts":51.8,"aqi":67,"pm10":26.3,"pm2_5":12.7,"no2":2.8,"co":93.0,"o3":51.0,"so2":2.2,"mosquito_risk":7,"arthritis_risk":5,"migraine_risk":7,"frizz_risk":1,"updated_at":"2026-06-12T04:55:03.997481+05:30"},{"city":"Thane","state":"Maharashtra","latitude":19.2183,"longitude":72.9781,"temp":29.7,"humidity":76,"rain":0.0,"pressure":1004.5,"uv_index":7.7,"wind_gusts":41.4,"aqi":81,"pm10":65.4,"pm2_5":26.5,"no2":3.8,"co":135.0,"o3":56.0,"so2":4.0,"mosquito_risk":7,"arthritis_risk":5,"migraine_risk":4,"frizz_risk":1,"updated_at":"2026-06-12T04:55:03.997489+05:30"},{"city":"Nagpur","state":"Maharashtra","latitude":21.1458,"longitude":79.0882,"temp":31.6,"humidity":56,"rain":0.0,"pressure":968.4,"uv_index":8.9,"wind_gusts":48.2,"aqi":91,"pm10":54.4,"pm2_5":41.9,"no2":21.1,"co":296.0,"o3":48.0,"so2":18.6,"mosquito_risk":0,"arthritis_risk":5,"migraine_risk":7,"frizz_risk":1,"updated_at":"2026-06-12T04:55:03.997496+05:30"},{"city":"Nashik","state":"Maharashtra","latitude":19.9975,"longitude":73.7898,"temp":24.7,"humidity":88,"rain":0.0,"pressure":942.1,"uv_index":8.05,"wind_gusts":51.1,"aqi":67,"pm10":32.2,"pm2_5":17.2,"no2":7.3,"co":114.0,"o3":44.0,"so2":8.0,"mosquito_risk":3,"arthritis_risk":5,"migraine_risk":7,"frizz_risk":1,"updated_at":"2026-06-12T04:55:03.997504+05:30"},{"city":"Aurangabad","state":"Maharashtra","latitude":19.8762,"longitude":75.3433,"temp":25.6,"humidity":78,"rain":0.0,"pressure":940.8,"uv_index":8.95,"wind_gusts":48.2,"aqi":69,"pm10":37.8,"pm2_5":20.3,"no2":11.1,"co":148.0,"o3":37.0,"so2":12.6,"mosquito_risk":7,"arthritis_risk":5,"migraine_risk":7,"frizz_risk":1,"updated_at":"2026-06-12T04:55:03.997511+05:30"},{"city":"Solapur","state":"Maharashtra","latitude":17.6599,"longitude":75.9064,"temp":26.6,"humidity":74,"rain":0.0,"pressure":955.0,"uv_index":8.9,"wind_gusts":43.2,"aqi":60,"pm10":28.0,"pm2_5":15.5,"no2":6.5,"co":137.0,"o3":38.0,"so2":2.4,"mosquito_risk":7,"arthritis_risk":5,"migraine_risk":7,"frizz_risk":1,"updated_at":"2026-06-12T04:55:03.997517+05:30"},{"city":"Kolhapur","state":"Maharashtra","latitude":16.705,"longitude":74.2433,"temp":23.7,"humidity":93,"rain":0.0,"pressure":946.0,"uv_index":8.7,"wind_gusts":52.2,"aqi":56,"pm10":24.7,"pm2_5":13.2,"no2":3.8,"co":134.0,"o3":44.0,"so2":1.9,"mosquito_risk":3,"arthritis_risk":5,"migraine_risk":7,"frizz_risk":1,"updated_at":"2026-06-12T04:55:03.997524+05:30"},{"city":"Goa","state":"Goa","latitude":15.2993,"longitude":74.124,"temp":25.5,"humidity":96,"rain":0.0,"pressure":996.9,"uv_index":6.15,"wind_gusts":31.0,"aqi":68,"pm10":41.2,"pm2_5":21.1,"no2":4.4,"co":184.0,"o3":42.0,"so2":1.3,"mosquito_risk":7,"arthritis_risk":5,"migraine_risk":7,"frizz_risk":1,"updated_at":"2026-06-12T04:55:03.997531+05:30"},{"city":"Jodhpur","state":"Rajasthan","latitude":26.2389,"longitude":73.0243,"temp":30.9,"humidity":64,"rain":0.0,"pressure":975.2,"uv_index":8.45,"wind_gusts":49.3,"aqi":155,"pm10":237.0,"pm2_5":56.2,"no2":3.0,"co":114.0,"o3":70.0,"so2":2.9,"mosquito_risk":3,"arthritis_risk":5,"migraine_risk":7,"frizz_risk":1,"updated_at":"2026-06-12T04:55:03.997537+05:30"},{"city":"Udaipur","state":"Rajasthan","latitude":24.5854,"longitude":73.7125,"temp":26.5,"humidity":80,"rain":0.0,"pressure":941.0,"uv_index":8.85,"wind_gusts":43.6,"aqi":82,"pm10":36.1,"pm2_5":22.4,"no2":11.0,"co":129.0,"o3":37.0,"so2":14.2,"mosquito_risk":7,"arthritis_risk":5,"migraine_risk":7,"frizz_risk":1,"updated_at":"2026-06-12T04:55:03.997544+05:30"},{"city":"Kota","state":"Rajasthan","latitude":25.2138,"longitude":75.8648,"temp":31.0,"humidity":66,"rain":0.0,"pressure":972.6,"uv_index":8.4,"wind_gusts":47.2,"aqi":91,"pm10":40.5,"pm2_5":27.1,"no2":6.2,"co":163.0,"o3":67.0,"so2":10.0,"mosquito_risk":3,"arthritis_risk":5,"migraine_risk":7,"frizz_risk":1,"updated_at":"2026-06-12T04:55:03.997551+05:30"},{"city":"Bikaner","state":"Rajasthan","latitude":28.0229,"longitude":73.3119,"temp":33.5,"humidity":42,"rain":0.0,"pressure":972.3,"uv_index":8.45,"wind_gusts":51.8,"aqi":157,"pm10":142.0,"pm2_5":53.4,"no2":2.1,"co":121.0,"o3":71.0,"so2":3.6,"mosquito_risk":0,"arthritis_risk":5,"migraine_risk":7,"frizz_risk":1,"updated_at":"2026-06-12T04:55:03.997557+05:30"},{"city":"Ajmer","state":"Rajasthan","latitude":26.4499,"longitude":74.6399,"temp":30.1,"humidity":63,"rain":0.0,"pressure":948.0,"uv_index":8.4,"wind_gusts":47.5,"aqi":84,"pm10":34.9,"pm2_5":21.0,"no2":5.1,"co":126.0,"o3":66.0,"so2":5.3,"mosquito_risk":3,"arthritis_risk":5,"migraine_risk":7,"frizz_risk":1,"updated_at":"2026-06-12T04:55:03.997610+05:30"},{"city":"Gwalior","state":"Madhya Pradesh","latitude":26.2183,"longitude":78.1828,"temp":24.8,"humidity":89,"rain":0.2,"pressure":979.2,"uv_index":8.3,"wind_gusts":65.9,"aqi":110,"pm10":158.3,"pm2_5":62.9,"no2":5.8,"co":152.0,"o3":106.0,"so2":6.1,"mosquito_risk":6,"arthritis_risk":5,"migraine_risk":7,"frizz_risk":1,"updated_at":"2026-06-12T04:55:03.997621+05:30"},{"city":"Indore","state":"Madhya Pradesh","latitude":22.7196,"longitude":75.8577,"temp":27.0,"humidity":79,"rain":0.0,"pressure":944.0,"uv_index":8.65,"wind_gusts":44.6,"aqi":82,"pm10":44.9,"pm2_5":25.4,"no2":5.3,"co":139.0,"o3":51.0,"so2":7.5,"mosquito_risk":7,"arthritis_risk":5,"migraine_risk":7,"frizz_risk":1,"updated_at":"2026-06-12T04:55:03.997629+05:30"},{"city":"Bhopal","state":"Madhya Pradesh","latitude":23.2599,"longitude":77.4126,"temp":29.8,"humidity":61,"rain":0.0,"pressure":949.2,"uv_index":8.7,"wind_gusts":36.7,"aqi":79,"pm10":50.8,"pm2_5":33.9,"no2":6.8,"co":216.0,"o3":69.0,"so2":7.2,"mosquito_risk":7,"arthritis_risk":5,"migraine_risk":7,"frizz_risk":1,"updated_at":"2026-06-12T04:55:03.997636+05:30"},{"city":"Jabalpur","state":"Madhya Pradesh","latitude":23.1815,"longitude":79.9864,"temp":29.8,"humidity":52,"rain":0.0,"pressure":956.8,"uv_index":8.9,"wind_gusts":45.4,"aqi":73,"pm10":34.5,"pm2_5":25.0,"no2":13.9,"co":221.0,"o3":49.0,"so2":3.8,"mosquito_risk":4,"arthritis_risk":5,"migraine_risk":7,"frizz_risk":1,"updated_at":"2026-06-12T04:55:03.997643+05:30"},{"city":"Ujjain","state":"Madhya Pradesh","latitude":23.1765,"longitude":75.7885,"temp":26.9,"humidity":80,"rain":0.0,"pressure":949.3,"uv_index":8.6,"wind_gusts":45.7,"aqi":85,"pm10":40.9,"pm2_5":22.6,"no2":4.7,"co":138.0,"o3":49.0,"so2":7.4,"mosquito_risk":7,"arthritis_risk":5,"migraine_risk":7,"frizz_risk":1,"updated_at":"2026-06-12T04:55:03.997650+05:30"},{"city":"Visakhapatnam","state":"Andhra Pradesh","latitude":17.6868,"longitude":83.2185,"temp":29.1,"humidity":75,"rain":0.0,"pressure":999.4,"uv_index":8.2,"wind_gusts":40.7,"aqi":143,"pm10":40.7,"pm2_5":31.0,"no2":21.6,"co":378.0,"o3":56.0,"so2":34.8,"mosquito_risk":7,"arthritis_risk":5,"migraine_risk":7,"frizz_risk":1,"updated_at":"2026-06-12T04:55:03.997656+05:30"},{"city":"Vijayawada","state":"Andhra Pradesh","latitude":16.5062,"longitude":80.648,"temp":27.9,"humidity":88,"rain":0.2,"pressure":999.3,"uv_index":8.5,"wind_gusts":40.0,"aqi":94,"pm10":27.7,"pm2_5":20.4,"no2":8.6,"co":210.0,"o3":71.0,"so2":6.8,"mosquito_risk":10,"arthritis_risk":5,"migraine_risk":7,"frizz_risk":1,"updated_at":"2026-06-12T04:55:03.997663+05:30"},{"city":"Guntur","state":"Andhra Pradesh","latitude":16.3067,"longitude":80.4365,"temp":26.8,"humidity":82,"rain":0.1,"pressure":999.9,"uv_index":8.4,"wind_gusts":34.6,"aqi":94,"pm10":28.6,"pm2_5":21.2,"no2":9.1,"co":182.0,"o3":68.0,"so2":6.2,"mosquito_risk":10,"arthritis_risk":5,"migraine_risk":7,"frizz_risk":1,"updated_at":"2026-06-12T04:55:03.997670+05:30"},{"city":"Nellore","state":"Andhra Pradesh","latitude":14.4426,"longitude":79.9865,"temp":28.9,"humidity":68,"rain":0.0,"pressure":1002.7,"uv_index":8.3,"wind_gusts":36.7,"aqi":70,"pm10":39.9,"pm2_5":24.9,"no2":7.7,"co":224.0,"o3":57.0,"so2":3.7,"mosquito_risk":7,"arthritis_risk":5,"migraine_risk":4,"frizz_risk":1,"updated_at":"2026-06-12T04:55:03.997678+05:30"},{"city":"Kurnool","state":"Andhra Pradesh","latitude":15.8281,"longitude":78.0373,"temp":26.9,"humidity":75,"rain":0.0,"pressure":975.1,"uv_index":8.45,"wind_gusts":52.6,"aqi":66,"pm10":23.4,"pm2_5":15.1,"no2":7.6,"co":140.0,"o3":41.0,"so2":3.6,"mosquito_risk":7,"arthritis_risk":5,"migraine_risk":7,"frizz_risk":1,"updated_at":"2026-06-12T04:55:03.997686+05:30"},{"city":"Kakinada","state":"Andhra Pradesh","latitude":16.9891,"longitude":82.2475,"temp":28.0,"humidity":86,"rain":0.1,"pressure":1004.0,"uv_index":8.55,"wind_gusts":36.0,"aqi":88,"pm10":32.7,"pm2_5":19.3,"no2":3.7,"co":197.0,"o3":91.0,"so2":5.3,"mosquito_risk":10,"arthritis_risk":5,"migraine_risk":4,"frizz_risk":1,"updated_at":"2026-06-12T04:55:03.997693+05:30"},{"city":"Tirupati","state":"Andhra Pradesh","latitude":13.6288,"longitude":79.4192,"temp":27.2,"humidity":73,"rain":0.0,"pressure":988.6,"uv_index":8.75,"wind_gusts":37.8,"aqi":67,"pm10":34.6,"pm2_5":23.6,"no2":14.9,"co":183.0,"o3":38.0,"so2":3.6,"mosquito_risk":7,"arthritis_risk":5,"migraine_risk":7,"frizz_risk":1,"updated_at":"2026-06-12T04:55:03.997700+05:30"},{"city":"Warangal","state":"Telangana","latitude":17.9689,"longitude":79.5941,"temp":28.3,"humidity":62,"rain":0.0,"pressure":974.5,"uv_index":9.0,"wind_gusts":59.4,"aqi":98,"pm10":38.8,"pm2_5":29.4,"no2":16.0,"co":218.0,"o3":51.0,"so2":9.6,"mosquito_risk":7,"arthritis_risk":5,"migraine_risk":7,"frizz_risk":1,"updated_at":"2026-06-12T04:55:03.997706+05:30"},{"city":"Nizamabad","state":"Telangana","latitude":18.6725,"longitude":78.0941,"temp":29.8,"humidity":46,"rain":0.0,"pressure":961.2,"uv_index":8.95,"wind_gusts":48.6,"aqi":82,"pm10":30.2,"pm2_5":21.5,"no2":10.7,"co":222.0,"o3":61.0,"so2":6.2,"mosquito_risk":4,"arthritis_risk":5,"migraine_risk":7,"frizz_risk":1,"updated_at":"2026-06-12T04:55:03.997713+05:30"},{"city":"Mysore","state":"Karnataka","latitude":12.2958,"longitude":76.6396,"temp":21.6,"humidity":93,"rain":0.0,"pressure":927.6,"uv_index":8.65,"wind_gusts":54.0,"aqi":40,"pm10":19.7,"pm2_5":10.4,"no2":8.6,"co":136.0,"o3":33.0,"so2":2.0,"mosquito_risk":3,"arthritis_risk":5,"migraine_risk":7,"frizz_risk":1,"updated_at":"2026-06-12T04:55:03.997721+05:30"},{"city":"Mangalore","state":"Karnataka","latitude":12.9141,"longitude":74.856,"temp":23.5,"humidity":99,"rain":0.0,"pressure":1007.0,"uv_index":6.85,"wind_gusts":41.8,"aqi":47,"pm10":19.2,"pm2_5":12.7,"no2":8.8,"co":189.0,"o3":35.0,"so2":2.7,"mosquito_risk":3,"arthritis_risk":5,"migraine_risk":4,"frizz_risk":1,"updated_at":"2026-06-12T04:55:03.997728+05:30"},{"city":"Hubli-Dharwad","state":"Karnataka","latitude":15.3647,"longitude":75.124,"temp":23.0,"humidity":96,"rain":0.0,"pressure":939.5,"uv_index":8.9,"wind_gusts":48.2,"aqi":45,"pm10":5.4,"pm2_5":2.7,"no2":2.0,"co":100.0,"o3":49.0,"so2":1.2,"mosquito_risk":3,"arthritis_risk":5,"migraine_risk":7,"frizz_risk":1,"updated_at":"2026-06-12T04:55:03.997734+05:30"},{"city":"Belgaum","state":"Karnataka","latitude":15.8497,"longitude":74.4977,"temp":22.3,"humidity":98,"rain":0.0,"pressure":924.0,"uv_index":8.7,"wind_gusts":46.8,"aqi":58,"pm10":27.4,"pm2_5":13.9,"no2":3.8,"co":107.0,"o3":44.0,"so2":1.6,"mosquito_risk":3,"arthritis_risk":5,"migraine_risk":7,"frizz_risk":1,"updated_at":"2026-06-12T04:55:07.335723+05:30"},{"city":"Coimbatore","state":"Tamil Nadu","latitude":11.0168,"longitude":76.9558,"temp":22.9,"humidity":99,"rain":0.1,"pressure":961.1,"uv_index":6.8,"wind_gusts":45.7,"aqi":36,"pm10":15.7,"pm2_5":7.7,"no2":5.9,"co":126.0,"o3":40.0,"so2":2.2,"mosquito_risk":6,"arthritis_risk":5,"migraine_risk":7,"frizz_risk":1,"updated_at":"2026-06-12T04:55:07.335751+05:30"},{"city":"Madurai","state":"Tamil Nadu","latitude":9.9252,"longitude":78.1198,"temp":28.6,"humidity":62,"rain":0.0,"pressure":992.4,"uv_index":7.8,"wind_gusts":60.8,"aqi":43,"pm10":18.5,"pm2_5":15.3,"no2":21.6,"co":156.0,"o3":11.0,"so2":4.8,"mosquito_risk":7,"arthritis_risk":5,"migraine_risk":7,"frizz_risk":1,"updated_at":"2026-06-12T04:55:07.335761+05:30"},{"city":"Trichy","state":"Tamil Nadu","latitude":10.7905,"longitude":78.7047,"temp":28.6,"humidity":65,"rain":0.0,"pressure":998.9,"uv_index":8.6,"wind_gusts":50.0,"aqi":38,"pm10":11.0,"pm2_5":7.1,"no2":7.4,"co":122.0,"o3":44.0,"so2":3.1,"mosquito_risk":7,"arthritis_risk":5,"migraine_risk":7,"frizz_risk":1,"updated_at":"2026-06-12T04:55:07.335769+05:30"},{"city":"Salem","state":"Tamil Nadu","latitude":11.6643,"longitude":78.146,"temp":26.1,"humidity":77,"rain":0.0,"pressure":976.8,"uv_index":8.15,"wind_gusts":46.1,"aqi":60,"pm10":22.5,"pm2_5":16.1,"no2":18.9,"co":211.0,"o3":29.0,"so2":8.9,"mosquito_risk":7,"arthritis_risk":5,"migraine_risk":7,"frizz_risk":1,"updated_at":"2026-06-12T04:55:07.335777+05:30"},{"city":"Tirunelveli","state":"Tamil Nadu","latitude":8.7139,"longitude":77.7567,"temp":26.9,"humidity":80,"rain":0.1,"pressure":1003.2,"uv_index":8.5,"wind_gusts":44.3,"aqi":19,"pm10":4.3,"pm2_5":3.6,"no2":6.6,"co":145.0,"o3":35.0,"so2":2.3,"mosquito_risk":10,"arthritis_risk":5,"migraine_risk":4,"frizz_risk":1,"updated_at":"2026-06-12T04:55:07.335784+05:30"},{"city":"Vellore","state":"Tamil Nadu","latitude":12.9165,"longitude":79.1325,"temp":25.6,"humidity":83,"rain":0.0,"pressure":982.7,"uv_index":7.75,"wind_gusts":43.6,"aqi":74,"pm10":36.2,"pm2_5":25.1,"no2":19.2,"co":185.0,"o3":30.0,"so2":5.3,"mosquito_risk":7,"arthritis_risk":5,"migraine_risk":7,"frizz_risk":1,"updated_at":"2026-06-12T04:55:07.335790+05:30"},{"city":"Erode","state":"Tamil Nadu","latitude":11.341,"longitude":77.7172,"temp":25.4,"humidity":83,"rain":0.0,"pressure":988.5,"uv_index":7.7,"wind_gusts":49.0,"aqi":50,"pm10":21.2,"pm2_5":14.6,"no2":14.8,"co":131.0,"o3":39.0,"so2":3.5,"mosquito_risk":7,"arthritis_risk":5,"migraine_risk":7,"frizz_risk":1,"updated_at":"2026-06-12T04:55:07.335797+05:30"},{"city":"Kochi","state":"Kerala","latitude":9.9312,"longitude":76.2673,"temp":24.7,"humidity":95,"rain":0.3,"pressure":1009.9,"uv_index":7.65,"wind_gusts":37.4,"aqi":48,"pm10":11.8,"pm2_5":8.4,"no2":9.1,"co":110.0,"o3":33.0,"so2":3.0,"mosquito_risk":6,"arthritis_risk":0,"migraine_risk":4,"frizz_risk":1,"updated_at":"2026-06-12T04:55:07.335804+05:30"},{"city":"Thiruvananthapuram","state":"Kerala","latitude":8.5241,"longitude":76.9366,"temp":24.1,"humidity":97,"rain":0.2,"pressure":1009.7,"uv_index":6.95,"wind_gusts":40.7,"aqi":26,"pm10":13.3,"pm2_5":5.9,"no2":1.7,"co":83.0,"o3":53.0,"so2":0.6,"mosquito_risk":6,"arthritis_risk":0,"migraine_risk":4,"frizz_risk":1,"updated_at":"2026-06-12T04:55:07.335811+05:30"},{"city":"Kozhikode","state":"Kerala","latitude":11.2588,"longitude":75.7804,"temp":24.2,"humidity":100,"rain":0.2,"pressure":1008.6,"uv_index":2.65,"wind_gusts":22.0,"aqi":28,"pm10":14.2,"pm2_5":6.1,"no2":1.1,"co":161.0,"o3":65.0,"so2":0.6,"mosquito_risk":6,"arthritis_risk":0,"migraine_risk":0,"frizz_risk":1,"updated_at":"2026-06-12T04:55:07.335817+05:30"},{"city":"Thrissur","state":"Kerala","latitude":10.5276,"longitude":76.2144,"temp":24.2,"humidity":99,"rain":0.1,"pressure":1008.1,"uv_index":5.65,"wind_gusts":25.6,"aqi":53,"pm10":10.7,"pm2_5":7.6,"no2":9.3,"co":144.0,"o3":33.0,"so2":3.2,"mosquito_risk":6,"arthritis_risk":0,"migraine_risk":0,"frizz_risk":1,"updated_at":"2026-06-12T04:55:07.335824+05:30"},{"city":"Kannur","state":"Kerala","latitude":11.8745,"longitude":75.3704,"temp":24.9,"humidity":96,"rain":0.1,"pressure":1007.7,"uv_index":3.1,"wind_gusts":34.2,"aqi":39,"pm10":12.5,"pm2_5":6.9,"no2":7.1,"co":138.0,"o3":38.0,"so2":1.7,"mosquito_risk":6,"arthritis_risk":5,"migraine_risk":0,"frizz_risk":1,"updated_at":"2026-06-12T04:55:07.335831+05:30"},{"city":"Patna","state":"Bihar","latitude":25.5941,"longitude":85.1376,"temp":26.1,"humidity":88,"rain":0.0,"pressure":998.2,"uv_index":8.85,"wind_gusts":38.5,"aqi":127,"pm10":61.2,"pm2_5":45.9,"no2":10.9,"co":352.0,"o3":98.0,"so2":14.6,"mosquito_risk":7,"arthritis_risk":5,"migraine_risk":7,"frizz_risk":1,"updated_at":"2026-06-12T04:55:07.335843+05:30"},{"city":"Gaya","state":"Bihar","latitude":24.7914,"longitude":85.0002,"temp":27.0,"humidity":78,"rain":0.0,"pressure":991.0,"uv_index":8.9,"wind_gusts":27.4,"aqi":152,"pm10":72.2,"pm2_5":61.2,"no2":14.0,"co":618.0,"o3":77.0,"so2":24.9,"mosquito_risk":7,"arthritis_risk":5,"migraine_risk":7,"frizz_risk":1,"updated_at":"2026-06-12T04:55:07.335850+05:30"},{"city":"Muzaffarpur","state":"Bihar","latitude":26.1209,"longitude":85.3647,"temp":24.9,"humidity":90,"rain":0.0,"pressure":999.0,"uv_index":8.85,"wind_gusts":39.2,"aqi":103,"pm10":40.9,"pm2_5":29.7,"no2":9.0,"co":323.0,"o3":109.0,"so2":8.5,"mosquito_risk":3,"arthritis_risk":5,"migraine_risk":7,"frizz_risk":1,"updated_at":"2026-06-12T04:55:07.335857+05:30"},{"city":"Bhagalpur","state":"Bihar","latitude":25.2425,"longitude":87.0117,"temp":25.6,"humidity":93,"rain":0.0,"pressure":1000.0,"uv_index":8.8,"wind_gusts":27.4,"aqi":152,"pm10":92.7,"pm2_5":75.7,"no2":15.3,"co":302.0,"o3":61.0,"so2":9.2,"mosquito_risk":7,"arthritis_risk":5,"migraine_risk":4,"frizz_risk":1,"updated_at":"2026-06-12T04:55:07.335863+05:30"},{"city":"Ranchi","state":"Jharkhand","latitude":23.3441,"longitude":85.3096,"temp":22.3,"humidity":87,"rain":0.0,"pressure":934.8,"uv_index":9.0,"wind_gusts":34.2,"aqi":132,"pm10":99.0,"pm2_5":73.6,"no2":19.5,"co":318.0,"o3":100.0,"so2":12.9,"mosquito_risk":3,"arthritis_risk":5,"migraine_risk":7,"frizz_risk":1,"updated_at":"2026-06-12T04:55:07.335869+05:30"},{"city":"Jamshedpur","state":"Jharkhand","latitude":22.8046,"longitude":86.2029,"temp":24.7,"humidity":91,"rain":0.0,"pressure":988.4,"uv_index":9.1,"wind_gusts":28.1,"aqi":158,"pm10":126.2,"pm2_5":111.8,"no2":41.3,"co":509.0,"o3":29.0,"so2":30.0,"mosquito_risk":3,"arthritis_risk":5,"migraine_risk":7,"frizz_risk":1,"updated_at":"2026-06-12T04:55:07.335875+05:30"},{"city":"Dhanbad","state":"Jharkhand","latitude":23.7957,"longitude":86.4304,"temp":24.6,"humidity":90,"rain":0.0,"pressure":977.7,"uv_index":9.1,"wind_gusts":38.5,"aqi":167,"pm10":142.5,"pm2_5":128.1,"no2":50.3,"co":633.0,"o3":32.0,"so2":151.2,"mosquito_risk":3,"arthritis_risk":5,"migraine_risk":7,"frizz_risk":1,"updated_at":"2026-06-12T04:55:07.335881+05:30"},{"city":"Bokaro","state":"Jharkhand","latitude":23.6693,"longitude":86.1511,"temp":24.3,"humidity":90,"rain":0.0,"pressure":981.4,"uv_index":9.1,"wind_gusts":49.3,"aqi":168,"pm10":149.5,"pm2_5":133.2,"no2":61.6,"co":2088.0,"o3":16.0,"so2":172.7,"mosquito_risk":3,"arthritis_risk":5,"migraine_risk":7,"frizz_risk":1,"updated_at":"2026-06-12T04:55:07.335887+05:30"},{"city":"Bhubaneswar","state":"Odisha","latitude":20.2961,"longitude":85.8245,"temp":27.3,"humidity":97,"rain":0.0,"pressure":999.6,"uv_index":9.05,"wind_gusts":51.8,"aqi":150,"pm10":59.0,"pm2_5":47.4,"no2":11.8,"co":376.0,"o3":105.0,"so2":6.9,"mosquito_risk":7,"arthritis_risk":5,"migraine_risk":7,"frizz_risk":1,"updated_at":"2026-06-12T04:55:07.335894+05:30"},{"city":"Cuttack","state":"Odisha","latitude":20.4625,"longitude":85.8828,"temp":27.6,"humidity":95,"rain":0.0,"pressure":1001.4,"uv_index":9.1,"wind_gusts":54.4,"aqi":150,"pm10":59.0,"pm2_5":47.4,"no2":11.8,"co":312.0,"o3":105.0,"so2":6.9,"mosquito_risk":7,"arthritis_risk":5,"migraine_risk":4,"frizz_risk":1,"updated_at":"2026-06-12T04:55:07.335900+05:30"},{"city":"Rourkela","state":"Odisha","latitude":22.2604,"longitude":84.8536,"temp":26.7,"humidity":84,"rain":0.0,"pressure":982.2,"uv_index":9.0,"wind_gusts":37.8,"aqi":156,"pm10":140.2,"pm2_5":120.1,"no2":46.9,"co":272.0,"o3":32.0,"so2":23.1,"mosquito_risk":7,"arthritis_risk":5,"migraine_risk":7,"frizz_risk":1,"updated_at":"2026-06-12T04:55:07.335906+05:30"},{"city":"Raipur","state":"Chhattisgarh","latitude":21.2514,"longitude":81.6296,"temp":29.0,"humidity":60,"rain":0.1,"pressure":970.7,"uv_index":8.95,"wind_gusts":58.7,"aqi":121,"pm10":61.0,"pm2_5":47.3,"no2":27.3,"co":274.0,"o3":46.0,"so2":31.0,"mosquito_risk":7,"arthritis_risk":5,"migraine_risk":7,"frizz_risk":1,"updated_at":"2026-06-12T04:55:07.335913+05:30"},{"city":"Bhilai","state":"Chhattisgarh","latitude":21.1938,"longitude":81.3509,"temp":30.1,"humidity":57,"rain":0.0,"pressure":971.0,"uv_index":8.95,"wind_gusts":48.6,"aqi":117,"pm10":53.8,"pm2_5":44.0,"no2":33.5,"co":412.0,"o3":46.0,"so2":47.9,"mosquito_risk":0,"arthritis_risk":5,"migraine_risk":7,"frizz_risk":1,"updated_at":"2026-06-12T04:55:07.335919+05:30"},{"city":"Guwahati","state":"Assam","latitude":26.1158,"longitude":91.7086,"temp":24.9,"humidity":99,"rain":0.0,"pressure":1000.4,"uv_index":8.55,"wind_gusts":20.9,"aqi":80,"pm10":44.1,"pm2_5":36.0,"no2":9.0,"co":423.0,"o3":50.0,"so2":3.1,"mosquito_risk":3,"arthritis_risk":5,"migraine_risk":4,"frizz_risk":1,"updated_at":"2026-06-12T04:55:07.335925+05:30"},{"city":"Agartala","state":"Tripura","latitude":23.8315,"longitude":91.2868,"temp":25.7,"humidity":97,"rain":0.0,"pressure":1004.3,"uv_index":3.5,"wind_gusts":28.1,"aqi":96,"pm10":63.3,"pm2_5":59.8,"no2":36.3,"co":308.0,"o3":13.0,"so2":4.5,"mosquito_risk":7,"arthritis_risk":5,"migraine_risk":0,"frizz_risk":1,"updated_at":"2026-06-12T04:55:07.335932+05:30"},{"city":"Shillong","state":"Meghalaya","latitude":25.5788,"longitude":91.8933,"temp":18.6,"humidity":78,"rain":0.0,"pressure":856.0,"uv_index":7.55,"wind_gusts":23.4,"aqi":62,"pm10":22.5,"pm2_5":14.0,"no2":6.8,"co":281.0,"o3":44.0,"so2":1.3,"mosquito_risk":3,"arthritis_risk":5,"migraine_risk":7,"frizz_risk":0,"updated_at":"2026-06-12T04:55:07.335938+05:30"},{"city":"Imphal","state":"Manipur","latitude":24.817,"longitude":93.9368,"temp":22.2,"humidity":95,"rain":0.0,"pressure":922.2,"uv_index":4.2,"wind_gusts":27.4,"aqi":73,"pm10":15.7,"pm2_5":14.1,"no2":5.5,"co":298.0,"o3":54.0,"so2":2.1,"mosquito_risk":3,"arthritis_risk":5,"migraine_risk":3,"frizz_risk":1,"updated_at":"2026-06-12T04:55:07.335944+05:30"},{"city":"Aizawl","state":"Mizoram","latitude":23.7271,"longitude":92.7176,"temp":20.1,"humidity":98,"rain":0.0,"pressure":890.7,"uv_index":8.5,"wind_gusts":24.1,"aqi":74,"pm10":26.5,"pm2_5":18.6,"no2":10.5,"co":252.0,"o3":16.0,"so2":1.0,"mosquito_risk":3,"arthritis_risk":5,"migraine_risk":7,"frizz_risk":1,"updated_at":"2026-06-12T04:55:07.335951+05:30"},{"city":"Kohima","state":"Nagaland","latitude":25.6701,"longitude":94.1077,"temp":19.7,"humidity":92,"rain":0.1,"pressure":854.9,"uv_index":2.2,"wind_gusts":30.6,"aqi":68,"pm10":28.8,"pm2_5":21.0,"no2":10.7,"co":215.0,"o3":31.0,"so2":1.5,"mosquito_risk":6,"arthritis_risk":10,"migraine_risk":3,"frizz_risk":1,"updated_at":"2026-06-12T04:55:07.335957+05:30"},{"city":"Gangtok","state":"Sikkim","latitude":27.3314,"longitude":88.6138,"temp":15.9,"humidity":100,"rain":0.4,"pressure":837.4,"uv_index":8.9,"wind_gusts":31.0,"aqi":65,"pm10":31.8,"pm2_5":23.4,"no2":7.2,"co":408.0,"o3":116.0,"so2":2.9,"mosquito_risk":6,"arthritis_risk":10,"migraine_risk":7,"frizz_risk":0,"updated_at":"2026-06-12T04:55:07.335964+05:30"},{"city":"Siliguri","state":"West Bengal","latitude":26.7271,"longitude":88.3953,"temp":23.1,"humidity":96,"rain":0.1,"pressure":992.6,"uv_index":8.65,"wind_gusts":22.3,"aqi":100,"pm10":70.1,"pm2_5":52.5,"no2":17.1,"co":295.0,"o3":94.0,"so2":7.4,"mosquito_risk":6,"arthritis_risk":5,"migraine_risk":7,"frizz_risk":1,"updated_at":"2026-06-12T04:55:10.693518+05:30"},{"city":"Durgapur","state":"West Bengal","latitude":23.5204,"longitude":87.3119,"temp":24.6,"humidity":97,"rain":0.0,"pressure":993.0,"uv_index":9.0,"wind_gusts":20.5,"aqi":161,"pm10":123.9,"pm2_5":112.7,"no2":37.7,"co":575.0,"o3":44.0,"so2":34.8,"mosquito_risk":3,"arthritis_risk":5,"migraine_risk":7,"frizz_risk":1,"updated_at":"2026-06-12T04:55:10.693551+05:30"},{"city":"Asansol","state":"West Bengal","latitude":23.6739,"longitude":86.9524,"temp":24.8,"humidity":96,"rain":0.0,"pressure":991.7,"uv_index":9.05,"wind_gusts":30.2,"aqi":160,"pm10":120.6,"pm2_5":107.6,"no2":37.1,"co":590.0,"o3":49.0,"so2":38.7,"mosquito_risk":3,"arthritis_risk":5,"migraine_risk":7,"frizz_risk":1,"updated_at":"2026-06-12T04:55:10.693588+05:30"},{"city":"Pondicherry","state":"Puducherry","latitude":11.9139,"longitude":79.8145,"temp":29.5,"humidity":62,"rain":0.0,"pressure":1006.5,"uv_index":7.9,"wind_gusts":36.4,"aqi":59,"pm10":15.8,"pm2_5":12.3,"no2":13.6,"co":233.0,"o3":42.0,"so2":7.6,"mosquito_risk":7,"arthritis_risk":5,"migraine_risk":4,"frizz_risk":1,"updated_at":"2026-06-12T04:55:10.693600+05:30"},{"city":"Port Blair","state":"Andaman and Nicobar Islands","latitude":11.6234,"longitude":92.7265,"temp":25.1,"humidity":94,"rain":0.2,"pressure":1008.4,"uv_index":6.2,"wind_gusts":52.6,"aqi":25,"pm10":16.8,"pm2_5":8.3,"no2":0.3,"co":87.0,"o3":51.0,"so2":0.3,"mosquito_risk":10,"arthritis_risk":0,"migraine_risk":4,"frizz_risk":1,"updated_at":"2026-06-12T04:55:10.693612+05:30"},{"city":"Haridwar","state":"Uttarakhand","latitude":29.9457,"longitude":78.1642,"temp":24.0,"humidity":93,"rain":0.0,"pressure":970.8,"uv_index":5.35,"wind_gusts":43.6,"aqi":149,"pm10":119.2,"pm2_5":51.8,"no2":8.0,"co":235.0,"o3":100.0,"so2":7.6,"mosquito_risk":3,"arthritis_risk":5,"migraine_risk":3,"frizz_risk":1,"updated_at":"2026-06-12T04:55:10.693622+05:30"},{"city":"Rishikesh","state":"Uttarakhand","latitude":30.0869,"longitude":78.2676,"temp":23.8,"humidity":98,"rain":0.0,"pressure":963.4,"uv_index":4.6,"wind_gusts":31.3,"aqi":120,"pm10":124.3,"pm2_5":43.2,"no2":8.0,"co":250.0,"o3":103.0,"so2":5.1,"mosquito_risk":3,"arthritis_risk":5,"migraine_risk":3,"frizz_risk":1,"updated_at":"2026-06-12T04:55:10.693631+05:30"},{"city":"Nainital","state":"Uttarakhand","latitude":29.3919,"longitude":79.4542,"temp":14.5,"humidity":93,"rain":0.3,"pressure":803.3,"uv_index":6.05,"wind_gusts":25.9,"aqi":114,"pm10":49.1,"pm2_5":22.6,"no2":9.3,"co":252.0,"o3":88.0,"so2":1.8,"mosquito_risk":6,"arthritis_risk":10,"migraine_risk":7,"frizz_risk":0,"updated_at":"2026-06-12T04:55:10.693639+05:30"},{"city":"Mussoorie","state":"Uttarakhand","latitude":30.4599,"longitude":78.0664,"temp":14.1,"humidity":96,"rain":0.0,"pressure":799.1,"uv_index":6.05,"wind_gusts":32.8,"aqi":119,"pm10":101.7,"pm2_5":43.9,"no2":13.7,"co":262.0,"o3":94.0,"so2":8.8,"mosquito_risk":3,"arthritis_risk":10,"migraine_risk":7,"frizz_risk":0,"updated_at":"2026-06-12T04:55:10.693646+05:30"},{"city":"Dharamshala","state":"Himachal Pradesh","latitude":32.219,"longitude":76.3234,"temp":20.9,"humidity":51,"rain":0.0,"pressure":864.9,"uv_index":8.4,"wind_gusts":40.0,"aqi":57,"pm10":8.9,"pm2_5":7.5,"no2":7.6,"co":285.0,"o3":87.0,"so2":0.0,"mosquito_risk":0,"arthritis_risk":5,"migraine_risk":7,"frizz_risk":0,"updated_at":"2026-06-12T04:55:10.693654+05:30"},{"city":"Dalhousie","state":"Himachal Pradesh","latitude":32.5387,"longitude":75.971,"temp":13.5,"humidity":81,"rain":0.0,"pressure":800.0,"uv_index":7.95,"wind_gusts":31.0,"aqi":96,"pm10":31.0,"pm2_5":28.8,"no2":27.9,"co":314.0,"o3":35.0,"so2":0.7,"mosquito_risk":3,"arthritis_risk":10,"migraine_risk":7,"frizz_risk":0,"updated_at":"2026-06-12T04:55:10.693661+05:30"},{"city":"Patiala","state":"Punjab","latitude":30.3398,"longitude":76.3869,"temp":24.5,"humidity":83,"rain":0.0,"pressure":972.8,"uv_index":6.9,"wind_gusts":50.8,"aqi":1620,"pm10":2890.8,"pm2_5":364.1,"no2":6.2,"co":296.0,"o3":106.0,"so2":9.3,"mosquito_risk":3,"arthritis_risk":5,"migraine_risk":7,"frizz_risk":1,"updated_at":"2026-06-12T04:55:10.693669+05:30"},{"city":"Bhatinda","state":"Punjab","latitude":30.211,"longitude":74.9455,"temp":29.2,"humidity":61,"rain":0.0,"pressure":976.4,"uv_index":8.3,"wind_gusts":68.4,"aqi":468,"pm10":1937.2,"pm2_5":424.7,"no2":7.2,"co":229.0,"o3":105.0,"so2":12.2,"mosquito_risk":7,"arthritis_risk":5,"migraine_risk":7,"frizz_risk":1,"updated_at":"2026-06-12T04:55:10.693676+05:30"},{"city":"Rohtak","state":"Haryana","latitude":28.8955,"longitude":76.6066,"temp":25.6,"humidity":75,"rain":0.0,"pressure":975.9,"uv_index":7.6,"wind_gusts":60.5,"aqi":1307,"pm10":2026.6,"pm2_5":281.3,"no2":12.7,"co":287.0,"o3":99.0,"so2":15.4,"mosquito_risk":7,"arthritis_risk":5,"migraine_risk":7,"frizz_risk":1,"updated_at":"2026-06-12T04:55:10.693682+05:30"},{"city":"Panipat","state":"Haryana","latitude":29.3909,"longitude":76.9635,"temp":22.7,"humidity":96,"rain":0.1,"pressure":976.5,"uv_index":6.5,"wind_gusts":45.7,"aqi":1805,"pm10":514.1,"pm2_5":452.6,"no2":10.3,"co":310.0,"o3":97.0,"so2":9.6,"mosquito_risk":6,"arthritis_risk":5,"migraine_risk":7,"frizz_risk":1,"updated_at":"2026-06-12T04:55:10.693689+05:30"},{"city":"Mathura","state":"Uttar Pradesh","latitude":27.4924,"longitude":77.6737,"temp":28.7,"humidity":68,"rain":0.0,"pressure":981.9,"uv_index":8.1,"wind_gusts":53.6,"aqi":1233,"pm10":1613.1,"pm2_5":212.8,"no2":7.7,"co":164.0,"o3":115.0,"so2":6.6,"mosquito_risk":7,"arthritis_risk":5,"migraine_risk":7,"frizz_risk":1,"updated_at":"2026-06-12T04:55:10.693696+05:30"},{"city":"Vrindavan","state":"Uttar Pradesh","latitude":27.5823,"longitude":77.7027,"temp":28.5,"humidity":69,"rain":0.0,"pressure":982.5,"uv_index":8.1,"wind_gusts":52.2,"aqi":1233,"pm10":1613.1,"pm2_5":212.8,"no2":7.7,"co":179.0,"o3":115.0,"so2":6.6,"mosquito_risk":7,"arthritis_risk":5,"migraine_risk":7,"frizz_risk":1,"updated_at":"2026-06-12T04:55:10.693703+05:30"},{"city":"Ayodhya","state":"Uttar Pradesh","latitude":26.7922,"longitude":82.1998,"temp":25.7,"humidity":84,"rain":0.0,"pressure":993.4,"uv_index":7.65,"wind_gusts":34.9,"aqi":109,"pm10":48.0,"pm2_5":28.7,"no2":13.8,"co":432.0,"o3":85.0,"so2":11.0,"mosquito_risk":7,"arthritis_risk":5,"migraine_risk":7,"frizz_risk":1,"updated_at":"2026-06-12T04:55:10.693710+05:30"},{"city":"Ratlam","state":"Madhya Pradesh","latitude":23.3315,"longitude":75.0367,"temp":26.5,"humidity":84,"rain":0.0,"pressure":950.3,"uv_index":8.55,"wind_gusts":51.1,"aqi":84,"pm10":36.7,"pm2_5":19.8,"no2":5.0,"co":130.0,"o3":46.0,"so2":8.1,"mosquito_risk":7,"arthritis_risk":5,"migraine_risk":7,"frizz_risk":1,"updated_at":"2026-06-12T04:55:10.693717+05:30"},{"city":"Sagar","state":"Madhya Pradesh","latitude":23.8388,"longitude":78.7378,"temp":30.7,"humidity":55,"rain":0.0,"pressure":945.6,"uv_index":8.75,"wind_gusts":68.8,"aqi":74,"pm10":39.5,"pm2_5":25.6,"no2":7.9,"co":163.0,"o3":59.0,"so2":4.5,"mosquito_risk":0,"arthritis_risk":5,"migraine_risk":7,"frizz_risk":1,"updated_at":"2026-06-12T04:55:10.693724+05:30"},{"city":"Satna","state":"Madhya Pradesh","latitude":24.6005,"longitude":80.8322,"temp":29.3,"humidity":59,"rain":0.0,"pressure":966.1,"uv_index":8.8,"wind_gusts":43.2,"aqi":117,"pm10":48.4,"pm2_5":42.5,"no2":9.8,"co":189.0,"o3":108.0,"so2":18.2,"mosquito_risk":4,"arthritis_risk":5,"migraine_risk":7,"frizz_risk":1,"updated_at":"2026-06-12T04:55:10.693730+05:30"},{"city":"Akola","state":"Maharashtra","latitude":20.7002,"longitude":77.0082,"temp":31.3,"humidity":54,"rain":0.0,"pressure":971.0,"uv_index":8.8,"wind_gusts":46.4,"aqi":71,"pm10":43.2,"pm2_5":23.5,"no2":7.1,"co":124.0,"o3":48.0,"so2":7.9,"mosquito_risk":0,"arthritis_risk":5,"migraine_risk":7,"frizz_risk":1,"updated_at":"2026-06-12T04:55:10.693738+05:30"},{"city":"Amravati","state":"Maharashtra","latitude":20.9374,"longitude":77.7796,"temp":31.1,"humidity":55,"rain":0.0,"pressure":963.1,"uv_index":8.85,"wind_gusts":46.1,"aqi":74,"pm10":45.4,"pm2_5":24.9,"no2":8.1,"co":162.0,"o3":51.0,"so2":8.4,"mosquito_risk":0,"arthritis_risk":5,"migraine_risk":7,"frizz_risk":1,"updated_at":"2026-06-12T04:55:10.693746+05:30"},{"city":"Latur","state":"Maharashtra","latitude":18.4088,"longitude":76.5604,"temp":25.5,"humidity":77,"rain":0.0,"pressure":937.2,"uv_index":8.9,"wind_gusts":33.8,"aqi":66,"pm10":37.1,"pm2_5":20.1,"no2":5.9,"co":139.0,"o3":43.0,"so2":3.7,"mosquito_risk":7,"arthritis_risk":5,"migraine_risk":7,"frizz_risk":1,"updated_at":"2026-06-12T04:55:10.693754+05:30"},{"city":"Nanded","state":"Maharashtra","latitude":19.1383,"longitude":77.3091,"temp":29.9,"humidity":57,"rain":0.0,"pressure":965.3,"uv_index":8.85,"wind_gusts":37.8,"aqi":83,"pm10":43.4,"pm2_5":27.8,"no2":7.5,"co":156.0,"o3":65.0,"so2":8.6,"mosquito_risk":4,"arthritis_risk":5,"migraine_risk":7,"frizz_risk":1,"updated_at":"2026-06-12T04:55:10.693761+05:30"},{"city":"Gulbarga","state":"Karnataka","latitude":17.3297,"longitude":76.8343,"temp":26.1,"humidity":78,"rain":0.0,"pressure":956.3,"uv_index":8.85,"wind_gusts":39.2,"aqi":61,"pm10":29.1,"pm2_5":16.3,"no2":6.2,"co":135.0,"o3":40.0,"so2":3.1,"mosquito_risk":7,"arthritis_risk":5,"migraine_risk":7,"frizz_risk":1,"updated_at":"2026-06-12T04:55:10.693768+05:30"},{"city":"Bidar","state":"Karnataka","latitude":17.9104,"longitude":77.5199,"temp":26.3,"humidity":70,"rain":0.0,"pressure":932.6,"uv_index":8.95,"wind_gusts":37.8,"aqi":69,"pm10":27.6,"pm2_5":19.3,"no2":10.0,"co":146.0,"o3":46.0,"so2":4.0,"mosquito_risk":7,"arthritis_risk":5,"migraine_risk":7,"frizz_risk":1,"updated_at":"2026-06-12T04:55:10.693774+05:30"},{"city":"Hospet","state":"Karnataka","latitude":15.2689,"longitude":76.3909,"temp":23.6,"humidity":93,"rain":0.0,"pressure":954.6,"uv_index":8.95,"wind_gusts":48.2,"aqi":53,"pm10":7.7,"pm2_5":4.8,"no2":3.8,"co":111.0,"o3":45.0,"so2":1.5,"mosquito_risk":3,"arthritis_risk":5,"migraine_risk":7,"frizz_risk":1,"updated_at":"2026-06-12T04:55:10.693781+05:30"},{"city":"Tirupur","state":"Tamil Nadu","latitude":11.1085,"longitude":77.3411,"temp":23.9,"humidity":92,"rain":0.0,"pressure":974.6,"uv_index":6.85,"wind_gusts":54.0,"aqi":53,"pm10":22.2,"pm2_5":16.1,"no2":18.5,"co":120.0,"o3":28.0,"so2":4.1,"mosquito_risk":3,"arthritis_risk":5,"migraine_risk":7,"frizz_risk":1,"updated_at":"2026-06-12T04:55:10.693788+05:30"},{"city":"Alappuzha","state":"Kerala","latitude":9.4981,"longitude":76.3388,"temp":25.0,"humidity":94,"rain":0.2,"pressure":1010.2,"uv_index":4.95,"wind_gusts":36.0,"aqi":36,"pm10":10.7,"pm2_5":5.8,"no2":4.2,"co":88.0,"o3":52.0,"so2":1.4,"mosquito_risk":10,"arthritis_risk":0,"migraine_risk":0,"frizz_risk":1,"updated_at":"2026-06-12T04:55:10.693795+05:30"},{"city":"Munnar","state":"Kerala","latitude":10.0889,"longitude":77.0595,"temp":16.6,"humidity":98,"rain":0.0,"pressure":856.3,"uv_index":6.0,"wind_gusts":42.5,"aqi":23,"pm10":6.9,"pm2_5":4.5,"no2":5.0,"co":93.0,"o3":35.0,"so2":1.5,"mosquito_risk":3,"arthritis_risk":10,"migraine_risk":3,"frizz_risk":1,"updated_at":"2026-06-12T04:55:10.693802+05:30"},{"city":"Silchar","state":"Assam","latitude":24.8333,"longitude":92.7789,"temp":26.3,"humidity":96,"rain":0.2,"pressure":1003.2,"uv_index":5.5,"wind_gusts":33.8,"aqi":111,"pm10":80.8,"pm2_5":66.6,"no2":25.4,"co":445.0,"o3":21.0,"so2":6.3,"mosquito_risk":10,"arthritis_risk":5,"migraine_risk":0,"frizz_risk":1,"updated_at":"2026-06-12T04:55:10.693810+05:30"},{"city":"Dibrugarh","state":"Assam","latitude":27.4728,"longitude":94.912,"temp":24.8,"humidity":88,"rain":0.0,"pressure":994.5,"uv_index":7.35,"wind_gusts":23.4,"aqi":84,"pm10":40.5,"pm2_5":36.8,"no2":19.0,"co":251.0,"o3":28.0,"so2":1.2,"mosquito_risk":3,"arthritis_risk":5,"migraine_risk":7,"frizz_risk":1,"updated_at":"2026-06-12T04:55:10.693817+05:30"}]