[{"city":"Delhi","state":"Delhi","latitude":28.6139,"longitude":77.209,"temp":22.9,"humidity":76,"rain":0.0,"pressure":988.0,"uv_index":6.4,"wind_gusts":26.3,"aqi":156,"pm10":71.2,"pm2_5":52.6,"mosquito_risk":3,"arthritis_risk":5,"migraine_risk":7,"frizz_risk":1,"updated_at":"2026-03-23T21:35:58.559130+05:30"},{"city":"Mumbai","state":"Maharashtra","latitude":19.076,"longitude":72.8777,"temp":29.0,"humidity":71,"rain":0.0,"pressure":1009.6,"uv_index":7.9,"wind_gusts":23.0,"aqi":177,"pm10":49.9,"pm2_5":39.5,"mosquito_risk":7,"arthritis_risk":0,"migraine_risk":4,"frizz_risk":1,"updated_at":"2026-03-23T21:35:58.559172+05:30"},{"city":"Bangalore","state":"Karnataka","latitude":12.9716,"longitude":77.5946,"temp":25.4,"humidity":52,"rain":0.0,"pressure":913.2,"uv_index":9.45,"wind_gusts":25.6,"aqi":96,"pm10":33.8,"pm2_5":29.8,"mosquito_risk":4,"arthritis_risk":5,"migraine_risk":7,"frizz_risk":0,"updated_at":"2026-03-23T21:35:58.559189+05:30"},{"city":"Hyderabad","state":"Telangana","latitude":17.385,"longitude":78.4867,"temp":28.2,"humidity":48,"rain":0.0,"pressure":955.4,"uv_index":8.9,"wind_gusts":24.5,"aqi":102,"pm10":45.5,"pm2_5":37.3,"mosquito_risk":4,"arthritis_risk":5,"migraine_risk":7,"frizz_risk":1,"updated_at":"2026-03-23T21:35:58.559198+05:30"},{"city":"Chennai","state":"Tamil Nadu","latitude":13.0827,"longitude":80.2707,"temp":27.7,"humidity":75,"rain":0.0,"pressure":1010.3,"uv_index":9.2,"wind_gusts":31.7,"aqi":37,"pm10":11.3,"pm2_5":7.3,"mosquito_risk":7,"arthritis_risk":0,"migraine_risk":4,"frizz_risk":1,"updated_at":"2026-03-23T21:35:58.559207+05:30"},{"city":"Kolkata","state":"West Bengal","latitude":22.5726,"longitude":88.3639,"temp":24.0,"humidity":81,"rain":0.0,"pressure":1011.0,"uv_index":8.3,"wind_gusts":20.5,"aqi":155,"pm10":62.9,"pm2_5":57.7,"mosquito_risk":3,"arthritis_risk":0,"migraine_risk":4,"frizz_risk":1,"updated_at":"2026-03-23T21:35:58.559216+05:30"},{"city":"Pune","state":"Maharashtra","latitude":18.5204,"longitude":73.8567,"temp":27.2,"humidity":49,"rain":0.0,"pressure":950.3,"uv_index":8.45,"wind_gusts":45.4,"aqi":119,"pm10":30.7,"pm2_5":26.9,"mosquito_risk":4,"arthritis_risk":5,"migraine_risk":7,"frizz_risk":0,"updated_at":"2026-03-23T21:35:58.559227+05:30"},{"city":"Ahmedabad","state":"Gujarat","latitude":23.0225,"longitude":72.5714,"temp":28.5,"humidity":41,"rain":0.0,"pressure":1004.9,"uv_index":7.85,"wind_gusts":32.4,"aqi":86,"pm10":51.7,"pm2_5":35.3,"mosquito_risk":4,"arthritis_risk":5,"migraine_risk":4,"frizz_risk":0,"updated_at":"2026-03-23T21:35:58.559235+05:30"},{"city":"Jaipur","state":"Rajasthan","latitude":26.9124,"longitude":75.7873,"temp":22.1,"humidity":74,"rain":0.0,"pressure":963.6,"uv_index":7.25,"wind_gusts":40.3,"aqi":114,"pm10":163.9,"pm2_5":52.2,"mosquito_risk":3,"arthritis_risk":5,"migraine_risk":7,"frizz_risk":1,"updated_at":"2026-03-23T21:35:58.559243+05:30"},{"city":"Lucknow","state":"Uttar Pradesh","latitude":26.8467,"longitude":80.9462,"temp":23.5,"humidity":65,"rain":0.0,"pressure":999.1,"uv_index":6.6,"wind_gusts":37.8,"aqi":158,"pm10":81.0,"pm2_5":43.8,"mosquito_risk":3,"arthritis_risk":5,"migraine_risk":7,"frizz_risk":1,"updated_at":"2026-03-23T21:35:58.559250+05:30"},{"city":"Kanpur","state":"Uttar Pradesh","latitude":26.4499,"longitude":80.3319,"temp":22.5,"humidity":70,"rain":0.0,"pressure":997.0,"uv_index":4.7,"wind_gusts":29.2,"aqi":247,"pm10":275.7,"pm2_5":63.8,"mosquito_risk":3,"arthritis_risk":5,"migraine_risk":3,"frizz_risk":1,"updated_at":"2026-03-23T21:35:58.559260+05:30"},{"city":"Chandigarh","state":"Chandigarh","latitude":30.7333,"longitude":76.7794,"temp":19.1,"humidity":77,"rain":0.0,"pressure":973.0,"uv_index":6.45,"wind_gusts":27.4,"aqi":95,"pm10":60.5,"pm2_5":47.1,"mosquito_risk":3,"arthritis_risk":5,"migraine_risk":7,"frizz_risk":0,"updated_at":"2026-03-23T21:35:58.559267+05:30"},{"city":"Srinagar","state":"Jammu and Kashmir","latitude":34.0837,"longitude":74.7973,"temp":8.9,"humidity":91,"rain":0.0,"pressure":842.4,"uv_index":6.3,"wind_gusts":19.8,"aqi":98,"pm10":40.5,"pm2_5":35.9,"mosquito_risk":3,"arthritis_risk":10,"migraine_risk":7,"frizz_risk":0,"updated_at":"2026-03-23T21:35:58.559274+05:30"},{"city":"Jammu","state":"Jammu and Kashmir","latitude":32.7266,"longitude":74.857,"temp":19.7,"humidity":78,"rain":0.0,"pressure":976.5,"uv_index":7.0,"wind_gusts":16.2,"aqi":84,"pm10":58.4,"pm2_5":51.5,"mosquito_risk":3,"arthritis_risk":5,"migraine_risk":7,"frizz_risk":0,"updated_at":"2026-03-23T21:35:58.559281+05:30"},{"city":"Amritsar","state":"Punjab","latitude":31.634,"longitude":74.8723,"temp":20.5,"humidity":70,"rain":0.0,"pressure":984.6,"uv_index":7.05,"wind_gusts":16.9,"aqi":129,"pm10":59.3,"pm2_5":50.1,"mosquito_risk":3,"arthritis_risk":5,"migraine_risk":7,"frizz_risk":0,"updated_at":"2026-03-23T21:35:58.559287+05:30"},{"city":"Ludhiana","state":"Punjab","latitude":30.901,"longitude":75.8573,"temp":21.0,"humidity":73,"rain":0.0,"pressure":983.3,"uv_index":6.65,"wind_gusts":23.4,"aqi":140,"pm10":75.7,"pm2_5":61.5,"mosquito_risk":3,"arthritis_risk":5,"migraine_risk":7,"frizz_risk":0,"updated_at":"2026-03-23T21:35:58.559294+05:30"},{"city":"Jalandhar","state":"Punjab","latitude":31.326,"longitude":75.5762,"temp":20.5,"humidity":73,"rain":0.0,"pressure":984.3,"uv_index":6.85,"wind_gusts":23.0,"aqi":137,"pm10":61.7,"pm2_5":51.6,"mosquito_risk":3,"arthritis_risk":5,"migraine_risk":7,"frizz_risk":0,"updated_at":"2026-03-23T21:35:58.559303+05:30"},{"city":"Dehradun","state":"Uttarakhand","latitude":30.6284,"longitude":78.0322,"temp":10.8,"humidity":84,"rain":0.0,"pressure":830.8,"uv_index":6.85,"wind_gusts":21.6,"aqi":86,"pm10":30.3,"pm2_5":23.9,"mosquito_risk":3,"arthritis_risk":10,"migraine_risk":7,"frizz_risk":0,"updated_at":"2026-03-23T21:35:58.559310+05:30"},{"city":"Shimla","state":"Himachal Pradesh","latitude":31.1048,"longitude":77.1734,"temp":9.0,"humidity":86,"rain":0.0,"pressure":784.1,"uv_index":6.9,"wind_gusts":33.1,"aqi":83,"pm10":44.4,"pm2_5":38.2,"mosquito_risk":3,"arthritis_risk":10,"migraine_risk":7,"frizz_risk":0,"updated_at":"2026-03-23T21:35:58.559318+05:30"},{"city":"Manali","state":"Himachal Pradesh","latitude":32.2396,"longitude":77.1887,"temp":10.7,"humidity":91,"rain":0.0,"pressure":818.6,"uv_index":8.85,"wind_gusts":27.7,"aqi":107,"pm10":16.5,"pm2_5":12.0,"mosquito_risk":3,"arthritis_risk":10,"migraine_risk":7,"frizz_risk":0,"updated_at":"2026-03-23T21:35:58.559325+05:30"},{"city":"Gurgaon","state":"Haryana","latitude":28.4595,"longitude":77.0266,"temp":21.6,"humidity":85,"rain":0.0,"pressure":986.2,"uv_index":6.55,"wind_gusts":18.4,"aqi":220,"pm10":138.8,"pm2_5":65.7,"mosquito_risk":3,"arthritis_risk":5,"migraine_risk":7,"frizz_risk":1,"updated_at":"2026-03-23T21:35:58.559331+05:30"},{"city":"Noida","state":"Uttar Pradesh","latitude":28.5355,"longitude":77.391,"temp":22.5,"humidity":78,"rain":0.0,"pressure":989.5,"uv_index":6.4,"wind_gusts":29.5,"aqi":220,"pm10":138.8,"pm2_5":65.7,"mosquito_risk":3,"arthritis_risk":5,"migraine_risk":7,"frizz_risk":1,"updated_at":"2026-03-23T21:35:58.559337+05:30"},{"city":"Ghaziabad","state":"Uttar Pradesh","latitude":28.6692,"longitude":77.4538,"temp":21.2,"humidity":86,"rain":0.0,"pressure":988.0,"uv_index":6.35,"wind_gusts":34.2,"aqi":154,"pm10":71.7,"pm2_5":58.7,"mosquito_risk":3,"arthritis_risk":5,"migraine_risk":7,"frizz_risk":1,"updated_at":"2026-03-23T21:35:58.559343+05:30"},{"city":"Faridabad","state":"Haryana","latitude":28.4089,"longitude":77.3178,"temp":23.0,"humidity":70,"rain":0.0,"pressure":988.6,"uv_index":6.4,"wind_gusts":24.5,"aqi":220,"pm10":138.8,"pm2_5":65.7,"mosquito_risk":3,"arthritis_risk":5,"migraine_risk":7,"frizz_risk":1,"updated_at":"2026-03-23T21:35:58.559349+05:30"},{"city":"Meerut","state":"Uttar Pradesh","latitude":28.9845,"longitude":77.7064,"temp":18.9,"humidity":90,"rain":0.0,"pressure":987.5,"uv_index":6.25,"wind_gusts":30.2,"aqi":154,"pm10":71.7,"pm2_5":58.7,"mosquito_risk":3,"arthritis_risk":10,"migraine_risk":7,"frizz_risk":1,"updated_at":"2026-03-23T21:35:58.559356+05:30"},{"city":"Agra","state":"Uttar Pradesh","latitude":27.1767,"longitude":78.0081,"temp":21.5,"humidity":78,"rain":0.0,"pressure":992.8,"uv_index":5.15,"wind_gusts":24.8,"aqi":195,"pm10":233.8,"pm2_5":73.8,"mosquito_risk":3,"arthritis_risk":5,"migraine_risk":3,"frizz_risk":1,"updated_at":"2026-03-23T21:35:58.559363+05:30"},{"city":"Varanasi","state":"Uttar Pradesh","latitude":25.3176,"longitude":82.9739,"temp":24.2,"humidity":60,"rain":0.0,"pressure":1002.4,"uv_index":7.65,"wind_gusts":27.4,"aqi":126,"pm10":120.6,"pm2_5":57.2,"mosquito_risk":0,"arthritis_risk":5,"migraine_risk":4,"frizz_risk":0,"updated_at":"2026-03-23T21:35:58.559372+05:30"},{"city":"Prayagraj","state":"Uttar Pradesh","latitude":25.4358,"longitude":81.8463,"temp":24.9,"humidity":61,"rain":0.0,"pressure":1000.7,"uv_index":7.55,"wind_gusts":20.5,"aqi":125,"pm10":77.1,"pm2_5":37.7,"mosquito_risk":3,"arthritis_risk":5,"migraine_risk":4,"frizz_risk":1,"updated_at":"2026-03-23T21:35:58.559378+05:30"},{"city":"Gorakhpur","state":"Uttar Pradesh","latitude":26.7606,"longitude":83.3732,"temp":22.4,"humidity":73,"rain":0.0,"pressure":1002.3,"uv_index":7.4,"wind_gusts":23.0,"aqi":147,"pm10":69.2,"pm2_5":40.4,"mosquito_risk":3,"arthritis_risk":5,"migraine_risk":4,"frizz_risk":1,"updated_at":"2026-03-23T21:35:58.559384+05:30"},{"city":"Bareilly","state":"Uttar Pradesh","latitude":28.367,"longitude":79.4304,"temp":21.4,"humidity":81,"rain":0.0,"pressure":992.3,"uv_index":5.25,"wind_gusts":25.2,"aqi":108,"pm10":48.5,"pm2_5":30.0,"mosquito_risk":3,"arthritis_risk":5,"migraine_risk":3,"frizz_risk":1,"updated_at":"2026-03-23T21:35:58.559391+05:30"},{"city":"Aligarh","state":"Uttar Pradesh","latitude":27.8974,"longitude":78.088,"temp":20.4,"humidity":85,"rain":0.0,"pressure":990.6,"uv_index":4.35,"wind_gusts":20.9,"aqi":163,"pm10":137.8,"pm2_5":57.2,"mosquito_risk":3,"arthritis_risk":5,"migraine_risk":3,"frizz_risk":1,"updated_at":"2026-03-23T21:35:58.559400+05:30"},{"city":"Moradabad","state":"Uttar Pradesh","latitude":28.8386,"longitude":78.7733,"temp":19.8,"humidity":90,"rain":0.0,"pressure":989.3,"uv_index":5.9,"wind_gusts":27.4,"aqi":128,"pm10":64.3,"pm2_5":46.6,"mosquito_risk":3,"arthritis_risk":10,"migraine_risk":3,"frizz_risk":1,"updated_at":"2026-03-23T21:35:58.559406+05:30"},{"city":"Saharanpur","state":"Uttar Pradesh","latitude":29.9637,"longitude":77.546,"temp":20.1,"humidity":85,"rain":0.0,"pressure":980.8,"uv_index":6.2,"wind_gusts":25.2,"aqi":150,"pm10":67.8,"pm2_5":50.6,"mosquito_risk":3,"arthritis_risk":5,"migraine_risk":7,"frizz_risk":1,"updated_at":"2026-03-23T21:35:58.559412+05:30"},{"city":"Jhansi","state":"Uttar Pradesh","latitude":25.4484,"longitude":78.5685,"temp":23.3,"humidity":71,"rain":0.0,"pressure":982.0,"uv_index":7.4,"wind_gusts":33.1,"aqi":83,"pm10":99.0,"pm2_5":41.8,"mosquito_risk":3,"arthritis_risk":5,"migraine_risk":7,"frizz_risk":1,"updated_at":"2026-03-23T21:36:01.891137+05:30"},{"city":"Surat","state":"Gujarat","latitude":21.1702,"longitude":72.8311,"temp":27.6,"humidity":64,"rain":0.0,"pressure":1008.5,"uv_index":7.65,"wind_gusts":25.6,"aqi":115,"pm10":105.2,"pm2_5":81.7,"mosquito_risk":7,"arthritis_risk":0,"migraine_risk":4,"frizz_risk":1,"updated_at":"2026-03-23T21:36:01.891166+05:30"},{"city":"Vadodara","state":"Gujarat","latitude":22.3072,"longitude":73.1812,"temp":28.7,"humidity":59,"rain":0.0,"pressure":1006.5,"uv_index":7.85,"wind_gusts":25.9,"aqi":85,"pm10":79.4,"pm2_5":49.0,"mosquito_risk":4,"arthritis_risk":5,"migraine_risk":4,"frizz_risk":1,"updated_at":"2026-03-23T21:36:01.891176+05:30"},{"city":"Rajkot","state":"Gujarat","latitude":22.3039,"longitude":70.8022,"temp":26.9,"humidity":39,"rain":0.0,"pressure":997.5,"uv_index":7.7,"wind_gusts":35.6,"aqi":65,"pm10":21.7,"pm2_5":19.4,"mosquito_risk":4,"arthritis_risk":5,"migraine_risk":7,"frizz_risk":0,"updated_at":"2026-03-23T21:36:01.891184+05:30"},{"city":"Thane","state":"Maharashtra","latitude":19.2183,"longitude":72.9781,"temp":28.2,"humidity":62,"rain":0.0,"pressure":1009.1,"uv_index":7.9,"wind_gusts":37.8,"aqi":177,"pm10":49.9,"pm2_5":39.5,"mosquito_risk":7,"arthritis_risk":0,"migraine_risk":4,"frizz_risk":1,"updated_at":"2026-03-23T21:36:01.891192+05:30"},{"city":"Nagpur","state":"Maharashtra","latitude":21.1458,"longitude":79.0882,"temp":28.4,"humidity":41,"rain":0.0,"pressure":975.6,"uv_index":8.1,"wind_gusts":20.5,"aqi":134,"pm10":53.1,"pm2_5":44.6,"mosquito_risk":4,"arthritis_risk":5,"migraine_risk":7,"frizz_risk":0,"updated_at":"2026-03-23T21:36:01.891199+05:30"},{"city":"Nashik","state":"Maharashtra","latitude":19.9975,"longitude":73.7898,"temp":25.9,"humidity":54,"rain":0.0,"pressure":947.6,"uv_index":8.15,"wind_gusts":36.4,"aqi":105,"pm10":37.6,"pm2_5":22.2,"mosquito_risk":4,"arthritis_risk":5,"migraine_risk":7,"frizz_risk":0,"updated_at":"2026-03-23T21:36:01.891206+05:30"},{"city":"Aurangabad","state":"Maharashtra","latitude":19.8762,"longitude":75.3433,"temp":26.9,"humidity":44,"rain":0.0,"pressure":945.7,"uv_index":8.65,"wind_gusts":27.0,"aqi":91,"pm10":24.1,"pm2_5":18.9,"mosquito_risk":4,"arthritis_risk":5,"migraine_risk":7,"frizz_risk":0,"updated_at":"2026-03-23T21:36:01.891213+05:30"},{"city":"Solapur","state":"Maharashtra","latitude":17.6599,"longitude":75.9064,"temp":28.5,"humidity":47,"rain":0.0,"pressure":958.3,"uv_index":8.8,"wind_gusts":27.4,"aqi":96,"pm10":48.8,"pm2_5":39.2,"mosquito_risk":4,"arthritis_risk":5,"migraine_risk":7,"frizz_risk":1,"updated_at":"2026-03-23T21:36:01.891220+05:30"},{"city":"Kolhapur","state":"Maharashtra","latitude":16.705,"longitude":74.2433,"temp":23.9,"humidity":72,"rain":0.0,"pressure":949.2,"uv_index":8.85,"wind_gusts":34.9,"aqi":104,"pm10":52.3,"pm2_5":46.4,"mosquito_risk":3,"arthritis_risk":5,"migraine_risk":7,"frizz_risk":1,"updated_at":"2026-03-23T21:36:01.891227+05:30"},{"city":"Goa","state":"Goa","latitude":15.2993,"longitude":74.124,"temp":28.4,"humidity":79,"rain":0.0,"pressure":999.7,"uv_index":8.9,"wind_gusts":33.8,"aqi":101,"pm10":46.4,"pm2_5":32.5,"mosquito_risk":7,"arthritis_risk":5,"migraine_risk":7,"frizz_risk":1,"updated_at":"2026-03-23T21:36:01.891234+05:30"},{"city":"Jodhpur","state":"Rajasthan","latitude":26.2389,"longitude":73.0243,"temp":28.2,"humidity":40,"rain":0.0,"pressure":986.0,"uv_index":7.5,"wind_gusts":27.4,"aqi":73,"pm10":64.3,"pm2_5":22.9,"mosquito_risk":4,"arthritis_risk":5,"migraine_risk":7,"frizz_risk":0,"updated_at":"2026-03-23T21:36:01.891241+05:30"},{"city":"Udaipur","state":"Rajasthan","latitude":24.5854,"longitude":73.7125,"temp":25.2,"humidity":44,"rain":0.0,"pressure":949.6,"uv_index":7.55,"wind_gusts":38.5,"aqi":56,"pm10":35.9,"pm2_5":18.7,"mosquito_risk":4,"arthritis_risk":5,"migraine_risk":7,"frizz_risk":0,"updated_at":"2026-03-23T21:36:01.891248+05:30"},{"city":"Kota","state":"Rajasthan","latitude":25.2138,"longitude":75.8648,"temp":25.0,"humidity":61,"rain":0.0,"pressure":982.4,"uv_index":7.1,"wind_gusts":34.2,"aqi":77,"pm10":80.1,"pm2_5":30.4,"mosquito_risk":7,"arthritis_risk":5,"migraine_risk":7,"frizz_risk":1,"updated_at":"2026-03-23T21:36:01.891255+05:30"},{"city":"Bikaner","state":"Rajasthan","latitude":28.0229,"longitude":73.3119,"temp":28.3,"humidity":42,"rain":0.0,"pressure":984.8,"uv_index":7.25,"wind_gusts":15.8,"aqi":73,"pm10":43.4,"pm2_5":19.4,"mosquito_risk":4,"arthritis_risk":5,"migraine_risk":7,"frizz_risk":0,"updated_at":"2026-03-23T21:36:01.891262+05:30"},{"city":"Ajmer","state":"Rajasthan","latitude":26.4499,"longitude":74.6399,"temp":24.8,"humidity":55,"rain":0.0,"pressure":957.9,"uv_index":7.5,"wind_gusts":31.7,"aqi":64,"pm10":64.5,"pm2_5":28.2,"mosquito_risk":0,"arthritis_risk":5,"migraine_risk":7,"frizz_risk":0,"updated_at":"2026-03-23T21:36:01.891268+05:30"},{"city":"Gwalior","state":"Madhya Pradesh","latitude":26.2183,"longitude":78.1828,"temp":22.6,"humidity":78,"rain":0.0,"pressure":987.6,"uv_index":4.35,"wind_gusts":31.7,"aqi":99,"pm10":90.6,"pm2_5":38.9,"mosquito_risk":3,"arthritis_risk":5,"migraine_risk":3,"frizz_risk":1,"updated_at":"2026-03-23T21:36:01.891275+05:30"},{"city":"Indore","state":"Madhya Pradesh","latitude":22.7196,"longitude":75.8577,"temp":25.3,"humidity":52,"rain":0.0,"pressure":950.4,"uv_index":8.1,"wind_gusts":26.6,"aqi":61,"pm10":36.9,"pm2_5":23.9,"mosquito_risk":4,"arthritis_risk":5,"migraine_risk":7,"frizz_risk":0,"updated_at":"2026-03-23T21:36:01.891281+05:30"},{"city":"Bhopal","state":"Madhya Pradesh","latitude":23.2599,"longitude":77.4126,"temp":25.7,"humidity":49,"rain":0.0,"pressure":956.3,"uv_index":8.0,"wind_gusts":33.8,"aqi":69,"pm10":25.6,"pm2_5":16.4,"mosquito_risk":4,"arthritis_risk":5,"migraine_risk":7,"frizz_risk":0,"updated_at":"2026-03-23T21:36:01.891288+05:30"},{"city":"Jabalpur","state":"Madhya Pradesh","latitude":23.1815,"longitude":79.9864,"temp":25.4,"humidity":58,"rain":0.0,"pressure":964.8,"uv_index":7.8,"wind_gusts":20.9,"aqi":68,"pm10":36.6,"pm2_5":25.1,"mosquito_risk":4,"arthritis_risk":5,"migraine_risk":7,"frizz_risk":1,"updated_at":"2026-03-23T21:36:01.891294+05:30"},{"city":"Ujjain","state":"Madhya Pradesh","latitude":23.1765,"longitude":75.7885,"temp":23.8,"humidity":53,"rain":0.0,"pressure":956.0,"uv_index":8.0,"wind_gusts":25.6,"aqi":80,"pm10":31.7,"pm2_5":19.3,"mosquito_risk":0,"arthritis_risk":5,"migraine_risk":7,"frizz_risk":0,"updated_at":"2026-03-23T21:36:01.891301+05:30"},{"city":"Visakhapatnam","state":"Andhra Pradesh","latitude":17.6868,"longitude":83.2185,"temp":26.0,"humidity":84,"rain":0.0,"pressure":1007.8,"uv_index":8.85,"wind_gusts":33.8,"aqi":93,"pm10":28.3,"pm2_5":21.0,"mosquito_risk":7,"arthritis_risk":5,"migraine_risk":4,"frizz_risk":1,"updated_at":"2026-03-23T21:36:01.891308+05:30"},{"city":"Vijayawada","state":"Andhra Pradesh","latitude":16.5062,"longitude":80.648,"temp":26.8,"humidity":78,"rain":0.0,"pressure":1006.0,"uv_index":8.95,"wind_gusts":23.0,"aqi":70,"pm10":29.5,"pm2_5":25.0,"mosquito_risk":7,"arthritis_risk":5,"migraine_risk":4,"frizz_risk":1,"updated_at":"2026-03-23T21:36:01.891316+05:30"},{"city":"Guntur","state":"Andhra Pradesh","latitude":16.3067,"longitude":80.4365,"temp":26.0,"humidity":83,"rain":0.0,"pressure":1007.2,"uv_index":8.95,"wind_gusts":27.0,"aqi":69,"pm10":25.0,"pm2_5":21.4,"mosquito_risk":7,"arthritis_risk":5,"migraine_risk":4,"frizz_risk":1,"updated_at":"2026-03-23T21:36:01.891322+05:30"},{"city":"Nellore","state":"Andhra Pradesh","latitude":14.4426,"longitude":79.9865,"temp":26.7,"humidity":81,"rain":0.0,"pressure":1009.0,"uv_index":9.1,"wind_gusts":28.4,"aqi":45,"pm10":10.0,"pm2_5":6.3,"mosquito_risk":7,"arthritis_risk":0,"migraine_risk":4,"frizz_risk":1,"updated_at":"2026-03-23T21:36:01.891330+05:30"},{"city":"Kurnool","state":"Andhra Pradesh","latitude":15.8281,"longitude":78.0373,"temp":31.1,"humidity":38,"rain":0.0,"pressure":978.3,"uv_index":8.95,"wind_gusts":25.9,"aqi":74,"pm10":34.6,"pm2_5":26.5,"mosquito_risk":0,"arthritis_risk":5,"migraine_risk":7,"frizz_risk":0,"updated_at":"2026-03-23T21:36:01.891337+05:30"},{"city":"Kakinada","state":"Andhra Pradesh","latitude":16.9891,"longitude":82.2475,"temp":25.6,"humidity":85,"rain":0.0,"pressure":1011.5,"uv_index":8.9,"wind_gusts":30.6,"aqi":59,"pm10":20.3,"pm2_5":12.0,"mosquito_risk":7,"arthritis_risk":0,"migraine_risk":4,"frizz_risk":1,"updated_at":"2026-03-23T21:36:01.891344+05:30"},{"city":"Tirupati","state":"Andhra Pradesh","latitude":13.6288,"longitude":79.4192,"temp":27.1,"humidity":71,"rain":0.0,"pressure":994.7,"uv_index":9.2,"wind_gusts":27.0,"aqi":79,"pm10":18.2,"pm2_5":15.4,"mosquito_risk":7,"arthritis_risk":5,"migraine_risk":7,"frizz_risk":1,"updated_at":"2026-03-23T21:36:01.891350+05:30"},{"city":"Warangal","state":"Telangana","latitude":17.9689,"longitude":79.5941,"temp":28.4,"humidity":54,"rain":0.0,"pressure":980.8,"uv_index":8.8,"wind_gusts":24.1,"aqi":114,"pm10":49.0,"pm2_5":43.1,"mosquito_risk":4,"arthritis_risk":5,"migraine_risk":7,"frizz_risk":1,"updated_at":"2026-03-23T21:36:01.891357+05:30"},{"city":"Nizamabad","state":"Telangana","latitude":18.6725,"longitude":78.0941,"temp":28.4,"humidity":45,"rain":0.0,"pressure":966.5,"uv_index":8.7,"wind_gusts":25.2,"aqi":128,"pm10":65.0,"pm2_5":56.2,"mosquito_risk":4,"arthritis_risk":5,"migraine_risk":7,"frizz_risk":0,"updated_at":"2026-03-23T21:36:01.891364+05:30"},{"city":"Mysore","state":"Karnataka","latitude":12.2958,"longitude":76.6396,"temp":26.2,"humidity":67,"rain":0.0,"pressure":930.0,"uv_index":9.4,"wind_gusts":26.6,"aqi":113,"pm10":40.6,"pm2_5":33.6,"mosquito_risk":7,"arthritis_risk":5,"migraine_risk":7,"frizz_risk":1,"updated_at":"2026-03-23T21:36:01.891370+05:30"},{"city":"Mangalore","state":"Karnataka","latitude":12.9141,"longitude":74.856,"temp":29.7,"humidity":75,"rain":0.0,"pressure":1008.2,"uv_index":9.05,"wind_gusts":26.6,"aqi":74,"pm10":28.2,"pm2_5":21.2,"mosquito_risk":7,"arthritis_risk":0,"migraine_risk":4,"frizz_risk":1,"updated_at":"2026-03-23T21:36:01.891377+05:30"},{"city":"Hubli-Dharwad","state":"Karnataka","latitude":15.3647,"longitude":75.124,"temp":25.5,"humidity":77,"rain":0.0,"pressure":942.2,"uv_index":9.1,"wind_gusts":31.3,"aqi":133,"pm10":22.1,"pm2_5":20.1,"mosquito_risk":7,"arthritis_risk":5,"migraine_risk":7,"frizz_risk":1,"updated_at":"2026-03-23T21:36:01.891384+05:30"},{"city":"Belgaum","state":"Karnataka","latitude":15.8497,"longitude":74.4977,"temp":24.2,"humidity":77,"rain":0.0,"pressure":927.0,"uv_index":9.15,"wind_gusts":41.8,"aqi":131,"pm10":29.7,"pm2_5":25.9,"mosquito_risk":3,"arthritis_risk":5,"migraine_risk":7,"frizz_risk":1,"updated_at":"2026-03-23T21:36:05.218891+05:30"},{"city":"Coimbatore","state":"Tamil Nadu","latitude":11.0168,"longitude":76.9558,"temp":25.0,"humidity":73,"rain":0.0,"pressure":963.4,"uv_index":9.4,"wind_gusts":37.1,"aqi":86,"pm10":31.4,"pm2_5":26.0,"mosquito_risk":7,"arthritis_risk":5,"migraine_risk":7,"frizz_risk":1,"updated_at":"2026-03-23T21:36:05.218953+05:30"},{"city":"Madurai","state":"Tamil Nadu","latitude":9.9252,"longitude":78.1198,"temp":28.2,"humidity":61,"rain":0.0,"pressure":995.2,"uv_index":9.35,"wind_gusts":30.6,"aqi":63,"pm10":18.9,"pm2_5":16.3,"mosquito_risk":7,"arthritis_risk":5,"migraine_risk":7,"frizz_risk":1,"updated_at":"2026-03-23T21:36:05.218966+05:30"},{"city":"Trichy","state":"Tamil Nadu","latitude":10.7905,"longitude":78.7047,"temp":27.4,"humidity":75,"rain":0.0,"pressure":1002.1,"uv_index":9.3,"wind_gusts":23.8,"aqi":59,"pm10":18.3,"pm2_5":15.9,"mosquito_risk":7,"arthritis_risk":5,"migraine_risk":4,"frizz_risk":1,"updated_at":"2026-03-23T21:36:05.218976+05:30"},{"city":"Salem","state":"Tamil Nadu","latitude":11.6643,"longitude":78.146,"temp":28.7,"humidity":56,"rain":0.0,"pressure":978.9,"uv_index":9.35,"wind_gusts":27.4,"aqi":106,"pm10":33.4,"pm2_5":28.2,"mosquito_risk":4,"arthritis_risk":5,"migraine_risk":7,"frizz_risk":1,"updated_at":"2026-03-23T21:36:05.218986+05:30"},{"city":"Tirunelveli","state":"Tamil Nadu","latitude":8.7139,"longitude":77.7567,"temp":28.0,"humidity":65,"rain":0.0,"pressure":1005.2,"uv_index":9.3,"wind_gusts":33.1,"aqi":65,"pm10":18.5,"pm2_5":15.2,"mosquito_risk":7,"arthritis_risk":5,"migraine_risk":4,"frizz_risk":1,"updated_at":"2026-03-23T21:36:05.218994+05:30"},{"city":"Vellore","state":"Tamil Nadu","latitude":12.9165,"longitude":79.1325,"temp":26.9,"humidity":69,"rain":0.0,"pressure":987.4,"uv_index":9.25,"wind_gusts":30.6,"aqi":75,"pm10":23.5,"pm2_5":20.1,"mosquito_risk":7,"arthritis_risk":5,"migraine_risk":7,"frizz_risk":1,"updated_at":"2026-03-23T21:36:05.219003+05:30"},{"city":"Erode","state":"Tamil Nadu","latitude":11.341,"longitude":77.7172,"temp":29.4,"humidity":57,"rain":0.0,"pressure":990.4,"uv_index":9.35,"wind_gusts":18.4,"aqi":82,"pm10":24.9,"pm2_5":20.4,"mosquito_risk":4,"arthritis_risk":5,"migraine_risk":7,"frizz_risk":1,"updated_at":"2026-03-23T21:36:05.219011+05:30"},{"city":"Kochi","state":"Kerala","latitude":9.9312,"longitude":76.2673,"temp":29.4,"humidity":78,"rain":0.0,"pressure":1010.4,"uv_index":9.15,"wind_gusts":33.5,"aqi":111,"pm10":42.6,"pm2_5":35.6,"mosquito_risk":7,"arthritis_risk":0,"migraine_risk":4,"frizz_risk":1,"updated_at":"2026-03-23T21:36:05.219020+05:30"},{"city":"Thiruvananthapuram","state":"Kerala","latitude":8.5241,"longitude":76.9366,"temp":28.8,"humidity":78,"rain":0.0,"pressure":1009.6,"uv_index":9.15,"wind_gusts":24.1,"aqi":109,"pm10":23.6,"pm2_5":15.8,"mosquito_risk":7,"arthritis_risk":0,"migraine_risk":4,"frizz_risk":1,"updated_at":"2026-03-23T21:36:05.219028+05:30"},{"city":"Kozhikode","state":"Kerala","latitude":11.2588,"longitude":75.7804,"temp":30.0,"humidity":76,"rain":0.0,"pressure":1009.0,"uv_index":9.1,"wind_gusts":28.4,"aqi":76,"pm10":27.3,"pm2_5":15.8,"mosquito_risk":7,"arthritis_risk":0,"migraine_risk":4,"frizz_risk":1,"updated_at":"2026-03-23T21:36:05.219037+05:30"},{"city":"Thrissur","state":"Kerala","latitude":10.5276,"longitude":76.2144,"temp":28.7,"humidity":81,"rain":0.0,"pressure":1008.1,"uv_index":9.1,"wind_gusts":38.9,"aqi":96,"pm10":36.6,"pm2_5":27.9,"mosquito_risk":7,"arthritis_risk":0,"migraine_risk":4,"frizz_risk":1,"updated_at":"2026-03-23T21:36:05.219046+05:30"},{"city":"Kannur","state":"Kerala","latitude":11.8745,"longitude":75.3704,"temp":29.7,"humidity":73,"rain":0.0,"pressure":1008.5,"uv_index":9.1,"wind_gusts":27.4,"aqi":68,"pm10":22.7,"pm2_5":15.3,"mosquito_risk":7,"arthritis_risk":0,"migraine_risk":4,"frizz_risk":1,"updated_at":"2026-03-23T21:36:05.219055+05:30"},{"city":"Patna","state":"Bihar","latitude":25.5941,"longitude":85.1376,"temp":26.3,"humidity":54,"rain":0.0,"pressure":1004.9,"uv_index":7.85,"wind_gusts":20.9,"aqi":151,"pm10":132.2,"pm2_5":81.0,"mosquito_risk":4,"arthritis_risk":5,"migraine_risk":4,"frizz_risk":1,"updated_at":"2026-03-23T21:36:05.219064+05:30"},{"city":"Gaya","state":"Bihar","latitude":24.7914,"longitude":85.0002,"temp":24.1,"humidity":61,"rain":0.0,"pressure":998.4,"uv_index":7.95,"wind_gusts":17.6,"aqi":106,"pm10":105.7,"pm2_5":47.5,"mosquito_risk":3,"arthritis_risk":5,"migraine_risk":7,"frizz_risk":1,"updated_at":"2026-03-23T21:36:05.219072+05:30"},{"city":"Muzaffarpur","state":"Bihar","latitude":26.1209,"longitude":85.3647,"temp":22.9,"humidity":72,"rain":0.0,"pressure":1005.3,"uv_index":7.8,"wind_gusts":15.8,"aqi":152,"pm10":143.0,"pm2_5":101.7,"mosquito_risk":3,"arthritis_risk":5,"migraine_risk":4,"frizz_risk":1,"updated_at":"2026-03-23T21:36:05.219080+05:30"},{"city":"Bhagalpur","state":"Bihar","latitude":25.2425,"longitude":87.0117,"temp":23.2,"humidity":73,"rain":0.0,"pressure":1006.2,"uv_index":7.85,"wind_gusts":14.4,"aqi":136,"pm10":57.5,"pm2_5":53.2,"mosquito_risk":3,"arthritis_risk":5,"migraine_risk":4,"frizz_risk":1,"updated_at":"2026-03-23T21:36:05.219088+05:30"},{"city":"Ranchi","state":"Jharkhand","latitude":23.3441,"longitude":85.3096,"temp":22.3,"humidity":51,"rain":0.0,"pressure":941.6,"uv_index":8.55,"wind_gusts":27.7,"aqi":73,"pm10":39.8,"pm2_5":18.9,"mosquito_risk":0,"arthritis_risk":5,"migraine_risk":7,"frizz_risk":0,"updated_at":"2026-03-23T21:36:05.219094+05:30"},{"city":"Jamshedpur","state":"Jharkhand","latitude":22.8046,"longitude":86.2029,"temp":27.0,"humidity":49,"rain":0.0,"pressure":994.9,"uv_index":8.4,"wind_gusts":18.7,"aqi":142,"pm10":71.7,"pm2_5":56.3,"mosquito_risk":4,"arthritis_risk":5,"migraine_risk":7,"frizz_risk":0,"updated_at":"2026-03-23T21:36:05.219102+05:30"},{"city":"Dhanbad","state":"Jharkhand","latitude":23.7957,"longitude":86.4304,"temp":23.9,"humidity":58,"rain":0.0,"pressure":984.2,"uv_index":8.3,"wind_gusts":16.9,"aqi":155,"pm10":102.0,"pm2_5":83.1,"mosquito_risk":0,"arthritis_risk":5,"migraine_risk":7,"frizz_risk":0,"updated_at":"2026-03-23T21:36:05.219108+05:30"},{"city":"Bokaro","state":"Jharkhand","latitude":23.6693,"longitude":86.1511,"temp":24.8,"humidity":56,"rain":0.0,"pressure":988.5,"uv_index":8.3,"wind_gusts":18.7,"aqi":154,"pm10":93.1,"pm2_5":71.0,"mosquito_risk":0,"arthritis_risk":5,"migraine_risk":7,"frizz_risk":0,"updated_at":"2026-03-23T21:36:05.219115+05:30"},{"city":"Bhubaneswar","state":"Odisha","latitude":20.2961,"longitude":85.8245,"temp":25.9,"humidity":87,"rain":0.0,"pressure":1007.1,"uv_index":8.65,"wind_gusts":29.5,"aqi":131,"pm10":24.7,"pm2_5":21.4,"mosquito_risk":7,"arthritis_risk":5,"migraine_risk":4,"frizz_risk":1,"updated_at":"2026-03-23T21:36:05.219122+05:30"},{"city":"Cuttack","state":"Odisha","latitude":20.4625,"longitude":85.8828,"temp":26.5,"humidity":83,"rain":0.0,"pressure":1008.8,"uv_index":8.7,"wind_gusts":25.9,"aqi":131,"pm10":24.7,"pm2_5":21.4,"mosquito_risk":7,"arthritis_risk":0,"migraine_risk":4,"frizz_risk":1,"updated_at":"2026-03-23T21:36:05.219129+05:30"},{"city":"Rourkela","state":"Odisha","latitude":22.2604,"longitude":84.8536,"temp":22.8,"humidity":67,"rain":0.0,"pressure":988.4,"uv_index":8.3,"wind_gusts":19.1,"aqi":98,"pm10":55.3,"pm2_5":37.6,"mosquito_risk":3,"arthritis_risk":5,"migraine_risk":7,"frizz_risk":1,"updated_at":"2026-03-23T21:36:05.219135+05:30"},{"city":"Raipur","state":"Chhattisgarh","latitude":21.2514,"longitude":81.6296,"temp":27.2,"humidity":41,"rain":0.0,"pressure":977.4,"uv_index":8.45,"wind_gusts":18.7,"aqi":126,"pm10":42.8,"pm2_5":32.6,"mosquito_risk":4,"arthritis_risk":5,"migraine_risk":7,"frizz_risk":0,"updated_at":"2026-03-23T21:36:05.219142+05:30"},{"city":"Bhilai","state":"Chhattisgarh","latitude":21.1938,"longitude":81.3509,"temp":27.6,"humidity":42,"rain":0.0,"pressure":977.7,"uv_index":8.45,"wind_gusts":16.6,"aqi":132,"pm10":49.0,"pm2_5":39.2,"mosquito_risk":4,"arthritis_risk":5,"migraine_risk":7,"frizz_risk":0,"updated_at":"2026-03-23T21:36:05.219149+05:30"},{"city":"Guwahati","state":"Assam","latitude":26.1158,"longitude":91.7086,"temp":22.2,"humidity":84,"rain":0.0,"pressure":1007.2,"uv_index":7.6,"wind_gusts":20.9,"aqi":74,"pm10":33.9,"pm2_5":32.5,"mosquito_risk":3,"arthritis_risk":5,"migraine_risk":4,"frizz_risk":1,"updated_at":"2026-03-23T21:36:05.219156+05:30"},{"city":"Agartala","state":"Tripura","latitude":23.8315,"longitude":91.2868,"temp":23.7,"humidity":65,"rain":0.0,"pressure":1011.4,"uv_index":8.05,"wind_gusts":13.3,"aqi":157,"pm10":95.7,"pm2_5":91.7,"mosquito_risk":3,"arthritis_risk":0,"migraine_risk":4,"frizz_risk":1,"updated_at":"2026-03-23T21:36:05.219162+05:30"},{"city":"Shillong","state":"Meghalaya","latitude":25.5788,"longitude":91.8933,"temp":10.2,"humidity":94,"rain":0.0,"pressure":857.6,"uv_index":7.15,"wind_gusts":25.2,"aqi":80,"pm10":25.6,"pm2_5":24.3,"mosquito_risk":3,"arthritis_risk":10,"migraine_risk":7,"frizz_risk":0,"updated_at":"2026-03-23T21:36:05.219169+05:30"},{"city":"Imphal","state":"Manipur","latitude":24.817,"longitude":93.9368,"temp":15.1,"humidity":82,"rain":0.0,"pressure":926.8,"uv_index":8.35,"wind_gusts":36.7,"aqi":76,"pm10":37.4,"pm2_5":35.5,"mosquito_risk":3,"arthritis_risk":10,"migraine_risk":7,"frizz_risk":0,"updated_at":"2026-03-23T21:36:05.219176+05:30"},{"city":"Aizawl","state":"Mizoram","latitude":23.7271,"longitude":92.7176,"temp":15.7,"humidity":70,"rain":0.0,"pressure":895.6,"uv_index":8.3,"wind_gusts":33.5,"aqi":74,"pm10":34.7,"pm2_5":31.1,"mosquito_risk":3,"arthritis_risk":5,"migraine_risk":7,"frizz_risk":0,"updated_at":"2026-03-23T21:36:05.219182+05:30"},{"city":"Kohima","state":"Nagaland","latitude":25.6701,"longitude":94.1077,"temp":12.3,"humidity":95,"rain":0.0,"pressure":856.9,"uv_index":8.0,"wind_gusts":39.2,"aqi":67,"pm10":28.4,"pm2_5":25.7,"mosquito_risk":3,"arthritis_risk":10,"migraine_risk":7,"frizz_risk":0,"updated_at":"2026-03-23T21:36:05.219189+05:30"},{"city":"Gangtok","state":"Sikkim","latitude":27.3314,"longitude":88.6138,"temp":11.5,"humidity":98,"rain":0.2,"pressure":839.0,"uv_index":6.5,"wind_gusts":18.7,"aqi":82,"pm10":26.0,"pm2_5":25.4,"mosquito_risk":6,"arthritis_risk":10,"migraine_risk":7,"frizz_risk":0,"updated_at":"2026-03-23T21:36:05.219196+05:30"},{"city":"Siliguri","state":"West Bengal","latitude":26.7271,"longitude":88.3953,"temp":18.9,"humidity":68,"rain":0.0,"pressure":999.2,"uv_index":7.1,"wind_gusts":20.5,"aqi":102,"pm10":42.8,"pm2_5":41.2,"mosquito_risk":3,"arthritis_risk":5,"migraine_risk":7,"frizz_risk":0,"updated_at":"2026-03-23T21:36:08.548073+05:30"},{"city":"Durgapur","state":"West Bengal","latitude":23.5204,"longitude":87.3119,"temp":25.0,"humidity":59,"rain":0.0,"pressure":999.7,"uv_index":8.25,"wind_gusts":16.2,"aqi":158,"pm10":94.3,"pm2_5":87.1,"mosquito_risk":4,"arthritis_risk":5,"migraine_risk":7,"frizz_risk":1,"updated_at":"2026-03-23T21:36:08.548104+05:30"},{"city":"Asansol","state":"West Bengal","latitude":23.6739,"longitude":86.9524,"temp":25.3,"humidity":56,"rain":0.0,"pressure":998.2,"uv_index":8.25,"wind_gusts":16.6,"aqi":131,"pm10":78.2,"pm2_5":65.7,"mosquito_risk":4,"arthritis_risk":5,"migraine_risk":7,"frizz_risk":0,"updated_at":"2026-03-23T21:36:08.548115+05:30"},{"city":"Pondicherry","state":"Puducherry","latitude":11.9139,"longitude":79.8145,"temp":25.6,"humidity":89,"rain":0.0,"pressure":1011.2,"uv_index":9.15,"wind_gusts":29.2,"aqi":30,"pm10":10.0,"pm2_5":6.2,"mosquito_risk":7,"arthritis_risk":0,"migraine_risk":4,"frizz_risk":1,"updated_at":"2026-03-23T21:36:08.548123+05:30"},{"city":"Port Blair","state":"Andaman and Nicobar Islands","latitude":11.6234,"longitude":92.7265,"temp":28.5,"humidity":76,"rain":0.0,"pressure":1009.4,"uv_index":9.1,"wind_gusts":23.4,"aqi":31,"pm10":4.6,"pm2_5":3.0,"mosquito_risk":7,"arthritis_risk":0,"migraine_risk":4,"frizz_risk":1,"updated_at":"2026-03-23T21:36:08.548132+05:30"},{"city":"Haridwar","state":"Uttarakhand","latitude":29.9457,"longitude":78.1642,"temp":19.4,"humidity":88,"rain":0.0,"pressure":979.6,"uv_index":6.35,"wind_gusts":24.8,"aqi":108,"pm10":67.8,"pm2_5":51.0,"mosquito_risk":3,"arthritis_risk":10,"migraine_risk":7,"frizz_risk":1,"updated_at":"2026-03-23T21:36:08.548140+05:30"},{"city":"Rishikesh","state":"Uttarakhand","latitude":30.0869,"longitude":78.2676,"temp":18.8,"humidity":85,"rain":0.0,"pressure":972.1,"uv_index":6.4,"wind_gusts":21.2,"aqi":106,"pm10":64.3,"pm2_5":41.1,"mosquito_risk":3,"arthritis_risk":10,"migraine_risk":7,"frizz_risk":1,"updated_at":"2026-03-23T21:36:08.548149+05:30"},{"city":"Nainital","state":"Uttarakhand","latitude":29.3919,"longitude":79.4542,"temp":13.9,"humidity":76,"rain":0.0,"pressure":807.3,"uv_index":7.0,"wind_gusts":45.0,"aqi":89,"pm10":53.3,"pm2_5":40.0,"mosquito_risk":3,"arthritis_risk":5,"migraine_risk":7,"frizz_risk":0,"updated_at":"2026-03-23T21:36:08.548156+05:30"},{"city":"Mussoorie","state":"Uttarakhand","latitude":30.4599,"longitude":78.0664,"temp":11.9,"humidity":78,"rain":0.0,"pressure":803.3,"uv_index":6.65,"wind_gusts":24.5,"aqi":101,"pm10":57.7,"pm2_5":47.4,"mosquito_risk":3,"arthritis_risk":5,"migraine_risk":7,"frizz_risk":0,"updated_at":"2026-03-23T21:36:08.548163+05:30"},{"city":"Dharamshala","state":"Himachal Pradesh","latitude":32.219,"longitude":76.3234,"temp":15.8,"humidity":59,"rain":0.0,"pressure":870.7,"uv_index":6.95,"wind_gusts":19.4,"aqi":108,"pm10":26.8,"pm2_5":21.5,"mosquito_risk":0,"arthritis_risk":5,"migraine_risk":7,"frizz_risk":0,"updated_at":"2026-03-23T21:36:08.548171+05:30"},{"city":"Dalhousie","state":"Himachal Pradesh","latitude":32.5387,"longitude":75.971,"temp":12.5,"humidity":69,"rain":0.0,"pressure":804.0,"uv_index":7.15,"wind_gusts":17.3,"aqi":90,"pm10":43.7,"pm2_5":38.1,"mosquito_risk":3,"arthritis_risk":5,"migraine_risk":7,"frizz_risk":0,"updated_at":"2026-03-23T21:36:08.548180+05:30"},{"city":"Patiala","state":"Punjab","latitude":30.3398,"longitude":76.3869,"temp":20.0,"humidity":81,"rain":0.0,"pressure":982.9,"uv_index":6.3,"wind_gusts":23.8,"aqi":137,"pm10":67.8,"pm2_5":52.4,"mosquito_risk":3,"arthritis_risk":5,"migraine_risk":7,"frizz_risk":1,"updated_at":"2026-03-23T21:36:08.548188+05:30"},{"city":"Bhatinda","state":"Punjab","latitude":30.211,"longitude":74.9455,"temp":22.3,"humidity":70,"rain":0.0,"pressure":987.5,"uv_index":7.0,"wind_gusts":18.4,"aqi":134,"pm10":87.1,"pm2_5":60.8,"mosquito_risk":3,"arthritis_risk":5,"migraine_risk":7,"frizz_risk":1,"updated_at":"2026-03-23T21:36:08.548195+05:30"},{"city":"Rohtak","state":"Haryana","latitude":28.8955,"longitude":76.6066,"temp":22.0,"humidity":79,"rain":0.0,"pressure":986.8,"uv_index":6.45,"wind_gusts":20.5,"aqi":151,"pm10":66.8,"pm2_5":43.5,"mosquito_risk":3,"arthritis_risk":5,"migraine_risk":7,"frizz_risk":1,"updated_at":"2026-03-23T21:36:08.548202+05:30"},{"city":"Panipat","state":"Haryana","latitude":29.3909,"longitude":76.9635,"temp":19.7,"humidity":90,"rain":0.0,"pressure":985.6,"uv_index":6.3,"wind_gusts":23.0,"aqi":153,"pm10":80.3,"pm2_5":55.6,"mosquito_risk":3,"arthritis_risk":10,"migraine_risk":7,"frizz_risk":1,"updated_at":"2026-03-23T21:36:08.548209+05:30"},{"city":"Mathura","state":"Uttar Pradesh","latitude":27.4924,"longitude":77.6737,"temp":21.1,"humidity":83,"rain":0.0,"pressure":991.6,"uv_index":5.9,"wind_gusts":20.2,"aqi":182,"pm10":117.3,"pm2_5":64.5,"mosquito_risk":3,"arthritis_risk":5,"migraine_risk":3,"frizz_risk":1,"updated_at":"2026-03-23T21:36:08.548216+05:30"},{"city":"Vrindavan","state":"Uttar Pradesh","latitude":27.5823,"longitude":77.7027,"temp":20.9,"humidity":84,"rain":0.0,"pressure":992.2,"uv_index":6.05,"wind_gusts":19.8,"aqi":182,"pm10":117.3,"pm2_5":64.5,"mosquito_risk":3,"arthritis_risk":5,"migraine_risk":7,"frizz_risk":1,"updated_at":"2026-03-23T21:36:08.548223+05:30"},{"city":"Ayodhya","state":"Uttar Pradesh","latitude":26.7922,"longitude":82.1998,"temp":23.3,"humidity":62,"rain":0.0,"pressure":1000.9,"uv_index":7.1,"wind_gusts":29.2,"aqi":145,"pm10":69.6,"pm2_5":43.9,"mosquito_risk":3,"arthritis_risk":5,"migraine_risk":4,"frizz_risk":0,"updated_at":"2026-03-23T21:36:08.548230+05:30"},{"city":"Ratlam","state":"Madhya Pradesh","latitude":23.3315,"longitude":75.0367,"temp":25.7,"humidity":50,"rain":0.0,"pressure":957.0,"uv_index":7.95,"wind_gusts":29.2,"aqi":75,"pm10":28.5,"pm2_5":15.9,"mosquito_risk":4,"arthritis_risk":5,"migraine_risk":7,"frizz_risk":0,"updated_at":"2026-03-23T21:36:08.548238+05:30"},{"city":"Sagar","state":"Madhya Pradesh","latitude":23.8388,"longitude":78.7378,"temp":25.8,"humidity":53,"rain":0.0,"pressure":953.8,"uv_index":8.0,"wind_gusts":31.0,"aqi":66,"pm10":38.4,"pm2_5":23.7,"mosquito_risk":4,"arthritis_risk":5,"migraine_risk":7,"frizz_risk":0,"updated_at":"2026-03-23T21:36:08.548246+05:30"},{"city":"Satna","state":"Madhya Pradesh","latitude":24.6005,"longitude":80.8322,"temp":25.5,"humidity":48,"rain":0.0,"pressure":975.7,"uv_index":7.95,"wind_gusts":23.4,"aqi":73,"pm10":47.0,"pm2_5":21.9,"mosquito_risk":4,"arthritis_risk":5,"migraine_risk":7,"frizz_risk":0,"updated_at":"2026-03-23T21:36:08.548253+05:30"},{"city":"Akola","state":"Maharashtra","latitude":20.7002,"longitude":77.0082,"temp":27.9,"humidity":49,"rain":0.0,"pressure":976.9,"uv_index":8.35,"wind_gusts":16.6,"aqi":113,"pm10":35.0,"pm2_5":30.2,"mosquito_risk":4,"arthritis_risk":5,"migraine_risk":7,"frizz_risk":1,"updated_at":"2026-03-23T21:36:08.548261+05:30"},{"city":"Amravati","state":"Maharashtra","latitude":20.9374,"longitude":77.7796,"temp":27.2,"humidity":48,"rain":0.0,"pressure":969.2,"uv_index":8.35,"wind_gusts":22.0,"aqi":119,"pm10":36.0,"pm2_5":31.1,"mosquito_risk":4,"arthritis_risk":5,"migraine_risk":7,"frizz_risk":0,"updated_at":"2026-03-23T21:36:08.548269+05:30"},{"city":"Latur","state":"Maharashtra","latitude":18.4088,"longitude":76.5604,"temp":26.5,"humidity":52,"rain":0.0,"pressure":941.3,"uv_index":8.6,"wind_gusts":22.3,"aqi":103,"pm10":32.2,"pm2_5":27.8,"mosquito_risk":4,"arthritis_risk":5,"migraine_risk":7,"frizz_risk":0,"updated_at":"2026-03-23T21:36:08.548276+05:30"},{"city":"Nanded","state":"Maharashtra","latitude":19.1383,"longitude":77.3091,"temp":30.0,"humidity":40,"rain":0.0,"pressure":970.1,"uv_index":8.55,"wind_gusts":18.0,"aqi":113,"pm10":64.0,"pm2_5":55.2,"mosquito_risk":4,"arthritis_risk":5,"migraine_risk":7,"frizz_risk":0,"updated_at":"2026-03-23T21:36:08.548284+05:30"},{"city":"Gulbarga","state":"Karnataka","latitude":17.3297,"longitude":76.8343,"temp":29.5,"humidity":45,"rain":0.0,"pressure":960.3,"uv_index":8.8,"wind_gusts":26.3,"aqi":117,"pm10":42.3,"pm2_5":33.3,"mosquito_risk":4,"arthritis_risk":5,"migraine_risk":7,"frizz_risk":1,"updated_at":"2026-03-23T21:36:08.548291+05:30"},{"city":"Bidar","state":"Karnataka","latitude":17.9104,"longitude":77.5199,"temp":29.0,"humidity":48,"rain":0.0,"pressure":937.5,"uv_index":8.8,"wind_gusts":22.7,"aqi":112,"pm10":60.3,"pm2_5":49.4,"mosquito_risk":4,"arthritis_risk":5,"migraine_risk":7,"frizz_risk":1,"updated_at":"2026-03-23T21:36:08.548299+05:30"},{"city":"Hospet","state":"Karnataka","latitude":15.2689,"longitude":76.3909,"temp":29.7,"humidity":52,"rain":0.0,"pressure":957.0,"uv_index":9.05,"wind_gusts":19.1,"aqi":139,"pm10":45.4,"pm2_5":38.2,"mosquito_risk":4,"arthritis_risk":5,"migraine_risk":7,"frizz_risk":1,"updated_at":"2026-03-23T21:36:08.548306+05:30"},{"city":"Tirupur","state":"Tamil Nadu","latitude":11.1085,"longitude":77.3411,"temp":29.3,"humidity":44,"rain":0.0,"pressure":976.9,"uv_index":9.4,"wind_gusts":31.3,"aqi":87,"pm10":29.7,"pm2_5":23.5,"mosquito_risk":4,"arthritis_risk":5,"migraine_risk":7,"frizz_risk":0,"updated_at":"2026-03-23T21:36:08.548313+05:30"},{"city":"Alappuzha","state":"Kerala","latitude":9.4981,"longitude":76.3388,"temp":29.7,"humidity":73,"rain":0.0,"pressure":1010.3,"uv_index":9.15,"wind_gusts":33.1,"aqi":115,"pm10":44.1,"pm2_5":30.5,"mosquito_risk":7,"arthritis_risk":0,"migraine_risk":4,"frizz_risk":1,"updated_at":"2026-03-23T21:36:08.548320+05:30"},{"city":"Munnar","state":"Kerala","latitude":10.0889,"longitude":77.0595,"temp":22.8,"humidity":73,"rain":0.0,"pressure":858.7,"uv_index":9.65,"wind_gusts":29.5,"aqi":72,"pm10":35.6,"pm2_5":27.6,"mosquito_risk":3,"arthritis_risk":5,"migraine_risk":7,"frizz_risk":1,"updated_at":"2026-03-23T21:36:08.548328+05:30"},{"city":"Silchar","state":"Assam","latitude":24.8333,"longitude":92.7789,"temp":21.5,"humidity":82,"rain":0.0,"pressure":1010.6,"uv_index":8.05,"wind_gusts":18.7,"aqi":120,"pm10":69.6,"pm2_5":66.6,"mosquito_risk":3,"arthritis_risk":0,"migraine_risk":4,"frizz_risk":1,"updated_at":"2026-03-23T21:36:08.548336+05:30"},{"city":"Dibrugarh","state":"Assam","latitude":27.4728,"longitude":94.912,"temp":21.7,"humidity":92,"rain":0.0,"pressure":1001.3,"uv_index":7.75,"wind_gusts":14.8,"aqi":66,"pm10":31.9,"pm2_5":31.5,"mosquito_risk":3,"arthritis_risk":5,"migraine_risk":4,"frizz_risk":1,"updated_at":"2026-03-23T21:36:08.548343+05:30"}]