[{"city":"Delhi","state":"Delhi","latitude":28.6139,"longitude":77.209,"temp":29.6,"humidity":78,"rain":0.0,"pressure":974.9,"uv_index":5.65,"wind_gusts":28.1,"aqi":95,"pm10":15.3,"pm2_5":15.1,"no2":14.6,"co":534.0,"o3":136.0,"so2":20.3,"mosquito_risk":7,"arthritis_risk":5,"migraine_risk":3,"frizz_risk":1,"updated_at":"2026-07-21T17:18:04.781110+05:30"},{"city":"Mumbai","state":"Maharashtra","latitude":19.076,"longitude":72.8777,"temp":25.4,"humidity":92,"rain":0.2,"pressure":1004.2,"uv_index":7.15,"wind_gusts":56.9,"aqi":62,"pm10":32.8,"pm2_5":14.6,"no2":9.2,"co":296.0,"o3":48.0,"so2":5.4,"mosquito_risk":10,"arthritis_risk":5,"migraine_risk":4,"frizz_risk":1,"updated_at":"2026-07-21T17:18:04.781154+05:30"},{"city":"Bangalore","state":"Karnataka","latitude":12.9716,"longitude":77.5946,"temp":26.9,"humidity":64,"rain":0.0,"pressure":910.6,"uv_index":8.4,"wind_gusts":47.9,"aqi":40,"pm10":17.4,"pm2_5":8.9,"no2":7.3,"co":335.0,"o3":67.0,"so2":2.6,"mosquito_risk":7,"arthritis_risk":5,"migraine_risk":7,"frizz_risk":1,"updated_at":"2026-07-21T17:18:04.781170+05:30"},{"city":"Hyderabad","state":"Telangana","latitude":17.385,"longitude":78.4867,"temp":25.5,"humidity":82,"rain":0.0,"pressure":949.9,"uv_index":3.95,"wind_gusts":39.2,"aqi":41,"pm10":20.7,"pm2_5":13.5,"no2":12.4,"co":354.0,"o3":57.0,"so2":4.8,"mosquito_risk":7,"arthritis_risk":5,"migraine_risk":3,"frizz_risk":1,"updated_at":"2026-07-21T17:18:04.781179+05:30"},{"city":"Chennai","state":"Tamil Nadu","latitude":13.0827,"longitude":80.2707,"temp":32.7,"humidity":60,"rain":0.0,"pressure":1003.5,"uv_index":7.75,"wind_gusts":30.2,"aqi":75,"pm10":41.0,"pm2_5":26.9,"no2":5.4,"co":318.0,"o3":142.0,"so2":5.2,"mosquito_risk":0,"arthritis_risk":5,"migraine_risk":4,"frizz_risk":1,"updated_at":"2026-07-21T17:18:04.781188+05:30"},{"city":"Kolkata","state":"West Bengal","latitude":22.5726,"longitude":88.3639,"temp":27.1,"humidity":92,"rain":0.1,"pressure":999.9,"uv_index":5.65,"wind_gusts":28.1,"aqi":60,"pm10":13.5,"pm2_5":13.3,"no2":10.6,"co":488.0,"o3":77.0,"so2":7.1,"mosquito_risk":10,"arthritis_risk":5,"migraine_risk":3,"frizz_risk":1,"updated_at":"2026-07-21T17:18:04.781195+05:30"},{"city":"Pune","state":"Maharashtra","latitude":18.5204,"longitude":73.8567,"temp":24.1,"humidity":87,"rain":0.1,"pressure":943.8,"uv_index":2.7,"wind_gusts":56.9,"aqi":26,"pm10":7.5,"pm2_5":4.4,"no2":6.7,"co":180.0,"o3":41.0,"so2":3.7,"mosquito_risk":6,"arthritis_risk":5,"migraine_risk":3,"frizz_risk":1,"updated_at":"2026-07-21T17:18:04.781202+05:30"},{"city":"Ahmedabad","state":"Gujarat","latitude":23.0225,"longitude":72.5714,"temp":33.0,"humidity":56,"rain":0.0,"pressure":993.4,"uv_index":4.9,"wind_gusts":34.2,"aqi":64,"pm10":55.5,"pm2_5":23.0,"no2":4.8,"co":170.0,"o3":73.0,"so2":4.8,"mosquito_risk":0,"arthritis_risk":5,"migraine_risk":3,"frizz_risk":1,"updated_at":"2026-07-21T17:18:04.781208+05:30"},{"city":"Jaipur","state":"Rajasthan","latitude":26.9124,"longitude":75.7873,"temp":28.3,"humidity":81,"rain":0.1,"pressure":951.8,"uv_index":1.1,"wind_gusts":23.8,"aqi":64,"pm10":27.2,"pm2_5":12.2,"no2":6.9,"co":304.0,"o3":87.0,"so2":3.6,"mosquito_risk":10,"arthritis_risk":5,"migraine_risk":3,"frizz_risk":1,"updated_at":"2026-07-21T17:18:04.781215+05:30"},{"city":"Lucknow","state":"Uttar Pradesh","latitude":26.8467,"longitude":80.9462,"temp":28.4,"humidity":89,"rain":0.1,"pressure":986.1,"uv_index":6.05,"wind_gusts":38.9,"aqi":66,"pm10":22.2,"pm2_5":22.0,"no2":6.5,"co":340.0,"o3":133.0,"so2":10.3,"mosquito_risk":10,"arthritis_risk":5,"migraine_risk":7,"frizz_risk":1,"updated_at":"2026-07-21T17:18:04.781237+05:30"},{"city":"Kanpur","state":"Uttar Pradesh","latitude":26.4499,"longitude":80.3319,"temp":29.3,"humidity":80,"rain":0.1,"pressure":983.9,"uv_index":7.35,"wind_gusts":32.4,"aqi":68,"pm10":14.3,"pm2_5":14.2,"no2":6.7,"co":221.0,"o3":128.0,"so2":8.8,"mosquito_risk":10,"arthritis_risk":5,"migraine_risk":7,"frizz_risk":1,"updated_at":"2026-07-21T17:18:04.781248+05:30"},{"city":"Chandigarh","state":"Chandigarh","latitude":30.7333,"longitude":76.7794,"temp":30.0,"humidity":75,"rain":0.0,"pressure":962.2,"uv_index":6.0,"wind_gusts":33.1,"aqi":69,"pm10":12.9,"pm2_5":12.7,"no2":4.4,"co":432.0,"o3":138.0,"so2":5.5,"mosquito_risk":7,"arthritis_risk":5,"migraine_risk":3,"frizz_risk":1,"updated_at":"2026-07-21T17:18:04.781255+05:30"},{"city":"Srinagar","state":"Jammu and Kashmir","latitude":34.0837,"longitude":74.7973,"temp":20.1,"humidity":94,"rain":0.2,"pressure":838.8,"uv_index":7.0,"wind_gusts":21.2,"aqi":56,"pm10":9.9,"pm2_5":9.5,"no2":10.9,"co":677.0,"o3":88.0,"so2":2.8,"mosquito_risk":6,"arthritis_risk":5,"migraine_risk":7,"frizz_risk":1,"updated_at":"2026-07-21T17:18:04.781261+05:30"},{"city":"Jammu","state":"Jammu and Kashmir","latitude":32.7266,"longitude":74.857,"temp":27.9,"humidity":82,"rain":0.0,"pressure":966.1,"uv_index":5.8,"wind_gusts":32.4,"aqi":98,"pm10":18.5,"pm2_5":12.8,"no2":7.5,"co":304.0,"o3":102.0,"so2":4.1,"mosquito_risk":7,"arthritis_risk":5,"migraine_risk":3,"frizz_risk":1,"updated_at":"2026-07-21T17:18:04.781268+05:30"},{"city":"Amritsar","state":"Punjab","latitude":31.634,"longitude":74.8723,"temp":31.6,"humidity":68,"rain":0.0,"pressure":973.4,"uv_index":8.25,"wind_gusts":42.5,"aqi":111,"pm10":17.1,"pm2_5":14.3,"no2":5.2,"co":400.0,"o3":128.0,"so2":3.8,"mosquito_risk":3,"arthritis_risk":5,"migraine_risk":7,"frizz_risk":1,"updated_at":"2026-07-21T17:18:04.781276+05:30"},{"city":"Ludhiana","state":"Punjab","latitude":30.901,"longitude":75.8573,"temp":31.0,"humidity":73,"rain":0.0,"pressure":971.6,"uv_index":3.2,"wind_gusts":42.1,"aqi":80,"pm10":14.9,"pm2_5":14.7,"no2":3.9,"co":402.0,"o3":138.0,"so2":6.7,"mosquito_risk":3,"arthritis_risk":5,"migraine_risk":3,"frizz_risk":1,"updated_at":"2026-07-21T17:18:04.781282+05:30"},{"city":"Jalandhar","state":"Punjab","latitude":31.326,"longitude":75.5762,"temp":31.2,"humidity":71,"rain":0.0,"pressure":972.7,"uv_index":6.1,"wind_gusts":38.2,"aqi":89,"pm10":11.7,"pm2_5":11.6,"no2":2.6,"co":431.0,"o3":144.0,"so2":6.6,"mosquito_risk":3,"arthritis_risk":5,"migraine_risk":7,"frizz_risk":1,"updated_at":"2026-07-21T17:18:04.781289+05:30"},{"city":"Dehradun","state":"Uttarakhand","latitude":30.6284,"longitude":78.0322,"temp":21.8,"humidity":85,"rain":0.1,"pressure":827.8,"uv_index":3.65,"wind_gusts":25.2,"aqi":57,"pm10":3.0,"pm2_5":2.9,"no2":1.1,"co":238.0,"o3":118.0,"so2":0.7,"mosquito_risk":6,"arthritis_risk":5,"migraine_risk":3,"frizz_risk":1,"updated_at":"2026-07-21T17:18:04.781295+05:30"},{"city":"Shimla","state":"Himachal Pradesh","latitude":31.1048,"longitude":77.1734,"temp":19.5,"humidity":85,"rain":0.1,"pressure":782.8,"uv_index":6.1,"wind_gusts":21.2,"aqi":48,"pm10":3.8,"pm2_5":3.6,"no2":3.9,"co":270.0,"o3":110.0,"so2":1.0,"mosquito_risk":6,"arthritis_risk":10,"migraine_risk":7,"frizz_risk":1,"updated_at":"2026-07-21T17:18:04.781301+05:30"},{"city":"Manali","state":"Himachal Pradesh","latitude":32.2396,"longitude":77.1887,"temp":22.2,"humidity":99,"rain":0.0,"pressure":817.5,"uv_index":5.8,"wind_gusts":24.1,"aqi":49,"pm10":0.8,"pm2_5":0.6,"no2":1.7,"co":205.0,"o3":109.0,"so2":0.8,"mosquito_risk":3,"arthritis_risk":5,"migraine_risk":3,"frizz_risk":1,"updated_at":"2026-07-21T17:18:04.781309+05:30"},{"city":"Gurgaon","state":"Haryana","latitude":28.4595,"longitude":77.0266,"temp":29.5,"humidity":79,"rain":0.1,"pressure":973.2,"uv_index":5.9,"wind_gusts":29.2,"aqi":90,"pm10":13.2,"pm2_5":12.9,"no2":12.1,"co":594.0,"o3":133.0,"so2":14.1,"mosquito_risk":10,"arthritis_risk":5,"migraine_risk":3,"frizz_risk":1,"updated_at":"2026-07-21T17:18:04.781315+05:30"},{"city":"Noida","state":"Uttar Pradesh","latitude":28.5355,"longitude":77.391,"temp":29.9,"humidity":77,"rain":0.0,"pressure":976.4,"uv_index":6.25,"wind_gusts":31.7,"aqi":90,"pm10":13.2,"pm2_5":12.9,"no2":12.1,"co":363.0,"o3":133.0,"so2":14.1,"mosquito_risk":7,"arthritis_risk":5,"migraine_risk":7,"frizz_risk":1,"updated_at":"2026-07-21T17:18:04.781321+05:30"},{"city":"Ghaziabad","state":"Uttar Pradesh","latitude":28.6692,"longitude":77.4538,"temp":30.0,"humidity":76,"rain":0.0,"pressure":974.7,"uv_index":2.9,"wind_gusts":33.5,"aqi":78,"pm10":12.5,"pm2_5":12.4,"no2":5.1,"co":249.0,"o3":129.0,"so2":8.4,"mosquito_risk":7,"arthritis_risk":5,"migraine_risk":3,"frizz_risk":1,"updated_at":"2026-07-21T17:18:04.781328+05:30"},{"city":"Faridabad","state":"Haryana","latitude":28.4089,"longitude":77.3178,"temp":29.4,"humidity":79,"rain":0.0,"pressure":975.6,"uv_index":6.7,"wind_gusts":32.8,"aqi":90,"pm10":13.2,"pm2_5":12.9,"no2":12.1,"co":389.0,"o3":133.0,"so2":14.1,"mosquito_risk":7,"arthritis_risk":5,"migraine_risk":7,"frizz_risk":1,"updated_at":"2026-07-21T17:18:04.781333+05:30"},{"city":"Meerut","state":"Uttar Pradesh","latitude":28.9845,"longitude":77.7064,"temp":29.4,"humidity":80,"rain":0.1,"pressure":973.9,"uv_index":6.45,"wind_gusts":43.6,"aqi":78,"pm10":12.5,"pm2_5":12.4,"no2":5.1,"co":307.0,"o3":129.0,"so2":8.4,"mosquito_risk":10,"arthritis_risk":5,"migraine_risk":7,"frizz_risk":1,"updated_at":"2026-07-21T17:18:04.781340+05:30"},{"city":"Agra","state":"Uttar Pradesh","latitude":27.1767,"longitude":78.0081,"temp":31.1,"humidity":69,"rain":0.0,"pressure":979.3,"uv_index":6.95,"wind_gusts":20.9,"aqi":65,"pm10":20.3,"pm2_5":14.9,"no2":3.2,"co":255.0,"o3":132.0,"so2":4.1,"mosquito_risk":3,"arthritis_risk":5,"migraine_risk":7,"frizz_risk":1,"updated_at":"2026-07-21T17:18:04.781345+05:30"},{"city":"Varanasi","state":"Uttar Pradesh","latitude":25.3176,"longitude":82.9739,"temp":30.2,"humidity":79,"rain":0.1,"pressure":990.0,"uv_index":8.6,"wind_gusts":39.2,"aqi":86,"pm10":25.1,"pm2_5":24.3,"no2":5.2,"co":466.0,"o3":129.0,"so2":13.2,"mosquito_risk":6,"arthritis_risk":5,"migraine_risk":7,"frizz_risk":1,"updated_at":"2026-07-21T17:18:04.781352+05:30"},{"city":"Prayagraj","state":"Uttar Pradesh","latitude":25.4358,"longitude":81.8463,"temp":28.5,"humidity":89,"rain":0.1,"pressure":988.3,"uv_index":7.7,"wind_gusts":32.8,"aqi":96,"pm10":25.6,"pm2_5":24.9,"no2":6.0,"co":272.0,"o3":149.0,"so2":13.9,"mosquito_risk":10,"arthritis_risk":5,"migraine_risk":7,"frizz_risk":1,"updated_at":"2026-07-21T17:18:04.781359+05:30"},{"city":"Gorakhpur","state":"Uttar Pradesh","latitude":26.7606,"longitude":83.3732,"temp":29.8,"humidity":78,"rain":0.1,"pressure":990.8,"uv_index":7.55,"wind_gusts":40.7,"aqi":66,"pm10":23.5,"pm2_5":22.6,"no2":5.5,"co":275.0,"o3":114.0,"so2":4.6,"mosquito_risk":10,"arthritis_risk":5,"migraine_risk":7,"frizz_risk":1,"updated_at":"2026-07-21T17:18:04.781365+05:30"},{"city":"Bareilly","state":"Uttar Pradesh","latitude":28.367,"longitude":79.4304,"temp":27.9,"humidity":88,"rain":0.2,"pressure":980.2,"uv_index":4.5,"wind_gusts":50.8,"aqi":59,"pm10":11.2,"pm2_5":11.1,"no2":6.3,"co":342.0,"o3":112.0,"so2":8.7,"mosquito_risk":10,"arthritis_risk":5,"migraine_risk":3,"frizz_risk":1,"updated_at":"2026-07-21T17:18:04.781373+05:30"},{"city":"Aligarh","state":"Uttar Pradesh","latitude":27.8974,"longitude":78.088,"temp":28.9,"humidity":86,"rain":0.1,"pressure":977.6,"uv_index":7.05,"wind_gusts":27.7,"aqi":79,"pm10":9.9,"pm2_5":9.4,"no2":6.3,"co":188.0,"o3":120.0,"so2":6.2,"mosquito_risk":10,"arthritis_risk":5,"migraine_risk":7,"frizz_risk":1,"updated_at":"2026-07-21T17:18:04.781379+05:30"},{"city":"Moradabad","state":"Uttar Pradesh","latitude":28.8386,"longitude":78.7733,"temp":27.1,"humidity":91,"rain":0.2,"pressure":977.1,"uv_index":6.15,"wind_gusts":51.8,"aqi":62,"pm10":11.5,"pm2_5":11.4,"no2":6.5,"co":325.0,"o3":105.0,"so2":5.9,"mosquito_risk":10,"arthritis_risk":5,"migraine_risk":7,"frizz_risk":1,"updated_at":"2026-07-21T17:18:04.781386+05:30"},{"city":"Saharanpur","state":"Uttar Pradesh","latitude":29.9637,"longitude":77.546,"temp":30.8,"humidity":72,"rain":0.0,"pressure":968.5,"uv_index":6.35,"wind_gusts":46.1,"aqi":87,"pm10":10.9,"pm2_5":10.9,"no2":3.1,"co":339.0,"o3":117.0,"so2":3.0,"mosquito_risk":3,"arthritis_risk":5,"migraine_risk":7,"frizz_risk":1,"updated_at":"2026-07-21T17:18:04.781392+05:30"},{"city":"Jhansi","state":"Uttar Pradesh","latitude":25.4484,"longitude":78.5685,"temp":31.0,"humidity":63,"rain":0.0,"pressure":969.4,"uv_index":5.5,"wind_gusts":15.8,"aqi":67,"pm10":31.4,"pm2_5":18.2,"no2":2.9,"co":165.0,"o3":136.0,"so2":11.1,"mosquito_risk":3,"arthritis_risk":5,"migraine_risk":3,"frizz_risk":1,"updated_at":"2026-07-21T17:18:08.089199+05:30"},{"city":"Surat","state":"Gujarat","latitude":21.1702,"longitude":72.8311,"temp":27.4,"humidity":89,"rain":0.0,"pressure":1000.0,"uv_index":4.35,"wind_gusts":52.2,"aqi":69,"pm10":24.8,"pm2_5":19.1,"no2":26.7,"co":338.0,"o3":23.0,"so2":42.9,"mosquito_risk":7,"arthritis_risk":5,"migraine_risk":0,"frizz_risk":1,"updated_at":"2026-07-21T17:18:08.089232+05:30"},{"city":"Vadodara","state":"Gujarat","latitude":22.3072,"longitude":73.1812,"temp":28.2,"humidity":86,"rain":0.1,"pressure":996.7,"uv_index":4.95,"wind_gusts":34.9,"aqi":61,"pm10":33.2,"pm2_5":17.9,"no2":13.1,"co":178.0,"o3":48.0,"so2":5.1,"mosquito_risk":10,"arthritis_risk":5,"migraine_risk":3,"frizz_risk":1,"updated_at":"2026-07-21T17:18:08.089243+05:30"},{"city":"Rajkot","state":"Gujarat","latitude":22.3039,"longitude":70.8022,"temp":27.8,"humidity":89,"rain":0.2,"pressure":986.1,"uv_index":5.25,"wind_gusts":38.9,"aqi":62,"pm10":24.1,"pm2_5":12.0,"no2":3.4,"co":107.0,"o3":65.0,"so2":3.8,"mosquito_risk":10,"arthritis_risk":5,"migraine_risk":3,"frizz_risk":1,"updated_at":"2026-07-21T17:18:08.089251+05:30"},{"city":"Thane","state":"Maharashtra","latitude":19.2183,"longitude":72.9781,"temp":26.2,"humidity":91,"rain":0.0,"pressure":1003.4,"uv_index":6.25,"wind_gusts":46.8,"aqi":62,"pm10":32.8,"pm2_5":14.6,"no2":9.2,"co":312.0,"o3":48.0,"so2":5.4,"mosquito_risk":7,"arthritis_risk":5,"migraine_risk":4,"frizz_risk":1,"updated_at":"2026-07-21T17:18:08.089259+05:30"},{"city":"Nagpur","state":"Maharashtra","latitude":21.1458,"longitude":79.0882,"temp":25.8,"humidity":92,"rain":0.3,"pressure":967.4,"uv_index":1.0,"wind_gusts":31.3,"aqi":53,"pm10":7.1,"pm2_5":6.6,"no2":11.5,"co":224.0,"o3":46.0,"so2":8.7,"mosquito_risk":10,"arthritis_risk":5,"migraine_risk":3,"frizz_risk":1,"updated_at":"2026-07-21T17:18:08.089267+05:30"},{"city":"Nashik","state":"Maharashtra","latitude":19.9975,"longitude":73.7898,"temp":23.8,"humidity":92,"rain":0.1,"pressure":940.1,"uv_index":1.6,"wind_gusts":57.2,"aqi":24,"pm10":8.7,"pm2_5":5.3,"no2":6.5,"co":151.0,"o3":45.0,"so2":1.7,"mosquito_risk":6,"arthritis_risk":5,"migraine_risk":3,"frizz_risk":1,"updated_at":"2026-07-21T17:18:08.089276+05:30"},{"city":"Aurangabad","state":"Maharashtra","latitude":19.8762,"longitude":75.3433,"temp":24.3,"humidity":91,"rain":0.1,"pressure":939.0,"uv_index":2.85,"wind_gusts":50.8,"aqi":30,"pm10":10.6,"pm2_5":6.9,"no2":5.5,"co":140.0,"o3":63.0,"so2":5.1,"mosquito_risk":6,"arthritis_risk":5,"migraine_risk":3,"frizz_risk":1,"updated_at":"2026-07-21T17:18:08.089283+05:30"},{"city":"Solapur","state":"Maharashtra","latitude":17.6599,"longitude":75.9064,"temp":28.1,"humidity":64,"rain":0.0,"pressure":953.8,"uv_index":4.6,"wind_gusts":53.3,"aqi":31,"pm10":18.7,"pm2_5":8.9,"no2":2.8,"co":134.0,"o3":59.0,"so2":1.4,"mosquito_risk":7,"arthritis_risk":5,"migraine_risk":3,"frizz_risk":1,"updated_at":"2026-07-21T17:18:08.089291+05:30"},{"city":"Kolhapur","state":"Maharashtra","latitude":16.705,"longitude":74.2433,"temp":23.2,"humidity":89,"rain":0.1,"pressure":945.4,"uv_index":6.4,"wind_gusts":54.4,"aqi":30,"pm10":9.5,"pm2_5":6.1,"no2":4.5,"co":135.0,"o3":44.0,"so2":1.6,"mosquito_risk":6,"arthritis_risk":5,"migraine_risk":7,"frizz_risk":1,"updated_at":"2026-07-21T17:18:08.089300+05:30"},{"city":"Goa","state":"Goa","latitude":15.2993,"longitude":74.124,"temp":25.5,"humidity":96,"rain":0.4,"pressure":997.4,"uv_index":7.35,"wind_gusts":33.5,"aqi":58,"pm10":22.4,"pm2_5":11.3,"no2":1.8,"co":109.0,"o3":50.0,"so2":1.0,"mosquito_risk":10,"arthritis_risk":5,"migraine_risk":7,"frizz_risk":1,"updated_at":"2026-07-21T17:18:08.089308+05:30"},{"city":"Jodhpur","state":"Rajasthan","latitude":26.2389,"longitude":73.0243,"temp":36.3,"humidity":41,"rain":0.0,"pressure":973.3,"uv_index":7.15,"wind_gusts":35.6,"aqi":86,"pm10":93.6,"pm2_5":27.8,"no2":1.2,"co":117.0,"o3":93.0,"so2":1.9,"mosquito_risk":0,"arthritis_risk":5,"migraine_risk":10,"frizz_risk":1,"updated_at":"2026-07-21T17:18:08.089315+05:30"},{"city":"Udaipur","state":"Rajasthan","latitude":24.5854,"longitude":73.7125,"temp":26.1,"humidity":87,"rain":0.0,"pressure":938.9,"uv_index":3.3,"wind_gusts":28.4,"aqi":55,"pm10":20.8,"pm2_5":11.4,"no2":2.9,"co":122.0,"o3":73.0,"so2":2.7,"mosquito_risk":7,"arthritis_risk":5,"migraine_risk":3,"frizz_risk":1,"updated_at":"2026-07-21T17:18:08.089323+05:30"},{"city":"Kota","state":"Rajasthan","latitude":25.2138,"longitude":75.8648,"temp":26.6,"humidity":95,"rain":0.5,"pressure":970.6,"uv_index":2.6,"wind_gusts":28.8,"aqi":61,"pm10":9.3,"pm2_5":7.7,"no2":4.8,"co":223.0,"o3":85.0,"so2":4.1,"mosquito_risk":10,"arthritis_risk":5,"migraine_risk":3,"frizz_risk":1,"updated_at":"2026-07-21T17:18:08.089331+05:30"},{"city":"Bikaner","state":"Rajasthan","latitude":28.0229,"longitude":73.3119,"temp":33.1,"humidity":58,"rain":0.3,"pressure":972.8,"uv_index":8.0,"wind_gusts":36.4,"aqi":78,"pm10":94.1,"pm2_5":27.1,"no2":0.9,"co":117.0,"o3":86.0,"so2":2.3,"mosquito_risk":3,"arthritis_risk":5,"migraine_risk":7,"frizz_risk":1,"updated_at":"2026-07-21T17:18:08.089338+05:30"},{"city":"Ajmer","state":"Rajasthan","latitude":26.4499,"longitude":74.6399,"temp":28.3,"humidity":78,"rain":0.0,"pressure":946.7,"uv_index":4.55,"wind_gusts":31.0,"aqi":57,"pm10":34.0,"pm2_5":17.6,"no2":3.4,"co":155.0,"o3":93.0,"so2":2.9,"mosquito_risk":7,"arthritis_risk":5,"migraine_risk":3,"frizz_risk":1,"updated_at":"2026-07-21T17:18:08.089345+05:30"},{"city":"Gwalior","state":"Madhya Pradesh","latitude":26.2183,"longitude":78.1828,"temp":30.7,"humidity":69,"rain":0.0,"pressure":974.5,"uv_index":7.4,"wind_gusts":17.6,"aqi":60,"pm10":27.2,"pm2_5":15.9,"no2":1.6,"co":168.0,"o3":117.0,"so2":3.4,"mosquito_risk":3,"arthritis_risk":5,"migraine_risk":7,"frizz_risk":1,"updated_at":"2026-07-21T17:18:08.089353+05:30"},{"city":"Indore","state":"Madhya Pradesh","latitude":22.7196,"longitude":75.8577,"temp":24.8,"humidity":92,"rain":0.1,"pressure":941.1,"uv_index":5.85,"wind_gusts":32.8,"aqi":52,"pm10":16.6,"pm2_5":12.0,"no2":11.5,"co":265.0,"o3":48.0,"so2":6.0,"mosquito_risk":6,"arthritis_risk":5,"migraine_risk":3,"frizz_risk":1,"updated_at":"2026-07-21T17:18:08.089360+05:30"},{"city":"Bhopal","state":"Madhya Pradesh","latitude":23.2599,"longitude":77.4126,"temp":25.9,"humidity":83,"rain":0.0,"pressure":946.3,"uv_index":1.55,"wind_gusts":31.3,"aqi":57,"pm10":10.4,"pm2_5":10.0,"no2":5.9,"co":261.0,"o3":61.0,"so2":3.5,"mosquito_risk":7,"arthritis_risk":5,"migraine_risk":3,"frizz_risk":1,"updated_at":"2026-07-21T17:18:08.089368+05:30"},{"city":"Jabalpur","state":"Madhya Pradesh","latitude":23.1815,"longitude":79.9864,"temp":25.8,"humidity":91,"rain":0.0,"pressure":954.2,"uv_index":5.8,"wind_gusts":20.9,"aqi":51,"pm10":4.2,"pm2_5":4.1,"no2":6.1,"co":211.0,"o3":68.0,"so2":2.8,"mosquito_risk":7,"arthritis_risk":5,"migraine_risk":3,"frizz_risk":1,"updated_at":"2026-07-21T17:18:08.089375+05:30"},{"city":"Ujjain","state":"Madhya Pradesh","latitude":23.1765,"longitude":75.7885,"temp":25.1,"humidity":89,"rain":0.1,"pressure":946.6,"uv_index":4.2,"wind_gusts":27.0,"aqi":52,"pm10":17.6,"pm2_5":12.9,"no2":5.8,"co":214.0,"o3":57.0,"so2":5.4,"mosquito_risk":10,"arthritis_risk":5,"migraine_risk":3,"frizz_risk":1,"updated_at":"2026-07-21T17:18:08.089382+05:30"},{"city":"Visakhapatnam","state":"Andhra Pradesh","latitude":17.6868,"longitude":83.2185,"temp":29.4,"humidity":72,"rain":0.0,"pressure":998.2,"uv_index":8.75,"wind_gusts":40.7,"aqi":66,"pm10":13.4,"pm2_5":12.3,"no2":22.1,"co":349.0,"o3":44.0,"so2":38.2,"mosquito_risk":7,"arthritis_risk":5,"migraine_risk":7,"frizz_risk":1,"updated_at":"2026-07-21T17:18:08.089389+05:30"},{"city":"Vijayawada","state":"Andhra Pradesh","latitude":16.5062,"longitude":80.648,"temp":30.8,"humidity":63,"rain":0.0,"pressure":998.5,"uv_index":5.0,"wind_gusts":49.3,"aqi":59,"pm10":35.2,"pm2_5":16.9,"no2":4.4,"co":158.0,"o3":70.0,"so2":5.2,"mosquito_risk":3,"arthritis_risk":5,"migraine_risk":3,"frizz_risk":1,"updated_at":"2026-07-21T17:18:08.089396+05:30"},{"city":"Guntur","state":"Andhra Pradesh","latitude":16.3067,"longitude":80.4365,"temp":33.3,"humidity":49,"rain":0.0,"pressure":999.5,"uv_index":4.75,"wind_gusts":51.8,"aqi":56,"pm10":34.0,"pm2_5":16.2,"no2":3.7,"co":139.0,"o3":66.0,"so2":5.4,"mosquito_risk":0,"arthritis_risk":5,"migraine_risk":3,"frizz_risk":1,"updated_at":"2026-07-21T17:18:08.089403+05:30"},{"city":"Nellore","state":"Andhra Pradesh","latitude":14.4426,"longitude":79.9865,"temp":35.0,"humidity":44,"rain":0.0,"pressure":1001.7,"uv_index":6.8,"wind_gusts":40.3,"aqi":54,"pm10":30.0,"pm2_5":15.7,"no2":5.1,"co":130.0,"o3":88.0,"so2":4.9,"mosquito_risk":0,"arthritis_risk":5,"migraine_risk":4,"frizz_risk":1,"updated_at":"2026-07-21T17:18:08.089411+05:30"},{"city":"Kurnool","state":"Andhra Pradesh","latitude":15.8281,"longitude":78.0373,"temp":30.3,"humidity":61,"rain":0.0,"pressure":973.6,"uv_index":4.55,"wind_gusts":52.2,"aqi":43,"pm10":29.1,"pm2_5":12.4,"no2":2.1,"co":132.0,"o3":72.0,"so2":1.5,"mosquito_risk":3,"arthritis_risk":5,"migraine_risk":3,"frizz_risk":1,"updated_at":"2026-07-21T17:18:08.089419+05:30"},{"city":"Kakinada","state":"Andhra Pradesh","latitude":16.9891,"longitude":82.2475,"temp":30.6,"humidity":66,"rain":0.0,"pressure":1002.7,"uv_index":6.85,"wind_gusts":55.1,"aqi":56,"pm10":22.8,"pm2_5":11.8,"no2":3.6,"co":199.0,"o3":80.0,"so2":4.1,"mosquito_risk":3,"arthritis_risk":5,"migraine_risk":4,"frizz_risk":1,"updated_at":"2026-07-21T17:18:08.089427+05:30"},{"city":"Tirupati","state":"Andhra Pradesh","latitude":13.6288,"longitude":79.4192,"temp":33.0,"humidity":53,"rain":0.0,"pressure":987.7,"uv_index":8.0,"wind_gusts":34.2,"aqi":57,"pm10":26.0,"pm2_5":12.3,"no2":7.3,"co":118.0,"o3":65.0,"so2":1.5,"mosquito_risk":0,"arthritis_risk":5,"migraine_risk":7,"frizz_risk":1,"updated_at":"2026-07-21T17:18:08.089433+05:30"},{"city":"Warangal","state":"Telangana","latitude":17.9689,"longitude":79.5941,"temp":27.4,"humidity":80,"rain":0.0,"pressure":975.1,"uv_index":3.5,"wind_gusts":46.8,"aqi":46,"pm10":15.7,"pm2_5":12.1,"no2":8.6,"co":188.0,"o3":48.0,"so2":3.7,"mosquito_risk":7,"arthritis_risk":5,"migraine_risk":3,"frizz_risk":1,"updated_at":"2026-07-21T17:18:08.089440+05:30"},{"city":"Nizamabad","state":"Telangana","latitude":18.6725,"longitude":78.0941,"temp":25.2,"humidity":94,"rain":0.3,"pressure":960.5,"uv_index":2.55,"wind_gusts":39.2,"aqi":43,"pm10":18.7,"pm2_5":11.9,"no2":6.9,"co":159.0,"o3":57.0,"so2":4.9,"mosquito_risk":10,"arthritis_risk":5,"migraine_risk":3,"frizz_risk":1,"updated_at":"2026-07-21T17:18:08.089447+05:30"},{"city":"Mysore","state":"Karnataka","latitude":12.2958,"longitude":76.6396,"temp":27.0,"humidity":64,"rain":0.0,"pressure":927.8,"uv_index":8.0,"wind_gusts":47.2,"aqi":30,"pm10":10.3,"pm2_5":5.8,"no2":3.2,"co":136.0,"o3":65.0,"so2":1.5,"mosquito_risk":7,"arthritis_risk":5,"migraine_risk":7,"frizz_risk":1,"updated_at":"2026-07-21T17:18:08.089454+05:30"},{"city":"Mangalore","state":"Karnataka","latitude":12.9141,"longitude":74.856,"temp":27.0,"humidity":85,"rain":0.0,"pressure":1006.9,"uv_index":7.85,"wind_gusts":32.4,"aqi":53,"pm10":18.8,"pm2_5":10.3,"no2":1.2,"co":100.0,"o3":50.0,"so2":1.4,"mosquito_risk":7,"arthritis_risk":5,"migraine_risk":4,"frizz_risk":1,"updated_at":"2026-07-21T17:18:08.089461+05:30"},{"city":"Hubli-Dharwad","state":"Karnataka","latitude":15.3647,"longitude":75.124,"temp":25.6,"humidity":74,"rain":0.0,"pressure":939.4,"uv_index":5.9,"wind_gusts":58.0,"aqi":24,"pm10":9.2,"pm2_5":5.4,"no2":2.4,"co":114.0,"o3":53.0,"so2":0.9,"mosquito_risk":7,"arthritis_risk":5,"migraine_risk":3,"frizz_risk":1,"updated_at":"2026-07-21T17:18:08.089468+05:30"},{"city":"Belgaum","state":"Karnataka","latitude":15.8497,"longitude":74.4977,"temp":22.4,"humidity":91,"rain":0.0,"pressure":924.0,"uv_index":7.75,"wind_gusts":54.7,"aqi":23,"pm10":8.3,"pm2_5":4.7,"no2":2.7,"co":120.0,"o3":46.0,"so2":1.3,"mosquito_risk":3,"arthritis_risk":5,"migraine_risk":7,"frizz_risk":1,"updated_at":"2026-07-21T17:18:11.374538+05:30"},{"city":"Coimbatore","state":"Tamil Nadu","latitude":11.0168,"longitude":76.9558,"temp":28.9,"humidity":65,"rain":0.0,"pressure":960.2,"uv_index":8.8,"wind_gusts":51.1,"aqi":38,"pm10":9.8,"pm2_5":6.5,"no2":3.3,"co":148.0,"o3":65.0,"so2":2.3,"mosquito_risk":7,"arthritis_risk":5,"migraine_risk":7,"frizz_risk":1,"updated_at":"2026-07-21T17:18:11.374571+05:30"},{"city":"Madurai","state":"Tamil Nadu","latitude":9.9252,"longitude":78.1198,"temp":36.4,"humidity":33,"rain":0.1,"pressure":990.0,"uv_index":8.5,"wind_gusts":29.2,"aqi":57,"pm10":29.6,"pm2_5":12.1,"no2":2.8,"co":160.0,"o3":94.0,"so2":2.2,"mosquito_risk":3,"arthritis_risk":5,"migraine_risk":10,"frizz_risk":1,"updated_at":"2026-07-21T17:18:11.374585+05:30"},{"city":"Trichy","state":"Tamil Nadu","latitude":10.7905,"longitude":78.7047,"temp":36.1,"humidity":36,"rain":0.0,"pressure":996.5,"uv_index":8.8,"wind_gusts":46.1,"aqi":45,"pm10":28.5,"pm2_5":12.7,"no2":2.6,"co":118.0,"o3":85.0,"so2":2.1,"mosquito_risk":0,"arthritis_risk":5,"migraine_risk":10,"frizz_risk":1,"updated_at":"2026-07-21T17:18:11.374596+05:30"},{"city":"Salem","state":"Tamil Nadu","latitude":11.6643,"longitude":78.146,"temp":33.1,"humidity":49,"rain":0.0,"pressure":974.8,"uv_index":8.2,"wind_gusts":23.8,"aqi":58,"pm10":31.9,"pm2_5":14.7,"no2":3.6,"co":135.0,"o3":94.0,"so2":4.8,"mosquito_risk":0,"arthritis_risk":5,"migraine_risk":7,"frizz_risk":1,"updated_at":"2026-07-21T17:18:11.374607+05:30"},{"city":"Tirunelveli","state":"Tamil Nadu","latitude":8.7139,"longitude":77.7567,"temp":35.5,"humidity":40,"rain":0.0,"pressure":1000.6,"uv_index":8.65,"wind_gusts":41.8,"aqi":42,"pm10":16.2,"pm2_5":12.2,"no2":2.5,"co":121.0,"o3":76.0,"so2":1.8,"mosquito_risk":0,"arthritis_risk":5,"migraine_risk":7,"frizz_risk":1,"updated_at":"2026-07-21T17:18:11.374616+05:30"},{"city":"Vellore","state":"Tamil Nadu","latitude":12.9165,"longitude":79.1325,"temp":33.3,"humidity":47,"rain":0.0,"pressure":981.3,"uv_index":7.8,"wind_gusts":39.6,"aqi":63,"pm10":34.7,"pm2_5":16.2,"no2":4.9,"co":142.0,"o3":87.0,"so2":2.4,"mosquito_risk":0,"arthritis_risk":5,"migraine_risk":7,"frizz_risk":1,"updated_at":"2026-07-21T17:18:11.374625+05:30"},{"city":"Erode","state":"Tamil Nadu","latitude":11.341,"longitude":77.7172,"temp":33.3,"humidity":48,"rain":0.1,"pressure":986.5,"uv_index":8.8,"wind_gusts":40.0,"aqi":52,"pm10":20.6,"pm2_5":10.9,"no2":3.5,"co":165.0,"o3":89.0,"so2":2.4,"mosquito_risk":3,"arthritis_risk":5,"migraine_risk":7,"frizz_risk":1,"updated_at":"2026-07-21T17:18:11.374634+05:30"},{"city":"Kochi","state":"Kerala","latitude":9.9312,"longitude":76.2673,"temp":28.0,"humidity":84,"rain":0.0,"pressure":1008.7,"uv_index":8.65,"wind_gusts":30.2,"aqi":57,"pm10":16.6,"pm2_5":10.5,"no2":4.1,"co":125.0,"o3":53.0,"so2":3.0,"mosquito_risk":7,"arthritis_risk":0,"migraine_risk":4,"frizz_risk":1,"updated_at":"2026-07-21T17:18:11.374643+05:30"},{"city":"Thiruvananthapuram","state":"Kerala","latitude":8.5241,"longitude":76.9366,"temp":28.3,"humidity":78,"rain":0.0,"pressure":1007.8,"uv_index":8.0,"wind_gusts":36.7,"aqi":54,"pm10":18.6,"pm2_5":12.1,"no2":5.0,"co":109.0,"o3":62.0,"so2":1.6,"mosquito_risk":7,"arthritis_risk":5,"migraine_risk":4,"frizz_risk":1,"updated_at":"2026-07-21T17:18:11.374652+05:30"},{"city":"Kozhikode","state":"Kerala","latitude":11.2588,"longitude":75.7804,"temp":28.0,"humidity":81,"rain":0.0,"pressure":1007.9,"uv_index":8.4,"wind_gusts":30.2,"aqi":36,"pm10":12.5,"pm2_5":6.4,"no2":0.8,"co":110.0,"o3":51.0,"so2":1.2,"mosquito_risk":7,"arthritis_risk":5,"migraine_risk":4,"frizz_risk":1,"updated_at":"2026-07-21T17:18:11.374660+05:30"},{"city":"Thrissur","state":"Kerala","latitude":10.5276,"longitude":76.2144,"temp":28.2,"humidity":80,"rain":0.0,"pressure":1007.0,"uv_index":8.5,"wind_gusts":32.0,"aqi":54,"pm10":10.4,"pm2_5":7.1,"no2":2.6,"co":98.0,"o3":48.0,"so2":1.8,"mosquito_risk":7,"arthritis_risk":5,"migraine_risk":4,"frizz_risk":1,"updated_at":"2026-07-21T17:18:11.374669+05:30"},{"city":"Kannur","state":"Kerala","latitude":11.8745,"longitude":75.3704,"temp":28.1,"humidity":79,"rain":0.0,"pressure":1007.2,"uv_index":7.9,"wind_gusts":29.2,"aqi":45,"pm10":16.1,"pm2_5":8.0,"no2":1.9,"co":96.0,"o3":46.0,"so2":1.2,"mosquito_risk":7,"arthritis_risk":5,"migraine_risk":4,"frizz_risk":1,"updated_at":"2026-07-21T17:18:11.374677+05:30"},{"city":"Patna","state":"Bihar","latitude":25.5941,"longitude":85.1376,"temp":30.1,"humidity":75,"rain":0.1,"pressure":993.9,"uv_index":8.0,"wind_gusts":44.6,"aqi":75,"pm10":17.1,"pm2_5":16.5,"no2":6.1,"co":293.0,"o3":125.0,"so2":8.2,"mosquito_risk":6,"arthritis_risk":5,"migraine_risk":7,"frizz_risk":1,"updated_at":"2026-07-21T17:18:11.374686+05:30"},{"city":"Gaya","state":"Bihar","latitude":24.7914,"longitude":85.0002,"temp":28.4,"humidity":87,"rain":0.1,"pressure":986.9,"uv_index":6.9,"wind_gusts":37.4,"aqi":69,"pm10":7.0,"pm2_5":6.8,"no2":3.4,"co":311.0,"o3":98.0,"so2":3.8,"mosquito_risk":10,"arthritis_risk":5,"migraine_risk":7,"frizz_risk":1,"updated_at":"2026-07-21T17:18:11.374694+05:30"},{"city":"Muzaffarpur","state":"Bihar","latitude":26.1209,"longitude":85.3647,"temp":30.7,"humidity":71,"rain":0.0,"pressure":994.0,"uv_index":8.25,"wind_gusts":42.8,"aqi":73,"pm10":20.5,"pm2_5":19.8,"no2":7.2,"co":269.0,"o3":120.0,"so2":7.5,"mosquito_risk":3,"arthritis_risk":5,"migraine_risk":7,"frizz_risk":1,"updated_at":"2026-07-21T17:18:11.374702+05:30"},{"city":"Bhagalpur","state":"Bihar","latitude":25.2425,"longitude":87.0117,"temp":29.5,"humidity":77,"rain":0.0,"pressure":995.3,"uv_index":6.15,"wind_gusts":38.5,"aqi":64,"pm10":16.9,"pm2_5":16.6,"no2":9.9,"co":224.0,"o3":82.0,"so2":7.9,"mosquito_risk":7,"arthritis_risk":5,"migraine_risk":7,"frizz_risk":1,"updated_at":"2026-07-21T17:18:11.374711+05:30"},{"city":"Ranchi","state":"Jharkhand","latitude":23.3441,"longitude":85.3096,"temp":25.3,"humidity":84,"rain":0.0,"pressure":931.5,"uv_index":7.6,"wind_gusts":38.9,"aqi":61,"pm10":4.7,"pm2_5":4.6,"no2":7.8,"co":249.0,"o3":86.0,"so2":13.0,"mosquito_risk":7,"arthritis_risk":5,"migraine_risk":7,"frizz_risk":1,"updated_at":"2026-07-21T17:18:11.374719+05:30"},{"city":"Jamshedpur","state":"Jharkhand","latitude":22.8046,"longitude":86.2029,"temp":27.0,"humidity":86,"rain":0.0,"pressure":984.2,"uv_index":6.2,"wind_gusts":30.6,"aqi":62,"pm10":7.2,"pm2_5":7.2,"no2":10.5,"co":339.0,"o3":71.0,"so2":13.4,"mosquito_risk":7,"arthritis_risk":5,"migraine_risk":7,"frizz_risk":1,"updated_at":"2026-07-21T17:18:11.374727+05:30"},{"city":"Dhanbad","state":"Jharkhand","latitude":23.7957,"longitude":86.4304,"temp":27.8,"humidity":81,"rain":0.0,"pressure":973.5,"uv_index":5.95,"wind_gusts":37.1,"aqi":94,"pm10":20.0,"pm2_5":19.7,"no2":32.6,"co":445.0,"o3":43.0,"so2":83.2,"mosquito_risk":7,"arthritis_risk":5,"migraine_risk":3,"frizz_risk":1,"updated_at":"2026-07-21T17:18:11.374735+05:30"},{"city":"Bokaro","state":"Jharkhand","latitude":23.6693,"longitude":86.1511,"temp":28.2,"humidity":79,"rain":0.0,"pressure":977.3,"uv_index":6.45,"wind_gusts":41.4,"aqi":104,"pm10":19.7,"pm2_5":19.5,"no2":36.3,"co":688.0,"o3":45.0,"so2":101.0,"mosquito_risk":7,"arthritis_risk":5,"migraine_risk":7,"frizz_risk":1,"updated_at":"2026-07-21T17:18:11.374744+05:30"},{"city":"Bhubaneswar","state":"Odisha","latitude":20.2961,"longitude":85.8245,"temp":26.7,"humidity":94,"rain":0.4,"pressure":996.5,"uv_index":8.25,"wind_gusts":31.0,"aqi":78,"pm10":16.7,"pm2_5":15.8,"no2":9.9,"co":355.0,"o3":103.0,"so2":7.0,"mosquito_risk":10,"arthritis_risk":5,"migraine_risk":7,"frizz_risk":1,"updated_at":"2026-07-21T17:18:11.374752+05:30"},{"city":"Cuttack","state":"Odisha","latitude":20.4625,"longitude":85.8828,"temp":26.9,"humidity":93,"rain":0.6,"pressure":998.4,"uv_index":8.55,"wind_gusts":28.4,"aqi":78,"pm10":16.7,"pm2_5":15.8,"no2":9.9,"co":297.0,"o3":103.0,"so2":7.0,"mosquito_risk":10,"arthritis_risk":5,"migraine_risk":7,"frizz_risk":1,"updated_at":"2026-07-21T17:18:11.374760+05:30"},{"city":"Rourkela","state":"Odisha","latitude":22.2604,"longitude":84.8536,"temp":26.1,"humidity":92,"rain":0.1,"pressure":978.7,"uv_index":1.1,"wind_gusts":23.4,"aqi":87,"pm10":9.4,"pm2_5":9.2,"no2":10.1,"co":472.0,"o3":106.0,"so2":14.5,"mosquito_risk":10,"arthritis_risk":5,"migraine_risk":3,"frizz_risk":1,"updated_at":"2026-07-21T17:18:11.374768+05:30"},{"city":"Raipur","state":"Chhattisgarh","latitude":21.2514,"longitude":81.6296,"temp":25.2,"humidity":96,"rain":0.3,"pressure":968.5,"uv_index":1.55,"wind_gusts":34.9,"aqi":83,"pm10":17.1,"pm2_5":16.6,"no2":29.5,"co":426.0,"o3":38.0,"so2":48.3,"mosquito_risk":10,"arthritis_risk":5,"migraine_risk":3,"frizz_risk":1,"updated_at":"2026-07-21T17:18:11.374776+05:30"},{"city":"Bhilai","state":"Chhattisgarh","latitude":21.1938,"longitude":81.3509,"temp":25.0,"humidity":96,"rain":0.2,"pressure":969.1,"uv_index":1.75,"wind_gusts":38.5,"aqi":77,"pm10":15.1,"pm2_5":14.3,"no2":23.4,"co":820.0,"o3":39.0,"so2":39.5,"mosquito_risk":10,"arthritis_risk":5,"migraine_risk":3,"frizz_risk":1,"updated_at":"2026-07-21T17:18:11.374784+05:30"},{"city":"Guwahati","state":"Assam","latitude":26.1158,"longitude":91.7086,"temp":26.9,"humidity":97,"rain":0.3,"pressure":997.0,"uv_index":7.25,"wind_gusts":22.0,"aqi":40,"pm10":4.6,"pm2_5":4.5,"no2":3.0,"co":254.0,"o3":70.0,"so2":0.9,"mosquito_risk":10,"arthritis_risk":5,"migraine_risk":7,"frizz_risk":1,"updated_at":"2026-07-21T17:18:11.374792+05:30"},{"city":"Agartala","state":"Tripura","latitude":23.8315,"longitude":91.2868,"temp":27.6,"humidity":88,"rain":0.0,"pressure":1001.6,"uv_index":7.5,"wind_gusts":35.6,"aqi":51,"pm10":8.8,"pm2_5":8.5,"no2":7.7,"co":176.0,"o3":64.0,"so2":1.5,"mosquito_risk":7,"arthritis_risk":5,"migraine_risk":4,"frizz_risk":1,"updated_at":"2026-07-21T17:18:11.374801+05:30"},{"city":"Shillong","state":"Meghalaya","latitude":25.5788,"longitude":91.8933,"temp":22.6,"humidity":76,"rain":0.0,"pressure":855.6,"uv_index":6.95,"wind_gusts":20.9,"aqi":33,"pm10":4.6,"pm2_5":4.4,"no2":4.3,"co":171.0,"o3":64.0,"so2":1.8,"mosquito_risk":3,"arthritis_risk":5,"migraine_risk":7,"frizz_risk":1,"updated_at":"2026-07-21T17:18:11.374809+05:30"},{"city":"Imphal","state":"Manipur","latitude":24.817,"longitude":93.9368,"temp":24.2,"humidity":91,"rain":0.1,"pressure":920.5,"uv_index":8.8,"wind_gusts":25.9,"aqi":58,"pm10":5.9,"pm2_5":5.4,"no2":5.1,"co":232.0,"o3":56.0,"so2":1.1,"mosquito_risk":6,"arthritis_risk":5,"migraine_risk":7,"frizz_risk":1,"updated_at":"2026-07-21T17:18:11.374817+05:30"},{"city":"Aizawl","state":"Mizoram","latitude":23.7271,"longitude":92.7176,"temp":20.9,"humidity":97,"rain":0.0,"pressure":889.4,"uv_index":8.5,"wind_gusts":24.5,"aqi":30,"pm10":3.6,"pm2_5":3.4,"no2":3.7,"co":133.0,"o3":51.0,"so2":0.3,"mosquito_risk":3,"arthritis_risk":5,"migraine_risk":7,"frizz_risk":1,"updated_at":"2026-07-21T17:18:11.374825+05:30"},{"city":"Kohima","state":"Nagaland","latitude":25.6701,"longitude":94.1077,"temp":21.5,"humidity":97,"rain":0.0,"pressure":853.9,"uv_index":8.6,"wind_gusts":22.7,"aqi":34,"pm10":4.7,"pm2_5":4.6,"no2":3.3,"co":148.0,"o3":66.0,"so2":0.6,"mosquito_risk":3,"arthritis_risk":5,"migraine_risk":7,"frizz_risk":1,"updated_at":"2026-07-21T17:18:11.374833+05:30"},{"city":"Gangtok","state":"Sikkim","latitude":27.3314,"longitude":88.6138,"temp":19.5,"humidity":100,"rain":0.1,"pressure":836.4,"uv_index":6.8,"wind_gusts":25.6,"aqi":31,"pm10":2.1,"pm2_5":2.1,"no2":4.7,"co":190.0,"o3":70.0,"so2":0.6,"mosquito_risk":6,"arthritis_risk":10,"migraine_risk":7,"frizz_risk":1,"updated_at":"2026-07-21T17:18:11.374841+05:30"},{"city":"Siliguri","state":"West Bengal","latitude":26.7271,"longitude":88.3953,"temp":30.4,"humidity":71,"rain":0.0,"pressure":988.2,"uv_index":6.9,"wind_gusts":41.0,"aqi":49,"pm10":6.3,"pm2_5":6.1,"no2":6.7,"co":390.0,"o3":84.0,"so2":1.9,"mosquito_risk":3,"arthritis_risk":5,"migraine_risk":7,"frizz_risk":1,"updated_at":"2026-07-21T17:18:14.692676+05:30"},{"city":"Durgapur","state":"West Bengal","latitude":23.5204,"longitude":87.3119,"temp":27.6,"humidity":85,"rain":0.1,"pressure":988.8,"uv_index":6.15,"wind_gusts":35.3,"aqi":80,"pm10":21.1,"pm2_5":20.9,"no2":26.5,"co":290.0,"o3":50.0,"so2":34.3,"mosquito_risk":10,"arthritis_risk":5,"migraine_risk":7,"frizz_risk":1,"updated_at":"2026-07-21T17:18:14.692709+05:30"},{"city":"Asansol","state":"West Bengal","latitude":23.6739,"longitude":86.9524,"temp":27.0,"humidity":92,"rain":0.1,"pressure":987.2,"uv_index":7.2,"wind_gusts":34.6,"aqi":79,"pm10":19.1,"pm2_5":18.9,"no2":29.0,"co":284.0,"o3":48.0,"so2":40.7,"mosquito_risk":10,"arthritis_risk":5,"migraine_risk":7,"frizz_risk":1,"updated_at":"2026-07-21T17:18:14.692721+05:30"},{"city":"Pondicherry","state":"Puducherry","latitude":11.9139,"longitude":79.8145,"temp":30.7,"humidity":68,"rain":0.0,"pressure":1005.0,"uv_index":8.05,"wind_gusts":36.4,"aqi":81,"pm10":37.4,"pm2_5":26.7,"no2":17.2,"co":224.0,"o3":113.0,"so2":11.8,"mosquito_risk":3,"arthritis_risk":5,"migraine_risk":4,"frizz_risk":1,"updated_at":"2026-07-21T17:18:14.692731+05:30"},{"city":"Port Blair","state":"Andaman and Nicobar Islands","latitude":11.6234,"longitude":92.7265,"temp":28.1,"humidity":80,"rain":0.0,"pressure":1006.6,"uv_index":8.55,"wind_gusts":42.5,"aqi":54,"pm10":14.3,"pm2_5":8.3,"no2":0.4,"co":105.0,"o3":48.0,"so2":0.5,"mosquito_risk":7,"arthritis_risk":5,"migraine_risk":4,"frizz_risk":1,"updated_at":"2026-07-21T17:18:14.692740+05:30"},{"city":"Haridwar","state":"Uttarakhand","latitude":29.9457,"longitude":78.1642,"temp":30.9,"humidity":72,"rain":0.0,"pressure":967.2,"uv_index":6.9,"wind_gusts":33.1,"aqi":78,"pm10":8.6,"pm2_5":8.6,"no2":2.1,"co":263.0,"o3":111.0,"so2":3.2,"mosquito_risk":3,"arthritis_risk":5,"migraine_risk":7,"frizz_risk":1,"updated_at":"2026-07-21T17:18:14.692748+05:30"},{"city":"Rishikesh","state":"Uttarakhand","latitude":30.0869,"longitude":78.2676,"temp":29.2,"humidity":81,"rain":0.0,"pressure":960.2,"uv_index":5.2,"wind_gusts":21.2,"aqi":56,"pm10":6.0,"pm2_5":6.0,"no2":1.6,"co":279.0,"o3":107.0,"so2":2.1,"mosquito_risk":7,"arthritis_risk":5,"migraine_risk":3,"frizz_risk":1,"updated_at":"2026-07-21T17:18:14.692756+05:30"},{"city":"Nainital","state":"Uttarakhand","latitude":29.3919,"longitude":79.4542,"temp":21.7,"humidity":68,"rain":0.0,"pressure":804.2,"uv_index":7.4,"wind_gusts":49.3,"aqi":46,"pm10":5.7,"pm2_5":5.6,"no2":1.7,"co":205.0,"o3":100.0,"so2":1.1,"mosquito_risk":3,"arthritis_risk":5,"migraine_risk":7,"frizz_risk":0,"updated_at":"2026-07-21T17:18:14.692764+05:30"},{"city":"Mussoorie","state":"Uttarakhand","latitude":30.4599,"longitude":78.0664,"temp":19.6,"humidity":96,"rain":0.1,"pressure":800.7,"uv_index":3.45,"wind_gusts":31.3,"aqi":68,"pm10":6.9,"pm2_5":6.9,"no2":1.3,"co":277.0,"o3":118.0,"so2":2.0,"mosquito_risk":6,"arthritis_risk":10,"migraine_risk":3,"frizz_risk":1,"updated_at":"2026-07-21T17:18:14.692772+05:30"},{"city":"Dharamshala","state":"Himachal Pradesh","latitude":32.219,"longitude":76.3234,"temp":24.7,"humidity":77,"rain":0.0,"pressure":865.9,"uv_index":1.6,"wind_gusts":36.7,"aqi":46,"pm10":3.0,"pm2_5":2.2,"no2":2.1,"co":270.0,"o3":105.0,"so2":0.8,"mosquito_risk":3,"arthritis_risk":5,"migraine_risk":3,"frizz_risk":1,"updated_at":"2026-07-21T17:18:14.692779+05:30"},{"city":"Dalhousie","state":"Himachal Pradesh","latitude":32.5387,"longitude":75.971,"temp":20.1,"humidity":91,"rain":0.0,"pressure":803.0,"uv_index":1.95,"wind_gusts":31.7,"aqi":74,"pm10":13.2,"pm2_5":8.0,"no2":3.6,"co":283.0,"o3":131.0,"so2":2.5,"mosquito_risk":3,"arthritis_risk":5,"migraine_risk":3,"frizz_risk":1,"updated_at":"2026-07-21T17:18:14.692786+05:30"},{"city":"Patiala","state":"Punjab","latitude":30.3398,"longitude":76.3869,"temp":30.6,"humidity":73,"rain":0.0,"pressure":971.0,"uv_index":5.9,"wind_gusts":29.5,"aqi":76,"pm10":17.5,"pm2_5":17.3,"no2":4.0,"co":348.0,"o3":143.0,"so2":6.7,"mosquito_risk":3,"arthritis_risk":5,"migraine_risk":3,"frizz_risk":1,"updated_at":"2026-07-21T17:18:14.692794+05:30"},{"city":"Bhatinda","state":"Punjab","latitude":30.211,"longitude":74.9455,"temp":33.3,"humidity":57,"rain":0.0,"pressure":975.9,"uv_index":6.25,"wind_gusts":42.1,"aqi":161,"pm10":50.6,"pm2_5":21.8,"no2":3.7,"co":254.0,"o3":167.0,"so2":13.2,"mosquito_risk":0,"arthritis_risk":5,"migraine_risk":7,"frizz_risk":1,"updated_at":"2026-07-21T17:18:14.692801+05:30"},{"city":"Rohtak","state":"Haryana","latitude":28.8955,"longitude":76.6066,"temp":31.0,"humidity":68,"rain":0.0,"pressure":973.5,"uv_index":1.1,"wind_gusts":26.6,"aqi":94,"pm10":14.7,"pm2_5":14.5,"no2":11.1,"co":295.0,"o3":147.0,"so2":17.8,"mosquito_risk":3,"arthritis_risk":5,"migraine_risk":3,"frizz_risk":1,"updated_at":"2026-07-21T17:18:14.692807+05:30"},{"city":"Panipat","state":"Haryana","latitude":29.3909,"longitude":76.9635,"temp":29.3,"humidity":82,"rain":0.0,"pressure":972.8,"uv_index":1.3,"wind_gusts":30.6,"aqi":92,"pm10":12.3,"pm2_5":12.2,"no2":7.6,"co":295.0,"o3":136.0,"so2":13.9,"mosquito_risk":7,"arthritis_risk":5,"migraine_risk":3,"frizz_risk":1,"updated_at":"2026-07-21T17:18:14.692814+05:30"},{"city":"Mathura","state":"Uttar Pradesh","latitude":27.4924,"longitude":77.6737,"temp":31.1,"humidity":69,"rain":0.0,"pressure":978.3,"uv_index":6.55,"wind_gusts":30.2,"aqi":71,"pm10":12.2,"pm2_5":10.4,"no2":6.5,"co":267.0,"o3":110.0,"so2":3.0,"mosquito_risk":3,"arthritis_risk":5,"migraine_risk":7,"frizz_risk":1,"updated_at":"2026-07-21T17:18:14.692822+05:30"},{"city":"Vrindavan","state":"Uttar Pradesh","latitude":27.5823,"longitude":77.7027,"temp":31.2,"humidity":69,"rain":0.0,"pressure":978.7,"uv_index":6.4,"wind_gusts":29.5,"aqi":71,"pm10":12.2,"pm2_5":10.4,"no2":6.5,"co":265.0,"o3":110.0,"so2":3.0,"mosquito_risk":3,"arthritis_risk":5,"migraine_risk":7,"frizz_risk":1,"updated_at":"2026-07-21T17:18:14.692829+05:30"},{"city":"Ayodhya","state":"Uttar Pradesh","latitude":26.7922,"longitude":82.1998,"temp":28.3,"humidity":88,"rain":0.0,"pressure":988.7,"uv_index":7.15,"wind_gusts":42.1,"aqi":82,"pm10":29.2,"pm2_5":28.2,"no2":4.9,"co":354.0,"o3":132.0,"so2":8.2,"mosquito_risk":7,"arthritis_risk":5,"migraine_risk":7,"frizz_risk":1,"updated_at":"2026-07-21T17:18:14.692836+05:30"},{"city":"Ratlam","state":"Madhya Pradesh","latitude":23.3315,"longitude":75.0367,"temp":24.9,"humidity":94,"rain":0.5,"pressure":947.5,"uv_index":0.95,"wind_gusts":27.7,"aqi":51,"pm10":16.9,"pm2_5":10.8,"no2":4.3,"co":131.0,"o3":62.0,"so2":6.0,"mosquito_risk":6,"arthritis_risk":5,"migraine_risk":3,"frizz_risk":1,"updated_at":"2026-07-21T17:18:14.692843+05:30"},{"city":"Sagar","state":"Madhya Pradesh","latitude":23.8388,"longitude":78.7378,"temp":25.8,"humidity":85,"rain":0.1,"pressure":942.4,"uv_index":1.35,"wind_gusts":32.0,"aqi":51,"pm10":7.8,"pm2_5":6.2,"no2":1.6,"co":188.0,"o3":96.0,"so2":1.7,"mosquito_risk":10,"arthritis_risk":5,"migraine_risk":3,"frizz_risk":1,"updated_at":"2026-07-21T17:18:14.692850+05:30"},{"city":"Satna","state":"Madhya Pradesh","latitude":24.6005,"longitude":80.8322,"temp":29.0,"humidity":75,"rain":0.0,"pressure":963.6,"uv_index":5.75,"wind_gusts":20.2,"aqi":56,"pm10":21.5,"pm2_5":11.5,"no2":0.7,"co":168.0,"o3":116.0,"so2":2.4,"mosquito_risk":7,"arthritis_risk":5,"migraine_risk":3,"frizz_risk":1,"updated_at":"2026-07-21T17:18:14.692857+05:30"},{"city":"Akola","state":"Maharashtra","latitude":20.7002,"longitude":77.0082,"temp":26.4,"humidity":93,"rain":0.2,"pressure":969.4,"uv_index":1.5,"wind_gusts":44.3,"aqi":34,"pm10":8.6,"pm2_5":6.7,"no2":9.1,"co":144.0,"o3":45.0,"so2":3.6,"mosquito_risk":10,"arthritis_risk":5,"migraine_risk":3,"frizz_risk":1,"updated_at":"2026-07-21T17:18:14.692865+05:30"},{"city":"Amravati","state":"Maharashtra","latitude":20.9374,"longitude":77.7796,"temp":25.4,"humidity":94,"rain":0.2,"pressure":961.6,"uv_index":1.15,"wind_gusts":47.2,"aqi":35,"pm10":7.6,"pm2_5":5.8,"no2":9.6,"co":130.0,"o3":43.0,"so2":4.1,"mosquito_risk":10,"arthritis_risk":5,"migraine_risk":3,"frizz_risk":1,"updated_at":"2026-07-21T17:18:14.692873+05:30"},{"city":"Latur","state":"Maharashtra","latitude":18.4088,"longitude":76.5604,"temp":25.3,"humidity":82,"rain":0.1,"pressure":935.9,"uv_index":2.4,"wind_gusts":46.8,"aqi":34,"pm10":17.5,"pm2_5":9.6,"no2":3.0,"co":143.0,"o3":61.0,"so2":1.3,"mosquito_risk":10,"arthritis_risk":5,"migraine_risk":3,"frizz_risk":1,"updated_at":"2026-07-21T17:18:14.692880+05:30"},{"city":"Nanded","state":"Maharashtra","latitude":19.1383,"longitude":77.3091,"temp":26.9,"humidity":83,"rain":0.0,"pressure":964.1,"uv_index":1.15,"wind_gusts":35.3,"aqi":41,"pm10":27.5,"pm2_5":14.0,"no2":4.4,"co":169.0,"o3":61.0,"so2":2.7,"mosquito_risk":7,"arthritis_risk":5,"migraine_risk":3,"frizz_risk":1,"updated_at":"2026-07-21T17:18:14.692888+05:30"},{"city":"Gulbarga","state":"Karnataka","latitude":17.3297,"longitude":76.8343,"temp":26.3,"humidity":83,"rain":0.0,"pressure":955.5,"uv_index":3.5,"wind_gusts":55.1,"aqi":38,"pm10":19.6,"pm2_5":10.2,"no2":5.3,"co":129.0,"o3":66.0,"so2":2.2,"mosquito_risk":7,"arthritis_risk":5,"migraine_risk":3,"frizz_risk":1,"updated_at":"2026-07-21T17:18:14.692895+05:30"},{"city":"Bidar","state":"Karnataka","latitude":17.9104,"longitude":77.5199,"temp":24.4,"humidity":91,"rain":0.1,"pressure":931.7,"uv_index":4.3,"wind_gusts":50.8,"aqi":34,"pm10":18.0,"pm2_5":10.8,"no2":7.7,"co":166.0,"o3":57.0,"so2":1.9,"mosquito_risk":6,"arthritis_risk":5,"migraine_risk":3,"frizz_risk":1,"updated_at":"2026-07-21T17:18:14.692902+05:30"},{"city":"Hospet","state":"Karnataka","latitude":15.2689,"longitude":76.3909,"temp":29.2,"humidity":57,"rain":0.0,"pressure":953.7,"uv_index":4.7,"wind_gusts":51.8,"aqi":26,"pm10":11.3,"pm2_5":5.7,"no2":2.7,"co":122.0,"o3":57.0,"so2":1.5,"mosquito_risk":4,"arthritis_risk":5,"migraine_risk":3,"frizz_risk":1,"updated_at":"2026-07-21T17:18:14.692908+05:30"},{"city":"Tirupur","state":"Tamil Nadu","latitude":11.1085,"longitude":77.3411,"temp":30.7,"humidity":58,"rain":0.0,"pressure":973.1,"uv_index":8.75,"wind_gusts":56.2,"aqi":54,"pm10":17.8,"pm2_5":10.3,"no2":3.3,"co":144.0,"o3":86.0,"so2":3.0,"mosquito_risk":0,"arthritis_risk":5,"migraine_risk":7,"frizz_risk":1,"updated_at":"2026-07-21T17:18:14.692915+05:30"},{"city":"Alappuzha","state":"Kerala","latitude":9.4981,"longitude":76.3388,"temp":28.2,"humidity":83,"rain":0.0,"pressure":1008.7,"uv_index":8.55,"wind_gusts":31.7,"aqi":55,"pm10":17.7,"pm2_5":11.4,"no2":5.2,"co":93.0,"o3":54.0,"so2":2.9,"mosquito_risk":7,"arthritis_risk":0,"migraine_risk":4,"frizz_risk":1,"updated_at":"2026-07-21T17:18:14.692922+05:30"},{"city":"Munnar","state":"Kerala","latitude":10.0889,"longitude":77.0595,"temp":19.0,"humidity":90,"rain":0.1,"pressure":857.2,"uv_index":9.0,"wind_gusts":33.8,"aqi":33,"pm10":10.2,"pm2_5":6.8,"no2":3.5,"co":112.0,"o3":65.0,"so2":1.9,"mosquito_risk":6,"arthritis_risk":10,"migraine_risk":7,"frizz_risk":1,"updated_at":"2026-07-21T17:18:14.692929+05:30"},{"city":"Silchar","state":"Assam","latitude":24.8333,"longitude":92.7789,"temp":28.7,"humidity":85,"rain":0.1,"pressure":1000.9,"uv_index":7.9,"wind_gusts":27.0,"aqi":64,"pm10":10.1,"pm2_5":9.3,"no2":2.9,"co":186.0,"o3":83.0,"so2":3.7,"mosquito_risk":10,"arthritis_risk":5,"migraine_risk":4,"frizz_risk":1,"updated_at":"2026-07-21T17:18:14.692936+05:30"},{"city":"Dibrugarh","state":"Assam","latitude":27.4728,"longitude":94.912,"temp":31.8,"humidity":71,"rain":0.0,"pressure":989.3,"uv_index":8.7,"wind_gusts":31.0,"aqi":71,"pm10":10.3,"pm2_5":9.8,"no2":3.5,"co":207.0,"o3":97.0,"so2":1.5,"mosquito_risk":3,"arthritis_risk":5,"migraine_risk":7,"frizz_risk":1,"updated_at":"2026-07-21T17:18:14.692943+05:30"}]