[{"city":"Delhi","state":"Delhi","latitude":28.6139,"longitude":77.209,"temp":35.5,"humidity":38,"rain":0.0,"pressure":977.9,"uv_index":7.8,"wind_gusts":42.5,"aqi":541,"pm10":776.7,"pm2_5":140.2,"no2":21.8,"co":316.0,"o3":93.0,"so2":13.1,"mosquito_risk":0,"arthritis_risk":5,"migraine_risk":10,"frizz_risk":1,"updated_at":"2026-06-20T19:53:51.043842+05:30"},{"city":"Mumbai","state":"Maharashtra","latitude":19.076,"longitude":72.8777,"temp":30.6,"humidity":64,"rain":0.0,"pressure":1007.7,"uv_index":7.75,"wind_gusts":41.0,"aqi":52,"pm10":19.6,"pm2_5":11.1,"no2":7.6,"co":164.0,"o3":45.0,"so2":5.2,"mosquito_risk":3,"arthritis_risk":5,"migraine_risk":4,"frizz_risk":1,"updated_at":"2026-06-20T19:53:51.043882+05:30"},{"city":"Bangalore","state":"Karnataka","latitude":12.9716,"longitude":77.5946,"temp":24.0,"humidity":86,"rain":0.0,"pressure":912.1,"uv_index":8.0,"wind_gusts":30.2,"aqi":63,"pm10":58.3,"pm2_5":49.5,"no2":70.4,"co":1292.0,"o3":11.0,"so2":16.5,"mosquito_risk":3,"arthritis_risk":5,"migraine_risk":7,"frizz_risk":1,"updated_at":"2026-06-20T19:53:51.043898+05:30"},{"city":"Hyderabad","state":"Telangana","latitude":17.385,"longitude":78.4867,"temp":30.0,"humidity":53,"rain":0.1,"pressure":952.8,"uv_index":8.4,"wind_gusts":39.6,"aqi":84,"pm10":34.0,"pm2_5":28.1,"no2":21.4,"co":387.0,"o3":82.0,"so2":8.3,"mosquito_risk":7,"arthritis_risk":5,"migraine_risk":7,"frizz_risk":1,"updated_at":"2026-06-20T19:53:51.043927+05:30"},{"city":"Chennai","state":"Tamil Nadu","latitude":13.0827,"longitude":80.2707,"temp":30.5,"humidity":78,"rain":0.0,"pressure":1006.6,"uv_index":7.85,"wind_gusts":29.2,"aqi":153,"pm10":39.7,"pm2_5":32.8,"no2":17.8,"co":328.0,"o3":133.0,"so2":13.6,"mosquito_risk":3,"arthritis_risk":5,"migraine_risk":4,"frizz_risk":1,"updated_at":"2026-06-20T19:53:51.043937+05:30"},{"city":"Kolkata","state":"West Bengal","latitude":22.5726,"longitude":88.3639,"temp":29.6,"humidity":84,"rain":0.0,"pressure":1002.9,"uv_index":8.45,"wind_gusts":28.8,"aqi":161,"pm10":44.2,"pm2_5":41.8,"no2":10.5,"co":533.0,"o3":115.0,"so2":10.1,"mosquito_risk":7,"arthritis_risk":5,"migraine_risk":4,"frizz_risk":1,"updated_at":"2026-06-20T19:53:51.043945+05:30"},{"city":"Pune","state":"Maharashtra","latitude":18.5204,"longitude":73.8567,"temp":27.7,"humidity":64,"rain":0.0,"pressure":947.9,"uv_index":7.55,"wind_gusts":46.4,"aqi":44,"pm10":14.2,"pm2_5":8.9,"no2":4.8,"co":138.0,"o3":65.0,"so2":4.0,"mosquito_risk":7,"arthritis_risk":5,"migraine_risk":7,"frizz_risk":1,"updated_at":"2026-06-20T19:53:51.043951+05:30"},{"city":"Ahmedabad","state":"Gujarat","latitude":23.0225,"longitude":72.5714,"temp":33.8,"humidity":50,"rain":0.0,"pressure":999.1,"uv_index":8.05,"wind_gusts":36.7,"aqi":73,"pm10":50.6,"pm2_5":22.4,"no2":10.9,"co":177.0,"o3":64.0,"so2":4.5,"mosquito_risk":0,"arthritis_risk":5,"migraine_risk":7,"frizz_risk":1,"updated_at":"2026-06-20T19:53:51.043958+05:30"},{"city":"Jaipur","state":"Rajasthan","latitude":26.9124,"longitude":75.7873,"temp":30.7,"humidity":58,"rain":0.0,"pressure":956.9,"uv_index":8.2,"wind_gusts":40.0,"aqi":138,"pm10":88.9,"pm2_5":40.0,"no2":14.2,"co":250.0,"o3":61.0,"so2":5.1,"mosquito_risk":0,"arthritis_risk":5,"migraine_risk":7,"frizz_risk":1,"updated_at":"2026-06-20T19:53:51.043964+05:30"},{"city":"Lucknow","state":"Uttar Pradesh","latitude":26.8467,"longitude":80.9462,"temp":36.2,"humidity":37,"rain":0.0,"pressure":988.0,"uv_index":8.35,"wind_gusts":41.4,"aqi":186,"pm10":355.8,"pm2_5":86.6,"no2":6.6,"co":210.0,"o3":133.0,"so2":8.9,"mosquito_risk":0,"arthritis_risk":5,"migraine_risk":10,"frizz_risk":1,"updated_at":"2026-06-20T19:53:51.043975+05:30"},{"city":"Kanpur","state":"Uttar Pradesh","latitude":26.4499,"longitude":80.3319,"temp":36.8,"humidity":35,"rain":0.0,"pressure":986.8,"uv_index":8.3,"wind_gusts":41.8,"aqi":262,"pm10":622.1,"pm2_5":110.8,"no2":6.6,"co":207.0,"o3":129.0,"so2":9.0,"mosquito_risk":0,"arthritis_risk":5,"migraine_risk":10,"frizz_risk":1,"updated_at":"2026-06-20T19:53:51.043982+05:30"},{"city":"Chandigarh","state":"Chandigarh","latitude":30.7333,"longitude":76.7794,"temp":31.4,"humidity":48,"rain":0.0,"pressure":963.7,"uv_index":7.8,"wind_gusts":35.3,"aqi":149,"pm10":33.9,"pm2_5":29.3,"no2":15.1,"co":489.0,"o3":125.0,"so2":8.0,"mosquito_risk":0,"arthritis_risk":5,"migraine_risk":7,"frizz_risk":1,"updated_at":"2026-06-20T19:53:51.043989+05:30"},{"city":"Srinagar","state":"Jammu and Kashmir","latitude":34.0837,"longitude":74.7973,"temp":17.6,"humidity":96,"rain":0.0,"pressure":841.8,"uv_index":9.05,"wind_gusts":28.8,"aqi":80,"pm10":19.9,"pm2_5":14.9,"no2":15.8,"co":786.0,"o3":87.0,"so2":2.7,"mosquito_risk":3,"arthritis_risk":10,"migraine_risk":7,"frizz_risk":1,"updated_at":"2026-06-20T19:53:51.043996+05:30"},{"city":"Jammu","state":"Jammu and Kashmir","latitude":32.7266,"longitude":74.857,"temp":33.6,"humidity":31,"rain":0.0,"pressure":967.8,"uv_index":8.6,"wind_gusts":33.5,"aqi":116,"pm10":41.0,"pm2_5":29.5,"no2":24.2,"co":366.0,"o3":112.0,"so2":4.9,"mosquito_risk":0,"arthritis_risk":5,"migraine_risk":7,"frizz_risk":0,"updated_at":"2026-06-20T19:53:51.044003+05:30"},{"city":"Amritsar","state":"Punjab","latitude":31.634,"longitude":74.8723,"temp":31.2,"humidity":53,"rain":0.0,"pressure":975.5,"uv_index":8.45,"wind_gusts":24.1,"aqi":158,"pm10":51.0,"pm2_5":39.9,"no2":21.1,"co":476.0,"o3":114.0,"so2":9.7,"mosquito_risk":0,"arthritis_risk":5,"migraine_risk":7,"frizz_risk":1,"updated_at":"2026-06-20T19:53:51.044009+05:30"},{"city":"Ludhiana","state":"Punjab","latitude":30.901,"longitude":75.8573,"temp":33.7,"humidity":40,"rain":0.0,"pressure":973.7,"uv_index":8.0,"wind_gusts":34.9,"aqi":139,"pm10":103.8,"pm2_5":48.2,"no2":15.6,"co":515.0,"o3":122.0,"so2":5.8,"mosquito_risk":0,"arthritis_risk":5,"migraine_risk":7,"frizz_risk":1,"updated_at":"2026-06-20T19:53:51.044015+05:30"},{"city":"Jalandhar","state":"Punjab","latitude":31.326,"longitude":75.5762,"temp":33.0,"humidity":43,"rain":0.0,"pressure":974.7,"uv_index":8.25,"wind_gusts":32.8,"aqi":151,"pm10":66.4,"pm2_5":42.1,"no2":18.5,"co":764.0,"o3":119.0,"so2":6.2,"mosquito_risk":0,"arthritis_risk":5,"migraine_risk":7,"frizz_risk":1,"updated_at":"2026-06-20T19:53:51.044021+05:30"},{"city":"Dehradun","state":"Uttarakhand","latitude":30.6284,"longitude":78.0322,"temp":19.7,"humidity":77,"rain":0.0,"pressure":828.4,"uv_index":8.25,"wind_gusts":26.6,"aqi":125,"pm10":36.3,"pm2_5":29.9,"no2":15.7,"co":288.0,"o3":120.0,"so2":3.2,"mosquito_risk":3,"arthritis_risk":5,"migraine_risk":7,"frizz_risk":0,"updated_at":"2026-06-20T19:53:51.044027+05:30"},{"city":"Shimla","state":"Himachal Pradesh","latitude":31.1048,"longitude":77.1734,"temp":16.5,"humidity":72,"rain":0.0,"pressure":782.9,"uv_index":8.25,"wind_gusts":32.0,"aqi":111,"pm10":30.4,"pm2_5":20.8,"no2":9.2,"co":295.0,"o3":121.0,"so2":4.1,"mosquito_risk":3,"arthritis_risk":5,"migraine_risk":7,"frizz_risk":0,"updated_at":"2026-06-20T19:53:51.044036+05:30"},{"city":"Manali","state":"Himachal Pradesh","latitude":32.2396,"longitude":77.1887,"temp":19.6,"humidity":60,"rain":0.0,"pressure":818.0,"uv_index":9.5,"wind_gusts":40.0,"aqi":145,"pm10":6.8,"pm2_5":5.1,"no2":70.5,"co":236.0,"o3":89.0,"so2":0.4,"mosquito_risk":0,"arthritis_risk":5,"migraine_risk":7,"frizz_risk":0,"updated_at":"2026-06-20T19:53:51.044044+05:30"},{"city":"Gurgaon","state":"Haryana","latitude":28.4595,"longitude":77.0266,"temp":34.5,"humidity":40,"rain":0.0,"pressure":976.4,"uv_index":7.9,"wind_gusts":41.0,"aqi":850,"pm10":1285.2,"pm2_5":204.9,"no2":27.5,"co":465.0,"o3":81.0,"so2":11.5,"mosquito_risk":0,"arthritis_risk":5,"migraine_risk":7,"frizz_risk":1,"updated_at":"2026-06-20T19:53:51.044050+05:30"},{"city":"Noida","state":"Uttar Pradesh","latitude":28.5355,"longitude":77.391,"temp":34.8,"humidity":40,"rain":0.0,"pressure":979.1,"uv_index":7.85,"wind_gusts":36.4,"aqi":850,"pm10":1285.2,"pm2_5":204.9,"no2":27.5,"co":503.0,"o3":81.0,"so2":11.5,"mosquito_risk":0,"arthritis_risk":5,"migraine_risk":7,"frizz_risk":1,"updated_at":"2026-06-20T19:53:51.044056+05:30"},{"city":"Ghaziabad","state":"Uttar Pradesh","latitude":28.6692,"longitude":77.4538,"temp":33.3,"humidity":52,"rain":0.0,"pressure":977.3,"uv_index":7.8,"wind_gusts":40.7,"aqi":431,"pm10":577.4,"pm2_5":120.1,"no2":18.0,"co":307.0,"o3":103.0,"so2":15.0,"mosquito_risk":0,"arthritis_risk":5,"migraine_risk":7,"frizz_risk":1,"updated_at":"2026-06-20T19:53:51.044063+05:30"},{"city":"Faridabad","state":"Haryana","latitude":28.4089,"longitude":77.3178,"temp":36.0,"humidity":35,"rain":0.0,"pressure":978.6,"uv_index":7.85,"wind_gusts":42.1,"aqi":850,"pm10":1285.2,"pm2_5":204.9,"no2":27.5,"co":468.0,"o3":81.0,"so2":11.5,"mosquito_risk":0,"arthritis_risk":5,"migraine_risk":10,"frizz_risk":1,"updated_at":"2026-06-20T19:53:51.044068+05:30"},{"city":"Meerut","state":"Uttar Pradesh","latitude":28.9845,"longitude":77.7064,"temp":32.8,"humidity":56,"rain":0.0,"pressure":976.3,"uv_index":7.75,"wind_gusts":43.6,"aqi":431,"pm10":577.4,"pm2_5":120.1,"no2":18.0,"co":256.0,"o3":103.0,"so2":15.0,"mosquito_risk":0,"arthritis_risk":5,"migraine_risk":7,"frizz_risk":1,"updated_at":"2026-06-20T19:53:51.044075+05:30"},{"city":"Agra","state":"Uttar Pradesh","latitude":27.1767,"longitude":78.0081,"temp":35.2,"humidity":39,"rain":0.0,"pressure":983.3,"uv_index":8.15,"wind_gusts":38.9,"aqi":621,"pm10":491.7,"pm2_5":94.3,"no2":21.1,"co":169.0,"o3":70.0,"so2":7.7,"mosquito_risk":0,"arthritis_risk":5,"migraine_risk":10,"frizz_risk":1,"updated_at":"2026-06-20T19:53:51.044080+05:30"},{"city":"Varanasi","state":"Uttar Pradesh","latitude":25.3176,"longitude":82.9739,"temp":35.7,"humidity":44,"rain":0.0,"pressure":992.5,"uv_index":8.8,"wind_gusts":37.8,"aqi":111,"pm10":101.5,"pm2_5":47.8,"no2":13.1,"co":317.0,"o3":92.0,"so2":8.6,"mosquito_risk":0,"arthritis_risk":5,"migraine_risk":10,"frizz_risk":1,"updated_at":"2026-06-20T19:53:51.044087+05:30"},{"city":"Prayagraj","state":"Uttar Pradesh","latitude":25.4358,"longitude":81.8463,"temp":37.4,"humidity":35,"rain":0.0,"pressure":990.8,"uv_index":8.7,"wind_gusts":32.8,"aqi":122,"pm10":63.6,"pm2_5":30.7,"no2":8.0,"co":185.0,"o3":88.0,"so2":5.9,"mosquito_risk":0,"arthritis_risk":5,"migraine_risk":10,"frizz_risk":1,"updated_at":"2026-06-20T19:53:51.044093+05:30"},{"city":"Gorakhpur","state":"Uttar Pradesh","latitude":26.7606,"longitude":83.3732,"temp":32.7,"humidity":62,"rain":0.0,"pressure":991.6,"uv_index":8.65,"wind_gusts":32.8,"aqi":164,"pm10":191.4,"pm2_5":90.3,"no2":21.5,"co":278.0,"o3":109.0,"so2":14.7,"mosquito_risk":3,"arthritis_risk":5,"migraine_risk":7,"frizz_risk":1,"updated_at":"2026-06-20T19:53:51.044099+05:30"},{"city":"Bareilly","state":"Uttar Pradesh","latitude":28.367,"longitude":79.4304,"temp":33.5,"humidity":50,"rain":0.0,"pressure":981.2,"uv_index":8.15,"wind_gusts":33.8,"aqi":161,"pm10":115.5,"pm2_5":51.0,"no2":9.5,"co":297.0,"o3":131.0,"so2":9.4,"mosquito_risk":0,"arthritis_risk":5,"migraine_risk":7,"frizz_risk":1,"updated_at":"2026-06-20T19:53:51.044110+05:30"},{"city":"Aligarh","state":"Uttar Pradesh","latitude":27.8974,"longitude":78.088,"temp":33.9,"humidity":46,"rain":0.0,"pressure":980.4,"uv_index":8.0,"wind_gusts":44.3,"aqi":515,"pm10":728.3,"pm2_5":134.6,"no2":18.5,"co":254.0,"o3":96.0,"so2":9.6,"mosquito_risk":0,"arthritis_risk":5,"migraine_risk":7,"frizz_risk":1,"updated_at":"2026-06-20T19:53:51.044117+05:30"},{"city":"Moradabad","state":"Uttar Pradesh","latitude":28.8386,"longitude":78.7733,"temp":33.6,"humidity":50,"rain":0.0,"pressure":978.1,"uv_index":7.95,"wind_gusts":43.6,"aqi":173,"pm10":277.5,"pm2_5":83.4,"no2":13.5,"co":378.0,"o3":114.0,"so2":9.4,"mosquito_risk":0,"arthritis_risk":5,"migraine_risk":7,"frizz_risk":1,"updated_at":"2026-06-20T19:53:51.044122+05:30"},{"city":"Saharanpur","state":"Uttar Pradesh","latitude":29.9637,"longitude":77.546,"temp":31.2,"humidity":55,"rain":0.0,"pressure":970.1,"uv_index":7.55,"wind_gusts":35.6,"aqi":161,"pm10":383.7,"pm2_5":90.6,"no2":10.8,"co":372.0,"o3":129.0,"so2":10.1,"mosquito_risk":0,"arthritis_risk":5,"migraine_risk":7,"frizz_risk":1,"updated_at":"2026-06-20T19:53:51.044128+05:30"},{"city":"Jhansi","state":"Uttar Pradesh","latitude":25.4484,"longitude":78.5685,"temp":34.4,"humidity":41,"rain":0.0,"pressure":974.4,"uv_index":8.4,"wind_gusts":31.7,"aqi":79,"pm10":70.3,"pm2_5":32.2,"no2":5.5,"co":175.0,"o3":73.0,"so2":3.1,"mosquito_risk":0,"arthritis_risk":5,"migraine_risk":7,"frizz_risk":1,"updated_at":"2026-06-20T19:53:54.383545+05:30"},{"city":"Surat","state":"Gujarat","latitude":21.1702,"longitude":72.8311,"temp":29.8,"humidity":75,"rain":0.0,"pressure":1005.2,"uv_index":7.6,"wind_gusts":42.8,"aqi":63,"pm10":21.1,"pm2_5":14.7,"no2":16.1,"co":241.0,"o3":34.0,"so2":29.2,"mosquito_risk":7,"arthritis_risk":5,"migraine_risk":4,"frizz_risk":1,"updated_at":"2026-06-20T19:53:54.383579+05:30"},{"city":"Vadodara","state":"Gujarat","latitude":22.3072,"longitude":73.1812,"temp":32.4,"humidity":54,"rain":0.0,"pressure":1001.7,"uv_index":7.35,"wind_gusts":39.6,"aqi":62,"pm10":27.1,"pm2_5":16.5,"no2":9.8,"co":148.0,"o3":61.0,"so2":8.7,"mosquito_risk":0,"arthritis_risk":5,"migraine_risk":4,"frizz_risk":1,"updated_at":"2026-06-20T19:53:54.383591+05:30"},{"city":"Rajkot","state":"Gujarat","latitude":22.3039,"longitude":70.8022,"temp":33.1,"humidity":47,"rain":0.0,"pressure":991.8,"uv_index":7.55,"wind_gusts":41.0,"aqi":64,"pm10":52.3,"pm2_5":20.1,"no2":2.9,"co":108.0,"o3":64.0,"so2":3.1,"mosquito_risk":0,"arthritis_risk":5,"migraine_risk":7,"frizz_risk":1,"updated_at":"2026-06-20T19:53:54.383602+05:30"},{"city":"Thane","state":"Maharashtra","latitude":19.2183,"longitude":72.9781,"temp":30.5,"humidity":63,"rain":0.0,"pressure":1007.1,"uv_index":7.7,"wind_gusts":39.2,"aqi":52,"pm10":19.6,"pm2_5":11.1,"no2":7.6,"co":162.0,"o3":45.0,"so2":5.2,"mosquito_risk":3,"arthritis_risk":5,"migraine_risk":4,"frizz_risk":1,"updated_at":"2026-06-20T19:53:54.383611+05:30"},{"city":"Nagpur","state":"Maharashtra","latitude":21.1458,"longitude":79.0882,"temp":36.4,"humidity":27,"rain":0.0,"pressure":971.1,"uv_index":8.9,"wind_gusts":42.8,"aqi":78,"pm10":24.3,"pm2_5":17.4,"no2":11.5,"co":171.0,"o3":86.0,"so2":12.5,"mosquito_risk":0,"arthritis_risk":5,"migraine_risk":10,"frizz_risk":0,"updated_at":"2026-06-20T19:53:54.383620+05:30"},{"city":"Nashik","state":"Maharashtra","latitude":19.9975,"longitude":73.7898,"temp":27.9,"humidity":64,"rain":0.0,"pressure":945.0,"uv_index":8.05,"wind_gusts":43.2,"aqi":39,"pm10":14.6,"pm2_5":8.6,"no2":2.7,"co":116.0,"o3":56.0,"so2":1.2,"mosquito_risk":7,"arthritis_risk":5,"migraine_risk":7,"frizz_risk":1,"updated_at":"2026-06-20T19:53:54.383628+05:30"},{"city":"Aurangabad","state":"Maharashtra","latitude":19.8762,"longitude":75.3433,"temp":32.9,"humidity":36,"rain":0.0,"pressure":943.0,"uv_index":9.0,"wind_gusts":35.3,"aqi":47,"pm10":15.4,"pm2_5":10.8,"no2":3.8,"co":143.0,"o3":99.0,"so2":4.0,"mosquito_risk":0,"arthritis_risk":5,"migraine_risk":7,"frizz_risk":0,"updated_at":"2026-06-20T19:53:54.383635+05:30"},{"city":"Solapur","state":"Maharashtra","latitude":17.6599,"longitude":75.9064,"temp":30.9,"humidity":53,"rain":0.1,"pressure":955.9,"uv_index":8.4,"wind_gusts":36.0,"aqi":59,"pm10":21.3,"pm2_5":14.0,"no2":4.7,"co":212.0,"o3":100.0,"so2":2.5,"mosquito_risk":3,"arthritis_risk":5,"migraine_risk":7,"frizz_risk":1,"updated_at":"2026-06-20T19:53:54.383644+05:30"},{"city":"Kolhapur","state":"Maharashtra","latitude":16.705,"longitude":74.2433,"temp":26.5,"humidity":68,"rain":0.0,"pressure":948.2,"uv_index":8.45,"wind_gusts":40.7,"aqi":47,"pm10":13.6,"pm2_5":9.3,"no2":3.8,"co":149.0,"o3":61.0,"so2":1.7,"mosquito_risk":7,"arthritis_risk":5,"migraine_risk":7,"frizz_risk":1,"updated_at":"2026-06-20T19:53:54.383651+05:30"},{"city":"Goa","state":"Goa","latitude":15.2993,"longitude":74.124,"temp":28.1,"humidity":80,"rain":0.0,"pressure":998.4,"uv_index":8.05,"wind_gusts":27.0,"aqi":59,"pm10":20.7,"pm2_5":11.9,"no2":2.2,"co":240.0,"o3":48.0,"so2":1.2,"mosquito_risk":7,"arthritis_risk":5,"migraine_risk":7,"frizz_risk":1,"updated_at":"2026-06-20T19:53:54.383658+05:30"},{"city":"Jodhpur","state":"Rajasthan","latitude":26.2389,"longitude":73.0243,"temp":34.9,"humidity":39,"rain":0.0,"pressure":979.1,"uv_index":8.4,"wind_gusts":38.9,"aqi":109,"pm10":160.7,"pm2_5":41.0,"no2":5.0,"co":134.0,"o3":66.0,"so2":1.9,"mosquito_risk":0,"arthritis_risk":5,"migraine_risk":7,"frizz_risk":1,"updated_at":"2026-06-20T19:53:54.383666+05:30"},{"city":"Udaipur","state":"Rajasthan","latitude":24.5854,"longitude":73.7125,"temp":29.7,"humidity":55,"rain":0.0,"pressure":944.3,"uv_index":8.8,"wind_gusts":36.4,"aqi":77,"pm10":44.9,"pm2_5":21.0,"no2":3.6,"co":145.0,"o3":75.0,"so2":2.8,"mosquito_risk":4,"arthritis_risk":5,"migraine_risk":7,"frizz_risk":1,"updated_at":"2026-06-20T19:53:54.383673+05:30"},{"city":"Kota","state":"Rajasthan","latitude":25.2138,"longitude":75.8648,"temp":28.6,"humidity":80,"rain":0.0,"pressure":976.3,"uv_index":8.35,"wind_gusts":37.4,"aqi":91,"pm10":76.8,"pm2_5":35.5,"no2":9.0,"co":286.0,"o3":72.0,"so2":5.2,"mosquito_risk":7,"arthritis_risk":5,"migraine_risk":7,"frizz_risk":1,"updated_at":"2026-06-20T19:53:54.383679+05:30"},{"city":"Bikaner","state":"Rajasthan","latitude":28.0229,"longitude":73.3119,"temp":33.4,"humidity":52,"rain":0.0,"pressure":977.6,"uv_index":8.45,"wind_gusts":31.3,"aqi":112,"pm10":121.5,"pm2_5":39.9,"no2":3.8,"co":188.0,"o3":67.0,"so2":1.7,"mosquito_risk":0,"arthritis_risk":5,"migraine_risk":7,"frizz_risk":1,"updated_at":"2026-06-20T19:53:54.383686+05:30"},{"city":"Ajmer","state":"Rajasthan","latitude":26.4499,"longitude":74.6399,"temp":30.4,"humidity":52,"rain":0.0,"pressure":951.9,"uv_index":8.35,"wind_gusts":45.0,"aqi":83,"pm10":55.8,"pm2_5":26.5,"no2":6.0,"co":155.0,"o3":71.0,"so2":2.8,"mosquito_risk":0,"arthritis_risk":5,"migraine_risk":7,"frizz_risk":1,"updated_at":"2026-06-20T19:53:54.383692+05:30"},{"city":"Gwalior","state":"Madhya Pradesh","latitude":26.2183,"longitude":78.1828,"temp":34.4,"humidity":42,"rain":0.0,"pressure":979.6,"uv_index":7.7,"wind_gusts":36.4,"aqi":88,"pm10":96.9,"pm2_5":40.4,"no2":6.2,"co":147.0,"o3":77.0,"so2":3.1,"mosquito_risk":0,"arthritis_risk":5,"migraine_risk":7,"frizz_risk":1,"updated_at":"2026-06-20T19:53:54.383700+05:30"},{"city":"Indore","state":"Madhya Pradesh","latitude":22.7196,"longitude":75.8577,"temp":31.0,"humidity":50,"rain":0.0,"pressure":946.8,"uv_index":7.9,"wind_gusts":39.6,"aqi":72,"pm10":36.2,"pm2_5":27.8,"no2":14.3,"co":364.0,"o3":62.0,"so2":4.2,"mosquito_risk":0,"arthritis_risk":5,"migraine_risk":7,"frizz_risk":1,"updated_at":"2026-06-20T19:53:54.383706+05:30"},{"city":"Bhopal","state":"Madhya Pradesh","latitude":23.2599,"longitude":77.4126,"temp":28.4,"humidity":74,"rain":0.0,"pressure":951.8,"uv_index":8.65,"wind_gusts":38.5,"aqi":72,"pm10":30.2,"pm2_5":21.7,"no2":8.5,"co":303.0,"o3":71.0,"so2":3.6,"mosquito_risk":7,"arthritis_risk":5,"migraine_risk":7,"frizz_risk":1,"updated_at":"2026-06-20T19:53:54.383712+05:30"},{"city":"Jabalpur","state":"Madhya Pradesh","latitude":23.1815,"longitude":79.9864,"temp":32.6,"humidity":46,"rain":0.0,"pressure":959.1,"uv_index":8.35,"wind_gusts":32.8,"aqi":73,"pm10":42.5,"pm2_5":26.4,"no2":6.6,"co":186.0,"o3":87.0,"so2":4.1,"mosquito_risk":0,"arthritis_risk":5,"migraine_risk":7,"frizz_risk":1,"updated_at":"2026-06-20T19:53:54.383719+05:30"},{"city":"Ujjain","state":"Madhya Pradesh","latitude":23.1765,"longitude":75.7885,"temp":29.7,"humidity":61,"rain":0.0,"pressure":952.1,"uv_index":8.55,"wind_gusts":41.8,"aqi":73,"pm10":45.6,"pm2_5":27.0,"no2":7.1,"co":446.0,"o3":74.0,"so2":3.8,"mosquito_risk":7,"arthritis_risk":5,"migraine_risk":7,"frizz_risk":1,"updated_at":"2026-06-20T19:53:54.383726+05:30"},{"city":"Visakhapatnam","state":"Andhra Pradesh","latitude":17.6868,"longitude":83.2185,"temp":27.8,"humidity":99,"rain":0.0,"pressure":1002.3,"uv_index":8.65,"wind_gusts":36.4,"aqi":157,"pm10":65.2,"pm2_5":58.9,"no2":36.7,"co":330.0,"o3":124.0,"so2":75.9,"mosquito_risk":7,"arthritis_risk":5,"migraine_risk":4,"frizz_risk":1,"updated_at":"2026-06-20T19:53:54.383733+05:30"},{"city":"Vijayawada","state":"Andhra Pradesh","latitude":16.5062,"longitude":80.648,"temp":32.4,"humidity":64,"rain":0.0,"pressure":1000.6,"uv_index":8.55,"wind_gusts":30.6,"aqi":84,"pm10":50.3,"pm2_5":44.8,"no2":20.7,"co":390.0,"o3":81.0,"so2":7.9,"mosquito_risk":3,"arthritis_risk":5,"migraine_risk":4,"frizz_risk":1,"updated_at":"2026-06-20T19:53:54.383740+05:30"},{"city":"Guntur","state":"Andhra Pradesh","latitude":16.3067,"longitude":80.4365,"temp":32.2,"humidity":63,"rain":0.0,"pressure":1001.9,"uv_index":8.0,"wind_gusts":31.3,"aqi":82,"pm10":51.0,"pm2_5":45.1,"no2":21.0,"co":236.0,"o3":77.0,"so2":7.1,"mosquito_risk":3,"arthritis_risk":5,"migraine_risk":4,"frizz_risk":1,"updated_at":"2026-06-20T19:53:54.383747+05:30"},{"city":"Nellore","state":"Andhra Pradesh","latitude":14.4426,"longitude":79.9865,"temp":31.2,"humidity":64,"rain":0.0,"pressure":1004.7,"uv_index":7.7,"wind_gusts":30.6,"aqi":75,"pm10":32.2,"pm2_5":25.1,"no2":7.6,"co":237.0,"o3":112.0,"so2":6.9,"mosquito_risk":3,"arthritis_risk":5,"migraine_risk":4,"frizz_risk":1,"updated_at":"2026-06-20T19:53:54.383754+05:30"},{"city":"Kurnool","state":"Andhra Pradesh","latitude":15.8281,"longitude":78.0373,"temp":31.4,"humidity":53,"rain":0.0,"pressure":975.9,"uv_index":5.35,"wind_gusts":31.7,"aqi":67,"pm10":34.2,"pm2_5":26.3,"no2":17.6,"co":345.0,"o3":91.0,"so2":11.6,"mosquito_risk":0,"arthritis_risk":5,"migraine_risk":3,"frizz_risk":1,"updated_at":"2026-06-20T19:53:54.383762+05:30"},{"city":"Kakinada","state":"Andhra Pradesh","latitude":16.9891,"longitude":82.2475,"temp":31.2,"humidity":69,"rain":0.0,"pressure":1005.6,"uv_index":7.1,"wind_gusts":37.1,"aqi":125,"pm10":28.0,"pm2_5":22.2,"no2":5.4,"co":307.0,"o3":123.0,"so2":5.3,"mosquito_risk":3,"arthritis_risk":5,"migraine_risk":4,"frizz_risk":1,"updated_at":"2026-06-20T19:53:54.383769+05:30"},{"city":"Tirupati","state":"Andhra Pradesh","latitude":13.6288,"longitude":79.4192,"temp":29.1,"humidity":69,"rain":0.0,"pressure":991.0,"uv_index":7.95,"wind_gusts":21.6,"aqi":66,"pm10":22.1,"pm2_5":19.0,"no2":14.8,"co":263.0,"o3":77.0,"so2":3.3,"mosquito_risk":7,"arthritis_risk":5,"migraine_risk":7,"frizz_risk":1,"updated_at":"2026-06-20T19:53:54.383776+05:30"},{"city":"Warangal","state":"Telangana","latitude":17.9689,"longitude":79.5941,"temp":34.9,"humidity":39,"rain":0.0,"pressure":977.1,"uv_index":6.6,"wind_gusts":38.2,"aqi":121,"pm10":44.4,"pm2_5":37.0,"no2":20.1,"co":240.0,"o3":81.0,"so2":8.4,"mosquito_risk":0,"arthritis_risk":5,"migraine_risk":7,"frizz_risk":1,"updated_at":"2026-06-20T19:53:54.383782+05:30"},{"city":"Nizamabad","state":"Telangana","latitude":18.6725,"longitude":78.0941,"temp":30.8,"humidity":54,"rain":0.0,"pressure":963.7,"uv_index":8.95,"wind_gusts":33.8,"aqi":74,"pm10":22.5,"pm2_5":16.2,"no2":5.7,"co":468.0,"o3":90.0,"so2":3.3,"mosquito_risk":0,"arthritis_risk":5,"migraine_risk":7,"frizz_risk":1,"updated_at":"2026-06-20T19:53:54.383789+05:30"},{"city":"Mysore","state":"Karnataka","latitude":12.2958,"longitude":76.6396,"temp":24.8,"humidity":76,"rain":0.0,"pressure":928.9,"uv_index":8.25,"wind_gusts":35.6,"aqi":58,"pm10":29.6,"pm2_5":18.5,"no2":18.6,"co":192.0,"o3":51.0,"so2":3.0,"mosquito_risk":3,"arthritis_risk":5,"migraine_risk":7,"frizz_risk":1,"updated_at":"2026-06-20T19:53:54.383795+05:30"},{"city":"Mangalore","state":"Karnataka","latitude":12.9141,"longitude":74.856,"temp":27.8,"humidity":83,"rain":0.0,"pressure":1007.3,"uv_index":7.8,"wind_gusts":31.3,"aqi":76,"pm10":7.9,"pm2_5":5.5,"no2":4.4,"co":234.0,"o3":43.0,"so2":1.5,"mosquito_risk":7,"arthritis_risk":5,"migraine_risk":4,"frizz_risk":1,"updated_at":"2026-06-20T19:53:54.383802+05:30"},{"city":"Hubli-Dharwad","state":"Karnataka","latitude":15.3647,"longitude":75.124,"temp":25.8,"humidity":74,"rain":0.0,"pressure":941.3,"uv_index":8.15,"wind_gusts":41.8,"aqi":44,"pm10":20.3,"pm2_5":10.6,"no2":4.1,"co":131.0,"o3":54.0,"so2":1.2,"mosquito_risk":7,"arthritis_risk":5,"migraine_risk":7,"frizz_risk":1,"updated_at":"2026-06-20T19:53:54.383809+05:30"},{"city":"Belgaum","state":"Karnataka","latitude":15.8497,"longitude":74.4977,"temp":24.2,"humidity":77,"rain":0.0,"pressure":926.1,"uv_index":8.9,"wind_gusts":34.9,"aqi":50,"pm10":19.0,"pm2_5":10.2,"no2":3.8,"co":129.0,"o3":56.0,"so2":2.1,"mosquito_risk":3,"arthritis_risk":5,"migraine_risk":7,"frizz_risk":1,"updated_at":"2026-06-20T19:53:57.723615+05:30"},{"city":"Coimbatore","state":"Tamil Nadu","latitude":11.0168,"longitude":76.9558,"temp":26.9,"humidity":72,"rain":0.0,"pressure":962.5,"uv_index":8.25,"wind_gusts":40.7,"aqi":58,"pm10":26.1,"pm2_5":16.8,"no2":8.3,"co":202.0,"o3":66.0,"so2":3.2,"mosquito_risk":7,"arthritis_risk":5,"migraine_risk":7,"frizz_risk":1,"updated_at":"2026-06-20T19:53:57.723650+05:30"},{"city":"Madurai","state":"Tamil Nadu","latitude":9.9252,"longitude":78.1198,"temp":31.0,"humidity":57,"rain":0.0,"pressure":993.5,"uv_index":8.65,"wind_gusts":29.5,"aqi":64,"pm10":26.1,"pm2_5":18.9,"no2":13.9,"co":321.0,"o3":83.0,"so2":4.6,"mosquito_risk":0,"arthritis_risk":5,"migraine_risk":7,"frizz_risk":1,"updated_at":"2026-06-20T19:53:57.723663+05:30"},{"city":"Trichy","state":"Tamil Nadu","latitude":10.7905,"longitude":78.7047,"temp":29.4,"humidity":81,"rain":0.0,"pressure":1000.2,"uv_index":8.4,"wind_gusts":33.5,"aqi":65,"pm10":24.7,"pm2_5":18.0,"no2":10.0,"co":313.0,"o3":87.0,"so2":3.8,"mosquito_risk":7,"arthritis_risk":5,"migraine_risk":4,"frizz_risk":1,"updated_at":"2026-06-20T19:53:57.723674+05:30"},{"city":"Salem","state":"Tamil Nadu","latitude":11.6643,"longitude":78.146,"temp":28.0,"humidity":79,"rain":0.0,"pressure":977.6,"uv_index":8.2,"wind_gusts":19.8,"aqi":88,"pm10":36.7,"pm2_5":26.4,"no2":18.0,"co":604.0,"o3":98.0,"so2":10.0,"mosquito_risk":7,"arthritis_risk":5,"migraine_risk":7,"frizz_risk":1,"updated_at":"2026-06-20T19:53:57.723684+05:30"},{"city":"Tirunelveli","state":"Tamil Nadu","latitude":8.7139,"longitude":77.7567,"temp":31.7,"humidity":50,"rain":0.0,"pressure":1003.6,"uv_index":8.6,"wind_gusts":24.1,"aqi":62,"pm10":19.1,"pm2_5":12.8,"no2":5.5,"co":195.0,"o3":63.0,"so2":1.8,"mosquito_risk":0,"arthritis_risk":5,"migraine_risk":4,"frizz_risk":1,"updated_at":"2026-06-20T19:53:57.723693+05:30"},{"city":"Vellore","state":"Tamil Nadu","latitude":12.9165,"longitude":79.1325,"temp":27.5,"humidity":77,"rain":0.0,"pressure":984.7,"uv_index":7.8,"wind_gusts":32.0,"aqi":71,"pm10":22.1,"pm2_5":20.0,"no2":12.9,"co":266.0,"o3":83.0,"so2":3.3,"mosquito_risk":7,"arthritis_risk":5,"migraine_risk":7,"frizz_risk":1,"updated_at":"2026-06-20T19:53:57.723703+05:30"},{"city":"Erode","state":"Tamil Nadu","latitude":11.341,"longitude":77.7172,"temp":29.6,"humidity":69,"rain":0.0,"pressure":989.5,"uv_index":8.25,"wind_gusts":24.5,"aqi":67,"pm10":31.5,"pm2_5":21.0,"no2":13.3,"co":562.0,"o3":80.0,"so2":3.5,"mosquito_risk":7,"arthritis_risk":5,"migraine_risk":7,"frizz_risk":1,"updated_at":"2026-06-20T19:53:57.723711+05:30"},{"city":"Kochi","state":"Kerala","latitude":9.9312,"longitude":76.2673,"temp":27.7,"humidity":87,"rain":0.0,"pressure":1010.0,"uv_index":8.5,"wind_gusts":25.6,"aqi":107,"pm10":19.3,"pm2_5":15.4,"no2":22.0,"co":156.0,"o3":34.0,"so2":5.9,"mosquito_risk":7,"arthritis_risk":0,"migraine_risk":4,"frizz_risk":1,"updated_at":"2026-06-20T19:53:57.723721+05:30"},{"city":"Thiruvananthapuram","state":"Kerala","latitude":8.5241,"longitude":76.9366,"temp":27.2,"humidity":85,"rain":0.0,"pressure":1009.9,"uv_index":8.25,"wind_gusts":34.2,"aqi":58,"pm10":11.1,"pm2_5":6.7,"no2":2.8,"co":260.0,"o3":56.0,"so2":1.0,"mosquito_risk":7,"arthritis_risk":0,"migraine_risk":4,"frizz_risk":1,"updated_at":"2026-06-20T19:53:57.723730+05:30"},{"city":"Kozhikode","state":"Kerala","latitude":11.2588,"longitude":75.7804,"temp":26.6,"humidity":93,"rain":0.0,"pressure":1009.0,"uv_index":8.0,"wind_gusts":28.8,"aqi":54,"pm10":7.7,"pm2_5":4.8,"no2":1.3,"co":336.0,"o3":53.0,"so2":0.8,"mosquito_risk":7,"arthritis_risk":0,"migraine_risk":4,"frizz_risk":1,"updated_at":"2026-06-20T19:53:57.723739+05:30"},{"city":"Thrissur","state":"Kerala","latitude":10.5276,"longitude":76.2144,"temp":27.0,"humidity":88,"rain":0.0,"pressure":1008.4,"uv_index":8.4,"wind_gusts":23.8,"aqi":115,"pm10":19.7,"pm2_5":14.7,"no2":13.5,"co":422.0,"o3":42.0,"so2":3.9,"mosquito_risk":7,"arthritis_risk":0,"migraine_risk":4,"frizz_risk":1,"updated_at":"2026-06-20T19:53:57.723748+05:30"},{"city":"Kannur","state":"Kerala","latitude":11.8745,"longitude":75.3704,"temp":26.4,"humidity":95,"rain":0.0,"pressure":1008.3,"uv_index":7.8,"wind_gusts":34.2,"aqi":73,"pm10":11.5,"pm2_5":8.0,"no2":6.6,"co":212.0,"o3":43.0,"so2":1.6,"mosquito_risk":7,"arthritis_risk":0,"migraine_risk":4,"frizz_risk":1,"updated_at":"2026-06-20T19:53:57.723757+05:30"},{"city":"Patna","state":"Bihar","latitude":25.5941,"longitude":85.1376,"temp":34.0,"humidity":64,"rain":0.0,"pressure":995.4,"uv_index":8.85,"wind_gusts":25.6,"aqi":156,"pm10":121.5,"pm2_5":79.2,"no2":33.5,"co":366.0,"o3":88.0,"so2":16.2,"mosquito_risk":3,"arthritis_risk":5,"migraine_risk":7,"frizz_risk":1,"updated_at":"2026-06-20T19:53:57.723765+05:30"},{"city":"Gaya","state":"Bihar","latitude":24.7914,"longitude":85.0002,"temp":33.7,"humidity":54,"rain":0.0,"pressure":989.2,"uv_index":8.8,"wind_gusts":29.5,"aqi":101,"pm10":111.5,"pm2_5":59.8,"no2":12.7,"co":386.0,"o3":97.0,"so2":8.3,"mosquito_risk":0,"arthritis_risk":5,"migraine_risk":7,"frizz_risk":1,"updated_at":"2026-06-20T19:53:57.723774+05:30"},{"city":"Muzaffarpur","state":"Bihar","latitude":26.1209,"longitude":85.3647,"temp":31.4,"humidity":79,"rain":0.0,"pressure":995.4,"uv_index":8.85,"wind_gusts":29.9,"aqi":178,"pm10":120.1,"pm2_5":89.6,"no2":23.4,"co":681.0,"o3":122.0,"so2":17.1,"mosquito_risk":3,"arthritis_risk":5,"migraine_risk":7,"frizz_risk":1,"updated_at":"2026-06-20T19:53:57.723780+05:30"},{"city":"Bhagalpur","state":"Bihar","latitude":25.2425,"longitude":87.0117,"temp":31.6,"humidity":74,"rain":0.0,"pressure":996.6,"uv_index":8.8,"wind_gusts":24.8,"aqi":156,"pm10":110.4,"pm2_5":65.4,"no2":19.2,"co":297.0,"o3":112.0,"so2":12.4,"mosquito_risk":3,"arthritis_risk":5,"migraine_risk":7,"frizz_risk":1,"updated_at":"2026-06-20T19:53:57.723787+05:30"},{"city":"Ranchi","state":"Jharkhand","latitude":23.3441,"longitude":85.3096,"temp":26.5,"humidity":80,"rain":0.0,"pressure":935.8,"uv_index":9.2,"wind_gusts":29.5,"aqi":104,"pm10":31.8,"pm2_5":26.2,"no2":8.3,"co":245.0,"o3":93.0,"so2":2.5,"mosquito_risk":7,"arthritis_risk":5,"migraine_risk":7,"frizz_risk":1,"updated_at":"2026-06-20T19:53:57.723794+05:30"},{"city":"Jamshedpur","state":"Jharkhand","latitude":22.8046,"longitude":86.2029,"temp":31.7,"humidity":70,"rain":0.0,"pressure":987.6,"uv_index":8.6,"wind_gusts":32.8,"aqi":156,"pm10":64.3,"pm2_5":49.2,"no2":13.9,"co":362.0,"o3":116.0,"so2":16.4,"mosquito_risk":3,"arthritis_risk":5,"migraine_risk":7,"frizz_risk":1,"updated_at":"2026-06-20T19:53:57.723800+05:30"},{"city":"Dhanbad","state":"Jharkhand","latitude":23.7957,"longitude":86.4304,"temp":30.4,"humidity":75,"rain":0.0,"pressure":976.8,"uv_index":8.9,"wind_gusts":27.4,"aqi":164,"pm10":76.6,"pm2_5":62.6,"no2":34.8,"co":757.0,"o3":102.0,"so2":84.1,"mosquito_risk":3,"arthritis_risk":5,"migraine_risk":7,"frizz_risk":1,"updated_at":"2026-06-20T19:53:57.723807+05:30"},{"city":"Bokaro","state":"Jharkhand","latitude":23.6693,"longitude":86.1511,"temp":30.4,"humidity":76,"rain":0.0,"pressure":980.5,"uv_index":9.05,"wind_gusts":21.2,"aqi":152,"pm10":61.0,"pm2_5":46.9,"no2":21.9,"co":203.0,"o3":103.0,"so2":55.5,"mosquito_risk":3,"arthritis_risk":5,"migraine_risk":7,"frizz_risk":1,"updated_at":"2026-06-20T19:53:57.723814+05:30"},{"city":"Bhubaneswar","state":"Odisha","latitude":20.2961,"longitude":85.8245,"temp":29.3,"humidity":88,"rain":0.0,"pressure":1000.2,"uv_index":8.85,"wind_gusts":38.5,"aqi":116,"pm10":35.4,"pm2_5":32.7,"no2":10.5,"co":481.0,"o3":112.0,"so2":7.8,"mosquito_risk":7,"arthritis_risk":5,"migraine_risk":4,"frizz_risk":1,"updated_at":"2026-06-20T19:53:57.723821+05:30"},{"city":"Cuttack","state":"Odisha","latitude":20.4625,"longitude":85.8828,"temp":29.5,"humidity":84,"rain":0.0,"pressure":1001.9,"uv_index":9.15,"wind_gusts":32.0,"aqi":116,"pm10":35.4,"pm2_5":32.7,"no2":10.5,"co":560.0,"o3":112.0,"so2":7.8,"mosquito_risk":7,"arthritis_risk":5,"migraine_risk":4,"frizz_risk":1,"updated_at":"2026-06-20T19:53:57.723827+05:30"},{"city":"Rourkela","state":"Odisha","latitude":22.2604,"longitude":84.8536,"temp":29.4,"humidity":77,"rain":0.0,"pressure":982.4,"uv_index":8.8,"wind_gusts":29.9,"aqi":135,"pm10":49.1,"pm2_5":36.2,"no2":12.7,"co":765.0,"o3":120.0,"so2":9.8,"mosquito_risk":7,"arthritis_risk":5,"migraine_risk":7,"frizz_risk":1,"updated_at":"2026-06-20T19:53:57.723834+05:30"},{"city":"Raipur","state":"Chhattisgarh","latitude":21.2514,"longitude":81.6296,"temp":35.0,"humidity":33,"rain":0.0,"pressure":971.8,"uv_index":8.65,"wind_gusts":32.0,"aqi":104,"pm10":34.5,"pm2_5":29.3,"no2":27.2,"co":223.0,"o3":84.0,"so2":42.1,"mosquito_risk":0,"arthritis_risk":5,"migraine_risk":7,"frizz_risk":1,"updated_at":"2026-06-20T19:53:57.723841+05:30"},{"city":"Bhilai","state":"Chhattisgarh","latitude":21.1938,"longitude":81.3509,"temp":35.9,"humidity":30,"rain":0.0,"pressure":972.3,"uv_index":8.95,"wind_gusts":34.9,"aqi":104,"pm10":35.7,"pm2_5":29.2,"no2":24.2,"co":789.0,"o3":82.0,"so2":33.7,"mosquito_risk":0,"arthritis_risk":5,"migraine_risk":10,"frizz_risk":0,"updated_at":"2026-06-20T19:53:57.723848+05:30"},{"city":"Guwahati","state":"Assam","latitude":26.1158,"longitude":91.7086,"temp":26.4,"humidity":97,"rain":0.0,"pressure":998.4,"uv_index":8.7,"wind_gusts":29.5,"aqi":141,"pm10":49.7,"pm2_5":44.0,"no2":12.4,"co":467.0,"o3":70.0,"so2":4.1,"mosquito_risk":7,"arthritis_risk":5,"migraine_risk":7,"frizz_risk":1,"updated_at":"2026-06-20T19:53:57.723855+05:30"},{"city":"Agartala","state":"Tripura","latitude":23.8315,"longitude":91.2868,"temp":26.9,"humidity":93,"rain":0.0,"pressure":1004.4,"uv_index":8.65,"wind_gusts":34.2,"aqi":84,"pm10":20.0,"pm2_5":18.9,"no2":11.4,"co":210.0,"o3":64.0,"so2":2.5,"mosquito_risk":7,"arthritis_risk":5,"migraine_risk":4,"frizz_risk":1,"updated_at":"2026-06-20T19:53:57.723862+05:30"},{"city":"Shillong","state":"Meghalaya","latitude":25.5788,"longitude":91.8933,"temp":19.5,"humidity":92,"rain":0.0,"pressure":856.0,"uv_index":6.25,"wind_gusts":29.9,"aqi":76,"pm10":30.6,"pm2_5":26.4,"no2":8.2,"co":231.0,"o3":92.0,"so2":2.7,"mosquito_risk":3,"arthritis_risk":10,"migraine_risk":7,"frizz_risk":1,"updated_at":"2026-06-20T19:53:57.723868+05:30"},{"city":"Imphal","state":"Manipur","latitude":24.817,"longitude":93.9368,"temp":23.9,"humidity":85,"rain":0.0,"pressure":922.2,"uv_index":9.25,"wind_gusts":34.6,"aqi":72,"pm10":31.4,"pm2_5":27.2,"no2":18.4,"co":409.0,"o3":55.0,"so2":4.5,"mosquito_risk":3,"arthritis_risk":5,"migraine_risk":7,"frizz_risk":1,"updated_at":"2026-06-20T19:53:57.723875+05:30"},{"city":"Aizawl","state":"Mizoram","latitude":23.7271,"longitude":92.7176,"temp":21.1,"humidity":86,"rain":0.0,"pressure":892.0,"uv_index":8.55,"wind_gusts":37.4,"aqi":56,"pm10":13.4,"pm2_5":11.6,"no2":3.5,"co":158.0,"o3":70.0,"so2":1.3,"mosquito_risk":3,"arthritis_risk":5,"migraine_risk":7,"frizz_risk":1,"updated_at":"2026-06-20T19:53:57.723881+05:30"},{"city":"Kohima","state":"Nagaland","latitude":25.6701,"longitude":94.1077,"temp":20.0,"humidity":94,"rain":0.0,"pressure":854.5,"uv_index":9.0,"wind_gusts":27.7,"aqi":54,"pm10":16.2,"pm2_5":11.8,"no2":9.4,"co":354.0,"o3":63.0,"so2":2.1,"mosquito_risk":3,"arthritis_risk":5,"migraine_risk":7,"frizz_risk":1,"updated_at":"2026-06-20T19:53:57.723888+05:30"},{"city":"Gangtok","state":"Sikkim","latitude":27.3314,"longitude":88.6138,"temp":18.8,"humidity":96,"rain":0.3,"pressure":836.0,"uv_index":8.0,"wind_gusts":30.2,"aqi":102,"pm10":14.4,"pm2_5":13.3,"no2":9.1,"co":399.0,"o3":119.0,"so2":5.5,"mosquito_risk":6,"arthritis_risk":10,"migraine_risk":7,"frizz_risk":1,"updated_at":"2026-06-20T19:53:57.723895+05:30"},{"city":"Siliguri","state":"West Bengal","latitude":26.7271,"longitude":88.3953,"temp":25.4,"humidity":98,"rain":0.0,"pressure":989.5,"uv_index":8.65,"wind_gusts":19.8,"aqi":154,"pm10":53.8,"pm2_5":46.4,"no2":13.9,"co":580.0,"o3":107.0,"so2":8.2,"mosquito_risk":7,"arthritis_risk":5,"migraine_risk":7,"frizz_risk":1,"updated_at":"2026-06-20T19:54:01.066298+05:30"},{"city":"Durgapur","state":"West Bengal","latitude":23.5204,"longitude":87.3119,"temp":28.2,"humidity":88,"rain":0.0,"pressure":991.6,"uv_index":8.9,"wind_gusts":38.5,"aqi":199,"pm10":103.6,"pm2_5":88.7,"no2":27.1,"co":641.0,"o3":125.0,"so2":48.9,"mosquito_risk":7,"arthritis_risk":5,"migraine_risk":7,"frizz_risk":1,"updated_at":"2026-06-20T19:54:01.066331+05:30"},{"city":"Asansol","state":"West Bengal","latitude":23.6739,"longitude":86.9524,"temp":28.6,"humidity":85,"rain":0.0,"pressure":990.3,"uv_index":8.95,"wind_gusts":38.5,"aqi":185,"pm10":86.4,"pm2_5":71.2,"no2":29.5,"co":432.0,"o3":118.0,"so2":54.0,"mosquito_risk":7,"arthritis_risk":5,"migraine_risk":7,"frizz_risk":1,"updated_at":"2026-06-20T19:54:01.066342+05:30"},{"city":"Pondicherry","state":"Puducherry","latitude":11.9139,"longitude":79.8145,"temp":29.0,"humidity":83,"rain":0.0,"pressure":1008.3,"uv_index":7.95,"wind_gusts":33.8,"aqi":130,"pm10":31.2,"pm2_5":23.5,"no2":10.1,"co":342.0,"o3":115.0,"so2":3.9,"mosquito_risk":7,"arthritis_risk":0,"migraine_risk":4,"frizz_risk":1,"updated_at":"2026-06-20T19:54:01.066351+05:30"},{"city":"Port Blair","state":"Andaman and Nicobar Islands","latitude":11.6234,"longitude":92.7265,"temp":27.5,"humidity":83,"rain":0.0,"pressure":1009.4,"uv_index":8.75,"wind_gusts":33.8,"aqi":39,"pm10":40.5,"pm2_5":17.9,"no2":0.4,"co":107.0,"o3":48.0,"so2":0.5,"mosquito_risk":7,"arthritis_risk":0,"migraine_risk":4,"frizz_risk":1,"updated_at":"2026-06-20T19:54:01.066359+05:30"},{"city":"Haridwar","state":"Uttarakhand","latitude":29.9457,"longitude":78.1642,"temp":30.7,"humidity":62,"rain":0.0,"pressure":968.4,"uv_index":7.65,"wind_gusts":31.0,"aqi":158,"pm10":184.4,"pm2_5":56.7,"no2":8.7,"co":318.0,"o3":136.0,"so2":10.3,"mosquito_risk":3,"arthritis_risk":5,"migraine_risk":7,"frizz_risk":1,"updated_at":"2026-06-20T19:54:01.066367+05:30"},{"city":"Rishikesh","state":"Uttarakhand","latitude":30.0869,"longitude":78.2676,"temp":30.2,"humidity":62,"rain":0.0,"pressure":961.4,"uv_index":7.75,"wind_gusts":29.2,"aqi":149,"pm10":84.5,"pm2_5":38.4,"no2":6.4,"co":363.0,"o3":147.0,"so2":8.7,"mosquito_risk":3,"arthritis_risk":5,"migraine_risk":7,"frizz_risk":1,"updated_at":"2026-06-20T19:54:01.066375+05:30"},{"city":"Nainital","state":"Uttarakhand","latitude":29.3919,"longitude":79.4542,"temp":18.0,"humidity":84,"rain":0.0,"pressure":803.7,"uv_index":6.75,"wind_gusts":29.5,"aqi":138,"pm10":64.3,"pm2_5":35.4,"no2":7.3,"co":335.0,"o3":127.0,"so2":6.5,"mosquito_risk":3,"arthritis_risk":10,"migraine_risk":7,"frizz_risk":0,"updated_at":"2026-06-20T19:54:01.066382+05:30"},{"city":"Mussoorie","state":"Uttarakhand","latitude":30.4599,"longitude":78.0664,"temp":17.3,"humidity":83,"rain":0.0,"pressure":801.0,"uv_index":8.15,"wind_gusts":39.6,"aqi":149,"pm10":48.1,"pm2_5":33.9,"no2":10.8,"co":359.0,"o3":138.0,"so2":7.9,"mosquito_risk":3,"arthritis_risk":10,"migraine_risk":7,"frizz_risk":0,"updated_at":"2026-06-20T19:54:01.066389+05:30"},{"city":"Dharamshala","state":"Himachal Pradesh","latitude":32.219,"longitude":76.3234,"temp":22.0,"humidity":75,"rain":0.0,"pressure":866.6,"uv_index":8.45,"wind_gusts":43.9,"aqi":97,"pm10":22.1,"pm2_5":15.9,"no2":8.3,"co":353.0,"o3":103.0,"so2":1.0,"mosquito_risk":3,"arthritis_risk":5,"migraine_risk":7,"frizz_risk":1,"updated_at":"2026-06-20T19:54:01.066396+05:30"},{"city":"Dalhousie","state":"Himachal Pradesh","latitude":32.5387,"longitude":75.971,"temp":16.0,"humidity":97,"rain":0.0,"pressure":802.0,"uv_index":8.75,"wind_gusts":30.6,"aqi":108,"pm10":27.2,"pm2_5":19.2,"no2":15.4,"co":394.0,"o3":132.0,"so2":2.1,"mosquito_risk":3,"arthritis_risk":10,"migraine_risk":7,"frizz_risk":0,"updated_at":"2026-06-20T19:54:01.066404+05:30"},{"city":"Patiala","state":"Punjab","latitude":30.3398,"longitude":76.3869,"temp":33.0,"humidity":47,"rain":0.0,"pressure":973.1,"uv_index":7.7,"wind_gusts":35.3,"aqi":429,"pm10":1024.5,"pm2_5":166.2,"no2":10.4,"co":379.0,"o3":121.0,"so2":6.5,"mosquito_risk":0,"arthritis_risk":5,"migraine_risk":7,"frizz_risk":1,"updated_at":"2026-06-20T19:54:01.066411+05:30"},{"city":"Bhatinda","state":"Punjab","latitude":30.211,"longitude":74.9455,"temp":34.1,"humidity":41,"rain":0.0,"pressure":978.9,"uv_index":8.35,"wind_gusts":26.6,"aqi":144,"pm10":64.0,"pm2_5":38.6,"no2":14.6,"co":303.0,"o3":102.0,"so2":7.4,"mosquito_risk":0,"arthritis_risk":5,"migraine_risk":7,"frizz_risk":1,"updated_at":"2026-06-20T19:54:01.066418+05:30"},{"city":"Rohtak","state":"Haryana","latitude":28.8955,"longitude":76.6066,"temp":32.8,"humidity":49,"rain":0.0,"pressure":976.5,"uv_index":7.8,"wind_gusts":33.5,"aqi":554,"pm10":879.2,"pm2_5":150.4,"no2":25.4,"co":315.0,"o3":78.0,"so2":7.5,"mosquito_risk":0,"arthritis_risk":5,"migraine_risk":7,"frizz_risk":1,"updated_at":"2026-06-20T19:54:01.066424+05:30"},{"city":"Panipat","state":"Haryana","latitude":29.3909,"longitude":76.9635,"temp":32.6,"humidity":51,"rain":0.0,"pressure":975.2,"uv_index":7.65,"wind_gusts":34.2,"aqi":1488,"pm10":2779.1,"pm2_5":386.5,"no2":14.7,"co":279.0,"o3":102.0,"so2":8.7,"mosquito_risk":0,"arthritis_risk":5,"migraine_risk":7,"frizz_risk":1,"updated_at":"2026-06-20T19:54:01.066431+05:30"},{"city":"Mathura","state":"Uttar Pradesh","latitude":27.4924,"longitude":77.6737,"temp":32.8,"humidity":47,"rain":0.0,"pressure":982.1,"uv_index":8.1,"wind_gusts":35.3,"aqi":335,"pm10":439.6,"pm2_5":88.2,"no2":26.7,"co":206.0,"o3":59.0,"so2":5.0,"mosquito_risk":0,"arthritis_risk":5,"migraine_risk":7,"frizz_risk":1,"updated_at":"2026-06-20T19:54:01.066438+05:30"},{"city":"Vrindavan","state":"Uttar Pradesh","latitude":27.5823,"longitude":77.7027,"temp":32.7,"humidity":47,"rain":0.0,"pressure":982.4,"uv_index":8.05,"wind_gusts":36.0,"aqi":335,"pm10":439.6,"pm2_5":88.2,"no2":26.7,"co":220.0,"o3":59.0,"so2":5.0,"mosquito_risk":0,"arthritis_risk":5,"migraine_risk":7,"frizz_risk":1,"updated_at":"2026-06-20T19:54:01.066444+05:30"},{"city":"Ayodhya","state":"Uttar Pradesh","latitude":26.7922,"longitude":82.1998,"temp":33.5,"humidity":58,"rain":0.0,"pressure":989.4,"uv_index":8.4,"wind_gusts":33.1,"aqi":161,"pm10":224.9,"pm2_5":84.3,"no2":10.4,"co":265.0,"o3":104.0,"so2":8.6,"mosquito_risk":0,"arthritis_risk":5,"migraine_risk":7,"frizz_risk":1,"updated_at":"2026-06-20T19:54:01.066451+05:30"},{"city":"Ratlam","state":"Madhya Pradesh","latitude":23.3315,"longitude":75.0367,"temp":29.9,"humidity":58,"rain":0.0,"pressure":953.1,"uv_index":8.45,"wind_gusts":37.1,"aqi":72,"pm10":41.4,"pm2_5":23.3,"no2":2.7,"co":144.0,"o3":83.0,"so2":3.9,"mosquito_risk":4,"arthritis_risk":5,"migraine_risk":7,"frizz_risk":1,"updated_at":"2026-06-20T19:54:01.066458+05:30"},{"city":"Sagar","state":"Madhya Pradesh","latitude":23.8388,"longitude":78.7378,"temp":29.9,"humidity":55,"rain":0.0,"pressure":948.2,"uv_index":8.75,"wind_gusts":44.6,"aqi":73,"pm10":37.7,"pm2_5":23.4,"no2":3.8,"co":158.0,"o3":88.0,"so2":2.3,"mosquito_risk":4,"arthritis_risk":5,"migraine_risk":7,"frizz_risk":1,"updated_at":"2026-06-20T19:54:01.066465+05:30"},{"city":"Satna","state":"Madhya Pradesh","latitude":24.6005,"longitude":80.8322,"temp":34.7,"humidity":40,"rain":0.0,"pressure":967.8,"uv_index":8.8,"wind_gusts":33.1,"aqi":64,"pm10":54.5,"pm2_5":25.7,"no2":5.6,"co":177.0,"o3":89.0,"so2":3.0,"mosquito_risk":0,"arthritis_risk":5,"migraine_risk":7,"frizz_risk":1,"updated_at":"2026-06-20T19:54:01.066472+05:30"},{"city":"Akola","state":"Maharashtra","latitude":20.7002,"longitude":77.0082,"temp":30.5,"humidity":61,"rain":0.0,"pressure":973.6,"uv_index":8.8,"wind_gusts":41.8,"aqi":53,"pm10":22.2,"pm2_5":14.7,"no2":6.5,"co":153.0,"o3":91.0,"so2":5.9,"mosquito_risk":3,"arthritis_risk":5,"migraine_risk":7,"frizz_risk":1,"updated_at":"2026-06-20T19:54:01.066480+05:30"},{"city":"Amravati","state":"Maharashtra","latitude":20.9374,"longitude":77.7796,"temp":33.8,"humidity":38,"rain":0.0,"pressure":965.7,"uv_index":8.8,"wind_gusts":45.7,"aqi":55,"pm10":22.6,"pm2_5":15.1,"no2":7.4,"co":212.0,"o3":87.0,"so2":6.1,"mosquito_risk":0,"arthritis_risk":5,"migraine_risk":7,"frizz_risk":1,"updated_at":"2026-06-20T19:54:01.066487+05:30"},{"city":"Latur","state":"Maharashtra","latitude":18.4088,"longitude":76.5604,"temp":33.0,"humidity":38,"rain":0.0,"pressure":938.8,"uv_index":8.95,"wind_gusts":34.6,"aqi":57,"pm10":25.7,"pm2_5":17.9,"no2":9.4,"co":222.0,"o3":86.0,"so2":3.2,"mosquito_risk":0,"arthritis_risk":5,"migraine_risk":7,"frizz_risk":1,"updated_at":"2026-06-20T19:54:01.066494+05:30"},{"city":"Nanded","state":"Maharashtra","latitude":19.1383,"longitude":77.3091,"temp":32.8,"humidity":47,"rain":0.0,"pressure":967.1,"uv_index":8.9,"wind_gusts":33.1,"aqi":64,"pm10":22.6,"pm2_5":16.1,"no2":9.3,"co":175.0,"o3":87.0,"so2":2.9,"mosquito_risk":0,"arthritis_risk":5,"migraine_risk":7,"frizz_risk":1,"updated_at":"2026-06-20T19:54:01.066501+05:30"},{"city":"Gulbarga","state":"Karnataka","latitude":17.3297,"longitude":76.8343,"temp":32.8,"humidity":41,"rain":0.0,"pressure":957.9,"uv_index":8.5,"wind_gusts":33.8,"aqi":70,"pm10":24.2,"pm2_5":17.6,"no2":14.3,"co":301.0,"o3":83.0,"so2":4.0,"mosquito_risk":0,"arthritis_risk":5,"migraine_risk":7,"frizz_risk":1,"updated_at":"2026-06-20T19:54:01.066507+05:30"},{"city":"Bidar","state":"Karnataka","latitude":17.9104,"longitude":77.5199,"temp":30.6,"humidity":51,"rain":0.0,"pressure":934.9,"uv_index":8.5,"wind_gusts":33.1,"aqi":73,"pm10":23.1,"pm2_5":20.3,"no2":14.9,"co":243.0,"o3":78.0,"so2":3.0,"mosquito_risk":0,"arthritis_risk":5,"migraine_risk":7,"frizz_risk":1,"updated_at":"2026-06-20T19:54:01.066513+05:30"},{"city":"Hospet","state":"Karnataka","latitude":15.2689,"longitude":76.3909,"temp":29.5,"humidity":52,"rain":0.0,"pressure":955.3,"uv_index":8.3,"wind_gusts":34.6,"aqi":51,"pm10":24.3,"pm2_5":14.5,"no2":7.3,"co":214.0,"o3":78.0,"so2":1.8,"mosquito_risk":4,"arthritis_risk":5,"migraine_risk":7,"frizz_risk":1,"updated_at":"2026-06-20T19:54:01.066520+05:30"},{"city":"Tirupur","state":"Tamil Nadu","latitude":11.1085,"longitude":77.3411,"temp":27.6,"humidity":71,"rain":0.0,"pressure":975.7,"uv_index":8.3,"wind_gusts":38.9,"aqi":68,"pm10":32.6,"pm2_5":22.1,"no2":14.3,"co":188.0,"o3":74.0,"so2":4.5,"mosquito_risk":7,"arthritis_risk":5,"migraine_risk":7,"frizz_risk":1,"updated_at":"2026-06-20T19:54:01.066526+05:30"},{"city":"Alappuzha","state":"Kerala","latitude":9.4981,"longitude":76.3388,"temp":28.0,"humidity":85,"rain":0.0,"pressure":1010.2,"uv_index":8.5,"wind_gusts":31.0,"aqi":77,"pm10":13.4,"pm2_5":9.7,"no2":10.4,"co":87.0,"o3":43.0,"so2":2.8,"mosquito_risk":7,"arthritis_risk":0,"migraine_risk":4,"frizz_risk":1,"updated_at":"2026-06-20T19:54:01.066532+05:30"},{"city":"Munnar","state":"Kerala","latitude":10.0889,"longitude":77.0595,"temp":16.6,"humidity":99,"rain":0.0,"pressure":857.3,"uv_index":8.95,"wind_gusts":29.5,"aqi":55,"pm10":34.7,"pm2_5":22.2,"no2":11.9,"co":157.0,"o3":54.0,"so2":2.7,"mosquito_risk":3,"arthritis_risk":10,"migraine_risk":7,"frizz_risk":1,"updated_at":"2026-06-20T19:54:01.066539+05:30"},{"city":"Silchar","state":"Assam","latitude":24.8333,"longitude":92.7789,"temp":25.7,"humidity":98,"rain":0.1,"pressure":1003.8,"uv_index":8.4,"wind_gusts":31.3,"aqi":90,"pm10":41.2,"pm2_5":35.7,"no2":9.6,"co":292.0,"o3":90.0,"so2":5.2,"mosquito_risk":10,"arthritis_risk":5,"migraine_risk":4,"frizz_risk":1,"updated_at":"2026-06-20T19:54:01.066546+05:30"},{"city":"Dibrugarh","state":"Assam","latitude":27.4728,"longitude":94.912,"temp":26.0,"humidity":97,"rain":0.0,"pressure":992.9,"uv_index":8.45,"wind_gusts":27.7,"aqi":83,"pm10":48.7,"pm2_5":37.3,"no2":10.2,"co":288.0,"o3":82.0,"so2":3.0,"mosquito_risk":7,"arthritis_risk":5,"migraine_risk":7,"frizz_risk":1,"updated_at":"2026-06-20T19:54:01.066553+05:30"}]