[{"city":"Delhi","state":"Delhi","latitude":28.6139,"longitude":77.209,"temp":15.2,"humidity":99,"rain":0.0,"pressure":988.9,"uv_index":5.9,"wind_gusts":28.1,"aqi":156,"pm10":120.1,"pm2_5":111.3,"mosquito_risk":3,"arthritis_risk":10,"migraine_risk":3,"frizz_risk":0,"updated_at":"2026-03-21T07:43:06.153796+05:30"},{"city":"Mumbai","state":"Maharashtra","latitude":19.076,"longitude":72.8777,"temp":25.9,"humidity":73,"rain":0.0,"pressure":1010.5,"uv_index":7.85,"wind_gusts":28.4,"aqi":80,"pm10":51.6,"pm2_5":26.6,"mosquito_risk":7,"arthritis_risk":0,"migraine_risk":4,"frizz_risk":1,"updated_at":"2026-03-21T07:43:06.153836+05:30"},{"city":"Bangalore","state":"Karnataka","latitude":12.9716,"longitude":77.5946,"temp":21.8,"humidity":85,"rain":0.0,"pressure":913.1,"uv_index":8.7,"wind_gusts":22.0,"aqi":87,"pm10":52.0,"pm2_5":48.3,"mosquito_risk":3,"arthritis_risk":5,"migraine_risk":7,"frizz_risk":1,"updated_at":"2026-03-21T07:43:06.153852+05:30"},{"city":"Hyderabad","state":"Telangana","latitude":17.385,"longitude":78.4867,"temp":23.1,"humidity":84,"rain":0.0,"pressure":954.7,"uv_index":8.4,"wind_gusts":21.6,"aqi":86,"pm10":29.3,"pm2_5":23.3,"mosquito_risk":3,"arthritis_risk":5,"migraine_risk":7,"frizz_risk":1,"updated_at":"2026-03-21T07:43:06.153862+05:30"},{"city":"Chennai","state":"Tamil Nadu","latitude":13.0827,"longitude":80.2707,"temp":27.1,"humidity":83,"rain":0.0,"pressure":1009.8,"uv_index":9.15,"wind_gusts":35.3,"aqi":39,"pm10":15.3,"pm2_5":11.6,"mosquito_risk":7,"arthritis_risk":0,"migraine_risk":4,"frizz_risk":1,"updated_at":"2026-03-21T07:43:06.153870+05:30"},{"city":"Kolkata","state":"West Bengal","latitude":22.5726,"longitude":88.3639,"temp":22.4,"humidity":88,"rain":0.0,"pressure":1010.9,"uv_index":6.9,"wind_gusts":21.6,"aqi":71,"pm10":12.4,"pm2_5":11.4,"mosquito_risk":3,"arthritis_risk":0,"migraine_risk":4,"frizz_risk":1,"updated_at":"2026-03-21T07:43:06.153879+05:30"},{"city":"Pune","state":"Maharashtra","latitude":18.5204,"longitude":73.8567,"temp":20.0,"humidity":88,"rain":0.0,"pressure":949.8,"uv_index":8.4,"wind_gusts":24.1,"aqi":88,"pm10":66.8,"pm2_5":50.3,"mosquito_risk":3,"arthritis_risk":5,"migraine_risk":7,"frizz_risk":1,"updated_at":"2026-03-21T07:43:06.153891+05:30"},{"city":"Ahmedabad","state":"Gujarat","latitude":23.0225,"longitude":72.5714,"temp":19.5,"humidity":75,"rain":0.0,"pressure":1005.8,"uv_index":7.45,"wind_gusts":19.8,"aqi":71,"pm10":27.5,"pm2_5":21.9,"mosquito_risk":3,"arthritis_risk":5,"migraine_risk":4,"frizz_risk":0,"updated_at":"2026-03-21T07:43:06.153899+05:30"},{"city":"Jaipur","state":"Rajasthan","latitude":26.9124,"longitude":75.7873,"temp":15.8,"humidity":95,"rain":0.0,"pressure":963.7,"uv_index":6.6,"wind_gusts":28.8,"aqi":71,"pm10":49.1,"pm2_5":30.6,"mosquito_risk":3,"arthritis_risk":10,"migraine_risk":7,"frizz_risk":0,"updated_at":"2026-03-21T07:43:06.153907+05:30"},{"city":"Lucknow","state":"Uttar Pradesh","latitude":26.8467,"longitude":80.9462,"temp":19.1,"humidity":89,"rain":0.0,"pressure":999.1,"uv_index":6.4,"wind_gusts":27.4,"aqi":120,"pm10":78.2,"pm2_5":50.6,"mosquito_risk":3,"arthritis_risk":10,"migraine_risk":7,"frizz_risk":1,"updated_at":"2026-03-21T07:43:06.153915+05:30"},{"city":"Kanpur","state":"Uttar Pradesh","latitude":26.4499,"longitude":80.3319,"temp":18.1,"humidity":94,"rain":0.0,"pressure":997.3,"uv_index":6.7,"wind_gusts":25.6,"aqi":126,"pm10":72.6,"pm2_5":43.4,"mosquito_risk":3,"arthritis_risk":10,"migraine_risk":7,"frizz_risk":1,"updated_at":"2026-03-21T07:43:06.153922+05:30"},{"city":"Chandigarh","state":"Chandigarh","latitude":30.7333,"longitude":76.7794,"temp":12.5,"humidity":90,"rain":0.0,"pressure":973.9,"uv_index":6.15,"wind_gusts":28.1,"aqi":80,"pm10":21.5,"pm2_5":20.5,"mosquito_risk":3,"arthritis_risk":10,"migraine_risk":7,"frizz_risk":0,"updated_at":"2026-03-21T07:43:06.153929+05:30"},{"city":"Srinagar","state":"Jammu and Kashmir","latitude":34.0837,"longitude":74.7973,"temp":4.7,"humidity":88,"rain":0.0,"pressure":840.5,"uv_index":6.75,"wind_gusts":13.7,"aqi":62,"pm10":12.9,"pm2_5":12.3,"mosquito_risk":3,"arthritis_risk":10,"migraine_risk":7,"frizz_risk":0,"updated_at":"2026-03-21T07:43:06.153937+05:30"},{"city":"Jammu","state":"Jammu and Kashmir","latitude":32.7266,"longitude":74.857,"temp":13.3,"humidity":92,"rain":0.0,"pressure":978.2,"uv_index":6.4,"wind_gusts":24.8,"aqi":86,"pm10":37.3,"pm2_5":33.4,"mosquito_risk":3,"arthritis_risk":10,"migraine_risk":7,"frizz_risk":0,"updated_at":"2026-03-21T07:43:06.153944+05:30"},{"city":"Amritsar","state":"Punjab","latitude":31.634,"longitude":74.8723,"temp":13.4,"humidity":98,"rain":0.0,"pressure":986.4,"uv_index":6.5,"wind_gusts":19.8,"aqi":96,"pm10":70.3,"pm2_5":56.1,"mosquito_risk":3,"arthritis_risk":10,"migraine_risk":7,"frizz_risk":0,"updated_at":"2026-03-21T07:43:06.153951+05:30"},{"city":"Ludhiana","state":"Punjab","latitude":30.901,"longitude":75.8573,"temp":13.8,"humidity":100,"rain":0.0,"pressure":984.5,"uv_index":5.2,"wind_gusts":25.2,"aqi":126,"pm10":57.7,"pm2_5":50.3,"mosquito_risk":3,"arthritis_risk":10,"migraine_risk":3,"frizz_risk":0,"updated_at":"2026-03-21T07:43:06.153958+05:30"},{"city":"Jalandhar","state":"Punjab","latitude":31.326,"longitude":75.5762,"temp":13.6,"humidity":98,"rain":0.0,"pressure":985.6,"uv_index":6.5,"wind_gusts":23.4,"aqi":109,"pm10":62.6,"pm2_5":56.3,"mosquito_risk":3,"arthritis_risk":10,"migraine_risk":7,"frizz_risk":0,"updated_at":"2026-03-21T07:43:06.153967+05:30"},{"city":"Dehradun","state":"Uttarakhand","latitude":30.6284,"longitude":78.0322,"temp":6.9,"humidity":78,"rain":0.0,"pressure":828.5,"uv_index":6.7,"wind_gusts":23.4,"aqi":38,"pm10":9.3,"pm2_5":8.4,"mosquito_risk":3,"arthritis_risk":5,"migraine_risk":7,"frizz_risk":0,"updated_at":"2026-03-21T07:43:06.153973+05:30"},{"city":"Shimla","state":"Himachal Pradesh","latitude":31.1048,"longitude":77.1734,"temp":4.8,"humidity":80,"rain":0.0,"pressure":780.7,"uv_index":6.45,"wind_gusts":32.8,"aqi":37,"pm10":9.3,"pm2_5":8.6,"mosquito_risk":3,"arthritis_risk":5,"migraine_risk":7,"frizz_risk":0,"updated_at":"2026-03-21T07:43:06.153979+05:30"},{"city":"Manali","state":"Himachal Pradesh","latitude":32.2396,"longitude":77.1887,"temp":8.0,"humidity":52,"rain":0.0,"pressure":815.0,"uv_index":8.4,"wind_gusts":29.2,"aqi":36,"pm10":1.6,"pm2_5":1.6,"mosquito_risk":0,"arthritis_risk":5,"migraine_risk":7,"frizz_risk":1,"updated_at":"2026-03-21T07:43:06.153986+05:30"},{"city":"Gurgaon","state":"Haryana","latitude":28.4595,"longitude":77.0266,"temp":14.4,"humidity":100,"rain":0.0,"pressure":987.4,"uv_index":5.8,"wind_gusts":23.8,"aqi":158,"pm10":157.9,"pm2_5":146.2,"mosquito_risk":3,"arthritis_risk":10,"migraine_risk":3,"frizz_risk":0,"updated_at":"2026-03-21T07:43:06.153993+05:30"},{"city":"Noida","state":"Uttar Pradesh","latitude":28.5355,"longitude":77.391,"temp":15.2,"humidity":100,"rain":0.0,"pressure":990.5,"uv_index":6.3,"wind_gusts":27.4,"aqi":158,"pm10":157.9,"pm2_5":146.2,"mosquito_risk":3,"arthritis_risk":10,"migraine_risk":7,"frizz_risk":0,"updated_at":"2026-03-21T07:43:06.153999+05:30"},{"city":"Ghaziabad","state":"Uttar Pradesh","latitude":28.6692,"longitude":77.4538,"temp":14.5,"humidity":100,"rain":0.0,"pressure":988.5,"uv_index":6.25,"wind_gusts":26.3,"aqi":157,"pm10":126.7,"pm2_5":116.9,"mosquito_risk":3,"arthritis_risk":10,"migraine_risk":7,"frizz_risk":0,"updated_at":"2026-03-21T07:43:06.154005+05:30"},{"city":"Faridabad","state":"Haryana","latitude":28.4089,"longitude":77.3178,"temp":14.7,"humidity":100,"rain":0.0,"pressure":989.7,"uv_index":6.2,"wind_gusts":26.3,"aqi":158,"pm10":157.9,"pm2_5":146.2,"mosquito_risk":3,"arthritis_risk":10,"migraine_risk":7,"frizz_risk":0,"updated_at":"2026-03-21T07:43:06.154014+05:30"},{"city":"Meerut","state":"Uttar Pradesh","latitude":28.9845,"longitude":77.7064,"temp":14.5,"humidity":99,"rain":0.0,"pressure":987.2,"uv_index":6.1,"wind_gusts":26.6,"aqi":157,"pm10":126.7,"pm2_5":116.9,"mosquito_risk":3,"arthritis_risk":10,"migraine_risk":7,"frizz_risk":0,"updated_at":"2026-03-21T07:43:06.154020+05:30"},{"city":"Agra","state":"Uttar Pradesh","latitude":27.1767,"longitude":78.0081,"temp":14.1,"humidity":100,"rain":0.0,"pressure":993.9,"uv_index":6.8,"wind_gusts":31.3,"aqi":150,"pm10":111.8,"pm2_5":95.7,"mosquito_risk":3,"arthritis_risk":10,"migraine_risk":7,"frizz_risk":0,"updated_at":"2026-03-21T07:43:06.154026+05:30"},{"city":"Varanasi","state":"Uttar Pradesh","latitude":25.3176,"longitude":82.9739,"temp":19.5,"humidity":91,"rain":0.0,"pressure":1003.1,"uv_index":6.05,"wind_gusts":25.9,"aqi":94,"pm10":46.9,"pm2_5":32.8,"mosquito_risk":3,"arthritis_risk":10,"migraine_risk":4,"frizz_risk":1,"updated_at":"2026-03-21T07:43:06.154035+05:30"},{"city":"Prayagraj","state":"Uttar Pradesh","latitude":25.4358,"longitude":81.8463,"temp":19.2,"humidity":90,"rain":0.0,"pressure":1001.3,"uv_index":6.8,"wind_gusts":27.0,"aqi":94,"pm10":52.9,"pm2_5":36.2,"mosquito_risk":3,"arthritis_risk":10,"migraine_risk":4,"frizz_risk":1,"updated_at":"2026-03-21T07:43:06.154042+05:30"},{"city":"Gorakhpur","state":"Uttar Pradesh","latitude":26.7606,"longitude":83.3732,"temp":17.9,"humidity":93,"rain":0.1,"pressure":1002.8,"uv_index":6.15,"wind_gusts":25.2,"aqi":127,"pm10":60.8,"pm2_5":44.8,"mosquito_risk":6,"arthritis_risk":10,"migraine_risk":4,"frizz_risk":1,"updated_at":"2026-03-21T07:43:06.154048+05:30"},{"city":"Bareilly","state":"Uttar Pradesh","latitude":28.367,"longitude":79.4304,"temp":17.0,"humidity":95,"rain":0.0,"pressure":992.3,"uv_index":6.2,"wind_gusts":23.0,"aqi":138,"pm10":101.3,"pm2_5":79.6,"mosquito_risk":3,"arthritis_risk":10,"migraine_risk":7,"frizz_risk":1,"updated_at":"2026-03-21T07:43:06.154057+05:30"},{"city":"Aligarh","state":"Uttar Pradesh","latitude":27.8974,"longitude":78.088,"temp":14.7,"humidity":100,"rain":0.0,"pressure":991.6,"uv_index":6.55,"wind_gusts":27.7,"aqi":155,"pm10":137.8,"pm2_5":129.9,"mosquito_risk":3,"arthritis_risk":10,"migraine_risk":7,"frizz_risk":0,"updated_at":"2026-03-21T07:43:06.154063+05:30"},{"city":"Moradabad","state":"Uttar Pradesh","latitude":28.8386,"longitude":78.7733,"temp":15.9,"humidity":97,"rain":0.0,"pressure":989.2,"uv_index":6.35,"wind_gusts":23.8,"aqi":150,"pm10":98.0,"pm2_5":79.6,"mosquito_risk":3,"arthritis_risk":10,"migraine_risk":7,"frizz_risk":0,"updated_at":"2026-03-21T07:43:06.154069+05:30"},{"city":"Saharanpur","state":"Uttar Pradesh","latitude":29.9637,"longitude":77.546,"temp":13.0,"humidity":100,"rain":0.0,"pressure":981.5,"uv_index":6.05,"wind_gusts":32.4,"aqi":153,"pm10":149.9,"pm2_5":142.5,"mosquito_risk":3,"arthritis_risk":10,"migraine_risk":7,"frizz_risk":0,"updated_at":"2026-03-21T07:43:06.154075+05:30"},{"city":"Jhansi","state":"Uttar Pradesh","latitude":25.4484,"longitude":78.5685,"temp":17.3,"humidity":92,"rain":0.0,"pressure":983.1,"uv_index":7.4,"wind_gusts":29.2,"aqi":117,"pm10":92.7,"pm2_5":67.1,"mosquito_risk":3,"arthritis_risk":10,"migraine_risk":7,"frizz_risk":0,"updated_at":"2026-03-21T07:43:09.516636+05:30"},{"city":"Surat","state":"Gujarat","latitude":21.1702,"longitude":72.8311,"temp":22.8,"humidity":93,"rain":0.0,"pressure":1009.8,"uv_index":7.55,"wind_gusts":27.0,"aqi":111,"pm10":70.5,"pm2_5":59.4,"mosquito_risk":3,"arthritis_risk":0,"migraine_risk":4,"frizz_risk":1,"updated_at":"2026-03-21T07:43:09.516668+05:30"},{"city":"Vadodara","state":"Gujarat","latitude":22.3072,"longitude":73.1812,"temp":20.2,"humidity":72,"rain":0.0,"pressure":1007.8,"uv_index":7.75,"wind_gusts":14.0,"aqi":75,"pm10":33.6,"pm2_5":25.6,"mosquito_risk":3,"arthritis_risk":5,"migraine_risk":4,"frizz_risk":0,"updated_at":"2026-03-21T07:43:09.516679+05:30"},{"city":"Rajkot","state":"Gujarat","latitude":22.3039,"longitude":70.8022,"temp":20.7,"humidity":90,"rain":0.0,"pressure":997.5,"uv_index":7.0,"wind_gusts":14.8,"aqi":70,"pm10":26.3,"pm2_5":18.9,"mosquito_risk":3,"arthritis_risk":5,"migraine_risk":7,"frizz_risk":1,"updated_at":"2026-03-21T07:43:09.516687+05:30"},{"city":"Thane","state":"Maharashtra","latitude":19.2183,"longitude":72.9781,"temp":22.4,"humidity":79,"rain":0.0,"pressure":1010.1,"uv_index":7.85,"wind_gusts":42.8,"aqi":80,"pm10":51.6,"pm2_5":26.6,"mosquito_risk":3,"arthritis_risk":0,"migraine_risk":4,"frizz_risk":1,"updated_at":"2026-03-21T07:43:09.516694+05:30"},{"city":"Nagpur","state":"Maharashtra","latitude":21.1458,"longitude":79.0882,"temp":22.3,"humidity":70,"rain":0.0,"pressure":977.1,"uv_index":8.3,"wind_gusts":24.5,"aqi":69,"pm10":39.1,"pm2_5":25.2,"mosquito_risk":3,"arthritis_risk":5,"migraine_risk":7,"frizz_risk":1,"updated_at":"2026-03-21T07:43:09.516701+05:30"},{"city":"Nashik","state":"Maharashtra","latitude":19.9975,"longitude":73.7898,"temp":19.7,"humidity":82,"rain":0.0,"pressure":947.3,"uv_index":8.05,"wind_gusts":20.9,"aqi":64,"pm10":56.3,"pm2_5":36.7,"mosquito_risk":3,"arthritis_risk":10,"migraine_risk":7,"frizz_risk":1,"updated_at":"2026-03-21T07:43:09.516708+05:30"},{"city":"Aurangabad","state":"Maharashtra","latitude":19.8762,"longitude":75.3433,"temp":20.7,"humidity":71,"rain":0.0,"pressure":946.3,"uv_index":8.6,"wind_gusts":23.4,"aqi":64,"pm10":39.7,"pm2_5":22.6,"mosquito_risk":3,"arthritis_risk":5,"migraine_risk":7,"frizz_risk":0,"updated_at":"2026-03-21T07:43:09.516714+05:30"},{"city":"Solapur","state":"Maharashtra","latitude":17.6599,"longitude":75.9064,"temp":22.7,"humidity":61,"rain":0.0,"pressure":959.2,"uv_index":8.75,"wind_gusts":30.2,"aqi":70,"pm10":24.9,"pm2_5":16.5,"mosquito_risk":3,"arthritis_risk":5,"migraine_risk":7,"frizz_risk":0,"updated_at":"2026-03-21T07:43:09.516722+05:30"},{"city":"Kolhapur","state":"Maharashtra","latitude":16.705,"longitude":74.2433,"temp":19.1,"humidity":70,"rain":0.0,"pressure":949.2,"uv_index":8.85,"wind_gusts":33.1,"aqi":79,"pm10":55.8,"pm2_5":48.8,"mosquito_risk":3,"arthritis_risk":5,"migraine_risk":7,"frizz_risk":0,"updated_at":"2026-03-21T07:43:09.516728+05:30"},{"city":"Goa","state":"Goa","latitude":15.2993,"longitude":74.124,"temp":22.9,"humidity":95,"rain":0.0,"pressure":999.2,"uv_index":8.85,"wind_gusts":35.6,"aqi":70,"pm10":43.1,"pm2_5":30.0,"mosquito_risk":3,"arthritis_risk":5,"migraine_risk":7,"frizz_risk":1,"updated_at":"2026-03-21T07:43:09.516735+05:30"},{"city":"Jodhpur","state":"Rajasthan","latitude":26.2389,"longitude":73.0243,"temp":20.5,"humidity":73,"rain":0.0,"pressure":987.0,"uv_index":6.55,"wind_gusts":24.1,"aqi":66,"pm10":52.3,"pm2_5":29.3,"mosquito_risk":3,"arthritis_risk":5,"migraine_risk":7,"frizz_risk":0,"updated_at":"2026-03-21T07:43:09.516742+05:30"},{"city":"Udaipur","state":"Rajasthan","latitude":24.5854,"longitude":73.7125,"temp":15.1,"humidity":76,"rain":0.0,"pressure":949.1,"uv_index":7.55,"wind_gusts":13.0,"aqi":54,"pm10":40.3,"pm2_5":15.8,"mosquito_risk":3,"arthritis_risk":5,"migraine_risk":7,"frizz_risk":0,"updated_at":"2026-03-21T07:43:09.516749+05:30"},{"city":"Kota","state":"Rajasthan","latitude":25.2138,"longitude":75.8648,"temp":17.6,"humidity":93,"rain":0.0,"pressure":983.4,"uv_index":7.5,"wind_gusts":19.1,"aqi":78,"pm10":64.3,"pm2_5":42.1,"mosquito_risk":3,"arthritis_risk":10,"migraine_risk":7,"frizz_risk":1,"updated_at":"2026-03-21T07:43:09.516755+05:30"},{"city":"Bikaner","state":"Rajasthan","latitude":28.0229,"longitude":73.3119,"temp":20.3,"humidity":63,"rain":0.0,"pressure":985.6,"uv_index":6.15,"wind_gusts":24.8,"aqi":56,"pm10":17.6,"pm2_5":15.1,"mosquito_risk":3,"arthritis_risk":5,"migraine_risk":7,"frizz_risk":0,"updated_at":"2026-03-21T07:43:09.516762+05:30"},{"city":"Ajmer","state":"Rajasthan","latitude":26.4499,"longitude":74.6399,"temp":18.7,"humidity":74,"rain":0.0,"pressure":957.8,"uv_index":7.2,"wind_gusts":22.3,"aqi":64,"pm10":65.7,"pm2_5":29.9,"mosquito_risk":3,"arthritis_risk":5,"migraine_risk":7,"frizz_risk":0,"updated_at":"2026-03-21T07:43:09.516768+05:30"},{"city":"Gwalior","state":"Madhya Pradesh","latitude":26.2183,"longitude":78.1828,"temp":16.6,"humidity":98,"rain":0.0,"pressure":988.6,"uv_index":7.1,"wind_gusts":27.7,"aqi":91,"pm10":61.7,"pm2_5":33.4,"mosquito_risk":3,"arthritis_risk":10,"migraine_risk":7,"frizz_risk":1,"updated_at":"2026-03-21T07:43:09.516774+05:30"},{"city":"Indore","state":"Madhya Pradesh","latitude":22.7196,"longitude":75.8577,"temp":17.3,"humidity":87,"rain":0.0,"pressure":950.8,"uv_index":7.95,"wind_gusts":23.8,"aqi":67,"pm10":44.1,"pm2_5":31.4,"mosquito_risk":3,"arthritis_risk":10,"migraine_risk":7,"frizz_risk":0,"updated_at":"2026-03-21T07:43:09.516780+05:30"},{"city":"Bhopal","state":"Madhya Pradesh","latitude":23.2599,"longitude":77.4126,"temp":17.4,"humidity":90,"rain":0.0,"pressure":957.3,"uv_index":7.9,"wind_gusts":25.2,"aqi":71,"pm10":53.8,"pm2_5":33.2,"mosquito_risk":3,"arthritis_risk":10,"migraine_risk":7,"frizz_risk":0,"updated_at":"2026-03-21T07:43:09.516787+05:30"},{"city":"Jabalpur","state":"Madhya Pradesh","latitude":23.1815,"longitude":79.9864,"temp":19.1,"humidity":86,"rain":0.0,"pressure":965.8,"uv_index":7.95,"wind_gusts":33.5,"aqi":62,"pm10":47.8,"pm2_5":31.0,"mosquito_risk":3,"arthritis_risk":10,"migraine_risk":7,"frizz_risk":1,"updated_at":"2026-03-21T07:43:09.516793+05:30"},{"city":"Ujjain","state":"Madhya Pradesh","latitude":23.1765,"longitude":75.7885,"temp":17.4,"humidity":89,"rain":0.0,"pressure":957.0,"uv_index":7.8,"wind_gusts":19.8,"aqi":66,"pm10":44.6,"pm2_5":34.2,"mosquito_risk":3,"arthritis_risk":10,"migraine_risk":7,"frizz_risk":0,"updated_at":"2026-03-21T07:43:09.516800+05:30"},{"city":"Visakhapatnam","state":"Andhra Pradesh","latitude":17.6868,"longitude":83.2185,"temp":23.0,"humidity":89,"rain":0.0,"pressure":1006.7,"uv_index":8.8,"wind_gusts":36.0,"aqi":70,"pm10":42.5,"pm2_5":38.2,"mosquito_risk":3,"arthritis_risk":5,"migraine_risk":4,"frizz_risk":1,"updated_at":"2026-03-21T07:43:09.516806+05:30"},{"city":"Vijayawada","state":"Andhra Pradesh","latitude":16.5062,"longitude":80.648,"temp":25.0,"humidity":90,"rain":0.0,"pressure":1005.2,"uv_index":8.85,"wind_gusts":28.4,"aqi":59,"pm10":24.3,"pm2_5":22.7,"mosquito_risk":7,"arthritis_risk":5,"migraine_risk":4,"frizz_risk":1,"updated_at":"2026-03-21T07:43:09.516813+05:30"},{"city":"Guntur","state":"Andhra Pradesh","latitude":16.3067,"longitude":80.4365,"temp":25.4,"humidity":91,"rain":0.0,"pressure":1006.3,"uv_index":8.85,"wind_gusts":21.2,"aqi":55,"pm10":16.2,"pm2_5":14.5,"mosquito_risk":7,"arthritis_risk":5,"migraine_risk":4,"frizz_risk":1,"updated_at":"2026-03-21T07:43:09.516820+05:30"},{"city":"Nellore","state":"Andhra Pradesh","latitude":14.4426,"longitude":79.9865,"temp":26.2,"humidity":88,"rain":0.0,"pressure":1008.4,"uv_index":9.05,"wind_gusts":37.1,"aqi":33,"pm10":12.8,"pm2_5":10.0,"mosquito_risk":7,"arthritis_risk":0,"migraine_risk":4,"frizz_risk":1,"updated_at":"2026-03-21T07:43:09.516827+05:30"},{"city":"Kurnool","state":"Andhra Pradesh","latitude":15.8281,"longitude":78.0373,"temp":25.3,"humidity":78,"rain":0.0,"pressure":978.9,"uv_index":8.9,"wind_gusts":26.6,"aqi":70,"pm10":13.9,"pm2_5":12.1,"mosquito_risk":7,"arthritis_risk":5,"migraine_risk":7,"frizz_risk":1,"updated_at":"2026-03-21T07:43:09.516835+05:30"},{"city":"Kakinada","state":"Andhra Pradesh","latitude":16.9891,"longitude":82.2475,"temp":23.2,"humidity":87,"rain":0.0,"pressure":1010.9,"uv_index":8.8,"wind_gusts":29.2,"aqi":47,"pm10":16.9,"pm2_5":14.1,"mosquito_risk":3,"arthritis_risk":0,"migraine_risk":4,"frizz_risk":1,"updated_at":"2026-03-21T07:43:09.516841+05:30"},{"city":"Tirupati","state":"Andhra Pradesh","latitude":13.6288,"longitude":79.4192,"temp":24.5,"humidity":88,"rain":0.0,"pressure":994.3,"uv_index":9.15,"wind_gusts":28.1,"aqi":67,"pm10":41.8,"pm2_5":40.4,"mosquito_risk":3,"arthritis_risk":5,"migraine_risk":7,"frizz_risk":1,"updated_at":"2026-03-21T07:43:09.516847+05:30"},{"city":"Warangal","state":"Telangana","latitude":17.9689,"longitude":79.5941,"temp":22.8,"humidity":80,"rain":0.0,"pressure":982.0,"uv_index":8.7,"wind_gusts":24.1,"aqi":115,"pm10":32.7,"pm2_5":31.3,"mosquito_risk":3,"arthritis_risk":5,"migraine_risk":7,"frizz_risk":1,"updated_at":"2026-03-21T07:43:09.516854+05:30"},{"city":"Nizamabad","state":"Telangana","latitude":18.6725,"longitude":78.0941,"temp":23.0,"humidity":83,"rain":0.0,"pressure":967.7,"uv_index":8.6,"wind_gusts":24.8,"aqi":98,"pm10":58.3,"pm2_5":48.8,"mosquito_risk":3,"arthritis_risk":5,"migraine_risk":7,"frizz_risk":1,"updated_at":"2026-03-21T07:43:09.516860+05:30"},{"city":"Mysore","state":"Karnataka","latitude":12.2958,"longitude":76.6396,"temp":21.4,"humidity":91,"rain":0.0,"pressure":929.7,"uv_index":9.4,"wind_gusts":36.4,"aqi":79,"pm10":47.1,"pm2_5":43.1,"mosquito_risk":3,"arthritis_risk":5,"migraine_risk":7,"frizz_risk":1,"updated_at":"2026-03-21T07:43:09.516867+05:30"},{"city":"Mangalore","state":"Karnataka","latitude":12.9141,"longitude":74.856,"temp":28.8,"humidity":75,"rain":0.0,"pressure":1008.0,"uv_index":9.05,"wind_gusts":29.5,"aqi":65,"pm10":36.2,"pm2_5":31.5,"mosquito_risk":7,"arthritis_risk":0,"migraine_risk":4,"frizz_risk":1,"updated_at":"2026-03-21T07:43:09.516873+05:30"},{"city":"Hubli-Dharwad","state":"Karnataka","latitude":15.3647,"longitude":75.124,"temp":21.8,"humidity":64,"rain":0.0,"pressure":942.1,"uv_index":9.05,"wind_gusts":35.6,"aqi":66,"pm10":23.9,"pm2_5":21.5,"mosquito_risk":3,"arthritis_risk":5,"migraine_risk":7,"frizz_risk":0,"updated_at":"2026-03-21T07:43:09.516880+05:30"},{"city":"Belgaum","state":"Karnataka","latitude":15.8497,"longitude":74.4977,"temp":19.8,"humidity":62,"rain":0.0,"pressure":926.4,"uv_index":9.1,"wind_gusts":36.0,"aqi":68,"pm10":36.3,"pm2_5":29.9,"mosquito_risk":3,"arthritis_risk":5,"migraine_risk":7,"frizz_risk":0,"updated_at":"2026-03-21T07:43:12.873088+05:30"},{"city":"Coimbatore","state":"Tamil Nadu","latitude":11.0168,"longitude":76.9558,"temp":23.0,"humidity":87,"rain":0.0,"pressure":963.5,"uv_index":9.35,"wind_gusts":40.3,"aqi":73,"pm10":40.4,"pm2_5":36.2,"mosquito_risk":3,"arthritis_risk":5,"migraine_risk":7,"frizz_risk":1,"updated_at":"2026-03-21T07:43:12.873118+05:30"},{"city":"Madurai","state":"Tamil Nadu","latitude":9.9252,"longitude":78.1198,"temp":24.0,"humidity":89,"rain":0.0,"pressure":995.2,"uv_index":9.35,"wind_gusts":37.4,"aqi":67,"pm10":36.8,"pm2_5":34.6,"mosquito_risk":3,"arthritis_risk":5,"migraine_risk":7,"frizz_risk":1,"updated_at":"2026-03-21T07:43:12.873130+05:30"},{"city":"Trichy","state":"Tamil Nadu","latitude":10.7905,"longitude":78.7047,"temp":25.3,"humidity":92,"rain":0.0,"pressure":1002.2,"uv_index":8.45,"wind_gusts":30.2,"aqi":63,"pm10":30.6,"pm2_5":29.8,"mosquito_risk":7,"arthritis_risk":5,"migraine_risk":4,"frizz_risk":1,"updated_at":"2026-03-21T07:43:12.873172+05:30"},{"city":"Salem","state":"Tamil Nadu","latitude":11.6643,"longitude":78.146,"temp":24.9,"humidity":91,"rain":0.0,"pressure":979.5,"uv_index":8.45,"wind_gusts":23.0,"aqi":80,"pm10":44.2,"pm2_5":42.0,"mosquito_risk":3,"arthritis_risk":5,"migraine_risk":7,"frizz_risk":1,"updated_at":"2026-03-21T07:43:12.873182+05:30"},{"city":"Tirunelveli","state":"Tamil Nadu","latitude":8.7139,"longitude":77.7567,"temp":23.6,"humidity":92,"rain":0.0,"pressure":1005.1,"uv_index":9.3,"wind_gusts":40.7,"aqi":87,"pm10":65.7,"pm2_5":59.8,"mosquito_risk":3,"arthritis_risk":5,"migraine_risk":4,"frizz_risk":1,"updated_at":"2026-03-21T07:43:12.873191+05:30"},{"city":"Vellore","state":"Tamil Nadu","latitude":12.9165,"longitude":79.1325,"temp":23.7,"humidity":92,"rain":0.0,"pressure":987.3,"uv_index":9.2,"wind_gusts":32.8,"aqi":88,"pm10":66.4,"pm2_5":64.3,"mosquito_risk":3,"arthritis_risk":5,"migraine_risk":7,"frizz_risk":1,"updated_at":"2026-03-21T07:43:12.873198+05:30"},{"city":"Erode","state":"Tamil Nadu","latitude":11.341,"longitude":77.7172,"temp":25.9,"humidity":86,"rain":0.0,"pressure":991.3,"uv_index":9.3,"wind_gusts":28.8,"aqi":63,"pm10":18.9,"pm2_5":18.3,"mosquito_risk":7,"arthritis_risk":5,"migraine_risk":7,"frizz_risk":1,"updated_at":"2026-03-21T07:43:12.873206+05:30"},{"city":"Kochi","state":"Kerala","latitude":9.9312,"longitude":76.2673,"temp":28.7,"humidity":72,"rain":0.0,"pressure":1009.8,"uv_index":9.15,"wind_gusts":30.6,"aqi":75,"pm10":35.9,"pm2_5":33.9,"mosquito_risk":7,"arthritis_risk":0,"migraine_risk":4,"frizz_risk":1,"updated_at":"2026-03-21T07:43:12.873213+05:30"},{"city":"Thiruvananthapuram","state":"Kerala","latitude":8.5241,"longitude":76.9366,"temp":27.8,"humidity":82,"rain":0.0,"pressure":1009.1,"uv_index":9.05,"wind_gusts":24.8,"aqi":63,"pm10":32.8,"pm2_5":28.3,"mosquito_risk":7,"arthritis_risk":0,"migraine_risk":4,"frizz_risk":1,"updated_at":"2026-03-21T07:43:12.873221+05:30"},{"city":"Kozhikode","state":"Kerala","latitude":11.2588,"longitude":75.7804,"temp":27.2,"humidity":83,"rain":0.0,"pressure":1009.4,"uv_index":9.1,"wind_gusts":29.5,"aqi":58,"pm10":28.3,"pm2_5":23.1,"mosquito_risk":7,"arthritis_risk":0,"migraine_risk":4,"frizz_risk":1,"updated_at":"2026-03-21T07:43:12.873228+05:30"},{"city":"Thrissur","state":"Kerala","latitude":10.5276,"longitude":76.2144,"temp":26.2,"humidity":88,"rain":0.0,"pressure":1008.4,"uv_index":9.15,"wind_gusts":34.6,"aqi":72,"pm10":40.3,"pm2_5":37.5,"mosquito_risk":7,"arthritis_risk":0,"migraine_risk":4,"frizz_risk":1,"updated_at":"2026-03-21T07:43:12.873235+05:30"},{"city":"Kannur","state":"Kerala","latitude":11.8745,"longitude":75.3704,"temp":27.0,"humidity":83,"rain":0.0,"pressure":1008.8,"uv_index":9.1,"wind_gusts":32.8,"aqi":64,"pm10":34.2,"pm2_5":31.7,"mosquito_risk":7,"arthritis_risk":0,"migraine_risk":4,"frizz_risk":1,"updated_at":"2026-03-21T07:43:12.873242+05:30"},{"city":"Patna","state":"Bihar","latitude":25.5941,"longitude":85.1376,"temp":21.0,"humidity":84,"rain":0.0,"pressure":1005.5,"uv_index":4.05,"wind_gusts":29.2,"aqi":150,"pm10":69.2,"pm2_5":56.3,"mosquito_risk":3,"arthritis_risk":5,"migraine_risk":0,"frizz_risk":1,"updated_at":"2026-03-21T07:43:12.873249+05:30"},{"city":"Gaya","state":"Bihar","latitude":24.7914,"longitude":85.0002,"temp":20.8,"humidity":91,"rain":0.0,"pressure":998.2,"uv_index":6.05,"wind_gusts":25.9,"aqi":115,"pm10":51.9,"pm2_5":42.0,"mosquito_risk":3,"arthritis_risk":5,"migraine_risk":7,"frizz_risk":1,"updated_at":"2026-03-21T07:43:12.873256+05:30"},{"city":"Muzaffarpur","state":"Bihar","latitude":26.1209,"longitude":85.3647,"temp":20.3,"humidity":88,"rain":0.0,"pressure":1005.7,"uv_index":2.65,"wind_gusts":28.1,"aqi":151,"pm10":66.8,"pm2_5":55.4,"mosquito_risk":3,"arthritis_risk":5,"migraine_risk":0,"frizz_risk":1,"updated_at":"2026-03-21T07:43:12.873262+05:30"},{"city":"Bhagalpur","state":"Bihar","latitude":25.2425,"longitude":87.0117,"temp":20.8,"humidity":90,"rain":0.0,"pressure":1007.2,"uv_index":2.55,"wind_gusts":27.4,"aqi":136,"pm10":40.5,"pm2_5":39.3,"mosquito_risk":3,"arthritis_risk":5,"migraine_risk":0,"frizz_risk":1,"updated_at":"2026-03-21T07:43:12.873269+05:30"},{"city":"Ranchi","state":"Jharkhand","latitude":23.3441,"longitude":85.3096,"temp":18.4,"humidity":87,"rain":0.0,"pressure":940.2,"uv_index":8.3,"wind_gusts":38.2,"aqi":94,"pm10":47.7,"pm2_5":36.9,"mosquito_risk":3,"arthritis_risk":10,"migraine_risk":7,"frizz_risk":1,"updated_at":"2026-03-21T07:43:12.873276+05:30"},{"city":"Jamshedpur","state":"Jharkhand","latitude":22.8046,"longitude":86.2029,"temp":22.2,"humidity":84,"rain":0.0,"pressure":995.1,"uv_index":8.2,"wind_gusts":30.6,"aqi":146,"pm10":77.8,"pm2_5":70.8,"mosquito_risk":3,"arthritis_risk":5,"migraine_risk":7,"frizz_risk":1,"updated_at":"2026-03-21T07:43:12.873282+05:30"},{"city":"Dhanbad","state":"Jharkhand","latitude":23.7957,"longitude":86.4304,"temp":21.8,"humidity":81,"rain":0.0,"pressure":983.9,"uv_index":7.0,"wind_gusts":29.2,"aqi":152,"pm10":75.4,"pm2_5":68.0,"mosquito_risk":3,"arthritis_risk":5,"migraine_risk":7,"frizz_risk":1,"updated_at":"2026-03-21T07:43:12.873289+05:30"},{"city":"Bokaro","state":"Jharkhand","latitude":23.6693,"longitude":86.1511,"temp":21.0,"humidity":83,"rain":0.0,"pressure":987.8,"uv_index":6.3,"wind_gusts":34.2,"aqi":134,"pm10":72.2,"pm2_5":63.8,"mosquito_risk":3,"arthritis_risk":5,"migraine_risk":7,"frizz_risk":1,"updated_at":"2026-03-21T07:43:12.873296+05:30"},{"city":"Bhubaneswar","state":"Odisha","latitude":20.2961,"longitude":85.8245,"temp":23.0,"humidity":86,"rain":0.0,"pressure":1006.9,"uv_index":8.55,"wind_gusts":29.5,"aqi":65,"pm10":34.6,"pm2_5":31.9,"mosquito_risk":3,"arthritis_risk":5,"migraine_risk":4,"frizz_risk":1,"updated_at":"2026-03-21T07:43:12.873302+05:30"},{"city":"Cuttack","state":"Odisha","latitude":20.4625,"longitude":85.8828,"temp":23.3,"humidity":85,"rain":0.0,"pressure":1008.9,"uv_index":8.6,"wind_gusts":24.8,"aqi":65,"pm10":34.6,"pm2_5":31.9,"mosquito_risk":3,"arthritis_risk":0,"migraine_risk":4,"frizz_risk":1,"updated_at":"2026-03-21T07:43:12.873309+05:30"},{"city":"Rourkela","state":"Odisha","latitude":22.2604,"longitude":84.8536,"temp":21.8,"humidity":80,"rain":0.0,"pressure":989.4,"uv_index":8.15,"wind_gusts":37.1,"aqi":108,"pm10":54.2,"pm2_5":43.0,"mosquito_risk":3,"arthritis_risk":5,"migraine_risk":7,"frizz_risk":1,"updated_at":"2026-03-21T07:43:12.873315+05:30"},{"city":"Raipur","state":"Chhattisgarh","latitude":21.2514,"longitude":81.6296,"temp":21.0,"humidity":78,"rain":0.0,"pressure":978.7,"uv_index":8.35,"wind_gusts":31.7,"aqi":122,"pm10":81.0,"pm2_5":72.4,"mosquito_risk":3,"arthritis_risk":5,"migraine_risk":7,"frizz_risk":1,"updated_at":"2026-03-21T07:43:12.873322+05:30"},{"city":"Bhilai","state":"Chhattisgarh","latitude":21.1938,"longitude":81.3509,"temp":21.1,"humidity":77,"rain":0.0,"pressure":978.9,"uv_index":8.35,"wind_gusts":30.2,"aqi":111,"pm10":67.5,"pm2_5":58.1,"mosquito_risk":3,"arthritis_risk":5,"migraine_risk":7,"frizz_risk":1,"updated_at":"2026-03-21T07:43:12.873329+05:30"},{"city":"Guwahati","state":"Assam","latitude":26.1158,"longitude":91.7086,"temp":22.1,"humidity":89,"rain":0.0,"pressure":1008.1,"uv_index":1.45,"wind_gusts":19.1,"aqi":93,"pm10":41.6,"pm2_5":32.8,"mosquito_risk":3,"arthritis_risk":0,"migraine_risk":0,"frizz_risk":1,"updated_at":"2026-03-21T07:43:12.873335+05:30"},{"city":"Agartala","state":"Tripura","latitude":23.8315,"longitude":91.2868,"temp":22.0,"humidity":88,"rain":0.0,"pressure":1012.4,"uv_index":6.65,"wind_gusts":25.2,"aqi":106,"pm10":49.1,"pm2_5":44.2,"mosquito_risk":3,"arthritis_risk":0,"migraine_risk":4,"frizz_risk":1,"updated_at":"2026-03-21T07:43:12.873342+05:30"},{"city":"Shillong","state":"Meghalaya","latitude":25.5788,"longitude":91.8933,"temp":13.4,"humidity":70,"rain":0.0,"pressure":859.0,"uv_index":3.45,"wind_gusts":21.6,"aqi":75,"pm10":35.5,"pm2_5":23.1,"mosquito_risk":3,"arthritis_risk":5,"migraine_risk":3,"frizz_risk":0,"updated_at":"2026-03-21T07:43:12.873349+05:30"},{"city":"Imphal","state":"Manipur","latitude":24.817,"longitude":93.9368,"temp":18.0,"humidity":70,"rain":0.0,"pressure":927.5,"uv_index":7.25,"wind_gusts":28.8,"aqi":85,"pm10":48.0,"pm2_5":35.4,"mosquito_risk":3,"arthritis_risk":5,"migraine_risk":7,"frizz_risk":0,"updated_at":"2026-03-21T07:43:12.873356+05:30"},{"city":"Aizawl","state":"Mizoram","latitude":23.7271,"longitude":92.7176,"temp":17.7,"humidity":72,"rain":0.0,"pressure":895.7,"uv_index":6.75,"wind_gusts":33.8,"aqi":102,"pm10":46.4,"pm2_5":38.1,"mosquito_risk":3,"arthritis_risk":5,"migraine_risk":7,"frizz_risk":0,"updated_at":"2026-03-21T07:43:12.873362+05:30"},{"city":"Kohima","state":"Nagaland","latitude":25.6701,"longitude":94.1077,"temp":15.8,"humidity":62,"rain":0.0,"pressure":858.6,"uv_index":7.35,"wind_gusts":59.8,"aqi":73,"pm10":39.5,"pm2_5":22.7,"mosquito_risk":3,"arthritis_risk":5,"migraine_risk":7,"frizz_risk":0,"updated_at":"2026-03-21T07:43:12.873369+05:30"},{"city":"Gangtok","state":"Sikkim","latitude":27.3314,"longitude":88.6138,"temp":10.5,"humidity":91,"rain":0.1,"pressure":838.2,"uv_index":1.5,"wind_gusts":16.6,"aqi":92,"pm10":15.1,"pm2_5":12.5,"mosquito_risk":6,"arthritis_risk":10,"migraine_risk":3,"frizz_risk":0,"updated_at":"2026-03-21T07:43:12.873376+05:30"},{"city":"Siliguri","state":"West Bengal","latitude":26.7271,"longitude":88.3953,"temp":19.0,"humidity":71,"rain":0.0,"pressure":999.3,"uv_index":3.65,"wind_gusts":30.6,"aqi":91,"pm10":26.3,"pm2_5":22.8,"mosquito_risk":3,"arthritis_risk":5,"migraine_risk":3,"frizz_risk":0,"updated_at":"2026-03-21T07:43:16.232767+05:30"},{"city":"Durgapur","state":"West Bengal","latitude":23.5204,"longitude":87.3119,"temp":21.8,"humidity":89,"rain":0.0,"pressure":999.8,"uv_index":7.2,"wind_gusts":21.2,"aqi":152,"pm10":58.0,"pm2_5":54.9,"mosquito_risk":3,"arthritis_risk":5,"migraine_risk":7,"frizz_risk":1,"updated_at":"2026-03-21T07:43:16.232796+05:30"},{"city":"Asansol","state":"West Bengal","latitude":23.6739,"longitude":86.9524,"temp":22.1,"humidity":86,"rain":0.0,"pressure":998.4,"uv_index":7.2,"wind_gusts":22.3,"aqi":152,"pm10":68.0,"pm2_5":62.2,"mosquito_risk":3,"arthritis_risk":5,"migraine_risk":7,"frizz_risk":1,"updated_at":"2026-03-21T07:43:16.232805+05:30"},{"city":"Pondicherry","state":"Puducherry","latitude":11.9139,"longitude":79.8145,"temp":26.3,"humidity":93,"rain":0.0,"pressure":1011.1,"uv_index":9.15,"wind_gusts":28.4,"aqi":48,"pm10":11.5,"pm2_5":8.1,"mosquito_risk":7,"arthritis_risk":0,"migraine_risk":4,"frizz_risk":1,"updated_at":"2026-03-21T07:43:16.232813+05:30"},{"city":"Port Blair","state":"Andaman and Nicobar Islands","latitude":11.6234,"longitude":92.7265,"temp":27.9,"humidity":79,"rain":0.0,"pressure":1009.8,"uv_index":9.1,"wind_gusts":15.5,"aqi":52,"pm10":20.4,"pm2_5":15.4,"mosquito_risk":7,"arthritis_risk":0,"migraine_risk":4,"frizz_risk":1,"updated_at":"2026-03-21T07:43:16.232821+05:30"},{"city":"Haridwar","state":"Uttarakhand","latitude":29.9457,"longitude":78.1642,"temp":14.3,"humidity":94,"rain":0.0,"pressure":979.2,"uv_index":6.1,"wind_gusts":28.4,"aqi":97,"pm10":47.4,"pm2_5":43.3,"mosquito_risk":3,"arthritis_risk":10,"migraine_risk":7,"frizz_risk":0,"updated_at":"2026-03-21T07:43:16.232829+05:30"},{"city":"Rishikesh","state":"Uttarakhand","latitude":30.0869,"longitude":78.2676,"temp":14.0,"humidity":85,"rain":0.0,"pressure":971.5,"uv_index":6.2,"wind_gusts":25.2,"aqi":64,"pm10":25.6,"pm2_5":19.1,"mosquito_risk":3,"arthritis_risk":10,"migraine_risk":7,"frizz_risk":0,"updated_at":"2026-03-21T07:43:16.232837+05:30"},{"city":"Nainital","state":"Uttarakhand","latitude":29.3919,"longitude":79.4542,"temp":11.2,"humidity":87,"rain":0.0,"pressure":804.7,"uv_index":6.85,"wind_gusts":40.3,"aqi":73,"pm10":13.0,"pm2_5":9.3,"mosquito_risk":3,"arthritis_risk":10,"migraine_risk":7,"frizz_risk":0,"updated_at":"2026-03-21T07:43:16.232844+05:30"},{"city":"Mussoorie","state":"Uttarakhand","latitude":30.4599,"longitude":78.0664,"temp":8.3,"humidity":73,"rain":0.0,"pressure":800.7,"uv_index":6.6,"wind_gusts":25.6,"aqi":60,"pm10":17.6,"pm2_5":17.3,"mosquito_risk":3,"arthritis_risk":5,"migraine_risk":7,"frizz_risk":0,"updated_at":"2026-03-21T07:43:16.232851+05:30"},{"city":"Dharamshala","state":"Himachal Pradesh","latitude":32.219,"longitude":76.3234,"temp":11.9,"humidity":49,"rain":0.0,"pressure":869.1,"uv_index":6.7,"wind_gusts":20.5,"aqi":37,"pm10":4.6,"pm2_5":4.5,"mosquito_risk":0,"arthritis_risk":5,"migraine_risk":7,"frizz_risk":0,"updated_at":"2026-03-21T07:43:16.232858+05:30"},{"city":"Dalhousie","state":"Himachal Pradesh","latitude":32.5387,"longitude":75.971,"temp":7.8,"humidity":57,"rain":0.0,"pressure":801.5,"uv_index":6.4,"wind_gusts":21.2,"aqi":70,"pm10":34.6,"pm2_5":27.9,"mosquito_risk":0,"arthritis_risk":5,"migraine_risk":7,"frizz_risk":1,"updated_at":"2026-03-21T07:43:16.232865+05:30"},{"city":"Patiala","state":"Punjab","latitude":30.3398,"longitude":76.3869,"temp":14.1,"humidity":100,"rain":0.0,"pressure":984.0,"uv_index":5.95,"wind_gusts":25.6,"aqi":127,"pm10":102.2,"pm2_5":97.1,"mosquito_risk":3,"arthritis_risk":10,"migraine_risk":3,"frizz_risk":0,"updated_at":"2026-03-21T07:43:16.232872+05:30"},{"city":"Bhatinda","state":"Punjab","latitude":30.211,"longitude":74.9455,"temp":14.1,"humidity":95,"rain":0.0,"pressure":989.4,"uv_index":5.9,"wind_gusts":20.2,"aqi":133,"pm10":85.4,"pm2_5":68.2,"mosquito_risk":3,"arthritis_risk":10,"migraine_risk":3,"frizz_risk":0,"updated_at":"2026-03-21T07:43:16.232879+05:30"},{"city":"Rohtak","state":"Haryana","latitude":28.8955,"longitude":76.6066,"temp":14.1,"humidity":100,"rain":0.0,"pressure":987.7,"uv_index":5.75,"wind_gusts":24.5,"aqi":154,"pm10":138.3,"pm2_5":128.5,"mosquito_risk":3,"arthritis_risk":10,"migraine_risk":3,"frizz_risk":0,"updated_at":"2026-03-21T07:43:16.232885+05:30"},{"city":"Panipat","state":"Haryana","latitude":29.3909,"longitude":76.9635,"temp":13.8,"humidity":100,"rain":0.0,"pressure":986.3,"uv_index":5.8,"wind_gusts":25.6,"aqi":154,"pm10":115.0,"pm2_5":105.9,"mosquito_risk":3,"arthritis_risk":10,"migraine_risk":3,"frizz_risk":0,"updated_at":"2026-03-21T07:43:16.232892+05:30"},{"city":"Mathura","state":"Uttar Pradesh","latitude":27.4924,"longitude":77.6737,"temp":14.4,"humidity":100,"rain":0.0,"pressure":993.2,"uv_index":6.7,"wind_gusts":27.4,"aqi":125,"pm10":113.9,"pm2_5":105.5,"mosquito_risk":3,"arthritis_risk":10,"migraine_risk":7,"frizz_risk":0,"updated_at":"2026-03-21T07:43:16.232898+05:30"},{"city":"Vrindavan","state":"Uttar Pradesh","latitude":27.5823,"longitude":77.7027,"temp":14.7,"humidity":100,"rain":0.0,"pressure":993.6,"uv_index":6.65,"wind_gusts":29.2,"aqi":125,"pm10":113.9,"pm2_5":105.5,"mosquito_risk":3,"arthritis_risk":10,"migraine_risk":7,"frizz_risk":0,"updated_at":"2026-03-21T07:43:16.232904+05:30"},{"city":"Ayodhya","state":"Uttar Pradesh","latitude":26.7922,"longitude":82.1998,"temp":18.9,"humidity":90,"rain":0.0,"pressure":1001.1,"uv_index":6.9,"wind_gusts":22.0,"aqi":109,"pm10":56.0,"pm2_5":38.6,"mosquito_risk":3,"arthritis_risk":10,"migraine_risk":4,"frizz_risk":1,"updated_at":"2026-03-21T07:43:16.232910+05:30"},{"city":"Ratlam","state":"Madhya Pradesh","latitude":23.3315,"longitude":75.0367,"temp":18.2,"humidity":86,"rain":0.0,"pressure":957.5,"uv_index":7.25,"wind_gusts":23.4,"aqi":63,"pm10":37.0,"pm2_5":27.0,"mosquito_risk":3,"arthritis_risk":10,"migraine_risk":7,"frizz_risk":0,"updated_at":"2026-03-21T07:43:16.232916+05:30"},{"city":"Sagar","state":"Madhya Pradesh","latitude":23.8388,"longitude":78.7378,"temp":17.2,"humidity":89,"rain":0.0,"pressure":954.0,"uv_index":7.85,"wind_gusts":29.2,"aqi":87,"pm10":76.8,"pm2_5":52.6,"mosquito_risk":3,"arthritis_risk":10,"migraine_risk":7,"frizz_risk":0,"updated_at":"2026-03-21T07:43:16.232922+05:30"},{"city":"Satna","state":"Madhya Pradesh","latitude":24.6005,"longitude":80.8322,"temp":18.8,"humidity":90,"rain":0.0,"pressure":975.7,"uv_index":7.8,"wind_gusts":32.8,"aqi":76,"pm10":46.4,"pm2_5":29.8,"mosquito_risk":3,"arthritis_risk":10,"migraine_risk":7,"frizz_risk":1,"updated_at":"2026-03-21T07:43:16.232928+05:30"},{"city":"Akola","state":"Maharashtra","latitude":20.7002,"longitude":77.0082,"temp":21.7,"humidity":69,"rain":0.0,"pressure":978.6,"uv_index":8.25,"wind_gusts":21.6,"aqi":65,"pm10":37.3,"pm2_5":24.0,"mosquito_risk":3,"arthritis_risk":5,"migraine_risk":7,"frizz_risk":0,"updated_at":"2026-03-21T07:43:16.232935+05:30"},{"city":"Amravati","state":"Maharashtra","latitude":20.9374,"longitude":77.7796,"temp":21.8,"humidity":66,"rain":0.0,"pressure":970.6,"uv_index":8.3,"wind_gusts":23.4,"aqi":66,"pm10":43.8,"pm2_5":25.3,"mosquito_risk":3,"arthritis_risk":5,"migraine_risk":7,"frizz_risk":0,"updated_at":"2026-03-21T07:43:16.232942+05:30"},{"city":"Latur","state":"Maharashtra","latitude":18.4088,"longitude":76.5604,"temp":20.9,"humidity":67,"rain":0.0,"pressure":941.8,"uv_index":8.65,"wind_gusts":33.8,"aqi":78,"pm10":29.7,"pm2_5":18.5,"mosquito_risk":3,"arthritis_risk":5,"migraine_risk":7,"frizz_risk":0,"updated_at":"2026-03-21T07:43:16.232948+05:30"},{"city":"Nanded","state":"Maharashtra","latitude":19.1383,"longitude":77.3091,"temp":23.6,"humidity":62,"rain":0.0,"pressure":971.7,"uv_index":8.5,"wind_gusts":25.9,"aqi":68,"pm10":32.9,"pm2_5":20.3,"mosquito_risk":3,"arthritis_risk":5,"migraine_risk":7,"frizz_risk":0,"updated_at":"2026-03-21T07:43:16.232955+05:30"},{"city":"Gulbarga","state":"Karnataka","latitude":17.3297,"longitude":76.8343,"temp":24.5,"humidity":53,"rain":0.0,"pressure":960.7,"uv_index":8.75,"wind_gusts":43.9,"aqi":69,"pm10":31.3,"pm2_5":27.9,"mosquito_risk":0,"arthritis_risk":5,"migraine_risk":7,"frizz_risk":0,"updated_at":"2026-03-21T07:43:16.232961+05:30"},{"city":"Bidar","state":"Karnataka","latitude":17.9104,"longitude":77.5199,"temp":22.2,"humidity":77,"rain":0.0,"pressure":937.3,"uv_index":8.75,"wind_gusts":34.6,"aqi":85,"pm10":41.4,"pm2_5":36.3,"mosquito_risk":3,"arthritis_risk":5,"migraine_risk":7,"frizz_risk":1,"updated_at":"2026-03-21T07:43:16.232967+05:30"},{"city":"Hospet","state":"Karnataka","latitude":15.2689,"longitude":76.3909,"temp":24.0,"humidity":62,"rain":0.0,"pressure":957.5,"uv_index":9.0,"wind_gusts":20.2,"aqi":76,"pm10":31.9,"pm2_5":29.8,"mosquito_risk":3,"arthritis_risk":5,"migraine_risk":7,"frizz_risk":1,"updated_at":"2026-03-21T07:43:16.232973+05:30"},{"city":"Tirupur","state":"Tamil Nadu","latitude":11.1085,"longitude":77.3411,"temp":24.7,"humidity":78,"rain":0.0,"pressure":977.3,"uv_index":9.4,"wind_gusts":33.8,"aqi":79,"pm10":36.8,"pm2_5":34.2,"mosquito_risk":3,"arthritis_risk":5,"migraine_risk":7,"frizz_risk":1,"updated_at":"2026-03-21T07:43:16.232979+05:30"},{"city":"Alappuzha","state":"Kerala","latitude":9.4981,"longitude":76.3388,"temp":28.4,"humidity":76,"rain":0.0,"pressure":1009.9,"uv_index":9.1,"wind_gusts":27.4,"aqi":75,"pm10":43.1,"pm2_5":38.3,"mosquito_risk":7,"arthritis_risk":0,"migraine_risk":4,"frizz_risk":1,"updated_at":"2026-03-21T07:43:16.232985+05:30"},{"city":"Munnar","state":"Kerala","latitude":10.0889,"longitude":77.0595,"temp":19.9,"humidity":79,"rain":0.0,"pressure":857.2,"uv_index":9.65,"wind_gusts":26.3,"aqi":62,"pm10":36.0,"pm2_5":32.4,"mosquito_risk":3,"arthritis_risk":5,"migraine_risk":7,"frizz_risk":1,"updated_at":"2026-03-21T07:43:16.232992+05:30"},{"city":"Silchar","state":"Assam","latitude":24.8333,"longitude":92.7789,"temp":22.6,"humidity":75,"rain":0.0,"pressure":1010.3,"uv_index":6.85,"wind_gusts":22.7,"aqi":88,"pm10":32.5,"pm2_5":28.9,"mosquito_risk":3,"arthritis_risk":0,"migraine_risk":4,"frizz_risk":1,"updated_at":"2026-03-21T07:43:16.232998+05:30"},{"city":"Dibrugarh","state":"Assam","latitude":27.4728,"longitude":94.912,"temp":22.0,"humidity":81,"rain":0.0,"pressure":1001.9,"uv_index":7.25,"wind_gusts":17.3,"aqi":94,"pm10":27.2,"pm2_5":21.4,"mosquito_risk":3,"arthritis_risk":5,"migraine_risk":4,"frizz_risk":1,"updated_at":"2026-03-21T07:43:16.233004+05:30"}]