[{"city":"Delhi","state":"Delhi","latitude":28.6139,"longitude":77.209,"temp":29.2,"humidity":67,"rain":0.0,"pressure":978.1,"uv_index":7.7,"wind_gusts":36.7,"aqi":206,"pm10":187.7,"pm2_5":82.4,"no2":45.0,"co":268.0,"o3":12.0,"so2":17.9,"mosquito_risk":7,"arthritis_risk":5,"migraine_risk":7,"frizz_risk":1,"updated_at":"2026-07-16T05:30:31.324432+05:30"},{"city":"Mumbai","state":"Maharashtra","latitude":19.076,"longitude":72.8777,"temp":25.6,"humidity":91,"rain":0.0,"pressure":1007.3,"uv_index":7.45,"wind_gusts":34.6,"aqi":68,"pm10":38.3,"pm2_5":16.2,"no2":7.8,"co":133.0,"o3":41.0,"so2":7.8,"mosquito_risk":7,"arthritis_risk":5,"migraine_risk":4,"frizz_risk":1,"updated_at":"2026-07-16T05:30:31.324482+05:30"},{"city":"Bangalore","state":"Karnataka","latitude":12.9716,"longitude":77.5946,"temp":19.7,"humidity":91,"rain":0.0,"pressure":911.5,"uv_index":8.7,"wind_gusts":42.1,"aqi":55,"pm10":24.0,"pm2_5":15.1,"no2":13.9,"co":224.0,"o3":37.0,"so2":5.5,"mosquito_risk":3,"arthritis_risk":10,"migraine_risk":7,"frizz_risk":1,"updated_at":"2026-07-16T05:30:31.324499+05:30"},{"city":"Hyderabad","state":"Telangana","latitude":17.385,"longitude":78.4867,"temp":25.5,"humidity":73,"rain":0.0,"pressure":951.7,"uv_index":6.55,"wind_gusts":42.1,"aqi":67,"pm10":20.3,"pm2_5":13.0,"no2":8.3,"co":165.0,"o3":48.0,"so2":5.2,"mosquito_risk":7,"arthritis_risk":5,"migraine_risk":7,"frizz_risk":1,"updated_at":"2026-07-16T05:30:31.324509+05:30"},{"city":"Chennai","state":"Tamil Nadu","latitude":13.0827,"longitude":80.2707,"temp":29.0,"humidity":62,"rain":0.0,"pressure":1005.5,"uv_index":8.2,"wind_gusts":37.8,"aqi":79,"pm10":24.9,"pm2_5":20.3,"no2":19.6,"co":291.0,"o3":40.0,"so2":11.3,"mosquito_risk":7,"arthritis_risk":5,"migraine_risk":4,"frizz_risk":1,"updated_at":"2026-07-16T05:30:31.324518+05:30"},{"city":"Kolkata","state":"West Bengal","latitude":22.5726,"longitude":88.3639,"temp":26.6,"humidity":90,"rain":0.0,"pressure":998.4,"uv_index":7.2,"wind_gusts":49.0,"aqi":67,"pm10":22.1,"pm2_5":17.1,"no2":8.3,"co":235.0,"o3":81.0,"so2":7.6,"mosquito_risk":7,"arthritis_risk":5,"migraine_risk":7,"frizz_risk":1,"updated_at":"2026-07-16T05:30:31.324526+05:30"},{"city":"Pune","state":"Maharashtra","latitude":18.5204,"longitude":73.8567,"temp":23.0,"humidity":87,"rain":0.0,"pressure":946.5,"uv_index":8.1,"wind_gusts":38.5,"aqi":52,"pm10":13.9,"pm2_5":8.7,"no2":9.3,"co":138.0,"o3":32.0,"so2":7.8,"mosquito_risk":3,"arthritis_risk":5,"migraine_risk":7,"frizz_risk":1,"updated_at":"2026-07-16T05:30:31.324533+05:30"},{"city":"Ahmedabad","state":"Gujarat","latitude":23.0225,"longitude":72.5714,"temp":26.9,"humidity":83,"rain":0.0,"pressure":999.6,"uv_index":7.0,"wind_gusts":36.7,"aqi":73,"pm10":48.4,"pm2_5":29.7,"no2":15.1,"co":234.0,"o3":21.0,"so2":4.6,"mosquito_risk":7,"arthritis_risk":5,"migraine_risk":7,"frizz_risk":1,"updated_at":"2026-07-16T05:30:31.324540+05:30"},{"city":"Jaipur","state":"Rajasthan","latitude":26.9124,"longitude":75.7873,"temp":28.3,"humidity":61,"rain":0.0,"pressure":956.3,"uv_index":8.2,"wind_gusts":37.1,"aqi":179,"pm10":495.5,"pm2_5":85.2,"no2":10.4,"co":171.0,"o3":47.0,"so2":4.4,"mosquito_risk":7,"arthritis_risk":5,"migraine_risk":7,"frizz_risk":1,"updated_at":"2026-07-16T05:30:31.324547+05:30"},{"city":"Lucknow","state":"Uttar Pradesh","latitude":26.8467,"longitude":80.9462,"temp":28.3,"humidity":84,"rain":0.0,"pressure":988.5,"uv_index":7.55,"wind_gusts":36.0,"aqi":163,"pm10":143.0,"pm2_5":72.4,"no2":17.5,"co":339.0,"o3":58.0,"so2":7.4,"mosquito_risk":7,"arthritis_risk":5,"migraine_risk":7,"frizz_risk":1,"updated_at":"2026-07-16T05:30:31.324559+05:30"},{"city":"Kanpur","state":"Uttar Pradesh","latitude":26.4499,"longitude":80.3319,"temp":28.7,"humidity":74,"rain":0.0,"pressure":987.0,"uv_index":7.6,"wind_gusts":33.5,"aqi":160,"pm10":156.0,"pm2_5":70.1,"no2":17.2,"co":248.0,"o3":51.0,"so2":6.6,"mosquito_risk":7,"arthritis_risk":5,"migraine_risk":7,"frizz_risk":1,"updated_at":"2026-07-16T05:30:31.324566+05:30"},{"city":"Chandigarh","state":"Chandigarh","latitude":30.7333,"longitude":76.7794,"temp":25.9,"humidity":84,"rain":0.0,"pressure":963.7,"uv_index":7.7,"wind_gusts":30.2,"aqi":159,"pm10":93.1,"pm2_5":83.1,"no2":38.2,"co":577.0,"o3":24.0,"so2":7.7,"mosquito_risk":7,"arthritis_risk":5,"migraine_risk":7,"frizz_risk":1,"updated_at":"2026-07-16T05:30:31.324573+05:30"},{"city":"Srinagar","state":"Jammu and Kashmir","latitude":34.0837,"longitude":74.7973,"temp":17.1,"humidity":95,"rain":0.0,"pressure":838.9,"uv_index":9.0,"wind_gusts":16.6,"aqi":93,"pm10":44.0,"pm2_5":41.0,"no2":27.6,"co":396.0,"o3":4.0,"so2":1.4,"mosquito_risk":3,"arthritis_risk":10,"migraine_risk":7,"frizz_risk":1,"updated_at":"2026-07-16T05:30:31.324580+05:30"},{"city":"Jammu","state":"Jammu and Kashmir","latitude":32.7266,"longitude":74.857,"temp":24.6,"humidity":89,"rain":0.0,"pressure":968.0,"uv_index":8.55,"wind_gusts":22.0,"aqi":153,"pm10":72.9,"pm2_5":66.8,"no2":49.8,"co":536.0,"o3":4.0,"so2":3.4,"mosquito_risk":3,"arthritis_risk":5,"migraine_risk":7,"frizz_risk":1,"updated_at":"2026-07-16T05:30:31.324587+05:30"},{"city":"Amritsar","state":"Punjab","latitude":31.634,"longitude":74.8723,"temp":27.1,"humidity":89,"rain":0.0,"pressure":975.9,"uv_index":7.65,"wind_gusts":18.7,"aqi":176,"pm10":136.4,"pm2_5":122.9,"no2":63.6,"co":1024.0,"o3":18.0,"so2":10.3,"mosquito_risk":7,"arthritis_risk":5,"migraine_risk":7,"frizz_risk":1,"updated_at":"2026-07-16T05:30:31.324594+05:30"},{"city":"Ludhiana","state":"Punjab","latitude":30.901,"longitude":75.8573,"temp":27.5,"humidity":86,"rain":0.0,"pressure":973.8,"uv_index":7.95,"wind_gusts":30.6,"aqi":179,"pm10":224.0,"pm2_5":140.6,"no2":69.3,"co":1302.0,"o3":2.0,"so2":10.9,"mosquito_risk":7,"arthritis_risk":5,"migraine_risk":7,"frizz_risk":1,"updated_at":"2026-07-16T05:30:31.324601+05:30"},{"city":"Jalandhar","state":"Punjab","latitude":31.326,"longitude":75.5762,"temp":26.8,"humidity":88,"rain":0.0,"pressure":974.9,"uv_index":8.2,"wind_gusts":25.6,"aqi":184,"pm10":236.6,"pm2_5":174.6,"no2":68.2,"co":1241.0,"o3":0.0,"so2":9.8,"mosquito_risk":7,"arthritis_risk":5,"migraine_risk":7,"frizz_risk":1,"updated_at":"2026-07-16T05:30:31.324608+05:30"},{"city":"Dehradun","state":"Uttarakhand","latitude":30.6284,"longitude":78.0322,"temp":17.0,"humidity":100,"rain":0.0,"pressure":827.5,"uv_index":7.05,"wind_gusts":28.8,"aqi":82,"pm10":20.4,"pm2_5":18.0,"no2":14.8,"co":349.0,"o3":40.0,"so2":0.1,"mosquito_risk":3,"arthritis_risk":10,"migraine_risk":7,"frizz_risk":1,"updated_at":"2026-07-16T05:30:31.324614+05:30"},{"city":"Shimla","state":"Himachal Pradesh","latitude":31.1048,"longitude":77.1734,"temp":13.1,"humidity":94,"rain":0.0,"pressure":780.6,"uv_index":8.25,"wind_gusts":35.6,"aqi":102,"pm10":41.3,"pm2_5":36.3,"no2":8.4,"co":331.0,"o3":63.0,"so2":0.4,"mosquito_risk":3,"arthritis_risk":10,"migraine_risk":7,"frizz_risk":0,"updated_at":"2026-07-16T05:30:31.324623+05:30"},{"city":"Manali","state":"Himachal Pradesh","latitude":32.2396,"longitude":77.1887,"temp":18.4,"humidity":61,"rain":0.0,"pressure":816.5,"uv_index":9.5,"wind_gusts":32.4,"aqi":48,"pm10":3.1,"pm2_5":2.7,"no2":8.1,"co":142.0,"o3":78.0,"so2":0.0,"mosquito_risk":3,"arthritis_risk":5,"migraine_risk":7,"frizz_risk":0,"updated_at":"2026-07-16T05:30:31.324632+05:30"},{"city":"Gurgaon","state":"Haryana","latitude":28.4595,"longitude":77.0266,"temp":28.9,"humidity":65,"rain":0.0,"pressure":976.7,"uv_index":7.75,"wind_gusts":35.6,"aqi":231,"pm10":155.5,"pm2_5":63.3,"no2":31.5,"co":226.0,"o3":24.0,"so2":9.9,"mosquito_risk":7,"arthritis_risk":5,"migraine_risk":7,"frizz_risk":1,"updated_at":"2026-07-16T05:30:31.324639+05:30"},{"city":"Noida","state":"Uttar Pradesh","latitude":28.5355,"longitude":77.391,"temp":29.0,"humidity":70,"rain":0.0,"pressure":979.4,"uv_index":7.7,"wind_gusts":25.6,"aqi":231,"pm10":155.5,"pm2_5":63.3,"no2":31.5,"co":272.0,"o3":24.0,"so2":9.9,"mosquito_risk":7,"arthritis_risk":5,"migraine_risk":7,"frizz_risk":1,"updated_at":"2026-07-16T05:30:31.324647+05:30"},{"city":"Ghaziabad","state":"Uttar Pradesh","latitude":28.6692,"longitude":77.4538,"temp":28.9,"humidity":73,"rain":0.0,"pressure":977.7,"uv_index":7.65,"wind_gusts":29.2,"aqi":187,"pm10":173.2,"pm2_5":90.3,"no2":48.3,"co":379.0,"o3":14.0,"so2":23.0,"mosquito_risk":7,"arthritis_risk":5,"migraine_risk":7,"frizz_risk":1,"updated_at":"2026-07-16T05:30:31.324654+05:30"},{"city":"Faridabad","state":"Haryana","latitude":28.4089,"longitude":77.3178,"temp":29.7,"humidity":64,"rain":0.0,"pressure":978.8,"uv_index":7.7,"wind_gusts":36.4,"aqi":231,"pm10":155.5,"pm2_5":63.3,"no2":31.5,"co":237.0,"o3":24.0,"so2":9.9,"mosquito_risk":7,"arthritis_risk":5,"migraine_risk":7,"frizz_risk":1,"updated_at":"2026-07-16T05:30:31.324661+05:30"},{"city":"Meerut","state":"Uttar Pradesh","latitude":28.9845,"longitude":77.7064,"temp":27.8,"humidity":87,"rain":0.0,"pressure":976.6,"uv_index":7.6,"wind_gusts":33.8,"aqi":187,"pm10":173.2,"pm2_5":90.3,"no2":48.3,"co":1237.0,"o3":14.0,"so2":23.0,"mosquito_risk":7,"arthritis_risk":5,"migraine_risk":7,"frizz_risk":1,"updated_at":"2026-07-16T05:30:31.324669+05:30"},{"city":"Agra","state":"Uttar Pradesh","latitude":27.1767,"longitude":78.0081,"temp":28.6,"humidity":71,"rain":0.0,"pressure":983.1,"uv_index":6.15,"wind_gusts":32.4,"aqi":153,"pm10":171.8,"pm2_5":59.6,"no2":26.5,"co":211.0,"o3":31.0,"so2":6.8,"mosquito_risk":7,"arthritis_risk":5,"migraine_risk":7,"frizz_risk":1,"updated_at":"2026-07-16T05:30:31.324676+05:30"},{"city":"Varanasi","state":"Uttar Pradesh","latitude":25.3176,"longitude":82.9739,"temp":28.6,"humidity":89,"rain":0.0,"pressure":992.3,"uv_index":6.7,"wind_gusts":26.3,"aqi":183,"pm10":172.3,"pm2_5":104.1,"no2":29.0,"co":456.0,"o3":42.0,"so2":16.2,"mosquito_risk":7,"arthritis_risk":5,"migraine_risk":7,"frizz_risk":1,"updated_at":"2026-07-16T05:30:31.324683+05:30"},{"city":"Prayagraj","state":"Uttar Pradesh","latitude":25.4358,"longitude":81.8463,"temp":29.1,"humidity":87,"rain":0.0,"pressure":990.8,"uv_index":6.45,"wind_gusts":27.4,"aqi":172,"pm10":136.0,"pm2_5":82.0,"no2":28.2,"co":225.0,"o3":41.0,"so2":9.5,"mosquito_risk":7,"arthritis_risk":5,"migraine_risk":7,"frizz_risk":1,"updated_at":"2026-07-16T05:30:31.324690+05:30"},{"city":"Gorakhpur","state":"Uttar Pradesh","latitude":26.7606,"longitude":83.3732,"temp":26.3,"humidity":98,"rain":0.0,"pressure":993.0,"uv_index":7.05,"wind_gusts":28.8,"aqi":158,"pm10":64.5,"pm2_5":50.9,"no2":13.9,"co":416.0,"o3":80.0,"so2":6.8,"mosquito_risk":7,"arthritis_risk":5,"migraine_risk":7,"frizz_risk":1,"updated_at":"2026-07-16T05:30:31.324697+05:30"},{"city":"Bareilly","state":"Uttar Pradesh","latitude":28.367,"longitude":79.4304,"temp":26.8,"humidity":95,"rain":0.0,"pressure":982.0,"uv_index":7.75,"wind_gusts":30.6,"aqi":175,"pm10":183.0,"pm2_5":109.9,"no2":41.9,"co":532.0,"o3":39.0,"so2":16.4,"mosquito_risk":7,"arthritis_risk":5,"migraine_risk":7,"frizz_risk":1,"updated_at":"2026-07-16T05:30:31.324705+05:30"},{"city":"Aligarh","state":"Uttar Pradesh","latitude":27.8974,"longitude":78.088,"temp":28.2,"humidity":74,"rain":0.0,"pressure":980.8,"uv_index":7.6,"wind_gusts":27.4,"aqi":170,"pm10":148.1,"pm2_5":61.9,"no2":21.7,"co":265.0,"o3":38.0,"so2":5.4,"mosquito_risk":7,"arthritis_risk":5,"migraine_risk":7,"frizz_risk":1,"updated_at":"2026-07-16T05:30:31.324712+05:30"},{"city":"Moradabad","state":"Uttar Pradesh","latitude":28.8386,"longitude":78.7733,"temp":27.1,"humidity":96,"rain":0.0,"pressure":978.8,"uv_index":7.8,"wind_gusts":34.2,"aqi":183,"pm10":241.2,"pm2_5":151.8,"no2":68.4,"co":582.0,"o3":10.0,"so2":20.6,"mosquito_risk":7,"arthritis_risk":5,"migraine_risk":7,"frizz_risk":1,"updated_at":"2026-07-16T05:30:31.324719+05:30"},{"city":"Saharanpur","state":"Uttar Pradesh","latitude":29.9637,"longitude":77.546,"temp":26.7,"humidity":94,"rain":0.0,"pressure":970.8,"uv_index":7.4,"wind_gusts":31.3,"aqi":174,"pm10":118.0,"pm2_5":91.7,"no2":37.4,"co":1020.0,"o3":15.0,"so2":8.0,"mosquito_risk":7,"arthritis_risk":5,"migraine_risk":7,"frizz_risk":1,"updated_at":"2026-07-16T05:30:31.324727+05:30"},{"city":"Jhansi","state":"Uttar Pradesh","latitude":25.4484,"longitude":78.5685,"temp":28.3,"humidity":66,"rain":0.0,"pressure":974.0,"uv_index":6.05,"wind_gusts":35.3,"aqi":120,"pm10":58.0,"pm2_5":33.3,"no2":11.9,"co":197.0,"o3":49.0,"so2":7.0,"mosquito_risk":7,"arthritis_risk":5,"migraine_risk":7,"frizz_risk":1,"updated_at":"2026-07-16T05:30:37.029435+05:30"},{"city":"Surat","state":"Gujarat","latitude":21.1702,"longitude":72.8311,"temp":24.6,"humidity":96,"rain":0.0,"pressure":1004.8,"uv_index":7.35,"wind_gusts":40.3,"aqi":73,"pm10":36.2,"pm2_5":23.3,"no2":27.9,"co":240.0,"o3":19.0,"so2":38.9,"mosquito_risk":3,"arthritis_risk":5,"migraine_risk":4,"frizz_risk":1,"updated_at":"2026-07-16T05:30:37.029469+05:30"},{"city":"Vadodara","state":"Gujarat","latitude":22.3072,"longitude":73.1812,"temp":26.8,"humidity":89,"rain":0.0,"pressure":1002.0,"uv_index":5.45,"wind_gusts":40.3,"aqi":67,"pm10":26.9,"pm2_5":17.1,"no2":14.5,"co":176.0,"o3":26.0,"so2":13.2,"mosquito_risk":7,"arthritis_risk":5,"migraine_risk":0,"frizz_risk":1,"updated_at":"2026-07-16T05:30:37.029480+05:30"},{"city":"Rajkot","state":"Gujarat","latitude":22.3039,"longitude":70.8022,"temp":25.9,"humidity":91,"rain":0.0,"pressure":991.3,"uv_index":6.75,"wind_gusts":37.1,"aqi":68,"pm10":23.6,"pm2_5":12.1,"no2":5.6,"co":106.0,"o3":34.0,"so2":3.3,"mosquito_risk":7,"arthritis_risk":5,"migraine_risk":7,"frizz_risk":1,"updated_at":"2026-07-16T05:30:37.029490+05:30"},{"city":"Thane","state":"Maharashtra","latitude":19.2183,"longitude":72.9781,"temp":24.7,"humidity":95,"rain":0.0,"pressure":1006.8,"uv_index":6.25,"wind_gusts":36.7,"aqi":68,"pm10":38.3,"pm2_5":16.2,"no2":7.8,"co":139.0,"o3":41.0,"so2":7.8,"mosquito_risk":3,"arthritis_risk":5,"migraine_risk":4,"frizz_risk":1,"updated_at":"2026-07-16T05:30:37.029498+05:30"},{"city":"Nagpur","state":"Maharashtra","latitude":21.1458,"longitude":79.0882,"temp":27.6,"humidity":68,"rain":0.0,"pressure":970.2,"uv_index":8.85,"wind_gusts":40.3,"aqi":95,"pm10":36.8,"pm2_5":23.3,"no2":10.2,"co":203.0,"o3":52.0,"so2":8.7,"mosquito_risk":7,"arthritis_risk":5,"migraine_risk":7,"frizz_risk":1,"updated_at":"2026-07-16T05:30:37.029506+05:30"},{"city":"Nashik","state":"Maharashtra","latitude":19.9975,"longitude":73.7898,"temp":22.4,"humidity":95,"rain":0.0,"pressure":943.6,"uv_index":8.1,"wind_gusts":41.4,"aqi":55,"pm10":12.5,"pm2_5":7.9,"no2":11.2,"co":127.0,"o3":31.0,"so2":12.5,"mosquito_risk":3,"arthritis_risk":5,"migraine_risk":7,"frizz_risk":1,"updated_at":"2026-07-16T05:30:37.029513+05:30"},{"city":"Aurangabad","state":"Maharashtra","latitude":19.8762,"longitude":75.3433,"temp":22.7,"humidity":92,"rain":0.0,"pressure":942.6,"uv_index":8.9,"wind_gusts":42.1,"aqi":55,"pm10":19.2,"pm2_5":11.5,"no2":11.5,"co":169.0,"o3":31.0,"so2":12.3,"mosquito_risk":3,"arthritis_risk":5,"migraine_risk":7,"frizz_risk":1,"updated_at":"2026-07-16T05:30:37.029521+05:30"},{"city":"Solapur","state":"Maharashtra","latitude":17.6599,"longitude":75.9064,"temp":24.3,"humidity":80,"rain":0.0,"pressure":956.7,"uv_index":8.7,"wind_gusts":37.8,"aqi":58,"pm10":11.4,"pm2_5":7.5,"no2":7.1,"co":142.0,"o3":33.0,"so2":2.7,"mosquito_risk":3,"arthritis_risk":5,"migraine_risk":7,"frizz_risk":1,"updated_at":"2026-07-16T05:30:37.029529+05:30"},{"city":"Kolhapur","state":"Maharashtra","latitude":16.705,"longitude":74.2433,"temp":22.5,"humidity":90,"rain":0.0,"pressure":947.2,"uv_index":7.4,"wind_gusts":43.6,"aqi":52,"pm10":18.5,"pm2_5":9.3,"no2":3.7,"co":110.0,"o3":41.0,"so2":2.3,"mosquito_risk":3,"arthritis_risk":5,"migraine_risk":7,"frizz_risk":1,"updated_at":"2026-07-16T05:30:37.029536+05:30"},{"city":"Goa","state":"Goa","latitude":15.2993,"longitude":74.124,"temp":24.4,"humidity":95,"rain":0.0,"pressure":998.0,"uv_index":7.75,"wind_gusts":30.6,"aqi":74,"pm10":47.5,"pm2_5":27.7,"no2":7.7,"co":380.0,"o3":35.0,"so2":2.4,"mosquito_risk":3,"arthritis_risk":5,"migraine_risk":7,"frizz_risk":1,"updated_at":"2026-07-16T05:30:37.029543+05:30"},{"city":"Jodhpur","state":"Rajasthan","latitude":26.2389,"longitude":73.0243,"temp":28.4,"humidity":64,"rain":0.0,"pressure":979.8,"uv_index":8.4,"wind_gusts":35.6,"aqi":115,"pm10":169.0,"pm2_5":47.5,"no2":7.1,"co":122.0,"o3":43.0,"so2":2.5,"mosquito_risk":7,"arthritis_risk":5,"migraine_risk":7,"frizz_risk":1,"updated_at":"2026-07-16T05:30:37.029549+05:30"},{"city":"Udaipur","state":"Rajasthan","latitude":24.5854,"longitude":73.7125,"temp":23.4,"humidity":86,"rain":0.0,"pressure":943.6,"uv_index":8.25,"wind_gusts":30.2,"aqi":68,"pm10":41.2,"pm2_5":24.2,"no2":13.1,"co":152.0,"o3":38.0,"so2":10.5,"mosquito_risk":3,"arthritis_risk":5,"migraine_risk":7,"frizz_risk":1,"updated_at":"2026-07-16T05:30:37.029557+05:30"},{"city":"Kota","state":"Rajasthan","latitude":25.2138,"longitude":75.8648,"temp":27.9,"humidity":69,"rain":0.0,"pressure":975.6,"uv_index":8.3,"wind_gusts":31.7,"aqi":92,"pm10":35.2,"pm2_5":21.6,"no2":9.0,"co":177.0,"o3":59.0,"so2":8.5,"mosquito_risk":7,"arthritis_risk":5,"migraine_risk":7,"frizz_risk":1,"updated_at":"2026-07-16T05:30:37.029564+05:30"},{"city":"Bikaner","state":"Rajasthan","latitude":28.0229,"longitude":73.3119,"temp":30.0,"humidity":54,"rain":0.0,"pressure":977.7,"uv_index":8.45,"wind_gusts":34.2,"aqi":150,"pm10":99.2,"pm2_5":39.6,"no2":3.2,"co":116.0,"o3":48.0,"so2":3.0,"mosquito_risk":4,"arthritis_risk":5,"migraine_risk":7,"frizz_risk":1,"updated_at":"2026-07-16T05:30:37.029572+05:30"},{"city":"Ajmer","state":"Rajasthan","latitude":26.4499,"longitude":74.6399,"temp":26.0,"humidity":71,"rain":0.0,"pressure":951.6,"uv_index":8.35,"wind_gusts":41.4,"aqi":88,"pm10":39.2,"pm2_5":20.7,"no2":8.0,"co":139.0,"o3":51.0,"so2":4.1,"mosquito_risk":7,"arthritis_risk":5,"migraine_risk":7,"frizz_risk":1,"updated_at":"2026-07-16T05:30:37.029579+05:30"},{"city":"Gwalior","state":"Madhya Pradesh","latitude":26.2183,"longitude":78.1828,"temp":28.1,"humidity":75,"rain":0.0,"pressure":978.9,"uv_index":8.15,"wind_gusts":36.0,"aqi":139,"pm10":73.6,"pm2_5":36.2,"no2":14.5,"co":145.0,"o3":41.0,"so2":3.3,"mosquito_risk":7,"arthritis_risk":5,"migraine_risk":7,"frizz_risk":1,"updated_at":"2026-07-16T05:30:37.029587+05:30"},{"city":"Indore","state":"Madhya Pradesh","latitude":22.7196,"longitude":75.8577,"temp":23.7,"humidity":91,"rain":0.0,"pressure":945.9,"uv_index":7.7,"wind_gusts":37.1,"aqi":67,"pm10":24.6,"pm2_5":15.3,"no2":9.5,"co":163.0,"o3":36.0,"so2":11.3,"mosquito_risk":3,"arthritis_risk":5,"migraine_risk":7,"frizz_risk":1,"updated_at":"2026-07-16T05:30:37.029595+05:30"},{"city":"Bhopal","state":"Madhya Pradesh","latitude":23.2599,"longitude":77.4126,"temp":25.0,"humidity":81,"rain":0.0,"pressure":951.1,"uv_index":8.6,"wind_gusts":34.2,"aqi":91,"pm10":29.5,"pm2_5":21.0,"no2":8.7,"co":246.0,"o3":58.0,"so2":5.9,"mosquito_risk":7,"arthritis_risk":5,"migraine_risk":7,"frizz_risk":1,"updated_at":"2026-07-16T05:30:37.029602+05:30"},{"city":"Jabalpur","state":"Madhya Pradesh","latitude":23.1815,"longitude":79.9864,"temp":25.3,"humidity":83,"rain":0.1,"pressure":957.9,"uv_index":8.7,"wind_gusts":36.4,"aqi":115,"pm10":66.1,"pm2_5":36.0,"no2":8.7,"co":237.0,"o3":51.0,"so2":4.2,"mosquito_risk":10,"arthritis_risk":5,"migraine_risk":7,"frizz_risk":1,"updated_at":"2026-07-16T05:30:37.029609+05:30"},{"city":"Ujjain","state":"Madhya Pradesh","latitude":23.1765,"longitude":75.7885,"temp":24.0,"humidity":92,"rain":0.0,"pressure":951.6,"uv_index":8.4,"wind_gusts":36.0,"aqi":67,"pm10":25.3,"pm2_5":15.7,"no2":9.7,"co":170.0,"o3":35.0,"so2":12.8,"mosquito_risk":3,"arthritis_risk":5,"migraine_risk":7,"frizz_risk":1,"updated_at":"2026-07-16T05:30:37.029617+05:30"},{"city":"Visakhapatnam","state":"Andhra Pradesh","latitude":17.6868,"longitude":83.2185,"temp":29.9,"humidity":51,"rain":0.0,"pressure":998.7,"uv_index":3.35,"wind_gusts":33.8,"aqi":111,"pm10":37.1,"pm2_5":27.4,"no2":26.0,"co":322.0,"o3":43.0,"so2":42.3,"mosquito_risk":4,"arthritis_risk":5,"migraine_risk":3,"frizz_risk":1,"updated_at":"2026-07-16T05:30:37.029624+05:30"},{"city":"Vijayawada","state":"Andhra Pradesh","latitude":16.5062,"longitude":80.648,"temp":29.4,"humidity":57,"rain":0.0,"pressure":999.7,"uv_index":4.1,"wind_gusts":42.8,"aqi":78,"pm10":30.3,"pm2_5":19.6,"no2":10.0,"co":171.0,"o3":47.0,"so2":5.6,"mosquito_risk":4,"arthritis_risk":5,"migraine_risk":3,"frizz_risk":1,"updated_at":"2026-07-16T05:30:37.029631+05:30"},{"city":"Guntur","state":"Andhra Pradesh","latitude":16.3067,"longitude":80.4365,"temp":29.9,"humidity":55,"rain":0.0,"pressure":1001.1,"uv_index":5.3,"wind_gusts":45.4,"aqi":74,"pm10":28.2,"pm2_5":18.3,"no2":8.9,"co":163.0,"o3":48.0,"so2":5.2,"mosquito_risk":4,"arthritis_risk":5,"migraine_risk":0,"frizz_risk":1,"updated_at":"2026-07-16T05:30:37.029638+05:30"},{"city":"Nellore","state":"Andhra Pradesh","latitude":14.4426,"longitude":79.9865,"temp":29.1,"humidity":51,"rain":0.0,"pressure":1004.0,"uv_index":8.0,"wind_gusts":42.8,"aqi":64,"pm10":22.4,"pm2_5":17.2,"no2":12.6,"co":140.0,"o3":49.0,"so2":7.1,"mosquito_risk":4,"arthritis_risk":5,"migraine_risk":4,"frizz_risk":1,"updated_at":"2026-07-16T05:30:37.029645+05:30"},{"city":"Kurnool","state":"Andhra Pradesh","latitude":15.8281,"longitude":78.0373,"temp":27.5,"humidity":62,"rain":0.0,"pressure":976.2,"uv_index":7.9,"wind_gusts":57.6,"aqi":70,"pm10":18.7,"pm2_5":12.4,"no2":8.3,"co":133.0,"o3":38.0,"so2":4.2,"mosquito_risk":7,"arthritis_risk":5,"migraine_risk":7,"frizz_risk":1,"updated_at":"2026-07-16T05:30:37.029653+05:30"},{"city":"Kakinada","state":"Andhra Pradesh","latitude":16.9891,"longitude":82.2475,"temp":28.8,"humidity":56,"rain":0.0,"pressure":1003.5,"uv_index":2.0,"wind_gusts":42.1,"aqi":89,"pm10":31.7,"pm2_5":20.3,"no2":8.9,"co":237.0,"o3":64.0,"so2":6.6,"mosquito_risk":4,"arthritis_risk":5,"migraine_risk":0,"frizz_risk":1,"updated_at":"2026-07-16T05:30:37.029661+05:30"},{"city":"Tirupati","state":"Andhra Pradesh","latitude":13.6288,"longitude":79.4192,"temp":27.3,"humidity":61,"rain":0.0,"pressure":989.6,"uv_index":7.65,"wind_gusts":31.3,"aqi":73,"pm10":17.9,"pm2_5":14.7,"no2":17.7,"co":158.0,"o3":33.0,"so2":2.1,"mosquito_risk":7,"arthritis_risk":5,"migraine_risk":7,"frizz_risk":1,"updated_at":"2026-07-16T05:30:37.029668+05:30"},{"city":"Warangal","state":"Telangana","latitude":17.9689,"longitude":79.5941,"temp":27.8,"humidity":64,"rain":0.0,"pressure":976.3,"uv_index":1.95,"wind_gusts":44.6,"aqi":74,"pm10":19.4,"pm2_5":12.5,"no2":6.5,"co":177.0,"o3":58.0,"so2":4.5,"mosquito_risk":7,"arthritis_risk":5,"migraine_risk":3,"frizz_risk":1,"updated_at":"2026-07-16T05:30:37.029675+05:30"},{"city":"Nizamabad","state":"Telangana","latitude":18.6725,"longitude":78.0941,"temp":26.3,"humidity":72,"rain":0.0,"pressure":963.1,"uv_index":8.6,"wind_gusts":46.1,"aqi":67,"pm10":21.3,"pm2_5":14.2,"no2":8.3,"co":162.0,"o3":47.0,"so2":6.3,"mosquito_risk":7,"arthritis_risk":5,"migraine_risk":7,"frizz_risk":1,"updated_at":"2026-07-16T05:30:37.029682+05:30"},{"city":"Mysore","state":"Karnataka","latitude":12.2958,"longitude":76.6396,"temp":20.1,"humidity":96,"rain":0.0,"pressure":928.4,"uv_index":8.45,"wind_gusts":45.4,"aqi":56,"pm10":26.4,"pm2_5":17.2,"no2":10.7,"co":126.0,"o3":28.0,"so2":1.6,"mosquito_risk":3,"arthritis_risk":5,"migraine_risk":7,"frizz_risk":1,"updated_at":"2026-07-16T05:30:37.029688+05:30"},{"city":"Mangalore","state":"Karnataka","latitude":12.9141,"longitude":74.856,"temp":24.3,"humidity":97,"rain":0.1,"pressure":1007.8,"uv_index":7.75,"wind_gusts":41.0,"aqi":74,"pm10":31.2,"pm2_5":17.6,"no2":13.0,"co":141.0,"o3":26.0,"so2":3.8,"mosquito_risk":6,"arthritis_risk":5,"migraine_risk":4,"frizz_risk":1,"updated_at":"2026-07-16T05:30:37.029696+05:30"},{"city":"Hubli-Dharwad","state":"Karnataka","latitude":15.3647,"longitude":75.124,"temp":22.4,"humidity":89,"rain":0.0,"pressure":940.5,"uv_index":7.75,"wind_gusts":46.4,"aqi":55,"pm10":14.6,"pm2_5":6.9,"no2":2.3,"co":100.0,"o3":45.0,"so2":1.5,"mosquito_risk":3,"arthritis_risk":5,"migraine_risk":7,"frizz_risk":1,"updated_at":"2026-07-16T05:30:37.029703+05:30"},{"city":"Belgaum","state":"Karnataka","latitude":15.8497,"longitude":74.4977,"temp":21.1,"humidity":94,"rain":0.0,"pressure":924.9,"uv_index":7.85,"wind_gusts":44.3,"aqi":52,"pm10":23.1,"pm2_5":10.7,"no2":3.3,"co":102.0,"o3":42.0,"so2":1.8,"mosquito_risk":3,"arthritis_risk":5,"migraine_risk":7,"frizz_risk":1,"updated_at":"2026-07-16T05:30:43.734317+05:30"},{"city":"Coimbatore","state":"Tamil Nadu","latitude":11.0168,"longitude":76.9558,"temp":22.5,"humidity":96,"rain":0.0,"pressure":962.0,"uv_index":8.25,"wind_gusts":51.8,"aqi":58,"pm10":17.0,"pm2_5":12.0,"no2":8.4,"co":172.0,"o3":28.0,"so2":3.3,"mosquito_risk":3,"arthritis_risk":5,"migraine_risk":7,"frizz_risk":1,"updated_at":"2026-07-16T05:30:43.734350+05:30"},{"city":"Madurai","state":"Tamil Nadu","latitude":9.9252,"longitude":78.1198,"temp":26.4,"humidity":72,"rain":0.0,"pressure":993.1,"uv_index":7.9,"wind_gusts":56.9,"aqi":87,"pm10":36.9,"pm2_5":31.9,"no2":37.4,"co":133.0,"o3":2.0,"so2":6.2,"mosquito_risk":7,"arthritis_risk":5,"migraine_risk":7,"frizz_risk":1,"updated_at":"2026-07-16T05:30:43.734362+05:30"},{"city":"Trichy","state":"Tamil Nadu","latitude":10.7905,"longitude":78.7047,"temp":27.2,"humidity":68,"rain":0.0,"pressure":999.7,"uv_index":7.65,"wind_gusts":44.6,"aqi":69,"pm10":21.9,"pm2_5":15.2,"no2":10.2,"co":118.0,"o3":35.0,"so2":4.3,"mosquito_risk":7,"arthritis_risk":5,"migraine_risk":7,"frizz_risk":1,"updated_at":"2026-07-16T05:30:43.734372+05:30"},{"city":"Salem","state":"Tamil Nadu","latitude":11.6643,"longitude":78.146,"temp":24.1,"humidity":87,"rain":0.0,"pressure":977.6,"uv_index":7.7,"wind_gusts":22.0,"aqi":76,"pm10":38.8,"pm2_5":30.9,"no2":34.6,"co":145.0,"o3":13.0,"so2":9.4,"mosquito_risk":3,"arthritis_risk":5,"migraine_risk":7,"frizz_risk":1,"updated_at":"2026-07-16T05:30:43.734381+05:30"},{"city":"Tirunelveli","state":"Tamil Nadu","latitude":8.7139,"longitude":77.7567,"temp":27.2,"humidity":70,"rain":0.0,"pressure":1003.0,"uv_index":7.9,"wind_gusts":44.3,"aqi":59,"pm10":22.2,"pm2_5":14.3,"no2":6.5,"co":131.0,"o3":34.0,"so2":2.8,"mosquito_risk":7,"arthritis_risk":5,"migraine_risk":4,"frizz_risk":1,"updated_at":"2026-07-16T05:30:43.734389+05:30"},{"city":"Vellore","state":"Tamil Nadu","latitude":12.9165,"longitude":79.1325,"temp":27.4,"humidity":61,"rain":0.0,"pressure":983.2,"uv_index":7.9,"wind_gusts":40.7,"aqi":72,"pm10":15.7,"pm2_5":12.2,"no2":13.2,"co":182.0,"o3":45.0,"so2":5.2,"mosquito_risk":7,"arthritis_risk":5,"migraine_risk":7,"frizz_risk":1,"updated_at":"2026-07-16T05:30:43.734397+05:30"},{"city":"Erode","state":"Tamil Nadu","latitude":11.341,"longitude":77.7172,"temp":25.5,"humidity":79,"rain":0.0,"pressure":989.6,"uv_index":7.5,"wind_gusts":43.2,"aqi":66,"pm10":22.2,"pm2_5":16.7,"no2":15.2,"co":197.0,"o3":24.0,"so2":3.8,"mosquito_risk":7,"arthritis_risk":5,"migraine_risk":7,"frizz_risk":1,"updated_at":"2026-07-16T05:30:43.734404+05:30"},{"city":"Kochi","state":"Kerala","latitude":9.9312,"longitude":76.2673,"temp":25.7,"humidity":96,"rain":0.0,"pressure":1010.1,"uv_index":8.15,"wind_gusts":36.4,"aqi":76,"pm10":36.1,"pm2_5":24.6,"no2":17.9,"co":95.0,"o3":18.0,"so2":5.6,"mosquito_risk":7,"arthritis_risk":0,"migraine_risk":4,"frizz_risk":1,"updated_at":"2026-07-16T05:30:43.734412+05:30"},{"city":"Thiruvananthapuram","state":"Kerala","latitude":8.5241,"longitude":76.9366,"temp":24.3,"humidity":97,"rain":0.0,"pressure":1009.4,"uv_index":7.45,"wind_gusts":44.6,"aqi":63,"pm10":36.7,"pm2_5":18.6,"no2":5.0,"co":227.0,"o3":42.0,"so2":2.0,"mosquito_risk":3,"arthritis_risk":0,"migraine_risk":4,"frizz_risk":1,"updated_at":"2026-07-16T05:30:43.734419+05:30"},{"city":"Kozhikode","state":"Kerala","latitude":11.2588,"longitude":75.7804,"temp":24.8,"humidity":95,"rain":0.0,"pressure":1009.0,"uv_index":7.7,"wind_gusts":34.2,"aqi":65,"pm10":37.5,"pm2_5":17.5,"no2":3.7,"co":206.0,"o3":48.0,"so2":1.7,"mosquito_risk":3,"arthritis_risk":0,"migraine_risk":4,"frizz_risk":1,"updated_at":"2026-07-16T05:30:43.734426+05:30"},{"city":"Thrissur","state":"Kerala","latitude":10.5276,"longitude":76.2144,"temp":24.4,"humidity":94,"rain":0.0,"pressure":1008.7,"uv_index":8.05,"wind_gusts":38.2,"aqi":72,"pm10":43.1,"pm2_5":24.4,"no2":9.8,"co":156.0,"o3":31.0,"so2":4.2,"mosquito_risk":3,"arthritis_risk":0,"migraine_risk":4,"frizz_risk":1,"updated_at":"2026-07-16T05:30:43.734435+05:30"},{"city":"Kannur","state":"Kerala","latitude":11.8745,"longitude":75.3704,"temp":24.6,"humidity":95,"rain":0.0,"pressure":1008.2,"uv_index":7.6,"wind_gusts":31.7,"aqi":69,"pm10":33.1,"pm2_5":19.1,"no2":12.5,"co":177.0,"o3":23.0,"so2":2.7,"mosquito_risk":3,"arthritis_risk":0,"migraine_risk":4,"frizz_risk":1,"updated_at":"2026-07-16T05:30:43.734442+05:30"},{"city":"Patna","state":"Bihar","latitude":25.5941,"longitude":85.1376,"temp":26.6,"humidity":97,"rain":0.1,"pressure":995.9,"uv_index":6.15,"wind_gusts":23.8,"aqi":160,"pm10":56.9,"pm2_5":49.7,"no2":16.4,"co":382.0,"o3":72.0,"so2":11.2,"mosquito_risk":10,"arthritis_risk":5,"migraine_risk":7,"frizz_risk":1,"updated_at":"2026-07-16T05:30:43.734449+05:30"},{"city":"Gaya","state":"Bihar","latitude":24.7914,"longitude":85.0002,"temp":25.7,"humidity":97,"rain":0.1,"pressure":989.9,"uv_index":8.15,"wind_gusts":23.8,"aqi":158,"pm10":88.0,"pm2_5":60.1,"no2":18.9,"co":312.0,"o3":55.0,"so2":7.5,"mosquito_risk":10,"arthritis_risk":5,"migraine_risk":7,"frizz_risk":1,"updated_at":"2026-07-16T05:30:43.734456+05:30"},{"city":"Muzaffarpur","state":"Bihar","latitude":26.1209,"longitude":85.3647,"temp":27.0,"humidity":95,"rain":0.1,"pressure":996.2,"uv_index":7.2,"wind_gusts":29.2,"aqi":155,"pm10":43.0,"pm2_5":40.0,"no2":14.1,"co":450.0,"o3":79.0,"so2":9.9,"mosquito_risk":10,"arthritis_risk":5,"migraine_risk":7,"frizz_risk":1,"updated_at":"2026-07-16T05:30:43.734464+05:30"},{"city":"Bhagalpur","state":"Bihar","latitude":25.2425,"longitude":87.0117,"temp":27.4,"humidity":94,"rain":0.0,"pressure":997.0,"uv_index":8.7,"wind_gusts":32.8,"aqi":109,"pm10":33.3,"pm2_5":31.3,"no2":15.4,"co":252.0,"o3":52.0,"so2":8.3,"mosquito_risk":7,"arthritis_risk":5,"migraine_risk":7,"frizz_risk":1,"updated_at":"2026-07-16T05:30:43.734471+05:30"},{"city":"Ranchi","state":"Jharkhand","latitude":23.3441,"longitude":85.3096,"temp":22.8,"humidity":97,"rain":0.0,"pressure":933.0,"uv_index":8.6,"wind_gusts":36.0,"aqi":133,"pm10":30.3,"pm2_5":21.0,"no2":10.2,"co":232.0,"o3":70.0,"so2":11.5,"mosquito_risk":3,"arthritis_risk":5,"migraine_risk":7,"frizz_risk":1,"updated_at":"2026-07-16T05:30:43.734478+05:30"},{"city":"Jamshedpur","state":"Jharkhand","latitude":22.8046,"longitude":86.2029,"temp":25.6,"humidity":96,"rain":0.0,"pressure":985.1,"uv_index":7.6,"wind_gusts":34.9,"aqi":112,"pm10":30.5,"pm2_5":27.3,"no2":32.8,"co":912.0,"o3":35.0,"so2":41.0,"mosquito_risk":7,"arthritis_risk":5,"migraine_risk":7,"frizz_risk":1,"updated_at":"2026-07-16T05:30:43.734487+05:30"},{"city":"Dhanbad","state":"Jharkhand","latitude":23.7957,"longitude":86.4304,"temp":25.6,"humidity":95,"rain":0.0,"pressure":975.0,"uv_index":8.25,"wind_gusts":36.4,"aqi":150,"pm10":43.7,"pm2_5":40.6,"no2":32.0,"co":236.0,"o3":32.0,"so2":64.5,"mosquito_risk":7,"arthritis_risk":5,"migraine_risk":7,"frizz_risk":1,"updated_at":"2026-07-16T05:30:43.734506+05:30"},{"city":"Bokaro","state":"Jharkhand","latitude":23.6693,"longitude":86.1511,"temp":25.6,"humidity":96,"rain":0.0,"pressure":978.9,"uv_index":8.6,"wind_gusts":32.8,"aqi":153,"pm10":43.5,"pm2_5":41.9,"no2":30.3,"co":240.0,"o3":37.0,"so2":62.7,"mosquito_risk":7,"arthritis_risk":5,"migraine_risk":7,"frizz_risk":1,"updated_at":"2026-07-16T05:30:43.734522+05:30"},{"city":"Bhubaneswar","state":"Odisha","latitude":20.2961,"longitude":85.8245,"temp":25.4,"humidity":96,"rain":1.4,"pressure":995.4,"uv_index":8.35,"wind_gusts":38.9,"aqi":110,"pm10":17.1,"pm2_5":16.4,"no2":8.4,"co":210.0,"o3":78.0,"so2":12.1,"mosquito_risk":10,"arthritis_risk":5,"migraine_risk":7,"frizz_risk":1,"updated_at":"2026-07-16T05:30:43.734536+05:30"},{"city":"Cuttack","state":"Odisha","latitude":20.4625,"longitude":85.8828,"temp":25.7,"humidity":95,"rain":0.6,"pressure":997.2,"uv_index":8.6,"wind_gusts":38.5,"aqi":110,"pm10":17.1,"pm2_5":16.4,"no2":8.4,"co":196.0,"o3":78.0,"so2":12.1,"mosquito_risk":10,"arthritis_risk":5,"migraine_risk":7,"frizz_risk":1,"updated_at":"2026-07-16T05:30:43.734551+05:30"},{"city":"Rourkela","state":"Odisha","latitude":22.2604,"longitude":84.8536,"temp":24.6,"humidity":97,"rain":0.0,"pressure":980.2,"uv_index":8.1,"wind_gusts":41.8,"aqi":147,"pm10":63.1,"pm2_5":32.7,"no2":8.9,"co":232.0,"o3":68.0,"so2":2.6,"mosquito_risk":3,"arthritis_risk":5,"migraine_risk":7,"frizz_risk":1,"updated_at":"2026-07-16T05:30:43.734560+05:30"},{"city":"Raipur","state":"Chhattisgarh","latitude":21.2514,"longitude":81.6296,"temp":25.3,"humidity":90,"rain":0.0,"pressure":970.3,"uv_index":6.75,"wind_gusts":38.9,"aqi":152,"pm10":88.0,"pm2_5":51.6,"no2":32.3,"co":290.0,"o3":37.0,"so2":51.6,"mosquito_risk":7,"arthritis_risk":5,"migraine_risk":7,"frizz_risk":1,"updated_at":"2026-07-16T05:30:43.734568+05:30"},{"city":"Bhilai","state":"Chhattisgarh","latitude":21.1938,"longitude":81.3509,"temp":26.3,"humidity":83,"rain":0.1,"pressure":970.9,"uv_index":4.7,"wind_gusts":38.2,"aqi":135,"pm10":80.8,"pm2_5":47.0,"no2":26.1,"co":747.0,"o3":39.0,"so2":45.0,"mosquito_risk":10,"arthritis_risk":5,"migraine_risk":3,"frizz_risk":1,"updated_at":"2026-07-16T05:30:43.734575+05:30"},{"city":"Guwahati","state":"Assam","latitude":26.1158,"longitude":91.7086,"temp":26.4,"humidity":95,"rain":0.0,"pressure":998.1,"uv_index":5.85,"wind_gusts":19.4,"aqi":52,"pm10":15.7,"pm2_5":15.3,"no2":9.5,"co":288.0,"o3":39.0,"so2":2.0,"mosquito_risk":7,"arthritis_risk":5,"migraine_risk":3,"frizz_risk":1,"updated_at":"2026-07-16T05:30:43.734582+05:30"},{"city":"Agartala","state":"Tripura","latitude":23.8315,"longitude":91.2868,"temp":26.3,"humidity":90,"rain":0.0,"pressure":1002.8,"uv_index":8.1,"wind_gusts":46.4,"aqi":66,"pm10":18.3,"pm2_5":14.3,"no2":9.2,"co":137.0,"o3":38.0,"so2":2.3,"mosquito_risk":7,"arthritis_risk":5,"migraine_risk":4,"frizz_risk":1,"updated_at":"2026-07-16T05:30:43.734590+05:30"},{"city":"Shillong","state":"Meghalaya","latitude":25.5788,"longitude":91.8933,"temp":20.3,"humidity":92,"rain":0.0,"pressure":855.7,"uv_index":8.2,"wind_gusts":37.1,"aqi":34,"pm10":6.1,"pm2_5":4.4,"no2":4.3,"co":169.0,"o3":63.0,"so2":2.2,"mosquito_risk":3,"arthritis_risk":5,"migraine_risk":7,"frizz_risk":1,"updated_at":"2026-07-16T05:30:43.734598+05:30"},{"city":"Imphal","state":"Manipur","latitude":24.817,"longitude":93.9368,"temp":23.1,"humidity":96,"rain":0.0,"pressure":921.2,"uv_index":7.2,"wind_gusts":32.8,"aqi":55,"pm10":16.1,"pm2_5":14.6,"no2":7.2,"co":268.0,"o3":44.0,"so2":2.4,"mosquito_risk":3,"arthritis_risk":5,"migraine_risk":7,"frizz_risk":1,"updated_at":"2026-07-16T05:30:43.734605+05:30"},{"city":"Aizawl","state":"Mizoram","latitude":23.7271,"longitude":92.7176,"temp":19.9,"humidity":99,"rain":0.0,"pressure":889.9,"uv_index":8.0,"wind_gusts":40.3,"aqi":55,"pm10":17.5,"pm2_5":15.8,"no2":7.5,"co":223.0,"o3":19.0,"so2":0.8,"mosquito_risk":3,"arthritis_risk":10,"migraine_risk":7,"frizz_risk":1,"updated_at":"2026-07-16T05:30:43.734613+05:30"},{"city":"Kohima","state":"Nagaland","latitude":25.6701,"longitude":94.1077,"temp":20.7,"humidity":95,"rain":0.0,"pressure":854.0,"uv_index":8.45,"wind_gusts":21.2,"aqi":45,"pm10":8.6,"pm2_5":7.3,"no2":4.6,"co":221.0,"o3":37.0,"so2":0.8,"mosquito_risk":3,"arthritis_risk":5,"migraine_risk":7,"frizz_risk":1,"updated_at":"2026-07-16T05:30:43.734620+05:30"},{"city":"Gangtok","state":"Sikkim","latitude":27.3314,"longitude":88.6138,"temp":18.1,"humidity":96,"rain":0.0,"pressure":836.0,"uv_index":7.75,"wind_gusts":30.2,"aqi":44,"pm10":3.1,"pm2_5":3.0,"no2":2.9,"co":249.0,"o3":99.0,"so2":1.0,"mosquito_risk":3,"arthritis_risk":10,"migraine_risk":7,"frizz_risk":1,"updated_at":"2026-07-16T05:30:43.734627+05:30"},{"city":"Siliguri","state":"West Bengal","latitude":26.7271,"longitude":88.3953,"temp":25.4,"humidity":97,"rain":0.1,"pressure":989.8,"uv_index":7.6,"wind_gusts":25.6,"aqi":76,"pm10":8.0,"pm2_5":7.7,"no2":6.2,"co":333.0,"o3":95.0,"so2":2.0,"mosquito_risk":10,"arthritis_risk":5,"migraine_risk":7,"frizz_risk":1,"updated_at":"2026-07-16T05:30:50.252440+05:30"},{"city":"Durgapur","state":"West Bengal","latitude":23.5204,"longitude":87.3119,"temp":26.3,"humidity":90,"rain":0.0,"pressure":989.5,"uv_index":8.5,"wind_gusts":41.8,"aqi":101,"pm10":31.7,"pm2_5":27.8,"no2":22.6,"co":330.0,"o3":37.0,"so2":24.4,"mosquito_risk":7,"arthritis_risk":5,"migraine_risk":7,"frizz_risk":1,"updated_at":"2026-07-16T05:30:50.252472+05:30"},{"city":"Asansol","state":"West Bengal","latitude":23.6739,"longitude":86.9524,"temp":26.2,"humidity":91,"rain":0.0,"pressure":988.5,"uv_index":8.45,"wind_gusts":38.5,"aqi":111,"pm10":32.1,"pm2_5":28.2,"no2":24.1,"co":317.0,"o3":35.0,"so2":26.5,"mosquito_risk":7,"arthritis_risk":5,"migraine_risk":7,"frizz_risk":1,"updated_at":"2026-07-16T05:30:50.252483+05:30"},{"city":"Pondicherry","state":"Puducherry","latitude":11.9139,"longitude":79.8145,"temp":27.9,"humidity":73,"rain":0.0,"pressure":1007.5,"uv_index":7.8,"wind_gusts":49.7,"aqi":75,"pm10":17.6,"pm2_5":13.4,"no2":11.1,"co":203.0,"o3":45.0,"so2":8.0,"mosquito_risk":7,"arthritis_risk":5,"migraine_risk":4,"frizz_risk":1,"updated_at":"2026-07-16T05:30:50.252492+05:30"},{"city":"Port Blair","state":"Andaman and Nicobar Islands","latitude":11.6234,"longitude":92.7265,"temp":25.1,"humidity":94,"rain":0.0,"pressure":1008.0,"uv_index":8.35,"wind_gusts":50.4,"aqi":52,"pm10":23.2,"pm2_5":9.8,"no2":0.2,"co":93.0,"o3":52.0,"so2":0.4,"mosquito_risk":7,"arthritis_risk":0,"migraine_risk":4,"frizz_risk":1,"updated_at":"2026-07-16T05:30:50.252500+05:30"},{"city":"Haridwar","state":"Uttarakhand","latitude":29.9457,"longitude":78.1642,"temp":25.9,"humidity":95,"rain":0.0,"pressure":969.3,"uv_index":7.5,"wind_gusts":28.8,"aqi":152,"pm10":42.6,"pm2_5":36.3,"no2":21.5,"co":487.0,"o3":30.0,"so2":3.2,"mosquito_risk":7,"arthritis_risk":5,"migraine_risk":7,"frizz_risk":1,"updated_at":"2026-07-16T05:30:50.252509+05:30"},{"city":"Rishikesh","state":"Uttarakhand","latitude":30.0869,"longitude":78.2676,"temp":24.4,"humidity":98,"rain":0.0,"pressure":962.0,"uv_index":7.6,"wind_gusts":23.4,"aqi":111,"pm10":28.6,"pm2_5":20.4,"no2":9.1,"co":360.0,"o3":78.0,"so2":2.7,"mosquito_risk":3,"arthritis_risk":5,"migraine_risk":7,"frizz_risk":1,"updated_at":"2026-07-16T05:30:50.252517+05:30"},{"city":"Nainital","state":"Uttarakhand","latitude":29.3919,"longitude":79.4542,"temp":16.6,"humidity":99,"rain":0.0,"pressure":803.5,"uv_index":6.65,"wind_gusts":29.5,"aqi":155,"pm10":93.4,"pm2_5":57.4,"no2":11.4,"co":361.0,"o3":97.0,"so2":8.1,"mosquito_risk":3,"arthritis_risk":10,"migraine_risk":7,"frizz_risk":1,"updated_at":"2026-07-16T05:30:50.252524+05:30"},{"city":"Mussoorie","state":"Uttarakhand","latitude":30.4599,"longitude":78.0664,"temp":16.4,"humidity":100,"rain":0.0,"pressure":800.8,"uv_index":6.3,"wind_gusts":43.9,"aqi":102,"pm10":23.2,"pm2_5":19.0,"no2":17.1,"co":359.0,"o3":53.0,"so2":2.9,"mosquito_risk":3,"arthritis_risk":10,"migraine_risk":7,"frizz_risk":1,"updated_at":"2026-07-16T05:30:50.252532+05:30"},{"city":"Dharamshala","state":"Himachal Pradesh","latitude":32.219,"longitude":76.3234,"temp":21.4,"humidity":63,"rain":0.0,"pressure":866.2,"uv_index":8.4,"wind_gusts":31.3,"aqi":72,"pm10":14.5,"pm2_5":11.8,"no2":10.0,"co":221.0,"o3":36.0,"so2":0.2,"mosquito_risk":3,"arthritis_risk":5,"migraine_risk":7,"frizz_risk":0,"updated_at":"2026-07-16T05:30:50.252539+05:30"},{"city":"Dalhousie","state":"Himachal Pradesh","latitude":32.5387,"longitude":75.971,"temp":13.5,"humidity":90,"rain":0.0,"pressure":800.0,"uv_index":7.75,"wind_gusts":29.2,"aqi":128,"pm10":58.2,"pm2_5":48.5,"no2":32.4,"co":249.0,"o3":41.0,"so2":2.9,"mosquito_risk":3,"arthritis_risk":10,"migraine_risk":7,"frizz_risk":0,"updated_at":"2026-07-16T05:30:50.252547+05:30"},{"city":"Patiala","state":"Punjab","latitude":30.3398,"longitude":76.3869,"temp":27.1,"humidity":84,"rain":0.0,"pressure":973.1,"uv_index":7.5,"wind_gusts":28.8,"aqi":185,"pm10":229.1,"pm2_5":146.2,"no2":68.0,"co":952.0,"o3":2.0,"so2":11.6,"mosquito_risk":7,"arthritis_risk":5,"migraine_risk":7,"frizz_risk":1,"updated_at":"2026-07-16T05:30:50.252555+05:30"},{"city":"Bhatinda","state":"Punjab","latitude":30.211,"longitude":74.9455,"temp":30.3,"humidity":67,"rain":0.0,"pressure":979.1,"uv_index":7.4,"wind_gusts":28.1,"aqi":176,"pm10":207.2,"pm2_5":111.1,"no2":59.2,"co":478.0,"o3":5.0,"so2":10.5,"mosquito_risk":3,"arthritis_risk":5,"migraine_risk":7,"frizz_risk":1,"updated_at":"2026-07-16T05:30:50.252561+05:30"},{"city":"Rohtak","state":"Haryana","latitude":28.8955,"longitude":76.6066,"temp":28.9,"humidity":74,"rain":0.0,"pressure":976.9,"uv_index":6.0,"wind_gusts":29.9,"aqi":469,"pm10":340.9,"pm2_5":101.7,"no2":35.9,"co":249.0,"o3":15.0,"so2":5.0,"mosquito_risk":7,"arthritis_risk":5,"migraine_risk":3,"frizz_risk":1,"updated_at":"2026-07-16T05:30:50.252568+05:30"},{"city":"Panipat","state":"Haryana","latitude":29.3909,"longitude":76.9635,"temp":27.8,"humidity":88,"rain":0.0,"pressure":975.5,"uv_index":6.85,"wind_gusts":29.9,"aqi":927,"pm10":584.9,"pm2_5":187.7,"no2":59.4,"co":938.0,"o3":1.0,"so2":9.8,"mosquito_risk":7,"arthritis_risk":5,"migraine_risk":7,"frizz_risk":1,"updated_at":"2026-07-16T05:30:50.252576+05:30"},{"city":"Mathura","state":"Uttar Pradesh","latitude":27.4924,"longitude":77.6737,"temp":28.3,"humidity":72,"rain":0.0,"pressure":982.1,"uv_index":6.4,"wind_gusts":29.9,"aqi":364,"pm10":167.2,"pm2_5":61.7,"no2":32.6,"co":256.0,"o3":20.0,"so2":5.2,"mosquito_risk":7,"arthritis_risk":5,"migraine_risk":7,"frizz_risk":1,"updated_at":"2026-07-16T05:30:50.252583+05:30"},{"city":"Vrindavan","state":"Uttar Pradesh","latitude":27.5823,"longitude":77.7027,"temp":28.4,"humidity":71,"rain":0.0,"pressure":982.6,"uv_index":7.2,"wind_gusts":29.2,"aqi":364,"pm10":167.2,"pm2_5":61.7,"no2":32.6,"co":235.0,"o3":20.0,"so2":5.2,"mosquito_risk":7,"arthritis_risk":5,"migraine_risk":7,"frizz_risk":1,"updated_at":"2026-07-16T05:30:50.252590+05:30"},{"city":"Ayodhya","state":"Uttar Pradesh","latitude":26.7922,"longitude":82.1998,"temp":27.6,"humidity":94,"rain":0.0,"pressure":990.8,"uv_index":7.65,"wind_gusts":23.4,"aqi":181,"pm10":161.1,"pm2_5":105.0,"no2":33.3,"co":1017.0,"o3":31.0,"so2":9.8,"mosquito_risk":7,"arthritis_risk":5,"migraine_risk":7,"frizz_risk":1,"updated_at":"2026-07-16T05:30:50.252597+05:30"},{"city":"Ratlam","state":"Madhya Pradesh","latitude":23.3315,"longitude":75.0367,"temp":23.9,"humidity":94,"rain":0.0,"pressure":952.4,"uv_index":6.8,"wind_gusts":34.6,"aqi":65,"pm10":24.7,"pm2_5":15.3,"no2":10.5,"co":142.0,"o3":32.0,"so2":13.3,"mosquito_risk":3,"arthritis_risk":5,"migraine_risk":7,"frizz_risk":1,"updated_at":"2026-07-16T05:30:50.252605+05:30"},{"city":"Sagar","state":"Madhya Pradesh","latitude":23.8388,"longitude":78.7378,"temp":25.9,"humidity":77,"rain":0.0,"pressure":947.0,"uv_index":8.15,"wind_gusts":37.1,"aqi":101,"pm10":40.3,"pm2_5":24.5,"no2":9.0,"co":239.0,"o3":54.0,"so2":5.5,"mosquito_risk":7,"arthritis_risk":5,"migraine_risk":7,"frizz_risk":1,"updated_at":"2026-07-16T05:30:50.252612+05:30"},{"city":"Satna","state":"Madhya Pradesh","latitude":24.6005,"longitude":80.8322,"temp":27.2,"humidity":79,"rain":0.0,"pressure":967.0,"uv_index":8.0,"wind_gusts":34.9,"aqi":129,"pm10":72.9,"pm2_5":38.5,"no2":9.1,"co":210.0,"o3":58.0,"so2":6.4,"mosquito_risk":7,"arthritis_risk":5,"migraine_risk":7,"frizz_risk":1,"updated_at":"2026-07-16T05:30:50.252619+05:30"},{"city":"Akola","state":"Maharashtra","latitude":20.7002,"longitude":77.0082,"temp":26.5,"humidity":75,"rain":0.0,"pressure":973.3,"uv_index":8.75,"wind_gusts":42.5,"aqi":67,"pm10":20.7,"pm2_5":12.2,"no2":9.3,"co":144.0,"o3":33.0,"so2":8.3,"mosquito_risk":7,"arthritis_risk":5,"migraine_risk":7,"frizz_risk":1,"updated_at":"2026-07-16T05:30:50.252626+05:30"},{"city":"Amravati","state":"Maharashtra","latitude":20.9374,"longitude":77.7796,"temp":26.4,"humidity":73,"rain":0.0,"pressure":965.3,"uv_index":8.75,"wind_gusts":42.1,"aqi":69,"pm10":20.3,"pm2_5":12.3,"no2":9.8,"co":151.0,"o3":33.0,"so2":9.5,"mosquito_risk":7,"arthritis_risk":5,"migraine_risk":7,"frizz_risk":1,"updated_at":"2026-07-16T05:30:50.252635+05:30"},{"city":"Latur","state":"Maharashtra","latitude":18.4088,"longitude":76.5604,"temp":23.3,"humidity":84,"rain":0.0,"pressure":938.7,"uv_index":4.35,"wind_gusts":37.8,"aqi":55,"pm10":12.3,"pm2_5":8.3,"no2":8.5,"co":125.0,"o3":32.0,"so2":3.8,"mosquito_risk":3,"arthritis_risk":5,"migraine_risk":3,"frizz_risk":1,"updated_at":"2026-07-16T05:30:50.252642+05:30"},{"city":"Nanded","state":"Maharashtra","latitude":19.1383,"longitude":77.3091,"temp":26.0,"humidity":73,"rain":0.0,"pressure":967.2,"uv_index":8.4,"wind_gusts":38.2,"aqi":65,"pm10":21.4,"pm2_5":13.6,"no2":7.4,"co":151.0,"o3":43.0,"so2":4.8,"mosquito_risk":7,"arthritis_risk":5,"migraine_risk":7,"frizz_risk":1,"updated_at":"2026-07-16T05:30:50.252651+05:30"},{"city":"Gulbarga","state":"Karnataka","latitude":17.3297,"longitude":76.8343,"temp":24.4,"humidity":79,"rain":0.0,"pressure":958.0,"uv_index":8.3,"wind_gusts":42.5,"aqi":59,"pm10":8.9,"pm2_5":6.1,"no2":6.8,"co":122.0,"o3":35.0,"so2":3.2,"mosquito_risk":3,"arthritis_risk":5,"migraine_risk":7,"frizz_risk":1,"updated_at":"2026-07-16T05:30:50.252659+05:30"},{"city":"Bidar","state":"Karnataka","latitude":17.9104,"longitude":77.5199,"temp":24.2,"humidity":79,"rain":0.0,"pressure":934.1,"uv_index":8.2,"wind_gusts":39.2,"aqi":62,"pm10":14.6,"pm2_5":10.1,"no2":7.0,"co":142.0,"o3":42.0,"so2":2.8,"mosquito_risk":3,"arthritis_risk":5,"migraine_risk":7,"frizz_risk":1,"updated_at":"2026-07-16T05:30:50.252667+05:30"},{"city":"Hospet","state":"Karnataka","latitude":15.2689,"longitude":76.3909,"temp":23.4,"humidity":85,"rain":0.0,"pressure":955.6,"uv_index":8.85,"wind_gusts":55.8,"aqi":56,"pm10":15.9,"pm2_5":8.7,"no2":4.2,"co":111.0,"o3":40.0,"so2":1.9,"mosquito_risk":3,"arthritis_risk":5,"migraine_risk":7,"frizz_risk":1,"updated_at":"2026-07-16T05:30:50.252674+05:30"},{"city":"Tirupur","state":"Tamil Nadu","latitude":11.1085,"longitude":77.3411,"temp":23.8,"humidity":89,"rain":0.0,"pressure":975.8,"uv_index":8.2,"wind_gusts":55.8,"aqi":68,"pm10":21.6,"pm2_5":17.2,"no2":17.4,"co":166.0,"o3":18.0,"so2":4.1,"mosquito_risk":3,"arthritis_risk":5,"migraine_risk":7,"frizz_risk":1,"updated_at":"2026-07-16T05:30:50.252681+05:30"},{"city":"Alappuzha","state":"Kerala","latitude":9.4981,"longitude":76.3388,"temp":25.8,"humidity":92,"rain":0.0,"pressure":1010.4,"uv_index":8.05,"wind_gusts":35.3,"aqi":69,"pm10":41.3,"pm2_5":22.0,"no2":10.4,"co":89.0,"o3":37.0,"so2":4.8,"mosquito_risk":7,"arthritis_risk":0,"migraine_risk":4,"frizz_risk":1,"updated_at":"2026-07-16T05:30:50.252688+05:30"},{"city":"Munnar","state":"Kerala","latitude":10.0889,"longitude":77.0595,"temp":15.2,"humidity":89,"rain":0.0,"pressure":856.1,"uv_index":8.65,"wind_gusts":36.4,"aqi":56,"pm10":16.6,"pm2_5":10.9,"no2":5.9,"co":100.0,"o3":26.0,"so2":1.8,"mosquito_risk":3,"arthritis_risk":10,"migraine_risk":7,"frizz_risk":0,"updated_at":"2026-07-16T05:30:50.252696+05:30"},{"city":"Silchar","state":"Assam","latitude":24.8333,"longitude":92.7789,"temp":26.4,"humidity":97,"rain":0.0,"pressure":1002.4,"uv_index":6.9,"wind_gusts":28.1,"aqi":61,"pm10":15.7,"pm2_5":14.7,"no2":7.9,"co":306.0,"o3":63.0,"so2":2.6,"mosquito_risk":7,"arthritis_risk":5,"migraine_risk":4,"frizz_risk":1,"updated_at":"2026-07-16T05:30:50.252703+05:30"},{"city":"Dibrugarh","state":"Assam","latitude":27.4728,"longitude":94.912,"temp":25.3,"humidity":99,"rain":0.2,"pressure":992.7,"uv_index":6.85,"wind_gusts":29.5,"aqi":50,"pm10":8.7,"pm2_5":8.5,"no2":11.0,"co":184.0,"o3":40.0,"so2":1.1,"mosquito_risk":10,"arthritis_risk":5,"migraine_risk":7,"frizz_risk":1,"updated_at":"2026-07-16T05:30:50.252710+05:30"}]