[{"city":"Delhi","state":"Delhi","latitude":28.6139,"longitude":77.209,"temp":36.0,"humidity":22,"rain":0.0,"pressure":980.8,"uv_index":7.7,"wind_gusts":42.8,"aqi":606,"pm10":599.8,"pm2_5":177.0,"no2":19.3,"co":519.0,"o3":92.0,"so2":17.9,"mosquito_risk":0,"arthritis_risk":5,"migraine_risk":10,"frizz_risk":0,"updated_at":"2026-05-24T09:24:28.150048+05:30"},{"city":"Mumbai","state":"Maharashtra","latitude":19.076,"longitude":72.8777,"temp":32.1,"humidity":65,"rain":0.0,"pressure":1011.4,"uv_index":6.95,"wind_gusts":45.4,"aqi":41,"pm10":13.4,"pm2_5":9.5,"no2":5.7,"co":305.0,"o3":61.0,"so2":6.2,"mosquito_risk":3,"arthritis_risk":0,"migraine_risk":4,"frizz_risk":1,"updated_at":"2026-05-24T09:24:28.150094+05:30"},{"city":"Bangalore","state":"Karnataka","latitude":12.9716,"longitude":77.5946,"temp":25.5,"humidity":75,"rain":0.0,"pressure":914.9,"uv_index":9.0,"wind_gusts":38.9,"aqi":51,"pm10":9.7,"pm2_5":8.1,"no2":7.3,"co":326.0,"o3":52.0,"so2":4.0,"mosquito_risk":7,"arthritis_risk":5,"migraine_risk":7,"frizz_risk":1,"updated_at":"2026-05-24T09:24:28.150110+05:30"},{"city":"Hyderabad","state":"Telangana","latitude":17.385,"longitude":78.4867,"temp":32.5,"humidity":53,"rain":0.0,"pressure":955.0,"uv_index":9.25,"wind_gusts":46.8,"aqi":80,"pm10":19.0,"pm2_5":16.8,"no2":5.8,"co":319.0,"o3":87.0,"so2":5.8,"mosquito_risk":0,"arthritis_risk":5,"migraine_risk":7,"frizz_risk":1,"updated_at":"2026-05-24T09:24:28.150119+05:30"},{"city":"Chennai","state":"Tamil Nadu","latitude":13.0827,"longitude":80.2707,"temp":31.5,"humidity":61,"rain":0.0,"pressure":1007.0,"uv_index":9.0,"wind_gusts":57.2,"aqi":81,"pm10":22.6,"pm2_5":19.2,"no2":11.4,"co":261.0,"o3":77.0,"so2":10.7,"mosquito_risk":3,"arthritis_risk":5,"migraine_risk":4,"frizz_risk":1,"updated_at":"2026-05-24T09:24:28.150127+05:30"},{"city":"Kolkata","state":"West Bengal","latitude":22.5726,"longitude":88.3639,"temp":33.3,"humidity":67,"rain":0.0,"pressure":1004.3,"uv_index":8.95,"wind_gusts":43.2,"aqi":96,"pm10":44.6,"pm2_5":31.0,"no2":3.0,"co":300.0,"o3":120.0,"so2":7.2,"mosquito_risk":3,"arthritis_risk":5,"migraine_risk":4,"frizz_risk":1,"updated_at":"2026-05-24T09:24:28.150136+05:30"},{"city":"Pune","state":"Maharashtra","latitude":18.5204,"longitude":73.8567,"temp":30.2,"humidity":60,"rain":0.0,"pressure":951.6,"uv_index":8.35,"wind_gusts":49.3,"aqi":39,"pm10":7.5,"pm2_5":5.5,"no2":4.2,"co":188.0,"o3":57.0,"so2":5.7,"mosquito_risk":0,"arthritis_risk":5,"migraine_risk":7,"frizz_risk":1,"updated_at":"2026-05-24T09:24:28.150142+05:30"},{"city":"Ahmedabad","state":"Gujarat","latitude":23.0225,"longitude":72.5714,"temp":32.7,"humidity":60,"rain":0.0,"pressure":1004.3,"uv_index":8.15,"wind_gusts":38.2,"aqi":64,"pm10":23.6,"pm2_5":16.6,"no2":3.6,"co":151.0,"o3":54.0,"so2":4.1,"mosquito_risk":0,"arthritis_risk":5,"migraine_risk":4,"frizz_risk":1,"updated_at":"2026-05-24T09:24:28.150149+05:30"},{"city":"Jaipur","state":"Rajasthan","latitude":26.9124,"longitude":75.7873,"temp":36.1,"humidity":23,"rain":0.0,"pressure":959.7,"uv_index":8.25,"wind_gusts":50.0,"aqi":188,"pm10":501.1,"pm2_5":105.9,"no2":3.2,"co":167.0,"o3":70.0,"so2":5.3,"mosquito_risk":0,"arthritis_risk":5,"migraine_risk":10,"frizz_risk":0,"updated_at":"2026-05-24T09:24:28.150160+05:30"},{"city":"Lucknow","state":"Uttar Pradesh","latitude":26.8467,"longitude":80.9462,"temp":37.2,"humidity":23,"rain":0.0,"pressure":990.5,"uv_index":8.2,"wind_gusts":47.9,"aqi":171,"pm10":467.5,"pm2_5":122.0,"no2":10.8,"co":316.0,"o3":112.0,"so2":11.6,"mosquito_risk":0,"arthritis_risk":5,"migraine_risk":10,"frizz_risk":0,"updated_at":"2026-05-24T09:24:28.150167+05:30"},{"city":"Kanpur","state":"Uttar Pradesh","latitude":26.4499,"longitude":80.3319,"temp":38.1,"humidity":22,"rain":0.0,"pressure":989.1,"uv_index":8.2,"wind_gusts":46.1,"aqi":526,"pm10":454.5,"pm2_5":105.5,"no2":8.4,"co":291.0,"o3":103.0,"so2":9.0,"mosquito_risk":0,"arthritis_risk":5,"migraine_risk":10,"frizz_risk":0,"updated_at":"2026-05-24T09:24:28.150174+05:30"},{"city":"Chandigarh","state":"Chandigarh","latitude":30.7333,"longitude":76.7794,"temp":36.2,"humidity":19,"rain":0.0,"pressure":965.3,"uv_index":7.75,"wind_gusts":47.5,"aqi":78,"pm10":38.5,"pm2_5":20.3,"no2":6.7,"co":473.0,"o3":129.0,"so2":8.8,"mosquito_risk":0,"arthritis_risk":5,"migraine_risk":10,"frizz_risk":0,"updated_at":"2026-05-24T09:24:28.150181+05:30"},{"city":"Srinagar","state":"Jammu and Kashmir","latitude":34.0837,"longitude":74.7973,"temp":17.7,"humidity":63,"rain":0.0,"pressure":844.3,"uv_index":8.45,"wind_gusts":27.7,"aqi":78,"pm10":34.9,"pm2_5":26.1,"no2":7.0,"co":377.0,"o3":86.0,"so2":2.2,"mosquito_risk":3,"arthritis_risk":5,"migraine_risk":7,"frizz_risk":0,"updated_at":"2026-05-24T09:24:28.150188+05:30"},{"city":"Jammu","state":"Jammu and Kashmir","latitude":32.7266,"longitude":74.857,"temp":31.2,"humidity":36,"rain":0.0,"pressure":970.6,"uv_index":8.55,"wind_gusts":38.2,"aqi":69,"pm10":26.1,"pm2_5":19.2,"no2":9.9,"co":296.0,"o3":85.0,"so2":2.7,"mosquito_risk":0,"arthritis_risk":5,"migraine_risk":7,"frizz_risk":0,"updated_at":"2026-05-24T09:24:28.150194+05:30"},{"city":"Amritsar","state":"Punjab","latitude":31.634,"longitude":74.8723,"temp":32.2,"humidity":35,"rain":0.0,"pressure":978.3,"uv_index":8.45,"wind_gusts":29.9,"aqi":99,"pm10":39.0,"pm2_5":25.0,"no2":10.0,"co":373.0,"o3":97.0,"so2":5.3,"mosquito_risk":0,"arthritis_risk":5,"migraine_risk":7,"frizz_risk":0,"updated_at":"2026-05-24T09:24:28.150201+05:30"},{"city":"Ludhiana","state":"Punjab","latitude":30.901,"longitude":75.8573,"temp":33.8,"humidity":28,"rain":0.0,"pressure":976.1,"uv_index":8.0,"wind_gusts":26.3,"aqi":86,"pm10":35.6,"pm2_5":24.1,"no2":8.5,"co":413.0,"o3":106.0,"so2":6.8,"mosquito_risk":0,"arthritis_risk":5,"migraine_risk":7,"frizz_risk":0,"updated_at":"2026-05-24T09:24:28.150207+05:30"},{"city":"Jalandhar","state":"Punjab","latitude":31.326,"longitude":75.5762,"temp":32.5,"humidity":32,"rain":0.0,"pressure":977.1,"uv_index":8.2,"wind_gusts":25.9,"aqi":90,"pm10":51.0,"pm2_5":31.0,"no2":9.6,"co":444.0,"o3":107.0,"so2":5.6,"mosquito_risk":0,"arthritis_risk":5,"migraine_risk":7,"frizz_risk":0,"updated_at":"2026-05-24T09:24:28.150213+05:30"},{"city":"Dehradun","state":"Uttarakhand","latitude":30.6284,"longitude":78.0322,"temp":25.5,"humidity":27,"rain":0.0,"pressure":832.3,"uv_index":8.15,"wind_gusts":50.8,"aqi":62,"pm10":54.1,"pm2_5":15.3,"no2":1.7,"co":153.0,"o3":118.0,"so2":0.2,"mosquito_risk":4,"arthritis_risk":5,"migraine_risk":7,"frizz_risk":0,"updated_at":"2026-05-24T09:24:28.150219+05:30"},{"city":"Shimla","state":"Himachal Pradesh","latitude":31.1048,"longitude":77.1734,"temp":22.6,"humidity":21,"rain":0.0,"pressure":788.2,"uv_index":8.25,"wind_gusts":70.2,"aqi":65,"pm10":39.7,"pm2_5":12.7,"no2":1.6,"co":147.0,"o3":126.0,"so2":1.1,"mosquito_risk":0,"arthritis_risk":5,"migraine_risk":7,"frizz_risk":1,"updated_at":"2026-05-24T09:24:28.150228+05:30"},{"city":"Manali","state":"Himachal Pradesh","latitude":32.2396,"longitude":77.1887,"temp":23.3,"humidity":24,"rain":0.0,"pressure":821.5,"uv_index":9.05,"wind_gusts":48.6,"aqi":49,"pm10":22.6,"pm2_5":5.8,"no2":6.3,"co":163.0,"o3":117.0,"so2":0.2,"mosquito_risk":0,"arthritis_risk":5,"migraine_risk":7,"frizz_risk":0,"updated_at":"2026-05-24T09:24:28.150235+05:30"},{"city":"Gurgaon","state":"Haryana","latitude":28.4595,"longitude":77.0266,"temp":35.1,"humidity":28,"rain":0.0,"pressure":979.4,"uv_index":7.85,"wind_gusts":43.2,"aqi":1037,"pm10":1136.2,"pm2_5":239.3,"no2":20.8,"co":431.0,"o3":90.0,"so2":18.8,"mosquito_risk":0,"arthritis_risk":5,"migraine_risk":10,"frizz_risk":0,"updated_at":"2026-05-24T09:24:28.150241+05:30"},{"city":"Noida","state":"Uttar Pradesh","latitude":28.5355,"longitude":77.391,"temp":36.6,"humidity":22,"rain":0.0,"pressure":982.0,"uv_index":7.75,"wind_gusts":38.9,"aqi":1037,"pm10":1136.2,"pm2_5":239.3,"no2":20.8,"co":540.0,"o3":90.0,"so2":18.8,"mosquito_risk":0,"arthritis_risk":5,"migraine_risk":10,"frizz_risk":0,"updated_at":"2026-05-24T09:24:28.150248+05:30"},{"city":"Ghaziabad","state":"Uttar Pradesh","latitude":28.6692,"longitude":77.4538,"temp":36.4,"humidity":22,"rain":0.0,"pressure":980.2,"uv_index":7.75,"wind_gusts":41.8,"aqi":425,"pm10":508.5,"pm2_5":157.9,"no2":14.7,"co":381.0,"o3":109.0,"so2":17.5,"mosquito_risk":0,"arthritis_risk":5,"migraine_risk":10,"frizz_risk":0,"updated_at":"2026-05-24T09:24:28.150254+05:30"},{"city":"Faridabad","state":"Haryana","latitude":28.4089,"longitude":77.3178,"temp":36.3,"humidity":22,"rain":0.0,"pressure":981.5,"uv_index":7.8,"wind_gusts":42.5,"aqi":1037,"pm10":1136.2,"pm2_5":239.3,"no2":20.8,"co":465.0,"o3":90.0,"so2":18.8,"mosquito_risk":0,"arthritis_risk":5,"migraine_risk":10,"frizz_risk":0,"updated_at":"2026-05-24T09:24:28.150261+05:30"},{"city":"Meerut","state":"Uttar Pradesh","latitude":28.9845,"longitude":77.7064,"temp":34.7,"humidity":28,"rain":0.0,"pressure":978.6,"uv_index":7.65,"wind_gusts":43.9,"aqi":425,"pm10":508.5,"pm2_5":157.9,"no2":14.7,"co":345.0,"o3":109.0,"so2":17.5,"mosquito_risk":0,"arthritis_risk":5,"migraine_risk":7,"frizz_risk":0,"updated_at":"2026-05-24T09:24:28.150271+05:30"},{"city":"Agra","state":"Uttar Pradesh","latitude":27.1767,"longitude":78.0081,"temp":36.8,"humidity":26,"rain":0.0,"pressure":985.6,"uv_index":8.05,"wind_gusts":40.3,"aqi":762,"pm10":1128.8,"pm2_5":185.8,"no2":15.0,"co":335.0,"o3":82.0,"so2":11.0,"mosquito_risk":0,"arthritis_risk":5,"migraine_risk":10,"frizz_risk":0,"updated_at":"2026-05-24T09:24:28.150278+05:30"},{"city":"Varanasi","state":"Uttar Pradesh","latitude":25.3176,"longitude":82.9739,"temp":38.3,"humidity":23,"rain":0.0,"pressure":994.6,"uv_index":8.7,"wind_gusts":47.5,"aqi":150,"pm10":251.5,"pm2_5":62.9,"no2":13.8,"co":365.0,"o3":113.0,"so2":14.9,"mosquito_risk":0,"arthritis_risk":5,"migraine_risk":10,"frizz_risk":0,"updated_at":"2026-05-24T09:24:28.150284+05:30"},{"city":"Prayagraj","state":"Uttar Pradesh","latitude":25.4358,"longitude":81.8463,"temp":38.5,"humidity":22,"rain":0.0,"pressure":993.3,"uv_index":8.6,"wind_gusts":46.8,"aqi":151,"pm10":314.8,"pm2_5":76.8,"no2":14.0,"co":275.0,"o3":114.0,"so2":14.6,"mosquito_risk":0,"arthritis_risk":5,"migraine_risk":10,"frizz_risk":0,"updated_at":"2026-05-24T09:24:28.150291+05:30"},{"city":"Gorakhpur","state":"Uttar Pradesh","latitude":26.7606,"longitude":83.3732,"temp":33.8,"humidity":55,"rain":0.0,"pressure":994.3,"uv_index":8.6,"wind_gusts":34.9,"aqi":151,"pm10":119.7,"pm2_5":77.3,"no2":13.7,"co":561.0,"o3":129.0,"so2":16.2,"mosquito_risk":0,"arthritis_risk":5,"migraine_risk":7,"frizz_risk":1,"updated_at":"2026-05-24T09:24:28.150299+05:30"},{"city":"Bareilly","state":"Uttar Pradesh","latitude":28.367,"longitude":79.4304,"temp":33.7,"humidity":30,"rain":0.0,"pressure":983.5,"uv_index":8.05,"wind_gusts":42.8,"aqi":126,"pm10":100.4,"pm2_5":56.5,"no2":14.0,"co":339.0,"o3":109.0,"so2":12.0,"mosquito_risk":0,"arthritis_risk":5,"migraine_risk":7,"frizz_risk":0,"updated_at":"2026-05-24T09:24:28.150306+05:30"},{"city":"Aligarh","state":"Uttar Pradesh","latitude":27.8974,"longitude":78.088,"temp":36.1,"humidity":26,"rain":0.0,"pressure":983.2,"uv_index":7.9,"wind_gusts":39.6,"aqi":697,"pm10":946.2,"pm2_5":222.1,"no2":18.8,"co":348.0,"o3":82.0,"so2":17.7,"mosquito_risk":0,"arthritis_risk":5,"migraine_risk":10,"frizz_risk":0,"updated_at":"2026-05-24T09:24:28.150311+05:30"},{"city":"Moradabad","state":"Uttar Pradesh","latitude":28.8386,"longitude":78.7733,"temp":33.1,"humidity":29,"rain":0.0,"pressure":980.6,"uv_index":7.85,"wind_gusts":48.2,"aqi":126,"pm10":124.3,"pm2_5":60.8,"no2":11.1,"co":358.0,"o3":105.0,"so2":10.4,"mosquito_risk":0,"arthritis_risk":5,"migraine_risk":7,"frizz_risk":0,"updated_at":"2026-05-24T09:24:28.150318+05:30"},{"city":"Saharanpur","state":"Uttar Pradesh","latitude":29.9637,"longitude":77.546,"temp":33.3,"humidity":28,"rain":0.0,"pressure":972.5,"uv_index":7.4,"wind_gusts":47.2,"aqi":90,"pm10":54.5,"pm2_5":28.8,"no2":8.9,"co":320.0,"o3":106.0,"so2":9.2,"mosquito_risk":0,"arthritis_risk":5,"migraine_risk":7,"frizz_risk":0,"updated_at":"2026-05-24T09:24:28.150324+05:30"},{"city":"Jhansi","state":"Uttar Pradesh","latitude":25.4484,"longitude":78.5685,"temp":37.1,"humidity":25,"rain":0.0,"pressure":976.8,"uv_index":8.45,"wind_gusts":44.6,"aqi":93,"pm10":59.8,"pm2_5":26.6,"no2":2.1,"co":157.0,"o3":78.0,"so2":3.3,"mosquito_risk":0,"arthritis_risk":5,"migraine_risk":10,"frizz_risk":0,"updated_at":"2026-05-24T09:24:31.471333+05:30"},{"city":"Surat","state":"Gujarat","latitude":21.1702,"longitude":72.8311,"temp":33.2,"humidity":63,"rain":0.0,"pressure":1009.2,"uv_index":7.7,"wind_gusts":43.2,"aqi":56,"pm10":18.5,"pm2_5":14.4,"no2":11.6,"co":318.0,"o3":38.0,"so2":33.2,"mosquito_risk":3,"arthritis_risk":0,"migraine_risk":4,"frizz_risk":1,"updated_at":"2026-05-24T09:24:31.471369+05:30"},{"city":"Vadodara","state":"Gujarat","latitude":22.3072,"longitude":73.1812,"temp":34.3,"humidity":52,"rain":0.0,"pressure":1006.4,"uv_index":8.1,"wind_gusts":45.7,"aqi":56,"pm10":18.5,"pm2_5":13.6,"no2":4.2,"co":154.0,"o3":50.0,"so2":5.9,"mosquito_risk":0,"arthritis_risk":5,"migraine_risk":4,"frizz_risk":1,"updated_at":"2026-05-24T09:24:31.471380+05:30"},{"city":"Rajkot","state":"Gujarat","latitude":22.3039,"longitude":70.8022,"temp":32.0,"humidity":59,"rain":0.0,"pressure":996.7,"uv_index":7.7,"wind_gusts":48.2,"aqi":63,"pm10":20.1,"pm2_5":12.8,"no2":2.4,"co":116.0,"o3":53.0,"so2":4.4,"mosquito_risk":0,"arthritis_risk":5,"migraine_risk":7,"frizz_risk":1,"updated_at":"2026-05-24T09:24:31.471389+05:30"},{"city":"Thane","state":"Maharashtra","latitude":19.2183,"longitude":72.9781,"temp":32.3,"humidity":65,"rain":0.1,"pressure":1010.8,"uv_index":7.4,"wind_gusts":41.0,"aqi":41,"pm10":13.4,"pm2_5":9.5,"no2":5.7,"co":216.0,"o3":61.0,"so2":6.2,"mosquito_risk":6,"arthritis_risk":0,"migraine_risk":4,"frizz_risk":1,"updated_at":"2026-05-24T09:24:31.471397+05:30"},{"city":"Nagpur","state":"Maharashtra","latitude":21.1458,"longitude":79.0882,"temp":38.5,"humidity":22,"rain":0.0,"pressure":972.9,"uv_index":8.9,"wind_gusts":43.9,"aqi":66,"pm10":37.6,"pm2_5":21.8,"no2":6.3,"co":194.0,"o3":97.0,"so2":12.4,"mosquito_risk":0,"arthritis_risk":5,"migraine_risk":10,"frizz_risk":0,"updated_at":"2026-05-24T09:24:31.471404+05:30"},{"city":"Nashik","state":"Maharashtra","latitude":19.9975,"longitude":73.7898,"temp":29.6,"humidity":66,"rain":0.0,"pressure":949.0,"uv_index":8.0,"wind_gusts":38.5,"aqi":36,"pm10":7.6,"pm2_5":5.4,"no2":2.8,"co":131.0,"o3":56.0,"so2":2.2,"mosquito_risk":7,"arthritis_risk":5,"migraine_risk":7,"frizz_risk":1,"updated_at":"2026-05-24T09:24:31.471412+05:30"},{"city":"Aurangabad","state":"Maharashtra","latitude":19.8762,"longitude":75.3433,"temp":31.3,"humidity":56,"rain":0.0,"pressure":947.2,"uv_index":9.0,"wind_gusts":44.3,"aqi":52,"pm10":11.1,"pm2_5":8.1,"no2":5.2,"co":147.0,"o3":56.0,"so2":9.7,"mosquito_risk":0,"arthritis_risk":5,"migraine_risk":7,"frizz_risk":1,"updated_at":"2026-05-24T09:24:31.471420+05:30"},{"city":"Solapur","state":"Maharashtra","latitude":17.6599,"longitude":75.9064,"temp":31.8,"humidity":57,"rain":0.0,"pressure":960.2,"uv_index":9.0,"wind_gusts":47.5,"aqi":66,"pm10":11.5,"pm2_5":8.5,"no2":3.4,"co":174.0,"o3":65.0,"so2":3.1,"mosquito_risk":0,"arthritis_risk":5,"migraine_risk":7,"frizz_risk":1,"updated_at":"2026-05-24T09:24:31.471428+05:30"},{"city":"Kolhapur","state":"Maharashtra","latitude":16.705,"longitude":74.2433,"temp":27.6,"humidity":72,"rain":0.0,"pressure":951.5,"uv_index":8.9,"wind_gusts":46.4,"aqi":40,"pm10":8.6,"pm2_5":6.7,"no2":3.1,"co":166.0,"o3":51.0,"so2":1.9,"mosquito_risk":7,"arthritis_risk":5,"migraine_risk":7,"frizz_risk":1,"updated_at":"2026-05-24T09:24:31.471435+05:30"},{"city":"Goa","state":"Goa","latitude":15.2993,"longitude":74.124,"temp":30.1,"humidity":76,"rain":0.1,"pressure":1001.7,"uv_index":8.2,"wind_gusts":37.4,"aqi":36,"pm10":16.6,"pm2_5":11.9,"no2":2.3,"co":184.0,"o3":60.0,"so2":1.3,"mosquito_risk":6,"arthritis_risk":5,"migraine_risk":4,"frizz_risk":1,"updated_at":"2026-05-24T09:24:31.471443+05:30"},{"city":"Jodhpur","state":"Rajasthan","latitude":26.2389,"longitude":73.0243,"temp":33.7,"humidity":37,"rain":0.0,"pressure":983.3,"uv_index":8.4,"wind_gusts":55.4,"aqi":185,"pm10":369.7,"pm2_5":85.0,"no2":2.2,"co":126.0,"o3":61.0,"so2":3.8,"mosquito_risk":0,"arthritis_risk":5,"migraine_risk":7,"frizz_risk":1,"updated_at":"2026-05-24T09:24:31.471450+05:30"},{"city":"Udaipur","state":"Rajasthan","latitude":24.5854,"longitude":73.7125,"temp":33.6,"humidity":30,"rain":0.0,"pressure":947.8,"uv_index":8.8,"wind_gusts":52.6,"aqi":83,"pm10":69.2,"pm2_5":26.3,"no2":1.9,"co":136.0,"o3":71.0,"so2":4.4,"mosquito_risk":0,"arthritis_risk":5,"migraine_risk":7,"frizz_risk":0,"updated_at":"2026-05-24T09:24:31.471457+05:30"},{"city":"Kota","state":"Rajasthan","latitude":25.2138,"longitude":75.8648,"temp":37.8,"humidity":21,"rain":0.0,"pressure":979.0,"uv_index":8.4,"wind_gusts":43.6,"aqi":92,"pm10":57.7,"pm2_5":25.8,"no2":2.8,"co":156.0,"o3":72.0,"so2":4.0,"mosquito_risk":0,"arthritis_risk":5,"migraine_risk":10,"frizz_risk":0,"updated_at":"2026-05-24T09:24:31.471464+05:30"},{"city":"Bikaner","state":"Rajasthan","latitude":28.0229,"longitude":73.3119,"temp":36.5,"humidity":14,"rain":0.0,"pressure":980.0,"uv_index":8.45,"wind_gusts":56.5,"aqi":134,"pm10":472.2,"pm2_5":152.7,"no2":1.3,"co":142.0,"o3":87.0,"so2":4.7,"mosquito_risk":0,"arthritis_risk":5,"migraine_risk":10,"frizz_risk":0,"updated_at":"2026-05-24T09:24:31.471471+05:30"},{"city":"Ajmer","state":"Rajasthan","latitude":26.4499,"longitude":74.6399,"temp":33.1,"humidity":33,"rain":0.0,"pressure":955.3,"uv_index":8.4,"wind_gusts":61.2,"aqi":112,"pm10":181.1,"pm2_5":58.1,"no2":2.0,"co":140.0,"o3":65.0,"so2":4.1,"mosquito_risk":0,"arthritis_risk":5,"migraine_risk":7,"frizz_risk":0,"updated_at":"2026-05-24T09:24:31.471478+05:30"},{"city":"Gwalior","state":"Madhya Pradesh","latitude":26.2183,"longitude":78.1828,"temp":37.0,"humidity":24,"rain":0.0,"pressure":981.6,"uv_index":8.25,"wind_gusts":43.6,"aqi":107,"pm10":109.4,"pm2_5":39.3,"no2":4.1,"co":164.0,"o3":79.0,"so2":5.4,"mosquito_risk":0,"arthritis_risk":5,"migraine_risk":10,"frizz_risk":0,"updated_at":"2026-05-24T09:24:31.471486+05:30"},{"city":"Indore","state":"Madhya Pradesh","latitude":22.7196,"longitude":75.8577,"temp":32.7,"humidity":52,"rain":0.0,"pressure":950.1,"uv_index":8.7,"wind_gusts":45.0,"aqi":65,"pm10":17.7,"pm2_5":12.6,"no2":5.9,"co":206.0,"o3":58.0,"so2":12.2,"mosquito_risk":0,"arthritis_risk":5,"migraine_risk":7,"frizz_risk":1,"updated_at":"2026-05-24T09:24:31.471493+05:30"},{"city":"Bhopal","state":"Madhya Pradesh","latitude":23.2599,"longitude":77.4126,"temp":36.3,"humidity":23,"rain":0.0,"pressure":954.7,"uv_index":8.7,"wind_gusts":47.2,"aqi":78,"pm10":42.4,"pm2_5":22.0,"no2":2.8,"co":197.0,"o3":88.0,"so2":5.8,"mosquito_risk":0,"arthritis_risk":5,"migraine_risk":10,"frizz_risk":0,"updated_at":"2026-05-24T09:24:31.471500+05:30"},{"city":"Jabalpur","state":"Madhya Pradesh","latitude":23.1815,"longitude":79.9864,"temp":38.5,"humidity":20,"rain":0.0,"pressure":961.6,"uv_index":8.85,"wind_gusts":39.2,"aqi":71,"pm10":51.7,"pm2_5":27.8,"no2":4.5,"co":226.0,"o3":97.0,"so2":5.2,"mosquito_risk":0,"arthritis_risk":5,"migraine_risk":10,"frizz_risk":0,"updated_at":"2026-05-24T09:24:31.471507+05:30"},{"city":"Ujjain","state":"Madhya Pradesh","latitude":23.1765,"longitude":75.7885,"temp":33.2,"humidity":51,"rain":0.0,"pressure":955.6,"uv_index":8.6,"wind_gusts":46.1,"aqi":68,"pm10":17.3,"pm2_5":12.5,"no2":5.3,"co":174.0,"o3":56.0,"so2":11.1,"mosquito_risk":0,"arthritis_risk":5,"migraine_risk":7,"frizz_risk":1,"updated_at":"2026-05-24T09:24:31.471515+05:30"},{"city":"Visakhapatnam","state":"Andhra Pradesh","latitude":17.6868,"longitude":83.2185,"temp":35.4,"humidity":63,"rain":0.0,"pressure":1001.3,"uv_index":9.1,"wind_gusts":33.5,"aqi":114,"pm10":58.6,"pm2_5":50.2,"no2":33.3,"co":1922.0,"o3":104.0,"so2":71.3,"mosquito_risk":3,"arthritis_risk":5,"migraine_risk":7,"frizz_risk":1,"updated_at":"2026-05-24T09:24:31.471521+05:30"},{"city":"Vijayawada","state":"Andhra Pradesh","latitude":16.5062,"longitude":80.648,"temp":37.0,"humidity":41,"rain":0.0,"pressure":1001.3,"uv_index":9.1,"wind_gusts":46.1,"aqi":106,"pm10":37.0,"pm2_5":32.0,"no2":5.1,"co":214.0,"o3":112.0,"so2":6.8,"mosquito_risk":0,"arthritis_risk":5,"migraine_risk":7,"frizz_risk":1,"updated_at":"2026-05-24T09:24:31.471528+05:30"},{"city":"Guntur","state":"Andhra Pradesh","latitude":16.3067,"longitude":80.4365,"temp":36.7,"humidity":43,"rain":0.0,"pressure":1002.6,"uv_index":9.15,"wind_gusts":49.0,"aqi":97,"pm10":36.8,"pm2_5":31.4,"no2":4.5,"co":207.0,"o3":113.0,"so2":6.1,"mosquito_risk":0,"arthritis_risk":5,"migraine_risk":7,"frizz_risk":1,"updated_at":"2026-05-24T09:24:31.471535+05:30"},{"city":"Nellore","state":"Andhra Pradesh","latitude":14.4426,"longitude":79.9865,"temp":34.2,"humidity":54,"rain":0.0,"pressure":1005.2,"uv_index":8.6,"wind_gusts":45.0,"aqi":64,"pm10":10.6,"pm2_5":9.5,"no2":6.6,"co":189.0,"o3":66.0,"so2":8.2,"mosquito_risk":0,"arthritis_risk":5,"migraine_risk":4,"frizz_risk":1,"updated_at":"2026-05-24T09:24:31.471542+05:30"},{"city":"Kurnool","state":"Andhra Pradesh","latitude":15.8281,"longitude":78.0373,"temp":32.4,"humidity":55,"rain":0.0,"pressure":978.9,"uv_index":9.05,"wind_gusts":62.6,"aqi":61,"pm10":9.6,"pm2_5":8.3,"no2":7.3,"co":218.0,"o3":50.0,"so2":4.1,"mosquito_risk":0,"arthritis_risk":5,"migraine_risk":7,"frizz_risk":1,"updated_at":"2026-05-24T09:24:31.471550+05:30"},{"city":"Kakinada","state":"Andhra Pradesh","latitude":16.9891,"longitude":82.2475,"temp":36.7,"humidity":50,"rain":0.0,"pressure":1004.7,"uv_index":9.1,"wind_gusts":35.6,"aqi":83,"pm10":37.5,"pm2_5":32.9,"no2":5.6,"co":310.0,"o3":124.0,"so2":7.3,"mosquito_risk":0,"arthritis_risk":5,"migraine_risk":7,"frizz_risk":1,"updated_at":"2026-05-24T09:24:31.471558+05:30"},{"city":"Tirupati","state":"Andhra Pradesh","latitude":13.6288,"longitude":79.4192,"temp":32.8,"humidity":55,"rain":0.0,"pressure":991.8,"uv_index":8.8,"wind_gusts":42.5,"aqi":69,"pm10":9.7,"pm2_5":8.1,"no2":3.6,"co":167.0,"o3":73.0,"so2":2.0,"mosquito_risk":0,"arthritis_risk":5,"migraine_risk":7,"frizz_risk":1,"updated_at":"2026-05-24T09:24:31.471564+05:30"},{"city":"Warangal","state":"Telangana","latitude":17.9689,"longitude":79.5941,"temp":36.4,"humidity":38,"rain":0.0,"pressure":978.2,"uv_index":9.15,"wind_gusts":53.3,"aqi":105,"pm10":26.8,"pm2_5":24.5,"no2":3.9,"co":224.0,"o3":105.0,"so2":5.4,"mosquito_risk":0,"arthritis_risk":5,"migraine_risk":10,"frizz_risk":1,"updated_at":"2026-05-24T09:24:31.471572+05:30"},{"city":"Nizamabad","state":"Telangana","latitude":18.6725,"longitude":78.0941,"temp":35.0,"humidity":42,"rain":0.0,"pressure":966.6,"uv_index":9.1,"wind_gusts":45.0,"aqi":80,"pm10":19.7,"pm2_5":16.8,"no2":4.3,"co":168.0,"o3":96.0,"so2":7.2,"mosquito_risk":0,"arthritis_risk":5,"migraine_risk":7,"frizz_risk":1,"updated_at":"2026-05-24T09:24:31.471581+05:30"},{"city":"Mysore","state":"Karnataka","latitude":12.2958,"longitude":76.6396,"temp":27.5,"humidity":64,"rain":0.0,"pressure":932.3,"uv_index":7.85,"wind_gusts":41.0,"aqi":41,"pm10":7.0,"pm2_5":6.0,"no2":4.0,"co":157.0,"o3":56.0,"so2":1.6,"mosquito_risk":7,"arthritis_risk":5,"migraine_risk":7,"frizz_risk":1,"updated_at":"2026-05-24T09:24:31.471588+05:30"},{"city":"Mangalore","state":"Karnataka","latitude":12.9141,"longitude":74.856,"temp":26.9,"humidity":89,"rain":0.0,"pressure":1010.9,"uv_index":8.05,"wind_gusts":37.4,"aqi":53,"pm10":16.8,"pm2_5":12.1,"no2":4.9,"co":224.0,"o3":56.0,"so2":3.4,"mosquito_risk":7,"arthritis_risk":0,"migraine_risk":4,"frizz_risk":1,"updated_at":"2026-05-24T09:24:31.471596+05:30"},{"city":"Hubli-Dharwad","state":"Karnataka","latitude":15.3647,"longitude":75.124,"temp":27.8,"humidity":69,"rain":0.0,"pressure":944.4,"uv_index":8.95,"wind_gusts":47.2,"aqi":22,"pm10":3.4,"pm2_5":2.6,"no2":2.3,"co":141.0,"o3":52.0,"so2":0.8,"mosquito_risk":7,"arthritis_risk":5,"migraine_risk":7,"frizz_risk":1,"updated_at":"2026-05-24T09:24:31.471603+05:30"},{"city":"Belgaum","state":"Karnataka","latitude":15.8497,"longitude":74.4977,"temp":27.5,"humidity":68,"rain":0.0,"pressure":929.5,"uv_index":9.05,"wind_gusts":41.4,"aqi":22,"pm10":3.5,"pm2_5":2.8,"no2":3.2,"co":134.0,"o3":50.0,"so2":1.9,"mosquito_risk":7,"arthritis_risk":5,"migraine_risk":7,"frizz_risk":1,"updated_at":"2026-05-24T09:24:34.772677+05:30"},{"city":"Coimbatore","state":"Tamil Nadu","latitude":11.0168,"longitude":76.9558,"temp":27.8,"humidity":72,"rain":0.0,"pressure":964.9,"uv_index":7.55,"wind_gusts":46.4,"aqi":34,"pm10":10.9,"pm2_5":7.6,"no2":3.7,"co":178.0,"o3":64.0,"so2":2.6,"mosquito_risk":7,"arthritis_risk":5,"migraine_risk":7,"frizz_risk":1,"updated_at":"2026-05-24T09:24:34.772714+05:30"},{"city":"Madurai","state":"Tamil Nadu","latitude":9.9252,"longitude":78.1198,"temp":33.6,"humidity":48,"rain":0.0,"pressure":995.1,"uv_index":8.95,"wind_gusts":42.8,"aqi":61,"pm10":11.1,"pm2_5":9.0,"no2":7.3,"co":160.0,"o3":72.0,"so2":4.6,"mosquito_risk":0,"arthritis_risk":5,"migraine_risk":7,"frizz_risk":1,"updated_at":"2026-05-24T09:24:34.772725+05:30"},{"city":"Trichy","state":"Tamil Nadu","latitude":10.7905,"longitude":78.7047,"temp":32.5,"humidity":57,"rain":0.0,"pressure":1001.4,"uv_index":8.5,"wind_gusts":48.2,"aqi":53,"pm10":9.3,"pm2_5":7.4,"no2":4.0,"co":141.0,"o3":61.0,"so2":3.4,"mosquito_risk":0,"arthritis_risk":5,"migraine_risk":4,"frizz_risk":1,"updated_at":"2026-05-24T09:24:34.772734+05:30"},{"city":"Salem","state":"Tamil Nadu","latitude":11.6643,"longitude":78.146,"temp":31.3,"humidity":56,"rain":0.0,"pressure":980.1,"uv_index":8.45,"wind_gusts":56.5,"aqi":66,"pm10":20.3,"pm2_5":15.7,"no2":13.2,"co":179.0,"o3":57.0,"so2":12.7,"mosquito_risk":0,"arthritis_risk":5,"migraine_risk":7,"frizz_risk":1,"updated_at":"2026-05-24T09:24:34.772743+05:30"},{"city":"Tirunelveli","state":"Tamil Nadu","latitude":8.7139,"longitude":77.7567,"temp":34.0,"humidity":49,"rain":0.0,"pressure":1005.2,"uv_index":8.85,"wind_gusts":39.2,"aqi":29,"pm10":7.4,"pm2_5":5.6,"no2":2.8,"co":149.0,"o3":58.0,"so2":1.9,"mosquito_risk":0,"arthritis_risk":5,"migraine_risk":4,"frizz_risk":1,"updated_at":"2026-05-24T09:24:34.772752+05:30"},{"city":"Vellore","state":"Tamil Nadu","latitude":12.9165,"longitude":79.1325,"temp":31.1,"humidity":59,"rain":0.0,"pressure":985.8,"uv_index":9.0,"wind_gusts":55.1,"aqi":67,"pm10":11.0,"pm2_5":9.5,"no2":5.3,"co":185.0,"o3":68.0,"so2":3.7,"mosquito_risk":0,"arthritis_risk":5,"migraine_risk":7,"frizz_risk":1,"updated_at":"2026-05-24T09:24:34.772759+05:30"},{"city":"Erode","state":"Tamil Nadu","latitude":11.341,"longitude":77.7172,"temp":31.5,"humidity":59,"rain":0.0,"pressure":991.9,"uv_index":8.45,"wind_gusts":38.9,"aqi":51,"pm10":12.3,"pm2_5":9.9,"no2":7.2,"co":225.0,"o3":57.0,"so2":3.0,"mosquito_risk":0,"arthritis_risk":5,"migraine_risk":7,"frizz_risk":1,"updated_at":"2026-05-24T09:24:34.772768+05:30"},{"city":"Kochi","state":"Kerala","latitude":9.9312,"longitude":76.2673,"temp":25.5,"humidity":95,"rain":0.1,"pressure":1013.8,"uv_index":8.6,"wind_gusts":31.7,"aqi":55,"pm10":15.0,"pm2_5":11.4,"no2":9.3,"co":229.0,"o3":42.0,"so2":3.5,"mosquito_risk":10,"arthritis_risk":0,"migraine_risk":4,"frizz_risk":1,"updated_at":"2026-05-24T09:24:34.772776+05:30"},{"city":"Thiruvananthapuram","state":"Kerala","latitude":8.5241,"longitude":76.9366,"temp":26.3,"humidity":89,"rain":0.0,"pressure":1012.7,"uv_index":8.4,"wind_gusts":46.1,"aqi":38,"pm10":15.1,"pm2_5":8.5,"no2":2.3,"co":185.0,"o3":59.0,"so2":1.1,"mosquito_risk":7,"arthritis_risk":0,"migraine_risk":4,"frizz_risk":1,"updated_at":"2026-05-24T09:24:34.772783+05:30"},{"city":"Kozhikode","state":"Kerala","latitude":11.2588,"longitude":75.7804,"temp":27.6,"humidity":87,"rain":0.0,"pressure":1012.2,"uv_index":7.4,"wind_gusts":35.6,"aqi":33,"pm10":11.1,"pm2_5":7.0,"no2":1.5,"co":156.0,"o3":63.0,"so2":1.1,"mosquito_risk":7,"arthritis_risk":0,"migraine_risk":4,"frizz_risk":1,"updated_at":"2026-05-24T09:24:34.772790+05:30"},{"city":"Thrissur","state":"Kerala","latitude":10.5276,"longitude":76.2144,"temp":26.0,"humidity":95,"rain":0.1,"pressure":1011.9,"uv_index":7.4,"wind_gusts":33.8,"aqi":57,"pm10":15.9,"pm2_5":12.3,"no2":6.6,"co":224.0,"o3":48.0,"so2":3.0,"mosquito_risk":10,"arthritis_risk":0,"migraine_risk":4,"frizz_risk":1,"updated_at":"2026-05-24T09:24:34.772798+05:30"},{"city":"Kannur","state":"Kerala","latitude":11.8745,"longitude":75.3704,"temp":28.5,"humidity":80,"rain":0.0,"pressure":1011.1,"uv_index":8.45,"wind_gusts":36.7,"aqi":47,"pm10":13.9,"pm2_5":10.0,"no2":6.1,"co":187.0,"o3":56.0,"so2":2.5,"mosquito_risk":7,"arthritis_risk":0,"migraine_risk":4,"frizz_risk":1,"updated_at":"2026-05-24T09:24:34.772806+05:30"},{"city":"Patna","state":"Bihar","latitude":25.5941,"longitude":85.1376,"temp":34.2,"humidity":56,"rain":0.0,"pressure":997.4,"uv_index":8.8,"wind_gusts":31.7,"aqi":164,"pm10":93.4,"pm2_5":62.2,"no2":10.3,"co":388.0,"o3":135.0,"so2":17.0,"mosquito_risk":0,"arthritis_risk":5,"migraine_risk":7,"frizz_risk":1,"updated_at":"2026-05-24T09:24:34.772813+05:30"},{"city":"Gaya","state":"Bihar","latitude":24.7914,"longitude":85.0002,"temp":37.8,"humidity":26,"rain":0.0,"pressure":991.1,"uv_index":8.85,"wind_gusts":31.7,"aqi":157,"pm10":103.6,"pm2_5":53.4,"no2":10.5,"co":307.0,"o3":131.0,"so2":10.8,"mosquito_risk":0,"arthritis_risk":5,"migraine_risk":10,"frizz_risk":0,"updated_at":"2026-05-24T09:24:34.772821+05:30"},{"city":"Muzaffarpur","state":"Bihar","latitude":26.1209,"longitude":85.3647,"temp":31.5,"humidity":71,"rain":0.0,"pressure":997.6,"uv_index":8.8,"wind_gusts":28.4,"aqi":160,"pm10":70.3,"pm2_5":51.6,"no2":6.7,"co":493.0,"o3":132.0,"so2":14.5,"mosquito_risk":3,"arthritis_risk":5,"migraine_risk":7,"frizz_risk":1,"updated_at":"2026-05-24T09:24:34.772828+05:30"},{"city":"Bhagalpur","state":"Bihar","latitude":25.2425,"longitude":87.0117,"temp":33.7,"humidity":69,"rain":0.0,"pressure":998.2,"uv_index":8.8,"wind_gusts":25.9,"aqi":153,"pm10":61.2,"pm2_5":48.1,"no2":10.1,"co":494.0,"o3":109.0,"so2":28.2,"mosquito_risk":3,"arthritis_risk":5,"migraine_risk":7,"frizz_risk":1,"updated_at":"2026-05-24T09:24:34.772834+05:30"},{"city":"Ranchi","state":"Jharkhand","latitude":23.3441,"longitude":85.3096,"temp":32.6,"humidity":51,"rain":0.0,"pressure":937.6,"uv_index":9.3,"wind_gusts":27.0,"aqi":110,"pm10":65.4,"pm2_5":45.3,"no2":6.0,"co":267.0,"o3":149.0,"so2":21.7,"mosquito_risk":0,"arthritis_risk":5,"migraine_risk":7,"frizz_risk":1,"updated_at":"2026-05-24T09:24:34.772841+05:30"},{"city":"Jamshedpur","state":"Jharkhand","latitude":22.8046,"longitude":86.2029,"temp":35.0,"humidity":54,"rain":0.0,"pressure":988.8,"uv_index":9.1,"wind_gusts":37.1,"aqi":151,"pm10":57.0,"pm2_5":43.4,"no2":8.6,"co":322.0,"o3":133.0,"so2":29.9,"mosquito_risk":0,"arthritis_risk":5,"migraine_risk":7,"frizz_risk":1,"updated_at":"2026-05-24T09:24:34.772848+05:30"},{"city":"Dhanbad","state":"Jharkhand","latitude":23.7957,"longitude":86.4304,"temp":35.8,"humidity":40,"rain":0.0,"pressure":977.8,"uv_index":9.0,"wind_gusts":31.7,"aqi":158,"pm10":79.4,"pm2_5":65.0,"no2":29.8,"co":525.0,"o3":117.0,"so2":81.9,"mosquito_risk":0,"arthritis_risk":5,"migraine_risk":10,"frizz_risk":1,"updated_at":"2026-05-24T09:24:34.772855+05:30"},{"city":"Bokaro","state":"Jharkhand","latitude":23.6693,"longitude":86.1511,"temp":36.3,"humidity":40,"rain":0.0,"pressure":981.6,"uv_index":9.05,"wind_gusts":33.1,"aqi":159,"pm10":83.1,"pm2_5":53.7,"no2":16.8,"co":357.0,"o3":135.0,"so2":45.3,"mosquito_risk":0,"arthritis_risk":5,"migraine_risk":10,"frizz_risk":1,"updated_at":"2026-05-24T09:24:34.772861+05:30"},{"city":"Bhubaneswar","state":"Odisha","latitude":20.2961,"longitude":85.8245,"temp":34.0,"humidity":67,"rain":0.0,"pressure":1000.8,"uv_index":9.1,"wind_gusts":41.8,"aqi":88,"pm10":44.0,"pm2_5":34.7,"no2":2.5,"co":263.0,"o3":143.0,"so2":6.3,"mosquito_risk":3,"arthritis_risk":5,"migraine_risk":4,"frizz_risk":1,"updated_at":"2026-05-24T09:24:34.772868+05:30"},{"city":"Cuttack","state":"Odisha","latitude":20.4625,"longitude":85.8828,"temp":33.5,"humidity":70,"rain":0.0,"pressure":1002.7,"uv_index":9.15,"wind_gusts":38.2,"aqi":88,"pm10":44.0,"pm2_5":34.7,"no2":2.5,"co":285.0,"o3":143.0,"so2":6.3,"mosquito_risk":3,"arthritis_risk":5,"migraine_risk":4,"frizz_risk":1,"updated_at":"2026-05-24T09:24:34.772875+05:30"},{"city":"Rourkela","state":"Odisha","latitude":22.2604,"longitude":84.8536,"temp":34.8,"humidity":56,"rain":0.0,"pressure":983.4,"uv_index":9.0,"wind_gusts":38.5,"aqi":139,"pm10":64.3,"pm2_5":50.3,"no2":8.0,"co":352.0,"o3":149.0,"so2":31.7,"mosquito_risk":0,"arthritis_risk":5,"migraine_risk":7,"frizz_risk":1,"updated_at":"2026-05-24T09:24:34.772881+05:30"},{"city":"Raipur","state":"Chhattisgarh","latitude":21.2514,"longitude":81.6296,"temp":39.2,"humidity":17,"rain":0.0,"pressure":973.3,"uv_index":8.95,"wind_gusts":47.2,"aqi":106,"pm10":70.5,"pm2_5":53.3,"no2":41.8,"co":294.0,"o3":66.0,"so2":83.0,"mosquito_risk":0,"arthritis_risk":5,"migraine_risk":10,"frizz_risk":0,"updated_at":"2026-05-24T09:24:34.772888+05:30"},{"city":"Bhilai","state":"Chhattisgarh","latitude":21.1938,"longitude":81.3509,"temp":38.1,"humidity":20,"rain":0.0,"pressure":973.8,"uv_index":9.0,"wind_gusts":28.4,"aqi":94,"pm10":63.6,"pm2_5":41.7,"no2":27.9,"co":401.0,"o3":79.0,"so2":63.4,"mosquito_risk":0,"arthritis_risk":5,"migraine_risk":10,"frizz_risk":0,"updated_at":"2026-05-24T09:24:34.772894+05:30"},{"city":"Guwahati","state":"Assam","latitude":26.1158,"longitude":91.7086,"temp":26.4,"humidity":78,"rain":0.0,"pressure":1000.9,"uv_index":8.65,"wind_gusts":29.2,"aqi":69,"pm10":22.8,"pm2_5":13.9,"no2":2.7,"co":309.0,"o3":95.0,"so2":2.8,"mosquito_risk":7,"arthritis_risk":5,"migraine_risk":4,"frizz_risk":1,"updated_at":"2026-05-24T09:24:34.772917+05:30"},{"city":"Agartala","state":"Tripura","latitude":23.8315,"longitude":91.2868,"temp":30.2,"humidity":77,"rain":0.1,"pressure":1005.5,"uv_index":8.7,"wind_gusts":46.8,"aqi":79,"pm10":16.2,"pm2_5":12.7,"no2":4.2,"co":208.0,"o3":74.0,"so2":2.5,"mosquito_risk":6,"arthritis_risk":5,"migraine_risk":4,"frizz_risk":1,"updated_at":"2026-05-24T09:24:34.772924+05:30"},{"city":"Shillong","state":"Meghalaya","latitude":25.5788,"longitude":91.8933,"temp":23.6,"humidity":72,"rain":0.0,"pressure":858.2,"uv_index":9.1,"wind_gusts":49.0,"aqi":50,"pm10":4.5,"pm2_5":2.4,"no2":3.2,"co":181.0,"o3":74.0,"so2":2.6,"mosquito_risk":3,"arthritis_risk":5,"migraine_risk":7,"frizz_risk":1,"updated_at":"2026-05-24T09:24:34.772931+05:30"},{"city":"Imphal","state":"Manipur","latitude":24.817,"longitude":93.9368,"temp":27.9,"humidity":61,"rain":0.0,"pressure":924.4,"uv_index":9.3,"wind_gusts":36.4,"aqi":69,"pm10":38.3,"pm2_5":17.1,"no2":1.5,"co":251.0,"o3":91.0,"so2":2.3,"mosquito_risk":7,"arthritis_risk":5,"migraine_risk":7,"frizz_risk":1,"updated_at":"2026-05-24T09:24:34.772939+05:30"},{"city":"Aizawl","state":"Mizoram","latitude":23.7271,"longitude":92.7176,"temp":26.5,"humidity":58,"rain":0.0,"pressure":894.3,"uv_index":8.75,"wind_gusts":42.5,"aqi":73,"pm10":22.8,"pm2_5":12.2,"no2":0.6,"co":167.0,"o3":74.0,"so2":0.8,"mosquito_risk":4,"arthritis_risk":5,"migraine_risk":7,"frizz_risk":1,"updated_at":"2026-05-24T09:24:34.772946+05:30"},{"city":"Kohima","state":"Nagaland","latitude":25.6701,"longitude":94.1077,"temp":24.5,"humidity":66,"rain":0.0,"pressure":857.0,"uv_index":9.25,"wind_gusts":29.9,"aqi":45,"pm10":28.2,"pm2_5":11.6,"no2":0.7,"co":209.0,"o3":87.0,"so2":1.8,"mosquito_risk":3,"arthritis_risk":5,"migraine_risk":7,"frizz_risk":1,"updated_at":"2026-05-24T09:24:34.772952+05:30"},{"city":"Gangtok","state":"Sikkim","latitude":27.3314,"longitude":88.6138,"temp":22.8,"humidity":55,"rain":0.0,"pressure":838.7,"uv_index":9.1,"wind_gusts":36.0,"aqi":76,"pm10":55.2,"pm2_5":21.0,"no2":1.8,"co":316.0,"o3":144.0,"so2":3.5,"mosquito_risk":0,"arthritis_risk":5,"migraine_risk":7,"frizz_risk":0,"updated_at":"2026-05-24T09:24:34.772960+05:30"},{"city":"Siliguri","state":"West Bengal","latitude":26.7271,"longitude":88.3953,"temp":28.7,"humidity":71,"rain":0.0,"pressure":991.4,"uv_index":8.7,"wind_gusts":28.1,"aqi":82,"pm10":71.0,"pm2_5":35.2,"no2":3.9,"co":423.0,"o3":153.0,"so2":5.4,"mosquito_risk":7,"arthritis_risk":5,"migraine_risk":7,"frizz_risk":1,"updated_at":"2026-05-24T09:24:38.091137+05:30"},{"city":"Durgapur","state":"West Bengal","latitude":23.5204,"longitude":87.3119,"temp":33.0,"humidity":73,"rain":0.0,"pressure":992.7,"uv_index":8.95,"wind_gusts":36.0,"aqi":154,"pm10":58.9,"pm2_5":48.9,"no2":18.5,"co":575.0,"o3":104.0,"so2":52.4,"mosquito_risk":3,"arthritis_risk":5,"migraine_risk":7,"frizz_risk":1,"updated_at":"2026-05-24T09:24:38.091174+05:30"},{"city":"Asansol","state":"West Bengal","latitude":23.6739,"longitude":86.9524,"temp":34.0,"humidity":66,"rain":0.0,"pressure":991.2,"uv_index":9.0,"wind_gusts":38.2,"aqi":152,"pm10":67.5,"pm2_5":57.7,"no2":23.0,"co":408.0,"o3":108.0,"so2":60.8,"mosquito_risk":3,"arthritis_risk":5,"migraine_risk":7,"frizz_risk":1,"updated_at":"2026-05-24T09:24:38.091185+05:30"},{"city":"Pondicherry","state":"Puducherry","latitude":11.9139,"longitude":79.8145,"temp":31.8,"humidity":63,"rain":0.0,"pressure":1009.3,"uv_index":7.4,"wind_gusts":34.9,"aqi":88,"pm10":25.0,"pm2_5":20.5,"no2":12.1,"co":269.0,"o3":65.0,"so2":5.6,"mosquito_risk":3,"arthritis_risk":0,"migraine_risk":4,"frizz_risk":1,"updated_at":"2026-05-24T09:24:38.091194+05:30"},{"city":"Port Blair","state":"Andaman and Nicobar Islands","latitude":11.6234,"longitude":92.7265,"temp":29.8,"humidity":80,"rain":0.1,"pressure":1009.1,"uv_index":8.85,"wind_gusts":32.4,"aqi":33,"pm10":10.0,"pm2_5":5.8,"no2":0.3,"co":108.0,"o3":63.0,"so2":0.4,"mosquito_risk":10,"arthritis_risk":0,"migraine_risk":4,"frizz_risk":1,"updated_at":"2026-05-24T09:24:38.091202+05:30"},{"city":"Haridwar","state":"Uttarakhand","latitude":29.9457,"longitude":78.1642,"temp":32.7,"humidity":34,"rain":0.0,"pressure":970.9,"uv_index":7.55,"wind_gusts":51.8,"aqi":78,"pm10":44.4,"pm2_5":25.5,"no2":6.4,"co":323.0,"o3":133.0,"so2":6.5,"mosquito_risk":0,"arthritis_risk":5,"migraine_risk":7,"frizz_risk":0,"updated_at":"2026-05-24T09:24:38.091210+05:30"},{"city":"Rishikesh","state":"Uttarakhand","latitude":30.0869,"longitude":78.2676,"temp":32.8,"humidity":31,"rain":0.0,"pressure":963.8,"uv_index":7.65,"wind_gusts":47.2,"aqi":79,"pm10":50.4,"pm2_5":25.3,"no2":2.4,"co":288.0,"o3":141.0,"so2":5.4,"mosquito_risk":0,"arthritis_risk":5,"migraine_risk":7,"frizz_risk":0,"updated_at":"2026-05-24T09:24:38.091217+05:30"},{"city":"Nainital","state":"Uttarakhand","latitude":29.3919,"longitude":79.4542,"temp":24.0,"humidity":26,"rain":0.0,"pressure":807.7,"uv_index":8.5,"wind_gusts":51.1,"aqi":82,"pm10":47.6,"pm2_5":22.1,"no2":3.0,"co":158.0,"o3":140.0,"so2":5.3,"mosquito_risk":0,"arthritis_risk":5,"migraine_risk":7,"frizz_risk":0,"updated_at":"2026-05-24T09:24:38.091225+05:30"},{"city":"Mussoorie","state":"Uttarakhand","latitude":30.4599,"longitude":78.0664,"temp":24.1,"humidity":22,"rain":0.0,"pressure":805.4,"uv_index":8.05,"wind_gusts":69.5,"aqi":74,"pm10":54.0,"pm2_5":22.2,"no2":3.6,"co":150.0,"o3":137.0,"so2":3.9,"mosquito_risk":0,"arthritis_risk":5,"migraine_risk":7,"frizz_risk":0,"updated_at":"2026-05-24T09:24:38.091231+05:30"},{"city":"Dharamshala","state":"Himachal Pradesh","latitude":32.219,"longitude":76.3234,"temp":26.9,"humidity":28,"rain":0.0,"pressure":870.1,"uv_index":8.45,"wind_gusts":46.8,"aqi":52,"pm10":30.2,"pm2_5":8.9,"no2":1.4,"co":189.0,"o3":112.0,"so2":0.4,"mosquito_risk":4,"arthritis_risk":5,"migraine_risk":7,"frizz_risk":0,"updated_at":"2026-05-24T09:24:38.091239+05:30"},{"city":"Dalhousie","state":"Himachal Pradesh","latitude":32.5387,"longitude":75.971,"temp":23.6,"humidity":24,"rain":0.0,"pressure":807.6,"uv_index":8.65,"wind_gusts":46.8,"aqi":70,"pm10":44.0,"pm2_5":16.1,"no2":4.6,"co":180.0,"o3":112.0,"so2":0.9,"mosquito_risk":0,"arthritis_risk":5,"migraine_risk":7,"frizz_risk":0,"updated_at":"2026-05-24T09:24:38.091246+05:30"},{"city":"Patiala","state":"Punjab","latitude":30.3398,"longitude":76.3869,"temp":35.3,"humidity":25,"rain":0.0,"pressure":975.5,"uv_index":7.65,"wind_gusts":34.9,"aqi":477,"pm10":412.6,"pm2_5":69.6,"no2":7.2,"co":349.0,"o3":101.0,"so2":7.0,"mosquito_risk":0,"arthritis_risk":5,"migraine_risk":10,"frizz_risk":0,"updated_at":"2026-05-24T09:24:38.091255+05:30"},{"city":"Bhatinda","state":"Punjab","latitude":30.211,"longitude":74.9455,"temp":36.4,"humidity":23,"rain":0.0,"pressure":981.4,"uv_index":8.3,"wind_gusts":31.0,"aqi":94,"pm10":53.8,"pm2_5":32.9,"no2":10.3,"co":448.0,"o3":94.0,"so2":7.1,"mosquito_risk":0,"arthritis_risk":5,"migraine_risk":10,"frizz_risk":0,"updated_at":"2026-05-24T09:24:38.091263+05:30"},{"city":"Rohtak","state":"Haryana","latitude":28.8955,"longitude":76.6066,"temp":36.0,"humidity":26,"rain":0.0,"pressure":979.8,"uv_index":7.75,"wind_gusts":36.4,"aqi":781,"pm10":627.7,"pm2_5":164.8,"no2":13.1,"co":353.0,"o3":90.0,"so2":9.3,"mosquito_risk":0,"arthritis_risk":5,"migraine_risk":10,"frizz_risk":0,"updated_at":"2026-05-24T09:24:38.091269+05:30"},{"city":"Panipat","state":"Haryana","latitude":29.3909,"longitude":76.9635,"temp":36.2,"humidity":25,"rain":0.0,"pressure":977.6,"uv_index":7.6,"wind_gusts":42.8,"aqi":1612,"pm10":1210.7,"pm2_5":229.1,"no2":9.6,"co":328.0,"o3":91.0,"so2":9.5,"mosquito_risk":0,"arthritis_risk":5,"migraine_risk":10,"frizz_risk":0,"updated_at":"2026-05-24T09:24:38.091275+05:30"},{"city":"Mathura","state":"Uttar Pradesh","latitude":27.4924,"longitude":77.6737,"temp":37.5,"humidity":22,"rain":0.0,"pressure":984.7,"uv_index":8.0,"wind_gusts":39.6,"aqi":650,"pm10":1076.6,"pm2_5":208.2,"no2":12.3,"co":326.0,"o3":75.0,"so2":8.3,"mosquito_risk":0,"arthritis_risk":5,"migraine_risk":10,"frizz_risk":0,"updated_at":"2026-05-24T09:24:38.091282+05:30"},{"city":"Vrindavan","state":"Uttar Pradesh","latitude":27.5823,"longitude":77.7027,"temp":37.2,"humidity":23,"rain":0.0,"pressure":985.1,"uv_index":8.0,"wind_gusts":36.7,"aqi":650,"pm10":1076.6,"pm2_5":208.2,"no2":12.3,"co":319.0,"o3":75.0,"so2":8.3,"mosquito_risk":0,"arthritis_risk":5,"migraine_risk":10,"frizz_risk":0,"updated_at":"2026-05-24T09:24:38.091289+05:30"},{"city":"Ayodhya","state":"Uttar Pradesh","latitude":26.7922,"longitude":82.1998,"temp":35.2,"humidity":33,"rain":0.0,"pressure":992.2,"uv_index":8.35,"wind_gusts":34.6,"aqi":153,"pm10":285.9,"pm2_5":85.7,"no2":13.9,"co":340.0,"o3":106.0,"so2":13.7,"mosquito_risk":0,"arthritis_risk":5,"migraine_risk":10,"frizz_risk":1,"updated_at":"2026-05-24T09:24:38.091296+05:30"},{"city":"Ratlam","state":"Madhya Pradesh","latitude":23.3315,"longitude":75.0367,"temp":32.5,"humidity":53,"rain":0.0,"pressure":956.7,"uv_index":8.55,"wind_gusts":50.4,"aqi":67,"pm10":15.9,"pm2_5":11.8,"no2":5.0,"co":146.0,"o3":55.0,"so2":10.5,"mosquito_risk":0,"arthritis_risk":5,"migraine_risk":7,"frizz_risk":1,"updated_at":"2026-05-24T09:24:38.091303+05:30"},{"city":"Sagar","state":"Madhya Pradesh","latitude":23.8388,"longitude":78.7378,"temp":37.2,"humidity":20,"rain":0.0,"pressure":950.9,"uv_index":8.75,"wind_gusts":49.3,"aqi":77,"pm10":51.8,"pm2_5":25.4,"no2":3.6,"co":193.0,"o3":89.0,"so2":7.9,"mosquito_risk":0,"arthritis_risk":5,"migraine_risk":10,"frizz_risk":0,"updated_at":"2026-05-24T09:24:38.091309+05:30"},{"city":"Satna","state":"Madhya Pradesh","latitude":24.6005,"longitude":80.8322,"temp":38.2,"humidity":21,"rain":0.0,"pressure":970.2,"uv_index":8.8,"wind_gusts":46.1,"aqi":130,"pm10":395.8,"pm2_5":70.8,"no2":5.7,"co":174.0,"o3":121.0,"so2":9.7,"mosquito_risk":0,"arthritis_risk":5,"migraine_risk":10,"frizz_risk":0,"updated_at":"2026-05-24T09:24:38.091316+05:30"},{"city":"Akola","state":"Maharashtra","latitude":20.7002,"longitude":77.0082,"temp":34.3,"humidity":46,"rain":0.0,"pressure":976.9,"uv_index":8.85,"wind_gusts":50.8,"aqi":58,"pm10":15.3,"pm2_5":11.4,"no2":4.0,"co":146.0,"o3":76.0,"so2":10.8,"mosquito_risk":0,"arthritis_risk":5,"migraine_risk":7,"frizz_risk":1,"updated_at":"2026-05-24T09:24:38.091323+05:30"},{"city":"Amravati","state":"Maharashtra","latitude":20.9374,"longitude":77.7796,"temp":35.5,"humidity":36,"rain":0.0,"pressure":968.5,"uv_index":8.85,"wind_gusts":50.8,"aqi":60,"pm10":16.9,"pm2_5":13.4,"no2":4.4,"co":175.0,"o3":89.0,"so2":13.6,"mosquito_risk":0,"arthritis_risk":5,"migraine_risk":10,"frizz_risk":1,"updated_at":"2026-05-24T09:24:38.091332+05:30"},{"city":"Latur","state":"Maharashtra","latitude":18.4088,"longitude":76.5604,"temp":31.9,"humidity":52,"rain":0.0,"pressure":942.7,"uv_index":9.05,"wind_gusts":48.6,"aqi":69,"pm10":14.8,"pm2_5":11.5,"no2":3.4,"co":194.0,"o3":85.0,"so2":8.5,"mosquito_risk":0,"arthritis_risk":5,"migraine_risk":7,"frizz_risk":1,"updated_at":"2026-05-24T09:24:38.091338+05:30"},{"city":"Nanded","state":"Maharashtra","latitude":19.1383,"longitude":77.3091,"temp":35.0,"humidity":41,"rain":0.0,"pressure":970.5,"uv_index":8.95,"wind_gusts":41.8,"aqi":62,"pm10":19.3,"pm2_5":14.1,"no2":3.6,"co":166.0,"o3":89.0,"so2":5.1,"mosquito_risk":0,"arthritis_risk":5,"migraine_risk":7,"frizz_risk":1,"updated_at":"2026-05-24T09:24:38.091345+05:30"},{"city":"Gulbarga","state":"Karnataka","latitude":17.3297,"longitude":76.8343,"temp":32.3,"humidity":55,"rain":0.0,"pressure":961.5,"uv_index":8.8,"wind_gusts":58.3,"aqi":69,"pm10":10.9,"pm2_5":8.1,"no2":4.2,"co":180.0,"o3":64.0,"so2":3.2,"mosquito_risk":0,"arthritis_risk":5,"migraine_risk":7,"frizz_risk":1,"updated_at":"2026-05-24T09:24:38.091352+05:30"},{"city":"Bidar","state":"Karnataka","latitude":17.9104,"longitude":77.5199,"temp":31.8,"humidity":56,"rain":0.0,"pressure":938.3,"uv_index":9.1,"wind_gusts":40.7,"aqi":82,"pm10":17.3,"pm2_5":15.0,"no2":4.6,"co":223.0,"o3":87.0,"so2":6.2,"mosquito_risk":0,"arthritis_risk":5,"migraine_risk":7,"frizz_risk":1,"updated_at":"2026-05-24T09:24:38.091359+05:30"},{"city":"Hospet","state":"Karnataka","latitude":15.2689,"longitude":76.3909,"temp":28.8,"humidity":69,"rain":0.0,"pressure":959.1,"uv_index":9.1,"wind_gusts":50.8,"aqi":36,"pm10":5.2,"pm2_5":4.0,"no2":2.8,"co":152.0,"o3":49.0,"so2":1.5,"mosquito_risk":7,"arthritis_risk":5,"migraine_risk":7,"frizz_risk":1,"updated_at":"2026-05-24T09:24:38.091365+05:30"},{"city":"Tirupur","state":"Tamil Nadu","latitude":11.1085,"longitude":77.3411,"temp":29.6,"humidity":66,"rain":0.0,"pressure":978.3,"uv_index":8.35,"wind_gusts":42.8,"aqi":51,"pm10":13.0,"pm2_5":10.2,"no2":7.0,"co":163.0,"o3":61.0,"so2":3.3,"mosquito_risk":7,"arthritis_risk":5,"migraine_risk":7,"frizz_risk":1,"updated_at":"2026-05-24T09:24:38.091371+05:30"},{"city":"Alappuzha","state":"Kerala","latitude":9.4981,"longitude":76.3388,"temp":26.0,"humidity":93,"rain":0.3,"pressure":1013.8,"uv_index":8.4,"wind_gusts":32.4,"aqi":49,"pm10":16.9,"pm2_5":11.1,"no2":6.5,"co":97.0,"o3":55.0,"so2":2.5,"mosquito_risk":10,"arthritis_risk":0,"migraine_risk":4,"frizz_risk":1,"updated_at":"2026-05-24T09:24:38.091378+05:30"},{"city":"Munnar","state":"Kerala","latitude":10.0889,"longitude":77.0595,"temp":19.2,"humidity":98,"rain":0.1,"pressure":860.9,"uv_index":8.9,"wind_gusts":29.9,"aqi":26,"pm10":6.3,"pm2_5":4.9,"no2":2.3,"co":113.0,"o3":54.0,"so2":1.1,"mosquito_risk":6,"arthritis_risk":10,"migraine_risk":7,"frizz_risk":1,"updated_at":"2026-05-24T09:24:38.091384+05:30"},{"city":"Silchar","state":"Assam","latitude":24.8333,"longitude":92.7789,"temp":27.2,"humidity":82,"rain":0.1,"pressure":1005.7,"uv_index":8.95,"wind_gusts":42.1,"aqi":63,"pm10":31.9,"pm2_5":15.8,"no2":2.2,"co":202.0,"o3":81.0,"so2":2.7,"mosquito_risk":10,"arthritis_risk":5,"migraine_risk":4,"frizz_risk":1,"updated_at":"2026-05-24T09:24:38.091391+05:30"},{"city":"Dibrugarh","state":"Assam","latitude":27.4728,"longitude":94.912,"temp":24.0,"humidity":97,"rain":0.3,"pressure":995.1,"uv_index":6.65,"wind_gusts":39.6,"aqi":58,"pm10":21.4,"pm2_5":13.2,"no2":2.9,"co":248.0,"o3":102.0,"so2":1.4,"mosquito_risk":6,"arthritis_risk":5,"migraine_risk":7,"frizz_risk":1,"updated_at":"2026-05-24T09:24:38.091398+05:30"}]