[{"city":"Delhi","state":"Delhi","latitude":28.6139,"longitude":77.209,"temp":31.1,"humidity":36,"rain":0.0,"pressure":983.5,"uv_index":6.1,"wind_gusts":39.2,"aqi":182,"pm10":480.6,"pm2_5":69.4,"mosquito_risk":0,"arthritis_risk":5,"migraine_risk":7,"frizz_risk":0,"updated_at":"2026-03-30T14:46:55.306877+05:30"},{"city":"Mumbai","state":"Maharashtra","latitude":19.076,"longitude":72.8777,"temp":28.1,"humidity":81,"rain":0.0,"pressure":1007.1,"uv_index":8.0,"wind_gusts":25.9,"aqi":59,"pm10":46.6,"pm2_5":26.9,"mosquito_risk":7,"arthritis_risk":5,"migraine_risk":4,"frizz_risk":1,"updated_at":"2026-03-30T14:46:55.306922+05:30"},{"city":"Bangalore","state":"Karnataka","latitude":12.9716,"longitude":77.5946,"temp":33.2,"humidity":29,"rain":0.0,"pressure":911.4,"uv_index":8.7,"wind_gusts":29.9,"aqi":137,"pm10":34.3,"pm2_5":29.9,"mosquito_risk":0,"arthritis_risk":5,"migraine_risk":7,"frizz_risk":0,"updated_at":"2026-03-30T14:46:55.306938+05:30"},{"city":"Hyderabad","state":"Telangana","latitude":17.385,"longitude":78.4867,"temp":33.9,"humidity":44,"rain":0.0,"pressure":952.8,"uv_index":8.25,"wind_gusts":26.3,"aqi":110,"pm10":37.7,"pm2_5":31.3,"mosquito_risk":0,"arthritis_risk":5,"migraine_risk":7,"frizz_risk":1,"updated_at":"2026-03-30T14:46:55.306951+05:30"},{"city":"Chennai","state":"Tamil Nadu","latitude":13.0827,"longitude":80.2707,"temp":33.9,"humidity":51,"rain":0.0,"pressure":1006.5,"uv_index":9.3,"wind_gusts":33.1,"aqi":57,"pm10":16.3,"pm2_5":11.7,"mosquito_risk":0,"arthritis_risk":5,"migraine_risk":4,"frizz_risk":1,"updated_at":"2026-03-30T14:46:55.306959+05:30"},{"city":"Kolkata","state":"West Bengal","latitude":22.5726,"longitude":88.3639,"temp":32.3,"humidity":64,"rain":0.0,"pressure":1004.7,"uv_index":8.5,"wind_gusts":25.9,"aqi":111,"pm10":40.6,"pm2_5":32.4,"mosquito_risk":3,"arthritis_risk":5,"migraine_risk":4,"frizz_risk":1,"updated_at":"2026-03-30T14:46:55.306967+05:30"},{"city":"Pune","state":"Maharashtra","latitude":18.5204,"longitude":73.8567,"temp":35.9,"humidity":32,"rain":0.0,"pressure":947.5,"uv_index":8.55,"wind_gusts":36.4,"aqi":72,"pm10":17.1,"pm2_5":12.6,"mosquito_risk":0,"arthritis_risk":5,"migraine_risk":10,"frizz_risk":1,"updated_at":"2026-03-30T14:46:55.306978+05:30"},{"city":"Ahmedabad","state":"Gujarat","latitude":23.0225,"longitude":72.5714,"temp":34.9,"humidity":35,"rain":0.0,"pressure":1001.5,"uv_index":8.0,"wind_gusts":31.0,"aqi":56,"pm10":46.7,"pm2_5":13.2,"mosquito_risk":0,"arthritis_risk":5,"migraine_risk":4,"frizz_risk":1,"updated_at":"2026-03-30T14:46:55.306984+05:30"},{"city":"Jaipur","state":"Rajasthan","latitude":26.9124,"longitude":75.7873,"temp":29.0,"humidity":36,"rain":0.0,"pressure":961.0,"uv_index":6.05,"wind_gusts":46.1,"aqi":118,"pm10":177.9,"pm2_5":23.7,"mosquito_risk":4,"arthritis_risk":5,"migraine_risk":7,"frizz_risk":0,"updated_at":"2026-03-30T14:46:55.306991+05:30"},{"city":"Lucknow","state":"Uttar Pradesh","latitude":26.8467,"longitude":80.9462,"temp":35.6,"humidity":33,"rain":0.0,"pressure":991.9,"uv_index":7.3,"wind_gusts":18.7,"aqi":109,"pm10":71.5,"pm2_5":23.0,"mosquito_risk":0,"arthritis_risk":5,"migraine_risk":10,"frizz_risk":1,"updated_at":"2026-03-30T14:46:55.306997+05:30"},{"city":"Kanpur","state":"Uttar Pradesh","latitude":26.4499,"longitude":80.3319,"temp":35.7,"humidity":33,"rain":0.0,"pressure":990.0,"uv_index":7.3,"wind_gusts":28.8,"aqi":93,"pm10":235.2,"pm2_5":31.2,"mosquito_risk":0,"arthritis_risk":5,"migraine_risk":10,"frizz_risk":1,"updated_at":"2026-03-30T14:46:55.307003+05:30"},{"city":"Chandigarh","state":"Chandigarh","latitude":30.7333,"longitude":76.7794,"temp":29.2,"humidity":52,"rain":0.0,"pressure":969.3,"uv_index":6.2,"wind_gusts":52.9,"aqi":76,"pm10":144.4,"pm2_5":31.9,"mosquito_risk":4,"arthritis_risk":5,"migraine_risk":7,"frizz_risk":1,"updated_at":"2026-03-30T14:46:55.307009+05:30"},{"city":"Srinagar","state":"Jammu and Kashmir","latitude":34.0837,"longitude":74.7973,"temp":12.5,"humidity":89,"rain":0.2,"pressure":841.9,"uv_index":5.4,"wind_gusts":25.9,"aqi":80,"pm10":23.2,"pm2_5":11.6,"mosquito_risk":6,"arthritis_risk":10,"migraine_risk":3,"frizz_risk":0,"updated_at":"2026-03-30T14:46:55.307016+05:30"},{"city":"Jammu","state":"Jammu and Kashmir","latitude":32.7266,"longitude":74.857,"temp":29.5,"humidity":46,"rain":0.0,"pressure":972.7,"uv_index":6.35,"wind_gusts":45.7,"aqi":68,"pm10":62.9,"pm2_5":16.2,"mosquito_risk":4,"arthritis_risk":5,"migraine_risk":7,"frizz_risk":1,"updated_at":"2026-03-30T14:46:55.307023+05:30"},{"city":"Amritsar","state":"Punjab","latitude":31.634,"longitude":74.8723,"temp":25.3,"humidity":73,"rain":0.0,"pressure":981.0,"uv_index":5.3,"wind_gusts":37.1,"aqi":98,"pm10":175.1,"pm2_5":49.4,"mosquito_risk":7,"arthritis_risk":5,"migraine_risk":3,"frizz_risk":1,"updated_at":"2026-03-30T14:46:55.307028+05:30"},{"city":"Ludhiana","state":"Punjab","latitude":30.901,"longitude":75.8573,"temp":29.3,"humidity":53,"rain":0.0,"pressure":978.8,"uv_index":5.95,"wind_gusts":37.1,"aqi":145,"pm10":475.0,"pm2_5":76.8,"mosquito_risk":4,"arthritis_risk":5,"migraine_risk":3,"frizz_risk":1,"updated_at":"2026-03-30T14:46:55.307034+05:30"},{"city":"Jalandhar","state":"Punjab","latitude":31.326,"longitude":75.5762,"temp":31.4,"humidity":41,"rain":0.0,"pressure":979.5,"uv_index":4.7,"wind_gusts":51.1,"aqi":119,"pm10":326.0,"pm2_5":65.0,"mosquito_risk":0,"arthritis_risk":5,"migraine_risk":3,"frizz_risk":1,"updated_at":"2026-03-30T14:46:55.307042+05:30"},{"city":"Dehradun","state":"Uttarakhand","latitude":30.6284,"longitude":78.0322,"temp":21.0,"humidity":52,"rain":0.0,"pressure":832.4,"uv_index":6.35,"wind_gusts":30.6,"aqi":38,"pm10":45.9,"pm2_5":9.2,"mosquito_risk":0,"arthritis_risk":5,"migraine_risk":7,"frizz_risk":0,"updated_at":"2026-03-30T14:46:55.307048+05:30"},{"city":"Shimla","state":"Himachal Pradesh","latitude":31.1048,"longitude":77.1734,"temp":18.1,"humidity":63,"rain":0.0,"pressure":787.1,"uv_index":6.6,"wind_gusts":30.6,"aqi":50,"pm10":84.5,"pm2_5":16.6,"mosquito_risk":3,"arthritis_risk":5,"migraine_risk":7,"frizz_risk":0,"updated_at":"2026-03-30T14:46:55.307054+05:30"},{"city":"Manali","state":"Himachal Pradesh","latitude":32.2396,"longitude":77.1887,"temp":19.5,"humidity":56,"rain":0.0,"pressure":822.6,"uv_index":8.55,"wind_gusts":28.8,"aqi":58,"pm10":12.0,"pm2_5":6.2,"mosquito_risk":0,"arthritis_risk":5,"migraine_risk":7,"frizz_risk":0,"updated_at":"2026-03-30T14:46:55.307060+05:30"},{"city":"Gurgaon","state":"Haryana","latitude":28.4595,"longitude":77.0266,"temp":30.6,"humidity":39,"rain":0.0,"pressure":982.2,"uv_index":6.15,"wind_gusts":41.8,"aqi":807,"pm10":1937.2,"pm2_5":191.4,"mosquito_risk":0,"arthritis_risk":5,"migraine_risk":7,"frizz_risk":0,"updated_at":"2026-03-30T14:46:55.307066+05:30"},{"city":"Noida","state":"Uttar Pradesh","latitude":28.5355,"longitude":77.391,"temp":31.6,"humidity":35,"rain":0.0,"pressure":984.9,"uv_index":5.9,"wind_gusts":39.2,"aqi":807,"pm10":1937.2,"pm2_5":191.4,"mosquito_risk":0,"arthritis_risk":5,"migraine_risk":3,"frizz_risk":0,"updated_at":"2026-03-30T14:46:55.307072+05:30"},{"city":"Ghaziabad","state":"Uttar Pradesh","latitude":28.6692,"longitude":77.4538,"temp":31.7,"humidity":35,"rain":0.0,"pressure":983.1,"uv_index":5.95,"wind_gusts":38.5,"aqi":146,"pm10":297.1,"pm2_5":56.0,"mosquito_risk":0,"arthritis_risk":5,"migraine_risk":3,"frizz_risk":0,"updated_at":"2026-03-30T14:46:55.307077+05:30"},{"city":"Faridabad","state":"Haryana","latitude":28.4089,"longitude":77.3178,"temp":31.5,"humidity":36,"rain":0.0,"pressure":984.2,"uv_index":5.55,"wind_gusts":39.6,"aqi":807,"pm10":1937.2,"pm2_5":191.4,"mosquito_risk":0,"arthritis_risk":5,"migraine_risk":3,"frizz_risk":0,"updated_at":"2026-03-30T14:46:55.307083+05:30"},{"city":"Meerut","state":"Uttar Pradesh","latitude":28.9845,"longitude":77.7064,"temp":32.4,"humidity":40,"rain":0.0,"pressure":981.6,"uv_index":5.8,"wind_gusts":38.9,"aqi":146,"pm10":297.1,"pm2_5":56.0,"mosquito_risk":0,"arthritis_risk":5,"migraine_risk":3,"frizz_risk":1,"updated_at":"2026-03-30T14:46:55.307088+05:30"},{"city":"Agra","state":"Uttar Pradesh","latitude":27.1767,"longitude":78.0081,"temp":37.1,"humidity":18,"rain":0.0,"pressure":986.9,"uv_index":6.85,"wind_gusts":41.0,"aqi":263,"pm10":1251.7,"pm2_5":112.9,"mosquito_risk":0,"arthritis_risk":5,"migraine_risk":10,"frizz_risk":0,"updated_at":"2026-03-30T14:46:55.307094+05:30"},{"city":"Varanasi","state":"Uttar Pradesh","latitude":25.3176,"longitude":82.9739,"temp":37.7,"humidity":28,"rain":0.0,"pressure":995.4,"uv_index":7.95,"wind_gusts":25.6,"aqi":103,"pm10":40.9,"pm2_5":18.0,"mosquito_risk":0,"arthritis_risk":5,"migraine_risk":10,"frizz_risk":0,"updated_at":"2026-03-30T14:46:55.307102+05:30"},{"city":"Prayagraj","state":"Uttar Pradesh","latitude":25.4358,"longitude":81.8463,"temp":37.1,"humidity":29,"rain":0.0,"pressure":993.7,"uv_index":7.85,"wind_gusts":20.9,"aqi":101,"pm10":45.4,"pm2_5":20.0,"mosquito_risk":0,"arthritis_risk":5,"migraine_risk":10,"frizz_risk":1,"updated_at":"2026-03-30T14:46:55.307108+05:30"},{"city":"Gorakhpur","state":"Uttar Pradesh","latitude":26.7606,"longitude":83.3732,"temp":33.2,"humidity":41,"rain":0.0,"pressure":996.2,"uv_index":7.7,"wind_gusts":25.9,"aqi":149,"pm10":88.9,"pm2_5":48.3,"mosquito_risk":0,"arthritis_risk":5,"migraine_risk":7,"frizz_risk":1,"updated_at":"2026-03-30T14:46:55.307116+05:30"},{"city":"Bareilly","state":"Uttar Pradesh","latitude":28.367,"longitude":79.4304,"temp":34.3,"humidity":36,"rain":0.0,"pressure":985.8,"uv_index":6.3,"wind_gusts":29.2,"aqi":107,"pm10":92.4,"pm2_5":28.2,"mosquito_risk":0,"arthritis_risk":5,"migraine_risk":7,"frizz_risk":1,"updated_at":"2026-03-30T14:46:55.307122+05:30"},{"city":"Aligarh","state":"Uttar Pradesh","latitude":27.8974,"longitude":78.088,"temp":34.6,"humidity":25,"rain":0.0,"pressure":985.3,"uv_index":6.3,"wind_gusts":34.9,"aqi":311,"pm10":987.2,"pm2_5":106.4,"mosquito_risk":0,"arthritis_risk":5,"migraine_risk":7,"frizz_risk":0,"updated_at":"2026-03-30T14:46:55.307128+05:30"},{"city":"Moradabad","state":"Uttar Pradesh","latitude":28.8386,"longitude":78.7733,"temp":33.7,"humidity":38,"rain":0.0,"pressure":983.0,"uv_index":6.0,"wind_gusts":38.9,"aqi":135,"pm10":102.9,"pm2_5":33.9,"mosquito_risk":0,"arthritis_risk":5,"migraine_risk":3,"frizz_risk":1,"updated_at":"2026-03-30T14:46:55.307133+05:30"},{"city":"Saharanpur","state":"Uttar Pradesh","latitude":29.9637,"longitude":77.546,"temp":30.1,"humidity":47,"rain":0.0,"pressure":976.1,"uv_index":6.0,"wind_gusts":37.4,"aqi":81,"pm10":126.2,"pm2_5":31.5,"mosquito_risk":0,"arthritis_risk":5,"migraine_risk":3,"frizz_risk":1,"updated_at":"2026-03-30T14:46:55.307139+05:30"},{"city":"Jhansi","state":"Uttar Pradesh","latitude":25.4484,"longitude":78.5685,"temp":37.2,"humidity":21,"rain":0.0,"pressure":976.5,"uv_index":7.3,"wind_gusts":46.4,"aqi":45,"pm10":84.5,"pm2_5":16.1,"mosquito_risk":0,"arthritis_risk":5,"migraine_risk":10,"frizz_risk":0,"updated_at":"2026-03-30T14:46:58.610211+05:30"},{"city":"Surat","state":"Gujarat","latitude":21.1702,"longitude":72.8311,"temp":32.6,"humidity":57,"rain":0.0,"pressure":1005.6,"uv_index":7.6,"wind_gusts":25.2,"aqi":98,"pm10":65.7,"pm2_5":39.6,"mosquito_risk":0,"arthritis_risk":5,"migraine_risk":4,"frizz_risk":1,"updated_at":"2026-03-30T14:46:58.610239+05:30"},{"city":"Vadodara","state":"Gujarat","latitude":22.3072,"longitude":73.1812,"temp":37.7,"humidity":32,"rain":0.0,"pressure":1002.5,"uv_index":8.0,"wind_gusts":29.2,"aqi":74,"pm10":49.1,"pm2_5":19.3,"mosquito_risk":0,"arthritis_risk":5,"migraine_risk":7,"frizz_risk":1,"updated_at":"2026-03-30T14:46:58.610252+05:30"},{"city":"Rajkot","state":"Gujarat","latitude":22.3039,"longitude":70.8022,"temp":34.0,"humidity":37,"rain":0.0,"pressure":993.7,"uv_index":7.8,"wind_gusts":37.4,"aqi":61,"pm10":44.5,"pm2_5":14.7,"mosquito_risk":0,"arthritis_risk":5,"migraine_risk":7,"frizz_risk":1,"updated_at":"2026-03-30T14:46:58.610262+05:30"},{"city":"Thane","state":"Maharashtra","latitude":19.2183,"longitude":72.9781,"temp":31.5,"humidity":62,"rain":0.0,"pressure":1006.7,"uv_index":8.0,"wind_gusts":37.4,"aqi":59,"pm10":46.6,"pm2_5":26.9,"mosquito_risk":3,"arthritis_risk":5,"migraine_risk":4,"frizz_risk":1,"updated_at":"2026-03-30T14:46:58.610271+05:30"},{"city":"Nagpur","state":"Maharashtra","latitude":21.1458,"longitude":79.0882,"temp":35.7,"humidity":33,"rain":0.0,"pressure":971.6,"uv_index":8.55,"wind_gusts":34.2,"aqi":62,"pm10":24.7,"pm2_5":14.8,"mosquito_risk":0,"arthritis_risk":5,"migraine_risk":10,"frizz_risk":1,"updated_at":"2026-03-30T14:46:58.610279+05:30"},{"city":"Nashik","state":"Maharashtra","latitude":19.9975,"longitude":73.7898,"temp":33.4,"humidity":36,"rain":0.0,"pressure":944.7,"uv_index":8.25,"wind_gusts":42.5,"aqi":42,"pm10":19.0,"pm2_5":11.8,"mosquito_risk":0,"arthritis_risk":5,"migraine_risk":7,"frizz_risk":1,"updated_at":"2026-03-30T14:46:58.610288+05:30"},{"city":"Aurangabad","state":"Maharashtra","latitude":19.8762,"longitude":75.3433,"temp":36.6,"humidity":25,"rain":0.0,"pressure":942.8,"uv_index":8.75,"wind_gusts":38.9,"aqi":47,"pm10":16.9,"pm2_5":11.1,"mosquito_risk":0,"arthritis_risk":5,"migraine_risk":10,"frizz_risk":0,"updated_at":"2026-03-30T14:46:58.610296+05:30"},{"city":"Solapur","state":"Maharashtra","latitude":17.6599,"longitude":75.9064,"temp":38.5,"humidity":23,"rain":0.0,"pressure":955.0,"uv_index":8.85,"wind_gusts":25.9,"aqi":62,"pm10":19.9,"pm2_5":16.5,"mosquito_risk":0,"arthritis_risk":5,"migraine_risk":10,"frizz_risk":0,"updated_at":"2026-03-30T14:46:58.610304+05:30"},{"city":"Kolhapur","state":"Maharashtra","latitude":16.705,"longitude":74.2433,"temp":33.3,"humidity":40,"rain":0.0,"pressure":946.8,"uv_index":8.9,"wind_gusts":43.9,"aqi":64,"pm10":16.6,"pm2_5":13.7,"mosquito_risk":0,"arthritis_risk":5,"migraine_risk":7,"frizz_risk":1,"updated_at":"2026-03-30T14:46:58.610312+05:30"},{"city":"Goa","state":"Goa","latitude":15.2993,"longitude":74.124,"temp":32.3,"humidity":61,"rain":0.0,"pressure":996.4,"uv_index":8.95,"wind_gusts":31.7,"aqi":53,"pm10":18.3,"pm2_5":12.7,"mosquito_risk":3,"arthritis_risk":5,"migraine_risk":7,"frizz_risk":1,"updated_at":"2026-03-30T14:46:58.610320+05:30"},{"city":"Jodhpur","state":"Rajasthan","latitude":26.2389,"longitude":73.0243,"temp":29.2,"humidity":46,"rain":0.0,"pressure":983.6,"uv_index":7.65,"wind_gusts":48.6,"aqi":127,"pm10":165.3,"pm2_5":22.9,"mosquito_risk":4,"arthritis_risk":5,"migraine_risk":7,"frizz_risk":1,"updated_at":"2026-03-30T14:46:58.610327+05:30"},{"city":"Udaipur","state":"Rajasthan","latitude":24.5854,"longitude":73.7125,"temp":29.7,"humidity":40,"rain":0.0,"pressure":947.2,"uv_index":8.25,"wind_gusts":39.2,"aqi":40,"pm10":34.1,"pm2_5":9.1,"mosquito_risk":4,"arthritis_risk":5,"migraine_risk":7,"frizz_risk":0,"updated_at":"2026-03-30T14:46:58.610335+05:30"},{"city":"Kota","state":"Rajasthan","latitude":25.2138,"longitude":75.8648,"temp":34.9,"humidity":29,"rain":0.0,"pressure":978.2,"uv_index":6.2,"wind_gusts":29.2,"aqi":37,"pm10":35.3,"pm2_5":11.8,"mosquito_risk":0,"arthritis_risk":5,"migraine_risk":7,"frizz_risk":0,"updated_at":"2026-03-30T14:46:58.610343+05:30"},{"city":"Bikaner","state":"Rajasthan","latitude":28.0229,"longitude":73.3119,"temp":30.4,"humidity":38,"rain":0.0,"pressure":981.9,"uv_index":6.35,"wind_gusts":45.4,"aqi":115,"pm10":85.7,"pm2_5":23.5,"mosquito_risk":0,"arthritis_risk":5,"migraine_risk":7,"frizz_risk":0,"updated_at":"2026-03-30T14:46:58.610351+05:30"},{"city":"Ajmer","state":"Rajasthan","latitude":26.4499,"longitude":74.6399,"temp":29.2,"humidity":41,"rain":0.0,"pressure":955.1,"uv_index":6.4,"wind_gusts":41.4,"aqi":51,"pm10":31.3,"pm2_5":8.8,"mosquito_risk":4,"arthritis_risk":5,"migraine_risk":7,"frizz_risk":0,"updated_at":"2026-03-30T14:46:58.610359+05:30"},{"city":"Gwalior","state":"Madhya Pradesh","latitude":26.2183,"longitude":78.1828,"temp":35.6,"humidity":25,"rain":0.0,"pressure":982.6,"uv_index":6.4,"wind_gusts":40.0,"aqi":47,"pm10":163.0,"pm2_5":26.9,"mosquito_risk":0,"arthritis_risk":5,"migraine_risk":10,"frizz_risk":0,"updated_at":"2026-03-30T14:46:58.610367+05:30"},{"city":"Indore","state":"Madhya Pradesh","latitude":22.7196,"longitude":75.8577,"temp":34.3,"humidity":32,"rain":0.0,"pressure":947.6,"uv_index":8.15,"wind_gusts":44.6,"aqi":47,"pm10":23.6,"pm2_5":9.7,"mosquito_risk":0,"arthritis_risk":5,"migraine_risk":7,"frizz_risk":0,"updated_at":"2026-03-30T14:46:58.610375+05:30"},{"city":"Bhopal","state":"Madhya Pradesh","latitude":23.2599,"longitude":77.4126,"temp":36.3,"humidity":24,"rain":0.0,"pressure":952.9,"uv_index":8.2,"wind_gusts":26.6,"aqi":45,"pm10":16.1,"pm2_5":7.0,"mosquito_risk":0,"arthritis_risk":5,"migraine_risk":10,"frizz_risk":0,"updated_at":"2026-03-30T14:46:58.610383+05:30"},{"city":"Jabalpur","state":"Madhya Pradesh","latitude":23.1815,"longitude":79.9864,"temp":37.2,"humidity":24,"rain":0.0,"pressure":959.8,"uv_index":8.35,"wind_gusts":29.9,"aqi":47,"pm10":16.1,"pm2_5":7.9,"mosquito_risk":0,"arthritis_risk":5,"migraine_risk":10,"frizz_risk":0,"updated_at":"2026-03-30T14:46:58.610391+05:30"},{"city":"Ujjain","state":"Madhya Pradesh","latitude":23.1765,"longitude":75.7885,"temp":34.5,"humidity":31,"rain":0.0,"pressure":953.4,"uv_index":7.95,"wind_gusts":28.1,"aqi":48,"pm10":27.5,"pm2_5":9.8,"mosquito_risk":0,"arthritis_risk":5,"migraine_risk":7,"frizz_risk":0,"updated_at":"2026-03-30T14:46:58.610447+05:30"},{"city":"Visakhapatnam","state":"Andhra Pradesh","latitude":17.6868,"longitude":83.2185,"temp":32.8,"humidity":55,"rain":0.0,"pressure":1002.8,"uv_index":9.0,"wind_gusts":40.7,"aqi":64,"pm10":24.3,"pm2_5":18.6,"mosquito_risk":0,"arthritis_risk":5,"migraine_risk":4,"frizz_risk":1,"updated_at":"2026-03-30T14:46:58.610462+05:30"},{"city":"Vijayawada","state":"Andhra Pradesh","latitude":16.5062,"longitude":80.648,"temp":35.9,"humidity":42,"rain":0.0,"pressure":1001.1,"uv_index":9.05,"wind_gusts":32.0,"aqi":77,"pm10":29.2,"pm2_5":23.9,"mosquito_risk":0,"arthritis_risk":5,"migraine_risk":7,"frizz_risk":1,"updated_at":"2026-03-30T14:46:58.610471+05:30"},{"city":"Guntur","state":"Andhra Pradesh","latitude":16.3067,"longitude":80.4365,"temp":35.7,"humidity":41,"rain":0.0,"pressure":1002.4,"uv_index":9.1,"wind_gusts":33.8,"aqi":84,"pm10":31.0,"pm2_5":26.1,"mosquito_risk":0,"arthritis_risk":5,"migraine_risk":7,"frizz_risk":1,"updated_at":"2026-03-30T14:46:58.610479+05:30"},{"city":"Nellore","state":"Andhra Pradesh","latitude":14.4426,"longitude":79.9865,"temp":37.7,"humidity":34,"rain":0.0,"pressure":1003.9,"uv_index":9.2,"wind_gusts":31.0,"aqi":68,"pm10":28.8,"pm2_5":22.9,"mosquito_risk":0,"arthritis_risk":5,"migraine_risk":7,"frizz_risk":1,"updated_at":"2026-03-30T14:46:58.610488+05:30"},{"city":"Kurnool","state":"Andhra Pradesh","latitude":15.8281,"longitude":78.0373,"temp":37.6,"humidity":26,"rain":0.0,"pressure":975.2,"uv_index":9.1,"wind_gusts":24.5,"aqi":114,"pm10":40.3,"pm2_5":33.6,"mosquito_risk":0,"arthritis_risk":5,"migraine_risk":10,"frizz_risk":0,"updated_at":"2026-03-30T14:46:58.610496+05:30"},{"city":"Kakinada","state":"Andhra Pradesh","latitude":16.9891,"longitude":82.2475,"temp":35.0,"humidity":49,"rain":0.0,"pressure":1006.4,"uv_index":9.0,"wind_gusts":33.5,"aqi":53,"pm10":18.7,"pm2_5":12.3,"mosquito_risk":0,"arthritis_risk":5,"migraine_risk":4,"frizz_risk":1,"updated_at":"2026-03-30T14:46:58.610504+05:30"},{"city":"Tirupati","state":"Andhra Pradesh","latitude":13.6288,"longitude":79.4192,"temp":36.2,"humidity":29,"rain":0.0,"pressure":990.4,"uv_index":9.3,"wind_gusts":35.3,"aqi":96,"pm10":30.7,"pm2_5":26.7,"mosquito_risk":0,"arthritis_risk":5,"migraine_risk":10,"frizz_risk":0,"updated_at":"2026-03-30T14:46:58.610512+05:30"},{"city":"Warangal","state":"Telangana","latitude":17.9689,"longitude":79.5941,"temp":35.3,"humidity":49,"rain":0.0,"pressure":977.5,"uv_index":8.9,"wind_gusts":27.0,"aqi":112,"pm10":36.8,"pm2_5":31.2,"mosquito_risk":0,"arthritis_risk":5,"migraine_risk":10,"frizz_risk":1,"updated_at":"2026-03-30T14:46:58.610520+05:30"},{"city":"Nizamabad","state":"Telangana","latitude":18.6725,"longitude":78.0941,"temp":36.7,"humidity":31,"rain":0.0,"pressure":963.8,"uv_index":8.85,"wind_gusts":46.8,"aqi":94,"pm10":22.2,"pm2_5":19.6,"mosquito_risk":0,"arthritis_risk":5,"migraine_risk":10,"frizz_risk":1,"updated_at":"2026-03-30T14:46:58.610527+05:30"},{"city":"Mysore","state":"Karnataka","latitude":12.2958,"longitude":76.6396,"temp":31.9,"humidity":40,"rain":0.0,"pressure":927.5,"uv_index":8.75,"wind_gusts":22.7,"aqi":137,"pm10":41.9,"pm2_5":36.2,"mosquito_risk":0,"arthritis_risk":5,"migraine_risk":7,"frizz_risk":1,"updated_at":"2026-03-30T14:46:58.610535+05:30"},{"city":"Mangalore","state":"Karnataka","latitude":12.9141,"longitude":74.856,"temp":29.5,"humidity":79,"rain":0.0,"pressure":1005.4,"uv_index":2.45,"wind_gusts":23.0,"aqi":64,"pm10":30.2,"pm2_5":21.2,"mosquito_risk":7,"arthritis_risk":5,"migraine_risk":0,"frizz_risk":1,"updated_at":"2026-03-30T14:46:58.610543+05:30"},{"city":"Hubli-Dharwad","state":"Karnataka","latitude":15.3647,"longitude":75.124,"temp":34.8,"humidity":32,"rain":0.0,"pressure":940.0,"uv_index":8.1,"wind_gusts":29.2,"aqi":57,"pm10":22.1,"pm2_5":17.1,"mosquito_risk":0,"arthritis_risk":5,"migraine_risk":7,"frizz_risk":0,"updated_at":"2026-03-30T14:46:58.610551+05:30"},{"city":"Belgaum","state":"Karnataka","latitude":15.8497,"longitude":74.4977,"temp":30.5,"humidity":53,"rain":0.0,"pressure":925.2,"uv_index":9.1,"wind_gusts":33.8,"aqi":50,"pm10":15.1,"pm2_5":12.4,"mosquito_risk":0,"arthritis_risk":5,"migraine_risk":7,"frizz_risk":1,"updated_at":"2026-03-30T14:47:01.916837+05:30"},{"city":"Coimbatore","state":"Tamil Nadu","latitude":11.0168,"longitude":76.9558,"temp":35.7,"humidity":29,"rain":0.0,"pressure":960.1,"uv_index":9.45,"wind_gusts":41.0,"aqi":98,"pm10":19.3,"pm2_5":16.2,"mosquito_risk":0,"arthritis_risk":5,"migraine_risk":10,"frizz_risk":0,"updated_at":"2026-03-30T14:47:01.916861+05:30"},{"city":"Madurai","state":"Tamil Nadu","latitude":9.9252,"longitude":78.1198,"temp":36.9,"humidity":34,"rain":0.0,"pressure":990.8,"uv_index":9.4,"wind_gusts":34.2,"aqi":76,"pm10":17.4,"pm2_5":14.7,"mosquito_risk":0,"arthritis_risk":5,"migraine_risk":10,"frizz_risk":1,"updated_at":"2026-03-30T14:47:01.916871+05:30"},{"city":"Trichy","state":"Tamil Nadu","latitude":10.7905,"longitude":78.7047,"temp":36.7,"humidity":35,"rain":0.0,"pressure":997.7,"uv_index":9.35,"wind_gusts":26.3,"aqi":71,"pm10":14.1,"pm2_5":12.3,"mosquito_risk":0,"arthritis_risk":5,"migraine_risk":10,"frizz_risk":1,"updated_at":"2026-03-30T14:47:01.916878+05:30"},{"city":"Salem","state":"Tamil Nadu","latitude":11.6643,"longitude":78.146,"temp":37.6,"humidity":28,"rain":0.0,"pressure":975.6,"uv_index":9.45,"wind_gusts":23.8,"aqi":83,"pm10":21.7,"pm2_5":18.4,"mosquito_risk":0,"arthritis_risk":5,"migraine_risk":10,"frizz_risk":0,"updated_at":"2026-03-30T14:47:01.916885+05:30"},{"city":"Tirunelveli","state":"Tamil Nadu","latitude":8.7139,"longitude":77.7567,"temp":38.3,"humidity":30,"rain":0.0,"pressure":1000.3,"uv_index":9.35,"wind_gusts":46.1,"aqi":81,"pm10":19.7,"pm2_5":17.2,"mosquito_risk":0,"arthritis_risk":5,"migraine_risk":7,"frizz_risk":1,"updated_at":"2026-03-30T14:47:01.916891+05:30"},{"city":"Vellore","state":"Tamil Nadu","latitude":12.9165,"longitude":79.1325,"temp":36.1,"humidity":27,"rain":0.0,"pressure":983.4,"uv_index":9.35,"wind_gusts":33.8,"aqi":100,"pm10":31.5,"pm2_5":28.2,"mosquito_risk":0,"arthritis_risk":5,"migraine_risk":10,"frizz_risk":0,"updated_at":"2026-03-30T14:47:01.916896+05:30"},{"city":"Erode","state":"Tamil Nadu","latitude":11.341,"longitude":77.7172,"temp":38.6,"humidity":23,"rain":0.0,"pressure":986.7,"uv_index":9.4,"wind_gusts":27.4,"aqi":73,"pm10":17.9,"pm2_5":15.2,"mosquito_risk":0,"arthritis_risk":5,"migraine_risk":10,"frizz_risk":0,"updated_at":"2026-03-30T14:47:01.916902+05:30"},{"city":"Kochi","state":"Kerala","latitude":9.9312,"longitude":76.2673,"temp":29.6,"humidity":77,"rain":0.0,"pressure":1006.6,"uv_index":9.2,"wind_gusts":28.8,"aqi":98,"pm10":32.6,"pm2_5":28.9,"mosquito_risk":7,"arthritis_risk":5,"migraine_risk":4,"frizz_risk":1,"updated_at":"2026-03-30T14:47:01.916908+05:30"},{"city":"Thiruvananthapuram","state":"Kerala","latitude":8.5241,"longitude":76.9366,"temp":29.5,"humidity":78,"rain":0.0,"pressure":1005.7,"uv_index":9.2,"wind_gusts":28.1,"aqi":80,"pm10":28.9,"pm2_5":22.9,"mosquito_risk":7,"arthritis_risk":5,"migraine_risk":4,"frizz_risk":1,"updated_at":"2026-03-30T14:47:01.916914+05:30"},{"city":"Kozhikode","state":"Kerala","latitude":11.2588,"longitude":75.7804,"temp":30.3,"humidity":76,"rain":0.0,"pressure":1006.1,"uv_index":9.1,"wind_gusts":27.0,"aqi":141,"pm10":50.8,"pm2_5":44.2,"mosquito_risk":3,"arthritis_risk":5,"migraine_risk":4,"frizz_risk":1,"updated_at":"2026-03-30T14:47:01.916920+05:30"},{"city":"Thrissur","state":"Kerala","latitude":10.5276,"longitude":76.2144,"temp":33.9,"humidity":59,"rain":0.0,"pressure":1005.0,"uv_index":9.2,"wind_gusts":28.8,"aqi":104,"pm10":37.6,"pm2_5":32.9,"mosquito_risk":0,"arthritis_risk":5,"migraine_risk":4,"frizz_risk":1,"updated_at":"2026-03-30T14:47:01.916926+05:30"},{"city":"Kannur","state":"Kerala","latitude":11.8745,"longitude":75.3704,"temp":30.8,"humidity":68,"rain":0.0,"pressure":1005.8,"uv_index":8.15,"wind_gusts":24.8,"aqi":113,"pm10":34.8,"pm2_5":27.1,"mosquito_risk":3,"arthritis_risk":5,"migraine_risk":4,"frizz_risk":1,"updated_at":"2026-03-30T14:47:01.916932+05:30"},{"city":"Patna","state":"Bihar","latitude":25.5941,"longitude":85.1376,"temp":33.1,"humidity":48,"rain":0.0,"pressure":999.3,"uv_index":8.1,"wind_gusts":30.6,"aqi":153,"pm10":79.2,"pm2_5":51.7,"mosquito_risk":0,"arthritis_risk":5,"migraine_risk":7,"frizz_risk":1,"updated_at":"2026-03-30T14:47:01.916938+05:30"},{"city":"Gaya","state":"Bihar","latitude":24.7914,"longitude":85.0002,"temp":35.0,"humidity":40,"rain":0.0,"pressure":992.0,"uv_index":8.2,"wind_gusts":24.1,"aqi":117,"pm10":44.8,"pm2_5":22.0,"mosquito_risk":0,"arthritis_risk":5,"migraine_risk":7,"frizz_risk":1,"updated_at":"2026-03-30T14:47:01.916944+05:30"},{"city":"Muzaffarpur","state":"Bihar","latitude":26.1209,"longitude":85.3647,"temp":32.1,"humidity":49,"rain":0.0,"pressure":999.6,"uv_index":8.05,"wind_gusts":29.2,"aqi":155,"pm10":88.0,"pm2_5":58.8,"mosquito_risk":0,"arthritis_risk":5,"migraine_risk":7,"frizz_risk":1,"updated_at":"2026-03-30T14:47:01.916949+05:30"},{"city":"Bhagalpur","state":"Bihar","latitude":25.2425,"longitude":87.0117,"temp":30.7,"humidity":62,"rain":0.0,"pressure":1000.4,"uv_index":8.1,"wind_gusts":19.4,"aqi":157,"pm10":79.9,"pm2_5":61.5,"mosquito_risk":3,"arthritis_risk":5,"migraine_risk":4,"frizz_risk":1,"updated_at":"2026-03-30T14:47:01.916955+05:30"},{"city":"Ranchi","state":"Jharkhand","latitude":23.3441,"longitude":85.3096,"temp":30.1,"humidity":52,"rain":0.0,"pressure":937.1,"uv_index":8.75,"wind_gusts":25.6,"aqi":103,"pm10":45.8,"pm2_5":29.2,"mosquito_risk":0,"arthritis_risk":5,"migraine_risk":7,"frizz_risk":1,"updated_at":"2026-03-30T14:47:01.916961+05:30"},{"city":"Jamshedpur","state":"Jharkhand","latitude":22.8046,"longitude":86.2029,"temp":35.4,"humidity":47,"rain":0.0,"pressure":988.7,"uv_index":8.6,"wind_gusts":27.7,"aqi":129,"pm10":64.5,"pm2_5":51.2,"mosquito_risk":0,"arthritis_risk":5,"migraine_risk":10,"frizz_risk":1,"updated_at":"2026-03-30T14:47:01.916966+05:30"},{"city":"Dhanbad","state":"Jharkhand","latitude":23.7957,"longitude":86.4304,"temp":35.7,"humidity":35,"rain":0.0,"pressure":977.8,"uv_index":8.5,"wind_gusts":24.1,"aqi":164,"pm10":80.6,"pm2_5":61.7,"mosquito_risk":0,"arthritis_risk":5,"migraine_risk":10,"frizz_risk":1,"updated_at":"2026-03-30T14:47:01.916972+05:30"},{"city":"Bokaro","state":"Jharkhand","latitude":23.6693,"longitude":86.1511,"temp":33.9,"humidity":43,"rain":0.0,"pressure":982.2,"uv_index":8.55,"wind_gusts":27.4,"aqi":158,"pm10":66.1,"pm2_5":47.7,"mosquito_risk":0,"arthritis_risk":5,"migraine_risk":7,"frizz_risk":1,"updated_at":"2026-03-30T14:47:01.916978+05:30"},{"city":"Bhubaneswar","state":"Odisha","latitude":20.2961,"longitude":85.8245,"temp":33.3,"humidity":57,"rain":0.0,"pressure":1001.0,"uv_index":8.8,"wind_gusts":38.9,"aqi":69,"pm10":24.6,"pm2_5":19.6,"mosquito_risk":0,"arthritis_risk":5,"migraine_risk":4,"frizz_risk":1,"updated_at":"2026-03-30T14:47:01.916983+05:30"},{"city":"Cuttack","state":"Odisha","latitude":20.4625,"longitude":85.8828,"temp":34.9,"humidity":53,"rain":0.0,"pressure":1002.1,"uv_index":8.85,"wind_gusts":34.2,"aqi":69,"pm10":24.6,"pm2_5":19.6,"mosquito_risk":0,"arthritis_risk":5,"migraine_risk":4,"frizz_risk":1,"updated_at":"2026-03-30T14:47:01.916989+05:30"},{"city":"Rourkela","state":"Odisha","latitude":22.2604,"longitude":84.8536,"temp":37.9,"humidity":34,"rain":0.0,"pressure":982.0,"uv_index":8.5,"wind_gusts":51.5,"aqi":145,"pm10":36.8,"pm2_5":28.2,"mosquito_risk":0,"arthritis_risk":5,"migraine_risk":10,"frizz_risk":1,"updated_at":"2026-03-30T14:47:01.916994+05:30"},{"city":"Raipur","state":"Chhattisgarh","latitude":21.2514,"longitude":81.6296,"temp":38.1,"humidity":24,"rain":0.0,"pressure":972.4,"uv_index":8.65,"wind_gusts":31.7,"aqi":97,"pm10":24.9,"pm2_5":15.3,"mosquito_risk":0,"arthritis_risk":5,"migraine_risk":10,"frizz_risk":0,"updated_at":"2026-03-30T14:47:01.917000+05:30"},{"city":"Bhilai","state":"Chhattisgarh","latitude":21.1938,"longitude":81.3509,"temp":38.4,"humidity":24,"rain":0.0,"pressure":972.7,"uv_index":8.65,"wind_gusts":28.4,"aqi":71,"pm10":23.3,"pm2_5":13.2,"mosquito_risk":0,"arthritis_risk":5,"migraine_risk":10,"frizz_risk":0,"updated_at":"2026-03-30T14:47:01.917006+05:30"},{"city":"Guwahati","state":"Assam","latitude":26.1158,"longitude":91.7086,"temp":27.0,"humidity":68,"rain":0.0,"pressure":1001.8,"uv_index":7.15,"wind_gusts":27.7,"aqi":95,"pm10":56.6,"pm2_5":37.0,"mosquito_risk":7,"arthritis_risk":5,"migraine_risk":4,"frizz_risk":1,"updated_at":"2026-03-30T14:47:01.917011+05:30"},{"city":"Agartala","state":"Tripura","latitude":23.8315,"longitude":91.2868,"temp":31.2,"humidity":63,"rain":0.0,"pressure":1005.1,"uv_index":8.3,"wind_gusts":30.2,"aqi":125,"pm10":33.8,"pm2_5":27.6,"mosquito_risk":3,"arthritis_risk":5,"migraine_risk":4,"frizz_risk":1,"updated_at":"2026-03-30T14:47:01.917017+05:30"},{"city":"Shillong","state":"Meghalaya","latitude":25.5788,"longitude":91.8933,"temp":17.5,"humidity":68,"rain":0.0,"pressure":855.9,"uv_index":6.25,"wind_gusts":42.1,"aqi":99,"pm10":42.7,"pm2_5":30.0,"mosquito_risk":3,"arthritis_risk":5,"migraine_risk":7,"frizz_risk":0,"updated_at":"2026-03-30T14:47:01.917023+05:30"},{"city":"Imphal","state":"Manipur","latitude":24.817,"longitude":93.9368,"temp":21.5,"humidity":66,"rain":0.0,"pressure":922.7,"uv_index":7.75,"wind_gusts":58.3,"aqi":155,"pm10":43.2,"pm2_5":32.5,"mosquito_risk":3,"arthritis_risk":5,"migraine_risk":7,"frizz_risk":0,"updated_at":"2026-03-30T14:47:01.917028+05:30"},{"city":"Aizawl","state":"Mizoram","latitude":23.7271,"longitude":92.7176,"temp":23.3,"humidity":65,"rain":0.0,"pressure":893.5,"uv_index":8.45,"wind_gusts":52.2,"aqi":148,"pm10":50.6,"pm2_5":39.7,"mosquito_risk":3,"arthritis_risk":5,"migraine_risk":7,"frizz_risk":1,"updated_at":"2026-03-30T14:47:01.917034+05:30"},{"city":"Kohima","state":"Nagaland","latitude":25.6701,"longitude":94.1077,"temp":16.8,"humidity":87,"rain":0.0,"pressure":854.4,"uv_index":8.45,"wind_gusts":77.8,"aqi":137,"pm10":53.1,"pm2_5":35.2,"mosquito_risk":3,"arthritis_risk":10,"migraine_risk":7,"frizz_risk":0,"updated_at":"2026-03-30T14:47:01.917039+05:30"},{"city":"Gangtok","state":"Sikkim","latitude":27.3314,"longitude":88.6138,"temp":18.4,"humidity":66,"rain":0.0,"pressure":837.3,"uv_index":7.6,"wind_gusts":17.6,"aqi":97,"pm10":30.3,"pm2_5":23.2,"mosquito_risk":3,"arthritis_risk":5,"migraine_risk":7,"frizz_risk":0,"updated_at":"2026-03-30T14:47:01.917045+05:30"},{"city":"Siliguri","state":"West Bengal","latitude":26.7271,"longitude":88.3953,"temp":22.7,"humidity":74,"rain":0.0,"pressure":994.1,"uv_index":7.45,"wind_gusts":14.8,"aqi":154,"pm10":65.0,"pm2_5":44.9,"mosquito_risk":3,"arthritis_risk":5,"migraine_risk":7,"frizz_risk":1,"updated_at":"2026-03-30T14:47:05.226848+05:30"},{"city":"Durgapur","state":"West Bengal","latitude":23.5204,"longitude":87.3119,"temp":34.6,"humidity":50,"rain":0.0,"pressure":993.2,"uv_index":8.5,"wind_gusts":28.4,"aqi":161,"pm10":86.4,"pm2_5":70.8,"mosquito_risk":0,"arthritis_risk":5,"migraine_risk":7,"frizz_risk":1,"updated_at":"2026-03-30T14:47:05.226877+05:30"},{"city":"Asansol","state":"West Bengal","latitude":23.6739,"longitude":86.9524,"temp":35.3,"humidity":45,"rain":0.0,"pressure":991.6,"uv_index":8.5,"wind_gusts":26.3,"aqi":159,"pm10":83.8,"pm2_5":65.2,"mosquito_risk":0,"arthritis_risk":5,"migraine_risk":10,"frizz_risk":1,"updated_at":"2026-03-30T14:47:05.226890+05:30"},{"city":"Pondicherry","state":"Puducherry","latitude":11.9139,"longitude":79.8145,"temp":34.4,"humidity":53,"rain":0.0,"pressure":1007.0,"uv_index":9.25,"wind_gusts":27.4,"aqi":52,"pm10":14.3,"pm2_5":9.8,"mosquito_risk":0,"arthritis_risk":5,"migraine_risk":4,"frizz_risk":1,"updated_at":"2026-03-30T14:47:05.226899+05:30"},{"city":"Port Blair","state":"Andaman and Nicobar Islands","latitude":11.6234,"longitude":92.7265,"temp":30.4,"humidity":62,"rain":0.0,"pressure":1005.6,"uv_index":9.2,"wind_gusts":15.1,"aqi":70,"pm10":23.2,"pm2_5":19.1,"mosquito_risk":3,"arthritis_risk":5,"migraine_risk":4,"frizz_risk":1,"updated_at":"2026-03-30T14:47:05.226908+05:30"},{"city":"Haridwar","state":"Uttarakhand","latitude":29.9457,"longitude":78.1642,"temp":31.1,"humidity":43,"rain":0.0,"pressure":974.6,"uv_index":5.65,"wind_gusts":42.1,"aqi":72,"pm10":126.2,"pm2_5":27.6,"mosquito_risk":0,"arthritis_risk":5,"migraine_risk":3,"frizz_risk":1,"updated_at":"2026-03-30T14:47:05.226915+05:30"},{"city":"Rishikesh","state":"Uttarakhand","latitude":30.0869,"longitude":78.2676,"temp":30.5,"humidity":44,"rain":0.0,"pressure":967.4,"uv_index":5.55,"wind_gusts":22.3,"aqi":65,"pm10":93.8,"pm2_5":19.0,"mosquito_risk":0,"arthritis_risk":5,"migraine_risk":3,"frizz_risk":1,"updated_at":"2026-03-30T14:47:05.226923+05:30"},{"city":"Nainital","state":"Uttarakhand","latitude":29.3919,"longitude":79.4542,"temp":23.6,"humidity":53,"rain":0.0,"pressure":808.5,"uv_index":7.25,"wind_gusts":47.9,"aqi":71,"pm10":94.1,"pm2_5":23.8,"mosquito_risk":0,"arthritis_risk":5,"migraine_risk":7,"frizz_risk":0,"updated_at":"2026-03-30T14:47:05.226932+05:30"},{"city":"Mussoorie","state":"Uttarakhand","latitude":30.4599,"longitude":78.0664,"temp":21.2,"humidity":54,"rain":0.0,"pressure":805.1,"uv_index":6.2,"wind_gusts":34.2,"aqi":61,"pm10":75.7,"pm2_5":15.0,"mosquito_risk":0,"arthritis_risk":5,"migraine_risk":7,"frizz_risk":0,"updated_at":"2026-03-30T14:47:05.226940+05:30"},{"city":"Dharamshala","state":"Himachal Pradesh","latitude":32.219,"longitude":76.3234,"temp":22.5,"humidity":60,"rain":0.0,"pressure":870.7,"uv_index":5.9,"wind_gusts":30.2,"aqi":43,"pm10":32.9,"pm2_5":7.7,"mosquito_risk":0,"arthritis_risk":5,"migraine_risk":3,"frizz_risk":0,"updated_at":"2026-03-30T14:47:05.226948+05:30"},{"city":"Dalhousie","state":"Himachal Pradesh","latitude":32.5387,"longitude":75.971,"temp":20.7,"humidity":49,"rain":0.0,"pressure":805.7,"uv_index":5.85,"wind_gusts":36.0,"aqi":64,"pm10":102.7,"pm2_5":21.3,"mosquito_risk":0,"arthritis_risk":5,"migraine_risk":3,"frizz_risk":0,"updated_at":"2026-03-30T14:47:05.226957+05:30"},{"city":"Patiala","state":"Punjab","latitude":30.3398,"longitude":76.3869,"temp":28.4,"humidity":60,"rain":0.0,"pressure":978.8,"uv_index":5.6,"wind_gusts":38.2,"aqi":177,"pm10":691.0,"pm2_5":92.4,"mosquito_risk":4,"arthritis_risk":5,"migraine_risk":3,"frizz_risk":1,"updated_at":"2026-03-30T14:47:05.226964+05:30"},{"city":"Bhatinda","state":"Punjab","latitude":30.211,"longitude":74.9455,"temp":29.2,"humidity":44,"rain":0.0,"pressure":984.3,"uv_index":4.15,"wind_gusts":45.4,"aqi":309,"pm10":165.8,"pm2_5":45.5,"mosquito_risk":4,"arthritis_risk":5,"migraine_risk":3,"frizz_risk":0,"updated_at":"2026-03-30T14:47:05.226970+05:30"},{"city":"Rohtak","state":"Haryana","latitude":28.8955,"longitude":76.6066,"temp":29.2,"humidity":43,"rain":0.0,"pressure":983.0,"uv_index":6.55,"wind_gusts":41.8,"aqi":345,"pm10":907.1,"pm2_5":99.9,"mosquito_risk":4,"arthritis_risk":5,"migraine_risk":7,"frizz_risk":0,"updated_at":"2026-03-30T14:47:05.226976+05:30"},{"city":"Panipat","state":"Haryana","latitude":29.3909,"longitude":76.9635,"temp":29.5,"humidity":48,"rain":0.0,"pressure":981.5,"uv_index":6.6,"wind_gusts":38.9,"aqi":508,"pm10":1099.0,"pm2_5":113.2,"mosquito_risk":4,"arthritis_risk":5,"migraine_risk":7,"frizz_risk":1,"updated_at":"2026-03-30T14:47:05.226982+05:30"},{"city":"Mathura","state":"Uttar Pradesh","latitude":27.4924,"longitude":77.6737,"temp":35.0,"humidity":24,"rain":0.0,"pressure":986.6,"uv_index":6.6,"wind_gusts":40.7,"aqi":199,"pm10":1218.2,"pm2_5":118.3,"mosquito_risk":0,"arthritis_risk":5,"migraine_risk":7,"frizz_risk":0,"updated_at":"2026-03-30T14:47:05.226987+05:30"},{"city":"Vrindavan","state":"Uttar Pradesh","latitude":27.5823,"longitude":77.7027,"temp":34.6,"humidity":25,"rain":0.0,"pressure":987.0,"uv_index":6.65,"wind_gusts":36.0,"aqi":199,"pm10":1218.2,"pm2_5":118.3,"mosquito_risk":0,"arthritis_risk":5,"migraine_risk":7,"frizz_risk":0,"updated_at":"2026-03-30T14:47:05.226993+05:30"},{"city":"Ayodhya","state":"Uttar Pradesh","latitude":26.7922,"longitude":82.1998,"temp":34.8,"humidity":37,"rain":0.0,"pressure":994.2,"uv_index":7.45,"wind_gusts":25.2,"aqi":149,"pm10":78.5,"pm2_5":32.4,"mosquito_risk":0,"arthritis_risk":5,"migraine_risk":7,"frizz_risk":1,"updated_at":"2026-03-30T14:47:05.226999+05:30"},{"city":"Ratlam","state":"Madhya Pradesh","latitude":23.3315,"longitude":75.0367,"temp":33.7,"humidity":38,"rain":0.0,"pressure":954.2,"uv_index":7.95,"wind_gusts":29.9,"aqi":46,"pm10":28.8,"pm2_5":9.8,"mosquito_risk":0,"arthritis_risk":5,"migraine_risk":7,"frizz_risk":1,"updated_at":"2026-03-30T14:47:05.227004+05:30"},{"city":"Sagar","state":"Madhya Pradesh","latitude":23.8388,"longitude":78.7378,"temp":37.3,"humidity":22,"rain":0.0,"pressure":949.1,"uv_index":8.2,"wind_gusts":35.6,"aqi":47,"pm10":33.5,"pm2_5":7.2,"mosquito_risk":0,"arthritis_risk":5,"migraine_risk":10,"frizz_risk":0,"updated_at":"2026-03-30T14:47:05.227010+05:30"},{"city":"Satna","state":"Madhya Pradesh","latitude":24.6005,"longitude":80.8322,"temp":38.1,"humidity":22,"rain":0.0,"pressure":969.2,"uv_index":8.2,"wind_gusts":44.3,"aqi":67,"pm10":32.9,"pm2_5":16.2,"mosquito_risk":0,"arthritis_risk":5,"migraine_risk":10,"frizz_risk":0,"updated_at":"2026-03-30T14:47:05.227016+05:30"},{"city":"Akola","state":"Maharashtra","latitude":20.7002,"longitude":77.0082,"temp":39.4,"humidity":21,"rain":0.0,"pressure":972.8,"uv_index":8.55,"wind_gusts":31.7,"aqi":44,"pm10":17.0,"pm2_5":9.4,"mosquito_risk":0,"arthritis_risk":5,"migraine_risk":10,"frizz_risk":0,"updated_at":"2026-03-30T14:47:05.227022+05:30"},{"city":"Amravati","state":"Maharashtra","latitude":20.9374,"longitude":77.7796,"temp":39.3,"humidity":20,"rain":0.0,"pressure":965.2,"uv_index":8.5,"wind_gusts":24.8,"aqi":45,"pm10":14.8,"pm2_5":7.8,"mosquito_risk":0,"arthritis_risk":5,"migraine_risk":10,"frizz_risk":0,"updated_at":"2026-03-30T14:47:05.227028+05:30"},{"city":"Latur","state":"Maharashtra","latitude":18.4088,"longitude":76.5604,"temp":36.0,"humidity":28,"rain":0.0,"pressure":938.6,"uv_index":8.0,"wind_gusts":44.6,"aqi":53,"pm10":18.2,"pm2_5":15.4,"mosquito_risk":0,"arthritis_risk":5,"migraine_risk":10,"frizz_risk":0,"updated_at":"2026-03-30T14:47:05.227034+05:30"},{"city":"Nanded","state":"Maharashtra","latitude":19.1383,"longitude":77.3091,"temp":38.3,"humidity":26,"rain":0.0,"pressure":966.9,"uv_index":8.7,"wind_gusts":47.9,"aqi":53,"pm10":15.8,"pm2_5":11.4,"mosquito_risk":0,"arthritis_risk":5,"migraine_risk":10,"frizz_risk":0,"updated_at":"2026-03-30T14:47:05.227040+05:30"},{"city":"Gulbarga","state":"Karnataka","latitude":17.3297,"longitude":76.8343,"temp":36.5,"humidity":28,"rain":0.0,"pressure":957.6,"uv_index":8.05,"wind_gusts":36.0,"aqi":74,"pm10":28.9,"pm2_5":25.1,"mosquito_risk":0,"arthritis_risk":5,"migraine_risk":10,"frizz_risk":0,"updated_at":"2026-03-30T14:47:05.227045+05:30"},{"city":"Bidar","state":"Karnataka","latitude":17.9104,"longitude":77.5199,"temp":34.7,"humidity":32,"rain":0.0,"pressure":935.1,"uv_index":8.9,"wind_gusts":37.1,"aqi":125,"pm10":31.3,"pm2_5":26.8,"mosquito_risk":0,"arthritis_risk":5,"migraine_risk":7,"frizz_risk":0,"updated_at":"2026-03-30T14:47:05.227051+05:30"},{"city":"Hospet","state":"Karnataka","latitude":15.2689,"longitude":76.3909,"temp":34.2,"humidity":39,"rain":0.0,"pressure":954.8,"uv_index":8.95,"wind_gusts":26.3,"aqi":88,"pm10":39.5,"pm2_5":33.2,"mosquito_risk":0,"arthritis_risk":5,"migraine_risk":7,"frizz_risk":1,"updated_at":"2026-03-30T14:47:05.227057+05:30"},{"city":"Tirupur","state":"Tamil Nadu","latitude":11.1085,"longitude":77.3411,"temp":36.8,"humidity":29,"rain":0.0,"pressure":973.3,"uv_index":9.45,"wind_gusts":25.9,"aqi":95,"pm10":19.4,"pm2_5":16.2,"mosquito_risk":0,"arthritis_risk":5,"migraine_risk":10,"frizz_risk":0,"updated_at":"2026-03-30T14:47:05.227062+05:30"},{"city":"Alappuzha","state":"Kerala","latitude":9.4981,"longitude":76.3388,"temp":29.5,"humidity":77,"rain":0.0,"pressure":1006.6,"uv_index":9.2,"wind_gusts":26.6,"aqi":107,"pm10":36.1,"pm2_5":31.8,"mosquito_risk":7,"arthritis_risk":5,"migraine_risk":4,"frizz_risk":1,"updated_at":"2026-03-30T14:47:05.227068+05:30"},{"city":"Munnar","state":"Kerala","latitude":10.0889,"longitude":77.0595,"temp":32.8,"humidity":19,"rain":0.0,"pressure":858.6,"uv_index":8.7,"wind_gusts":22.3,"aqi":91,"pm10":17.3,"pm2_5":14.7,"mosquito_risk":0,"arthritis_risk":5,"migraine_risk":7,"frizz_risk":0,"updated_at":"2026-03-30T14:47:05.227074+05:30"},{"city":"Silchar","state":"Assam","latitude":24.8333,"longitude":92.7789,"temp":30.2,"humidity":62,"rain":0.0,"pressure":1004.3,"uv_index":8.3,"wind_gusts":27.0,"aqi":157,"pm10":47.6,"pm2_5":38.4,"mosquito_risk":3,"arthritis_risk":5,"migraine_risk":4,"frizz_risk":1,"updated_at":"2026-03-30T14:47:05.227080+05:30"},{"city":"Dibrugarh","state":"Assam","latitude":27.4728,"longitude":94.912,"temp":25.0,"humidity":69,"rain":0.0,"pressure":996.2,"uv_index":5.55,"wind_gusts":10.1,"aqi":99,"pm10":27.7,"pm2_5":20.5,"mosquito_risk":7,"arthritis_risk":5,"migraine_risk":3,"frizz_risk":1,"updated_at":"2026-03-30T14:47:05.227085+05:30"}]