[{"city":"Delhi","state":"Delhi","latitude":28.6139,"longitude":77.209,"temp":32.4,"humidity":38,"rain":0.0,"pressure":988.3,"uv_index":6.0,"wind_gusts":24.8,"aqi":167,"pm10":167.6,"pm2_5":60.1,"mosquito_risk":0,"arthritis_risk":5,"migraine_risk":3,"frizz_risk":1,"updated_at":"2026-03-08T12:19:44.537454+05:30"},{"city":"Mumbai","state":"Maharashtra","latitude":19.076,"longitude":72.8777,"temp":27.7,"humidity":78,"rain":0.0,"pressure":1010.5,"uv_index":7.5,"wind_gusts":25.9,"aqi":103,"pm10":56.8,"pm2_5":55.4,"mosquito_risk":7,"arthritis_risk":0,"migraine_risk":4,"frizz_risk":1,"updated_at":"2026-03-08T12:19:44.537495+05:30"},{"city":"Bangalore","state":"Karnataka","latitude":12.9716,"longitude":77.5946,"temp":31.3,"humidity":31,"rain":0.0,"pressure":914.4,"uv_index":9.25,"wind_gusts":27.4,"aqi":109,"pm10":42.1,"pm2_5":33.4,"mosquito_risk":0,"arthritis_risk":5,"migraine_risk":7,"frizz_risk":0,"updated_at":"2026-03-08T12:19:44.537510+05:30"},{"city":"Hyderabad","state":"Telangana","latitude":17.385,"longitude":78.4867,"temp":35.0,"humidity":22,"rain":0.0,"pressure":956.1,"uv_index":8.55,"wind_gusts":25.6,"aqi":102,"pm10":43.0,"pm2_5":30.7,"mosquito_risk":0,"arthritis_risk":5,"migraine_risk":7,"frizz_risk":0,"updated_at":"2026-03-08T12:19:44.537520+05:30"},{"city":"Chennai","state":"Tamil Nadu","latitude":13.0827,"longitude":80.2707,"temp":32.1,"humidity":52,"rain":0.0,"pressure":1010.3,"uv_index":8.95,"wind_gusts":32.4,"aqi":80,"pm10":40.6,"pm2_5":27.2,"mosquito_risk":0,"arthritis_risk":0,"migraine_risk":4,"frizz_risk":1,"updated_at":"2026-03-08T12:19:44.537529+05:30"},{"city":"Kolkata","state":"West Bengal","latitude":22.5726,"longitude":88.3639,"temp":29.8,"humidity":61,"rain":0.0,"pressure":1010.7,"uv_index":7.25,"wind_gusts":15.8,"aqi":152,"pm10":61.5,"pm2_5":50.8,"mosquito_risk":7,"arthritis_risk":0,"migraine_risk":4,"frizz_risk":1,"updated_at":"2026-03-08T12:19:44.537538+05:30"},{"city":"Pune","state":"Maharashtra","latitude":18.5204,"longitude":73.8567,"temp":36.6,"humidity":21,"rain":0.0,"pressure":951.6,"uv_index":8.05,"wind_gusts":29.5,"aqi":109,"pm10":15.6,"pm2_5":14.6,"mosquito_risk":0,"arthritis_risk":5,"migraine_risk":10,"frizz_risk":0,"updated_at":"2026-03-08T12:19:44.537549+05:30"},{"city":"Ahmedabad","state":"Gujarat","latitude":23.0225,"longitude":72.5714,"temp":34.5,"humidity":33,"rain":0.0,"pressure":1006.9,"uv_index":7.35,"wind_gusts":16.6,"aqi":103,"pm10":23.5,"pm2_5":18.3,"mosquito_risk":0,"arthritis_risk":5,"migraine_risk":4,"frizz_risk":0,"updated_at":"2026-03-08T12:19:44.537557+05:30"},{"city":"Jaipur","state":"Rajasthan","latitude":26.9124,"longitude":75.7873,"temp":36.0,"humidity":15,"rain":0.0,"pressure":965.6,"uv_index":6.8,"wind_gusts":23.0,"aqi":84,"pm10":64.7,"pm2_5":18.5,"mosquito_risk":0,"arthritis_risk":5,"migraine_risk":10,"frizz_risk":0,"updated_at":"2026-03-08T12:19:44.537565+05:30"},{"city":"Lucknow","state":"Uttar Pradesh","latitude":26.8467,"longitude":80.9462,"temp":31.7,"humidity":45,"rain":0.0,"pressure":998.5,"uv_index":6.5,"wind_gusts":21.6,"aqi":181,"pm10":118.5,"pm2_5":78.0,"mosquito_risk":0,"arthritis_risk":5,"migraine_risk":7,"frizz_risk":1,"updated_at":"2026-03-08T12:19:44.537573+05:30"},{"city":"Kanpur","state":"Uttar Pradesh","latitude":26.4499,"longitude":80.3319,"temp":31.3,"humidity":51,"rain":0.0,"pressure":997.0,"uv_index":6.5,"wind_gusts":16.9,"aqi":175,"pm10":136.9,"pm2_5":73.6,"mosquito_risk":0,"arthritis_risk":5,"migraine_risk":7,"frizz_risk":1,"updated_at":"2026-03-08T12:19:44.537580+05:30"},{"city":"Chandigarh","state":"Chandigarh","latitude":30.7333,"longitude":76.7794,"temp":31.1,"humidity":48,"rain":0.0,"pressure":973.9,"uv_index":5.9,"wind_gusts":30.2,"aqi":155,"pm10":65.2,"pm2_5":45.2,"mosquito_risk":0,"arthritis_risk":5,"migraine_risk":3,"frizz_risk":1,"updated_at":"2026-03-08T12:19:44.537587+05:30"},{"city":"Srinagar","state":"Jammu and Kashmir","latitude":34.0837,"longitude":74.7973,"temp":19.1,"humidity":42,"rain":0.0,"pressure":850.1,"uv_index":6.8,"wind_gusts":16.2,"aqi":134,"pm10":50.5,"pm2_5":31.4,"mosquito_risk":0,"arthritis_risk":5,"migraine_risk":7,"frizz_risk":0,"updated_at":"2026-03-08T12:19:44.537593+05:30"},{"city":"Jammu","state":"Jammu and Kashmir","latitude":32.7266,"longitude":74.857,"temp":30.4,"humidity":42,"rain":0.0,"pressure":978.2,"uv_index":6.4,"wind_gusts":29.5,"aqi":133,"pm10":42.1,"pm2_5":27.8,"mosquito_risk":0,"arthritis_risk":5,"migraine_risk":7,"frizz_risk":0,"updated_at":"2026-03-08T12:19:44.537600+05:30"},{"city":"Amritsar","state":"Punjab","latitude":31.634,"longitude":74.8723,"temp":30.4,"humidity":53,"rain":0.0,"pressure":986.6,"uv_index":6.4,"wind_gusts":23.4,"aqi":165,"pm10":72.9,"pm2_5":51.7,"mosquito_risk":0,"arthritis_risk":5,"migraine_risk":7,"frizz_risk":1,"updated_at":"2026-03-08T12:19:44.537607+05:30"},{"city":"Ludhiana","state":"Punjab","latitude":30.901,"longitude":75.8573,"temp":31.6,"humidity":45,"rain":0.0,"pressure":984.2,"uv_index":6.15,"wind_gusts":27.7,"aqi":173,"pm10":92.4,"pm2_5":73.6,"mosquito_risk":0,"arthritis_risk":5,"migraine_risk":7,"frizz_risk":1,"updated_at":"2026-03-08T12:19:44.537614+05:30"},{"city":"Jalandhar","state":"Punjab","latitude":31.326,"longitude":75.5762,"temp":30.9,"humidity":48,"rain":0.0,"pressure":985.4,"uv_index":6.3,"wind_gusts":26.3,"aqi":171,"pm10":90.6,"pm2_5":71.0,"mosquito_risk":0,"arthritis_risk":5,"migraine_risk":7,"frizz_risk":1,"updated_at":"2026-03-08T12:19:44.537622+05:30"},{"city":"Dehradun","state":"Uttarakhand","latitude":30.6284,"longitude":78.0322,"temp":23.7,"humidity":40,"rain":0.0,"pressure":836.6,"uv_index":6.3,"wind_gusts":37.8,"aqi":105,"pm10":31.4,"pm2_5":15.7,"mosquito_risk":0,"arthritis_risk":5,"migraine_risk":7,"frizz_risk":0,"updated_at":"2026-03-08T12:19:44.537629+05:30"},{"city":"Shimla","state":"Himachal Pradesh","latitude":31.1048,"longitude":77.1734,"temp":22.5,"humidity":32,"rain":0.0,"pressure":792.5,"uv_index":6.35,"wind_gusts":51.8,"aqi":124,"pm10":35.5,"pm2_5":14.5,"mosquito_risk":0,"arthritis_risk":5,"migraine_risk":7,"frizz_risk":0,"updated_at":"2026-03-08T12:19:44.537636+05:30"},{"city":"Manali","state":"Himachal Pradesh","latitude":32.2396,"longitude":77.1887,"temp":24.7,"humidity":21,"rain":0.0,"pressure":828.0,"uv_index":8.05,"wind_gusts":30.6,"aqi":55,"pm10":18.6,"pm2_5":8.5,"mosquito_risk":0,"arthritis_risk":5,"migraine_risk":7,"frizz_risk":0,"updated_at":"2026-03-08T12:19:44.537642+05:30"},{"city":"Gurgaon","state":"Haryana","latitude":28.4595,"longitude":77.0266,"temp":32.2,"humidity":41,"rain":0.0,"pressure":987.0,"uv_index":6.1,"wind_gusts":19.8,"aqi":180,"pm10":393.0,"pm2_5":80.8,"mosquito_risk":0,"arthritis_risk":5,"migraine_risk":7,"frizz_risk":1,"updated_at":"2026-03-08T12:19:44.537648+05:30"},{"city":"Noida","state":"Uttar Pradesh","latitude":28.5355,"longitude":77.391,"temp":32.9,"humidity":37,"rain":0.0,"pressure":989.8,"uv_index":6.0,"wind_gusts":24.8,"aqi":180,"pm10":393.0,"pm2_5":80.8,"mosquito_risk":0,"arthritis_risk":5,"migraine_risk":3,"frizz_risk":1,"updated_at":"2026-03-08T12:19:44.537655+05:30"},{"city":"Ghaziabad","state":"Uttar Pradesh","latitude":28.6692,"longitude":77.4538,"temp":31.5,"humidity":44,"rain":0.0,"pressure":987.9,"uv_index":6.0,"wind_gusts":24.5,"aqi":169,"pm10":128.1,"pm2_5":60.1,"mosquito_risk":0,"arthritis_risk":5,"migraine_risk":3,"frizz_risk":1,"updated_at":"2026-03-08T12:19:44.537661+05:30"},{"city":"Faridabad","state":"Haryana","latitude":28.4089,"longitude":77.3178,"temp":32.0,"humidity":42,"rain":0.0,"pressure":989.3,"uv_index":6.05,"wind_gusts":21.6,"aqi":180,"pm10":393.0,"pm2_5":80.8,"mosquito_risk":0,"arthritis_risk":5,"migraine_risk":7,"frizz_risk":1,"updated_at":"2026-03-08T12:19:44.537666+05:30"},{"city":"Meerut","state":"Uttar Pradesh","latitude":28.9845,"longitude":77.7064,"temp":31.6,"humidity":46,"rain":0.0,"pressure":986.6,"uv_index":5.85,"wind_gusts":29.2,"aqi":169,"pm10":128.1,"pm2_5":60.1,"mosquito_risk":0,"arthritis_risk":5,"migraine_risk":3,"frizz_risk":1,"updated_at":"2026-03-08T12:19:44.537672+05:30"},{"city":"Agra","state":"Uttar Pradesh","latitude":27.1767,"longitude":78.0081,"temp":34.0,"humidity":37,"rain":0.0,"pressure":993.1,"uv_index":6.4,"wind_gusts":20.5,"aqi":158,"pm10":245.9,"pm2_5":62.2,"mosquito_risk":0,"arthritis_risk":5,"migraine_risk":7,"frizz_risk":1,"updated_at":"2026-03-08T12:19:44.537679+05:30"},{"city":"Varanasi","state":"Uttar Pradesh","latitude":25.3176,"longitude":82.9739,"temp":31.4,"humidity":52,"rain":0.0,"pressure":1002.5,"uv_index":7.2,"wind_gusts":11.5,"aqi":173,"pm10":86.6,"pm2_5":74.3,"mosquito_risk":0,"arthritis_risk":5,"migraine_risk":4,"frizz_risk":1,"updated_at":"2026-03-08T12:19:44.537688+05:30"},{"city":"Prayagraj","state":"Uttar Pradesh","latitude":25.4358,"longitude":81.8463,"temp":30.5,"humidity":55,"rain":0.0,"pressure":1001.1,"uv_index":7.05,"wind_gusts":14.8,"aqi":179,"pm10":94.1,"pm2_5":79.6,"mosquito_risk":0,"arthritis_risk":5,"migraine_risk":4,"frizz_risk":1,"updated_at":"2026-03-08T12:19:44.537695+05:30"},{"city":"Gorakhpur","state":"Uttar Pradesh","latitude":26.7606,"longitude":83.3732,"temp":30.9,"humidity":52,"rain":0.0,"pressure":1002.3,"uv_index":6.9,"wind_gusts":16.2,"aqi":173,"pm10":86.4,"pm2_5":78.0,"mosquito_risk":0,"arthritis_risk":5,"migraine_risk":4,"frizz_risk":1,"updated_at":"2026-03-08T12:19:44.537703+05:30"},{"city":"Bareilly","state":"Uttar Pradesh","latitude":28.367,"longitude":79.4304,"temp":30.4,"humidity":58,"rain":0.0,"pressure":992.1,"uv_index":6.2,"wind_gusts":19.8,"aqi":173,"pm10":143.9,"pm2_5":70.1,"mosquito_risk":0,"arthritis_risk":5,"migraine_risk":7,"frizz_risk":1,"updated_at":"2026-03-08T12:19:44.537710+05:30"},{"city":"Aligarh","state":"Uttar Pradesh","latitude":27.8974,"longitude":78.088,"temp":32.6,"humidity":43,"rain":0.0,"pressure":990.8,"uv_index":6.1,"wind_gusts":23.4,"aqi":171,"pm10":215.6,"pm2_5":79.4,"mosquito_risk":0,"arthritis_risk":5,"migraine_risk":7,"frizz_risk":1,"updated_at":"2026-03-08T12:19:44.537716+05:30"},{"city":"Moradabad","state":"Uttar Pradesh","latitude":28.8386,"longitude":78.7733,"temp":30.3,"humidity":57,"rain":0.0,"pressure":988.8,"uv_index":6.05,"wind_gusts":23.8,"aqi":182,"pm10":141.6,"pm2_5":83.6,"mosquito_risk":0,"arthritis_risk":5,"migraine_risk":7,"frizz_risk":1,"updated_at":"2026-03-08T12:19:44.537722+05:30"},{"city":"Saharanpur","state":"Uttar Pradesh","latitude":29.9637,"longitude":77.546,"temp":29.9,"humidity":60,"rain":0.0,"pressure":980.7,"uv_index":5.65,"wind_gusts":36.7,"aqi":173,"pm10":110.6,"pm2_5":75.7,"mosquito_risk":4,"arthritis_risk":5,"migraine_risk":3,"frizz_risk":1,"updated_at":"2026-03-08T12:19:44.537728+05:30"},{"city":"Jhansi","state":"Uttar Pradesh","latitude":25.4484,"longitude":78.5685,"temp":33.8,"humidity":33,"rain":0.0,"pressure":983.2,"uv_index":7.0,"wind_gusts":26.3,"aqi":109,"pm10":84.3,"pm2_5":36.0,"mosquito_risk":0,"arthritis_risk":5,"migraine_risk":7,"frizz_risk":0,"updated_at":"2026-03-08T12:19:47.747279+05:30"},{"city":"Surat","state":"Gujarat","latitude":21.1702,"longitude":72.8311,"temp":34.0,"humidity":37,"rain":0.0,"pressure":1010.0,"uv_index":7.25,"wind_gusts":24.5,"aqi":153,"pm10":51.1,"pm2_5":48.9,"mosquito_risk":0,"arthritis_risk":0,"migraine_risk":4,"frizz_risk":1,"updated_at":"2026-03-08T12:19:47.747311+05:30"},{"city":"Vadodara","state":"Gujarat","latitude":22.3072,"longitude":73.1812,"temp":36.3,"humidity":29,"rain":0.0,"pressure":1008.4,"uv_index":7.35,"wind_gusts":16.6,"aqi":111,"pm10":18.2,"pm2_5":15.7,"mosquito_risk":0,"arthritis_risk":0,"migraine_risk":7,"frizz_risk":0,"updated_at":"2026-03-08T12:19:47.747323+05:30"},{"city":"Rajkot","state":"Gujarat","latitude":22.3039,"longitude":70.8022,"temp":32.2,"humidity":42,"rain":0.0,"pressure":999.1,"uv_index":7.15,"wind_gusts":20.9,"aqi":74,"pm10":43.9,"pm2_5":20.0,"mosquito_risk":0,"arthritis_risk":5,"migraine_risk":7,"frizz_risk":1,"updated_at":"2026-03-08T12:19:47.747334+05:30"},{"city":"Thane","state":"Maharashtra","latitude":19.2183,"longitude":72.9781,"temp":33.8,"humidity":45,"rain":0.0,"pressure":1010.0,"uv_index":7.5,"wind_gusts":33.1,"aqi":103,"pm10":56.8,"pm2_5":55.4,"mosquito_risk":0,"arthritis_risk":0,"migraine_risk":4,"frizz_risk":1,"updated_at":"2026-03-08T12:19:47.747342+05:30"},{"city":"Nagpur","state":"Maharashtra","latitude":21.1458,"longitude":79.0882,"temp":35.2,"humidity":25,"rain":0.0,"pressure":977.0,"uv_index":7.9,"wind_gusts":27.0,"aqi":75,"pm10":50.8,"pm2_5":31.4,"mosquito_risk":0,"arthritis_risk":5,"migraine_risk":10,"frizz_risk":0,"updated_at":"2026-03-08T12:19:47.747351+05:30"},{"city":"Nashik","state":"Maharashtra","latitude":19.9975,"longitude":73.7898,"temp":35.2,"humidity":22,"rain":0.0,"pressure":949.4,"uv_index":7.7,"wind_gusts":28.4,"aqi":87,"pm10":12.9,"pm2_5":12.3,"mosquito_risk":0,"arthritis_risk":5,"migraine_risk":10,"frizz_risk":0,"updated_at":"2026-03-08T12:19:47.747360+05:30"},{"city":"Aurangabad","state":"Maharashtra","latitude":19.8762,"longitude":75.3433,"temp":35.7,"humidity":19,"rain":0.0,"pressure":947.8,"uv_index":8.2,"wind_gusts":32.0,"aqi":77,"pm10":19.0,"pm2_5":12.6,"mosquito_risk":0,"arthritis_risk":5,"migraine_risk":10,"frizz_risk":0,"updated_at":"2026-03-08T12:19:47.747368+05:30"},{"city":"Solapur","state":"Maharashtra","latitude":17.6599,"longitude":75.9064,"temp":34.6,"humidity":28,"rain":0.0,"pressure":960.0,"uv_index":8.45,"wind_gusts":19.4,"aqi":66,"pm10":26.5,"pm2_5":18.9,"mosquito_risk":0,"arthritis_risk":5,"migraine_risk":7,"frizz_risk":0,"updated_at":"2026-03-08T12:19:47.747376+05:30"},{"city":"Kolhapur","state":"Maharashtra","latitude":16.705,"longitude":74.2433,"temp":34.5,"humidity":24,"rain":0.0,"pressure":950.5,"uv_index":8.6,"wind_gusts":34.6,"aqi":126,"pm10":36.7,"pm2_5":31.9,"mosquito_risk":0,"arthritis_risk":5,"migraine_risk":7,"frizz_risk":0,"updated_at":"2026-03-08T12:19:47.747384+05:30"},{"city":"Goa","state":"Goa","latitude":15.2993,"longitude":74.124,"temp":31.2,"humidity":63,"rain":0.0,"pressure":999.5,"uv_index":8.65,"wind_gusts":36.0,"aqi":136,"pm10":42.4,"pm2_5":39.8,"mosquito_risk":3,"arthritis_risk":5,"migraine_risk":7,"frizz_risk":1,"updated_at":"2026-03-08T12:19:47.747391+05:30"},{"city":"Jodhpur","state":"Rajasthan","latitude":26.2389,"longitude":73.0243,"temp":34.9,"humidity":28,"rain":0.0,"pressure":988.7,"uv_index":7.05,"wind_gusts":17.6,"aqi":64,"pm10":39.6,"pm2_5":13.1,"mosquito_risk":0,"arthritis_risk":5,"migraine_risk":7,"frizz_risk":0,"updated_at":"2026-03-08T12:19:47.747399+05:30"},{"city":"Udaipur","state":"Rajasthan","latitude":24.5854,"longitude":73.7125,"temp":34.5,"humidity":22,"rain":0.0,"pressure":952.4,"uv_index":7.7,"wind_gusts":17.6,"aqi":36,"pm10":6.3,"pm2_5":5.2,"mosquito_risk":0,"arthritis_risk":5,"migraine_risk":7,"frizz_risk":0,"updated_at":"2026-03-08T12:19:47.747407+05:30"},{"city":"Kota","state":"Rajasthan","latitude":25.2138,"longitude":75.8648,"temp":34.9,"humidity":25,"rain":0.0,"pressure":984.4,"uv_index":7.1,"wind_gusts":9.4,"aqi":91,"pm10":23.3,"pm2_5":20.1,"mosquito_risk":0,"arthritis_risk":5,"migraine_risk":7,"frizz_risk":0,"updated_at":"2026-03-08T12:19:47.747414+05:30"},{"city":"Bikaner","state":"Rajasthan","latitude":28.0229,"longitude":73.3119,"temp":33.7,"humidity":34,"rain":0.0,"pressure":987.4,"uv_index":6.75,"wind_gusts":18.0,"aqi":57,"pm10":44.9,"pm2_5":17.0,"mosquito_risk":0,"arthritis_risk":5,"migraine_risk":7,"frizz_risk":0,"updated_at":"2026-03-08T12:19:47.747422+05:30"},{"city":"Ajmer","state":"Rajasthan","latitude":26.4499,"longitude":74.6399,"temp":34.4,"humidity":20,"rain":0.0,"pressure":960.6,"uv_index":7.05,"wind_gusts":20.5,"aqi":69,"pm10":48.7,"pm2_5":14.0,"mosquito_risk":0,"arthritis_risk":5,"migraine_risk":7,"frizz_risk":0,"updated_at":"2026-03-08T12:19:47.747430+05:30"},{"city":"Gwalior","state":"Madhya Pradesh","latitude":26.2183,"longitude":78.1828,"temp":33.4,"humidity":36,"rain":0.0,"pressure":988.5,"uv_index":6.7,"wind_gusts":23.8,"aqi":103,"pm10":79.2,"pm2_5":28.7,"mosquito_risk":0,"arthritis_risk":5,"migraine_risk":7,"frizz_risk":1,"updated_at":"2026-03-08T12:19:47.747438+05:30"},{"city":"Indore","state":"Madhya Pradesh","latitude":22.7196,"longitude":75.8577,"temp":34.4,"humidity":22,"rain":0.0,"pressure":953.3,"uv_index":7.65,"wind_gusts":20.2,"aqi":77,"pm10":21.3,"pm2_5":18.8,"mosquito_risk":0,"arthritis_risk":5,"migraine_risk":7,"frizz_risk":0,"updated_at":"2026-03-08T12:19:47.747445+05:30"},{"city":"Bhopal","state":"Madhya Pradesh","latitude":23.2599,"longitude":77.4126,"temp":34.4,"humidity":23,"rain":0.0,"pressure":959.0,"uv_index":7.5,"wind_gusts":21.2,"aqi":68,"pm10":53.2,"pm2_5":23.2,"mosquito_risk":0,"arthritis_risk":5,"migraine_risk":7,"frizz_risk":0,"updated_at":"2026-03-08T12:19:47.747452+05:30"},{"city":"Jabalpur","state":"Madhya Pradesh","latitude":23.1815,"longitude":79.9864,"temp":32.1,"humidity":35,"rain":0.0,"pressure":966.3,"uv_index":7.6,"wind_gusts":25.2,"aqi":116,"pm10":78.7,"pm2_5":44.6,"mosquito_risk":0,"arthritis_risk":5,"migraine_risk":7,"frizz_risk":0,"updated_at":"2026-03-08T12:19:47.747460+05:30"},{"city":"Ujjain","state":"Madhya Pradesh","latitude":23.1765,"longitude":75.7885,"temp":33.7,"humidity":25,"rain":0.0,"pressure":959.0,"uv_index":7.55,"wind_gusts":15.8,"aqi":99,"pm10":21.4,"pm2_5":20.7,"mosquito_risk":0,"arthritis_risk":5,"migraine_risk":7,"frizz_risk":0,"updated_at":"2026-03-08T12:19:47.747467+05:30"},{"city":"Visakhapatnam","state":"Andhra Pradesh","latitude":17.6868,"longitude":83.2185,"temp":30.5,"humidity":61,"rain":0.0,"pressure":1007.0,"uv_index":8.2,"wind_gusts":37.4,"aqi":101,"pm10":39.3,"pm2_5":31.5,"mosquito_risk":3,"arthritis_risk":5,"migraine_risk":4,"frizz_risk":1,"updated_at":"2026-03-08T12:19:47.747476+05:30"},{"city":"Vijayawada","state":"Andhra Pradesh","latitude":16.5062,"longitude":80.648,"temp":32.4,"humidity":53,"rain":0.0,"pressure":1005.5,"uv_index":8.6,"wind_gusts":29.5,"aqi":103,"pm10":38.1,"pm2_5":29.2,"mosquito_risk":0,"arthritis_risk":5,"migraine_risk":4,"frizz_risk":1,"updated_at":"2026-03-08T12:19:47.747483+05:30"},{"city":"Guntur","state":"Andhra Pradesh","latitude":16.3067,"longitude":80.4365,"temp":32.5,"humidity":53,"rain":0.0,"pressure":1006.5,"uv_index":8.6,"wind_gusts":28.8,"aqi":100,"pm10":37.4,"pm2_5":28.9,"mosquito_risk":0,"arthritis_risk":5,"migraine_risk":4,"frizz_risk":1,"updated_at":"2026-03-08T12:19:47.747491+05:30"},{"city":"Nellore","state":"Andhra Pradesh","latitude":14.4426,"longitude":79.9865,"temp":33.4,"humidity":47,"rain":0.0,"pressure":1008.2,"uv_index":8.8,"wind_gusts":32.8,"aqi":92,"pm10":42.6,"pm2_5":32.7,"mosquito_risk":0,"arthritis_risk":0,"migraine_risk":4,"frizz_risk":1,"updated_at":"2026-03-08T12:19:47.747499+05:30"},{"city":"Kurnool","state":"Andhra Pradesh","latitude":15.8281,"longitude":78.0373,"temp":36.4,"humidity":26,"rain":0.0,"pressure":979.1,"uv_index":8.6,"wind_gusts":25.6,"aqi":94,"pm10":50.1,"pm2_5":39.6,"mosquito_risk":0,"arthritis_risk":5,"migraine_risk":10,"frizz_risk":0,"updated_at":"2026-03-08T12:19:47.747508+05:30"},{"city":"Kakinada","state":"Andhra Pradesh","latitude":16.9891,"longitude":82.2475,"temp":32.4,"humidity":50,"rain":0.0,"pressure":1010.5,"uv_index":8.55,"wind_gusts":34.6,"aqi":84,"pm10":35.0,"pm2_5":24.6,"mosquito_risk":0,"arthritis_risk":0,"migraine_risk":4,"frizz_risk":1,"updated_at":"2026-03-08T12:19:47.747516+05:30"},{"city":"Tirupati","state":"Andhra Pradesh","latitude":13.6288,"longitude":79.4192,"temp":34.1,"humidity":34,"rain":0.0,"pressure":994.0,"uv_index":8.95,"wind_gusts":33.1,"aqi":121,"pm10":43.0,"pm2_5":32.2,"mosquito_risk":0,"arthritis_risk":5,"migraine_risk":7,"frizz_risk":0,"updated_at":"2026-03-08T12:19:47.747522+05:30"},{"city":"Warangal","state":"Telangana","latitude":17.9689,"longitude":79.5941,"temp":31.7,"humidity":56,"rain":0.0,"pressure":981.8,"uv_index":8.35,"wind_gusts":27.7,"aqi":113,"pm10":53.3,"pm2_5":46.7,"mosquito_risk":0,"arthritis_risk":5,"migraine_risk":7,"frizz_risk":1,"updated_at":"2026-03-08T12:19:47.747528+05:30"},{"city":"Nizamabad","state":"Telangana","latitude":18.6725,"longitude":78.0941,"temp":34.9,"humidity":25,"rain":0.0,"pressure":968.0,"uv_index":8.25,"wind_gusts":33.8,"aqi":88,"pm10":42.6,"pm2_5":25.3,"mosquito_risk":0,"arthritis_risk":5,"migraine_risk":7,"frizz_risk":0,"updated_at":"2026-03-08T12:19:47.747534+05:30"},{"city":"Mysore","state":"Karnataka","latitude":12.2958,"longitude":76.6396,"temp":31.8,"humidity":39,"rain":0.0,"pressure":930.9,"uv_index":9.25,"wind_gusts":33.5,"aqi":131,"pm10":40.7,"pm2_5":34.8,"mosquito_risk":0,"arthritis_risk":5,"migraine_risk":7,"frizz_risk":1,"updated_at":"2026-03-08T12:19:47.747540+05:30"},{"city":"Mangalore","state":"Karnataka","latitude":12.9141,"longitude":74.856,"temp":28.6,"humidity":79,"rain":0.0,"pressure":1008.0,"uv_index":8.85,"wind_gusts":24.8,"aqi":115,"pm10":43.5,"pm2_5":40.9,"mosquito_risk":7,"arthritis_risk":0,"migraine_risk":4,"frizz_risk":1,"updated_at":"2026-03-08T12:19:47.747546+05:30"},{"city":"Hubli-Dharwad","state":"Karnataka","latitude":15.3647,"longitude":75.124,"temp":35.3,"humidity":21,"rain":0.0,"pressure":943.1,"uv_index":8.8,"wind_gusts":25.6,"aqi":96,"pm10":39.0,"pm2_5":31.0,"mosquito_risk":0,"arthritis_risk":5,"migraine_risk":10,"frizz_risk":0,"updated_at":"2026-03-08T12:19:47.747552+05:30"},{"city":"Belgaum","state":"Karnataka","latitude":15.8497,"longitude":74.4977,"temp":34.6,"humidity":20,"rain":0.0,"pressure":928.4,"uv_index":8.85,"wind_gusts":33.8,"aqi":108,"pm10":28.2,"pm2_5":22.6,"mosquito_risk":0,"arthritis_risk":5,"migraine_risk":7,"frizz_risk":0,"updated_at":"2026-03-08T12:19:50.957546+05:30"},{"city":"Coimbatore","state":"Tamil Nadu","latitude":11.0168,"longitude":76.9558,"temp":32.7,"humidity":40,"rain":0.0,"pressure":964.1,"uv_index":9.2,"wind_gusts":38.5,"aqi":130,"pm10":40.7,"pm2_5":34.1,"mosquito_risk":0,"arthritis_risk":5,"migraine_risk":7,"frizz_risk":1,"updated_at":"2026-03-08T12:19:50.957573+05:30"},{"city":"Madurai","state":"Tamil Nadu","latitude":9.9252,"longitude":78.1198,"temp":33.4,"humidity":43,"rain":0.0,"pressure":995.5,"uv_index":9.15,"wind_gusts":32.0,"aqi":99,"pm10":45.2,"pm2_5":36.8,"mosquito_risk":0,"arthritis_risk":5,"migraine_risk":7,"frizz_risk":1,"updated_at":"2026-03-08T12:19:50.957582+05:30"},{"city":"Trichy","state":"Tamil Nadu","latitude":10.7905,"longitude":78.7047,"temp":33.2,"humidity":47,"rain":0.0,"pressure":1002.2,"uv_index":9.05,"wind_gusts":27.4,"aqi":97,"pm10":41.1,"pm2_5":31.1,"mosquito_risk":0,"arthritis_risk":5,"migraine_risk":4,"frizz_risk":1,"updated_at":"2026-03-08T12:19:50.957591+05:30"},{"city":"Salem","state":"Tamil Nadu","latitude":11.6643,"longitude":78.146,"temp":33.4,"humidity":43,"rain":0.0,"pressure":979.5,"uv_index":9.1,"wind_gusts":21.2,"aqi":106,"pm10":50.5,"pm2_5":42.0,"mosquito_risk":0,"arthritis_risk":5,"migraine_risk":7,"frizz_risk":1,"updated_at":"2026-03-08T12:19:50.957599+05:30"},{"city":"Tirunelveli","state":"Tamil Nadu","latitude":8.7139,"longitude":77.7567,"temp":35.5,"humidity":35,"rain":0.0,"pressure":1005.1,"uv_index":9.15,"wind_gusts":36.0,"aqi":105,"pm10":45.2,"pm2_5":36.6,"mosquito_risk":0,"arthritis_risk":5,"migraine_risk":7,"frizz_risk":1,"updated_at":"2026-03-08T12:19:50.957606+05:30"},{"city":"Vellore","state":"Tamil Nadu","latitude":12.9165,"longitude":79.1325,"temp":33.8,"humidity":35,"rain":0.0,"pressure":987.1,"uv_index":9.0,"wind_gusts":37.8,"aqi":139,"pm10":49.2,"pm2_5":37.6,"mosquito_risk":0,"arthritis_risk":5,"migraine_risk":7,"frizz_risk":1,"updated_at":"2026-03-08T12:19:50.957613+05:30"},{"city":"Erode","state":"Tamil Nadu","latitude":11.341,"longitude":77.7172,"temp":34.2,"humidity":42,"rain":0.0,"pressure":991.1,"uv_index":9.1,"wind_gusts":20.9,"aqi":90,"pm10":42.8,"pm2_5":34.8,"mosquito_risk":0,"arthritis_risk":5,"migraine_risk":7,"frizz_risk":1,"updated_at":"2026-03-08T12:19:50.957619+05:30"},{"city":"Kochi","state":"Kerala","latitude":9.9312,"longitude":76.2673,"temp":28.3,"humidity":81,"rain":0.0,"pressure":1010.1,"uv_index":8.9,"wind_gusts":35.6,"aqi":138,"pm10":47.6,"pm2_5":44.5,"mosquito_risk":7,"arthritis_risk":0,"migraine_risk":4,"frizz_risk":1,"updated_at":"2026-03-08T12:19:50.957626+05:30"},{"city":"Thiruvananthapuram","state":"Kerala","latitude":8.5241,"longitude":76.9366,"temp":28.2,"humidity":79,"rain":0.0,"pressure":1009.7,"uv_index":9.05,"wind_gusts":27.7,"aqi":85,"pm10":33.4,"pm2_5":31.7,"mosquito_risk":7,"arthritis_risk":0,"migraine_risk":4,"frizz_risk":1,"updated_at":"2026-03-08T12:19:50.957633+05:30"},{"city":"Kozhikode","state":"Kerala","latitude":11.2588,"longitude":75.7804,"temp":30.1,"humidity":73,"rain":0.0,"pressure":1009.2,"uv_index":8.95,"wind_gusts":28.1,"aqi":97,"pm10":28.4,"pm2_5":27.0,"mosquito_risk":3,"arthritis_risk":0,"migraine_risk":4,"frizz_risk":1,"updated_at":"2026-03-08T12:19:50.957639+05:30"},{"city":"Thrissur","state":"Kerala","latitude":10.5276,"longitude":76.2144,"temp":33.7,"humidity":54,"rain":0.0,"pressure":1008.2,"uv_index":9.0,"wind_gusts":37.8,"aqi":131,"pm10":42.1,"pm2_5":38.9,"mosquito_risk":0,"arthritis_risk":0,"migraine_risk":4,"frizz_risk":1,"updated_at":"2026-03-08T12:19:50.957646+05:30"},{"city":"Kannur","state":"Kerala","latitude":11.8745,"longitude":75.3704,"temp":31.5,"humidity":64,"rain":0.0,"pressure":1008.7,"uv_index":8.9,"wind_gusts":28.8,"aqi":117,"pm10":35.3,"pm2_5":32.9,"mosquito_risk":3,"arthritis_risk":0,"migraine_risk":4,"frizz_risk":1,"updated_at":"2026-03-08T12:19:50.957653+05:30"},{"city":"Patna","state":"Bihar","latitude":25.5941,"longitude":85.1376,"temp":31.4,"humidity":49,"rain":0.0,"pressure":1005.5,"uv_index":7.35,"wind_gusts":18.0,"aqi":171,"pm10":104.8,"pm2_5":90.6,"mosquito_risk":0,"arthritis_risk":5,"migraine_risk":4,"frizz_risk":1,"updated_at":"2026-03-08T12:19:50.957659+05:30"},{"city":"Gaya","state":"Bihar","latitude":24.7914,"longitude":85.0002,"temp":31.0,"humidity":59,"rain":0.0,"pressure":998.4,"uv_index":7.45,"wind_gusts":18.7,"aqi":158,"pm10":92.4,"pm2_5":78.0,"mosquito_risk":0,"arthritis_risk":5,"migraine_risk":7,"frizz_risk":1,"updated_at":"2026-03-08T12:19:50.957665+05:30"},{"city":"Muzaffarpur","state":"Bihar","latitude":26.1209,"longitude":85.3647,"temp":30.7,"humidity":51,"rain":0.0,"pressure":1005.8,"uv_index":7.3,"wind_gusts":19.1,"aqi":174,"pm10":108.0,"pm2_5":94.1,"mosquito_risk":0,"arthritis_risk":5,"migraine_risk":4,"frizz_risk":1,"updated_at":"2026-03-08T12:19:50.957671+05:30"},{"city":"Bhagalpur","state":"Bihar","latitude":25.2425,"longitude":87.0117,"temp":30.5,"humidity":51,"rain":0.0,"pressure":1006.5,"uv_index":7.35,"wind_gusts":15.8,"aqi":161,"pm10":94.8,"pm2_5":74.0,"mosquito_risk":0,"arthritis_risk":5,"migraine_risk":4,"frizz_risk":1,"updated_at":"2026-03-08T12:19:50.957677+05:30"},{"city":"Ranchi","state":"Jharkhand","latitude":23.3441,"longitude":85.3096,"temp":30.4,"humidity":38,"rain":0.0,"pressure":941.9,"uv_index":8.1,"wind_gusts":23.0,"aqi":160,"pm10":98.7,"pm2_5":70.8,"mosquito_risk":0,"arthritis_risk":5,"migraine_risk":7,"frizz_risk":0,"updated_at":"2026-03-08T12:19:50.957683+05:30"},{"city":"Jamshedpur","state":"Jharkhand","latitude":22.8046,"longitude":86.2029,"temp":31.0,"humidity":55,"rain":0.0,"pressure":995.1,"uv_index":8.0,"wind_gusts":23.8,"aqi":154,"pm10":97.8,"pm2_5":76.8,"mosquito_risk":0,"arthritis_risk":5,"migraine_risk":7,"frizz_risk":1,"updated_at":"2026-03-08T12:19:50.957690+05:30"},{"city":"Dhanbad","state":"Jharkhand","latitude":23.7957,"longitude":86.4304,"temp":31.7,"humidity":42,"rain":0.0,"pressure":984.5,"uv_index":7.85,"wind_gusts":22.7,"aqi":166,"pm10":104.5,"pm2_5":85.0,"mosquito_risk":0,"arthritis_risk":5,"migraine_risk":7,"frizz_risk":1,"updated_at":"2026-03-08T12:19:50.957696+05:30"},{"city":"Bokaro","state":"Jharkhand","latitude":23.6693,"longitude":86.1511,"temp":31.3,"humidity":46,"rain":0.0,"pressure":988.3,"uv_index":7.85,"wind_gusts":20.5,"aqi":169,"pm10":104.3,"pm2_5":83.1,"mosquito_risk":0,"arthritis_risk":5,"migraine_risk":7,"frizz_risk":1,"updated_at":"2026-03-08T12:19:50.957703+05:30"},{"city":"Bhubaneswar","state":"Odisha","latitude":20.2961,"longitude":85.8245,"temp":31.8,"humidity":53,"rain":0.0,"pressure":1006.3,"uv_index":8.2,"wind_gusts":33.1,"aqi":131,"pm10":51.1,"pm2_5":37.7,"mosquito_risk":0,"arthritis_risk":5,"migraine_risk":4,"frizz_risk":1,"updated_at":"2026-03-08T12:19:50.957709+05:30"},{"city":"Cuttack","state":"Odisha","latitude":20.4625,"longitude":85.8828,"temp":32.9,"humidity":49,"rain":0.0,"pressure":1008.0,"uv_index":8.3,"wind_gusts":28.4,"aqi":131,"pm10":51.1,"pm2_5":37.7,"mosquito_risk":0,"arthritis_risk":0,"migraine_risk":4,"frizz_risk":1,"updated_at":"2026-03-08T12:19:50.957715+05:30"},{"city":"Rourkela","state":"Odisha","latitude":22.2604,"longitude":84.8536,"temp":33.8,"humidity":43,"rain":0.0,"pressure":988.6,"uv_index":7.9,"wind_gusts":28.4,"aqi":164,"pm10":114.1,"pm2_5":84.1,"mosquito_risk":0,"arthritis_risk":5,"migraine_risk":7,"frizz_risk":1,"updated_at":"2026-03-08T12:19:50.957721+05:30"},{"city":"Raipur","state":"Chhattisgarh","latitude":21.2514,"longitude":81.6296,"temp":34.4,"humidity":31,"rain":0.0,"pressure":978.1,"uv_index":8.0,"wind_gusts":23.4,"aqi":153,"pm10":95.2,"pm2_5":77.1,"mosquito_risk":0,"arthritis_risk":5,"migraine_risk":7,"frizz_risk":0,"updated_at":"2026-03-08T12:19:50.957727+05:30"},{"city":"Bhilai","state":"Chhattisgarh","latitude":21.1938,"longitude":81.3509,"temp":34.8,"humidity":31,"rain":0.0,"pressure":978.6,"uv_index":8.0,"wind_gusts":23.4,"aqi":151,"pm10":91.7,"pm2_5":71.7,"mosquito_risk":0,"arthritis_risk":5,"migraine_risk":7,"frizz_risk":0,"updated_at":"2026-03-08T12:19:50.957733+05:30"},{"city":"Guwahati","state":"Assam","latitude":26.1158,"longitude":91.7086,"temp":31.4,"humidity":45,"rain":0.0,"pressure":1005.8,"uv_index":7.3,"wind_gusts":22.3,"aqi":153,"pm10":72.9,"pm2_5":52.7,"mosquito_risk":0,"arthritis_risk":5,"migraine_risk":4,"frizz_risk":1,"updated_at":"2026-03-08T12:19:50.957738+05:30"},{"city":"Agartala","state":"Tripura","latitude":23.8315,"longitude":91.2868,"temp":30.0,"humidity":55,"rain":0.0,"pressure":1010.9,"uv_index":7.6,"wind_gusts":18.7,"aqi":153,"pm10":64.5,"pm2_5":49.7,"mosquito_risk":4,"arthritis_risk":0,"migraine_risk":4,"frizz_risk":1,"updated_at":"2026-03-08T12:19:50.957744+05:30"},{"city":"Shillong","state":"Meghalaya","latitude":25.5788,"longitude":91.8933,"temp":19.4,"humidity":41,"rain":0.0,"pressure":860.7,"uv_index":7.35,"wind_gusts":26.6,"aqi":126,"pm10":53.4,"pm2_5":40.0,"mosquito_risk":0,"arthritis_risk":5,"migraine_risk":7,"frizz_risk":0,"updated_at":"2026-03-08T12:19:50.957750+05:30"},{"city":"Imphal","state":"Manipur","latitude":24.817,"longitude":93.9368,"temp":25.0,"humidity":49,"rain":0.0,"pressure":927.2,"uv_index":7.9,"wind_gusts":35.6,"aqi":161,"pm10":60.5,"pm2_5":52.6,"mosquito_risk":4,"arthritis_risk":5,"migraine_risk":7,"frizz_risk":0,"updated_at":"2026-03-08T12:19:50.957757+05:30"},{"city":"Aizawl","state":"Mizoram","latitude":23.7271,"longitude":92.7176,"temp":25.3,"humidity":48,"rain":0.0,"pressure":897.2,"uv_index":7.85,"wind_gusts":31.3,"aqi":156,"pm10":63.3,"pm2_5":53.0,"mosquito_risk":4,"arthritis_risk":5,"migraine_risk":7,"frizz_risk":0,"updated_at":"2026-03-08T12:19:50.957763+05:30"},{"city":"Kohima","state":"Nagaland","latitude":25.6701,"longitude":94.1077,"temp":19.9,"humidity":59,"rain":0.0,"pressure":859.4,"uv_index":7.0,"wind_gusts":49.3,"aqi":160,"pm10":79.6,"pm2_5":69.6,"mosquito_risk":0,"arthritis_risk":5,"migraine_risk":7,"frizz_risk":0,"updated_at":"2026-03-08T12:19:50.957769+05:30"},{"city":"Gangtok","state":"Sikkim","latitude":27.3314,"longitude":88.6138,"temp":17.8,"humidity":71,"rain":0.0,"pressure":842.6,"uv_index":5.1,"wind_gusts":15.1,"aqi":158,"pm10":61.7,"pm2_5":49.9,"mosquito_risk":3,"arthritis_risk":5,"migraine_risk":3,"frizz_risk":0,"updated_at":"2026-03-08T12:19:50.957775+05:30"},{"city":"Siliguri","state":"West Bengal","latitude":26.7271,"longitude":88.3953,"temp":24.6,"humidity":57,"rain":0.0,"pressure":999.7,"uv_index":7.3,"wind_gusts":16.6,"aqi":158,"pm10":71.2,"pm2_5":52.0,"mosquito_risk":0,"arthritis_risk":5,"migraine_risk":7,"frizz_risk":0,"updated_at":"2026-03-08T12:19:54.171611+05:30"},{"city":"Durgapur","state":"West Bengal","latitude":23.5204,"longitude":87.3119,"temp":32.2,"humidity":42,"rain":0.0,"pressure":999.8,"uv_index":7.85,"wind_gusts":20.9,"aqi":160,"pm10":92.2,"pm2_5":78.7,"mosquito_risk":0,"arthritis_risk":5,"migraine_risk":7,"frizz_risk":1,"updated_at":"2026-03-08T12:19:54.171638+05:30"},{"city":"Asansol","state":"West Bengal","latitude":23.6739,"longitude":86.9524,"temp":32.0,"humidity":41,"rain":0.0,"pressure":998.2,"uv_index":7.85,"wind_gusts":19.8,"aqi":158,"pm10":93.1,"pm2_5":77.3,"mosquito_risk":0,"arthritis_risk":5,"migraine_risk":7,"frizz_risk":1,"updated_at":"2026-03-08T12:19:54.171648+05:30"},{"city":"Pondicherry","state":"Puducherry","latitude":11.9139,"longitude":79.8145,"temp":33.0,"humidity":52,"rain":0.0,"pressure":1011.0,"uv_index":8.95,"wind_gusts":32.0,"aqi":77,"pm10":35.7,"pm2_5":23.7,"mosquito_risk":0,"arthritis_risk":0,"migraine_risk":4,"frizz_risk":1,"updated_at":"2026-03-08T12:19:54.171655+05:30"},{"city":"Port Blair","state":"Andaman and Nicobar Islands","latitude":11.6234,"longitude":92.7265,"temp":27.4,"humidity":75,"rain":0.0,"pressure":1009.3,"uv_index":8.9,"wind_gusts":27.0,"aqi":91,"pm10":37.1,"pm2_5":27.0,"mosquito_risk":7,"arthritis_risk":0,"migraine_risk":4,"frizz_risk":1,"updated_at":"2026-03-08T12:19:54.171662+05:30"},{"city":"Haridwar","state":"Uttarakhand","latitude":29.9457,"longitude":78.1642,"temp":30.0,"humidity":60,"rain":0.0,"pressure":979.2,"uv_index":5.8,"wind_gusts":28.4,"aqi":161,"pm10":97.6,"pm2_5":67.8,"mosquito_risk":4,"arthritis_risk":5,"migraine_risk":3,"frizz_risk":1,"updated_at":"2026-03-08T12:19:54.171669+05:30"},{"city":"Rishikesh","state":"Uttarakhand","latitude":30.0869,"longitude":78.2676,"temp":30.0,"humidity":55,"rain":0.0,"pressure":971.9,"uv_index":5.85,"wind_gusts":24.8,"aqi":159,"pm10":86.8,"pm2_5":60.1,"mosquito_risk":4,"arthritis_risk":5,"migraine_risk":3,"frizz_risk":1,"updated_at":"2026-03-08T12:19:54.171676+05:30"},{"city":"Nainital","state":"Uttarakhand","latitude":29.3919,"longitude":79.4542,"temp":22.0,"humidity":69,"rain":0.0,"pressure":811.8,"uv_index":6.65,"wind_gusts":67.3,"aqi":157,"pm10":85.9,"pm2_5":58.8,"mosquito_risk":3,"arthritis_risk":5,"migraine_risk":7,"frizz_risk":1,"updated_at":"2026-03-08T12:19:54.171683+05:30"},{"city":"Mussoorie","state":"Uttarakhand","latitude":30.4599,"longitude":78.0664,"temp":22.5,"humidity":63,"rain":0.0,"pressure":809.2,"uv_index":6.2,"wind_gusts":47.5,"aqi":158,"pm10":73.8,"pm2_5":49.9,"mosquito_risk":3,"arthritis_risk":5,"migraine_risk":7,"frizz_risk":0,"updated_at":"2026-03-08T12:19:54.171691+05:30"},{"city":"Dharamshala","state":"Himachal Pradesh","latitude":32.219,"longitude":76.3234,"temp":26.7,"humidity":32,"rain":0.0,"pressure":875.7,"uv_index":6.4,"wind_gusts":27.4,"aqi":60,"pm10":32.9,"pm2_5":11.2,"mosquito_risk":4,"arthritis_risk":5,"migraine_risk":7,"frizz_risk":0,"updated_at":"2026-03-08T12:19:54.171697+05:30"},{"city":"Dalhousie","state":"Himachal Pradesh","latitude":32.5387,"longitude":75.971,"temp":26.7,"humidity":21,"rain":0.0,"pressure":811.9,"uv_index":6.65,"wind_gusts":26.3,"aqi":106,"pm10":48.5,"pm2_5":24.4,"mosquito_risk":4,"arthritis_risk":5,"migraine_risk":7,"frizz_risk":0,"updated_at":"2026-03-08T12:19:54.171704+05:30"},{"city":"Patiala","state":"Punjab","latitude":30.3398,"longitude":76.3869,"temp":31.7,"humidity":46,"rain":0.0,"pressure":983.4,"uv_index":5.65,"wind_gusts":29.2,"aqi":167,"pm10":88.9,"pm2_5":68.7,"mosquito_risk":0,"arthritis_risk":5,"migraine_risk":3,"frizz_risk":1,"updated_at":"2026-03-08T12:19:54.171711+05:30"},{"city":"Bhatinda","state":"Punjab","latitude":30.211,"longitude":74.9455,"temp":32.1,"humidity":45,"rain":0.0,"pressure":989.4,"uv_index":6.5,"wind_gusts":17.3,"aqi":152,"pm10":75.9,"pm2_5":40.9,"mosquito_risk":0,"arthritis_risk":5,"migraine_risk":7,"frizz_risk":1,"updated_at":"2026-03-08T12:19:54.171717+05:30"},{"city":"Rohtak","state":"Haryana","latitude":28.8955,"longitude":76.6066,"temp":32.1,"humidity":41,"rain":0.0,"pressure":987.3,"uv_index":6.05,"wind_gusts":20.9,"aqi":170,"pm10":187.7,"pm2_5":55.6,"mosquito_risk":0,"arthritis_risk":5,"migraine_risk":7,"frizz_risk":1,"updated_at":"2026-03-08T12:19:54.171722+05:30"},{"city":"Panipat","state":"Haryana","latitude":29.3909,"longitude":76.9635,"temp":31.8,"humidity":46,"rain":0.0,"pressure":985.6,"uv_index":5.8,"wind_gusts":28.1,"aqi":169,"pm10":129.0,"pm2_5":55.3,"mosquito_risk":0,"arthritis_risk":5,"migraine_risk":3,"frizz_risk":1,"updated_at":"2026-03-08T12:19:54.171728+05:30"},{"city":"Mathura","state":"Uttar Pradesh","latitude":27.4924,"longitude":77.6737,"temp":33.8,"humidity":37,"rain":0.0,"pressure":992.1,"uv_index":6.3,"wind_gusts":22.3,"aqi":157,"pm10":200.7,"pm2_5":55.6,"mosquito_risk":0,"arthritis_risk":5,"migraine_risk":7,"frizz_risk":1,"updated_at":"2026-03-08T12:19:54.171734+05:30"},{"city":"Vrindavan","state":"Uttar Pradesh","latitude":27.5823,"longitude":77.7027,"temp":33.2,"humidity":40,"rain":0.0,"pressure":992.6,"uv_index":6.25,"wind_gusts":23.0,"aqi":157,"pm10":200.7,"pm2_5":55.6,"mosquito_risk":0,"arthritis_risk":5,"migraine_risk":7,"frizz_risk":1,"updated_at":"2026-03-08T12:19:54.171740+05:30"},{"city":"Ayodhya","state":"Uttar Pradesh","latitude":26.7922,"longitude":82.1998,"temp":31.1,"humidity":48,"rain":0.0,"pressure":1000.5,"uv_index":6.65,"wind_gusts":10.4,"aqi":183,"pm10":95.0,"pm2_5":78.9,"mosquito_risk":0,"arthritis_risk":5,"migraine_risk":4,"frizz_risk":1,"updated_at":"2026-03-08T12:19:54.171746+05:30"},{"city":"Ratlam","state":"Madhya Pradesh","latitude":23.3315,"longitude":75.0367,"temp":33.9,"humidity":27,"rain":0.0,"pressure":959.8,"uv_index":7.5,"wind_gusts":19.1,"aqi":91,"pm10":16.1,"pm2_5":15.5,"mosquito_risk":0,"arthritis_risk":5,"migraine_risk":7,"frizz_risk":0,"updated_at":"2026-03-08T12:19:54.171752+05:30"},{"city":"Sagar","state":"Madhya Pradesh","latitude":23.8388,"longitude":78.7378,"temp":33.4,"humidity":29,"rain":0.0,"pressure":955.5,"uv_index":7.45,"wind_gusts":21.6,"aqi":80,"pm10":54.2,"pm2_5":25.0,"mosquito_risk":0,"arthritis_risk":5,"migraine_risk":7,"frizz_risk":0,"updated_at":"2026-03-08T12:19:54.171759+05:30"},{"city":"Satna","state":"Madhya Pradesh","latitude":24.6005,"longitude":80.8322,"temp":32.9,"humidity":33,"rain":0.0,"pressure":976.2,"uv_index":7.4,"wind_gusts":27.4,"aqi":160,"pm10":89.4,"pm2_5":60.1,"mosquito_risk":0,"arthritis_risk":5,"migraine_risk":7,"frizz_risk":0,"updated_at":"2026-03-08T12:19:54.171765+05:30"},{"city":"Akola","state":"Maharashtra","latitude":20.7002,"longitude":77.0082,"temp":36.5,"humidity":22,"rain":0.0,"pressure":978.9,"uv_index":7.95,"wind_gusts":15.5,"aqi":78,"pm10":37.1,"pm2_5":19.2,"mosquito_risk":0,"arthritis_risk":5,"migraine_risk":10,"frizz_risk":0,"updated_at":"2026-03-08T12:19:54.171771+05:30"},{"city":"Amravati","state":"Maharashtra","latitude":20.9374,"longitude":77.7796,"temp":36.6,"humidity":21,"rain":0.0,"pressure":971.1,"uv_index":7.9,"wind_gusts":21.6,"aqi":80,"pm10":39.1,"pm2_5":20.1,"mosquito_risk":0,"arthritis_risk":5,"migraine_risk":10,"frizz_risk":0,"updated_at":"2026-03-08T12:19:54.171778+05:30"},{"city":"Latur","state":"Maharashtra","latitude":18.4088,"longitude":76.5604,"temp":34.9,"humidity":22,"rain":0.0,"pressure":943.1,"uv_index":8.4,"wind_gusts":23.8,"aqi":82,"pm10":24.5,"pm2_5":19.3,"mosquito_risk":0,"arthritis_risk":5,"migraine_risk":7,"frizz_risk":0,"updated_at":"2026-03-08T12:19:54.171784+05:30"},{"city":"Nanded","state":"Maharashtra","latitude":19.1383,"longitude":77.3091,"temp":37.2,"humidity":23,"rain":0.0,"pressure":971.7,"uv_index":8.15,"wind_gusts":25.2,"aqi":89,"pm10":37.5,"pm2_5":22.1,"mosquito_risk":0,"arthritis_risk":5,"migraine_risk":10,"frizz_risk":0,"updated_at":"2026-03-08T12:19:54.171790+05:30"},{"city":"Gulbarga","state":"Karnataka","latitude":17.3297,"longitude":76.8343,"temp":36.5,"humidity":19,"rain":0.0,"pressure":961.5,"uv_index":8.5,"wind_gusts":28.8,"aqi":74,"pm10":41.7,"pm2_5":31.4,"mosquito_risk":0,"arthritis_risk":5,"migraine_risk":10,"frizz_risk":0,"updated_at":"2026-03-08T12:19:54.171796+05:30"},{"city":"Bidar","state":"Karnataka","latitude":17.9104,"longitude":77.5199,"temp":35.1,"humidity":22,"rain":0.0,"pressure":938.7,"uv_index":8.4,"wind_gusts":29.2,"aqi":88,"pm10":33.3,"pm2_5":22.2,"mosquito_risk":0,"arthritis_risk":5,"migraine_risk":10,"frizz_risk":0,"updated_at":"2026-03-08T12:19:54.171803+05:30"},{"city":"Hospet","state":"Karnataka","latitude":15.2689,"longitude":76.3909,"temp":33.4,"humidity":35,"rain":0.0,"pressure":958.2,"uv_index":8.75,"wind_gusts":24.5,"aqi":89,"pm10":41.9,"pm2_5":34.5,"mosquito_risk":0,"arthritis_risk":5,"migraine_risk":7,"frizz_risk":0,"updated_at":"2026-03-08T12:19:54.171808+05:30"},{"city":"Tirupur","state":"Tamil Nadu","latitude":11.1085,"longitude":77.3411,"temp":34.0,"humidity":38,"rain":0.0,"pressure":977.6,"uv_index":9.2,"wind_gusts":30.2,"aqi":118,"pm10":42.1,"pm2_5":34.9,"mosquito_risk":0,"arthritis_risk":5,"migraine_risk":7,"frizz_risk":1,"updated_at":"2026-03-08T12:19:54.171814+05:30"},{"city":"Alappuzha","state":"Kerala","latitude":9.4981,"longitude":76.3388,"temp":28.3,"humidity":82,"rain":0.0,"pressure":1010.3,"uv_index":8.95,"wind_gusts":29.2,"aqi":123,"pm10":48.2,"pm2_5":45.5,"mosquito_risk":7,"arthritis_risk":0,"migraine_risk":4,"frizz_risk":1,"updated_at":"2026-03-08T12:19:54.171820+05:30"},{"city":"Munnar","state":"Kerala","latitude":10.0889,"longitude":77.0595,"temp":29.1,"humidity":37,"rain":0.0,"pressure":860.5,"uv_index":9.5,"wind_gusts":24.5,"aqi":104,"pm10":40.5,"pm2_5":30.4,"mosquito_risk":4,"arthritis_risk":5,"migraine_risk":7,"frizz_risk":0,"updated_at":"2026-03-08T12:19:54.171827+05:30"},{"city":"Silchar","state":"Assam","latitude":24.8333,"longitude":92.7789,"temp":31.0,"humidity":55,"rain":0.0,"pressure":1009.0,"uv_index":7.6,"wind_gusts":20.9,"aqi":163,"pm10":74.7,"pm2_5":60.8,"mosquito_risk":0,"arthritis_risk":0,"migraine_risk":4,"frizz_risk":1,"updated_at":"2026-03-08T12:19:54.171833+05:30"},{"city":"Dibrugarh","state":"Assam","latitude":27.4728,"longitude":94.912,"temp":27.9,"humidity":61,"rain":0.0,"pressure":1000.0,"uv_index":6.3,"wind_gusts":20.5,"aqi":162,"pm10":98.3,"pm2_5":80.3,"mosquito_risk":7,"arthritis_risk":5,"migraine_risk":4,"frizz_risk":1,"updated_at":"2026-03-08T12:19:54.171839+05:30"}]