[{"city":"Delhi","state":"Delhi","latitude":28.6139,"longitude":77.209,"temp":23.0,"humidity":81,"rain":0.0,"pressure":985.2,"uv_index":7.05,"wind_gusts":41.0,"aqi":163,"pm10":103.6,"pm2_5":56.0,"no2":41.8,"co":696.0,"o3":94.0,"so2":31.9,"mosquito_risk":3,"arthritis_risk":5,"migraine_risk":7,"frizz_risk":1,"updated_at":"2026-05-05T21:55:46.284232+05:30"},{"city":"Mumbai","state":"Maharashtra","latitude":19.076,"longitude":72.8777,"temp":28.7,"humidity":76,"rain":0.0,"pressure":1008.8,"uv_index":7.85,"wind_gusts":40.7,"aqi":72,"pm10":70.3,"pm2_5":23.6,"no2":9.6,"co":262.0,"o3":64.0,"so2":22.9,"mosquito_risk":7,"arthritis_risk":0,"migraine_risk":4,"frizz_risk":1,"updated_at":"2026-05-05T21:55:46.284267+05:30"},{"city":"Bangalore","state":"Karnataka","latitude":12.9716,"longitude":77.5946,"temp":26.9,"humidity":47,"rain":0.0,"pressure":912.4,"uv_index":8.85,"wind_gusts":34.2,"aqi":93,"pm10":87.3,"pm2_5":59.3,"no2":100.1,"co":479.0,"o3":24.0,"so2":21.8,"mosquito_risk":4,"arthritis_risk":5,"migraine_risk":7,"frizz_risk":0,"updated_at":"2026-05-05T21:55:46.284284+05:30"},{"city":"Hyderabad","state":"Telangana","latitude":17.385,"longitude":78.4867,"temp":29.8,"humidity":46,"rain":0.0,"pressure":953.5,"uv_index":9.25,"wind_gusts":38.2,"aqi":110,"pm10":56.7,"pm2_5":39.2,"no2":39.5,"co":334.0,"o3":70.0,"so2":14.4,"mosquito_risk":4,"arthritis_risk":5,"migraine_risk":7,"frizz_risk":1,"updated_at":"2026-05-05T21:55:46.284294+05:30"},{"city":"Chennai","state":"Tamil Nadu","latitude":13.0827,"longitude":80.2707,"temp":29.1,"humidity":82,"rain":0.0,"pressure":1007.9,"uv_index":8.7,"wind_gusts":36.7,"aqi":71,"pm10":20.5,"pm2_5":13.3,"no2":6.8,"co":192.0,"o3":71.0,"so2":4.6,"mosquito_risk":7,"arthritis_risk":5,"migraine_risk":4,"frizz_risk":1,"updated_at":"2026-05-05T21:55:46.284303+05:30"},{"city":"Kolkata","state":"West Bengal","latitude":22.5726,"longitude":88.3639,"temp":26.0,"humidity":89,"rain":0.0,"pressure":1008.2,"uv_index":8.65,"wind_gusts":45.7,"aqi":79,"pm10":25.7,"pm2_5":23.7,"no2":15.5,"co":458.0,"o3":48.0,"so2":9.4,"mosquito_risk":7,"arthritis_risk":0,"migraine_risk":4,"frizz_risk":1,"updated_at":"2026-05-05T21:55:46.284311+05:30"},{"city":"Pune","state":"Maharashtra","latitude":18.5204,"longitude":73.8567,"temp":25.7,"humidity":78,"rain":0.0,"pressure":948.3,"uv_index":8.45,"wind_gusts":45.0,"aqi":57,"pm10":37.7,"pm2_5":17.9,"no2":9.6,"co":228.0,"o3":80.0,"so2":9.3,"mosquito_risk":7,"arthritis_risk":5,"migraine_risk":7,"frizz_risk":1,"updated_at":"2026-05-05T21:55:46.284319+05:30"},{"city":"Ahmedabad","state":"Gujarat","latitude":23.0225,"longitude":72.5714,"temp":35.2,"humidity":26,"rain":0.0,"pressure":1001.2,"uv_index":8.1,"wind_gusts":29.9,"aqi":76,"pm10":146.2,"pm2_5":58.6,"no2":40.8,"co":329.0,"o3":58.0,"so2":15.1,"mosquito_risk":0,"arthritis_risk":5,"migraine_risk":7,"frizz_risk":0,"updated_at":"2026-05-05T21:55:46.284331+05:30"},{"city":"Jaipur","state":"Rajasthan","latitude":26.9124,"longitude":75.7873,"temp":24.6,"humidity":61,"rain":0.0,"pressure":961.4,"uv_index":8.05,"wind_gusts":35.3,"aqi":145,"pm10":182.5,"pm2_5":45.6,"no2":20.9,"co":383.0,"o3":80.0,"so2":6.8,"mosquito_risk":3,"arthritis_risk":5,"migraine_risk":7,"frizz_risk":1,"updated_at":"2026-05-05T21:55:46.284339+05:30"},{"city":"Lucknow","state":"Uttar Pradesh","latitude":26.8467,"longitude":80.9462,"temp":24.0,"humidity":84,"rain":0.0,"pressure":995.4,"uv_index":6.25,"wind_gusts":28.4,"aqi":130,"pm10":85.2,"pm2_5":69.8,"no2":32.2,"co":561.0,"o3":83.0,"so2":21.3,"mosquito_risk":3,"arthritis_risk":5,"migraine_risk":7,"frizz_risk":1,"updated_at":"2026-05-05T21:55:46.284349+05:30"},{"city":"Kanpur","state":"Uttar Pradesh","latitude":26.4499,"longitude":80.3319,"temp":24.5,"humidity":84,"rain":0.0,"pressure":993.7,"uv_index":8.05,"wind_gusts":31.3,"aqi":139,"pm10":98.7,"pm2_5":56.6,"no2":20.9,"co":497.0,"o3":102.0,"so2":14.3,"mosquito_risk":3,"arthritis_risk":5,"migraine_risk":7,"frizz_risk":1,"updated_at":"2026-05-05T21:55:46.284356+05:30"},{"city":"Chandigarh","state":"Chandigarh","latitude":30.7333,"longitude":76.7794,"temp":21.0,"humidity":69,"rain":0.0,"pressure":971.2,"uv_index":7.3,"wind_gusts":42.1,"aqi":106,"pm10":65.0,"pm2_5":38.3,"no2":42.1,"co":734.0,"o3":61.0,"so2":6.3,"mosquito_risk":3,"arthritis_risk":5,"migraine_risk":7,"frizz_risk":0,"updated_at":"2026-05-05T21:55:46.284364+05:30"},{"city":"Srinagar","state":"Jammu and Kashmir","latitude":34.0837,"longitude":74.7973,"temp":11.5,"humidity":84,"rain":0.0,"pressure":842.0,"uv_index":8.7,"wind_gusts":25.2,"aqi":74,"pm10":28.2,"pm2_5":24.9,"no2":27.5,"co":1549.0,"o3":61.0,"so2":4.6,"mosquito_risk":3,"arthritis_risk":10,"migraine_risk":7,"frizz_risk":0,"updated_at":"2026-05-05T21:55:46.284372+05:30"},{"city":"Jammu","state":"Jammu and Kashmir","latitude":32.7266,"longitude":74.857,"temp":22.1,"humidity":52,"rain":0.0,"pressure":974.3,"uv_index":8.3,"wind_gusts":30.2,"aqi":111,"pm10":43.0,"pm2_5":23.3,"no2":23.3,"co":387.0,"o3":78.0,"so2":3.6,"mosquito_risk":0,"arthritis_risk":5,"migraine_risk":7,"frizz_risk":0,"updated_at":"2026-05-05T21:55:46.284380+05:30"},{"city":"Amritsar","state":"Punjab","latitude":31.634,"longitude":74.8723,"temp":24.3,"humidity":56,"rain":0.0,"pressure":982.9,"uv_index":8.2,"wind_gusts":45.0,"aqi":129,"pm10":62.4,"pm2_5":30.7,"no2":6.0,"co":537.0,"o3":125.0,"so2":7.2,"mosquito_risk":0,"arthritis_risk":5,"migraine_risk":7,"frizz_risk":0,"updated_at":"2026-05-05T21:55:46.284387+05:30"},{"city":"Ludhiana","state":"Punjab","latitude":30.901,"longitude":75.8573,"temp":23.1,"humidity":65,"rain":0.0,"pressure":981.0,"uv_index":7.8,"wind_gusts":33.8,"aqi":121,"pm10":92.4,"pm2_5":54.9,"no2":22.3,"co":1046.0,"o3":90.0,"so2":18.8,"mosquito_risk":3,"arthritis_risk":5,"migraine_risk":7,"frizz_risk":1,"updated_at":"2026-05-05T21:55:46.284394+05:30"},{"city":"Jalandhar","state":"Punjab","latitude":31.326,"longitude":75.5762,"temp":23.1,"humidity":58,"rain":0.0,"pressure":981.7,"uv_index":7.95,"wind_gusts":41.8,"aqi":131,"pm10":95.9,"pm2_5":43.8,"no2":13.2,"co":1174.0,"o3":107.0,"so2":12.8,"mosquito_risk":0,"arthritis_risk":5,"migraine_risk":7,"frizz_risk":0,"updated_at":"2026-05-05T21:55:46.284400+05:30"},{"city":"Dehradun","state":"Uttarakhand","latitude":30.6284,"longitude":78.0322,"temp":9.1,"humidity":97,"rain":0.0,"pressure":828.1,"uv_index":7.35,"wind_gusts":35.3,"aqi":98,"pm10":77.8,"pm2_5":23.2,"no2":25.4,"co":208.0,"o3":93.0,"so2":1.8,"mosquito_risk":3,"arthritis_risk":10,"migraine_risk":7,"frizz_risk":0,"updated_at":"2026-05-05T21:55:46.284409+05:30"},{"city":"Shimla","state":"Himachal Pradesh","latitude":31.1048,"longitude":77.1734,"temp":9.0,"humidity":73,"rain":0.0,"pressure":783.0,"uv_index":4.75,"wind_gusts":37.8,"aqi":91,"pm10":55.6,"pm2_5":22.7,"no2":25.3,"co":370.0,"o3":76.0,"so2":2.2,"mosquito_risk":3,"arthritis_risk":5,"migraine_risk":3,"frizz_risk":0,"updated_at":"2026-05-05T21:55:46.284416+05:30"},{"city":"Manali","state":"Himachal Pradesh","latitude":32.2396,"longitude":77.1887,"temp":8.4,"humidity":74,"rain":0.0,"pressure":815.8,"uv_index":9.65,"wind_gusts":43.2,"aqi":134,"pm10":20.1,"pm2_5":7.9,"no2":21.7,"co":352.0,"o3":128.0,"so2":0.5,"mosquito_risk":3,"arthritis_risk":5,"migraine_risk":7,"frizz_risk":0,"updated_at":"2026-05-05T21:55:46.284424+05:30"},{"city":"Gurgaon","state":"Haryana","latitude":28.4595,"longitude":77.0266,"temp":23.1,"humidity":79,"rain":0.0,"pressure":983.6,"uv_index":7.55,"wind_gusts":32.4,"aqi":290,"pm10":120.6,"pm2_5":65.4,"no2":44.9,"co":953.0,"o3":88.0,"so2":31.9,"mosquito_risk":3,"arthritis_risk":5,"migraine_risk":7,"frizz_risk":1,"updated_at":"2026-05-05T21:55:46.284430+05:30"},{"city":"Noida","state":"Uttar Pradesh","latitude":28.5355,"longitude":77.391,"temp":21.5,"humidity":82,"rain":0.0,"pressure":986.5,"uv_index":7.25,"wind_gusts":40.7,"aqi":290,"pm10":120.6,"pm2_5":65.4,"no2":44.9,"co":897.0,"o3":88.0,"so2":31.9,"mosquito_risk":3,"arthritis_risk":5,"migraine_risk":7,"frizz_risk":1,"updated_at":"2026-05-05T21:55:46.284437+05:30"},{"city":"Ghaziabad","state":"Uttar Pradesh","latitude":28.6692,"longitude":77.4538,"temp":21.8,"humidity":81,"rain":0.0,"pressure":984.8,"uv_index":6.95,"wind_gusts":47.5,"aqi":125,"pm10":123.4,"pm2_5":43.9,"no2":18.0,"co":444.0,"o3":102.0,"so2":12.9,"mosquito_risk":3,"arthritis_risk":5,"migraine_risk":7,"frizz_risk":1,"updated_at":"2026-05-05T21:55:46.284444+05:30"},{"city":"Faridabad","state":"Haryana","latitude":28.4089,"longitude":77.3178,"temp":22.5,"humidity":81,"rain":0.0,"pressure":985.8,"uv_index":7.0,"wind_gusts":35.6,"aqi":290,"pm10":120.6,"pm2_5":65.4,"no2":44.9,"co":898.0,"o3":88.0,"so2":31.9,"mosquito_risk":3,"arthritis_risk":5,"migraine_risk":7,"frizz_risk":1,"updated_at":"2026-05-05T21:55:46.284451+05:30"},{"city":"Meerut","state":"Uttar Pradesh","latitude":28.9845,"longitude":77.7064,"temp":21.8,"humidity":83,"rain":0.0,"pressure":983.8,"uv_index":4.2,"wind_gusts":50.0,"aqi":125,"pm10":123.4,"pm2_5":43.9,"no2":18.0,"co":479.0,"o3":102.0,"so2":12.9,"mosquito_risk":3,"arthritis_risk":5,"migraine_risk":3,"frizz_risk":1,"updated_at":"2026-05-05T21:55:46.284458+05:30"},{"city":"Agra","state":"Uttar Pradesh","latitude":27.1767,"longitude":78.0081,"temp":24.6,"humidity":76,"rain":0.0,"pressure":989.8,"uv_index":7.9,"wind_gusts":35.6,"aqi":285,"pm10":244.9,"pm2_5":69.2,"no2":18.0,"co":629.0,"o3":91.0,"so2":17.6,"mosquito_risk":3,"arthritis_risk":5,"migraine_risk":7,"frizz_risk":1,"updated_at":"2026-05-05T21:55:46.284464+05:30"},{"city":"Varanasi","state":"Uttar Pradesh","latitude":25.3176,"longitude":82.9739,"temp":25.6,"humidity":76,"rain":0.0,"pressure":999.1,"uv_index":8.4,"wind_gusts":33.8,"aqi":168,"pm10":61.2,"pm2_5":47.4,"no2":11.7,"co":952.0,"o3":119.0,"so2":14.9,"mosquito_risk":7,"arthritis_risk":5,"migraine_risk":7,"frizz_risk":1,"updated_at":"2026-05-05T21:55:46.284472+05:30"},{"city":"Prayagraj","state":"Uttar Pradesh","latitude":25.4358,"longitude":81.8463,"temp":26.1,"humidity":75,"rain":0.0,"pressure":997.5,"uv_index":8.2,"wind_gusts":29.9,"aqi":125,"pm10":65.9,"pm2_5":51.1,"no2":16.3,"co":540.0,"o3":93.0,"so2":13.6,"mosquito_risk":7,"arthritis_risk":5,"migraine_risk":7,"frizz_risk":1,"updated_at":"2026-05-05T21:55:46.284482+05:30"},{"city":"Gorakhpur","state":"Uttar Pradesh","latitude":26.7606,"longitude":83.3732,"temp":23.9,"humidity":82,"rain":0.0,"pressure":998.9,"uv_index":7.8,"wind_gusts":22.7,"aqi":124,"pm10":44.7,"pm2_5":39.7,"no2":22.6,"co":633.0,"o3":74.0,"so2":10.3,"mosquito_risk":3,"arthritis_risk":5,"migraine_risk":7,"frizz_risk":1,"updated_at":"2026-05-05T21:55:46.284489+05:30"},{"city":"Bareilly","state":"Uttar Pradesh","latitude":28.367,"longitude":79.4304,"temp":22.2,"humidity":73,"rain":0.0,"pressure":988.6,"uv_index":7.5,"wind_gusts":37.8,"aqi":123,"pm10":80.3,"pm2_5":62.6,"no2":32.5,"co":402.0,"o3":81.0,"so2":15.7,"mosquito_risk":3,"arthritis_risk":5,"migraine_risk":7,"frizz_risk":1,"updated_at":"2026-05-05T21:55:46.284496+05:30"},{"city":"Aligarh","state":"Uttar Pradesh","latitude":27.8974,"longitude":78.088,"temp":24.0,"humidity":74,"rain":0.0,"pressure":987.8,"uv_index":7.15,"wind_gusts":41.8,"aqi":173,"pm10":238.4,"pm2_5":59.0,"no2":16.0,"co":471.0,"o3":93.0,"so2":15.2,"mosquito_risk":3,"arthritis_risk":5,"migraine_risk":7,"frizz_risk":1,"updated_at":"2026-05-05T21:55:46.284505+05:30"},{"city":"Moradabad","state":"Uttar Pradesh","latitude":28.8386,"longitude":78.7733,"temp":21.2,"humidity":82,"rain":0.0,"pressure":985.7,"uv_index":6.4,"wind_gusts":46.4,"aqi":133,"pm10":70.3,"pm2_5":53.2,"no2":23.5,"co":541.0,"o3":103.0,"so2":20.0,"mosquito_risk":3,"arthritis_risk":5,"migraine_risk":7,"frizz_risk":1,"updated_at":"2026-05-05T21:55:46.284512+05:30"},{"city":"Saharanpur","state":"Uttar Pradesh","latitude":29.9637,"longitude":77.546,"temp":21.2,"humidity":78,"rain":0.0,"pressure":978.0,"uv_index":6.85,"wind_gusts":45.7,"aqi":110,"pm10":52.4,"pm2_5":28.8,"no2":11.4,"co":787.0,"o3":113.0,"so2":8.3,"mosquito_risk":3,"arthritis_risk":5,"migraine_risk":7,"frizz_risk":1,"updated_at":"2026-05-05T21:55:46.284519+05:30"},{"city":"Jhansi","state":"Uttar Pradesh","latitude":25.4484,"longitude":78.5685,"temp":26.9,"humidity":52,"rain":0.0,"pressure":979.5,"uv_index":7.9,"wind_gusts":34.6,"aqi":127,"pm10":94.3,"pm2_5":36.7,"no2":3.7,"co":344.0,"o3":115.0,"so2":7.0,"mosquito_risk":4,"arthritis_risk":5,"migraine_risk":7,"frizz_risk":1,"updated_at":"2026-05-05T21:55:49.534924+05:30"},{"city":"Surat","state":"Gujarat","latitude":21.1702,"longitude":72.8311,"temp":28.5,"humidity":79,"rain":0.0,"pressure":1006.5,"uv_index":7.7,"wind_gusts":41.4,"aqi":80,"pm10":48.7,"pm2_5":26.4,"no2":28.4,"co":302.0,"o3":47.0,"so2":43.0,"mosquito_risk":7,"arthritis_risk":5,"migraine_risk":4,"frizz_risk":1,"updated_at":"2026-05-05T21:55:49.534954+05:30"},{"city":"Vadodara","state":"Gujarat","latitude":22.3072,"longitude":73.1812,"temp":30.8,"humidity":62,"rain":0.0,"pressure":1003.2,"uv_index":8.05,"wind_gusts":36.7,"aqi":73,"pm10":49.4,"pm2_5":29.4,"no2":21.9,"co":555.0,"o3":67.0,"so2":19.2,"mosquito_risk":3,"arthritis_risk":5,"migraine_risk":4,"frizz_risk":1,"updated_at":"2026-05-05T21:55:49.534967+05:30"},{"city":"Rajkot","state":"Gujarat","latitude":22.3039,"longitude":70.8022,"temp":28.8,"humidity":71,"rain":0.0,"pressure":993.4,"uv_index":7.7,"wind_gusts":43.6,"aqi":87,"pm10":50.8,"pm2_5":19.3,"no2":6.3,"co":177.0,"o3":85.0,"so2":7.1,"mosquito_risk":7,"arthritis_risk":5,"migraine_risk":7,"frizz_risk":1,"updated_at":"2026-05-05T21:55:49.534975+05:30"},{"city":"Thane","state":"Maharashtra","latitude":19.2183,"longitude":72.9781,"temp":28.6,"humidity":74,"rain":0.0,"pressure":1008.2,"uv_index":7.85,"wind_gusts":38.2,"aqi":72,"pm10":70.3,"pm2_5":23.6,"no2":9.6,"co":233.0,"o3":64.0,"so2":22.9,"mosquito_risk":7,"arthritis_risk":0,"migraine_risk":4,"frizz_risk":1,"updated_at":"2026-05-05T21:55:49.534982+05:30"},{"city":"Nagpur","state":"Maharashtra","latitude":21.1458,"longitude":79.0882,"temp":33.9,"humidity":22,"rain":0.0,"pressure":972.8,"uv_index":8.9,"wind_gusts":33.1,"aqi":108,"pm10":50.5,"pm2_5":29.3,"no2":18.0,"co":284.0,"o3":82.0,"so2":14.2,"mosquito_risk":0,"arthritis_risk":5,"migraine_risk":7,"frizz_risk":0,"updated_at":"2026-05-05T21:55:49.534989+05:30"},{"city":"Nashik","state":"Maharashtra","latitude":19.9975,"longitude":73.7898,"temp":26.5,"humidity":72,"rain":0.0,"pressure":946.1,"uv_index":8.2,"wind_gusts":40.0,"aqi":62,"pm10":40.2,"pm2_5":17.3,"no2":6.3,"co":189.0,"o3":66.0,"so2":1.1,"mosquito_risk":7,"arthritis_risk":5,"migraine_risk":7,"frizz_risk":1,"updated_at":"2026-05-05T21:55:49.534995+05:30"},{"city":"Aurangabad","state":"Maharashtra","latitude":19.8762,"longitude":75.3433,"temp":31.6,"humidity":24,"rain":0.0,"pressure":943.9,"uv_index":9.0,"wind_gusts":38.2,"aqi":67,"pm10":46.0,"pm2_5":20.2,"no2":6.9,"co":180.0,"o3":90.0,"so2":3.9,"mosquito_risk":0,"arthritis_risk":5,"migraine_risk":7,"frizz_risk":0,"updated_at":"2026-05-05T21:55:49.535002+05:30"},{"city":"Solapur","state":"Maharashtra","latitude":17.6599,"longitude":75.9064,"temp":33.2,"humidity":16,"rain":0.0,"pressure":955.6,"uv_index":9.1,"wind_gusts":35.6,"aqi":67,"pm10":56.6,"pm2_5":24.6,"no2":17.2,"co":307.0,"o3":67.0,"so2":4.2,"mosquito_risk":0,"arthritis_risk":5,"migraine_risk":7,"frizz_risk":0,"updated_at":"2026-05-05T21:55:49.535009+05:30"},{"city":"Kolhapur","state":"Maharashtra","latitude":16.705,"longitude":74.2433,"temp":24.9,"humidity":82,"rain":0.0,"pressure":948.0,"uv_index":8.95,"wind_gusts":46.8,"aqi":61,"pm10":31.2,"pm2_5":16.2,"no2":9.3,"co":183.0,"o3":59.0,"so2":3.1,"mosquito_risk":3,"arthritis_risk":5,"migraine_risk":7,"frizz_risk":1,"updated_at":"2026-05-05T21:55:49.535016+05:30"},{"city":"Goa","state":"Goa","latitude":15.2993,"longitude":74.124,"temp":29.5,"humidity":75,"rain":0.0,"pressure":998.2,"uv_index":8.9,"wind_gusts":35.6,"aqi":67,"pm10":38.3,"pm2_5":18.3,"no2":4.3,"co":176.0,"o3":56.0,"so2":1.5,"mosquito_risk":7,"arthritis_risk":5,"migraine_risk":7,"frizz_risk":1,"updated_at":"2026-05-05T21:55:49.535023+05:30"},{"city":"Jodhpur","state":"Rajasthan","latitude":26.2389,"longitude":73.0243,"temp":32.7,"humidity":27,"rain":0.0,"pressure":983.7,"uv_index":8.3,"wind_gusts":47.5,"aqi":108,"pm10":247.7,"pm2_5":46.8,"no2":23.0,"co":337.0,"o3":85.0,"so2":6.6,"mosquito_risk":0,"arthritis_risk":5,"migraine_risk":7,"frizz_risk":0,"updated_at":"2026-05-05T21:55:49.535029+05:30"},{"city":"Udaipur","state":"Rajasthan","latitude":24.5854,"longitude":73.7125,"temp":25.5,"humidity":53,"rain":0.0,"pressure":946.7,"uv_index":8.75,"wind_gusts":40.7,"aqi":95,"pm10":97.3,"pm2_5":31.9,"no2":3.5,"co":283.0,"o3":108.0,"so2":5.1,"mosquito_risk":4,"arthritis_risk":5,"migraine_risk":7,"frizz_risk":0,"updated_at":"2026-05-05T21:55:49.535036+05:30"},{"city":"Kota","state":"Rajasthan","latitude":25.2138,"longitude":75.8648,"temp":28.3,"humidity":47,"rain":0.0,"pressure":979.7,"uv_index":8.3,"wind_gusts":28.8,"aqi":107,"pm10":75.9,"pm2_5":32.1,"no2":10.5,"co":376.0,"o3":84.0,"so2":5.4,"mosquito_risk":4,"arthritis_risk":5,"migraine_risk":7,"frizz_risk":0,"updated_at":"2026-05-05T21:55:49.535042+05:30"},{"city":"Bikaner","state":"Rajasthan","latitude":28.0229,"longitude":73.3119,"temp":29.9,"humidity":33,"rain":0.0,"pressure":984.0,"uv_index":8.2,"wind_gusts":30.6,"aqi":124,"pm10":89.6,"pm2_5":33.5,"no2":2.2,"co":346.0,"o3":136.0,"so2":5.7,"mosquito_risk":4,"arthritis_risk":5,"migraine_risk":7,"frizz_risk":0,"updated_at":"2026-05-05T21:55:49.535048+05:30"},{"city":"Ajmer","state":"Rajasthan","latitude":26.4499,"longitude":74.6399,"temp":27.2,"humidity":35,"rain":0.0,"pressure":955.9,"uv_index":8.2,"wind_gusts":37.4,"aqi":98,"pm10":77.3,"pm2_5":30.0,"no2":12.8,"co":283.0,"o3":90.0,"so2":5.6,"mosquito_risk":4,"arthritis_risk":5,"migraine_risk":7,"frizz_risk":0,"updated_at":"2026-05-05T21:55:49.535054+05:30"},{"city":"Gwalior","state":"Madhya Pradesh","latitude":26.2183,"longitude":78.1828,"temp":24.2,"humidity":75,"rain":0.0,"pressure":985.0,"uv_index":8.1,"wind_gusts":42.8,"aqi":112,"pm10":182.5,"pm2_5":49.9,"no2":6.7,"co":472.0,"o3":109.0,"so2":6.2,"mosquito_risk":3,"arthritis_risk":5,"migraine_risk":7,"frizz_risk":1,"updated_at":"2026-05-05T21:55:49.535060+05:30"},{"city":"Indore","state":"Madhya Pradesh","latitude":22.7196,"longitude":75.8577,"temp":29.5,"humidity":33,"rain":0.0,"pressure":948.9,"uv_index":8.6,"wind_gusts":44.3,"aqi":81,"pm10":31.2,"pm2_5":18.6,"no2":8.2,"co":265.0,"o3":95.0,"so2":5.0,"mosquito_risk":4,"arthritis_risk":5,"migraine_risk":7,"frizz_risk":0,"updated_at":"2026-05-05T21:55:49.535066+05:30"},{"city":"Bhopal","state":"Madhya Pradesh","latitude":23.2599,"longitude":77.4126,"temp":28.6,"humidity":41,"rain":0.0,"pressure":954.0,"uv_index":8.65,"wind_gusts":37.8,"aqi":82,"pm10":40.7,"pm2_5":18.6,"no2":4.6,"co":255.0,"o3":102.0,"so2":3.8,"mosquito_risk":4,"arthritis_risk":5,"migraine_risk":7,"frizz_risk":0,"updated_at":"2026-05-05T21:55:49.535072+05:30"},{"city":"Jabalpur","state":"Madhya Pradesh","latitude":23.1815,"longitude":79.9864,"temp":28.3,"humidity":47,"rain":0.0,"pressure":962.5,"uv_index":8.3,"wind_gusts":33.5,"aqi":120,"pm10":44.2,"pm2_5":31.7,"no2":6.1,"co":244.0,"o3":126.0,"so2":7.1,"mosquito_risk":4,"arthritis_risk":5,"migraine_risk":7,"frizz_risk":0,"updated_at":"2026-05-05T21:55:49.535099+05:30"},{"city":"Ujjain","state":"Madhya Pradesh","latitude":23.1765,"longitude":75.7885,"temp":28.7,"humidity":40,"rain":0.0,"pressure":954.4,"uv_index":8.55,"wind_gusts":46.1,"aqi":79,"pm10":40.3,"pm2_5":20.1,"no2":4.4,"co":230.0,"o3":99.0,"so2":4.0,"mosquito_risk":4,"arthritis_risk":5,"migraine_risk":7,"frizz_risk":0,"updated_at":"2026-05-05T21:55:49.535107+05:30"},{"city":"Visakhapatnam","state":"Andhra Pradesh","latitude":17.6868,"longitude":83.2185,"temp":26.9,"humidity":87,"rain":0.0,"pressure":1005.8,"uv_index":9.2,"wind_gusts":37.4,"aqi":79,"pm10":40.3,"pm2_5":31.1,"no2":36.7,"co":376.0,"o3":35.0,"so2":8.7,"mosquito_risk":7,"arthritis_risk":5,"migraine_risk":4,"frizz_risk":1,"updated_at":"2026-05-05T21:55:49.535113+05:30"},{"city":"Vijayawada","state":"Andhra Pradesh","latitude":16.5062,"longitude":80.648,"temp":29.8,"humidity":75,"rain":0.0,"pressure":1003.4,"uv_index":9.2,"wind_gusts":35.3,"aqi":77,"pm10":26.5,"pm2_5":22.5,"no2":8.7,"co":214.0,"o3":68.0,"so2":7.3,"mosquito_risk":7,"arthritis_risk":5,"migraine_risk":4,"frizz_risk":1,"updated_at":"2026-05-05T21:55:49.535119+05:30"},{"city":"Guntur","state":"Andhra Pradesh","latitude":16.3067,"longitude":80.4365,"temp":29.5,"humidity":78,"rain":0.0,"pressure":1004.5,"uv_index":9.2,"wind_gusts":37.8,"aqi":81,"pm10":33.8,"pm2_5":28.3,"no2":7.8,"co":211.0,"o3":80.0,"so2":7.7,"mosquito_risk":7,"arthritis_risk":5,"migraine_risk":4,"frizz_risk":1,"updated_at":"2026-05-05T21:55:49.535125+05:30"},{"city":"Nellore","state":"Andhra Pradesh","latitude":14.4426,"longitude":79.9865,"temp":28.5,"humidity":88,"rain":0.0,"pressure":1006.6,"uv_index":9.0,"wind_gusts":39.6,"aqi":80,"pm10":22.8,"pm2_5":16.6,"no2":5.1,"co":199.0,"o3":78.0,"so2":5.7,"mosquito_risk":7,"arthritis_risk":5,"migraine_risk":4,"frizz_risk":1,"updated_at":"2026-05-05T21:55:49.535132+05:30"},{"city":"Kurnool","state":"Andhra Pradesh","latitude":15.8281,"longitude":78.0373,"temp":30.9,"humidity":45,"rain":0.0,"pressure":976.2,"uv_index":9.2,"wind_gusts":45.0,"aqi":122,"pm10":48.9,"pm2_5":29.1,"no2":12.8,"co":240.0,"o3":101.0,"so2":7.3,"mosquito_risk":0,"arthritis_risk":5,"migraine_risk":7,"frizz_risk":1,"updated_at":"2026-05-05T21:55:49.535138+05:30"},{"city":"Kakinada","state":"Andhra Pradesh","latitude":16.9891,"longitude":82.2475,"temp":27.8,"humidity":89,"rain":0.0,"pressure":1009.1,"uv_index":9.15,"wind_gusts":29.9,"aqi":63,"pm10":25.6,"pm2_5":16.9,"no2":3.3,"co":286.0,"o3":68.0,"so2":1.4,"mosquito_risk":7,"arthritis_risk":0,"migraine_risk":4,"frizz_risk":1,"updated_at":"2026-05-05T21:55:49.535144+05:30"},{"city":"Tirupati","state":"Andhra Pradesh","latitude":13.6288,"longitude":79.4192,"temp":30.1,"humidity":60,"rain":0.0,"pressure":991.8,"uv_index":8.8,"wind_gusts":29.9,"aqi":123,"pm10":63.1,"pm2_5":53.0,"no2":28.4,"co":296.0,"o3":67.0,"so2":12.7,"mosquito_risk":0,"arthritis_risk":5,"migraine_risk":7,"frizz_risk":1,"updated_at":"2026-05-05T21:55:49.535150+05:30"},{"city":"Warangal","state":"Telangana","latitude":17.9689,"longitude":79.5941,"temp":30.0,"humidity":54,"rain":0.0,"pressure":978.7,"uv_index":9.15,"wind_gusts":47.9,"aqi":103,"pm10":41.9,"pm2_5":34.7,"no2":9.4,"co":293.0,"o3":108.0,"so2":9.9,"mosquito_risk":4,"arthritis_risk":5,"migraine_risk":7,"frizz_risk":1,"updated_at":"2026-05-05T21:55:49.535156+05:30"},{"city":"Nizamabad","state":"Telangana","latitude":18.6725,"longitude":78.0941,"temp":33.2,"humidity":26,"rain":0.0,"pressure":964.1,"uv_index":9.1,"wind_gusts":32.8,"aqi":91,"pm10":70.3,"pm2_5":36.9,"no2":21.2,"co":333.0,"o3":80.0,"so2":8.0,"mosquito_risk":0,"arthritis_risk":5,"migraine_risk":7,"frizz_risk":0,"updated_at":"2026-05-05T21:55:49.535162+05:30"},{"city":"Mysore","state":"Karnataka","latitude":12.2958,"longitude":76.6396,"temp":24.4,"humidity":73,"rain":0.0,"pressure":928.8,"uv_index":9.35,"wind_gusts":29.5,"aqi":80,"pm10":51.9,"pm2_5":34.1,"no2":44.8,"co":235.0,"o3":60.0,"so2":7.6,"mosquito_risk":3,"arthritis_risk":5,"migraine_risk":7,"frizz_risk":1,"updated_at":"2026-05-05T21:55:49.535168+05:30"},{"city":"Mangalore","state":"Karnataka","latitude":12.9141,"longitude":74.856,"temp":29.5,"humidity":75,"rain":0.0,"pressure":1006.9,"uv_index":8.85,"wind_gusts":48.2,"aqi":64,"pm10":33.4,"pm2_5":15.7,"no2":3.1,"co":161.0,"o3":58.0,"so2":1.3,"mosquito_risk":7,"arthritis_risk":5,"migraine_risk":4,"frizz_risk":1,"updated_at":"2026-05-05T21:55:49.535174+05:30"},{"city":"Hubli-Dharwad","state":"Karnataka","latitude":15.3647,"longitude":75.124,"temp":25.8,"humidity":76,"rain":0.0,"pressure":940.6,"uv_index":9.2,"wind_gusts":52.9,"aqi":59,"pm10":23.1,"pm2_5":13.6,"no2":7.6,"co":197.0,"o3":63.0,"so2":2.4,"mosquito_risk":7,"arthritis_risk":5,"migraine_risk":7,"frizz_risk":1,"updated_at":"2026-05-05T21:55:49.535180+05:30"},{"city":"Belgaum","state":"Karnataka","latitude":15.8497,"longitude":74.4977,"temp":23.6,"humidity":88,"rain":0.0,"pressure":926.0,"uv_index":9.2,"wind_gusts":55.1,"aqi":60,"pm10":29.2,"pm2_5":15.7,"no2":9.6,"co":187.0,"o3":48.0,"so2":2.4,"mosquito_risk":3,"arthritis_risk":5,"migraine_risk":7,"frizz_risk":1,"updated_at":"2026-05-05T21:55:52.780517+05:30"},{"city":"Coimbatore","state":"Tamil Nadu","latitude":11.0168,"longitude":76.9558,"temp":24.1,"humidity":97,"rain":0.0,"pressure":962.3,"uv_index":9.0,"wind_gusts":39.2,"aqi":63,"pm10":32.5,"pm2_5":22.1,"no2":15.9,"co":284.0,"o3":67.0,"so2":5.5,"mosquito_risk":3,"arthritis_risk":5,"migraine_risk":7,"frizz_risk":1,"updated_at":"2026-05-05T21:55:52.780545+05:30"},{"city":"Madurai","state":"Tamil Nadu","latitude":9.9252,"longitude":78.1198,"temp":27.0,"humidity":89,"rain":0.0,"pressure":993.6,"uv_index":5.7,"wind_gusts":50.8,"aqi":110,"pm10":43.8,"pm2_5":29.8,"no2":14.6,"co":317.0,"o3":94.0,"so2":5.6,"mosquito_risk":7,"arthritis_risk":5,"migraine_risk":3,"frizz_risk":1,"updated_at":"2026-05-05T21:55:52.780555+05:30"},{"city":"Trichy","state":"Tamil Nadu","latitude":10.7905,"longitude":78.7047,"temp":27.4,"humidity":76,"rain":0.0,"pressure":1000.5,"uv_index":8.75,"wind_gusts":34.6,"aqi":122,"pm10":51.0,"pm2_5":39.0,"no2":20.0,"co":292.0,"o3":90.0,"so2":6.6,"mosquito_risk":7,"arthritis_risk":5,"migraine_risk":4,"frizz_risk":1,"updated_at":"2026-05-05T21:55:52.780563+05:30"},{"city":"Salem","state":"Tamil Nadu","latitude":11.6643,"longitude":78.146,"temp":25.6,"humidity":77,"rain":0.1,"pressure":978.2,"uv_index":9.2,"wind_gusts":39.6,"aqi":135,"pm10":69.4,"pm2_5":44.4,"no2":18.3,"co":326.0,"o3":96.0,"so2":10.1,"mosquito_risk":10,"arthritis_risk":5,"migraine_risk":7,"frizz_risk":1,"updated_at":"2026-05-05T21:55:52.780571+05:30"},{"city":"Tirunelveli","state":"Tamil Nadu","latitude":8.7139,"longitude":77.7567,"temp":29.0,"humidity":68,"rain":0.0,"pressure":1003.5,"uv_index":8.75,"wind_gusts":46.4,"aqi":75,"pm10":41.9,"pm2_5":25.4,"no2":12.1,"co":381.0,"o3":78.0,"so2":6.8,"mosquito_risk":7,"arthritis_risk":5,"migraine_risk":4,"frizz_risk":1,"updated_at":"2026-05-05T21:55:52.780578+05:30"},{"city":"Vellore","state":"Tamil Nadu","latitude":12.9165,"longitude":79.1325,"temp":28.2,"humidity":74,"rain":0.0,"pressure":985.1,"uv_index":9.05,"wind_gusts":37.8,"aqi":133,"pm10":52.2,"pm2_5":44.2,"no2":17.8,"co":290.0,"o3":79.0,"so2":9.0,"mosquito_risk":7,"arthritis_risk":5,"migraine_risk":7,"frizz_risk":1,"updated_at":"2026-05-05T21:55:52.780585+05:30"},{"city":"Erode","state":"Tamil Nadu","latitude":11.341,"longitude":77.7172,"temp":27.9,"humidity":69,"rain":0.0,"pressure":989.8,"uv_index":9.0,"wind_gusts":37.8,"aqi":126,"pm10":45.5,"pm2_5":26.3,"no2":14.5,"co":309.0,"o3":97.0,"so2":3.1,"mosquito_risk":7,"arthritis_risk":5,"migraine_risk":7,"frizz_risk":1,"updated_at":"2026-05-05T21:55:52.780592+05:30"},{"city":"Kochi","state":"Kerala","latitude":9.9312,"longitude":76.2673,"temp":26.6,"humidity":92,"rain":0.0,"pressure":1009.4,"uv_index":2.85,"wind_gusts":27.0,"aqi":58,"pm10":42.6,"pm2_5":31.9,"no2":35.4,"co":323.0,"o3":25.0,"so2":7.2,"mosquito_risk":7,"arthritis_risk":0,"migraine_risk":0,"frizz_risk":1,"updated_at":"2026-05-05T21:55:52.780599+05:30"},{"city":"Thiruvananthapuram","state":"Kerala","latitude":8.5241,"longitude":76.9366,"temp":25.7,"humidity":91,"rain":0.0,"pressure":1008.8,"uv_index":8.4,"wind_gusts":29.9,"aqi":61,"pm10":24.8,"pm2_5":11.4,"no2":3.6,"co":382.0,"o3":92.0,"so2":2.0,"mosquito_risk":7,"arthritis_risk":0,"migraine_risk":4,"frizz_risk":1,"updated_at":"2026-05-05T21:55:52.780605+05:30"},{"city":"Kozhikode","state":"Kerala","latitude":11.2588,"longitude":75.7804,"temp":26.8,"humidity":89,"rain":0.0,"pressure":1008.4,"uv_index":8.7,"wind_gusts":35.6,"aqi":57,"pm10":38.0,"pm2_5":17.2,"no2":3.6,"co":488.0,"o3":67.0,"so2":2.2,"mosquito_risk":7,"arthritis_risk":0,"migraine_risk":4,"frizz_risk":1,"updated_at":"2026-05-05T21:55:52.780611+05:30"},{"city":"Thrissur","state":"Kerala","latitude":10.5276,"longitude":76.2144,"temp":25.3,"humidity":99,"rain":0.0,"pressure":1007.7,"uv_index":2.75,"wind_gusts":27.4,"aqi":55,"pm10":52.4,"pm2_5":39.5,"no2":30.6,"co":437.0,"o3":32.0,"so2":5.8,"mosquito_risk":7,"arthritis_risk":5,"migraine_risk":0,"frizz_risk":1,"updated_at":"2026-05-05T21:55:52.780618+05:30"},{"city":"Kannur","state":"Kerala","latitude":11.8745,"longitude":75.3704,"temp":29.2,"humidity":74,"rain":0.0,"pressure":1007.4,"uv_index":8.9,"wind_gusts":43.9,"aqi":64,"pm10":42.0,"pm2_5":20.0,"no2":7.6,"co":209.0,"o3":49.0,"so2":1.8,"mosquito_risk":7,"arthritis_risk":5,"migraine_risk":4,"frizz_risk":1,"updated_at":"2026-05-05T21:55:52.780625+05:30"},{"city":"Patna","state":"Bihar","latitude":25.5941,"longitude":85.1376,"temp":26.0,"humidity":76,"rain":0.0,"pressure":1001.9,"uv_index":8.7,"wind_gusts":29.2,"aqi":161,"pm10":100.1,"pm2_5":82.2,"no2":42.7,"co":776.0,"o3":85.0,"so2":25.4,"mosquito_risk":7,"arthritis_risk":5,"migraine_risk":4,"frizz_risk":1,"updated_at":"2026-05-05T21:55:52.780631+05:30"},{"city":"Gaya","state":"Bihar","latitude":24.7914,"longitude":85.0002,"temp":26.2,"humidity":69,"rain":0.0,"pressure":995.7,"uv_index":8.75,"wind_gusts":31.7,"aqi":155,"pm10":54.4,"pm2_5":41.9,"no2":11.9,"co":554.0,"o3":119.0,"so2":12.4,"mosquito_risk":7,"arthritis_risk":5,"migraine_risk":7,"frizz_risk":1,"updated_at":"2026-05-05T21:55:52.780638+05:30"},{"city":"Muzaffarpur","state":"Bihar","latitude":26.1209,"longitude":85.3647,"temp":24.6,"humidity":79,"rain":0.0,"pressure":1001.8,"uv_index":8.5,"wind_gusts":30.6,"aqi":141,"pm10":115.3,"pm2_5":98.0,"no2":49.2,"co":832.0,"o3":75.0,"so2":27.7,"mosquito_risk":3,"arthritis_risk":5,"migraine_risk":4,"frizz_risk":1,"updated_at":"2026-05-05T21:55:52.780644+05:30"},{"city":"Bhagalpur","state":"Bihar","latitude":25.2425,"longitude":87.0117,"temp":26.1,"humidity":78,"rain":0.0,"pressure":1002.9,"uv_index":8.6,"wind_gusts":25.9,"aqi":160,"pm10":56.6,"pm2_5":49.4,"no2":17.9,"co":378.0,"o3":103.0,"so2":12.8,"mosquito_risk":7,"arthritis_risk":5,"migraine_risk":4,"frizz_risk":1,"updated_at":"2026-05-05T21:55:52.780650+05:30"},{"city":"Ranchi","state":"Jharkhand","latitude":23.3441,"longitude":85.3096,"temp":21.3,"humidity":80,"rain":0.0,"pressure":939.8,"uv_index":9.2,"wind_gusts":31.7,"aqi":136,"pm10":57.3,"pm2_5":39.9,"no2":6.5,"co":314.0,"o3":130.0,"so2":7.9,"mosquito_risk":3,"arthritis_risk":5,"migraine_risk":7,"frizz_risk":1,"updated_at":"2026-05-05T21:55:52.780656+05:30"},{"city":"Jamshedpur","state":"Jharkhand","latitude":22.8046,"longitude":86.2029,"temp":25.3,"humidity":77,"rain":0.0,"pressure":993.5,"uv_index":8.95,"wind_gusts":29.5,"aqi":143,"pm10":43.3,"pm2_5":37.1,"no2":16.5,"co":636.0,"o3":103.0,"so2":24.9,"mosquito_risk":7,"arthritis_risk":5,"migraine_risk":7,"frizz_risk":1,"updated_at":"2026-05-05T21:55:52.780662+05:30"},{"city":"Dhanbad","state":"Jharkhand","latitude":23.7957,"longitude":86.4304,"temp":25.1,"humidity":84,"rain":0.0,"pressure":981.9,"uv_index":8.8,"wind_gusts":28.8,"aqi":156,"pm10":81.7,"pm2_5":74.0,"no2":48.7,"co":1051.0,"o3":89.0,"so2":64.7,"mosquito_risk":7,"arthritis_risk":5,"migraine_risk":7,"frizz_risk":1,"updated_at":"2026-05-05T21:55:52.780668+05:30"},{"city":"Bokaro","state":"Jharkhand","latitude":23.6693,"longitude":86.1511,"temp":25.9,"humidity":78,"rain":0.0,"pressure":985.7,"uv_index":9.0,"wind_gusts":28.4,"aqi":196,"pm10":77.5,"pm2_5":66.4,"no2":33.9,"co":1756.0,"o3":116.0,"so2":42.8,"mosquito_risk":7,"arthritis_risk":5,"migraine_risk":7,"frizz_risk":1,"updated_at":"2026-05-05T21:55:52.780674+05:30"},{"city":"Bhubaneswar","state":"Odisha","latitude":20.2961,"longitude":85.8245,"temp":24.3,"humidity":93,"rain":0.0,"pressure":1004.9,"uv_index":9.1,"wind_gusts":33.8,"aqi":41,"pm10":15.4,"pm2_5":12.5,"no2":8.6,"co":381.0,"o3":44.0,"so2":3.4,"mosquito_risk":3,"arthritis_risk":5,"migraine_risk":4,"frizz_risk":1,"updated_at":"2026-05-05T21:55:52.780681+05:30"},{"city":"Cuttack","state":"Odisha","latitude":20.4625,"longitude":85.8828,"temp":24.8,"humidity":92,"rain":0.0,"pressure":1006.8,"uv_index":9.15,"wind_gusts":29.5,"aqi":41,"pm10":15.4,"pm2_5":12.5,"no2":8.6,"co":226.0,"o3":44.0,"so2":3.4,"mosquito_risk":3,"arthritis_risk":5,"migraine_risk":4,"frizz_risk":1,"updated_at":"2026-05-05T21:55:52.780688+05:30"},{"city":"Rourkela","state":"Odisha","latitude":22.2604,"longitude":84.8536,"temp":23.1,"humidity":81,"rain":0.0,"pressure":989.2,"uv_index":8.95,"wind_gusts":42.5,"aqi":140,"pm10":51.1,"pm2_5":38.0,"no2":9.6,"co":735.0,"o3":129.0,"so2":34.0,"mosquito_risk":3,"arthritis_risk":5,"migraine_risk":7,"frizz_risk":1,"updated_at":"2026-05-05T21:55:52.780694+05:30"},{"city":"Raipur","state":"Chhattisgarh","latitude":21.2514,"longitude":81.6296,"temp":28.4,"humidity":54,"rain":0.0,"pressure":975.2,"uv_index":8.95,"wind_gusts":50.4,"aqi":123,"pm10":51.7,"pm2_5":39.7,"no2":25.6,"co":293.0,"o3":78.0,"so2":8.7,"mosquito_risk":4,"arthritis_risk":5,"migraine_risk":7,"frizz_risk":1,"updated_at":"2026-05-05T21:55:52.780701+05:30"},{"city":"Bhilai","state":"Chhattisgarh","latitude":21.1938,"longitude":81.3509,"temp":28.0,"humidity":55,"rain":0.0,"pressure":975.3,"uv_index":8.95,"wind_gusts":43.9,"aqi":113,"pm10":58.8,"pm2_5":46.6,"no2":39.3,"co":331.0,"o3":60.0,"so2":10.0,"mosquito_risk":4,"arthritis_risk":5,"migraine_risk":7,"frizz_risk":1,"updated_at":"2026-05-05T21:55:52.780707+05:30"},{"city":"Guwahati","state":"Assam","latitude":26.1158,"longitude":91.7086,"temp":23.5,"humidity":83,"rain":0.0,"pressure":1003.3,"uv_index":8.65,"wind_gusts":28.1,"aqi":72,"pm10":33.4,"pm2_5":28.3,"no2":10.7,"co":343.0,"o3":58.0,"so2":2.0,"mosquito_risk":3,"arthritis_risk":5,"migraine_risk":4,"frizz_risk":1,"updated_at":"2026-05-05T21:55:52.780713+05:30"},{"city":"Agartala","state":"Tripura","latitude":23.8315,"longitude":91.2868,"temp":24.3,"humidity":93,"rain":0.0,"pressure":1008.8,"uv_index":8.75,"wind_gusts":23.0,"aqi":118,"pm10":42.4,"pm2_5":38.9,"no2":22.5,"co":393.0,"o3":47.0,"so2":5.1,"mosquito_risk":3,"arthritis_risk":0,"migraine_risk":4,"frizz_risk":1,"updated_at":"2026-05-05T21:55:52.780720+05:30"},{"city":"Shillong","state":"Meghalaya","latitude":25.5788,"longitude":91.8933,"temp":14.6,"humidity":98,"rain":0.0,"pressure":857.1,"uv_index":8.6,"wind_gusts":29.9,"aqi":62,"pm10":28.8,"pm2_5":24.1,"no2":13.3,"co":521.0,"o3":66.0,"so2":2.0,"mosquito_risk":3,"arthritis_risk":10,"migraine_risk":7,"frizz_risk":0,"updated_at":"2026-05-05T21:55:52.780726+05:30"},{"city":"Imphal","state":"Manipur","latitude":24.817,"longitude":93.9368,"temp":20.6,"humidity":89,"rain":0.0,"pressure":924.5,"uv_index":9.2,"wind_gusts":25.9,"aqi":93,"pm10":41.4,"pm2_5":32.8,"no2":16.4,"co":601.0,"o3":49.0,"so2":4.0,"mosquito_risk":3,"arthritis_risk":5,"migraine_risk":7,"frizz_risk":1,"updated_at":"2026-05-05T21:55:52.780733+05:30"},{"city":"Aizawl","state":"Mizoram","latitude":23.7271,"longitude":92.7176,"temp":18.9,"humidity":83,"rain":0.0,"pressure":894.1,"uv_index":9.05,"wind_gusts":33.8,"aqi":70,"pm10":23.5,"pm2_5":18.3,"no2":10.7,"co":271.0,"o3":39.0,"so2":0.8,"mosquito_risk":3,"arthritis_risk":10,"migraine_risk":7,"frizz_risk":0,"updated_at":"2026-05-05T21:55:52.780739+05:30"},{"city":"Kohima","state":"Nagaland","latitude":25.6701,"longitude":94.1077,"temp":15.9,"humidity":97,"rain":0.0,"pressure":855.8,"uv_index":9.15,"wind_gusts":30.6,"aqi":64,"pm10":43.1,"pm2_5":26.5,"no2":14.4,"co":422.0,"o3":67.0,"so2":2.4,"mosquito_risk":3,"arthritis_risk":10,"migraine_risk":7,"frizz_risk":0,"updated_at":"2026-05-05T21:55:52.780746+05:30"},{"city":"Gangtok","state":"Sikkim","latitude":27.3314,"longitude":88.6138,"temp":12.4,"humidity":99,"rain":0.0,"pressure":837.1,"uv_index":9.0,"wind_gusts":33.5,"aqi":64,"pm10":21.5,"pm2_5":18.1,"no2":19.4,"co":421.0,"o3":76.0,"so2":1.4,"mosquito_risk":3,"arthritis_risk":10,"migraine_risk":7,"frizz_risk":0,"updated_at":"2026-05-05T21:55:52.780752+05:30"},{"city":"Siliguri","state":"West Bengal","latitude":26.7271,"longitude":88.3953,"temp":24.3,"humidity":76,"rain":0.0,"pressure":995.0,"uv_index":8.6,"wind_gusts":29.5,"aqi":74,"pm10":47.6,"pm2_5":39.3,"no2":24.2,"co":1492.0,"o3":86.0,"so2":5.3,"mosquito_risk":3,"arthritis_risk":5,"migraine_risk":7,"frizz_risk":1,"updated_at":"2026-05-05T21:55:56.035276+05:30"},{"city":"Durgapur","state":"West Bengal","latitude":23.5204,"longitude":87.3119,"temp":24.7,"humidity":88,"rain":0.0,"pressure":997.0,"uv_index":7.65,"wind_gusts":28.1,"aqi":123,"pm10":46.0,"pm2_5":43.7,"no2":30.2,"co":957.0,"o3":76.0,"so2":41.9,"mosquito_risk":3,"arthritis_risk":5,"migraine_risk":7,"frizz_risk":1,"updated_at":"2026-05-05T21:55:56.035300+05:30"},{"city":"Asansol","state":"West Bengal","latitude":23.6739,"longitude":86.9524,"temp":24.8,"humidity":85,"rain":0.0,"pressure":995.6,"uv_index":8.5,"wind_gusts":32.0,"aqi":124,"pm10":50.9,"pm2_5":46.9,"no2":34.8,"co":461.0,"o3":74.0,"so2":52.6,"mosquito_risk":3,"arthritis_risk":5,"migraine_risk":7,"frizz_risk":1,"updated_at":"2026-05-05T21:55:56.035310+05:30"},{"city":"Pondicherry","state":"Puducherry","latitude":11.9139,"longitude":79.8145,"temp":28.4,"humidity":84,"rain":0.0,"pressure":1009.0,"uv_index":8.9,"wind_gusts":46.8,"aqi":72,"pm10":23.6,"pm2_5":14.1,"no2":2.0,"co":199.0,"o3":78.0,"so2":0.4,"mosquito_risk":7,"arthritis_risk":0,"migraine_risk":4,"frizz_risk":1,"updated_at":"2026-05-05T21:55:56.035317+05:30"},{"city":"Port Blair","state":"Andaman and Nicobar Islands","latitude":11.6234,"longitude":92.7265,"temp":26.9,"humidity":89,"rain":0.0,"pressure":1008.4,"uv_index":8.4,"wind_gusts":38.9,"aqi":29,"pm10":5.5,"pm2_5":4.8,"no2":0.9,"co":386.0,"o3":60.0,"so2":1.7,"mosquito_risk":7,"arthritis_risk":0,"migraine_risk":4,"frizz_risk":1,"updated_at":"2026-05-05T21:55:56.035324+05:30"},{"city":"Haridwar","state":"Uttarakhand","latitude":29.9457,"longitude":78.1642,"temp":20.1,"humidity":81,"rain":0.0,"pressure":976.1,"uv_index":5.9,"wind_gusts":35.3,"aqi":108,"pm10":59.3,"pm2_5":30.0,"no2":9.8,"co":380.0,"o3":103.0,"so2":5.3,"mosquito_risk":3,"arthritis_risk":5,"migraine_risk":3,"frizz_risk":1,"updated_at":"2026-05-05T21:55:56.035330+05:30"},{"city":"Rishikesh","state":"Uttarakhand","latitude":30.0869,"longitude":78.2676,"temp":17.6,"humidity":85,"rain":0.0,"pressure":968.4,"uv_index":6.15,"wind_gusts":33.1,"aqi":90,"pm10":53.1,"pm2_5":23.3,"no2":10.3,"co":391.0,"o3":90.0,"so2":2.1,"mosquito_risk":3,"arthritis_risk":10,"migraine_risk":7,"frizz_risk":0,"updated_at":"2026-05-05T21:55:56.035337+05:30"},{"city":"Nainital","state":"Uttarakhand","latitude":29.3919,"longitude":79.4542,"temp":9.1,"humidity":88,"rain":0.0,"pressure":803.4,"uv_index":6.55,"wind_gusts":32.4,"aqi":101,"pm10":56.5,"pm2_5":33.5,"no2":19.3,"co":305.0,"o3":84.0,"so2":5.5,"mosquito_risk":3,"arthritis_risk":10,"migraine_risk":7,"frizz_risk":0,"updated_at":"2026-05-05T21:55:56.035343+05:30"},{"city":"Mussoorie","state":"Uttarakhand","latitude":30.4599,"longitude":78.0664,"temp":8.3,"humidity":88,"rain":0.0,"pressure":800.3,"uv_index":7.35,"wind_gusts":37.1,"aqi":106,"pm10":73.3,"pm2_5":25.4,"no2":15.9,"co":320.0,"o3":103.0,"so2":7.5,"mosquito_risk":3,"arthritis_risk":10,"migraine_risk":7,"frizz_risk":0,"updated_at":"2026-05-05T21:55:56.035349+05:30"},{"city":"Dharamshala","state":"Himachal Pradesh","latitude":32.219,"longitude":76.3234,"temp":15.3,"humidity":60,"rain":0.0,"pressure":869.1,"uv_index":7.5,"wind_gusts":45.0,"aqi":107,"pm10":44.4,"pm2_5":16.4,"no2":13.1,"co":263.0,"o3":100.0,"so2":1.3,"mosquito_risk":0,"arthritis_risk":5,"migraine_risk":7,"frizz_risk":0,"updated_at":"2026-05-05T21:55:56.035355+05:30"},{"city":"Dalhousie","state":"Himachal Pradesh","latitude":32.5387,"longitude":75.971,"temp":9.4,"humidity":75,"rain":0.0,"pressure":802.6,"uv_index":6.15,"wind_gusts":41.4,"aqi":109,"pm10":61.2,"pm2_5":28.8,"no2":37.6,"co":591.0,"o3":86.0,"so2":3.6,"mosquito_risk":3,"arthritis_risk":5,"migraine_risk":7,"frizz_risk":0,"updated_at":"2026-05-05T21:55:56.035362+05:30"},{"city":"Patiala","state":"Punjab","latitude":30.3398,"longitude":76.3869,"temp":23.5,"humidity":64,"rain":0.0,"pressure":980.8,"uv_index":6.95,"wind_gusts":66.6,"aqi":402,"pm10":168.1,"pm2_5":45.5,"no2":14.5,"co":375.0,"o3":99.0,"so2":8.7,"mosquito_risk":3,"arthritis_risk":5,"migraine_risk":7,"frizz_risk":1,"updated_at":"2026-05-05T21:55:56.035368+05:30"},{"city":"Bhatinda","state":"Punjab","latitude":30.211,"longitude":74.9455,"temp":25.9,"humidity":45,"rain":0.0,"pressure":986.1,"uv_index":8.1,"wind_gusts":37.4,"aqi":278,"pm10":159.7,"pm2_5":51.0,"no2":9.2,"co":355.0,"o3":113.0,"so2":9.0,"mosquito_risk":4,"arthritis_risk":5,"migraine_risk":7,"frizz_risk":0,"updated_at":"2026-05-05T21:55:56.035374+05:30"},{"city":"Rohtak","state":"Haryana","latitude":28.8955,"longitude":76.6066,"temp":23.6,"humidity":68,"rain":0.0,"pressure":983.9,"uv_index":7.55,"wind_gusts":37.1,"aqi":183,"pm10":420.0,"pm2_5":85.0,"no2":29.7,"co":481.0,"o3":122.0,"so2":36.5,"mosquito_risk":3,"arthritis_risk":5,"migraine_risk":7,"frizz_risk":1,"updated_at":"2026-05-05T21:55:56.035380+05:30"},{"city":"Panipat","state":"Haryana","latitude":29.3909,"longitude":76.9635,"temp":21.8,"humidity":82,"rain":0.0,"pressure":982.7,"uv_index":6.65,"wind_gusts":42.8,"aqi":635,"pm10":1244.2,"pm2_5":144.4,"no2":14.6,"co":469.0,"o3":115.0,"so2":15.5,"mosquito_risk":3,"arthritis_risk":5,"migraine_risk":7,"frizz_risk":1,"updated_at":"2026-05-05T21:55:56.035386+05:30"},{"city":"Mathura","state":"Uttar Pradesh","latitude":27.4924,"longitude":77.6737,"temp":24.4,"humidity":68,"rain":0.0,"pressure":988.7,"uv_index":7.6,"wind_gusts":33.8,"aqi":197,"pm10":159.3,"pm2_5":55.4,"no2":20.6,"co":457.0,"o3":91.0,"so2":12.0,"mosquito_risk":3,"arthritis_risk":5,"migraine_risk":7,"frizz_risk":1,"updated_at":"2026-05-05T21:55:56.035392+05:30"},{"city":"Vrindavan","state":"Uttar Pradesh","latitude":27.5823,"longitude":77.7027,"temp":24.8,"humidity":66,"rain":0.0,"pressure":989.2,"uv_index":7.45,"wind_gusts":32.8,"aqi":197,"pm10":159.3,"pm2_5":55.4,"no2":20.6,"co":447.0,"o3":91.0,"so2":12.0,"mosquito_risk":3,"arthritis_risk":5,"migraine_risk":7,"frizz_risk":1,"updated_at":"2026-05-05T21:55:56.035398+05:30"},{"city":"Ayodhya","state":"Uttar Pradesh","latitude":26.7922,"longitude":82.1998,"temp":23.0,"humidity":87,"rain":0.0,"pressure":997.2,"uv_index":4.65,"wind_gusts":23.4,"aqi":106,"pm10":44.4,"pm2_5":37.7,"no2":18.0,"co":669.0,"o3":86.0,"so2":8.1,"mosquito_risk":3,"arthritis_risk":5,"migraine_risk":3,"frizz_risk":1,"updated_at":"2026-05-05T21:55:56.035404+05:30"},{"city":"Ratlam","state":"Madhya Pradesh","latitude":23.3315,"longitude":75.0367,"temp":27.2,"humidity":49,"rain":0.0,"pressure":955.1,"uv_index":8.45,"wind_gusts":47.2,"aqi":81,"pm10":46.1,"pm2_5":20.5,"no2":2.5,"co":212.0,"o3":107.0,"so2":3.6,"mosquito_risk":4,"arthritis_risk":5,"migraine_risk":7,"frizz_risk":0,"updated_at":"2026-05-05T21:55:56.035410+05:30"},{"city":"Sagar","state":"Madhya Pradesh","latitude":23.8388,"longitude":78.7378,"temp":26.6,"humidity":50,"rain":0.0,"pressure":951.3,"uv_index":8.65,"wind_gusts":42.1,"aqi":111,"pm10":57.7,"pm2_5":40.6,"no2":2.8,"co":277.0,"o3":141.0,"so2":7.9,"mosquito_risk":4,"arthritis_risk":5,"migraine_risk":7,"frizz_risk":0,"updated_at":"2026-05-05T21:55:56.035416+05:30"},{"city":"Satna","state":"Madhya Pradesh","latitude":24.6005,"longitude":80.8322,"temp":25.5,"humidity":69,"rain":0.0,"pressure":972.8,"uv_index":8.7,"wind_gusts":39.2,"aqi":156,"pm10":50.4,"pm2_5":38.9,"no2":8.3,"co":361.0,"o3":120.0,"so2":9.1,"mosquito_risk":7,"arthritis_risk":5,"migraine_risk":7,"frizz_risk":1,"updated_at":"2026-05-05T21:55:56.035422+05:30"},{"city":"Akola","state":"Maharashtra","latitude":20.7002,"longitude":77.0082,"temp":33.0,"humidity":28,"rain":0.0,"pressure":974.5,"uv_index":8.9,"wind_gusts":38.5,"aqi":84,"pm10":34.7,"pm2_5":18.3,"no2":7.9,"co":202.0,"o3":93.0,"so2":8.9,"mosquito_risk":0,"arthritis_risk":5,"migraine_risk":7,"frizz_risk":0,"updated_at":"2026-05-05T21:55:56.035429+05:30"},{"city":"Amravati","state":"Maharashtra","latitude":20.9374,"longitude":77.7796,"temp":32.6,"humidity":25,"rain":0.0,"pressure":967.0,"uv_index":8.85,"wind_gusts":38.2,"aqi":87,"pm10":36.0,"pm2_5":19.4,"no2":10.9,"co":207.0,"o3":89.0,"so2":8.6,"mosquito_risk":0,"arthritis_risk":5,"migraine_risk":7,"frizz_risk":0,"updated_at":"2026-05-05T21:55:56.035436+05:30"},{"city":"Latur","state":"Maharashtra","latitude":18.4088,"longitude":76.5604,"temp":31.1,"humidity":23,"rain":0.0,"pressure":939.0,"uv_index":9.05,"wind_gusts":38.5,"aqi":74,"pm10":51.7,"pm2_5":25.0,"no2":15.3,"co":314.0,"o3":79.0,"so2":11.5,"mosquito_risk":0,"arthritis_risk":5,"migraine_risk":7,"frizz_risk":0,"updated_at":"2026-05-05T21:55:56.035442+05:30"},{"city":"Nanded","state":"Maharashtra","latitude":19.1383,"longitude":77.3091,"temp":33.3,"humidity":24,"rain":0.0,"pressure":967.6,"uv_index":8.95,"wind_gusts":33.1,"aqi":68,"pm10":74.7,"pm2_5":36.6,"no2":27.1,"co":606.0,"o3":60.0,"so2":6.1,"mosquito_risk":0,"arthritis_risk":5,"migraine_risk":7,"frizz_risk":0,"updated_at":"2026-05-05T21:55:56.035448+05:30"},{"city":"Gulbarga","state":"Karnataka","latitude":17.3297,"longitude":76.8343,"temp":33.5,"humidity":21,"rain":0.0,"pressure":957.7,"uv_index":9.1,"wind_gusts":36.7,"aqi":91,"pm10":39.1,"pm2_5":20.8,"no2":20.7,"co":251.0,"o3":81.0,"so2":7.5,"mosquito_risk":0,"arthritis_risk":5,"migraine_risk":7,"frizz_risk":0,"updated_at":"2026-05-05T21:55:56.035454+05:30"},{"city":"Bidar","state":"Karnataka","latitude":17.9104,"longitude":77.5199,"temp":31.2,"humidity":25,"rain":0.0,"pressure":935.2,"uv_index":9.15,"wind_gusts":32.4,"aqi":88,"pm10":68.7,"pm2_5":41.1,"no2":31.2,"co":310.0,"o3":77.0,"so2":7.6,"mosquito_risk":0,"arthritis_risk":5,"migraine_risk":7,"frizz_risk":0,"updated_at":"2026-05-05T21:55:56.035460+05:30"},{"city":"Hospet","state":"Karnataka","latitude":15.2689,"longitude":76.3909,"temp":29.4,"humidity":33,"rain":0.0,"pressure":954.2,"uv_index":9.25,"wind_gusts":28.4,"aqi":70,"pm10":79.9,"pm2_5":45.2,"no2":45.0,"co":511.0,"o3":54.0,"so2":8.1,"mosquito_risk":4,"arthritis_risk":5,"migraine_risk":7,"frizz_risk":0,"updated_at":"2026-05-05T21:55:56.035466+05:30"},{"city":"Tirupur","state":"Tamil Nadu","latitude":11.1085,"longitude":77.3411,"temp":25.9,"humidity":83,"rain":0.0,"pressure":975.6,"uv_index":9.3,"wind_gusts":55.4,"aqi":100,"pm10":36.8,"pm2_5":26.1,"no2":20.5,"co":297.0,"o3":66.0,"so2":6.3,"mosquito_risk":7,"arthritis_risk":5,"migraine_risk":7,"frizz_risk":1,"updated_at":"2026-05-05T21:55:56.035472+05:30"},{"city":"Alappuzha","state":"Kerala","latitude":9.4981,"longitude":76.3388,"temp":26.1,"humidity":93,"rain":0.0,"pressure":1009.3,"uv_index":7.75,"wind_gusts":31.0,"aqi":54,"pm10":35.5,"pm2_5":19.5,"no2":14.3,"co":134.0,"o3":60.0,"so2":4.4,"mosquito_risk":7,"arthritis_risk":0,"migraine_risk":4,"frizz_risk":1,"updated_at":"2026-05-05T21:55:56.035478+05:30"},{"city":"Munnar","state":"Kerala","latitude":10.0889,"longitude":77.0595,"temp":17.2,"humidity":98,"rain":0.0,"pressure":856.6,"uv_index":6.95,"wind_gusts":24.5,"aqi":59,"pm10":34.1,"pm2_5":25.0,"no2":14.7,"co":338.0,"o3":50.0,"so2":2.9,"mosquito_risk":3,"arthritis_risk":10,"migraine_risk":7,"frizz_risk":1,"updated_at":"2026-05-05T21:55:56.035484+05:30"},{"city":"Silchar","state":"Assam","latitude":24.8333,"longitude":92.7789,"temp":23.5,"humidity":89,"rain":0.1,"pressure":1007.6,"uv_index":8.85,"wind_gusts":25.9,"aqi":97,"pm10":44.8,"pm2_5":36.4,"no2":10.5,"co":271.0,"o3":69.0,"so2":5.5,"mosquito_risk":6,"arthritis_risk":5,"migraine_risk":4,"frizz_risk":1,"updated_at":"2026-05-05T21:55:56.035490+05:30"},{"city":"Dibrugarh","state":"Assam","latitude":27.4728,"longitude":94.912,"temp":21.8,"humidity":94,"rain":0.0,"pressure":997.2,"uv_index":8.35,"wind_gusts":34.9,"aqi":58,"pm10":36.6,"pm2_5":33.1,"no2":25.6,"co":248.0,"o3":23.0,"so2":2.3,"mosquito_risk":3,"arthritis_risk":5,"migraine_risk":7,"frizz_risk":1,"updated_at":"2026-05-05T21:55:56.035496+05:30"}]