[{"city":"Delhi","state":"Delhi","latitude":28.6139,"longitude":77.209,"temp":33.5,"humidity":49,"rain":0.0,"pressure":975.0,"uv_index":7.3,"wind_gusts":37.8,"aqi":397,"pm10":317.6,"pm2_5":109.9,"no2":33.9,"co":550.0,"o3":42.0,"so2":27.1,"mosquito_risk":0,"arthritis_risk":5,"migraine_risk":7,"frizz_risk":1,"updated_at":"2026-06-30T05:36:38.463113+05:30"},{"city":"Mumbai","state":"Maharashtra","latitude":19.076,"longitude":72.8777,"temp":25.9,"humidity":93,"rain":0.6,"pressure":1004.4,"uv_index":1.15,"wind_gusts":37.1,"aqi":47,"pm10":9.3,"pm2_5":5.8,"no2":7.3,"co":134.0,"o3":49.0,"so2":6.4,"mosquito_risk":10,"arthritis_risk":5,"migraine_risk":0,"frizz_risk":1,"updated_at":"2026-06-30T05:36:38.463158+05:30"},{"city":"Bangalore","state":"Karnataka","latitude":12.9716,"longitude":77.5946,"temp":20.7,"humidity":89,"rain":0.0,"pressure":909.9,"uv_index":8.2,"wind_gusts":60.8,"aqi":18,"pm10":2.4,"pm2_5":2.0,"no2":5.4,"co":144.0,"o3":40.0,"so2":3.0,"mosquito_risk":3,"arthritis_risk":5,"migraine_risk":7,"frizz_risk":1,"updated_at":"2026-06-30T05:36:38.463172+05:30"},{"city":"Hyderabad","state":"Telangana","latitude":17.385,"longitude":78.4867,"temp":24.0,"humidity":87,"rain":0.0,"pressure":949.5,"uv_index":4.75,"wind_gusts":45.7,"aqi":27,"pm10":3.9,"pm2_5":3.5,"no2":7.9,"co":167.0,"o3":34.0,"so2":3.8,"mosquito_risk":3,"arthritis_risk":5,"migraine_risk":3,"frizz_risk":1,"updated_at":"2026-06-30T05:36:38.463180+05:30"},{"city":"Chennai","state":"Tamil Nadu","latitude":13.0827,"longitude":80.2707,"temp":27.2,"humidity":76,"rain":0.0,"pressure":1004.3,"uv_index":7.75,"wind_gusts":45.4,"aqi":52,"pm10":6.2,"pm2_5":5.4,"no2":12.6,"co":256.0,"o3":35.0,"so2":9.1,"mosquito_risk":7,"arthritis_risk":5,"migraine_risk":4,"frizz_risk":1,"updated_at":"2026-06-30T05:36:38.463188+05:30"},{"city":"Kolkata","state":"West Bengal","latitude":22.5726,"longitude":88.3639,"temp":27.4,"humidity":95,"rain":0.0,"pressure":999.7,"uv_index":6.9,"wind_gusts":27.7,"aqi":108,"pm10":67.5,"pm2_5":66.8,"no2":23.4,"co":491.0,"o3":61.0,"so2":13.8,"mosquito_risk":7,"arthritis_risk":5,"migraine_risk":7,"frizz_risk":1,"updated_at":"2026-06-30T05:36:38.463195+05:30"},{"city":"Pune","state":"Maharashtra","latitude":18.5204,"longitude":73.8567,"temp":23.2,"humidity":94,"rain":0.1,"pressure":944.0,"uv_index":1.6,"wind_gusts":38.2,"aqi":25,"pm10":2.8,"pm2_5":2.8,"no2":7.3,"co":122.0,"o3":36.0,"so2":6.6,"mosquito_risk":6,"arthritis_risk":5,"migraine_risk":3,"frizz_risk":1,"updated_at":"2026-06-30T05:36:38.463201+05:30"},{"city":"Ahmedabad","state":"Gujarat","latitude":23.0225,"longitude":72.5714,"temp":30.5,"humidity":65,"rain":0.0,"pressure":996.3,"uv_index":7.95,"wind_gusts":41.0,"aqi":60,"pm10":26.5,"pm2_5":13.2,"no2":4.9,"co":112.0,"o3":46.0,"so2":3.9,"mosquito_risk":3,"arthritis_risk":5,"migraine_risk":7,"frizz_risk":1,"updated_at":"2026-06-30T05:36:38.463208+05:30"},{"city":"Jaipur","state":"Rajasthan","latitude":26.9124,"longitude":75.7873,"temp":30.6,"humidity":52,"rain":0.0,"pressure":953.0,"uv_index":8.15,"wind_gusts":42.1,"aqi":144,"pm10":410.7,"pm2_5":72.6,"no2":6.3,"co":143.0,"o3":52.0,"so2":3.6,"mosquito_risk":0,"arthritis_risk":5,"migraine_risk":7,"frizz_risk":1,"updated_at":"2026-06-30T05:36:38.463215+05:30"},{"city":"Lucknow","state":"Uttar Pradesh","latitude":26.8467,"longitude":80.9462,"temp":28.5,"humidity":85,"rain":0.0,"pressure":986.4,"uv_index":5.75,"wind_gusts":28.1,"aqi":120,"pm10":38.3,"pm2_5":33.1,"no2":12.7,"co":305.0,"o3":77.0,"so2":6.0,"mosquito_risk":7,"arthritis_risk":5,"migraine_risk":3,"frizz_risk":1,"updated_at":"2026-06-30T05:36:38.463224+05:30"},{"city":"Kanpur","state":"Uttar Pradesh","latitude":26.4499,"longitude":80.3319,"temp":29.7,"humidity":80,"rain":0.0,"pressure":984.0,"uv_index":5.7,"wind_gusts":28.4,"aqi":137,"pm10":40.0,"pm2_5":30.2,"no2":15.7,"co":225.0,"o3":62.0,"so2":6.3,"mosquito_risk":7,"arthritis_risk":5,"migraine_risk":3,"frizz_risk":1,"updated_at":"2026-06-30T05:36:38.463230+05:30"},{"city":"Chandigarh","state":"Chandigarh","latitude":30.7333,"longitude":76.7794,"temp":30.4,"humidity":63,"rain":0.0,"pressure":961.1,"uv_index":7.8,"wind_gusts":37.1,"aqi":125,"pm10":53.1,"pm2_5":42.8,"no2":20.6,"co":220.0,"o3":54.0,"so2":8.0,"mosquito_risk":3,"arthritis_risk":5,"migraine_risk":7,"frizz_risk":1,"updated_at":"2026-06-30T05:36:38.463236+05:30"},{"city":"Srinagar","state":"Jammu and Kashmir","latitude":34.0837,"longitude":74.7973,"temp":19.1,"humidity":82,"rain":0.0,"pressure":835.7,"uv_index":9.1,"wind_gusts":23.4,"aqi":92,"pm10":45.6,"pm2_5":39.8,"no2":30.1,"co":327.0,"o3":23.0,"so2":2.2,"mosquito_risk":3,"arthritis_risk":10,"migraine_risk":7,"frizz_risk":0,"updated_at":"2026-06-30T05:36:38.463243+05:30"},{"city":"Jammu","state":"Jammu and Kashmir","latitude":32.7266,"longitude":74.857,"temp":26.1,"humidity":80,"rain":0.1,"pressure":964.4,"uv_index":8.65,"wind_gusts":41.4,"aqi":141,"pm10":68.9,"pm2_5":55.2,"no2":20.2,"co":227.0,"o3":57.0,"so2":5.3,"mosquito_risk":10,"arthritis_risk":5,"migraine_risk":7,"frizz_risk":1,"updated_at":"2026-06-30T05:36:38.463248+05:30"},{"city":"Amritsar","state":"Punjab","latitude":31.634,"longitude":74.8723,"temp":29.2,"humidity":72,"rain":0.0,"pressure":971.8,"uv_index":8.5,"wind_gusts":31.3,"aqi":151,"pm10":89.9,"pm2_5":65.7,"no2":28.7,"co":272.0,"o3":43.0,"so2":9.0,"mosquito_risk":7,"arthritis_risk":5,"migraine_risk":7,"frizz_risk":1,"updated_at":"2026-06-30T05:36:38.463254+05:30"},{"city":"Ludhiana","state":"Punjab","latitude":30.901,"longitude":75.8573,"temp":31.6,"humidity":55,"rain":0.0,"pressure":969.7,"uv_index":7.85,"wind_gusts":29.5,"aqi":160,"pm10":268.2,"pm2_5":96.4,"no2":22.9,"co":248.0,"o3":59.0,"so2":14.9,"mosquito_risk":0,"arthritis_risk":5,"migraine_risk":7,"frizz_risk":1,"updated_at":"2026-06-30T05:36:38.463260+05:30"},{"city":"Jalandhar","state":"Punjab","latitude":31.326,"longitude":75.5762,"temp":30.8,"humidity":62,"rain":0.0,"pressure":971.3,"uv_index":7.15,"wind_gusts":27.4,"aqi":155,"pm10":129.0,"pm2_5":74.3,"no2":23.5,"co":234.0,"o3":57.0,"so2":16.4,"mosquito_risk":3,"arthritis_risk":5,"migraine_risk":7,"frizz_risk":1,"updated_at":"2026-06-30T05:36:38.463267+05:30"},{"city":"Dehradun","state":"Uttarakhand","latitude":30.6284,"longitude":78.0322,"temp":17.6,"humidity":100,"rain":0.0,"pressure":826.0,"uv_index":5.1,"wind_gusts":28.8,"aqi":67,"pm10":20.1,"pm2_5":16.3,"no2":14.1,"co":247.0,"o3":50.0,"so2":0.7,"mosquito_risk":3,"arthritis_risk":10,"migraine_risk":3,"frizz_risk":1,"updated_at":"2026-06-30T05:36:38.463286+05:30"},{"city":"Shimla","state":"Himachal Pradesh","latitude":31.1048,"longitude":77.1734,"temp":14.7,"humidity":95,"rain":0.0,"pressure":779.6,"uv_index":4.35,"wind_gusts":38.5,"aqi":87,"pm10":37.7,"pm2_5":29.2,"no2":11.3,"co":193.0,"o3":62.0,"so2":0.6,"mosquito_risk":3,"arthritis_risk":10,"migraine_risk":3,"frizz_risk":0,"updated_at":"2026-06-30T05:36:38.463292+05:30"},{"city":"Manali","state":"Himachal Pradesh","latitude":32.2396,"longitude":77.1887,"temp":19.4,"humidity":73,"rain":0.0,"pressure":816.4,"uv_index":7.9,"wind_gusts":36.0,"aqi":58,"pm10":5.2,"pm2_5":4.4,"no2":44.9,"co":224.0,"o3":32.0,"so2":0.0,"mosquito_risk":3,"arthritis_risk":5,"migraine_risk":7,"frizz_risk":0,"updated_at":"2026-06-30T05:36:38.463300+05:30"},{"city":"Gurgaon","state":"Haryana","latitude":28.4595,"longitude":77.0266,"temp":31.8,"humidity":50,"rain":0.0,"pressure":973.3,"uv_index":7.0,"wind_gusts":39.2,"aqi":602,"pm10":478.7,"pm2_5":118.7,"no2":27.9,"co":324.0,"o3":31.0,"so2":11.8,"mosquito_risk":0,"arthritis_risk":5,"migraine_risk":7,"frizz_risk":1,"updated_at":"2026-06-30T05:36:38.463305+05:30"},{"city":"Noida","state":"Uttar Pradesh","latitude":28.5355,"longitude":77.391,"temp":29.4,"humidity":76,"rain":0.0,"pressure":976.5,"uv_index":7.6,"wind_gusts":26.3,"aqi":602,"pm10":478.7,"pm2_5":118.7,"no2":27.9,"co":377.0,"o3":31.0,"so2":11.8,"mosquito_risk":7,"arthritis_risk":5,"migraine_risk":7,"frizz_risk":1,"updated_at":"2026-06-30T05:36:38.463313+05:30"},{"city":"Ghaziabad","state":"Uttar Pradesh","latitude":28.6692,"longitude":77.4538,"temp":29.8,"humidity":75,"rain":0.0,"pressure":974.8,"uv_index":7.4,"wind_gusts":32.8,"aqi":177,"pm10":245.9,"pm2_5":84.3,"no2":15.3,"co":380.0,"o3":80.0,"so2":13.6,"mosquito_risk":7,"arthritis_risk":5,"migraine_risk":7,"frizz_risk":1,"updated_at":"2026-06-30T05:36:38.463319+05:30"},{"city":"Faridabad","state":"Haryana","latitude":28.4089,"longitude":77.3178,"temp":30.5,"humidity":70,"rain":0.0,"pressure":975.8,"uv_index":7.6,"wind_gusts":37.8,"aqi":602,"pm10":478.7,"pm2_5":118.7,"no2":27.9,"co":594.0,"o3":31.0,"so2":11.8,"mosquito_risk":3,"arthritis_risk":5,"migraine_risk":7,"frizz_risk":1,"updated_at":"2026-06-30T05:36:38.463325+05:30"},{"city":"Meerut","state":"Uttar Pradesh","latitude":28.9845,"longitude":77.7064,"temp":30.0,"humidity":78,"rain":0.0,"pressure":974.0,"uv_index":7.1,"wind_gusts":32.0,"aqi":177,"pm10":245.9,"pm2_5":84.3,"no2":15.3,"co":355.0,"o3":80.0,"so2":13.6,"mosquito_risk":7,"arthritis_risk":5,"migraine_risk":7,"frizz_risk":1,"updated_at":"2026-06-30T05:36:38.463331+05:30"},{"city":"Agra","state":"Uttar Pradesh","latitude":27.1767,"longitude":78.0081,"temp":31.6,"humidity":54,"rain":0.0,"pressure":979.7,"uv_index":7.55,"wind_gusts":34.6,"aqi":455,"pm10":78.7,"pm2_5":32.5,"no2":16.1,"co":215.0,"o3":44.0,"so2":6.3,"mosquito_risk":0,"arthritis_risk":5,"migraine_risk":7,"frizz_risk":1,"updated_at":"2026-06-30T05:36:38.463336+05:30"},{"city":"Varanasi","state":"Uttar Pradesh","latitude":25.3176,"longitude":82.9739,"temp":27.2,"humidity":96,"rain":0.4,"pressure":990.8,"uv_index":8.05,"wind_gusts":24.5,"aqi":73,"pm10":21.6,"pm2_5":19.3,"no2":17.0,"co":476.0,"o3":63.0,"so2":11.1,"mosquito_risk":10,"arthritis_risk":5,"migraine_risk":7,"frizz_risk":1,"updated_at":"2026-06-30T05:36:38.463341+05:30"},{"city":"Prayagraj","state":"Uttar Pradesh","latitude":25.4358,"longitude":81.8463,"temp":27.7,"humidity":91,"rain":0.3,"pressure":988.8,"uv_index":8.2,"wind_gusts":44.3,"aqi":73,"pm10":33.8,"pm2_5":29.0,"no2":19.7,"co":296.0,"o3":50.0,"so2":8.0,"mosquito_risk":10,"arthritis_risk":5,"migraine_risk":7,"frizz_risk":1,"updated_at":"2026-06-30T05:36:38.463347+05:30"},{"city":"Gorakhpur","state":"Uttar Pradesh","latitude":26.7606,"longitude":83.3732,"temp":25.4,"humidity":97,"rain":0.2,"pressure":991.3,"uv_index":7.7,"wind_gusts":43.2,"aqi":114,"pm10":27.3,"pm2_5":23.4,"no2":6.2,"co":398.0,"o3":110.0,"so2":3.2,"mosquito_risk":10,"arthritis_risk":5,"migraine_risk":7,"frizz_risk":1,"updated_at":"2026-06-30T05:36:38.463352+05:30"},{"city":"Bareilly","state":"Uttar Pradesh","latitude":28.367,"longitude":79.4304,"temp":27.3,"humidity":93,"rain":0.1,"pressure":980.1,"uv_index":8.1,"wind_gusts":34.6,"aqi":132,"pm10":38.0,"pm2_5":29.6,"no2":8.2,"co":297.0,"o3":102.0,"so2":3.6,"mosquito_risk":10,"arthritis_risk":5,"migraine_risk":7,"frizz_risk":1,"updated_at":"2026-06-30T05:36:38.463359+05:30"},{"city":"Aligarh","state":"Uttar Pradesh","latitude":27.8974,"longitude":78.088,"temp":27.2,"humidity":92,"rain":0.3,"pressure":977.7,"uv_index":7.6,"wind_gusts":46.8,"aqi":338,"pm10":212.3,"pm2_5":85.7,"no2":21.4,"co":407.0,"o3":60.0,"so2":11.3,"mosquito_risk":10,"arthritis_risk":5,"migraine_risk":7,"frizz_risk":1,"updated_at":"2026-06-30T05:36:38.463364+05:30"},{"city":"Moradabad","state":"Uttar Pradesh","latitude":28.8386,"longitude":78.7733,"temp":26.9,"humidity":88,"rain":0.0,"pressure":976.8,"uv_index":6.65,"wind_gusts":32.0,"aqi":155,"pm10":49.8,"pm2_5":38.2,"no2":10.1,"co":311.0,"o3":104.0,"so2":9.1,"mosquito_risk":7,"arthritis_risk":5,"migraine_risk":7,"frizz_risk":1,"updated_at":"2026-06-30T05:36:38.463369+05:30"},{"city":"Saharanpur","state":"Uttar Pradesh","latitude":29.9637,"longitude":77.546,"temp":28.5,"humidity":79,"rain":0.0,"pressure":968.4,"uv_index":7.5,"wind_gusts":34.6,"aqi":155,"pm10":74.3,"pm2_5":61.0,"no2":7.2,"co":274.0,"o3":113.0,"so2":9.2,"mosquito_risk":7,"arthritis_risk":5,"migraine_risk":7,"frizz_risk":1,"updated_at":"2026-06-30T05:36:38.463374+05:30"},{"city":"Jhansi","state":"Uttar Pradesh","latitude":25.4484,"longitude":78.5685,"temp":30.8,"humidity":61,"rain":0.0,"pressure":970.8,"uv_index":7.35,"wind_gusts":40.3,"aqi":82,"pm10":20.7,"pm2_5":15.2,"no2":8.3,"co":164.0,"o3":63.0,"so2":9.0,"mosquito_risk":3,"arthritis_risk":5,"migraine_risk":7,"frizz_risk":1,"updated_at":"2026-06-30T05:36:41.781419+05:30"},{"city":"Surat","state":"Gujarat","latitude":21.1702,"longitude":72.8311,"temp":25.9,"humidity":99,"rain":0.2,"pressure":1001.8,"uv_index":4.5,"wind_gusts":46.1,"aqi":68,"pm10":24.4,"pm2_5":19.0,"no2":28.8,"co":322.0,"o3":20.0,"so2":42.9,"mosquito_risk":10,"arthritis_risk":5,"migraine_risk":0,"frizz_risk":1,"updated_at":"2026-06-30T05:36:41.781451+05:30"},{"city":"Vadodara","state":"Gujarat","latitude":22.3072,"longitude":73.1812,"temp":29.9,"humidity":68,"rain":0.0,"pressure":998.6,"uv_index":6.2,"wind_gusts":51.1,"aqi":61,"pm10":16.9,"pm2_5":12.7,"no2":15.7,"co":136.0,"o3":27.0,"so2":14.3,"mosquito_risk":7,"arthritis_risk":5,"migraine_risk":7,"frizz_risk":1,"updated_at":"2026-06-30T05:36:41.781459+05:30"},{"city":"Rajkot","state":"Gujarat","latitude":22.3039,"longitude":70.8022,"temp":28.9,"humidity":71,"rain":0.0,"pressure":988.5,"uv_index":6.8,"wind_gusts":45.0,"aqi":56,"pm10":23.8,"pm2_5":11.9,"no2":4.2,"co":95.0,"o3":46.0,"so2":4.2,"mosquito_risk":7,"arthritis_risk":5,"migraine_risk":7,"frizz_risk":1,"updated_at":"2026-06-30T05:36:41.781466+05:30"},{"city":"Thane","state":"Maharashtra","latitude":19.2183,"longitude":72.9781,"temp":25.2,"humidity":97,"rain":0.1,"pressure":1003.8,"uv_index":1.05,"wind_gusts":26.6,"aqi":47,"pm10":9.3,"pm2_5":5.8,"no2":7.3,"co":149.0,"o3":49.0,"so2":6.4,"mosquito_risk":10,"arthritis_risk":5,"migraine_risk":0,"frizz_risk":1,"updated_at":"2026-06-30T05:36:41.781472+05:30"},{"city":"Nagpur","state":"Maharashtra","latitude":21.1458,"longitude":79.0882,"temp":24.7,"humidity":97,"rain":0.1,"pressure":968.3,"uv_index":4.5,"wind_gusts":34.9,"aqi":76,"pm10":21.4,"pm2_5":18.4,"no2":11.5,"co":206.0,"o3":63.0,"so2":7.5,"mosquito_risk":6,"arthritis_risk":5,"migraine_risk":3,"frizz_risk":1,"updated_at":"2026-06-30T05:36:41.781478+05:30"},{"city":"Nashik","state":"Maharashtra","latitude":19.9975,"longitude":73.7898,"temp":23.3,"humidity":92,"rain":0.0,"pressure":941.0,"uv_index":6.85,"wind_gusts":46.1,"aqi":40,"pm10":6.4,"pm2_5":5.3,"no2":11.8,"co":120.0,"o3":31.0,"so2":14.6,"mosquito_risk":3,"arthritis_risk":5,"migraine_risk":7,"frizz_risk":1,"updated_at":"2026-06-30T05:36:41.781483+05:30"},{"city":"Aurangabad","state":"Maharashtra","latitude":19.8762,"longitude":75.3433,"temp":23.6,"humidity":86,"rain":0.0,"pressure":939.8,"uv_index":5.55,"wind_gusts":40.7,"aqi":42,"pm10":21.9,"pm2_5":13.6,"no2":10.6,"co":172.0,"o3":45.0,"so2":13.6,"mosquito_risk":3,"arthritis_risk":5,"migraine_risk":3,"frizz_risk":1,"updated_at":"2026-06-30T05:36:41.781489+05:30"},{"city":"Solapur","state":"Maharashtra","latitude":17.6599,"longitude":75.9064,"temp":24.0,"humidity":91,"rain":0.0,"pressure":954.0,"uv_index":7.2,"wind_gusts":48.2,"aqi":20,"pm10":3.6,"pm2_5":3.3,"no2":6.7,"co":134.0,"o3":35.0,"so2":2.2,"mosquito_risk":3,"arthritis_risk":5,"migraine_risk":7,"frizz_risk":1,"updated_at":"2026-06-30T05:36:41.781495+05:30"},{"city":"Kolhapur","state":"Maharashtra","latitude":16.705,"longitude":74.2433,"temp":22.6,"humidity":95,"rain":0.0,"pressure":945.1,"uv_index":7.55,"wind_gusts":56.9,"aqi":21,"pm10":2.0,"pm2_5":1.9,"no2":3.2,"co":116.0,"o3":46.0,"so2":1.5,"mosquito_risk":3,"arthritis_risk":5,"migraine_risk":7,"frizz_risk":1,"updated_at":"2026-06-30T05:36:41.781501+05:30"},{"city":"Goa","state":"Goa","latitude":15.2993,"longitude":74.124,"temp":24.5,"humidity":98,"rain":0.5,"pressure":997.0,"uv_index":2.85,"wind_gusts":26.6,"aqi":29,"pm10":11.8,"pm2_5":6.6,"no2":1.4,"co":174.0,"o3":51.0,"so2":0.5,"mosquito_risk":6,"arthritis_risk":5,"migraine_risk":3,"frizz_risk":1,"updated_at":"2026-06-30T05:36:41.781507+05:30"},{"city":"Jodhpur","state":"Rajasthan","latitude":26.2389,"longitude":73.0243,"temp":30.3,"humidity":56,"rain":0.0,"pressure":976.4,"uv_index":8.4,"wind_gusts":45.0,"aqi":148,"pm10":344.6,"pm2_5":80.8,"no2":3.0,"co":107.0,"o3":52.0,"so2":3.6,"mosquito_risk":0,"arthritis_risk":5,"migraine_risk":7,"frizz_risk":1,"updated_at":"2026-06-30T05:36:41.781513+05:30"},{"city":"Udaipur","state":"Rajasthan","latitude":24.5854,"longitude":73.7125,"temp":26.1,"humidity":71,"rain":0.0,"pressure":940.4,"uv_index":8.9,"wind_gusts":35.6,"aqi":56,"pm10":23.2,"pm2_5":15.8,"no2":8.7,"co":123.0,"o3":44.0,"so2":7.2,"mosquito_risk":7,"arthritis_risk":5,"migraine_risk":7,"frizz_risk":1,"updated_at":"2026-06-30T05:36:41.781519+05:30"},{"city":"Kota","state":"Rajasthan","latitude":25.2138,"longitude":75.8648,"temp":29.7,"humidity":63,"rain":0.0,"pressure":971.8,"uv_index":8.35,"wind_gusts":37.4,"aqi":67,"pm10":21.7,"pm2_5":17.0,"no2":8.0,"co":167.0,"o3":57.0,"so2":7.5,"mosquito_risk":7,"arthritis_risk":5,"migraine_risk":7,"frizz_risk":1,"updated_at":"2026-06-30T05:36:41.781524+05:30"},{"city":"Bikaner","state":"Rajasthan","latitude":28.0229,"longitude":73.3119,"temp":32.4,"humidity":51,"rain":0.0,"pressure":973.9,"uv_index":8.5,"wind_gusts":39.6,"aqi":154,"pm10":427.5,"pm2_5":134.6,"no2":1.8,"co":100.0,"o3":56.0,"so2":2.2,"mosquito_risk":0,"arthritis_risk":5,"migraine_risk":7,"frizz_risk":1,"updated_at":"2026-06-30T05:36:41.781529+05:30"},{"city":"Ajmer","state":"Rajasthan","latitude":26.4499,"longitude":74.6399,"temp":29.0,"humidity":58,"rain":0.0,"pressure":948.3,"uv_index":8.35,"wind_gusts":47.9,"aqi":73,"pm10":44.8,"pm2_5":17.7,"no2":5.3,"co":141.0,"o3":54.0,"so2":3.1,"mosquito_risk":4,"arthritis_risk":5,"migraine_risk":7,"frizz_risk":1,"updated_at":"2026-06-30T05:36:41.781535+05:30"},{"city":"Gwalior","state":"Madhya Pradesh","latitude":26.2183,"longitude":78.1828,"temp":31.6,"humidity":55,"rain":0.0,"pressure":975.6,"uv_index":7.0,"wind_gusts":40.7,"aqi":91,"pm10":20.4,"pm2_5":15.1,"no2":7.9,"co":159.0,"o3":63.0,"so2":7.5,"mosquito_risk":0,"arthritis_risk":5,"migraine_risk":7,"frizz_risk":1,"updated_at":"2026-06-30T05:36:41.781540+05:30"},{"city":"Indore","state":"Madhya Pradesh","latitude":22.7196,"longitude":75.8577,"temp":24.2,"humidity":91,"rain":0.3,"pressure":942.8,"uv_index":6.15,"wind_gusts":36.0,"aqi":67,"pm10":24.0,"pm2_5":17.9,"no2":9.2,"co":175.0,"o3":52.0,"so2":8.7,"mosquito_risk":6,"arthritis_risk":5,"migraine_risk":7,"frizz_risk":1,"updated_at":"2026-06-30T05:36:41.781546+05:30"},{"city":"Bhopal","state":"Madhya Pradesh","latitude":23.2599,"longitude":77.4126,"temp":24.9,"humidity":93,"rain":0.0,"pressure":948.1,"uv_index":8.6,"wind_gusts":40.0,"aqi":71,"pm10":23.1,"pm2_5":19.0,"no2":9.1,"co":255.0,"o3":56.0,"so2":5.5,"mosquito_risk":3,"arthritis_risk":5,"migraine_risk":7,"frizz_risk":1,"updated_at":"2026-06-30T05:36:41.781551+05:30"},{"city":"Jabalpur","state":"Madhya Pradesh","latitude":23.1815,"longitude":79.9864,"temp":25.6,"humidity":91,"rain":0.0,"pressure":956.1,"uv_index":5.25,"wind_gusts":40.0,"aqi":62,"pm10":26.1,"pm2_5":20.7,"no2":8.4,"co":202.0,"o3":63.0,"so2":2.9,"mosquito_risk":7,"arthritis_risk":5,"migraine_risk":3,"frizz_risk":1,"updated_at":"2026-06-30T05:36:41.781556+05:30"},{"city":"Ujjain","state":"Madhya Pradesh","latitude":23.1765,"longitude":75.7885,"temp":24.6,"humidity":91,"rain":0.4,"pressure":948.4,"uv_index":6.95,"wind_gusts":41.0,"aqi":66,"pm10":22.4,"pm2_5":15.9,"no2":7.8,"co":174.0,"o3":51.0,"so2":8.2,"mosquito_risk":6,"arthritis_risk":5,"migraine_risk":7,"frizz_risk":1,"updated_at":"2026-06-30T05:36:41.781562+05:30"},{"city":"Visakhapatnam","state":"Andhra Pradesh","latitude":17.6868,"longitude":83.2185,"temp":27.9,"humidity":84,"rain":0.0,"pressure":998.2,"uv_index":8.7,"wind_gusts":36.0,"aqi":65,"pm10":15.7,"pm2_5":13.8,"no2":16.0,"co":330.0,"o3":68.0,"so2":28.2,"mosquito_risk":7,"arthritis_risk":5,"migraine_risk":7,"frizz_risk":1,"updated_at":"2026-06-30T05:36:41.781567+05:30"},{"city":"Vijayawada","state":"Andhra Pradesh","latitude":16.5062,"longitude":80.648,"temp":28.3,"humidity":71,"rain":0.0,"pressure":998.1,"uv_index":6.25,"wind_gusts":46.1,"aqi":55,"pm10":9.8,"pm2_5":9.5,"no2":11.4,"co":183.0,"o3":38.0,"so2":4.4,"mosquito_risk":7,"arthritis_risk":5,"migraine_risk":7,"frizz_risk":1,"updated_at":"2026-06-30T05:36:41.781572+05:30"},{"city":"Guntur","state":"Andhra Pradesh","latitude":16.3067,"longitude":80.4365,"temp":27.9,"humidity":72,"rain":0.0,"pressure":999.5,"uv_index":6.45,"wind_gusts":46.8,"aqi":51,"pm10":8.8,"pm2_5":8.3,"no2":11.9,"co":165.0,"o3":33.0,"so2":5.2,"mosquito_risk":7,"arthritis_risk":5,"migraine_risk":7,"frizz_risk":1,"updated_at":"2026-06-30T05:36:41.781578+05:30"},{"city":"Nellore","state":"Andhra Pradesh","latitude":14.4426,"longitude":79.9865,"temp":27.6,"humidity":74,"rain":0.0,"pressure":1002.6,"uv_index":7.55,"wind_gusts":54.4,"aqi":34,"pm10":4.1,"pm2_5":3.0,"no2":5.6,"co":158.0,"o3":41.0,"so2":4.1,"mosquito_risk":7,"arthritis_risk":5,"migraine_risk":4,"frizz_risk":1,"updated_at":"2026-06-30T05:36:41.781584+05:30"},{"city":"Kurnool","state":"Andhra Pradesh","latitude":15.8281,"longitude":78.0373,"temp":25.4,"humidity":78,"rain":0.0,"pressure":974.4,"uv_index":7.05,"wind_gusts":54.4,"aqi":20,"pm10":2.6,"pm2_5":2.2,"no2":5.4,"co":120.0,"o3":40.0,"so2":1.6,"mosquito_risk":7,"arthritis_risk":5,"migraine_risk":7,"frizz_risk":1,"updated_at":"2026-06-30T05:36:41.781591+05:30"},{"city":"Kakinada","state":"Andhra Pradesh","latitude":16.9891,"longitude":82.2475,"temp":26.8,"humidity":90,"rain":0.0,"pressure":1002.2,"uv_index":8.35,"wind_gusts":43.6,"aqi":48,"pm10":12.5,"pm2_5":9.7,"no2":4.7,"co":202.0,"o3":100.0,"so2":5.3,"mosquito_risk":7,"arthritis_risk":5,"migraine_risk":4,"frizz_risk":1,"updated_at":"2026-06-30T05:36:41.781596+05:30"},{"city":"Tirupati","state":"Andhra Pradesh","latitude":13.6288,"longitude":79.4192,"temp":26.7,"humidity":71,"rain":0.0,"pressure":988.4,"uv_index":8.1,"wind_gusts":48.6,"aqi":28,"pm10":2.5,"pm2_5":2.0,"no2":4.4,"co":116.0,"o3":42.0,"so2":1.2,"mosquito_risk":7,"arthritis_risk":5,"migraine_risk":7,"frizz_risk":1,"updated_at":"2026-06-30T05:36:41.781601+05:30"},{"city":"Warangal","state":"Telangana","latitude":17.9689,"longitude":79.5941,"temp":25.9,"humidity":86,"rain":0.0,"pressure":974.6,"uv_index":3.35,"wind_gusts":37.8,"aqi":46,"pm10":8.2,"pm2_5":8.0,"no2":10.3,"co":194.0,"o3":42.0,"so2":3.5,"mosquito_risk":7,"arthritis_risk":5,"migraine_risk":3,"frizz_risk":1,"updated_at":"2026-06-30T05:36:41.781607+05:30"},{"city":"Nizamabad","state":"Telangana","latitude":18.6725,"longitude":78.0941,"temp":25.1,"humidity":88,"rain":0.0,"pressure":960.7,"uv_index":2.95,"wind_gusts":39.2,"aqi":55,"pm10":10.2,"pm2_5":9.5,"no2":9.4,"co":184.0,"o3":50.0,"so2":5.2,"mosquito_risk":7,"arthritis_risk":5,"migraine_risk":3,"frizz_risk":1,"updated_at":"2026-06-30T05:36:41.781612+05:30"},{"city":"Mysore","state":"Karnataka","latitude":12.2958,"longitude":76.6396,"temp":21.3,"humidity":90,"rain":0.0,"pressure":927.4,"uv_index":6.55,"wind_gusts":54.7,"aqi":19,"pm10":1.8,"pm2_5":1.5,"no2":3.2,"co":101.0,"o3":42.0,"so2":1.3,"mosquito_risk":3,"arthritis_risk":5,"migraine_risk":7,"frizz_risk":1,"updated_at":"2026-06-30T05:36:41.781617+05:30"},{"city":"Mangalore","state":"Karnataka","latitude":12.9141,"longitude":74.856,"temp":24.6,"humidity":94,"rain":0.4,"pressure":1007.4,"uv_index":5.95,"wind_gusts":39.6,"aqi":29,"pm10":13.2,"pm2_5":7.5,"no2":2.9,"co":134.0,"o3":39.0,"so2":1.1,"mosquito_risk":6,"arthritis_risk":5,"migraine_risk":0,"frizz_risk":1,"updated_at":"2026-06-30T05:36:41.781622+05:30"},{"city":"Hubli-Dharwad","state":"Karnataka","latitude":15.3647,"longitude":75.124,"temp":22.0,"humidity":98,"rain":0.0,"pressure":938.7,"uv_index":6.55,"wind_gusts":60.8,"aqi":21,"pm10":0.8,"pm2_5":0.7,"no2":2.1,"co":101.0,"o3":45.0,"so2":0.7,"mosquito_risk":3,"arthritis_risk":5,"migraine_risk":7,"frizz_risk":1,"updated_at":"2026-06-30T05:36:41.781628+05:30"},{"city":"Belgaum","state":"Karnataka","latitude":15.8497,"longitude":74.4977,"temp":21.2,"humidity":96,"rain":0.0,"pressure":923.1,"uv_index":6.0,"wind_gusts":61.6,"aqi":20,"pm10":1.3,"pm2_5":1.3,"no2":3.0,"co":105.0,"o3":46.0,"so2":1.2,"mosquito_risk":3,"arthritis_risk":5,"migraine_risk":3,"frizz_risk":1,"updated_at":"2026-06-30T05:36:45.106388+05:30"},{"city":"Coimbatore","state":"Tamil Nadu","latitude":11.0168,"longitude":76.9558,"temp":22.1,"humidity":96,"rain":0.0,"pressure":960.2,"uv_index":8.2,"wind_gusts":59.0,"aqi":18,"pm10":4.0,"pm2_5":3.2,"no2":5.4,"co":157.0,"o3":33.0,"so2":2.3,"mosquito_risk":3,"arthritis_risk":5,"migraine_risk":7,"frizz_risk":1,"updated_at":"2026-06-30T05:36:45.106420+05:30"},{"city":"Madurai","state":"Tamil Nadu","latitude":9.9252,"longitude":78.1198,"temp":26.4,"humidity":70,"rain":0.0,"pressure":991.1,"uv_index":7.4,"wind_gusts":29.2,"aqi":54,"pm10":28.5,"pm2_5":25.9,"no2":29.0,"co":230.0,"o3":1.0,"so2":6.0,"mosquito_risk":7,"arthritis_risk":5,"migraine_risk":7,"frizz_risk":1,"updated_at":"2026-06-30T05:36:45.106429+05:30"},{"city":"Trichy","state":"Tamil Nadu","latitude":10.7905,"longitude":78.7047,"temp":27.1,"humidity":70,"rain":0.0,"pressure":998.0,"uv_index":8.15,"wind_gusts":61.9,"aqi":22,"pm10":4.8,"pm2_5":3.6,"no2":4.2,"co":104.0,"o3":41.0,"so2":2.3,"mosquito_risk":7,"arthritis_risk":5,"migraine_risk":7,"frizz_risk":1,"updated_at":"2026-06-30T05:36:45.106437+05:30"},{"city":"Salem","state":"Tamil Nadu","latitude":11.6643,"longitude":78.146,"temp":24.1,"humidity":93,"rain":0.0,"pressure":976.1,"uv_index":7.3,"wind_gusts":37.4,"aqi":40,"pm10":14.0,"pm2_5":12.1,"no2":18.0,"co":224.0,"o3":22.0,"so2":7.8,"mosquito_risk":3,"arthritis_risk":5,"migraine_risk":7,"frizz_risk":1,"updated_at":"2026-06-30T05:36:45.106444+05:30"},{"city":"Tirunelveli","state":"Tamil Nadu","latitude":8.7139,"longitude":77.7567,"temp":28.6,"humidity":60,"rain":0.0,"pressure":1001.8,"uv_index":8.6,"wind_gusts":50.0,"aqi":22,"pm10":8.5,"pm2_5":4.5,"no2":2.8,"co":184.0,"o3":41.0,"so2":1.3,"mosquito_risk":4,"arthritis_risk":5,"migraine_risk":4,"frizz_risk":1,"updated_at":"2026-06-30T05:36:45.106450+05:30"},{"city":"Vellore","state":"Tamil Nadu","latitude":12.9165,"longitude":79.1325,"temp":26.3,"humidity":70,"rain":0.0,"pressure":981.8,"uv_index":8.35,"wind_gusts":52.2,"aqi":22,"pm10":4.0,"pm2_5":3.1,"no2":5.7,"co":141.0,"o3":41.0,"so2":2.4,"mosquito_risk":7,"arthritis_risk":5,"migraine_risk":7,"frizz_risk":1,"updated_at":"2026-06-30T05:36:45.106457+05:30"},{"city":"Erode","state":"Tamil Nadu","latitude":11.341,"longitude":77.7172,"temp":24.6,"humidity":82,"rain":0.0,"pressure":988.1,"uv_index":8.2,"wind_gusts":43.2,"aqi":38,"pm10":13.1,"pm2_5":11.8,"no2":13.2,"co":150.0,"o3":29.0,"so2":3.5,"mosquito_risk":3,"arthritis_risk":5,"migraine_risk":7,"frizz_risk":1,"updated_at":"2026-06-30T05:36:45.106463+05:30"},{"city":"Kochi","state":"Kerala","latitude":9.9312,"longitude":76.2673,"temp":25.0,"humidity":96,"rain":0.0,"pressure":1009.5,"uv_index":7.95,"wind_gusts":42.1,"aqi":37,"pm10":10.9,"pm2_5":9.0,"no2":10.2,"co":128.0,"o3":20.0,"so2":3.3,"mosquito_risk":7,"arthritis_risk":0,"migraine_risk":4,"frizz_risk":1,"updated_at":"2026-06-30T05:36:45.106470+05:30"},{"city":"Thiruvananthapuram","state":"Kerala","latitude":8.5241,"longitude":76.9366,"temp":24.1,"humidity":92,"rain":0.0,"pressure":1008.3,"uv_index":8.35,"wind_gusts":52.9,"aqi":29,"pm10":10.9,"pm2_5":6.6,"no2":4.2,"co":155.0,"o3":40.0,"so2":2.1,"mosquito_risk":3,"arthritis_risk":0,"migraine_risk":4,"frizz_risk":1,"updated_at":"2026-06-30T05:36:45.106476+05:30"},{"city":"Kozhikode","state":"Kerala","latitude":11.2588,"longitude":75.7804,"temp":23.6,"humidity":99,"rain":0.0,"pressure":1008.7,"uv_index":7.8,"wind_gusts":39.6,"aqi":24,"pm10":12.0,"pm2_5":5.7,"no2":1.1,"co":170.0,"o3":49.0,"so2":0.6,"mosquito_risk":3,"arthritis_risk":0,"migraine_risk":4,"frizz_risk":1,"updated_at":"2026-06-30T05:36:45.106482+05:30"},{"city":"Thrissur","state":"Kerala","latitude":10.5276,"longitude":76.2144,"temp":23.3,"humidity":99,"rain":0.0,"pressure":1007.9,"uv_index":8.0,"wind_gusts":41.4,"aqi":33,"pm10":10.2,"pm2_5":9.0,"no2":9.1,"co":202.0,"o3":21.0,"so2":2.7,"mosquito_risk":3,"arthritis_risk":5,"migraine_risk":4,"frizz_risk":1,"updated_at":"2026-06-30T05:36:45.106488+05:30"},{"city":"Kannur","state":"Kerala","latitude":11.8745,"longitude":75.3704,"temp":23.9,"humidity":97,"rain":0.2,"pressure":1008.1,"uv_index":8.15,"wind_gusts":40.7,"aqi":26,"pm10":6.6,"pm2_5":3.6,"no2":3.7,"co":145.0,"o3":38.0,"so2":1.0,"mosquito_risk":6,"arthritis_risk":0,"migraine_risk":4,"frizz_risk":1,"updated_at":"2026-06-30T05:36:45.106494+05:30"},{"city":"Patna","state":"Bihar","latitude":25.5941,"longitude":85.1376,"temp":26.1,"humidity":97,"rain":0.0,"pressure":994.2,"uv_index":8.25,"wind_gusts":31.0,"aqi":121,"pm10":37.8,"pm2_5":35.3,"no2":13.2,"co":322.0,"o3":78.0,"so2":12.2,"mosquito_risk":7,"arthritis_risk":5,"migraine_risk":7,"frizz_risk":1,"updated_at":"2026-06-30T05:36:45.106500+05:30"},{"city":"Gaya","state":"Bihar","latitude":24.7914,"longitude":85.0002,"temp":27.0,"humidity":93,"rain":0.0,"pressure":987.3,"uv_index":8.15,"wind_gusts":24.5,"aqi":91,"pm10":41.2,"pm2_5":40.9,"no2":23.4,"co":302.0,"o3":36.0,"so2":9.6,"mosquito_risk":7,"arthritis_risk":5,"migraine_risk":7,"frizz_risk":1,"updated_at":"2026-06-30T05:36:45.106506+05:30"},{"city":"Muzaffarpur","state":"Bihar","latitude":26.1209,"longitude":85.3647,"temp":25.6,"humidity":98,"rain":0.0,"pressure":994.5,"uv_index":8.45,"wind_gusts":24.5,"aqi":121,"pm10":29.2,"pm2_5":26.3,"no2":10.1,"co":300.0,"o3":97.0,"so2":8.9,"mosquito_risk":7,"arthritis_risk":5,"migraine_risk":7,"frizz_risk":1,"updated_at":"2026-06-30T05:36:45.106511+05:30"},{"city":"Bhagalpur","state":"Bihar","latitude":25.2425,"longitude":87.0117,"temp":26.2,"humidity":96,"rain":0.1,"pressure":995.5,"uv_index":7.55,"wind_gusts":21.2,"aqi":139,"pm10":33.5,"pm2_5":32.7,"no2":11.8,"co":374.0,"o3":81.0,"so2":8.8,"mosquito_risk":10,"arthritis_risk":5,"migraine_risk":7,"frizz_risk":1,"updated_at":"2026-06-30T05:36:45.106517+05:30"},{"city":"Ranchi","state":"Jharkhand","latitude":23.3441,"longitude":85.3096,"temp":23.5,"humidity":94,"rain":0.0,"pressure":932.0,"uv_index":8.9,"wind_gusts":31.0,"aqi":96,"pm10":40.0,"pm2_5":39.5,"no2":9.9,"co":294.0,"o3":81.0,"so2":15.4,"mosquito_risk":3,"arthritis_risk":5,"migraine_risk":7,"frizz_risk":1,"updated_at":"2026-06-30T05:36:45.106523+05:30"},{"city":"Jamshedpur","state":"Jharkhand","latitude":22.8046,"longitude":86.2029,"temp":26.3,"humidity":96,"rain":0.0,"pressure":984.9,"uv_index":8.5,"wind_gusts":32.8,"aqi":151,"pm10":53.6,"pm2_5":53.0,"no2":19.3,"co":462.0,"o3":69.0,"so2":26.2,"mosquito_risk":7,"arthritis_risk":5,"migraine_risk":7,"frizz_risk":1,"updated_at":"2026-06-30T05:36:45.106528+05:30"},{"city":"Dhanbad","state":"Jharkhand","latitude":23.7957,"longitude":86.4304,"temp":26.1,"humidity":95,"rain":0.0,"pressure":973.7,"uv_index":8.4,"wind_gusts":21.6,"aqi":161,"pm10":119.0,"pm2_5":118.3,"no2":79.3,"co":397.0,"o3":16.0,"so2":151.7,"mosquito_risk":7,"arthritis_risk":5,"migraine_risk":7,"frizz_risk":1,"updated_at":"2026-06-30T05:36:45.106533+05:30"},{"city":"Bokaro","state":"Jharkhand","latitude":23.6693,"longitude":86.1511,"temp":26.2,"humidity":93,"rain":0.0,"pressure":977.5,"uv_index":8.85,"wind_gusts":22.0,"aqi":155,"pm10":73.8,"pm2_5":73.1,"no2":38.9,"co":271.0,"o3":58.0,"so2":93.0,"mosquito_risk":7,"arthritis_risk":5,"migraine_risk":7,"frizz_risk":1,"updated_at":"2026-06-30T05:36:45.106539+05:30"},{"city":"Bhubaneswar","state":"Odisha","latitude":20.2961,"longitude":85.8245,"temp":27.4,"humidity":93,"rain":0.0,"pressure":996.5,"uv_index":7.3,"wind_gusts":32.4,"aqi":80,"pm10":20.5,"pm2_5":19.6,"no2":8.3,"co":245.0,"o3":79.0,"so2":7.7,"mosquito_risk":7,"arthritis_risk":5,"migraine_risk":7,"frizz_risk":1,"updated_at":"2026-06-30T05:36:45.106544+05:30"},{"city":"Cuttack","state":"Odisha","latitude":20.4625,"longitude":85.8828,"temp":27.9,"humidity":93,"rain":0.0,"pressure":998.3,"uv_index":8.05,"wind_gusts":33.5,"aqi":80,"pm10":20.5,"pm2_5":19.6,"no2":8.3,"co":231.0,"o3":79.0,"so2":7.7,"mosquito_risk":7,"arthritis_risk":5,"migraine_risk":7,"frizz_risk":1,"updated_at":"2026-06-30T05:36:45.106550+05:30"},{"city":"Rourkela","state":"Odisha","latitude":22.2604,"longitude":84.8536,"temp":26.3,"humidity":97,"rain":0.1,"pressure":979.8,"uv_index":8.8,"wind_gusts":37.4,"aqi":97,"pm10":33.1,"pm2_5":32.2,"no2":10.5,"co":307.0,"o3":71.0,"so2":8.2,"mosquito_risk":10,"arthritis_risk":5,"migraine_risk":7,"frizz_risk":1,"updated_at":"2026-06-30T05:36:45.106556+05:30"},{"city":"Raipur","state":"Chhattisgarh","latitude":21.2514,"longitude":81.6296,"temp":26.1,"humidity":89,"rain":0.0,"pressure":969.7,"uv_index":4.9,"wind_gusts":32.0,"aqi":87,"pm10":41.9,"pm2_5":39.0,"no2":34.3,"co":451.0,"o3":54.0,"so2":45.4,"mosquito_risk":7,"arthritis_risk":5,"migraine_risk":3,"frizz_risk":1,"updated_at":"2026-06-30T05:36:45.106561+05:30"},{"city":"Bhilai","state":"Chhattisgarh","latitude":21.1938,"longitude":81.3509,"temp":26.1,"humidity":87,"rain":0.0,"pressure":970.0,"uv_index":2.9,"wind_gusts":34.6,"aqi":85,"pm10":34.7,"pm2_5":31.8,"no2":28.6,"co":623.0,"o3":66.0,"so2":40.6,"mosquito_risk":7,"arthritis_risk":5,"migraine_risk":3,"frizz_risk":1,"updated_at":"2026-06-30T05:36:45.106566+05:30"},{"city":"Guwahati","state":"Assam","latitude":26.1158,"longitude":91.7086,"temp":25.3,"humidity":98,"rain":0.1,"pressure":996.8,"uv_index":7.0,"wind_gusts":21.6,"aqi":56,"pm10":13.1,"pm2_5":12.7,"no2":8.2,"co":259.0,"o3":54.0,"so2":2.0,"mosquito_risk":10,"arthritis_risk":5,"migraine_risk":7,"frizz_risk":1,"updated_at":"2026-06-30T05:36:45.106572+05:30"},{"city":"Agartala","state":"Tripura","latitude":23.8315,"longitude":91.2868,"temp":26.1,"humidity":95,"rain":0.0,"pressure":1000.5,"uv_index":6.95,"wind_gusts":25.6,"aqi":54,"pm10":13.3,"pm2_5":12.2,"no2":12.2,"co":164.0,"o3":32.0,"so2":3.7,"mosquito_risk":7,"arthritis_risk":5,"migraine_risk":4,"frizz_risk":1,"updated_at":"2026-06-30T05:36:45.106578+05:30"},{"city":"Shillong","state":"Meghalaya","latitude":25.5788,"longitude":91.8933,"temp":20.4,"humidity":92,"rain":0.0,"pressure":854.0,"uv_index":7.2,"wind_gusts":18.0,"aqi":31,"pm10":2.4,"pm2_5":2.3,"no2":3.6,"co":196.0,"o3":65.0,"so2":2.0,"mosquito_risk":3,"arthritis_risk":5,"migraine_risk":7,"frizz_risk":1,"updated_at":"2026-06-30T05:36:45.106583+05:30"},{"city":"Imphal","state":"Manipur","latitude":24.817,"longitude":93.9368,"temp":23.2,"humidity":98,"rain":0.0,"pressure":919.5,"uv_index":7.35,"wind_gusts":24.1,"aqi":37,"pm10":8.8,"pm2_5":8.1,"no2":7.6,"co":304.0,"o3":35.0,"so2":2.7,"mosquito_risk":3,"arthritis_risk":5,"migraine_risk":7,"frizz_risk":1,"updated_at":"2026-06-30T05:36:45.106589+05:30"},{"city":"Aizawl","state":"Mizoram","latitude":23.7271,"longitude":92.7176,"temp":20.6,"humidity":97,"rain":0.0,"pressure":887.8,"uv_index":7.45,"wind_gusts":22.3,"aqi":25,"pm10":10.0,"pm2_5":9.8,"no2":7.5,"co":146.0,"o3":17.0,"so2":0.8,"mosquito_risk":3,"arthritis_risk":5,"migraine_risk":7,"frizz_risk":1,"updated_at":"2026-06-30T05:36:45.106594+05:30"},{"city":"Kohima","state":"Nagaland","latitude":25.6701,"longitude":94.1077,"temp":20.2,"humidity":93,"rain":0.0,"pressure":852.6,"uv_index":7.35,"wind_gusts":24.5,"aqi":22,"pm10":4.5,"pm2_5":4.2,"no2":4.8,"co":206.0,"o3":36.0,"so2":0.7,"mosquito_risk":3,"arthritis_risk":5,"migraine_risk":7,"frizz_risk":1,"updated_at":"2026-06-30T05:36:45.106599+05:30"},{"city":"Gangtok","state":"Sikkim","latitude":27.3314,"longitude":88.6138,"temp":18.6,"humidity":99,"rain":0.0,"pressure":834.6,"uv_index":6.15,"wind_gusts":27.0,"aqi":46,"pm10":7.3,"pm2_5":6.9,"no2":3.8,"co":338.0,"o3":101.0,"so2":1.8,"mosquito_risk":3,"arthritis_risk":10,"migraine_risk":7,"frizz_risk":1,"updated_at":"2026-06-30T05:36:45.106604+05:30"},{"city":"Siliguri","state":"West Bengal","latitude":26.7271,"longitude":88.3953,"temp":24.3,"humidity":99,"rain":0.2,"pressure":988.1,"uv_index":6.15,"wind_gusts":21.2,"aqi":56,"pm10":22.9,"pm2_5":22.0,"no2":9.3,"co":357.0,"o3":97.0,"so2":4.9,"mosquito_risk":6,"arthritis_risk":5,"migraine_risk":7,"frizz_risk":1,"updated_at":"2026-06-30T05:36:48.433165+05:30"},{"city":"Durgapur","state":"West Bengal","latitude":23.5204,"longitude":87.3119,"temp":26.7,"humidity":97,"rain":0.0,"pressure":989.4,"uv_index":9.0,"wind_gusts":32.4,"aqi":167,"pm10":142.0,"pm2_5":141.1,"no2":53.5,"co":1091.0,"o3":30.0,"so2":78.9,"mosquito_risk":7,"arthritis_risk":5,"migraine_risk":7,"frizz_risk":1,"updated_at":"2026-06-30T05:36:48.433198+05:30"},{"city":"Asansol","state":"West Bengal","latitude":23.6739,"longitude":86.9524,"temp":26.8,"humidity":97,"rain":0.0,"pressure":987.6,"uv_index":8.8,"wind_gusts":25.6,"aqi":160,"pm10":121.1,"pm2_5":120.1,"no2":63.1,"co":555.0,"o3":18.0,"so2":90.5,"mosquito_risk":7,"arthritis_risk":5,"migraine_risk":7,"frizz_risk":1,"updated_at":"2026-06-30T05:36:48.433208+05:30"},{"city":"Pondicherry","state":"Puducherry","latitude":11.9139,"longitude":79.8145,"temp":28.7,"humidity":60,"rain":0.0,"pressure":1005.9,"uv_index":8.1,"wind_gusts":46.4,"aqi":52,"pm10":9.1,"pm2_5":7.5,"no2":9.5,"co":161.0,"o3":38.0,"so2":3.0,"mosquito_risk":4,"arthritis_risk":5,"migraine_risk":4,"frizz_risk":1,"updated_at":"2026-06-30T05:36:48.433216+05:30"},{"city":"Port Blair","state":"Andaman and Nicobar Islands","latitude":11.6234,"longitude":92.7265,"temp":27.4,"humidity":86,"rain":0.0,"pressure":1005.5,"uv_index":7.95,"wind_gusts":46.4,"aqi":26,"pm10":12.9,"pm2_5":7.3,"no2":0.2,"co":88.0,"o3":50.0,"so2":0.3,"mosquito_risk":7,"arthritis_risk":5,"migraine_risk":4,"frizz_risk":1,"updated_at":"2026-06-30T05:36:48.433222+05:30"},{"city":"Haridwar","state":"Uttarakhand","latitude":29.9457,"longitude":78.1642,"temp":28.1,"humidity":80,"rain":0.0,"pressure":967.2,"uv_index":7.05,"wind_gusts":31.0,"aqi":138,"pm10":66.8,"pm2_5":48.0,"no2":5.2,"co":249.0,"o3":118.0,"so2":6.2,"mosquito_risk":7,"arthritis_risk":5,"migraine_risk":7,"frizz_risk":1,"updated_at":"2026-06-30T05:36:48.433229+05:30"},{"city":"Rishikesh","state":"Uttarakhand","latitude":30.0869,"longitude":78.2676,"temp":25.7,"humidity":96,"rain":0.0,"pressure":959.9,"uv_index":6.9,"wind_gusts":27.4,"aqi":116,"pm10":51.7,"pm2_5":32.6,"no2":4.6,"co":234.0,"o3":115.0,"so2":2.7,"mosquito_risk":7,"arthritis_risk":5,"migraine_risk":7,"frizz_risk":1,"updated_at":"2026-06-30T05:36:48.433235+05:30"},{"city":"Nainital","state":"Uttarakhand","latitude":29.3919,"longitude":79.4542,"temp":16.2,"humidity":100,"rain":0.1,"pressure":801.3,"uv_index":6.6,"wind_gusts":29.2,"aqi":112,"pm10":27.2,"pm2_5":18.6,"no2":6.5,"co":219.0,"o3":113.0,"so2":2.3,"mosquito_risk":6,"arthritis_risk":10,"migraine_risk":7,"frizz_risk":1,"updated_at":"2026-06-30T05:36:48.433241+05:30"},{"city":"Mussoorie","state":"Uttarakhand","latitude":30.4599,"longitude":78.0664,"temp":17.5,"humidity":92,"rain":0.2,"pressure":799.7,"uv_index":5.3,"wind_gusts":40.0,"aqi":102,"pm10":30.0,"pm2_5":24.4,"no2":12.4,"co":259.0,"o3":75.0,"so2":3.9,"mosquito_risk":6,"arthritis_risk":10,"migraine_risk":3,"frizz_risk":1,"updated_at":"2026-06-30T05:36:48.433246+05:30"},{"city":"Dharamshala","state":"Himachal Pradesh","latitude":32.219,"longitude":76.3234,"temp":21.4,"humidity":91,"rain":0.2,"pressure":864.6,"uv_index":6.55,"wind_gusts":28.1,"aqi":72,"pm10":10.7,"pm2_5":8.6,"no2":11.6,"co":253.0,"o3":65.0,"so2":0.3,"mosquito_risk":6,"arthritis_risk":5,"migraine_risk":7,"frizz_risk":1,"updated_at":"2026-06-30T05:36:48.433252+05:30"},{"city":"Dalhousie","state":"Himachal Pradesh","latitude":32.5387,"longitude":75.971,"temp":17.7,"humidity":97,"rain":0.1,"pressure":801.0,"uv_index":8.7,"wind_gusts":27.7,"aqi":109,"pm10":50.8,"pm2_5":35.9,"no2":9.8,"co":245.0,"o3":96.0,"so2":2.4,"mosquito_risk":6,"arthritis_risk":10,"migraine_risk":7,"frizz_risk":1,"updated_at":"2026-06-30T05:36:48.433258+05:30"},{"city":"Patiala","state":"Punjab","latitude":30.3398,"longitude":76.3869,"temp":30.6,"humidity":69,"rain":0.0,"pressure":969.7,"uv_index":7.5,"wind_gusts":38.2,"aqi":175,"pm10":793.5,"pm2_5":153.2,"no2":19.2,"co":393.0,"o3":61.0,"so2":13.4,"mosquito_risk":3,"arthritis_risk":5,"migraine_risk":7,"frizz_risk":1,"updated_at":"2026-06-30T05:36:48.433264+05:30"},{"city":"Bhatinda","state":"Punjab","latitude":30.211,"longitude":74.9455,"temp":32.1,"humidity":43,"rain":0.0,"pressure":974.5,"uv_index":8.1,"wind_gusts":35.3,"aqi":155,"pm10":175.6,"pm2_5":86.6,"no2":49.6,"co":211.0,"o3":11.0,"so2":6.5,"mosquito_risk":0,"arthritis_risk":5,"migraine_risk":7,"frizz_risk":1,"updated_at":"2026-06-30T05:36:48.433287+05:30"},{"city":"Rohtak","state":"Haryana","latitude":28.8955,"longitude":76.6066,"temp":31.6,"humidity":49,"rain":0.0,"pressure":973.3,"uv_index":7.55,"wind_gusts":34.6,"aqi":682,"pm10":495.5,"pm2_5":117.8,"no2":31.7,"co":215.0,"o3":20.0,"so2":9.3,"mosquito_risk":0,"arthritis_risk":5,"migraine_risk":7,"frizz_risk":1,"updated_at":"2026-06-30T05:36:48.433293+05:30"},{"city":"Panipat","state":"Haryana","latitude":29.3909,"longitude":76.9635,"temp":30.2,"humidity":70,"rain":0.0,"pressure":972.3,"uv_index":7.0,"wind_gusts":27.7,"aqi":844,"pm10":1400.7,"pm2_5":242.1,"no2":36.4,"co":378.0,"o3":25.0,"so2":19.6,"mosquito_risk":3,"arthritis_risk":5,"migraine_risk":7,"frizz_risk":1,"updated_at":"2026-06-30T05:36:48.433298+05:30"},{"city":"Mathura","state":"Uttar Pradesh","latitude":27.4924,"longitude":77.6737,"temp":31.3,"humidity":56,"rain":0.0,"pressure":978.9,"uv_index":7.1,"wind_gusts":32.8,"aqi":404,"pm10":209.5,"pm2_5":49.2,"no2":18.7,"co":300.0,"o3":40.0,"so2":4.6,"mosquito_risk":0,"arthritis_risk":5,"migraine_risk":7,"frizz_risk":1,"updated_at":"2026-06-30T05:36:48.433304+05:30"},{"city":"Vrindavan","state":"Uttar Pradesh","latitude":27.5823,"longitude":77.7027,"temp":30.8,"humidity":59,"rain":0.0,"pressure":979.5,"uv_index":7.95,"wind_gusts":32.4,"aqi":404,"pm10":209.5,"pm2_5":49.2,"no2":18.7,"co":350.0,"o3":40.0,"so2":4.6,"mosquito_risk":0,"arthritis_risk":5,"migraine_risk":7,"frizz_risk":1,"updated_at":"2026-06-30T05:36:48.433309+05:30"},{"city":"Ayodhya","state":"Uttar Pradesh","latitude":26.7922,"longitude":82.1998,"temp":26.6,"humidity":93,"rain":0.0,"pressure":989.0,"uv_index":7.25,"wind_gusts":27.7,"aqi":101,"pm10":33.8,"pm2_5":26.4,"no2":9.1,"co":405.0,"o3":96.0,"so2":3.2,"mosquito_risk":7,"arthritis_risk":5,"migraine_risk":7,"frizz_risk":1,"updated_at":"2026-06-30T05:36:48.433315+05:30"},{"city":"Ratlam","state":"Madhya Pradesh","latitude":23.3315,"longitude":75.0367,"temp":25.4,"humidity":86,"rain":0.0,"pressure":949.5,"uv_index":5.5,"wind_gusts":40.7,"aqi":63,"pm10":20.5,"pm2_5":13.8,"no2":7.8,"co":154.0,"o3":47.0,"so2":8.4,"mosquito_risk":7,"arthritis_risk":5,"migraine_risk":3,"frizz_risk":1,"updated_at":"2026-06-30T05:36:48.433320+05:30"},{"city":"Sagar","state":"Madhya Pradesh","latitude":23.8388,"longitude":78.7378,"temp":25.1,"humidity":93,"rain":0.0,"pressure":944.3,"uv_index":8.25,"wind_gusts":34.2,"aqi":67,"pm10":22.8,"pm2_5":16.3,"no2":6.6,"co":176.0,"o3":67.0,"so2":2.9,"mosquito_risk":7,"arthritis_risk":5,"migraine_risk":7,"frizz_risk":1,"updated_at":"2026-06-30T05:36:48.433325+05:30"},{"city":"Satna","state":"Madhya Pradesh","latitude":24.6005,"longitude":80.8322,"temp":25.6,"humidity":91,"rain":0.1,"pressure":964.8,"uv_index":7.85,"wind_gusts":40.7,"aqi":70,"pm10":25.0,"pm2_5":18.7,"no2":9.8,"co":169.0,"o3":56.0,"so2":3.9,"mosquito_risk":10,"arthritis_risk":5,"migraine_risk":7,"frizz_risk":1,"updated_at":"2026-06-30T05:36:48.433331+05:30"},{"city":"Akola","state":"Maharashtra","latitude":20.7002,"longitude":77.0082,"temp":26.1,"humidity":89,"rain":0.0,"pressure":970.4,"uv_index":1.85,"wind_gusts":34.6,"aqi":59,"pm10":21.2,"pm2_5":14.0,"no2":11.5,"co":153.0,"o3":41.0,"so2":11.1,"mosquito_risk":7,"arthritis_risk":5,"migraine_risk":3,"frizz_risk":1,"updated_at":"2026-06-30T05:36:48.433337+05:30"},{"city":"Amravati","state":"Maharashtra","latitude":20.9374,"longitude":77.7796,"temp":24.8,"humidity":94,"rain":0.0,"pressure":962.4,"uv_index":2.0,"wind_gusts":39.2,"aqi":62,"pm10":19.2,"pm2_5":13.4,"no2":11.6,"co":156.0,"o3":45.0,"so2":12.0,"mosquito_risk":3,"arthritis_risk":5,"migraine_risk":3,"frizz_risk":1,"updated_at":"2026-06-30T05:36:48.433343+05:30"},{"city":"Latur","state":"Maharashtra","latitude":18.4088,"longitude":76.5604,"temp":23.5,"humidity":89,"rain":0.0,"pressure":935.9,"uv_index":4.75,"wind_gusts":44.3,"aqi":36,"pm10":11.4,"pm2_5":8.4,"no2":9.4,"co":126.0,"o3":30.0,"so2":3.7,"mosquito_risk":3,"arthritis_risk":5,"migraine_risk":3,"frizz_risk":1,"updated_at":"2026-06-30T05:36:48.433349+05:30"},{"city":"Nanded","state":"Maharashtra","latitude":19.1383,"longitude":77.3091,"temp":25.1,"humidity":93,"rain":0.0,"pressure":964.5,"uv_index":4.6,"wind_gusts":36.0,"aqi":55,"pm10":12.0,"pm2_5":9.5,"no2":7.7,"co":157.0,"o3":56.0,"so2":5.0,"mosquito_risk":7,"arthritis_risk":5,"migraine_risk":3,"frizz_risk":1,"updated_at":"2026-06-30T05:36:48.433355+05:30"},{"city":"Gulbarga","state":"Karnataka","latitude":17.3297,"longitude":76.8343,"temp":24.0,"humidity":86,"rain":0.0,"pressure":955.6,"uv_index":4.6,"wind_gusts":51.5,"aqi":19,"pm10":2.9,"pm2_5":2.6,"no2":6.0,"co":132.0,"o3":38.0,"so2":2.7,"mosquito_risk":3,"arthritis_risk":5,"migraine_risk":3,"frizz_risk":1,"updated_at":"2026-06-30T05:36:48.433360+05:30"},{"city":"Bidar","state":"Karnataka","latitude":17.9104,"longitude":77.5199,"temp":23.3,"humidity":88,"rain":0.0,"pressure":931.8,"uv_index":5.0,"wind_gusts":44.3,"aqi":38,"pm10":7.5,"pm2_5":5.7,"no2":7.9,"co":142.0,"o3":33.0,"so2":2.5,"mosquito_risk":3,"arthritis_risk":5,"migraine_risk":3,"frizz_risk":1,"updated_at":"2026-06-30T05:36:48.433366+05:30"},{"city":"Hospet","state":"Karnataka","latitude":15.2689,"longitude":76.3909,"temp":23.2,"humidity":91,"rain":0.0,"pressure":953.7,"uv_index":6.25,"wind_gusts":58.0,"aqi":20,"pm10":1.3,"pm2_5":1.1,"no2":2.8,"co":100.0,"o3":45.0,"so2":1.2,"mosquito_risk":3,"arthritis_risk":5,"migraine_risk":7,"frizz_risk":1,"updated_at":"2026-06-30T05:36:48.433372+05:30"},{"city":"Tirupur","state":"Tamil Nadu","latitude":11.1085,"longitude":77.3411,"temp":22.9,"humidity":92,"rain":0.0,"pressure":974.0,"uv_index":8.3,"wind_gusts":58.0,"aqi":44,"pm10":16.6,"pm2_5":15.3,"no2":17.2,"co":132.0,"o3":20.0,"so2":4.5,"mosquito_risk":3,"arthritis_risk":5,"migraine_risk":7,"frizz_risk":1,"updated_at":"2026-06-30T05:36:48.433377+05:30"},{"city":"Alappuzha","state":"Kerala","latitude":9.4981,"longitude":76.3388,"temp":25.1,"humidity":96,"rain":0.1,"pressure":1009.6,"uv_index":8.25,"wind_gusts":43.9,"aqi":32,"pm10":13.7,"pm2_5":7.9,"no2":5.6,"co":83.0,"o3":37.0,"so2":2.7,"mosquito_risk":10,"arthritis_risk":0,"migraine_risk":4,"frizz_risk":1,"updated_at":"2026-06-30T05:36:48.433382+05:30"},{"city":"Munnar","state":"Kerala","latitude":10.0889,"longitude":77.0595,"temp":16.5,"humidity":99,"rain":0.1,"pressure":856.1,"uv_index":6.85,"wind_gusts":52.6,"aqi":15,"pm10":2.5,"pm2_5":1.8,"no2":2.6,"co":87.0,"o3":30.0,"so2":0.6,"mosquito_risk":6,"arthritis_risk":10,"migraine_risk":7,"frizz_risk":1,"updated_at":"2026-06-30T05:36:48.433388+05:30"},{"city":"Silchar","state":"Assam","latitude":24.8333,"longitude":92.7789,"temp":26.3,"humidity":95,"rain":0.1,"pressure":1000.1,"uv_index":8.35,"wind_gusts":27.4,"aqi":62,"pm10":22.0,"pm2_5":20.4,"no2":9.4,"co":240.0,"o3":43.0,"so2":3.7,"mosquito_risk":10,"arthritis_risk":5,"migraine_risk":4,"frizz_risk":1,"updated_at":"2026-06-30T05:36:48.433393+05:30"},{"city":"Dibrugarh","state":"Assam","latitude":27.4728,"longitude":94.912,"temp":26.1,"humidity":90,"rain":0.0,"pressure":991.2,"uv_index":7.8,"wind_gusts":19.4,"aqi":74,"pm10":23.5,"pm2_5":23.1,"no2":19.8,"co":218.0,"o3":37.0,"so2":1.1,"mosquito_risk":7,"arthritis_risk":5,"migraine_risk":7,"frizz_risk":1,"updated_at":"2026-06-30T05:36:48.433398+05:30"}]