[{"city":"Delhi","state":"Delhi","latitude":28.6139,"longitude":77.209,"temp":30.7,"humidity":32,"rain":0.0,"pressure":985.6,"uv_index":7.15,"wind_gusts":33.8,"aqi":712,"pm10":614.7,"pm2_5":74.3,"mosquito_risk":0,"arthritis_risk":5,"migraine_risk":7,"frizz_risk":0,"updated_at":"2026-04-11T15:13:43.689641+05:30"},{"city":"Mumbai","state":"Maharashtra","latitude":19.076,"longitude":72.8777,"temp":28.6,"humidity":83,"rain":0.0,"pressure":1008.4,"uv_index":7.95,"wind_gusts":24.1,"aqi":159,"pm10":61.0,"pm2_5":41.2,"mosquito_risk":7,"arthritis_risk":0,"migraine_risk":4,"frizz_risk":1,"updated_at":"2026-04-11T15:13:43.689689+05:30"},{"city":"Bangalore","state":"Karnataka","latitude":12.9716,"longitude":77.5946,"temp":34.2,"humidity":32,"rain":0.0,"pressure":912.3,"uv_index":9.65,"wind_gusts":27.4,"aqi":85,"pm10":37.7,"pm2_5":26.5,"mosquito_risk":0,"arthritis_risk":5,"migraine_risk":7,"frizz_risk":0,"updated_at":"2026-04-11T15:13:43.689704+05:30"},{"city":"Hyderabad","state":"Telangana","latitude":17.385,"longitude":78.4867,"temp":38.8,"humidity":23,"rain":0.0,"pressure":953.3,"uv_index":9.2,"wind_gusts":19.1,"aqi":111,"pm10":35.9,"pm2_5":24.9,"mosquito_risk":0,"arthritis_risk":5,"migraine_risk":10,"frizz_risk":0,"updated_at":"2026-04-11T15:13:43.689714+05:30"},{"city":"Chennai","state":"Tamil Nadu","latitude":13.0827,"longitude":80.2707,"temp":34.3,"humidity":55,"rain":0.0,"pressure":1007.2,"uv_index":9.15,"wind_gusts":36.4,"aqi":57,"pm10":24.0,"pm2_5":16.4,"mosquito_risk":0,"arthritis_risk":5,"migraine_risk":4,"frizz_risk":1,"updated_at":"2026-04-11T15:13:43.689722+05:30"},{"city":"Kolkata","state":"West Bengal","latitude":22.5726,"longitude":88.3639,"temp":32.2,"humidity":49,"rain":0.0,"pressure":1005.8,"uv_index":8.75,"wind_gusts":20.2,"aqi":136,"pm10":54.2,"pm2_5":33.9,"mosquito_risk":0,"arthritis_risk":5,"migraine_risk":4,"frizz_risk":1,"updated_at":"2026-04-11T15:13:43.689729+05:30"},{"city":"Pune","state":"Maharashtra","latitude":18.5204,"longitude":73.8567,"temp":39.5,"humidity":22,"rain":0.0,"pressure":948.7,"uv_index":8.55,"wind_gusts":39.6,"aqi":111,"pm10":37.3,"pm2_5":21.1,"mosquito_risk":0,"arthritis_risk":5,"migraine_risk":10,"frizz_risk":0,"updated_at":"2026-04-11T15:13:43.689739+05:30"},{"city":"Ahmedabad","state":"Gujarat","latitude":23.0225,"longitude":72.5714,"temp":39.8,"humidity":15,"rain":0.0,"pressure":1002.8,"uv_index":8.05,"wind_gusts":18.4,"aqi":99,"pm10":26.6,"pm2_5":14.7,"mosquito_risk":0,"arthritis_risk":5,"migraine_risk":7,"frizz_risk":0,"updated_at":"2026-04-11T15:13:43.689746+05:30"},{"city":"Jaipur","state":"Rajasthan","latitude":26.9124,"longitude":75.7873,"temp":35.2,"humidity":17,"rain":0.0,"pressure":961.8,"uv_index":7.85,"wind_gusts":37.4,"aqi":94,"pm10":182.5,"pm2_5":22.3,"mosquito_risk":0,"arthritis_risk":5,"migraine_risk":10,"frizz_risk":0,"updated_at":"2026-04-11T15:13:43.689752+05:30"},{"city":"Lucknow","state":"Uttar Pradesh","latitude":26.8467,"longitude":80.9462,"temp":35.1,"humidity":22,"rain":0.0,"pressure":994.1,"uv_index":7.65,"wind_gusts":46.1,"aqi":257,"pm10":250.5,"pm2_5":43.8,"mosquito_risk":0,"arthritis_risk":5,"migraine_risk":10,"frizz_risk":0,"updated_at":"2026-04-11T15:13:43.689759+05:30"},{"city":"Kanpur","state":"Uttar Pradesh","latitude":26.4499,"longitude":80.3319,"temp":34.0,"humidity":26,"rain":0.0,"pressure":993.2,"uv_index":7.65,"wind_gusts":40.7,"aqi":613,"pm10":672.4,"pm2_5":78.2,"mosquito_risk":0,"arthritis_risk":5,"migraine_risk":7,"frizz_risk":0,"updated_at":"2026-04-11T15:13:43.689766+05:30"},{"city":"Chandigarh","state":"Chandigarh","latitude":30.7333,"longitude":76.7794,"temp":30.5,"humidity":30,"rain":0.0,"pressure":970.9,"uv_index":7.15,"wind_gusts":33.8,"aqi":94,"pm10":48.7,"pm2_5":17.9,"mosquito_risk":0,"arthritis_risk":5,"migraine_risk":7,"frizz_risk":0,"updated_at":"2026-04-11T15:13:43.689773+05:30"},{"city":"Srinagar","state":"Jammu and Kashmir","latitude":34.0837,"longitude":74.7973,"temp":12.7,"humidity":69,"rain":0.1,"pressure":842.6,"uv_index":7.45,"wind_gusts":18.0,"aqi":86,"pm10":37.4,"pm2_5":11.5,"mosquito_risk":6,"arthritis_risk":5,"migraine_risk":7,"frizz_risk":0,"updated_at":"2026-04-11T15:13:43.689780+05:30"},{"city":"Jammu","state":"Jammu and Kashmir","latitude":32.7266,"longitude":74.857,"temp":28.0,"humidity":35,"rain":0.0,"pressure":975.7,"uv_index":6.65,"wind_gusts":17.6,"aqi":65,"pm10":93.6,"pm2_5":19.6,"mosquito_risk":4,"arthritis_risk":5,"migraine_risk":7,"frizz_risk":0,"updated_at":"2026-04-11T15:13:43.689787+05:30"},{"city":"Amritsar","state":"Punjab","latitude":31.634,"longitude":74.8723,"temp":27.9,"humidity":41,"rain":0.0,"pressure":983.7,"uv_index":7.7,"wind_gusts":20.9,"aqi":70,"pm10":87.1,"pm2_5":23.7,"mosquito_risk":4,"arthritis_risk":5,"migraine_risk":7,"frizz_risk":0,"updated_at":"2026-04-11T15:13:43.689793+05:30"},{"city":"Ludhiana","state":"Punjab","latitude":30.901,"longitude":75.8573,"temp":30.3,"humidity":31,"rain":0.0,"pressure":981.3,"uv_index":7.35,"wind_gusts":33.8,"aqi":69,"pm10":59.3,"pm2_5":18.6,"mosquito_risk":0,"arthritis_risk":5,"migraine_risk":7,"frizz_risk":0,"updated_at":"2026-04-11T15:13:43.689799+05:30"},{"city":"Jalandhar","state":"Punjab","latitude":31.326,"longitude":75.5762,"temp":29.3,"humidity":34,"rain":0.0,"pressure":982.7,"uv_index":7.5,"wind_gusts":27.0,"aqi":69,"pm10":76.4,"pm2_5":19.8,"mosquito_risk":4,"arthritis_risk":5,"migraine_risk":7,"frizz_risk":0,"updated_at":"2026-04-11T15:13:43.689806+05:30"},{"city":"Dehradun","state":"Uttarakhand","latitude":30.6284,"longitude":78.0322,"temp":20.0,"humidity":45,"rain":0.0,"pressure":831.9,"uv_index":7.5,"wind_gusts":48.6,"aqi":96,"pm10":45.3,"pm2_5":12.1,"mosquito_risk":0,"arthritis_risk":5,"migraine_risk":7,"frizz_risk":0,"updated_at":"2026-04-11T15:13:43.689812+05:30"},{"city":"Shimla","state":"Himachal Pradesh","latitude":31.1048,"longitude":77.1734,"temp":16.6,"humidity":52,"rain":0.0,"pressure":786.8,"uv_index":7.5,"wind_gusts":46.1,"aqi":96,"pm10":48.0,"pm2_5":13.4,"mosquito_risk":0,"arthritis_risk":5,"migraine_risk":7,"frizz_risk":0,"updated_at":"2026-04-11T15:13:43.689817+05:30"},{"city":"Manali","state":"Himachal Pradesh","latitude":32.2396,"longitude":77.1887,"temp":17.1,"humidity":50,"rain":0.0,"pressure":820.6,"uv_index":9.1,"wind_gusts":33.1,"aqi":128,"pm10":35.9,"pm2_5":9.1,"mosquito_risk":0,"arthritis_risk":5,"migraine_risk":7,"frizz_risk":0,"updated_at":"2026-04-11T15:13:43.689823+05:30"},{"city":"Gurgaon","state":"Haryana","latitude":28.4595,"longitude":77.0266,"temp":29.7,"humidity":37,"rain":0.0,"pressure":984.1,"uv_index":7.3,"wind_gusts":26.3,"aqi":1848,"pm10":1695.0,"pm2_5":160.7,"mosquito_risk":4,"arthritis_risk":5,"migraine_risk":7,"frizz_risk":0,"updated_at":"2026-04-11T15:13:43.689828+05:30"},{"city":"Noida","state":"Uttar Pradesh","latitude":28.5355,"longitude":77.391,"temp":30.8,"humidity":33,"rain":0.0,"pressure":987.1,"uv_index":7.2,"wind_gusts":33.5,"aqi":1848,"pm10":1695.0,"pm2_5":160.7,"mosquito_risk":0,"arthritis_risk":5,"migraine_risk":7,"frizz_risk":0,"updated_at":"2026-04-11T15:13:43.689835+05:30"},{"city":"Ghaziabad","state":"Uttar Pradesh","latitude":28.6692,"longitude":77.4538,"temp":30.6,"humidity":34,"rain":0.0,"pressure":985.2,"uv_index":7.15,"wind_gusts":32.4,"aqi":549,"pm10":488.0,"pm2_5":65.4,"mosquito_risk":0,"arthritis_risk":5,"migraine_risk":7,"frizz_risk":0,"updated_at":"2026-04-11T15:13:43.689841+05:30"},{"city":"Faridabad","state":"Haryana","latitude":28.4089,"longitude":77.3178,"temp":30.4,"humidity":32,"rain":0.0,"pressure":986.5,"uv_index":7.25,"wind_gusts":33.1,"aqi":1848,"pm10":1695.0,"pm2_5":160.7,"mosquito_risk":0,"arthritis_risk":5,"migraine_risk":7,"frizz_risk":0,"updated_at":"2026-04-11T15:13:43.689846+05:30"},{"city":"Meerut","state":"Uttar Pradesh","latitude":28.9845,"longitude":77.7064,"temp":31.0,"humidity":33,"rain":0.0,"pressure":983.7,"uv_index":7.05,"wind_gusts":33.5,"aqi":549,"pm10":488.0,"pm2_5":65.4,"mosquito_risk":0,"arthritis_risk":5,"migraine_risk":7,"frizz_risk":0,"updated_at":"2026-04-11T15:13:43.689852+05:30"},{"city":"Agra","state":"Uttar Pradesh","latitude":27.1767,"longitude":78.0081,"temp":34.5,"humidity":25,"rain":0.0,"pressure":990.2,"uv_index":7.55,"wind_gusts":29.9,"aqi":1183,"pm10":743.2,"pm2_5":79.6,"mosquito_risk":0,"arthritis_risk":5,"migraine_risk":7,"frizz_risk":0,"updated_at":"2026-04-11T15:13:43.689857+05:30"},{"city":"Varanasi","state":"Uttar Pradesh","latitude":25.3176,"longitude":82.9739,"temp":36.3,"humidity":18,"rain":0.0,"pressure":997.7,"uv_index":8.3,"wind_gusts":41.4,"aqi":102,"pm10":89.2,"pm2_5":28.5,"mosquito_risk":0,"arthritis_risk":5,"migraine_risk":10,"frizz_risk":0,"updated_at":"2026-04-11T15:13:43.689864+05:30"},{"city":"Prayagraj","state":"Uttar Pradesh","latitude":25.4358,"longitude":81.8463,"temp":35.6,"humidity":20,"rain":0.0,"pressure":997.2,"uv_index":8.15,"wind_gusts":43.9,"aqi":126,"pm10":102.2,"pm2_5":30.3,"mosquito_risk":0,"arthritis_risk":5,"migraine_risk":10,"frizz_risk":0,"updated_at":"2026-04-11T15:13:43.689870+05:30"},{"city":"Gorakhpur","state":"Uttar Pradesh","latitude":26.7606,"longitude":83.3732,"temp":35.0,"humidity":21,"rain":0.0,"pressure":996.5,"uv_index":8.1,"wind_gusts":34.9,"aqi":111,"pm10":86.8,"pm2_5":33.4,"mosquito_risk":0,"arthritis_risk":5,"migraine_risk":7,"frizz_risk":0,"updated_at":"2026-04-11T15:13:43.689882+05:30"},{"city":"Bareilly","state":"Uttar Pradesh","latitude":28.367,"longitude":79.4304,"temp":32.4,"humidity":26,"rain":0.0,"pressure":988.2,"uv_index":7.45,"wind_gusts":50.0,"aqi":95,"pm10":47.3,"pm2_5":17.2,"mosquito_risk":0,"arthritis_risk":5,"migraine_risk":7,"frizz_risk":0,"updated_at":"2026-04-11T15:13:43.689887+05:30"},{"city":"Aligarh","state":"Uttar Pradesh","latitude":27.8974,"longitude":78.088,"temp":33.6,"humidity":25,"rain":0.0,"pressure":987.8,"uv_index":7.35,"wind_gusts":38.9,"aqi":1191,"pm10":1084.1,"pm2_5":113.6,"mosquito_risk":0,"arthritis_risk":5,"migraine_risk":7,"frizz_risk":0,"updated_at":"2026-04-11T15:13:43.689908+05:30"},{"city":"Moradabad","state":"Uttar Pradesh","latitude":28.8386,"longitude":78.7733,"temp":31.7,"humidity":28,"rain":0.0,"pressure":985.3,"uv_index":7.25,"wind_gusts":42.5,"aqi":103,"pm10":87.1,"pm2_5":25.8,"mosquito_risk":0,"arthritis_risk":5,"migraine_risk":7,"frizz_risk":0,"updated_at":"2026-04-11T15:13:43.689915+05:30"},{"city":"Saharanpur","state":"Uttar Pradesh","latitude":29.9637,"longitude":77.546,"temp":31.8,"humidity":29,"rain":0.0,"pressure":977.5,"uv_index":6.85,"wind_gusts":40.7,"aqi":75,"pm10":81.7,"pm2_5":21.0,"mosquito_risk":0,"arthritis_risk":5,"migraine_risk":7,"frizz_risk":0,"updated_at":"2026-04-11T15:13:43.689921+05:30"},{"city":"Jhansi","state":"Uttar Pradesh","latitude":25.4484,"longitude":78.5685,"temp":36.8,"humidity":18,"rain":0.0,"pressure":980.0,"uv_index":8.1,"wind_gusts":28.8,"aqi":77,"pm10":94.3,"pm2_5":18.5,"mosquito_risk":0,"arthritis_risk":5,"migraine_risk":10,"frizz_risk":0,"updated_at":"2026-04-11T15:13:46.943168+05:30"},{"city":"Surat","state":"Gujarat","latitude":21.1702,"longitude":72.8311,"temp":36.5,"humidity":27,"rain":0.0,"pressure":1007.3,"uv_index":7.8,"wind_gusts":28.4,"aqi":119,"pm10":75.9,"pm2_5":68.7,"mosquito_risk":0,"arthritis_risk":5,"migraine_risk":7,"frizz_risk":0,"updated_at":"2026-04-11T15:13:46.943198+05:30"},{"city":"Vadodara","state":"Gujarat","latitude":22.3072,"longitude":73.1812,"temp":39.5,"humidity":17,"rain":0.0,"pressure":1004.9,"uv_index":8.05,"wind_gusts":16.6,"aqi":87,"pm10":19.3,"pm2_5":11.0,"mosquito_risk":0,"arthritis_risk":5,"migraine_risk":7,"frizz_risk":0,"updated_at":"2026-04-11T15:13:46.943208+05:30"},{"city":"Rajkot","state":"Gujarat","latitude":22.3039,"longitude":70.8022,"temp":38.4,"humidity":22,"rain":0.0,"pressure":995.5,"uv_index":7.75,"wind_gusts":31.7,"aqi":72,"pm10":32.5,"pm2_5":15.9,"mosquito_risk":0,"arthritis_risk":5,"migraine_risk":10,"frizz_risk":0,"updated_at":"2026-04-11T15:13:46.943216+05:30"},{"city":"Thane","state":"Maharashtra","latitude":19.2183,"longitude":72.9781,"temp":32.5,"humidity":57,"rain":0.0,"pressure":1008.2,"uv_index":7.95,"wind_gusts":37.8,"aqi":159,"pm10":61.0,"pm2_5":41.2,"mosquito_risk":0,"arthritis_risk":0,"migraine_risk":4,"frizz_risk":1,"updated_at":"2026-04-11T15:13:46.943224+05:30"},{"city":"Nagpur","state":"Maharashtra","latitude":21.1458,"longitude":79.0882,"temp":35.8,"humidity":23,"rain":0.0,"pressure":974.3,"uv_index":8.75,"wind_gusts":22.7,"aqi":116,"pm10":30.9,"pm2_5":13.5,"mosquito_risk":0,"arthritis_risk":5,"migraine_risk":10,"frizz_risk":0,"updated_at":"2026-04-11T15:13:46.943232+05:30"},{"city":"Nashik","state":"Maharashtra","latitude":19.9975,"longitude":73.7898,"temp":37.3,"humidity":22,"rain":0.0,"pressure":946.6,"uv_index":8.25,"wind_gusts":37.8,"aqi":135,"pm10":41.2,"pm2_5":25.7,"mosquito_risk":0,"arthritis_risk":5,"migraine_risk":10,"frizz_risk":0,"updated_at":"2026-04-11T15:13:46.943239+05:30"},{"city":"Aurangabad","state":"Maharashtra","latitude":19.8762,"longitude":75.3433,"temp":38.5,"humidity":18,"rain":0.0,"pressure":944.9,"uv_index":8.9,"wind_gusts":29.5,"aqi":111,"pm10":27.6,"pm2_5":15.5,"mosquito_risk":0,"arthritis_risk":5,"migraine_risk":10,"frizz_risk":0,"updated_at":"2026-04-11T15:13:46.943246+05:30"},{"city":"Solapur","state":"Maharashtra","latitude":17.6599,"longitude":75.9064,"temp":40.3,"humidity":20,"rain":0.0,"pressure":956.8,"uv_index":9.0,"wind_gusts":18.7,"aqi":108,"pm10":30.7,"pm2_5":18.0,"mosquito_risk":0,"arthritis_risk":5,"migraine_risk":10,"frizz_risk":0,"updated_at":"2026-04-11T15:13:46.943254+05:30"},{"city":"Kolhapur","state":"Maharashtra","latitude":16.705,"longitude":74.2433,"temp":37.4,"humidity":27,"rain":0.0,"pressure":948.1,"uv_index":8.5,"wind_gusts":43.9,"aqi":105,"pm10":35.2,"pm2_5":21.8,"mosquito_risk":0,"arthritis_risk":5,"migraine_risk":10,"frizz_risk":0,"updated_at":"2026-04-11T15:13:46.943261+05:30"},{"city":"Goa","state":"Goa","latitude":15.2993,"longitude":74.124,"temp":31.5,"humidity":63,"rain":0.0,"pressure":998.2,"uv_index":9.05,"wind_gusts":33.8,"aqi":110,"pm10":82.0,"pm2_5":33.1,"mosquito_risk":3,"arthritis_risk":5,"migraine_risk":7,"frizz_risk":1,"updated_at":"2026-04-11T15:13:46.943268+05:30"},{"city":"Jodhpur","state":"Rajasthan","latitude":26.2389,"longitude":73.0243,"temp":36.3,"humidity":21,"rain":0.0,"pressure":984.5,"uv_index":8.05,"wind_gusts":28.4,"aqi":63,"pm10":150.4,"pm2_5":26.1,"mosquito_risk":0,"arthritis_risk":5,"migraine_risk":10,"frizz_risk":0,"updated_at":"2026-04-11T15:13:46.943275+05:30"},{"city":"Udaipur","state":"Rajasthan","latitude":24.5854,"longitude":73.7125,"temp":35.1,"humidity":21,"rain":0.0,"pressure":948.9,"uv_index":8.6,"wind_gusts":33.8,"aqi":105,"pm10":17.0,"pm2_5":6.1,"mosquito_risk":0,"arthritis_risk":5,"migraine_risk":10,"frizz_risk":0,"updated_at":"2026-04-11T15:13:46.943283+05:30"},{"city":"Kota","state":"Rajasthan","latitude":25.2138,"longitude":75.8648,"temp":36.3,"humidity":21,"rain":0.0,"pressure":980.6,"uv_index":8.1,"wind_gusts":17.6,"aqi":70,"pm10":19.1,"pm2_5":7.5,"mosquito_risk":0,"arthritis_risk":5,"migraine_risk":10,"frizz_risk":0,"updated_at":"2026-04-11T15:13:46.943289+05:30"},{"city":"Bikaner","state":"Rajasthan","latitude":28.0229,"longitude":73.3119,"temp":34.5,"humidity":22,"rain":0.0,"pressure":983.6,"uv_index":7.4,"wind_gusts":32.8,"aqi":81,"pm10":74.3,"pm2_5":20.3,"mosquito_risk":0,"arthritis_risk":5,"migraine_risk":7,"frizz_risk":0,"updated_at":"2026-04-11T15:13:46.943296+05:30"},{"city":"Ajmer","state":"Rajasthan","latitude":26.4499,"longitude":74.6399,"temp":34.5,"humidity":19,"rain":0.0,"pressure":957.0,"uv_index":8.0,"wind_gusts":37.8,"aqi":68,"pm10":15.7,"pm2_5":6.1,"mosquito_risk":0,"arthritis_risk":5,"migraine_risk":7,"frizz_risk":0,"updated_at":"2026-04-11T15:13:46.943303+05:30"},{"city":"Gwalior","state":"Madhya Pradesh","latitude":26.2183,"longitude":78.1828,"temp":34.5,"humidity":27,"rain":0.0,"pressure":985.7,"uv_index":7.8,"wind_gusts":28.1,"aqi":103,"pm10":72.2,"pm2_5":17.5,"mosquito_risk":0,"arthritis_risk":5,"migraine_risk":7,"frizz_risk":0,"updated_at":"2026-04-11T15:13:46.943310+05:30"},{"city":"Indore","state":"Madhya Pradesh","latitude":22.7196,"longitude":75.8577,"temp":35.4,"humidity":15,"rain":0.0,"pressure":950.6,"uv_index":8.5,"wind_gusts":21.6,"aqi":101,"pm10":32.5,"pm2_5":13.5,"mosquito_risk":0,"arthritis_risk":5,"migraine_risk":10,"frizz_risk":0,"updated_at":"2026-04-11T15:13:46.943317+05:30"},{"city":"Bhopal","state":"Madhya Pradesh","latitude":23.2599,"longitude":77.4126,"temp":37.0,"humidity":15,"rain":0.0,"pressure":956.0,"uv_index":8.45,"wind_gusts":22.3,"aqi":93,"pm10":42.3,"pm2_5":10.4,"mosquito_risk":0,"arthritis_risk":5,"migraine_risk":10,"frizz_risk":0,"updated_at":"2026-04-11T15:13:46.943323+05:30"},{"city":"Jabalpur","state":"Madhya Pradesh","latitude":23.1815,"longitude":79.9864,"temp":35.1,"humidity":20,"rain":0.0,"pressure":963.7,"uv_index":8.6,"wind_gusts":20.5,"aqi":112,"pm10":47.7,"pm2_5":17.8,"mosquito_risk":0,"arthritis_risk":5,"migraine_risk":10,"frizz_risk":0,"updated_at":"2026-04-11T15:13:46.943330+05:30"},{"city":"Ujjain","state":"Madhya Pradesh","latitude":23.1765,"longitude":75.7885,"temp":35.8,"humidity":18,"rain":0.0,"pressure":956.3,"uv_index":8.4,"wind_gusts":20.5,"aqi":85,"pm10":25.4,"pm2_5":11.9,"mosquito_risk":0,"arthritis_risk":5,"migraine_risk":10,"frizz_risk":0,"updated_at":"2026-04-11T15:13:46.943337+05:30"},{"city":"Visakhapatnam","state":"Andhra Pradesh","latitude":17.6868,"longitude":83.2185,"temp":33.4,"humidity":58,"rain":0.0,"pressure":1003.7,"uv_index":9.15,"wind_gusts":40.3,"aqi":81,"pm10":38.3,"pm2_5":30.9,"mosquito_risk":0,"arthritis_risk":5,"migraine_risk":4,"frizz_risk":1,"updated_at":"2026-04-11T15:13:46.943344+05:30"},{"city":"Vijayawada","state":"Andhra Pradesh","latitude":16.5062,"longitude":80.648,"temp":37.8,"humidity":36,"rain":0.0,"pressure":1001.8,"uv_index":9.2,"wind_gusts":26.3,"aqi":74,"pm10":37.1,"pm2_5":27.6,"mosquito_risk":0,"arthritis_risk":5,"migraine_risk":7,"frizz_risk":1,"updated_at":"2026-04-11T15:13:46.943351+05:30"},{"city":"Guntur","state":"Andhra Pradesh","latitude":16.3067,"longitude":80.4365,"temp":38.0,"humidity":35,"rain":0.0,"pressure":1003.0,"uv_index":9.25,"wind_gusts":33.8,"aqi":74,"pm10":35.9,"pm2_5":26.0,"mosquito_risk":0,"arthritis_risk":5,"migraine_risk":7,"frizz_risk":1,"updated_at":"2026-04-11T15:13:46.943358+05:30"},{"city":"Nellore","state":"Andhra Pradesh","latitude":14.4426,"longitude":79.9865,"temp":37.7,"humidity":41,"rain":0.0,"pressure":1004.8,"uv_index":9.25,"wind_gusts":41.8,"aqi":64,"pm10":34.1,"pm2_5":23.6,"mosquito_risk":0,"arthritis_risk":5,"migraine_risk":7,"frizz_risk":1,"updated_at":"2026-04-11T15:13:46.943365+05:30"},{"city":"Kurnool","state":"Andhra Pradesh","latitude":15.8281,"longitude":78.0373,"temp":39.2,"humidity":28,"rain":0.0,"pressure":975.8,"uv_index":9.2,"wind_gusts":26.6,"aqi":93,"pm10":36.4,"pm2_5":23.5,"mosquito_risk":0,"arthritis_risk":5,"migraine_risk":10,"frizz_risk":1,"updated_at":"2026-04-11T15:13:46.943373+05:30"},{"city":"Kakinada","state":"Andhra Pradesh","latitude":16.9891,"longitude":82.2475,"temp":38.1,"humidity":38,"rain":0.0,"pressure":1006.5,"uv_index":9.2,"wind_gusts":35.6,"aqi":62,"pm10":24.8,"pm2_5":16.8,"mosquito_risk":0,"arthritis_risk":5,"migraine_risk":7,"frizz_risk":1,"updated_at":"2026-04-11T15:13:46.943379+05:30"},{"city":"Tirupati","state":"Andhra Pradesh","latitude":13.6288,"longitude":79.4192,"temp":37.6,"humidity":29,"rain":0.0,"pressure":990.6,"uv_index":9.4,"wind_gusts":29.9,"aqi":75,"pm10":38.3,"pm2_5":25.0,"mosquito_risk":0,"arthritis_risk":5,"migraine_risk":10,"frizz_risk":1,"updated_at":"2026-04-11T15:13:46.943386+05:30"},{"city":"Warangal","state":"Telangana","latitude":17.9689,"longitude":79.5941,"temp":38.3,"humidity":29,"rain":0.0,"pressure":978.3,"uv_index":9.1,"wind_gusts":25.2,"aqi":103,"pm10":32.0,"pm2_5":22.2,"mosquito_risk":0,"arthritis_risk":5,"migraine_risk":10,"frizz_risk":1,"updated_at":"2026-04-11T15:13:46.943393+05:30"},{"city":"Nizamabad","state":"Telangana","latitude":18.6725,"longitude":78.0941,"temp":37.9,"humidity":25,"rain":0.0,"pressure":965.3,"uv_index":9.0,"wind_gusts":24.8,"aqi":117,"pm10":29.6,"pm2_5":17.1,"mosquito_risk":0,"arthritis_risk":5,"migraine_risk":10,"frizz_risk":0,"updated_at":"2026-04-11T15:13:46.943399+05:30"},{"city":"Mysore","state":"Karnataka","latitude":12.2958,"longitude":76.6396,"temp":34.4,"humidity":36,"rain":0.0,"pressure":928.3,"uv_index":9.4,"wind_gusts":34.2,"aqi":82,"pm10":35.2,"pm2_5":25.8,"mosquito_risk":0,"arthritis_risk":5,"migraine_risk":7,"frizz_risk":1,"updated_at":"2026-04-11T15:13:46.943406+05:30"},{"city":"Mangalore","state":"Karnataka","latitude":12.9141,"longitude":74.856,"temp":29.6,"humidity":79,"rain":0.0,"pressure":1006.6,"uv_index":8.75,"wind_gusts":24.5,"aqi":84,"pm10":79.9,"pm2_5":30.4,"mosquito_risk":7,"arthritis_risk":5,"migraine_risk":4,"frizz_risk":1,"updated_at":"2026-04-11T15:13:46.943413+05:30"},{"city":"Hubli-Dharwad","state":"Karnataka","latitude":15.3647,"longitude":75.124,"temp":37.8,"humidity":25,"rain":0.0,"pressure":940.6,"uv_index":9.25,"wind_gusts":41.4,"aqi":96,"pm10":45.4,"pm2_5":24.6,"mosquito_risk":0,"arthritis_risk":5,"migraine_risk":10,"frizz_risk":0,"updated_at":"2026-04-11T15:13:46.943420+05:30"},{"city":"Belgaum","state":"Karnataka","latitude":15.8497,"longitude":74.4977,"temp":33.9,"humidity":40,"rain":0.0,"pressure":926.5,"uv_index":9.3,"wind_gusts":41.0,"aqi":98,"pm10":44.0,"pm2_5":25.3,"mosquito_risk":0,"arthritis_risk":5,"migraine_risk":7,"frizz_risk":1,"updated_at":"2026-04-11T15:13:50.194513+05:30"},{"city":"Coimbatore","state":"Tamil Nadu","latitude":11.0168,"longitude":76.9558,"temp":36.0,"humidity":34,"rain":0.0,"pressure":961.2,"uv_index":7.35,"wind_gusts":32.0,"aqi":79,"pm10":34.7,"pm2_5":24.0,"mosquito_risk":0,"arthritis_risk":5,"migraine_risk":10,"frizz_risk":1,"updated_at":"2026-04-11T15:13:50.194541+05:30"},{"city":"Madurai","state":"Tamil Nadu","latitude":9.9252,"longitude":78.1198,"temp":37.9,"humidity":32,"rain":0.0,"pressure":991.4,"uv_index":8.45,"wind_gusts":40.3,"aqi":72,"pm10":27.9,"pm2_5":18.7,"mosquito_risk":0,"arthritis_risk":5,"migraine_risk":10,"frizz_risk":1,"updated_at":"2026-04-11T15:13:50.194550+05:30"},{"city":"Trichy","state":"Tamil Nadu","latitude":10.7905,"longitude":78.7047,"temp":37.3,"humidity":37,"rain":0.0,"pressure":998.3,"uv_index":9.4,"wind_gusts":26.6,"aqi":68,"pm10":26.2,"pm2_5":17.7,"mosquito_risk":0,"arthritis_risk":5,"migraine_risk":10,"frizz_risk":1,"updated_at":"2026-04-11T15:13:50.194558+05:30"},{"city":"Salem","state":"Tamil Nadu","latitude":11.6643,"longitude":78.146,"temp":37.5,"humidity":33,"rain":0.0,"pressure":976.2,"uv_index":9.05,"wind_gusts":20.2,"aqi":71,"pm10":35.0,"pm2_5":23.9,"mosquito_risk":0,"arthritis_risk":5,"migraine_risk":10,"frizz_risk":1,"updated_at":"2026-04-11T15:13:50.194565+05:30"},{"city":"Tirunelveli","state":"Tamil Nadu","latitude":8.7139,"longitude":77.7567,"temp":38.5,"humidity":31,"rain":0.0,"pressure":1001.2,"uv_index":9.35,"wind_gusts":41.4,"aqi":71,"pm10":24.7,"pm2_5":17.5,"mosquito_risk":0,"arthritis_risk":5,"migraine_risk":7,"frizz_risk":1,"updated_at":"2026-04-11T15:13:50.194572+05:30"},{"city":"Vellore","state":"Tamil Nadu","latitude":12.9165,"longitude":79.1325,"temp":37.4,"humidity":28,"rain":0.0,"pressure":983.9,"uv_index":9.45,"wind_gusts":34.9,"aqi":83,"pm10":35.4,"pm2_5":24.6,"mosquito_risk":0,"arthritis_risk":5,"migraine_risk":10,"frizz_risk":0,"updated_at":"2026-04-11T15:13:50.194579+05:30"},{"city":"Erode","state":"Tamil Nadu","latitude":11.341,"longitude":77.7172,"temp":38.8,"humidity":28,"rain":0.0,"pressure":987.4,"uv_index":8.75,"wind_gusts":32.0,"aqi":63,"pm10":32.4,"pm2_5":20.4,"mosquito_risk":0,"arthritis_risk":5,"migraine_risk":10,"frizz_risk":1,"updated_at":"2026-04-11T15:13:50.194587+05:30"},{"city":"Kochi","state":"Kerala","latitude":9.9312,"longitude":76.2673,"temp":29.2,"humidity":81,"rain":0.0,"pressure":1007.7,"uv_index":8.85,"wind_gusts":28.4,"aqi":66,"pm10":22.9,"pm2_5":15.7,"mosquito_risk":7,"arthritis_risk":5,"migraine_risk":4,"frizz_risk":1,"updated_at":"2026-04-11T15:13:50.194594+05:30"},{"city":"Thiruvananthapuram","state":"Kerala","latitude":8.5241,"longitude":76.9366,"temp":29.2,"humidity":81,"rain":0.0,"pressure":1006.6,"uv_index":7.75,"wind_gusts":33.8,"aqi":60,"pm10":25.3,"pm2_5":15.4,"mosquito_risk":7,"arthritis_risk":5,"migraine_risk":4,"frizz_risk":1,"updated_at":"2026-04-11T15:13:50.194601+05:30"},{"city":"Kozhikode","state":"Kerala","latitude":11.2588,"longitude":75.7804,"temp":30.2,"humidity":78,"rain":0.0,"pressure":1007.2,"uv_index":8.7,"wind_gusts":27.4,"aqi":61,"pm10":27.6,"pm2_5":12.9,"mosquito_risk":3,"arthritis_risk":5,"migraine_risk":4,"frizz_risk":1,"updated_at":"2026-04-11T15:13:50.194608+05:30"},{"city":"Thrissur","state":"Kerala","latitude":10.5276,"longitude":76.2144,"temp":33.0,"humidity":64,"rain":0.0,"pressure":1006.1,"uv_index":9.0,"wind_gusts":31.7,"aqi":66,"pm10":27.2,"pm2_5":17.2,"mosquito_risk":3,"arthritis_risk":5,"migraine_risk":4,"frizz_risk":1,"updated_at":"2026-04-11T15:13:50.194615+05:30"},{"city":"Kannur","state":"Kerala","latitude":11.8745,"longitude":75.3704,"temp":31.0,"humidity":70,"rain":0.0,"pressure":1006.9,"uv_index":8.65,"wind_gusts":29.2,"aqi":61,"pm10":36.9,"pm2_5":15.5,"mosquito_risk":3,"arthritis_risk":5,"migraine_risk":4,"frizz_risk":1,"updated_at":"2026-04-11T15:13:50.194622+05:30"},{"city":"Patna","state":"Bihar","latitude":25.5941,"longitude":85.1376,"temp":34.6,"humidity":24,"rain":0.0,"pressure":999.7,"uv_index":8.45,"wind_gusts":31.3,"aqi":109,"pm10":187.7,"pm2_5":44.0,"mosquito_risk":0,"arthritis_risk":5,"migraine_risk":7,"frizz_risk":0,"updated_at":"2026-04-11T15:13:50.194628+05:30"},{"city":"Gaya","state":"Bihar","latitude":24.7914,"longitude":85.0002,"temp":35.0,"humidity":18,"rain":0.0,"pressure":993.6,"uv_index":8.55,"wind_gusts":35.3,"aqi":103,"pm10":141.1,"pm2_5":31.3,"mosquito_risk":0,"arthritis_risk":5,"migraine_risk":7,"frizz_risk":0,"updated_at":"2026-04-11T15:13:50.194635+05:30"},{"city":"Muzaffarpur","state":"Bihar","latitude":26.1209,"longitude":85.3647,"temp":34.1,"humidity":25,"rain":0.0,"pressure":999.6,"uv_index":8.4,"wind_gusts":20.2,"aqi":108,"pm10":204.0,"pm2_5":46.4,"mosquito_risk":0,"arthritis_risk":5,"migraine_risk":7,"frizz_risk":0,"updated_at":"2026-04-11T15:13:50.194642+05:30"},{"city":"Bhagalpur","state":"Bihar","latitude":25.2425,"longitude":87.0117,"temp":31.6,"humidity":34,"rain":0.0,"pressure":1001.2,"uv_index":8.45,"wind_gusts":23.0,"aqi":129,"pm10":293.4,"pm2_5":51.2,"mosquito_risk":0,"arthritis_risk":5,"migraine_risk":4,"frizz_risk":0,"updated_at":"2026-04-11T15:13:50.194648+05:30"},{"city":"Ranchi","state":"Jharkhand","latitude":23.3441,"longitude":85.3096,"temp":31.7,"humidity":18,"rain":0.0,"pressure":939.0,"uv_index":9.05,"wind_gusts":35.6,"aqi":113,"pm10":132.7,"pm2_5":25.1,"mosquito_risk":0,"arthritis_risk":5,"migraine_risk":7,"frizz_risk":0,"updated_at":"2026-04-11T15:13:50.194655+05:30"},{"city":"Jamshedpur","state":"Jharkhand","latitude":22.8046,"longitude":86.2029,"temp":33.1,"humidity":31,"rain":0.0,"pressure":991.3,"uv_index":8.85,"wind_gusts":17.6,"aqi":122,"pm10":168.1,"pm2_5":31.1,"mosquito_risk":0,"arthritis_risk":5,"migraine_risk":7,"frizz_risk":0,"updated_at":"2026-04-11T15:13:50.194661+05:30"},{"city":"Dhanbad","state":"Jharkhand","latitude":23.7957,"longitude":86.4304,"temp":34.6,"humidity":18,"rain":0.0,"pressure":980.1,"uv_index":8.8,"wind_gusts":26.3,"aqi":132,"pm10":212.3,"pm2_5":42.3,"mosquito_risk":0,"arthritis_risk":5,"migraine_risk":7,"frizz_risk":0,"updated_at":"2026-04-11T15:13:50.194668+05:30"},{"city":"Bokaro","state":"Jharkhand","latitude":23.6693,"longitude":86.1511,"temp":34.3,"humidity":19,"rain":0.0,"pressure":983.9,"uv_index":8.8,"wind_gusts":29.5,"aqi":128,"pm10":168.6,"pm2_5":34.5,"mosquito_risk":0,"arthritis_risk":5,"migraine_risk":7,"frizz_risk":0,"updated_at":"2026-04-11T15:13:50.194675+05:30"},{"city":"Bhubaneswar","state":"Odisha","latitude":20.2961,"longitude":85.8245,"temp":35.7,"humidity":42,"rain":0.0,"pressure":1002.1,"uv_index":9.0,"wind_gusts":23.0,"aqi":121,"pm10":64.0,"pm2_5":43.8,"mosquito_risk":0,"arthritis_risk":5,"migraine_risk":7,"frizz_risk":1,"updated_at":"2026-04-11T15:13:50.194681+05:30"},{"city":"Cuttack","state":"Odisha","latitude":20.4625,"longitude":85.8828,"temp":36.2,"humidity":40,"rain":0.0,"pressure":1004.0,"uv_index":9.05,"wind_gusts":18.4,"aqi":121,"pm10":64.0,"pm2_5":43.8,"mosquito_risk":0,"arthritis_risk":5,"migraine_risk":7,"frizz_risk":1,"updated_at":"2026-04-11T15:13:50.194688+05:30"},{"city":"Rourkela","state":"Odisha","latitude":22.2604,"longitude":84.8536,"temp":34.3,"humidity":27,"rain":0.0,"pressure":985.9,"uv_index":8.75,"wind_gusts":18.7,"aqi":117,"pm10":147.1,"pm2_5":26.7,"mosquito_risk":0,"arthritis_risk":5,"migraine_risk":7,"frizz_risk":0,"updated_at":"2026-04-11T15:13:50.194695+05:30"},{"city":"Raipur","state":"Chhattisgarh","latitude":21.2514,"longitude":81.6296,"temp":37.7,"humidity":15,"rain":0.0,"pressure":975.5,"uv_index":8.85,"wind_gusts":21.6,"aqi":105,"pm10":57.4,"pm2_5":19.9,"mosquito_risk":0,"arthritis_risk":5,"migraine_risk":10,"frizz_risk":0,"updated_at":"2026-04-11T15:13:50.194702+05:30"},{"city":"Bhilai","state":"Chhattisgarh","latitude":21.1938,"longitude":81.3509,"temp":37.6,"humidity":17,"rain":0.0,"pressure":975.8,"uv_index":8.85,"wind_gusts":19.8,"aqi":102,"pm10":52.7,"pm2_5":20.3,"mosquito_risk":0,"arthritis_risk":5,"migraine_risk":10,"frizz_risk":0,"updated_at":"2026-04-11T15:13:50.194708+05:30"},{"city":"Guwahati","state":"Assam","latitude":26.1158,"longitude":91.7086,"temp":28.6,"humidity":56,"rain":0.0,"pressure":1001.0,"uv_index":8.35,"wind_gusts":20.2,"aqi":119,"pm10":33.5,"pm2_5":22.5,"mosquito_risk":4,"arthritis_risk":5,"migraine_risk":4,"frizz_risk":1,"updated_at":"2026-04-11T15:13:50.194715+05:30"},{"city":"Agartala","state":"Tripura","latitude":23.8315,"longitude":91.2868,"temp":31.2,"humidity":45,"rain":0.0,"pressure":1005.4,"uv_index":8.6,"wind_gusts":23.0,"aqi":146,"pm10":59.6,"pm2_5":38.6,"mosquito_risk":0,"arthritis_risk":5,"migraine_risk":4,"frizz_risk":1,"updated_at":"2026-04-11T15:13:50.194721+05:30"},{"city":"Shillong","state":"Meghalaya","latitude":25.5788,"longitude":91.8933,"temp":17.8,"humidity":52,"rain":0.0,"pressure":856.0,"uv_index":8.75,"wind_gusts":52.2,"aqi":140,"pm10":39.3,"pm2_5":25.7,"mosquito_risk":0,"arthritis_risk":5,"migraine_risk":7,"frizz_risk":0,"updated_at":"2026-04-11T15:13:50.194727+05:30"},{"city":"Imphal","state":"Manipur","latitude":24.817,"longitude":93.9368,"temp":21.3,"humidity":51,"rain":0.0,"pressure":922.7,"uv_index":8.95,"wind_gusts":51.1,"aqi":129,"pm10":32.9,"pm2_5":20.3,"mosquito_risk":0,"arthritis_risk":5,"migraine_risk":7,"frizz_risk":0,"updated_at":"2026-04-11T15:13:50.194734+05:30"},{"city":"Aizawl","state":"Mizoram","latitude":23.7271,"longitude":92.7176,"temp":24.2,"humidity":43,"rain":0.0,"pressure":893.4,"uv_index":8.8,"wind_gusts":42.1,"aqi":112,"pm10":46.1,"pm2_5":25.6,"mosquito_risk":0,"arthritis_risk":5,"migraine_risk":7,"frizz_risk":0,"updated_at":"2026-04-11T15:13:50.194741+05:30"},{"city":"Kohima","state":"Nagaland","latitude":25.6701,"longitude":94.1077,"temp":17.2,"humidity":58,"rain":0.0,"pressure":854.3,"uv_index":7.6,"wind_gusts":66.2,"aqi":129,"pm10":24.8,"pm2_5":16.8,"mosquito_risk":0,"arthritis_risk":5,"migraine_risk":7,"frizz_risk":0,"updated_at":"2026-04-11T15:13:50.194747+05:30"},{"city":"Gangtok","state":"Sikkim","latitude":27.3314,"longitude":88.6138,"temp":16.2,"humidity":68,"rain":0.0,"pressure":836.6,"uv_index":8.55,"wind_gusts":18.4,"aqi":115,"pm10":41.7,"pm2_5":34.1,"mosquito_risk":3,"arthritis_risk":5,"migraine_risk":7,"frizz_risk":0,"updated_at":"2026-04-11T15:13:50.194753+05:30"},{"city":"Siliguri","state":"West Bengal","latitude":26.7271,"longitude":88.3953,"temp":24.1,"humidity":56,"rain":0.0,"pressure":993.7,"uv_index":8.2,"wind_gusts":18.0,"aqi":128,"pm10":30.7,"pm2_5":23.6,"mosquito_risk":0,"arthritis_risk":5,"migraine_risk":7,"frizz_risk":0,"updated_at":"2026-04-11T15:13:53.452258+05:30"},{"city":"Durgapur","state":"West Bengal","latitude":23.5204,"longitude":87.3119,"temp":32.3,"humidity":32,"rain":0.0,"pressure":995.3,"uv_index":8.75,"wind_gusts":21.2,"aqi":118,"pm10":255.2,"pm2_5":49.0,"mosquito_risk":0,"arthritis_risk":5,"migraine_risk":7,"frizz_risk":0,"updated_at":"2026-04-11T15:13:53.452288+05:30"},{"city":"Asansol","state":"West Bengal","latitude":23.6739,"longitude":86.9524,"temp":32.6,"humidity":30,"rain":0.0,"pressure":993.8,"uv_index":8.75,"wind_gusts":22.7,"aqi":100,"pm10":246.8,"pm2_5":48.7,"mosquito_risk":0,"arthritis_risk":5,"migraine_risk":7,"frizz_risk":0,"updated_at":"2026-04-11T15:13:53.452297+05:30"},{"city":"Pondicherry","state":"Puducherry","latitude":11.9139,"longitude":79.8145,"temp":36.3,"humidity":48,"rain":0.0,"pressure":1007.3,"uv_index":9.35,"wind_gusts":36.7,"aqi":55,"pm10":21.7,"pm2_5":14.9,"mosquito_risk":0,"arthritis_risk":5,"migraine_risk":7,"frizz_risk":1,"updated_at":"2026-04-11T15:13:53.452305+05:30"},{"city":"Port Blair","state":"Andaman and Nicobar Islands","latitude":11.6234,"longitude":92.7265,"temp":29.1,"humidity":71,"rain":0.0,"pressure":1007.1,"uv_index":9.25,"wind_gusts":25.2,"aqi":28,"pm10":8.9,"pm2_5":5.8,"mosquito_risk":7,"arthritis_risk":5,"migraine_risk":4,"frizz_risk":1,"updated_at":"2026-04-11T15:13:53.452312+05:30"},{"city":"Haridwar","state":"Uttarakhand","latitude":29.9457,"longitude":78.1642,"temp":31.9,"humidity":28,"rain":0.0,"pressure":975.6,"uv_index":6.95,"wind_gusts":49.0,"aqi":83,"pm10":39.1,"pm2_5":16.4,"mosquito_risk":0,"arthritis_risk":5,"migraine_risk":7,"frizz_risk":0,"updated_at":"2026-04-11T15:13:53.452319+05:30"},{"city":"Rishikesh","state":"Uttarakhand","latitude":30.0869,"longitude":78.2676,"temp":31.1,"humidity":29,"rain":0.0,"pressure":968.1,"uv_index":7.0,"wind_gusts":48.6,"aqi":91,"pm10":35.3,"pm2_5":14.6,"mosquito_risk":0,"arthritis_risk":5,"migraine_risk":7,"frizz_risk":0,"updated_at":"2026-04-11T15:13:53.452325+05:30"},{"city":"Nainital","state":"Uttarakhand","latitude":29.3919,"longitude":79.4542,"temp":22.6,"humidity":43,"rain":0.0,"pressure":808.6,"uv_index":7.7,"wind_gusts":69.8,"aqi":103,"pm10":48.0,"pm2_5":15.5,"mosquito_risk":0,"arthritis_risk":5,"migraine_risk":7,"frizz_risk":0,"updated_at":"2026-04-11T15:13:53.452331+05:30"},{"city":"Mussoorie","state":"Uttarakhand","latitude":30.4599,"longitude":78.0664,"temp":20.9,"humidity":41,"rain":0.0,"pressure":805.1,"uv_index":7.45,"wind_gusts":65.2,"aqi":82,"pm10":35.0,"pm2_5":13.7,"mosquito_risk":0,"arthritis_risk":5,"migraine_risk":7,"frizz_risk":0,"updated_at":"2026-04-11T15:13:53.452336+05:30"},{"city":"Dharamshala","state":"Himachal Pradesh","latitude":32.219,"longitude":76.3234,"temp":18.6,"humidity":80,"rain":0.0,"pressure":870.8,"uv_index":7.5,"wind_gusts":30.2,"aqi":131,"pm10":59.5,"pm2_5":12.7,"mosquito_risk":3,"arthritis_risk":5,"migraine_risk":7,"frizz_risk":0,"updated_at":"2026-04-11T15:13:53.452342+05:30"},{"city":"Dalhousie","state":"Himachal Pradesh","latitude":32.5387,"longitude":75.971,"temp":16.9,"humidity":67,"rain":0.0,"pressure":805.2,"uv_index":7.0,"wind_gusts":20.9,"aqi":88,"pm10":78.9,"pm2_5":18.6,"mosquito_risk":3,"arthritis_risk":5,"migraine_risk":7,"frizz_risk":0,"updated_at":"2026-04-11T15:13:53.452349+05:30"},{"city":"Patiala","state":"Punjab","latitude":30.3398,"longitude":76.3869,"temp":31.3,"humidity":29,"rain":0.0,"pressure":980.4,"uv_index":6.95,"wind_gusts":34.6,"aqi":665,"pm10":583.0,"pm2_5":60.5,"mosquito_risk":0,"arthritis_risk":5,"migraine_risk":7,"frizz_risk":0,"updated_at":"2026-04-11T15:13:53.452355+05:30"},{"city":"Bhatinda","state":"Punjab","latitude":30.211,"longitude":74.9455,"temp":32.3,"humidity":28,"rain":0.0,"pressure":985.6,"uv_index":7.7,"wind_gusts":28.4,"aqi":88,"pm10":88.7,"pm2_5":23.6,"mosquito_risk":0,"arthritis_risk":5,"migraine_risk":7,"frizz_risk":0,"updated_at":"2026-04-11T15:13:53.452360+05:30"},{"city":"Rohtak","state":"Haryana","latitude":28.8955,"longitude":76.6066,"temp":31.4,"humidity":30,"rain":0.0,"pressure":984.3,"uv_index":7.1,"wind_gusts":26.6,"aqi":1011,"pm10":830.7,"pm2_5":84.3,"mosquito_risk":0,"arthritis_risk":5,"migraine_risk":7,"frizz_risk":0,"updated_at":"2026-04-11T15:13:53.452366+05:30"},{"city":"Panipat","state":"Haryana","latitude":29.3909,"longitude":76.9635,"temp":32.1,"humidity":29,"rain":0.0,"pressure":982.7,"uv_index":6.95,"wind_gusts":29.9,"aqi":1857,"pm10":1460.3,"pm2_5":134.6,"mosquito_risk":0,"arthritis_risk":5,"migraine_risk":7,"frizz_risk":0,"updated_at":"2026-04-11T15:13:53.452371+05:30"},{"city":"Mathura","state":"Uttar Pradesh","latitude":27.4924,"longitude":77.6737,"temp":34.0,"humidity":27,"rain":0.0,"pressure":989.2,"uv_index":7.5,"wind_gusts":27.7,"aqi":1249,"pm10":795.3,"pm2_5":85.9,"mosquito_risk":0,"arthritis_risk":5,"migraine_risk":7,"frizz_risk":0,"updated_at":"2026-04-11T15:13:53.452376+05:30"},{"city":"Vrindavan","state":"Uttar Pradesh","latitude":27.5823,"longitude":77.7027,"temp":33.7,"humidity":27,"rain":0.0,"pressure":989.6,"uv_index":7.45,"wind_gusts":32.0,"aqi":1249,"pm10":795.3,"pm2_5":85.9,"mosquito_risk":0,"arthritis_risk":5,"migraine_risk":7,"frizz_risk":0,"updated_at":"2026-04-11T15:13:53.452381+05:30"},{"city":"Ayodhya","state":"Uttar Pradesh","latitude":26.7922,"longitude":82.1998,"temp":36.0,"humidity":19,"rain":0.0,"pressure":995.2,"uv_index":7.85,"wind_gusts":46.4,"aqi":136,"pm10":61.5,"pm2_5":22.1,"mosquito_risk":0,"arthritis_risk":5,"migraine_risk":10,"frizz_risk":0,"updated_at":"2026-04-11T15:13:53.452387+05:30"},{"city":"Ratlam","state":"Madhya Pradesh","latitude":23.3315,"longitude":75.0367,"temp":34.8,"humidity":22,"rain":0.0,"pressure":957.1,"uv_index":8.35,"wind_gusts":17.3,"aqi":90,"pm10":20.3,"pm2_5":7.8,"mosquito_risk":0,"arthritis_risk":5,"migraine_risk":7,"frizz_risk":0,"updated_at":"2026-04-11T15:13:53.452392+05:30"},{"city":"Sagar","state":"Madhya Pradesh","latitude":23.8388,"longitude":78.7378,"temp":36.5,"humidity":13,"rain":0.0,"pressure":952.7,"uv_index":8.5,"wind_gusts":28.1,"aqi":92,"pm10":53.3,"pm2_5":13.6,"mosquito_risk":0,"arthritis_risk":5,"migraine_risk":10,"frizz_risk":0,"updated_at":"2026-04-11T15:13:53.452398+05:30"},{"city":"Satna","state":"Madhya Pradesh","latitude":24.6005,"longitude":80.8322,"temp":35.7,"humidity":18,"rain":0.0,"pressure":973.3,"uv_index":8.5,"wind_gusts":33.5,"aqi":100,"pm10":119.7,"pm2_5":22.9,"mosquito_risk":0,"arthritis_risk":5,"migraine_risk":10,"frizz_risk":0,"updated_at":"2026-04-11T15:13:53.452403+05:30"},{"city":"Akola","state":"Maharashtra","latitude":20.7002,"longitude":77.0082,"temp":39.5,"humidity":18,"rain":0.0,"pressure":975.5,"uv_index":8.75,"wind_gusts":25.6,"aqi":100,"pm10":25.2,"pm2_5":15.9,"mosquito_risk":0,"arthritis_risk":5,"migraine_risk":10,"frizz_risk":0,"updated_at":"2026-04-11T15:13:53.452409+05:30"},{"city":"Amravati","state":"Maharashtra","latitude":20.9374,"longitude":77.7796,"temp":38.3,"humidity":18,"rain":0.0,"pressure":968.1,"uv_index":8.75,"wind_gusts":23.4,"aqi":101,"pm10":21.6,"pm2_5":12.5,"mosquito_risk":0,"arthritis_risk":5,"migraine_risk":10,"frizz_risk":0,"updated_at":"2026-04-11T15:13:53.452415+05:30"},{"city":"Latur","state":"Maharashtra","latitude":18.4088,"longitude":76.5604,"temp":36.5,"humidity":26,"rain":0.0,"pressure":940.6,"uv_index":9.0,"wind_gusts":21.2,"aqi":114,"pm10":29.9,"pm2_5":19.6,"mosquito_risk":0,"arthritis_risk":5,"migraine_risk":10,"frizz_risk":0,"updated_at":"2026-04-11T15:13:53.452421+05:30"},{"city":"Nanded","state":"Maharashtra","latitude":19.1383,"longitude":77.3091,"temp":38.3,"humidity":27,"rain":0.0,"pressure":968.7,"uv_index":8.9,"wind_gusts":17.3,"aqi":111,"pm10":27.6,"pm2_5":15.1,"mosquito_risk":0,"arthritis_risk":5,"migraine_risk":10,"frizz_risk":0,"updated_at":"2026-04-11T15:13:53.452426+05:30"},{"city":"Gulbarga","state":"Karnataka","latitude":17.3297,"longitude":76.8343,"temp":40.0,"humidity":20,"rain":0.0,"pressure":958.3,"uv_index":9.05,"wind_gusts":19.4,"aqi":104,"pm10":37.6,"pm2_5":25.1,"mosquito_risk":0,"arthritis_risk":5,"migraine_risk":10,"frizz_risk":0,"updated_at":"2026-04-11T15:13:53.452431+05:30"},{"city":"Bidar","state":"Karnataka","latitude":17.9104,"longitude":77.5199,"temp":38.0,"humidity":22,"rain":0.0,"pressure":936.2,"uv_index":9.05,"wind_gusts":23.0,"aqi":123,"pm10":25.7,"pm2_5":16.0,"mosquito_risk":0,"arthritis_risk":5,"migraine_risk":10,"frizz_risk":0,"updated_at":"2026-04-11T15:13:53.452436+05:30"},{"city":"Hospet","state":"Karnataka","latitude":15.2689,"longitude":76.3909,"temp":37.0,"humidity":29,"rain":0.0,"pressure":955.5,"uv_index":9.3,"wind_gusts":26.3,"aqi":92,"pm10":42.1,"pm2_5":27.9,"mosquito_risk":0,"arthritis_risk":5,"migraine_risk":10,"frizz_risk":1,"updated_at":"2026-04-11T15:13:53.452441+05:30"},{"city":"Tirupur","state":"Tamil Nadu","latitude":11.1085,"longitude":77.3411,"temp":38.3,"humidity":29,"rain":0.0,"pressure":974.1,"uv_index":9.1,"wind_gusts":26.6,"aqi":75,"pm10":37.1,"pm2_5":23.5,"mosquito_risk":0,"arthritis_risk":5,"migraine_risk":10,"frizz_risk":1,"updated_at":"2026-04-11T15:13:53.452446+05:30"},{"city":"Alappuzha","state":"Kerala","latitude":9.4981,"longitude":76.3388,"temp":29.3,"humidity":80,"rain":0.0,"pressure":1007.8,"uv_index":8.65,"wind_gusts":29.2,"aqi":65,"pm10":22.5,"pm2_5":14.8,"mosquito_risk":7,"arthritis_risk":5,"migraine_risk":4,"frizz_risk":1,"updated_at":"2026-04-11T15:13:53.452452+05:30"},{"city":"Munnar","state":"Kerala","latitude":10.0889,"longitude":77.0595,"temp":28.4,"humidity":61,"rain":0.0,"pressure":858.6,"uv_index":9.6,"wind_gusts":36.7,"aqi":80,"pm10":29.1,"pm2_5":18.2,"mosquito_risk":7,"arthritis_risk":5,"migraine_risk":7,"frizz_risk":1,"updated_at":"2026-04-11T15:13:53.452457+05:30"},{"city":"Silchar","state":"Assam","latitude":24.8333,"longitude":92.7789,"temp":30.8,"humidity":43,"rain":0.0,"pressure":1004.3,"uv_index":8.6,"wind_gusts":22.3,"aqi":141,"pm10":55.1,"pm2_5":35.2,"mosquito_risk":0,"arthritis_risk":5,"migraine_risk":4,"frizz_risk":1,"updated_at":"2026-04-11T15:13:53.452462+05:30"},{"city":"Dibrugarh","state":"Assam","latitude":27.4728,"longitude":94.912,"temp":25.6,"humidity":60,"rain":0.0,"pressure":995.8,"uv_index":8.4,"wind_gusts":24.5,"aqi":89,"pm10":27.9,"pm2_5":20.7,"mosquito_risk":4,"arthritis_risk":5,"migraine_risk":7,"frizz_risk":1,"updated_at":"2026-04-11T15:13:53.452468+05:30"}]