[{"city":"Delhi","state":"Delhi","latitude":28.6139,"longitude":77.209,"temp":33.8,"humidity":31,"rain":0.0,"pressure":986.7,"uv_index":6.0,"wind_gusts":24.8,"aqi":166,"pm10":178.8,"pm2_5":46.4,"mosquito_risk":0,"arthritis_risk":5,"migraine_risk":3,"frizz_risk":0,"updated_at":"2026-03-08T14:05:48.799216+05:30"},{"city":"Mumbai","state":"Maharashtra","latitude":19.076,"longitude":72.8777,"temp":27.8,"humidity":76,"rain":0.0,"pressure":1008.6,"uv_index":7.5,"wind_gusts":25.9,"aqi":116,"pm10":54.9,"pm2_5":52.9,"mosquito_risk":7,"arthritis_risk":0,"migraine_risk":4,"frizz_risk":1,"updated_at":"2026-03-08T14:05:48.799255+05:30"},{"city":"Bangalore","state":"Karnataka","latitude":12.9716,"longitude":77.5946,"temp":32.5,"humidity":26,"rain":0.0,"pressure":912.7,"uv_index":9.25,"wind_gusts":27.4,"aqi":109,"pm10":40.6,"pm2_5":31.7,"mosquito_risk":0,"arthritis_risk":5,"migraine_risk":7,"frizz_risk":0,"updated_at":"2026-03-08T14:05:48.799270+05:30"},{"city":"Hyderabad","state":"Telangana","latitude":17.385,"longitude":78.4867,"temp":35.9,"humidity":24,"rain":0.0,"pressure":954.4,"uv_index":8.55,"wind_gusts":25.6,"aqi":104,"pm10":37.0,"pm2_5":25.5,"mosquito_risk":0,"arthritis_risk":5,"migraine_risk":10,"frizz_risk":0,"updated_at":"2026-03-08T14:05:48.799280+05:30"},{"city":"Chennai","state":"Tamil Nadu","latitude":13.0827,"longitude":80.2707,"temp":32.1,"humidity":51,"rain":0.0,"pressure":1008.5,"uv_index":8.95,"wind_gusts":32.4,"aqi":79,"pm10":40.0,"pm2_5":26.7,"mosquito_risk":0,"arthritis_risk":0,"migraine_risk":4,"frizz_risk":1,"updated_at":"2026-03-08T14:05:48.799289+05:30"},{"city":"Kolkata","state":"West Bengal","latitude":22.5726,"longitude":88.3639,"temp":30.0,"humidity":57,"rain":0.0,"pressure":1009.1,"uv_index":7.25,"wind_gusts":15.8,"aqi":152,"pm10":63.3,"pm2_5":52.6,"mosquito_risk":4,"arthritis_risk":0,"migraine_risk":4,"frizz_risk":1,"updated_at":"2026-03-08T14:05:48.799297+05:30"},{"city":"Pune","state":"Maharashtra","latitude":18.5204,"longitude":73.8567,"temp":38.3,"humidity":17,"rain":0.0,"pressure":949.8,"uv_index":8.05,"wind_gusts":29.5,"aqi":109,"pm10":14.3,"pm2_5":12.8,"mosquito_risk":0,"arthritis_risk":5,"migraine_risk":10,"frizz_risk":0,"updated_at":"2026-03-08T14:05:48.799309+05:30"},{"city":"Ahmedabad","state":"Gujarat","latitude":23.0225,"longitude":72.5714,"temp":37.2,"humidity":22,"rain":0.0,"pressure":1004.9,"uv_index":7.35,"wind_gusts":16.6,"aqi":102,"pm10":17.4,"pm2_5":14.1,"mosquito_risk":0,"arthritis_risk":5,"migraine_risk":7,"frizz_risk":0,"updated_at":"2026-03-08T14:05:48.799317+05:30"},{"city":"Jaipur","state":"Rajasthan","latitude":26.9124,"longitude":75.7873,"temp":37.4,"humidity":12,"rain":0.0,"pressure":963.9,"uv_index":6.8,"wind_gusts":23.0,"aqi":84,"pm10":96.4,"pm2_5":16.4,"mosquito_risk":0,"arthritis_risk":5,"migraine_risk":10,"frizz_risk":0,"updated_at":"2026-03-08T14:05:48.799325+05:30"},{"city":"Lucknow","state":"Uttar Pradesh","latitude":26.8467,"longitude":80.9462,"temp":32.7,"humidity":41,"rain":0.0,"pressure":996.9,"uv_index":6.5,"wind_gusts":21.6,"aqi":181,"pm10":112.9,"pm2_5":72.6,"mosquito_risk":0,"arthritis_risk":5,"migraine_risk":7,"frizz_risk":1,"updated_at":"2026-03-08T14:05:48.799333+05:30"},{"city":"Kanpur","state":"Uttar Pradesh","latitude":26.4499,"longitude":80.3319,"temp":32.5,"humidity":44,"rain":0.0,"pressure":995.4,"uv_index":6.5,"wind_gusts":16.9,"aqi":175,"pm10":136.0,"pm2_5":68.0,"mosquito_risk":0,"arthritis_risk":5,"migraine_risk":7,"frizz_risk":1,"updated_at":"2026-03-08T14:05:48.799339+05:30"},{"city":"Chandigarh","state":"Chandigarh","latitude":30.7333,"longitude":76.7794,"temp":32.6,"humidity":36,"rain":0.0,"pressure":972.3,"uv_index":5.9,"wind_gusts":30.2,"aqi":154,"pm10":57.9,"pm2_5":37.4,"mosquito_risk":0,"arthritis_risk":5,"migraine_risk":3,"frizz_risk":0,"updated_at":"2026-03-08T14:05:48.799346+05:30"},{"city":"Srinagar","state":"Jammu and Kashmir","latitude":34.0837,"longitude":74.7973,"temp":21.3,"humidity":32,"rain":0.0,"pressure":848.9,"uv_index":6.8,"wind_gusts":16.2,"aqi":136,"pm10":42.7,"pm2_5":22.1,"mosquito_risk":0,"arthritis_risk":5,"migraine_risk":7,"frizz_risk":0,"updated_at":"2026-03-08T14:05:48.799353+05:30"},{"city":"Jammu","state":"Jammu and Kashmir","latitude":32.7266,"longitude":74.857,"temp":32.2,"humidity":40,"rain":0.0,"pressure":976.7,"uv_index":6.4,"wind_gusts":29.5,"aqi":130,"pm10":42.3,"pm2_5":22.3,"mosquito_risk":0,"arthritis_risk":5,"migraine_risk":7,"frizz_risk":1,"updated_at":"2026-03-08T14:05:48.799359+05:30"},{"city":"Amritsar","state":"Punjab","latitude":31.634,"longitude":74.8723,"temp":32.0,"humidity":46,"rain":0.0,"pressure":985.1,"uv_index":6.4,"wind_gusts":23.4,"aqi":165,"pm10":65.7,"pm2_5":41.7,"mosquito_risk":0,"arthritis_risk":5,"migraine_risk":7,"frizz_risk":1,"updated_at":"2026-03-08T14:05:48.799365+05:30"},{"city":"Ludhiana","state":"Punjab","latitude":30.901,"longitude":75.8573,"temp":33.1,"humidity":38,"rain":0.0,"pressure":982.7,"uv_index":6.15,"wind_gusts":27.7,"aqi":173,"pm10":74.7,"pm2_5":54.5,"mosquito_risk":0,"arthritis_risk":5,"migraine_risk":7,"frizz_risk":1,"updated_at":"2026-03-08T14:05:48.799388+05:30"},{"city":"Jalandhar","state":"Punjab","latitude":31.326,"longitude":75.5762,"temp":32.5,"humidity":40,"rain":0.0,"pressure":983.9,"uv_index":6.3,"wind_gusts":26.3,"aqi":171,"pm10":81.5,"pm2_5":52.3,"mosquito_risk":0,"arthritis_risk":5,"migraine_risk":7,"frizz_risk":1,"updated_at":"2026-03-08T14:05:48.799401+05:30"},{"city":"Dehradun","state":"Uttarakhand","latitude":30.6284,"longitude":78.0322,"temp":23.7,"humidity":47,"rain":0.0,"pressure":835.5,"uv_index":6.3,"wind_gusts":37.8,"aqi":103,"pm10":31.4,"pm2_5":16.4,"mosquito_risk":0,"arthritis_risk":5,"migraine_risk":7,"frizz_risk":0,"updated_at":"2026-03-08T14:05:48.799408+05:30"},{"city":"Shimla","state":"Himachal Pradesh","latitude":31.1048,"longitude":77.1734,"temp":22.5,"humidity":38,"rain":0.0,"pressure":791.4,"uv_index":6.35,"wind_gusts":51.8,"aqi":121,"pm10":29.2,"pm2_5":12.7,"mosquito_risk":0,"arthritis_risk":5,"migraine_risk":7,"frizz_risk":0,"updated_at":"2026-03-08T14:05:48.799416+05:30"},{"city":"Manali","state":"Himachal Pradesh","latitude":32.2396,"longitude":77.1887,"temp":25.2,"humidity":22,"rain":0.0,"pressure":826.7,"uv_index":8.05,"wind_gusts":30.6,"aqi":66,"pm10":21.7,"pm2_5":9.1,"mosquito_risk":4,"arthritis_risk":5,"migraine_risk":7,"frizz_risk":0,"updated_at":"2026-03-08T14:05:48.799422+05:30"},{"city":"Gurgaon","state":"Haryana","latitude":28.4595,"longitude":77.0266,"temp":34.2,"humidity":31,"rain":0.0,"pressure":985.2,"uv_index":6.1,"wind_gusts":19.8,"aqi":175,"pm10":601.6,"pm2_5":75.9,"mosquito_risk":0,"arthritis_risk":5,"migraine_risk":7,"frizz_risk":0,"updated_at":"2026-03-08T14:05:48.799429+05:30"},{"city":"Noida","state":"Uttar Pradesh","latitude":28.5355,"longitude":77.391,"temp":34.5,"humidity":30,"rain":0.0,"pressure":988.1,"uv_index":6.0,"wind_gusts":24.8,"aqi":175,"pm10":601.6,"pm2_5":75.9,"mosquito_risk":0,"arthritis_risk":5,"migraine_risk":3,"frizz_risk":0,"updated_at":"2026-03-08T14:05:48.799435+05:30"},{"city":"Ghaziabad","state":"Uttar Pradesh","latitude":28.6692,"longitude":77.4538,"temp":33.4,"humidity":36,"rain":0.0,"pressure":986.2,"uv_index":6.0,"wind_gusts":24.5,"aqi":168,"pm10":130.4,"pm2_5":53.6,"mosquito_risk":0,"arthritis_risk":5,"migraine_risk":3,"frizz_risk":1,"updated_at":"2026-03-08T14:05:48.799442+05:30"},{"city":"Faridabad","state":"Haryana","latitude":28.4089,"longitude":77.3178,"temp":33.9,"humidity":33,"rain":0.0,"pressure":987.4,"uv_index":6.05,"wind_gusts":21.6,"aqi":175,"pm10":601.6,"pm2_5":75.9,"mosquito_risk":0,"arthritis_risk":5,"migraine_risk":7,"frizz_risk":0,"updated_at":"2026-03-08T14:05:48.799448+05:30"},{"city":"Meerut","state":"Uttar Pradesh","latitude":28.9845,"longitude":77.7064,"temp":33.2,"humidity":40,"rain":0.0,"pressure":984.8,"uv_index":5.85,"wind_gusts":29.2,"aqi":168,"pm10":130.4,"pm2_5":53.6,"mosquito_risk":0,"arthritis_risk":5,"migraine_risk":3,"frizz_risk":1,"updated_at":"2026-03-08T14:05:48.799454+05:30"},{"city":"Agra","state":"Uttar Pradesh","latitude":27.1767,"longitude":78.0081,"temp":36.1,"humidity":28,"rain":0.0,"pressure":991.2,"uv_index":6.4,"wind_gusts":20.5,"aqi":157,"pm10":268.2,"pm2_5":46.4,"mosquito_risk":0,"arthritis_risk":5,"migraine_risk":10,"frizz_risk":0,"updated_at":"2026-03-08T14:05:48.799461+05:30"},{"city":"Varanasi","state":"Uttar Pradesh","latitude":25.3176,"longitude":82.9739,"temp":32.2,"humidity":48,"rain":0.0,"pressure":1000.8,"uv_index":7.2,"wind_gusts":11.5,"aqi":173,"pm10":83.6,"pm2_5":69.4,"mosquito_risk":0,"arthritis_risk":5,"migraine_risk":4,"frizz_risk":1,"updated_at":"2026-03-08T14:05:48.799470+05:30"},{"city":"Prayagraj","state":"Uttar Pradesh","latitude":25.4358,"longitude":81.8463,"temp":31.5,"humidity":52,"rain":0.0,"pressure":999.4,"uv_index":7.05,"wind_gusts":14.8,"aqi":179,"pm10":90.1,"pm2_5":73.1,"mosquito_risk":0,"arthritis_risk":5,"migraine_risk":7,"frizz_risk":1,"updated_at":"2026-03-08T14:05:48.799477+05:30"},{"city":"Gorakhpur","state":"Uttar Pradesh","latitude":26.7606,"longitude":83.3732,"temp":31.5,"humidity":47,"rain":0.0,"pressure":1000.8,"uv_index":6.9,"wind_gusts":16.2,"aqi":174,"pm10":80.8,"pm2_5":71.9,"mosquito_risk":0,"arthritis_risk":5,"migraine_risk":4,"frizz_risk":1,"updated_at":"2026-03-08T14:05:48.799484+05:30"},{"city":"Bareilly","state":"Uttar Pradesh","latitude":28.367,"longitude":79.4304,"temp":31.9,"humidity":48,"rain":0.0,"pressure":990.3,"uv_index":6.2,"wind_gusts":19.8,"aqi":173,"pm10":129.9,"pm2_5":60.5,"mosquito_risk":0,"arthritis_risk":5,"migraine_risk":7,"frizz_risk":1,"updated_at":"2026-03-08T14:05:48.799490+05:30"},{"city":"Aligarh","state":"Uttar Pradesh","latitude":27.8974,"longitude":78.088,"temp":34.4,"humidity":33,"rain":0.0,"pressure":989.0,"uv_index":6.1,"wind_gusts":23.4,"aqi":171,"pm10":253.3,"pm2_5":66.4,"mosquito_risk":0,"arthritis_risk":5,"migraine_risk":7,"frizz_risk":0,"updated_at":"2026-03-08T14:05:48.799496+05:30"},{"city":"Moradabad","state":"Uttar Pradesh","latitude":28.8386,"longitude":78.7733,"temp":32.2,"humidity":45,"rain":0.0,"pressure":986.9,"uv_index":6.05,"wind_gusts":23.8,"aqi":183,"pm10":119.7,"pm2_5":71.7,"mosquito_risk":0,"arthritis_risk":5,"migraine_risk":7,"frizz_risk":1,"updated_at":"2026-03-08T14:05:48.799502+05:30"},{"city":"Saharanpur","state":"Uttar Pradesh","latitude":29.9637,"longitude":77.546,"temp":32.9,"humidity":40,"rain":0.0,"pressure":978.7,"uv_index":5.65,"wind_gusts":36.7,"aqi":173,"pm10":94.1,"pm2_5":67.3,"mosquito_risk":0,"arthritis_risk":5,"migraine_risk":3,"frizz_risk":1,"updated_at":"2026-03-08T14:05:48.799508+05:30"},{"city":"Jhansi","state":"Uttar Pradesh","latitude":25.4484,"longitude":78.5685,"temp":36.0,"humidity":23,"rain":0.0,"pressure":981.6,"uv_index":7.0,"wind_gusts":26.3,"aqi":106,"pm10":58.3,"pm2_5":26.3,"mosquito_risk":0,"arthritis_risk":5,"migraine_risk":10,"frizz_risk":0,"updated_at":"2026-03-08T14:05:52.013920+05:30"},{"city":"Surat","state":"Gujarat","latitude":21.1702,"longitude":72.8311,"temp":36.5,"humidity":30,"rain":0.0,"pressure":1008.1,"uv_index":7.25,"wind_gusts":24.5,"aqi":152,"pm10":42.4,"pm2_5":40.5,"mosquito_risk":0,"arthritis_risk":0,"migraine_risk":7,"frizz_risk":1,"updated_at":"2026-03-08T14:05:52.013950+05:30"},{"city":"Vadodara","state":"Gujarat","latitude":22.3072,"longitude":73.1812,"temp":39.1,"humidity":22,"rain":0.0,"pressure":1006.3,"uv_index":7.35,"wind_gusts":16.6,"aqi":106,"pm10":11.8,"pm2_5":10.6,"mosquito_risk":0,"arthritis_risk":5,"migraine_risk":7,"frizz_risk":0,"updated_at":"2026-03-08T14:05:52.013961+05:30"},{"city":"Rajkot","state":"Gujarat","latitude":22.3039,"longitude":70.8022,"temp":35.0,"humidity":34,"rain":0.0,"pressure":997.3,"uv_index":7.15,"wind_gusts":20.9,"aqi":73,"pm10":27.9,"pm2_5":14.6,"mosquito_risk":0,"arthritis_risk":5,"migraine_risk":7,"frizz_risk":1,"updated_at":"2026-03-08T14:05:52.013969+05:30"},{"city":"Thane","state":"Maharashtra","latitude":19.2183,"longitude":72.9781,"temp":33.7,"humidity":51,"rain":0.0,"pressure":1008.4,"uv_index":7.5,"wind_gusts":33.1,"aqi":116,"pm10":54.9,"pm2_5":52.9,"mosquito_risk":0,"arthritis_risk":0,"migraine_risk":4,"frizz_risk":1,"updated_at":"2026-03-08T14:05:52.013976+05:30"},{"city":"Nagpur","state":"Maharashtra","latitude":21.1458,"longitude":79.0882,"temp":36.5,"humidity":21,"rain":0.0,"pressure":975.1,"uv_index":7.9,"wind_gusts":27.0,"aqi":77,"pm10":37.3,"pm2_5":24.4,"mosquito_risk":0,"arthritis_risk":5,"migraine_risk":10,"frizz_risk":0,"updated_at":"2026-03-08T14:05:52.013983+05:30"},{"city":"Nashik","state":"Maharashtra","latitude":19.9975,"longitude":73.7898,"temp":36.8,"humidity":18,"rain":0.0,"pressure":947.6,"uv_index":7.7,"wind_gusts":28.4,"aqi":86,"pm10":13.0,"pm2_5":12.2,"mosquito_risk":0,"arthritis_risk":5,"migraine_risk":10,"frizz_risk":0,"updated_at":"2026-03-08T14:05:52.013990+05:30"},{"city":"Aurangabad","state":"Maharashtra","latitude":19.8762,"longitude":75.3433,"temp":36.9,"humidity":16,"rain":0.0,"pressure":946.1,"uv_index":8.2,"wind_gusts":32.0,"aqi":76,"pm10":17.6,"pm2_5":11.4,"mosquito_risk":0,"arthritis_risk":5,"migraine_risk":10,"frizz_risk":0,"updated_at":"2026-03-08T14:05:52.013996+05:30"},{"city":"Solapur","state":"Maharashtra","latitude":17.6599,"longitude":75.9064,"temp":36.4,"humidity":22,"rain":0.0,"pressure":958.2,"uv_index":8.45,"wind_gusts":19.4,"aqi":71,"pm10":22.4,"pm2_5":16.4,"mosquito_risk":0,"arthritis_risk":5,"migraine_risk":10,"frizz_risk":0,"updated_at":"2026-03-08T14:05:52.014003+05:30"},{"city":"Kolhapur","state":"Maharashtra","latitude":16.705,"longitude":74.2433,"temp":36.2,"humidity":18,"rain":0.0,"pressure":948.6,"uv_index":8.6,"wind_gusts":34.6,"aqi":128,"pm10":27.8,"pm2_5":22.2,"mosquito_risk":0,"arthritis_risk":5,"migraine_risk":10,"frizz_risk":0,"updated_at":"2026-03-08T14:05:52.014010+05:30"},{"city":"Goa","state":"Goa","latitude":15.2993,"longitude":74.124,"temp":31.1,"humidity":63,"rain":0.0,"pressure":997.7,"uv_index":8.65,"wind_gusts":36.0,"aqi":134,"pm10":37.4,"pm2_5":34.7,"mosquito_risk":3,"arthritis_risk":5,"migraine_risk":7,"frizz_risk":1,"updated_at":"2026-03-08T14:05:52.014017+05:30"},{"city":"Jodhpur","state":"Rajasthan","latitude":26.2389,"longitude":73.0243,"temp":37.0,"humidity":19,"rain":0.0,"pressure":986.8,"uv_index":7.05,"wind_gusts":17.6,"aqi":64,"pm10":31.4,"pm2_5":9.1,"mosquito_risk":0,"arthritis_risk":5,"migraine_risk":10,"frizz_risk":0,"updated_at":"2026-03-08T14:05:52.014024+05:30"},{"city":"Udaipur","state":"Rajasthan","latitude":24.5854,"longitude":73.7125,"temp":36.0,"humidity":20,"rain":0.0,"pressure":950.8,"uv_index":7.7,"wind_gusts":17.6,"aqi":43,"pm10":5.2,"pm2_5":4.6,"mosquito_risk":0,"arthritis_risk":5,"migraine_risk":10,"frizz_risk":0,"updated_at":"2026-03-08T14:05:52.014030+05:30"},{"city":"Kota","state":"Rajasthan","latitude":25.2138,"longitude":75.8648,"temp":37.0,"humidity":19,"rain":0.0,"pressure":982.5,"uv_index":7.1,"wind_gusts":9.4,"aqi":90,"pm10":18.2,"pm2_5":15.3,"mosquito_risk":0,"arthritis_risk":5,"migraine_risk":10,"frizz_risk":0,"updated_at":"2026-03-08T14:05:52.014037+05:30"},{"city":"Bikaner","state":"Rajasthan","latitude":28.0229,"longitude":73.3119,"temp":35.9,"humidity":22,"rain":0.0,"pressure":985.7,"uv_index":6.75,"wind_gusts":18.0,"aqi":57,"pm10":143.4,"pm2_5":23.3,"mosquito_risk":0,"arthritis_risk":5,"migraine_risk":10,"frizz_risk":0,"updated_at":"2026-03-08T14:05:52.014044+05:30"},{"city":"Ajmer","state":"Rajasthan","latitude":26.4499,"longitude":74.6399,"temp":35.9,"humidity":15,"rain":0.0,"pressure":959.1,"uv_index":7.05,"wind_gusts":20.5,"aqi":69,"pm10":29.8,"pm2_5":8.7,"mosquito_risk":0,"arthritis_risk":5,"migraine_risk":10,"frizz_risk":0,"updated_at":"2026-03-08T14:05:52.014051+05:30"},{"city":"Gwalior","state":"Madhya Pradesh","latitude":26.2183,"longitude":78.1828,"temp":34.9,"humidity":26,"rain":0.0,"pressure":986.9,"uv_index":6.7,"wind_gusts":23.8,"aqi":99,"pm10":43.9,"pm2_5":17.4,"mosquito_risk":0,"arthritis_risk":5,"migraine_risk":7,"frizz_risk":0,"updated_at":"2026-03-08T14:05:52.014058+05:30"},{"city":"Indore","state":"Madhya Pradesh","latitude":22.7196,"longitude":75.8577,"temp":35.6,"humidity":19,"rain":0.0,"pressure":951.7,"uv_index":7.65,"wind_gusts":20.2,"aqi":77,"pm10":14.6,"pm2_5":12.7,"mosquito_risk":0,"arthritis_risk":5,"migraine_risk":10,"frizz_risk":0,"updated_at":"2026-03-08T14:05:52.014064+05:30"},{"city":"Bhopal","state":"Madhya Pradesh","latitude":23.2599,"longitude":77.4126,"temp":35.4,"humidity":20,"rain":0.0,"pressure":957.4,"uv_index":7.5,"wind_gusts":21.2,"aqi":69,"pm10":33.6,"pm2_5":15.4,"mosquito_risk":0,"arthritis_risk":5,"migraine_risk":10,"frizz_risk":0,"updated_at":"2026-03-08T14:05:52.014071+05:30"},{"city":"Jabalpur","state":"Madhya Pradesh","latitude":23.1815,"longitude":79.9864,"temp":33.5,"humidity":29,"rain":0.0,"pressure":964.6,"uv_index":7.6,"wind_gusts":25.2,"aqi":118,"pm10":69.6,"pm2_5":38.9,"mosquito_risk":0,"arthritis_risk":5,"migraine_risk":7,"frizz_risk":0,"updated_at":"2026-03-08T14:05:52.014077+05:30"},{"city":"Ujjain","state":"Madhya Pradesh","latitude":23.1765,"longitude":75.7885,"temp":35.0,"humidity":20,"rain":0.0,"pressure":957.6,"uv_index":7.55,"wind_gusts":15.8,"aqi":99,"pm10":14.6,"pm2_5":13.7,"mosquito_risk":0,"arthritis_risk":5,"migraine_risk":7,"frizz_risk":0,"updated_at":"2026-03-08T14:05:52.014084+05:30"},{"city":"Visakhapatnam","state":"Andhra Pradesh","latitude":17.6868,"longitude":83.2185,"temp":30.8,"humidity":57,"rain":0.0,"pressure":1005.4,"uv_index":8.2,"wind_gusts":37.4,"aqi":97,"pm10":37.0,"pm2_5":29.1,"mosquito_risk":0,"arthritis_risk":5,"migraine_risk":4,"frizz_risk":1,"updated_at":"2026-03-08T14:05:52.014091+05:30"},{"city":"Vijayawada","state":"Andhra Pradesh","latitude":16.5062,"longitude":80.648,"temp":34.0,"humidity":46,"rain":0.0,"pressure":1003.4,"uv_index":8.6,"wind_gusts":29.5,"aqi":100,"pm10":40.2,"pm2_5":30.6,"mosquito_risk":0,"arthritis_risk":5,"migraine_risk":4,"frizz_risk":1,"updated_at":"2026-03-08T14:05:52.014098+05:30"},{"city":"Guntur","state":"Andhra Pradesh","latitude":16.3067,"longitude":80.4365,"temp":33.5,"humidity":48,"rain":0.0,"pressure":1004.7,"uv_index":8.6,"wind_gusts":28.8,"aqi":98,"pm10":39.9,"pm2_5":30.0,"mosquito_risk":0,"arthritis_risk":5,"migraine_risk":4,"frizz_risk":1,"updated_at":"2026-03-08T14:05:52.014104+05:30"},{"city":"Nellore","state":"Andhra Pradesh","latitude":14.4426,"longitude":79.9865,"temp":33.9,"humidity":45,"rain":0.0,"pressure":1006.5,"uv_index":8.8,"wind_gusts":32.8,"aqi":89,"pm10":45.5,"pm2_5":34.6,"mosquito_risk":0,"arthritis_risk":5,"migraine_risk":4,"frizz_risk":1,"updated_at":"2026-03-08T14:05:52.014111+05:30"},{"city":"Kurnool","state":"Andhra Pradesh","latitude":15.8281,"longitude":78.0373,"temp":38.1,"humidity":19,"rain":0.0,"pressure":977.1,"uv_index":8.6,"wind_gusts":25.6,"aqi":97,"pm10":43.7,"pm2_5":32.0,"mosquito_risk":0,"arthritis_risk":5,"migraine_risk":10,"frizz_risk":0,"updated_at":"2026-03-08T14:05:52.014118+05:30"},{"city":"Kakinada","state":"Andhra Pradesh","latitude":16.9891,"longitude":82.2475,"temp":32.8,"humidity":48,"rain":0.0,"pressure":1008.6,"uv_index":8.55,"wind_gusts":34.6,"aqi":82,"pm10":34.8,"pm2_5":23.9,"mosquito_risk":0,"arthritis_risk":0,"migraine_risk":4,"frizz_risk":1,"updated_at":"2026-03-08T14:05:52.014124+05:30"},{"city":"Tirupati","state":"Andhra Pradesh","latitude":13.6288,"longitude":79.4192,"temp":34.9,"humidity":29,"rain":0.0,"pressure":991.8,"uv_index":8.95,"wind_gusts":33.1,"aqi":118,"pm10":44.0,"pm2_5":33.6,"mosquito_risk":0,"arthritis_risk":5,"migraine_risk":7,"frizz_risk":0,"updated_at":"2026-03-08T14:05:52.014131+05:30"},{"city":"Warangal","state":"Telangana","latitude":17.9689,"longitude":79.5941,"temp":33.9,"humidity":45,"rain":0.0,"pressure":979.9,"uv_index":8.35,"wind_gusts":27.7,"aqi":116,"pm10":52.4,"pm2_5":42.5,"mosquito_risk":0,"arthritis_risk":5,"migraine_risk":7,"frizz_risk":1,"updated_at":"2026-03-08T14:05:52.014137+05:30"},{"city":"Nizamabad","state":"Telangana","latitude":18.6725,"longitude":78.0941,"temp":35.7,"humidity":22,"rain":0.0,"pressure":966.3,"uv_index":8.25,"wind_gusts":33.8,"aqi":89,"pm10":35.5,"pm2_5":20.8,"mosquito_risk":0,"arthritis_risk":5,"migraine_risk":10,"frizz_risk":0,"updated_at":"2026-03-08T14:05:52.014143+05:30"},{"city":"Mysore","state":"Karnataka","latitude":12.2958,"longitude":76.6396,"temp":33.3,"humidity":28,"rain":0.0,"pressure":929.2,"uv_index":9.25,"wind_gusts":33.5,"aqi":131,"pm10":40.2,"pm2_5":32.0,"mosquito_risk":0,"arthritis_risk":5,"migraine_risk":7,"frizz_risk":0,"updated_at":"2026-03-08T14:05:52.014149+05:30"},{"city":"Mangalore","state":"Karnataka","latitude":12.9141,"longitude":74.856,"temp":28.7,"humidity":78,"rain":0.0,"pressure":1006.2,"uv_index":8.85,"wind_gusts":24.8,"aqi":112,"pm10":41.4,"pm2_5":37.8,"mosquito_risk":7,"arthritis_risk":5,"migraine_risk":4,"frizz_risk":1,"updated_at":"2026-03-08T14:05:52.014156+05:30"},{"city":"Hubli-Dharwad","state":"Karnataka","latitude":15.3647,"longitude":75.124,"temp":36.7,"humidity":17,"rain":0.0,"pressure":941.4,"uv_index":8.8,"wind_gusts":25.6,"aqi":96,"pm10":31.9,"pm2_5":25.4,"mosquito_risk":0,"arthritis_risk":5,"migraine_risk":10,"frizz_risk":0,"updated_at":"2026-03-08T14:05:52.014162+05:30"},{"city":"Belgaum","state":"Karnataka","latitude":15.8497,"longitude":74.4977,"temp":35.9,"humidity":17,"rain":0.0,"pressure":926.7,"uv_index":8.85,"wind_gusts":33.8,"aqi":109,"pm10":26.3,"pm2_5":21.4,"mosquito_risk":0,"arthritis_risk":5,"migraine_risk":10,"frizz_risk":0,"updated_at":"2026-03-08T14:05:55.225748+05:30"},{"city":"Coimbatore","state":"Tamil Nadu","latitude":11.0168,"longitude":76.9558,"temp":34.4,"humidity":30,"rain":0.0,"pressure":961.9,"uv_index":9.2,"wind_gusts":38.5,"aqi":131,"pm10":37.5,"pm2_5":29.9,"mosquito_risk":0,"arthritis_risk":5,"migraine_risk":7,"frizz_risk":0,"updated_at":"2026-03-08T14:05:55.225775+05:30"},{"city":"Madurai","state":"Tamil Nadu","latitude":9.9252,"longitude":78.1198,"temp":34.9,"humidity":35,"rain":0.0,"pressure":993.1,"uv_index":9.15,"wind_gusts":32.0,"aqi":100,"pm10":44.4,"pm2_5":34.7,"mosquito_risk":0,"arthritis_risk":5,"migraine_risk":7,"frizz_risk":1,"updated_at":"2026-03-08T14:05:55.225784+05:30"},{"city":"Trichy","state":"Tamil Nadu","latitude":10.7905,"longitude":78.7047,"temp":35.0,"humidity":39,"rain":0.0,"pressure":1000.0,"uv_index":9.05,"wind_gusts":27.4,"aqi":97,"pm10":44.8,"pm2_5":33.3,"mosquito_risk":0,"arthritis_risk":5,"migraine_risk":4,"frizz_risk":1,"updated_at":"2026-03-08T14:05:55.225792+05:30"},{"city":"Salem","state":"Tamil Nadu","latitude":11.6643,"longitude":78.146,"temp":35.1,"humidity":33,"rain":0.0,"pressure":977.2,"uv_index":9.1,"wind_gusts":21.2,"aqi":107,"pm10":47.8,"pm2_5":38.2,"mosquito_risk":0,"arthritis_risk":5,"migraine_risk":10,"frizz_risk":1,"updated_at":"2026-03-08T14:05:55.225798+05:30"},{"city":"Tirunelveli","state":"Tamil Nadu","latitude":8.7139,"longitude":77.7567,"temp":35.5,"humidity":34,"rain":0.0,"pressure":1003.1,"uv_index":9.15,"wind_gusts":36.0,"aqi":106,"pm10":43.0,"pm2_5":34.0,"mosquito_risk":0,"arthritis_risk":5,"migraine_risk":7,"frizz_risk":1,"updated_at":"2026-03-08T14:05:55.225805+05:30"},{"city":"Vellore","state":"Tamil Nadu","latitude":12.9165,"longitude":79.1325,"temp":35.3,"humidity":25,"rain":0.0,"pressure":985.0,"uv_index":9.0,"wind_gusts":37.8,"aqi":138,"pm10":49.5,"pm2_5":38.3,"mosquito_risk":0,"arthritis_risk":5,"migraine_risk":10,"frizz_risk":0,"updated_at":"2026-03-08T14:05:55.225811+05:30"},{"city":"Erode","state":"Tamil Nadu","latitude":11.341,"longitude":77.7172,"temp":36.1,"humidity":31,"rain":0.0,"pressure":988.9,"uv_index":9.1,"wind_gusts":20.9,"aqi":90,"pm10":42.5,"pm2_5":33.8,"mosquito_risk":0,"arthritis_risk":5,"migraine_risk":10,"frizz_risk":1,"updated_at":"2026-03-08T14:05:55.225817+05:30"},{"city":"Kochi","state":"Kerala","latitude":9.9312,"longitude":76.2673,"temp":28.7,"humidity":79,"rain":0.0,"pressure":1008.2,"uv_index":8.9,"wind_gusts":35.6,"aqi":139,"pm10":47.0,"pm2_5":43.1,"mosquito_risk":7,"arthritis_risk":0,"migraine_risk":4,"frizz_risk":1,"updated_at":"2026-03-08T14:05:55.225823+05:30"},{"city":"Thiruvananthapuram","state":"Kerala","latitude":8.5241,"longitude":76.9366,"temp":28.6,"humidity":79,"rain":0.0,"pressure":1007.4,"uv_index":9.05,"wind_gusts":27.7,"aqi":84,"pm10":31.3,"pm2_5":29.5,"mosquito_risk":7,"arthritis_risk":5,"migraine_risk":4,"frizz_risk":1,"updated_at":"2026-03-08T14:05:55.225830+05:30"},{"city":"Kozhikode","state":"Kerala","latitude":11.2588,"longitude":75.7804,"temp":30.1,"humidity":71,"rain":0.0,"pressure":1007.5,"uv_index":8.95,"wind_gusts":28.1,"aqi":93,"pm10":25.6,"pm2_5":24.2,"mosquito_risk":3,"arthritis_risk":5,"migraine_risk":4,"frizz_risk":1,"updated_at":"2026-03-08T14:05:55.225835+05:30"},{"city":"Thrissur","state":"Kerala","latitude":10.5276,"longitude":76.2144,"temp":33.0,"humidity":59,"rain":0.0,"pressure":1006.5,"uv_index":9.0,"wind_gusts":37.8,"aqi":131,"pm10":41.0,"pm2_5":36.2,"mosquito_risk":0,"arthritis_risk":5,"migraine_risk":4,"frizz_risk":1,"updated_at":"2026-03-08T14:05:55.225843+05:30"},{"city":"Kannur","state":"Kerala","latitude":11.8745,"longitude":75.3704,"temp":30.9,"humidity":68,"rain":0.0,"pressure":1007.0,"uv_index":8.9,"wind_gusts":28.8,"aqi":113,"pm10":31.5,"pm2_5":29.4,"mosquito_risk":3,"arthritis_risk":5,"migraine_risk":4,"frizz_risk":1,"updated_at":"2026-03-08T14:05:55.225852+05:30"},{"city":"Patna","state":"Bihar","latitude":25.5941,"longitude":85.1376,"temp":32.1,"humidity":45,"rain":0.0,"pressure":1003.7,"uv_index":7.35,"wind_gusts":18.0,"aqi":171,"pm10":98.5,"pm2_5":82.7,"mosquito_risk":0,"arthritis_risk":5,"migraine_risk":4,"frizz_risk":1,"updated_at":"2026-03-08T14:05:55.225859+05:30"},{"city":"Gaya","state":"Bihar","latitude":24.7914,"longitude":85.0002,"temp":31.8,"humidity":52,"rain":0.0,"pressure":996.6,"uv_index":7.45,"wind_gusts":18.7,"aqi":159,"pm10":86.8,"pm2_5":73.1,"mosquito_risk":0,"arthritis_risk":5,"migraine_risk":7,"frizz_risk":1,"updated_at":"2026-03-08T14:05:55.225865+05:30"},{"city":"Muzaffarpur","state":"Bihar","latitude":26.1209,"longitude":85.3647,"temp":31.5,"humidity":46,"rain":0.0,"pressure":1004.1,"uv_index":7.3,"wind_gusts":19.1,"aqi":175,"pm10":98.5,"pm2_5":83.4,"mosquito_risk":0,"arthritis_risk":5,"migraine_risk":4,"frizz_risk":1,"updated_at":"2026-03-08T14:05:55.225870+05:30"},{"city":"Bhagalpur","state":"Bihar","latitude":25.2425,"longitude":87.0117,"temp":30.8,"humidity":49,"rain":0.0,"pressure":1004.9,"uv_index":7.35,"wind_gusts":15.8,"aqi":162,"pm10":98.0,"pm2_5":75.4,"mosquito_risk":0,"arthritis_risk":5,"migraine_risk":4,"frizz_risk":1,"updated_at":"2026-03-08T14:05:55.225876+05:30"},{"city":"Ranchi","state":"Jharkhand","latitude":23.3441,"longitude":85.3096,"temp":31.2,"humidity":33,"rain":0.0,"pressure":940.4,"uv_index":8.1,"wind_gusts":23.0,"aqi":160,"pm10":95.0,"pm2_5":68.5,"mosquito_risk":0,"arthritis_risk":5,"migraine_risk":7,"frizz_risk":0,"updated_at":"2026-03-08T14:05:55.225882+05:30"},{"city":"Jamshedpur","state":"Jharkhand","latitude":22.8046,"longitude":86.2029,"temp":32.1,"humidity":48,"rain":0.0,"pressure":993.3,"uv_index":8.0,"wind_gusts":23.8,"aqi":155,"pm10":98.0,"pm2_5":78.0,"mosquito_risk":0,"arthritis_risk":5,"migraine_risk":7,"frizz_risk":1,"updated_at":"2026-03-08T14:05:55.225887+05:30"},{"city":"Dhanbad","state":"Jharkhand","latitude":23.7957,"longitude":86.4304,"temp":32.4,"humidity":37,"rain":0.0,"pressure":982.7,"uv_index":7.85,"wind_gusts":22.7,"aqi":167,"pm10":103.1,"pm2_5":85.0,"mosquito_risk":0,"arthritis_risk":5,"migraine_risk":7,"frizz_risk":0,"updated_at":"2026-03-08T14:05:55.225893+05:30"},{"city":"Bokaro","state":"Jharkhand","latitude":23.6693,"longitude":86.1511,"temp":31.6,"humidity":45,"rain":0.0,"pressure":986.7,"uv_index":7.85,"wind_gusts":20.5,"aqi":169,"pm10":99.2,"pm2_5":79.6,"mosquito_risk":0,"arthritis_risk":5,"migraine_risk":7,"frizz_risk":1,"updated_at":"2026-03-08T14:05:55.225899+05:30"},{"city":"Bhubaneswar","state":"Odisha","latitude":20.2961,"longitude":85.8245,"temp":32.2,"humidity":50,"rain":0.0,"pressure":1004.7,"uv_index":8.2,"wind_gusts":33.1,"aqi":128,"pm10":50.5,"pm2_5":37.3,"mosquito_risk":0,"arthritis_risk":5,"migraine_risk":4,"frizz_risk":1,"updated_at":"2026-03-08T14:05:55.225905+05:30"},{"city":"Cuttack","state":"Odisha","latitude":20.4625,"longitude":85.8828,"temp":33.1,"humidity":47,"rain":0.0,"pressure":1006.5,"uv_index":8.3,"wind_gusts":28.4,"aqi":128,"pm10":50.5,"pm2_5":37.3,"mosquito_risk":0,"arthritis_risk":5,"migraine_risk":4,"frizz_risk":1,"updated_at":"2026-03-08T14:05:55.225911+05:30"},{"city":"Rourkela","state":"Odisha","latitude":22.2604,"longitude":84.8536,"temp":35.1,"humidity":34,"rain":0.0,"pressure":986.7,"uv_index":7.9,"wind_gusts":28.4,"aqi":164,"pm10":111.8,"pm2_5":79.4,"mosquito_risk":0,"arthritis_risk":5,"migraine_risk":10,"frizz_risk":1,"updated_at":"2026-03-08T14:05:55.225917+05:30"},{"city":"Raipur","state":"Chhattisgarh","latitude":21.2514,"longitude":81.6296,"temp":35.8,"humidity":24,"rain":0.0,"pressure":976.2,"uv_index":8.0,"wind_gusts":23.4,"aqi":155,"pm10":87.3,"pm2_5":66.6,"mosquito_risk":0,"arthritis_risk":5,"migraine_risk":10,"frizz_risk":0,"updated_at":"2026-03-08T14:05:55.225923+05:30"},{"city":"Bhilai","state":"Chhattisgarh","latitude":21.1938,"longitude":81.3509,"temp":36.3,"humidity":24,"rain":0.0,"pressure":976.6,"uv_index":8.0,"wind_gusts":23.4,"aqi":152,"pm10":78.5,"pm2_5":59.8,"mosquito_risk":0,"arthritis_risk":5,"migraine_risk":10,"frizz_risk":0,"updated_at":"2026-03-08T14:05:55.225928+05:30"},{"city":"Guwahati","state":"Assam","latitude":26.1158,"longitude":91.7086,"temp":31.1,"humidity":43,"rain":0.0,"pressure":1004.1,"uv_index":7.3,"wind_gusts":22.3,"aqi":153,"pm10":69.2,"pm2_5":51.9,"mosquito_risk":0,"arthritis_risk":5,"migraine_risk":4,"frizz_risk":1,"updated_at":"2026-03-08T14:05:55.225934+05:30"},{"city":"Agartala","state":"Tripura","latitude":23.8315,"longitude":91.2868,"temp":29.8,"humidity":53,"rain":0.0,"pressure":1009.4,"uv_index":7.6,"wind_gusts":18.7,"aqi":153,"pm10":60.8,"pm2_5":47.6,"mosquito_risk":4,"arthritis_risk":0,"migraine_risk":4,"frizz_risk":1,"updated_at":"2026-03-08T14:05:55.225940+05:30"},{"city":"Shillong","state":"Meghalaya","latitude":25.5788,"longitude":91.8933,"temp":19.2,"humidity":45,"rain":0.0,"pressure":859.4,"uv_index":7.35,"wind_gusts":26.6,"aqi":126,"pm10":48.3,"pm2_5":37.4,"mosquito_risk":0,"arthritis_risk":5,"migraine_risk":7,"frizz_risk":0,"updated_at":"2026-03-08T14:05:55.225945+05:30"},{"city":"Imphal","state":"Manipur","latitude":24.817,"longitude":93.9368,"temp":25.3,"humidity":46,"rain":0.0,"pressure":925.6,"uv_index":7.9,"wind_gusts":35.6,"aqi":161,"pm10":58.0,"pm2_5":50.8,"mosquito_risk":4,"arthritis_risk":5,"migraine_risk":7,"frizz_risk":0,"updated_at":"2026-03-08T14:05:55.225951+05:30"},{"city":"Aizawl","state":"Mizoram","latitude":23.7271,"longitude":92.7176,"temp":25.4,"humidity":47,"rain":0.0,"pressure":895.9,"uv_index":7.85,"wind_gusts":31.3,"aqi":155,"pm10":60.3,"pm2_5":51.1,"mosquito_risk":4,"arthritis_risk":5,"migraine_risk":7,"frizz_risk":0,"updated_at":"2026-03-08T14:05:55.225957+05:30"},{"city":"Kohima","state":"Nagaland","latitude":25.6701,"longitude":94.1077,"temp":18.9,"humidity":69,"rain":0.0,"pressure":858.0,"uv_index":7.0,"wind_gusts":49.3,"aqi":161,"pm10":79.2,"pm2_5":70.3,"mosquito_risk":3,"arthritis_risk":5,"migraine_risk":7,"frizz_risk":0,"updated_at":"2026-03-08T14:05:55.225963+05:30"},{"city":"Gangtok","state":"Sikkim","latitude":27.3314,"longitude":88.6138,"temp":18.0,"humidity":67,"rain":0.0,"pressure":841.3,"uv_index":5.1,"wind_gusts":15.1,"aqi":157,"pm10":49.8,"pm2_5":39.1,"mosquito_risk":3,"arthritis_risk":5,"migraine_risk":3,"frizz_risk":0,"updated_at":"2026-03-08T14:05:55.225968+05:30"},{"city":"Siliguri","state":"West Bengal","latitude":26.7271,"longitude":88.3953,"temp":24.3,"humidity":61,"rain":0.0,"pressure":998.3,"uv_index":7.3,"wind_gusts":16.6,"aqi":158,"pm10":71.5,"pm2_5":52.0,"mosquito_risk":3,"arthritis_risk":5,"migraine_risk":7,"frizz_risk":1,"updated_at":"2026-03-08T14:05:58.438699+05:30"},{"city":"Durgapur","state":"West Bengal","latitude":23.5204,"longitude":87.3119,"temp":32.3,"humidity":39,"rain":0.0,"pressure":998.1,"uv_index":7.85,"wind_gusts":20.9,"aqi":160,"pm10":95.7,"pm2_5":80.8,"mosquito_risk":0,"arthritis_risk":5,"migraine_risk":7,"frizz_risk":1,"updated_at":"2026-03-08T14:05:58.438726+05:30"},{"city":"Asansol","state":"West Bengal","latitude":23.6739,"longitude":86.9524,"temp":32.8,"humidity":37,"rain":0.0,"pressure":996.5,"uv_index":7.85,"wind_gusts":19.8,"aqi":159,"pm10":95.7,"pm2_5":79.9,"mosquito_risk":0,"arthritis_risk":5,"migraine_risk":7,"frizz_risk":1,"updated_at":"2026-03-08T14:05:58.438735+05:30"},{"city":"Pondicherry","state":"Puducherry","latitude":11.9139,"longitude":79.8145,"temp":34.0,"humidity":48,"rain":0.0,"pressure":1009.0,"uv_index":8.95,"wind_gusts":32.0,"aqi":76,"pm10":35.5,"pm2_5":22.6,"mosquito_risk":0,"arthritis_risk":0,"migraine_risk":4,"frizz_risk":1,"updated_at":"2026-03-08T14:05:58.438742+05:30"},{"city":"Port Blair","state":"Andaman and Nicobar Islands","latitude":11.6234,"longitude":92.7265,"temp":26.8,"humidity":80,"rain":0.0,"pressure":1007.9,"uv_index":8.9,"wind_gusts":27.0,"aqi":89,"pm10":36.8,"pm2_5":27.5,"mosquito_risk":7,"arthritis_risk":5,"migraine_risk":4,"frizz_risk":1,"updated_at":"2026-03-08T14:05:58.438750+05:30"},{"city":"Haridwar","state":"Uttarakhand","latitude":29.9457,"longitude":78.1642,"temp":31.6,"humidity":49,"rain":0.0,"pressure":977.5,"uv_index":5.8,"wind_gusts":28.4,"aqi":161,"pm10":83.4,"pm2_5":58.1,"mosquito_risk":0,"arthritis_risk":5,"migraine_risk":3,"frizz_risk":1,"updated_at":"2026-03-08T14:05:58.438757+05:30"},{"city":"Rishikesh","state":"Uttarakhand","latitude":30.0869,"longitude":78.2676,"temp":31.1,"humidity":49,"rain":0.0,"pressure":970.4,"uv_index":5.85,"wind_gusts":24.8,"aqi":159,"pm10":75.4,"pm2_5":51.5,"mosquito_risk":0,"arthritis_risk":5,"migraine_risk":3,"frizz_risk":1,"updated_at":"2026-03-08T14:05:58.438764+05:30"},{"city":"Nainital","state":"Uttarakhand","latitude":29.3919,"longitude":79.4542,"temp":22.9,"humidity":64,"rain":0.0,"pressure":811.0,"uv_index":6.65,"wind_gusts":67.3,"aqi":157,"pm10":86.1,"pm2_5":57.0,"mosquito_risk":3,"arthritis_risk":5,"migraine_risk":7,"frizz_risk":0,"updated_at":"2026-03-08T14:05:58.438771+05:30"},{"city":"Mussoorie","state":"Uttarakhand","latitude":30.4599,"longitude":78.0664,"temp":23.3,"humidity":52,"rain":0.0,"pressure":808.2,"uv_index":6.2,"wind_gusts":47.5,"aqi":157,"pm10":72.9,"pm2_5":51.5,"mosquito_risk":0,"arthritis_risk":5,"migraine_risk":7,"frizz_risk":0,"updated_at":"2026-03-08T14:05:58.438777+05:30"},{"city":"Dharamshala","state":"Himachal Pradesh","latitude":32.219,"longitude":76.3234,"temp":27.5,"humidity":31,"rain":0.0,"pressure":874.7,"uv_index":6.4,"wind_gusts":27.4,"aqi":61,"pm10":34.3,"pm2_5":12.9,"mosquito_risk":4,"arthritis_risk":5,"migraine_risk":7,"frizz_risk":0,"updated_at":"2026-03-08T14:05:58.438784+05:30"},{"city":"Dalhousie","state":"Himachal Pradesh","latitude":32.5387,"longitude":75.971,"temp":27.0,"humidity":26,"rain":0.0,"pressure":811.0,"uv_index":6.65,"wind_gusts":26.3,"aqi":107,"pm10":45.6,"pm2_5":24.0,"mosquito_risk":4,"arthritis_risk":5,"migraine_risk":7,"frizz_risk":0,"updated_at":"2026-03-08T14:05:58.438791+05:30"},{"city":"Patiala","state":"Punjab","latitude":30.3398,"longitude":76.3869,"temp":33.4,"humidity":39,"rain":0.0,"pressure":981.8,"uv_index":5.65,"wind_gusts":29.2,"aqi":166,"pm10":245.9,"pm2_5":65.0,"mosquito_risk":0,"arthritis_risk":5,"migraine_risk":3,"frizz_risk":1,"updated_at":"2026-03-08T14:05:58.438798+05:30"},{"city":"Bhatinda","state":"Punjab","latitude":30.211,"longitude":74.9455,"temp":34.2,"humidity":36,"rain":0.0,"pressure":987.8,"uv_index":6.5,"wind_gusts":17.3,"aqi":151,"pm10":83.4,"pm2_5":38.3,"mosquito_risk":0,"arthritis_risk":5,"migraine_risk":7,"frizz_risk":1,"updated_at":"2026-03-08T14:05:58.438803+05:30"},{"city":"Rohtak","state":"Haryana","latitude":28.8955,"longitude":76.6066,"temp":34.0,"humidity":32,"rain":0.0,"pressure":985.5,"uv_index":6.05,"wind_gusts":20.9,"aqi":169,"pm10":215.1,"pm2_5":40.2,"mosquito_risk":0,"arthritis_risk":5,"migraine_risk":7,"frizz_risk":0,"updated_at":"2026-03-08T14:05:58.438809+05:30"},{"city":"Panipat","state":"Haryana","latitude":29.3909,"longitude":76.9635,"temp":33.8,"humidity":37,"rain":0.0,"pressure":983.9,"uv_index":5.8,"wind_gusts":28.1,"aqi":168,"pm10":355.8,"pm2_5":60.8,"mosquito_risk":0,"arthritis_risk":5,"migraine_risk":3,"frizz_risk":1,"updated_at":"2026-03-08T14:05:58.438815+05:30"},{"city":"Mathura","state":"Uttar Pradesh","latitude":27.4924,"longitude":77.6737,"temp":35.9,"humidity":28,"rain":0.0,"pressure":990.3,"uv_index":6.3,"wind_gusts":22.3,"aqi":157,"pm10":231.4,"pm2_5":46.0,"mosquito_risk":0,"arthritis_risk":5,"migraine_risk":10,"frizz_risk":0,"updated_at":"2026-03-08T14:05:58.438821+05:30"},{"city":"Vrindavan","state":"Uttar Pradesh","latitude":27.5823,"longitude":77.7027,"temp":35.2,"humidity":29,"rain":0.0,"pressure":990.8,"uv_index":6.25,"wind_gusts":23.0,"aqi":157,"pm10":231.4,"pm2_5":46.0,"mosquito_risk":0,"arthritis_risk":5,"migraine_risk":10,"frizz_risk":0,"updated_at":"2026-03-08T14:05:58.438827+05:30"},{"city":"Ayodhya","state":"Uttar Pradesh","latitude":26.7922,"longitude":82.1998,"temp":31.8,"humidity":45,"rain":0.0,"pressure":998.9,"uv_index":6.65,"wind_gusts":10.4,"aqi":183,"pm10":99.0,"pm2_5":77.1,"mosquito_risk":0,"arthritis_risk":5,"migraine_risk":7,"frizz_risk":1,"updated_at":"2026-03-08T14:05:58.438833+05:30"},{"city":"Ratlam","state":"Madhya Pradesh","latitude":23.3315,"longitude":75.0367,"temp":35.3,"humidity":25,"rain":0.0,"pressure":958.2,"uv_index":7.5,"wind_gusts":19.1,"aqi":92,"pm10":12.4,"pm2_5":11.9,"mosquito_risk":0,"arthritis_risk":5,"migraine_risk":10,"frizz_risk":0,"updated_at":"2026-03-08T14:05:58.438839+05:30"},{"city":"Sagar","state":"Madhya Pradesh","latitude":23.8388,"longitude":78.7378,"temp":34.6,"humidity":25,"rain":0.0,"pressure":953.8,"uv_index":7.45,"wind_gusts":21.6,"aqi":81,"pm10":39.9,"pm2_5":18.6,"mosquito_risk":0,"arthritis_risk":5,"migraine_risk":7,"frizz_risk":0,"updated_at":"2026-03-08T14:05:58.438845+05:30"},{"city":"Satna","state":"Madhya Pradesh","latitude":24.6005,"longitude":80.8322,"temp":34.7,"humidity":27,"rain":0.0,"pressure":974.6,"uv_index":7.4,"wind_gusts":27.4,"aqi":160,"pm10":78.7,"pm2_5":52.7,"mosquito_risk":0,"arthritis_risk":5,"migraine_risk":7,"frizz_risk":0,"updated_at":"2026-03-08T14:05:58.438851+05:30"},{"city":"Akola","state":"Maharashtra","latitude":20.7002,"longitude":77.0082,"temp":38.1,"humidity":16,"rain":0.0,"pressure":976.9,"uv_index":7.95,"wind_gusts":15.5,"aqi":78,"pm10":27.1,"pm2_5":15.3,"mosquito_risk":0,"arthritis_risk":5,"migraine_risk":10,"frizz_risk":0,"updated_at":"2026-03-08T14:05:58.438858+05:30"},{"city":"Amravati","state":"Maharashtra","latitude":20.9374,"longitude":77.7796,"temp":37.8,"humidity":18,"rain":0.0,"pressure":969.3,"uv_index":7.9,"wind_gusts":21.6,"aqi":79,"pm10":26.4,"pm2_5":14.7,"mosquito_risk":0,"arthritis_risk":5,"migraine_risk":10,"frizz_risk":0,"updated_at":"2026-03-08T14:05:58.438864+05:30"},{"city":"Latur","state":"Maharashtra","latitude":18.4088,"longitude":76.5604,"temp":35.9,"humidity":20,"rain":0.0,"pressure":941.4,"uv_index":8.4,"wind_gusts":23.8,"aqi":91,"pm10":22.8,"pm2_5":18.4,"mosquito_risk":0,"arthritis_risk":5,"migraine_risk":10,"frizz_risk":0,"updated_at":"2026-03-08T14:05:58.438870+05:30"},{"city":"Nanded","state":"Maharashtra","latitude":19.1383,"longitude":77.3091,"temp":38.3,"humidity":19,"rain":0.0,"pressure":969.9,"uv_index":8.15,"wind_gusts":25.2,"aqi":89,"pm10":29.5,"pm2_5":17.9,"mosquito_risk":0,"arthritis_risk":5,"migraine_risk":10,"frizz_risk":0,"updated_at":"2026-03-08T14:05:58.438876+05:30"},{"city":"Gulbarga","state":"Karnataka","latitude":17.3297,"longitude":76.8343,"temp":38.0,"humidity":17,"rain":0.0,"pressure":959.5,"uv_index":8.5,"wind_gusts":28.8,"aqi":77,"pm10":31.2,"pm2_5":21.7,"mosquito_risk":0,"arthritis_risk":5,"migraine_risk":10,"frizz_risk":0,"updated_at":"2026-03-08T14:05:58.438882+05:30"},{"city":"Bidar","state":"Karnataka","latitude":17.9104,"longitude":77.5199,"temp":36.0,"humidity":19,"rain":0.0,"pressure":937.1,"uv_index":8.4,"wind_gusts":29.2,"aqi":99,"pm10":30.0,"pm2_5":19.8,"mosquito_risk":0,"arthritis_risk":5,"migraine_risk":10,"frizz_risk":0,"updated_at":"2026-03-08T14:05:58.438887+05:30"},{"city":"Hospet","state":"Karnataka","latitude":15.2689,"longitude":76.3909,"temp":36.0,"humidity":22,"rain":0.0,"pressure":956.2,"uv_index":8.75,"wind_gusts":24.5,"aqi":90,"pm10":36.8,"pm2_5":27.1,"mosquito_risk":0,"arthritis_risk":5,"migraine_risk":10,"frizz_risk":0,"updated_at":"2026-03-08T14:05:58.438893+05:30"},{"city":"Tirupur","state":"Tamil Nadu","latitude":11.1085,"longitude":77.3411,"temp":36.0,"humidity":29,"rain":0.0,"pressure":975.3,"uv_index":9.2,"wind_gusts":30.2,"aqi":117,"pm10":41.8,"pm2_5":33.3,"mosquito_risk":0,"arthritis_risk":5,"migraine_risk":10,"frizz_risk":0,"updated_at":"2026-03-08T14:05:58.438898+05:30"},{"city":"Alappuzha","state":"Kerala","latitude":9.4981,"longitude":76.3388,"temp":28.6,"humidity":81,"rain":0.0,"pressure":1008.2,"uv_index":8.95,"wind_gusts":29.2,"aqi":124,"pm10":48.3,"pm2_5":45.1,"mosquito_risk":7,"arthritis_risk":0,"migraine_risk":4,"frizz_risk":1,"updated_at":"2026-03-08T14:05:58.438904+05:30"},{"city":"Munnar","state":"Kerala","latitude":10.0889,"longitude":77.0595,"temp":29.9,"humidity":37,"rain":0.0,"pressure":859.2,"uv_index":9.5,"wind_gusts":24.5,"aqi":105,"pm10":39.6,"pm2_5":29.7,"mosquito_risk":4,"arthritis_risk":5,"migraine_risk":7,"frizz_risk":0,"updated_at":"2026-03-08T14:05:58.438911+05:30"},{"city":"Silchar","state":"Assam","latitude":24.8333,"longitude":92.7789,"temp":31.8,"humidity":47,"rain":0.0,"pressure":1007.0,"uv_index":7.6,"wind_gusts":20.9,"aqi":163,"pm10":68.7,"pm2_5":57.2,"mosquito_risk":0,"arthritis_risk":5,"migraine_risk":4,"frizz_risk":1,"updated_at":"2026-03-08T14:05:58.438917+05:30"},{"city":"Dibrugarh","state":"Assam","latitude":27.4728,"longitude":94.912,"temp":28.8,"humidity":56,"rain":0.0,"pressure":998.2,"uv_index":6.3,"wind_gusts":20.5,"aqi":163,"pm10":97.8,"pm2_5":77.8,"mosquito_risk":4,"arthritis_risk":5,"migraine_risk":7,"frizz_risk":1,"updated_at":"2026-03-08T14:05:58.438923+05:30"}]