[{"city":"Delhi","state":"Delhi","latitude":28.6139,"longitude":77.209,"temp":33.0,"humidity":31,"rain":0.0,"pressure":974.0,"uv_index":7.8,"wind_gusts":40.7,"aqi":339,"pm10":460.1,"pm2_5":100.8,"no2":36.8,"co":249.0,"o3":28.0,"so2":13.5,"mosquito_risk":0,"arthritis_risk":5,"migraine_risk":7,"frizz_risk":0,"updated_at":"2026-06-10T04:13:43.061433+05:30"},{"city":"Mumbai","state":"Maharashtra","latitude":19.076,"longitude":72.8777,"temp":28.1,"humidity":82,"rain":0.1,"pressure":1005.9,"uv_index":7.75,"wind_gusts":45.4,"aqi":81,"pm10":62.4,"pm2_5":24.9,"no2":4.0,"co":160.0,"o3":52.0,"so2":3.2,"mosquito_risk":10,"arthritis_risk":5,"migraine_risk":4,"frizz_risk":1,"updated_at":"2026-06-10T04:13:43.061481+05:30"},{"city":"Bangalore","state":"Karnataka","latitude":12.9716,"longitude":77.5946,"temp":20.7,"humidity":90,"rain":0.0,"pressure":910.6,"uv_index":8.4,"wind_gusts":49.3,"aqi":19,"pm10":2.9,"pm2_5":2.6,"no2":7.9,"co":143.0,"o3":40.0,"so2":3.4,"mosquito_risk":3,"arthritis_risk":5,"migraine_risk":7,"frizz_risk":1,"updated_at":"2026-06-10T04:13:43.061498+05:30"},{"city":"Hyderabad","state":"Telangana","latitude":17.385,"longitude":78.4867,"temp":25.5,"humidity":80,"rain":0.0,"pressure":950.1,"uv_index":9.1,"wind_gusts":44.3,"aqi":72,"pm10":31.0,"pm2_5":21.0,"no2":7.9,"co":188.0,"o3":63.0,"so2":4.8,"mosquito_risk":7,"arthritis_risk":5,"migraine_risk":7,"frizz_risk":1,"updated_at":"2026-06-10T04:13:43.061508+05:30"},{"city":"Chennai","state":"Tamil Nadu","latitude":13.0827,"longitude":80.2707,"temp":29.4,"humidity":64,"rain":0.0,"pressure":1004.0,"uv_index":6.6,"wind_gusts":44.6,"aqi":51,"pm10":11.4,"pm2_5":9.3,"no2":14.5,"co":199.0,"o3":37.0,"so2":9.1,"mosquito_risk":7,"arthritis_risk":5,"migraine_risk":4,"frizz_risk":1,"updated_at":"2026-06-10T04:13:43.061517+05:30"},{"city":"Kolkata","state":"West Bengal","latitude":22.5726,"longitude":88.3639,"temp":29.8,"humidity":91,"rain":0.0,"pressure":998.7,"uv_index":8.95,"wind_gusts":40.3,"aqi":139,"pm10":36.8,"pm2_5":31.0,"no2":10.1,"co":361.0,"o3":80.0,"so2":7.5,"mosquito_risk":7,"arthritis_risk":5,"migraine_risk":7,"frizz_risk":1,"updated_at":"2026-06-10T04:13:43.061526+05:30"},{"city":"Pune","state":"Maharashtra","latitude":18.5204,"longitude":73.8567,"temp":24.8,"humidity":85,"rain":0.0,"pressure":945.8,"uv_index":8.2,"wind_gusts":49.3,"aqi":52,"pm10":18.3,"pm2_5":8.8,"no2":6.4,"co":113.0,"o3":42.0,"so2":5.4,"mosquito_risk":3,"arthritis_risk":5,"migraine_risk":7,"frizz_risk":1,"updated_at":"2026-06-10T04:13:43.061532+05:30"},{"city":"Ahmedabad","state":"Gujarat","latitude":23.0225,"longitude":72.5714,"temp":31.2,"humidity":65,"rain":0.0,"pressure":997.2,"uv_index":8.05,"wind_gusts":45.4,"aqi":87,"pm10":50.4,"pm2_5":26.3,"no2":4.0,"co":122.0,"o3":52.0,"so2":4.0,"mosquito_risk":3,"arthritis_risk":5,"migraine_risk":7,"frizz_risk":1,"updated_at":"2026-06-10T04:13:43.061539+05:30"},{"city":"Jaipur","state":"Rajasthan","latitude":26.9124,"longitude":75.7873,"temp":31.1,"humidity":52,"rain":0.0,"pressure":953.2,"uv_index":8.25,"wind_gusts":46.4,"aqi":141,"pm10":269.2,"pm2_5":56.9,"no2":4.4,"co":167.0,"o3":70.0,"so2":3.9,"mosquito_risk":0,"arthritis_risk":5,"migraine_risk":7,"frizz_risk":1,"updated_at":"2026-06-10T04:13:43.061551+05:30"},{"city":"Lucknow","state":"Uttar Pradesh","latitude":26.8467,"longitude":80.9462,"temp":30.5,"humidity":53,"rain":0.0,"pressure":984.3,"uv_index":8.35,"wind_gusts":62.3,"aqi":160,"pm10":214.7,"pm2_5":75.7,"no2":32.9,"co":394.0,"o3":29.0,"so2":9.8,"mosquito_risk":0,"arthritis_risk":5,"migraine_risk":7,"frizz_risk":1,"updated_at":"2026-06-10T04:13:43.061558+05:30"},{"city":"Kanpur","state":"Uttar Pradesh","latitude":26.4499,"longitude":80.3319,"temp":31.7,"humidity":41,"rain":0.0,"pressure":982.7,"uv_index":7.45,"wind_gusts":49.7,"aqi":248,"pm10":296.2,"pm2_5":68.5,"no2":27.8,"co":238.0,"o3":29.0,"so2":6.3,"mosquito_risk":0,"arthritis_risk":5,"migraine_risk":7,"frizz_risk":1,"updated_at":"2026-06-10T04:13:43.061565+05:30"},{"city":"Chandigarh","state":"Chandigarh","latitude":30.7333,"longitude":76.7794,"temp":24.3,"humidity":60,"rain":0.0,"pressure":958.3,"uv_index":7.85,"wind_gusts":36.4,"aqi":88,"pm10":43.0,"pm2_5":39.8,"no2":44.3,"co":573.0,"o3":14.0,"so2":5.1,"mosquito_risk":0,"arthritis_risk":5,"migraine_risk":7,"frizz_risk":1,"updated_at":"2026-06-10T04:13:43.061572+05:30"},{"city":"Srinagar","state":"Jammu and Kashmir","latitude":34.0837,"longitude":74.7973,"temp":14.1,"humidity":86,"rain":0.0,"pressure":835.5,"uv_index":9.0,"wind_gusts":23.0,"aqi":78,"pm10":42.6,"pm2_5":39.0,"no2":29.7,"co":332.0,"o3":2.0,"so2":1.0,"mosquito_risk":3,"arthritis_risk":10,"migraine_risk":7,"frizz_risk":0,"updated_at":"2026-06-10T04:13:43.061580+05:30"},{"city":"Jammu","state":"Jammu and Kashmir","latitude":32.7266,"longitude":74.857,"temp":25.5,"humidity":51,"rain":0.0,"pressure":962.3,"uv_index":8.65,"wind_gusts":32.0,"aqi":76,"pm10":33.5,"pm2_5":31.0,"no2":27.3,"co":344.0,"o3":33.0,"so2":2.7,"mosquito_risk":4,"arthritis_risk":5,"migraine_risk":7,"frizz_risk":0,"updated_at":"2026-06-10T04:13:43.061587+05:30"},{"city":"Amritsar","state":"Punjab","latitude":31.634,"longitude":74.8723,"temp":31.5,"humidity":37,"rain":0.0,"pressure":970.3,"uv_index":8.5,"wind_gusts":24.5,"aqi":129,"pm10":71.2,"pm2_5":57.6,"no2":46.1,"co":573.0,"o3":27.0,"so2":8.9,"mosquito_risk":0,"arthritis_risk":5,"migraine_risk":7,"frizz_risk":0,"updated_at":"2026-06-10T04:13:43.061593+05:30"},{"city":"Ludhiana","state":"Punjab","latitude":30.901,"longitude":75.8573,"temp":30.2,"humidity":38,"rain":0.0,"pressure":968.3,"uv_index":8.05,"wind_gusts":22.0,"aqi":114,"pm10":62.2,"pm2_5":51.3,"no2":36.2,"co":770.0,"o3":34.0,"so2":8.6,"mosquito_risk":0,"arthritis_risk":5,"migraine_risk":7,"frizz_risk":0,"updated_at":"2026-06-10T04:13:43.061607+05:30"},{"city":"Jalandhar","state":"Punjab","latitude":31.326,"longitude":75.5762,"temp":30.2,"humidity":37,"rain":0.0,"pressure":969.3,"uv_index":8.25,"wind_gusts":24.5,"aqi":115,"pm10":60.1,"pm2_5":43.1,"no2":25.4,"co":747.0,"o3":64.0,"so2":6.4,"mosquito_risk":0,"arthritis_risk":5,"migraine_risk":7,"frizz_risk":0,"updated_at":"2026-06-10T04:13:43.061614+05:30"},{"city":"Dehradun","state":"Uttarakhand","latitude":30.6284,"longitude":78.0322,"temp":14.5,"humidity":88,"rain":0.0,"pressure":823.2,"uv_index":8.3,"wind_gusts":43.9,"aqi":67,"pm10":23.4,"pm2_5":21.8,"no2":20.8,"co":243.0,"o3":28.0,"so2":0.1,"mosquito_risk":3,"arthritis_risk":10,"migraine_risk":7,"frizz_risk":0,"updated_at":"2026-06-10T04:13:43.061621+05:30"},{"city":"Shimla","state":"Himachal Pradesh","latitude":31.1048,"longitude":77.1734,"temp":13.7,"humidity":51,"rain":0.0,"pressure":777.7,"uv_index":8.35,"wind_gusts":47.5,"aqi":72,"pm10":35.6,"pm2_5":31.4,"no2":18.4,"co":239.0,"o3":53.0,"so2":0.8,"mosquito_risk":0,"arthritis_risk":5,"migraine_risk":7,"frizz_risk":0,"updated_at":"2026-06-10T04:13:43.061631+05:30"},{"city":"Manali","state":"Himachal Pradesh","latitude":32.2396,"longitude":77.1887,"temp":12.1,"humidity":62,"rain":0.0,"pressure":812.1,"uv_index":9.65,"wind_gusts":38.9,"aqi":51,"pm10":15.8,"pm2_5":9.5,"no2":26.1,"co":209.0,"o3":87.0,"so2":0.0,"mosquito_risk":3,"arthritis_risk":5,"migraine_risk":7,"frizz_risk":0,"updated_at":"2026-06-10T04:13:43.061639+05:30"},{"city":"Gurgaon","state":"Haryana","latitude":28.4595,"longitude":77.0266,"temp":31.7,"humidity":41,"rain":0.0,"pressure":972.5,"uv_index":7.9,"wind_gusts":42.5,"aqi":1430,"pm10":2078.7,"pm2_5":299.0,"no2":20.8,"co":241.0,"o3":43.0,"so2":8.3,"mosquito_risk":0,"arthritis_risk":5,"migraine_risk":7,"frizz_risk":1,"updated_at":"2026-06-10T04:13:43.061646+05:30"},{"city":"Noida","state":"Uttar Pradesh","latitude":28.5355,"longitude":77.391,"temp":32.5,"humidity":32,"rain":0.0,"pressure":975.3,"uv_index":7.85,"wind_gusts":38.2,"aqi":1430,"pm10":2078.7,"pm2_5":299.0,"no2":20.8,"co":511.0,"o3":43.0,"so2":8.3,"mosquito_risk":0,"arthritis_risk":5,"migraine_risk":7,"frizz_risk":0,"updated_at":"2026-06-10T04:13:43.061652+05:30"},{"city":"Ghaziabad","state":"Uttar Pradesh","latitude":28.6692,"longitude":77.4538,"temp":32.8,"humidity":30,"rain":0.0,"pressure":973.6,"uv_index":7.8,"wind_gusts":37.8,"aqi":252,"pm10":394.9,"pm2_5":109.7,"no2":49.8,"co":761.0,"o3":19.0,"so2":19.6,"mosquito_risk":0,"arthritis_risk":5,"migraine_risk":7,"frizz_risk":0,"updated_at":"2026-06-10T04:13:43.061661+05:30"},{"city":"Faridabad","state":"Haryana","latitude":28.4089,"longitude":77.3178,"temp":32.7,"humidity":34,"rain":0.0,"pressure":974.6,"uv_index":7.85,"wind_gusts":45.4,"aqi":1430,"pm10":2078.7,"pm2_5":299.0,"no2":20.8,"co":228.0,"o3":43.0,"so2":8.3,"mosquito_risk":0,"arthritis_risk":5,"migraine_risk":7,"frizz_risk":0,"updated_at":"2026-06-10T04:13:43.061667+05:30"},{"city":"Meerut","state":"Uttar Pradesh","latitude":28.9845,"longitude":77.7064,"temp":31.5,"humidity":32,"rain":0.0,"pressure":972.3,"uv_index":7.75,"wind_gusts":31.3,"aqi":252,"pm10":394.9,"pm2_5":109.7,"no2":49.8,"co":642.0,"o3":19.0,"so2":19.6,"mosquito_risk":0,"arthritis_risk":5,"migraine_risk":7,"frizz_risk":0,"updated_at":"2026-06-10T04:13:43.061674+05:30"},{"city":"Agra","state":"Uttar Pradesh","latitude":27.1767,"longitude":78.0081,"temp":31.8,"humidity":32,"rain":0.0,"pressure":979.0,"uv_index":8.15,"wind_gusts":45.0,"aqi":1140,"pm10":1315.0,"pm2_5":156.5,"no2":16.4,"co":217.0,"o3":52.0,"so2":5.4,"mosquito_risk":0,"arthritis_risk":5,"migraine_risk":7,"frizz_risk":0,"updated_at":"2026-06-10T04:13:43.061680+05:30"},{"city":"Varanasi","state":"Uttar Pradesh","latitude":25.3176,"longitude":82.9739,"temp":31.7,"humidity":44,"rain":0.0,"pressure":989.4,"uv_index":8.8,"wind_gusts":39.2,"aqi":104,"pm10":82.7,"pm2_5":38.9,"no2":18.8,"co":434.0,"o3":61.0,"so2":10.4,"mosquito_risk":0,"arthritis_risk":5,"migraine_risk":7,"frizz_risk":1,"updated_at":"2026-06-10T04:13:43.061686+05:30"},{"city":"Prayagraj","state":"Uttar Pradesh","latitude":25.4358,"longitude":81.8463,"temp":31.7,"humidity":50,"rain":0.0,"pressure":987.5,"uv_index":8.3,"wind_gusts":50.8,"aqi":111,"pm10":109.9,"pm2_5":46.1,"no2":18.8,"co":190.0,"o3":55.0,"so2":8.0,"mosquito_risk":0,"arthritis_risk":5,"migraine_risk":7,"frizz_risk":1,"updated_at":"2026-06-10T04:13:43.061692+05:30"},{"city":"Gorakhpur","state":"Uttar Pradesh","latitude":26.7606,"longitude":83.3732,"temp":28.1,"humidity":73,"rain":0.0,"pressure":989.5,"uv_index":8.7,"wind_gusts":40.0,"aqi":160,"pm10":85.2,"pm2_5":70.1,"no2":10.8,"co":627.0,"o3":128.0,"so2":15.0,"mosquito_risk":7,"arthritis_risk":5,"migraine_risk":7,"frizz_risk":1,"updated_at":"2026-06-10T04:13:43.061701+05:30"},{"city":"Bareilly","state":"Uttar Pradesh","latitude":28.367,"longitude":79.4304,"temp":28.2,"humidity":51,"rain":0.0,"pressure":977.4,"uv_index":8.1,"wind_gusts":35.6,"aqi":151,"pm10":48.8,"pm2_5":40.3,"no2":24.5,"co":636.0,"o3":61.0,"so2":8.4,"mosquito_risk":4,"arthritis_risk":5,"migraine_risk":7,"frizz_risk":1,"updated_at":"2026-06-10T04:13:43.061707+05:30"},{"city":"Aligarh","state":"Uttar Pradesh","latitude":27.8974,"longitude":78.088,"temp":30.7,"humidity":39,"rain":0.0,"pressure":976.5,"uv_index":7.85,"wind_gusts":37.1,"aqi":802,"pm10":627.7,"pm2_5":115.0,"no2":24.2,"co":386.0,"o3":37.0,"so2":6.0,"mosquito_risk":0,"arthritis_risk":5,"migraine_risk":7,"frizz_risk":0,"updated_at":"2026-06-10T04:13:43.061713+05:30"},{"city":"Moradabad","state":"Uttar Pradesh","latitude":28.8386,"longitude":78.7733,"temp":30.0,"humidity":50,"rain":0.0,"pressure":974.6,"uv_index":7.95,"wind_gusts":31.3,"aqi":165,"pm10":113.9,"pm2_5":80.3,"no2":48.9,"co":749.0,"o3":36.0,"so2":14.6,"mosquito_risk":4,"arthritis_risk":5,"migraine_risk":7,"frizz_risk":1,"updated_at":"2026-06-10T04:13:43.061719+05:30"},{"city":"Saharanpur","state":"Uttar Pradesh","latitude":29.9637,"longitude":77.546,"temp":27.8,"humidity":45,"rain":0.0,"pressure":966.2,"uv_index":7.5,"wind_gusts":26.3,"aqi":137,"pm10":136.4,"pm2_5":64.0,"no2":43.0,"co":552.0,"o3":32.0,"so2":10.9,"mosquito_risk":4,"arthritis_risk":5,"migraine_risk":7,"frizz_risk":0,"updated_at":"2026-06-10T04:13:43.061726+05:30"},{"city":"Jhansi","state":"Uttar Pradesh","latitude":25.4484,"longitude":78.5685,"temp":31.7,"humidity":47,"rain":0.0,"pressure":970.7,"uv_index":8.5,"wind_gusts":47.5,"aqi":70,"pm10":26.1,"pm2_5":17.9,"no2":6.1,"co":159.0,"o3":81.0,"so2":9.0,"mosquito_risk":0,"arthritis_risk":5,"migraine_risk":7,"frizz_risk":1,"updated_at":"2026-06-10T04:13:46.314581+05:30"},{"city":"Surat","state":"Gujarat","latitude":21.1702,"longitude":72.8311,"temp":28.1,"humidity":90,"rain":0.0,"pressure":1002.7,"uv_index":7.55,"wind_gusts":51.8,"aqi":85,"pm10":51.3,"pm2_5":28.9,"no2":18.4,"co":247.0,"o3":36.0,"so2":31.9,"mosquito_risk":7,"arthritis_risk":5,"migraine_risk":4,"frizz_risk":1,"updated_at":"2026-06-10T04:13:46.314617+05:30"},{"city":"Vadodara","state":"Gujarat","latitude":22.3072,"longitude":73.1812,"temp":30.4,"humidity":71,"rain":0.0,"pressure":999.7,"uv_index":8.0,"wind_gusts":49.3,"aqi":87,"pm10":36.0,"pm2_5":21.6,"no2":6.7,"co":119.0,"o3":44.0,"so2":5.6,"mosquito_risk":3,"arthritis_risk":5,"migraine_risk":7,"frizz_risk":1,"updated_at":"2026-06-10T04:13:46.314628+05:30"},{"city":"Rajkot","state":"Gujarat","latitude":22.3039,"longitude":70.8022,"temp":29.2,"humidity":73,"rain":0.0,"pressure":989.5,"uv_index":7.55,"wind_gusts":49.3,"aqi":80,"pm10":58.1,"pm2_5":28.6,"no2":3.1,"co":96.0,"o3":54.0,"so2":3.3,"mosquito_risk":7,"arthritis_risk":5,"migraine_risk":7,"frizz_risk":1,"updated_at":"2026-06-10T04:13:46.314636+05:30"},{"city":"Thane","state":"Maharashtra","latitude":19.2183,"longitude":72.9781,"temp":27.2,"humidity":92,"rain":0.1,"pressure":1005.3,"uv_index":7.7,"wind_gusts":42.1,"aqi":81,"pm10":62.4,"pm2_5":24.9,"no2":4.0,"co":129.0,"o3":52.0,"so2":3.2,"mosquito_risk":10,"arthritis_risk":5,"migraine_risk":4,"frizz_risk":1,"updated_at":"2026-06-10T04:13:46.314644+05:30"},{"city":"Nagpur","state":"Maharashtra","latitude":21.1458,"longitude":79.0882,"temp":32.1,"humidity":47,"rain":0.0,"pressure":967.7,"uv_index":7.1,"wind_gusts":44.3,"aqi":91,"pm10":59.1,"pm2_5":37.1,"no2":20.8,"co":256.0,"o3":48.0,"so2":16.8,"mosquito_risk":0,"arthritis_risk":5,"migraine_risk":7,"frizz_risk":1,"updated_at":"2026-06-10T04:13:46.314652+05:30"},{"city":"Nashik","state":"Maharashtra","latitude":19.9975,"longitude":73.7898,"temp":24.5,"humidity":90,"rain":0.0,"pressure":942.7,"uv_index":8.05,"wind_gusts":51.1,"aqi":72,"pm10":45.6,"pm2_5":20.8,"no2":5.9,"co":130.0,"o3":43.0,"so2":3.7,"mosquito_risk":3,"arthritis_risk":5,"migraine_risk":7,"frizz_risk":1,"updated_at":"2026-06-10T04:13:46.314660+05:30"},{"city":"Aurangabad","state":"Maharashtra","latitude":19.8762,"longitude":75.3433,"temp":25.4,"humidity":80,"rain":0.0,"pressure":941.3,"uv_index":9.0,"wind_gusts":50.8,"aqi":72,"pm10":43.2,"pm2_5":21.2,"no2":7.1,"co":122.0,"o3":43.0,"so2":6.9,"mosquito_risk":7,"arthritis_risk":5,"migraine_risk":7,"frizz_risk":1,"updated_at":"2026-06-10T04:13:46.314667+05:30"},{"city":"Solapur","state":"Maharashtra","latitude":17.6599,"longitude":75.9064,"temp":26.1,"humidity":78,"rain":0.0,"pressure":955.0,"uv_index":8.9,"wind_gusts":45.4,"aqi":54,"pm10":7.7,"pm2_5":5.3,"no2":6.0,"co":143.0,"o3":39.0,"so2":2.1,"mosquito_risk":7,"arthritis_risk":5,"migraine_risk":7,"frizz_risk":1,"updated_at":"2026-06-10T04:13:46.314675+05:30"},{"city":"Kolhapur","state":"Maharashtra","latitude":16.705,"longitude":74.2433,"temp":23.2,"humidity":93,"rain":0.0,"pressure":946.3,"uv_index":7.15,"wind_gusts":52.9,"aqi":24,"pm10":7.5,"pm2_5":4.1,"no2":3.2,"co":115.0,"o3":46.0,"so2":1.5,"mosquito_risk":3,"arthritis_risk":5,"migraine_risk":7,"frizz_risk":1,"updated_at":"2026-06-10T04:13:46.314682+05:30"},{"city":"Goa","state":"Goa","latitude":15.2993,"longitude":74.124,"temp":24.5,"humidity":99,"rain":0.0,"pressure":997.4,"uv_index":8.0,"wind_gusts":34.9,"aqi":35,"pm10":24.4,"pm2_5":14.2,"no2":5.5,"co":220.0,"o3":45.0,"so2":1.2,"mosquito_risk":3,"arthritis_risk":5,"migraine_risk":7,"frizz_risk":1,"updated_at":"2026-06-10T04:13:46.314689+05:30"},{"city":"Jodhpur","state":"Rajasthan","latitude":26.2389,"longitude":73.0243,"temp":31.5,"humidity":59,"rain":0.0,"pressure":976.0,"uv_index":8.45,"wind_gusts":49.7,"aqi":154,"pm10":295.2,"pm2_5":67.8,"no2":2.8,"co":117.0,"o3":63.0,"so2":2.1,"mosquito_risk":0,"arthritis_risk":5,"migraine_risk":7,"frizz_risk":1,"updated_at":"2026-06-10T04:13:46.314697+05:30"},{"city":"Udaipur","state":"Rajasthan","latitude":24.5854,"longitude":73.7125,"temp":26.8,"humidity":72,"rain":0.0,"pressure":941.1,"uv_index":8.8,"wind_gusts":43.2,"aqi":85,"pm10":37.6,"pm2_5":23.5,"no2":4.6,"co":144.0,"o3":58.0,"so2":3.9,"mosquito_risk":7,"arthritis_risk":5,"migraine_risk":7,"frizz_risk":1,"updated_at":"2026-06-10T04:13:46.314704+05:30"},{"city":"Kota","state":"Rajasthan","latitude":25.2138,"longitude":75.8648,"temp":30.5,"humidity":60,"rain":0.0,"pressure":972.4,"uv_index":8.4,"wind_gusts":36.4,"aqi":73,"pm10":46.9,"pm2_5":29.0,"no2":4.8,"co":164.0,"o3":86.0,"so2":9.1,"mosquito_risk":0,"arthritis_risk":5,"migraine_risk":7,"frizz_risk":1,"updated_at":"2026-06-10T04:13:46.314712+05:30"},{"city":"Bikaner","state":"Rajasthan","latitude":28.0229,"longitude":73.3119,"temp":33.1,"humidity":50,"rain":0.0,"pressure":973.5,"uv_index":8.5,"wind_gusts":46.4,"aqi":124,"pm10":87.1,"pm2_5":36.4,"no2":2.6,"co":113.0,"o3":65.0,"so2":5.2,"mosquito_risk":0,"arthritis_risk":5,"migraine_risk":7,"frizz_risk":1,"updated_at":"2026-06-10T04:13:46.314719+05:30"},{"city":"Ajmer","state":"Rajasthan","latitude":26.4499,"longitude":74.6399,"temp":29.1,"humidity":63,"rain":0.0,"pressure":948.5,"uv_index":8.35,"wind_gusts":54.4,"aqi":76,"pm10":35.9,"pm2_5":21.7,"no2":4.4,"co":141.0,"o3":67.0,"so2":3.5,"mosquito_risk":7,"arthritis_risk":5,"migraine_risk":7,"frizz_risk":1,"updated_at":"2026-06-10T04:13:46.314726+05:30"},{"city":"Gwalior","state":"Madhya Pradesh","latitude":26.2183,"longitude":78.1828,"temp":32.2,"humidity":42,"rain":0.0,"pressure":975.3,"uv_index":8.3,"wind_gusts":54.0,"aqi":78,"pm10":19.1,"pm2_5":14.2,"no2":7.2,"co":151.0,"o3":64.0,"so2":4.2,"mosquito_risk":0,"arthritis_risk":5,"migraine_risk":7,"frizz_risk":1,"updated_at":"2026-06-10T04:13:46.314733+05:30"},{"city":"Indore","state":"Madhya Pradesh","latitude":22.7196,"longitude":75.8577,"temp":26.7,"humidity":74,"rain":0.0,"pressure":944.3,"uv_index":8.6,"wind_gusts":45.7,"aqi":82,"pm10":52.6,"pm2_5":31.0,"no2":5.8,"co":159.0,"o3":62.0,"so2":9.9,"mosquito_risk":7,"arthritis_risk":5,"migraine_risk":7,"frizz_risk":1,"updated_at":"2026-06-10T04:13:46.314741+05:30"},{"city":"Bhopal","state":"Madhya Pradesh","latitude":23.2599,"longitude":77.4126,"temp":29.1,"humidity":60,"rain":0.0,"pressure":948.7,"uv_index":8.65,"wind_gusts":38.9,"aqi":82,"pm10":41.0,"pm2_5":27.0,"no2":4.1,"co":182.0,"o3":88.0,"so2":6.3,"mosquito_risk":4,"arthritis_risk":5,"migraine_risk":7,"frizz_risk":1,"updated_at":"2026-06-10T04:13:46.314748+05:30"},{"city":"Jabalpur","state":"Madhya Pradesh","latitude":23.1815,"longitude":79.9864,"temp":30.0,"humidity":53,"rain":0.0,"pressure":955.5,"uv_index":8.85,"wind_gusts":40.3,"aqi":83,"pm10":48.2,"pm2_5":30.5,"no2":11.5,"co":231.0,"o3":64.0,"so2":4.7,"mosquito_risk":4,"arthritis_risk":5,"migraine_risk":7,"frizz_risk":1,"updated_at":"2026-06-10T04:13:46.314756+05:30"},{"city":"Ujjain","state":"Madhya Pradesh","latitude":23.1765,"longitude":75.7885,"temp":26.8,"humidity":75,"rain":0.0,"pressure":949.7,"uv_index":8.55,"wind_gusts":51.1,"aqi":81,"pm10":48.0,"pm2_5":28.4,"no2":5.8,"co":174.0,"o3":55.0,"so2":10.0,"mosquito_risk":7,"arthritis_risk":5,"migraine_risk":7,"frizz_risk":1,"updated_at":"2026-06-10T04:13:46.314763+05:30"},{"city":"Visakhapatnam","state":"Andhra Pradesh","latitude":17.6868,"longitude":83.2185,"temp":29.3,"humidity":78,"rain":0.0,"pressure":996.6,"uv_index":8.6,"wind_gusts":34.6,"aqi":119,"pm10":50.9,"pm2_5":43.5,"no2":36.0,"co":408.0,"o3":39.0,"so2":41.2,"mosquito_risk":7,"arthritis_risk":5,"migraine_risk":7,"frizz_risk":1,"updated_at":"2026-06-10T04:13:46.314770+05:30"},{"city":"Vijayawada","state":"Andhra Pradesh","latitude":16.5062,"longitude":80.648,"temp":30.7,"humidity":62,"rain":0.0,"pressure":997.5,"uv_index":8.65,"wind_gusts":37.8,"aqi":73,"pm10":27.3,"pm2_5":21.8,"no2":9.5,"co":184.0,"o3":60.0,"so2":6.3,"mosquito_risk":3,"arthritis_risk":5,"migraine_risk":7,"frizz_risk":1,"updated_at":"2026-06-10T04:13:46.314779+05:30"},{"city":"Guntur","state":"Andhra Pradesh","latitude":16.3067,"longitude":80.4365,"temp":30.1,"humidity":65,"rain":0.0,"pressure":998.9,"uv_index":8.5,"wind_gusts":40.0,"aqi":69,"pm10":26.3,"pm2_5":20.3,"no2":9.1,"co":168.0,"o3":60.0,"so2":7.7,"mosquito_risk":3,"arthritis_risk":5,"migraine_risk":7,"frizz_risk":1,"updated_at":"2026-06-10T04:13:46.314786+05:30"},{"city":"Nellore","state":"Andhra Pradesh","latitude":14.4426,"longitude":79.9865,"temp":29.8,"humidity":62,"rain":0.0,"pressure":1002.2,"uv_index":8.15,"wind_gusts":45.4,"aqi":38,"pm10":7.0,"pm2_5":5.3,"no2":8.2,"co":126.0,"o3":44.0,"so2":5.7,"mosquito_risk":7,"arthritis_risk":5,"migraine_risk":4,"frizz_risk":1,"updated_at":"2026-06-10T04:13:46.314794+05:30"},{"city":"Kurnool","state":"Andhra Pradesh","latitude":15.8281,"longitude":78.0373,"temp":26.7,"humidity":78,"rain":0.0,"pressure":974.7,"uv_index":7.65,"wind_gusts":49.7,"aqi":45,"pm10":23.1,"pm2_5":15.8,"no2":12.5,"co":140.0,"o3":41.0,"so2":4.6,"mosquito_risk":7,"arthritis_risk":5,"migraine_risk":7,"frizz_risk":1,"updated_at":"2026-06-10T04:13:46.314802+05:30"},{"city":"Kakinada","state":"Andhra Pradesh","latitude":16.9891,"longitude":82.2475,"temp":30.4,"humidity":64,"rain":0.0,"pressure":1001.2,"uv_index":9.05,"wind_gusts":40.0,"aqi":81,"pm10":35.7,"pm2_5":28.5,"no2":10.2,"co":310.0,"o3":70.0,"so2":6.5,"mosquito_risk":3,"arthritis_risk":5,"migraine_risk":4,"frizz_risk":1,"updated_at":"2026-06-10T04:13:46.314809+05:30"},{"city":"Tirupati","state":"Andhra Pradesh","latitude":13.6288,"longitude":79.4192,"temp":28.0,"humidity":62,"rain":0.0,"pressure":988.3,"uv_index":7.65,"wind_gusts":40.0,"aqi":32,"pm10":4.1,"pm2_5":3.5,"no2":6.3,"co":122.0,"o3":40.0,"so2":1.7,"mosquito_risk":7,"arthritis_risk":5,"migraine_risk":7,"frizz_risk":1,"updated_at":"2026-06-10T04:13:46.314816+05:30"},{"city":"Warangal","state":"Telangana","latitude":17.9689,"longitude":79.5941,"temp":27.7,"humidity":73,"rain":0.0,"pressure":974.4,"uv_index":9.0,"wind_gusts":43.2,"aqi":90,"pm10":43.4,"pm2_5":29.3,"no2":10.5,"co":176.0,"o3":63.0,"so2":4.6,"mosquito_risk":7,"arthritis_risk":5,"migraine_risk":7,"frizz_risk":1,"updated_at":"2026-06-10T04:13:46.314823+05:30"},{"city":"Nizamabad","state":"Telangana","latitude":18.6725,"longitude":78.0941,"temp":28.9,"humidity":61,"rain":0.0,"pressure":961.3,"uv_index":8.7,"wind_gusts":42.1,"aqi":88,"pm10":30.2,"pm2_5":20.4,"no2":7.2,"co":177.0,"o3":63.0,"so2":4.8,"mosquito_risk":7,"arthritis_risk":5,"migraine_risk":7,"frizz_risk":1,"updated_at":"2026-06-10T04:13:46.314830+05:30"},{"city":"Mysore","state":"Karnataka","latitude":12.2958,"longitude":76.6396,"temp":21.6,"humidity":92,"rain":0.0,"pressure":928.0,"uv_index":2.9,"wind_gusts":46.4,"aqi":21,"pm10":2.9,"pm2_5":2.5,"no2":5.7,"co":113.0,"o3":41.0,"so2":1.6,"mosquito_risk":3,"arthritis_risk":5,"migraine_risk":3,"frizz_risk":1,"updated_at":"2026-06-10T04:13:46.314837+05:30"},{"city":"Mangalore","state":"Karnataka","latitude":12.9141,"longitude":74.856,"temp":23.9,"humidity":99,"rain":0.0,"pressure":1007.2,"uv_index":6.55,"wind_gusts":36.4,"aqi":29,"pm10":10.6,"pm2_5":6.3,"no2":4.0,"co":214.0,"o3":46.0,"so2":1.0,"mosquito_risk":3,"arthritis_risk":5,"migraine_risk":4,"frizz_risk":1,"updated_at":"2026-06-10T04:13:46.314844+05:30"},{"city":"Hubli-Dharwad","state":"Karnataka","latitude":15.3647,"longitude":75.124,"temp":21.9,"humidity":98,"rain":0.0,"pressure":939.5,"uv_index":6.3,"wind_gusts":44.6,"aqi":21,"pm10":6.8,"pm2_5":3.2,"no2":2.3,"co":117.0,"o3":48.0,"so2":0.9,"mosquito_risk":3,"arthritis_risk":5,"migraine_risk":7,"frizz_risk":1,"updated_at":"2026-06-10T04:13:46.314851+05:30"},{"city":"Belgaum","state":"Karnataka","latitude":15.8497,"longitude":74.4977,"temp":21.5,"humidity":98,"rain":0.0,"pressure":924.2,"uv_index":8.3,"wind_gusts":50.4,"aqi":22,"pm10":5.7,"pm2_5":3.7,"no2":3.4,"co":115.0,"o3":46.0,"so2":1.5,"mosquito_risk":3,"arthritis_risk":5,"migraine_risk":7,"frizz_risk":1,"updated_at":"2026-06-10T04:13:49.575476+05:30"},{"city":"Coimbatore","state":"Tamil Nadu","latitude":11.0168,"longitude":76.9558,"temp":23.1,"humidity":92,"rain":0.0,"pressure":961.1,"uv_index":7.55,"wind_gusts":54.0,"aqi":20,"pm10":2.9,"pm2_5":1.9,"no2":5.0,"co":181.0,"o3":40.0,"so2":2.1,"mosquito_risk":3,"arthritis_risk":5,"migraine_risk":7,"frizz_risk":1,"updated_at":"2026-06-10T04:13:49.575513+05:30"},{"city":"Madurai","state":"Tamil Nadu","latitude":9.9252,"longitude":78.1198,"temp":28.9,"humidity":64,"rain":0.0,"pressure":992.5,"uv_index":8.05,"wind_gusts":44.3,"aqi":20,"pm10":6.2,"pm2_5":5.3,"no2":9.0,"co":128.0,"o3":30.0,"so2":3.6,"mosquito_risk":7,"arthritis_risk":5,"migraine_risk":7,"frizz_risk":1,"updated_at":"2026-06-10T04:13:49.575525+05:30"},{"city":"Trichy","state":"Tamil Nadu","latitude":10.7905,"longitude":78.7047,"temp":29.0,"humidity":66,"rain":0.0,"pressure":999.1,"uv_index":6.2,"wind_gusts":60.1,"aqi":19,"pm10":3.6,"pm2_5":3.3,"no2":7.6,"co":102.0,"o3":38.0,"so2":3.2,"mosquito_risk":7,"arthritis_risk":5,"migraine_risk":7,"frizz_risk":1,"updated_at":"2026-06-10T04:13:49.575535+05:30"},{"city":"Salem","state":"Tamil Nadu","latitude":11.6643,"longitude":78.146,"temp":25.7,"humidity":77,"rain":0.0,"pressure":977.1,"uv_index":7.75,"wind_gusts":45.0,"aqi":27,"pm10":8.3,"pm2_5":7.8,"no2":16.3,"co":229.0,"o3":27.0,"so2":7.7,"mosquito_risk":7,"arthritis_risk":5,"migraine_risk":7,"frizz_risk":1,"updated_at":"2026-06-10T04:13:49.575543+05:30"},{"city":"Tirunelveli","state":"Tamil Nadu","latitude":8.7139,"longitude":77.7567,"temp":26.4,"humidity":84,"rain":0.0,"pressure":1003.6,"uv_index":8.65,"wind_gusts":43.6,"aqi":17,"pm10":3.1,"pm2_5":2.7,"no2":4.8,"co":166.0,"o3":34.0,"so2":1.5,"mosquito_risk":7,"arthritis_risk":5,"migraine_risk":4,"frizz_risk":1,"updated_at":"2026-06-10T04:13:49.575551+05:30"},{"city":"Vellore","state":"Tamil Nadu","latitude":12.9165,"longitude":79.1325,"temp":28.3,"humidity":58,"rain":0.0,"pressure":982.6,"uv_index":8.55,"wind_gusts":49.7,"aqi":26,"pm10":4.1,"pm2_5":3.5,"no2":7.8,"co":155.0,"o3":42.0,"so2":3.3,"mosquito_risk":4,"arthritis_risk":5,"migraine_risk":7,"frizz_risk":1,"updated_at":"2026-06-10T04:13:49.575560+05:30"},{"city":"Erode","state":"Tamil Nadu","latitude":11.341,"longitude":77.7172,"temp":25.3,"humidity":82,"rain":0.0,"pressure":988.7,"uv_index":7.5,"wind_gusts":42.1,"aqi":18,"pm10":6.2,"pm2_5":5.5,"no2":10.5,"co":152.0,"o3":37.0,"so2":3.2,"mosquito_risk":7,"arthritis_risk":5,"migraine_risk":7,"frizz_risk":1,"updated_at":"2026-06-10T04:13:49.575568+05:30"},{"city":"Kochi","state":"Kerala","latitude":9.9312,"longitude":76.2673,"temp":26.1,"humidity":95,"rain":0.0,"pressure":1009.9,"uv_index":7.7,"wind_gusts":41.8,"aqi":30,"pm10":9.7,"pm2_5":7.1,"no2":7.5,"co":85.0,"o3":35.0,"so2":2.2,"mosquito_risk":7,"arthritis_risk":0,"migraine_risk":4,"frizz_risk":1,"updated_at":"2026-06-10T04:13:49.575576+05:30"},{"city":"Thiruvananthapuram","state":"Kerala","latitude":8.5241,"longitude":76.9366,"temp":25.8,"humidity":91,"rain":0.0,"pressure":1009.3,"uv_index":8.2,"wind_gusts":45.4,"aqi":32,"pm10":12.7,"pm2_5":6.5,"no2":1.8,"co":81.0,"o3":47.0,"so2":0.6,"mosquito_risk":7,"arthritis_risk":0,"migraine_risk":4,"frizz_risk":1,"updated_at":"2026-06-10T04:13:49.575584+05:30"},{"city":"Kozhikode","state":"Kerala","latitude":11.2588,"longitude":75.7804,"temp":23.8,"humidity":99,"rain":0.2,"pressure":1008.7,"uv_index":8.15,"wind_gusts":38.5,"aqi":29,"pm10":13.7,"pm2_5":5.6,"no2":0.8,"co":250.0,"o3":60.0,"so2":0.6,"mosquito_risk":6,"arthritis_risk":0,"migraine_risk":4,"frizz_risk":1,"updated_at":"2026-06-10T04:13:49.575591+05:30"},{"city":"Thrissur","state":"Kerala","latitude":10.5276,"longitude":76.2144,"temp":24.5,"humidity":98,"rain":0.0,"pressure":1008.0,"uv_index":6.45,"wind_gusts":42.1,"aqi":31,"pm10":8.2,"pm2_5":6.5,"no2":6.6,"co":241.0,"o3":37.0,"so2":1.9,"mosquito_risk":3,"arthritis_risk":0,"migraine_risk":4,"frizz_risk":1,"updated_at":"2026-06-10T04:13:49.575599+05:30"},{"city":"Kannur","state":"Kerala","latitude":11.8745,"longitude":75.3704,"temp":24.6,"humidity":98,"rain":0.0,"pressure":1007.8,"uv_index":8.0,"wind_gusts":37.4,"aqi":27,"pm10":10.6,"pm2_5":5.4,"no2":2.6,"co":227.0,"o3":46.0,"so2":0.8,"mosquito_risk":3,"arthritis_risk":5,"migraine_risk":4,"frizz_risk":1,"updated_at":"2026-06-10T04:13:49.575606+05:30"},{"city":"Patna","state":"Bihar","latitude":25.5941,"longitude":85.1376,"temp":27.3,"humidity":88,"rain":0.0,"pressure":992.5,"uv_index":8.85,"wind_gusts":45.7,"aqi":165,"pm10":80.3,"pm2_5":73.1,"no2":12.5,"co":711.0,"o3":99.0,"so2":14.6,"mosquito_risk":7,"arthritis_risk":5,"migraine_risk":7,"frizz_risk":1,"updated_at":"2026-06-10T04:13:49.575613+05:30"},{"city":"Gaya","state":"Bihar","latitude":24.7914,"longitude":85.0002,"temp":29.6,"humidity":47,"rain":0.0,"pressure":986.1,"uv_index":8.8,"wind_gusts":24.1,"aqi":143,"pm10":91.7,"pm2_5":45.3,"no2":21.3,"co":226.0,"o3":71.0,"so2":10.5,"mosquito_risk":4,"arthritis_risk":5,"migraine_risk":7,"frizz_risk":1,"updated_at":"2026-06-10T04:13:49.575620+05:30"},{"city":"Muzaffarpur","state":"Bihar","latitude":26.1209,"longitude":85.3647,"temp":27.0,"humidity":86,"rain":0.0,"pressure":993.0,"uv_index":8.85,"wind_gusts":36.7,"aqi":165,"pm10":73.3,"pm2_5":62.2,"no2":7.7,"co":630.0,"o3":123.0,"so2":10.9,"mosquito_risk":7,"arthritis_risk":5,"migraine_risk":7,"frizz_risk":1,"updated_at":"2026-06-10T04:13:49.575628+05:30"},{"city":"Bhagalpur","state":"Bihar","latitude":25.2425,"longitude":87.0117,"temp":27.8,"humidity":92,"rain":0.0,"pressure":993.7,"uv_index":8.85,"wind_gusts":40.3,"aqi":160,"pm10":77.1,"pm2_5":71.0,"no2":10.3,"co":542.0,"o3":107.0,"so2":14.8,"mosquito_risk":7,"arthritis_risk":5,"migraine_risk":7,"frizz_risk":1,"updated_at":"2026-06-10T04:13:49.575634+05:30"},{"city":"Ranchi","state":"Jharkhand","latitude":23.3441,"longitude":85.3096,"temp":25.9,"humidity":61,"rain":0.0,"pressure":932.0,"uv_index":8.3,"wind_gusts":33.5,"aqi":134,"pm10":73.6,"pm2_5":43.4,"no2":19.1,"co":291.0,"o3":63.0,"so2":22.0,"mosquito_risk":7,"arthritis_risk":5,"migraine_risk":7,"frizz_risk":1,"updated_at":"2026-06-10T04:13:49.575641+05:30"},{"city":"Jamshedpur","state":"Jharkhand","latitude":22.8046,"longitude":86.2029,"temp":27.4,"humidity":76,"rain":0.0,"pressure":984.1,"uv_index":9.05,"wind_gusts":30.2,"aqi":152,"pm10":102.9,"pm2_5":78.5,"no2":39.3,"co":426.0,"o3":41.0,"so2":35.2,"mosquito_risk":7,"arthritis_risk":5,"migraine_risk":7,"frizz_risk":1,"updated_at":"2026-06-10T04:13:49.575649+05:30"},{"city":"Dhanbad","state":"Jharkhand","latitude":23.7957,"longitude":86.4304,"temp":28.1,"humidity":72,"rain":0.0,"pressure":972.8,"uv_index":9.05,"wind_gusts":32.8,"aqi":162,"pm10":108.5,"pm2_5":78.9,"no2":64.4,"co":280.0,"o3":26.0,"so2":152.2,"mosquito_risk":7,"arthritis_risk":5,"migraine_risk":7,"frizz_risk":1,"updated_at":"2026-06-10T04:13:49.575656+05:30"},{"city":"Bokaro","state":"Jharkhand","latitude":23.6693,"longitude":86.1511,"temp":28.3,"humidity":66,"rain":0.0,"pressure":976.6,"uv_index":8.9,"wind_gusts":30.6,"aqi":163,"pm10":109.7,"pm2_5":68.2,"no2":41.3,"co":299.0,"o3":45.0,"so2":101.7,"mosquito_risk":7,"arthritis_risk":5,"migraine_risk":7,"frizz_risk":1,"updated_at":"2026-06-10T04:13:49.575663+05:30"},{"city":"Bhubaneswar","state":"Odisha","latitude":20.2961,"longitude":85.8245,"temp":28.0,"humidity":88,"rain":0.0,"pressure":995.6,"uv_index":9.05,"wind_gusts":21.2,"aqi":111,"pm10":42.8,"pm2_5":38.6,"no2":11.2,"co":368.0,"o3":94.0,"so2":10.0,"mosquito_risk":7,"arthritis_risk":5,"migraine_risk":7,"frizz_risk":1,"updated_at":"2026-06-10T04:13:49.575671+05:30"},{"city":"Cuttack","state":"Odisha","latitude":20.4625,"longitude":85.8828,"temp":28.4,"humidity":86,"rain":0.0,"pressure":997.3,"uv_index":9.1,"wind_gusts":22.3,"aqi":111,"pm10":42.8,"pm2_5":38.6,"no2":11.2,"co":374.0,"o3":94.0,"so2":10.0,"mosquito_risk":7,"arthritis_risk":5,"migraine_risk":7,"frizz_risk":1,"updated_at":"2026-06-10T04:13:49.575678+05:30"},{"city":"Rourkela","state":"Odisha","latitude":22.2604,"longitude":84.8536,"temp":27.7,"humidity":79,"rain":0.0,"pressure":979.1,"uv_index":9.0,"wind_gusts":34.2,"aqi":117,"pm10":85.2,"pm2_5":60.3,"no2":31.1,"co":442.0,"o3":47.0,"so2":26.1,"mosquito_risk":7,"arthritis_risk":5,"migraine_risk":7,"frizz_risk":1,"updated_at":"2026-06-10T04:13:49.575685+05:30"},{"city":"Raipur","state":"Chhattisgarh","latitude":21.2514,"longitude":81.6296,"temp":32.6,"humidity":46,"rain":0.0,"pressure":969.1,"uv_index":7.5,"wind_gusts":36.7,"aqi":117,"pm10":49.7,"pm2_5":39.6,"no2":25.8,"co":545.0,"o3":68.0,"so2":45.9,"mosquito_risk":0,"arthritis_risk":5,"migraine_risk":7,"frizz_risk":1,"updated_at":"2026-06-10T04:13:49.575691+05:30"},{"city":"Bhilai","state":"Chhattisgarh","latitude":21.1938,"longitude":81.3509,"temp":31.4,"humidity":52,"rain":0.0,"pressure":969.8,"uv_index":8.95,"wind_gusts":36.0,"aqi":110,"pm10":49.8,"pm2_5":38.2,"no2":21.8,"co":659.0,"o3":68.0,"so2":37.4,"mosquito_risk":0,"arthritis_risk":5,"migraine_risk":7,"frizz_risk":1,"updated_at":"2026-06-10T04:13:49.575697+05:30"},{"city":"Guwahati","state":"Assam","latitude":26.1158,"longitude":91.7086,"temp":24.3,"humidity":98,"rain":0.0,"pressure":996.4,"uv_index":8.65,"wind_gusts":35.3,"aqi":85,"pm10":38.6,"pm2_5":30.3,"no2":7.0,"co":278.0,"o3":75.0,"so2":4.9,"mosquito_risk":3,"arthritis_risk":5,"migraine_risk":7,"frizz_risk":1,"updated_at":"2026-06-10T04:13:49.575705+05:30"},{"city":"Agartala","state":"Tripura","latitude":23.8315,"longitude":91.2868,"temp":24.6,"humidity":98,"rain":0.3,"pressure":1001.7,"uv_index":8.25,"wind_gusts":41.0,"aqi":74,"pm10":26.6,"pm2_5":19.5,"no2":10.2,"co":210.0,"o3":65.0,"so2":2.7,"mosquito_risk":6,"arthritis_risk":5,"migraine_risk":4,"frizz_risk":1,"updated_at":"2026-06-10T04:13:49.575712+05:30"},{"city":"Shillong","state":"Meghalaya","latitude":25.5788,"longitude":91.8933,"temp":18.4,"humidity":96,"rain":0.0,"pressure":853.1,"uv_index":7.7,"wind_gusts":34.6,"aqi":43,"pm10":8.1,"pm2_5":5.5,"no2":4.2,"co":216.0,"o3":81.0,"so2":3.0,"mosquito_risk":3,"arthritis_risk":10,"migraine_risk":7,"frizz_risk":1,"updated_at":"2026-06-10T04:13:49.575718+05:30"},{"city":"Imphal","state":"Manipur","latitude":24.817,"longitude":93.9368,"temp":22.3,"humidity":98,"rain":0.0,"pressure":919.3,"uv_index":8.2,"wind_gusts":38.2,"aqi":71,"pm10":56.9,"pm2_5":38.2,"no2":11.0,"co":799.0,"o3":49.0,"so2":4.0,"mosquito_risk":3,"arthritis_risk":5,"migraine_risk":7,"frizz_risk":1,"updated_at":"2026-06-10T04:13:49.575725+05:30"},{"city":"Aizawl","state":"Mizoram","latitude":23.7271,"longitude":92.7176,"temp":18.2,"humidity":95,"rain":0.0,"pressure":888.0,"uv_index":8.95,"wind_gusts":45.7,"aqi":76,"pm10":46.3,"pm2_5":31.5,"no2":6.5,"co":203.0,"o3":53.0,"so2":1.9,"mosquito_risk":3,"arthritis_risk":10,"migraine_risk":7,"frizz_risk":1,"updated_at":"2026-06-10T04:13:49.575731+05:30"},{"city":"Kohima","state":"Nagaland","latitude":25.6701,"longitude":94.1077,"temp":18.7,"humidity":94,"rain":0.0,"pressure":851.2,"uv_index":9.0,"wind_gusts":28.8,"aqi":50,"pm10":23.0,"pm2_5":16.2,"no2":6.3,"co":240.0,"o3":46.0,"so2":1.6,"mosquito_risk":3,"arthritis_risk":10,"migraine_risk":7,"frizz_risk":1,"updated_at":"2026-06-10T04:13:49.575738+05:30"},{"city":"Gangtok","state":"Sikkim","latitude":27.3314,"longitude":88.6138,"temp":15.8,"humidity":91,"rain":0.0,"pressure":832.2,"uv_index":7.5,"wind_gusts":37.8,"aqi":102,"pm10":14.1,"pm2_5":11.3,"no2":7.2,"co":393.0,"o3":123.0,"so2":4.6,"mosquito_risk":3,"arthritis_risk":10,"migraine_risk":7,"frizz_risk":0,"updated_at":"2026-06-10T04:13:49.575745+05:30"},{"city":"Siliguri","state":"West Bengal","latitude":26.7271,"longitude":88.3953,"temp":22.7,"humidity":98,"rain":0.0,"pressure":988.1,"uv_index":8.75,"wind_gusts":28.8,"aqi":108,"pm10":50.2,"pm2_5":38.9,"no2":9.7,"co":341.0,"o3":118.0,"so2":6.5,"mosquito_risk":3,"arthritis_risk":5,"migraine_risk":7,"frizz_risk":1,"updated_at":"2026-06-10T04:13:52.834371+05:30"},{"city":"Durgapur","state":"West Bengal","latitude":23.5204,"longitude":87.3119,"temp":27.7,"humidity":90,"rain":0.0,"pressure":987.5,"uv_index":9.0,"wind_gusts":33.8,"aqi":169,"pm10":97.3,"pm2_5":87.1,"no2":32.6,"co":1005.0,"o3":60.0,"so2":42.8,"mosquito_risk":7,"arthritis_risk":5,"migraine_risk":7,"frizz_risk":1,"updated_at":"2026-06-10T04:13:52.834409+05:30"},{"city":"Asansol","state":"West Bengal","latitude":23.6739,"longitude":86.9524,"temp":28.0,"humidity":80,"rain":0.0,"pressure":986.2,"uv_index":8.85,"wind_gusts":33.8,"aqi":160,"pm10":87.5,"pm2_5":70.8,"no2":43.1,"co":707.0,"o3":47.0,"so2":64.5,"mosquito_risk":7,"arthritis_risk":5,"migraine_risk":7,"frizz_risk":1,"updated_at":"2026-06-10T04:13:52.834421+05:30"},{"city":"Pondicherry","state":"Puducherry","latitude":11.9139,"longitude":79.8145,"temp":29.9,"humidity":62,"rain":0.0,"pressure":1006.3,"uv_index":7.55,"wind_gusts":47.2,"aqi":45,"pm10":9.9,"pm2_5":8.7,"no2":13.0,"co":221.0,"o3":40.0,"so2":9.2,"mosquito_risk":7,"arthritis_risk":5,"migraine_risk":4,"frizz_risk":1,"updated_at":"2026-06-10T04:13:52.834430+05:30"},{"city":"Port Blair","state":"Andaman and Nicobar Islands","latitude":11.6234,"longitude":92.7265,"temp":25.2,"humidity":97,"rain":0.2,"pressure":1006.4,"uv_index":4.85,"wind_gusts":49.0,"aqi":27,"pm10":8.1,"pm2_5":4.8,"no2":0.2,"co":93.0,"o3":58.0,"so2":0.3,"mosquito_risk":10,"arthritis_risk":5,"migraine_risk":0,"frizz_risk":1,"updated_at":"2026-06-10T04:13:52.834439+05:30"},{"city":"Haridwar","state":"Uttarakhand","latitude":29.9457,"longitude":78.1642,"temp":24.5,"humidity":74,"rain":0.0,"pressure":964.8,"uv_index":7.65,"wind_gusts":41.0,"aqi":99,"pm10":48.5,"pm2_5":42.0,"no2":31.9,"co":292.0,"o3":38.0,"so2":7.5,"mosquito_risk":3,"arthritis_risk":5,"migraine_risk":7,"frizz_risk":1,"updated_at":"2026-06-10T04:13:52.834447+05:30"},{"city":"Rishikesh","state":"Uttarakhand","latitude":30.0869,"longitude":78.2676,"temp":22.3,"humidity":82,"rain":0.0,"pressure":957.7,"uv_index":7.75,"wind_gusts":33.1,"aqi":89,"pm10":37.4,"pm2_5":28.9,"no2":15.1,"co":335.0,"o3":89.0,"so2":4.7,"mosquito_risk":3,"arthritis_risk":5,"migraine_risk":7,"frizz_risk":1,"updated_at":"2026-06-10T04:13:52.834454+05:30"},{"city":"Nainital","state":"Uttarakhand","latitude":29.3919,"longitude":79.4542,"temp":16.7,"humidity":64,"rain":0.0,"pressure":800.6,"uv_index":8.1,"wind_gusts":33.8,"aqi":76,"pm10":30.7,"pm2_5":26.9,"no2":20.6,"co":268.0,"o3":59.0,"so2":2.5,"mosquito_risk":3,"arthritis_risk":5,"migraine_risk":7,"frizz_risk":0,"updated_at":"2026-06-10T04:13:52.834462+05:30"},{"city":"Mussoorie","state":"Uttarakhand","latitude":30.4599,"longitude":78.0664,"temp":15.5,"humidity":62,"rain":0.0,"pressure":796.8,"uv_index":8.15,"wind_gusts":46.8,"aqi":81,"pm10":41.3,"pm2_5":33.4,"no2":33.6,"co":229.0,"o3":33.0,"so2":4.7,"mosquito_risk":3,"arthritis_risk":5,"migraine_risk":7,"frizz_risk":0,"updated_at":"2026-06-10T04:13:52.834470+05:30"},{"city":"Dharamshala","state":"Himachal Pradesh","latitude":32.219,"longitude":76.3234,"temp":23.8,"humidity":31,"rain":0.0,"pressure":863.0,"uv_index":8.55,"wind_gusts":44.3,"aqi":58,"pm10":20.1,"pm2_5":14.6,"no2":15.3,"co":185.0,"o3":26.0,"so2":0.0,"mosquito_risk":0,"arthritis_risk":5,"migraine_risk":7,"frizz_risk":0,"updated_at":"2026-06-10T04:13:52.834478+05:30"},{"city":"Dalhousie","state":"Himachal Pradesh","latitude":32.5387,"longitude":75.971,"temp":13.9,"humidity":60,"rain":0.0,"pressure":796.9,"uv_index":8.75,"wind_gusts":39.2,"aqi":82,"pm10":41.3,"pm2_5":36.1,"no2":34.5,"co":250.0,"o3":15.0,"so2":0.7,"mosquito_risk":0,"arthritis_risk":5,"migraine_risk":7,"frizz_risk":0,"updated_at":"2026-06-10T04:13:52.834485+05:30"},{"city":"Patiala","state":"Punjab","latitude":30.3398,"longitude":76.3869,"temp":30.6,"humidity":36,"rain":0.0,"pressure":968.2,"uv_index":7.65,"wind_gusts":26.3,"aqi":257,"pm10":221.7,"pm2_5":75.7,"no2":25.5,"co":528.0,"o3":53.0,"so2":9.7,"mosquito_risk":0,"arthritis_risk":5,"migraine_risk":7,"frizz_risk":0,"updated_at":"2026-06-10T04:13:52.834494+05:30"},{"city":"Bhatinda","state":"Punjab","latitude":30.211,"longitude":74.9455,"temp":31.4,"humidity":34,"rain":0.0,"pressure":973.2,"uv_index":8.35,"wind_gusts":25.2,"aqi":145,"pm10":149.5,"pm2_5":85.7,"no2":67.7,"co":316.0,"o3":0.0,"so2":9.6,"mosquito_risk":0,"arthritis_risk":5,"migraine_risk":7,"frizz_risk":0,"updated_at":"2026-06-10T04:13:52.834502+05:30"},{"city":"Rohtak","state":"Haryana","latitude":28.8955,"longitude":76.6066,"temp":31.8,"humidity":44,"rain":0.0,"pressure":972.5,"uv_index":7.8,"wind_gusts":41.0,"aqi":477,"pm10":1039.4,"pm2_5":156.5,"no2":21.5,"co":182.0,"o3":39.0,"so2":3.4,"mosquito_risk":0,"arthritis_risk":5,"migraine_risk":7,"frizz_risk":1,"updated_at":"2026-06-10T04:13:52.834510+05:30"},{"city":"Panipat","state":"Haryana","latitude":29.3909,"longitude":76.9635,"temp":30.4,"humidity":39,"rain":0.0,"pressure":970.9,"uv_index":7.7,"wind_gusts":27.7,"aqi":911,"pm10":1929.7,"pm2_5":260.8,"no2":34.9,"co":493.0,"o3":26.0,"so2":5.1,"mosquito_risk":0,"arthritis_risk":5,"migraine_risk":7,"frizz_risk":0,"updated_at":"2026-06-10T04:13:52.834517+05:30"},{"city":"Mathura","state":"Uttar Pradesh","latitude":27.4924,"longitude":77.6737,"temp":29.5,"humidity":41,"rain":0.0,"pressure":978.0,"uv_index":8.1,"wind_gusts":36.7,"aqi":751,"pm10":1169.7,"pm2_5":143.9,"no2":16.8,"co":319.0,"o3":52.0,"so2":4.1,"mosquito_risk":4,"arthritis_risk":5,"migraine_risk":7,"frizz_risk":0,"updated_at":"2026-06-10T04:13:52.834525+05:30"},{"city":"Vrindavan","state":"Uttar Pradesh","latitude":27.5823,"longitude":77.7027,"temp":29.3,"humidity":41,"rain":0.0,"pressure":978.4,"uv_index":8.05,"wind_gusts":34.9,"aqi":751,"pm10":1169.7,"pm2_5":143.9,"no2":16.8,"co":319.0,"o3":52.0,"so2":4.1,"mosquito_risk":4,"arthritis_risk":5,"migraine_risk":7,"frizz_risk":0,"updated_at":"2026-06-10T04:13:52.834532+05:30"},{"city":"Ayodhya","state":"Uttar Pradesh","latitude":26.7922,"longitude":82.1998,"temp":28.4,"humidity":75,"rain":0.0,"pressure":986.9,"uv_index":8.45,"wind_gusts":37.8,"aqi":157,"pm10":114.8,"pm2_5":66.1,"no2":28.4,"co":626.0,"o3":48.0,"so2":11.4,"mosquito_risk":7,"arthritis_risk":5,"migraine_risk":7,"frizz_risk":1,"updated_at":"2026-06-10T04:13:52.834540+05:30"},{"city":"Ratlam","state":"Madhya Pradesh","latitude":23.3315,"longitude":75.0367,"temp":26.9,"humidity":79,"rain":0.0,"pressure":950.6,"uv_index":8.5,"wind_gusts":45.7,"aqi":82,"pm10":42.5,"pm2_5":25.3,"no2":6.3,"co":130.0,"o3":45.0,"so2":9.8,"mosquito_risk":7,"arthritis_risk":5,"migraine_risk":7,"frizz_risk":1,"updated_at":"2026-06-10T04:13:52.834547+05:30"},{"city":"Sagar","state":"Madhya Pradesh","latitude":23.8388,"longitude":78.7378,"temp":29.7,"humidity":47,"rain":0.0,"pressure":944.7,"uv_index":8.7,"wind_gusts":45.0,"aqi":78,"pm10":28.2,"pm2_5":21.0,"no2":9.1,"co":203.0,"o3":65.0,"so2":4.6,"mosquito_risk":4,"arthritis_risk":5,"migraine_risk":7,"frizz_risk":1,"updated_at":"2026-06-10T04:13:52.834555+05:30"},{"city":"Satna","state":"Madhya Pradesh","latitude":24.6005,"longitude":80.8322,"temp":29.7,"humidity":54,"rain":0.0,"pressure":964.2,"uv_index":8.75,"wind_gusts":45.4,"aqi":77,"pm10":46.8,"pm2_5":27.6,"no2":7.6,"co":162.0,"o3":74.0,"so2":5.0,"mosquito_risk":4,"arthritis_risk":5,"migraine_risk":7,"frizz_risk":1,"updated_at":"2026-06-10T04:13:52.834562+05:30"},{"city":"Akola","state":"Maharashtra","latitude":20.7002,"longitude":77.0082,"temp":30.4,"humidity":56,"rain":0.0,"pressure":971.4,"uv_index":8.8,"wind_gusts":49.3,"aqi":78,"pm10":56.0,"pm2_5":28.9,"no2":6.5,"co":126.0,"o3":52.0,"so2":6.9,"mosquito_risk":0,"arthritis_risk":5,"migraine_risk":7,"frizz_risk":1,"updated_at":"2026-06-10T04:13:52.834571+05:30"},{"city":"Amravati","state":"Maharashtra","latitude":20.9374,"longitude":77.7796,"temp":30.3,"humidity":50,"rain":0.0,"pressure":963.2,"uv_index":8.8,"wind_gusts":47.5,"aqi":78,"pm10":55.2,"pm2_5":29.0,"no2":6.7,"co":177.0,"o3":61.0,"so2":7.8,"mosquito_risk":0,"arthritis_risk":5,"migraine_risk":7,"frizz_risk":1,"updated_at":"2026-06-10T04:13:52.834579+05:30"},{"city":"Latur","state":"Maharashtra","latitude":18.4088,"longitude":76.5604,"temp":25.6,"humidity":79,"rain":0.0,"pressure":937.1,"uv_index":8.8,"wind_gusts":38.9,"aqi":68,"pm10":26.0,"pm2_5":14.2,"no2":5.5,"co":134.0,"o3":45.0,"so2":3.3,"mosquito_risk":7,"arthritis_risk":5,"migraine_risk":7,"frizz_risk":1,"updated_at":"2026-06-10T04:13:52.834587+05:30"},{"city":"Nanded","state":"Maharashtra","latitude":19.1383,"longitude":77.3091,"temp":29.5,"humidity":59,"rain":0.0,"pressure":965.2,"uv_index":8.9,"wind_gusts":39.2,"aqi":87,"pm10":43.8,"pm2_5":26.6,"no2":5.9,"co":153.0,"o3":73.0,"so2":7.3,"mosquito_risk":4,"arthritis_risk":5,"migraine_risk":7,"frizz_risk":1,"updated_at":"2026-06-10T04:13:52.834594+05:30"},{"city":"Gulbarga","state":"Karnataka","latitude":17.3297,"longitude":76.8343,"temp":25.8,"humidity":80,"rain":0.0,"pressure":956.2,"uv_index":8.8,"wind_gusts":42.5,"aqi":60,"pm10":9.5,"pm2_5":6.2,"no2":7.2,"co":143.0,"o3":40.0,"so2":2.8,"mosquito_risk":7,"arthritis_risk":5,"migraine_risk":7,"frizz_risk":1,"updated_at":"2026-06-10T04:13:52.834601+05:30"},{"city":"Bidar","state":"Karnataka","latitude":17.9104,"longitude":77.5199,"temp":25.6,"humidity":77,"rain":0.0,"pressure":932.9,"uv_index":9.0,"wind_gusts":41.4,"aqi":76,"pm10":20.1,"pm2_5":13.9,"no2":7.5,"co":162.0,"o3":53.0,"so2":2.6,"mosquito_risk":7,"arthritis_risk":5,"migraine_risk":7,"frizz_risk":1,"updated_at":"2026-06-10T04:13:52.834608+05:30"},{"city":"Hospet","state":"Karnataka","latitude":15.2689,"longitude":76.3909,"temp":23.5,"humidity":89,"rain":0.0,"pressure":954.8,"uv_index":6.9,"wind_gusts":47.9,"aqi":23,"pm10":7.9,"pm2_5":4.9,"no2":4.9,"co":126.0,"o3":43.0,"so2":1.4,"mosquito_risk":3,"arthritis_risk":5,"migraine_risk":7,"frizz_risk":1,"updated_at":"2026-06-10T04:13:52.834615+05:30"},{"city":"Tirupur","state":"Tamil Nadu","latitude":11.1085,"longitude":77.3411,"temp":23.8,"humidity":90,"rain":0.0,"pressure":974.7,"uv_index":8.0,"wind_gusts":54.0,"aqi":22,"pm10":7.0,"pm2_5":6.5,"no2":12.5,"co":143.0,"o3":32.0,"so2":4.0,"mosquito_risk":3,"arthritis_risk":5,"migraine_risk":7,"frizz_risk":1,"updated_at":"2026-06-10T04:13:52.834622+05:30"},{"city":"Alappuzha","state":"Kerala","latitude":9.4981,"longitude":76.3388,"temp":26.0,"humidity":95,"rain":0.2,"pressure":1010.0,"uv_index":7.85,"wind_gusts":43.9,"aqi":31,"pm10":10.4,"pm2_5":6.0,"no2":3.6,"co":85.0,"o3":48.0,"so2":1.6,"mosquito_risk":10,"arthritis_risk":0,"migraine_risk":4,"frizz_risk":1,"updated_at":"2026-06-10T04:13:52.834629+05:30"},{"city":"Munnar","state":"Kerala","latitude":10.0889,"longitude":77.0595,"temp":17.2,"humidity":100,"rain":0.4,"pressure":856.6,"uv_index":7.95,"wind_gusts":44.3,"aqi":13,"pm10":1.6,"pm2_5":1.5,"no2":5.6,"co":94.0,"o3":31.0,"so2":1.4,"mosquito_risk":6,"arthritis_risk":10,"migraine_risk":7,"frizz_risk":1,"updated_at":"2026-06-10T04:13:52.834637+05:30"},{"city":"Silchar","state":"Assam","latitude":24.8333,"longitude":92.7789,"temp":24.9,"humidity":98,"rain":0.2,"pressure":1000.9,"uv_index":6.6,"wind_gusts":40.7,"aqi":78,"pm10":60.5,"pm2_5":40.0,"no2":10.8,"co":241.0,"o3":66.0,"so2":5.9,"mosquito_risk":6,"arthritis_risk":5,"migraine_risk":4,"frizz_risk":1,"updated_at":"2026-06-10T04:13:52.834644+05:30"},{"city":"Dibrugarh","state":"Assam","latitude":27.4728,"longitude":94.912,"temp":24.3,"humidity":98,"rain":0.1,"pressure":990.9,"uv_index":8.85,"wind_gusts":29.5,"aqi":87,"pm10":29.3,"pm2_5":25.3,"no2":9.7,"co":269.0,"o3":76.0,"so2":1.8,"mosquito_risk":6,"arthritis_risk":5,"migraine_risk":7,"frizz_risk":1,"updated_at":"2026-06-10T04:13:52.834651+05:30"}]