[{"city":"Delhi","state":"Delhi","latitude":28.6139,"longitude":77.209,"temp":38.0,"humidity":19,"rain":0.0,"pressure":977.5,"uv_index":7.7,"wind_gusts":41.4,"aqi":476,"pm10":359.5,"pm2_5":94.3,"no2":61.1,"co":929.0,"o3":30.0,"so2":20.9,"mosquito_risk":0,"arthritis_risk":5,"migraine_risk":10,"frizz_risk":0,"updated_at":"2026-05-19T21:52:47.840083+05:30"},{"city":"Mumbai","state":"Maharashtra","latitude":19.076,"longitude":72.8777,"temp":29.3,"humidity":74,"rain":0.0,"pressure":1007.1,"uv_index":7.1,"wind_gusts":41.0,"aqi":74,"pm10":46.1,"pm2_5":22.1,"no2":10.9,"co":204.0,"o3":53.0,"so2":6.3,"mosquito_risk":7,"arthritis_risk":5,"migraine_risk":4,"frizz_risk":1,"updated_at":"2026-05-19T21:52:47.840129+05:30"},{"city":"Bangalore","state":"Karnataka","latitude":12.9716,"longitude":77.5946,"temp":22.2,"humidity":98,"rain":0.0,"pressure":911.6,"uv_index":8.75,"wind_gusts":39.2,"aqi":50,"pm10":8.6,"pm2_5":8.6,"no2":21.4,"co":495.0,"o3":54.0,"so2":5.2,"mosquito_risk":3,"arthritis_risk":5,"migraine_risk":7,"frizz_risk":1,"updated_at":"2026-05-19T21:52:47.840144+05:30"},{"city":"Hyderabad","state":"Telangana","latitude":17.385,"longitude":78.4867,"temp":34.0,"humidity":41,"rain":0.0,"pressure":951.1,"uv_index":9.2,"wind_gusts":28.1,"aqi":100,"pm10":68.2,"pm2_5":57.3,"no2":52.6,"co":629.0,"o3":58.0,"so2":14.0,"mosquito_risk":0,"arthritis_risk":5,"migraine_risk":7,"frizz_risk":1,"updated_at":"2026-05-19T21:52:47.840155+05:30"},{"city":"Chennai","state":"Tamil Nadu","latitude":13.0827,"longitude":80.2707,"temp":30.6,"humidity":77,"rain":0.2,"pressure":1004.4,"uv_index":8.65,"wind_gusts":36.4,"aqi":117,"pm10":20.7,"pm2_5":17.0,"no2":12.1,"co":339.0,"o3":100.0,"so2":8.9,"mosquito_risk":6,"arthritis_risk":5,"migraine_risk":4,"frizz_risk":1,"updated_at":"2026-05-19T21:52:47.840164+05:30"},{"city":"Kolkata","state":"West Bengal","latitude":22.5726,"longitude":88.3639,"temp":29.3,"humidity":89,"rain":0.0,"pressure":1000.6,"uv_index":8.95,"wind_gusts":42.5,"aqi":67,"pm10":25.1,"pm2_5":21.2,"no2":9.7,"co":328.0,"o3":54.0,"so2":7.6,"mosquito_risk":7,"arthritis_risk":5,"migraine_risk":4,"frizz_risk":1,"updated_at":"2026-05-19T21:52:47.840171+05:30"},{"city":"Pune","state":"Maharashtra","latitude":18.5204,"longitude":73.8567,"temp":27.1,"humidity":70,"rain":0.0,"pressure":946.8,"uv_index":8.5,"wind_gusts":43.9,"aqi":101,"pm10":39.3,"pm2_5":23.1,"no2":9.1,"co":198.0,"o3":86.0,"so2":11.9,"mosquito_risk":7,"arthritis_risk":5,"migraine_risk":7,"frizz_risk":1,"updated_at":"2026-05-19T21:52:47.840178+05:30"},{"city":"Ahmedabad","state":"Gujarat","latitude":23.0225,"longitude":72.5714,"temp":33.5,"humidity":48,"rain":0.0,"pressure":998.4,"uv_index":8.15,"wind_gusts":36.7,"aqi":64,"pm10":55.3,"pm2_5":26.0,"no2":13.0,"co":242.0,"o3":66.0,"so2":5.5,"mosquito_risk":0,"arthritis_risk":5,"migraine_risk":7,"frizz_risk":1,"updated_at":"2026-05-19T21:52:47.840185+05:30"},{"city":"Jaipur","state":"Rajasthan","latitude":26.9124,"longitude":75.7873,"temp":35.8,"humidity":19,"rain":0.0,"pressure":956.1,"uv_index":8.25,"wind_gusts":36.7,"aqi":149,"pm10":92.9,"pm2_5":32.1,"no2":19.1,"co":263.0,"o3":58.0,"so2":7.4,"mosquito_risk":0,"arthritis_risk":5,"migraine_risk":10,"frizz_risk":0,"updated_at":"2026-05-19T21:52:47.840197+05:30"},{"city":"Lucknow","state":"Uttar Pradesh","latitude":26.8467,"longitude":80.9462,"temp":34.8,"humidity":56,"rain":0.0,"pressure":988.0,"uv_index":8.25,"wind_gusts":33.1,"aqi":164,"pm10":229.6,"pm2_5":95.9,"no2":43.7,"co":351.0,"o3":67.0,"so2":22.5,"mosquito_risk":0,"arthritis_risk":5,"migraine_risk":7,"frizz_risk":1,"updated_at":"2026-05-19T21:52:47.840205+05:30"},{"city":"Kanpur","state":"Uttar Pradesh","latitude":26.4499,"longitude":80.3319,"temp":36.0,"humidity":32,"rain":0.0,"pressure":986.0,"uv_index":8.25,"wind_gusts":52.9,"aqi":403,"pm10":439.6,"pm2_5":105.2,"no2":25.6,"co":363.0,"o3":79.0,"so2":14.7,"mosquito_risk":0,"arthritis_risk":5,"migraine_risk":10,"frizz_risk":1,"updated_at":"2026-05-19T21:52:47.840211+05:30"},{"city":"Chandigarh","state":"Chandigarh","latitude":30.7333,"longitude":76.7794,"temp":33.7,"humidity":21,"rain":0.0,"pressure":963.5,"uv_index":7.75,"wind_gusts":31.3,"aqi":92,"pm10":64.7,"pm2_5":37.6,"no2":31.9,"co":847.0,"o3":77.0,"so2":14.7,"mosquito_risk":0,"arthritis_risk":5,"migraine_risk":7,"frizz_risk":0,"updated_at":"2026-05-19T21:52:47.840218+05:30"},{"city":"Srinagar","state":"Jammu and Kashmir","latitude":34.0837,"longitude":74.7973,"temp":18.1,"humidity":73,"rain":0.0,"pressure":842.5,"uv_index":8.95,"wind_gusts":34.2,"aqi":72,"pm10":30.3,"pm2_5":21.0,"no2":25.0,"co":1288.0,"o3":52.0,"so2":3.8,"mosquito_risk":3,"arthritis_risk":5,"migraine_risk":7,"frizz_risk":0,"updated_at":"2026-05-19T21:52:47.840225+05:30"},{"city":"Jammu","state":"Jammu and Kashmir","latitude":32.7266,"longitude":74.857,"temp":31.8,"humidity":30,"rain":0.0,"pressure":967.2,"uv_index":8.55,"wind_gusts":23.0,"aqi":70,"pm10":40.6,"pm2_5":30.7,"no2":38.0,"co":426.0,"o3":45.0,"so2":6.2,"mosquito_risk":0,"arthritis_risk":5,"migraine_risk":7,"frizz_risk":0,"updated_at":"2026-05-19T21:52:47.840231+05:30"},{"city":"Amritsar","state":"Punjab","latitude":31.634,"longitude":74.8723,"temp":33.1,"humidity":33,"rain":0.0,"pressure":974.9,"uv_index":8.45,"wind_gusts":30.6,"aqi":104,"pm10":63.8,"pm2_5":51.9,"no2":50.5,"co":1003.0,"o3":35.0,"so2":9.9,"mosquito_risk":0,"arthritis_risk":5,"migraine_risk":7,"frizz_risk":0,"updated_at":"2026-05-19T21:52:47.840238+05:30"},{"city":"Ludhiana","state":"Punjab","latitude":30.901,"longitude":75.8573,"temp":33.5,"humidity":34,"rain":0.0,"pressure":973.0,"uv_index":8.05,"wind_gusts":32.8,"aqi":111,"pm10":200.2,"pm2_5":83.1,"no2":50.6,"co":953.0,"o3":45.0,"so2":13.7,"mosquito_risk":0,"arthritis_risk":5,"migraine_risk":7,"frizz_risk":0,"updated_at":"2026-05-19T21:52:47.840244+05:30"},{"city":"Jalandhar","state":"Punjab","latitude":31.326,"longitude":75.5762,"temp":33.7,"humidity":29,"rain":0.0,"pressure":974.0,"uv_index":8.2,"wind_gusts":28.1,"aqi":119,"pm10":150.4,"pm2_5":66.6,"no2":46.2,"co":1101.0,"o3":50.0,"so2":9.8,"mosquito_risk":0,"arthritis_risk":5,"migraine_risk":7,"frizz_risk":0,"updated_at":"2026-05-19T21:52:47.840250+05:30"},{"city":"Dehradun","state":"Uttarakhand","latitude":30.6284,"longitude":78.0322,"temp":18.8,"humidity":58,"rain":0.0,"pressure":828.5,"uv_index":8.2,"wind_gusts":45.0,"aqi":112,"pm10":37.0,"pm2_5":21.9,"no2":28.8,"co":308.0,"o3":88.0,"so2":6.5,"mosquito_risk":0,"arthritis_risk":5,"migraine_risk":7,"frizz_risk":0,"updated_at":"2026-05-19T21:52:47.840257+05:30"},{"city":"Shimla","state":"Himachal Pradesh","latitude":31.1048,"longitude":77.1734,"temp":19.4,"humidity":39,"rain":0.0,"pressure":785.5,"uv_index":8.25,"wind_gusts":46.8,"aqi":112,"pm10":54.2,"pm2_5":20.8,"no2":12.9,"co":281.0,"o3":119.0,"so2":10.2,"mosquito_risk":0,"arthritis_risk":5,"migraine_risk":7,"frizz_risk":0,"updated_at":"2026-05-19T21:52:47.840265+05:30"},{"city":"Manali","state":"Himachal Pradesh","latitude":32.2396,"longitude":77.1887,"temp":13.9,"humidity":73,"rain":0.0,"pressure":818.1,"uv_index":9.9,"wind_gusts":41.8,"aqi":98,"pm10":9.7,"pm2_5":6.9,"no2":46.8,"co":335.0,"o3":87.0,"so2":0.3,"mosquito_risk":3,"arthritis_risk":5,"migraine_risk":7,"frizz_risk":0,"updated_at":"2026-05-19T21:52:47.840272+05:30"},{"city":"Gurgaon","state":"Haryana","latitude":28.4595,"longitude":77.0266,"temp":34.9,"humidity":21,"rain":0.0,"pressure":975.9,"uv_index":7.85,"wind_gusts":36.0,"aqi":1066,"pm10":324.1,"pm2_5":87.8,"no2":65.2,"co":1371.0,"o3":30.0,"so2":24.5,"mosquito_risk":0,"arthritis_risk":5,"migraine_risk":7,"frizz_risk":0,"updated_at":"2026-05-19T21:52:47.840280+05:30"},{"city":"Noida","state":"Uttar Pradesh","latitude":28.5355,"longitude":77.391,"temp":32.8,"humidity":35,"rain":0.0,"pressure":978.5,"uv_index":7.75,"wind_gusts":35.3,"aqi":1066,"pm10":324.1,"pm2_5":87.8,"no2":65.2,"co":1473.0,"o3":30.0,"so2":24.5,"mosquito_risk":0,"arthritis_risk":5,"migraine_risk":7,"frizz_risk":0,"updated_at":"2026-05-19T21:52:47.840286+05:30"},{"city":"Ghaziabad","state":"Uttar Pradesh","latitude":28.6692,"longitude":77.4538,"temp":32.8,"humidity":34,"rain":0.0,"pressure":976.9,"uv_index":7.75,"wind_gusts":43.9,"aqi":444,"pm10":430.3,"pm2_5":105.0,"no2":45.5,"co":466.0,"o3":49.0,"so2":21.6,"mosquito_risk":0,"arthritis_risk":5,"migraine_risk":7,"frizz_risk":0,"updated_at":"2026-05-19T21:52:47.840295+05:30"},{"city":"Faridabad","state":"Haryana","latitude":28.4089,"longitude":77.3178,"temp":37.5,"humidity":20,"rain":0.0,"pressure":978.1,"uv_index":7.8,"wind_gusts":41.4,"aqi":1066,"pm10":324.1,"pm2_5":87.8,"no2":65.2,"co":1105.0,"o3":30.0,"so2":24.5,"mosquito_risk":0,"arthritis_risk":5,"migraine_risk":10,"frizz_risk":0,"updated_at":"2026-05-19T21:52:47.840301+05:30"},{"city":"Meerut","state":"Uttar Pradesh","latitude":28.9845,"longitude":77.7064,"temp":35.7,"humidity":39,"rain":0.0,"pressure":975.9,"uv_index":7.65,"wind_gusts":32.4,"aqi":444,"pm10":430.3,"pm2_5":105.0,"no2":45.5,"co":324.0,"o3":49.0,"so2":21.6,"mosquito_risk":0,"arthritis_risk":5,"migraine_risk":10,"frizz_risk":1,"updated_at":"2026-05-19T21:52:47.840308+05:30"},{"city":"Agra","state":"Uttar Pradesh","latitude":27.1767,"longitude":78.0081,"temp":36.1,"humidity":26,"rain":0.0,"pressure":982.1,"uv_index":8.1,"wind_gusts":46.1,"aqi":564,"pm10":610.9,"pm2_5":151.8,"no2":76.5,"co":519.0,"o3":45.0,"so2":31.1,"mosquito_risk":0,"arthritis_risk":5,"migraine_risk":10,"frizz_risk":0,"updated_at":"2026-05-19T21:52:47.840314+05:30"},{"city":"Varanasi","state":"Uttar Pradesh","latitude":25.3176,"longitude":82.9739,"temp":34.7,"humidity":52,"rain":0.0,"pressure":992.1,"uv_index":8.7,"wind_gusts":32.0,"aqi":153,"pm10":140.6,"pm2_5":75.4,"no2":22.6,"co":586.0,"o3":99.0,"so2":18.3,"mosquito_risk":0,"arthritis_risk":5,"migraine_risk":7,"frizz_risk":1,"updated_at":"2026-05-19T21:52:47.840320+05:30"},{"city":"Prayagraj","state":"Uttar Pradesh","latitude":25.4358,"longitude":81.8463,"temp":36.0,"humidity":45,"rain":0.0,"pressure":990.3,"uv_index":8.6,"wind_gusts":33.5,"aqi":155,"pm10":141.6,"pm2_5":70.5,"no2":29.6,"co":388.0,"o3":75.0,"so2":17.8,"mosquito_risk":0,"arthritis_risk":5,"migraine_risk":10,"frizz_risk":1,"updated_at":"2026-05-19T21:52:47.840327+05:30"},{"city":"Gorakhpur","state":"Uttar Pradesh","latitude":26.7606,"longitude":83.3732,"temp":31.0,"humidity":70,"rain":0.0,"pressure":992.4,"uv_index":8.6,"wind_gusts":36.0,"aqi":153,"pm10":85.2,"pm2_5":60.1,"no2":13.6,"co":521.0,"o3":108.0,"so2":13.0,"mosquito_risk":3,"arthritis_risk":5,"migraine_risk":7,"frizz_risk":1,"updated_at":"2026-05-19T21:52:47.840338+05:30"},{"city":"Bareilly","state":"Uttar Pradesh","latitude":28.367,"longitude":79.4304,"temp":30.5,"humidity":67,"rain":0.0,"pressure":980.9,"uv_index":8.05,"wind_gusts":28.4,"aqi":156,"pm10":108.5,"pm2_5":66.8,"no2":33.9,"co":425.0,"o3":99.0,"so2":19.2,"mosquito_risk":3,"arthritis_risk":5,"migraine_risk":7,"frizz_risk":1,"updated_at":"2026-05-19T21:52:47.840345+05:30"},{"city":"Aligarh","state":"Uttar Pradesh","latitude":27.8974,"longitude":78.088,"temp":34.0,"humidity":43,"rain":0.0,"pressure":979.6,"uv_index":7.9,"wind_gusts":37.1,"aqi":655,"pm10":607.2,"pm2_5":135.5,"no2":48.1,"co":517.0,"o3":53.0,"so2":18.4,"mosquito_risk":0,"arthritis_risk":5,"migraine_risk":7,"frizz_risk":1,"updated_at":"2026-05-19T21:52:47.840351+05:30"},{"city":"Moradabad","state":"Uttar Pradesh","latitude":28.8386,"longitude":78.7733,"temp":34.2,"humidity":45,"rain":0.0,"pressure":977.8,"uv_index":7.85,"wind_gusts":31.3,"aqi":162,"pm10":211.9,"pm2_5":102.0,"no2":51.8,"co":578.0,"o3":58.0,"so2":19.6,"mosquito_risk":0,"arthritis_risk":5,"migraine_risk":7,"frizz_risk":1,"updated_at":"2026-05-19T21:52:47.840358+05:30"},{"city":"Saharanpur","state":"Uttar Pradesh","latitude":29.9637,"longitude":77.546,"temp":32.6,"humidity":29,"rain":0.0,"pressure":970.4,"uv_index":7.4,"wind_gusts":32.4,"aqi":150,"pm10":299.0,"pm2_5":72.2,"no2":19.1,"co":355.0,"o3":73.0,"so2":10.2,"mosquito_risk":0,"arthritis_risk":5,"migraine_risk":7,"frizz_risk":0,"updated_at":"2026-05-19T21:52:47.840364+05:30"},{"city":"Jhansi","state":"Uttar Pradesh","latitude":25.4484,"longitude":78.5685,"temp":35.0,"humidity":28,"rain":0.0,"pressure":972.7,"uv_index":8.5,"wind_gusts":40.0,"aqi":69,"pm10":100.6,"pm2_5":31.8,"no2":13.4,"co":296.0,"o3":77.0,"so2":7.2,"mosquito_risk":0,"arthritis_risk":5,"migraine_risk":7,"frizz_risk":0,"updated_at":"2026-05-19T21:52:51.139888+05:30"},{"city":"Surat","state":"Gujarat","latitude":21.1702,"longitude":72.8311,"temp":29.5,"humidity":82,"rain":0.0,"pressure":1004.3,"uv_index":7.75,"wind_gusts":43.9,"aqi":100,"pm10":31.9,"pm2_5":20.5,"no2":21.4,"co":245.0,"o3":41.0,"so2":35.7,"mosquito_risk":7,"arthritis_risk":5,"migraine_risk":4,"frizz_risk":1,"updated_at":"2026-05-19T21:52:51.139919+05:30"},{"city":"Vadodara","state":"Gujarat","latitude":22.3072,"longitude":73.1812,"temp":30.5,"humidity":72,"rain":0.0,"pressure":1001.0,"uv_index":7.75,"wind_gusts":47.5,"aqi":78,"pm10":45.4,"pm2_5":26.9,"no2":21.9,"co":225.0,"o3":63.0,"so2":20.8,"mosquito_risk":3,"arthritis_risk":5,"migraine_risk":4,"frizz_risk":1,"updated_at":"2026-05-19T21:52:51.139929+05:30"},{"city":"Rajkot","state":"Gujarat","latitude":22.3039,"longitude":70.8022,"temp":30.6,"humidity":59,"rain":0.0,"pressure":991.4,"uv_index":7.7,"wind_gusts":46.1,"aqi":62,"pm10":33.2,"pm2_5":16.3,"no2":7.6,"co":161.0,"o3":54.0,"so2":7.2,"mosquito_risk":0,"arthritis_risk":5,"migraine_risk":7,"frizz_risk":1,"updated_at":"2026-05-19T21:52:51.139938+05:30"},{"city":"Thane","state":"Maharashtra","latitude":19.2183,"longitude":72.9781,"temp":29.4,"humidity":74,"rain":0.0,"pressure":1006.4,"uv_index":7.45,"wind_gusts":39.2,"aqi":74,"pm10":46.1,"pm2_5":22.1,"no2":10.9,"co":209.0,"o3":53.0,"so2":6.3,"mosquito_risk":7,"arthritis_risk":5,"migraine_risk":4,"frizz_risk":1,"updated_at":"2026-05-19T21:52:51.139946+05:30"},{"city":"Nagpur","state":"Maharashtra","latitude":21.1458,"longitude":79.0882,"temp":37.2,"humidity":24,"rain":0.0,"pressure":968.9,"uv_index":8.55,"wind_gusts":36.0,"aqi":131,"pm10":72.4,"pm2_5":38.6,"no2":30.2,"co":367.0,"o3":74.0,"so2":22.4,"mosquito_risk":0,"arthritis_risk":5,"migraine_risk":10,"frizz_risk":0,"updated_at":"2026-05-19T21:52:51.139954+05:30"},{"city":"Nashik","state":"Maharashtra","latitude":19.9975,"longitude":73.7898,"temp":27.4,"humidity":66,"rain":0.0,"pressure":944.0,"uv_index":8.15,"wind_gusts":40.0,"aqi":73,"pm10":42.3,"pm2_5":18.8,"no2":5.4,"co":176.0,"o3":68.0,"so2":1.8,"mosquito_risk":7,"arthritis_risk":5,"migraine_risk":7,"frizz_risk":1,"updated_at":"2026-05-19T21:52:51.139962+05:30"},{"city":"Aurangabad","state":"Maharashtra","latitude":19.8762,"longitude":75.3433,"temp":34.2,"humidity":25,"rain":0.0,"pressure":941.6,"uv_index":9.05,"wind_gusts":34.9,"aqi":92,"pm10":30.3,"pm2_5":21.1,"no2":6.4,"co":195.0,"o3":112.0,"so2":6.8,"mosquito_risk":0,"arthritis_risk":5,"migraine_risk":7,"frizz_risk":0,"updated_at":"2026-05-19T21:52:51.139969+05:30"},{"city":"Solapur","state":"Maharashtra","latitude":17.6599,"longitude":75.9064,"temp":32.5,"humidity":44,"rain":0.0,"pressure":955.3,"uv_index":8.45,"wind_gusts":41.8,"aqi":113,"pm10":34.3,"pm2_5":26.8,"no2":11.6,"co":217.0,"o3":92.0,"so2":6.7,"mosquito_risk":0,"arthritis_risk":5,"migraine_risk":7,"frizz_risk":1,"updated_at":"2026-05-19T21:52:51.139977+05:30"},{"city":"Kolhapur","state":"Maharashtra","latitude":16.705,"longitude":74.2433,"temp":24.6,"humidity":81,"rain":0.0,"pressure":946.8,"uv_index":8.5,"wind_gusts":40.7,"aqi":69,"pm10":39.1,"pm2_5":20.6,"no2":7.0,"co":168.0,"o3":58.0,"so2":2.8,"mosquito_risk":3,"arthritis_risk":5,"migraine_risk":7,"frizz_risk":1,"updated_at":"2026-05-19T21:52:51.139984+05:30"},{"city":"Goa","state":"Goa","latitude":15.2993,"longitude":74.124,"temp":26.1,"humidity":97,"rain":0.0,"pressure":997.4,"uv_index":5.0,"wind_gusts":22.7,"aqi":61,"pm10":18.0,"pm2_5":13.1,"no2":8.4,"co":258.0,"o3":56.0,"so2":1.9,"mosquito_risk":7,"arthritis_risk":5,"migraine_risk":3,"frizz_risk":1,"updated_at":"2026-05-19T21:52:51.139992+05:30"},{"city":"Jodhpur","state":"Rajasthan","latitude":26.2389,"longitude":73.0243,"temp":34.8,"humidity":28,"rain":0.0,"pressure":978.1,"uv_index":8.45,"wind_gusts":37.8,"aqi":130,"pm10":147.1,"pm2_5":35.2,"no2":11.1,"co":194.0,"o3":64.0,"so2":2.9,"mosquito_risk":0,"arthritis_risk":5,"migraine_risk":7,"frizz_risk":0,"updated_at":"2026-05-19T21:52:51.139999+05:30"},{"city":"Udaipur","state":"Rajasthan","latitude":24.5854,"longitude":73.7125,"temp":32.2,"humidity":21,"rain":0.0,"pressure":943.8,"uv_index":8.85,"wind_gusts":39.6,"aqi":54,"pm10":35.2,"pm2_5":15.6,"no2":4.5,"co":227.0,"o3":82.0,"so2":2.5,"mosquito_risk":0,"arthritis_risk":5,"migraine_risk":7,"frizz_risk":0,"updated_at":"2026-05-19T21:52:51.140007+05:30"},{"city":"Kota","state":"Rajasthan","latitude":25.2138,"longitude":75.8648,"temp":36.5,"humidity":19,"rain":0.0,"pressure":974.3,"uv_index":8.4,"wind_gusts":33.5,"aqi":64,"pm10":41.9,"pm2_5":27.6,"no2":15.0,"co":192.0,"o3":75.0,"so2":6.3,"mosquito_risk":0,"arthritis_risk":5,"migraine_risk":10,"frizz_risk":0,"updated_at":"2026-05-19T21:52:51.140014+05:30"},{"city":"Bikaner","state":"Rajasthan","latitude":28.0229,"longitude":73.3119,"temp":35.0,"humidity":24,"rain":0.0,"pressure":976.2,"uv_index":8.4,"wind_gusts":35.3,"aqi":142,"pm10":82.7,"pm2_5":27.9,"no2":3.3,"co":177.0,"o3":83.0,"so2":2.8,"mosquito_risk":0,"arthritis_risk":5,"migraine_risk":7,"frizz_risk":0,"updated_at":"2026-05-19T21:52:51.140021+05:30"},{"city":"Ajmer","state":"Rajasthan","latitude":26.4499,"longitude":74.6399,"temp":33.0,"humidity":22,"rain":0.0,"pressure":951.2,"uv_index":8.4,"wind_gusts":41.4,"aqi":62,"pm10":30.5,"pm2_5":18.7,"no2":10.8,"co":194.0,"o3":70.0,"so2":3.7,"mosquito_risk":0,"arthritis_risk":5,"migraine_risk":7,"frizz_risk":0,"updated_at":"2026-05-19T21:52:51.140049+05:30"},{"city":"Gwalior","state":"Madhya Pradesh","latitude":26.2183,"longitude":78.1828,"temp":36.2,"humidity":23,"rain":0.0,"pressure":977.7,"uv_index":8.3,"wind_gusts":40.7,"aqi":80,"pm10":179.3,"pm2_5":49.6,"no2":20.6,"co":191.0,"o3":67.0,"so2":9.3,"mosquito_risk":0,"arthritis_risk":5,"migraine_risk":10,"frizz_risk":0,"updated_at":"2026-05-19T21:52:51.140059+05:30"},{"city":"Indore","state":"Madhya Pradesh","latitude":22.7196,"longitude":75.8577,"temp":34.3,"humidity":16,"rain":0.0,"pressure":945.5,"uv_index":8.65,"wind_gusts":44.6,"aqi":73,"pm10":25.8,"pm2_5":16.5,"no2":4.4,"co":266.0,"o3":103.0,"so2":4.2,"mosquito_risk":0,"arthritis_risk":5,"migraine_risk":7,"frizz_risk":0,"updated_at":"2026-05-19T21:52:51.140066+05:30"},{"city":"Bhopal","state":"Madhya Pradesh","latitude":23.2599,"longitude":77.4126,"temp":35.7,"humidity":24,"rain":0.0,"pressure":949.4,"uv_index":8.7,"wind_gusts":45.0,"aqi":76,"pm10":61.2,"pm2_5":31.7,"no2":14.3,"co":336.0,"o3":76.0,"so2":8.5,"mosquito_risk":0,"arthritis_risk":5,"migraine_risk":10,"frizz_risk":0,"updated_at":"2026-05-19T21:52:51.140074+05:30"},{"city":"Jabalpur","state":"Madhya Pradesh","latitude":23.1815,"longitude":79.9864,"temp":36.0,"humidity":24,"rain":0.0,"pressure":957.1,"uv_index":8.85,"wind_gusts":33.5,"aqi":78,"pm10":46.3,"pm2_5":22.9,"no2":13.8,"co":253.0,"o3":78.0,"so2":5.7,"mosquito_risk":0,"arthritis_risk":5,"migraine_risk":10,"frizz_risk":0,"updated_at":"2026-05-19T21:52:51.140081+05:30"},{"city":"Ujjain","state":"Madhya Pradesh","latitude":23.1765,"longitude":75.7885,"temp":34.5,"humidity":16,"rain":0.0,"pressure":950.7,"uv_index":8.35,"wind_gusts":46.8,"aqi":68,"pm10":27.9,"pm2_5":17.3,"no2":2.9,"co":216.0,"o3":105.0,"so2":3.8,"mosquito_risk":0,"arthritis_risk":5,"migraine_risk":7,"frizz_risk":0,"updated_at":"2026-05-19T21:52:51.140089+05:30"},{"city":"Visakhapatnam","state":"Andhra Pradesh","latitude":17.6868,"longitude":83.2185,"temp":30.1,"humidity":86,"rain":0.0,"pressure":1000.1,"uv_index":9.1,"wind_gusts":49.3,"aqi":67,"pm10":35.6,"pm2_5":29.0,"no2":27.6,"co":425.0,"o3":91.0,"so2":46.3,"mosquito_risk":3,"arthritis_risk":5,"migraine_risk":4,"frizz_risk":1,"updated_at":"2026-05-19T21:52:51.140097+05:30"},{"city":"Vijayawada","state":"Andhra Pradesh","latitude":16.5062,"longitude":80.648,"temp":33.3,"humidity":61,"rain":0.0,"pressure":999.2,"uv_index":8.65,"wind_gusts":26.6,"aqi":122,"pm10":29.5,"pm2_5":27.6,"no2":8.2,"co":464.0,"o3":120.0,"so2":8.6,"mosquito_risk":3,"arthritis_risk":5,"migraine_risk":7,"frizz_risk":1,"updated_at":"2026-05-19T21:52:51.140104+05:30"},{"city":"Guntur","state":"Andhra Pradesh","latitude":16.3067,"longitude":80.4365,"temp":31.9,"humidity":74,"rain":0.0,"pressure":1000.5,"uv_index":8.7,"wind_gusts":34.6,"aqi":97,"pm10":36.7,"pm2_5":34.0,"no2":14.2,"co":395.0,"o3":103.0,"so2":8.2,"mosquito_risk":3,"arthritis_risk":5,"migraine_risk":4,"frizz_risk":1,"updated_at":"2026-05-19T21:52:51.140111+05:30"},{"city":"Nellore","state":"Andhra Pradesh","latitude":14.4426,"longitude":79.9865,"temp":34.2,"humidity":53,"rain":0.0,"pressure":1002.0,"uv_index":9.1,"wind_gusts":40.0,"aqi":149,"pm10":25.7,"pm2_5":22.6,"no2":5.2,"co":278.0,"o3":136.0,"so2":6.3,"mosquito_risk":0,"arthritis_risk":5,"migraine_risk":4,"frizz_risk":1,"updated_at":"2026-05-19T21:52:51.140123+05:30"},{"city":"Kurnool","state":"Andhra Pradesh","latitude":15.8281,"longitude":78.0373,"temp":32.8,"humidity":51,"rain":0.0,"pressure":974.4,"uv_index":9.15,"wind_gusts":45.0,"aqi":117,"pm10":24.8,"pm2_5":20.8,"no2":10.2,"co":216.0,"o3":106.0,"so2":7.8,"mosquito_risk":0,"arthritis_risk":5,"migraine_risk":7,"frizz_risk":1,"updated_at":"2026-05-19T21:52:51.140131+05:30"},{"city":"Kakinada","state":"Andhra Pradesh","latitude":16.9891,"longitude":82.2475,"temp":31.3,"humidity":78,"rain":0.0,"pressure":1003.6,"uv_index":8.65,"wind_gusts":29.2,"aqi":82,"pm10":30.9,"pm2_5":24.0,"no2":3.1,"co":427.0,"o3":135.0,"so2":4.2,"mosquito_risk":3,"arthritis_risk":5,"migraine_risk":4,"frizz_risk":1,"updated_at":"2026-05-19T21:52:51.140138+05:30"},{"city":"Tirupati","state":"Andhra Pradesh","latitude":13.6288,"longitude":79.4192,"temp":30.5,"humidity":62,"rain":0.0,"pressure":988.7,"uv_index":9.2,"wind_gusts":31.7,"aqi":65,"pm10":19.4,"pm2_5":18.5,"no2":14.6,"co":230.0,"o3":82.0,"so2":3.1,"mosquito_risk":3,"arthritis_risk":5,"migraine_risk":7,"frizz_risk":1,"updated_at":"2026-05-19T21:52:51.140145+05:30"},{"city":"Warangal","state":"Telangana","latitude":17.9689,"longitude":79.5941,"temp":33.3,"humidity":52,"rain":0.0,"pressure":975.4,"uv_index":9.1,"wind_gusts":36.0,"aqi":91,"pm10":59.0,"pm2_5":51.9,"no2":27.5,"co":415.0,"o3":61.0,"so2":8.5,"mosquito_risk":0,"arthritis_risk":5,"migraine_risk":7,"frizz_risk":1,"updated_at":"2026-05-19T21:52:51.140152+05:30"},{"city":"Nizamabad","state":"Telangana","latitude":18.6725,"longitude":78.0941,"temp":33.7,"humidity":39,"rain":0.0,"pressure":961.4,"uv_index":9.1,"wind_gusts":30.6,"aqi":114,"pm10":79.6,"pm2_5":66.6,"no2":31.9,"co":342.0,"o3":82.0,"so2":10.0,"mosquito_risk":0,"arthritis_risk":5,"migraine_risk":7,"frizz_risk":1,"updated_at":"2026-05-19T21:52:51.140158+05:30"},{"city":"Mysore","state":"Karnataka","latitude":12.2958,"longitude":76.6396,"temp":22.9,"humidity":94,"rain":0.0,"pressure":928.3,"uv_index":8.15,"wind_gusts":39.6,"aqi":36,"pm10":8.1,"pm2_5":7.8,"no2":15.6,"co":235.0,"o3":44.0,"so2":2.5,"mosquito_risk":3,"arthritis_risk":5,"migraine_risk":7,"frizz_risk":1,"updated_at":"2026-05-19T21:52:51.140165+05:30"},{"city":"Mangalore","state":"Karnataka","latitude":12.9141,"longitude":74.856,"temp":25.4,"humidity":98,"rain":0.0,"pressure":1006.9,"uv_index":7.05,"wind_gusts":33.5,"aqi":34,"pm10":10.9,"pm2_5":9.2,"no2":10.3,"co":493.0,"o3":50.0,"so2":3.0,"mosquito_risk":7,"arthritis_risk":5,"migraine_risk":4,"frizz_risk":1,"updated_at":"2026-05-19T21:52:51.140172+05:30"},{"city":"Hubli-Dharwad","state":"Karnataka","latitude":15.3647,"longitude":75.124,"temp":23.2,"humidity":94,"rain":0.0,"pressure":940.1,"uv_index":6.85,"wind_gusts":42.1,"aqi":39,"pm10":4.9,"pm2_5":4.6,"no2":7.6,"co":165.0,"o3":67.0,"so2":1.5,"mosquito_risk":3,"arthritis_risk":5,"migraine_risk":7,"frizz_risk":1,"updated_at":"2026-05-19T21:52:51.140180+05:30"},{"city":"Belgaum","state":"Karnataka","latitude":15.8497,"longitude":74.4977,"temp":23.4,"humidity":89,"rain":0.0,"pressure":924.8,"uv_index":6.35,"wind_gusts":41.8,"aqi":58,"pm10":20.3,"pm2_5":12.2,"no2":11.0,"co":155.0,"o3":48.0,"so2":2.6,"mosquito_risk":3,"arthritis_risk":5,"migraine_risk":7,"frizz_risk":1,"updated_at":"2026-05-19T21:52:54.428204+05:30"},{"city":"Coimbatore","state":"Tamil Nadu","latitude":11.0168,"longitude":76.9558,"temp":24.9,"humidity":86,"rain":0.0,"pressure":961.9,"uv_index":8.55,"wind_gusts":55.4,"aqi":34,"pm10":6.0,"pm2_5":5.4,"no2":7.8,"co":211.0,"o3":53.0,"so2":2.9,"mosquito_risk":3,"arthritis_risk":5,"migraine_risk":7,"frizz_risk":1,"updated_at":"2026-05-19T21:52:54.428235+05:30"},{"city":"Madurai","state":"Tamil Nadu","latitude":9.9252,"longitude":78.1198,"temp":29.5,"humidity":65,"rain":0.0,"pressure":992.7,"uv_index":9.0,"wind_gusts":42.8,"aqi":43,"pm10":30.7,"pm2_5":29.5,"no2":49.1,"co":256.0,"o3":2.0,"so2":10.6,"mosquito_risk":7,"arthritis_risk":5,"migraine_risk":7,"frizz_risk":1,"updated_at":"2026-05-19T21:52:54.428247+05:30"},{"city":"Trichy","state":"Tamil Nadu","latitude":10.7905,"longitude":78.7047,"temp":26.6,"humidity":89,"rain":0.0,"pressure":999.4,"uv_index":8.95,"wind_gusts":31.0,"aqi":43,"pm10":12.8,"pm2_5":12.3,"no2":16.4,"co":309.0,"o3":57.0,"so2":3.6,"mosquito_risk":7,"arthritis_risk":5,"migraine_risk":7,"frizz_risk":1,"updated_at":"2026-05-19T21:52:54.428257+05:30"},{"city":"Salem","state":"Tamil Nadu","latitude":11.6643,"longitude":78.146,"temp":26.6,"humidity":83,"rain":0.0,"pressure":977.1,"uv_index":8.95,"wind_gusts":39.6,"aqi":48,"pm10":15.4,"pm2_5":14.6,"no2":22.0,"co":525.0,"o3":59.0,"so2":9.4,"mosquito_risk":7,"arthritis_risk":5,"migraine_risk":7,"frizz_risk":1,"updated_at":"2026-05-19T21:52:54.428266+05:30"},{"city":"Tirunelveli","state":"Tamil Nadu","latitude":8.7139,"longitude":77.7567,"temp":29.7,"humidity":66,"rain":0.0,"pressure":1003.5,"uv_index":8.85,"wind_gusts":24.8,"aqi":28,"pm10":7.7,"pm2_5":6.3,"no2":7.1,"co":225.0,"o3":42.0,"so2":1.4,"mosquito_risk":7,"arthritis_risk":5,"migraine_risk":4,"frizz_risk":1,"updated_at":"2026-05-19T21:52:54.428274+05:30"},{"city":"Vellore","state":"Tamil Nadu","latitude":12.9165,"longitude":79.1325,"temp":27.2,"humidity":77,"rain":0.0,"pressure":982.9,"uv_index":9.2,"wind_gusts":41.0,"aqi":80,"pm10":11.5,"pm2_5":11.3,"no2":8.7,"co":245.0,"o3":91.0,"so2":3.6,"mosquito_risk":7,"arthritis_risk":5,"migraine_risk":7,"frizz_risk":1,"updated_at":"2026-05-19T21:52:54.428282+05:30"},{"city":"Erode","state":"Tamil Nadu","latitude":11.341,"longitude":77.7172,"temp":28.3,"humidity":75,"rain":0.0,"pressure":989.0,"uv_index":9.05,"wind_gusts":45.0,"aqi":40,"pm10":11.8,"pm2_5":10.6,"no2":16.6,"co":203.0,"o3":51.0,"so2":3.8,"mosquito_risk":7,"arthritis_risk":5,"migraine_risk":7,"frizz_risk":1,"updated_at":"2026-05-19T21:52:54.428289+05:30"},{"city":"Kochi","state":"Kerala","latitude":9.9312,"longitude":76.2673,"temp":26.6,"humidity":93,"rain":0.1,"pressure":1009.9,"uv_index":7.55,"wind_gusts":31.3,"aqi":37,"pm10":14.8,"pm2_5":13.4,"no2":22.6,"co":268.0,"o3":19.0,"so2":4.9,"mosquito_risk":10,"arthritis_risk":0,"migraine_risk":4,"frizz_risk":1,"updated_at":"2026-05-19T21:52:54.428297+05:30"},{"city":"Thiruvananthapuram","state":"Kerala","latitude":8.5241,"longitude":76.9366,"temp":24.9,"humidity":96,"rain":0.0,"pressure":1009.6,"uv_index":6.0,"wind_gusts":31.3,"aqi":32,"pm10":7.1,"pm2_5":4.2,"no2":1.4,"co":140.0,"o3":52.0,"so2":0.3,"mosquito_risk":3,"arthritis_risk":0,"migraine_risk":0,"frizz_risk":1,"updated_at":"2026-05-19T21:52:54.428305+05:30"},{"city":"Kozhikode","state":"Kerala","latitude":11.2588,"longitude":75.7804,"temp":25.5,"humidity":100,"rain":0.0,"pressure":1008.9,"uv_index":3.9,"wind_gusts":29.9,"aqi":32,"pm10":8.6,"pm2_5":5.6,"no2":1.9,"co":517.0,"o3":65.0,"so2":0.7,"mosquito_risk":7,"arthritis_risk":0,"migraine_risk":0,"frizz_risk":1,"updated_at":"2026-05-19T21:52:54.428312+05:30"},{"city":"Thrissur","state":"Kerala","latitude":10.5276,"longitude":76.2144,"temp":25.4,"humidity":96,"rain":0.2,"pressure":1008.2,"uv_index":8.05,"wind_gusts":33.5,"aqi":35,"pm10":14.1,"pm2_5":13.1,"no2":14.2,"co":433.0,"o3":32.0,"so2":3.7,"mosquito_risk":10,"arthritis_risk":0,"migraine_risk":4,"frizz_risk":1,"updated_at":"2026-05-19T21:52:54.428320+05:30"},{"city":"Kannur","state":"Kerala","latitude":11.8745,"longitude":75.3704,"temp":25.2,"humidity":98,"rain":0.1,"pressure":1007.7,"uv_index":8.3,"wind_gusts":39.6,"aqi":29,"pm10":11.1,"pm2_5":9.6,"no2":12.5,"co":358.0,"o3":40.0,"so2":2.6,"mosquito_risk":10,"arthritis_risk":5,"migraine_risk":4,"frizz_risk":1,"updated_at":"2026-05-19T21:52:54.428328+05:30"},{"city":"Patna","state":"Bihar","latitude":25.5941,"longitude":85.1376,"temp":29.5,"humidity":75,"rain":0.0,"pressure":996.1,"uv_index":8.8,"wind_gusts":42.1,"aqi":164,"pm10":66.1,"pm2_5":54.4,"no2":19.2,"co":519.0,"o3":103.0,"so2":20.1,"mosquito_risk":7,"arthritis_risk":5,"migraine_risk":7,"frizz_risk":1,"updated_at":"2026-05-19T21:52:54.428335+05:30"},{"city":"Gaya","state":"Bihar","latitude":24.7914,"longitude":85.0002,"temp":30.9,"humidity":64,"rain":0.0,"pressure":989.1,"uv_index":8.85,"wind_gusts":30.2,"aqi":175,"pm10":73.6,"pm2_5":64.0,"no2":15.3,"co":524.0,"o3":125.0,"so2":20.0,"mosquito_risk":3,"arthritis_risk":5,"migraine_risk":7,"frizz_risk":1,"updated_at":"2026-05-19T21:52:54.428343+05:30"},{"city":"Muzaffarpur","state":"Bihar","latitude":26.1209,"longitude":85.3647,"temp":28.9,"humidity":75,"rain":0.0,"pressure":996.3,"uv_index":8.8,"wind_gusts":44.3,"aqi":151,"pm10":75.7,"pm2_5":59.0,"no2":25.2,"co":486.0,"o3":81.0,"so2":18.3,"mosquito_risk":7,"arthritis_risk":5,"migraine_risk":7,"frizz_risk":1,"updated_at":"2026-05-19T21:52:54.428352+05:30"},{"city":"Bhagalpur","state":"Bihar","latitude":25.2425,"longitude":87.0117,"temp":28.5,"humidity":79,"rain":0.0,"pressure":997.0,"uv_index":8.8,"wind_gusts":37.4,"aqi":139,"pm10":46.2,"pm2_5":41.8,"no2":12.9,"co":421.0,"o3":91.0,"so2":10.5,"mosquito_risk":7,"arthritis_risk":5,"migraine_risk":7,"frizz_risk":1,"updated_at":"2026-05-19T21:52:54.428359+05:30"},{"city":"Ranchi","state":"Jharkhand","latitude":23.3441,"longitude":85.3096,"temp":26.6,"humidity":61,"rain":0.0,"pressure":933.7,"uv_index":9.25,"wind_gusts":47.9,"aqi":116,"pm10":164.8,"pm2_5":61.0,"no2":18.0,"co":525.0,"o3":100.0,"so2":12.8,"mosquito_risk":7,"arthritis_risk":5,"migraine_risk":7,"frizz_risk":1,"updated_at":"2026-05-19T21:52:54.428366+05:30"},{"city":"Jamshedpur","state":"Jharkhand","latitude":22.8046,"longitude":86.2029,"temp":30.5,"humidity":79,"rain":0.0,"pressure":985.6,"uv_index":9.1,"wind_gusts":30.2,"aqi":142,"pm10":85.2,"pm2_5":73.1,"no2":41.1,"co":476.0,"o3":82.0,"so2":61.6,"mosquito_risk":3,"arthritis_risk":5,"migraine_risk":7,"frizz_risk":1,"updated_at":"2026-05-19T21:52:54.428373+05:30"},{"city":"Dhanbad","state":"Jharkhand","latitude":23.7957,"longitude":86.4304,"temp":32.0,"humidity":62,"rain":0.0,"pressure":975.3,"uv_index":9.05,"wind_gusts":25.2,"aqi":165,"pm10":149.5,"pm2_5":129.5,"no2":75.3,"co":472.0,"o3":70.0,"so2":186.0,"mosquito_risk":3,"arthritis_risk":5,"migraine_risk":7,"frizz_risk":1,"updated_at":"2026-05-19T21:52:54.428380+05:30"},{"city":"Bokaro","state":"Jharkhand","latitude":23.6693,"longitude":86.1511,"temp":30.0,"humidity":73,"rain":0.0,"pressure":978.9,"uv_index":9.05,"wind_gusts":21.6,"aqi":160,"pm10":142.0,"pm2_5":108.5,"no2":70.5,"co":677.0,"o3":50.0,"so2":180.3,"mosquito_risk":7,"arthritis_risk":5,"migraine_risk":7,"frizz_risk":1,"updated_at":"2026-05-19T21:52:54.428387+05:30"},{"city":"Bhubaneswar","state":"Odisha","latitude":20.2961,"longitude":85.8245,"temp":29.9,"humidity":85,"rain":0.0,"pressure":997.4,"uv_index":9.15,"wind_gusts":40.0,"aqi":62,"pm10":19.0,"pm2_5":17.0,"no2":7.0,"co":258.0,"o3":64.0,"so2":5.1,"mosquito_risk":7,"arthritis_risk":5,"migraine_risk":7,"frizz_risk":1,"updated_at":"2026-05-19T21:52:54.428394+05:30"},{"city":"Cuttack","state":"Odisha","latitude":20.4625,"longitude":85.8828,"temp":30.4,"humidity":82,"rain":0.0,"pressure":999.1,"uv_index":9.2,"wind_gusts":30.6,"aqi":62,"pm10":19.0,"pm2_5":17.0,"no2":7.0,"co":284.0,"o3":64.0,"so2":5.1,"mosquito_risk":3,"arthritis_risk":5,"migraine_risk":7,"frizz_risk":1,"updated_at":"2026-05-19T21:52:54.428401+05:30"},{"city":"Rourkela","state":"Odisha","latitude":22.2604,"longitude":84.8536,"temp":30.6,"humidity":60,"rain":0.0,"pressure":979.6,"uv_index":9.0,"wind_gusts":45.0,"aqi":140,"pm10":252.4,"pm2_5":92.4,"no2":40.6,"co":710.0,"o3":67.0,"so2":18.0,"mosquito_risk":0,"arthritis_risk":5,"migraine_risk":7,"frizz_risk":1,"updated_at":"2026-05-19T21:52:54.428408+05:30"},{"city":"Raipur","state":"Chhattisgarh","latitude":21.2514,"longitude":81.6296,"temp":34.4,"humidity":41,"rain":0.0,"pressure":969.8,"uv_index":9.0,"wind_gusts":46.8,"aqi":109,"pm10":77.8,"pm2_5":65.0,"no2":53.9,"co":386.0,"o3":51.0,"so2":54.8,"mosquito_risk":0,"arthritis_risk":5,"migraine_risk":7,"frizz_risk":1,"updated_at":"2026-05-19T21:52:54.428414+05:30"},{"city":"Bhilai","state":"Chhattisgarh","latitude":21.1938,"longitude":81.3509,"temp":34.2,"humidity":41,"rain":0.0,"pressure":970.2,"uv_index":9.0,"wind_gusts":44.6,"aqi":94,"pm10":70.3,"pm2_5":57.3,"no2":50.2,"co":619.0,"o3":52.0,"so2":47.3,"mosquito_risk":0,"arthritis_risk":5,"migraine_risk":7,"frizz_risk":1,"updated_at":"2026-05-19T21:52:54.428421+05:30"},{"city":"Guwahati","state":"Assam","latitude":26.1158,"longitude":91.7086,"temp":26.1,"humidity":85,"rain":0.0,"pressure":998.0,"uv_index":8.75,"wind_gusts":22.0,"aqi":81,"pm10":47.8,"pm2_5":35.2,"no2":12.7,"co":500.0,"o3":49.0,"so2":4.6,"mosquito_risk":7,"arthritis_risk":5,"migraine_risk":7,"frizz_risk":1,"updated_at":"2026-05-19T21:52:54.428428+05:30"},{"city":"Agartala","state":"Tripura","latitude":23.8315,"longitude":91.2868,"temp":27.5,"humidity":87,"rain":0.0,"pressure":1002.8,"uv_index":8.75,"wind_gusts":23.4,"aqi":80,"pm10":29.7,"pm2_5":24.5,"no2":14.6,"co":276.0,"o3":50.0,"so2":3.7,"mosquito_risk":7,"arthritis_risk":5,"migraine_risk":4,"frizz_risk":1,"updated_at":"2026-05-19T21:52:54.428435+05:30"},{"city":"Shillong","state":"Meghalaya","latitude":25.5788,"longitude":91.8933,"temp":18.5,"humidity":97,"rain":0.0,"pressure":854.8,"uv_index":7.1,"wind_gusts":24.5,"aqi":63,"pm10":33.6,"pm2_5":24.7,"no2":13.3,"co":520.0,"o3":54.0,"so2":4.4,"mosquito_risk":3,"arthritis_risk":10,"migraine_risk":7,"frizz_risk":1,"updated_at":"2026-05-19T21:52:54.428443+05:30"},{"city":"Imphal","state":"Manipur","latitude":24.817,"longitude":93.9368,"temp":22.1,"humidity":94,"rain":0.0,"pressure":920.4,"uv_index":9.1,"wind_gusts":33.1,"aqi":73,"pm10":41.2,"pm2_5":34.6,"no2":23.8,"co":525.0,"o3":32.0,"so2":5.3,"mosquito_risk":3,"arthritis_risk":5,"migraine_risk":7,"frizz_risk":1,"updated_at":"2026-05-19T21:52:54.428450+05:30"},{"city":"Aizawl","state":"Mizoram","latitude":23.7271,"longitude":92.7176,"temp":20.5,"humidity":91,"rain":0.0,"pressure":889.8,"uv_index":9.1,"wind_gusts":29.9,"aqi":93,"pm10":51.8,"pm2_5":28.0,"no2":13.8,"co":271.0,"o3":34.0,"so2":2.5,"mosquito_risk":3,"arthritis_risk":5,"migraine_risk":7,"frizz_risk":1,"updated_at":"2026-05-19T21:52:54.428457+05:30"},{"city":"Kohima","state":"Nagaland","latitude":25.6701,"longitude":94.1077,"temp":16.9,"humidity":97,"rain":0.0,"pressure":852.5,"uv_index":8.65,"wind_gusts":27.7,"aqi":53,"pm10":29.7,"pm2_5":21.7,"no2":15.8,"co":414.0,"o3":74.0,"so2":3.9,"mosquito_risk":3,"arthritis_risk":10,"migraine_risk":7,"frizz_risk":1,"updated_at":"2026-05-19T21:52:54.428464+05:30"},{"city":"Gangtok","state":"Sikkim","latitude":27.3314,"longitude":88.6138,"temp":15.8,"humidity":93,"rain":0.0,"pressure":834.6,"uv_index":9.05,"wind_gusts":37.4,"aqi":83,"pm10":37.3,"pm2_5":29.7,"no2":19.3,"co":467.0,"o3":74.0,"so2":3.3,"mosquito_risk":3,"arthritis_risk":10,"migraine_risk":7,"frizz_risk":0,"updated_at":"2026-05-19T21:52:54.428471+05:30"},{"city":"Siliguri","state":"West Bengal","latitude":26.7271,"longitude":88.3953,"temp":26.5,"humidity":84,"rain":0.0,"pressure":989.8,"uv_index":8.7,"wind_gusts":28.8,"aqi":139,"pm10":89.2,"pm2_5":58.8,"no2":21.4,"co":1144.0,"o3":94.0,"so2":9.6,"mosquito_risk":7,"arthritis_risk":5,"migraine_risk":7,"frizz_risk":1,"updated_at":"2026-05-19T21:52:57.706353+05:30"},{"city":"Durgapur","state":"West Bengal","latitude":23.5204,"longitude":87.3119,"temp":29.5,"humidity":83,"rain":0.0,"pressure":989.9,"uv_index":9.0,"wind_gusts":29.5,"aqi":200,"pm10":101.7,"pm2_5":93.6,"no2":38.2,"co":732.0,"o3":85.0,"so2":43.6,"mosquito_risk":7,"arthritis_risk":5,"migraine_risk":7,"frizz_risk":1,"updated_at":"2026-05-19T21:52:57.706389+05:30"},{"city":"Asansol","state":"West Bengal","latitude":23.6739,"longitude":86.9524,"temp":31.4,"humidity":72,"rain":0.0,"pressure":988.5,"uv_index":9.0,"wind_gusts":27.4,"aqi":203,"pm10":93.4,"pm2_5":86.8,"no2":36.9,"co":668.0,"o3":94.0,"so2":42.6,"mosquito_risk":3,"arthritis_risk":5,"migraine_risk":7,"frizz_risk":1,"updated_at":"2026-05-19T21:52:57.706401+05:30"},{"city":"Pondicherry","state":"Puducherry","latitude":11.9139,"longitude":79.8145,"temp":30.0,"humidity":78,"rain":0.0,"pressure":1006.9,"uv_index":8.85,"wind_gusts":36.4,"aqi":81,"pm10":10.8,"pm2_5":9.4,"no2":13.6,"co":282.0,"o3":76.0,"so2":12.1,"mosquito_risk":7,"arthritis_risk":5,"migraine_risk":4,"frizz_risk":1,"updated_at":"2026-05-19T21:52:57.706410+05:30"},{"city":"Port Blair","state":"Andaman and Nicobar Islands","latitude":11.6234,"longitude":92.7265,"temp":25.1,"humidity":97,"rain":0.0,"pressure":1006.5,"uv_index":8.8,"wind_gusts":50.0,"aqi":25,"pm10":7.9,"pm2_5":4.8,"no2":0.3,"co":159.0,"o3":61.0,"so2":0.3,"mosquito_risk":7,"arthritis_risk":5,"migraine_risk":4,"frizz_risk":1,"updated_at":"2026-05-19T21:52:57.706418+05:30"},{"city":"Haridwar","state":"Uttarakhand","latitude":29.9457,"longitude":78.1642,"temp":29.0,"humidity":53,"rain":0.0,"pressure":968.3,"uv_index":7.55,"wind_gusts":34.6,"aqi":164,"pm10":220.7,"pm2_5":59.1,"no2":16.1,"co":527.0,"o3":107.0,"so2":15.8,"mosquito_risk":4,"arthritis_risk":5,"migraine_risk":7,"frizz_risk":1,"updated_at":"2026-05-19T21:52:57.706426+05:30"},{"city":"Rishikesh","state":"Uttarakhand","latitude":30.0869,"longitude":78.2676,"temp":28.0,"humidity":49,"rain":0.0,"pressure":961.3,"uv_index":7.65,"wind_gusts":32.0,"aqi":155,"pm10":185.8,"pm2_5":47.8,"no2":9.3,"co":515.0,"o3":144.0,"so2":14.4,"mosquito_risk":4,"arthritis_risk":5,"migraine_risk":7,"frizz_risk":1,"updated_at":"2026-05-19T21:52:57.706434+05:30"},{"city":"Nainital","state":"Uttarakhand","latitude":29.3919,"longitude":79.4542,"temp":18.5,"humidity":67,"rain":0.0,"pressure":804.3,"uv_index":8.5,"wind_gusts":36.7,"aqi":166,"pm10":70.8,"pm2_5":36.8,"no2":10.4,"co":407.0,"o3":143.0,"so2":12.7,"mosquito_risk":3,"arthritis_risk":5,"migraine_risk":7,"frizz_risk":0,"updated_at":"2026-05-19T21:52:57.706441+05:30"},{"city":"Mussoorie","state":"Uttarakhand","latitude":30.4599,"longitude":78.0664,"temp":19.5,"humidity":45,"rain":0.0,"pressure":802.9,"uv_index":8.05,"wind_gusts":52.6,"aqi":173,"pm10":178.3,"pm2_5":49.5,"no2":20.6,"co":376.0,"o3":115.0,"so2":14.1,"mosquito_risk":0,"arthritis_risk":5,"migraine_risk":7,"frizz_risk":0,"updated_at":"2026-05-19T21:52:57.706449+05:30"},{"city":"Dharamshala","state":"Himachal Pradesh","latitude":32.219,"longitude":76.3234,"temp":26.1,"humidity":34,"rain":0.0,"pressure":868.7,"uv_index":8.45,"wind_gusts":46.4,"aqi":58,"pm10":22.4,"pm2_5":14.0,"no2":16.3,"co":301.0,"o3":45.0,"so2":1.2,"mosquito_risk":4,"arthritis_risk":5,"migraine_risk":7,"frizz_risk":0,"updated_at":"2026-05-19T21:52:57.706456+05:30"},{"city":"Dalhousie","state":"Himachal Pradesh","latitude":32.5387,"longitude":75.971,"temp":15.7,"humidity":69,"rain":0.0,"pressure":803.0,"uv_index":8.7,"wind_gusts":42.8,"aqi":63,"pm10":32.6,"pm2_5":23.5,"no2":41.7,"co":476.0,"o3":33.0,"so2":2.3,"mosquito_risk":3,"arthritis_risk":5,"migraine_risk":7,"frizz_risk":0,"updated_at":"2026-05-19T21:52:57.706463+05:30"},{"city":"Patiala","state":"Punjab","latitude":30.3398,"longitude":76.3869,"temp":34.6,"humidity":24,"rain":0.0,"pressure":972.7,"uv_index":7.65,"wind_gusts":36.7,"aqi":399,"pm10":691.0,"pm2_5":132.7,"no2":30.5,"co":561.0,"o3":57.0,"so2":10.5,"mosquito_risk":0,"arthritis_risk":5,"migraine_risk":7,"frizz_risk":0,"updated_at":"2026-05-19T21:52:57.706470+05:30"},{"city":"Bhatinda","state":"Punjab","latitude":30.211,"longitude":74.9455,"temp":33.9,"humidity":22,"rain":0.0,"pressure":977.6,"uv_index":8.3,"wind_gusts":29.5,"aqi":98,"pm10":67.1,"pm2_5":36.6,"no2":23.7,"co":513.0,"o3":63.0,"so2":8.4,"mosquito_risk":0,"arthritis_risk":5,"migraine_risk":7,"frizz_risk":0,"updated_at":"2026-05-19T21:52:57.706477+05:30"},{"city":"Rohtak","state":"Haryana","latitude":28.8955,"longitude":76.6066,"temp":33.6,"humidity":34,"rain":0.0,"pressure":976.0,"uv_index":7.8,"wind_gusts":34.2,"aqi":531,"pm10":334.3,"pm2_5":85.9,"no2":61.2,"co":1107.0,"o3":23.0,"so2":11.9,"mosquito_risk":0,"arthritis_risk":5,"migraine_risk":7,"frizz_risk":0,"updated_at":"2026-05-19T21:52:57.706483+05:30"},{"city":"Panipat","state":"Haryana","latitude":29.3909,"longitude":76.9635,"temp":33.5,"humidity":27,"rain":0.0,"pressure":974.6,"uv_index":7.6,"wind_gusts":40.7,"aqi":1200,"pm10":756.2,"pm2_5":145.3,"no2":36.4,"co":447.0,"o3":40.0,"so2":8.4,"mosquito_risk":0,"arthritis_risk":5,"migraine_risk":7,"frizz_risk":0,"updated_at":"2026-05-19T21:52:57.706490+05:30"},{"city":"Mathura","state":"Uttar Pradesh","latitude":27.4924,"longitude":77.6737,"temp":35.7,"humidity":28,"rain":0.0,"pressure":981.0,"uv_index":8.05,"wind_gusts":46.1,"aqi":603,"pm10":571.8,"pm2_5":117.8,"no2":63.8,"co":604.0,"o3":25.0,"so2":11.3,"mosquito_risk":0,"arthritis_risk":5,"migraine_risk":10,"frizz_risk":0,"updated_at":"2026-05-19T21:52:57.706497+05:30"},{"city":"Vrindavan","state":"Uttar Pradesh","latitude":27.5823,"longitude":77.7027,"temp":34.4,"humidity":33,"rain":0.0,"pressure":981.3,"uv_index":8.0,"wind_gusts":44.3,"aqi":603,"pm10":571.8,"pm2_5":117.8,"no2":63.8,"co":658.0,"o3":25.0,"so2":11.3,"mosquito_risk":0,"arthritis_risk":5,"migraine_risk":7,"frizz_risk":0,"updated_at":"2026-05-19T21:52:57.706504+05:30"},{"city":"Ayodhya","state":"Uttar Pradesh","latitude":26.7922,"longitude":82.1998,"temp":32.2,"humidity":63,"rain":0.0,"pressure":990.1,"uv_index":8.4,"wind_gusts":35.3,"aqi":154,"pm10":110.1,"pm2_5":66.1,"no2":20.5,"co":590.0,"o3":88.0,"so2":13.2,"mosquito_risk":3,"arthritis_risk":5,"migraine_risk":7,"frizz_risk":1,"updated_at":"2026-05-19T21:52:57.706511+05:30"},{"city":"Ratlam","state":"Madhya Pradesh","latitude":23.3315,"longitude":75.0367,"temp":33.2,"humidity":18,"rain":0.0,"pressure":951.7,"uv_index":8.55,"wind_gusts":39.6,"aqi":64,"pm10":30.0,"pm2_5":18.5,"no2":3.1,"co":176.0,"o3":100.0,"so2":3.8,"mosquito_risk":0,"arthritis_risk":5,"migraine_risk":7,"frizz_risk":0,"updated_at":"2026-05-19T21:52:57.706517+05:30"},{"city":"Sagar","state":"Madhya Pradesh","latitude":23.8388,"longitude":78.7378,"temp":34.8,"humidity":22,"rain":0.0,"pressure":946.3,"uv_index":8.75,"wind_gusts":33.8,"aqi":73,"pm10":42.5,"pm2_5":17.6,"no2":6.3,"co":257.0,"o3":92.0,"so2":4.4,"mosquito_risk":0,"arthritis_risk":5,"migraine_risk":7,"frizz_risk":0,"updated_at":"2026-05-19T21:52:57.706524+05:30"},{"city":"Satna","state":"Madhya Pradesh","latitude":24.6005,"longitude":80.8322,"temp":33.4,"humidity":30,"rain":0.0,"pressure":966.7,"uv_index":8.75,"wind_gusts":45.7,"aqi":124,"pm10":135.5,"pm2_5":37.8,"no2":13.3,"co":221.0,"o3":81.0,"so2":5.0,"mosquito_risk":0,"arthritis_risk":5,"migraine_risk":7,"frizz_risk":0,"updated_at":"2026-05-19T21:52:57.706531+05:30"},{"city":"Akola","state":"Maharashtra","latitude":20.7002,"longitude":77.0082,"temp":37.8,"humidity":21,"rain":0.0,"pressure":970.6,"uv_index":8.85,"wind_gusts":36.0,"aqi":89,"pm10":34.1,"pm2_5":22.4,"no2":10.4,"co":228.0,"o3":93.0,"so2":7.5,"mosquito_risk":0,"arthritis_risk":5,"migraine_risk":10,"frizz_risk":0,"updated_at":"2026-05-19T21:52:57.706538+05:30"},{"city":"Amravati","state":"Maharashtra","latitude":20.9374,"longitude":77.7796,"temp":37.2,"humidity":21,"rain":0.0,"pressure":963.0,"uv_index":8.9,"wind_gusts":44.3,"aqi":82,"pm10":53.9,"pm2_5":33.5,"no2":27.2,"co":391.0,"o3":70.0,"so2":9.5,"mosquito_risk":0,"arthritis_risk":5,"migraine_risk":10,"frizz_risk":0,"updated_at":"2026-05-19T21:52:57.706547+05:30"},{"city":"Latur","state":"Maharashtra","latitude":18.4088,"longitude":76.5604,"temp":31.1,"humidity":51,"rain":0.0,"pressure":937.8,"uv_index":8.0,"wind_gusts":36.7,"aqi":113,"pm10":46.8,"pm2_5":32.4,"no2":15.2,"co":258.0,"o3":97.0,"so2":9.3,"mosquito_risk":0,"arthritis_risk":5,"migraine_risk":7,"frizz_risk":1,"updated_at":"2026-05-19T21:52:57.706553+05:30"},{"city":"Nanded","state":"Maharashtra","latitude":19.1383,"longitude":77.3091,"temp":35.6,"humidity":30,"rain":0.0,"pressure":965.2,"uv_index":8.15,"wind_gusts":34.6,"aqi":103,"pm10":68.9,"pm2_5":48.1,"no2":32.5,"co":410.0,"o3":73.0,"so2":10.2,"mosquito_risk":0,"arthritis_risk":5,"migraine_risk":10,"frizz_risk":0,"updated_at":"2026-05-19T21:52:57.706561+05:30"},{"city":"Gulbarga","state":"Karnataka","latitude":17.3297,"longitude":76.8343,"temp":29.5,"humidity":69,"rain":0.0,"pressure":956.4,"uv_index":9.1,"wind_gusts":40.0,"aqi":113,"pm10":33.1,"pm2_5":26.9,"no2":14.3,"co":276.0,"o3":102.0,"so2":6.4,"mosquito_risk":7,"arthritis_risk":5,"migraine_risk":7,"frizz_risk":1,"updated_at":"2026-05-19T21:52:57.706567+05:30"},{"city":"Bidar","state":"Karnataka","latitude":17.9104,"longitude":77.5199,"temp":28.3,"humidity":67,"rain":0.0,"pressure":933.0,"uv_index":9.1,"wind_gusts":40.7,"aqi":108,"pm10":50.8,"pm2_5":42.6,"no2":24.9,"co":326.0,"o3":76.0,"so2":5.6,"mosquito_risk":7,"arthritis_risk":5,"migraine_risk":7,"frizz_risk":1,"updated_at":"2026-05-19T21:52:57.706574+05:30"},{"city":"Hospet","state":"Karnataka","latitude":15.2689,"longitude":76.3909,"temp":27.0,"humidity":76,"rain":0.0,"pressure":955.2,"uv_index":6.85,"wind_gusts":41.0,"aqi":48,"pm10":5.2,"pm2_5":4.8,"no2":8.5,"co":212.0,"o3":71.0,"so2":1.9,"mosquito_risk":7,"arthritis_risk":5,"migraine_risk":7,"frizz_risk":1,"updated_at":"2026-05-19T21:52:57.706582+05:30"},{"city":"Tirupur","state":"Tamil Nadu","latitude":11.1085,"longitude":77.3411,"temp":26.6,"humidity":77,"rain":0.0,"pressure":975.1,"uv_index":8.9,"wind_gusts":55.4,"aqi":37,"pm10":12.3,"pm2_5":11.4,"no2":19.1,"co":213.0,"o3":43.0,"so2":4.5,"mosquito_risk":7,"arthritis_risk":5,"migraine_risk":7,"frizz_risk":1,"updated_at":"2026-05-19T21:52:57.706588+05:30"},{"city":"Alappuzha","state":"Kerala","latitude":9.4981,"longitude":76.3388,"temp":26.1,"humidity":93,"rain":0.2,"pressure":1010.3,"uv_index":8.7,"wind_gusts":32.4,"aqi":33,"pm10":11.7,"pm2_5":9.3,"no2":10.9,"co":115.0,"o3":43.0,"so2":2.5,"mosquito_risk":10,"arthritis_risk":0,"migraine_risk":4,"frizz_risk":1,"updated_at":"2026-05-19T21:52:57.706594+05:30"},{"city":"Munnar","state":"Kerala","latitude":10.0889,"longitude":77.0595,"temp":17.6,"humidity":100,"rain":0.1,"pressure":857.3,"uv_index":8.6,"wind_gusts":34.6,"aqi":29,"pm10":6.6,"pm2_5":6.2,"no2":8.9,"co":130.0,"o3":40.0,"so2":1.7,"mosquito_risk":6,"arthritis_risk":10,"migraine_risk":7,"frizz_risk":1,"updated_at":"2026-05-19T21:52:57.706602+05:30"},{"city":"Silchar","state":"Assam","latitude":24.8333,"longitude":92.7789,"temp":26.8,"humidity":90,"rain":0.0,"pressure":1001.6,"uv_index":8.9,"wind_gusts":30.2,"aqi":91,"pm10":91.7,"pm2_5":70.3,"no2":28.0,"co":570.0,"o3":59.0,"so2":14.2,"mosquito_risk":7,"arthritis_risk":5,"migraine_risk":4,"frizz_risk":1,"updated_at":"2026-05-19T21:52:57.706610+05:30"},{"city":"Dibrugarh","state":"Assam","latitude":27.4728,"longitude":94.912,"temp":25.1,"humidity":88,"rain":0.0,"pressure":992.4,"uv_index":8.85,"wind_gusts":18.0,"aqi":101,"pm10":50.6,"pm2_5":47.0,"no2":28.0,"co":495.0,"o3":62.0,"so2":5.7,"mosquito_risk":7,"arthritis_risk":5,"migraine_risk":7,"frizz_risk":1,"updated_at":"2026-05-19T21:52:57.706616+05:30"}]