[{"city":"Delhi","state":"Delhi","latitude":28.6139,"longitude":77.209,"temp":31.7,"humidity":71,"rain":0.0,"pressure":976.5,"uv_index":6.85,"wind_gusts":30.2,"aqi":315,"pm10":661.2,"pm2_5":137.4,"no2":29.2,"co":340.0,"o3":80.0,"so2":17.1,"mosquito_risk":3,"arthritis_risk":5,"migraine_risk":7,"frizz_risk":1,"updated_at":"2026-07-19T18:52:06.012650+05:30"},{"city":"Mumbai","state":"Maharashtra","latitude":19.076,"longitude":72.8777,"temp":26.2,"humidity":90,"rain":0.2,"pressure":1005.3,"uv_index":5.1,"wind_gusts":43.2,"aqi":61,"pm10":22.2,"pm2_5":10.7,"no2":7.7,"co":252.0,"o3":47.0,"so2":5.1,"mosquito_risk":10,"arthritis_risk":5,"migraine_risk":0,"frizz_risk":1,"updated_at":"2026-07-19T18:52:06.012705+05:30"},{"city":"Bangalore","state":"Karnataka","latitude":12.9716,"longitude":77.5946,"temp":21.7,"humidity":88,"rain":0.2,"pressure":910.8,"uv_index":7.25,"wind_gusts":43.6,"aqi":51,"pm10":18.8,"pm2_5":11.7,"no2":12.9,"co":394.0,"o3":52.0,"so2":4.0,"mosquito_risk":6,"arthritis_risk":5,"migraine_risk":7,"frizz_risk":1,"updated_at":"2026-07-19T18:52:06.012721+05:30"},{"city":"Hyderabad","state":"Telangana","latitude":17.385,"longitude":78.4867,"temp":27.3,"humidity":74,"rain":0.0,"pressure":950.0,"uv_index":3.5,"wind_gusts":42.1,"aqi":35,"pm10":18.3,"pm2_5":11.1,"no2":4.9,"co":251.0,"o3":73.0,"so2":3.2,"mosquito_risk":7,"arthritis_risk":5,"migraine_risk":3,"frizz_risk":1,"updated_at":"2026-07-19T18:52:06.012732+05:30"},{"city":"Chennai","state":"Tamil Nadu","latitude":13.0827,"longitude":80.2707,"temp":29.5,"humidity":78,"rain":0.0,"pressure":1003.6,"uv_index":7.5,"wind_gusts":42.8,"aqi":77,"pm10":31.4,"pm2_5":21.9,"no2":11.3,"co":270.0,"o3":90.0,"so2":9.0,"mosquito_risk":7,"arthritis_risk":5,"migraine_risk":4,"frizz_risk":1,"updated_at":"2026-07-19T18:52:06.012741+05:30"},{"city":"Kolkata","state":"West Bengal","latitude":22.5726,"longitude":88.3639,"temp":28.0,"humidity":92,"rain":0.0,"pressure":1002.2,"uv_index":7.05,"wind_gusts":32.4,"aqi":60,"pm10":19.6,"pm2_5":15.9,"no2":6.5,"co":481.0,"o3":75.0,"so2":5.4,"mosquito_risk":7,"arthritis_risk":5,"migraine_risk":4,"frizz_risk":1,"updated_at":"2026-07-19T18:52:06.012751+05:30"},{"city":"Pune","state":"Maharashtra","latitude":18.5204,"longitude":73.8567,"temp":24.3,"humidity":84,"rain":0.0,"pressure":945.0,"uv_index":3.5,"wind_gusts":46.8,"aqi":24,"pm10":4.3,"pm2_5":3.6,"no2":7.3,"co":142.0,"o3":38.0,"so2":3.9,"mosquito_risk":3,"arthritis_risk":5,"migraine_risk":3,"frizz_risk":1,"updated_at":"2026-07-19T18:52:06.012760+05:30"},{"city":"Ahmedabad","state":"Gujarat","latitude":23.0225,"longitude":72.5714,"temp":31.0,"humidity":69,"rain":0.0,"pressure":995.7,"uv_index":6.65,"wind_gusts":32.4,"aqi":64,"pm10":27.8,"pm2_5":13.9,"no2":6.2,"co":157.0,"o3":74.0,"so2":5.4,"mosquito_risk":3,"arthritis_risk":5,"migraine_risk":7,"frizz_risk":1,"updated_at":"2026-07-19T18:52:06.012768+05:30"},{"city":"Jaipur","state":"Rajasthan","latitude":26.9124,"longitude":75.7873,"temp":32.3,"humidity":59,"rain":0.0,"pressure":953.9,"uv_index":7.95,"wind_gusts":34.6,"aqi":127,"pm10":52.9,"pm2_5":23.4,"no2":6.3,"co":143.0,"o3":87.0,"so2":4.2,"mosquito_risk":0,"arthritis_risk":5,"migraine_risk":7,"frizz_risk":1,"updated_at":"2026-07-19T18:52:06.012777+05:30"},{"city":"Lucknow","state":"Uttar Pradesh","latitude":26.8467,"longitude":80.9462,"temp":28.9,"humidity":85,"rain":0.0,"pressure":988.0,"uv_index":5.6,"wind_gusts":24.5,"aqi":152,"pm10":99.7,"pm2_5":51.0,"no2":17.2,"co":370.0,"o3":81.0,"so2":8.6,"mosquito_risk":7,"arthritis_risk":5,"migraine_risk":3,"frizz_risk":1,"updated_at":"2026-07-19T18:52:06.012789+05:30"},{"city":"Kanpur","state":"Uttar Pradesh","latitude":26.4499,"longitude":80.3319,"temp":29.1,"humidity":86,"rain":0.0,"pressure":986.2,"uv_index":6.25,"wind_gusts":24.1,"aqi":154,"pm10":79.4,"pm2_5":39.9,"no2":14.0,"co":330.0,"o3":69.0,"so2":6.7,"mosquito_risk":7,"arthritis_risk":5,"migraine_risk":7,"frizz_risk":1,"updated_at":"2026-07-19T18:52:06.012796+05:30"},{"city":"Chandigarh","state":"Chandigarh","latitude":30.7333,"longitude":76.7794,"temp":30.1,"humidity":82,"rain":0.0,"pressure":962.3,"uv_index":5.85,"wind_gusts":27.7,"aqi":156,"pm10":84.3,"pm2_5":38.6,"no2":16.6,"co":452.0,"o3":88.0,"so2":8.6,"mosquito_risk":3,"arthritis_risk":5,"migraine_risk":3,"frizz_risk":1,"updated_at":"2026-07-19T18:52:06.012806+05:30"},{"city":"Srinagar","state":"Jammu and Kashmir","latitude":34.0837,"longitude":74.7973,"temp":28.2,"humidity":60,"rain":0.0,"pressure":838.3,"uv_index":9.05,"wind_gusts":31.0,"aqi":113,"pm10":12.6,"pm2_5":10.7,"no2":8.3,"co":398.0,"o3":112.0,"so2":3.1,"mosquito_risk":4,"arthritis_risk":5,"migraine_risk":7,"frizz_risk":1,"updated_at":"2026-07-19T18:52:06.012814+05:30"},{"city":"Jammu","state":"Jammu and Kashmir","latitude":32.7266,"longitude":74.857,"temp":30.8,"humidity":76,"rain":0.0,"pressure":965.5,"uv_index":6.55,"wind_gusts":28.4,"aqi":146,"pm10":139.7,"pm2_5":56.1,"no2":9.4,"co":320.0,"o3":109.0,"so2":6.2,"mosquito_risk":3,"arthritis_risk":5,"migraine_risk":7,"frizz_risk":1,"updated_at":"2026-07-19T18:52:06.012822+05:30"},{"city":"Amritsar","state":"Punjab","latitude":31.634,"longitude":74.8723,"temp":32.8,"humidity":75,"rain":0.0,"pressure":973.0,"uv_index":7.8,"wind_gusts":32.0,"aqi":172,"pm10":177.4,"pm2_5":90.8,"no2":11.2,"co":437.0,"o3":123.0,"so2":8.0,"mosquito_risk":3,"arthritis_risk":5,"migraine_risk":7,"frizz_risk":1,"updated_at":"2026-07-19T18:52:06.012831+05:30"},{"city":"Ludhiana","state":"Punjab","latitude":30.901,"longitude":75.8573,"temp":34.1,"humidity":60,"rain":0.0,"pressure":971.3,"uv_index":7.4,"wind_gusts":27.7,"aqi":182,"pm10":184.4,"pm2_5":88.0,"no2":14.2,"co":410.0,"o3":110.0,"so2":15.6,"mosquito_risk":0,"arthritis_risk":5,"migraine_risk":7,"frizz_risk":1,"updated_at":"2026-07-19T18:52:06.012838+05:30"},{"city":"Jalandhar","state":"Punjab","latitude":31.326,"longitude":75.5762,"temp":33.1,"humidity":69,"rain":0.0,"pressure":972.2,"uv_index":3.85,"wind_gusts":29.5,"aqi":173,"pm10":160.2,"pm2_5":77.8,"no2":12.1,"co":426.0,"o3":113.0,"so2":17.1,"mosquito_risk":3,"arthritis_risk":5,"migraine_risk":3,"frizz_risk":1,"updated_at":"2026-07-19T18:52:06.012845+05:30"},{"city":"Dehradun","state":"Uttarakhand","latitude":30.6284,"longitude":78.0322,"temp":20.2,"humidity":99,"rain":0.2,"pressure":827.4,"uv_index":5.1,"wind_gusts":26.6,"aqi":65,"pm10":38.8,"pm2_5":16.0,"no2":4.6,"co":242.0,"o3":97.0,"so2":2.5,"mosquito_risk":6,"arthritis_risk":5,"migraine_risk":3,"frizz_risk":1,"updated_at":"2026-07-19T18:52:06.012860+05:30"},{"city":"Shimla","state":"Himachal Pradesh","latitude":31.1048,"longitude":77.1734,"temp":18.9,"humidity":84,"rain":0.0,"pressure":782.9,"uv_index":3.8,"wind_gusts":42.1,"aqi":79,"pm10":33.9,"pm2_5":13.7,"no2":4.8,"co":232.0,"o3":92.0,"so2":1.4,"mosquito_risk":3,"arthritis_risk":10,"migraine_risk":3,"frizz_risk":1,"updated_at":"2026-07-19T18:52:06.012868+05:30"},{"city":"Manali","state":"Himachal Pradesh","latitude":32.2396,"longitude":77.1887,"temp":20.9,"humidity":99,"rain":0.1,"pressure":817.4,"uv_index":5.15,"wind_gusts":32.0,"aqi":51,"pm10":4.8,"pm2_5":3.6,"no2":7.8,"co":192.0,"o3":104.0,"so2":0.8,"mosquito_risk":6,"arthritis_risk":5,"migraine_risk":3,"frizz_risk":1,"updated_at":"2026-07-19T18:52:06.012877+05:30"},{"city":"Gurgaon","state":"Haryana","latitude":28.4595,"longitude":77.0266,"temp":31.3,"humidity":73,"rain":0.0,"pressure":974.8,"uv_index":7.0,"wind_gusts":28.4,"aqi":269,"pm10":434.0,"pm2_5":102.0,"no2":27.9,"co":372.0,"o3":71.0,"so2":11.7,"mosquito_risk":3,"arthritis_risk":5,"migraine_risk":7,"frizz_risk":1,"updated_at":"2026-07-19T18:52:06.012884+05:30"},{"city":"Noida","state":"Uttar Pradesh","latitude":28.5355,"longitude":77.391,"temp":30.8,"humidity":79,"rain":0.0,"pressure":978.0,"uv_index":5.3,"wind_gusts":25.6,"aqi":269,"pm10":434.0,"pm2_5":102.0,"no2":27.9,"co":374.0,"o3":71.0,"so2":11.7,"mosquito_risk":3,"arthritis_risk":5,"migraine_risk":3,"frizz_risk":1,"updated_at":"2026-07-19T18:52:06.012892+05:30"},{"city":"Ghaziabad","state":"Uttar Pradesh","latitude":28.6692,"longitude":77.4538,"temp":30.1,"humidity":86,"rain":0.0,"pressure":976.2,"uv_index":6.35,"wind_gusts":25.2,"aqi":227,"pm10":491.7,"pm2_5":127.1,"no2":23.1,"co":353.0,"o3":125.0,"so2":19.4,"mosquito_risk":3,"arthritis_risk":5,"migraine_risk":7,"frizz_risk":1,"updated_at":"2026-07-19T18:52:06.012899+05:30"},{"city":"Faridabad","state":"Haryana","latitude":28.4089,"longitude":77.3178,"temp":31.3,"humidity":71,"rain":0.0,"pressure":977.3,"uv_index":6.05,"wind_gusts":30.2,"aqi":269,"pm10":434.0,"pm2_5":102.0,"no2":27.9,"co":324.0,"o3":71.0,"so2":11.7,"mosquito_risk":3,"arthritis_risk":5,"migraine_risk":7,"frizz_risk":1,"updated_at":"2026-07-19T18:52:06.012907+05:30"},{"city":"Meerut","state":"Uttar Pradesh","latitude":28.9845,"longitude":77.7064,"temp":29.3,"humidity":92,"rain":0.0,"pressure":975.1,"uv_index":6.5,"wind_gusts":41.4,"aqi":227,"pm10":491.7,"pm2_5":127.1,"no2":23.1,"co":419.0,"o3":125.0,"so2":19.4,"mosquito_risk":7,"arthritis_risk":5,"migraine_risk":7,"frizz_risk":1,"updated_at":"2026-07-19T18:52:06.012914+05:30"},{"city":"Agra","state":"Uttar Pradesh","latitude":27.1767,"longitude":78.0081,"temp":30.4,"humidity":79,"rain":0.0,"pressure":981.9,"uv_index":3.55,"wind_gusts":36.0,"aqi":170,"pm10":102.0,"pm2_5":47.0,"no2":22.8,"co":207.0,"o3":73.0,"so2":7.5,"mosquito_risk":3,"arthritis_risk":5,"migraine_risk":3,"frizz_risk":1,"updated_at":"2026-07-19T18:52:06.012921+05:30"},{"city":"Varanasi","state":"Uttar Pradesh","latitude":25.3176,"longitude":82.9739,"temp":29.4,"humidity":85,"rain":0.0,"pressure":991.9,"uv_index":6.85,"wind_gusts":20.9,"aqi":117,"pm10":36.6,"pm2_5":29.3,"no2":12.8,"co":615.0,"o3":101.0,"so2":9.5,"mosquito_risk":7,"arthritis_risk":5,"migraine_risk":7,"frizz_risk":1,"updated_at":"2026-07-19T18:52:06.012929+05:30"},{"city":"Prayagraj","state":"Uttar Pradesh","latitude":25.4358,"longitude":81.8463,"temp":29.4,"humidity":83,"rain":0.0,"pressure":990.5,"uv_index":5.8,"wind_gusts":19.8,"aqi":130,"pm10":53.2,"pm2_5":36.1,"no2":15.4,"co":318.0,"o3":79.0,"so2":9.0,"mosquito_risk":7,"arthritis_risk":5,"migraine_risk":3,"frizz_risk":1,"updated_at":"2026-07-19T18:52:06.012937+05:30"},{"city":"Gorakhpur","state":"Uttar Pradesh","latitude":26.7606,"longitude":83.3732,"temp":29.0,"humidity":87,"rain":0.0,"pressure":991.7,"uv_index":7.1,"wind_gusts":25.9,"aqi":73,"pm10":15.3,"pm2_5":15.3,"no2":9.4,"co":442.0,"o3":107.0,"so2":6.0,"mosquito_risk":7,"arthritis_risk":5,"migraine_risk":7,"frizz_risk":1,"updated_at":"2026-07-19T18:52:06.012944+05:30"},{"city":"Bareilly","state":"Uttar Pradesh","latitude":28.367,"longitude":79.4304,"temp":27.2,"humidity":92,"rain":0.2,"pressure":981.4,"uv_index":5.25,"wind_gusts":31.7,"aqi":152,"pm10":66.4,"pm2_5":42.8,"no2":12.1,"co":384.0,"o3":90.0,"so2":8.9,"mosquito_risk":10,"arthritis_risk":5,"migraine_risk":3,"frizz_risk":1,"updated_at":"2026-07-19T18:52:06.012953+05:30"},{"city":"Aligarh","state":"Uttar Pradesh","latitude":27.8974,"longitude":78.088,"temp":29.7,"humidity":85,"rain":0.0,"pressure":979.2,"uv_index":6.4,"wind_gusts":28.4,"aqi":189,"pm10":291.5,"pm2_5":85.2,"no2":18.1,"co":296.0,"o3":105.0,"so2":10.9,"mosquito_risk":7,"arthritis_risk":5,"migraine_risk":7,"frizz_risk":1,"updated_at":"2026-07-19T18:52:06.012961+05:30"},{"city":"Moradabad","state":"Uttar Pradesh","latitude":28.8386,"longitude":78.7733,"temp":27.6,"humidity":92,"rain":0.0,"pressure":977.9,"uv_index":2.35,"wind_gusts":34.6,"aqi":161,"pm10":112.7,"pm2_5":57.4,"no2":11.5,"co":377.0,"o3":107.0,"so2":12.5,"mosquito_risk":7,"arthritis_risk":5,"migraine_risk":3,"frizz_risk":1,"updated_at":"2026-07-19T18:52:06.012968+05:30"},{"city":"Saharanpur","state":"Uttar Pradesh","latitude":29.9637,"longitude":77.546,"temp":27.4,"humidity":95,"rain":0.0,"pressure":969.6,"uv_index":6.5,"wind_gusts":33.1,"aqi":178,"pm10":231.0,"pm2_5":89.9,"no2":9.7,"co":390.0,"o3":134.0,"so2":16.9,"mosquito_risk":7,"arthritis_risk":5,"migraine_risk":7,"frizz_risk":1,"updated_at":"2026-07-19T18:52:06.012976+05:30"},{"city":"Jhansi","state":"Uttar Pradesh","latitude":25.4484,"longitude":78.5685,"temp":27.9,"humidity":93,"rain":0.0,"pressure":972.7,"uv_index":6.9,"wind_gusts":31.0,"aqi":89,"pm10":34.6,"pm2_5":24.2,"no2":8.2,"co":152.0,"o3":82.0,"so2":10.8,"mosquito_risk":7,"arthritis_risk":5,"migraine_risk":7,"frizz_risk":1,"updated_at":"2026-07-19T18:52:09.341275+05:30"},{"city":"Surat","state":"Gujarat","latitude":21.1702,"longitude":72.8311,"temp":29.0,"humidity":77,"rain":0.0,"pressure":1001.4,"uv_index":7.45,"wind_gusts":43.2,"aqi":70,"pm10":17.2,"pm2_5":13.2,"no2":14.8,"co":228.0,"o3":35.0,"so2":29.5,"mosquito_risk":7,"arthritis_risk":5,"migraine_risk":4,"frizz_risk":1,"updated_at":"2026-07-19T18:52:09.341308+05:30"},{"city":"Vadodara","state":"Gujarat","latitude":22.3072,"longitude":73.1812,"temp":30.1,"humidity":74,"rain":0.0,"pressure":998.5,"uv_index":6.1,"wind_gusts":31.3,"aqi":65,"pm10":28.4,"pm2_5":17.9,"no2":8.9,"co":140.0,"o3":73.0,"so2":13.1,"mosquito_risk":3,"arthritis_risk":5,"migraine_risk":7,"frizz_risk":1,"updated_at":"2026-07-19T18:52:09.341318+05:30"},{"city":"Rajkot","state":"Gujarat","latitude":22.3039,"longitude":70.8022,"temp":31.3,"humidity":61,"rain":0.0,"pressure":987.4,"uv_index":6.0,"wind_gusts":45.4,"aqi":61,"pm10":26.8,"pm2_5":13.3,"no2":3.5,"co":103.0,"o3":60.0,"so2":4.6,"mosquito_risk":3,"arthritis_risk":5,"migraine_risk":3,"frizz_risk":1,"updated_at":"2026-07-19T18:52:09.341327+05:30"},{"city":"Thane","state":"Maharashtra","latitude":19.2183,"longitude":72.9781,"temp":25.3,"humidity":96,"rain":0.1,"pressure":1004.6,"uv_index":5.5,"wind_gusts":38.9,"aqi":61,"pm10":22.2,"pm2_5":10.7,"no2":7.7,"co":228.0,"o3":47.0,"so2":5.1,"mosquito_risk":10,"arthritis_risk":5,"migraine_risk":0,"frizz_risk":1,"updated_at":"2026-07-19T18:52:09.341336+05:30"},{"city":"Nagpur","state":"Maharashtra","latitude":21.1458,"longitude":79.0882,"temp":26.9,"humidity":90,"rain":0.2,"pressure":969.1,"uv_index":5.35,"wind_gusts":31.3,"aqi":61,"pm10":20.1,"pm2_5":14.6,"no2":15.4,"co":316.0,"o3":57.0,"so2":13.3,"mosquito_risk":10,"arthritis_risk":5,"migraine_risk":3,"frizz_risk":1,"updated_at":"2026-07-19T18:52:09.341345+05:30"},{"city":"Nashik","state":"Maharashtra","latitude":19.9975,"longitude":73.7898,"temp":23.3,"humidity":94,"rain":0.0,"pressure":941.6,"uv_index":4.65,"wind_gusts":36.7,"aqi":26,"pm10":3.3,"pm2_5":2.5,"no2":5.9,"co":124.0,"o3":46.0,"so2":3.0,"mosquito_risk":3,"arthritis_risk":5,"migraine_risk":3,"frizz_risk":1,"updated_at":"2026-07-19T18:52:09.341353+05:30"},{"city":"Aurangabad","state":"Maharashtra","latitude":19.8762,"longitude":75.3433,"temp":23.6,"humidity":94,"rain":0.1,"pressure":940.4,"uv_index":6.5,"wind_gusts":40.7,"aqi":35,"pm10":11.7,"pm2_5":7.9,"no2":4.8,"co":147.0,"o3":65.0,"so2":7.4,"mosquito_risk":6,"arthritis_risk":5,"migraine_risk":7,"frizz_risk":1,"updated_at":"2026-07-19T18:52:09.341360+05:30"},{"city":"Solapur","state":"Maharashtra","latitude":17.6599,"longitude":75.9064,"temp":25.0,"humidity":93,"rain":0.1,"pressure":954.4,"uv_index":3.05,"wind_gusts":48.6,"aqi":39,"pm10":17.2,"pm2_5":9.6,"no2":3.5,"co":128.0,"o3":57.0,"so2":1.7,"mosquito_risk":10,"arthritis_risk":5,"migraine_risk":3,"frizz_risk":1,"updated_at":"2026-07-19T18:52:09.341367+05:30"},{"city":"Kolhapur","state":"Maharashtra","latitude":16.705,"longitude":74.2433,"temp":23.2,"humidity":90,"rain":0.0,"pressure":945.9,"uv_index":8.0,"wind_gusts":48.2,"aqi":29,"pm10":6.7,"pm2_5":4.4,"no2":4.6,"co":136.0,"o3":40.0,"so2":1.9,"mosquito_risk":3,"arthritis_risk":5,"migraine_risk":7,"frizz_risk":1,"updated_at":"2026-07-19T18:52:09.341375+05:30"},{"city":"Goa","state":"Goa","latitude":15.2993,"longitude":74.124,"temp":24.6,"humidity":98,"rain":0.3,"pressure":997.7,"uv_index":6.5,"wind_gusts":25.6,"aqi":63,"pm10":22.2,"pm2_5":11.3,"no2":2.6,"co":233.0,"o3":46.0,"so2":1.2,"mosquito_risk":6,"arthritis_risk":5,"migraine_risk":7,"frizz_risk":1,"updated_at":"2026-07-19T18:52:09.341382+05:30"},{"city":"Jodhpur","state":"Rajasthan","latitude":26.2389,"longitude":73.0243,"temp":35.0,"humidity":41,"rain":0.0,"pressure":975.7,"uv_index":7.65,"wind_gusts":42.1,"aqi":99,"pm10":121.1,"pm2_5":26.2,"no2":2.7,"co":114.0,"o3":77.0,"so2":1.7,"mosquito_risk":0,"arthritis_risk":5,"migraine_risk":7,"frizz_risk":1,"updated_at":"2026-07-19T18:52:09.341390+05:30"},{"city":"Udaipur","state":"Rajasthan","latitude":24.5854,"longitude":73.7125,"temp":29.2,"humidity":58,"rain":0.0,"pressure":940.9,"uv_index":6.25,"wind_gusts":29.9,"aqi":64,"pm10":33.6,"pm2_5":16.6,"no2":2.5,"co":116.0,"o3":87.0,"so2":4.1,"mosquito_risk":4,"arthritis_risk":5,"migraine_risk":7,"frizz_risk":1,"updated_at":"2026-07-19T18:52:09.341397+05:30"},{"city":"Kota","state":"Rajasthan","latitude":25.2138,"longitude":75.8648,"temp":31.6,"humidity":58,"rain":0.0,"pressure":972.8,"uv_index":7.65,"wind_gusts":28.1,"aqi":78,"pm10":39.8,"pm2_5":22.9,"no2":6.8,"co":137.0,"o3":100.0,"so2":8.4,"mosquito_risk":0,"arthritis_risk":5,"migraine_risk":7,"frizz_risk":1,"updated_at":"2026-07-19T18:52:09.341405+05:30"},{"city":"Bikaner","state":"Rajasthan","latitude":28.0229,"longitude":73.3119,"temp":36.8,"humidity":36,"rain":0.0,"pressure":974.0,"uv_index":8.05,"wind_gusts":35.3,"aqi":122,"pm10":100.4,"pm2_5":27.8,"no2":1.0,"co":112.0,"o3":78.0,"so2":2.2,"mosquito_risk":0,"arthritis_risk":5,"migraine_risk":10,"frizz_risk":1,"updated_at":"2026-07-19T18:52:09.341412+05:30"},{"city":"Ajmer","state":"Rajasthan","latitude":26.4499,"longitude":74.6399,"temp":32.0,"humidity":55,"rain":0.0,"pressure":948.8,"uv_index":8.15,"wind_gusts":43.6,"aqi":73,"pm10":30.9,"pm2_5":17.1,"no2":3.8,"co":131.0,"o3":88.0,"so2":2.9,"mosquito_risk":0,"arthritis_risk":5,"migraine_risk":7,"frizz_risk":1,"updated_at":"2026-07-19T18:52:09.341420+05:30"},{"city":"Gwalior","state":"Madhya Pradesh","latitude":26.2183,"longitude":78.1828,"temp":28.3,"humidity":88,"rain":0.0,"pressure":977.5,"uv_index":6.7,"wind_gusts":32.0,"aqi":104,"pm10":49.7,"pm2_5":28.3,"no2":7.7,"co":182.0,"o3":81.0,"so2":4.0,"mosquito_risk":7,"arthritis_risk":5,"migraine_risk":7,"frizz_risk":1,"updated_at":"2026-07-19T18:52:09.341427+05:30"},{"city":"Indore","state":"Madhya Pradesh","latitude":22.7196,"longitude":75.8577,"temp":27.0,"humidity":82,"rain":0.0,"pressure":943.2,"uv_index":7.95,"wind_gusts":43.6,"aqi":64,"pm10":22.8,"pm2_5":15.5,"no2":6.8,"co":200.0,"o3":80.0,"so2":5.0,"mosquito_risk":7,"arthritis_risk":5,"migraine_risk":7,"frizz_risk":1,"updated_at":"2026-07-19T18:52:09.341434+05:30"},{"city":"Bhopal","state":"Madhya Pradesh","latitude":23.2599,"longitude":77.4126,"temp":28.1,"humidity":79,"rain":0.0,"pressure":948.9,"uv_index":7.9,"wind_gusts":29.2,"aqi":73,"pm10":19.2,"pm2_5":14.4,"no2":6.1,"co":303.0,"o3":71.0,"so2":3.2,"mosquito_risk":7,"arthritis_risk":5,"migraine_risk":7,"frizz_risk":1,"updated_at":"2026-07-19T18:52:09.341442+05:30"},{"city":"Jabalpur","state":"Madhya Pradesh","latitude":23.1815,"longitude":79.9864,"temp":26.5,"humidity":94,"rain":0.0,"pressure":957.2,"uv_index":7.95,"wind_gusts":31.3,"aqi":86,"pm10":37.8,"pm2_5":24.3,"no2":5.2,"co":235.0,"o3":90.0,"so2":3.5,"mosquito_risk":7,"arthritis_risk":5,"migraine_risk":7,"frizz_risk":1,"updated_at":"2026-07-19T18:52:09.341449+05:30"},{"city":"Ujjain","state":"Madhya Pradesh","latitude":23.1765,"longitude":75.7885,"temp":27.5,"humidity":79,"rain":0.0,"pressure":948.7,"uv_index":7.5,"wind_gusts":31.7,"aqi":64,"pm10":23.6,"pm2_5":15.1,"no2":3.9,"co":192.0,"o3":80.0,"so2":3.6,"mosquito_risk":7,"arthritis_risk":5,"migraine_risk":7,"frizz_risk":1,"updated_at":"2026-07-19T18:52:09.341456+05:30"},{"city":"Visakhapatnam","state":"Andhra Pradesh","latitude":17.6868,"longitude":83.2185,"temp":29.5,"humidity":81,"rain":0.0,"pressure":998.5,"uv_index":8.4,"wind_gusts":35.3,"aqi":106,"pm10":25.6,"pm2_5":21.2,"no2":16.7,"co":343.0,"o3":93.0,"so2":31.4,"mosquito_risk":7,"arthritis_risk":5,"migraine_risk":7,"frizz_risk":1,"updated_at":"2026-07-19T18:52:09.341464+05:30"},{"city":"Vijayawada","state":"Andhra Pradesh","latitude":16.5062,"longitude":80.648,"temp":30.2,"humidity":76,"rain":0.0,"pressure":998.2,"uv_index":8.35,"wind_gusts":37.8,"aqi":63,"pm10":12.9,"pm2_5":10.4,"no2":7.7,"co":226.0,"o3":70.0,"so2":4.4,"mosquito_risk":3,"arthritis_risk":5,"migraine_risk":7,"frizz_risk":1,"updated_at":"2026-07-19T18:52:09.341472+05:30"},{"city":"Guntur","state":"Andhra Pradesh","latitude":16.3067,"longitude":80.4365,"temp":31.7,"humidity":61,"rain":0.0,"pressure":999.3,"uv_index":7.8,"wind_gusts":40.3,"aqi":57,"pm10":11.9,"pm2_5":9.5,"no2":7.7,"co":237.0,"o3":65.0,"so2":3.8,"mosquito_risk":3,"arthritis_risk":5,"migraine_risk":7,"frizz_risk":1,"updated_at":"2026-07-19T18:52:09.341480+05:30"},{"city":"Nellore","state":"Andhra Pradesh","latitude":14.4426,"longitude":79.9865,"temp":30.0,"humidity":71,"rain":0.0,"pressure":1001.8,"uv_index":7.55,"wind_gusts":38.2,"aqi":59,"pm10":30.2,"pm2_5":20.2,"no2":5.3,"co":156.0,"o3":97.0,"so2":4.4,"mosquito_risk":7,"arthritis_risk":5,"migraine_risk":4,"frizz_risk":1,"updated_at":"2026-07-19T18:52:09.341488+05:30"},{"city":"Kurnool","state":"Andhra Pradesh","latitude":15.8281,"longitude":78.0373,"temp":24.4,"humidity":92,"rain":0.3,"pressure":974.6,"uv_index":8.1,"wind_gusts":43.9,"aqi":41,"pm10":32.0,"pm2_5":15.3,"no2":3.5,"co":134.0,"o3":72.0,"so2":5.1,"mosquito_risk":6,"arthritis_risk":5,"migraine_risk":7,"frizz_risk":1,"updated_at":"2026-07-19T18:52:09.341496+05:30"},{"city":"Kakinada","state":"Andhra Pradesh","latitude":16.9891,"longitude":82.2475,"temp":31.6,"humidity":66,"rain":0.0,"pressure":1002.3,"uv_index":8.85,"wind_gusts":45.0,"aqi":70,"pm10":17.9,"pm2_5":13.8,"no2":3.7,"co":221.0,"o3":106.0,"so2":3.7,"mosquito_risk":3,"arthritis_risk":5,"migraine_risk":4,"frizz_risk":1,"updated_at":"2026-07-19T18:52:09.341503+05:30"},{"city":"Tirupati","state":"Andhra Pradesh","latitude":13.6288,"longitude":79.4192,"temp":26.9,"humidity":87,"rain":0.0,"pressure":987.6,"uv_index":7.85,"wind_gusts":32.0,"aqi":63,"pm10":33.4,"pm2_5":20.1,"no2":14.7,"co":223.0,"o3":42.0,"so2":2.4,"mosquito_risk":7,"arthritis_risk":5,"migraine_risk":7,"frizz_risk":1,"updated_at":"2026-07-19T18:52:09.341511+05:30"},{"city":"Warangal","state":"Telangana","latitude":17.9689,"longitude":79.5941,"temp":27.9,"humidity":83,"rain":0.2,"pressure":974.6,"uv_index":7.15,"wind_gusts":38.9,"aqi":53,"pm10":17.5,"pm2_5":12.1,"no2":5.4,"co":175.0,"o3":70.0,"so2":3.4,"mosquito_risk":10,"arthritis_risk":5,"migraine_risk":7,"frizz_risk":1,"updated_at":"2026-07-19T18:52:09.341517+05:30"},{"city":"Nizamabad","state":"Telangana","latitude":18.6725,"longitude":78.0941,"temp":26.1,"humidity":92,"rain":0.0,"pressure":961.0,"uv_index":0.9,"wind_gusts":37.8,"aqi":55,"pm10":27.1,"pm2_5":13.8,"no2":2.6,"co":170.0,"o3":81.0,"so2":4.4,"mosquito_risk":7,"arthritis_risk":5,"migraine_risk":3,"frizz_risk":1,"updated_at":"2026-07-19T18:52:09.341550+05:30"},{"city":"Mysore","state":"Karnataka","latitude":12.2958,"longitude":76.6396,"temp":23.9,"humidity":81,"rain":0.0,"pressure":927.8,"uv_index":6.8,"wind_gusts":45.7,"aqi":39,"pm10":14.1,"pm2_5":8.3,"no2":4.4,"co":132.0,"o3":57.0,"so2":1.8,"mosquito_risk":3,"arthritis_risk":5,"migraine_risk":7,"frizz_risk":1,"updated_at":"2026-07-19T18:52:09.341558+05:30"},{"city":"Mangalore","state":"Karnataka","latitude":12.9141,"longitude":74.856,"temp":25.3,"humidity":91,"rain":0.0,"pressure":1007.2,"uv_index":8.25,"wind_gusts":31.0,"aqi":57,"pm10":16.2,"pm2_5":8.6,"no2":3.2,"co":113.0,"o3":43.0,"so2":1.6,"mosquito_risk":7,"arthritis_risk":5,"migraine_risk":4,"frizz_risk":1,"updated_at":"2026-07-19T18:52:09.341566+05:30"},{"city":"Hubli-Dharwad","state":"Karnataka","latitude":15.3647,"longitude":75.124,"temp":24.1,"humidity":82,"rain":0.0,"pressure":939.4,"uv_index":7.5,"wind_gusts":54.0,"aqi":26,"pm10":8.1,"pm2_5":4.9,"no2":3.8,"co":114.0,"o3":45.0,"so2":1.2,"mosquito_risk":3,"arthritis_risk":5,"migraine_risk":7,"frizz_risk":1,"updated_at":"2026-07-19T18:52:09.341573+05:30"},{"city":"Belgaum","state":"Karnataka","latitude":15.8497,"longitude":74.4977,"temp":22.2,"humidity":92,"rain":0.0,"pressure":923.9,"uv_index":7.75,"wind_gusts":53.6,"aqi":23,"pm10":3.7,"pm2_5":2.6,"no2":4.4,"co":110.0,"o3":39.0,"so2":1.4,"mosquito_risk":3,"arthritis_risk":5,"migraine_risk":7,"frizz_risk":1,"updated_at":"2026-07-19T18:52:12.671833+05:30"},{"city":"Coimbatore","state":"Tamil Nadu","latitude":11.0168,"longitude":76.9558,"temp":25.1,"humidity":84,"rain":0.0,"pressure":960.5,"uv_index":7.9,"wind_gusts":45.7,"aqi":45,"pm10":8.4,"pm2_5":5.6,"no2":3.7,"co":154.0,"o3":53.0,"so2":2.2,"mosquito_risk":7,"arthritis_risk":5,"migraine_risk":7,"frizz_risk":1,"updated_at":"2026-07-19T18:52:12.671867+05:30"},{"city":"Madurai","state":"Tamil Nadu","latitude":9.9252,"longitude":78.1198,"temp":30.7,"humidity":62,"rain":0.0,"pressure":991.6,"uv_index":7.95,"wind_gusts":38.9,"aqi":71,"pm10":29.5,"pm2_5":15.4,"no2":5.5,"co":141.0,"o3":86.0,"so2":3.2,"mosquito_risk":3,"arthritis_risk":5,"migraine_risk":7,"frizz_risk":1,"updated_at":"2026-07-19T18:52:12.671878+05:30"},{"city":"Trichy","state":"Tamil Nadu","latitude":10.7905,"longitude":78.7047,"temp":28.6,"humidity":83,"rain":0.3,"pressure":997.7,"uv_index":8.4,"wind_gusts":42.8,"aqi":53,"pm10":25.4,"pm2_5":13.9,"no2":4.2,"co":122.0,"o3":76.0,"so2":2.7,"mosquito_risk":10,"arthritis_risk":5,"migraine_risk":7,"frizz_risk":1,"updated_at":"2026-07-19T18:52:12.671887+05:30"},{"city":"Salem","state":"Tamil Nadu","latitude":11.6643,"longitude":78.146,"temp":28.4,"humidity":72,"rain":0.1,"pressure":975.7,"uv_index":6.3,"wind_gusts":38.2,"aqi":64,"pm10":19.3,"pm2_5":10.9,"no2":7.4,"co":258.0,"o3":69.0,"so2":4.9,"mosquito_risk":10,"arthritis_risk":5,"migraine_risk":7,"frizz_risk":1,"updated_at":"2026-07-19T18:52:12.671896+05:30"},{"city":"Tirunelveli","state":"Tamil Nadu","latitude":8.7139,"longitude":77.7567,"temp":31.9,"humidity":52,"rain":0.0,"pressure":1001.7,"uv_index":8.5,"wind_gusts":49.0,"aqi":38,"pm10":8.8,"pm2_5":6.6,"no2":3.0,"co":115.0,"o3":61.0,"so2":1.9,"mosquito_risk":0,"arthritis_risk":5,"migraine_risk":4,"frizz_risk":1,"updated_at":"2026-07-19T18:52:12.671904+05:30"},{"city":"Vellore","state":"Tamil Nadu","latitude":12.9165,"longitude":79.1325,"temp":30.5,"humidity":64,"rain":0.0,"pressure":981.2,"uv_index":7.15,"wind_gusts":36.7,"aqi":66,"pm10":27.5,"pm2_5":17.1,"no2":12.9,"co":138.0,"o3":54.0,"so2":3.2,"mosquito_risk":3,"arthritis_risk":5,"migraine_risk":7,"frizz_risk":1,"updated_at":"2026-07-19T18:52:12.671912+05:30"},{"city":"Erode","state":"Tamil Nadu","latitude":11.341,"longitude":77.7172,"temp":31.1,"humidity":59,"rain":0.0,"pressure":987.4,"uv_index":7.35,"wind_gusts":37.8,"aqi":54,"pm10":16.3,"pm2_5":9.7,"no2":7.3,"co":157.0,"o3":60.0,"so2":2.5,"mosquito_risk":0,"arthritis_risk":5,"migraine_risk":7,"frizz_risk":1,"updated_at":"2026-07-19T18:52:12.671920+05:30"},{"city":"Kochi","state":"Kerala","latitude":9.9312,"longitude":76.2673,"temp":27.0,"humidity":85,"rain":0.2,"pressure":1009.2,"uv_index":8.4,"wind_gusts":32.0,"aqi":55,"pm10":13.8,"pm2_5":9.1,"no2":8.3,"co":121.0,"o3":41.0,"so2":3.5,"mosquito_risk":10,"arthritis_risk":0,"migraine_risk":4,"frizz_risk":1,"updated_at":"2026-07-19T18:52:12.671928+05:30"},{"city":"Thiruvananthapuram","state":"Kerala","latitude":8.5241,"longitude":76.9366,"temp":26.1,"humidity":87,"rain":0.0,"pressure":1008.7,"uv_index":7.95,"wind_gusts":42.1,"aqi":50,"pm10":14.3,"pm2_5":8.3,"no2":3.1,"co":109.0,"o3":58.0,"so2":1.1,"mosquito_risk":7,"arthritis_risk":0,"migraine_risk":4,"frizz_risk":1,"updated_at":"2026-07-19T18:52:12.671936+05:30"},{"city":"Kozhikode","state":"Kerala","latitude":11.2588,"longitude":75.7804,"temp":25.3,"humidity":91,"rain":0.1,"pressure":1008.5,"uv_index":8.0,"wind_gusts":33.1,"aqi":43,"pm10":11.8,"pm2_5":5.7,"no2":0.9,"co":140.0,"o3":52.0,"so2":1.0,"mosquito_risk":10,"arthritis_risk":0,"migraine_risk":4,"frizz_risk":1,"updated_at":"2026-07-19T18:52:12.671942+05:30"},{"city":"Thrissur","state":"Kerala","latitude":10.5276,"longitude":76.2144,"temp":26.7,"humidity":85,"rain":0.0,"pressure":1007.5,"uv_index":8.15,"wind_gusts":32.8,"aqi":53,"pm10":10.7,"pm2_5":7.8,"no2":5.4,"co":145.0,"o3":40.0,"so2":2.2,"mosquito_risk":7,"arthritis_risk":5,"migraine_risk":4,"frizz_risk":1,"updated_at":"2026-07-19T18:52:12.671950+05:30"},{"city":"Kannur","state":"Kerala","latitude":11.8745,"longitude":75.3704,"temp":26.4,"humidity":87,"rain":0.1,"pressure":1007.6,"uv_index":8.0,"wind_gusts":31.0,"aqi":51,"pm10":16.9,"pm2_5":8.7,"no2":4.5,"co":130.0,"o3":40.0,"so2":1.4,"mosquito_risk":10,"arthritis_risk":5,"migraine_risk":4,"frizz_risk":1,"updated_at":"2026-07-19T18:52:12.671957+05:30"},{"city":"Patna","state":"Bihar","latitude":25.5941,"longitude":85.1376,"temp":27.7,"humidity":95,"rain":0.1,"pressure":995.3,"uv_index":7.35,"wind_gusts":28.8,"aqi":82,"pm10":26.5,"pm2_5":26.4,"no2":15.5,"co":457.0,"o3":92.0,"so2":11.6,"mosquito_risk":10,"arthritis_risk":5,"migraine_risk":7,"frizz_risk":1,"updated_at":"2026-07-19T18:52:12.671964+05:30"},{"city":"Gaya","state":"Bihar","latitude":24.7914,"longitude":85.0002,"temp":28.6,"humidity":87,"rain":0.0,"pressure":988.4,"uv_index":8.45,"wind_gusts":24.8,"aqi":76,"pm10":17.6,"pm2_5":17.3,"no2":9.6,"co":340.0,"o3":92.0,"so2":6.7,"mosquito_risk":7,"arthritis_risk":5,"migraine_risk":7,"frizz_risk":1,"updated_at":"2026-07-19T18:52:12.671971+05:30"},{"city":"Muzaffarpur","state":"Bihar","latitude":26.1209,"longitude":85.3647,"temp":28.0,"humidity":92,"rain":0.1,"pressure":995.6,"uv_index":7.0,"wind_gusts":28.4,"aqi":72,"pm10":27.4,"pm2_5":27.2,"no2":15.1,"co":386.0,"o3":90.0,"so2":10.3,"mosquito_risk":10,"arthritis_risk":5,"migraine_risk":7,"frizz_risk":1,"updated_at":"2026-07-19T18:52:12.671978+05:30"},{"city":"Bhagalpur","state":"Bihar","latitude":25.2425,"longitude":87.0117,"temp":27.8,"humidity":93,"rain":0.2,"pressure":996.9,"uv_index":7.55,"wind_gusts":27.0,"aqi":77,"pm10":24.3,"pm2_5":23.7,"no2":12.5,"co":278.0,"o3":93.0,"so2":10.3,"mosquito_risk":10,"arthritis_risk":5,"migraine_risk":7,"frizz_risk":1,"updated_at":"2026-07-19T18:52:12.671984+05:30"},{"city":"Ranchi","state":"Jharkhand","latitude":23.3441,"longitude":85.3096,"temp":23.9,"humidity":96,"rain":0.1,"pressure":933.3,"uv_index":8.1,"wind_gusts":24.8,"aqi":75,"pm10":22.8,"pm2_5":19.8,"no2":6.1,"co":266.0,"o3":106.0,"so2":8.3,"mosquito_risk":6,"arthritis_risk":5,"migraine_risk":7,"frizz_risk":1,"updated_at":"2026-07-19T18:52:12.671991+05:30"},{"city":"Jamshedpur","state":"Jharkhand","latitude":22.8046,"longitude":86.2029,"temp":26.3,"humidity":97,"rain":0.0,"pressure":986.0,"uv_index":8.2,"wind_gusts":29.9,"aqi":100,"pm10":21.7,"pm2_5":21.2,"no2":10.3,"co":436.0,"o3":88.0,"so2":14.0,"mosquito_risk":7,"arthritis_risk":5,"migraine_risk":7,"frizz_risk":1,"updated_at":"2026-07-19T18:52:12.671998+05:30"},{"city":"Dhanbad","state":"Jharkhand","latitude":23.7957,"longitude":86.4304,"temp":26.2,"humidity":95,"rain":0.1,"pressure":975.5,"uv_index":7.8,"wind_gusts":27.7,"aqi":150,"pm10":46.4,"pm2_5":46.0,"no2":38.7,"co":535.0,"o3":68.0,"so2":77.7,"mosquito_risk":10,"arthritis_risk":5,"migraine_risk":7,"frizz_risk":1,"updated_at":"2026-07-19T18:52:12.672004+05:30"},{"city":"Bokaro","state":"Jharkhand","latitude":23.6693,"longitude":86.1511,"temp":26.9,"humidity":94,"rain":0.0,"pressure":979.1,"uv_index":8.3,"wind_gusts":28.1,"aqi":152,"pm10":44.2,"pm2_5":43.5,"no2":33.5,"co":828.0,"o3":82.0,"so2":78.8,"mosquito_risk":7,"arthritis_risk":5,"migraine_risk":7,"frizz_risk":1,"updated_at":"2026-07-19T18:52:12.672011+05:30"},{"city":"Bhubaneswar","state":"Odisha","latitude":20.2961,"longitude":85.8245,"temp":28.2,"humidity":89,"rain":0.1,"pressure":998.4,"uv_index":8.3,"wind_gusts":31.0,"aqi":78,"pm10":34.6,"pm2_5":29.1,"no2":8.7,"co":334.0,"o3":106.0,"so2":6.1,"mosquito_risk":10,"arthritis_risk":5,"migraine_risk":7,"frizz_risk":1,"updated_at":"2026-07-19T18:52:12.672018+05:30"},{"city":"Cuttack","state":"Odisha","latitude":20.4625,"longitude":85.8828,"temp":27.3,"humidity":95,"rain":0.2,"pressure":1000.5,"uv_index":8.65,"wind_gusts":34.9,"aqi":78,"pm10":34.6,"pm2_5":29.1,"no2":8.7,"co":334.0,"o3":106.0,"so2":6.1,"mosquito_risk":10,"arthritis_risk":5,"migraine_risk":4,"frizz_risk":1,"updated_at":"2026-07-19T18:52:12.672026+05:30"},{"city":"Rourkela","state":"Odisha","latitude":22.2604,"longitude":84.8536,"temp":26.8,"humidity":94,"rain":0.1,"pressure":980.6,"uv_index":7.4,"wind_gusts":29.2,"aqi":105,"pm10":40.4,"pm2_5":31.7,"no2":7.0,"co":327.0,"o3":131.0,"so2":17.2,"mosquito_risk":10,"arthritis_risk":5,"migraine_risk":7,"frizz_risk":1,"updated_at":"2026-07-19T18:52:12.672033+05:30"},{"city":"Raipur","state":"Chhattisgarh","latitude":21.2514,"longitude":81.6296,"temp":26.3,"humidity":95,"rain":0.1,"pressure":970.5,"uv_index":7.85,"wind_gusts":29.5,"aqi":92,"pm10":42.1,"pm2_5":32.9,"no2":29.6,"co":257.0,"o3":72.0,"so2":49.2,"mosquito_risk":10,"arthritis_risk":5,"migraine_risk":7,"frizz_risk":1,"updated_at":"2026-07-19T18:52:12.672040+05:30"},{"city":"Bhilai","state":"Chhattisgarh","latitude":21.1938,"longitude":81.3509,"temp":26.9,"humidity":90,"rain":0.1,"pressure":970.9,"uv_index":5.4,"wind_gusts":36.4,"aqi":85,"pm10":35.7,"pm2_5":27.0,"no2":24.4,"co":590.0,"o3":78.0,"so2":41.6,"mosquito_risk":10,"arthritis_risk":5,"migraine_risk":3,"frizz_risk":1,"updated_at":"2026-07-19T18:52:12.672046+05:30"},{"city":"Guwahati","state":"Assam","latitude":26.1158,"longitude":91.7086,"temp":26.2,"humidity":99,"rain":0.1,"pressure":998.8,"uv_index":2.65,"wind_gusts":28.8,"aqi":61,"pm10":12.7,"pm2_5":12.3,"no2":6.9,"co":275.0,"o3":54.0,"so2":2.4,"mosquito_risk":10,"arthritis_risk":5,"migraine_risk":3,"frizz_risk":1,"updated_at":"2026-07-19T18:52:12.672054+05:30"},{"city":"Agartala","state":"Tripura","latitude":23.8315,"longitude":91.2868,"temp":25.6,"humidity":97,"rain":0.0,"pressure":1004.1,"uv_index":7.95,"wind_gusts":45.0,"aqi":57,"pm10":10.1,"pm2_5":8.7,"no2":7.0,"co":153.0,"o3":50.0,"so2":1.9,"mosquito_risk":7,"arthritis_risk":5,"migraine_risk":4,"frizz_risk":1,"updated_at":"2026-07-19T18:52:12.672060+05:30"},{"city":"Shillong","state":"Meghalaya","latitude":25.5788,"longitude":91.8933,"temp":20.2,"humidity":95,"rain":0.1,"pressure":855.9,"uv_index":2.1,"wind_gusts":33.5,"aqi":29,"pm10":3.0,"pm2_5":2.9,"no2":6.0,"co":189.0,"o3":59.0,"so2":2.0,"mosquito_risk":6,"arthritis_risk":5,"migraine_risk":3,"frizz_risk":1,"updated_at":"2026-07-19T18:52:12.672067+05:30"},{"city":"Imphal","state":"Manipur","latitude":24.817,"longitude":93.9368,"temp":22.5,"humidity":98,"rain":0.1,"pressure":922.0,"uv_index":1.15,"wind_gusts":22.3,"aqi":55,"pm10":7.6,"pm2_5":6.5,"no2":8.6,"co":329.0,"o3":35.0,"so2":1.7,"mosquito_risk":6,"arthritis_risk":5,"migraine_risk":3,"frizz_risk":1,"updated_at":"2026-07-19T18:52:12.672074+05:30"},{"city":"Aizawl","state":"Mizoram","latitude":23.7271,"longitude":92.7176,"temp":21.2,"humidity":79,"rain":0.0,"pressure":891.1,"uv_index":3.15,"wind_gusts":41.0,"aqi":37,"pm10":16.6,"pm2_5":10.6,"no2":4.0,"co":126.0,"o3":36.0,"so2":0.7,"mosquito_risk":3,"arthritis_risk":5,"migraine_risk":3,"frizz_risk":1,"updated_at":"2026-07-19T18:52:12.672080+05:30"},{"city":"Kohima","state":"Nagaland","latitude":25.6701,"longitude":94.1077,"temp":20.5,"humidity":93,"rain":0.2,"pressure":854.2,"uv_index":1.9,"wind_gusts":18.4,"aqi":33,"pm10":2.6,"pm2_5":2.5,"no2":5.9,"co":241.0,"o3":38.0,"so2":0.4,"mosquito_risk":6,"arthritis_risk":5,"migraine_risk":3,"frizz_risk":1,"updated_at":"2026-07-19T18:52:12.672087+05:30"},{"city":"Gangtok","state":"Sikkim","latitude":27.3314,"longitude":88.6138,"temp":19.4,"humidity":99,"rain":0.0,"pressure":836.6,"uv_index":3.4,"wind_gusts":27.4,"aqi":34,"pm10":3.0,"pm2_5":2.9,"no2":5.9,"co":219.0,"o3":65.0,"so2":0.8,"mosquito_risk":3,"arthritis_risk":10,"migraine_risk":3,"frizz_risk":1,"updated_at":"2026-07-19T18:52:12.672094+05:30"},{"city":"Siliguri","state":"West Bengal","latitude":26.7271,"longitude":88.3953,"temp":25.9,"humidity":95,"rain":0.0,"pressure":990.1,"uv_index":3.4,"wind_gusts":24.5,"aqi":54,"pm10":13.4,"pm2_5":13.2,"no2":9.0,"co":377.0,"o3":72.0,"so2":2.8,"mosquito_risk":7,"arthritis_risk":5,"migraine_risk":3,"frizz_risk":1,"updated_at":"2026-07-19T18:52:16.064785+05:30"},{"city":"Durgapur","state":"West Bengal","latitude":23.5204,"longitude":87.3119,"temp":27.6,"humidity":90,"rain":0.0,"pressure":990.4,"uv_index":7.3,"wind_gusts":31.0,"aqi":114,"pm10":44.0,"pm2_5":43.1,"no2":24.9,"co":264.0,"o3":73.0,"so2":29.3,"mosquito_risk":7,"arthritis_risk":5,"migraine_risk":7,"frizz_risk":1,"updated_at":"2026-07-19T18:52:16.064819+05:30"},{"city":"Asansol","state":"West Bengal","latitude":23.6739,"longitude":86.9524,"temp":26.5,"humidity":96,"rain":0.1,"pressure":989.1,"uv_index":6.9,"wind_gusts":29.5,"aqi":114,"pm10":37.8,"pm2_5":37.3,"no2":30.1,"co":656.0,"o3":69.0,"so2":33.9,"mosquito_risk":10,"arthritis_risk":5,"migraine_risk":7,"frizz_risk":1,"updated_at":"2026-07-19T18:52:16.064830+05:30"},{"city":"Pondicherry","state":"Puducherry","latitude":11.9139,"longitude":79.8145,"temp":29.2,"humidity":83,"rain":0.0,"pressure":1005.2,"uv_index":8.1,"wind_gusts":39.2,"aqi":73,"pm10":35.7,"pm2_5":24.8,"no2":12.1,"co":191.0,"o3":91.0,"so2":7.7,"mosquito_risk":7,"arthritis_risk":5,"migraine_risk":4,"frizz_risk":1,"updated_at":"2026-07-19T18:52:16.064840+05:30"},{"city":"Port Blair","state":"Andaman and Nicobar Islands","latitude":11.6234,"longitude":92.7265,"temp":27.4,"humidity":80,"rain":0.1,"pressure":1007.5,"uv_index":8.75,"wind_gusts":37.4,"aqi":54,"pm10":21.8,"pm2_5":11.3,"no2":0.3,"co":98.0,"o3":43.0,"so2":0.4,"mosquito_risk":10,"arthritis_risk":5,"migraine_risk":4,"frizz_risk":1,"updated_at":"2026-07-19T18:52:16.064848+05:30"},{"city":"Haridwar","state":"Uttarakhand","latitude":29.9457,"longitude":78.1642,"temp":27.0,"humidity":97,"rain":0.0,"pressure":968.2,"uv_index":7.1,"wind_gusts":30.2,"aqi":163,"pm10":186.7,"pm2_5":76.6,"no2":5.8,"co":359.0,"o3":125.0,"so2":12.6,"mosquito_risk":7,"arthritis_risk":5,"migraine_risk":7,"frizz_risk":1,"updated_at":"2026-07-19T18:52:16.064857+05:30"},{"city":"Rishikesh","state":"Uttarakhand","latitude":30.0869,"longitude":78.2676,"temp":26.1,"humidity":97,"rain":0.0,"pressure":961.1,"uv_index":5.7,"wind_gusts":25.9,"aqi":152,"pm10":178.8,"pm2_5":59.0,"no2":3.7,"co":320.0,"o3":112.0,"so2":8.1,"mosquito_risk":7,"arthritis_risk":5,"migraine_risk":3,"frizz_risk":1,"updated_at":"2026-07-19T18:52:16.064864+05:30"},{"city":"Nainital","state":"Uttarakhand","latitude":29.3919,"longitude":79.4542,"temp":18.6,"humidity":99,"rain":0.1,"pressure":803.3,"uv_index":3.9,"wind_gusts":25.6,"aqi":76,"pm10":24.9,"pm2_5":13.1,"no2":5.6,"co":234.0,"o3":101.0,"so2":3.5,"mosquito_risk":6,"arthritis_risk":10,"migraine_risk":3,"frizz_risk":1,"updated_at":"2026-07-19T18:52:16.064872+05:30"},{"city":"Mussoorie","state":"Uttarakhand","latitude":30.4599,"longitude":78.0664,"temp":18.4,"humidity":100,"rain":0.9,"pressure":800.5,"uv_index":2.75,"wind_gusts":30.2,"aqi":114,"pm10":136.0,"pm2_5":55.5,"no2":9.9,"co":268.0,"o3":104.0,"so2":8.8,"mosquito_risk":6,"arthritis_risk":10,"migraine_risk":3,"frizz_risk":1,"updated_at":"2026-07-19T18:52:16.064880+05:30"},{"city":"Dharamshala","state":"Himachal Pradesh","latitude":32.219,"longitude":76.3234,"temp":22.9,"humidity":96,"rain":0.0,"pressure":865.5,"uv_index":3.95,"wind_gusts":26.3,"aqi":43,"pm10":22.1,"pm2_5":9.7,"no2":3.9,"co":261.0,"o3":88.0,"so2":1.2,"mosquito_risk":3,"arthritis_risk":5,"migraine_risk":3,"frizz_risk":1,"updated_at":"2026-07-19T18:52:16.064888+05:30"},{"city":"Dalhousie","state":"Himachal Pradesh","latitude":32.5387,"longitude":75.971,"temp":20.1,"humidity":94,"rain":0.1,"pressure":802.7,"uv_index":6.45,"wind_gusts":21.6,"aqi":90,"pm10":95.0,"pm2_5":33.9,"no2":7.1,"co":322.0,"o3":94.0,"so2":3.2,"mosquito_risk":6,"arthritis_risk":5,"migraine_risk":7,"frizz_risk":1,"updated_at":"2026-07-19T18:52:16.064896+05:30"},{"city":"Patiala","state":"Punjab","latitude":30.3398,"longitude":76.3869,"temp":31.5,"humidity":79,"rain":0.0,"pressure":971.2,"uv_index":6.45,"wind_gusts":27.4,"aqi":250,"pm10":213.3,"pm2_5":93.4,"no2":14.7,"co":386.0,"o3":120.0,"so2":12.5,"mosquito_risk":3,"arthritis_risk":5,"migraine_risk":7,"frizz_risk":1,"updated_at":"2026-07-19T18:52:16.064903+05:30"},{"city":"Bhatinda","state":"Punjab","latitude":30.211,"longitude":74.9455,"temp":36.9,"humidity":41,"rain":0.0,"pressure":975.7,"uv_index":7.1,"wind_gusts":28.8,"aqi":185,"pm10":235.6,"pm2_5":83.6,"no2":16.9,"co":159.0,"o3":86.0,"so2":8.8,"mosquito_risk":0,"arthritis_risk":5,"migraine_risk":10,"frizz_risk":1,"updated_at":"2026-07-19T18:52:16.064910+05:30"},{"city":"Rohtak","state":"Haryana","latitude":28.8955,"longitude":76.6066,"temp":32.1,"humidity":73,"rain":0.0,"pressure":974.7,"uv_index":6.5,"wind_gusts":30.6,"aqi":512,"pm10":547.6,"pm2_5":115.5,"no2":29.8,"co":288.0,"o3":69.0,"so2":7.5,"mosquito_risk":3,"arthritis_risk":5,"migraine_risk":7,"frizz_risk":1,"updated_at":"2026-07-19T18:52:16.064918+05:30"},{"city":"Panipat","state":"Haryana","latitude":29.3909,"longitude":76.9635,"temp":29.8,"humidity":90,"rain":0.0,"pressure":973.6,"uv_index":6.8,"wind_gusts":33.5,"aqi":789,"pm10":733.9,"pm2_5":160.7,"no2":23.0,"co":340.0,"o3":75.0,"so2":10.7,"mosquito_risk":7,"arthritis_risk":5,"migraine_risk":7,"frizz_risk":1,"updated_at":"2026-07-19T18:52:16.064925+05:30"},{"city":"Mathura","state":"Uttar Pradesh","latitude":27.4924,"longitude":77.6737,"temp":30.3,"humidity":76,"rain":0.0,"pressure":980.7,"uv_index":2.65,"wind_gusts":33.8,"aqi":235,"pm10":254.3,"pm2_5":71.5,"no2":24.6,"co":322.0,"o3":60.0,"so2":4.1,"mosquito_risk":3,"arthritis_risk":5,"migraine_risk":3,"frizz_risk":1,"updated_at":"2026-07-19T18:52:16.064933+05:30"},{"city":"Vrindavan","state":"Uttar Pradesh","latitude":27.5823,"longitude":77.7027,"temp":30.4,"humidity":76,"rain":0.0,"pressure":981.0,"uv_index":5.05,"wind_gusts":29.9,"aqi":235,"pm10":254.3,"pm2_5":71.5,"no2":24.6,"co":321.0,"o3":60.0,"so2":4.1,"mosquito_risk":3,"arthritis_risk":5,"migraine_risk":3,"frizz_risk":1,"updated_at":"2026-07-19T18:52:16.064940+05:30"},{"city":"Ayodhya","state":"Uttar Pradesh","latitude":26.7922,"longitude":82.1998,"temp":28.9,"humidity":84,"rain":0.0,"pressure":990.0,"uv_index":7.8,"wind_gusts":21.6,"aqi":75,"pm10":14.1,"pm2_5":13.8,"no2":11.6,"co":482.0,"o3":96.0,"so2":5.1,"mosquito_risk":7,"arthritis_risk":5,"migraine_risk":7,"frizz_risk":1,"updated_at":"2026-07-19T18:52:16.064947+05:30"},{"city":"Ratlam","state":"Madhya Pradesh","latitude":23.3315,"longitude":75.0367,"temp":28.8,"humidity":71,"rain":0.0,"pressure":949.4,"uv_index":6.95,"wind_gusts":33.1,"aqi":61,"pm10":27.7,"pm2_5":15.8,"no2":3.5,"co":135.0,"o3":80.0,"so2":3.4,"mosquito_risk":7,"arthritis_risk":5,"migraine_risk":7,"frizz_risk":1,"updated_at":"2026-07-19T18:52:16.064954+05:30"},{"city":"Sagar","state":"Madhya Pradesh","latitude":23.8388,"longitude":78.7378,"temp":28.1,"humidity":79,"rain":0.0,"pressure":945.3,"uv_index":7.95,"wind_gusts":27.0,"aqi":81,"pm10":31.5,"pm2_5":21.0,"no2":5.2,"co":177.0,"o3":79.0,"so2":2.7,"mosquito_risk":7,"arthritis_risk":5,"migraine_risk":7,"frizz_risk":1,"updated_at":"2026-07-19T18:52:16.064961+05:30"},{"city":"Satna","state":"Madhya Pradesh","latitude":24.6005,"longitude":80.8322,"temp":27.5,"humidity":87,"rain":0.0,"pressure":966.5,"uv_index":6.85,"wind_gusts":28.4,"aqi":92,"pm10":53.2,"pm2_5":24.6,"no2":5.4,"co":166.0,"o3":84.0,"so2":2.8,"mosquito_risk":7,"arthritis_risk":5,"migraine_risk":7,"frizz_risk":1,"updated_at":"2026-07-19T18:52:16.064968+05:30"},{"city":"Akola","state":"Maharashtra","latitude":20.7002,"longitude":77.0082,"temp":28.2,"humidity":79,"rain":0.0,"pressure":970.7,"uv_index":7.5,"wind_gusts":37.8,"aqi":53,"pm10":16.9,"pm2_5":10.6,"no2":4.8,"co":131.0,"o3":71.0,"so2":6.8,"mosquito_risk":7,"arthritis_risk":5,"migraine_risk":7,"frizz_risk":1,"updated_at":"2026-07-19T18:52:16.064976+05:30"},{"city":"Amravati","state":"Maharashtra","latitude":20.9374,"longitude":77.7796,"temp":28.7,"humidity":77,"rain":0.0,"pressure":962.9,"uv_index":7.0,"wind_gusts":40.7,"aqi":54,"pm10":20.3,"pm2_5":12.2,"no2":5.2,"co":152.0,"o3":71.0,"so2":8.5,"mosquito_risk":7,"arthritis_risk":5,"migraine_risk":7,"frizz_risk":1,"updated_at":"2026-07-19T18:52:16.064983+05:30"},{"city":"Latur","state":"Maharashtra","latitude":18.4088,"longitude":76.5604,"temp":23.9,"humidity":94,"rain":0.1,"pressure":936.6,"uv_index":7.9,"wind_gusts":39.6,"aqi":39,"pm10":15.7,"pm2_5":9.7,"no2":3.0,"co":136.0,"o3":59.0,"so2":1.4,"mosquito_risk":6,"arthritis_risk":5,"migraine_risk":7,"frizz_risk":1,"updated_at":"2026-07-19T18:52:16.064991+05:30"},{"city":"Nanded","state":"Maharashtra","latitude":19.1383,"longitude":77.3091,"temp":26.5,"humidity":86,"rain":0.0,"pressure":964.8,"uv_index":6.9,"wind_gusts":37.8,"aqi":54,"pm10":16.5,"pm2_5":10.0,"no2":3.8,"co":152.0,"o3":69.0,"so2":2.5,"mosquito_risk":7,"arthritis_risk":5,"migraine_risk":7,"frizz_risk":1,"updated_at":"2026-07-19T18:52:16.064998+05:30"},{"city":"Gulbarga","state":"Karnataka","latitude":17.3297,"longitude":76.8343,"temp":23.4,"humidity":96,"rain":0.1,"pressure":956.4,"uv_index":8.2,"wind_gusts":40.7,"aqi":35,"pm10":17.1,"pm2_5":9.6,"no2":4.6,"co":125.0,"o3":61.0,"so2":1.9,"mosquito_risk":6,"arthritis_risk":5,"migraine_risk":7,"frizz_risk":1,"updated_at":"2026-07-19T18:52:16.065005+05:30"},{"city":"Bidar","state":"Karnataka","latitude":17.9104,"longitude":77.5199,"temp":23.3,"humidity":94,"rain":0.1,"pressure":932.5,"uv_index":2.85,"wind_gusts":41.4,"aqi":46,"pm10":18.5,"pm2_5":10.8,"no2":4.1,"co":137.0,"o3":68.0,"so2":1.6,"mosquito_risk":6,"arthritis_risk":5,"migraine_risk":3,"frizz_risk":1,"updated_at":"2026-07-19T18:52:16.065012+05:30"},{"city":"Hospet","state":"Karnataka","latitude":15.2689,"longitude":76.3909,"temp":25.2,"humidity":85,"rain":0.0,"pressure":953.9,"uv_index":7.0,"wind_gusts":46.1,"aqi":36,"pm10":16.8,"pm2_5":9.5,"no2":3.8,"co":116.0,"o3":49.0,"so2":1.8,"mosquito_risk":7,"arthritis_risk":5,"migraine_risk":7,"frizz_risk":1,"updated_at":"2026-07-19T18:52:16.065019+05:30"},{"city":"Tirupur","state":"Tamil Nadu","latitude":11.1085,"longitude":77.3411,"temp":27.2,"humidity":73,"rain":0.1,"pressure":973.8,"uv_index":7.9,"wind_gusts":47.5,"aqi":57,"pm10":14.3,"pm2_5":9.2,"no2":8.0,"co":138.0,"o3":55.0,"so2":3.0,"mosquito_risk":10,"arthritis_risk":5,"migraine_risk":7,"frizz_risk":1,"updated_at":"2026-07-19T18:52:16.065026+05:30"},{"city":"Alappuzha","state":"Kerala","latitude":9.4981,"longitude":76.3388,"temp":27.0,"humidity":86,"rain":0.0,"pressure":1009.4,"uv_index":8.1,"wind_gusts":36.7,"aqi":52,"pm10":14.2,"pm2_5":8.0,"no2":5.4,"co":89.0,"o3":49.0,"so2":2.4,"mosquito_risk":7,"arthritis_risk":0,"migraine_risk":4,"frizz_risk":1,"updated_at":"2026-07-19T18:52:16.065033+05:30"},{"city":"Munnar","state":"Kerala","latitude":10.0889,"longitude":77.0595,"temp":17.3,"humidity":99,"rain":0.1,"pressure":856.5,"uv_index":6.35,"wind_gusts":36.0,"aqi":32,"pm10":7.5,"pm2_5":5.0,"no2":3.7,"co":109.0,"o3":45.0,"so2":1.4,"mosquito_risk":6,"arthritis_risk":10,"migraine_risk":7,"frizz_risk":1,"updated_at":"2026-07-19T18:52:16.065041+05:30"},{"city":"Silchar","state":"Assam","latitude":24.8333,"longitude":92.7789,"temp":25.8,"humidity":98,"rain":0.3,"pressure":1003.3,"uv_index":2.95,"wind_gusts":27.7,"aqi":63,"pm10":18.5,"pm2_5":14.1,"no2":6.9,"co":237.0,"o3":52.0,"so2":4.0,"mosquito_risk":10,"arthritis_risk":5,"migraine_risk":0,"frizz_risk":1,"updated_at":"2026-07-19T18:52:16.065048+05:30"},{"city":"Dibrugarh","state":"Assam","latitude":27.4728,"longitude":94.912,"temp":25.9,"humidity":95,"rain":0.2,"pressure":993.1,"uv_index":1.8,"wind_gusts":35.6,"aqi":52,"pm10":12.9,"pm2_5":12.6,"no2":8.0,"co":196.0,"o3":52.0,"so2":1.6,"mosquito_risk":10,"arthritis_risk":5,"migraine_risk":3,"frizz_risk":1,"updated_at":"2026-07-19T18:52:16.065054+05:30"}]