[{"city":"Delhi","state":"Delhi","latitude":28.6139,"longitude":77.209,"temp":22.9,"humidity":44,"rain":0.0,"pressure":983.4,"uv_index":6.15,"wind_gusts":33.8,"aqi":168,"pm10":379.0,"pm2_5":90.3,"mosquito_risk":0,"arthritis_risk":5,"migraine_risk":7,"frizz_risk":0,"updated_at":"2026-03-15T02:02:37.753360+05:30"},{"city":"Mumbai","state":"Maharashtra","latitude":19.076,"longitude":72.8777,"temp":27.8,"humidity":74,"rain":0.0,"pressure":1009.7,"uv_index":7.7,"wind_gusts":21.2,"aqi":114,"pm10":85.9,"pm2_5":39.6,"mosquito_risk":7,"arthritis_risk":0,"migraine_risk":4,"frizz_risk":1,"updated_at":"2026-03-15T02:02:37.753401+05:30"},{"city":"Bangalore","state":"Karnataka","latitude":12.9716,"longitude":77.5946,"temp":21.2,"humidity":65,"rain":0.0,"pressure":912.6,"uv_index":9.3,"wind_gusts":20.9,"aqi":94,"pm10":29.2,"pm2_5":27.5,"mosquito_risk":3,"arthritis_risk":5,"migraine_risk":7,"frizz_risk":0,"updated_at":"2026-03-15T02:02:37.753417+05:30"},{"city":"Hyderabad","state":"Telangana","latitude":17.385,"longitude":78.4867,"temp":23.3,"humidity":78,"rain":0.0,"pressure":954.1,"uv_index":8.75,"wind_gusts":25.6,"aqi":97,"pm10":25.6,"pm2_5":21.5,"mosquito_risk":3,"arthritis_risk":5,"migraine_risk":7,"frizz_risk":1,"updated_at":"2026-03-15T02:02:37.753427+05:30"},{"city":"Chennai","state":"Tamil Nadu","latitude":13.0827,"longitude":80.2707,"temp":25.3,"humidity":88,"rain":0.0,"pressure":1009.7,"uv_index":9.05,"wind_gusts":30.6,"aqi":51,"pm10":15.4,"pm2_5":12.1,"mosquito_risk":7,"arthritis_risk":0,"migraine_risk":4,"frizz_risk":1,"updated_at":"2026-03-15T02:02:37.753437+05:30"},{"city":"Kolkata","state":"West Bengal","latitude":22.5726,"longitude":88.3639,"temp":25.2,"humidity":88,"rain":0.0,"pressure":1008.0,"uv_index":7.9,"wind_gusts":38.2,"aqi":74,"pm10":15.5,"pm2_5":11.6,"mosquito_risk":7,"arthritis_risk":0,"migraine_risk":4,"frizz_risk":1,"updated_at":"2026-03-15T02:02:37.753446+05:30"},{"city":"Pune","state":"Maharashtra","latitude":18.5204,"longitude":73.8567,"temp":23.2,"humidity":32,"rain":0.0,"pressure":949.2,"uv_index":8.3,"wind_gusts":41.8,"aqi":106,"pm10":39.8,"pm2_5":35.6,"mosquito_risk":0,"arthritis_risk":5,"migraine_risk":7,"frizz_risk":0,"updated_at":"2026-03-15T02:02:37.753460+05:30"},{"city":"Ahmedabad","state":"Gujarat","latitude":23.0225,"longitude":72.5714,"temp":23.2,"humidity":48,"rain":0.0,"pressure":1003.4,"uv_index":7.5,"wind_gusts":23.4,"aqi":81,"pm10":52.0,"pm2_5":19.1,"mosquito_risk":0,"arthritis_risk":5,"migraine_risk":4,"frizz_risk":0,"updated_at":"2026-03-15T02:02:37.753468+05:30"},{"city":"Jaipur","state":"Rajasthan","latitude":26.9124,"longitude":75.7873,"temp":23.5,"humidity":48,"rain":0.0,"pressure":960.3,"uv_index":7.0,"wind_gusts":42.8,"aqi":134,"pm10":166.2,"pm2_5":43.1,"mosquito_risk":0,"arthritis_risk":5,"migraine_risk":7,"frizz_risk":0,"updated_at":"2026-03-15T02:02:37.753476+05:30"},{"city":"Lucknow","state":"Uttar Pradesh","latitude":26.8467,"longitude":80.9462,"temp":22.1,"humidity":63,"rain":0.0,"pressure":995.1,"uv_index":6.4,"wind_gusts":34.9,"aqi":159,"pm10":170.0,"pm2_5":59.8,"mosquito_risk":3,"arthritis_risk":5,"migraine_risk":7,"frizz_risk":0,"updated_at":"2026-03-15T02:02:37.753484+05:30"},{"city":"Kanpur","state":"Uttar Pradesh","latitude":26.4499,"longitude":80.3319,"temp":21.3,"humidity":70,"rain":0.0,"pressure":992.5,"uv_index":6.75,"wind_gusts":52.9,"aqi":271,"pm10":299.0,"pm2_5":68.2,"mosquito_risk":3,"arthritis_risk":5,"migraine_risk":7,"frizz_risk":0,"updated_at":"2026-03-15T02:02:37.753491+05:30"},{"city":"Chandigarh","state":"Chandigarh","latitude":30.7333,"longitude":76.7794,"temp":18.8,"humidity":64,"rain":0.0,"pressure":968.9,"uv_index":5.85,"wind_gusts":36.0,"aqi":80,"pm10":41.6,"pm2_5":39.8,"mosquito_risk":3,"arthritis_risk":5,"migraine_risk":3,"frizz_risk":0,"updated_at":"2026-03-15T02:02:37.753499+05:30"},{"city":"Srinagar","state":"Jammu and Kashmir","latitude":34.0837,"longitude":74.7973,"temp":8.3,"humidity":84,"rain":0.0,"pressure":838.1,"uv_index":4.5,"wind_gusts":27.7,"aqi":102,"pm10":74.7,"pm2_5":56.0,"mosquito_risk":3,"arthritis_risk":10,"migraine_risk":3,"frizz_risk":0,"updated_at":"2026-03-15T02:02:37.753507+05:30"},{"city":"Jammu","state":"Jammu and Kashmir","latitude":32.7266,"longitude":74.857,"temp":18.0,"humidity":65,"rain":0.0,"pressure":972.4,"uv_index":4.25,"wind_gusts":42.1,"aqi":83,"pm10":34.0,"pm2_5":30.9,"mosquito_risk":3,"arthritis_risk":5,"migraine_risk":3,"frizz_risk":0,"updated_at":"2026-03-15T02:02:37.753514+05:30"},{"city":"Amritsar","state":"Punjab","latitude":31.634,"longitude":74.8723,"temp":19.1,"humidity":60,"rain":0.0,"pressure":980.4,"uv_index":3.75,"wind_gusts":36.4,"aqi":83,"pm10":41.0,"pm2_5":39.2,"mosquito_risk":0,"arthritis_risk":5,"migraine_risk":3,"frizz_risk":0,"updated_at":"2026-03-15T02:02:37.753521+05:30"},{"city":"Ludhiana","state":"Punjab","latitude":30.901,"longitude":75.8573,"temp":18.8,"humidity":52,"rain":0.0,"pressure":978.8,"uv_index":5.3,"wind_gusts":37.8,"aqi":107,"pm10":99.4,"pm2_5":69.8,"mosquito_risk":0,"arthritis_risk":5,"migraine_risk":3,"frizz_risk":0,"updated_at":"2026-03-15T02:02:37.753528+05:30"},{"city":"Jalandhar","state":"Punjab","latitude":31.326,"longitude":75.5762,"temp":17.2,"humidity":61,"rain":0.0,"pressure":979.9,"uv_index":6.1,"wind_gusts":35.6,"aqi":96,"pm10":83.4,"pm2_5":53.0,"mosquito_risk":3,"arthritis_risk":5,"migraine_risk":7,"frizz_risk":0,"updated_at":"2026-03-15T02:02:37.753537+05:30"},{"city":"Dehradun","state":"Uttarakhand","latitude":30.6284,"longitude":78.0322,"temp":11.8,"humidity":40,"rain":0.0,"pressure":828.4,"uv_index":6.15,"wind_gusts":31.3,"aqi":51,"pm10":33.4,"pm2_5":17.9,"mosquito_risk":0,"arthritis_risk":5,"migraine_risk":7,"frizz_risk":1,"updated_at":"2026-03-15T02:02:37.753543+05:30"},{"city":"Shimla","state":"Himachal Pradesh","latitude":31.1048,"longitude":77.1734,"temp":10.9,"humidity":40,"rain":0.0,"pressure":782.3,"uv_index":5.7,"wind_gusts":50.0,"aqi":58,"pm10":39.0,"pm2_5":25.8,"mosquito_risk":0,"arthritis_risk":5,"migraine_risk":3,"frizz_risk":1,"updated_at":"2026-03-15T02:02:37.753550+05:30"},{"city":"Manali","state":"Himachal Pradesh","latitude":32.2396,"longitude":77.1887,"temp":12.1,"humidity":50,"rain":0.0,"pressure":819.8,"uv_index":6.35,"wind_gusts":35.6,"aqi":48,"pm10":24.6,"pm2_5":9.9,"mosquito_risk":0,"arthritis_risk":5,"migraine_risk":7,"frizz_risk":0,"updated_at":"2026-03-15T02:02:37.753557+05:30"},{"city":"Gurgaon","state":"Haryana","latitude":28.4595,"longitude":77.0266,"temp":19.4,"humidity":57,"rain":0.0,"pressure":981.5,"uv_index":6.25,"wind_gusts":34.9,"aqi":484,"pm10":388.4,"pm2_5":114.3,"mosquito_risk":0,"arthritis_risk":5,"migraine_risk":7,"frizz_risk":0,"updated_at":"2026-03-15T02:02:37.753564+05:30"},{"city":"Noida","state":"Uttar Pradesh","latitude":28.5355,"longitude":77.391,"temp":20.8,"humidity":55,"rain":0.0,"pressure":984.8,"uv_index":6.15,"wind_gusts":32.4,"aqi":484,"pm10":388.4,"pm2_5":114.3,"mosquito_risk":0,"arthritis_risk":5,"migraine_risk":7,"frizz_risk":0,"updated_at":"2026-03-15T02:02:37.753571+05:30"},{"city":"Ghaziabad","state":"Uttar Pradesh","latitude":28.6692,"longitude":77.4538,"temp":19.7,"humidity":60,"rain":0.0,"pressure":983.0,"uv_index":6.15,"wind_gusts":31.0,"aqi":157,"pm10":379.0,"pm2_5":94.5,"mosquito_risk":0,"arthritis_risk":5,"migraine_risk":7,"frizz_risk":0,"updated_at":"2026-03-15T02:02:37.753578+05:30"},{"city":"Faridabad","state":"Haryana","latitude":28.4089,"longitude":77.3178,"temp":20.0,"humidity":51,"rain":0.0,"pressure":984.0,"uv_index":6.2,"wind_gusts":34.2,"aqi":484,"pm10":388.4,"pm2_5":114.3,"mosquito_risk":0,"arthritis_risk":5,"migraine_risk":7,"frizz_risk":0,"updated_at":"2026-03-15T02:02:37.753585+05:30"},{"city":"Meerut","state":"Uttar Pradesh","latitude":28.9845,"longitude":77.7064,"temp":17.8,"humidity":69,"rain":0.0,"pressure":981.7,"uv_index":6.05,"wind_gusts":28.1,"aqi":157,"pm10":379.0,"pm2_5":94.5,"mosquito_risk":3,"arthritis_risk":5,"migraine_risk":7,"frizz_risk":0,"updated_at":"2026-03-15T02:02:37.753591+05:30"},{"city":"Agra","state":"Uttar Pradesh","latitude":27.1767,"longitude":78.0081,"temp":18.7,"humidity":62,"rain":0.0,"pressure":988.6,"uv_index":6.6,"wind_gusts":36.0,"aqi":424,"pm10":1117.6,"pm2_5":132.2,"mosquito_risk":3,"arthritis_risk":5,"migraine_risk":7,"frizz_risk":0,"updated_at":"2026-03-15T02:02:37.753614+05:30"},{"city":"Varanasi","state":"Uttar Pradesh","latitude":25.3176,"longitude":82.9739,"temp":22.2,"humidity":73,"rain":0.0,"pressure":997.5,"uv_index":7.25,"wind_gusts":35.6,"aqi":147,"pm10":136.4,"pm2_5":82.0,"mosquito_risk":3,"arthritis_risk":5,"migraine_risk":7,"frizz_risk":1,"updated_at":"2026-03-15T02:02:37.753625+05:30"},{"city":"Prayagraj","state":"Uttar Pradesh","latitude":25.4358,"longitude":81.8463,"temp":24.0,"humidity":65,"rain":0.0,"pressure":996.1,"uv_index":7.25,"wind_gusts":34.2,"aqi":151,"pm10":117.8,"pm2_5":62.4,"mosquito_risk":3,"arthritis_risk":5,"migraine_risk":7,"frizz_risk":1,"updated_at":"2026-03-15T02:02:37.753632+05:30"},{"city":"Gorakhpur","state":"Uttar Pradesh","latitude":26.7606,"longitude":83.3732,"temp":21.0,"humidity":63,"rain":0.0,"pressure":997.8,"uv_index":7.05,"wind_gusts":37.8,"aqi":152,"pm10":129.0,"pm2_5":94.3,"mosquito_risk":3,"arthritis_risk":5,"migraine_risk":7,"frizz_risk":0,"updated_at":"2026-03-15T02:02:37.753641+05:30"},{"city":"Bareilly","state":"Uttar Pradesh","latitude":28.367,"longitude":79.4304,"temp":18.2,"humidity":76,"rain":0.0,"pressure":987.3,"uv_index":5.55,"wind_gusts":32.0,"aqi":130,"pm10":153.2,"pm2_5":65.9,"mosquito_risk":3,"arthritis_risk":5,"migraine_risk":3,"frizz_risk":0,"updated_at":"2026-03-15T02:02:37.753651+05:30"},{"city":"Aligarh","state":"Uttar Pradesh","latitude":27.8974,"longitude":78.088,"temp":18.2,"humidity":64,"rain":0.0,"pressure":986.0,"uv_index":6.3,"wind_gusts":38.2,"aqi":286,"pm10":227.2,"pm2_5":81.5,"mosquito_risk":3,"arthritis_risk":5,"migraine_risk":7,"frizz_risk":0,"updated_at":"2026-03-15T02:02:37.753658+05:30"},{"city":"Moradabad","state":"Uttar Pradesh","latitude":28.8386,"longitude":78.7733,"temp":18.8,"humidity":63,"rain":0.0,"pressure":984.0,"uv_index":6.2,"wind_gusts":25.9,"aqi":145,"pm10":172.8,"pm2_5":85.9,"mosquito_risk":3,"arthritis_risk":5,"migraine_risk":7,"frizz_risk":0,"updated_at":"2026-03-15T02:02:37.753665+05:30"},{"city":"Saharanpur","state":"Uttar Pradesh","latitude":29.9637,"longitude":77.546,"temp":16.8,"humidity":68,"rain":0.0,"pressure":976.0,"uv_index":5.8,"wind_gusts":27.0,"aqi":142,"pm10":119.7,"pm2_5":79.2,"mosquito_risk":3,"arthritis_risk":5,"migraine_risk":3,"frizz_risk":0,"updated_at":"2026-03-15T02:02:37.753672+05:30"},{"city":"Jhansi","state":"Uttar Pradesh","latitude":25.4484,"longitude":78.5685,"temp":20.8,"humidity":70,"rain":0.0,"pressure":978.3,"uv_index":7.15,"wind_gusts":29.5,"aqi":153,"pm10":108.0,"pm2_5":40.0,"mosquito_risk":3,"arthritis_risk":5,"migraine_risk":7,"frizz_risk":0,"updated_at":"2026-03-15T02:02:41.100780+05:30"},{"city":"Surat","state":"Gujarat","latitude":21.1702,"longitude":72.8311,"temp":25.4,"humidity":85,"rain":0.0,"pressure":1007.7,"uv_index":7.4,"wind_gusts":26.3,"aqi":138,"pm10":70.5,"pm2_5":43.1,"mosquito_risk":7,"arthritis_risk":5,"migraine_risk":4,"frizz_risk":1,"updated_at":"2026-03-15T02:02:41.100810+05:30"},{"city":"Vadodara","state":"Gujarat","latitude":22.3072,"longitude":73.1812,"temp":23.8,"humidity":71,"rain":0.0,"pressure":1005.3,"uv_index":7.5,"wind_gusts":23.8,"aqi":94,"pm10":55.4,"pm2_5":38.0,"mosquito_risk":3,"arthritis_risk":5,"migraine_risk":4,"frizz_risk":1,"updated_at":"2026-03-15T02:02:41.100820+05:30"},{"city":"Rajkot","state":"Gujarat","latitude":22.3039,"longitude":70.8022,"temp":23.8,"humidity":74,"rain":0.0,"pressure":995.9,"uv_index":7.35,"wind_gusts":29.2,"aqi":94,"pm10":50.9,"pm2_5":21.7,"mosquito_risk":3,"arthritis_risk":5,"migraine_risk":7,"frizz_risk":1,"updated_at":"2026-03-15T02:02:41.100828+05:30"},{"city":"Thane","state":"Maharashtra","latitude":19.2183,"longitude":72.9781,"temp":25.3,"humidity":86,"rain":0.0,"pressure":1009.2,"uv_index":7.7,"wind_gusts":33.1,"aqi":114,"pm10":85.9,"pm2_5":39.6,"mosquito_risk":7,"arthritis_risk":0,"migraine_risk":4,"frizz_risk":1,"updated_at":"2026-03-15T02:02:41.100836+05:30"},{"city":"Nagpur","state":"Maharashtra","latitude":21.1458,"longitude":79.0882,"temp":25.1,"humidity":57,"rain":0.0,"pressure":973.3,"uv_index":8.15,"wind_gusts":27.7,"aqi":129,"pm10":47.0,"pm2_5":42.1,"mosquito_risk":4,"arthritis_risk":5,"migraine_risk":7,"frizz_risk":0,"updated_at":"2026-03-15T02:02:41.100843+05:30"},{"city":"Nashik","state":"Maharashtra","latitude":19.9975,"longitude":73.7898,"temp":21.9,"humidity":31,"rain":0.0,"pressure":946.5,"uv_index":7.9,"wind_gusts":40.0,"aqi":87,"pm10":43.0,"pm2_5":26.8,"mosquito_risk":0,"arthritis_risk":5,"migraine_risk":7,"frizz_risk":0,"updated_at":"2026-03-15T02:02:41.100851+05:30"},{"city":"Aurangabad","state":"Maharashtra","latitude":19.8762,"longitude":75.3433,"temp":24.0,"humidity":37,"rain":0.0,"pressure":944.7,"uv_index":8.4,"wind_gusts":26.3,"aqi":87,"pm10":37.1,"pm2_5":30.2,"mosquito_risk":0,"arthritis_risk":5,"migraine_risk":7,"frizz_risk":0,"updated_at":"2026-03-15T02:02:41.100858+05:30"},{"city":"Solapur","state":"Maharashtra","latitude":17.6599,"longitude":75.9064,"temp":23.9,"humidity":51,"rain":0.0,"pressure":957.6,"uv_index":8.65,"wind_gusts":26.6,"aqi":110,"pm10":40.5,"pm2_5":35.7,"mosquito_risk":0,"arthritis_risk":5,"migraine_risk":7,"frizz_risk":0,"updated_at":"2026-03-15T02:02:41.100865+05:30"},{"city":"Kolhapur","state":"Maharashtra","latitude":16.705,"longitude":74.2433,"temp":21.8,"humidity":86,"rain":0.0,"pressure":948.8,"uv_index":8.75,"wind_gusts":46.1,"aqi":153,"pm10":51.0,"pm2_5":47.3,"mosquito_risk":3,"arthritis_risk":5,"migraine_risk":7,"frizz_risk":1,"updated_at":"2026-03-15T02:02:41.100872+05:30"},{"city":"Goa","state":"Goa","latitude":15.2993,"longitude":74.124,"temp":28.0,"humidity":81,"rain":0.0,"pressure":999.2,"uv_index":8.8,"wind_gusts":31.3,"aqi":130,"pm10":53.9,"pm2_5":49.0,"mosquito_risk":7,"arthritis_risk":5,"migraine_risk":7,"frizz_risk":1,"updated_at":"2026-03-15T02:02:41.100879+05:30"},{"city":"Jodhpur","state":"Rajasthan","latitude":26.2389,"longitude":73.0243,"temp":23.5,"humidity":47,"rain":0.0,"pressure":982.7,"uv_index":7.25,"wind_gusts":30.6,"aqi":94,"pm10":183.0,"pm2_5":43.5,"mosquito_risk":0,"arthritis_risk":5,"migraine_risk":7,"frizz_risk":0,"updated_at":"2026-03-15T02:02:41.100885+05:30"},{"city":"Udaipur","state":"Rajasthan","latitude":24.5854,"longitude":73.7125,"temp":23.9,"humidity":37,"rain":0.0,"pressure":947.0,"uv_index":7.85,"wind_gusts":32.8,"aqi":67,"pm10":67.5,"pm2_5":24.2,"mosquito_risk":0,"arthritis_risk":5,"migraine_risk":7,"frizz_risk":0,"updated_at":"2026-03-15T02:02:41.100892+05:30"},{"city":"Kota","state":"Rajasthan","latitude":25.2138,"longitude":75.8648,"temp":21.9,"humidity":71,"rain":0.0,"pressure":978.8,"uv_index":7.3,"wind_gusts":36.7,"aqi":81,"pm10":25.1,"pm2_5":17.0,"mosquito_risk":3,"arthritis_risk":5,"migraine_risk":7,"frizz_risk":1,"updated_at":"2026-03-15T02:02:41.100899+05:30"},{"city":"Bikaner","state":"Rajasthan","latitude":28.0229,"longitude":73.3119,"temp":23.5,"humidity":51,"rain":0.0,"pressure":982.0,"uv_index":6.9,"wind_gusts":45.0,"aqi":76,"pm10":54.2,"pm2_5":24.0,"mosquito_risk":0,"arthritis_risk":5,"migraine_risk":7,"frizz_risk":0,"updated_at":"2026-03-15T02:02:41.100906+05:30"},{"city":"Ajmer","state":"Rajasthan","latitude":26.4499,"longitude":74.6399,"temp":21.8,"humidity":54,"rain":0.0,"pressure":954.4,"uv_index":7.25,"wind_gusts":39.6,"aqi":82,"pm10":49.5,"pm2_5":24.9,"mosquito_risk":0,"arthritis_risk":5,"migraine_risk":7,"frizz_risk":0,"updated_at":"2026-03-15T02:02:41.100913+05:30"},{"city":"Gwalior","state":"Madhya Pradesh","latitude":26.2183,"longitude":78.1828,"temp":22.6,"humidity":68,"rain":0.0,"pressure":983.9,"uv_index":6.9,"wind_gusts":28.4,"aqi":215,"pm10":105.0,"pm2_5":39.3,"mosquito_risk":3,"arthritis_risk":5,"migraine_risk":7,"frizz_risk":1,"updated_at":"2026-03-15T02:02:41.100919+05:30"},{"city":"Indore","state":"Madhya Pradesh","latitude":22.7196,"longitude":75.8577,"temp":20.5,"humidity":53,"rain":0.0,"pressure":948.1,"uv_index":7.8,"wind_gusts":31.7,"aqi":79,"pm10":29.0,"pm2_5":18.6,"mosquito_risk":0,"arthritis_risk":5,"migraine_risk":7,"frizz_risk":0,"updated_at":"2026-03-15T02:02:41.100926+05:30"},{"city":"Bhopal","state":"Madhya Pradesh","latitude":23.2599,"longitude":77.4126,"temp":19.5,"humidity":48,"rain":0.0,"pressure":953.5,"uv_index":7.7,"wind_gusts":34.9,"aqi":77,"pm10":26.3,"pm2_5":22.9,"mosquito_risk":0,"arthritis_risk":5,"migraine_risk":7,"frizz_risk":0,"updated_at":"2026-03-15T02:02:41.100933+05:30"},{"city":"Jabalpur","state":"Madhya Pradesh","latitude":23.1815,"longitude":79.9864,"temp":23.5,"humidity":49,"rain":0.0,"pressure":961.2,"uv_index":7.85,"wind_gusts":31.0,"aqi":76,"pm10":25.1,"pm2_5":23.5,"mosquito_risk":0,"arthritis_risk":5,"migraine_risk":7,"frizz_risk":0,"updated_at":"2026-03-15T02:02:41.100939+05:30"},{"city":"Ujjain","state":"Madhya Pradesh","latitude":23.1765,"longitude":75.7885,"temp":19.8,"humidity":58,"rain":0.0,"pressure":953.8,"uv_index":7.7,"wind_gusts":28.1,"aqi":80,"pm10":31.9,"pm2_5":20.3,"mosquito_risk":0,"arthritis_risk":5,"migraine_risk":7,"frizz_risk":0,"updated_at":"2026-03-15T02:02:41.100946+05:30"},{"city":"Visakhapatnam","state":"Andhra Pradesh","latitude":17.6868,"longitude":83.2185,"temp":24.9,"humidity":86,"rain":0.0,"pressure":1006.3,"uv_index":8.7,"wind_gusts":40.7,"aqi":57,"pm10":17.0,"pm2_5":14.1,"mosquito_risk":3,"arthritis_risk":5,"migraine_risk":4,"frizz_risk":1,"updated_at":"2026-03-15T02:02:41.100953+05:30"},{"city":"Vijayawada","state":"Andhra Pradesh","latitude":16.5062,"longitude":80.648,"temp":24.1,"humidity":92,"rain":0.0,"pressure":1005.1,"uv_index":8.75,"wind_gusts":24.5,"aqi":58,"pm10":18.7,"pm2_5":16.4,"mosquito_risk":3,"arthritis_risk":5,"migraine_risk":4,"frizz_risk":1,"updated_at":"2026-03-15T02:02:41.100959+05:30"},{"city":"Guntur","state":"Andhra Pradesh","latitude":16.3067,"longitude":80.4365,"temp":24.6,"humidity":90,"rain":0.0,"pressure":1006.1,"uv_index":8.75,"wind_gusts":24.8,"aqi":55,"pm10":16.3,"pm2_5":14.2,"mosquito_risk":3,"arthritis_risk":5,"migraine_risk":4,"frizz_risk":1,"updated_at":"2026-03-15T02:02:41.100966+05:30"},{"city":"Nellore","state":"Andhra Pradesh","latitude":14.4426,"longitude":79.9865,"temp":24.1,"humidity":95,"rain":0.0,"pressure":1007.9,"uv_index":8.95,"wind_gusts":32.0,"aqi":56,"pm10":11.6,"pm2_5":9.7,"mosquito_risk":3,"arthritis_risk":5,"migraine_risk":4,"frizz_risk":1,"updated_at":"2026-03-15T02:02:41.100973+05:30"},{"city":"Kurnool","state":"Andhra Pradesh","latitude":15.8281,"longitude":78.0373,"temp":26.2,"humidity":63,"rain":0.0,"pressure":977.7,"uv_index":8.75,"wind_gusts":19.1,"aqi":84,"pm10":25.9,"pm2_5":21.9,"mosquito_risk":7,"arthritis_risk":5,"migraine_risk":7,"frizz_risk":1,"updated_at":"2026-03-15T02:02:41.100980+05:30"},{"city":"Kakinada","state":"Andhra Pradesh","latitude":16.9891,"longitude":82.2475,"temp":23.5,"humidity":93,"rain":0.0,"pressure":1010.3,"uv_index":8.7,"wind_gusts":28.1,"aqi":47,"pm10":14.6,"pm2_5":11.2,"mosquito_risk":3,"arthritis_risk":0,"migraine_risk":4,"frizz_risk":1,"updated_at":"2026-03-15T02:02:41.100986+05:30"},{"city":"Tirupati","state":"Andhra Pradesh","latitude":13.6288,"longitude":79.4192,"temp":22.9,"humidity":91,"rain":0.0,"pressure":994.1,"uv_index":9.05,"wind_gusts":25.2,"aqi":70,"pm10":25.8,"pm2_5":24.2,"mosquito_risk":3,"arthritis_risk":5,"migraine_risk":7,"frizz_risk":1,"updated_at":"2026-03-15T02:02:41.100992+05:30"},{"city":"Warangal","state":"Telangana","latitude":17.9689,"longitude":79.5941,"temp":23.7,"humidity":85,"rain":0.0,"pressure":980.0,"uv_index":8.55,"wind_gusts":32.0,"aqi":79,"pm10":15.5,"pm2_5":13.6,"mosquito_risk":3,"arthritis_risk":5,"migraine_risk":7,"frizz_risk":1,"updated_at":"2026-03-15T02:02:41.100999+05:30"},{"city":"Nizamabad","state":"Telangana","latitude":18.6725,"longitude":78.0941,"temp":27.0,"humidity":55,"rain":0.0,"pressure":965.3,"uv_index":8.45,"wind_gusts":29.5,"aqi":122,"pm10":35.0,"pm2_5":31.9,"mosquito_risk":4,"arthritis_risk":5,"migraine_risk":7,"frizz_risk":1,"updated_at":"2026-03-15T02:02:41.101005+05:30"},{"city":"Mysore","state":"Karnataka","latitude":12.2958,"longitude":76.6396,"temp":21.4,"humidity":92,"rain":0.0,"pressure":929.8,"uv_index":9.3,"wind_gusts":32.8,"aqi":97,"pm10":31.8,"pm2_5":29.7,"mosquito_risk":3,"arthritis_risk":5,"migraine_risk":7,"frizz_risk":1,"updated_at":"2026-03-15T02:02:41.101012+05:30"},{"city":"Mangalore","state":"Karnataka","latitude":12.9141,"longitude":74.856,"temp":28.2,"humidity":79,"rain":0.0,"pressure":1008.2,"uv_index":8.95,"wind_gusts":27.0,"aqi":94,"pm10":35.0,"pm2_5":29.9,"mosquito_risk":7,"arthritis_risk":0,"migraine_risk":4,"frizz_risk":1,"updated_at":"2026-03-15T02:02:41.101018+05:30"},{"city":"Hubli-Dharwad","state":"Karnataka","latitude":15.3647,"longitude":75.124,"temp":23.1,"humidity":93,"rain":0.0,"pressure":941.9,"uv_index":8.95,"wind_gusts":43.2,"aqi":110,"pm10":33.8,"pm2_5":31.7,"mosquito_risk":3,"arthritis_risk":5,"migraine_risk":7,"frizz_risk":1,"updated_at":"2026-03-15T02:02:41.101024+05:30"},{"city":"Belgaum","state":"Karnataka","latitude":15.8497,"longitude":74.4977,"temp":22.7,"humidity":95,"rain":0.0,"pressure":926.6,"uv_index":9.0,"wind_gusts":41.0,"aqi":130,"pm10":63.3,"pm2_5":60.3,"mosquito_risk":3,"arthritis_risk":5,"migraine_risk":7,"frizz_risk":1,"updated_at":"2026-03-15T02:02:44.448393+05:30"},{"city":"Coimbatore","state":"Tamil Nadu","latitude":11.0168,"longitude":76.9558,"temp":22.1,"humidity":89,"rain":0.0,"pressure":963.5,"uv_index":9.3,"wind_gusts":31.3,"aqi":70,"pm10":38.5,"pm2_5":36.6,"mosquito_risk":3,"arthritis_risk":5,"migraine_risk":7,"frizz_risk":1,"updated_at":"2026-03-15T02:02:44.448426+05:30"},{"city":"Madurai","state":"Tamil Nadu","latitude":9.9252,"longitude":78.1198,"temp":24.4,"humidity":81,"rain":0.0,"pressure":995.6,"uv_index":9.25,"wind_gusts":24.1,"aqi":56,"pm10":18.5,"pm2_5":16.9,"mosquito_risk":3,"arthritis_risk":5,"migraine_risk":7,"frizz_risk":1,"updated_at":"2026-03-15T02:02:44.448437+05:30"},{"city":"Trichy","state":"Tamil Nadu","latitude":10.7905,"longitude":78.7047,"temp":24.5,"humidity":93,"rain":0.0,"pressure":1002.3,"uv_index":9.2,"wind_gusts":19.8,"aqi":63,"pm10":18.3,"pm2_5":16.2,"mosquito_risk":3,"arthritis_risk":5,"migraine_risk":4,"frizz_risk":1,"updated_at":"2026-03-15T02:02:44.448446+05:30"},{"city":"Salem","state":"Tamil Nadu","latitude":11.6643,"longitude":78.146,"temp":23.5,"humidity":91,"rain":0.0,"pressure":979.4,"uv_index":9.2,"wind_gusts":16.6,"aqi":82,"pm10":30.3,"pm2_5":28.6,"mosquito_risk":3,"arthritis_risk":5,"migraine_risk":7,"frizz_risk":1,"updated_at":"2026-03-15T02:02:44.448455+05:30"},{"city":"Tirunelveli","state":"Tamil Nadu","latitude":8.7139,"longitude":77.7567,"temp":24.3,"humidity":85,"rain":0.0,"pressure":1005.3,"uv_index":9.25,"wind_gusts":41.0,"aqi":51,"pm10":17.6,"pm2_5":16.9,"mosquito_risk":3,"arthritis_risk":5,"migraine_risk":4,"frizz_risk":1,"updated_at":"2026-03-15T02:02:44.448464+05:30"},{"city":"Vellore","state":"Tamil Nadu","latitude":12.9165,"longitude":79.1325,"temp":22.1,"humidity":88,"rain":0.0,"pressure":986.9,"uv_index":9.1,"wind_gusts":29.5,"aqi":93,"pm10":45.5,"pm2_5":44.0,"mosquito_risk":3,"arthritis_risk":5,"migraine_risk":7,"frizz_risk":1,"updated_at":"2026-03-15T02:02:44.448472+05:30"},{"city":"Erode","state":"Tamil Nadu","latitude":11.341,"longitude":77.7172,"temp":24.9,"humidity":87,"rain":0.0,"pressure":991.3,"uv_index":9.2,"wind_gusts":21.2,"aqi":55,"pm10":14.4,"pm2_5":13.3,"mosquito_risk":3,"arthritis_risk":5,"migraine_risk":7,"frizz_risk":1,"updated_at":"2026-03-15T02:02:44.448480+05:30"},{"city":"Kochi","state":"Kerala","latitude":9.9312,"longitude":76.2673,"temp":26.7,"humidity":86,"rain":0.0,"pressure":1010.4,"uv_index":9.1,"wind_gusts":33.5,"aqi":86,"pm10":36.0,"pm2_5":35.4,"mosquito_risk":7,"arthritis_risk":0,"migraine_risk":4,"frizz_risk":1,"updated_at":"2026-03-15T02:02:44.448489+05:30"},{"city":"Thiruvananthapuram","state":"Kerala","latitude":8.5241,"longitude":76.9366,"temp":27.9,"humidity":80,"rain":0.0,"pressure":1009.2,"uv_index":9.15,"wind_gusts":29.5,"aqi":50,"pm10":12.0,"pm2_5":9.1,"mosquito_risk":7,"arthritis_risk":0,"migraine_risk":4,"frizz_risk":1,"updated_at":"2026-03-15T02:02:44.448497+05:30"},{"city":"Kozhikode","state":"Kerala","latitude":11.2588,"longitude":75.7804,"temp":26.9,"humidity":84,"rain":0.0,"pressure":1009.6,"uv_index":9.0,"wind_gusts":28.4,"aqi":69,"pm10":25.1,"pm2_5":21.7,"mosquito_risk":7,"arthritis_risk":0,"migraine_risk":4,"frizz_risk":1,"updated_at":"2026-03-15T02:02:44.448506+05:30"},{"city":"Thrissur","state":"Kerala","latitude":10.5276,"longitude":76.2144,"temp":25.9,"humidity":89,"rain":0.0,"pressure":1008.9,"uv_index":9.05,"wind_gusts":36.4,"aqi":81,"pm10":36.4,"pm2_5":35.3,"mosquito_risk":7,"arthritis_risk":0,"migraine_risk":4,"frizz_risk":1,"updated_at":"2026-03-15T02:02:44.448515+05:30"},{"city":"Kannur","state":"Kerala","latitude":11.8745,"longitude":75.3704,"temp":26.9,"humidity":84,"rain":0.0,"pressure":1008.8,"uv_index":9.0,"wind_gusts":29.2,"aqi":89,"pm10":35.4,"pm2_5":33.3,"mosquito_risk":7,"arthritis_risk":0,"migraine_risk":4,"frizz_risk":1,"updated_at":"2026-03-15T02:02:44.448523+05:30"},{"city":"Patna","state":"Bihar","latitude":25.5941,"longitude":85.1376,"temp":25.1,"humidity":68,"rain":0.0,"pressure":1001.2,"uv_index":7.4,"wind_gusts":30.2,"aqi":151,"pm10":156.5,"pm2_5":95.2,"mosquito_risk":7,"arthritis_risk":5,"migraine_risk":4,"frizz_risk":1,"updated_at":"2026-03-15T02:02:44.448531+05:30"},{"city":"Gaya","state":"Bihar","latitude":24.7914,"longitude":85.0002,"temp":23.9,"humidity":61,"rain":0.0,"pressure":994.3,"uv_index":7.65,"wind_gusts":30.2,"aqi":125,"pm10":113.4,"pm2_5":65.9,"mosquito_risk":3,"arthritis_risk":5,"migraine_risk":7,"frizz_risk":0,"updated_at":"2026-03-15T02:02:44.448540+05:30"},{"city":"Muzaffarpur","state":"Bihar","latitude":26.1209,"longitude":85.3647,"temp":20.4,"humidity":74,"rain":0.0,"pressure":1001.1,"uv_index":7.5,"wind_gusts":34.9,"aqi":160,"pm10":158.8,"pm2_5":108.3,"mosquito_risk":3,"arthritis_risk":5,"migraine_risk":4,"frizz_risk":0,"updated_at":"2026-03-15T02:02:44.448548+05:30"},{"city":"Bhagalpur","state":"Bihar","latitude":25.2425,"longitude":87.0117,"temp":21.9,"humidity":91,"rain":0.0,"pressure":1002.0,"uv_index":7.55,"wind_gusts":23.4,"aqi":154,"pm10":84.5,"pm2_5":64.3,"mosquito_risk":3,"arthritis_risk":5,"migraine_risk":4,"frizz_risk":1,"updated_at":"2026-03-15T02:02:44.448557+05:30"},{"city":"Ranchi","state":"Jharkhand","latitude":23.3441,"longitude":85.3096,"temp":22.4,"humidity":39,"rain":0.0,"pressure":938.6,"uv_index":8.3,"wind_gusts":44.6,"aqi":78,"pm10":49.1,"pm2_5":22.8,"mosquito_risk":0,"arthritis_risk":5,"migraine_risk":7,"frizz_risk":0,"updated_at":"2026-03-15T02:02:44.448565+05:30"},{"city":"Jamshedpur","state":"Jharkhand","latitude":22.8046,"longitude":86.2029,"temp":26.5,"humidity":74,"rain":0.0,"pressure":992.0,"uv_index":8.2,"wind_gusts":43.2,"aqi":150,"pm10":48.9,"pm2_5":43.3,"mosquito_risk":7,"arthritis_risk":5,"migraine_risk":7,"frizz_risk":1,"updated_at":"2026-03-15T02:02:44.448574+05:30"},{"city":"Dhanbad","state":"Jharkhand","latitude":23.7957,"longitude":86.4304,"temp":24.7,"humidity":83,"rain":0.0,"pressure":980.7,"uv_index":8.05,"wind_gusts":54.0,"aqi":161,"pm10":122.9,"pm2_5":110.8,"mosquito_risk":3,"arthritis_risk":5,"migraine_risk":7,"frizz_risk":1,"updated_at":"2026-03-15T02:02:44.448581+05:30"},{"city":"Bokaro","state":"Jharkhand","latitude":23.6693,"longitude":86.1511,"temp":22.0,"humidity":71,"rain":0.0,"pressure":984.8,"uv_index":8.05,"wind_gusts":47.2,"aqi":153,"pm10":116.4,"pm2_5":89.4,"mosquito_risk":3,"arthritis_risk":5,"migraine_risk":7,"frizz_risk":1,"updated_at":"2026-03-15T02:02:44.448589+05:30"},{"city":"Bhubaneswar","state":"Odisha","latitude":20.2961,"longitude":85.8245,"temp":25.1,"humidity":86,"rain":0.0,"pressure":1004.4,"uv_index":8.5,"wind_gusts":39.6,"aqi":57,"pm10":11.9,"pm2_5":8.8,"mosquito_risk":7,"arthritis_risk":5,"migraine_risk":4,"frizz_risk":1,"updated_at":"2026-03-15T02:02:44.448614+05:30"},{"city":"Cuttack","state":"Odisha","latitude":20.4625,"longitude":85.8828,"temp":24.9,"humidity":88,"rain":0.0,"pressure":1006.3,"uv_index":8.5,"wind_gusts":33.8,"aqi":57,"pm10":11.9,"pm2_5":8.8,"mosquito_risk":3,"arthritis_risk":5,"migraine_risk":4,"frizz_risk":1,"updated_at":"2026-03-15T02:02:44.448622+05:30"},{"city":"Rourkela","state":"Odisha","latitude":22.2604,"longitude":84.8536,"temp":25.7,"humidity":81,"rain":0.0,"pressure":986.4,"uv_index":8.1,"wind_gusts":43.9,"aqi":117,"pm10":51.2,"pm2_5":45.9,"mosquito_risk":7,"arthritis_risk":5,"migraine_risk":7,"frizz_risk":1,"updated_at":"2026-03-15T02:02:44.448630+05:30"},{"city":"Raipur","state":"Chhattisgarh","latitude":21.2514,"longitude":81.6296,"temp":25.4,"humidity":55,"rain":0.0,"pressure":975.1,"uv_index":8.2,"wind_gusts":40.7,"aqi":146,"pm10":67.5,"pm2_5":64.5,"mosquito_risk":4,"arthritis_risk":5,"migraine_risk":7,"frizz_risk":0,"updated_at":"2026-03-15T02:02:44.448638+05:30"},{"city":"Bhilai","state":"Chhattisgarh","latitude":21.1938,"longitude":81.3509,"temp":24.5,"humidity":58,"rain":0.0,"pressure":975.4,"uv_index":8.25,"wind_gusts":38.2,"aqi":138,"pm10":58.1,"pm2_5":54.1,"mosquito_risk":0,"arthritis_risk":5,"migraine_risk":7,"frizz_risk":0,"updated_at":"2026-03-15T02:02:44.448646+05:30"},{"city":"Guwahati","state":"Assam","latitude":26.1158,"longitude":91.7086,"temp":20.5,"humidity":95,"rain":0.0,"pressure":1004.5,"uv_index":7.45,"wind_gusts":45.4,"aqi":63,"pm10":23.5,"pm2_5":17.7,"mosquito_risk":3,"arthritis_risk":5,"migraine_risk":4,"frizz_risk":1,"updated_at":"2026-03-15T02:02:44.448654+05:30"},{"city":"Agartala","state":"Tripura","latitude":23.8315,"longitude":91.2868,"temp":20.0,"humidity":92,"rain":0.0,"pressure":1010.4,"uv_index":7.9,"wind_gusts":48.6,"aqi":73,"pm10":11.6,"pm2_5":9.5,"mosquito_risk":3,"arthritis_risk":0,"migraine_risk":4,"frizz_risk":1,"updated_at":"2026-03-15T02:02:44.448662+05:30"},{"city":"Shillong","state":"Meghalaya","latitude":25.5788,"longitude":91.8933,"temp":12.6,"humidity":92,"rain":0.0,"pressure":856.4,"uv_index":7.85,"wind_gusts":75.6,"aqi":51,"pm10":16.0,"pm2_5":10.4,"mosquito_risk":3,"arthritis_risk":10,"migraine_risk":7,"frizz_risk":0,"updated_at":"2026-03-15T02:02:44.448670+05:30"},{"city":"Imphal","state":"Manipur","latitude":24.817,"longitude":93.9368,"temp":16.1,"humidity":90,"rain":0.0,"pressure":925.6,"uv_index":8.05,"wind_gusts":78.1,"aqi":122,"pm10":55.1,"pm2_5":49.0,"mosquito_risk":3,"arthritis_risk":10,"migraine_risk":7,"frizz_risk":0,"updated_at":"2026-03-15T02:02:44.448679+05:30"},{"city":"Aizawl","state":"Mizoram","latitude":23.7271,"longitude":92.7176,"temp":16.0,"humidity":90,"rain":0.0,"pressure":894.6,"uv_index":8.1,"wind_gusts":60.1,"aqi":96,"pm10":29.3,"pm2_5":22.5,"mosquito_risk":3,"arthritis_risk":10,"migraine_risk":7,"frizz_risk":0,"updated_at":"2026-03-15T02:02:44.448686+05:30"},{"city":"Kohima","state":"Nagaland","latitude":25.6701,"longitude":94.1077,"temp":14.3,"humidity":77,"rain":0.0,"pressure":855.1,"uv_index":7.35,"wind_gusts":110.5,"aqi":87,"pm10":24.7,"pm2_5":20.8,"mosquito_risk":3,"arthritis_risk":5,"migraine_risk":7,"frizz_risk":0,"updated_at":"2026-03-15T02:02:44.448694+05:30"},{"city":"Gangtok","state":"Sikkim","latitude":27.3314,"longitude":88.6138,"temp":12.2,"humidity":90,"rain":0.0,"pressure":836.2,"uv_index":7.55,"wind_gusts":20.9,"aqi":66,"pm10":31.2,"pm2_5":22.1,"mosquito_risk":3,"arthritis_risk":10,"migraine_risk":7,"frizz_risk":0,"updated_at":"2026-03-15T02:02:44.448702+05:30"},{"city":"Siliguri","state":"West Bengal","latitude":26.7271,"longitude":88.3953,"temp":19.7,"humidity":77,"rain":0.0,"pressure":995.7,"uv_index":7.4,"wind_gusts":34.9,"aqi":137,"pm10":65.4,"pm2_5":48.7,"mosquito_risk":3,"arthritis_risk":5,"migraine_risk":7,"frizz_risk":0,"updated_at":"2026-03-15T02:02:47.810799+05:30"},{"city":"Durgapur","state":"West Bengal","latitude":23.5204,"longitude":87.3119,"temp":24.7,"humidity":92,"rain":0.0,"pressure":996.2,"uv_index":8.05,"wind_gusts":26.3,"aqi":152,"pm10":37.5,"pm2_5":35.2,"mosquito_risk":3,"arthritis_risk":5,"migraine_risk":7,"frizz_risk":1,"updated_at":"2026-03-15T02:02:47.810829+05:30"},{"city":"Asansol","state":"West Bengal","latitude":23.6739,"longitude":86.9524,"temp":25.2,"humidity":90,"rain":0.0,"pressure":994.7,"uv_index":8.05,"wind_gusts":31.3,"aqi":151,"pm10":56.9,"pm2_5":52.9,"mosquito_risk":7,"arthritis_risk":5,"migraine_risk":7,"frizz_risk":1,"updated_at":"2026-03-15T02:02:47.810839+05:30"},{"city":"Pondicherry","state":"Puducherry","latitude":11.9139,"longitude":79.8145,"temp":24.4,"humidity":94,"rain":0.0,"pressure":1011.1,"uv_index":9.05,"wind_gusts":30.6,"aqi":45,"pm10":13.0,"pm2_5":9.8,"mosquito_risk":3,"arthritis_risk":0,"migraine_risk":4,"frizz_risk":1,"updated_at":"2026-03-15T02:02:47.810847+05:30"},{"city":"Port Blair","state":"Andaman and Nicobar Islands","latitude":11.6234,"longitude":92.7265,"temp":27.3,"humidity":82,"rain":0.0,"pressure":1009.1,"uv_index":8.95,"wind_gusts":23.4,"aqi":56,"pm10":13.1,"pm2_5":9.8,"mosquito_risk":7,"arthritis_risk":0,"migraine_risk":4,"frizz_risk":1,"updated_at":"2026-03-15T02:02:47.810855+05:30"},{"city":"Haridwar","state":"Uttarakhand","latitude":29.9457,"longitude":78.1642,"temp":18.3,"humidity":76,"rain":0.0,"pressure":974.7,"uv_index":5.85,"wind_gusts":25.2,"aqi":99,"pm10":49.1,"pm2_5":40.9,"mosquito_risk":3,"arthritis_risk":5,"migraine_risk":3,"frizz_risk":0,"updated_at":"2026-03-15T02:02:47.810862+05:30"},{"city":"Rishikesh","state":"Uttarakhand","latitude":30.0869,"longitude":78.2676,"temp":19.3,"humidity":70,"rain":0.0,"pressure":967.7,"uv_index":5.95,"wind_gusts":36.4,"aqi":69,"pm10":32.8,"pm2_5":23.3,"mosquito_risk":3,"arthritis_risk":5,"migraine_risk":3,"frizz_risk":0,"updated_at":"2026-03-15T02:02:47.810869+05:30"},{"city":"Nainital","state":"Uttarakhand","latitude":29.3919,"longitude":79.4542,"temp":16.4,"humidity":35,"rain":0.0,"pressure":805.2,"uv_index":5.65,"wind_gusts":50.8,"aqi":86,"pm10":37.3,"pm2_5":32.2,"mosquito_risk":0,"arthritis_risk":5,"migraine_risk":3,"frizz_risk":0,"updated_at":"2026-03-15T02:02:47.810876+05:30"},{"city":"Mussoorie","state":"Uttarakhand","latitude":30.4599,"longitude":78.0664,"temp":14.4,"humidity":65,"rain":0.0,"pressure":801.7,"uv_index":6.15,"wind_gusts":29.2,"aqi":73,"pm10":48.2,"pm2_5":37.0,"mosquito_risk":3,"arthritis_risk":5,"migraine_risk":7,"frizz_risk":0,"updated_at":"2026-03-15T02:02:47.810883+05:30"},{"city":"Dharamshala","state":"Himachal Pradesh","latitude":32.219,"longitude":76.3234,"temp":19.7,"humidity":21,"rain":0.0,"pressure":868.7,"uv_index":4.65,"wind_gusts":39.6,"aqi":42,"pm10":11.7,"pm2_5":6.1,"mosquito_risk":0,"arthritis_risk":5,"migraine_risk":3,"frizz_risk":1,"updated_at":"2026-03-15T02:02:47.810890+05:30"},{"city":"Dalhousie","state":"Himachal Pradesh","latitude":32.5387,"longitude":75.971,"temp":15.0,"humidity":28,"rain":0.0,"pressure":802.3,"uv_index":4.1,"wind_gusts":43.6,"aqi":67,"pm10":38.0,"pm2_5":28.4,"mosquito_risk":0,"arthritis_risk":5,"migraine_risk":3,"frizz_risk":1,"updated_at":"2026-03-15T02:02:47.810899+05:30"},{"city":"Patiala","state":"Punjab","latitude":30.3398,"longitude":76.3869,"temp":17.1,"humidity":66,"rain":0.0,"pressure":978.2,"uv_index":5.9,"wind_gusts":48.6,"aqi":150,"pm10":143.0,"pm2_5":78.5,"mosquito_risk":3,"arthritis_risk":5,"migraine_risk":3,"frizz_risk":0,"updated_at":"2026-03-15T02:02:47.810906+05:30"},{"city":"Bhatinda","state":"Punjab","latitude":30.211,"longitude":74.9455,"temp":18.9,"humidity":69,"rain":0.0,"pressure":983.3,"uv_index":6.45,"wind_gusts":46.1,"aqi":96,"pm10":68.9,"pm2_5":44.4,"mosquito_risk":3,"arthritis_risk":5,"migraine_risk":7,"frizz_risk":0,"updated_at":"2026-03-15T02:02:47.810913+05:30"},{"city":"Rohtak","state":"Haryana","latitude":28.8955,"longitude":76.6066,"temp":18.3,"humidity":69,"rain":0.0,"pressure":981.6,"uv_index":6.15,"wind_gusts":32.4,"aqi":172,"pm10":235.2,"pm2_5":77.3,"mosquito_risk":3,"arthritis_risk":5,"migraine_risk":7,"frizz_risk":0,"updated_at":"2026-03-15T02:02:47.810920+05:30"},{"city":"Panipat","state":"Haryana","latitude":29.3909,"longitude":76.9635,"temp":17.5,"humidity":65,"rain":0.0,"pressure":980.3,"uv_index":5.7,"wind_gusts":36.7,"aqi":497,"pm10":319.4,"pm2_5":106.4,"mosquito_risk":3,"arthritis_risk":5,"migraine_risk":3,"frizz_risk":0,"updated_at":"2026-03-15T02:02:47.810927+05:30"},{"city":"Mathura","state":"Uttar Pradesh","latitude":27.4924,"longitude":77.6737,"temp":18.3,"humidity":66,"rain":0.0,"pressure":987.7,"uv_index":6.45,"wind_gusts":37.4,"aqi":265,"pm10":398.6,"pm2_5":67.5,"mosquito_risk":3,"arthritis_risk":5,"migraine_risk":7,"frizz_risk":0,"updated_at":"2026-03-15T02:02:47.810934+05:30"},{"city":"Vrindavan","state":"Uttar Pradesh","latitude":27.5823,"longitude":77.7027,"temp":19.7,"humidity":60,"rain":0.0,"pressure":987.8,"uv_index":6.45,"wind_gusts":35.3,"aqi":265,"pm10":398.6,"pm2_5":67.5,"mosquito_risk":0,"arthritis_risk":5,"migraine_risk":7,"frizz_risk":0,"updated_at":"2026-03-15T02:02:47.810941+05:30"},{"city":"Ayodhya","state":"Uttar Pradesh","latitude":26.7922,"longitude":82.1998,"temp":20.3,"humidity":75,"rain":0.0,"pressure":997.0,"uv_index":6.9,"wind_gusts":33.1,"aqi":154,"pm10":98.7,"pm2_5":52.9,"mosquito_risk":3,"arthritis_risk":5,"migraine_risk":7,"frizz_risk":0,"updated_at":"2026-03-15T02:02:47.810947+05:30"},{"city":"Ratlam","state":"Madhya Pradesh","latitude":23.3315,"longitude":75.0367,"temp":22.8,"humidity":50,"rain":0.0,"pressure":954.9,"uv_index":7.65,"wind_gusts":31.3,"aqi":76,"pm10":34.7,"pm2_5":19.9,"mosquito_risk":0,"arthritis_risk":5,"migraine_risk":7,"frizz_risk":0,"updated_at":"2026-03-15T02:02:47.810954+05:30"},{"city":"Sagar","state":"Madhya Pradesh","latitude":23.8388,"longitude":78.7378,"temp":24.3,"humidity":39,"rain":0.0,"pressure":950.0,"uv_index":7.65,"wind_gusts":33.5,"aqi":64,"pm10":19.8,"pm2_5":17.9,"mosquito_risk":0,"arthritis_risk":5,"migraine_risk":7,"frizz_risk":0,"updated_at":"2026-03-15T02:02:47.810961+05:30"},{"city":"Satna","state":"Madhya Pradesh","latitude":24.6005,"longitude":80.8322,"temp":22.4,"humidity":69,"rain":0.0,"pressure":971.2,"uv_index":7.6,"wind_gusts":31.3,"aqi":99,"pm10":110.4,"pm2_5":38.0,"mosquito_risk":3,"arthritis_risk":5,"migraine_risk":7,"frizz_risk":1,"updated_at":"2026-03-15T02:02:47.810968+05:30"},{"city":"Akola","state":"Maharashtra","latitude":20.7002,"longitude":77.0082,"temp":25.2,"humidity":46,"rain":0.0,"pressure":975.5,"uv_index":8.15,"wind_gusts":25.2,"aqi":93,"pm10":39.7,"pm2_5":36.3,"mosquito_risk":4,"arthritis_risk":5,"migraine_risk":7,"frizz_risk":0,"updated_at":"2026-03-15T02:02:47.810975+05:30"},{"city":"Amravati","state":"Maharashtra","latitude":20.9374,"longitude":77.7796,"temp":22.2,"humidity":62,"rain":0.0,"pressure":967.3,"uv_index":8.1,"wind_gusts":22.7,"aqi":103,"pm10":42.1,"pm2_5":38.9,"mosquito_risk":3,"arthritis_risk":5,"migraine_risk":7,"frizz_risk":0,"updated_at":"2026-03-15T02:02:47.810983+05:30"},{"city":"Latur","state":"Maharashtra","latitude":18.4088,"longitude":76.5604,"temp":24.1,"humidity":49,"rain":0.0,"pressure":940.0,"uv_index":8.6,"wind_gusts":26.6,"aqi":112,"pm10":54.2,"pm2_5":46.8,"mosquito_risk":0,"arthritis_risk":5,"migraine_risk":7,"frizz_risk":0,"updated_at":"2026-03-15T02:02:47.810989+05:30"},{"city":"Nanded","state":"Maharashtra","latitude":19.1383,"longitude":77.3091,"temp":26.6,"humidity":54,"rain":0.0,"pressure":969.1,"uv_index":8.35,"wind_gusts":22.7,"aqi":134,"pm10":57.3,"pm2_5":50.2,"mosquito_risk":4,"arthritis_risk":5,"migraine_risk":7,"frizz_risk":1,"updated_at":"2026-03-15T02:02:47.810996+05:30"},{"city":"Gulbarga","state":"Karnataka","latitude":17.3297,"longitude":76.8343,"temp":27.7,"humidity":42,"rain":0.0,"pressure":959.4,"uv_index":8.65,"wind_gusts":14.0,"aqi":102,"pm10":53.3,"pm2_5":43.7,"mosquito_risk":4,"arthritis_risk":5,"migraine_risk":7,"frizz_risk":0,"updated_at":"2026-03-15T02:02:47.811002+05:30"},{"city":"Bidar","state":"Karnataka","latitude":17.9104,"longitude":77.5199,"temp":24.7,"humidity":54,"rain":0.0,"pressure":936.2,"uv_index":8.6,"wind_gusts":17.3,"aqi":112,"pm10":43.1,"pm2_5":38.3,"mosquito_risk":0,"arthritis_risk":5,"migraine_risk":7,"frizz_risk":0,"updated_at":"2026-03-15T02:02:47.811009+05:30"},{"city":"Hospet","state":"Karnataka","latitude":15.2689,"longitude":76.3909,"temp":25.8,"humidity":80,"rain":0.0,"pressure":957.5,"uv_index":8.9,"wind_gusts":28.8,"aqi":111,"pm10":48.5,"pm2_5":43.0,"mosquito_risk":7,"arthritis_risk":5,"migraine_risk":7,"frizz_risk":1,"updated_at":"2026-03-15T02:02:47.811015+05:30"},{"city":"Tirupur","state":"Tamil Nadu","latitude":11.1085,"longitude":77.3411,"temp":25.0,"humidity":82,"rain":0.0,"pressure":977.4,"uv_index":9.3,"wind_gusts":27.4,"aqi":62,"pm10":27.4,"pm2_5":26.0,"mosquito_risk":7,"arthritis_risk":5,"migraine_risk":7,"frizz_risk":1,"updated_at":"2026-03-15T02:02:47.811021+05:30"},{"city":"Alappuzha","state":"Kerala","latitude":9.4981,"longitude":76.3388,"temp":26.5,"humidity":87,"rain":0.0,"pressure":1010.4,"uv_index":9.1,"wind_gusts":30.2,"aqi":71,"pm10":29.3,"pm2_5":26.4,"mosquito_risk":7,"arthritis_risk":0,"migraine_risk":4,"frizz_risk":1,"updated_at":"2026-03-15T02:02:47.811028+05:30"},{"city":"Munnar","state":"Kerala","latitude":10.0889,"longitude":77.0595,"temp":19.4,"humidity":86,"rain":0.0,"pressure":857.1,"uv_index":9.6,"wind_gusts":37.4,"aqi":58,"pm10":24.2,"pm2_5":22.9,"mosquito_risk":3,"arthritis_risk":10,"migraine_risk":7,"frizz_risk":1,"updated_at":"2026-03-15T02:02:47.811036+05:30"},{"city":"Silchar","state":"Assam","latitude":24.8333,"longitude":92.7789,"temp":20.5,"humidity":93,"rain":0.1,"pressure":1009.7,"uv_index":7.55,"wind_gusts":41.8,"aqi":90,"pm10":34.9,"pm2_5":29.4,"mosquito_risk":6,"arthritis_risk":0,"migraine_risk":4,"frizz_risk":1,"updated_at":"2026-03-15T02:02:47.811043+05:30"},{"city":"Dibrugarh","state":"Assam","latitude":27.4728,"longitude":94.912,"temp":19.3,"humidity":92,"rain":0.0,"pressure":998.8,"uv_index":5.0,"wind_gusts":33.5,"aqi":80,"pm10":24.6,"pm2_5":21.8,"mosquito_risk":3,"arthritis_risk":10,"migraine_risk":3,"frizz_risk":1,"updated_at":"2026-03-15T02:02:47.811050+05:30"}]