[{"city":"Delhi","state":"Delhi","latitude":28.6139,"longitude":77.209,"temp":36.3,"humidity":19,"rain":0.0,"pressure":981.4,"uv_index":7.25,"wind_gusts":22.0,"aqi":198,"pm10":302.7,"pm2_5":36.2,"mosquito_risk":0,"arthritis_risk":5,"migraine_risk":10,"frizz_risk":0,"updated_at":"2026-04-14T16:36:24.156780+05:30"},{"city":"Mumbai","state":"Maharashtra","latitude":19.076,"longitude":72.8777,"temp":30.4,"humidity":74,"rain":0.0,"pressure":1006.4,"uv_index":8.0,"wind_gusts":24.5,"aqi":198,"pm10":90.3,"pm2_5":33.3,"mosquito_risk":3,"arthritis_risk":5,"migraine_risk":4,"frizz_risk":1,"updated_at":"2026-04-14T16:36:24.156820+05:30"},{"city":"Bangalore","state":"Karnataka","latitude":12.9716,"longitude":77.5946,"temp":36.3,"humidity":18,"rain":0.0,"pressure":910.7,"uv_index":9.65,"wind_gusts":29.5,"aqi":151,"pm10":26.5,"pm2_5":19.2,"mosquito_risk":0,"arthritis_risk":5,"migraine_risk":10,"frizz_risk":0,"updated_at":"2026-04-14T16:36:24.156836+05:30"},{"city":"Hyderabad","state":"Telangana","latitude":17.385,"longitude":78.4867,"temp":39.5,"humidity":22,"rain":0.0,"pressure":950.7,"uv_index":9.25,"wind_gusts":25.6,"aqi":134,"pm10":45.4,"pm2_5":33.8,"mosquito_risk":0,"arthritis_risk":5,"migraine_risk":10,"frizz_risk":0,"updated_at":"2026-04-14T16:36:24.156845+05:30"},{"city":"Chennai","state":"Tamil Nadu","latitude":13.0827,"longitude":80.2707,"temp":34.1,"humidity":51,"rain":0.0,"pressure":1005.1,"uv_index":9.35,"wind_gusts":32.0,"aqi":43,"pm10":12.8,"pm2_5":8.5,"mosquito_risk":0,"arthritis_risk":5,"migraine_risk":4,"frizz_risk":1,"updated_at":"2026-04-14T16:36:24.156854+05:30"},{"city":"Kolkata","state":"West Bengal","latitude":22.5726,"longitude":88.3639,"temp":34.0,"humidity":56,"rain":0.0,"pressure":1003.0,"uv_index":8.85,"wind_gusts":29.2,"aqi":137,"pm10":85.2,"pm2_5":41.4,"mosquito_risk":0,"arthritis_risk":5,"migraine_risk":4,"frizz_risk":1,"updated_at":"2026-04-14T16:36:24.156863+05:30"},{"city":"Pune","state":"Maharashtra","latitude":18.5204,"longitude":73.8567,"temp":38.7,"humidity":20,"rain":0.0,"pressure":947.1,"uv_index":8.6,"wind_gusts":42.8,"aqi":131,"pm10":24.4,"pm2_5":15.0,"mosquito_risk":0,"arthritis_risk":5,"migraine_risk":10,"frizz_risk":0,"updated_at":"2026-04-14T16:36:24.156894+05:30"},{"city":"Ahmedabad","state":"Gujarat","latitude":23.0225,"longitude":72.5714,"temp":40.9,"humidity":16,"rain":0.0,"pressure":999.3,"uv_index":8.15,"wind_gusts":33.5,"aqi":74,"pm10":62.2,"pm2_5":15.3,"mosquito_risk":0,"arthritis_risk":5,"migraine_risk":10,"frizz_risk":0,"updated_at":"2026-04-14T16:36:24.156904+05:30"},{"city":"Jaipur","state":"Rajasthan","latitude":26.9124,"longitude":75.7873,"temp":38.1,"humidity":14,"rain":0.0,"pressure":957.9,"uv_index":7.9,"wind_gusts":31.7,"aqi":112,"pm10":118.3,"pm2_5":17.9,"mosquito_risk":0,"arthritis_risk":5,"migraine_risk":10,"frizz_risk":0,"updated_at":"2026-04-14T16:36:24.156912+05:30"},{"city":"Lucknow","state":"Uttar Pradesh","latitude":26.8467,"longitude":80.9462,"temp":37.8,"humidity":17,"rain":0.0,"pressure":990.9,"uv_index":7.75,"wind_gusts":34.6,"aqi":146,"pm10":110.4,"pm2_5":19.3,"mosquito_risk":0,"arthritis_risk":5,"migraine_risk":10,"frizz_risk":0,"updated_at":"2026-04-14T16:36:24.156919+05:30"},{"city":"Kanpur","state":"Uttar Pradesh","latitude":26.4499,"longitude":80.3319,"temp":36.6,"humidity":21,"rain":0.0,"pressure":989.9,"uv_index":7.75,"wind_gusts":28.4,"aqi":197,"pm10":343.7,"pm2_5":37.1,"mosquito_risk":0,"arthritis_risk":5,"migraine_risk":10,"frizz_risk":0,"updated_at":"2026-04-14T16:36:24.156927+05:30"},{"city":"Chandigarh","state":"Chandigarh","latitude":30.7333,"longitude":76.7794,"temp":34.3,"humidity":18,"rain":0.0,"pressure":967.9,"uv_index":7.2,"wind_gusts":28.8,"aqi":145,"pm10":13.2,"pm2_5":10.1,"mosquito_risk":0,"arthritis_risk":5,"migraine_risk":7,"frizz_risk":0,"updated_at":"2026-04-14T16:36:24.156935+05:30"},{"city":"Srinagar","state":"Jammu and Kashmir","latitude":34.0837,"longitude":74.7973,"temp":22.6,"humidity":26,"rain":0.0,"pressure":843.2,"uv_index":8.2,"wind_gusts":18.4,"aqi":126,"pm10":20.4,"pm2_5":8.2,"mosquito_risk":0,"arthritis_risk":5,"migraine_risk":7,"frizz_risk":0,"updated_at":"2026-04-14T16:36:24.156943+05:30"},{"city":"Jammu","state":"Jammu and Kashmir","latitude":32.7266,"longitude":74.857,"temp":34.0,"humidity":22,"rain":0.0,"pressure":972.2,"uv_index":7.85,"wind_gusts":29.5,"aqi":109,"pm10":16.3,"pm2_5":9.1,"mosquito_risk":0,"arthritis_risk":5,"migraine_risk":7,"frizz_risk":0,"updated_at":"2026-04-14T16:36:24.156950+05:30"},{"city":"Amritsar","state":"Punjab","latitude":31.634,"longitude":74.8723,"temp":34.2,"humidity":24,"rain":0.0,"pressure":980.2,"uv_index":7.8,"wind_gusts":24.1,"aqi":151,"pm10":16.3,"pm2_5":9.3,"mosquito_risk":0,"arthritis_risk":5,"migraine_risk":7,"frizz_risk":0,"updated_at":"2026-04-14T16:36:24.156957+05:30"},{"city":"Ludhiana","state":"Punjab","latitude":30.901,"longitude":75.8573,"temp":35.2,"humidity":20,"rain":0.0,"pressure":977.8,"uv_index":7.4,"wind_gusts":28.4,"aqi":127,"pm10":23.2,"pm2_5":9.0,"mosquito_risk":0,"arthritis_risk":5,"migraine_risk":10,"frizz_risk":0,"updated_at":"2026-04-14T16:36:24.156963+05:30"},{"city":"Jalandhar","state":"Punjab","latitude":31.326,"longitude":75.5762,"temp":34.5,"humidity":21,"rain":0.0,"pressure":979.1,"uv_index":7.55,"wind_gusts":24.1,"aqi":137,"pm10":30.0,"pm2_5":10.3,"mosquito_risk":0,"arthritis_risk":5,"migraine_risk":7,"frizz_risk":0,"updated_at":"2026-04-14T16:36:24.156972+05:30"},{"city":"Dehradun","state":"Uttarakhand","latitude":30.6284,"longitude":78.0322,"temp":22.5,"humidity":35,"rain":0.0,"pressure":831.6,"uv_index":7.6,"wind_gusts":36.7,"aqi":121,"pm10":14.6,"pm2_5":8.2,"mosquito_risk":0,"arthritis_risk":5,"migraine_risk":7,"frizz_risk":0,"updated_at":"2026-04-14T16:36:24.156979+05:30"},{"city":"Shimla","state":"Himachal Pradesh","latitude":31.1048,"longitude":77.1734,"temp":20.1,"humidity":38,"rain":0.0,"pressure":786.9,"uv_index":7.7,"wind_gusts":43.9,"aqi":125,"pm10":14.6,"pm2_5":8.1,"mosquito_risk":0,"arthritis_risk":5,"migraine_risk":7,"frizz_risk":0,"updated_at":"2026-04-14T16:36:24.156985+05:30"},{"city":"Manali","state":"Himachal Pradesh","latitude":32.2396,"longitude":77.1887,"temp":20.9,"humidity":45,"rain":0.0,"pressure":822.1,"uv_index":9.5,"wind_gusts":29.9,"aqi":143,"pm10":18.3,"pm2_5":6.2,"mosquito_risk":0,"arthritis_risk":5,"migraine_risk":7,"frizz_risk":0,"updated_at":"2026-04-14T16:36:24.156994+05:30"},{"city":"Gurgaon","state":"Haryana","latitude":28.4595,"longitude":77.0266,"temp":36.1,"humidity":21,"rain":0.0,"pressure":979.9,"uv_index":7.4,"wind_gusts":14.4,"aqi":658,"pm10":694.8,"pm2_5":69.4,"mosquito_risk":0,"arthritis_risk":5,"migraine_risk":10,"frizz_risk":0,"updated_at":"2026-04-14T16:36:24.157000+05:30"},{"city":"Noida","state":"Uttar Pradesh","latitude":28.5355,"longitude":77.391,"temp":36.5,"humidity":19,"rain":0.0,"pressure":982.8,"uv_index":7.3,"wind_gusts":21.6,"aqi":658,"pm10":694.8,"pm2_5":69.4,"mosquito_risk":0,"arthritis_risk":5,"migraine_risk":10,"frizz_risk":0,"updated_at":"2026-04-14T16:36:24.157006+05:30"},{"city":"Ghaziabad","state":"Uttar Pradesh","latitude":28.6692,"longitude":77.4538,"temp":36.2,"humidity":20,"rain":0.0,"pressure":981.1,"uv_index":7.25,"wind_gusts":24.1,"aqi":163,"pm10":255.2,"pm2_5":34.8,"mosquito_risk":0,"arthritis_risk":5,"migraine_risk":10,"frizz_risk":0,"updated_at":"2026-04-14T16:36:24.157013+05:30"},{"city":"Faridabad","state":"Haryana","latitude":28.4089,"longitude":77.3178,"temp":36.4,"humidity":18,"rain":0.0,"pressure":982.2,"uv_index":7.35,"wind_gusts":17.6,"aqi":658,"pm10":694.8,"pm2_5":69.4,"mosquito_risk":0,"arthritis_risk":5,"migraine_risk":10,"frizz_risk":0,"updated_at":"2026-04-14T16:36:24.157020+05:30"},{"city":"Meerut","state":"Uttar Pradesh","latitude":28.9845,"longitude":77.7064,"temp":36.5,"humidity":18,"rain":0.0,"pressure":979.7,"uv_index":7.15,"wind_gusts":32.0,"aqi":163,"pm10":255.2,"pm2_5":34.8,"mosquito_risk":0,"arthritis_risk":5,"migraine_risk":10,"frizz_risk":0,"updated_at":"2026-04-14T16:36:24.157026+05:30"},{"city":"Agra","state":"Uttar Pradesh","latitude":27.1767,"longitude":78.0081,"temp":37.6,"humidity":19,"rain":0.0,"pressure":985.7,"uv_index":7.7,"wind_gusts":23.4,"aqi":468,"pm10":412.6,"pm2_5":47.0,"mosquito_risk":0,"arthritis_risk":5,"migraine_risk":10,"frizz_risk":0,"updated_at":"2026-04-14T16:36:24.157033+05:30"},{"city":"Varanasi","state":"Uttar Pradesh","latitude":25.3176,"longitude":82.9739,"temp":38.8,"humidity":11,"rain":0.0,"pressure":994.6,"uv_index":8.4,"wind_gusts":34.2,"aqi":151,"pm10":124.3,"pm2_5":24.2,"mosquito_risk":0,"arthritis_risk":5,"migraine_risk":10,"frizz_risk":0,"updated_at":"2026-04-14T16:36:24.157042+05:30"},{"city":"Prayagraj","state":"Uttar Pradesh","latitude":25.4358,"longitude":81.8463,"temp":38.0,"humidity":15,"rain":0.0,"pressure":993.9,"uv_index":8.3,"wind_gusts":31.3,"aqi":152,"pm10":114.6,"pm2_5":21.8,"mosquito_risk":0,"arthritis_risk":5,"migraine_risk":10,"frizz_risk":0,"updated_at":"2026-04-14T16:36:24.157050+05:30"},{"city":"Gorakhpur","state":"Uttar Pradesh","latitude":26.7606,"longitude":83.3732,"temp":37.2,"humidity":14,"rain":0.0,"pressure":994.1,"uv_index":8.2,"wind_gusts":21.6,"aqi":153,"pm10":50.4,"pm2_5":18.7,"mosquito_risk":0,"arthritis_risk":5,"migraine_risk":10,"frizz_risk":0,"updated_at":"2026-04-14T16:36:24.157057+05:30"},{"city":"Bareilly","state":"Uttar Pradesh","latitude":28.367,"longitude":79.4304,"temp":36.9,"humidity":17,"rain":0.0,"pressure":984.5,"uv_index":7.55,"wind_gusts":36.0,"aqi":135,"pm10":23.6,"pm2_5":9.9,"mosquito_risk":0,"arthritis_risk":5,"migraine_risk":10,"frizz_risk":0,"updated_at":"2026-04-14T16:36:24.157063+05:30"},{"city":"Aligarh","state":"Uttar Pradesh","latitude":27.8974,"longitude":78.088,"temp":37.3,"humidity":17,"rain":0.0,"pressure":983.7,"uv_index":7.45,"wind_gusts":30.2,"aqi":468,"pm10":448.9,"pm2_5":54.2,"mosquito_risk":0,"arthritis_risk":5,"migraine_risk":10,"frizz_risk":0,"updated_at":"2026-04-14T16:36:24.157069+05:30"},{"city":"Moradabad","state":"Uttar Pradesh","latitude":28.8386,"longitude":78.7733,"temp":36.3,"humidity":17,"rain":0.0,"pressure":981.6,"uv_index":7.35,"wind_gusts":35.6,"aqi":128,"pm10":41.6,"pm2_5":12.8,"mosquito_risk":0,"arthritis_risk":5,"migraine_risk":10,"frizz_risk":0,"updated_at":"2026-04-14T16:36:24.157076+05:30"},{"city":"Saharanpur","state":"Uttar Pradesh","latitude":29.9637,"longitude":77.546,"temp":34.6,"humidity":19,"rain":0.0,"pressure":974.3,"uv_index":6.9,"wind_gusts":32.0,"aqi":136,"pm10":156.5,"pm2_5":23.2,"mosquito_risk":0,"arthritis_risk":5,"migraine_risk":7,"frizz_risk":0,"updated_at":"2026-04-14T16:36:24.157081+05:30"},{"city":"Jhansi","state":"Uttar Pradesh","latitude":25.4484,"longitude":78.5685,"temp":39.8,"humidity":12,"rain":0.0,"pressure":975.5,"uv_index":8.2,"wind_gusts":28.1,"aqi":128,"pm10":51.3,"pm2_5":11.4,"mosquito_risk":0,"arthritis_risk":5,"migraine_risk":10,"frizz_risk":0,"updated_at":"2026-04-14T16:36:27.375395+05:30"},{"city":"Surat","state":"Gujarat","latitude":21.1702,"longitude":72.8311,"temp":33.9,"humidity":42,"rain":0.0,"pressure":1005.5,"uv_index":7.8,"wind_gusts":23.8,"aqi":122,"pm10":84.1,"pm2_5":40.3,"mosquito_risk":0,"arthritis_risk":5,"migraine_risk":4,"frizz_risk":1,"updated_at":"2026-04-14T16:36:27.375427+05:30"},{"city":"Vadodara","state":"Gujarat","latitude":22.3072,"longitude":73.1812,"temp":40.0,"humidity":16,"rain":0.0,"pressure":1002.0,"uv_index":8.1,"wind_gusts":31.0,"aqi":90,"pm10":46.0,"pm2_5":15.3,"mosquito_risk":0,"arthritis_risk":5,"migraine_risk":7,"frizz_risk":0,"updated_at":"2026-04-14T16:36:27.375438+05:30"},{"city":"Rajkot","state":"Gujarat","latitude":22.3039,"longitude":70.8022,"temp":38.1,"humidity":18,"rain":0.0,"pressure":993.0,"uv_index":7.85,"wind_gusts":33.8,"aqi":57,"pm10":58.0,"pm2_5":16.3,"mosquito_risk":0,"arthritis_risk":5,"migraine_risk":10,"frizz_risk":0,"updated_at":"2026-04-14T16:36:27.375447+05:30"},{"city":"Thane","state":"Maharashtra","latitude":19.2183,"longitude":72.9781,"temp":33.2,"humidity":55,"rain":0.0,"pressure":1006.1,"uv_index":8.0,"wind_gusts":36.4,"aqi":198,"pm10":90.3,"pm2_5":33.3,"mosquito_risk":0,"arthritis_risk":5,"migraine_risk":4,"frizz_risk":1,"updated_at":"2026-04-14T16:36:27.375455+05:30"},{"city":"Nagpur","state":"Maharashtra","latitude":21.1458,"longitude":79.0882,"temp":39.0,"humidity":23,"rain":0.0,"pressure":970.1,"uv_index":8.85,"wind_gusts":15.1,"aqi":167,"pm10":42.0,"pm2_5":19.4,"mosquito_risk":0,"arthritis_risk":5,"migraine_risk":10,"frizz_risk":0,"updated_at":"2026-04-14T16:36:27.375464+05:30"},{"city":"Nashik","state":"Maharashtra","latitude":19.9975,"longitude":73.7898,"temp":36.5,"humidity":24,"rain":0.0,"pressure":945.2,"uv_index":8.25,"wind_gusts":34.6,"aqi":109,"pm10":27.3,"pm2_5":11.4,"mosquito_risk":0,"arthritis_risk":5,"migraine_risk":10,"frizz_risk":0,"updated_at":"2026-04-14T16:36:27.375472+05:30"},{"city":"Aurangabad","state":"Maharashtra","latitude":19.8762,"longitude":75.3433,"temp":39.4,"humidity":12,"rain":0.0,"pressure":942.8,"uv_index":8.95,"wind_gusts":33.1,"aqi":136,"pm10":17.1,"pm2_5":9.6,"mosquito_risk":0,"arthritis_risk":5,"migraine_risk":10,"frizz_risk":0,"updated_at":"2026-04-14T16:36:27.375480+05:30"},{"city":"Solapur","state":"Maharashtra","latitude":17.6599,"longitude":75.9064,"temp":40.9,"humidity":16,"rain":0.0,"pressure":954.6,"uv_index":9.05,"wind_gusts":28.4,"aqi":133,"pm10":18.8,"pm2_5":13.4,"mosquito_risk":0,"arthritis_risk":5,"migraine_risk":10,"frizz_risk":0,"updated_at":"2026-04-14T16:36:27.375488+05:30"},{"city":"Kolhapur","state":"Maharashtra","latitude":16.705,"longitude":74.2433,"temp":35.7,"humidity":39,"rain":0.0,"pressure":946.2,"uv_index":9.05,"wind_gusts":42.1,"aqi":112,"pm10":27.5,"pm2_5":19.2,"mosquito_risk":0,"arthritis_risk":5,"migraine_risk":10,"frizz_risk":1,"updated_at":"2026-04-14T16:36:27.375496+05:30"},{"city":"Goa","state":"Goa","latitude":15.2993,"longitude":74.124,"temp":31.5,"humidity":64,"rain":0.0,"pressure":995.6,"uv_index":9.05,"wind_gusts":33.5,"aqi":80,"pm10":44.7,"pm2_5":24.3,"mosquito_risk":3,"arthritis_risk":5,"migraine_risk":7,"frizz_risk":1,"updated_at":"2026-04-14T16:36:27.375504+05:30"},{"city":"Jodhpur","state":"Rajasthan","latitude":26.2389,"longitude":73.0243,"temp":38.2,"humidity":17,"rain":0.0,"pressure":980.9,"uv_index":8.15,"wind_gusts":27.0,"aqi":67,"pm10":107.1,"pm2_5":18.4,"mosquito_risk":0,"arthritis_risk":5,"migraine_risk":10,"frizz_risk":0,"updated_at":"2026-04-14T16:36:27.375512+05:30"},{"city":"Udaipur","state":"Rajasthan","latitude":24.5854,"longitude":73.7125,"temp":36.3,"humidity":15,"rain":0.0,"pressure":945.9,"uv_index":8.7,"wind_gusts":40.0,"aqi":48,"pm10":57.3,"pm2_5":14.3,"mosquito_risk":0,"arthritis_risk":5,"migraine_risk":10,"frizz_risk":0,"updated_at":"2026-04-14T16:36:27.375520+05:30"},{"city":"Kota","state":"Rajasthan","latitude":25.2138,"longitude":75.8648,"temp":40.4,"humidity":13,"rain":0.0,"pressure":976.0,"uv_index":8.2,"wind_gusts":27.0,"aqi":131,"pm10":28.7,"pm2_5":9.5,"mosquito_risk":0,"arthritis_risk":5,"migraine_risk":10,"frizz_risk":0,"updated_at":"2026-04-14T16:36:27.375527+05:30"},{"city":"Bikaner","state":"Rajasthan","latitude":28.0229,"longitude":73.3119,"temp":40.1,"humidity":11,"rain":0.0,"pressure":979.2,"uv_index":8.0,"wind_gusts":32.4,"aqi":55,"pm10":101.7,"pm2_5":20.5,"mosquito_risk":0,"arthritis_risk":5,"migraine_risk":10,"frizz_risk":0,"updated_at":"2026-04-14T16:36:27.375535+05:30"},{"city":"Ajmer","state":"Rajasthan","latitude":26.4499,"longitude":74.6399,"temp":37.2,"humidity":17,"rain":0.0,"pressure":953.3,"uv_index":8.1,"wind_gusts":35.6,"aqi":75,"pm10":28.5,"pm2_5":9.7,"mosquito_risk":0,"arthritis_risk":5,"migraine_risk":10,"frizz_risk":0,"updated_at":"2026-04-14T16:36:27.375542+05:30"},{"city":"Gwalior","state":"Madhya Pradesh","latitude":26.2183,"longitude":78.1828,"temp":38.0,"humidity":16,"rain":0.0,"pressure":981.3,"uv_index":7.95,"wind_gusts":40.0,"aqi":133,"pm10":85.0,"pm2_5":16.4,"mosquito_risk":0,"arthritis_risk":5,"migraine_risk":10,"frizz_risk":0,"updated_at":"2026-04-14T16:36:27.375551+05:30"},{"city":"Indore","state":"Madhya Pradesh","latitude":22.7196,"longitude":75.8577,"temp":36.7,"humidity":23,"rain":0.0,"pressure":947.3,"uv_index":8.55,"wind_gusts":34.2,"aqi":133,"pm10":24.4,"pm2_5":13.9,"mosquito_risk":0,"arthritis_risk":5,"migraine_risk":10,"frizz_risk":0,"updated_at":"2026-04-14T16:36:27.375558+05:30"},{"city":"Bhopal","state":"Madhya Pradesh","latitude":23.2599,"longitude":77.4126,"temp":39.2,"humidity":13,"rain":0.0,"pressure":952.1,"uv_index":8.55,"wind_gusts":31.7,"aqi":125,"pm10":53.3,"pm2_5":16.9,"mosquito_risk":0,"arthritis_risk":5,"migraine_risk":10,"frizz_risk":0,"updated_at":"2026-04-14T16:36:27.375566+05:30"},{"city":"Jabalpur","state":"Madhya Pradesh","latitude":23.1815,"longitude":79.9864,"temp":37.9,"humidity":20,"rain":0.0,"pressure":959.6,"uv_index":8.65,"wind_gusts":16.6,"aqi":134,"pm10":75.0,"pm2_5":17.7,"mosquito_risk":0,"arthritis_risk":5,"migraine_risk":10,"frizz_risk":0,"updated_at":"2026-04-14T16:36:27.375574+05:30"},{"city":"Ujjain","state":"Madhya Pradesh","latitude":23.1765,"longitude":75.7885,"temp":36.7,"humidity":21,"rain":0.0,"pressure":953.1,"uv_index":8.45,"wind_gusts":33.5,"aqi":102,"pm10":32.4,"pm2_5":14.8,"mosquito_risk":0,"arthritis_risk":5,"migraine_risk":10,"frizz_risk":0,"updated_at":"2026-04-14T16:36:27.375582+05:30"},{"city":"Visakhapatnam","state":"Andhra Pradesh","latitude":17.6868,"longitude":83.2185,"temp":30.9,"humidity":66,"rain":0.0,"pressure":1001.4,"uv_index":9.15,"wind_gusts":39.6,"aqi":65,"pm10":28.6,"pm2_5":18.9,"mosquito_risk":3,"arthritis_risk":5,"migraine_risk":4,"frizz_risk":1,"updated_at":"2026-04-14T16:36:27.375589+05:30"},{"city":"Vijayawada","state":"Andhra Pradesh","latitude":16.5062,"longitude":80.648,"temp":37.1,"humidity":35,"rain":0.0,"pressure":999.9,"uv_index":9.2,"wind_gusts":28.1,"aqi":57,"pm10":25.1,"pm2_5":16.3,"mosquito_risk":0,"arthritis_risk":5,"migraine_risk":10,"frizz_risk":1,"updated_at":"2026-04-14T16:36:27.375597+05:30"},{"city":"Guntur","state":"Andhra Pradesh","latitude":16.3067,"longitude":80.4365,"temp":36.2,"humidity":38,"rain":0.0,"pressure":1001.2,"uv_index":9.25,"wind_gusts":31.0,"aqi":59,"pm10":28.2,"pm2_5":18.9,"mosquito_risk":0,"arthritis_risk":5,"migraine_risk":7,"frizz_risk":1,"updated_at":"2026-04-14T16:36:27.375605+05:30"},{"city":"Nellore","state":"Andhra Pradesh","latitude":14.4426,"longitude":79.9865,"temp":34.8,"humidity":53,"rain":0.0,"pressure":1003.2,"uv_index":9.3,"wind_gusts":31.7,"aqi":52,"pm10":24.0,"pm2_5":17.2,"mosquito_risk":0,"arthritis_risk":5,"migraine_risk":4,"frizz_risk":1,"updated_at":"2026-04-14T16:36:27.375613+05:30"},{"city":"Kurnool","state":"Andhra Pradesh","latitude":15.8281,"longitude":78.0373,"temp":41.4,"humidity":21,"rain":0.0,"pressure":973.2,"uv_index":9.25,"wind_gusts":22.7,"aqi":119,"pm10":41.7,"pm2_5":29.5,"mosquito_risk":0,"arthritis_risk":5,"migraine_risk":10,"frizz_risk":0,"updated_at":"2026-04-14T16:36:27.375622+05:30"},{"city":"Kakinada","state":"Andhra Pradesh","latitude":16.9891,"longitude":82.2475,"temp":35.3,"humidity":47,"rain":0.0,"pressure":1005.2,"uv_index":9.2,"wind_gusts":30.2,"aqi":55,"pm10":23.8,"pm2_5":14.0,"mosquito_risk":0,"arthritis_risk":5,"migraine_risk":7,"frizz_risk":1,"updated_at":"2026-04-14T16:36:27.375630+05:30"},{"city":"Tirupati","state":"Andhra Pradesh","latitude":13.6288,"longitude":79.4192,"temp":37.8,"humidity":22,"rain":0.0,"pressure":989.1,"uv_index":9.4,"wind_gusts":32.4,"aqi":64,"pm10":25.8,"pm2_5":20.0,"mosquito_risk":0,"arthritis_risk":5,"migraine_risk":10,"frizz_risk":0,"updated_at":"2026-04-14T16:36:27.375637+05:30"},{"city":"Warangal","state":"Telangana","latitude":17.9689,"longitude":79.5941,"temp":39.3,"humidity":31,"rain":0.0,"pressure":975.3,"uv_index":9.15,"wind_gusts":24.8,"aqi":83,"pm10":40.5,"pm2_5":29.5,"mosquito_risk":0,"arthritis_risk":5,"migraine_risk":10,"frizz_risk":1,"updated_at":"2026-04-14T16:36:27.375645+05:30"},{"city":"Nizamabad","state":"Telangana","latitude":18.6725,"longitude":78.0941,"temp":40.3,"humidity":19,"rain":0.0,"pressure":962.2,"uv_index":9.1,"wind_gusts":25.6,"aqi":119,"pm10":23.5,"pm2_5":14.1,"mosquito_risk":0,"arthritis_risk":5,"migraine_risk":10,"frizz_risk":0,"updated_at":"2026-04-14T16:36:27.375653+05:30"},{"city":"Mysore","state":"Karnataka","latitude":12.2958,"longitude":76.6396,"temp":36.7,"humidity":23,"rain":0.0,"pressure":926.7,"uv_index":9.5,"wind_gusts":41.4,"aqi":155,"pm10":30.3,"pm2_5":22.0,"mosquito_risk":0,"arthritis_risk":5,"migraine_risk":10,"frizz_risk":0,"updated_at":"2026-04-14T16:36:27.375661+05:30"},{"city":"Mangalore","state":"Karnataka","latitude":12.9141,"longitude":74.856,"temp":29.7,"humidity":81,"rain":0.0,"pressure":1003.7,"uv_index":9.15,"wind_gusts":25.6,"aqi":89,"pm10":38.0,"pm2_5":22.9,"mosquito_risk":7,"arthritis_risk":5,"migraine_risk":4,"frizz_risk":1,"updated_at":"2026-04-14T16:36:27.375668+05:30"},{"city":"Hubli-Dharwad","state":"Karnataka","latitude":15.3647,"longitude":75.124,"temp":38.2,"humidity":23,"rain":0.0,"pressure":938.6,"uv_index":9.25,"wind_gusts":41.4,"aqi":114,"pm10":32.0,"pm2_5":22.2,"mosquito_risk":0,"arthritis_risk":5,"migraine_risk":10,"frizz_risk":0,"updated_at":"2026-04-14T16:36:27.375676+05:30"},{"city":"Belgaum","state":"Karnataka","latitude":15.8497,"longitude":74.4977,"temp":34.9,"humidity":38,"rain":0.0,"pressure":924.5,"uv_index":9.3,"wind_gusts":41.8,"aqi":123,"pm10":31.7,"pm2_5":22.6,"mosquito_risk":0,"arthritis_risk":5,"migraine_risk":7,"frizz_risk":1,"updated_at":"2026-04-14T16:36:30.595420+05:30"},{"city":"Coimbatore","state":"Tamil Nadu","latitude":11.0168,"longitude":76.9558,"temp":37.6,"humidity":25,"rain":0.0,"pressure":959.2,"uv_index":8.95,"wind_gusts":38.9,"aqi":135,"pm10":23.1,"pm2_5":15.9,"mosquito_risk":0,"arthritis_risk":5,"migraine_risk":10,"frizz_risk":0,"updated_at":"2026-04-14T16:36:30.595459+05:30"},{"city":"Madurai","state":"Tamil Nadu","latitude":9.9252,"longitude":78.1198,"temp":38.5,"humidity":28,"rain":0.0,"pressure":989.7,"uv_index":9.35,"wind_gusts":39.6,"aqi":84,"pm10":19.8,"pm2_5":13.3,"mosquito_risk":0,"arthritis_risk":5,"migraine_risk":10,"frizz_risk":1,"updated_at":"2026-04-14T16:36:30.595469+05:30"},{"city":"Trichy","state":"Tamil Nadu","latitude":10.7905,"longitude":78.7047,"temp":37.9,"humidity":29,"rain":0.0,"pressure":996.6,"uv_index":9.4,"wind_gusts":25.2,"aqi":64,"pm10":13.5,"pm2_5":10.8,"mosquito_risk":0,"arthritis_risk":5,"migraine_risk":10,"frizz_risk":1,"updated_at":"2026-04-14T16:36:30.595478+05:30"},{"city":"Salem","state":"Tamil Nadu","latitude":11.6643,"longitude":78.146,"temp":39.2,"humidity":22,"rain":0.0,"pressure":974.3,"uv_index":9.45,"wind_gusts":19.4,"aqi":96,"pm10":22.9,"pm2_5":13.0,"mosquito_risk":0,"arthritis_risk":5,"migraine_risk":10,"frizz_risk":0,"updated_at":"2026-04-14T16:36:30.595486+05:30"},{"city":"Tirunelveli","state":"Tamil Nadu","latitude":8.7139,"longitude":77.7567,"temp":34.8,"humidity":49,"rain":0.0,"pressure":1000.5,"uv_index":9.3,"wind_gusts":40.3,"aqi":95,"pm10":25.6,"pm2_5":19.2,"mosquito_risk":0,"arthritis_risk":5,"migraine_risk":4,"frizz_risk":1,"updated_at":"2026-04-14T16:36:30.595493+05:30"},{"city":"Vellore","state":"Tamil Nadu","latitude":12.9165,"longitude":79.1325,"temp":37.1,"humidity":25,"rain":0.0,"pressure":982.3,"uv_index":9.45,"wind_gusts":30.6,"aqi":82,"pm10":29.6,"pm2_5":24.5,"mosquito_risk":0,"arthritis_risk":5,"migraine_risk":10,"frizz_risk":0,"updated_at":"2026-04-14T16:36:30.595500+05:30"},{"city":"Erode","state":"Tamil Nadu","latitude":11.341,"longitude":77.7172,"temp":39.1,"humidity":28,"rain":0.0,"pressure":985.6,"uv_index":9.3,"wind_gusts":26.6,"aqi":83,"pm10":20.4,"pm2_5":12.1,"mosquito_risk":0,"arthritis_risk":5,"migraine_risk":10,"frizz_risk":1,"updated_at":"2026-04-14T16:36:30.595508+05:30"},{"city":"Kochi","state":"Kerala","latitude":9.9312,"longitude":76.2673,"temp":29.9,"humidity":80,"rain":0.0,"pressure":1005.5,"uv_index":8.8,"wind_gusts":29.2,"aqi":96,"pm10":40.2,"pm2_5":28.3,"mosquito_risk":7,"arthritis_risk":5,"migraine_risk":4,"frizz_risk":1,"updated_at":"2026-04-14T16:36:30.595515+05:30"},{"city":"Thiruvananthapuram","state":"Kerala","latitude":8.5241,"longitude":76.9366,"temp":29.8,"humidity":80,"rain":0.0,"pressure":1005.5,"uv_index":9.1,"wind_gusts":23.0,"aqi":78,"pm10":28.6,"pm2_5":17.7,"mosquito_risk":7,"arthritis_risk":5,"migraine_risk":4,"frizz_risk":1,"updated_at":"2026-04-14T16:36:30.595523+05:30"},{"city":"Kozhikode","state":"Kerala","latitude":11.2588,"longitude":75.7804,"temp":30.9,"humidity":78,"rain":0.0,"pressure":1005.0,"uv_index":9.15,"wind_gusts":28.4,"aqi":88,"pm10":45.8,"pm2_5":31.2,"mosquito_risk":3,"arthritis_risk":5,"migraine_risk":4,"frizz_risk":1,"updated_at":"2026-04-14T16:36:30.595530+05:30"},{"city":"Thrissur","state":"Kerala","latitude":10.5276,"longitude":76.2144,"temp":33.0,"humidity":64,"rain":0.0,"pressure":1003.7,"uv_index":8.7,"wind_gusts":38.9,"aqi":91,"pm10":39.5,"pm2_5":27.7,"mosquito_risk":3,"arthritis_risk":5,"migraine_risk":4,"frizz_risk":1,"updated_at":"2026-04-14T16:36:30.595538+05:30"},{"city":"Kannur","state":"Kerala","latitude":11.8745,"longitude":75.3704,"temp":31.8,"humidity":72,"rain":0.0,"pressure":1004.3,"uv_index":9.15,"wind_gusts":31.3,"aqi":93,"pm10":42.0,"pm2_5":29.3,"mosquito_risk":3,"arthritis_risk":5,"migraine_risk":4,"frizz_risk":1,"updated_at":"2026-04-14T16:36:30.595545+05:30"},{"city":"Patna","state":"Bihar","latitude":25.5941,"longitude":85.1376,"temp":36.1,"humidity":20,"rain":0.0,"pressure":997.3,"uv_index":8.55,"wind_gusts":26.3,"aqi":168,"pm10":151.3,"pm2_5":29.5,"mosquito_risk":0,"arthritis_risk":5,"migraine_risk":10,"frizz_risk":0,"updated_at":"2026-04-14T16:36:30.595552+05:30"},{"city":"Gaya","state":"Bihar","latitude":24.7914,"longitude":85.0002,"temp":35.6,"humidity":25,"rain":0.0,"pressure":990.9,"uv_index":8.6,"wind_gusts":20.9,"aqi":157,"pm10":164.4,"pm2_5":29.6,"mosquito_risk":0,"arthritis_risk":5,"migraine_risk":10,"frizz_risk":0,"updated_at":"2026-04-14T16:36:30.595559+05:30"},{"city":"Muzaffarpur","state":"Bihar","latitude":26.1209,"longitude":85.3647,"temp":34.3,"humidity":32,"rain":0.0,"pressure":997.5,"uv_index":8.5,"wind_gusts":18.7,"aqi":180,"pm10":112.9,"pm2_5":26.9,"mosquito_risk":0,"arthritis_risk":5,"migraine_risk":7,"frizz_risk":0,"updated_at":"2026-04-14T16:36:30.595566+05:30"},{"city":"Bhagalpur","state":"Bihar","latitude":25.2425,"longitude":87.0117,"temp":32.4,"humidity":41,"rain":0.0,"pressure":998.5,"uv_index":8.55,"wind_gusts":16.9,"aqi":178,"pm10":84.1,"pm2_5":25.6,"mosquito_risk":0,"arthritis_risk":5,"migraine_risk":7,"frizz_risk":1,"updated_at":"2026-04-14T16:36:30.595574+05:30"},{"city":"Ranchi","state":"Jharkhand","latitude":23.3441,"longitude":85.3096,"temp":34.0,"humidity":15,"rain":0.0,"pressure":936.6,"uv_index":9.1,"wind_gusts":32.8,"aqi":142,"pm10":85.0,"pm2_5":15.2,"mosquito_risk":0,"arthritis_risk":5,"migraine_risk":7,"frizz_risk":0,"updated_at":"2026-04-14T16:36:30.595581+05:30"},{"city":"Jamshedpur","state":"Jharkhand","latitude":22.8046,"longitude":86.2029,"temp":36.0,"humidity":28,"rain":0.0,"pressure":988.1,"uv_index":8.95,"wind_gusts":16.9,"aqi":169,"pm10":83.1,"pm2_5":22.0,"mosquito_risk":0,"arthritis_risk":5,"migraine_risk":10,"frizz_risk":0,"updated_at":"2026-04-14T16:36:30.595588+05:30"},{"city":"Dhanbad","state":"Jharkhand","latitude":23.7957,"longitude":86.4304,"temp":36.7,"humidity":19,"rain":0.0,"pressure":977.1,"uv_index":8.9,"wind_gusts":19.4,"aqi":144,"pm10":144.8,"pm2_5":31.1,"mosquito_risk":0,"arthritis_risk":5,"migraine_risk":10,"frizz_risk":0,"updated_at":"2026-04-14T16:36:30.595596+05:30"},{"city":"Bokaro","state":"Jharkhand","latitude":23.6693,"longitude":86.1511,"temp":37.2,"humidity":13,"rain":0.0,"pressure":981.0,"uv_index":8.9,"wind_gusts":26.3,"aqi":150,"pm10":135.5,"pm2_5":28.5,"mosquito_risk":0,"arthritis_risk":5,"migraine_risk":10,"frizz_risk":0,"updated_at":"2026-04-14T16:36:30.595603+05:30"},{"city":"Bhubaneswar","state":"Odisha","latitude":20.2961,"longitude":85.8245,"temp":32.9,"humidity":64,"rain":0.0,"pressure":1000.2,"uv_index":9.05,"wind_gusts":25.6,"aqi":95,"pm10":53.2,"pm2_5":38.6,"mosquito_risk":3,"arthritis_risk":5,"migraine_risk":4,"frizz_risk":1,"updated_at":"2026-04-14T16:36:30.595610+05:30"},{"city":"Cuttack","state":"Odisha","latitude":20.4625,"longitude":85.8828,"temp":31.1,"humidity":72,"rain":0.0,"pressure":1002.6,"uv_index":9.1,"wind_gusts":24.8,"aqi":95,"pm10":53.2,"pm2_5":38.6,"mosquito_risk":3,"arthritis_risk":5,"migraine_risk":4,"frizz_risk":1,"updated_at":"2026-04-14T16:36:30.595617+05:30"},{"city":"Rourkela","state":"Odisha","latitude":22.2604,"longitude":84.8536,"temp":38.0,"humidity":17,"rain":0.0,"pressure":982.2,"uv_index":8.85,"wind_gusts":21.6,"aqi":149,"pm10":75.4,"pm2_5":18.2,"mosquito_risk":0,"arthritis_risk":5,"migraine_risk":10,"frizz_risk":0,"updated_at":"2026-04-14T16:36:30.595624+05:30"},{"city":"Raipur","state":"Chhattisgarh","latitude":21.2514,"longitude":81.6296,"temp":40.2,"humidity":18,"rain":0.0,"pressure":971.3,"uv_index":8.9,"wind_gusts":17.6,"aqi":169,"pm10":87.5,"pm2_5":37.5,"mosquito_risk":0,"arthritis_risk":5,"migraine_risk":10,"frizz_risk":0,"updated_at":"2026-04-14T16:36:30.595631+05:30"},{"city":"Bhilai","state":"Chhattisgarh","latitude":21.1938,"longitude":81.3509,"temp":39.9,"humidity":20,"rain":0.0,"pressure":971.6,"uv_index":8.9,"wind_gusts":14.0,"aqi":154,"pm10":64.0,"pm2_5":32.7,"mosquito_risk":0,"arthritis_risk":5,"migraine_risk":10,"frizz_risk":0,"updated_at":"2026-04-14T16:36:30.595638+05:30"},{"city":"Guwahati","state":"Assam","latitude":26.1158,"longitude":91.7086,"temp":29.4,"humidity":60,"rain":0.0,"pressure":999.0,"uv_index":8.5,"wind_gusts":28.1,"aqi":125,"pm10":70.5,"pm2_5":43.9,"mosquito_risk":4,"arthritis_risk":5,"migraine_risk":7,"frizz_risk":1,"updated_at":"2026-04-14T16:36:30.595644+05:30"},{"city":"Agartala","state":"Tripura","latitude":23.8315,"longitude":91.2868,"temp":30.8,"humidity":67,"rain":0.0,"pressure":1003.6,"uv_index":8.65,"wind_gusts":27.7,"aqi":103,"pm10":49.8,"pm2_5":41.6,"mosquito_risk":3,"arthritis_risk":5,"migraine_risk":4,"frizz_risk":1,"updated_at":"2026-04-14T16:36:30.595652+05:30"},{"city":"Shillong","state":"Meghalaya","latitude":25.5788,"longitude":91.8933,"temp":18.4,"humidity":62,"rain":0.0,"pressure":855.2,"uv_index":8.9,"wind_gusts":52.6,"aqi":112,"pm10":58.4,"pm2_5":38.0,"mosquito_risk":3,"arthritis_risk":5,"migraine_risk":7,"frizz_risk":0,"updated_at":"2026-04-14T16:36:30.595659+05:30"},{"city":"Imphal","state":"Manipur","latitude":24.817,"longitude":93.9368,"temp":22.8,"humidity":69,"rain":0.0,"pressure":921.9,"uv_index":8.8,"wind_gusts":70.6,"aqi":127,"pm10":56.8,"pm2_5":36.8,"mosquito_risk":3,"arthritis_risk":5,"migraine_risk":7,"frizz_risk":1,"updated_at":"2026-04-14T16:36:30.595666+05:30"},{"city":"Aizawl","state":"Mizoram","latitude":23.7271,"longitude":92.7176,"temp":25.1,"humidity":59,"rain":0.0,"pressure":892.6,"uv_index":8.95,"wind_gusts":45.0,"aqi":120,"pm10":67.3,"pm2_5":46.3,"mosquito_risk":4,"arthritis_risk":5,"migraine_risk":7,"frizz_risk":1,"updated_at":"2026-04-14T16:36:30.595673+05:30"},{"city":"Kohima","state":"Nagaland","latitude":25.6701,"longitude":94.1077,"temp":19.4,"humidity":66,"rain":0.0,"pressure":854.0,"uv_index":8.2,"wind_gusts":70.9,"aqi":114,"pm10":56.8,"pm2_5":36.0,"mosquito_risk":3,"arthritis_risk":5,"migraine_risk":7,"frizz_risk":0,"updated_at":"2026-04-14T16:36:30.595680+05:30"},{"city":"Gangtok","state":"Sikkim","latitude":27.3314,"longitude":88.6138,"temp":14.9,"humidity":93,"rain":0.0,"pressure":835.5,"uv_index":8.65,"wind_gusts":15.5,"aqi":139,"pm10":65.7,"pm2_5":36.8,"mosquito_risk":3,"arthritis_risk":10,"migraine_risk":7,"frizz_risk":0,"updated_at":"2026-04-14T16:36:30.595687+05:30"},{"city":"Siliguri","state":"West Bengal","latitude":26.7271,"longitude":88.3953,"temp":24.3,"humidity":69,"rain":0.0,"pressure":992.3,"uv_index":8.45,"wind_gusts":34.2,"aqi":156,"pm10":88.5,"pm2_5":48.7,"mosquito_risk":3,"arthritis_risk":5,"migraine_risk":7,"frizz_risk":1,"updated_at":"2026-04-14T16:36:33.813851+05:30"},{"city":"Durgapur","state":"West Bengal","latitude":23.5204,"longitude":87.3119,"temp":36.2,"humidity":23,"rain":0.0,"pressure":992.1,"uv_index":8.8,"wind_gusts":17.3,"aqi":162,"pm10":107.1,"pm2_5":28.3,"mosquito_risk":0,"arthritis_risk":5,"migraine_risk":10,"frizz_risk":0,"updated_at":"2026-04-14T16:36:33.813930+05:30"},{"city":"Asansol","state":"West Bengal","latitude":23.6739,"longitude":86.9524,"temp":36.1,"humidity":20,"rain":0.0,"pressure":990.7,"uv_index":8.85,"wind_gusts":18.7,"aqi":143,"pm10":131.3,"pm2_5":30.2,"mosquito_risk":0,"arthritis_risk":5,"migraine_risk":10,"frizz_risk":0,"updated_at":"2026-04-14T16:36:33.813947+05:30"},{"city":"Pondicherry","state":"Puducherry","latitude":11.9139,"longitude":79.8145,"temp":35.1,"humidity":49,"rain":0.0,"pressure":1005.9,"uv_index":9.3,"wind_gusts":27.0,"aqi":40,"pm10":10.7,"pm2_5":7.0,"mosquito_risk":0,"arthritis_risk":5,"migraine_risk":7,"frizz_risk":1,"updated_at":"2026-04-14T16:36:33.813959+05:30"},{"city":"Port Blair","state":"Andaman and Nicobar Islands","latitude":11.6234,"longitude":92.7265,"temp":29.5,"humidity":72,"rain":0.0,"pressure":1006.3,"uv_index":8.5,"wind_gusts":22.3,"aqi":63,"pm10":31.5,"pm2_5":20.4,"mosquito_risk":7,"arthritis_risk":5,"migraine_risk":4,"frizz_risk":1,"updated_at":"2026-04-14T16:36:33.813972+05:30"},{"city":"Haridwar","state":"Uttarakhand","latitude":29.9457,"longitude":78.1642,"temp":34.3,"humidity":19,"rain":0.0,"pressure":972.7,"uv_index":7.0,"wind_gusts":34.9,"aqi":128,"pm10":59.3,"pm2_5":13.6,"mosquito_risk":0,"arthritis_risk":5,"migraine_risk":7,"frizz_risk":0,"updated_at":"2026-04-14T16:36:33.813984+05:30"},{"city":"Rishikesh","state":"Uttarakhand","latitude":30.0869,"longitude":78.2676,"temp":32.8,"humidity":21,"rain":0.0,"pressure":965.8,"uv_index":7.1,"wind_gusts":36.7,"aqi":116,"pm10":18.5,"pm2_5":8.1,"mosquito_risk":0,"arthritis_risk":5,"migraine_risk":7,"frizz_risk":0,"updated_at":"2026-04-14T16:36:33.813996+05:30"},{"city":"Nainital","state":"Uttarakhand","latitude":29.3919,"longitude":79.4542,"temp":26.0,"humidity":18,"rain":0.0,"pressure":808.4,"uv_index":7.95,"wind_gusts":60.1,"aqi":140,"pm10":16.8,"pm2_5":7.8,"mosquito_risk":4,"arthritis_risk":5,"migraine_risk":7,"frizz_risk":1,"updated_at":"2026-04-14T16:36:33.814007+05:30"},{"city":"Mussoorie","state":"Uttarakhand","latitude":30.4599,"longitude":78.0664,"temp":23.1,"humidity":32,"rain":0.0,"pressure":804.7,"uv_index":7.5,"wind_gusts":44.6,"aqi":128,"pm10":21.1,"pm2_5":9.9,"mosquito_risk":0,"arthritis_risk":5,"migraine_risk":7,"frizz_risk":0,"updated_at":"2026-04-14T16:36:33.814018+05:30"},{"city":"Dharamshala","state":"Himachal Pradesh","latitude":32.219,"longitude":76.3234,"temp":25.7,"humidity":37,"rain":0.0,"pressure":870.4,"uv_index":7.75,"wind_gusts":24.5,"aqi":124,"pm10":15.4,"pm2_5":8.0,"mosquito_risk":4,"arthritis_risk":5,"migraine_risk":7,"frizz_risk":0,"updated_at":"2026-04-14T16:36:33.814028+05:30"},{"city":"Dalhousie","state":"Himachal Pradesh","latitude":32.5387,"longitude":75.971,"temp":24.4,"humidity":32,"rain":0.0,"pressure":806.5,"uv_index":8.0,"wind_gusts":23.0,"aqi":130,"pm10":16.4,"pm2_5":9.0,"mosquito_risk":0,"arthritis_risk":5,"migraine_risk":7,"frizz_risk":0,"updated_at":"2026-04-14T16:36:33.814039+05:30"},{"city":"Patiala","state":"Punjab","latitude":30.3398,"longitude":76.3869,"temp":35.7,"humidity":18,"rain":0.0,"pressure":977.0,"uv_index":7.1,"wind_gusts":31.7,"aqi":253,"pm10":540.2,"pm2_5":48.7,"mosquito_risk":0,"arthritis_risk":5,"migraine_risk":10,"frizz_risk":0,"updated_at":"2026-04-14T16:36:33.814050+05:30"},{"city":"Bhatinda","state":"Punjab","latitude":30.211,"longitude":74.9455,"temp":37.1,"humidity":18,"rain":0.0,"pressure":982.4,"uv_index":7.75,"wind_gusts":31.3,"aqi":131,"pm10":29.6,"pm2_5":8.5,"mosquito_risk":0,"arthritis_risk":5,"migraine_risk":10,"frizz_risk":0,"updated_at":"2026-04-14T16:36:33.814060+05:30"},{"city":"Rohtak","state":"Haryana","latitude":28.8955,"longitude":76.6066,"temp":37.1,"humidity":16,"rain":0.0,"pressure":980.2,"uv_index":7.3,"wind_gusts":25.6,"aqi":290,"pm10":414.4,"pm2_5":41.7,"mosquito_risk":0,"arthritis_risk":5,"migraine_risk":10,"frizz_risk":0,"updated_at":"2026-04-14T16:36:33.814070+05:30"},{"city":"Panipat","state":"Haryana","latitude":29.3909,"longitude":76.9635,"temp":36.5,"humidity":17,"rain":0.0,"pressure":978.8,"uv_index":7.1,"wind_gusts":31.7,"aqi":612,"pm10":1084.1,"pm2_5":93.6,"mosquito_risk":0,"arthritis_risk":5,"migraine_risk":10,"frizz_risk":0,"updated_at":"2026-04-14T16:36:33.814080+05:30"},{"city":"Mathura","state":"Uttar Pradesh","latitude":27.4924,"longitude":77.6737,"temp":36.5,"humidity":21,"rain":0.0,"pressure":984.9,"uv_index":7.6,"wind_gusts":23.0,"aqi":538,"pm10":298.0,"pm2_5":41.9,"mosquito_risk":0,"arthritis_risk":5,"migraine_risk":10,"frizz_risk":0,"updated_at":"2026-04-14T16:36:33.814091+05:30"},{"city":"Vrindavan","state":"Uttar Pradesh","latitude":27.5823,"longitude":77.7027,"temp":36.9,"humidity":18,"rain":0.0,"pressure":985.4,"uv_index":7.55,"wind_gusts":24.1,"aqi":538,"pm10":298.0,"pm2_5":41.9,"mosquito_risk":0,"arthritis_risk":5,"migraine_risk":10,"frizz_risk":0,"updated_at":"2026-04-14T16:36:33.814101+05:30"},{"city":"Ayodhya","state":"Uttar Pradesh","latitude":26.7922,"longitude":82.1998,"temp":38.5,"humidity":12,"rain":0.0,"pressure":992.4,"uv_index":7.95,"wind_gusts":38.2,"aqi":133,"pm10":23.4,"pm2_5":10.0,"mosquito_risk":0,"arthritis_risk":5,"migraine_risk":10,"frizz_risk":0,"updated_at":"2026-04-14T16:36:33.814111+05:30"},{"city":"Ratlam","state":"Madhya Pradesh","latitude":23.3315,"longitude":75.0367,"temp":34.7,"humidity":31,"rain":0.0,"pressure":954.0,"uv_index":8.4,"wind_gusts":33.1,"aqi":91,"pm10":33.1,"pm2_5":12.3,"mosquito_risk":0,"arthritis_risk":5,"migraine_risk":7,"frizz_risk":0,"updated_at":"2026-04-14T16:36:33.814121+05:30"},{"city":"Sagar","state":"Madhya Pradesh","latitude":23.8388,"longitude":78.7378,"temp":38.5,"humidity":13,"rain":0.0,"pressure":949.0,"uv_index":8.55,"wind_gusts":27.7,"aqi":135,"pm10":42.0,"pm2_5":11.6,"mosquito_risk":0,"arthritis_risk":5,"migraine_risk":10,"frizz_risk":0,"updated_at":"2026-04-14T16:36:33.814128+05:30"},{"city":"Satna","state":"Madhya Pradesh","latitude":24.6005,"longitude":80.8322,"temp":38.9,"humidity":11,"rain":0.0,"pressure":969.5,"uv_index":8.6,"wind_gusts":26.6,"aqi":131,"pm10":55.1,"pm2_5":11.9,"mosquito_risk":0,"arthritis_risk":5,"migraine_risk":10,"frizz_risk":0,"updated_at":"2026-04-14T16:36:33.814136+05:30"},{"city":"Akola","state":"Maharashtra","latitude":20.7002,"longitude":77.0082,"temp":41.1,"humidity":11,"rain":0.0,"pressure":972.5,"uv_index":8.8,"wind_gusts":28.1,"aqi":143,"pm10":16.5,"pm2_5":10.3,"mosquito_risk":0,"arthritis_risk":5,"migraine_risk":10,"frizz_risk":0,"updated_at":"2026-04-14T16:36:33.814144+05:30"},{"city":"Amravati","state":"Maharashtra","latitude":20.9374,"longitude":77.7796,"temp":40.5,"humidity":16,"rain":0.0,"pressure":964.6,"uv_index":8.8,"wind_gusts":22.7,"aqi":142,"pm10":26.2,"pm2_5":13.7,"mosquito_risk":0,"arthritis_risk":5,"migraine_risk":10,"frizz_risk":0,"updated_at":"2026-04-14T16:36:33.814153+05:30"},{"city":"Latur","state":"Maharashtra","latitude":18.4088,"longitude":76.5604,"temp":37.7,"humidity":21,"rain":0.0,"pressure":938.5,"uv_index":9.05,"wind_gusts":30.2,"aqi":136,"pm10":18.1,"pm2_5":13.1,"mosquito_risk":0,"arthritis_risk":5,"migraine_risk":10,"frizz_risk":0,"updated_at":"2026-04-14T16:36:33.814160+05:30"},{"city":"Nanded","state":"Maharashtra","latitude":19.1383,"longitude":77.3091,"temp":39.7,"humidity":19,"rain":0.0,"pressure":966.2,"uv_index":8.95,"wind_gusts":20.5,"aqi":133,"pm10":19.7,"pm2_5":11.6,"mosquito_risk":0,"arthritis_risk":5,"migraine_risk":10,"frizz_risk":0,"updated_at":"2026-04-14T16:36:33.814168+05:30"},{"city":"Gulbarga","state":"Karnataka","latitude":17.3297,"longitude":76.8343,"temp":41.5,"humidity":15,"rain":0.0,"pressure":955.8,"uv_index":9.1,"wind_gusts":22.7,"aqi":149,"pm10":35.7,"pm2_5":27.7,"mosquito_risk":0,"arthritis_risk":5,"migraine_risk":10,"frizz_risk":0,"updated_at":"2026-04-14T16:36:33.814176+05:30"},{"city":"Bidar","state":"Karnataka","latitude":17.9104,"longitude":77.5199,"temp":39.1,"humidity":18,"rain":0.0,"pressure":933.8,"uv_index":9.1,"wind_gusts":24.8,"aqi":132,"pm10":23.5,"pm2_5":17.0,"mosquito_risk":0,"arthritis_risk":5,"migraine_risk":10,"frizz_risk":0,"updated_at":"2026-04-14T16:36:33.814183+05:30"},{"city":"Hospet","state":"Karnataka","latitude":15.2689,"longitude":76.3909,"temp":38.0,"humidity":28,"rain":0.0,"pressure":953.3,"uv_index":9.25,"wind_gusts":24.5,"aqi":147,"pm10":49.7,"pm2_5":37.6,"mosquito_risk":0,"arthritis_risk":5,"migraine_risk":10,"frizz_risk":1,"updated_at":"2026-04-14T16:36:33.814190+05:30"},{"city":"Tirupur","state":"Tamil Nadu","latitude":11.1085,"longitude":77.3411,"temp":39.2,"humidity":21,"rain":0.0,"pressure":972.1,"uv_index":9.35,"wind_gusts":31.0,"aqi":125,"pm10":21.8,"pm2_5":14.1,"mosquito_risk":0,"arthritis_risk":5,"migraine_risk":10,"frizz_risk":0,"updated_at":"2026-04-14T16:36:33.814198+05:30"},{"city":"Alappuzha","state":"Kerala","latitude":9.4981,"longitude":76.3388,"temp":29.9,"humidity":80,"rain":0.0,"pressure":1005.8,"uv_index":8.9,"wind_gusts":24.8,"aqi":96,"pm10":43.7,"pm2_5":28.6,"mosquito_risk":7,"arthritis_risk":5,"migraine_risk":4,"frizz_risk":1,"updated_at":"2026-04-14T16:36:33.814206+05:30"},{"city":"Munnar","state":"Kerala","latitude":10.0889,"longitude":77.0595,"temp":29.7,"humidity":51,"rain":0.0,"pressure":857.7,"uv_index":9.75,"wind_gusts":31.0,"aqi":80,"pm10":23.9,"pm2_5":14.4,"mosquito_risk":4,"arthritis_risk":5,"migraine_risk":7,"frizz_risk":1,"updated_at":"2026-04-14T16:36:33.814214+05:30"},{"city":"Silchar","state":"Assam","latitude":24.8333,"longitude":92.7789,"temp":30.2,"humidity":63,"rain":0.0,"pressure":1002.7,"uv_index":8.7,"wind_gusts":32.8,"aqi":148,"pm10":66.1,"pm2_5":49.8,"mosquito_risk":3,"arthritis_risk":5,"migraine_risk":4,"frizz_risk":1,"updated_at":"2026-04-14T16:36:33.814222+05:30"},{"city":"Dibrugarh","state":"Assam","latitude":27.4728,"longitude":94.912,"temp":26.8,"humidity":66,"rain":0.0,"pressure":993.8,"uv_index":8.55,"wind_gusts":33.1,"aqi":105,"pm10":65.4,"pm2_5":32.9,"mosquito_risk":7,"arthritis_risk":5,"migraine_risk":7,"frizz_risk":1,"updated_at":"2026-04-14T16:36:33.814229+05:30"}]