[{"city":"Delhi","state":"Delhi","latitude":28.6139,"longitude":77.209,"temp":22.5,"humidity":51,"rain":0.0,"pressure":982.9,"uv_index":7.25,"wind_gusts":28.8,"aqi":473,"pm10":429.3,"pm2_5":83.8,"mosquito_risk":0,"arthritis_risk":5,"migraine_risk":7,"frizz_risk":0,"updated_at":"2026-04-13T03:08:53.624024+05:30"},{"city":"Mumbai","state":"Maharashtra","latitude":19.076,"longitude":72.8777,"temp":28.8,"humidity":84,"rain":0.0,"pressure":1006.9,"uv_index":8.0,"wind_gusts":20.9,"aqi":122,"pm10":75.4,"pm2_5":37.3,"mosquito_risk":7,"arthritis_risk":5,"migraine_risk":4,"frizz_risk":1,"updated_at":"2026-04-13T03:08:53.624073+05:30"},{"city":"Bangalore","state":"Karnataka","latitude":12.9716,"longitude":77.5946,"temp":24.1,"humidity":67,"rain":0.0,"pressure":911.2,"uv_index":9.6,"wind_gusts":27.7,"aqi":90,"pm10":31.8,"pm2_5":27.2,"mosquito_risk":3,"arthritis_risk":5,"migraine_risk":7,"frizz_risk":1,"updated_at":"2026-04-13T03:08:53.624088+05:30"},{"city":"Hyderabad","state":"Telangana","latitude":17.385,"longitude":78.4867,"temp":28.3,"humidity":57,"rain":0.0,"pressure":952.4,"uv_index":9.25,"wind_gusts":34.2,"aqi":79,"pm10":25.8,"pm2_5":21.5,"mosquito_risk":4,"arthritis_risk":5,"migraine_risk":7,"frizz_risk":1,"updated_at":"2026-04-13T03:08:53.624097+05:30"},{"city":"Chennai","state":"Tamil Nadu","latitude":13.0827,"longitude":80.2707,"temp":27.2,"humidity":86,"rain":0.0,"pressure":1006.8,"uv_index":9.35,"wind_gusts":35.3,"aqi":39,"pm10":11.8,"pm2_5":7.6,"mosquito_risk":7,"arthritis_risk":5,"migraine_risk":4,"frizz_risk":1,"updated_at":"2026-04-13T03:08:53.624105+05:30"},{"city":"Kolkata","state":"West Bengal","latitude":22.5726,"longitude":88.3639,"temp":26.1,"humidity":94,"rain":0.0,"pressure":1004.3,"uv_index":8.85,"wind_gusts":30.6,"aqi":95,"pm10":24.6,"pm2_5":19.5,"mosquito_risk":7,"arthritis_risk":5,"migraine_risk":4,"frizz_risk":1,"updated_at":"2026-04-13T03:08:53.624113+05:30"},{"city":"Pune","state":"Maharashtra","latitude":18.5204,"longitude":73.8567,"temp":26.7,"humidity":57,"rain":0.0,"pressure":947.5,"uv_index":8.6,"wind_gusts":38.5,"aqi":129,"pm10":47.5,"pm2_5":39.3,"mosquito_risk":4,"arthritis_risk":5,"migraine_risk":7,"frizz_risk":1,"updated_at":"2026-04-13T03:08:53.624122+05:30"},{"city":"Ahmedabad","state":"Gujarat","latitude":23.0225,"longitude":72.5714,"temp":26.7,"humidity":30,"rain":0.0,"pressure":1000.3,"uv_index":8.1,"wind_gusts":24.5,"aqi":92,"pm10":61.9,"pm2_5":25.9,"mosquito_risk":4,"arthritis_risk":5,"migraine_risk":4,"frizz_risk":0,"updated_at":"2026-04-13T03:08:53.624130+05:30"},{"city":"Jaipur","state":"Rajasthan","latitude":26.9124,"longitude":75.7873,"temp":24.8,"humidity":35,"rain":0.0,"pressure":959.1,"uv_index":7.9,"wind_gusts":24.5,"aqi":147,"pm10":77.3,"pm2_5":32.2,"mosquito_risk":0,"arthritis_risk":5,"migraine_risk":7,"frizz_risk":0,"updated_at":"2026-04-13T03:08:53.624136+05:30"},{"city":"Lucknow","state":"Uttar Pradesh","latitude":26.8467,"longitude":80.9462,"temp":22.7,"humidity":56,"rain":0.0,"pressure":993.0,"uv_index":7.75,"wind_gusts":37.1,"aqi":141,"pm10":328.8,"pm2_5":68.0,"mosquito_risk":0,"arthritis_risk":5,"migraine_risk":7,"frizz_risk":0,"updated_at":"2026-04-13T03:08:53.624143+05:30"},{"city":"Kanpur","state":"Uttar Pradesh","latitude":26.4499,"longitude":80.3319,"temp":22.1,"humidity":62,"rain":0.0,"pressure":991.4,"uv_index":7.75,"wind_gusts":27.0,"aqi":346,"pm10":719.0,"pm2_5":108.3,"mosquito_risk":3,"arthritis_risk":5,"migraine_risk":7,"frizz_risk":0,"updated_at":"2026-04-13T03:08:53.624149+05:30"},{"city":"Chandigarh","state":"Chandigarh","latitude":30.7333,"longitude":76.7794,"temp":19.0,"humidity":68,"rain":0.0,"pressure":968.6,"uv_index":7.2,"wind_gusts":30.2,"aqi":65,"pm10":30.9,"pm2_5":19.0,"mosquito_risk":3,"arthritis_risk":5,"migraine_risk":7,"frizz_risk":0,"updated_at":"2026-04-13T03:08:53.624155+05:30"},{"city":"Srinagar","state":"Jammu and Kashmir","latitude":34.0837,"longitude":74.7973,"temp":7.7,"humidity":85,"rain":0.0,"pressure":839.7,"uv_index":8.1,"wind_gusts":16.2,"aqi":80,"pm10":49.6,"pm2_5":43.8,"mosquito_risk":3,"arthritis_risk":10,"migraine_risk":7,"frizz_risk":0,"updated_at":"2026-04-13T03:08:53.624162+05:30"},{"city":"Jammu","state":"Jammu and Kashmir","latitude":32.7266,"longitude":74.857,"temp":17.8,"humidity":77,"rain":0.0,"pressure":973.2,"uv_index":7.75,"wind_gusts":31.7,"aqi":64,"pm10":22.8,"pm2_5":18.3,"mosquito_risk":3,"arthritis_risk":5,"migraine_risk":7,"frizz_risk":0,"updated_at":"2026-04-13T03:08:53.624168+05:30"},{"city":"Amritsar","state":"Punjab","latitude":31.634,"longitude":74.8723,"temp":19.6,"humidity":66,"rain":0.0,"pressure":981.4,"uv_index":7.8,"wind_gusts":23.8,"aqi":77,"pm10":51.2,"pm2_5":30.5,"mosquito_risk":3,"arthritis_risk":5,"migraine_risk":7,"frizz_risk":0,"updated_at":"2026-04-13T03:08:53.624174+05:30"},{"city":"Ludhiana","state":"Punjab","latitude":30.901,"longitude":75.8573,"temp":19.8,"humidity":62,"rain":0.0,"pressure":979.2,"uv_index":7.45,"wind_gusts":26.6,"aqi":72,"pm10":39.7,"pm2_5":33.5,"mosquito_risk":3,"arthritis_risk":5,"migraine_risk":7,"frizz_risk":0,"updated_at":"2026-04-13T03:08:53.624179+05:30"},{"city":"Jalandhar","state":"Punjab","latitude":31.326,"longitude":75.5762,"temp":18.8,"humidity":69,"rain":0.0,"pressure":980.4,"uv_index":7.6,"wind_gusts":23.8,"aqi":79,"pm10":55.8,"pm2_5":42.8,"mosquito_risk":3,"arthritis_risk":5,"migraine_risk":7,"frizz_risk":0,"updated_at":"2026-04-13T03:08:53.624187+05:30"},{"city":"Dehradun","state":"Uttarakhand","latitude":30.6284,"longitude":78.0322,"temp":12.0,"humidity":73,"rain":0.0,"pressure":827.7,"uv_index":7.25,"wind_gusts":31.0,"aqi":52,"pm10":24.0,"pm2_5":15.9,"mosquito_risk":3,"arthritis_risk":5,"migraine_risk":7,"frizz_risk":0,"updated_at":"2026-04-13T03:08:53.624193+05:30"},{"city":"Shimla","state":"Himachal Pradesh","latitude":31.1048,"longitude":77.1734,"temp":9.7,"humidity":79,"rain":0.0,"pressure":781.3,"uv_index":7.7,"wind_gusts":40.3,"aqi":58,"pm10":44.2,"pm2_5":18.1,"mosquito_risk":3,"arthritis_risk":5,"migraine_risk":7,"frizz_risk":0,"updated_at":"2026-04-13T03:08:53.624201+05:30"},{"city":"Manali","state":"Himachal Pradesh","latitude":32.2396,"longitude":77.1887,"temp":12.9,"humidity":52,"rain":0.0,"pressure":817.1,"uv_index":9.65,"wind_gusts":27.4,"aqi":84,"pm10":21.9,"pm2_5":14.7,"mosquito_risk":0,"arthritis_risk":5,"migraine_risk":7,"frizz_risk":0,"updated_at":"2026-04-13T03:08:53.624207+05:30"},{"city":"Gurgaon","state":"Haryana","latitude":28.4595,"longitude":77.0266,"temp":19.9,"humidity":62,"rain":0.0,"pressure":981.2,"uv_index":7.35,"wind_gusts":22.7,"aqi":1184,"pm10":907.1,"pm2_5":137.8,"mosquito_risk":3,"arthritis_risk":5,"migraine_risk":7,"frizz_risk":0,"updated_at":"2026-04-13T03:08:53.624212+05:30"},{"city":"Noida","state":"Uttar Pradesh","latitude":28.5355,"longitude":77.391,"temp":22.1,"humidity":53,"rain":0.0,"pressure":984.4,"uv_index":7.3,"wind_gusts":29.2,"aqi":1184,"pm10":907.1,"pm2_5":137.8,"mosquito_risk":0,"arthritis_risk":5,"migraine_risk":7,"frizz_risk":0,"updated_at":"2026-04-13T03:08:53.624218+05:30"},{"city":"Ghaziabad","state":"Uttar Pradesh","latitude":28.6692,"longitude":77.4538,"temp":20.5,"humidity":59,"rain":0.0,"pressure":982.5,"uv_index":7.25,"wind_gusts":29.2,"aqi":272,"pm10":302.7,"pm2_5":64.5,"mosquito_risk":0,"arthritis_risk":5,"migraine_risk":7,"frizz_risk":0,"updated_at":"2026-04-13T03:08:53.624223+05:30"},{"city":"Faridabad","state":"Haryana","latitude":28.4089,"longitude":77.3178,"temp":21.2,"humidity":55,"rain":0.0,"pressure":983.5,"uv_index":7.3,"wind_gusts":27.0,"aqi":1184,"pm10":907.1,"pm2_5":137.8,"mosquito_risk":0,"arthritis_risk":5,"migraine_risk":7,"frizz_risk":0,"updated_at":"2026-04-13T03:08:53.624228+05:30"},{"city":"Meerut","state":"Uttar Pradesh","latitude":28.9845,"longitude":77.7064,"temp":19.3,"humidity":63,"rain":0.0,"pressure":981.0,"uv_index":7.15,"wind_gusts":33.8,"aqi":272,"pm10":302.7,"pm2_5":64.5,"mosquito_risk":3,"arthritis_risk":5,"migraine_risk":7,"frizz_risk":0,"updated_at":"2026-04-13T03:08:53.624234+05:30"},{"city":"Agra","state":"Uttar Pradesh","latitude":27.1767,"longitude":78.0081,"temp":21.3,"humidity":54,"rain":0.0,"pressure":987.7,"uv_index":7.65,"wind_gusts":19.1,"aqi":847,"pm10":1173.5,"pm2_5":151.3,"mosquito_risk":0,"arthritis_risk":5,"migraine_risk":7,"frizz_risk":0,"updated_at":"2026-04-13T03:08:53.624239+05:30"},{"city":"Varanasi","state":"Uttar Pradesh","latitude":25.3176,"longitude":82.9739,"temp":23.9,"humidity":53,"rain":0.0,"pressure":996.3,"uv_index":8.35,"wind_gusts":39.2,"aqi":106,"pm10":121.1,"pm2_5":40.0,"mosquito_risk":0,"arthritis_risk":5,"migraine_risk":7,"frizz_risk":0,"updated_at":"2026-04-13T03:08:53.624246+05:30"},{"city":"Prayagraj","state":"Uttar Pradesh","latitude":25.4358,"longitude":81.8463,"temp":23.7,"humidity":59,"rain":0.0,"pressure":995.5,"uv_index":8.25,"wind_gusts":35.3,"aqi":129,"pm10":197.0,"pm2_5":45.4,"mosquito_risk":0,"arthritis_risk":5,"migraine_risk":7,"frizz_risk":0,"updated_at":"2026-04-13T03:08:53.624252+05:30"},{"city":"Gorakhpur","state":"Uttar Pradesh","latitude":26.7606,"longitude":83.3732,"temp":22.8,"humidity":49,"rain":0.0,"pressure":995.6,"uv_index":8.15,"wind_gusts":26.6,"aqi":96,"pm10":77.8,"pm2_5":32.0,"mosquito_risk":0,"arthritis_risk":5,"migraine_risk":7,"frizz_risk":0,"updated_at":"2026-04-13T03:08:53.624257+05:30"},{"city":"Bareilly","state":"Uttar Pradesh","latitude":28.367,"longitude":79.4304,"temp":19.8,"humidity":69,"rain":0.0,"pressure":986.1,"uv_index":7.55,"wind_gusts":38.2,"aqi":81,"pm10":122.0,"pm2_5":39.5,"mosquito_risk":3,"arthritis_risk":5,"migraine_risk":7,"frizz_risk":0,"updated_at":"2026-04-13T03:08:53.624264+05:30"},{"city":"Aligarh","state":"Uttar Pradesh","latitude":27.8974,"longitude":78.088,"temp":19.5,"humidity":60,"rain":0.0,"pressure":985.3,"uv_index":7.45,"wind_gusts":31.0,"aqi":694,"pm10":791.6,"pm2_5":132.2,"mosquito_risk":0,"arthritis_risk":5,"migraine_risk":7,"frizz_risk":0,"updated_at":"2026-04-13T03:08:53.624270+05:30"},{"city":"Moradabad","state":"Uttar Pradesh","latitude":28.8386,"longitude":78.7733,"temp":19.5,"humidity":67,"rain":0.0,"pressure":983.0,"uv_index":7.35,"wind_gusts":36.7,"aqi":97,"pm10":113.9,"pm2_5":41.4,"mosquito_risk":3,"arthritis_risk":5,"migraine_risk":7,"frizz_risk":0,"updated_at":"2026-04-13T03:08:53.624275+05:30"},{"city":"Saharanpur","state":"Uttar Pradesh","latitude":29.9637,"longitude":77.546,"temp":18.0,"humidity":74,"rain":0.0,"pressure":975.3,"uv_index":6.8,"wind_gusts":31.0,"aqi":87,"pm10":39.9,"pm2_5":27.3,"mosquito_risk":3,"arthritis_risk":5,"migraine_risk":7,"frizz_risk":0,"updated_at":"2026-04-13T03:08:53.624280+05:30"},{"city":"Jhansi","state":"Uttar Pradesh","latitude":25.4484,"longitude":78.5685,"temp":24.2,"humidity":50,"rain":0.0,"pressure":977.7,"uv_index":8.15,"wind_gusts":23.0,"aqi":80,"pm10":250.5,"pm2_5":45.2,"mosquito_risk":0,"arthritis_risk":5,"migraine_risk":7,"frizz_risk":0,"updated_at":"2026-04-13T03:08:56.911468+05:30"},{"city":"Surat","state":"Gujarat","latitude":21.1702,"longitude":72.8311,"temp":27.7,"humidity":79,"rain":0.0,"pressure":1005.0,"uv_index":7.8,"wind_gusts":26.3,"aqi":141,"pm10":46.4,"pm2_5":30.7,"mosquito_risk":7,"arthritis_risk":5,"migraine_risk":4,"frizz_risk":1,"updated_at":"2026-04-13T03:08:56.911497+05:30"},{"city":"Vadodara","state":"Gujarat","latitude":22.3072,"longitude":73.1812,"temp":27.0,"humidity":73,"rain":0.0,"pressure":1002.5,"uv_index":8.1,"wind_gusts":22.0,"aqi":130,"pm10":100.4,"pm2_5":69.2,"mosquito_risk":7,"arthritis_risk":5,"migraine_risk":4,"frizz_risk":1,"updated_at":"2026-04-13T03:08:56.911506+05:30"},{"city":"Rajkot","state":"Gujarat","latitude":22.3039,"longitude":70.8022,"temp":25.6,"humidity":70,"rain":0.0,"pressure":993.4,"uv_index":7.8,"wind_gusts":35.6,"aqi":78,"pm10":64.7,"pm2_5":29.2,"mosquito_risk":7,"arthritis_risk":5,"migraine_risk":7,"frizz_risk":1,"updated_at":"2026-04-13T03:08:56.911515+05:30"},{"city":"Thane","state":"Maharashtra","latitude":19.2183,"longitude":72.9781,"temp":27.3,"humidity":88,"rain":0.0,"pressure":1006.4,"uv_index":8.0,"wind_gusts":34.6,"aqi":122,"pm10":75.4,"pm2_5":37.3,"mosquito_risk":7,"arthritis_risk":5,"migraine_risk":4,"frizz_risk":1,"updated_at":"2026-04-13T03:08:56.911523+05:30"},{"city":"Nagpur","state":"Maharashtra","latitude":21.1458,"longitude":79.0882,"temp":23.5,"humidity":69,"rain":0.0,"pressure":970.9,"uv_index":8.85,"wind_gusts":25.2,"aqi":81,"pm10":46.4,"pm2_5":38.9,"mosquito_risk":3,"arthritis_risk":5,"migraine_risk":7,"frizz_risk":1,"updated_at":"2026-04-13T03:08:56.911531+05:30"},{"city":"Nashik","state":"Maharashtra","latitude":19.9975,"longitude":73.7898,"temp":25.6,"humidity":51,"rain":0.0,"pressure":944.6,"uv_index":8.25,"wind_gusts":32.0,"aqi":105,"pm10":65.4,"pm2_5":44.6,"mosquito_risk":4,"arthritis_risk":5,"migraine_risk":7,"frizz_risk":0,"updated_at":"2026-04-13T03:08:56.911538+05:30"},{"city":"Aurangabad","state":"Maharashtra","latitude":19.8762,"longitude":75.3433,"temp":27.4,"humidity":42,"rain":0.0,"pressure":943.0,"uv_index":8.95,"wind_gusts":28.8,"aqi":81,"pm10":42.8,"pm2_5":29.3,"mosquito_risk":4,"arthritis_risk":5,"migraine_risk":7,"frizz_risk":0,"updated_at":"2026-04-13T03:08:56.911546+05:30"},{"city":"Solapur","state":"Maharashtra","latitude":17.6599,"longitude":75.9064,"temp":28.6,"humidity":62,"rain":0.0,"pressure":955.7,"uv_index":9.05,"wind_gusts":27.7,"aqi":85,"pm10":34.9,"pm2_5":31.3,"mosquito_risk":7,"arthritis_risk":5,"migraine_risk":7,"frizz_risk":1,"updated_at":"2026-04-13T03:08:56.911554+05:30"},{"city":"Kolhapur","state":"Maharashtra","latitude":16.705,"longitude":74.2433,"temp":22.6,"humidity":90,"rain":0.0,"pressure":947.1,"uv_index":9.05,"wind_gusts":46.1,"aqi":91,"pm10":39.8,"pm2_5":32.5,"mosquito_risk":3,"arthritis_risk":5,"migraine_risk":7,"frizz_risk":1,"updated_at":"2026-04-13T03:08:56.911561+05:30"},{"city":"Goa","state":"Goa","latitude":15.2993,"longitude":74.124,"temp":27.6,"humidity":85,"rain":0.0,"pressure":997.4,"uv_index":9.0,"wind_gusts":28.4,"aqi":96,"pm10":53.4,"pm2_5":37.3,"mosquito_risk":7,"arthritis_risk":5,"migraine_risk":7,"frizz_risk":1,"updated_at":"2026-04-13T03:08:56.911568+05:30"},{"city":"Jodhpur","state":"Rajasthan","latitude":26.2389,"longitude":73.0243,"temp":26.6,"humidity":35,"rain":0.0,"pressure":982.3,"uv_index":8.15,"wind_gusts":24.1,"aqi":74,"pm10":60.3,"pm2_5":27.4,"mosquito_risk":4,"arthritis_risk":5,"migraine_risk":7,"frizz_risk":0,"updated_at":"2026-04-13T03:08:56.911575+05:30"},{"city":"Udaipur","state":"Rajasthan","latitude":24.5854,"longitude":73.7125,"temp":21.3,"humidity":42,"rain":0.0,"pressure":945.8,"uv_index":8.7,"wind_gusts":24.8,"aqi":57,"pm10":39.8,"pm2_5":15.0,"mosquito_risk":0,"arthritis_risk":5,"migraine_risk":7,"frizz_risk":0,"updated_at":"2026-04-13T03:08:56.911582+05:30"},{"city":"Kota","state":"Rajasthan","latitude":25.2138,"longitude":75.8648,"temp":21.8,"humidity":60,"rain":0.0,"pressure":978.0,"uv_index":8.15,"wind_gusts":14.0,"aqi":82,"pm10":71.2,"pm2_5":22.6,"mosquito_risk":0,"arthritis_risk":5,"migraine_risk":7,"frizz_risk":0,"updated_at":"2026-04-13T03:08:56.911589+05:30"},{"city":"Bikaner","state":"Rajasthan","latitude":28.0229,"longitude":73.3119,"temp":25.9,"humidity":38,"rain":0.0,"pressure":981.4,"uv_index":7.95,"wind_gusts":20.9,"aqi":60,"pm10":24.8,"pm2_5":12.6,"mosquito_risk":4,"arthritis_risk":5,"migraine_risk":7,"frizz_risk":0,"updated_at":"2026-04-13T03:08:56.911596+05:30"},{"city":"Ajmer","state":"Rajasthan","latitude":26.4499,"longitude":74.6399,"temp":24.3,"humidity":34,"rain":0.0,"pressure":954.1,"uv_index":8.1,"wind_gusts":29.5,"aqi":79,"pm10":65.4,"pm2_5":25.5,"mosquito_risk":0,"arthritis_risk":5,"migraine_risk":7,"frizz_risk":0,"updated_at":"2026-04-13T03:08:56.911603+05:30"},{"city":"Gwalior","state":"Madhya Pradesh","latitude":26.2183,"longitude":78.1828,"temp":24.8,"humidity":50,"rain":0.0,"pressure":983.2,"uv_index":7.9,"wind_gusts":31.0,"aqi":152,"pm10":610.9,"pm2_5":85.9,"mosquito_risk":0,"arthritis_risk":5,"migraine_risk":7,"frizz_risk":0,"updated_at":"2026-04-13T03:08:56.911610+05:30"},{"city":"Indore","state":"Madhya Pradesh","latitude":22.7196,"longitude":75.8577,"temp":24.5,"humidity":51,"rain":0.0,"pressure":946.9,"uv_index":8.55,"wind_gusts":28.1,"aqi":73,"pm10":81.3,"pm2_5":39.5,"mosquito_risk":0,"arthritis_risk":5,"migraine_risk":7,"frizz_risk":0,"updated_at":"2026-04-13T03:08:56.911616+05:30"},{"city":"Bhopal","state":"Madhya Pradesh","latitude":23.2599,"longitude":77.4126,"temp":24.8,"humidity":51,"rain":0.0,"pressure":952.9,"uv_index":8.55,"wind_gusts":22.7,"aqi":63,"pm10":84.1,"pm2_5":31.9,"mosquito_risk":0,"arthritis_risk":5,"migraine_risk":7,"frizz_risk":0,"updated_at":"2026-04-13T03:08:56.911623+05:30"},{"city":"Jabalpur","state":"Madhya Pradesh","latitude":23.1815,"longitude":79.9864,"temp":24.3,"humidity":55,"rain":0.0,"pressure":960.6,"uv_index":8.65,"wind_gusts":24.8,"aqi":69,"pm10":59.8,"pm2_5":32.1,"mosquito_risk":0,"arthritis_risk":5,"migraine_risk":7,"frizz_risk":0,"updated_at":"2026-04-13T03:08:56.911630+05:30"},{"city":"Ujjain","state":"Madhya Pradesh","latitude":23.1765,"longitude":75.7885,"temp":24.8,"humidity":51,"rain":0.0,"pressure":952.6,"uv_index":8.45,"wind_gusts":26.3,"aqi":73,"pm10":94.5,"pm2_5":43.9,"mosquito_risk":0,"arthritis_risk":5,"migraine_risk":7,"frizz_risk":0,"updated_at":"2026-04-13T03:08:56.911637+05:30"},{"city":"Visakhapatnam","state":"Andhra Pradesh","latitude":17.6868,"longitude":83.2185,"temp":27.1,"humidity":87,"rain":0.0,"pressure":1003.2,"uv_index":9.15,"wind_gusts":45.0,"aqi":72,"pm10":23.1,"pm2_5":15.4,"mosquito_risk":7,"arthritis_risk":5,"migraine_risk":4,"frizz_risk":1,"updated_at":"2026-04-13T03:08:56.911644+05:30"},{"city":"Vijayawada","state":"Andhra Pradesh","latitude":16.5062,"longitude":80.648,"temp":26.3,"humidity":90,"rain":0.0,"pressure":1002.0,"uv_index":9.2,"wind_gusts":29.5,"aqi":56,"pm10":18.1,"pm2_5":11.9,"mosquito_risk":7,"arthritis_risk":5,"migraine_risk":4,"frizz_risk":1,"updated_at":"2026-04-13T03:08:56.911651+05:30"},{"city":"Guntur","state":"Andhra Pradesh","latitude":16.3067,"longitude":80.4365,"temp":26.6,"humidity":89,"rain":0.0,"pressure":1003.0,"uv_index":9.2,"wind_gusts":31.3,"aqi":55,"pm10":18.2,"pm2_5":11.7,"mosquito_risk":7,"arthritis_risk":5,"migraine_risk":4,"frizz_risk":1,"updated_at":"2026-04-13T03:08:56.911658+05:30"},{"city":"Nellore","state":"Andhra Pradesh","latitude":14.4426,"longitude":79.9865,"temp":25.9,"humidity":90,"rain":0.0,"pressure":1004.9,"uv_index":9.3,"wind_gusts":36.7,"aqi":56,"pm10":14.6,"pm2_5":9.7,"mosquito_risk":7,"arthritis_risk":5,"migraine_risk":4,"frizz_risk":1,"updated_at":"2026-04-13T03:08:56.911666+05:30"},{"city":"Kurnool","state":"Andhra Pradesh","latitude":15.8281,"longitude":78.0373,"temp":30.8,"humidity":50,"rain":0.0,"pressure":975.2,"uv_index":9.2,"wind_gusts":29.5,"aqi":72,"pm10":22.9,"pm2_5":19.7,"mosquito_risk":0,"arthritis_risk":5,"migraine_risk":7,"frizz_risk":1,"updated_at":"2026-04-13T03:08:56.911674+05:30"},{"city":"Kakinada","state":"Andhra Pradesh","latitude":16.9891,"longitude":82.2475,"temp":27.1,"humidity":87,"rain":0.0,"pressure":1007.1,"uv_index":9.2,"wind_gusts":31.3,"aqi":52,"pm10":22.1,"pm2_5":11.9,"mosquito_risk":7,"arthritis_risk":5,"migraine_risk":4,"frizz_risk":1,"updated_at":"2026-04-13T03:08:56.911681+05:30"},{"city":"Tirupati","state":"Andhra Pradesh","latitude":13.6288,"longitude":79.4192,"temp":24.7,"humidity":73,"rain":0.0,"pressure":991.4,"uv_index":9.4,"wind_gusts":31.3,"aqi":68,"pm10":24.2,"pm2_5":20.4,"mosquito_risk":3,"arthritis_risk":5,"migraine_risk":7,"frizz_risk":1,"updated_at":"2026-04-13T03:08:56.911687+05:30"},{"city":"Warangal","state":"Telangana","latitude":17.9689,"longitude":79.5941,"temp":27.2,"humidity":71,"rain":0.0,"pressure":977.4,"uv_index":9.1,"wind_gusts":31.0,"aqi":80,"pm10":25.2,"pm2_5":20.8,"mosquito_risk":7,"arthritis_risk":5,"migraine_risk":7,"frizz_risk":1,"updated_at":"2026-04-13T03:08:56.911694+05:30"},{"city":"Nizamabad","state":"Telangana","latitude":18.6725,"longitude":78.0941,"temp":29.0,"humidity":56,"rain":0.0,"pressure":962.6,"uv_index":9.05,"wind_gusts":36.7,"aqi":119,"pm10":32.1,"pm2_5":28.9,"mosquito_risk":4,"arthritis_risk":5,"migraine_risk":7,"frizz_risk":1,"updated_at":"2026-04-13T03:08:56.911701+05:30"},{"city":"Mysore","state":"Karnataka","latitude":12.2958,"longitude":76.6396,"temp":23.8,"humidity":89,"rain":0.0,"pressure":928.0,"uv_index":9.5,"wind_gusts":45.0,"aqi":98,"pm10":38.8,"pm2_5":32.9,"mosquito_risk":3,"arthritis_risk":5,"migraine_risk":7,"frizz_risk":1,"updated_at":"2026-04-13T03:08:56.911723+05:30"},{"city":"Mangalore","state":"Karnataka","latitude":12.9141,"longitude":74.856,"temp":29.8,"humidity":80,"rain":0.0,"pressure":1006.0,"uv_index":9.15,"wind_gusts":25.6,"aqi":95,"pm10":51.2,"pm2_5":29.2,"mosquito_risk":7,"arthritis_risk":5,"migraine_risk":4,"frizz_risk":1,"updated_at":"2026-04-13T03:08:56.911730+05:30"},{"city":"Hubli-Dharwad","state":"Karnataka","latitude":15.3647,"longitude":75.124,"temp":24.0,"humidity":89,"rain":0.0,"pressure":940.2,"uv_index":9.25,"wind_gusts":36.0,"aqi":90,"pm10":32.6,"pm2_5":25.3,"mosquito_risk":3,"arthritis_risk":5,"migraine_risk":7,"frizz_risk":1,"updated_at":"2026-04-13T03:08:56.911739+05:30"},{"city":"Belgaum","state":"Karnataka","latitude":15.8497,"longitude":74.4977,"temp":22.5,"humidity":91,"rain":0.0,"pressure":925.1,"uv_index":9.3,"wind_gusts":37.8,"aqi":94,"pm10":47.1,"pm2_5":38.1,"mosquito_risk":3,"arthritis_risk":5,"migraine_risk":7,"frizz_risk":1,"updated_at":"2026-04-13T03:09:00.196340+05:30"},{"city":"Coimbatore","state":"Tamil Nadu","latitude":11.0168,"longitude":76.9558,"temp":24.8,"humidity":92,"rain":0.0,"pressure":961.3,"uv_index":9.45,"wind_gusts":39.2,"aqi":92,"pm10":47.5,"pm2_5":37.1,"mosquito_risk":3,"arthritis_risk":5,"migraine_risk":7,"frizz_risk":1,"updated_at":"2026-04-13T03:09:00.196368+05:30"},{"city":"Madurai","state":"Tamil Nadu","latitude":9.9252,"longitude":78.1198,"temp":27.0,"humidity":88,"rain":0.0,"pressure":993.0,"uv_index":9.35,"wind_gusts":42.8,"aqi":82,"pm10":28.8,"pm2_5":25.3,"mosquito_risk":7,"arthritis_risk":5,"migraine_risk":7,"frizz_risk":1,"updated_at":"2026-04-13T03:09:00.196377+05:30"},{"city":"Trichy","state":"Tamil Nadu","latitude":10.7905,"longitude":78.7047,"temp":25.7,"humidity":92,"rain":0.0,"pressure":999.7,"uv_index":9.35,"wind_gusts":24.5,"aqi":59,"pm10":13.7,"pm2_5":12.3,"mosquito_risk":7,"arthritis_risk":5,"migraine_risk":7,"frizz_risk":1,"updated_at":"2026-04-13T03:09:00.196385+05:30"},{"city":"Salem","state":"Tamil Nadu","latitude":11.6643,"longitude":78.146,"temp":26.0,"humidity":82,"rain":0.0,"pressure":977.1,"uv_index":9.45,"wind_gusts":16.2,"aqi":76,"pm10":27.8,"pm2_5":24.0,"mosquito_risk":7,"arthritis_risk":5,"migraine_risk":7,"frizz_risk":1,"updated_at":"2026-04-13T03:09:00.196393+05:30"},{"city":"Tirunelveli","state":"Tamil Nadu","latitude":8.7139,"longitude":77.7567,"temp":25.7,"humidity":93,"rain":0.0,"pressure":1002.9,"uv_index":8.75,"wind_gusts":44.6,"aqi":82,"pm10":37.3,"pm2_5":29.9,"mosquito_risk":7,"arthritis_risk":5,"migraine_risk":4,"frizz_risk":1,"updated_at":"2026-04-13T03:09:00.196401+05:30"},{"city":"Vellore","state":"Tamil Nadu","latitude":12.9165,"longitude":79.1325,"temp":24.2,"humidity":70,"rain":0.0,"pressure":984.3,"uv_index":9.45,"wind_gusts":29.5,"aqi":88,"pm10":42.0,"pm2_5":38.1,"mosquito_risk":3,"arthritis_risk":5,"migraine_risk":7,"frizz_risk":1,"updated_at":"2026-04-13T03:09:00.196408+05:30"},{"city":"Erode","state":"Tamil Nadu","latitude":11.341,"longitude":77.7172,"temp":27.3,"humidity":73,"rain":0.0,"pressure":988.8,"uv_index":9.4,"wind_gusts":22.0,"aqi":64,"pm10":15.1,"pm2_5":12.6,"mosquito_risk":7,"arthritis_risk":5,"migraine_risk":7,"frizz_risk":1,"updated_at":"2026-04-13T03:09:00.196415+05:30"},{"city":"Kochi","state":"Kerala","latitude":9.9312,"longitude":76.2673,"temp":27.9,"humidity":84,"rain":0.0,"pressure":1008.1,"uv_index":9.15,"wind_gusts":28.8,"aqi":97,"pm10":41.2,"pm2_5":32.0,"mosquito_risk":7,"arthritis_risk":0,"migraine_risk":4,"frizz_risk":1,"updated_at":"2026-04-13T03:09:00.196423+05:30"},{"city":"Thiruvananthapuram","state":"Kerala","latitude":8.5241,"longitude":76.9366,"temp":28.6,"humidity":81,"rain":0.0,"pressure":1007.2,"uv_index":9.15,"wind_gusts":27.0,"aqi":81,"pm10":36.8,"pm2_5":22.1,"mosquito_risk":7,"arthritis_risk":5,"migraine_risk":4,"frizz_risk":1,"updated_at":"2026-04-13T03:09:00.196430+05:30"},{"city":"Kozhikode","state":"Kerala","latitude":11.2588,"longitude":75.7804,"temp":29.4,"humidity":81,"rain":0.0,"pressure":1007.1,"uv_index":9.15,"wind_gusts":26.3,"aqi":93,"pm10":62.9,"pm2_5":32.9,"mosquito_risk":7,"arthritis_risk":5,"migraine_risk":4,"frizz_risk":1,"updated_at":"2026-04-13T03:09:00.196437+05:30"},{"city":"Thrissur","state":"Kerala","latitude":10.5276,"longitude":76.2144,"temp":27.7,"humidity":88,"rain":0.0,"pressure":1006.4,"uv_index":9.15,"wind_gusts":33.8,"aqi":95,"pm10":45.5,"pm2_5":34.1,"mosquito_risk":7,"arthritis_risk":5,"migraine_risk":4,"frizz_risk":1,"updated_at":"2026-04-13T03:09:00.196445+05:30"},{"city":"Kannur","state":"Kerala","latitude":11.8745,"longitude":75.3704,"temp":28.6,"humidity":83,"rain":0.0,"pressure":1006.4,"uv_index":9.15,"wind_gusts":33.1,"aqi":116,"pm10":73.8,"pm2_5":55.3,"mosquito_risk":7,"arthritis_risk":5,"migraine_risk":4,"frizz_risk":1,"updated_at":"2026-04-13T03:09:00.196452+05:30"},{"city":"Patna","state":"Bihar","latitude":25.5941,"longitude":85.1376,"temp":25.0,"humidity":65,"rain":0.0,"pressure":998.5,"uv_index":8.5,"wind_gusts":33.1,"aqi":109,"pm10":65.9,"pm2_5":35.4,"mosquito_risk":7,"arthritis_risk":5,"migraine_risk":7,"frizz_risk":1,"updated_at":"2026-04-13T03:09:00.196459+05:30"},{"city":"Gaya","state":"Bihar","latitude":24.7914,"longitude":85.0002,"temp":26.0,"humidity":47,"rain":0.0,"pressure":991.7,"uv_index":8.6,"wind_gusts":27.4,"aqi":100,"pm10":63.1,"pm2_5":33.4,"mosquito_risk":4,"arthritis_risk":5,"migraine_risk":7,"frizz_risk":0,"updated_at":"2026-04-13T03:09:00.196466+05:30"},{"city":"Muzaffarpur","state":"Bihar","latitude":26.1209,"longitude":85.3647,"temp":23.0,"humidity":73,"rain":0.0,"pressure":998.4,"uv_index":8.5,"wind_gusts":24.5,"aqi":129,"pm10":73.3,"pm2_5":49.1,"mosquito_risk":3,"arthritis_risk":5,"migraine_risk":7,"frizz_risk":1,"updated_at":"2026-04-13T03:09:00.196473+05:30"},{"city":"Bhagalpur","state":"Bihar","latitude":25.2425,"longitude":87.0117,"temp":23.3,"humidity":82,"rain":0.0,"pressure":998.8,"uv_index":8.5,"wind_gusts":15.5,"aqi":131,"pm10":83.6,"pm2_5":45.6,"mosquito_risk":3,"arthritis_risk":5,"migraine_risk":7,"frizz_risk":1,"updated_at":"2026-04-13T03:09:00.196480+05:30"},{"city":"Ranchi","state":"Jharkhand","latitude":23.3441,"longitude":85.3096,"temp":24.7,"humidity":42,"rain":0.0,"pressure":935.8,"uv_index":9.1,"wind_gusts":25.9,"aqi":97,"pm10":31.4,"pm2_5":21.9,"mosquito_risk":0,"arthritis_risk":5,"migraine_risk":7,"frizz_risk":0,"updated_at":"2026-04-13T03:09:00.196486+05:30"},{"city":"Jamshedpur","state":"Jharkhand","latitude":22.8046,"longitude":86.2029,"temp":24.9,"humidity":78,"rain":0.0,"pressure":988.9,"uv_index":8.95,"wind_gusts":18.4,"aqi":88,"pm10":44.0,"pm2_5":28.7,"mosquito_risk":3,"arthritis_risk":5,"migraine_risk":7,"frizz_risk":1,"updated_at":"2026-04-13T03:09:00.196493+05:30"},{"city":"Dhanbad","state":"Jharkhand","latitude":23.7957,"longitude":86.4304,"temp":25.2,"humidity":53,"rain":0.0,"pressure":977.2,"uv_index":8.9,"wind_gusts":22.3,"aqi":132,"pm10":106.6,"pm2_5":84.8,"mosquito_risk":4,"arthritis_risk":5,"migraine_risk":7,"frizz_risk":0,"updated_at":"2026-04-13T03:09:00.196499+05:30"},{"city":"Bokaro","state":"Jharkhand","latitude":23.6693,"longitude":86.1511,"temp":25.0,"humidity":54,"rain":0.0,"pressure":981.5,"uv_index":8.9,"wind_gusts":25.6,"aqi":117,"pm10":90.8,"pm2_5":71.5,"mosquito_risk":4,"arthritis_risk":5,"migraine_risk":7,"frizz_risk":0,"updated_at":"2026-04-13T03:09:00.196505+05:30"},{"city":"Bhubaneswar","state":"Odisha","latitude":20.2961,"longitude":85.8245,"temp":26.5,"humidity":91,"rain":0.0,"pressure":1001.3,"uv_index":9.1,"wind_gusts":38.9,"aqi":77,"pm10":18.2,"pm2_5":13.1,"mosquito_risk":7,"arthritis_risk":5,"migraine_risk":4,"frizz_risk":1,"updated_at":"2026-04-13T03:09:00.196511+05:30"},{"city":"Cuttack","state":"Odisha","latitude":20.4625,"longitude":85.8828,"temp":26.4,"humidity":93,"rain":0.0,"pressure":1003.2,"uv_index":9.1,"wind_gusts":33.8,"aqi":77,"pm10":18.2,"pm2_5":13.1,"mosquito_risk":7,"arthritis_risk":5,"migraine_risk":4,"frizz_risk":1,"updated_at":"2026-04-13T03:09:00.196516+05:30"},{"city":"Rourkela","state":"Odisha","latitude":22.2604,"longitude":84.8536,"temp":25.9,"humidity":67,"rain":0.0,"pressure":982.9,"uv_index":8.85,"wind_gusts":26.6,"aqi":99,"pm10":56.7,"pm2_5":33.8,"mosquito_risk":7,"arthritis_risk":5,"migraine_risk":7,"frizz_risk":1,"updated_at":"2026-04-13T03:09:00.196522+05:30"},{"city":"Raipur","state":"Chhattisgarh","latitude":21.2514,"longitude":81.6296,"temp":26.7,"humidity":41,"rain":0.0,"pressure":972.0,"uv_index":8.9,"wind_gusts":34.2,"aqi":124,"pm10":55.8,"pm2_5":49.8,"mosquito_risk":4,"arthritis_risk":5,"migraine_risk":7,"frizz_risk":0,"updated_at":"2026-04-13T03:09:00.196527+05:30"},{"city":"Bhilai","state":"Chhattisgarh","latitude":21.1938,"longitude":81.3509,"temp":25.3,"humidity":48,"rain":0.0,"pressure":972.2,"uv_index":8.9,"wind_gusts":33.1,"aqi":120,"pm10":40.7,"pm2_5":36.3,"mosquito_risk":4,"arthritis_risk":5,"migraine_risk":7,"frizz_risk":0,"updated_at":"2026-04-13T03:09:00.196533+05:30"},{"city":"Guwahati","state":"Assam","latitude":26.1158,"longitude":91.7086,"temp":21.9,"humidity":95,"rain":0.0,"pressure":1001.2,"uv_index":8.4,"wind_gusts":43.9,"aqi":123,"pm10":56.7,"pm2_5":42.1,"mosquito_risk":3,"arthritis_risk":5,"migraine_risk":4,"frizz_risk":1,"updated_at":"2026-04-13T03:09:00.196538+05:30"},{"city":"Agartala","state":"Tripura","latitude":23.8315,"longitude":91.2868,"temp":24.5,"humidity":98,"rain":0.0,"pressure":1004.9,"uv_index":8.65,"wind_gusts":34.9,"aqi":96,"pm10":24.2,"pm2_5":21.1,"mosquito_risk":3,"arthritis_risk":5,"migraine_risk":4,"frizz_risk":1,"updated_at":"2026-04-13T03:09:00.196543+05:30"},{"city":"Shillong","state":"Meghalaya","latitude":25.5788,"longitude":91.8933,"temp":14.8,"humidity":70,"rain":0.0,"pressure":854.4,"uv_index":8.2,"wind_gusts":72.4,"aqi":111,"pm10":65.9,"pm2_5":38.4,"mosquito_risk":3,"arthritis_risk":5,"migraine_risk":7,"frizz_risk":0,"updated_at":"2026-04-13T03:09:00.196548+05:30"},{"city":"Imphal","state":"Manipur","latitude":24.817,"longitude":93.9368,"temp":17.0,"humidity":92,"rain":0.0,"pressure":922.4,"uv_index":8.4,"wind_gusts":79.6,"aqi":113,"pm10":66.1,"pm2_5":43.4,"mosquito_risk":3,"arthritis_risk":10,"migraine_risk":7,"frizz_risk":0,"updated_at":"2026-04-13T03:09:00.196554+05:30"},{"city":"Aizawl","state":"Mizoram","latitude":23.7271,"longitude":92.7176,"temp":18.2,"humidity":74,"rain":0.0,"pressure":891.5,"uv_index":8.9,"wind_gusts":48.2,"aqi":94,"pm10":72.9,"pm2_5":34.8,"mosquito_risk":3,"arthritis_risk":5,"migraine_risk":7,"frizz_risk":0,"updated_at":"2026-04-13T03:09:00.196559+05:30"},{"city":"Kohima","state":"Nagaland","latitude":25.6701,"longitude":94.1077,"temp":14.8,"humidity":84,"rain":0.0,"pressure":853.7,"uv_index":8.95,"wind_gusts":117.4,"aqi":93,"pm10":38.9,"pm2_5":21.0,"mosquito_risk":3,"arthritis_risk":10,"migraine_risk":7,"frizz_risk":0,"updated_at":"2026-04-13T03:09:00.196565+05:30"},{"city":"Gangtok","state":"Sikkim","latitude":27.3314,"longitude":88.6138,"temp":12.6,"humidity":86,"rain":0.0,"pressure":834.4,"uv_index":8.55,"wind_gusts":14.0,"aqi":89,"pm10":84.1,"pm2_5":34.9,"mosquito_risk":3,"arthritis_risk":10,"migraine_risk":7,"frizz_risk":0,"updated_at":"2026-04-13T03:09:00.196570+05:30"},{"city":"Siliguri","state":"West Bengal","latitude":26.7271,"longitude":88.3953,"temp":19.4,"humidity":70,"rain":0.0,"pressure":992.9,"uv_index":8.4,"wind_gusts":24.5,"aqi":130,"pm10":143.0,"pm2_5":59.8,"mosquito_risk":3,"arthritis_risk":5,"migraine_risk":7,"frizz_risk":0,"updated_at":"2026-04-13T03:09:03.482005+05:30"},{"city":"Durgapur","state":"West Bengal","latitude":23.5204,"longitude":87.3119,"temp":24.3,"humidity":91,"rain":0.0,"pressure":992.7,"uv_index":8.85,"wind_gusts":19.4,"aqi":111,"pm10":36.4,"pm2_5":29.3,"mosquito_risk":3,"arthritis_risk":5,"migraine_risk":7,"frizz_risk":1,"updated_at":"2026-04-13T03:09:03.482033+05:30"},{"city":"Asansol","state":"West Bengal","latitude":23.6739,"longitude":86.9524,"temp":25.4,"humidity":72,"rain":0.0,"pressure":991.0,"uv_index":8.85,"wind_gusts":16.9,"aqi":100,"pm10":46.1,"pm2_5":35.2,"mosquito_risk":7,"arthritis_risk":5,"migraine_risk":7,"frizz_risk":1,"updated_at":"2026-04-13T03:09:03.482042+05:30"},{"city":"Pondicherry","state":"Puducherry","latitude":11.9139,"longitude":79.8145,"temp":25.3,"humidity":96,"rain":0.0,"pressure":1008.3,"uv_index":9.3,"wind_gusts":29.9,"aqi":31,"pm10":9.5,"pm2_5":5.9,"mosquito_risk":7,"arthritis_risk":0,"migraine_risk":4,"frizz_risk":1,"updated_at":"2026-04-13T03:09:03.482049+05:30"},{"city":"Port Blair","state":"Andaman and Nicobar Islands","latitude":11.6234,"longitude":92.7265,"temp":28.8,"humidity":79,"rain":0.0,"pressure":1006.1,"uv_index":9.2,"wind_gusts":19.1,"aqi":57,"pm10":29.0,"pm2_5":15.7,"mosquito_risk":7,"arthritis_risk":5,"migraine_risk":4,"frizz_risk":1,"updated_at":"2026-04-13T03:09:03.482055+05:30"},{"city":"Haridwar","state":"Uttarakhand","latitude":29.9457,"longitude":78.1642,"temp":16.1,"humidity":86,"rain":0.0,"pressure":973.8,"uv_index":6.95,"wind_gusts":32.8,"aqi":70,"pm10":36.4,"pm2_5":32.6,"mosquito_risk":3,"arthritis_risk":10,"migraine_risk":7,"frizz_risk":0,"updated_at":"2026-04-13T03:09:03.482061+05:30"},{"city":"Rishikesh","state":"Uttarakhand","latitude":30.0869,"longitude":78.2676,"temp":17.6,"humidity":72,"rain":0.0,"pressure":966.7,"uv_index":7.15,"wind_gusts":34.6,"aqi":79,"pm10":36.7,"pm2_5":24.6,"mosquito_risk":3,"arthritis_risk":5,"migraine_risk":7,"frizz_risk":0,"updated_at":"2026-04-13T03:09:03.482068+05:30"},{"city":"Nainital","state":"Uttarakhand","latitude":29.3919,"longitude":79.4542,"temp":16.5,"humidity":45,"rain":0.0,"pressure":804.2,"uv_index":8.0,"wind_gusts":41.8,"aqi":81,"pm10":35.9,"pm2_5":19.6,"mosquito_risk":0,"arthritis_risk":5,"migraine_risk":7,"frizz_risk":0,"updated_at":"2026-04-13T03:09:03.482074+05:30"},{"city":"Mussoorie","state":"Uttarakhand","latitude":30.4599,"longitude":78.0664,"temp":13.7,"humidity":64,"rain":0.0,"pressure":800.4,"uv_index":7.45,"wind_gusts":34.9,"aqi":66,"pm10":37.7,"pm2_5":30.6,"mosquito_risk":3,"arthritis_risk":5,"migraine_risk":7,"frizz_risk":0,"updated_at":"2026-04-13T03:09:03.482080+05:30"},{"city":"Dharamshala","state":"Himachal Pradesh","latitude":32.219,"longitude":76.3234,"temp":17.3,"humidity":39,"rain":0.0,"pressure":868.0,"uv_index":7.75,"wind_gusts":24.1,"aqi":53,"pm10":11.1,"pm2_5":5.2,"mosquito_risk":0,"arthritis_risk":5,"migraine_risk":7,"frizz_risk":0,"updated_at":"2026-04-13T03:09:03.482086+05:30"},{"city":"Dalhousie","state":"Himachal Pradesh","latitude":32.5387,"longitude":75.971,"temp":13.3,"humidity":48,"rain":0.0,"pressure":801.6,"uv_index":7.45,"wind_gusts":21.2,"aqi":60,"pm10":29.9,"pm2_5":20.7,"mosquito_risk":0,"arthritis_risk":5,"migraine_risk":7,"frizz_risk":0,"updated_at":"2026-04-13T03:09:03.482092+05:30"},{"city":"Patiala","state":"Punjab","latitude":30.3398,"longitude":76.3869,"temp":18.6,"humidity":66,"rain":0.0,"pressure":978.1,"uv_index":7.1,"wind_gusts":28.1,"aqi":400,"pm10":246.8,"pm2_5":45.9,"mosquito_risk":3,"arthritis_risk":5,"migraine_risk":7,"frizz_risk":0,"updated_at":"2026-04-13T03:09:03.482098+05:30"},{"city":"Bhatinda","state":"Punjab","latitude":30.211,"longitude":74.9455,"temp":20.3,"humidity":58,"rain":0.0,"pressure":983.9,"uv_index":7.8,"wind_gusts":24.5,"aqi":70,"pm10":47.8,"pm2_5":27.9,"mosquito_risk":0,"arthritis_risk":5,"migraine_risk":7,"frizz_risk":0,"updated_at":"2026-04-13T03:09:03.482104+05:30"},{"city":"Rohtak","state":"Haryana","latitude":28.8955,"longitude":76.6066,"temp":19.6,"humidity":62,"rain":0.0,"pressure":981.7,"uv_index":7.3,"wind_gusts":29.5,"aqi":710,"pm10":665.0,"pm2_5":110.1,"mosquito_risk":3,"arthritis_risk":5,"migraine_risk":7,"frizz_risk":0,"updated_at":"2026-04-13T03:09:03.482110+05:30"},{"city":"Panipat","state":"Haryana","latitude":29.3909,"longitude":76.9635,"temp":19.2,"humidity":63,"rain":0.0,"pressure":980.0,"uv_index":7.1,"wind_gusts":32.0,"aqi":1052,"pm10":916.4,"pm2_5":119.2,"mosquito_risk":3,"arthritis_risk":5,"migraine_risk":7,"frizz_risk":0,"updated_at":"2026-04-13T03:09:03.482116+05:30"},{"city":"Mathura","state":"Uttar Pradesh","latitude":27.4924,"longitude":77.6737,"temp":20.1,"humidity":58,"rain":0.0,"pressure":986.6,"uv_index":7.6,"wind_gusts":22.3,"aqi":866,"pm10":843.8,"pm2_5":131.8,"mosquito_risk":0,"arthritis_risk":5,"migraine_risk":7,"frizz_risk":0,"updated_at":"2026-04-13T03:09:03.482121+05:30"},{"city":"Vrindavan","state":"Uttar Pradesh","latitude":27.5823,"longitude":77.7027,"temp":20.1,"humidity":59,"rain":0.0,"pressure":987.1,"uv_index":7.55,"wind_gusts":24.5,"aqi":866,"pm10":843.8,"pm2_5":131.8,"mosquito_risk":0,"arthritis_risk":5,"migraine_risk":7,"frizz_risk":0,"updated_at":"2026-04-13T03:09:03.482127+05:30"},{"city":"Ayodhya","state":"Uttar Pradesh","latitude":26.7922,"longitude":82.1998,"temp":22.9,"humidity":50,"rain":0.0,"pressure":994.2,"uv_index":7.95,"wind_gusts":35.6,"aqi":109,"pm10":159.3,"pm2_5":44.8,"mosquito_risk":0,"arthritis_risk":5,"migraine_risk":7,"frizz_risk":0,"updated_at":"2026-04-13T03:09:03.482132+05:30"},{"city":"Ratlam","state":"Madhya Pradesh","latitude":23.3315,"longitude":75.0367,"temp":24.5,"humidity":58,"rain":0.0,"pressure":953.1,"uv_index":8.4,"wind_gusts":24.1,"aqi":62,"pm10":73.3,"pm2_5":35.5,"mosquito_risk":0,"arthritis_risk":5,"migraine_risk":7,"frizz_risk":0,"updated_at":"2026-04-13T03:09:03.482138+05:30"},{"city":"Sagar","state":"Madhya Pradesh","latitude":23.8388,"longitude":78.7378,"temp":23.8,"humidity":50,"rain":0.0,"pressure":949.6,"uv_index":8.55,"wind_gusts":23.0,"aqi":57,"pm10":82.4,"pm2_5":28.7,"mosquito_risk":0,"arthritis_risk":5,"migraine_risk":7,"frizz_risk":0,"updated_at":"2026-04-13T03:09:03.482144+05:30"},{"city":"Satna","state":"Madhya Pradesh","latitude":24.6005,"longitude":80.8322,"temp":24.8,"humidity":51,"rain":0.0,"pressure":970.8,"uv_index":8.55,"wind_gusts":25.9,"aqi":68,"pm10":292.4,"pm2_5":47.8,"mosquito_risk":0,"arthritis_risk":5,"migraine_risk":7,"frizz_risk":0,"updated_at":"2026-04-13T03:09:03.482149+05:30"},{"city":"Akola","state":"Maharashtra","latitude":20.7002,"longitude":77.0082,"temp":25.7,"humidity":59,"rain":0.0,"pressure":973.3,"uv_index":8.8,"wind_gusts":22.0,"aqi":76,"pm10":42.5,"pm2_5":29.1,"mosquito_risk":4,"arthritis_risk":5,"migraine_risk":7,"frizz_risk":1,"updated_at":"2026-04-13T03:09:03.482155+05:30"},{"city":"Amravati","state":"Maharashtra","latitude":20.9374,"longitude":77.7796,"temp":25.9,"humidity":47,"rain":0.0,"pressure":965.2,"uv_index":8.8,"wind_gusts":23.8,"aqi":77,"pm10":40.9,"pm2_5":28.2,"mosquito_risk":4,"arthritis_risk":5,"migraine_risk":7,"frizz_risk":0,"updated_at":"2026-04-13T03:09:03.482162+05:30"},{"city":"Latur","state":"Maharashtra","latitude":18.4088,"longitude":76.5604,"temp":25.7,"humidity":63,"rain":0.0,"pressure":938.4,"uv_index":9.05,"wind_gusts":19.8,"aqi":82,"pm10":40.4,"pm2_5":30.9,"mosquito_risk":7,"arthritis_risk":5,"migraine_risk":7,"frizz_risk":1,"updated_at":"2026-04-13T03:09:03.482167+05:30"},{"city":"Nanded","state":"Maharashtra","latitude":19.1383,"longitude":77.3091,"temp":26.5,"humidity":62,"rain":0.0,"pressure":966.3,"uv_index":8.95,"wind_gusts":16.6,"aqi":104,"pm10":59.5,"pm2_5":47.7,"mosquito_risk":7,"arthritis_risk":5,"migraine_risk":7,"frizz_risk":1,"updated_at":"2026-04-13T03:09:03.482172+05:30"},{"city":"Gulbarga","state":"Karnataka","latitude":17.3297,"longitude":76.8343,"temp":29.3,"humidity":57,"rain":0.0,"pressure":957.4,"uv_index":9.1,"wind_gusts":29.9,"aqi":82,"pm10":32.6,"pm2_5":26.2,"mosquito_risk":4,"arthritis_risk":5,"migraine_risk":7,"frizz_risk":1,"updated_at":"2026-04-13T03:09:03.482178+05:30"},{"city":"Bidar","state":"Karnataka","latitude":17.9104,"longitude":77.5199,"temp":28.7,"humidity":53,"rain":0.0,"pressure":934.1,"uv_index":9.1,"wind_gusts":24.1,"aqi":86,"pm10":30.5,"pm2_5":26.9,"mosquito_risk":4,"arthritis_risk":5,"migraine_risk":7,"frizz_risk":1,"updated_at":"2026-04-13T03:09:03.482183+05:30"},{"city":"Hospet","state":"Karnataka","latitude":15.2689,"longitude":76.3909,"temp":27.1,"humidity":80,"rain":0.0,"pressure":955.4,"uv_index":9.3,"wind_gusts":26.6,"aqi":101,"pm10":36.7,"pm2_5":32.1,"mosquito_risk":7,"arthritis_risk":5,"migraine_risk":7,"frizz_risk":1,"updated_at":"2026-04-13T03:09:03.482188+05:30"},{"city":"Tirupur","state":"Tamil Nadu","latitude":11.1085,"longitude":77.3411,"temp":27.0,"humidity":82,"rain":0.0,"pressure":974.9,"uv_index":9.45,"wind_gusts":24.5,"aqi":81,"pm10":33.4,"pm2_5":27.4,"mosquito_risk":7,"arthritis_risk":5,"migraine_risk":7,"frizz_risk":1,"updated_at":"2026-04-13T03:09:03.482194+05:30"},{"city":"Alappuzha","state":"Kerala","latitude":9.4981,"longitude":76.3388,"temp":27.7,"humidity":83,"rain":0.0,"pressure":1008.2,"uv_index":9.15,"wind_gusts":25.9,"aqi":93,"pm10":43.1,"pm2_5":27.7,"mosquito_risk":7,"arthritis_risk":0,"migraine_risk":4,"frizz_risk":1,"updated_at":"2026-04-13T03:09:03.482199+05:30"},{"city":"Munnar","state":"Kerala","latitude":10.0889,"longitude":77.0595,"temp":21.1,"humidity":92,"rain":0.0,"pressure":856.3,"uv_index":9.7,"wind_gusts":32.8,"aqi":86,"pm10":39.6,"pm2_5":34.7,"mosquito_risk":3,"arthritis_risk":5,"migraine_risk":7,"frizz_risk":1,"updated_at":"2026-04-13T03:09:03.482204+05:30"},{"city":"Silchar","state":"Assam","latitude":24.8333,"longitude":92.7789,"temp":22.5,"humidity":87,"rain":0.0,"pressure":1004.6,"uv_index":8.7,"wind_gusts":42.8,"aqi":150,"pm10":63.8,"pm2_5":48.3,"mosquito_risk":3,"arthritis_risk":5,"migraine_risk":4,"frizz_risk":1,"updated_at":"2026-04-13T03:09:03.482210+05:30"},{"city":"Dibrugarh","state":"Assam","latitude":27.4728,"longitude":94.912,"temp":20.3,"humidity":84,"rain":0.0,"pressure":996.6,"uv_index":5.6,"wind_gusts":22.3,"aqi":87,"pm10":25.0,"pm2_5":20.4,"mosquito_risk":3,"arthritis_risk":5,"migraine_risk":3,"frizz_risk":1,"updated_at":"2026-04-13T03:09:03.482215+05:30"}]