[{"city":"Delhi","state":"Delhi","latitude":28.6139,"longitude":77.209,"temp":34.1,"humidity":62,"rain":0.0,"pressure":972.5,"uv_index":7.75,"wind_gusts":18.4,"aqi":162,"pm10":36.4,"pm2_5":34.9,"no2":15.1,"co":683.0,"o3":231.0,"so2":31.2,"mosquito_risk":3,"arthritis_risk":5,"migraine_risk":7,"frizz_risk":1,"updated_at":"2026-07-06T18:20:19.145947+05:30"},{"city":"Mumbai","state":"Maharashtra","latitude":19.076,"longitude":72.8777,"temp":26.9,"humidity":90,"rain":0.1,"pressure":998.7,"uv_index":0.65,"wind_gusts":70.9,"aqi":40,"pm10":29.3,"pm2_5":16.5,"no2":8.4,"co":204.0,"o3":71.0,"so2":4.7,"mosquito_risk":10,"arthritis_risk":5,"migraine_risk":3,"frizz_risk":1,"updated_at":"2026-07-06T18:20:19.145987+05:30"},{"city":"Bangalore","state":"Karnataka","latitude":12.9716,"longitude":77.5946,"temp":26.0,"humidity":60,"rain":0.0,"pressure":909.4,"uv_index":5.9,"wind_gusts":72.7,"aqi":32,"pm10":8.5,"pm2_5":5.2,"no2":5.9,"co":264.0,"o3":62.0,"so2":2.0,"mosquito_risk":4,"arthritis_risk":5,"migraine_risk":3,"frizz_risk":1,"updated_at":"2026-07-06T18:20:19.146002+05:30"},{"city":"Hyderabad","state":"Telangana","latitude":17.385,"longitude":78.4867,"temp":28.4,"humidity":63,"rain":0.0,"pressure":945.9,"uv_index":7.4,"wind_gusts":55.1,"aqi":26,"pm10":13.2,"pm2_5":8.3,"no2":8.5,"co":271.0,"o3":60.0,"so2":4.1,"mosquito_risk":7,"arthritis_risk":5,"migraine_risk":7,"frizz_risk":1,"updated_at":"2026-07-06T18:20:19.146011+05:30"},{"city":"Chennai","state":"Tamil Nadu","latitude":13.0827,"longitude":80.2707,"temp":38.4,"humidity":29,"rain":0.0,"pressure":1000.5,"uv_index":8.3,"wind_gusts":60.1,"aqi":58,"pm10":30.3,"pm2_5":19.0,"no2":4.7,"co":217.0,"o3":112.0,"so2":5.6,"mosquito_risk":0,"arthritis_risk":5,"migraine_risk":7,"frizz_risk":1,"updated_at":"2026-07-06T18:20:19.146019+05:30"},{"city":"Kolkata","state":"West Bengal","latitude":22.5726,"longitude":88.3639,"temp":29.6,"humidity":79,"rain":0.0,"pressure":995.4,"uv_index":2.25,"wind_gusts":47.9,"aqi":51,"pm10":27.1,"pm2_5":20.5,"no2":5.6,"co":340.0,"o3":82.0,"so2":7.0,"mosquito_risk":7,"arthritis_risk":5,"migraine_risk":3,"frizz_risk":1,"updated_at":"2026-07-06T18:20:19.146026+05:30"},{"city":"Pune","state":"Maharashtra","latitude":18.5204,"longitude":73.8567,"temp":23.8,"humidity":93,"rain":0.3,"pressure":938.1,"uv_index":1.05,"wind_gusts":63.0,"aqi":24,"pm10":3.7,"pm2_5":2.8,"no2":5.9,"co":163.0,"o3":46.0,"so2":2.2,"mosquito_risk":6,"arthritis_risk":5,"migraine_risk":3,"frizz_risk":1,"updated_at":"2026-07-06T18:20:19.146034+05:30"},{"city":"Ahmedabad","state":"Gujarat","latitude":23.0225,"longitude":72.5714,"temp":29.8,"humidity":89,"rain":0.0,"pressure":990.8,"uv_index":8.1,"wind_gusts":26.6,"aqi":98,"pm10":99.7,"pm2_5":43.4,"no2":5.0,"co":339.0,"o3":112.0,"so2":4.7,"mosquito_risk":7,"arthritis_risk":5,"migraine_risk":7,"frizz_risk":1,"updated_at":"2026-07-06T18:20:19.146041+05:30"},{"city":"Jaipur","state":"Rajasthan","latitude":26.9124,"longitude":75.7873,"temp":33.4,"humidity":60,"rain":0.0,"pressure":949.9,"uv_index":7.4,"wind_gusts":26.3,"aqi":101,"pm10":47.1,"pm2_5":17.1,"no2":3.7,"co":417.0,"o3":138.0,"so2":4.9,"mosquito_risk":0,"arthritis_risk":5,"migraine_risk":7,"frizz_risk":1,"updated_at":"2026-07-06T18:20:19.146047+05:30"},{"city":"Lucknow","state":"Uttar Pradesh","latitude":26.8467,"longitude":80.9462,"temp":33.1,"humidity":68,"rain":0.0,"pressure":982.9,"uv_index":6.6,"wind_gusts":37.4,"aqi":86,"pm10":15.6,"pm2_5":15.4,"no2":5.5,"co":248.0,"o3":127.0,"so2":4.2,"mosquito_risk":3,"arthritis_risk":5,"migraine_risk":7,"frizz_risk":1,"updated_at":"2026-07-06T18:20:19.146071+05:30"},{"city":"Kanpur","state":"Uttar Pradesh","latitude":26.4499,"longitude":80.3319,"temp":32.4,"humidity":72,"rain":0.0,"pressure":981.1,"uv_index":8.1,"wind_gusts":39.2,"aqi":88,"pm10":19.2,"pm2_5":15.5,"no2":4.2,"co":259.0,"o3":139.0,"so2":4.2,"mosquito_risk":3,"arthritis_risk":5,"migraine_risk":7,"frizz_risk":1,"updated_at":"2026-07-06T18:20:19.146079+05:30"},{"city":"Chandigarh","state":"Chandigarh","latitude":30.7333,"longitude":76.7794,"temp":31.6,"humidity":72,"rain":0.0,"pressure":959.1,"uv_index":6.0,"wind_gusts":29.9,"aqi":103,"pm10":21.6,"pm2_5":20.2,"no2":5.5,"co":476.0,"o3":163.0,"so2":8.3,"mosquito_risk":3,"arthritis_risk":5,"migraine_risk":3,"frizz_risk":1,"updated_at":"2026-07-06T18:20:19.146086+05:30"},{"city":"Srinagar","state":"Jammu and Kashmir","latitude":34.0837,"longitude":74.7973,"temp":29.4,"humidity":44,"rain":0.0,"pressure":836.6,"uv_index":9.1,"wind_gusts":31.7,"aqi":140,"pm10":31.1,"pm2_5":23.7,"no2":5.2,"co":301.0,"o3":149.0,"so2":3.2,"mosquito_risk":4,"arthritis_risk":5,"migraine_risk":7,"frizz_risk":0,"updated_at":"2026-07-06T18:20:19.146092+05:30"},{"city":"Jammu","state":"Jammu and Kashmir","latitude":32.7266,"longitude":74.857,"temp":33.1,"humidity":62,"rain":0.0,"pressure":962.8,"uv_index":7.8,"wind_gusts":29.5,"aqi":137,"pm10":19.4,"pm2_5":18.7,"no2":4.5,"co":389.0,"o3":164.0,"so2":3.7,"mosquito_risk":3,"arthritis_risk":5,"migraine_risk":7,"frizz_risk":1,"updated_at":"2026-07-06T18:20:19.146099+05:30"},{"city":"Amritsar","state":"Punjab","latitude":31.634,"longitude":74.8723,"temp":33.7,"humidity":64,"rain":0.0,"pressure":970.2,"uv_index":8.1,"wind_gusts":32.4,"aqi":156,"pm10":27.4,"pm2_5":24.4,"no2":4.8,"co":402.0,"o3":139.0,"so2":4.3,"mosquito_risk":3,"arthritis_risk":5,"migraine_risk":7,"frizz_risk":1,"updated_at":"2026-07-06T18:20:19.146105+05:30"},{"city":"Ludhiana","state":"Punjab","latitude":30.901,"longitude":75.8573,"temp":33.0,"humidity":70,"rain":0.0,"pressure":968.3,"uv_index":7.85,"wind_gusts":41.8,"aqi":142,"pm10":17.1,"pm2_5":15.8,"no2":6.2,"co":457.0,"o3":138.0,"so2":6.5,"mosquito_risk":3,"arthritis_risk":5,"migraine_risk":7,"frizz_risk":1,"updated_at":"2026-07-06T18:20:19.146111+05:30"},{"city":"Jalandhar","state":"Punjab","latitude":31.326,"longitude":75.5762,"temp":33.1,"humidity":66,"rain":0.0,"pressure":969.2,"uv_index":7.7,"wind_gusts":38.2,"aqi":154,"pm10":17.7,"pm2_5":15.8,"no2":6.5,"co":430.0,"o3":140.0,"so2":7.4,"mosquito_risk":3,"arthritis_risk":5,"migraine_risk":7,"frizz_risk":1,"updated_at":"2026-07-06T18:20:19.146116+05:30"},{"city":"Dehradun","state":"Uttarakhand","latitude":30.6284,"longitude":78.0322,"temp":22.8,"humidity":75,"rain":0.0,"pressure":826.1,"uv_index":6.95,"wind_gusts":28.1,"aqi":87,"pm10":9.0,"pm2_5":8.8,"no2":2.1,"co":252.0,"o3":129.0,"so2":2.2,"mosquito_risk":3,"arthritis_risk":5,"migraine_risk":7,"frizz_risk":1,"updated_at":"2026-07-06T18:20:19.146123+05:30"},{"city":"Shimla","state":"Himachal Pradesh","latitude":31.1048,"longitude":77.1734,"temp":19.3,"humidity":89,"rain":0.0,"pressure":780.9,"uv_index":6.95,"wind_gusts":22.0,"aqi":84,"pm10":9.6,"pm2_5":9.1,"no2":2.9,"co":322.0,"o3":137.0,"so2":2.9,"mosquito_risk":3,"arthritis_risk":10,"migraine_risk":7,"frizz_risk":1,"updated_at":"2026-07-06T18:20:19.146129+05:30"},{"city":"Manali","state":"Himachal Pradesh","latitude":32.2396,"longitude":77.1887,"temp":22.2,"humidity":95,"rain":0.2,"pressure":815.3,"uv_index":7.6,"wind_gusts":29.9,"aqi":47,"pm10":19.3,"pm2_5":19.0,"no2":29.6,"co":220.0,"o3":103.0,"so2":1.1,"mosquito_risk":6,"arthritis_risk":5,"migraine_risk":7,"frizz_risk":1,"updated_at":"2026-07-06T18:20:19.146137+05:30"},{"city":"Gurgaon","state":"Haryana","latitude":28.4595,"longitude":77.0266,"temp":34.7,"humidity":60,"rain":0.0,"pressure":970.9,"uv_index":7.8,"wind_gusts":23.0,"aqi":135,"pm10":50.6,"pm2_5":28.7,"no2":12.0,"co":595.0,"o3":185.0,"so2":18.4,"mosquito_risk":0,"arthritis_risk":5,"migraine_risk":7,"frizz_risk":1,"updated_at":"2026-07-06T18:20:19.146143+05:30"},{"city":"Noida","state":"Uttar Pradesh","latitude":28.5355,"longitude":77.391,"temp":34.4,"humidity":60,"rain":0.0,"pressure":974.1,"uv_index":7.75,"wind_gusts":21.2,"aqi":135,"pm10":50.6,"pm2_5":28.7,"no2":12.0,"co":653.0,"o3":185.0,"so2":18.4,"mosquito_risk":0,"arthritis_risk":5,"migraine_risk":7,"frizz_risk":1,"updated_at":"2026-07-06T18:20:19.146149+05:30"},{"city":"Ghaziabad","state":"Uttar Pradesh","latitude":28.6692,"longitude":77.4538,"temp":34.4,"humidity":61,"rain":0.0,"pressure":972.3,"uv_index":7.75,"wind_gusts":22.0,"aqi":132,"pm10":26.5,"pm2_5":23.8,"no2":7.2,"co":406.0,"o3":180.0,"so2":15.9,"mosquito_risk":3,"arthritis_risk":5,"migraine_risk":7,"frizz_risk":1,"updated_at":"2026-07-06T18:20:19.146155+05:30"},{"city":"Faridabad","state":"Haryana","latitude":28.4089,"longitude":77.3178,"temp":34.4,"humidity":61,"rain":0.0,"pressure":973.3,"uv_index":7.8,"wind_gusts":20.9,"aqi":135,"pm10":50.6,"pm2_5":28.7,"no2":12.0,"co":535.0,"o3":185.0,"so2":18.4,"mosquito_risk":3,"arthritis_risk":5,"migraine_risk":7,"frizz_risk":1,"updated_at":"2026-07-06T18:20:19.146163+05:30"},{"city":"Meerut","state":"Uttar Pradesh","latitude":28.9845,"longitude":77.7064,"temp":33.3,"humidity":70,"rain":0.0,"pressure":971.4,"uv_index":7.6,"wind_gusts":19.8,"aqi":132,"pm10":26.5,"pm2_5":23.8,"no2":7.2,"co":291.0,"o3":180.0,"so2":15.9,"mosquito_risk":3,"arthritis_risk":5,"migraine_risk":7,"frizz_risk":1,"updated_at":"2026-07-06T18:20:19.146169+05:30"},{"city":"Agra","state":"Uttar Pradesh","latitude":27.1767,"longitude":78.0081,"temp":33.4,"humidity":68,"rain":0.0,"pressure":977.2,"uv_index":8.05,"wind_gusts":25.9,"aqi":103,"pm10":15.1,"pm2_5":13.9,"no2":4.5,"co":306.0,"o3":132.0,"so2":4.1,"mosquito_risk":3,"arthritis_risk":5,"migraine_risk":7,"frizz_risk":1,"updated_at":"2026-07-06T18:20:19.146175+05:30"},{"city":"Varanasi","state":"Uttar Pradesh","latitude":25.3176,"longitude":82.9739,"temp":28.0,"humidity":92,"rain":0.1,"pressure":986.6,"uv_index":6.75,"wind_gusts":54.7,"aqi":59,"pm10":14.2,"pm2_5":13.9,"no2":5.8,"co":332.0,"o3":111.0,"so2":6.4,"mosquito_risk":10,"arthritis_risk":5,"migraine_risk":7,"frizz_risk":1,"updated_at":"2026-07-06T18:20:19.146181+05:30"},{"city":"Prayagraj","state":"Uttar Pradesh","latitude":25.4358,"longitude":81.8463,"temp":30.5,"humidity":77,"rain":0.0,"pressure":984.8,"uv_index":6.7,"wind_gusts":48.6,"aqi":64,"pm10":13.9,"pm2_5":13.7,"no2":5.4,"co":308.0,"o3":122.0,"so2":4.7,"mosquito_risk":3,"arthritis_risk":5,"migraine_risk":7,"frizz_risk":1,"updated_at":"2026-07-06T18:20:19.146187+05:30"},{"city":"Gorakhpur","state":"Uttar Pradesh","latitude":26.7606,"longitude":83.3732,"temp":30.9,"humidity":78,"rain":0.0,"pressure":987.1,"uv_index":5.8,"wind_gusts":52.6,"aqi":71,"pm10":10.5,"pm2_5":10.4,"no2":5.3,"co":243.0,"o3":109.0,"so2":3.4,"mosquito_risk":3,"arthritis_risk":5,"migraine_risk":3,"frizz_risk":1,"updated_at":"2026-07-06T18:20:19.146193+05:30"},{"city":"Bareilly","state":"Uttar Pradesh","latitude":28.367,"longitude":79.4304,"temp":33.1,"humidity":71,"rain":0.0,"pressure":977.1,"uv_index":5.65,"wind_gusts":18.4,"aqi":126,"pm10":25.6,"pm2_5":24.1,"no2":4.8,"co":259.0,"o3":154.0,"so2":7.6,"mosquito_risk":3,"arthritis_risk":5,"migraine_risk":3,"frizz_risk":1,"updated_at":"2026-07-06T18:20:19.146201+05:30"},{"city":"Aligarh","state":"Uttar Pradesh","latitude":27.8974,"longitude":78.088,"temp":33.8,"humidity":67,"rain":0.0,"pressure":975.2,"uv_index":7.35,"wind_gusts":23.8,"aqi":115,"pm10":26.0,"pm2_5":19.9,"no2":4.9,"co":276.0,"o3":144.0,"so2":9.5,"mosquito_risk":3,"arthritis_risk":5,"migraine_risk":7,"frizz_risk":1,"updated_at":"2026-07-06T18:20:19.146208+05:30"},{"city":"Moradabad","state":"Uttar Pradesh","latitude":28.8386,"longitude":78.7733,"temp":34.0,"humidity":66,"rain":0.0,"pressure":973.8,"uv_index":7.85,"wind_gusts":31.0,"aqi":147,"pm10":25.9,"pm2_5":25.2,"no2":5.5,"co":303.0,"o3":156.0,"so2":10.3,"mosquito_risk":3,"arthritis_risk":5,"migraine_risk":7,"frizz_risk":1,"updated_at":"2026-07-06T18:20:19.146214+05:30"},{"city":"Saharanpur","state":"Uttar Pradesh","latitude":29.9637,"longitude":77.546,"temp":32.5,"humidity":70,"rain":0.0,"pressure":965.8,"uv_index":7.4,"wind_gusts":21.6,"aqi":110,"pm10":25.2,"pm2_5":24.7,"no2":5.4,"co":348.0,"o3":159.0,"so2":13.7,"mosquito_risk":3,"arthritis_risk":5,"migraine_risk":7,"frizz_risk":1,"updated_at":"2026-07-06T18:20:19.146220+05:30"},{"city":"Jhansi","state":"Uttar Pradesh","latitude":25.4484,"longitude":78.5685,"temp":29.7,"humidity":87,"rain":0.1,"pressure":967.4,"uv_index":8.4,"wind_gusts":37.1,"aqi":104,"pm10":10.6,"pm2_5":10.0,"no2":3.7,"co":197.0,"o3":113.0,"so2":3.9,"mosquito_risk":10,"arthritis_risk":5,"migraine_risk":7,"frizz_risk":1,"updated_at":"2026-07-06T18:20:22.518704+05:30"},{"city":"Surat","state":"Gujarat","latitude":21.1702,"longitude":72.8311,"temp":27.0,"humidity":95,"rain":0.3,"pressure":996.2,"uv_index":4.7,"wind_gusts":31.0,"aqi":97,"pm10":54.0,"pm2_5":47.8,"no2":38.2,"co":441.0,"o3":96.0,"so2":63.6,"mosquito_risk":10,"arthritis_risk":5,"migraine_risk":3,"frizz_risk":1,"updated_at":"2026-07-06T18:20:22.518735+05:30"},{"city":"Vadodara","state":"Gujarat","latitude":22.3072,"longitude":73.1812,"temp":27.4,"humidity":94,"rain":0.0,"pressure":993.8,"uv_index":7.9,"wind_gusts":26.3,"aqi":98,"pm10":36.4,"pm2_5":27.5,"no2":4.5,"co":364.0,"o3":145.0,"so2":8.0,"mosquito_risk":7,"arthritis_risk":5,"migraine_risk":7,"frizz_risk":1,"updated_at":"2026-07-06T18:20:22.518746+05:30"},{"city":"Rajkot","state":"Gujarat","latitude":22.3039,"longitude":70.8022,"temp":29.5,"humidity":87,"rain":0.0,"pressure":983.8,"uv_index":6.6,"wind_gusts":40.0,"aqi":94,"pm10":53.7,"pm2_5":28.3,"no2":5.4,"co":172.0,"o3":88.0,"so2":4.7,"mosquito_risk":7,"arthritis_risk":5,"migraine_risk":7,"frizz_risk":1,"updated_at":"2026-07-06T18:20:22.518755+05:30"},{"city":"Thane","state":"Maharashtra","latitude":19.2183,"longitude":72.9781,"temp":26.8,"humidity":93,"rain":0.1,"pressure":997.9,"uv_index":1.0,"wind_gusts":55.1,"aqi":40,"pm10":29.3,"pm2_5":16.5,"no2":8.4,"co":201.0,"o3":71.0,"so2":4.7,"mosquito_risk":10,"arthritis_risk":5,"migraine_risk":3,"frizz_risk":1,"updated_at":"2026-07-06T18:20:22.518762+05:30"},{"city":"Nagpur","state":"Maharashtra","latitude":21.1458,"longitude":79.0882,"temp":28.7,"humidity":76,"rain":0.1,"pressure":962.7,"uv_index":6.85,"wind_gusts":41.0,"aqi":52,"pm10":7.5,"pm2_5":7.3,"no2":12.6,"co":218.0,"o3":63.0,"so2":13.7,"mosquito_risk":10,"arthritis_risk":5,"migraine_risk":7,"frizz_risk":1,"updated_at":"2026-07-06T18:20:22.518770+05:30"},{"city":"Nashik","state":"Maharashtra","latitude":19.9975,"longitude":73.7898,"temp":24.2,"humidity":95,"rain":0.1,"pressure":935.3,"uv_index":5.8,"wind_gusts":38.2,"aqi":22,"pm10":3.6,"pm2_5":3.5,"no2":10.7,"co":211.0,"o3":57.0,"so2":4.1,"mosquito_risk":6,"arthritis_risk":5,"migraine_risk":3,"frizz_risk":1,"updated_at":"2026-07-06T18:20:22.518777+05:30"},{"city":"Aurangabad","state":"Maharashtra","latitude":19.8762,"longitude":75.3433,"temp":25.0,"humidity":91,"rain":0.0,"pressure":933.5,"uv_index":3.1,"wind_gusts":55.8,"aqi":24,"pm10":2.4,"pm2_5":2.4,"no2":6.2,"co":171.0,"o3":43.0,"so2":2.8,"mosquito_risk":7,"arthritis_risk":5,"migraine_risk":3,"frizz_risk":1,"updated_at":"2026-07-06T18:20:22.518784+05:30"},{"city":"Solapur","state":"Maharashtra","latitude":17.6599,"longitude":75.9064,"temp":27.8,"humidity":70,"rain":0.1,"pressure":949.7,"uv_index":4.65,"wind_gusts":70.6,"aqi":30,"pm10":7.2,"pm2_5":4.5,"no2":2.3,"co":109.0,"o3":63.0,"so2":1.5,"mosquito_risk":10,"arthritis_risk":5,"migraine_risk":3,"frizz_risk":1,"updated_at":"2026-07-06T18:20:22.518792+05:30"},{"city":"Kolhapur","state":"Maharashtra","latitude":16.705,"longitude":74.2433,"temp":23.0,"humidity":95,"rain":0.2,"pressure":941.9,"uv_index":2.45,"wind_gusts":65.2,"aqi":27,"pm10":10.7,"pm2_5":6.6,"no2":4.6,"co":138.0,"o3":50.0,"so2":1.4,"mosquito_risk":6,"arthritis_risk":5,"migraine_risk":3,"frizz_risk":1,"updated_at":"2026-07-06T18:20:22.518827+05:30"},{"city":"Goa","state":"Goa","latitude":15.2993,"longitude":74.124,"temp":25.0,"humidity":98,"rain":0.3,"pressure":995.0,"uv_index":5.35,"wind_gusts":41.8,"aqi":56,"pm10":32.1,"pm2_5":14.6,"no2":1.8,"co":178.0,"o3":56.0,"so2":0.6,"mosquito_risk":10,"arthritis_risk":5,"migraine_risk":3,"frizz_risk":1,"updated_at":"2026-07-06T18:20:22.518847+05:30"},{"city":"Jodhpur","state":"Rajasthan","latitude":26.2389,"longitude":73.0243,"temp":34.7,"humidity":58,"rain":0.0,"pressure":971.5,"uv_index":8.2,"wind_gusts":18.0,"aqi":89,"pm10":147.6,"pm2_5":47.7,"no2":2.4,"co":179.0,"o3":108.0,"so2":3.7,"mosquito_risk":0,"arthritis_risk":5,"migraine_risk":7,"frizz_risk":1,"updated_at":"2026-07-06T18:20:22.518856+05:30"},{"city":"Udaipur","state":"Rajasthan","latitude":24.5854,"longitude":73.7125,"temp":30.3,"humidity":70,"rain":0.0,"pressure":936.6,"uv_index":7.1,"wind_gusts":29.9,"aqi":55,"pm10":20.5,"pm2_5":13.7,"no2":4.0,"co":207.0,"o3":95.0,"so2":3.4,"mosquito_risk":3,"arthritis_risk":5,"migraine_risk":7,"frizz_risk":1,"updated_at":"2026-07-06T18:20:22.518864+05:30"},{"city":"Kota","state":"Rajasthan","latitude":25.2138,"longitude":75.8648,"temp":32.4,"humidity":67,"rain":0.0,"pressure":967.8,"uv_index":7.5,"wind_gusts":23.4,"aqi":99,"pm10":27.5,"pm2_5":26.8,"no2":3.4,"co":251.0,"o3":152.0,"so2":13.8,"mosquito_risk":3,"arthritis_risk":5,"migraine_risk":7,"frizz_risk":1,"updated_at":"2026-07-06T18:20:22.518871+05:30"},{"city":"Bikaner","state":"Rajasthan","latitude":28.0229,"longitude":73.3119,"temp":39.6,"humidity":31,"rain":0.0,"pressure":969.8,"uv_index":8.45,"wind_gusts":28.4,"aqi":92,"pm10":98.5,"pm2_5":39.8,"no2":2.0,"co":198.0,"o3":113.0,"so2":5.1,"mosquito_risk":0,"arthritis_risk":5,"migraine_risk":10,"frizz_risk":1,"updated_at":"2026-07-06T18:20:22.518878+05:30"},{"city":"Ajmer","state":"Rajasthan","latitude":26.4499,"longitude":74.6399,"temp":32.0,"humidity":67,"rain":0.0,"pressure":944.8,"uv_index":7.2,"wind_gusts":20.5,"aqi":81,"pm10":17.2,"pm2_5":13.5,"no2":1.7,"co":245.0,"o3":125.0,"so2":2.3,"mosquito_risk":3,"arthritis_risk":5,"migraine_risk":7,"frizz_risk":1,"updated_at":"2026-07-06T18:20:22.518885+05:30"},{"city":"Gwalior","state":"Madhya Pradesh","latitude":26.2183,"longitude":78.1828,"temp":32.6,"humidity":70,"rain":0.0,"pressure":972.7,"uv_index":8.15,"wind_gusts":38.9,"aqi":86,"pm10":12.3,"pm2_5":11.2,"no2":3.0,"co":209.0,"o3":111.0,"so2":2.5,"mosquito_risk":3,"arthritis_risk":5,"migraine_risk":7,"frizz_risk":1,"updated_at":"2026-07-06T18:20:22.518892+05:30"},{"city":"Indore","state":"Madhya Pradesh","latitude":22.7196,"longitude":75.8577,"temp":27.6,"humidity":82,"rain":0.0,"pressure":937.8,"uv_index":8.35,"wind_gusts":28.1,"aqi":148,"pm10":29.6,"pm2_5":28.1,"no2":7.2,"co":464.0,"o3":103.0,"so2":2.5,"mosquito_risk":7,"arthritis_risk":5,"migraine_risk":7,"frizz_risk":1,"updated_at":"2026-07-06T18:20:22.518899+05:30"},{"city":"Bhopal","state":"Madhya Pradesh","latitude":23.2599,"longitude":77.4126,"temp":27.2,"humidity":87,"rain":0.1,"pressure":943.4,"uv_index":8.3,"wind_gusts":24.8,"aqi":84,"pm10":13.7,"pm2_5":13.2,"no2":3.0,"co":326.0,"o3":120.0,"so2":2.7,"mosquito_risk":10,"arthritis_risk":5,"migraine_risk":7,"frizz_risk":1,"updated_at":"2026-07-06T18:20:22.518906+05:30"},{"city":"Jabalpur","state":"Madhya Pradesh","latitude":23.1815,"longitude":79.9864,"temp":26.8,"humidity":87,"rain":0.1,"pressure":950.6,"uv_index":8.15,"wind_gusts":25.2,"aqi":59,"pm10":10.5,"pm2_5":10.4,"no2":5.8,"co":218.0,"o3":93.0,"so2":2.4,"mosquito_risk":10,"arthritis_risk":5,"migraine_risk":7,"frizz_risk":1,"updated_at":"2026-07-06T18:20:22.518913+05:30"},{"city":"Ujjain","state":"Madhya Pradesh","latitude":23.1765,"longitude":75.7885,"temp":26.8,"humidity":88,"rain":0.1,"pressure":943.3,"uv_index":7.65,"wind_gusts":25.9,"aqi":152,"pm10":31.9,"pm2_5":30.0,"no2":2.6,"co":306.0,"o3":116.0,"so2":2.6,"mosquito_risk":10,"arthritis_risk":5,"migraine_risk":7,"frizz_risk":1,"updated_at":"2026-07-06T18:20:22.518920+05:30"},{"city":"Visakhapatnam","state":"Andhra Pradesh","latitude":17.6868,"longitude":83.2185,"temp":30.0,"humidity":72,"rain":0.0,"pressure":995.0,"uv_index":7.9,"wind_gusts":59.4,"aqi":53,"pm10":19.0,"pm2_5":12.3,"no2":10.9,"co":262.0,"o3":68.0,"so2":20.0,"mosquito_risk":7,"arthritis_risk":5,"migraine_risk":7,"frizz_risk":1,"updated_at":"2026-07-06T18:20:22.518927+05:30"},{"city":"Vijayawada","state":"Andhra Pradesh","latitude":16.5062,"longitude":80.648,"temp":33.1,"humidity":58,"rain":0.0,"pressure":994.5,"uv_index":6.65,"wind_gusts":54.4,"aqi":45,"pm10":24.6,"pm2_5":15.1,"no2":6.4,"co":133.0,"o3":68.0,"so2":4.0,"mosquito_risk":0,"arthritis_risk":5,"migraine_risk":7,"frizz_risk":1,"updated_at":"2026-07-06T18:20:22.518933+05:30"},{"city":"Guntur","state":"Andhra Pradesh","latitude":16.3067,"longitude":80.4365,"temp":35.4,"humidity":42,"rain":0.0,"pressure":995.8,"uv_index":6.45,"wind_gusts":61.6,"aqi":41,"pm10":17.9,"pm2_5":11.5,"no2":5.7,"co":123.0,"o3":70.0,"so2":4.1,"mosquito_risk":0,"arthritis_risk":5,"migraine_risk":10,"frizz_risk":1,"updated_at":"2026-07-06T18:20:22.518940+05:30"},{"city":"Nellore","state":"Andhra Pradesh","latitude":14.4426,"longitude":79.9865,"temp":34.9,"humidity":45,"rain":0.0,"pressure":998.7,"uv_index":7.95,"wind_gusts":54.7,"aqi":39,"pm10":16.5,"pm2_5":7.1,"no2":3.3,"co":115.0,"o3":69.0,"so2":2.0,"mosquito_risk":0,"arthritis_risk":5,"migraine_risk":7,"frizz_risk":1,"updated_at":"2026-07-06T18:20:22.518948+05:30"},{"city":"Kurnool","state":"Andhra Pradesh","latitude":15.8281,"longitude":78.0373,"temp":31.4,"humidity":52,"rain":0.0,"pressure":970.9,"uv_index":4.65,"wind_gusts":67.7,"aqi":32,"pm10":8.8,"pm2_5":4.5,"no2":2.7,"co":116.0,"o3":62.0,"so2":1.9,"mosquito_risk":0,"arthritis_risk":5,"migraine_risk":3,"frizz_risk":1,"updated_at":"2026-07-06T18:20:22.518956+05:30"},{"city":"Kakinada","state":"Andhra Pradesh","latitude":16.9891,"longitude":82.2475,"temp":31.6,"humidity":66,"rain":0.0,"pressure":999.2,"uv_index":6.9,"wind_gusts":63.7,"aqi":54,"pm10":26.4,"pm2_5":15.8,"no2":3.0,"co":177.0,"o3":85.0,"so2":2.5,"mosquito_risk":3,"arthritis_risk":5,"migraine_risk":7,"frizz_risk":1,"updated_at":"2026-07-06T18:20:22.518963+05:30"},{"city":"Tirupati","state":"Andhra Pradesh","latitude":13.6288,"longitude":79.4192,"temp":35.2,"humidity":38,"rain":0.0,"pressure":985.3,"uv_index":8.95,"wind_gusts":57.6,"aqi":39,"pm10":20.1,"pm2_5":9.5,"no2":4.1,"co":118.0,"o3":74.0,"so2":1.4,"mosquito_risk":0,"arthritis_risk":5,"migraine_risk":10,"frizz_risk":1,"updated_at":"2026-07-06T18:20:22.518970+05:30"},{"city":"Warangal","state":"Telangana","latitude":17.9689,"longitude":79.5941,"temp":29.3,"humidity":70,"rain":0.0,"pressure":970.6,"uv_index":5.05,"wind_gusts":45.4,"aqi":27,"pm10":10.7,"pm2_5":8.1,"no2":6.0,"co":145.0,"o3":63.0,"so2":3.7,"mosquito_risk":7,"arthritis_risk":5,"migraine_risk":3,"frizz_risk":1,"updated_at":"2026-07-06T18:20:22.518976+05:30"},{"city":"Nizamabad","state":"Telangana","latitude":18.6725,"longitude":78.0941,"temp":27.6,"humidity":77,"rain":0.0,"pressure":955.8,"uv_index":5.5,"wind_gusts":61.2,"aqi":27,"pm10":19.5,"pm2_5":11.0,"no2":2.7,"co":149.0,"o3":76.0,"so2":2.8,"mosquito_risk":7,"arthritis_risk":5,"migraine_risk":3,"frizz_risk":1,"updated_at":"2026-07-06T18:20:22.518983+05:30"},{"city":"Mysore","state":"Karnataka","latitude":12.2958,"longitude":76.6396,"temp":23.7,"humidity":81,"rain":0.0,"pressure":926.5,"uv_index":7.4,"wind_gusts":70.9,"aqi":30,"pm10":5.3,"pm2_5":3.2,"no2":3.4,"co":123.0,"o3":59.0,"so2":1.1,"mosquito_risk":3,"arthritis_risk":5,"migraine_risk":7,"frizz_risk":1,"updated_at":"2026-07-06T18:20:22.518989+05:30"},{"city":"Mangalore","state":"Karnataka","latitude":12.9141,"longitude":74.856,"temp":28.2,"humidity":78,"rain":0.1,"pressure":1005.2,"uv_index":7.9,"wind_gusts":62.3,"aqi":56,"pm10":26.5,"pm2_5":13.2,"no2":2.2,"co":132.0,"o3":58.0,"so2":1.0,"mosquito_risk":10,"arthritis_risk":5,"migraine_risk":4,"frizz_risk":1,"updated_at":"2026-07-06T18:20:22.518996+05:30"},{"city":"Hubli-Dharwad","state":"Karnataka","latitude":15.3647,"longitude":75.124,"temp":22.7,"humidity":94,"rain":0.1,"pressure":936.5,"uv_index":6.45,"wind_gusts":72.0,"aqi":27,"pm10":4.9,"pm2_5":2.9,"no2":4.3,"co":113.0,"o3":53.0,"so2":0.7,"mosquito_risk":6,"arthritis_risk":5,"migraine_risk":7,"frizz_risk":1,"updated_at":"2026-07-06T18:20:22.519002+05:30"},{"city":"Belgaum","state":"Karnataka","latitude":15.8497,"longitude":74.4977,"temp":22.0,"humidity":96,"rain":0.0,"pressure":920.8,"uv_index":2.1,"wind_gusts":63.0,"aqi":26,"pm10":5.3,"pm2_5":3.2,"no2":3.8,"co":120.0,"o3":53.0,"so2":1.1,"mosquito_risk":3,"arthritis_risk":5,"migraine_risk":3,"frizz_risk":1,"updated_at":"2026-07-06T18:20:25.853993+05:30"},{"city":"Coimbatore","state":"Tamil Nadu","latitude":11.0168,"longitude":76.9558,"temp":25.3,"humidity":81,"rain":0.0,"pressure":960.1,"uv_index":8.8,"wind_gusts":70.9,"aqi":31,"pm10":14.3,"pm2_5":9.4,"no2":4.3,"co":153.0,"o3":61.0,"so2":1.6,"mosquito_risk":7,"arthritis_risk":5,"migraine_risk":7,"frizz_risk":1,"updated_at":"2026-07-06T18:20:25.854022+05:30"},{"city":"Madurai","state":"Tamil Nadu","latitude":9.9252,"longitude":78.1198,"temp":32.3,"humidity":45,"rain":0.0,"pressure":989.5,"uv_index":8.7,"wind_gusts":73.8,"aqi":61,"pm10":23.3,"pm2_5":11.1,"no2":2.9,"co":128.0,"o3":75.0,"so2":1.6,"mosquito_risk":0,"arthritis_risk":5,"migraine_risk":7,"frizz_risk":1,"updated_at":"2026-07-06T18:20:25.854033+05:30"},{"city":"Trichy","state":"Tamil Nadu","latitude":10.7905,"longitude":78.7047,"temp":33.8,"humidity":41,"rain":0.0,"pressure":995.7,"uv_index":8.55,"wind_gusts":75.6,"aqi":48,"pm10":21.7,"pm2_5":10.4,"no2":2.5,"co":118.0,"o3":72.0,"so2":1.5,"mosquito_risk":0,"arthritis_risk":5,"migraine_risk":7,"frizz_risk":1,"updated_at":"2026-07-06T18:20:25.854042+05:30"},{"city":"Salem","state":"Tamil Nadu","latitude":11.6643,"longitude":78.146,"temp":30.5,"humidity":58,"rain":0.0,"pressure":974.2,"uv_index":8.8,"wind_gusts":40.7,"aqi":52,"pm10":17.3,"pm2_5":10.1,"no2":4.6,"co":188.0,"o3":80.0,"so2":3.9,"mosquito_risk":0,"arthritis_risk":5,"migraine_risk":7,"frizz_risk":1,"updated_at":"2026-07-06T18:20:25.854051+05:30"},{"city":"Tirunelveli","state":"Tamil Nadu","latitude":8.7139,"longitude":77.7567,"temp":31.8,"humidity":48,"rain":0.0,"pressure":1001.6,"uv_index":8.65,"wind_gusts":64.4,"aqi":49,"pm10":25.6,"pm2_5":13.9,"no2":1.9,"co":112.0,"o3":66.0,"so2":1.2,"mosquito_risk":0,"arthritis_risk":5,"migraine_risk":4,"frizz_risk":1,"updated_at":"2026-07-06T18:20:25.854058+05:30"},{"city":"Vellore","state":"Tamil Nadu","latitude":12.9165,"longitude":79.1325,"temp":34.8,"humidity":36,"rain":0.0,"pressure":979.5,"uv_index":8.5,"wind_gusts":60.5,"aqi":40,"pm10":18.0,"pm2_5":8.5,"no2":3.8,"co":128.0,"o3":76.0,"so2":1.8,"mosquito_risk":0,"arthritis_risk":5,"migraine_risk":7,"frizz_risk":1,"updated_at":"2026-07-06T18:20:25.854065+05:30"},{"city":"Erode","state":"Tamil Nadu","latitude":11.341,"longitude":77.7172,"temp":30.5,"humidity":56,"rain":0.0,"pressure":985.7,"uv_index":8.8,"wind_gusts":63.7,"aqi":50,"pm10":18.4,"pm2_5":11.4,"no2":4.0,"co":136.0,"o3":71.0,"so2":1.7,"mosquito_risk":0,"arthritis_risk":5,"migraine_risk":7,"frizz_risk":1,"updated_at":"2026-07-06T18:20:25.854072+05:30"},{"city":"Kochi","state":"Kerala","latitude":9.9312,"longitude":76.2673,"temp":28.4,"humidity":78,"rain":0.0,"pressure":1008.8,"uv_index":8.35,"wind_gusts":43.9,"aqi":59,"pm10":33.4,"pm2_5":18.8,"no2":4.6,"co":121.0,"o3":58.0,"so2":2.5,"mosquito_risk":7,"arthritis_risk":0,"migraine_risk":4,"frizz_risk":1,"updated_at":"2026-07-06T18:20:25.854080+05:30"},{"city":"Thiruvananthapuram","state":"Kerala","latitude":8.5241,"longitude":76.9366,"temp":27.1,"humidity":85,"rain":0.0,"pressure":1008.3,"uv_index":8.4,"wind_gusts":44.6,"aqi":56,"pm10":26.4,"pm2_5":14.2,"no2":3.3,"co":114.0,"o3":62.0,"so2":0.9,"mosquito_risk":7,"arthritis_risk":0,"migraine_risk":4,"frizz_risk":1,"updated_at":"2026-07-06T18:20:25.854087+05:30"},{"city":"Kozhikode","state":"Kerala","latitude":11.2588,"longitude":75.7804,"temp":25.3,"humidity":97,"rain":0.2,"pressure":1008.2,"uv_index":8.25,"wind_gusts":36.4,"aqi":58,"pm10":28.8,"pm2_5":14.9,"no2":0.9,"co":127.0,"o3":60.0,"so2":0.7,"mosquito_risk":10,"arthritis_risk":0,"migraine_risk":4,"frizz_risk":1,"updated_at":"2026-07-06T18:20:25.854094+05:30"},{"city":"Thrissur","state":"Kerala","latitude":10.5276,"longitude":76.2144,"temp":26.6,"humidity":87,"rain":0.0,"pressure":1007.3,"uv_index":8.5,"wind_gusts":50.8,"aqi":56,"pm10":29.0,"pm2_5":17.1,"no2":3.4,"co":135.0,"o3":54.0,"so2":1.6,"mosquito_risk":7,"arthritis_risk":5,"migraine_risk":4,"frizz_risk":1,"updated_at":"2026-07-06T18:20:25.854102+05:30"},{"city":"Kannur","state":"Kerala","latitude":11.8745,"longitude":75.3704,"temp":25.6,"humidity":91,"rain":0.0,"pressure":1006.8,"uv_index":7.95,"wind_gusts":47.9,"aqi":55,"pm10":24.5,"pm2_5":12.5,"no2":3.4,"co":129.0,"o3":52.0,"so2":0.9,"mosquito_risk":7,"arthritis_risk":5,"migraine_risk":4,"frizz_risk":1,"updated_at":"2026-07-06T18:20:25.854109+05:30"},{"city":"Patna","state":"Bihar","latitude":25.5941,"longitude":85.1376,"temp":28.8,"humidity":89,"rain":0.0,"pressure":989.8,"uv_index":4.2,"wind_gusts":63.7,"aqi":70,"pm10":13.2,"pm2_5":12.9,"no2":8.6,"co":276.0,"o3":98.0,"so2":4.9,"mosquito_risk":7,"arthritis_risk":5,"migraine_risk":3,"frizz_risk":1,"updated_at":"2026-07-06T18:20:25.854116+05:30"},{"city":"Gaya","state":"Bihar","latitude":24.7914,"longitude":85.0002,"temp":28.2,"humidity":89,"rain":0.1,"pressure":982.2,"uv_index":6.3,"wind_gusts":55.1,"aqi":51,"pm10":12.3,"pm2_5":12.2,"no2":5.6,"co":250.0,"o3":92.0,"so2":3.1,"mosquito_risk":10,"arthritis_risk":5,"migraine_risk":7,"frizz_risk":1,"updated_at":"2026-07-06T18:20:25.854122+05:30"},{"city":"Muzaffarpur","state":"Bihar","latitude":26.1209,"longitude":85.3647,"temp":29.7,"humidity":82,"rain":0.0,"pressure":990.2,"uv_index":5.95,"wind_gusts":59.4,"aqi":69,"pm10":11.6,"pm2_5":11.4,"no2":8.2,"co":235.0,"o3":90.0,"so2":3.9,"mosquito_risk":7,"arthritis_risk":5,"migraine_risk":3,"frizz_risk":1,"updated_at":"2026-07-06T18:20:25.854129+05:30"},{"city":"Bhagalpur","state":"Bihar","latitude":25.2425,"longitude":87.0117,"temp":30.1,"humidity":77,"rain":0.0,"pressure":990.6,"uv_index":6.65,"wind_gusts":60.1,"aqi":53,"pm10":11.1,"pm2_5":10.9,"no2":8.8,"co":199.0,"o3":97.0,"so2":9.1,"mosquito_risk":3,"arthritis_risk":5,"migraine_risk":7,"frizz_risk":1,"updated_at":"2026-07-06T18:20:25.854135+05:30"},{"city":"Ranchi","state":"Jharkhand","latitude":23.3441,"longitude":85.3096,"temp":24.6,"humidity":95,"rain":0.0,"pressure":926.4,"uv_index":8.3,"wind_gusts":38.9,"aqi":47,"pm10":8.3,"pm2_5":8.3,"no2":6.5,"co":330.0,"o3":91.0,"so2":7.1,"mosquito_risk":3,"arthritis_risk":5,"migraine_risk":7,"frizz_risk":1,"updated_at":"2026-07-06T18:20:25.854142+05:30"},{"city":"Jamshedpur","state":"Jharkhand","latitude":22.8046,"longitude":86.2029,"temp":26.9,"humidity":96,"rain":0.1,"pressure":979.1,"uv_index":1.6,"wind_gusts":28.4,"aqi":52,"pm10":9.6,"pm2_5":9.6,"no2":12.9,"co":382.0,"o3":66.0,"so2":17.9,"mosquito_risk":10,"arthritis_risk":5,"migraine_risk":3,"frizz_risk":1,"updated_at":"2026-07-06T18:20:25.854149+05:30"},{"city":"Dhanbad","state":"Jharkhand","latitude":23.7957,"longitude":86.4304,"temp":26.4,"humidity":96,"rain":0.1,"pressure":968.4,"uv_index":4.75,"wind_gusts":51.5,"aqi":64,"pm10":24.3,"pm2_5":24.2,"no2":33.8,"co":384.0,"o3":58.0,"so2":67.0,"mosquito_risk":10,"arthritis_risk":5,"migraine_risk":3,"frizz_risk":1,"updated_at":"2026-07-06T18:20:25.854155+05:30"},{"city":"Bokaro","state":"Jharkhand","latitude":23.6693,"longitude":86.1511,"temp":26.8,"humidity":95,"rain":0.0,"pressure":972.0,"uv_index":5.6,"wind_gusts":43.9,"aqi":62,"pm10":25.9,"pm2_5":25.8,"no2":33.3,"co":624.0,"o3":58.0,"so2":65.7,"mosquito_risk":7,"arthritis_risk":5,"migraine_risk":3,"frizz_risk":1,"updated_at":"2026-07-06T18:20:25.854162+05:30"},{"city":"Bhubaneswar","state":"Odisha","latitude":20.2961,"longitude":85.8245,"temp":29.4,"humidity":78,"rain":0.0,"pressure":992.5,"uv_index":3.4,"wind_gusts":55.1,"aqi":39,"pm10":17.3,"pm2_5":14.8,"no2":6.4,"co":260.0,"o3":89.0,"so2":6.1,"mosquito_risk":7,"arthritis_risk":5,"migraine_risk":3,"frizz_risk":1,"updated_at":"2026-07-06T18:20:25.854169+05:30"},{"city":"Cuttack","state":"Odisha","latitude":20.4625,"longitude":85.8828,"temp":29.9,"humidity":77,"rain":0.0,"pressure":994.2,"uv_index":3.4,"wind_gusts":54.0,"aqi":39,"pm10":17.3,"pm2_5":14.8,"no2":6.4,"co":250.0,"o3":89.0,"so2":6.1,"mosquito_risk":7,"arthritis_risk":5,"migraine_risk":3,"frizz_risk":1,"updated_at":"2026-07-06T18:20:25.854176+05:30"},{"city":"Rourkela","state":"Odisha","latitude":22.2604,"longitude":84.8536,"temp":26.2,"humidity":92,"rain":0.0,"pressure":973.9,"uv_index":1.75,"wind_gusts":37.8,"aqi":59,"pm10":12.1,"pm2_5":12.1,"no2":16.0,"co":363.0,"o3":68.0,"so2":8.5,"mosquito_risk":7,"arthritis_risk":5,"migraine_risk":3,"frizz_risk":1,"updated_at":"2026-07-06T18:20:25.854183+05:30"},{"city":"Raipur","state":"Chhattisgarh","latitude":21.2514,"longitude":81.6296,"temp":26.8,"humidity":87,"rain":0.0,"pressure":964.5,"uv_index":1.2,"wind_gusts":46.8,"aqi":59,"pm10":12.9,"pm2_5":12.7,"no2":20.7,"co":445.0,"o3":55.0,"so2":38.3,"mosquito_risk":7,"arthritis_risk":5,"migraine_risk":3,"frizz_risk":1,"updated_at":"2026-07-06T18:20:25.854190+05:30"},{"city":"Bhilai","state":"Chhattisgarh","latitude":21.1938,"longitude":81.3509,"temp":26.7,"humidity":86,"rain":0.0,"pressure":965.0,"uv_index":2.4,"wind_gusts":44.6,"aqi":56,"pm10":12.4,"pm2_5":12.3,"no2":17.6,"co":699.0,"o3":64.0,"so2":33.6,"mosquito_risk":7,"arthritis_risk":5,"migraine_risk":3,"frizz_risk":1,"updated_at":"2026-07-06T18:20:25.854197+05:30"},{"city":"Guwahati","state":"Assam","latitude":26.1158,"longitude":91.7086,"temp":29.4,"humidity":92,"rain":0.1,"pressure":993.6,"uv_index":7.35,"wind_gusts":27.0,"aqi":43,"pm10":8.8,"pm2_5":8.8,"no2":5.3,"co":270.0,"o3":70.0,"so2":1.3,"mosquito_risk":10,"arthritis_risk":5,"migraine_risk":7,"frizz_risk":1,"updated_at":"2026-07-06T18:20:25.854203+05:30"},{"city":"Agartala","state":"Tripura","latitude":23.8315,"longitude":91.2868,"temp":26.5,"humidity":95,"rain":0.1,"pressure":999.6,"uv_index":3.15,"wind_gusts":42.5,"aqi":33,"pm10":12.8,"pm2_5":10.9,"no2":7.3,"co":162.0,"o3":60.0,"so2":1.8,"mosquito_risk":10,"arthritis_risk":5,"migraine_risk":3,"frizz_risk":1,"updated_at":"2026-07-06T18:20:25.854210+05:30"},{"city":"Shillong","state":"Meghalaya","latitude":25.5788,"longitude":91.8933,"temp":21.7,"humidity":90,"rain":0.0,"pressure":853.1,"uv_index":7.4,"wind_gusts":46.4,"aqi":35,"pm10":3.4,"pm2_5":3.3,"no2":4.3,"co":146.0,"o3":63.0,"so2":1.3,"mosquito_risk":3,"arthritis_risk":5,"migraine_risk":7,"frizz_risk":1,"updated_at":"2026-07-06T18:20:25.854217+05:30"},{"city":"Imphal","state":"Manipur","latitude":24.817,"longitude":93.9368,"temp":23.8,"humidity":96,"rain":0.4,"pressure":919.1,"uv_index":8.45,"wind_gusts":27.0,"aqi":29,"pm10":4.9,"pm2_5":4.8,"no2":6.0,"co":234.0,"o3":55.0,"so2":1.2,"mosquito_risk":6,"arthritis_risk":5,"migraine_risk":7,"frizz_risk":1,"updated_at":"2026-07-06T18:20:25.854223+05:30"},{"city":"Aizawl","state":"Mizoram","latitude":23.7271,"longitude":92.7176,"temp":20.4,"humidity":98,"rain":0.1,"pressure":888.0,"uv_index":3.6,"wind_gusts":40.0,"aqi":25,"pm10":4.2,"pm2_5":3.1,"no2":3.5,"co":126.0,"o3":60.0,"so2":1.4,"mosquito_risk":6,"arthritis_risk":5,"migraine_risk":3,"frizz_risk":1,"updated_at":"2026-07-06T18:20:25.854229+05:30"},{"city":"Kohima","state":"Nagaland","latitude":25.6701,"longitude":94.1077,"temp":22.1,"humidity":95,"rain":0.1,"pressure":852.0,"uv_index":9.2,"wind_gusts":21.6,"aqi":30,"pm10":3.8,"pm2_5":3.7,"no2":4.9,"co":172.0,"o3":52.0,"so2":0.7,"mosquito_risk":6,"arthritis_risk":5,"migraine_risk":7,"frizz_risk":1,"updated_at":"2026-07-06T18:20:25.854236+05:30"},{"city":"Gangtok","state":"Sikkim","latitude":27.3314,"longitude":88.6138,"temp":19.9,"humidity":100,"rain":0.0,"pressure":834.1,"uv_index":6.9,"wind_gusts":28.1,"aqi":38,"pm10":3.1,"pm2_5":3.0,"no2":6.4,"co":212.0,"o3":75.0,"so2":0.6,"mosquito_risk":3,"arthritis_risk":10,"migraine_risk":7,"frizz_risk":1,"updated_at":"2026-07-06T18:20:25.854243+05:30"},{"city":"Siliguri","state":"West Bengal","latitude":26.7271,"longitude":88.3953,"temp":27.0,"humidity":94,"rain":0.0,"pressure":984.9,"uv_index":7.75,"wind_gusts":49.0,"aqi":44,"pm10":7.2,"pm2_5":7.1,"no2":6.1,"co":337.0,"o3":87.0,"so2":1.8,"mosquito_risk":7,"arthritis_risk":5,"migraine_risk":7,"frizz_risk":1,"updated_at":"2026-07-06T18:20:29.173350+05:30"},{"city":"Durgapur","state":"West Bengal","latitude":23.5204,"longitude":87.3119,"temp":28.2,"humidity":90,"rain":0.0,"pressure":983.4,"uv_index":5.95,"wind_gusts":51.8,"aqi":57,"pm10":20.8,"pm2_5":20.5,"no2":18.2,"co":499.0,"o3":79.0,"so2":25.9,"mosquito_risk":7,"arthritis_risk":5,"migraine_risk":3,"frizz_risk":1,"updated_at":"2026-07-06T18:20:29.173381+05:30"},{"city":"Asansol","state":"West Bengal","latitude":23.6739,"longitude":86.9524,"temp":27.6,"humidity":93,"rain":0.0,"pressure":981.9,"uv_index":7.0,"wind_gusts":53.3,"aqi":55,"pm10":17.9,"pm2_5":17.9,"no2":22.8,"co":628.0,"o3":70.0,"so2":31.5,"mosquito_risk":7,"arthritis_risk":5,"migraine_risk":7,"frizz_risk":1,"updated_at":"2026-07-06T18:20:29.173392+05:30"},{"city":"Pondicherry","state":"Puducherry","latitude":11.9139,"longitude":79.8145,"temp":36.1,"humidity":37,"rain":0.0,"pressure":1002.5,"uv_index":8.65,"wind_gusts":47.5,"aqi":57,"pm10":30.6,"pm2_5":19.6,"no2":7.7,"co":145.0,"o3":109.0,"so2":7.2,"mosquito_risk":0,"arthritis_risk":5,"migraine_risk":7,"frizz_risk":1,"updated_at":"2026-07-06T18:20:29.173401+05:30"},{"city":"Port Blair","state":"Andaman and Nicobar Islands","latitude":11.6234,"longitude":92.7265,"temp":27.6,"humidity":82,"rain":0.0,"pressure":1006.9,"uv_index":8.6,"wind_gusts":37.8,"aqi":42,"pm10":23.3,"pm2_5":13.9,"no2":0.4,"co":103.0,"o3":55.0,"so2":0.5,"mosquito_risk":7,"arthritis_risk":5,"migraine_risk":4,"frizz_risk":1,"updated_at":"2026-07-06T18:20:29.173409+05:30"},{"city":"Haridwar","state":"Uttarakhand","latitude":29.9457,"longitude":78.1642,"temp":32.9,"humidity":71,"rain":0.0,"pressure":964.2,"uv_index":7.55,"wind_gusts":18.4,"aqi":99,"pm10":18.7,"pm2_5":18.3,"no2":2.6,"co":264.0,"o3":142.0,"so2":4.1,"mosquito_risk":3,"arthritis_risk":5,"migraine_risk":7,"frizz_risk":1,"updated_at":"2026-07-06T18:20:29.173417+05:30"},{"city":"Rishikesh","state":"Uttarakhand","latitude":30.0869,"longitude":78.2676,"temp":30.9,"humidity":72,"rain":0.0,"pressure":957.4,"uv_index":7.6,"wind_gusts":19.1,"aqi":84,"pm10":16.8,"pm2_5":16.4,"no2":1.6,"co":266.0,"o3":125.0,"so2":2.4,"mosquito_risk":3,"arthritis_risk":5,"migraine_risk":7,"frizz_risk":1,"updated_at":"2026-07-06T18:20:29.173425+05:30"},{"city":"Nainital","state":"Uttarakhand","latitude":29.3919,"longitude":79.4542,"temp":21.1,"humidity":79,"rain":0.0,"pressure":802.3,"uv_index":6.45,"wind_gusts":24.1,"aqi":81,"pm10":17.9,"pm2_5":17.4,"no2":2.8,"co":211.0,"o3":141.0,"so2":7.1,"mosquito_risk":3,"arthritis_risk":5,"migraine_risk":7,"frizz_risk":1,"updated_at":"2026-07-06T18:20:29.173432+05:30"},{"city":"Mussoorie","state":"Uttarakhand","latitude":30.4599,"longitude":78.0664,"temp":20.9,"humidity":88,"rain":0.0,"pressure":799.4,"uv_index":6.85,"wind_gusts":31.3,"aqi":104,"pm10":15.7,"pm2_5":15.4,"no2":2.9,"co":277.0,"o3":140.0,"so2":4.3,"mosquito_risk":3,"arthritis_risk":5,"migraine_risk":7,"frizz_risk":1,"updated_at":"2026-07-06T18:20:29.173440+05:30"},{"city":"Dharamshala","state":"Himachal Pradesh","latitude":32.219,"longitude":76.3234,"temp":24.0,"humidity":90,"rain":0.1,"pressure":863.3,"uv_index":7.1,"wind_gusts":31.0,"aqi":52,"pm10":7.7,"pm2_5":7.3,"no2":3.5,"co":333.0,"o3":108.0,"so2":0.9,"mosquito_risk":6,"arthritis_risk":5,"migraine_risk":7,"frizz_risk":1,"updated_at":"2026-07-06T18:20:29.173448+05:30"},{"city":"Dalhousie","state":"Himachal Pradesh","latitude":32.5387,"longitude":75.971,"temp":20.4,"humidity":94,"rain":0.0,"pressure":800.7,"uv_index":7.1,"wind_gusts":28.1,"aqi":99,"pm10":13.4,"pm2_5":12.8,"no2":4.0,"co":366.0,"o3":152.0,"so2":2.8,"mosquito_risk":3,"arthritis_risk":5,"migraine_risk":7,"frizz_risk":1,"updated_at":"2026-07-06T18:20:29.173455+05:30"},{"city":"Patiala","state":"Punjab","latitude":30.3398,"longitude":76.3869,"temp":32.6,"humidity":69,"rain":0.0,"pressure":968.0,"uv_index":7.5,"wind_gusts":34.9,"aqi":111,"pm10":18.2,"pm2_5":17.1,"no2":5.0,"co":349.0,"o3":150.0,"so2":7.7,"mosquito_risk":3,"arthritis_risk":5,"migraine_risk":7,"frizz_risk":1,"updated_at":"2026-07-06T18:20:29.173462+05:30"},{"city":"Bhatinda","state":"Punjab","latitude":30.211,"longitude":74.9455,"temp":36.2,"humidity":53,"rain":0.0,"pressure":972.5,"uv_index":7.95,"wind_gusts":33.8,"aqi":151,"pm10":62.2,"pm2_5":32.5,"no2":7.2,"co":345.0,"o3":164.0,"so2":21.3,"mosquito_risk":0,"arthritis_risk":5,"migraine_risk":10,"frizz_risk":1,"updated_at":"2026-07-06T18:20:29.173469+05:30"},{"city":"Rohtak","state":"Haryana","latitude":28.8955,"longitude":76.6066,"temp":34.4,"humidity":61,"rain":0.0,"pressure":971.2,"uv_index":7.7,"wind_gusts":20.9,"aqi":146,"pm10":33.4,"pm2_5":30.5,"no2":7.5,"co":458.0,"o3":213.0,"so2":15.6,"mosquito_risk":3,"arthritis_risk":5,"migraine_risk":7,"frizz_risk":1,"updated_at":"2026-07-06T18:20:29.173476+05:30"},{"city":"Panipat","state":"Haryana","latitude":29.3909,"longitude":76.9635,"temp":33.7,"humidity":63,"rain":0.0,"pressure":970.0,"uv_index":6.75,"wind_gusts":27.7,"aqi":118,"pm10":35.4,"pm2_5":31.9,"no2":9.2,"co":310.0,"o3":184.0,"so2":28.3,"mosquito_risk":3,"arthritis_risk":5,"migraine_risk":7,"frizz_risk":1,"updated_at":"2026-07-06T18:20:29.173483+05:30"},{"city":"Mathura","state":"Uttar Pradesh","latitude":27.4924,"longitude":77.6737,"temp":34.4,"humidity":63,"rain":0.0,"pressure":976.3,"uv_index":7.75,"wind_gusts":24.5,"aqi":107,"pm10":26.8,"pm2_5":16.6,"no2":4.9,"co":325.0,"o3":139.0,"so2":3.7,"mosquito_risk":3,"arthritis_risk":5,"migraine_risk":7,"frizz_risk":1,"updated_at":"2026-07-06T18:20:29.173490+05:30"},{"city":"Vrindavan","state":"Uttar Pradesh","latitude":27.5823,"longitude":77.7027,"temp":34.5,"humidity":62,"rain":0.0,"pressure":976.8,"uv_index":7.8,"wind_gusts":25.2,"aqi":107,"pm10":26.8,"pm2_5":16.6,"no2":4.9,"co":278.0,"o3":139.0,"so2":3.7,"mosquito_risk":3,"arthritis_risk":5,"migraine_risk":7,"frizz_risk":1,"updated_at":"2026-07-06T18:20:29.173497+05:30"},{"city":"Ayodhya","state":"Uttar Pradesh","latitude":26.7922,"longitude":82.1998,"temp":31.3,"humidity":74,"rain":0.0,"pressure":985.1,"uv_index":6.25,"wind_gusts":42.1,"aqi":98,"pm10":10.4,"pm2_5":10.3,"no2":4.4,"co":219.0,"o3":115.0,"so2":3.0,"mosquito_risk":3,"arthritis_risk":5,"migraine_risk":7,"frizz_risk":1,"updated_at":"2026-07-06T18:20:29.173504+05:30"},{"city":"Ratlam","state":"Madhya Pradesh","latitude":23.3315,"longitude":75.0367,"temp":29.3,"humidity":73,"rain":0.0,"pressure":944.0,"uv_index":8.35,"wind_gusts":35.3,"aqi":129,"pm10":34.3,"pm2_5":32.0,"no2":1.8,"co":238.0,"o3":119.0,"so2":3.6,"mosquito_risk":7,"arthritis_risk":5,"migraine_risk":7,"frizz_risk":1,"updated_at":"2026-07-06T18:20:29.173511+05:30"},{"city":"Sagar","state":"Madhya Pradesh","latitude":23.8388,"longitude":78.7378,"temp":26.8,"humidity":90,"rain":0.1,"pressure":939.5,"uv_index":8.0,"wind_gusts":27.4,"aqi":75,"pm10":10.6,"pm2_5":10.2,"no2":1.4,"co":191.0,"o3":114.0,"so2":2.2,"mosquito_risk":10,"arthritis_risk":5,"migraine_risk":7,"frizz_risk":1,"updated_at":"2026-07-06T18:20:29.173518+05:30"},{"city":"Satna","state":"Madhya Pradesh","latitude":24.6005,"longitude":80.8322,"temp":26.8,"humidity":90,"rain":0.1,"pressure":960.3,"uv_index":5.2,"wind_gusts":33.8,"aqi":77,"pm10":7.4,"pm2_5":7.3,"no2":6.1,"co":222.0,"o3":97.0,"so2":3.6,"mosquito_risk":10,"arthritis_risk":5,"migraine_risk":3,"frizz_risk":1,"updated_at":"2026-07-06T18:20:29.173525+05:30"},{"city":"Akola","state":"Maharashtra","latitude":20.7002,"longitude":77.0082,"temp":29.8,"humidity":66,"rain":0.0,"pressure":964.1,"uv_index":5.4,"wind_gusts":42.1,"aqi":37,"pm10":4.4,"pm2_5":4.2,"no2":5.1,"co":136.0,"o3":65.0,"so2":3.8,"mosquito_risk":7,"arthritis_risk":5,"migraine_risk":3,"frizz_risk":1,"updated_at":"2026-07-06T18:20:29.173533+05:30"},{"city":"Amravati","state":"Maharashtra","latitude":20.9374,"longitude":77.7796,"temp":29.4,"humidity":74,"rain":0.0,"pressure":956.9,"uv_index":7.6,"wind_gusts":44.3,"aqi":34,"pm10":5.1,"pm2_5":4.7,"no2":5.9,"co":148.0,"o3":64.0,"so2":3.8,"mosquito_risk":7,"arthritis_risk":5,"migraine_risk":7,"frizz_risk":1,"updated_at":"2026-07-06T18:20:29.173541+05:30"},{"city":"Latur","state":"Maharashtra","latitude":18.4088,"longitude":76.5604,"temp":27.0,"humidity":73,"rain":0.0,"pressure":931.3,"uv_index":4.1,"wind_gusts":55.1,"aqi":29,"pm10":10.6,"pm2_5":5.6,"no2":1.7,"co":122.0,"o3":61.0,"so2":1.2,"mosquito_risk":7,"arthritis_risk":5,"migraine_risk":3,"frizz_risk":1,"updated_at":"2026-07-06T18:20:29.173548+05:30"},{"city":"Nanded","state":"Maharashtra","latitude":19.1383,"longitude":77.3091,"temp":27.5,"humidity":87,"rain":0.0,"pressure":959.1,"uv_index":6.3,"wind_gusts":46.4,"aqi":27,"pm10":18.2,"pm2_5":10.1,"no2":3.1,"co":142.0,"o3":68.0,"so2":2.9,"mosquito_risk":7,"arthritis_risk":5,"migraine_risk":7,"frizz_risk":1,"updated_at":"2026-07-06T18:20:29.173555+05:30"},{"city":"Gulbarga","state":"Karnataka","latitude":17.3297,"longitude":76.8343,"temp":28.6,"humidity":63,"rain":0.0,"pressure":951.5,"uv_index":5.4,"wind_gusts":67.7,"aqi":31,"pm10":8.5,"pm2_5":5.0,"no2":3.3,"co":126.0,"o3":71.0,"so2":1.7,"mosquito_risk":7,"arthritis_risk":5,"migraine_risk":3,"frizz_risk":1,"updated_at":"2026-07-06T18:20:29.173562+05:30"},{"city":"Bidar","state":"Karnataka","latitude":17.9104,"longitude":77.5199,"temp":27.5,"humidity":66,"rain":0.0,"pressure":927.6,"uv_index":6.7,"wind_gusts":58.7,"aqi":29,"pm10":16.9,"pm2_5":9.3,"no2":3.0,"co":129.0,"o3":74.0,"so2":1.6,"mosquito_risk":7,"arthritis_risk":5,"migraine_risk":7,"frizz_risk":1,"updated_at":"2026-07-06T18:20:29.173569+05:30"},{"city":"Hospet","state":"Karnataka","latitude":15.2689,"longitude":76.3909,"temp":26.4,"humidity":72,"rain":0.0,"pressure":951.5,"uv_index":7.45,"wind_gusts":75.6,"aqi":28,"pm10":3.7,"pm2_5":2.4,"no2":3.5,"co":109.0,"o3":57.0,"so2":1.3,"mosquito_risk":7,"arthritis_risk":5,"migraine_risk":7,"frizz_risk":1,"updated_at":"2026-07-06T18:20:29.173576+05:30"},{"city":"Tirupur","state":"Tamil Nadu","latitude":11.1085,"longitude":77.3411,"temp":27.2,"humidity":71,"rain":0.0,"pressure":972.4,"uv_index":8.85,"wind_gusts":74.5,"aqi":52,"pm10":18.4,"pm2_5":11.7,"no2":4.4,"co":132.0,"o3":71.0,"so2":2.2,"mosquito_risk":7,"arthritis_risk":5,"migraine_risk":7,"frizz_risk":1,"updated_at":"2026-07-06T18:20:29.173583+05:30"},{"city":"Alappuzha","state":"Kerala","latitude":9.4981,"longitude":76.3388,"temp":28.5,"humidity":78,"rain":0.0,"pressure":1008.9,"uv_index":8.4,"wind_gusts":43.6,"aqi":61,"pm10":33.1,"pm2_5":18.2,"no2":4.8,"co":93.0,"o3":62.0,"so2":2.2,"mosquito_risk":7,"arthritis_risk":0,"migraine_risk":4,"frizz_risk":1,"updated_at":"2026-07-06T18:20:29.173590+05:30"},{"city":"Munnar","state":"Kerala","latitude":10.0889,"longitude":77.0595,"temp":16.7,"humidity":99,"rain":0.4,"pressure":855.7,"uv_index":6.3,"wind_gusts":61.2,"aqi":36,"pm10":21.1,"pm2_5":12.3,"no2":2.9,"co":110.0,"o3":62.0,"so2":1.5,"mosquito_risk":6,"arthritis_risk":10,"migraine_risk":7,"frizz_risk":1,"updated_at":"2026-07-06T18:20:29.173597+05:30"},{"city":"Silchar","state":"Assam","latitude":24.8333,"longitude":92.7789,"temp":28.4,"humidity":89,"rain":0.0,"pressure":999.5,"uv_index":4.6,"wind_gusts":37.8,"aqi":51,"pm10":7.7,"pm2_5":7.5,"no2":4.8,"co":216.0,"o3":56.0,"so2":2.3,"mosquito_risk":7,"arthritis_risk":5,"migraine_risk":3,"frizz_risk":1,"updated_at":"2026-07-06T18:20:29.173604+05:30"},{"city":"Dibrugarh","state":"Assam","latitude":27.4728,"longitude":94.912,"temp":29.7,"humidity":88,"rain":0.0,"pressure":987.4,"uv_index":8.2,"wind_gusts":33.1,"aqi":49,"pm10":10.0,"pm2_5":9.7,"no2":4.4,"co":234.0,"o3":79.0,"so2":1.3,"mosquito_risk":7,"arthritis_risk":5,"migraine_risk":7,"frizz_risk":1,"updated_at":"2026-07-06T18:20:29.173610+05:30"}]