[{"city":"Delhi","state":"Delhi","latitude":28.6139,"longitude":77.209,"temp":15.8,"humidity":99,"rain":0.0,"pressure":987.3,"uv_index":6.3,"wind_gusts":28.1,"aqi":138,"pm10":81.5,"pm2_5":69.8,"mosquito_risk":3,"arthritis_risk":10,"migraine_risk":7,"frizz_risk":0,"updated_at":"2026-03-21T02:06:48.457744+05:30"},{"city":"Mumbai","state":"Maharashtra","latitude":19.076,"longitude":72.8777,"temp":26.4,"humidity":80,"rain":0.0,"pressure":1009.7,"uv_index":7.85,"wind_gusts":28.8,"aqi":83,"pm10":55.5,"pm2_5":23.6,"mosquito_risk":7,"arthritis_risk":0,"migraine_risk":4,"frizz_risk":1,"updated_at":"2026-03-21T02:06:48.457795+05:30"},{"city":"Bangalore","state":"Karnataka","latitude":12.9716,"longitude":77.5946,"temp":22.0,"humidity":80,"rain":0.0,"pressure":910.8,"uv_index":9.4,"wind_gusts":18.7,"aqi":78,"pm10":31.7,"pm2_5":27.4,"mosquito_risk":3,"arthritis_risk":5,"migraine_risk":7,"frizz_risk":1,"updated_at":"2026-03-21T02:06:48.457810+05:30"},{"city":"Hyderabad","state":"Telangana","latitude":17.385,"longitude":78.4867,"temp":23.5,"humidity":74,"rain":0.0,"pressure":953.1,"uv_index":8.75,"wind_gusts":32.4,"aqi":87,"pm10":44.9,"pm2_5":35.5,"mosquito_risk":3,"arthritis_risk":5,"migraine_risk":7,"frizz_risk":1,"updated_at":"2026-03-21T02:06:48.457819+05:30"},{"city":"Chennai","state":"Tamil Nadu","latitude":13.0827,"longitude":80.2707,"temp":26.3,"humidity":90,"rain":0.0,"pressure":1007.5,"uv_index":9.15,"wind_gusts":34.2,"aqi":37,"pm10":12.1,"pm2_5":8.8,"mosquito_risk":7,"arthritis_risk":5,"migraine_risk":4,"frizz_risk":1,"updated_at":"2026-03-21T02:06:48.457827+05:30"},{"city":"Kolkata","state":"West Bengal","latitude":22.5726,"longitude":88.3639,"temp":22.3,"humidity":93,"rain":0.0,"pressure":1008.6,"uv_index":3.9,"wind_gusts":24.8,"aqi":74,"pm10":17.8,"pm2_5":14.6,"mosquito_risk":3,"arthritis_risk":0,"migraine_risk":0,"frizz_risk":1,"updated_at":"2026-03-21T02:06:48.457835+05:30"},{"city":"Pune","state":"Maharashtra","latitude":18.5204,"longitude":73.8567,"temp":21.2,"humidity":82,"rain":0.0,"pressure":948.4,"uv_index":8.45,"wind_gusts":22.0,"aqi":90,"pm10":48.5,"pm2_5":36.0,"mosquito_risk":3,"arthritis_risk":5,"migraine_risk":7,"frizz_risk":1,"updated_at":"2026-03-21T02:06:48.457846+05:30"},{"city":"Ahmedabad","state":"Gujarat","latitude":23.0225,"longitude":72.5714,"temp":20.9,"humidity":68,"rain":0.0,"pressure":1004.7,"uv_index":7.5,"wind_gusts":19.4,"aqi":80,"pm10":62.4,"pm2_5":36.1,"mosquito_risk":3,"arthritis_risk":5,"migraine_risk":4,"frizz_risk":0,"updated_at":"2026-03-21T02:06:48.457853+05:30"},{"city":"Jaipur","state":"Rajasthan","latitude":26.9124,"longitude":75.7873,"temp":17.0,"humidity":85,"rain":0.0,"pressure":962.8,"uv_index":6.65,"wind_gusts":25.6,"aqi":66,"pm10":43.2,"pm2_5":19.3,"mosquito_risk":3,"arthritis_risk":10,"migraine_risk":7,"frizz_risk":0,"updated_at":"2026-03-21T02:06:48.457862+05:30"},{"city":"Lucknow","state":"Uttar Pradesh","latitude":26.8467,"longitude":80.9462,"temp":19.6,"humidity":88,"rain":0.0,"pressure":996.8,"uv_index":6.8,"wind_gusts":27.0,"aqi":118,"pm10":72.9,"pm2_5":50.5,"mosquito_risk":3,"arthritis_risk":10,"migraine_risk":7,"frizz_risk":1,"updated_at":"2026-03-21T02:06:48.457870+05:30"},{"city":"Kanpur","state":"Uttar Pradesh","latitude":26.4499,"longitude":80.3319,"temp":19.0,"humidity":94,"rain":0.1,"pressure":995.6,"uv_index":6.15,"wind_gusts":25.2,"aqi":133,"pm10":75.7,"pm2_5":47.4,"mosquito_risk":6,"arthritis_risk":10,"migraine_risk":7,"frizz_risk":1,"updated_at":"2026-03-21T02:06:48.457876+05:30"},{"city":"Chandigarh","state":"Chandigarh","latitude":30.7333,"longitude":76.7794,"temp":13.5,"humidity":100,"rain":0.0,"pressure":972.7,"uv_index":6.35,"wind_gusts":27.7,"aqi":94,"pm10":55.8,"pm2_5":44.8,"mosquito_risk":3,"arthritis_risk":10,"migraine_risk":7,"frizz_risk":0,"updated_at":"2026-03-21T02:06:48.457883+05:30"},{"city":"Srinagar","state":"Jammu and Kashmir","latitude":34.0837,"longitude":74.7973,"temp":5.5,"humidity":95,"rain":0.0,"pressure":839.1,"uv_index":6.6,"wind_gusts":13.3,"aqi":75,"pm10":24.7,"pm2_5":24.6,"mosquito_risk":3,"arthritis_risk":10,"migraine_risk":7,"frizz_risk":0,"updated_at":"2026-03-21T02:06:48.457889+05:30"},{"city":"Jammu","state":"Jammu and Kashmir","latitude":32.7266,"longitude":74.857,"temp":14.0,"humidity":95,"rain":0.0,"pressure":977.0,"uv_index":6.35,"wind_gusts":22.7,"aqi":93,"pm10":57.2,"pm2_5":50.8,"mosquito_risk":3,"arthritis_risk":10,"migraine_risk":7,"frizz_risk":0,"updated_at":"2026-03-21T02:06:48.457895+05:30"},{"city":"Amritsar","state":"Punjab","latitude":31.634,"longitude":74.8723,"temp":12.8,"humidity":97,"rain":0.0,"pressure":985.4,"uv_index":6.15,"wind_gusts":19.1,"aqi":95,"pm10":86.4,"pm2_5":70.3,"mosquito_risk":3,"arthritis_risk":10,"migraine_risk":7,"frizz_risk":0,"updated_at":"2026-03-21T02:06:48.457901+05:30"},{"city":"Ludhiana","state":"Punjab","latitude":30.901,"longitude":75.8573,"temp":14.2,"humidity":100,"rain":0.0,"pressure":983.4,"uv_index":5.5,"wind_gusts":23.4,"aqi":104,"pm10":90.6,"pm2_5":70.5,"mosquito_risk":3,"arthritis_risk":10,"migraine_risk":3,"frizz_risk":0,"updated_at":"2026-03-21T02:06:48.457907+05:30"},{"city":"Jalandhar","state":"Punjab","latitude":31.326,"longitude":75.5762,"temp":14.1,"humidity":99,"rain":0.0,"pressure":984.6,"uv_index":6.3,"wind_gusts":22.3,"aqi":82,"pm10":66.8,"pm2_5":52.7,"mosquito_risk":3,"arthritis_risk":10,"migraine_risk":7,"frizz_risk":0,"updated_at":"2026-03-21T02:06:48.457915+05:30"},{"city":"Dehradun","state":"Uttarakhand","latitude":30.6284,"longitude":78.0322,"temp":7.1,"humidity":82,"rain":0.0,"pressure":827.1,"uv_index":6.2,"wind_gusts":22.3,"aqi":45,"pm10":1.6,"pm2_5":1.5,"mosquito_risk":3,"arthritis_risk":10,"migraine_risk":7,"frizz_risk":0,"updated_at":"2026-03-21T02:06:48.457921+05:30"},{"city":"Shimla","state":"Himachal Pradesh","latitude":31.1048,"longitude":77.1734,"temp":4.0,"humidity":87,"rain":0.0,"pressure":779.3,"uv_index":6.2,"wind_gusts":28.4,"aqi":42,"pm10":3.5,"pm2_5":3.4,"mosquito_risk":3,"arthritis_risk":10,"migraine_risk":7,"frizz_risk":0,"updated_at":"2026-03-21T02:06:48.457928+05:30"},{"city":"Manali","state":"Himachal Pradesh","latitude":32.2396,"longitude":77.1887,"temp":7.3,"humidity":57,"rain":0.0,"pressure":812.9,"uv_index":8.75,"wind_gusts":29.5,"aqi":35,"pm10":7.6,"pm2_5":7.6,"mosquito_risk":0,"arthritis_risk":5,"migraine_risk":7,"frizz_risk":1,"updated_at":"2026-03-21T02:06:48.457985+05:30"},{"city":"Gurgaon","state":"Haryana","latitude":28.4595,"longitude":77.0266,"temp":14.5,"humidity":100,"rain":0.0,"pressure":985.7,"uv_index":6.25,"wind_gusts":24.1,"aqi":147,"pm10":93.6,"pm2_5":83.6,"mosquito_risk":3,"arthritis_risk":10,"migraine_risk":7,"frizz_risk":0,"updated_at":"2026-03-21T02:06:48.457992+05:30"},{"city":"Noida","state":"Uttar Pradesh","latitude":28.5355,"longitude":77.391,"temp":15.8,"humidity":98,"rain":0.0,"pressure":988.9,"uv_index":6.1,"wind_gusts":27.4,"aqi":147,"pm10":93.6,"pm2_5":83.6,"mosquito_risk":3,"arthritis_risk":10,"migraine_risk":7,"frizz_risk":0,"updated_at":"2026-03-21T02:06:48.457999+05:30"},{"city":"Ghaziabad","state":"Uttar Pradesh","latitude":28.6692,"longitude":77.4538,"temp":15.5,"humidity":100,"rain":0.0,"pressure":987.1,"uv_index":6.3,"wind_gusts":28.4,"aqi":137,"pm10":75.2,"pm2_5":64.3,"mosquito_risk":3,"arthritis_risk":10,"migraine_risk":7,"frizz_risk":0,"updated_at":"2026-03-21T02:06:48.458005+05:30"},{"city":"Faridabad","state":"Haryana","latitude":28.4089,"longitude":77.3178,"temp":14.1,"humidity":99,"rain":0.0,"pressure":988.0,"uv_index":6.05,"wind_gusts":26.3,"aqi":147,"pm10":93.6,"pm2_5":83.6,"mosquito_risk":3,"arthritis_risk":10,"migraine_risk":7,"frizz_risk":0,"updated_at":"2026-03-21T02:06:48.458010+05:30"},{"city":"Meerut","state":"Uttar Pradesh","latitude":28.9845,"longitude":77.7064,"temp":14.6,"humidity":100,"rain":0.0,"pressure":985.9,"uv_index":6.25,"wind_gusts":29.5,"aqi":137,"pm10":75.2,"pm2_5":64.3,"mosquito_risk":3,"arthritis_risk":10,"migraine_risk":7,"frizz_risk":0,"updated_at":"2026-03-21T02:06:48.458016+05:30"},{"city":"Agra","state":"Uttar Pradesh","latitude":27.1767,"longitude":78.0081,"temp":15.0,"humidity":97,"rain":0.0,"pressure":992.2,"uv_index":6.8,"wind_gusts":32.0,"aqi":176,"pm10":58.1,"pm2_5":48.3,"mosquito_risk":3,"arthritis_risk":10,"migraine_risk":7,"frizz_risk":0,"updated_at":"2026-03-21T02:06:48.458022+05:30"},{"city":"Varanasi","state":"Uttar Pradesh","latitude":25.3176,"longitude":82.9739,"temp":20.7,"humidity":91,"rain":0.0,"pressure":1000.2,"uv_index":6.9,"wind_gusts":24.5,"aqi":98,"pm10":42.0,"pm2_5":34.7,"mosquito_risk":3,"arthritis_risk":5,"migraine_risk":4,"frizz_risk":1,"updated_at":"2026-03-21T02:06:48.458030+05:30"},{"city":"Prayagraj","state":"Uttar Pradesh","latitude":25.4358,"longitude":81.8463,"temp":20.2,"humidity":92,"rain":0.0,"pressure":999.8,"uv_index":6.85,"wind_gusts":26.6,"aqi":91,"pm10":57.3,"pm2_5":38.9,"mosquito_risk":3,"arthritis_risk":5,"migraine_risk":7,"frizz_risk":1,"updated_at":"2026-03-21T02:06:48.458036+05:30"},{"city":"Gorakhpur","state":"Uttar Pradesh","latitude":26.7606,"longitude":83.3732,"temp":18.6,"humidity":83,"rain":0.0,"pressure":999.6,"uv_index":5.65,"wind_gusts":26.3,"aqi":140,"pm10":69.6,"pm2_5":61.2,"mosquito_risk":3,"arthritis_risk":10,"migraine_risk":3,"frizz_risk":0,"updated_at":"2026-03-21T02:06:48.458042+05:30"},{"city":"Bareilly","state":"Uttar Pradesh","latitude":28.367,"longitude":79.4304,"temp":16.6,"humidity":99,"rain":0.0,"pressure":990.5,"uv_index":6.6,"wind_gusts":23.0,"aqi":90,"pm10":43.3,"pm2_5":31.8,"mosquito_risk":3,"arthritis_risk":10,"migraine_risk":7,"frizz_risk":1,"updated_at":"2026-03-21T02:06:48.458049+05:30"},{"city":"Aligarh","state":"Uttar Pradesh","latitude":27.8974,"longitude":78.088,"temp":14.8,"humidity":99,"rain":0.0,"pressure":989.9,"uv_index":6.55,"wind_gusts":28.8,"aqi":114,"pm10":66.4,"pm2_5":57.4,"mosquito_risk":3,"arthritis_risk":10,"migraine_risk":7,"frizz_risk":0,"updated_at":"2026-03-21T02:06:48.458054+05:30"},{"city":"Moradabad","state":"Uttar Pradesh","latitude":28.8386,"longitude":78.7733,"temp":16.1,"humidity":99,"rain":0.0,"pressure":987.5,"uv_index":6.45,"wind_gusts":25.6,"aqi":101,"pm10":56.0,"pm2_5":45.2,"mosquito_risk":3,"arthritis_risk":10,"migraine_risk":7,"frizz_risk":0,"updated_at":"2026-03-21T02:06:48.458060+05:30"},{"city":"Saharanpur","state":"Uttar Pradesh","latitude":29.9637,"longitude":77.546,"temp":13.5,"humidity":100,"rain":0.0,"pressure":980.0,"uv_index":5.95,"wind_gusts":32.8,"aqi":131,"pm10":77.3,"pm2_5":65.4,"mosquito_risk":3,"arthritis_risk":10,"migraine_risk":3,"frizz_risk":0,"updated_at":"2026-03-21T02:06:48.458065+05:30"},{"city":"Jhansi","state":"Uttar Pradesh","latitude":25.4484,"longitude":78.5685,"temp":17.6,"humidity":94,"rain":0.0,"pressure":981.7,"uv_index":7.4,"wind_gusts":28.1,"aqi":114,"pm10":45.6,"pm2_5":28.9,"mosquito_risk":3,"arthritis_risk":10,"migraine_risk":7,"frizz_risk":1,"updated_at":"2026-03-21T02:06:51.745214+05:30"},{"city":"Surat","state":"Gujarat","latitude":21.1702,"longitude":72.8311,"temp":23.9,"humidity":91,"rain":0.0,"pressure":1008.7,"uv_index":7.55,"wind_gusts":27.0,"aqi":111,"pm10":60.3,"pm2_5":38.0,"mosquito_risk":3,"arthritis_risk":0,"migraine_risk":4,"frizz_risk":1,"updated_at":"2026-03-21T02:06:51.745245+05:30"},{"city":"Vadodara","state":"Gujarat","latitude":22.3072,"longitude":73.1812,"temp":22.7,"humidity":58,"rain":0.0,"pressure":1006.8,"uv_index":7.55,"wind_gusts":13.0,"aqi":84,"pm10":39.6,"pm2_5":24.7,"mosquito_risk":0,"arthritis_risk":5,"migraine_risk":4,"frizz_risk":0,"updated_at":"2026-03-21T02:06:51.745255+05:30"},{"city":"Rajkot","state":"Gujarat","latitude":22.3039,"longitude":70.8022,"temp":21.8,"humidity":82,"rain":0.0,"pressure":996.6,"uv_index":7.3,"wind_gusts":18.4,"aqi":86,"pm10":103.6,"pm2_5":37.1,"mosquito_risk":3,"arthritis_risk":5,"migraine_risk":7,"frizz_risk":1,"updated_at":"2026-03-21T02:06:51.745263+05:30"},{"city":"Thane","state":"Maharashtra","latitude":19.2183,"longitude":72.9781,"temp":23.8,"humidity":84,"rain":0.0,"pressure":1009.2,"uv_index":7.85,"wind_gusts":42.5,"aqi":83,"pm10":55.5,"pm2_5":23.6,"mosquito_risk":3,"arthritis_risk":0,"migraine_risk":4,"frizz_risk":1,"updated_at":"2026-03-21T02:06:51.745271+05:30"},{"city":"Nagpur","state":"Maharashtra","latitude":21.1458,"longitude":79.0882,"temp":21.5,"humidity":79,"rain":0.0,"pressure":974.9,"uv_index":8.3,"wind_gusts":23.4,"aqi":80,"pm10":57.5,"pm2_5":28.0,"mosquito_risk":3,"arthritis_risk":5,"migraine_risk":7,"frizz_risk":1,"updated_at":"2026-03-21T02:06:51.745278+05:30"},{"city":"Nashik","state":"Maharashtra","latitude":19.9975,"longitude":73.7898,"temp":20.4,"humidity":82,"rain":0.0,"pressure":946.2,"uv_index":8.05,"wind_gusts":18.7,"aqi":60,"pm10":56.0,"pm2_5":25.2,"mosquito_risk":3,"arthritis_risk":5,"migraine_risk":7,"frizz_risk":1,"updated_at":"2026-03-21T02:06:51.745286+05:30"},{"city":"Aurangabad","state":"Maharashtra","latitude":19.8762,"longitude":75.3433,"temp":22.9,"humidity":63,"rain":0.0,"pressure":944.7,"uv_index":8.6,"wind_gusts":23.0,"aqi":72,"pm10":44.6,"pm2_5":26.0,"mosquito_risk":3,"arthritis_risk":5,"migraine_risk":7,"frizz_risk":0,"updated_at":"2026-03-21T02:06:51.745292+05:30"},{"city":"Solapur","state":"Maharashtra","latitude":17.6599,"longitude":75.9064,"temp":25.3,"humidity":49,"rain":0.0,"pressure":957.1,"uv_index":8.75,"wind_gusts":34.2,"aqi":86,"pm10":33.8,"pm2_5":28.4,"mosquito_risk":4,"arthritis_risk":5,"migraine_risk":7,"frizz_risk":0,"updated_at":"2026-03-21T02:06:51.745300+05:30"},{"city":"Kolhapur","state":"Maharashtra","latitude":16.705,"longitude":74.2433,"temp":17.8,"humidity":83,"rain":0.0,"pressure":947.1,"uv_index":8.85,"wind_gusts":34.6,"aqi":83,"pm10":36.6,"pm2_5":30.2,"mosquito_risk":3,"arthritis_risk":10,"migraine_risk":7,"frizz_risk":0,"updated_at":"2026-03-21T02:06:51.745308+05:30"},{"city":"Goa","state":"Goa","latitude":15.2993,"longitude":74.124,"temp":25.3,"humidity":82,"rain":0.0,"pressure":997.7,"uv_index":8.85,"wind_gusts":34.9,"aqi":68,"pm10":53.9,"pm2_5":33.2,"mosquito_risk":7,"arthritis_risk":5,"migraine_risk":7,"frizz_risk":1,"updated_at":"2026-03-21T02:06:51.745315+05:30"},{"city":"Jodhpur","state":"Rajasthan","latitude":26.2389,"longitude":73.0243,"temp":22.5,"humidity":58,"rain":0.0,"pressure":985.9,"uv_index":6.8,"wind_gusts":17.3,"aqi":72,"pm10":65.0,"pm2_5":31.9,"mosquito_risk":0,"arthritis_risk":5,"migraine_risk":7,"frizz_risk":0,"updated_at":"2026-03-21T02:06:51.745323+05:30"},{"city":"Udaipur","state":"Rajasthan","latitude":24.5854,"longitude":73.7125,"temp":17.8,"humidity":63,"rain":0.0,"pressure":948.3,"uv_index":7.4,"wind_gusts":12.6,"aqi":58,"pm10":48.1,"pm2_5":18.5,"mosquito_risk":3,"arthritis_risk":5,"migraine_risk":7,"frizz_risk":0,"updated_at":"2026-03-21T02:06:51.745330+05:30"},{"city":"Kota","state":"Rajasthan","latitude":25.2138,"longitude":75.8648,"temp":18.5,"humidity":80,"rain":0.0,"pressure":982.3,"uv_index":7.35,"wind_gusts":18.4,"aqi":60,"pm10":26.9,"pm2_5":17.6,"mosquito_risk":3,"arthritis_risk":5,"migraine_risk":7,"frizz_risk":0,"updated_at":"2026-03-21T02:06:51.745337+05:30"},{"city":"Bikaner","state":"Rajasthan","latitude":28.0229,"longitude":73.3119,"temp":21.3,"humidity":56,"rain":0.0,"pressure":984.4,"uv_index":6.8,"wind_gusts":27.0,"aqi":61,"pm10":32.2,"pm2_5":19.7,"mosquito_risk":0,"arthritis_risk":5,"migraine_risk":7,"frizz_risk":0,"updated_at":"2026-03-21T02:06:51.745344+05:30"},{"city":"Ajmer","state":"Rajasthan","latitude":26.4499,"longitude":74.6399,"temp":19.4,"humidity":67,"rain":0.0,"pressure":957.1,"uv_index":7.1,"wind_gusts":22.7,"aqi":61,"pm10":41.7,"pm2_5":30.9,"mosquito_risk":3,"arthritis_risk":5,"migraine_risk":7,"frizz_risk":0,"updated_at":"2026-03-21T02:06:51.745351+05:30"},{"city":"Gwalior","state":"Madhya Pradesh","latitude":26.2183,"longitude":78.1828,"temp":17.4,"humidity":95,"rain":0.0,"pressure":987.3,"uv_index":7.1,"wind_gusts":29.5,"aqi":110,"pm10":40.7,"pm2_5":29.7,"mosquito_risk":3,"arthritis_risk":10,"migraine_risk":7,"frizz_risk":1,"updated_at":"2026-03-21T02:06:51.745358+05:30"},{"city":"Indore","state":"Madhya Pradesh","latitude":22.7196,"longitude":75.8577,"temp":18.3,"humidity":77,"rain":0.0,"pressure":949.1,"uv_index":8.0,"wind_gusts":22.7,"aqi":71,"pm10":26.9,"pm2_5":18.7,"mosquito_risk":3,"arthritis_risk":5,"migraine_risk":7,"frizz_risk":0,"updated_at":"2026-03-21T02:06:51.745365+05:30"},{"city":"Bhopal","state":"Madhya Pradesh","latitude":23.2599,"longitude":77.4126,"temp":17.3,"humidity":85,"rain":0.0,"pressure":955.3,"uv_index":7.9,"wind_gusts":25.2,"aqi":72,"pm10":39.6,"pm2_5":24.7,"mosquito_risk":3,"arthritis_risk":10,"migraine_risk":7,"frizz_risk":0,"updated_at":"2026-03-21T02:06:51.745371+05:30"},{"city":"Jabalpur","state":"Madhya Pradesh","latitude":23.1815,"longitude":79.9864,"temp":19.8,"humidity":83,"rain":0.0,"pressure":963.3,"uv_index":8.0,"wind_gusts":30.2,"aqi":62,"pm10":44.5,"pm2_5":27.8,"mosquito_risk":3,"arthritis_risk":10,"migraine_risk":7,"frizz_risk":1,"updated_at":"2026-03-21T02:06:51.745378+05:30"},{"city":"Ujjain","state":"Madhya Pradesh","latitude":23.1765,"longitude":75.7885,"temp":18.2,"humidity":80,"rain":0.0,"pressure":955.3,"uv_index":7.85,"wind_gusts":19.1,"aqi":69,"pm10":30.4,"pm2_5":20.8,"mosquito_risk":3,"arthritis_risk":5,"migraine_risk":7,"frizz_risk":0,"updated_at":"2026-03-21T02:06:51.745385+05:30"},{"city":"Visakhapatnam","state":"Andhra Pradesh","latitude":17.6868,"longitude":83.2185,"temp":22.7,"humidity":89,"rain":0.0,"pressure":1004.9,"uv_index":8.8,"wind_gusts":34.6,"aqi":68,"pm10":36.2,"pm2_5":32.2,"mosquito_risk":3,"arthritis_risk":5,"migraine_risk":4,"frizz_risk":1,"updated_at":"2026-03-21T02:06:51.745392+05:30"},{"city":"Vijayawada","state":"Andhra Pradesh","latitude":16.5062,"longitude":80.648,"temp":24.0,"humidity":91,"rain":0.0,"pressure":1003.7,"uv_index":8.9,"wind_gusts":31.3,"aqi":63,"pm10":13.4,"pm2_5":12.1,"mosquito_risk":3,"arthritis_risk":5,"migraine_risk":4,"frizz_risk":1,"updated_at":"2026-03-21T02:06:51.745399+05:30"},{"city":"Guntur","state":"Andhra Pradesh","latitude":16.3067,"longitude":80.4365,"temp":24.4,"humidity":94,"rain":0.0,"pressure":1005.0,"uv_index":8.9,"wind_gusts":30.6,"aqi":61,"pm10":11.7,"pm2_5":10.5,"mosquito_risk":3,"arthritis_risk":5,"migraine_risk":4,"frizz_risk":1,"updated_at":"2026-03-21T02:06:51.745406+05:30"},{"city":"Nellore","state":"Andhra Pradesh","latitude":14.4426,"longitude":79.9865,"temp":25.1,"humidity":93,"rain":0.0,"pressure":1006.4,"uv_index":9.05,"wind_gusts":31.7,"aqi":36,"pm10":7.7,"pm2_5":5.6,"mosquito_risk":7,"arthritis_risk":5,"migraine_risk":4,"frizz_risk":1,"updated_at":"2026-03-21T02:06:51.745414+05:30"},{"city":"Kurnool","state":"Andhra Pradesh","latitude":15.8281,"longitude":78.0373,"temp":25.9,"humidity":66,"rain":0.0,"pressure":976.5,"uv_index":8.9,"wind_gusts":23.4,"aqi":65,"pm10":44.5,"pm2_5":35.9,"mosquito_risk":7,"arthritis_risk":5,"migraine_risk":7,"frizz_risk":1,"updated_at":"2026-03-21T02:06:51.745421+05:30"},{"city":"Kakinada","state":"Andhra Pradesh","latitude":16.9891,"longitude":82.2475,"temp":21.9,"humidity":97,"rain":0.0,"pressure":1008.6,"uv_index":8.8,"wind_gusts":27.0,"aqi":49,"pm10":14.2,"pm2_5":11.6,"mosquito_risk":3,"arthritis_risk":0,"migraine_risk":4,"frizz_risk":1,"updated_at":"2026-03-21T02:06:51.745428+05:30"},{"city":"Tirupati","state":"Andhra Pradesh","latitude":13.6288,"longitude":79.4192,"temp":24.3,"humidity":91,"rain":0.0,"pressure":992.2,"uv_index":9.15,"wind_gusts":28.8,"aqi":61,"pm10":28.9,"pm2_5":27.7,"mosquito_risk":3,"arthritis_risk":5,"migraine_risk":7,"frizz_risk":1,"updated_at":"2026-03-21T02:06:51.745435+05:30"},{"city":"Warangal","state":"Telangana","latitude":17.9689,"longitude":79.5941,"temp":23.0,"humidity":80,"rain":0.0,"pressure":979.6,"uv_index":8.7,"wind_gusts":19.1,"aqi":100,"pm10":69.6,"pm2_5":60.5,"mosquito_risk":3,"arthritis_risk":5,"migraine_risk":7,"frizz_risk":1,"updated_at":"2026-03-21T02:06:51.745441+05:30"},{"city":"Nizamabad","state":"Telangana","latitude":18.6725,"longitude":78.0941,"temp":24.4,"humidity":70,"rain":0.0,"pressure":964.8,"uv_index":8.6,"wind_gusts":25.2,"aqi":95,"pm10":64.0,"pm2_5":48.7,"mosquito_risk":3,"arthritis_risk":5,"migraine_risk":7,"frizz_risk":1,"updated_at":"2026-03-21T02:06:51.745448+05:30"},{"city":"Mysore","state":"Karnataka","latitude":12.2958,"longitude":76.6396,"temp":22.0,"humidity":86,"rain":0.0,"pressure":927.5,"uv_index":9.4,"wind_gusts":29.2,"aqi":81,"pm10":41.6,"pm2_5":36.4,"mosquito_risk":3,"arthritis_risk":5,"migraine_risk":7,"frizz_risk":1,"updated_at":"2026-03-21T02:06:51.745454+05:30"},{"city":"Mangalore","state":"Karnataka","latitude":12.9141,"longitude":74.856,"temp":29.1,"humidity":77,"rain":0.0,"pressure":1006.2,"uv_index":9.05,"wind_gusts":28.1,"aqi":67,"pm10":26.9,"pm2_5":21.2,"mosquito_risk":7,"arthritis_risk":5,"migraine_risk":4,"frizz_risk":1,"updated_at":"2026-03-21T02:06:51.745460+05:30"},{"city":"Hubli-Dharwad","state":"Karnataka","latitude":15.3647,"longitude":75.124,"temp":20.6,"humidity":79,"rain":0.0,"pressure":940.0,"uv_index":9.05,"wind_gusts":33.8,"aqi":71,"pm10":23.5,"pm2_5":19.4,"mosquito_risk":3,"arthritis_risk":5,"migraine_risk":7,"frizz_risk":1,"updated_at":"2026-03-21T02:06:51.745465+05:30"},{"city":"Belgaum","state":"Karnataka","latitude":15.8497,"longitude":74.4977,"temp":20.0,"humidity":81,"rain":0.0,"pressure":924.6,"uv_index":9.1,"wind_gusts":39.2,"aqi":72,"pm10":46.3,"pm2_5":33.3,"mosquito_risk":3,"arthritis_risk":5,"migraine_risk":7,"frizz_risk":1,"updated_at":"2026-03-21T02:06:55.029675+05:30"},{"city":"Coimbatore","state":"Tamil Nadu","latitude":11.0168,"longitude":76.9558,"temp":22.7,"humidity":88,"rain":0.0,"pressure":961.5,"uv_index":9.4,"wind_gusts":33.8,"aqi":70,"pm10":40.4,"pm2_5":36.2,"mosquito_risk":3,"arthritis_risk":5,"migraine_risk":7,"frizz_risk":1,"updated_at":"2026-03-21T02:06:55.029706+05:30"},{"city":"Madurai","state":"Tamil Nadu","latitude":9.9252,"longitude":78.1198,"temp":24.2,"humidity":89,"rain":0.0,"pressure":993.4,"uv_index":9.35,"wind_gusts":41.8,"aqi":65,"pm10":39.5,"pm2_5":35.9,"mosquito_risk":3,"arthritis_risk":5,"migraine_risk":7,"frizz_risk":1,"updated_at":"2026-03-21T02:06:55.029716+05:30"},{"city":"Trichy","state":"Tamil Nadu","latitude":10.7905,"longitude":78.7047,"temp":25.1,"humidity":93,"rain":0.0,"pressure":1000.1,"uv_index":8.45,"wind_gusts":30.2,"aqi":64,"pm10":22.8,"pm2_5":22.4,"mosquito_risk":7,"arthritis_risk":5,"migraine_risk":4,"frizz_risk":1,"updated_at":"2026-03-21T02:06:55.029725+05:30"},{"city":"Salem","state":"Tamil Nadu","latitude":11.6643,"longitude":78.146,"temp":25.3,"humidity":85,"rain":0.0,"pressure":977.3,"uv_index":9.2,"wind_gusts":21.2,"aqi":85,"pm10":34.1,"pm2_5":29.2,"mosquito_risk":7,"arthritis_risk":5,"migraine_risk":7,"frizz_risk":1,"updated_at":"2026-03-21T02:06:55.029732+05:30"},{"city":"Tirunelveli","state":"Tamil Nadu","latitude":8.7139,"longitude":77.7567,"temp":24.4,"humidity":87,"rain":0.0,"pressure":1003.4,"uv_index":9.3,"wind_gusts":34.2,"aqi":64,"pm10":43.1,"pm2_5":39.6,"mosquito_risk":3,"arthritis_risk":5,"migraine_risk":4,"frizz_risk":1,"updated_at":"2026-03-21T02:06:55.029739+05:30"},{"city":"Vellore","state":"Tamil Nadu","latitude":12.9165,"longitude":79.1325,"temp":23.3,"humidity":92,"rain":0.0,"pressure":984.8,"uv_index":9.25,"wind_gusts":32.8,"aqi":65,"pm10":40.6,"pm2_5":39.5,"mosquito_risk":3,"arthritis_risk":5,"migraine_risk":7,"frizz_risk":1,"updated_at":"2026-03-21T02:06:55.029746+05:30"},{"city":"Erode","state":"Tamil Nadu","latitude":11.341,"longitude":77.7172,"temp":26.0,"humidity":82,"rain":0.0,"pressure":989.1,"uv_index":9.3,"wind_gusts":31.7,"aqi":69,"pm10":21.7,"pm2_5":18.3,"mosquito_risk":7,"arthritis_risk":5,"migraine_risk":7,"frizz_risk":1,"updated_at":"2026-03-21T02:06:55.029754+05:30"},{"city":"Kochi","state":"Kerala","latitude":9.9312,"longitude":76.2673,"temp":28.7,"humidity":72,"rain":0.0,"pressure":1008.4,"uv_index":9.15,"wind_gusts":32.0,"aqi":73,"pm10":42.7,"pm2_5":39.8,"mosquito_risk":7,"arthritis_risk":0,"migraine_risk":4,"frizz_risk":1,"updated_at":"2026-03-21T02:06:55.029762+05:30"},{"city":"Thiruvananthapuram","state":"Kerala","latitude":8.5241,"longitude":76.9366,"temp":28.1,"humidity":79,"rain":0.0,"pressure":1007.6,"uv_index":8.05,"wind_gusts":25.6,"aqi":76,"pm10":23.3,"pm2_5":17.9,"mosquito_risk":7,"arthritis_risk":5,"migraine_risk":4,"frizz_risk":1,"updated_at":"2026-03-21T02:06:55.029769+05:30"},{"city":"Kozhikode","state":"Kerala","latitude":11.2588,"longitude":75.7804,"temp":28.8,"humidity":78,"rain":0.0,"pressure":1007.3,"uv_index":9.1,"wind_gusts":28.4,"aqi":57,"pm10":19.6,"pm2_5":13.9,"mosquito_risk":7,"arthritis_risk":5,"migraine_risk":4,"frizz_risk":1,"updated_at":"2026-03-21T02:06:55.029776+05:30"},{"city":"Thrissur","state":"Kerala","latitude":10.5276,"longitude":76.2144,"temp":26.5,"humidity":84,"rain":0.0,"pressure":1006.8,"uv_index":9.1,"wind_gusts":35.6,"aqi":70,"pm10":44.5,"pm2_5":41.2,"mosquito_risk":7,"arthritis_risk":5,"migraine_risk":4,"frizz_risk":1,"updated_at":"2026-03-21T02:06:55.029784+05:30"},{"city":"Kannur","state":"Kerala","latitude":11.8745,"longitude":75.3704,"temp":27.7,"humidity":83,"rain":0.0,"pressure":1006.6,"uv_index":9.1,"wind_gusts":35.6,"aqi":60,"pm10":28.6,"pm2_5":24.3,"mosquito_risk":7,"arthritis_risk":5,"migraine_risk":4,"frizz_risk":1,"updated_at":"2026-03-21T02:06:55.029791+05:30"},{"city":"Patna","state":"Bihar","latitude":25.5941,"longitude":85.1376,"temp":21.6,"humidity":88,"rain":0.0,"pressure":1003.8,"uv_index":3.0,"wind_gusts":22.3,"aqi":152,"pm10":65.4,"pm2_5":62.2,"mosquito_risk":3,"arthritis_risk":5,"migraine_risk":0,"frizz_risk":1,"updated_at":"2026-03-21T02:06:55.029798+05:30"},{"city":"Gaya","state":"Bihar","latitude":24.7914,"longitude":85.0002,"temp":21.2,"humidity":89,"rain":0.0,"pressure":996.0,"uv_index":6.95,"wind_gusts":30.6,"aqi":108,"pm10":64.7,"pm2_5":56.3,"mosquito_risk":3,"arthritis_risk":5,"migraine_risk":7,"frizz_risk":1,"updated_at":"2026-03-21T02:06:55.029804+05:30"},{"city":"Muzaffarpur","state":"Bihar","latitude":26.1209,"longitude":85.3647,"temp":20.2,"humidity":90,"rain":0.0,"pressure":1004.1,"uv_index":2.6,"wind_gusts":25.2,"aqi":154,"pm10":63.1,"pm2_5":59.8,"mosquito_risk":3,"arthritis_risk":5,"migraine_risk":0,"frizz_risk":1,"updated_at":"2026-03-21T02:06:55.029811+05:30"},{"city":"Bhagalpur","state":"Bihar","latitude":25.2425,"longitude":87.0117,"temp":21.1,"humidity":95,"rain":0.2,"pressure":1004.4,"uv_index":3.3,"wind_gusts":27.4,"aqi":139,"pm10":59.8,"pm2_5":57.4,"mosquito_risk":6,"arthritis_risk":5,"migraine_risk":0,"frizz_risk":1,"updated_at":"2026-03-21T02:06:55.029819+05:30"},{"city":"Ranchi","state":"Jharkhand","latitude":23.3441,"longitude":85.3096,"temp":18.7,"humidity":87,"rain":0.0,"pressure":938.7,"uv_index":7.6,"wind_gusts":39.2,"aqi":94,"pm10":37.4,"pm2_5":31.2,"mosquito_risk":3,"arthritis_risk":10,"migraine_risk":7,"frizz_risk":1,"updated_at":"2026-03-21T02:06:55.029827+05:30"},{"city":"Jamshedpur","state":"Jharkhand","latitude":22.8046,"longitude":86.2029,"temp":22.5,"humidity":86,"rain":0.1,"pressure":993.0,"uv_index":7.65,"wind_gusts":35.3,"aqi":123,"pm10":63.8,"pm2_5":56.6,"mosquito_risk":6,"arthritis_risk":5,"migraine_risk":7,"frizz_risk":1,"updated_at":"2026-03-21T02:06:55.029833+05:30"},{"city":"Dhanbad","state":"Jharkhand","latitude":23.7957,"longitude":86.4304,"temp":21.7,"humidity":83,"rain":0.0,"pressure":981.9,"uv_index":6.3,"wind_gusts":33.5,"aqi":154,"pm10":66.6,"pm2_5":59.8,"mosquito_risk":3,"arthritis_risk":5,"migraine_risk":7,"frizz_risk":1,"updated_at":"2026-03-21T02:06:55.029841+05:30"},{"city":"Bokaro","state":"Jharkhand","latitude":23.6693,"longitude":86.1511,"temp":21.2,"humidity":87,"rain":0.0,"pressure":986.0,"uv_index":7.35,"wind_gusts":37.8,"aqi":143,"pm10":59.6,"pm2_5":53.0,"mosquito_risk":3,"arthritis_risk":5,"migraine_risk":7,"frizz_risk":1,"updated_at":"2026-03-21T02:06:55.029848+05:30"},{"city":"Bhubaneswar","state":"Odisha","latitude":20.2961,"longitude":85.8245,"temp":23.4,"humidity":91,"rain":0.0,"pressure":1004.2,"uv_index":8.55,"wind_gusts":32.8,"aqi":63,"pm10":17.2,"pm2_5":14.4,"mosquito_risk":3,"arthritis_risk":5,"migraine_risk":4,"frizz_risk":1,"updated_at":"2026-03-21T02:06:55.029855+05:30"},{"city":"Cuttack","state":"Odisha","latitude":20.4625,"longitude":85.8828,"temp":23.9,"humidity":91,"rain":0.0,"pressure":1006.2,"uv_index":8.6,"wind_gusts":25.2,"aqi":63,"pm10":17.2,"pm2_5":14.4,"mosquito_risk":3,"arthritis_risk":5,"migraine_risk":4,"frizz_risk":1,"updated_at":"2026-03-21T02:06:55.029861+05:30"},{"city":"Rourkela","state":"Odisha","latitude":22.2604,"longitude":84.8536,"temp":21.5,"humidity":86,"rain":0.0,"pressure":987.3,"uv_index":8.2,"wind_gusts":39.2,"aqi":119,"pm10":61.7,"pm2_5":51.5,"mosquito_risk":3,"arthritis_risk":5,"migraine_risk":7,"frizz_risk":1,"updated_at":"2026-03-21T02:06:55.029868+05:30"},{"city":"Raipur","state":"Chhattisgarh","latitude":21.2514,"longitude":81.6296,"temp":20.9,"humidity":81,"rain":0.0,"pressure":975.7,"uv_index":8.35,"wind_gusts":34.6,"aqi":108,"pm10":61.5,"pm2_5":49.2,"mosquito_risk":3,"arthritis_risk":5,"migraine_risk":7,"frizz_risk":1,"updated_at":"2026-03-21T02:06:55.029875+05:30"},{"city":"Bhilai","state":"Chhattisgarh","latitude":21.1938,"longitude":81.3509,"temp":20.8,"humidity":84,"rain":0.0,"pressure":975.9,"uv_index":8.35,"wind_gusts":33.1,"aqi":98,"pm10":63.6,"pm2_5":48.7,"mosquito_risk":3,"arthritis_risk":5,"migraine_risk":7,"frizz_risk":1,"updated_at":"2026-03-21T02:06:55.029882+05:30"},{"city":"Guwahati","state":"Assam","latitude":26.1158,"longitude":91.7086,"temp":22.5,"humidity":90,"rain":0.0,"pressure":1005.6,"uv_index":5.9,"wind_gusts":21.6,"aqi":97,"pm10":46.6,"pm2_5":38.0,"mosquito_risk":3,"arthritis_risk":5,"migraine_risk":0,"frizz_risk":1,"updated_at":"2026-03-21T02:06:55.029889+05:30"},{"city":"Agartala","state":"Tripura","latitude":23.8315,"longitude":91.2868,"temp":21.8,"humidity":98,"rain":0.0,"pressure":1009.2,"uv_index":7.05,"wind_gusts":24.8,"aqi":94,"pm10":49.4,"pm2_5":46.4,"mosquito_risk":3,"arthritis_risk":0,"migraine_risk":4,"frizz_risk":1,"updated_at":"2026-03-21T02:06:55.029896+05:30"},{"city":"Shillong","state":"Meghalaya","latitude":25.5788,"longitude":91.8933,"temp":11.3,"humidity":74,"rain":0.0,"pressure":856.1,"uv_index":5.45,"wind_gusts":39.6,"aqi":78,"pm10":29.1,"pm2_5":24.3,"mosquito_risk":3,"arthritis_risk":5,"migraine_risk":3,"frizz_risk":0,"updated_at":"2026-03-21T02:06:55.029903+05:30"},{"city":"Imphal","state":"Manipur","latitude":24.817,"longitude":93.9368,"temp":16.2,"humidity":67,"rain":0.0,"pressure":925.1,"uv_index":7.6,"wind_gusts":27.0,"aqi":89,"pm10":44.4,"pm2_5":36.2,"mosquito_risk":3,"arthritis_risk":5,"migraine_risk":7,"frizz_risk":0,"updated_at":"2026-03-21T02:06:55.029910+05:30"},{"city":"Aizawl","state":"Mizoram","latitude":23.7271,"longitude":92.7176,"temp":14.6,"humidity":88,"rain":0.0,"pressure":892.8,"uv_index":6.85,"wind_gusts":31.0,"aqi":93,"pm10":59.5,"pm2_5":49.1,"mosquito_risk":3,"arthritis_risk":10,"migraine_risk":7,"frizz_risk":0,"updated_at":"2026-03-21T02:06:55.029917+05:30"},{"city":"Kohima","state":"Nagaland","latitude":25.6701,"longitude":94.1077,"temp":13.9,"humidity":53,"rain":0.0,"pressure":856.2,"uv_index":6.65,"wind_gusts":57.6,"aqi":78,"pm10":39.3,"pm2_5":29.2,"mosquito_risk":0,"arthritis_risk":5,"migraine_risk":7,"frizz_risk":0,"updated_at":"2026-03-21T02:06:55.029924+05:30"},{"city":"Gangtok","state":"Sikkim","latitude":27.3314,"longitude":88.6138,"temp":11.9,"humidity":96,"rain":1.5,"pressure":838.2,"uv_index":4.2,"wind_gusts":20.2,"aqi":84,"pm10":11.2,"pm2_5":8.9,"mosquito_risk":6,"arthritis_risk":10,"migraine_risk":3,"frizz_risk":0,"updated_at":"2026-03-21T02:06:55.029931+05:30"},{"city":"Siliguri","state":"West Bengal","latitude":26.7271,"longitude":88.3953,"temp":18.4,"humidity":88,"rain":0.1,"pressure":998.6,"uv_index":6.65,"wind_gusts":33.1,"aqi":149,"pm10":49.9,"pm2_5":42.7,"mosquito_risk":6,"arthritis_risk":10,"migraine_risk":7,"frizz_risk":1,"updated_at":"2026-03-21T02:06:58.318575+05:30"},{"city":"Durgapur","state":"West Bengal","latitude":23.5204,"longitude":87.3119,"temp":22.4,"humidity":87,"rain":0.0,"pressure":997.9,"uv_index":6.2,"wind_gusts":22.7,"aqi":152,"pm10":58.1,"pm2_5":54.4,"mosquito_risk":3,"arthritis_risk":5,"migraine_risk":7,"frizz_risk":1,"updated_at":"2026-03-21T02:06:58.318604+05:30"},{"city":"Asansol","state":"West Bengal","latitude":23.6739,"longitude":86.9524,"temp":22.5,"humidity":85,"rain":0.0,"pressure":996.3,"uv_index":5.8,"wind_gusts":26.6,"aqi":146,"pm10":56.8,"pm2_5":51.7,"mosquito_risk":3,"arthritis_risk":5,"migraine_risk":3,"frizz_risk":1,"updated_at":"2026-03-21T02:06:58.318614+05:30"},{"city":"Pondicherry","state":"Puducherry","latitude":11.9139,"longitude":79.8145,"temp":25.0,"humidity":97,"rain":0.0,"pressure":1008.8,"uv_index":9.15,"wind_gusts":30.2,"aqi":47,"pm10":11.9,"pm2_5":8.6,"mosquito_risk":7,"arthritis_risk":0,"migraine_risk":4,"frizz_risk":1,"updated_at":"2026-03-21T02:06:58.318621+05:30"},{"city":"Port Blair","state":"Andaman and Nicobar Islands","latitude":11.6234,"longitude":92.7265,"temp":28.1,"humidity":75,"rain":0.0,"pressure":1007.1,"uv_index":9.1,"wind_gusts":14.0,"aqi":42,"pm10":16.1,"pm2_5":11.8,"mosquito_risk":7,"arthritis_risk":5,"migraine_risk":4,"frizz_risk":1,"updated_at":"2026-03-21T02:06:58.318670+05:30"},{"city":"Haridwar","state":"Uttarakhand","latitude":29.9457,"longitude":78.1642,"temp":14.6,"humidity":98,"rain":0.0,"pressure":978.0,"uv_index":6.2,"wind_gusts":27.7,"aqi":75,"pm10":25.4,"pm2_5":23.1,"mosquito_risk":3,"arthritis_risk":10,"migraine_risk":7,"frizz_risk":0,"updated_at":"2026-03-21T02:06:58.318680+05:30"},{"city":"Rishikesh","state":"Uttarakhand","latitude":30.0869,"longitude":78.2676,"temp":14.7,"humidity":90,"rain":0.0,"pressure":970.1,"uv_index":6.25,"wind_gusts":24.5,"aqi":66,"pm10":22.9,"pm2_5":20.0,"mosquito_risk":3,"arthritis_risk":10,"migraine_risk":7,"frizz_risk":0,"updated_at":"2026-03-21T02:06:58.318687+05:30"},{"city":"Nainital","state":"Uttarakhand","latitude":29.3919,"longitude":79.4542,"temp":11.0,"humidity":82,"rain":0.0,"pressure":803.3,"uv_index":6.05,"wind_gusts":28.4,"aqi":66,"pm10":17.6,"pm2_5":13.3,"mosquito_risk":3,"arthritis_risk":10,"migraine_risk":7,"frizz_risk":0,"updated_at":"2026-03-21T02:06:58.318693+05:30"},{"city":"Mussoorie","state":"Uttarakhand","latitude":30.4599,"longitude":78.0664,"temp":8.2,"humidity":78,"rain":0.0,"pressure":799.4,"uv_index":6.2,"wind_gusts":29.9,"aqi":61,"pm10":7.9,"pm2_5":7.9,"mosquito_risk":3,"arthritis_risk":5,"migraine_risk":7,"frizz_risk":0,"updated_at":"2026-03-21T02:06:58.318699+05:30"},{"city":"Dharamshala","state":"Himachal Pradesh","latitude":32.219,"longitude":76.3234,"temp":11.4,"humidity":64,"rain":0.0,"pressure":867.8,"uv_index":6.1,"wind_gusts":20.9,"aqi":41,"pm10":7.7,"pm2_5":6.6,"mosquito_risk":3,"arthritis_risk":5,"migraine_risk":7,"frizz_risk":0,"updated_at":"2026-03-21T02:06:58.318705+05:30"},{"city":"Dalhousie","state":"Himachal Pradesh","latitude":32.5387,"longitude":75.971,"temp":7.8,"humidity":78,"rain":0.0,"pressure":800.4,"uv_index":6.4,"wind_gusts":20.2,"aqi":60,"pm10":40.9,"pm2_5":31.1,"mosquito_risk":3,"arthritis_risk":5,"migraine_risk":7,"frizz_risk":0,"updated_at":"2026-03-21T02:06:58.318711+05:30"},{"city":"Patiala","state":"Punjab","latitude":30.3398,"longitude":76.3869,"temp":14.0,"humidity":100,"rain":0.0,"pressure":982.8,"uv_index":6.2,"wind_gusts":25.6,"aqi":108,"pm10":99.7,"pm2_5":75.4,"mosquito_risk":3,"arthritis_risk":10,"migraine_risk":7,"frizz_risk":0,"updated_at":"2026-03-21T02:06:58.318717+05:30"},{"city":"Bhatinda","state":"Punjab","latitude":30.211,"longitude":74.9455,"temp":14.3,"humidity":95,"rain":0.0,"pressure":988.0,"uv_index":6.05,"wind_gusts":19.4,"aqi":121,"pm10":63.8,"pm2_5":51.8,"mosquito_risk":3,"arthritis_risk":10,"migraine_risk":7,"frizz_risk":0,"updated_at":"2026-03-21T02:06:58.318722+05:30"},{"city":"Rohtak","state":"Haryana","latitude":28.8955,"longitude":76.6066,"temp":14.4,"humidity":100,"rain":0.0,"pressure":986.2,"uv_index":6.1,"wind_gusts":23.4,"aqi":133,"pm10":108.3,"pm2_5":92.7,"mosquito_risk":3,"arthritis_risk":10,"migraine_risk":7,"frizz_risk":0,"updated_at":"2026-03-21T02:06:58.318728+05:30"},{"city":"Panipat","state":"Haryana","latitude":29.3909,"longitude":76.9635,"temp":13.5,"humidity":100,"rain":0.0,"pressure":984.8,"uv_index":6.1,"wind_gusts":26.3,"aqi":133,"pm10":97.8,"pm2_5":80.1,"mosquito_risk":3,"arthritis_risk":10,"migraine_risk":7,"frizz_risk":0,"updated_at":"2026-03-21T02:06:58.318734+05:30"},{"city":"Mathura","state":"Uttar Pradesh","latitude":27.4924,"longitude":77.6737,"temp":14.7,"humidity":98,"rain":0.0,"pressure":991.3,"uv_index":6.7,"wind_gusts":27.4,"aqi":108,"pm10":63.8,"pm2_5":56.1,"mosquito_risk":3,"arthritis_risk":10,"migraine_risk":7,"frizz_risk":0,"updated_at":"2026-03-21T02:06:58.318739+05:30"},{"city":"Vrindavan","state":"Uttar Pradesh","latitude":27.5823,"longitude":77.7027,"temp":14.3,"humidity":99,"rain":0.0,"pressure":991.7,"uv_index":6.65,"wind_gusts":29.2,"aqi":108,"pm10":63.8,"pm2_5":56.1,"mosquito_risk":3,"arthritis_risk":10,"migraine_risk":7,"frizz_risk":0,"updated_at":"2026-03-21T02:06:58.318745+05:30"},{"city":"Ayodhya","state":"Uttar Pradesh","latitude":26.7922,"longitude":82.1998,"temp":18.9,"humidity":89,"rain":0.0,"pressure":998.3,"uv_index":6.8,"wind_gusts":23.4,"aqi":124,"pm10":56.7,"pm2_5":40.2,"mosquito_risk":3,"arthritis_risk":10,"migraine_risk":7,"frizz_risk":1,"updated_at":"2026-03-21T02:06:58.318834+05:30"},{"city":"Ratlam","state":"Madhya Pradesh","latitude":23.3315,"longitude":75.0367,"temp":21.1,"humidity":62,"rain":0.0,"pressure":956.0,"uv_index":7.5,"wind_gusts":22.7,"aqi":67,"pm10":29.2,"pm2_5":17.6,"mosquito_risk":3,"arthritis_risk":5,"migraine_risk":7,"frizz_risk":0,"updated_at":"2026-03-21T02:06:58.318874+05:30"},{"city":"Sagar","state":"Madhya Pradesh","latitude":23.8388,"longitude":78.7378,"temp":17.8,"humidity":92,"rain":0.0,"pressure":951.9,"uv_index":7.85,"wind_gusts":26.3,"aqi":67,"pm10":62.6,"pm2_5":29.9,"mosquito_risk":3,"arthritis_risk":10,"migraine_risk":7,"frizz_risk":1,"updated_at":"2026-03-21T02:06:58.318886+05:30"},{"city":"Satna","state":"Madhya Pradesh","latitude":24.6005,"longitude":80.8322,"temp":19.3,"humidity":91,"rain":0.0,"pressure":974.2,"uv_index":7.8,"wind_gusts":36.0,"aqi":64,"pm10":32.4,"pm2_5":23.2,"mosquito_risk":3,"arthritis_risk":10,"migraine_risk":7,"frizz_risk":1,"updated_at":"2026-03-21T02:06:58.318895+05:30"},{"city":"Akola","state":"Maharashtra","latitude":20.7002,"longitude":77.0082,"temp":24.1,"humidity":64,"rain":0.0,"pressure":976.4,"uv_index":8.25,"wind_gusts":17.3,"aqi":69,"pm10":45.8,"pm2_5":20.4,"mosquito_risk":3,"arthritis_risk":5,"migraine_risk":7,"frizz_risk":1,"updated_at":"2026-03-21T02:06:58.318905+05:30"},{"city":"Amravati","state":"Maharashtra","latitude":20.9374,"longitude":77.7796,"temp":23.5,"humidity":59,"rain":0.0,"pressure":968.5,"uv_index":8.25,"wind_gusts":23.4,"aqi":69,"pm10":43.2,"pm2_5":20.5,"mosquito_risk":0,"arthritis_risk":5,"migraine_risk":7,"frizz_risk":0,"updated_at":"2026-03-21T02:06:58.318914+05:30"},{"city":"Latur","state":"Maharashtra","latitude":18.4088,"longitude":76.5604,"temp":22.4,"humidity":51,"rain":0.0,"pressure":939.7,"uv_index":8.7,"wind_gusts":33.8,"aqi":90,"pm10":39.1,"pm2_5":28.3,"mosquito_risk":0,"arthritis_risk":5,"migraine_risk":7,"frizz_risk":0,"updated_at":"2026-03-21T02:06:58.318922+05:30"},{"city":"Nanded","state":"Maharashtra","latitude":19.1383,"longitude":77.3091,"temp":24.9,"humidity":57,"rain":0.0,"pressure":969.3,"uv_index":8.5,"wind_gusts":25.6,"aqi":74,"pm10":44.6,"pm2_5":36.0,"mosquito_risk":0,"arthritis_risk":5,"migraine_risk":7,"frizz_risk":0,"updated_at":"2026-03-21T02:06:58.318930+05:30"},{"city":"Gulbarga","state":"Karnataka","latitude":17.3297,"longitude":76.8343,"temp":26.5,"humidity":49,"rain":0.0,"pressure":958.0,"uv_index":8.75,"wind_gusts":34.6,"aqi":77,"pm10":32.1,"pm2_5":23.5,"mosquito_risk":4,"arthritis_risk":5,"migraine_risk":7,"frizz_risk":0,"updated_at":"2026-03-21T02:06:58.318938+05:30"},{"city":"Bidar","state":"Karnataka","latitude":17.9104,"longitude":77.5199,"temp":24.4,"humidity":51,"rain":0.0,"pressure":934.9,"uv_index":8.75,"wind_gusts":22.7,"aqi":83,"pm10":45.3,"pm2_5":33.3,"mosquito_risk":0,"arthritis_risk":5,"migraine_risk":7,"frizz_risk":0,"updated_at":"2026-03-21T02:06:58.318945+05:30"},{"city":"Hospet","state":"Karnataka","latitude":15.2689,"longitude":76.3909,"temp":25.1,"humidity":60,"rain":0.0,"pressure":955.3,"uv_index":9.0,"wind_gusts":19.1,"aqi":72,"pm10":46.8,"pm2_5":38.9,"mosquito_risk":4,"arthritis_risk":5,"migraine_risk":7,"frizz_risk":1,"updated_at":"2026-03-21T02:06:58.318953+05:30"},{"city":"Tirupur","state":"Tamil Nadu","latitude":11.1085,"longitude":77.3411,"temp":24.7,"humidity":74,"rain":0.0,"pressure":975.3,"uv_index":9.4,"wind_gusts":28.8,"aqi":75,"pm10":35.3,"pm2_5":31.5,"mosquito_risk":3,"arthritis_risk":5,"migraine_risk":7,"frizz_risk":1,"updated_at":"2026-03-21T02:06:58.318961+05:30"},{"city":"Alappuzha","state":"Kerala","latitude":9.4981,"longitude":76.3388,"temp":28.7,"humidity":72,"rain":0.0,"pressure":1008.5,"uv_index":9.15,"wind_gusts":28.4,"aqi":70,"pm10":41.2,"pm2_5":35.4,"mosquito_risk":7,"arthritis_risk":0,"migraine_risk":4,"frizz_risk":1,"updated_at":"2026-03-21T02:06:58.318969+05:30"},{"city":"Munnar","state":"Kerala","latitude":10.0889,"longitude":77.0595,"temp":18.0,"humidity":89,"rain":0.0,"pressure":855.2,"uv_index":9.6,"wind_gusts":29.9,"aqi":56,"pm10":26.4,"pm2_5":23.2,"mosquito_risk":3,"arthritis_risk":10,"migraine_risk":7,"frizz_risk":1,"updated_at":"2026-03-21T02:06:58.318978+05:30"},{"city":"Silchar","state":"Assam","latitude":24.8333,"longitude":92.7789,"temp":21.9,"humidity":80,"rain":0.0,"pressure":1007.8,"uv_index":7.15,"wind_gusts":30.6,"aqi":103,"pm10":58.2,"pm2_5":50.9,"mosquito_risk":3,"arthritis_risk":5,"migraine_risk":4,"frizz_risk":1,"updated_at":"2026-03-21T02:06:58.318987+05:30"},{"city":"Dibrugarh","state":"Assam","latitude":27.4728,"longitude":94.912,"temp":21.4,"humidity":87,"rain":0.0,"pressure":1000.2,"uv_index":6.65,"wind_gusts":11.5,"aqi":88,"pm10":21.8,"pm2_5":18.5,"mosquito_risk":3,"arthritis_risk":5,"migraine_risk":4,"frizz_risk":1,"updated_at":"2026-03-21T02:06:58.318994+05:30"}]