[{"city":"Delhi","state":"Delhi","latitude":28.6139,"longitude":77.209,"temp":32.2,"humidity":39,"rain":0.0,"pressure":977.8,"uv_index":7.7,"wind_gusts":63.0,"aqi":576,"pm10":903.4,"pm2_5":199.8,"no2":34.9,"co":280.0,"o3":49.0,"so2":18.6,"mosquito_risk":0,"arthritis_risk":5,"migraine_risk":7,"frizz_risk":1,"updated_at":"2026-06-22T01:16:24.311506+05:30"},{"city":"Mumbai","state":"Maharashtra","latitude":19.076,"longitude":72.8777,"temp":29.4,"humidity":76,"rain":0.0,"pressure":1005.8,"uv_index":7.7,"wind_gusts":41.8,"aqi":49,"pm10":13.3,"pm2_5":8.4,"no2":6.4,"co":137.0,"o3":38.0,"so2":4.8,"mosquito_risk":7,"arthritis_risk":5,"migraine_risk":4,"frizz_risk":1,"updated_at":"2026-06-22T01:16:24.311543+05:30"},{"city":"Bangalore","state":"Karnataka","latitude":12.9716,"longitude":77.5946,"temp":21.9,"humidity":94,"rain":0.0,"pressure":911.0,"uv_index":8.9,"wind_gusts":41.0,"aqi":43,"pm10":7.6,"pm2_5":7.2,"no2":16.2,"co":320.0,"o3":33.0,"so2":6.4,"mosquito_risk":3,"arthritis_risk":5,"migraine_risk":7,"frizz_risk":1,"updated_at":"2026-06-22T01:16:24.311558+05:30"},{"city":"Hyderabad","state":"Telangana","latitude":17.385,"longitude":78.4867,"temp":27.5,"humidity":69,"rain":0.0,"pressure":951.5,"uv_index":8.2,"wind_gusts":36.0,"aqi":67,"pm10":23.3,"pm2_5":18.7,"no2":14.5,"co":380.0,"o3":59.0,"so2":5.3,"mosquito_risk":7,"arthritis_risk":5,"migraine_risk":7,"frizz_risk":1,"updated_at":"2026-06-22T01:16:24.311567+05:30"},{"city":"Chennai","state":"Tamil Nadu","latitude":13.0827,"longitude":80.2707,"temp":27.6,"humidity":86,"rain":0.0,"pressure":1006.0,"uv_index":8.7,"wind_gusts":37.1,"aqi":74,"pm10":24.4,"pm2_5":20.2,"no2":12.9,"co":224.0,"o3":80.0,"so2":12.2,"mosquito_risk":7,"arthritis_risk":5,"migraine_risk":4,"frizz_risk":1,"updated_at":"2026-06-22T01:16:24.311576+05:30"},{"city":"Kolkata","state":"West Bengal","latitude":22.5726,"longitude":88.3639,"temp":26.8,"humidity":95,"rain":0.1,"pressure":1002.6,"uv_index":8.5,"wind_gusts":30.2,"aqi":101,"pm10":37.3,"pm2_5":33.4,"no2":8.9,"co":397.0,"o3":116.0,"so2":9.0,"mosquito_risk":10,"arthritis_risk":5,"migraine_risk":4,"frizz_risk":1,"updated_at":"2026-06-22T01:16:24.311583+05:30"},{"city":"Pune","state":"Maharashtra","latitude":18.5204,"longitude":73.8567,"temp":25.3,"humidity":82,"rain":0.0,"pressure":946.1,"uv_index":8.2,"wind_gusts":46.1,"aqi":44,"pm10":14.3,"pm2_5":10.9,"no2":11.8,"co":121.0,"o3":40.0,"so2":9.7,"mosquito_risk":7,"arthritis_risk":5,"migraine_risk":7,"frizz_risk":1,"updated_at":"2026-06-22T01:16:24.311590+05:30"},{"city":"Ahmedabad","state":"Gujarat","latitude":23.0225,"longitude":72.5714,"temp":32.4,"humidity":49,"rain":0.0,"pressure":998.6,"uv_index":8.0,"wind_gusts":42.5,"aqi":71,"pm10":31.3,"pm2_5":18.1,"no2":7.3,"co":147.0,"o3":48.0,"so2":5.2,"mosquito_risk":0,"arthritis_risk":5,"migraine_risk":7,"frizz_risk":1,"updated_at":"2026-06-22T01:16:24.311601+05:30"},{"city":"Jaipur","state":"Rajasthan","latitude":26.9124,"longitude":75.7873,"temp":28.4,"humidity":62,"rain":0.0,"pressure":955.7,"uv_index":8.2,"wind_gusts":56.9,"aqi":122,"pm10":151.8,"pm2_5":52.9,"no2":15.3,"co":250.0,"o3":41.0,"so2":6.0,"mosquito_risk":7,"arthritis_risk":5,"migraine_risk":7,"frizz_risk":1,"updated_at":"2026-06-22T01:16:24.311608+05:30"},{"city":"Lucknow","state":"Uttar Pradesh","latitude":26.8467,"longitude":80.9462,"temp":33.1,"humidity":45,"rain":0.0,"pressure":988.1,"uv_index":7.85,"wind_gusts":37.8,"aqi":266,"pm10":323.2,"pm2_5":91.7,"no2":13.7,"co":198.0,"o3":69.0,"so2":6.9,"mosquito_risk":0,"arthritis_risk":5,"migraine_risk":7,"frizz_risk":1,"updated_at":"2026-06-22T01:16:24.311617+05:30"},{"city":"Kanpur","state":"Uttar Pradesh","latitude":26.4499,"longitude":80.3319,"temp":33.3,"humidity":42,"rain":0.0,"pressure":986.6,"uv_index":8.3,"wind_gusts":40.0,"aqi":362,"pm10":339.0,"pm2_5":79.4,"no2":14.6,"co":146.0,"o3":54.0,"so2":5.8,"mosquito_risk":0,"arthritis_risk":5,"migraine_risk":7,"frizz_risk":1,"updated_at":"2026-06-22T01:16:24.311624+05:30"},{"city":"Chandigarh","state":"Chandigarh","latitude":30.7333,"longitude":76.7794,"temp":27.7,"humidity":60,"rain":0.0,"pressure":962.8,"uv_index":7.3,"wind_gusts":43.6,"aqi":98,"pm10":36.3,"pm2_5":33.3,"no2":26.6,"co":444.0,"o3":59.0,"so2":9.8,"mosquito_risk":4,"arthritis_risk":5,"migraine_risk":7,"frizz_risk":1,"updated_at":"2026-06-22T01:16:24.311630+05:30"},{"city":"Srinagar","state":"Jammu and Kashmir","latitude":34.0837,"longitude":74.7973,"temp":15.2,"humidity":98,"rain":0.0,"pressure":838.5,"uv_index":9.0,"wind_gusts":28.8,"aqi":73,"pm10":41.7,"pm2_5":40.4,"no2":28.6,"co":722.0,"o3":7.0,"so2":1.0,"mosquito_risk":3,"arthritis_risk":10,"migraine_risk":7,"frizz_risk":0,"updated_at":"2026-06-22T01:16:24.311637+05:30"},{"city":"Jammu","state":"Jammu and Kashmir","latitude":32.7266,"longitude":74.857,"temp":29.7,"humidity":48,"rain":0.0,"pressure":967.2,"uv_index":8.6,"wind_gusts":43.6,"aqi":69,"pm10":36.2,"pm2_5":33.9,"no2":41.5,"co":552.0,"o3":19.0,"so2":4.6,"mosquito_risk":4,"arthritis_risk":5,"migraine_risk":7,"frizz_risk":1,"updated_at":"2026-06-22T01:16:24.311644+05:30"},{"city":"Amritsar","state":"Punjab","latitude":31.634,"longitude":74.8723,"temp":26.9,"humidity":71,"rain":0.0,"pressure":974.9,"uv_index":8.1,"wind_gusts":47.5,"aqi":120,"pm10":66.6,"pm2_5":47.1,"no2":31.0,"co":485.0,"o3":54.0,"so2":10.5,"mosquito_risk":7,"arthritis_risk":5,"migraine_risk":7,"frizz_risk":1,"updated_at":"2026-06-22T01:16:24.311651+05:30"},{"city":"Ludhiana","state":"Punjab","latitude":30.901,"longitude":75.8573,"temp":29.9,"humidity":55,"rain":0.0,"pressure":973.1,"uv_index":7.25,"wind_gusts":56.2,"aqi":139,"pm10":142.0,"pm2_5":61.2,"no2":19.9,"co":710.0,"o3":62.0,"so2":6.3,"mosquito_risk":4,"arthritis_risk":5,"migraine_risk":7,"frizz_risk":1,"updated_at":"2026-06-22T01:16:24.311659+05:30"},{"city":"Jalandhar","state":"Punjab","latitude":31.326,"longitude":75.5762,"temp":29.0,"humidity":57,"rain":0.0,"pressure":974.1,"uv_index":7.05,"wind_gusts":51.8,"aqi":139,"pm10":111.3,"pm2_5":59.3,"no2":32.0,"co":714.0,"o3":50.0,"so2":8.3,"mosquito_risk":4,"arthritis_risk":5,"migraine_risk":7,"frizz_risk":1,"updated_at":"2026-06-22T01:16:24.311665+05:30"},{"city":"Dehradun","state":"Uttarakhand","latitude":30.6284,"longitude":78.0322,"temp":17.1,"humidity":90,"rain":0.0,"pressure":827.0,"uv_index":7.35,"wind_gusts":36.4,"aqi":60,"pm10":28.8,"pm2_5":21.5,"no2":23.4,"co":275.0,"o3":44.0,"so2":0.9,"mosquito_risk":3,"arthritis_risk":10,"migraine_risk":7,"frizz_risk":0,"updated_at":"2026-06-22T01:16:24.311671+05:30"},{"city":"Shimla","state":"Himachal Pradesh","latitude":31.1048,"longitude":77.1734,"temp":14.8,"humidity":65,"rain":0.0,"pressure":781.1,"uv_index":6.2,"wind_gusts":41.0,"aqi":72,"pm10":26.7,"pm2_5":19.9,"no2":18.4,"co":267.0,"o3":80.0,"so2":4.6,"mosquito_risk":3,"arthritis_risk":5,"migraine_risk":7,"frizz_risk":0,"updated_at":"2026-06-22T01:16:24.311677+05:30"},{"city":"Manali","state":"Himachal Pradesh","latitude":32.2396,"longitude":77.1887,"temp":13.9,"humidity":73,"rain":0.0,"pressure":814.9,"uv_index":7.35,"wind_gusts":37.8,"aqi":47,"pm10":6.3,"pm2_5":4.4,"no2":39.0,"co":237.0,"o3":79.0,"so2":0.0,"mosquito_risk":3,"arthritis_risk":5,"migraine_risk":7,"frizz_risk":0,"updated_at":"2026-06-22T01:16:24.311686+05:30"},{"city":"Gurgaon","state":"Haryana","latitude":28.4595,"longitude":77.0266,"temp":29.9,"humidity":44,"rain":0.0,"pressure":976.1,"uv_index":7.85,"wind_gusts":67.0,"aqi":1227,"pm10":1031.9,"pm2_5":186.3,"no2":34.7,"co":170.0,"o3":33.0,"so2":13.8,"mosquito_risk":4,"arthritis_risk":5,"migraine_risk":7,"frizz_risk":1,"updated_at":"2026-06-22T01:16:24.311692+05:30"},{"city":"Noida","state":"Uttar Pradesh","latitude":28.5355,"longitude":77.391,"temp":30.9,"humidity":48,"rain":0.0,"pressure":979.1,"uv_index":7.8,"wind_gusts":50.8,"aqi":1227,"pm10":1031.9,"pm2_5":186.3,"no2":34.7,"co":370.0,"o3":33.0,"so2":13.8,"mosquito_risk":0,"arthritis_risk":5,"migraine_risk":7,"frizz_risk":1,"updated_at":"2026-06-22T01:16:24.311698+05:30"},{"city":"Ghaziabad","state":"Uttar Pradesh","latitude":28.6692,"longitude":77.4538,"temp":30.9,"humidity":45,"rain":0.0,"pressure":977.3,"uv_index":7.8,"wind_gusts":56.9,"aqi":475,"pm10":802.8,"pm2_5":182.5,"no2":39.2,"co":352.0,"o3":50.0,"so2":20.8,"mosquito_risk":0,"arthritis_risk":5,"migraine_risk":7,"frizz_risk":1,"updated_at":"2026-06-22T01:16:24.311704+05:30"},{"city":"Faridabad","state":"Haryana","latitude":28.4089,"longitude":77.3178,"temp":31.9,"humidity":39,"rain":0.0,"pressure":978.4,"uv_index":7.85,"wind_gusts":59.8,"aqi":1227,"pm10":1031.9,"pm2_5":186.3,"no2":34.7,"co":217.0,"o3":33.0,"so2":13.8,"mosquito_risk":0,"arthritis_risk":5,"migraine_risk":7,"frizz_risk":1,"updated_at":"2026-06-22T01:16:24.311710+05:30"},{"city":"Meerut","state":"Uttar Pradesh","latitude":28.9845,"longitude":77.7064,"temp":30.4,"humidity":49,"rain":0.0,"pressure":976.0,"uv_index":7.7,"wind_gusts":49.3,"aqi":475,"pm10":802.8,"pm2_5":182.5,"no2":39.2,"co":352.0,"o3":50.0,"so2":20.8,"mosquito_risk":0,"arthritis_risk":5,"migraine_risk":7,"frizz_risk":1,"updated_at":"2026-06-22T01:16:24.311715+05:30"},{"city":"Agra","state":"Uttar Pradesh","latitude":27.1767,"longitude":78.0081,"temp":31.6,"humidity":47,"rain":0.0,"pressure":982.9,"uv_index":7.2,"wind_gusts":72.0,"aqi":758,"pm10":318.5,"pm2_5":62.9,"no2":28.4,"co":174.0,"o3":33.0,"so2":8.1,"mosquito_risk":0,"arthritis_risk":5,"migraine_risk":7,"frizz_risk":1,"updated_at":"2026-06-22T01:16:24.311721+05:30"},{"city":"Varanasi","state":"Uttar Pradesh","latitude":25.3176,"longitude":82.9739,"temp":32.6,"humidity":54,"rain":0.0,"pressure":992.2,"uv_index":8.8,"wind_gusts":36.0,"aqi":109,"pm10":58.1,"pm2_5":33.2,"no2":11.0,"co":197.0,"o3":60.0,"so2":5.5,"mosquito_risk":0,"arthritis_risk":5,"migraine_risk":7,"frizz_risk":1,"updated_at":"2026-06-22T01:16:24.311727+05:30"},{"city":"Prayagraj","state":"Uttar Pradesh","latitude":25.4358,"longitude":81.8463,"temp":33.5,"humidity":52,"rain":0.0,"pressure":990.9,"uv_index":8.55,"wind_gusts":37.4,"aqi":121,"pm10":49.5,"pm2_5":32.6,"no2":13.7,"co":165.0,"o3":54.0,"so2":6.7,"mosquito_risk":0,"arthritis_risk":5,"migraine_risk":7,"frizz_risk":1,"updated_at":"2026-06-22T01:16:24.311734+05:30"},{"city":"Gorakhpur","state":"Uttar Pradesh","latitude":26.7606,"longitude":83.3732,"temp":30.4,"humidity":64,"rain":0.1,"pressure":992.1,"uv_index":8.3,"wind_gusts":31.7,"aqi":161,"pm10":172.3,"pm2_5":101.0,"no2":36.4,"co":328.0,"o3":45.0,"so2":14.6,"mosquito_risk":6,"arthritis_risk":5,"migraine_risk":7,"frizz_risk":1,"updated_at":"2026-06-22T01:16:24.311740+05:30"},{"city":"Bareilly","state":"Uttar Pradesh","latitude":28.367,"longitude":79.4304,"temp":30.7,"humidity":55,"rain":0.0,"pressure":981.6,"uv_index":8.1,"wind_gusts":42.8,"aqi":165,"pm10":258.9,"pm2_5":97.1,"no2":16.3,"co":384.0,"o3":85.0,"so2":11.7,"mosquito_risk":0,"arthritis_risk":5,"migraine_risk":7,"frizz_risk":1,"updated_at":"2026-06-22T01:16:24.311748+05:30"},{"city":"Aligarh","state":"Uttar Pradesh","latitude":27.8974,"longitude":78.088,"temp":30.1,"humidity":54,"rain":0.0,"pressure":980.4,"uv_index":7.85,"wind_gusts":51.1,"aqi":799,"pm10":495.5,"pm2_5":92.4,"no2":18.9,"co":295.0,"o3":48.0,"so2":5.5,"mosquito_risk":0,"arthritis_risk":5,"migraine_risk":7,"frizz_risk":1,"updated_at":"2026-06-22T01:16:24.311754+05:30"},{"city":"Moradabad","state":"Uttar Pradesh","latitude":28.8386,"longitude":78.7733,"temp":30.5,"humidity":55,"rain":0.0,"pressure":977.9,"uv_index":7.9,"wind_gusts":47.5,"aqi":173,"pm10":348.3,"pm2_5":114.1,"no2":25.5,"co":411.0,"o3":60.0,"so2":12.7,"mosquito_risk":0,"arthritis_risk":5,"migraine_risk":7,"frizz_risk":1,"updated_at":"2026-06-22T01:16:24.311760+05:30"},{"city":"Saharanpur","state":"Uttar Pradesh","latitude":29.9637,"longitude":77.546,"temp":29.1,"humidity":53,"rain":0.0,"pressure":969.9,"uv_index":7.0,"wind_gusts":47.9,"aqi":166,"pm10":516.0,"pm2_5":129.5,"no2":22.7,"co":352.0,"o3":69.0,"so2":10.3,"mosquito_risk":4,"arthritis_risk":5,"migraine_risk":7,"frizz_risk":1,"updated_at":"2026-06-22T01:16:24.311766+05:30"},{"city":"Jhansi","state":"Uttar Pradesh","latitude":25.4484,"longitude":78.5685,"temp":30.4,"humidity":55,"rain":0.0,"pressure":974.0,"uv_index":7.85,"wind_gusts":43.2,"aqi":98,"pm10":67.5,"pm2_5":34.5,"no2":8.0,"co":146.0,"o3":47.0,"so2":2.4,"mosquito_risk":0,"arthritis_risk":5,"migraine_risk":7,"frizz_risk":1,"updated_at":"2026-06-22T01:16:27.565095+05:30"},{"city":"Surat","state":"Gujarat","latitude":21.1702,"longitude":72.8311,"temp":29.7,"humidity":78,"rain":0.0,"pressure":1003.9,"uv_index":7.45,"wind_gusts":34.2,"aqi":59,"pm10":20.9,"pm2_5":14.4,"no2":16.6,"co":207.0,"o3":32.0,"so2":27.5,"mosquito_risk":7,"arthritis_risk":5,"migraine_risk":4,"frizz_risk":1,"updated_at":"2026-06-22T01:16:27.565126+05:30"},{"city":"Vadodara","state":"Gujarat","latitude":22.3072,"longitude":73.1812,"temp":29.9,"humidity":75,"rain":0.0,"pressure":1001.2,"uv_index":8.0,"wind_gusts":45.0,"aqi":55,"pm10":16.8,"pm2_5":12.2,"no2":14.2,"co":173.0,"o3":29.0,"so2":14.3,"mosquito_risk":7,"arthritis_risk":5,"migraine_risk":4,"frizz_risk":1,"updated_at":"2026-06-22T01:16:27.565137+05:30"},{"city":"Rajkot","state":"Gujarat","latitude":22.3039,"longitude":70.8022,"temp":28.7,"humidity":70,"rain":0.0,"pressure":991.5,"uv_index":7.55,"wind_gusts":35.3,"aqi":70,"pm10":44.4,"pm2_5":18.6,"no2":4.1,"co":98.0,"o3":42.0,"so2":3.5,"mosquito_risk":7,"arthritis_risk":5,"migraine_risk":7,"frizz_risk":1,"updated_at":"2026-06-22T01:16:27.565145+05:30"},{"city":"Thane","state":"Maharashtra","latitude":19.2183,"longitude":72.9781,"temp":29.9,"humidity":71,"rain":0.0,"pressure":1005.3,"uv_index":7.7,"wind_gusts":35.3,"aqi":49,"pm10":13.3,"pm2_5":8.4,"no2":6.4,"co":142.0,"o3":38.0,"so2":4.8,"mosquito_risk":7,"arthritis_risk":5,"migraine_risk":4,"frizz_risk":1,"updated_at":"2026-06-22T01:16:27.565153+05:30"},{"city":"Nagpur","state":"Maharashtra","latitude":21.1458,"longitude":79.0882,"temp":31.2,"humidity":52,"rain":0.0,"pressure":970.6,"uv_index":8.2,"wind_gusts":49.0,"aqi":67,"pm10":43.5,"pm2_5":27.4,"no2":15.4,"co":261.0,"o3":56.0,"so2":12.0,"mosquito_risk":0,"arthritis_risk":5,"migraine_risk":7,"frizz_risk":1,"updated_at":"2026-06-22T01:16:27.565160+05:30"},{"city":"Nashik","state":"Maharashtra","latitude":19.9975,"longitude":73.7898,"temp":25.3,"humidity":79,"rain":0.0,"pressure":943.6,"uv_index":7.7,"wind_gusts":41.4,"aqi":32,"pm10":12.0,"pm2_5":8.2,"no2":4.4,"co":135.0,"o3":44.0,"so2":2.7,"mosquito_risk":7,"arthritis_risk":5,"migraine_risk":7,"frizz_risk":1,"updated_at":"2026-06-22T01:16:27.565167+05:30"},{"city":"Aurangabad","state":"Maharashtra","latitude":19.8762,"longitude":75.3433,"temp":29.2,"humidity":56,"rain":0.0,"pressure":942.3,"uv_index":8.85,"wind_gusts":62.3,"aqi":40,"pm10":15.5,"pm2_5":12.5,"no2":12.8,"co":142.0,"o3":44.0,"so2":7.1,"mosquito_risk":4,"arthritis_risk":5,"migraine_risk":7,"frizz_risk":1,"updated_at":"2026-06-22T01:16:27.565174+05:30"},{"city":"Solapur","state":"Maharashtra","latitude":17.6599,"longitude":75.9064,"temp":29.0,"humidity":61,"rain":0.0,"pressure":955.8,"uv_index":8.8,"wind_gusts":63.0,"aqi":41,"pm10":6.6,"pm2_5":5.9,"no2":5.1,"co":116.0,"o3":54.0,"so2":1.9,"mosquito_risk":7,"arthritis_risk":5,"migraine_risk":7,"frizz_risk":1,"updated_at":"2026-06-22T01:16:27.565182+05:30"},{"city":"Kolhapur","state":"Maharashtra","latitude":16.705,"longitude":74.2433,"temp":24.7,"humidity":85,"rain":0.0,"pressure":946.4,"uv_index":7.85,"wind_gusts":53.6,"aqi":33,"pm10":7.8,"pm2_5":7.2,"no2":6.6,"co":168.0,"o3":36.0,"so2":2.8,"mosquito_risk":3,"arthritis_risk":5,"migraine_risk":7,"frizz_risk":1,"updated_at":"2026-06-22T01:16:27.565189+05:30"},{"city":"Goa","state":"Goa","latitude":15.2993,"longitude":74.124,"temp":25.7,"humidity":95,"rain":0.0,"pressure":996.7,"uv_index":8.35,"wind_gusts":42.5,"aqi":22,"pm10":7.7,"pm2_5":5.6,"no2":1.9,"co":226.0,"o3":45.0,"so2":0.8,"mosquito_risk":7,"arthritis_risk":5,"migraine_risk":7,"frizz_risk":1,"updated_at":"2026-06-22T01:16:27.565196+05:30"},{"city":"Jodhpur","state":"Rajasthan","latitude":26.2389,"longitude":73.0243,"temp":31.9,"humidity":45,"rain":0.0,"pressure":978.3,"uv_index":8.4,"wind_gusts":41.8,"aqi":150,"pm10":168.1,"pm2_5":43.4,"no2":6.9,"co":150.0,"o3":48.0,"so2":2.1,"mosquito_risk":0,"arthritis_risk":5,"migraine_risk":7,"frizz_risk":1,"updated_at":"2026-06-22T01:16:27.565203+05:30"},{"city":"Udaipur","state":"Rajasthan","latitude":24.5854,"longitude":73.7125,"temp":28.0,"humidity":50,"rain":0.0,"pressure":943.2,"uv_index":8.8,"wind_gusts":38.5,"aqi":72,"pm10":48.9,"pm2_5":23.6,"no2":7.0,"co":129.0,"o3":57.0,"so2":5.6,"mosquito_risk":4,"arthritis_risk":5,"migraine_risk":7,"frizz_risk":1,"updated_at":"2026-06-22T01:16:27.565210+05:30"},{"city":"Kota","state":"Rajasthan","latitude":25.2138,"longitude":75.8648,"temp":29.7,"humidity":56,"rain":0.0,"pressure":974.9,"uv_index":8.35,"wind_gusts":41.8,"aqi":88,"pm10":47.8,"pm2_5":27.9,"no2":8.9,"co":262.0,"o3":50.0,"so2":4.6,"mosquito_risk":4,"arthritis_risk":5,"migraine_risk":7,"frizz_risk":1,"updated_at":"2026-06-22T01:16:27.565217+05:30"},{"city":"Bikaner","state":"Rajasthan","latitude":28.0229,"longitude":73.3119,"temp":31.2,"humidity":48,"rain":0.0,"pressure":975.8,"uv_index":8.45,"wind_gusts":64.1,"aqi":154,"pm10":193.7,"pm2_5":51.9,"no2":2.9,"co":119.0,"o3":61.0,"so2":2.6,"mosquito_risk":0,"arthritis_risk":5,"migraine_risk":7,"frizz_risk":1,"updated_at":"2026-06-22T01:16:27.565224+05:30"},{"city":"Ajmer","state":"Rajasthan","latitude":26.4499,"longitude":74.6399,"temp":28.6,"humidity":58,"rain":0.0,"pressure":950.8,"uv_index":8.35,"wind_gusts":57.2,"aqi":94,"pm10":54.7,"pm2_5":25.0,"no2":8.1,"co":142.0,"o3":48.0,"so2":4.2,"mosquito_risk":4,"arthritis_risk":5,"migraine_risk":7,"frizz_risk":1,"updated_at":"2026-06-22T01:16:27.565231+05:30"},{"city":"Gwalior","state":"Madhya Pradesh","latitude":26.2183,"longitude":78.1828,"temp":30.5,"humidity":53,"rain":0.0,"pressure":978.8,"uv_index":7.65,"wind_gusts":64.4,"aqi":101,"pm10":77.5,"pm2_5":35.0,"no2":7.0,"co":127.0,"o3":52.0,"so2":2.6,"mosquito_risk":0,"arthritis_risk":5,"migraine_risk":7,"frizz_risk":1,"updated_at":"2026-06-22T01:16:27.565237+05:30"},{"city":"Indore","state":"Madhya Pradesh","latitude":22.7196,"longitude":75.8577,"temp":28.9,"humidity":55,"rain":0.0,"pressure":945.8,"uv_index":8.5,"wind_gusts":52.2,"aqi":76,"pm10":34.9,"pm2_5":25.7,"no2":11.0,"co":189.0,"o3":55.0,"so2":6.6,"mosquito_risk":4,"arthritis_risk":5,"migraine_risk":7,"frizz_risk":1,"updated_at":"2026-06-22T01:16:27.565244+05:30"},{"city":"Bhopal","state":"Madhya Pradesh","latitude":23.2599,"longitude":77.4126,"temp":27.6,"humidity":72,"rain":0.0,"pressure":950.6,"uv_index":8.6,"wind_gusts":28.4,"aqi":88,"pm10":49.7,"pm2_5":31.8,"no2":10.8,"co":270.0,"o3":50.0,"so2":4.6,"mosquito_risk":7,"arthritis_risk":5,"migraine_risk":7,"frizz_risk":1,"updated_at":"2026-06-22T01:16:27.565251+05:30"},{"city":"Jabalpur","state":"Madhya Pradesh","latitude":23.1815,"longitude":79.9864,"temp":29.2,"humidity":71,"rain":0.0,"pressure":958.5,"uv_index":7.25,"wind_gusts":40.7,"aqi":77,"pm10":37.8,"pm2_5":26.2,"no2":14.1,"co":233.0,"o3":51.0,"so2":4.8,"mosquito_risk":7,"arthritis_risk":5,"migraine_risk":7,"frizz_risk":1,"updated_at":"2026-06-22T01:16:27.565258+05:30"},{"city":"Ujjain","state":"Madhya Pradesh","latitude":23.1765,"longitude":75.7885,"temp":29.1,"humidity":56,"rain":0.0,"pressure":951.2,"uv_index":7.8,"wind_gusts":41.8,"aqi":71,"pm10":32.1,"pm2_5":22.8,"no2":6.1,"co":202.0,"o3":64.0,"so2":5.6,"mosquito_risk":4,"arthritis_risk":5,"migraine_risk":7,"frizz_risk":1,"updated_at":"2026-06-22T01:16:27.565266+05:30"},{"city":"Visakhapatnam","state":"Andhra Pradesh","latitude":17.6868,"longitude":83.2185,"temp":28.7,"humidity":94,"rain":0.0,"pressure":1001.6,"uv_index":5.25,"wind_gusts":48.6,"aqi":73,"pm10":27.6,"pm2_5":24.7,"no2":18.4,"co":267.0,"o3":73.0,"so2":29.4,"mosquito_risk":7,"arthritis_risk":5,"migraine_risk":0,"frizz_risk":1,"updated_at":"2026-06-22T01:16:27.565273+05:30"},{"city":"Vijayawada","state":"Andhra Pradesh","latitude":16.5062,"longitude":80.648,"temp":29.1,"humidity":81,"rain":0.0,"pressure":1000.5,"uv_index":8.9,"wind_gusts":42.1,"aqi":81,"pm10":35.2,"pm2_5":31.5,"no2":16.5,"co":252.0,"o3":57.0,"so2":6.4,"mosquito_risk":7,"arthritis_risk":5,"migraine_risk":4,"frizz_risk":1,"updated_at":"2026-06-22T01:16:27.565279+05:30"},{"city":"Guntur","state":"Andhra Pradesh","latitude":16.3067,"longitude":80.4365,"temp":29.5,"humidity":78,"rain":0.0,"pressure":1001.8,"uv_index":8.8,"wind_gusts":46.4,"aqi":79,"pm10":27.8,"pm2_5":25.9,"no2":17.4,"co":242.0,"o3":53.0,"so2":5.7,"mosquito_risk":7,"arthritis_risk":5,"migraine_risk":4,"frizz_risk":1,"updated_at":"2026-06-22T01:16:27.565287+05:30"},{"city":"Nellore","state":"Andhra Pradesh","latitude":14.4426,"longitude":79.9865,"temp":28.0,"humidity":77,"rain":0.0,"pressure":1004.2,"uv_index":3.7,"wind_gusts":36.4,"aqi":78,"pm10":24.3,"pm2_5":19.7,"no2":6.5,"co":224.0,"o3":99.0,"so2":5.6,"mosquito_risk":7,"arthritis_risk":5,"migraine_risk":0,"frizz_risk":1,"updated_at":"2026-06-22T01:16:27.565295+05:30"},{"city":"Kurnool","state":"Andhra Pradesh","latitude":15.8281,"longitude":78.0373,"temp":28.4,"humidity":62,"rain":0.0,"pressure":975.6,"uv_index":8.5,"wind_gusts":51.1,"aqi":57,"pm10":14.9,"pm2_5":13.2,"no2":7.8,"co":151.0,"o3":67.0,"so2":5.6,"mosquito_risk":7,"arthritis_risk":5,"migraine_risk":7,"frizz_risk":1,"updated_at":"2026-06-22T01:16:27.565303+05:30"},{"city":"Kakinada","state":"Andhra Pradesh","latitude":16.9891,"longitude":82.2475,"temp":28.8,"humidity":87,"rain":0.0,"pressure":1005.6,"uv_index":7.65,"wind_gusts":43.9,"aqi":72,"pm10":34.5,"pm2_5":27.1,"no2":4.5,"co":291.0,"o3":112.0,"so2":6.2,"mosquito_risk":7,"arthritis_risk":5,"migraine_risk":4,"frizz_risk":1,"updated_at":"2026-06-22T01:16:27.565310+05:30"},{"city":"Tirupati","state":"Andhra Pradesh","latitude":13.6288,"longitude":79.4192,"temp":26.1,"humidity":80,"rain":0.0,"pressure":990.2,"uv_index":8.2,"wind_gusts":42.5,"aqi":75,"pm10":26.0,"pm2_5":22.7,"no2":12.2,"co":191.0,"o3":69.0,"so2":2.6,"mosquito_risk":7,"arthritis_risk":5,"migraine_risk":7,"frizz_risk":1,"updated_at":"2026-06-22T01:16:27.565317+05:30"},{"city":"Warangal","state":"Telangana","latitude":17.9689,"longitude":79.5941,"temp":28.4,"humidity":71,"rain":0.0,"pressure":976.9,"uv_index":8.45,"wind_gusts":40.7,"aqi":74,"pm10":31.2,"pm2_5":27.0,"no2":15.4,"co":268.0,"o3":46.0,"so2":5.4,"mosquito_risk":7,"arthritis_risk":5,"migraine_risk":7,"frizz_risk":1,"updated_at":"2026-06-22T01:16:27.565323+05:30"},{"city":"Nizamabad","state":"Telangana","latitude":18.6725,"longitude":78.0941,"temp":29.9,"humidity":60,"rain":0.0,"pressure":962.6,"uv_index":6.05,"wind_gusts":51.5,"aqi":65,"pm10":28.8,"pm2_5":25.5,"no2":13.1,"co":194.0,"o3":59.0,"so2":3.9,"mosquito_risk":4,"arthritis_risk":5,"migraine_risk":7,"frizz_risk":1,"updated_at":"2026-06-22T01:16:27.565330+05:30"},{"city":"Mysore","state":"Karnataka","latitude":12.2958,"longitude":76.6396,"temp":21.8,"humidity":95,"rain":0.0,"pressure":927.6,"uv_index":8.85,"wind_gusts":43.6,"aqi":24,"pm10":4.2,"pm2_5":4.0,"no2":6.3,"co":175.0,"o3":37.0,"so2":2.2,"mosquito_risk":3,"arthritis_risk":5,"migraine_risk":7,"frizz_risk":1,"updated_at":"2026-06-22T01:16:27.565337+05:30"},{"city":"Mangalore","state":"Karnataka","latitude":12.9141,"longitude":74.856,"temp":24.8,"humidity":98,"rain":0.1,"pressure":1006.8,"uv_index":8.45,"wind_gusts":46.4,"aqi":25,"pm10":9.4,"pm2_5":7.3,"no2":6.0,"co":172.0,"o3":35.0,"so2":2.5,"mosquito_risk":6,"arthritis_risk":5,"migraine_risk":4,"frizz_risk":1,"updated_at":"2026-06-22T01:16:27.565344+05:30"},{"city":"Hubli-Dharwad","state":"Karnataka","latitude":15.3647,"longitude":75.124,"temp":23.2,"humidity":92,"rain":0.0,"pressure":939.8,"uv_index":8.9,"wind_gusts":51.5,"aqi":20,"pm10":1.9,"pm2_5":1.5,"no2":3.5,"co":112.0,"o3":40.0,"so2":1.2,"mosquito_risk":3,"arthritis_risk":5,"migraine_risk":7,"frizz_risk":1,"updated_at":"2026-06-22T01:16:27.565350+05:30"},{"city":"Belgaum","state":"Karnataka","latitude":15.8497,"longitude":74.4977,"temp":22.9,"humidity":91,"rain":0.0,"pressure":924.4,"uv_index":8.05,"wind_gusts":48.2,"aqi":26,"pm10":3.3,"pm2_5":3.0,"no2":3.4,"co":109.0,"o3":41.0,"so2":1.5,"mosquito_risk":3,"arthritis_risk":5,"migraine_risk":7,"frizz_risk":1,"updated_at":"2026-06-22T01:16:30.797058+05:30"},{"city":"Coimbatore","state":"Tamil Nadu","latitude":11.0168,"longitude":76.9558,"temp":23.6,"humidity":92,"rain":0.0,"pressure":961.2,"uv_index":8.7,"wind_gusts":59.4,"aqi":22,"pm10":4.3,"pm2_5":4.0,"no2":5.4,"co":146.0,"o3":40.0,"so2":2.8,"mosquito_risk":3,"arthritis_risk":5,"migraine_risk":7,"frizz_risk":1,"updated_at":"2026-06-22T01:16:30.797085+05:30"},{"city":"Madurai","state":"Tamil Nadu","latitude":9.9252,"longitude":78.1198,"temp":28.6,"humidity":66,"rain":0.0,"pressure":992.8,"uv_index":7.35,"wind_gusts":46.4,"aqi":72,"pm10":29.0,"pm2_5":25.9,"no2":38.3,"co":286.0,"o3":8.0,"so2":7.8,"mosquito_risk":7,"arthritis_risk":5,"migraine_risk":7,"frizz_risk":1,"updated_at":"2026-06-22T01:16:30.797096+05:30"},{"city":"Trichy","state":"Tamil Nadu","latitude":10.7905,"longitude":78.7047,"temp":28.0,"humidity":77,"rain":0.0,"pressure":999.5,"uv_index":7.3,"wind_gusts":37.1,"aqi":57,"pm10":14.6,"pm2_5":12.3,"no2":12.8,"co":280.0,"o3":51.0,"so2":3.8,"mosquito_risk":7,"arthritis_risk":5,"migraine_risk":7,"frizz_risk":1,"updated_at":"2026-06-22T01:16:30.797104+05:30"},{"city":"Salem","state":"Tamil Nadu","latitude":11.6643,"longitude":78.146,"temp":26.6,"humidity":79,"rain":0.0,"pressure":977.2,"uv_index":8.25,"wind_gusts":33.8,"aqi":61,"pm10":17.6,"pm2_5":16.1,"no2":20.0,"co":279.0,"o3":37.0,"so2":6.6,"mosquito_risk":7,"arthritis_risk":5,"migraine_risk":7,"frizz_risk":1,"updated_at":"2026-06-22T01:16:30.797111+05:30"},{"city":"Tirunelveli","state":"Tamil Nadu","latitude":8.7139,"longitude":77.7567,"temp":28.5,"humidity":69,"rain":0.0,"pressure":1003.3,"uv_index":8.05,"wind_gusts":36.4,"aqi":27,"pm10":6.2,"pm2_5":5.3,"no2":5.7,"co":199.0,"o3":36.0,"so2":1.7,"mosquito_risk":7,"arthritis_risk":5,"migraine_risk":4,"frizz_risk":1,"updated_at":"2026-06-22T01:16:30.797117+05:30"},{"city":"Vellore","state":"Tamil Nadu","latitude":12.9165,"longitude":79.1325,"temp":25.0,"humidity":97,"rain":0.0,"pressure":983.6,"uv_index":8.6,"wind_gusts":29.5,"aqi":80,"pm10":28.6,"pm2_5":24.3,"no2":16.1,"co":195.0,"o3":56.0,"so2":4.6,"mosquito_risk":7,"arthritis_risk":5,"migraine_risk":7,"frizz_risk":1,"updated_at":"2026-06-22T01:16:30.797124+05:30"},{"city":"Erode","state":"Tamil Nadu","latitude":11.341,"longitude":77.7172,"temp":26.2,"humidity":80,"rain":0.0,"pressure":989.0,"uv_index":8.2,"wind_gusts":58.7,"aqi":40,"pm10":10.3,"pm2_5":9.5,"no2":12.2,"co":185.0,"o3":34.0,"so2":3.9,"mosquito_risk":7,"arthritis_risk":5,"migraine_risk":7,"frizz_risk":1,"updated_at":"2026-06-22T01:16:30.797130+05:30"},{"city":"Kochi","state":"Kerala","latitude":9.9312,"longitude":76.2673,"temp":25.1,"humidity":94,"rain":0.0,"pressure":1009.8,"uv_index":8.1,"wind_gusts":39.2,"aqi":44,"pm10":12.6,"pm2_5":11.6,"no2":13.1,"co":128.0,"o3":21.0,"so2":5.0,"mosquito_risk":7,"arthritis_risk":0,"migraine_risk":4,"frizz_risk":1,"updated_at":"2026-06-22T01:16:30.797137+05:30"},{"city":"Thiruvananthapuram","state":"Kerala","latitude":8.5241,"longitude":76.9366,"temp":23.7,"humidity":98,"rain":0.0,"pressure":1009.8,"uv_index":6.95,"wind_gusts":40.7,"aqi":25,"pm10":8.0,"pm2_5":5.0,"no2":2.5,"co":144.0,"o3":52.0,"so2":1.1,"mosquito_risk":3,"arthritis_risk":0,"migraine_risk":4,"frizz_risk":1,"updated_at":"2026-06-22T01:16:30.797144+05:30"},{"city":"Kozhikode","state":"Kerala","latitude":11.2588,"longitude":75.7804,"temp":24.4,"humidity":99,"rain":0.0,"pressure":1008.3,"uv_index":8.45,"wind_gusts":36.7,"aqi":26,"pm10":5.4,"pm2_5":3.2,"no2":0.9,"co":264.0,"o3":53.0,"so2":0.6,"mosquito_risk":3,"arthritis_risk":0,"migraine_risk":4,"frizz_risk":1,"updated_at":"2026-06-22T01:16:30.797150+05:30"},{"city":"Thrissur","state":"Kerala","latitude":10.5276,"longitude":76.2144,"temp":23.9,"humidity":99,"rain":0.0,"pressure":1007.8,"uv_index":7.95,"wind_gusts":35.6,"aqi":43,"pm10":13.6,"pm2_5":12.8,"no2":12.2,"co":283.0,"o3":22.0,"so2":4.2,"mosquito_risk":3,"arthritis_risk":5,"migraine_risk":4,"frizz_risk":1,"updated_at":"2026-06-22T01:16:30.797157+05:30"},{"city":"Kannur","state":"Kerala","latitude":11.8745,"longitude":75.3704,"temp":24.9,"humidity":98,"rain":0.0,"pressure":1007.4,"uv_index":8.55,"wind_gusts":41.8,"aqi":21,"pm10":7.9,"pm2_5":6.3,"no2":5.3,"co":185.0,"o3":36.0,"so2":1.9,"mosquito_risk":3,"arthritis_risk":5,"migraine_risk":4,"frizz_risk":1,"updated_at":"2026-06-22T01:16:30.797164+05:30"},{"city":"Patna","state":"Bihar","latitude":25.5941,"longitude":85.1376,"temp":30.4,"humidity":66,"rain":0.0,"pressure":995.1,"uv_index":8.9,"wind_gusts":29.5,"aqi":156,"pm10":85.0,"pm2_5":56.0,"no2":20.9,"co":290.0,"o3":55.0,"so2":12.6,"mosquito_risk":3,"arthritis_risk":5,"migraine_risk":7,"frizz_risk":1,"updated_at":"2026-06-22T01:16:30.797170+05:30"},{"city":"Gaya","state":"Bihar","latitude":24.7914,"longitude":85.0002,"temp":29.2,"humidity":68,"rain":0.0,"pressure":989.0,"uv_index":8.65,"wind_gusts":35.3,"aqi":135,"pm10":55.9,"pm2_5":35.3,"no2":13.8,"co":215.0,"o3":71.0,"so2":19.4,"mosquito_risk":7,"arthritis_risk":5,"migraine_risk":7,"frizz_risk":1,"updated_at":"2026-06-22T01:16:30.797177+05:30"},{"city":"Muzaffarpur","state":"Bihar","latitude":26.1209,"longitude":85.3647,"temp":28.3,"humidity":83,"rain":0.0,"pressure":995.8,"uv_index":8.9,"wind_gusts":30.6,"aqi":158,"pm10":84.8,"pm2_5":58.4,"no2":18.4,"co":299.0,"o3":79.0,"so2":12.5,"mosquito_risk":7,"arthritis_risk":5,"migraine_risk":7,"frizz_risk":1,"updated_at":"2026-06-22T01:16:30.797183+05:30"},{"city":"Bhagalpur","state":"Bihar","latitude":25.2425,"longitude":87.0117,"temp":29.7,"humidity":79,"rain":0.0,"pressure":996.2,"uv_index":8.7,"wind_gusts":24.5,"aqi":127,"pm10":63.6,"pm2_5":52.6,"no2":14.3,"co":174.0,"o3":92.0,"so2":19.3,"mosquito_risk":7,"arthritis_risk":5,"migraine_risk":7,"frizz_risk":1,"updated_at":"2026-06-22T01:16:30.797189+05:30"},{"city":"Ranchi","state":"Jharkhand","latitude":23.3441,"longitude":85.3096,"temp":25.5,"humidity":76,"rain":0.0,"pressure":934.6,"uv_index":6.6,"wind_gusts":33.5,"aqi":98,"pm10":42.8,"pm2_5":40.9,"no2":9.4,"co":282.0,"o3":120.0,"so2":11.7,"mosquito_risk":7,"arthritis_risk":5,"migraine_risk":7,"frizz_risk":1,"updated_at":"2026-06-22T01:16:30.797195+05:30"},{"city":"Jamshedpur","state":"Jharkhand","latitude":22.8046,"longitude":86.2029,"temp":27.1,"humidity":94,"rain":0.1,"pressure":987.7,"uv_index":6.7,"wind_gusts":38.5,"aqi":128,"pm10":51.5,"pm2_5":48.2,"no2":20.9,"co":496.0,"o3":76.0,"so2":22.2,"mosquito_risk":10,"arthritis_risk":5,"migraine_risk":7,"frizz_risk":1,"updated_at":"2026-06-22T01:16:30.797202+05:30"},{"city":"Dhanbad","state":"Jharkhand","latitude":23.7957,"longitude":86.4304,"temp":26.7,"humidity":90,"rain":0.0,"pressure":976.1,"uv_index":7.25,"wind_gusts":37.1,"aqi":145,"pm10":64.0,"pm2_5":61.9,"no2":39.0,"co":344.0,"o3":78.0,"so2":92.7,"mosquito_risk":7,"arthritis_risk":5,"migraine_risk":7,"frizz_risk":1,"updated_at":"2026-06-22T01:16:30.797208+05:30"},{"city":"Bokaro","state":"Jharkhand","latitude":23.6693,"longitude":86.1511,"temp":27.1,"humidity":86,"rain":0.0,"pressure":980.0,"uv_index":6.85,"wind_gusts":35.3,"aqi":118,"pm10":53.7,"pm2_5":51.2,"no2":25.9,"co":366.0,"o3":97.0,"so2":63.6,"mosquito_risk":7,"arthritis_risk":5,"migraine_risk":7,"frizz_risk":1,"updated_at":"2026-06-22T01:16:30.797215+05:30"},{"city":"Bhubaneswar","state":"Odisha","latitude":20.2961,"longitude":85.8245,"temp":28.7,"humidity":87,"rain":0.0,"pressure":999.0,"uv_index":8.35,"wind_gusts":36.4,"aqi":97,"pm10":30.9,"pm2_5":29.3,"no2":10.8,"co":273.0,"o3":87.0,"so2":7.0,"mosquito_risk":7,"arthritis_risk":5,"migraine_risk":7,"frizz_risk":1,"updated_at":"2026-06-22T01:16:30.797220+05:30"},{"city":"Cuttack","state":"Odisha","latitude":20.4625,"longitude":85.8828,"temp":28.3,"humidity":90,"rain":0.0,"pressure":1000.6,"uv_index":8.35,"wind_gusts":37.8,"aqi":97,"pm10":30.9,"pm2_5":29.3,"no2":10.8,"co":281.0,"o3":87.0,"so2":7.0,"mosquito_risk":7,"arthritis_risk":5,"migraine_risk":4,"frizz_risk":1,"updated_at":"2026-06-22T01:16:30.797227+05:30"},{"city":"Rourkela","state":"Odisha","latitude":22.2604,"longitude":84.8536,"temp":27.6,"humidity":77,"rain":0.0,"pressure":981.5,"uv_index":8.9,"wind_gusts":51.8,"aqi":111,"pm10":46.3,"pm2_5":42.0,"no2":15.3,"co":529.0,"o3":81.0,"so2":8.3,"mosquito_risk":7,"arthritis_risk":5,"migraine_risk":7,"frizz_risk":1,"updated_at":"2026-06-22T01:16:30.797233+05:30"},{"city":"Raipur","state":"Chhattisgarh","latitude":21.2514,"longitude":81.6296,"temp":31.7,"humidity":48,"rain":0.0,"pressure":971.8,"uv_index":8.95,"wind_gusts":42.8,"aqi":82,"pm10":38.9,"pm2_5":33.9,"no2":32.5,"co":487.0,"o3":49.0,"so2":43.9,"mosquito_risk":0,"arthritis_risk":5,"migraine_risk":7,"frizz_risk":1,"updated_at":"2026-06-22T01:16:30.797239+05:30"},{"city":"Bhilai","state":"Chhattisgarh","latitude":21.1938,"longitude":81.3509,"temp":31.1,"humidity":52,"rain":0.0,"pressure":972.4,"uv_index":8.95,"wind_gusts":42.8,"aqi":77,"pm10":43.3,"pm2_5":36.3,"no2":32.2,"co":832.0,"o3":40.0,"so2":37.9,"mosquito_risk":0,"arthritis_risk":5,"migraine_risk":7,"frizz_risk":1,"updated_at":"2026-06-22T01:16:30.797245+05:30"},{"city":"Guwahati","state":"Assam","latitude":26.1158,"longitude":91.7086,"temp":25.5,"humidity":95,"rain":0.1,"pressure":998.7,"uv_index":6.8,"wind_gusts":26.3,"aqi":70,"pm10":19.8,"pm2_5":17.7,"no2":10.1,"co":352.0,"o3":55.0,"so2":3.1,"mosquito_risk":10,"arthritis_risk":5,"migraine_risk":7,"frizz_risk":1,"updated_at":"2026-06-22T01:16:30.797251+05:30"},{"city":"Agartala","state":"Tripura","latitude":23.8315,"longitude":91.2868,"temp":25.4,"humidity":96,"rain":0.0,"pressure":1003.9,"uv_index":8.4,"wind_gusts":32.8,"aqi":59,"pm10":12.9,"pm2_5":12.1,"no2":8.7,"co":217.0,"o3":67.0,"so2":2.1,"mosquito_risk":7,"arthritis_risk":5,"migraine_risk":4,"frizz_risk":1,"updated_at":"2026-06-22T01:16:30.797258+05:30"},{"city":"Shillong","state":"Meghalaya","latitude":25.5788,"longitude":91.8933,"temp":19.8,"humidity":94,"rain":0.0,"pressure":855.4,"uv_index":5.25,"wind_gusts":32.4,"aqi":37,"pm10":2.1,"pm2_5":1.6,"no2":5.2,"co":200.0,"o3":68.0,"so2":1.7,"mosquito_risk":3,"arthritis_risk":10,"migraine_risk":3,"frizz_risk":1,"updated_at":"2026-06-22T01:16:30.797264+05:30"},{"city":"Imphal","state":"Manipur","latitude":24.817,"longitude":93.9368,"temp":22.2,"humidity":98,"rain":0.1,"pressure":921.5,"uv_index":7.55,"wind_gusts":32.4,"aqi":59,"pm10":16.6,"pm2_5":15.1,"no2":7.3,"co":508.0,"o3":48.0,"so2":2.2,"mosquito_risk":6,"arthritis_risk":5,"migraine_risk":7,"frizz_risk":1,"updated_at":"2026-06-22T01:16:30.797270+05:30"},{"city":"Aizawl","state":"Mizoram","latitude":23.7271,"longitude":92.7176,"temp":19.2,"humidity":98,"rain":0.0,"pressure":890.6,"uv_index":6.8,"wind_gusts":34.9,"aqi":27,"pm10":3.2,"pm2_5":3.0,"no2":2.3,"co":158.0,"o3":49.0,"so2":0.3,"mosquito_risk":3,"arthritis_risk":10,"migraine_risk":7,"frizz_risk":1,"updated_at":"2026-06-22T01:16:30.797276+05:30"},{"city":"Kohima","state":"Nagaland","latitude":25.6701,"longitude":94.1077,"temp":19.2,"humidity":94,"rain":0.0,"pressure":853.2,"uv_index":7.65,"wind_gusts":23.4,"aqi":40,"pm10":8.2,"pm2_5":6.6,"no2":3.7,"co":250.0,"o3":58.0,"so2":0.9,"mosquito_risk":3,"arthritis_risk":10,"migraine_risk":7,"frizz_risk":1,"updated_at":"2026-06-22T01:16:30.797283+05:30"},{"city":"Gangtok","state":"Sikkim","latitude":27.3314,"longitude":88.6138,"temp":18.4,"humidity":92,"rain":1.2,"pressure":835.3,"uv_index":8.4,"wind_gusts":30.6,"aqi":76,"pm10":2.5,"pm2_5":2.2,"no2":3.5,"co":348.0,"o3":128.0,"so2":5.1,"mosquito_risk":6,"arthritis_risk":10,"migraine_risk":7,"frizz_risk":1,"updated_at":"2026-06-22T01:16:30.797289+05:30"},{"city":"Siliguri","state":"West Bengal","latitude":26.7271,"longitude":88.3953,"temp":24.2,"humidity":99,"rain":0.1,"pressure":990.1,"uv_index":7.85,"wind_gusts":25.6,"aqi":62,"pm10":10.4,"pm2_5":8.2,"no2":8.1,"co":404.0,"o3":91.0,"so2":3.8,"mosquito_risk":6,"arthritis_risk":5,"migraine_risk":7,"frizz_risk":1,"updated_at":"2026-06-22T01:16:34.037249+05:30"},{"city":"Durgapur","state":"West Bengal","latitude":23.5204,"longitude":87.3119,"temp":27.0,"humidity":89,"rain":0.0,"pressure":991.4,"uv_index":8.9,"wind_gusts":29.5,"aqi":154,"pm10":65.4,"pm2_5":63.8,"no2":25.7,"co":1176.0,"o3":77.0,"so2":39.2,"mosquito_risk":7,"arthritis_risk":5,"migraine_risk":7,"frizz_risk":1,"updated_at":"2026-06-22T01:16:34.037278+05:30"},{"city":"Asansol","state":"West Bengal","latitude":23.6739,"longitude":86.9524,"temp":26.9,"humidity":90,"rain":0.0,"pressure":989.8,"uv_index":8.85,"wind_gusts":29.9,"aqi":150,"pm10":61.2,"pm2_5":59.6,"no2":32.2,"co":771.0,"o3":66.0,"so2":52.5,"mosquito_risk":7,"arthritis_risk":5,"migraine_risk":7,"frizz_risk":1,"updated_at":"2026-06-22T01:16:34.037289+05:30"},{"city":"Pondicherry","state":"Puducherry","latitude":11.9139,"longitude":79.8145,"temp":28.3,"humidity":85,"rain":0.0,"pressure":1007.8,"uv_index":8.1,"wind_gusts":40.0,"aqi":60,"pm10":15.4,"pm2_5":12.7,"no2":13.3,"co":210.0,"o3":61.0,"so2":13.9,"mosquito_risk":7,"arthritis_risk":5,"migraine_risk":4,"frizz_risk":1,"updated_at":"2026-06-22T01:16:34.037297+05:30"},{"city":"Port Blair","state":"Andaman and Nicobar Islands","latitude":11.6234,"longitude":92.7265,"temp":26.6,"humidity":88,"rain":0.0,"pressure":1009.0,"uv_index":8.75,"wind_gusts":38.9,"aqi":48,"pm10":9.0,"pm2_5":5.1,"no2":0.2,"co":85.0,"o3":45.0,"so2":0.3,"mosquito_risk":7,"arthritis_risk":0,"migraine_risk":4,"frizz_risk":1,"updated_at":"2026-06-22T01:16:34.037304+05:30"},{"city":"Haridwar","state":"Uttarakhand","latitude":29.9457,"longitude":78.1642,"temp":27.4,"humidity":74,"rain":0.0,"pressure":968.3,"uv_index":7.15,"wind_gusts":38.5,"aqi":133,"pm10":172.3,"pm2_5":67.1,"no2":32.2,"co":535.0,"o3":53.0,"so2":12.3,"mosquito_risk":7,"arthritis_risk":5,"migraine_risk":7,"frizz_risk":1,"updated_at":"2026-06-22T01:16:34.037312+05:30"},{"city":"Rishikesh","state":"Uttarakhand","latitude":30.0869,"longitude":78.2676,"temp":24.7,"humidity":84,"rain":0.0,"pressure":961.0,"uv_index":7.15,"wind_gusts":30.2,"aqi":114,"pm10":52.3,"pm2_5":32.2,"no2":16.8,"co":367.0,"o3":100.0,"so2":8.6,"mosquito_risk":3,"arthritis_risk":5,"migraine_risk":7,"frizz_risk":1,"updated_at":"2026-06-22T01:16:34.037319+05:30"},{"city":"Nainital","state":"Uttarakhand","latitude":29.3919,"longitude":79.4542,"temp":15.6,"humidity":93,"rain":0.0,"pressure":802.5,"uv_index":6.9,"wind_gusts":34.9,"aqi":119,"pm10":107.1,"pm2_5":49.8,"no2":17.2,"co":369.0,"o3":86.0,"so2":7.2,"mosquito_risk":3,"arthritis_risk":10,"migraine_risk":7,"frizz_risk":0,"updated_at":"2026-06-22T01:16:34.037327+05:30"},{"city":"Mussoorie","state":"Uttarakhand","latitude":30.4599,"longitude":78.0664,"temp":16.9,"humidity":76,"rain":0.0,"pressure":800.4,"uv_index":7.35,"wind_gusts":38.9,"aqi":84,"pm10":35.6,"pm2_5":31.4,"no2":30.1,"co":353.0,"o3":62.0,"so2":8.4,"mosquito_risk":3,"arthritis_risk":5,"migraine_risk":7,"frizz_risk":0,"updated_at":"2026-06-22T01:16:34.037334+05:30"},{"city":"Dharamshala","state":"Himachal Pradesh","latitude":32.219,"longitude":76.3234,"temp":22.3,"humidity":51,"rain":0.0,"pressure":865.7,"uv_index":6.6,"wind_gusts":42.1,"aqi":42,"pm10":13.5,"pm2_5":12.1,"no2":16.4,"co":268.0,"o3":28.0,"so2":0.4,"mosquito_risk":0,"arthritis_risk":5,"migraine_risk":7,"frizz_risk":0,"updated_at":"2026-06-22T01:16:34.037341+05:30"},{"city":"Dalhousie","state":"Himachal Pradesh","latitude":32.5387,"longitude":75.971,"temp":14.4,"humidity":80,"rain":0.0,"pressure":800.2,"uv_index":7.15,"wind_gusts":32.8,"aqi":62,"pm10":28.1,"pm2_5":24.6,"no2":31.2,"co":288.0,"o3":51.0,"so2":2.6,"mosquito_risk":3,"arthritis_risk":5,"migraine_risk":7,"frizz_risk":0,"updated_at":"2026-06-22T01:16:34.037349+05:30"},{"city":"Patiala","state":"Punjab","latitude":30.3398,"longitude":76.3869,"temp":30.2,"humidity":50,"rain":0.0,"pressure":972.4,"uv_index":5.45,"wind_gusts":50.4,"aqi":460,"pm10":692.9,"pm2_5":143.9,"no2":15.9,"co":336.0,"o3":63.0,"so2":7.1,"mosquito_risk":0,"arthritis_risk":5,"migraine_risk":3,"frizz_risk":1,"updated_at":"2026-06-22T01:16:34.037356+05:30"},{"city":"Bhatinda","state":"Punjab","latitude":30.211,"longitude":74.9455,"temp":29.7,"humidity":53,"rain":0.0,"pressure":977.9,"uv_index":8.05,"wind_gusts":60.8,"aqi":145,"pm10":81.5,"pm2_5":49.9,"no2":40.2,"co":326.0,"o3":33.0,"so2":5.5,"mosquito_risk":4,"arthritis_risk":5,"migraine_risk":7,"frizz_risk":1,"updated_at":"2026-06-22T01:16:34.037363+05:30"},{"city":"Rohtak","state":"Haryana","latitude":28.8955,"longitude":76.6066,"temp":29.8,"humidity":55,"rain":0.0,"pressure":976.3,"uv_index":7.5,"wind_gusts":62.3,"aqi":703,"pm10":855.0,"pm2_5":185.3,"no2":40.7,"co":185.0,"o3":35.0,"so2":9.1,"mosquito_risk":4,"arthritis_risk":5,"migraine_risk":7,"frizz_risk":1,"updated_at":"2026-06-22T01:16:34.037370+05:30"},{"city":"Panipat","state":"Haryana","latitude":29.3909,"longitude":76.9635,"temp":29.7,"humidity":53,"rain":0.0,"pressure":974.7,"uv_index":7.2,"wind_gusts":51.5,"aqi":1855,"pm10":1549.7,"pm2_5":273.8,"no2":19.2,"co":372.0,"o3":75.0,"so2":9.4,"mosquito_risk":4,"arthritis_risk":5,"migraine_risk":7,"frizz_risk":1,"updated_at":"2026-06-22T01:16:34.037377+05:30"},{"city":"Mathura","state":"Uttar Pradesh","latitude":27.4924,"longitude":77.6737,"temp":29.9,"humidity":54,"rain":0.0,"pressure":981.8,"uv_index":8.05,"wind_gusts":65.2,"aqi":739,"pm10":661.2,"pm2_5":96.9,"no2":23.4,"co":170.0,"o3":42.0,"so2":5.0,"mosquito_risk":4,"arthritis_risk":5,"migraine_risk":7,"frizz_risk":1,"updated_at":"2026-06-22T01:16:34.037384+05:30"},{"city":"Vrindavan","state":"Uttar Pradesh","latitude":27.5823,"longitude":77.7027,"temp":29.7,"humidity":55,"rain":0.0,"pressure":982.2,"uv_index":8.05,"wind_gusts":59.8,"aqi":739,"pm10":661.2,"pm2_5":96.9,"no2":23.4,"co":165.0,"o3":42.0,"so2":5.0,"mosquito_risk":4,"arthritis_risk":5,"migraine_risk":7,"frizz_risk":1,"updated_at":"2026-06-22T01:16:34.037391+05:30"},{"city":"Ayodhya","state":"Uttar Pradesh","latitude":26.7922,"longitude":82.1998,"temp":32.8,"humidity":52,"rain":0.0,"pressure":989.4,"uv_index":8.05,"wind_gusts":28.4,"aqi":163,"pm10":191.4,"pm2_5":76.8,"no2":18.3,"co":219.0,"o3":52.0,"so2":7.1,"mosquito_risk":0,"arthritis_risk":5,"migraine_risk":7,"frizz_risk":1,"updated_at":"2026-06-22T01:16:34.037397+05:30"},{"city":"Ratlam","state":"Madhya Pradesh","latitude":23.3315,"longitude":75.0367,"temp":28.6,"humidity":61,"rain":0.0,"pressure":952.2,"uv_index":8.45,"wind_gusts":44.3,"aqi":66,"pm10":25.1,"pm2_5":17.9,"no2":5.2,"co":150.0,"o3":67.0,"so2":6.4,"mosquito_risk":7,"arthritis_risk":5,"migraine_risk":7,"frizz_risk":1,"updated_at":"2026-06-22T01:16:34.037404+05:30"},{"city":"Sagar","state":"Madhya Pradesh","latitude":23.8388,"longitude":78.7378,"temp":28.8,"humidity":66,"rain":0.0,"pressure":947.3,"uv_index":8.7,"wind_gusts":32.4,"aqi":81,"pm10":49.0,"pm2_5":31.4,"no2":11.4,"co":171.0,"o3":51.0,"so2":2.9,"mosquito_risk":7,"arthritis_risk":5,"migraine_risk":7,"frizz_risk":1,"updated_at":"2026-06-22T01:16:34.037410+05:30"},{"city":"Satna","state":"Madhya Pradesh","latitude":24.6005,"longitude":80.8322,"temp":30.1,"humidity":62,"rain":0.0,"pressure":967.6,"uv_index":8.3,"wind_gusts":38.5,"aqi":89,"pm10":35.7,"pm2_5":24.6,"no2":5.9,"co":154.0,"o3":75.0,"so2":3.7,"mosquito_risk":3,"arthritis_risk":5,"migraine_risk":7,"frizz_risk":1,"updated_at":"2026-06-22T01:16:34.037417+05:30"},{"city":"Akola","state":"Maharashtra","latitude":20.7002,"longitude":77.0082,"temp":32.5,"humidity":46,"rain":0.1,"pressure":972.1,"uv_index":8.85,"wind_gusts":42.8,"aqi":58,"pm10":31.1,"pm2_5":24.7,"no2":25.5,"co":129.0,"o3":38.0,"so2":7.7,"mosquito_risk":3,"arthritis_risk":5,"migraine_risk":7,"frizz_risk":1,"updated_at":"2026-06-22T01:16:34.037425+05:30"},{"city":"Amravati","state":"Maharashtra","latitude":20.9374,"longitude":77.7796,"temp":31.6,"humidity":48,"rain":0.0,"pressure":964.7,"uv_index":8.7,"wind_gusts":42.1,"aqi":60,"pm10":36.7,"pm2_5":28.8,"no2":25.2,"co":148.0,"o3":37.0,"so2":6.8,"mosquito_risk":0,"arthritis_risk":5,"migraine_risk":7,"frizz_risk":1,"updated_at":"2026-06-22T01:16:34.037432+05:30"},{"city":"Latur","state":"Maharashtra","latitude":18.4088,"longitude":76.5604,"temp":29.1,"humidity":56,"rain":0.0,"pressure":938.2,"uv_index":8.05,"wind_gusts":46.1,"aqi":57,"pm10":10.7,"pm2_5":9.2,"no2":6.0,"co":180.0,"o3":52.0,"so2":1.8,"mosquito_risk":4,"arthritis_risk":5,"migraine_risk":7,"frizz_risk":1,"updated_at":"2026-06-22T01:16:34.037439+05:30"},{"city":"Nanded","state":"Maharashtra","latitude":19.1383,"longitude":77.3091,"temp":25.8,"humidity":89,"rain":0.5,"pressure":966.3,"uv_index":8.85,"wind_gusts":52.9,"aqi":61,"pm10":22.0,"pm2_5":18.3,"no2":8.4,"co":218.0,"o3":71.0,"so2":6.2,"mosquito_risk":10,"arthritis_risk":5,"migraine_risk":7,"frizz_risk":1,"updated_at":"2026-06-22T01:16:34.037446+05:30"},{"city":"Gulbarga","state":"Karnataka","latitude":17.3297,"longitude":76.8343,"temp":29.0,"humidity":61,"rain":0.0,"pressure":957.4,"uv_index":8.9,"wind_gusts":52.9,"aqi":49,"pm10":6.5,"pm2_5":5.8,"no2":6.1,"co":135.0,"o3":59.0,"so2":1.9,"mosquito_risk":7,"arthritis_risk":5,"migraine_risk":7,"frizz_risk":1,"updated_at":"2026-06-22T01:16:34.037452+05:30"},{"city":"Bidar","state":"Karnataka","latitude":17.9104,"longitude":77.5199,"temp":27.6,"humidity":62,"rain":0.0,"pressure":934.0,"uv_index":8.95,"wind_gusts":58.3,"aqi":68,"pm10":25.1,"pm2_5":20.7,"no2":16.9,"co":192.0,"o3":52.0,"so2":4.0,"mosquito_risk":7,"arthritis_risk":5,"migraine_risk":7,"frizz_risk":1,"updated_at":"2026-06-22T01:16:34.037459+05:30"},{"city":"Hospet","state":"Karnataka","latitude":15.2689,"longitude":76.3909,"temp":25.4,"humidity":81,"rain":0.0,"pressure":955.0,"uv_index":8.95,"wind_gusts":44.6,"aqi":27,"pm10":3.9,"pm2_5":3.4,"no2":5.1,"co":144.0,"o3":40.0,"so2":1.5,"mosquito_risk":7,"arthritis_risk":5,"migraine_risk":7,"frizz_risk":1,"updated_at":"2026-06-22T01:16:34.037465+05:30"},{"city":"Tirupur","state":"Tamil Nadu","latitude":11.1085,"longitude":77.3411,"temp":24.4,"humidity":89,"rain":0.0,"pressure":974.8,"uv_index":8.9,"wind_gusts":60.1,"aqi":42,"pm10":10.9,"pm2_5":10.2,"no2":13.7,"co":140.0,"o3":32.0,"so2":4.6,"mosquito_risk":3,"arthritis_risk":5,"migraine_risk":7,"frizz_risk":1,"updated_at":"2026-06-22T01:16:34.037472+05:30"},{"city":"Alappuzha","state":"Kerala","latitude":9.4981,"longitude":76.3388,"temp":24.9,"humidity":96,"rain":0.0,"pressure":1010.1,"uv_index":7.75,"wind_gusts":35.3,"aqi":33,"pm10":9.6,"pm2_5":7.7,"no2":7.2,"co":85.0,"o3":38.0,"so2":2.8,"mosquito_risk":3,"arthritis_risk":0,"migraine_risk":4,"frizz_risk":1,"updated_at":"2026-06-22T01:16:34.037478+05:30"},{"city":"Munnar","state":"Kerala","latitude":10.0889,"longitude":77.0595,"temp":17.4,"humidity":99,"rain":0.0,"pressure":856.4,"uv_index":6.3,"wind_gusts":38.9,"aqi":29,"pm10":4.5,"pm2_5":4.3,"no2":6.6,"co":101.0,"o3":31.0,"so2":2.0,"mosquito_risk":3,"arthritis_risk":10,"migraine_risk":7,"frizz_risk":1,"updated_at":"2026-06-22T01:16:34.037486+05:30"},{"city":"Silchar","state":"Assam","latitude":24.8333,"longitude":92.7789,"temp":25.1,"humidity":97,"rain":0.3,"pressure":1003.4,"uv_index":8.6,"wind_gusts":33.1,"aqi":62,"pm10":17.2,"pm2_5":14.1,"no2":4.9,"co":262.0,"o3":82.0,"so2":2.9,"mosquito_risk":10,"arthritis_risk":5,"migraine_risk":4,"frizz_risk":1,"updated_at":"2026-06-22T01:16:34.037492+05:30"},{"city":"Dibrugarh","state":"Assam","latitude":27.4728,"longitude":94.912,"temp":25.2,"humidity":98,"rain":0.2,"pressure":992.7,"uv_index":4.95,"wind_gusts":26.6,"aqi":67,"pm10":16.6,"pm2_5":14.7,"no2":8.2,"co":222.0,"o3":76.0,"so2":1.5,"mosquito_risk":10,"arthritis_risk":5,"migraine_risk":3,"frizz_risk":1,"updated_at":"2026-06-22T01:16:34.037498+05:30"}]