[{"city":"Delhi","state":"Delhi","latitude":28.6139,"longitude":77.209,"temp":19.8,"humidity":75,"rain":0.0,"pressure":985.1,"uv_index":6.15,"wind_gusts":38.2,"aqi":159,"pm10":356.7,"pm2_5":59.4,"mosquito_risk":3,"arthritis_risk":5,"migraine_risk":7,"frizz_risk":0,"updated_at":"2026-03-16T00:13:26.060231+05:30"},{"city":"Mumbai","state":"Maharashtra","latitude":19.076,"longitude":72.8777,"temp":27.3,"humidity":85,"rain":0.0,"pressure":1010.3,"uv_index":7.7,"wind_gusts":19.8,"aqi":105,"pm10":62.6,"pm2_5":29.9,"mosquito_risk":7,"arthritis_risk":0,"migraine_risk":4,"frizz_risk":1,"updated_at":"2026-03-16T00:13:26.060281+05:30"},{"city":"Bangalore","state":"Karnataka","latitude":12.9716,"longitude":77.5946,"temp":22.6,"humidity":59,"rain":0.0,"pressure":912.7,"uv_index":9.3,"wind_gusts":19.1,"aqi":95,"pm10":27.4,"pm2_5":26.9,"mosquito_risk":0,"arthritis_risk":5,"migraine_risk":7,"frizz_risk":0,"updated_at":"2026-03-16T00:13:26.060296+05:30"},{"city":"Hyderabad","state":"Telangana","latitude":17.385,"longitude":78.4867,"temp":23.7,"humidity":69,"rain":0.0,"pressure":954.7,"uv_index":8.7,"wind_gusts":29.2,"aqi":92,"pm10":35.9,"pm2_5":31.7,"mosquito_risk":3,"arthritis_risk":5,"migraine_risk":7,"frizz_risk":1,"updated_at":"2026-03-16T00:13:26.060307+05:30"},{"city":"Chennai","state":"Tamil Nadu","latitude":13.0827,"longitude":80.2707,"temp":25.9,"humidity":81,"rain":0.0,"pressure":1009.5,"uv_index":9.05,"wind_gusts":32.0,"aqi":43,"pm10":10.5,"pm2_5":7.8,"mosquito_risk":7,"arthritis_risk":0,"migraine_risk":4,"frizz_risk":1,"updated_at":"2026-03-16T00:13:26.060315+05:30"},{"city":"Kolkata","state":"West Bengal","latitude":22.5726,"longitude":88.3639,"temp":25.3,"humidity":90,"rain":0.0,"pressure":1006.6,"uv_index":7.9,"wind_gusts":36.4,"aqi":58,"pm10":21.7,"pm2_5":17.8,"mosquito_risk":7,"arthritis_risk":5,"migraine_risk":4,"frizz_risk":1,"updated_at":"2026-03-16T00:13:26.060323+05:30"},{"city":"Pune","state":"Maharashtra","latitude":18.5204,"longitude":73.8567,"temp":20.8,"humidity":63,"rain":0.0,"pressure":949.8,"uv_index":8.25,"wind_gusts":41.8,"aqi":136,"pm10":46.4,"pm2_5":36.3,"mosquito_risk":3,"arthritis_risk":5,"migraine_risk":7,"frizz_risk":0,"updated_at":"2026-03-16T00:13:26.060335+05:30"},{"city":"Ahmedabad","state":"Gujarat","latitude":23.0225,"longitude":72.5714,"temp":26.2,"humidity":39,"rain":0.0,"pressure":1002.9,"uv_index":7.5,"wind_gusts":27.7,"aqi":70,"pm10":54.4,"pm2_5":28.4,"mosquito_risk":4,"arthritis_risk":5,"migraine_risk":4,"frizz_risk":0,"updated_at":"2026-03-16T00:13:26.060342+05:30"},{"city":"Jaipur","state":"Rajasthan","latitude":26.9124,"longitude":75.7873,"temp":25.9,"humidity":25,"rain":0.0,"pressure":959.6,"uv_index":6.95,"wind_gusts":46.4,"aqi":127,"pm10":155.1,"pm2_5":35.2,"mosquito_risk":4,"arthritis_risk":5,"migraine_risk":7,"frizz_risk":0,"updated_at":"2026-03-16T00:13:26.060349+05:30"},{"city":"Lucknow","state":"Uttar Pradesh","latitude":26.8467,"longitude":80.9462,"temp":20.2,"humidity":70,"rain":0.0,"pressure":995.2,"uv_index":6.5,"wind_gusts":49.0,"aqi":115,"pm10":37.1,"pm2_5":29.4,"mosquito_risk":3,"arthritis_risk":5,"migraine_risk":7,"frizz_risk":0,"updated_at":"2026-03-16T00:13:26.060355+05:30"},{"city":"Kanpur","state":"Uttar Pradesh","latitude":26.4499,"longitude":80.3319,"temp":20.5,"humidity":69,"rain":0.0,"pressure":993.1,"uv_index":6.6,"wind_gusts":41.8,"aqi":160,"pm10":218.9,"pm2_5":42.5,"mosquito_risk":3,"arthritis_risk":5,"migraine_risk":7,"frizz_risk":0,"updated_at":"2026-03-16T00:13:26.060362+05:30"},{"city":"Chandigarh","state":"Chandigarh","latitude":30.7333,"longitude":76.7794,"temp":15.7,"humidity":93,"rain":0.0,"pressure":972.1,"uv_index":6.0,"wind_gusts":31.3,"aqi":77,"pm10":26.0,"pm2_5":19.4,"mosquito_risk":3,"arthritis_risk":10,"migraine_risk":3,"frizz_risk":0,"updated_at":"2026-03-16T00:13:26.060369+05:30"},{"city":"Srinagar","state":"Jammu and Kashmir","latitude":34.0837,"longitude":74.7973,"temp":5.3,"humidity":96,"rain":0.0,"pressure":838.4,"uv_index":4.95,"wind_gusts":27.7,"aqi":87,"pm10":13.4,"pm2_5":13.2,"mosquito_risk":3,"arthritis_risk":10,"migraine_risk":3,"frizz_risk":0,"updated_at":"2026-03-16T00:13:26.060375+05:30"},{"city":"Jammu","state":"Jammu and Kashmir","latitude":32.7266,"longitude":74.857,"temp":14.5,"humidity":90,"rain":0.0,"pressure":975.1,"uv_index":2.9,"wind_gusts":49.0,"aqi":90,"pm10":43.2,"pm2_5":28.9,"mosquito_risk":3,"arthritis_risk":10,"migraine_risk":3,"frizz_risk":0,"updated_at":"2026-03-16T00:13:26.060382+05:30"},{"city":"Amritsar","state":"Punjab","latitude":31.634,"longitude":74.8723,"temp":14.2,"humidity":96,"rain":0.0,"pressure":983.1,"uv_index":3.5,"wind_gusts":34.2,"aqi":108,"pm10":37.3,"pm2_5":22.5,"mosquito_risk":3,"arthritis_risk":10,"migraine_risk":3,"frizz_risk":0,"updated_at":"2026-03-16T00:13:26.060388+05:30"},{"city":"Ludhiana","state":"Punjab","latitude":30.901,"longitude":75.8573,"temp":15.3,"humidity":95,"rain":0.0,"pressure":981.7,"uv_index":5.15,"wind_gusts":31.0,"aqi":114,"pm10":69.6,"pm2_5":36.2,"mosquito_risk":3,"arthritis_risk":10,"migraine_risk":3,"frizz_risk":0,"updated_at":"2026-03-16T00:13:26.060394+05:30"},{"city":"Jalandhar","state":"Punjab","latitude":31.326,"longitude":75.5762,"temp":14.7,"humidity":92,"rain":0.0,"pressure":982.7,"uv_index":5.05,"wind_gusts":35.3,"aqi":109,"pm10":35.5,"pm2_5":22.6,"mosquito_risk":3,"arthritis_risk":10,"migraine_risk":3,"frizz_risk":0,"updated_at":"2026-03-16T00:13:26.060402+05:30"},{"city":"Dehradun","state":"Uttarakhand","latitude":30.6284,"longitude":78.0322,"temp":9.6,"humidity":77,"rain":0.0,"pressure":828.7,"uv_index":5.25,"wind_gusts":34.2,"aqi":54,"pm10":21.7,"pm2_5":8.4,"mosquito_risk":3,"arthritis_risk":5,"migraine_risk":3,"frizz_risk":0,"updated_at":"2026-03-16T00:13:26.060408+05:30"},{"city":"Shimla","state":"Himachal Pradesh","latitude":31.1048,"longitude":77.1734,"temp":6.9,"humidity":84,"rain":0.0,"pressure":781.7,"uv_index":5.95,"wind_gusts":56.2,"aqi":58,"pm10":16.4,"pm2_5":7.8,"mosquito_risk":3,"arthritis_risk":10,"migraine_risk":3,"frizz_risk":0,"updated_at":"2026-03-16T00:13:26.060413+05:30"},{"city":"Manali","state":"Himachal Pradesh","latitude":32.2396,"longitude":77.1887,"temp":8.0,"humidity":89,"rain":0.1,"pressure":814.7,"uv_index":6.9,"wind_gusts":38.5,"aqi":48,"pm10":5.5,"pm2_5":2.7,"mosquito_risk":6,"arthritis_risk":10,"migraine_risk":7,"frizz_risk":0,"updated_at":"2026-03-16T00:13:26.060419+05:30"},{"city":"Gurgaon","state":"Haryana","latitude":28.4595,"longitude":77.0266,"temp":19.1,"humidity":80,"rain":0.0,"pressure":983.4,"uv_index":6.25,"wind_gusts":45.4,"aqi":1170,"pm10":2197.9,"pm2_5":251.5,"mosquito_risk":3,"arthritis_risk":5,"migraine_risk":7,"frizz_risk":0,"updated_at":"2026-03-16T00:13:26.060425+05:30"},{"city":"Noida","state":"Uttar Pradesh","latitude":28.5355,"longitude":77.391,"temp":19.9,"humidity":74,"rain":0.0,"pressure":986.5,"uv_index":6.15,"wind_gusts":36.7,"aqi":1170,"pm10":2197.9,"pm2_5":251.5,"mosquito_risk":3,"arthritis_risk":5,"migraine_risk":7,"frizz_risk":0,"updated_at":"2026-03-16T00:13:26.060431+05:30"},{"city":"Ghaziabad","state":"Uttar Pradesh","latitude":28.6692,"longitude":77.4538,"temp":18.8,"humidity":81,"rain":0.0,"pressure":985.1,"uv_index":6.15,"wind_gusts":34.9,"aqi":151,"pm10":248.7,"pm2_5":42.3,"mosquito_risk":3,"arthritis_risk":10,"migraine_risk":7,"frizz_risk":0,"updated_at":"2026-03-16T00:13:26.060438+05:30"},{"city":"Faridabad","state":"Haryana","latitude":28.4089,"longitude":77.3178,"temp":19.7,"humidity":74,"rain":0.0,"pressure":985.2,"uv_index":6.2,"wind_gusts":39.6,"aqi":1170,"pm10":2197.9,"pm2_5":251.5,"mosquito_risk":3,"arthritis_risk":5,"migraine_risk":7,"frizz_risk":0,"updated_at":"2026-03-16T00:13:26.060444+05:30"},{"city":"Meerut","state":"Uttar Pradesh","latitude":28.9845,"longitude":77.7064,"temp":18.1,"humidity":83,"rain":0.0,"pressure":983.9,"uv_index":6.0,"wind_gusts":27.7,"aqi":151,"pm10":248.7,"pm2_5":42.3,"mosquito_risk":3,"arthritis_risk":10,"migraine_risk":3,"frizz_risk":0,"updated_at":"2026-03-16T00:13:26.060449+05:30"},{"city":"Agra","state":"Uttar Pradesh","latitude":27.1767,"longitude":78.0081,"temp":19.3,"humidity":83,"rain":0.0,"pressure":988.5,"uv_index":6.6,"wind_gusts":36.7,"aqi":838,"pm10":1017.0,"pm2_5":134.1,"mosquito_risk":3,"arthritis_risk":10,"migraine_risk":7,"frizz_risk":1,"updated_at":"2026-03-16T00:13:26.060455+05:30"},{"city":"Varanasi","state":"Uttar Pradesh","latitude":25.3176,"longitude":82.9739,"temp":22.5,"humidity":66,"rain":0.0,"pressure":999.4,"uv_index":7.35,"wind_gusts":32.4,"aqi":145,"pm10":67.1,"pm2_5":54.0,"mosquito_risk":3,"arthritis_risk":5,"migraine_risk":7,"frizz_risk":0,"updated_at":"2026-03-16T00:13:26.060464+05:30"},{"city":"Prayagraj","state":"Uttar Pradesh","latitude":25.4358,"longitude":81.8463,"temp":22.4,"humidity":66,"rain":0.0,"pressure":997.9,"uv_index":7.25,"wind_gusts":42.8,"aqi":120,"pm10":37.4,"pm2_5":29.4,"mosquito_risk":3,"arthritis_risk":5,"migraine_risk":7,"frizz_risk":0,"updated_at":"2026-03-16T00:13:26.060470+05:30"},{"city":"Gorakhpur","state":"Uttar Pradesh","latitude":26.7606,"longitude":83.3732,"temp":21.1,"humidity":64,"rain":0.0,"pressure":999.0,"uv_index":7.1,"wind_gusts":40.3,"aqi":152,"pm10":70.3,"pm2_5":56.5,"mosquito_risk":3,"arthritis_risk":5,"migraine_risk":7,"frizz_risk":0,"updated_at":"2026-03-16T00:13:26.060475+05:30"},{"city":"Bareilly","state":"Uttar Pradesh","latitude":28.367,"longitude":79.4304,"temp":18.4,"humidity":93,"rain":0.0,"pressure":988.5,"uv_index":6.35,"wind_gusts":34.6,"aqi":138,"pm10":35.4,"pm2_5":21.3,"mosquito_risk":3,"arthritis_risk":10,"migraine_risk":7,"frizz_risk":1,"updated_at":"2026-03-16T00:13:26.060481+05:30"},{"city":"Aligarh","state":"Uttar Pradesh","latitude":27.8974,"longitude":78.088,"temp":18.4,"humidity":85,"rain":0.0,"pressure":986.4,"uv_index":6.3,"wind_gusts":40.7,"aqi":173,"pm10":640.7,"pm2_5":89.6,"mosquito_risk":3,"arthritis_risk":10,"migraine_risk":7,"frizz_risk":0,"updated_at":"2026-03-16T00:13:26.060486+05:30"},{"city":"Moradabad","state":"Uttar Pradesh","latitude":28.8386,"longitude":78.7733,"temp":18.3,"humidity":87,"rain":0.0,"pressure":984.8,"uv_index":6.2,"wind_gusts":29.5,"aqi":144,"pm10":37.8,"pm2_5":22.0,"mosquito_risk":3,"arthritis_risk":10,"migraine_risk":7,"frizz_risk":0,"updated_at":"2026-03-16T00:13:26.060492+05:30"},{"city":"Saharanpur","state":"Uttar Pradesh","latitude":29.9637,"longitude":77.546,"temp":15.7,"humidity":86,"rain":0.3,"pressure":979.4,"uv_index":5.8,"wind_gusts":33.1,"aqi":138,"pm10":37.4,"pm2_5":22.0,"mosquito_risk":6,"arthritis_risk":10,"migraine_risk":3,"frizz_risk":0,"updated_at":"2026-03-16T00:13:26.060497+05:30"},{"city":"Jhansi","state":"Uttar Pradesh","latitude":25.4484,"longitude":78.5685,"temp":23.0,"humidity":63,"rain":0.0,"pressure":978.0,"uv_index":7.2,"wind_gusts":31.7,"aqi":80,"pm10":40.4,"pm2_5":22.1,"mosquito_risk":3,"arthritis_risk":5,"migraine_risk":7,"frizz_risk":0,"updated_at":"2026-03-16T00:13:29.311738+05:30"},{"city":"Surat","state":"Gujarat","latitude":21.1702,"longitude":72.8311,"temp":26.1,"humidity":86,"rain":0.0,"pressure":1008.0,"uv_index":7.4,"wind_gusts":25.2,"aqi":129,"pm10":47.1,"pm2_5":28.3,"mosquito_risk":7,"arthritis_risk":0,"migraine_risk":4,"frizz_risk":1,"updated_at":"2026-03-16T00:13:29.311767+05:30"},{"city":"Vadodara","state":"Gujarat","latitude":22.3072,"longitude":73.1812,"temp":25.7,"humidity":71,"rain":0.0,"pressure":1005.2,"uv_index":7.5,"wind_gusts":25.9,"aqi":89,"pm10":44.4,"pm2_5":30.5,"mosquito_risk":7,"arthritis_risk":5,"migraine_risk":4,"frizz_risk":1,"updated_at":"2026-03-16T00:13:29.311777+05:30"},{"city":"Rajkot","state":"Gujarat","latitude":22.3039,"longitude":70.8022,"temp":25.3,"humidity":72,"rain":0.0,"pressure":995.6,"uv_index":7.35,"wind_gusts":31.0,"aqi":69,"pm10":44.8,"pm2_5":23.1,"mosquito_risk":7,"arthritis_risk":5,"migraine_risk":7,"frizz_risk":1,"updated_at":"2026-03-16T00:13:29.311785+05:30"},{"city":"Thane","state":"Maharashtra","latitude":19.2183,"longitude":72.9781,"temp":25.5,"humidity":91,"rain":0.0,"pressure":1009.8,"uv_index":7.7,"wind_gusts":33.8,"aqi":105,"pm10":62.6,"pm2_5":29.9,"mosquito_risk":7,"arthritis_risk":0,"migraine_risk":4,"frizz_risk":1,"updated_at":"2026-03-16T00:13:29.311793+05:30"},{"city":"Nagpur","state":"Maharashtra","latitude":21.1458,"longitude":79.0882,"temp":26.5,"humidity":61,"rain":0.0,"pressure":973.7,"uv_index":8.15,"wind_gusts":22.3,"aqi":109,"pm10":39.6,"pm2_5":35.9,"mosquito_risk":7,"arthritis_risk":5,"migraine_risk":7,"frizz_risk":1,"updated_at":"2026-03-16T00:13:29.311800+05:30"},{"city":"Nashik","state":"Maharashtra","latitude":19.9975,"longitude":73.7898,"temp":20.9,"humidity":66,"rain":0.0,"pressure":946.5,"uv_index":7.9,"wind_gusts":40.7,"aqi":72,"pm10":63.3,"pm2_5":32.4,"mosquito_risk":3,"arthritis_risk":5,"migraine_risk":7,"frizz_risk":0,"updated_at":"2026-03-16T00:13:29.311807+05:30"},{"city":"Aurangabad","state":"Maharashtra","latitude":19.8762,"longitude":75.3433,"temp":25.3,"humidity":48,"rain":0.0,"pressure":945.3,"uv_index":8.4,"wind_gusts":31.0,"aqi":89,"pm10":38.0,"pm2_5":26.5,"mosquito_risk":4,"arthritis_risk":5,"migraine_risk":7,"frizz_risk":0,"updated_at":"2026-03-16T00:13:29.311813+05:30"},{"city":"Solapur","state":"Maharashtra","latitude":17.6599,"longitude":75.9064,"temp":25.2,"humidity":52,"rain":0.0,"pressure":957.7,"uv_index":8.65,"wind_gusts":24.1,"aqi":104,"pm10":52.9,"pm2_5":48.2,"mosquito_risk":4,"arthritis_risk":5,"migraine_risk":7,"frizz_risk":0,"updated_at":"2026-03-16T00:13:29.311819+05:30"},{"city":"Kolhapur","state":"Maharashtra","latitude":16.705,"longitude":74.2433,"temp":22.1,"humidity":76,"rain":0.0,"pressure":949.4,"uv_index":8.7,"wind_gusts":39.6,"aqi":127,"pm10":38.3,"pm2_5":29.1,"mosquito_risk":3,"arthritis_risk":5,"migraine_risk":7,"frizz_risk":1,"updated_at":"2026-03-16T00:13:29.311824+05:30"},{"city":"Goa","state":"Goa","latitude":15.2993,"longitude":74.124,"temp":28.0,"humidity":77,"rain":0.0,"pressure":999.9,"uv_index":8.75,"wind_gusts":32.0,"aqi":117,"pm10":51.9,"pm2_5":37.6,"mosquito_risk":7,"arthritis_risk":5,"migraine_risk":7,"frizz_risk":1,"updated_at":"2026-03-16T00:13:29.311830+05:30"},{"city":"Jodhpur","state":"Rajasthan","latitude":26.2389,"longitude":73.0243,"temp":25.8,"humidity":23,"rain":0.0,"pressure":983.4,"uv_index":7.25,"wind_gusts":27.4,"aqi":108,"pm10":174.6,"pm2_5":31.5,"mosquito_risk":4,"arthritis_risk":5,"migraine_risk":7,"frizz_risk":0,"updated_at":"2026-03-16T00:13:29.311835+05:30"},{"city":"Udaipur","state":"Rajasthan","latitude":24.5854,"longitude":73.7125,"temp":23.2,"humidity":24,"rain":0.0,"pressure":947.1,"uv_index":7.85,"wind_gusts":38.2,"aqi":64,"pm10":42.1,"pm2_5":15.1,"mosquito_risk":0,"arthritis_risk":5,"migraine_risk":7,"frizz_risk":0,"updated_at":"2026-03-16T00:13:29.311840+05:30"},{"city":"Kota","state":"Rajasthan","latitude":25.2138,"longitude":75.8648,"temp":23.1,"humidity":37,"rain":0.0,"pressure":978.2,"uv_index":7.3,"wind_gusts":35.3,"aqi":65,"pm10":46.9,"pm2_5":28.6,"mosquito_risk":0,"arthritis_risk":5,"migraine_risk":7,"frizz_risk":0,"updated_at":"2026-03-16T00:13:29.311846+05:30"},{"city":"Bikaner","state":"Rajasthan","latitude":28.0229,"longitude":73.3119,"temp":26.1,"humidity":31,"rain":0.0,"pressure":982.4,"uv_index":6.9,"wind_gusts":41.4,"aqi":55,"pm10":11.5,"pm2_5":6.7,"mosquito_risk":4,"arthritis_risk":5,"migraine_risk":7,"frizz_risk":0,"updated_at":"2026-03-16T00:13:29.311851+05:30"},{"city":"Ajmer","state":"Rajasthan","latitude":26.4499,"longitude":74.6399,"temp":25.3,"humidity":36,"rain":0.0,"pressure":954.9,"uv_index":7.25,"wind_gusts":37.4,"aqi":75,"pm10":57.3,"pm2_5":22.9,"mosquito_risk":4,"arthritis_risk":5,"migraine_risk":7,"frizz_risk":0,"updated_at":"2026-03-16T00:13:29.311856+05:30"},{"city":"Gwalior","state":"Madhya Pradesh","latitude":26.2183,"longitude":78.1828,"temp":22.6,"humidity":71,"rain":0.0,"pressure":983.3,"uv_index":6.9,"wind_gusts":45.4,"aqi":105,"pm10":119.0,"pm2_5":41.0,"mosquito_risk":3,"arthritis_risk":5,"migraine_risk":7,"frizz_risk":1,"updated_at":"2026-03-16T00:13:29.311862+05:30"},{"city":"Indore","state":"Madhya Pradesh","latitude":22.7196,"longitude":75.8577,"temp":23.0,"humidity":45,"rain":0.0,"pressure":948.3,"uv_index":7.8,"wind_gusts":35.6,"aqi":65,"pm10":33.5,"pm2_5":21.7,"mosquito_risk":0,"arthritis_risk":5,"migraine_risk":7,"frizz_risk":0,"updated_at":"2026-03-16T00:13:29.311867+05:30"},{"city":"Bhopal","state":"Madhya Pradesh","latitude":23.2599,"longitude":77.4126,"temp":23.1,"humidity":49,"rain":0.0,"pressure":953.7,"uv_index":7.7,"wind_gusts":42.8,"aqi":62,"pm10":38.4,"pm2_5":22.4,"mosquito_risk":0,"arthritis_risk":5,"migraine_risk":7,"frizz_risk":0,"updated_at":"2026-03-16T00:13:29.311872+05:30"},{"city":"Jabalpur","state":"Madhya Pradesh","latitude":23.1815,"longitude":79.9864,"temp":24.2,"humidity":54,"rain":0.0,"pressure":961.2,"uv_index":7.8,"wind_gusts":38.2,"aqi":70,"pm10":28.9,"pm2_5":21.5,"mosquito_risk":0,"arthritis_risk":5,"migraine_risk":7,"frizz_risk":0,"updated_at":"2026-03-16T00:13:29.311877+05:30"},{"city":"Ujjain","state":"Madhya Pradesh","latitude":23.1765,"longitude":75.7885,"temp":23.1,"humidity":45,"rain":0.0,"pressure":954.0,"uv_index":7.7,"wind_gusts":34.6,"aqi":68,"pm10":32.6,"pm2_5":19.2,"mosquito_risk":0,"arthritis_risk":5,"migraine_risk":7,"frizz_risk":0,"updated_at":"2026-03-16T00:13:29.311882+05:30"},{"city":"Visakhapatnam","state":"Andhra Pradesh","latitude":17.6868,"longitude":83.2185,"temp":25.4,"humidity":87,"rain":0.0,"pressure":1007.1,"uv_index":8.65,"wind_gusts":40.0,"aqi":64,"pm10":20.4,"pm2_5":16.1,"mosquito_risk":7,"arthritis_risk":5,"migraine_risk":4,"frizz_risk":1,"updated_at":"2026-03-16T00:13:29.311887+05:30"},{"city":"Vijayawada","state":"Andhra Pradesh","latitude":16.5062,"longitude":80.648,"temp":24.3,"humidity":89,"rain":0.0,"pressure":1005.4,"uv_index":8.75,"wind_gusts":29.2,"aqi":56,"pm10":17.4,"pm2_5":15.1,"mosquito_risk":3,"arthritis_risk":5,"migraine_risk":4,"frizz_risk":1,"updated_at":"2026-03-16T00:13:29.311892+05:30"},{"city":"Guntur","state":"Andhra Pradesh","latitude":16.3067,"longitude":80.4365,"temp":24.4,"humidity":88,"rain":0.0,"pressure":1006.4,"uv_index":8.75,"wind_gusts":30.2,"aqi":54,"pm10":14.6,"pm2_5":12.6,"mosquito_risk":3,"arthritis_risk":5,"migraine_risk":4,"frizz_risk":1,"updated_at":"2026-03-16T00:13:29.311898+05:30"},{"city":"Nellore","state":"Andhra Pradesh","latitude":14.4426,"longitude":79.9865,"temp":24.9,"humidity":88,"rain":0.0,"pressure":1008.2,"uv_index":8.95,"wind_gusts":29.9,"aqi":51,"pm10":8.3,"pm2_5":6.7,"mosquito_risk":3,"arthritis_risk":0,"migraine_risk":4,"frizz_risk":1,"updated_at":"2026-03-16T00:13:29.311904+05:30"},{"city":"Kurnool","state":"Andhra Pradesh","latitude":15.8281,"longitude":78.0373,"temp":28.5,"humidity":44,"rain":0.0,"pressure":978.1,"uv_index":8.75,"wind_gusts":20.2,"aqi":99,"pm10":34.7,"pm2_5":30.9,"mosquito_risk":4,"arthritis_risk":5,"migraine_risk":7,"frizz_risk":0,"updated_at":"2026-03-16T00:13:29.311910+05:30"},{"city":"Kakinada","state":"Andhra Pradesh","latitude":16.9891,"longitude":82.2475,"temp":23.6,"humidity":92,"rain":0.0,"pressure":1010.8,"uv_index":8.7,"wind_gusts":31.7,"aqi":57,"pm10":16.8,"pm2_5":12.0,"mosquito_risk":3,"arthritis_risk":0,"migraine_risk":4,"frizz_risk":1,"updated_at":"2026-03-16T00:13:29.311915+05:30"},{"city":"Tirupati","state":"Andhra Pradesh","latitude":13.6288,"longitude":79.4192,"temp":24.0,"humidity":87,"rain":0.0,"pressure":994.1,"uv_index":9.05,"wind_gusts":29.5,"aqi":66,"pm10":18.5,"pm2_5":17.1,"mosquito_risk":3,"arthritis_risk":5,"migraine_risk":7,"frizz_risk":1,"updated_at":"2026-03-16T00:13:29.311920+05:30"},{"city":"Warangal","state":"Telangana","latitude":17.9689,"longitude":79.5941,"temp":25.9,"humidity":75,"rain":0.0,"pressure":980.2,"uv_index":8.55,"wind_gusts":31.7,"aqi":74,"pm10":24.9,"pm2_5":23.0,"mosquito_risk":7,"arthritis_risk":5,"migraine_risk":7,"frizz_risk":1,"updated_at":"2026-03-16T00:13:29.311925+05:30"},{"city":"Nizamabad","state":"Telangana","latitude":18.6725,"longitude":78.0941,"temp":26.4,"humidity":56,"rain":0.0,"pressure":965.7,"uv_index":8.4,"wind_gusts":33.1,"aqi":124,"pm10":67.1,"pm2_5":60.1,"mosquito_risk":4,"arthritis_risk":5,"migraine_risk":7,"frizz_risk":1,"updated_at":"2026-03-16T00:13:29.311930+05:30"},{"city":"Mysore","state":"Karnataka","latitude":12.2958,"longitude":76.6396,"temp":22.3,"humidity":88,"rain":0.0,"pressure":929.3,"uv_index":9.3,"wind_gusts":32.8,"aqi":89,"pm10":33.8,"pm2_5":31.3,"mosquito_risk":3,"arthritis_risk":5,"migraine_risk":7,"frizz_risk":1,"updated_at":"2026-03-16T00:13:29.311935+05:30"},{"city":"Mangalore","state":"Karnataka","latitude":12.9141,"longitude":74.856,"temp":29.0,"humidity":78,"rain":0.0,"pressure":1008.5,"uv_index":8.95,"wind_gusts":27.7,"aqi":83,"pm10":28.6,"pm2_5":24.3,"mosquito_risk":7,"arthritis_risk":0,"migraine_risk":4,"frizz_risk":1,"updated_at":"2026-03-16T00:13:29.311940+05:30"},{"city":"Hubli-Dharwad","state":"Karnataka","latitude":15.3647,"longitude":75.124,"temp":22.9,"humidity":88,"rain":0.0,"pressure":942.5,"uv_index":8.95,"wind_gusts":43.2,"aqi":109,"pm10":36.1,"pm2_5":34.6,"mosquito_risk":3,"arthritis_risk":5,"migraine_risk":7,"frizz_risk":1,"updated_at":"2026-03-16T00:13:29.311946+05:30"},{"city":"Belgaum","state":"Karnataka","latitude":15.8497,"longitude":74.4977,"temp":22.1,"humidity":95,"rain":0.0,"pressure":927.1,"uv_index":9.0,"wind_gusts":40.0,"aqi":120,"pm10":41.1,"pm2_5":32.0,"mosquito_risk":3,"arthritis_risk":5,"migraine_risk":7,"frizz_risk":1,"updated_at":"2026-03-16T00:13:32.568580+05:30"},{"city":"Coimbatore","state":"Tamil Nadu","latitude":11.0168,"longitude":76.9558,"temp":24.1,"humidity":85,"rain":0.0,"pressure":963.4,"uv_index":9.3,"wind_gusts":36.0,"aqi":69,"pm10":33.2,"pm2_5":30.4,"mosquito_risk":3,"arthritis_risk":5,"migraine_risk":7,"frizz_risk":1,"updated_at":"2026-03-16T00:13:32.568608+05:30"},{"city":"Madurai","state":"Tamil Nadu","latitude":9.9252,"longitude":78.1198,"temp":25.5,"humidity":74,"rain":0.0,"pressure":995.3,"uv_index":9.25,"wind_gusts":23.4,"aqi":54,"pm10":11.5,"pm2_5":10.6,"mosquito_risk":7,"arthritis_risk":5,"migraine_risk":7,"frizz_risk":1,"updated_at":"2026-03-16T00:13:32.568617+05:30"},{"city":"Trichy","state":"Tamil Nadu","latitude":10.7905,"longitude":78.7047,"temp":25.3,"humidity":90,"rain":0.0,"pressure":1001.9,"uv_index":9.15,"wind_gusts":20.2,"aqi":53,"pm10":12.0,"pm2_5":11.0,"mosquito_risk":7,"arthritis_risk":5,"migraine_risk":4,"frizz_risk":1,"updated_at":"2026-03-16T00:13:32.568624+05:30"},{"city":"Salem","state":"Tamil Nadu","latitude":11.6643,"longitude":78.146,"temp":25.1,"humidity":78,"rain":0.0,"pressure":978.7,"uv_index":9.2,"wind_gusts":14.8,"aqi":72,"pm10":21.4,"pm2_5":20.7,"mosquito_risk":7,"arthritis_risk":5,"migraine_risk":7,"frizz_risk":1,"updated_at":"2026-03-16T00:13:32.568630+05:30"},{"city":"Tirunelveli","state":"Tamil Nadu","latitude":8.7139,"longitude":77.7567,"temp":26.5,"humidity":80,"rain":0.0,"pressure":1005.3,"uv_index":9.25,"wind_gusts":38.2,"aqi":50,"pm10":15.1,"pm2_5":13.9,"mosquito_risk":7,"arthritis_risk":5,"migraine_risk":4,"frizz_risk":1,"updated_at":"2026-03-16T00:13:32.568636+05:30"},{"city":"Vellore","state":"Tamil Nadu","latitude":12.9165,"longitude":79.1325,"temp":23.4,"humidity":76,"rain":0.0,"pressure":986.7,"uv_index":9.1,"wind_gusts":31.0,"aqi":89,"pm10":30.0,"pm2_5":28.8,"mosquito_risk":3,"arthritis_risk":5,"migraine_risk":7,"frizz_risk":1,"updated_at":"2026-03-16T00:13:32.568643+05:30"},{"city":"Erode","state":"Tamil Nadu","latitude":11.341,"longitude":77.7172,"temp":26.4,"humidity":63,"rain":0.0,"pressure":990.8,"uv_index":9.2,"wind_gusts":20.5,"aqi":50,"pm10":12.3,"pm2_5":11.5,"mosquito_risk":7,"arthritis_risk":5,"migraine_risk":7,"frizz_risk":1,"updated_at":"2026-03-16T00:13:32.568649+05:30"},{"city":"Kochi","state":"Kerala","latitude":9.9312,"longitude":76.2673,"temp":27.9,"humidity":79,"rain":0.0,"pressure":1010.6,"uv_index":9.1,"wind_gusts":34.2,"aqi":74,"pm10":44.2,"pm2_5":43.4,"mosquito_risk":7,"arthritis_risk":0,"migraine_risk":4,"frizz_risk":1,"updated_at":"2026-03-16T00:13:32.568655+05:30"},{"city":"Thiruvananthapuram","state":"Kerala","latitude":8.5241,"longitude":76.9366,"temp":27.8,"humidity":80,"rain":0.0,"pressure":1009.8,"uv_index":9.1,"wind_gusts":27.0,"aqi":65,"pm10":11.8,"pm2_5":8.8,"mosquito_risk":7,"arthritis_risk":0,"migraine_risk":4,"frizz_risk":1,"updated_at":"2026-03-16T00:13:32.568661+05:30"},{"city":"Kozhikode","state":"Kerala","latitude":11.2588,"longitude":75.7804,"temp":28.4,"humidity":81,"rain":0.0,"pressure":1009.5,"uv_index":9.0,"wind_gusts":32.8,"aqi":68,"pm10":25.3,"pm2_5":21.3,"mosquito_risk":7,"arthritis_risk":0,"migraine_risk":4,"frizz_risk":1,"updated_at":"2026-03-16T00:13:32.568667+05:30"},{"city":"Thrissur","state":"Kerala","latitude":10.5276,"longitude":76.2144,"temp":27.1,"humidity":86,"rain":0.0,"pressure":1008.7,"uv_index":9.05,"wind_gusts":40.0,"aqi":73,"pm10":36.2,"pm2_5":34.2,"mosquito_risk":7,"arthritis_risk":0,"migraine_risk":4,"frizz_risk":1,"updated_at":"2026-03-16T00:13:32.568673+05:30"},{"city":"Kannur","state":"Kerala","latitude":11.8745,"longitude":75.3704,"temp":27.5,"humidity":84,"rain":0.0,"pressure":1008.8,"uv_index":8.95,"wind_gusts":33.5,"aqi":80,"pm10":27.2,"pm2_5":24.2,"mosquito_risk":7,"arthritis_risk":0,"migraine_risk":4,"frizz_risk":1,"updated_at":"2026-03-16T00:13:32.568679+05:30"},{"city":"Patna","state":"Bihar","latitude":25.5941,"longitude":85.1376,"temp":23.7,"humidity":81,"rain":0.0,"pressure":1001.7,"uv_index":7.55,"wind_gusts":27.4,"aqi":160,"pm10":77.3,"pm2_5":62.6,"mosquito_risk":3,"arthritis_risk":5,"migraine_risk":4,"frizz_risk":1,"updated_at":"2026-03-16T00:13:32.568685+05:30"},{"city":"Gaya","state":"Bihar","latitude":24.7914,"longitude":85.0002,"temp":23.3,"humidity":77,"rain":0.0,"pressure":994.1,"uv_index":7.65,"wind_gusts":30.2,"aqi":141,"pm10":59.4,"pm2_5":44.2,"mosquito_risk":3,"arthritis_risk":5,"migraine_risk":7,"frizz_risk":1,"updated_at":"2026-03-16T00:13:32.568690+05:30"},{"city":"Muzaffarpur","state":"Bihar","latitude":26.1209,"longitude":85.3647,"temp":21.9,"humidity":81,"rain":0.0,"pressure":1001.5,"uv_index":7.5,"wind_gusts":38.5,"aqi":160,"pm10":94.3,"pm2_5":77.8,"mosquito_risk":3,"arthritis_risk":5,"migraine_risk":4,"frizz_risk":1,"updated_at":"2026-03-16T00:13:32.568696+05:30"},{"city":"Bhagalpur","state":"Bihar","latitude":25.2425,"longitude":87.0117,"temp":23.9,"humidity":88,"rain":0.0,"pressure":1002.7,"uv_index":7.55,"wind_gusts":32.4,"aqi":151,"pm10":67.3,"pm2_5":53.6,"mosquito_risk":3,"arthritis_risk":5,"migraine_risk":4,"frizz_risk":1,"updated_at":"2026-03-16T00:13:32.568701+05:30"},{"city":"Ranchi","state":"Jharkhand","latitude":23.3441,"longitude":85.3096,"temp":21.2,"humidity":84,"rain":0.0,"pressure":938.5,"uv_index":8.3,"wind_gusts":45.7,"aqi":146,"pm10":52.6,"pm2_5":47.3,"mosquito_risk":3,"arthritis_risk":5,"migraine_risk":7,"frizz_risk":1,"updated_at":"2026-03-16T00:13:32.568707+05:30"},{"city":"Jamshedpur","state":"Jharkhand","latitude":22.8046,"longitude":86.2029,"temp":23.9,"humidity":82,"rain":0.0,"pressure":992.3,"uv_index":8.15,"wind_gusts":37.4,"aqi":139,"pm10":61.0,"pm2_5":53.8,"mosquito_risk":3,"arthritis_risk":5,"migraine_risk":7,"frizz_risk":1,"updated_at":"2026-03-16T00:13:32.568712+05:30"},{"city":"Dhanbad","state":"Jharkhand","latitude":23.7957,"longitude":86.4304,"temp":23.7,"humidity":80,"rain":0.0,"pressure":980.5,"uv_index":8.0,"wind_gusts":31.7,"aqi":161,"pm10":80.1,"pm2_5":75.0,"mosquito_risk":3,"arthritis_risk":5,"migraine_risk":7,"frizz_risk":1,"updated_at":"2026-03-16T00:13:32.568718+05:30"},{"city":"Bokaro","state":"Jharkhand","latitude":23.6693,"longitude":86.1511,"temp":23.9,"humidity":76,"rain":0.0,"pressure":984.4,"uv_index":8.0,"wind_gusts":28.1,"aqi":154,"pm10":69.4,"pm2_5":64.0,"mosquito_risk":3,"arthritis_risk":5,"migraine_risk":7,"frizz_risk":1,"updated_at":"2026-03-16T00:13:32.568723+05:30"},{"city":"Bhubaneswar","state":"Odisha","latitude":20.2961,"longitude":85.8245,"temp":25.4,"humidity":84,"rain":0.0,"pressure":1004.9,"uv_index":8.5,"wind_gusts":42.5,"aqi":57,"pm10":15.9,"pm2_5":13.1,"mosquito_risk":7,"arthritis_risk":5,"migraine_risk":4,"frizz_risk":1,"updated_at":"2026-03-16T00:13:32.568729+05:30"},{"city":"Cuttack","state":"Odisha","latitude":20.4625,"longitude":85.8828,"temp":25.3,"humidity":87,"rain":0.0,"pressure":1006.9,"uv_index":8.5,"wind_gusts":37.4,"aqi":57,"pm10":15.9,"pm2_5":13.1,"mosquito_risk":7,"arthritis_risk":5,"migraine_risk":4,"frizz_risk":1,"updated_at":"2026-03-16T00:13:32.568734+05:30"},{"city":"Rourkela","state":"Odisha","latitude":22.2604,"longitude":84.8536,"temp":25.5,"humidity":79,"rain":0.0,"pressure":986.6,"uv_index":8.1,"wind_gusts":55.4,"aqi":167,"pm10":60.5,"pm2_5":53.9,"mosquito_risk":7,"arthritis_risk":5,"migraine_risk":7,"frizz_risk":1,"updated_at":"2026-03-16T00:13:32.568740+05:30"},{"city":"Raipur","state":"Chhattisgarh","latitude":21.2514,"longitude":81.6296,"temp":25.4,"humidity":61,"rain":0.0,"pressure":975.6,"uv_index":8.2,"wind_gusts":35.6,"aqi":140,"pm10":57.4,"pm2_5":52.4,"mosquito_risk":7,"arthritis_risk":5,"migraine_risk":7,"frizz_risk":1,"updated_at":"2026-03-16T00:13:32.568746+05:30"},{"city":"Bhilai","state":"Chhattisgarh","latitude":21.1938,"longitude":81.3509,"temp":25.3,"humidity":63,"rain":0.0,"pressure":976.0,"uv_index":8.2,"wind_gusts":36.7,"aqi":131,"pm10":57.4,"pm2_5":52.7,"mosquito_risk":7,"arthritis_risk":5,"migraine_risk":7,"frizz_risk":1,"updated_at":"2026-03-16T00:13:32.568751+05:30"},{"city":"Guwahati","state":"Assam","latitude":26.1158,"longitude":91.7086,"temp":20.9,"humidity":93,"rain":0.0,"pressure":1004.3,"uv_index":7.4,"wind_gusts":40.0,"aqi":69,"pm10":22.2,"pm2_5":19.1,"mosquito_risk":3,"arthritis_risk":5,"migraine_risk":4,"frizz_risk":1,"updated_at":"2026-03-16T00:13:32.568756+05:30"},{"city":"Agartala","state":"Tripura","latitude":23.8315,"longitude":91.2868,"temp":21.0,"humidity":95,"rain":0.0,"pressure":1009.3,"uv_index":7.75,"wind_gusts":52.9,"aqi":55,"pm10":18.5,"pm2_5":17.0,"mosquito_risk":3,"arthritis_risk":0,"migraine_risk":4,"frizz_risk":1,"updated_at":"2026-03-16T00:13:32.568762+05:30"},{"city":"Shillong","state":"Meghalaya","latitude":25.5788,"longitude":91.8933,"temp":12.5,"humidity":93,"rain":0.0,"pressure":855.7,"uv_index":7.85,"wind_gusts":81.0,"aqi":54,"pm10":7.2,"pm2_5":6.3,"mosquito_risk":3,"arthritis_risk":10,"migraine_risk":7,"frizz_risk":0,"updated_at":"2026-03-16T00:13:32.568768+05:30"},{"city":"Imphal","state":"Manipur","latitude":24.817,"longitude":93.9368,"temp":15.4,"humidity":89,"rain":0.2,"pressure":926.2,"uv_index":8.15,"wind_gusts":70.2,"aqi":82,"pm10":44.0,"pm2_5":37.5,"mosquito_risk":6,"arthritis_risk":10,"migraine_risk":7,"frizz_risk":0,"updated_at":"2026-03-16T00:13:32.568773+05:30"},{"city":"Aizawl","state":"Mizoram","latitude":23.7271,"longitude":92.7176,"temp":16.0,"humidity":89,"rain":0.3,"pressure":894.8,"uv_index":8.1,"wind_gusts":56.9,"aqi":80,"pm10":27.0,"pm2_5":21.4,"mosquito_risk":6,"arthritis_risk":10,"migraine_risk":7,"frizz_risk":0,"updated_at":"2026-03-16T00:13:32.568779+05:30"},{"city":"Kohima","state":"Nagaland","latitude":25.6701,"longitude":94.1077,"temp":14.6,"humidity":78,"rain":0.0,"pressure":855.2,"uv_index":7.8,"wind_gusts":111.2,"aqi":68,"pm10":36.3,"pm2_5":29.2,"mosquito_risk":3,"arthritis_risk":5,"migraine_risk":7,"frizz_risk":0,"updated_at":"2026-03-16T00:13:32.568784+05:30"},{"city":"Gangtok","state":"Sikkim","latitude":27.3314,"longitude":88.6138,"temp":11.8,"humidity":78,"rain":0.0,"pressure":835.7,"uv_index":7.05,"wind_gusts":20.9,"aqi":100,"pm10":61.5,"pm2_5":40.4,"mosquito_risk":3,"arthritis_risk":5,"migraine_risk":7,"frizz_risk":0,"updated_at":"2026-03-16T00:13:32.568789+05:30"},{"city":"Siliguri","state":"West Bengal","latitude":26.7271,"longitude":88.3953,"temp":19.1,"humidity":85,"rain":0.0,"pressure":995.7,"uv_index":7.45,"wind_gusts":26.3,"aqi":127,"pm10":74.7,"pm2_5":54.0,"mosquito_risk":3,"arthritis_risk":10,"migraine_risk":7,"frizz_risk":1,"updated_at":"2026-03-16T00:13:35.826825+05:30"},{"city":"Durgapur","state":"West Bengal","latitude":23.5204,"longitude":87.3119,"temp":23.7,"humidity":92,"rain":0.0,"pressure":995.9,"uv_index":8.05,"wind_gusts":36.4,"aqi":139,"pm10":88.2,"pm2_5":82.9,"mosquito_risk":3,"arthritis_risk":5,"migraine_risk":7,"frizz_risk":1,"updated_at":"2026-03-16T00:13:35.826853+05:30"},{"city":"Asansol","state":"West Bengal","latitude":23.6739,"longitude":86.9524,"temp":24.0,"humidity":89,"rain":0.0,"pressure":994.4,"uv_index":8.05,"wind_gusts":33.5,"aqi":148,"pm10":70.5,"pm2_5":65.7,"mosquito_risk":3,"arthritis_risk":5,"migraine_risk":7,"frizz_risk":1,"updated_at":"2026-03-16T00:13:35.826863+05:30"},{"city":"Pondicherry","state":"Puducherry","latitude":11.9139,"longitude":79.8145,"temp":24.6,"humidity":93,"rain":0.0,"pressure":1010.6,"uv_index":9.0,"wind_gusts":28.1,"aqi":33,"pm10":8.4,"pm2_5":5.8,"mosquito_risk":3,"arthritis_risk":0,"migraine_risk":4,"frizz_risk":1,"updated_at":"2026-03-16T00:13:35.826871+05:30"},{"city":"Port Blair","state":"Andaman and Nicobar Islands","latitude":11.6234,"longitude":92.7265,"temp":27.8,"humidity":79,"rain":0.0,"pressure":1008.9,"uv_index":8.95,"wind_gusts":21.6,"aqi":74,"pm10":15.2,"pm2_5":12.3,"mosquito_risk":7,"arthritis_risk":0,"migraine_risk":4,"frizz_risk":1,"updated_at":"2026-03-16T00:13:35.826880+05:30"},{"city":"Haridwar","state":"Uttarakhand","latitude":29.9457,"longitude":78.1642,"temp":18.8,"humidity":67,"rain":0.0,"pressure":976.9,"uv_index":5.85,"wind_gusts":34.6,"aqi":83,"pm10":28.2,"pm2_5":18.3,"mosquito_risk":3,"arthritis_risk":5,"migraine_risk":3,"frizz_risk":0,"updated_at":"2026-03-16T00:13:35.826888+05:30"},{"city":"Rishikesh","state":"Uttarakhand","latitude":30.0869,"longitude":78.2676,"temp":18.4,"humidity":64,"rain":0.0,"pressure":969.2,"uv_index":5.65,"wind_gusts":36.7,"aqi":66,"pm10":25.0,"pm2_5":15.8,"mosquito_risk":3,"arthritis_risk":5,"migraine_risk":3,"frizz_risk":0,"updated_at":"2026-03-16T00:13:35.826896+05:30"},{"city":"Nainital","state":"Uttarakhand","latitude":29.3919,"longitude":79.4542,"temp":15.0,"humidity":51,"rain":0.0,"pressure":805.1,"uv_index":5.35,"wind_gusts":58.7,"aqi":74,"pm10":28.3,"pm2_5":16.3,"mosquito_risk":0,"arthritis_risk":5,"migraine_risk":3,"frizz_risk":0,"updated_at":"2026-03-16T00:13:35.826903+05:30"},{"city":"Mussoorie","state":"Uttarakhand","latitude":30.4599,"longitude":78.0664,"temp":11.4,"humidity":65,"rain":0.0,"pressure":801.2,"uv_index":5.35,"wind_gusts":46.8,"aqi":74,"pm10":27.1,"pm2_5":16.9,"mosquito_risk":3,"arthritis_risk":5,"migraine_risk":3,"frizz_risk":0,"updated_at":"2026-03-16T00:13:35.826911+05:30"},{"city":"Dharamshala","state":"Himachal Pradesh","latitude":32.219,"longitude":76.3234,"temp":12.8,"humidity":73,"rain":0.0,"pressure":868.1,"uv_index":4.15,"wind_gusts":40.7,"aqi":45,"pm10":6.5,"pm2_5":4.2,"mosquito_risk":3,"arthritis_risk":5,"migraine_risk":3,"frizz_risk":0,"updated_at":"2026-03-16T00:13:35.826918+05:30"},{"city":"Dalhousie","state":"Himachal Pradesh","latitude":32.5387,"longitude":75.971,"temp":8.9,"humidity":72,"rain":0.0,"pressure":801.0,"uv_index":3.65,"wind_gusts":32.8,"aqi":72,"pm10":40.6,"pm2_5":27.2,"mosquito_risk":3,"arthritis_risk":5,"migraine_risk":3,"frizz_risk":0,"updated_at":"2026-03-16T00:13:35.826926+05:30"},{"city":"Patiala","state":"Punjab","latitude":30.3398,"longitude":76.3869,"temp":15.9,"humidity":88,"rain":0.0,"pressure":981.2,"uv_index":5.9,"wind_gusts":33.1,"aqi":110,"pm10":89.9,"pm2_5":30.4,"mosquito_risk":3,"arthritis_risk":10,"migraine_risk":3,"frizz_risk":0,"updated_at":"2026-03-16T00:13:35.826933+05:30"},{"city":"Bhatinda","state":"Punjab","latitude":30.211,"longitude":74.9455,"temp":15.7,"humidity":91,"rain":0.0,"pressure":985.5,"uv_index":6.4,"wind_gusts":46.8,"aqi":103,"pm10":242.1,"pm2_5":60.5,"mosquito_risk":3,"arthritis_risk":10,"migraine_risk":7,"frizz_risk":0,"updated_at":"2026-03-16T00:13:35.826940+05:30"},{"city":"Rohtak","state":"Haryana","latitude":28.8955,"longitude":76.6066,"temp":17.8,"humidity":86,"rain":0.0,"pressure":984.4,"uv_index":6.15,"wind_gusts":41.0,"aqi":286,"pm10":674.3,"pm2_5":92.2,"mosquito_risk":3,"arthritis_risk":10,"migraine_risk":7,"frizz_risk":0,"updated_at":"2026-03-16T00:13:35.826947+05:30"},{"city":"Panipat","state":"Haryana","latitude":29.3909,"longitude":76.9635,"temp":17.1,"humidity":87,"rain":0.0,"pressure":983.9,"uv_index":5.95,"wind_gusts":47.5,"aqi":170,"pm10":875.4,"pm2_5":94.3,"mosquito_risk":3,"arthritis_risk":10,"migraine_risk":3,"frizz_risk":0,"updated_at":"2026-03-16T00:13:35.826954+05:30"},{"city":"Mathura","state":"Uttar Pradesh","latitude":27.4924,"longitude":77.6737,"temp":18.9,"humidity":87,"rain":0.0,"pressure":987.6,"uv_index":6.5,"wind_gusts":37.1,"aqi":315,"pm10":795.3,"pm2_5":99.7,"mosquito_risk":3,"arthritis_risk":10,"migraine_risk":7,"frizz_risk":1,"updated_at":"2026-03-16T00:13:35.826961+05:30"},{"city":"Vrindavan","state":"Uttar Pradesh","latitude":27.5823,"longitude":77.7027,"temp":18.7,"humidity":85,"rain":0.0,"pressure":988.1,"uv_index":6.45,"wind_gusts":38.2,"aqi":315,"pm10":795.3,"pm2_5":99.7,"mosquito_risk":3,"arthritis_risk":10,"migraine_risk":7,"frizz_risk":1,"updated_at":"2026-03-16T00:13:35.826968+05:30"},{"city":"Ayodhya","state":"Uttar Pradesh","latitude":26.7922,"longitude":82.1998,"temp":20.5,"humidity":69,"rain":0.0,"pressure":997.3,"uv_index":6.9,"wind_gusts":47.2,"aqi":115,"pm10":41.8,"pm2_5":32.4,"mosquito_risk":3,"arthritis_risk":5,"migraine_risk":7,"frizz_risk":0,"updated_at":"2026-03-16T00:13:35.826975+05:30"},{"city":"Ratlam","state":"Madhya Pradesh","latitude":23.3315,"longitude":75.0367,"temp":25.7,"humidity":44,"rain":0.0,"pressure":954.9,"uv_index":7.65,"wind_gusts":38.5,"aqi":66,"pm10":32.9,"pm2_5":17.9,"mosquito_risk":4,"arthritis_risk":5,"migraine_risk":7,"frizz_risk":0,"updated_at":"2026-03-16T00:13:35.826982+05:30"},{"city":"Sagar","state":"Madhya Pradesh","latitude":23.8388,"longitude":78.7378,"temp":25.2,"humidity":38,"rain":0.0,"pressure":949.7,"uv_index":7.65,"wind_gusts":36.7,"aqi":56,"pm10":25.6,"pm2_5":16.6,"mosquito_risk":4,"arthritis_risk":5,"migraine_risk":7,"frizz_risk":0,"updated_at":"2026-03-16T00:13:35.826989+05:30"},{"city":"Satna","state":"Madhya Pradesh","latitude":24.6005,"longitude":80.8322,"temp":24.6,"humidity":63,"rain":0.0,"pressure":972.1,"uv_index":7.6,"wind_gusts":51.1,"aqi":75,"pm10":46.4,"pm2_5":30.6,"mosquito_risk":3,"arthritis_risk":5,"migraine_risk":7,"frizz_risk":1,"updated_at":"2026-03-16T00:13:35.826996+05:30"},{"city":"Akola","state":"Maharashtra","latitude":20.7002,"longitude":77.0082,"temp":27.1,"humidity":43,"rain":0.0,"pressure":975.5,"uv_index":8.15,"wind_gusts":29.2,"aqi":99,"pm10":32.7,"pm2_5":23.7,"mosquito_risk":4,"arthritis_risk":5,"migraine_risk":7,"frizz_risk":0,"updated_at":"2026-03-16T00:13:35.827004+05:30"},{"city":"Amravati","state":"Maharashtra","latitude":20.9374,"longitude":77.7796,"temp":25.1,"humidity":53,"rain":0.0,"pressure":967.3,"uv_index":8.1,"wind_gusts":27.7,"aqi":98,"pm10":32.2,"pm2_5":25.7,"mosquito_risk":4,"arthritis_risk":5,"migraine_risk":7,"frizz_risk":0,"updated_at":"2026-03-16T00:13:35.827012+05:30"},{"city":"Latur","state":"Maharashtra","latitude":18.4088,"longitude":76.5604,"temp":24.9,"humidity":48,"rain":0.0,"pressure":940.2,"uv_index":8.55,"wind_gusts":25.6,"aqi":112,"pm10":42.8,"pm2_5":36.8,"mosquito_risk":0,"arthritis_risk":5,"migraine_risk":7,"frizz_risk":0,"updated_at":"2026-03-16T00:13:35.827019+05:30"},{"city":"Nanded","state":"Maharashtra","latitude":19.1383,"longitude":77.3091,"temp":26.4,"humidity":49,"rain":0.0,"pressure":969.3,"uv_index":8.35,"wind_gusts":19.1,"aqi":125,"pm10":66.1,"pm2_5":58.8,"mosquito_risk":4,"arthritis_risk":5,"migraine_risk":7,"frizz_risk":0,"updated_at":"2026-03-16T00:13:35.827026+05:30"},{"city":"Gulbarga","state":"Karnataka","latitude":17.3297,"longitude":76.8343,"temp":26.2,"humidity":58,"rain":0.0,"pressure":960.0,"uv_index":8.6,"wind_gusts":24.1,"aqi":132,"pm10":43.8,"pm2_5":38.2,"mosquito_risk":4,"arthritis_risk":5,"migraine_risk":7,"frizz_risk":1,"updated_at":"2026-03-16T00:13:35.827033+05:30"},{"city":"Bidar","state":"Karnataka","latitude":17.9104,"longitude":77.5199,"temp":24.2,"humidity":63,"rain":0.0,"pressure":936.4,"uv_index":7.65,"wind_gusts":45.4,"aqi":105,"pm10":42.5,"pm2_5":36.1,"mosquito_risk":3,"arthritis_risk":5,"migraine_risk":7,"frizz_risk":1,"updated_at":"2026-03-16T00:13:35.827040+05:30"},{"city":"Hospet","state":"Karnataka","latitude":15.2689,"longitude":76.3909,"temp":26.8,"humidity":73,"rain":0.0,"pressure":957.4,"uv_index":8.9,"wind_gusts":27.4,"aqi":126,"pm10":65.2,"pm2_5":57.3,"mosquito_risk":7,"arthritis_risk":5,"migraine_risk":7,"frizz_risk":1,"updated_at":"2026-03-16T00:13:35.827047+05:30"},{"city":"Tirupur","state":"Tamil Nadu","latitude":11.1085,"longitude":77.3411,"temp":25.9,"humidity":81,"rain":0.0,"pressure":976.9,"uv_index":9.3,"wind_gusts":28.4,"aqi":58,"pm10":20.9,"pm2_5":19.7,"mosquito_risk":7,"arthritis_risk":5,"migraine_risk":7,"frizz_risk":1,"updated_at":"2026-03-16T00:13:35.827054+05:30"},{"city":"Alappuzha","state":"Kerala","latitude":9.4981,"longitude":76.3388,"temp":27.4,"humidity":84,"rain":0.0,"pressure":1010.8,"uv_index":9.05,"wind_gusts":30.2,"aqi":69,"pm10":36.9,"pm2_5":34.5,"mosquito_risk":7,"arthritis_risk":0,"migraine_risk":4,"frizz_risk":1,"updated_at":"2026-03-16T00:13:35.827076+05:30"},{"city":"Munnar","state":"Kerala","latitude":10.0889,"longitude":77.0595,"temp":19.6,"humidity":83,"rain":0.0,"pressure":857.5,"uv_index":9.55,"wind_gusts":34.9,"aqi":60,"pm10":31.2,"pm2_5":28.8,"mosquito_risk":3,"arthritis_risk":10,"migraine_risk":7,"frizz_risk":1,"updated_at":"2026-03-16T00:13:35.827084+05:30"},{"city":"Silchar","state":"Assam","latitude":24.8333,"longitude":92.7789,"temp":20.1,"humidity":95,"rain":0.1,"pressure":1009.2,"uv_index":7.8,"wind_gusts":42.5,"aqi":92,"pm10":39.8,"pm2_5":37.3,"mosquito_risk":6,"arthritis_risk":0,"migraine_risk":4,"frizz_risk":1,"updated_at":"2026-03-16T00:13:35.827092+05:30"},{"city":"Dibrugarh","state":"Assam","latitude":27.4728,"longitude":94.912,"temp":18.4,"humidity":93,"rain":0.0,"pressure":998.7,"uv_index":4.5,"wind_gusts":40.0,"aqi":72,"pm10":31.7,"pm2_5":24.6,"mosquito_risk":3,"arthritis_risk":10,"migraine_risk":3,"frizz_risk":1,"updated_at":"2026-03-16T00:13:35.827099+05:30"}]