[{"city":"Delhi","state":"Delhi","latitude":28.6139,"longitude":77.209,"temp":17.6,"humidity":96,"rain":0.0,"pressure":986.6,"uv_index":7.05,"wind_gusts":22.0,"aqi":124,"pm10":65.0,"pm2_5":48.1,"mosquito_risk":3,"arthritis_risk":10,"migraine_risk":7,"frizz_risk":1,"updated_at":"2026-04-09T04:12:29.003168+05:30"},{"city":"Mumbai","state":"Maharashtra","latitude":19.076,"longitude":72.8777,"temp":27.6,"humidity":79,"rain":0.0,"pressure":1009.0,"uv_index":7.95,"wind_gusts":20.9,"aqi":77,"pm10":88.9,"pm2_5":23.2,"mosquito_risk":7,"arthritis_risk":0,"migraine_risk":4,"frizz_risk":1,"updated_at":"2026-04-09T04:12:29.003234+05:30"},{"city":"Bangalore","state":"Karnataka","latitude":12.9716,"longitude":77.5946,"temp":22.9,"humidity":84,"rain":0.0,"pressure":911.5,"uv_index":9.6,"wind_gusts":25.9,"aqi":68,"pm10":32.1,"pm2_5":30.0,"mosquito_risk":3,"arthritis_risk":5,"migraine_risk":7,"frizz_risk":1,"updated_at":"2026-04-09T04:12:29.003252+05:30"},{"city":"Hyderabad","state":"Telangana","latitude":17.385,"longitude":78.4867,"temp":25.6,"humidity":81,"rain":0.0,"pressure":952.1,"uv_index":9.2,"wind_gusts":33.5,"aqi":92,"pm10":61.2,"pm2_5":41.0,"mosquito_risk":7,"arthritis_risk":5,"migraine_risk":7,"frizz_risk":1,"updated_at":"2026-04-09T04:12:29.003263+05:30"},{"city":"Chennai","state":"Tamil Nadu","latitude":13.0827,"longitude":80.2707,"temp":28.7,"humidity":85,"rain":0.0,"pressure":1007.0,"uv_index":9.35,"wind_gusts":36.4,"aqi":73,"pm10":21.9,"pm2_5":15.9,"mosquito_risk":7,"arthritis_risk":5,"migraine_risk":4,"frizz_risk":1,"updated_at":"2026-04-09T04:12:29.003271+05:30"},{"city":"Kolkata","state":"West Bengal","latitude":22.5726,"longitude":88.3639,"temp":23.2,"humidity":96,"rain":0.0,"pressure":1007.4,"uv_index":8.65,"wind_gusts":14.8,"aqi":77,"pm10":24.3,"pm2_5":22.2,"mosquito_risk":3,"arthritis_risk":5,"migraine_risk":4,"frizz_risk":1,"updated_at":"2026-04-09T04:12:29.003280+05:30"},{"city":"Pune","state":"Maharashtra","latitude":18.5204,"longitude":73.8567,"temp":21.3,"humidity":86,"rain":0.0,"pressure":948.6,"uv_index":8.55,"wind_gusts":34.2,"aqi":75,"pm10":45.8,"pm2_5":23.7,"mosquito_risk":3,"arthritis_risk":5,"migraine_risk":7,"frizz_risk":1,"updated_at":"2026-04-09T04:12:29.003292+05:30"},{"city":"Ahmedabad","state":"Gujarat","latitude":23.0225,"longitude":72.5714,"temp":23.9,"humidity":60,"rain":0.0,"pressure":1002.6,"uv_index":8.0,"wind_gusts":16.9,"aqi":69,"pm10":42.0,"pm2_5":32.6,"mosquito_risk":0,"arthritis_risk":5,"migraine_risk":4,"frizz_risk":0,"updated_at":"2026-04-09T04:12:29.003300+05:30"},{"city":"Jaipur","state":"Rajasthan","latitude":26.9124,"longitude":75.7873,"temp":20.2,"humidity":71,"rain":0.0,"pressure":961.4,"uv_index":7.7,"wind_gusts":27.0,"aqi":139,"pm10":350.2,"pm2_5":61.5,"mosquito_risk":3,"arthritis_risk":5,"migraine_risk":7,"frizz_risk":0,"updated_at":"2026-04-09T04:12:29.003308+05:30"},{"city":"Lucknow","state":"Uttar Pradesh","latitude":26.8467,"longitude":80.9462,"temp":18.5,"humidity":88,"rain":0.0,"pressure":997.2,"uv_index":7.55,"wind_gusts":35.3,"aqi":116,"pm10":81.3,"pm2_5":54.9,"mosquito_risk":3,"arthritis_risk":10,"migraine_risk":7,"frizz_risk":1,"updated_at":"2026-04-09T04:12:29.003316+05:30"},{"city":"Kanpur","state":"Uttar Pradesh","latitude":26.4499,"longitude":80.3319,"temp":18.8,"humidity":87,"rain":0.0,"pressure":995.0,"uv_index":7.6,"wind_gusts":32.4,"aqi":120,"pm10":105.9,"pm2_5":57.4,"mosquito_risk":3,"arthritis_risk":10,"migraine_risk":7,"frizz_risk":1,"updated_at":"2026-04-09T04:12:29.003323+05:30"},{"city":"Chandigarh","state":"Chandigarh","latitude":30.7333,"longitude":76.7794,"temp":15.9,"humidity":84,"rain":0.0,"pressure":972.4,"uv_index":7.05,"wind_gusts":24.5,"aqi":67,"pm10":26.5,"pm2_5":21.9,"mosquito_risk":3,"arthritis_risk":10,"migraine_risk":7,"frizz_risk":0,"updated_at":"2026-04-09T04:12:29.003331+05:30"},{"city":"Srinagar","state":"Jammu and Kashmir","latitude":34.0837,"longitude":74.7973,"temp":5.4,"humidity":92,"rain":0.0,"pressure":838.8,"uv_index":8.0,"wind_gusts":20.5,"aqi":40,"pm10":11.0,"pm2_5":11.0,"mosquito_risk":3,"arthritis_risk":10,"migraine_risk":7,"frizz_risk":0,"updated_at":"2026-04-09T04:12:29.003338+05:30"},{"city":"Jammu","state":"Jammu and Kashmir","latitude":32.7266,"longitude":74.857,"temp":14.9,"humidity":87,"rain":0.0,"pressure":977.3,"uv_index":7.65,"wind_gusts":27.4,"aqi":64,"pm10":31.8,"pm2_5":29.7,"mosquito_risk":3,"arthritis_risk":10,"migraine_risk":7,"frizz_risk":0,"updated_at":"2026-04-09T04:12:29.003345+05:30"},{"city":"Amritsar","state":"Punjab","latitude":31.634,"longitude":74.8723,"temp":15.3,"humidity":91,"rain":0.0,"pressure":984.9,"uv_index":7.6,"wind_gusts":17.3,"aqi":80,"pm10":38.2,"pm2_5":28.2,"mosquito_risk":3,"arthritis_risk":10,"migraine_risk":7,"frizz_risk":0,"updated_at":"2026-04-09T04:12:29.003352+05:30"},{"city":"Ludhiana","state":"Punjab","latitude":30.901,"longitude":75.8573,"temp":16.1,"humidity":93,"rain":0.0,"pressure":982.7,"uv_index":7.25,"wind_gusts":19.8,"aqi":82,"pm10":53.2,"pm2_5":40.3,"mosquito_risk":3,"arthritis_risk":10,"migraine_risk":7,"frizz_risk":0,"updated_at":"2026-04-09T04:12:29.003358+05:30"},{"city":"Jalandhar","state":"Punjab","latitude":31.326,"longitude":75.5762,"temp":15.8,"humidity":94,"rain":0.0,"pressure":984.1,"uv_index":7.4,"wind_gusts":21.6,"aqi":85,"pm10":48.9,"pm2_5":35.5,"mosquito_risk":3,"arthritis_risk":10,"migraine_risk":7,"frizz_risk":0,"updated_at":"2026-04-09T04:12:29.003367+05:30"},{"city":"Dehradun","state":"Uttarakhand","latitude":30.6284,"longitude":78.0322,"temp":7.0,"humidity":86,"rain":0.0,"pressure":827.7,"uv_index":7.4,"wind_gusts":24.5,"aqi":48,"pm10":8.6,"pm2_5":6.4,"mosquito_risk":3,"arthritis_risk":10,"migraine_risk":7,"frizz_risk":0,"updated_at":"2026-04-09T04:12:29.003374+05:30"},{"city":"Shimla","state":"Himachal Pradesh","latitude":31.1048,"longitude":77.1734,"temp":5.7,"humidity":83,"rain":0.0,"pressure":780.6,"uv_index":7.5,"wind_gusts":28.8,"aqi":43,"pm10":16.2,"pm2_5":10.0,"mosquito_risk":3,"arthritis_risk":10,"migraine_risk":7,"frizz_risk":0,"updated_at":"2026-04-09T04:12:29.003382+05:30"},{"city":"Manali","state":"Himachal Pradesh","latitude":32.2396,"longitude":77.1887,"temp":6.8,"humidity":59,"rain":0.0,"pressure":814.1,"uv_index":9.75,"wind_gusts":24.8,"aqi":83,"pm10":4.1,"pm2_5":3.6,"mosquito_risk":0,"arthritis_risk":5,"migraine_risk":7,"frizz_risk":1,"updated_at":"2026-04-09T04:12:29.003389+05:30"},{"city":"Gurgaon","state":"Haryana","latitude":28.4595,"longitude":77.0266,"temp":17.4,"humidity":96,"rain":0.0,"pressure":984.6,"uv_index":7.2,"wind_gusts":18.4,"aqi":139,"pm10":61.9,"pm2_5":48.3,"mosquito_risk":3,"arthritis_risk":10,"migraine_risk":7,"frizz_risk":1,"updated_at":"2026-04-09T04:12:29.003396+05:30"},{"city":"Noida","state":"Uttar Pradesh","latitude":28.5355,"longitude":77.391,"temp":17.4,"humidity":97,"rain":0.0,"pressure":988.2,"uv_index":7.1,"wind_gusts":20.5,"aqi":139,"pm10":61.9,"pm2_5":48.3,"mosquito_risk":3,"arthritis_risk":10,"migraine_risk":7,"frizz_risk":1,"updated_at":"2026-04-09T04:12:29.003403+05:30"},{"city":"Ghaziabad","state":"Uttar Pradesh","latitude":28.6692,"longitude":77.4538,"temp":16.8,"humidity":97,"rain":0.0,"pressure":986.4,"uv_index":7.05,"wind_gusts":21.6,"aqi":105,"pm10":71.0,"pm2_5":44.1,"mosquito_risk":3,"arthritis_risk":10,"migraine_risk":7,"frizz_risk":1,"updated_at":"2026-04-09T04:12:29.003410+05:30"},{"city":"Faridabad","state":"Haryana","latitude":28.4089,"longitude":77.3178,"temp":17.5,"humidity":95,"rain":0.0,"pressure":987.4,"uv_index":7.15,"wind_gusts":18.7,"aqi":139,"pm10":61.9,"pm2_5":48.3,"mosquito_risk":3,"arthritis_risk":10,"migraine_risk":7,"frizz_risk":1,"updated_at":"2026-04-09T04:12:29.003416+05:30"},{"city":"Meerut","state":"Uttar Pradesh","latitude":28.9845,"longitude":77.7064,"temp":16.4,"humidity":98,"rain":0.0,"pressure":985.4,"uv_index":6.95,"wind_gusts":26.3,"aqi":105,"pm10":71.0,"pm2_5":44.1,"mosquito_risk":3,"arthritis_risk":10,"migraine_risk":7,"frizz_risk":1,"updated_at":"2026-04-09T04:12:29.003423+05:30"},{"city":"Agra","state":"Uttar Pradesh","latitude":27.1767,"longitude":78.0081,"temp":17.7,"humidity":95,"rain":0.0,"pressure":991.2,"uv_index":7.45,"wind_gusts":23.0,"aqi":486,"pm10":450.8,"pm2_5":80.3,"mosquito_risk":3,"arthritis_risk":10,"migraine_risk":7,"frizz_risk":1,"updated_at":"2026-04-09T04:12:29.003430+05:30"},{"city":"Varanasi","state":"Uttar Pradesh","latitude":25.3176,"longitude":82.9739,"temp":20.0,"humidity":80,"rain":0.0,"pressure":1000.7,"uv_index":8.2,"wind_gusts":31.3,"aqi":102,"pm10":61.7,"pm2_5":46.3,"mosquito_risk":3,"arthritis_risk":5,"migraine_risk":4,"frizz_risk":1,"updated_at":"2026-04-09T04:12:29.003439+05:30"},{"city":"Prayagraj","state":"Uttar Pradesh","latitude":25.4358,"longitude":81.8463,"temp":20.6,"humidity":80,"rain":0.0,"pressure":999.2,"uv_index":8.05,"wind_gusts":27.4,"aqi":103,"pm10":66.4,"pm2_5":47.5,"mosquito_risk":3,"arthritis_risk":5,"migraine_risk":7,"frizz_risk":1,"updated_at":"2026-04-09T04:12:29.003446+05:30"},{"city":"Gorakhpur","state":"Uttar Pradesh","latitude":26.7606,"longitude":83.3732,"temp":17.6,"humidity":83,"rain":0.0,"pressure":1000.7,"uv_index":7.95,"wind_gusts":32.4,"aqi":124,"pm10":112.5,"pm2_5":87.8,"mosquito_risk":3,"arthritis_risk":10,"migraine_risk":4,"frizz_risk":0,"updated_at":"2026-04-09T04:12:29.003453+05:30"},{"city":"Bareilly","state":"Uttar Pradesh","latitude":28.367,"longitude":79.4304,"temp":15.6,"humidity":96,"rain":0.0,"pressure":990.9,"uv_index":7.3,"wind_gusts":30.6,"aqi":95,"pm10":58.4,"pm2_5":35.7,"mosquito_risk":3,"arthritis_risk":10,"migraine_risk":7,"frizz_risk":0,"updated_at":"2026-04-09T04:12:29.003460+05:30"},{"city":"Aligarh","state":"Uttar Pradesh","latitude":27.8974,"longitude":78.088,"temp":17.1,"humidity":98,"rain":0.0,"pressure":989.2,"uv_index":7.2,"wind_gusts":27.0,"aqi":108,"pm10":66.6,"pm2_5":45.2,"mosquito_risk":3,"arthritis_risk":10,"migraine_risk":7,"frizz_risk":1,"updated_at":"2026-04-09T04:12:29.003469+05:30"},{"city":"Moradabad","state":"Uttar Pradesh","latitude":28.8386,"longitude":78.7733,"temp":15.5,"humidity":96,"rain":0.0,"pressure":987.8,"uv_index":7.15,"wind_gusts":30.2,"aqi":104,"pm10":63.3,"pm2_5":44.8,"mosquito_risk":3,"arthritis_risk":10,"migraine_risk":7,"frizz_risk":0,"updated_at":"2026-04-09T04:12:29.003475+05:30"},{"city":"Saharanpur","state":"Uttar Pradesh","latitude":29.9637,"longitude":77.546,"temp":15.7,"humidity":94,"rain":0.0,"pressure":979.6,"uv_index":6.75,"wind_gusts":27.0,"aqi":87,"pm10":47.3,"pm2_5":39.2,"mosquito_risk":3,"arthritis_risk":10,"migraine_risk":7,"frizz_risk":0,"updated_at":"2026-04-09T04:12:29.003483+05:30"},{"city":"Jhansi","state":"Uttar Pradesh","latitude":25.4484,"longitude":78.5685,"temp":19.4,"humidity":87,"rain":0.0,"pressure":980.4,"uv_index":8.0,"wind_gusts":25.9,"aqi":80,"pm10":171.4,"pm2_5":49.9,"mosquito_risk":3,"arthritis_risk":10,"migraine_risk":7,"frizz_risk":1,"updated_at":"2026-04-09T04:12:32.360332+05:30"},{"city":"Surat","state":"Gujarat","latitude":21.1702,"longitude":72.8311,"temp":26.2,"humidity":77,"rain":0.0,"pressure":1007.3,"uv_index":7.7,"wind_gusts":28.1,"aqi":71,"pm10":47.8,"pm2_5":25.8,"mosquito_risk":7,"arthritis_risk":5,"migraine_risk":4,"frizz_risk":1,"updated_at":"2026-04-09T04:12:32.360364+05:30"},{"city":"Vadodara","state":"Gujarat","latitude":22.3072,"longitude":73.1812,"temp":25.6,"humidity":68,"rain":0.0,"pressure":1004.6,"uv_index":8.0,"wind_gusts":20.5,"aqi":64,"pm10":22.5,"pm2_5":15.8,"mosquito_risk":7,"arthritis_risk":5,"migraine_risk":4,"frizz_risk":1,"updated_at":"2026-04-09T04:12:32.360374+05:30"},{"city":"Rajkot","state":"Gujarat","latitude":22.3039,"longitude":70.8022,"temp":22.4,"humidity":86,"rain":0.0,"pressure":994.9,"uv_index":7.7,"wind_gusts":21.6,"aqi":53,"pm10":30.7,"pm2_5":17.4,"mosquito_risk":3,"arthritis_risk":5,"migraine_risk":7,"frizz_risk":1,"updated_at":"2026-04-09T04:12:32.360382+05:30"},{"city":"Thane","state":"Maharashtra","latitude":19.2183,"longitude":72.9781,"temp":27.0,"humidity":79,"rain":0.0,"pressure":1008.6,"uv_index":7.95,"wind_gusts":34.9,"aqi":77,"pm10":88.9,"pm2_5":23.2,"mosquito_risk":7,"arthritis_risk":0,"migraine_risk":4,"frizz_risk":1,"updated_at":"2026-04-09T04:12:32.360389+05:30"},{"city":"Nagpur","state":"Maharashtra","latitude":21.1458,"longitude":79.0882,"temp":23.8,"humidity":61,"rain":0.0,"pressure":972.9,"uv_index":8.75,"wind_gusts":21.2,"aqi":83,"pm10":67.1,"pm2_5":34.2,"mosquito_risk":3,"arthritis_risk":5,"migraine_risk":7,"frizz_risk":0,"updated_at":"2026-04-09T04:12:32.360397+05:30"},{"city":"Nashik","state":"Maharashtra","latitude":19.9975,"longitude":73.7898,"temp":21.8,"humidity":91,"rain":0.0,"pressure":945.9,"uv_index":8.2,"wind_gusts":25.9,"aqi":65,"pm10":43.9,"pm2_5":18.3,"mosquito_risk":3,"arthritis_risk":5,"migraine_risk":7,"frizz_risk":1,"updated_at":"2026-04-09T04:12:32.360404+05:30"},{"city":"Aurangabad","state":"Maharashtra","latitude":19.8762,"longitude":75.3433,"temp":22.2,"humidity":81,"rain":0.0,"pressure":944.3,"uv_index":8.9,"wind_gusts":29.9,"aqi":65,"pm10":40.3,"pm2_5":16.8,"mosquito_risk":3,"arthritis_risk":5,"migraine_risk":7,"frizz_risk":1,"updated_at":"2026-04-09T04:12:32.360410+05:30"},{"city":"Solapur","state":"Maharashtra","latitude":17.6599,"longitude":75.9064,"temp":25.0,"humidity":53,"rain":0.0,"pressure":956.9,"uv_index":9.0,"wind_gusts":22.7,"aqi":72,"pm10":37.3,"pm2_5":21.6,"mosquito_risk":4,"arthritis_risk":5,"migraine_risk":7,"frizz_risk":0,"updated_at":"2026-04-09T04:12:32.360418+05:30"},{"city":"Kolhapur","state":"Maharashtra","latitude":16.705,"longitude":74.2433,"temp":20.0,"humidity":92,"rain":0.0,"pressure":947.5,"uv_index":9.0,"wind_gusts":38.2,"aqi":78,"pm10":45.3,"pm2_5":21.8,"mosquito_risk":3,"arthritis_risk":5,"migraine_risk":7,"frizz_risk":1,"updated_at":"2026-04-09T04:12:32.360424+05:30"},{"city":"Goa","state":"Goa","latitude":15.2993,"longitude":74.124,"temp":27.1,"humidity":80,"rain":0.0,"pressure":998.1,"uv_index":9.0,"wind_gusts":36.4,"aqi":70,"pm10":58.7,"pm2_5":25.1,"mosquito_risk":7,"arthritis_risk":5,"migraine_risk":7,"frizz_risk":1,"updated_at":"2026-04-09T04:12:32.360432+05:30"},{"city":"Jodhpur","state":"Rajasthan","latitude":26.2389,"longitude":73.0243,"temp":22.4,"humidity":50,"rain":0.0,"pressure":984.4,"uv_index":8.0,"wind_gusts":27.7,"aqi":102,"pm10":111.3,"pm2_5":22.5,"mosquito_risk":0,"arthritis_risk":5,"migraine_risk":7,"frizz_risk":0,"updated_at":"2026-04-09T04:12:32.360439+05:30"},{"city":"Udaipur","state":"Rajasthan","latitude":24.5854,"longitude":73.7125,"temp":19.8,"humidity":56,"rain":0.0,"pressure":946.5,"uv_index":8.5,"wind_gusts":40.3,"aqi":61,"pm10":65.0,"pm2_5":23.3,"mosquito_risk":0,"arthritis_risk":5,"migraine_risk":7,"frizz_risk":0,"updated_at":"2026-04-09T04:12:32.360446+05:30"},{"city":"Kota","state":"Rajasthan","latitude":25.2138,"longitude":75.8648,"temp":22.6,"humidity":60,"rain":0.0,"pressure":980.1,"uv_index":8.0,"wind_gusts":20.5,"aqi":117,"pm10":133.2,"pm2_5":51.7,"mosquito_risk":0,"arthritis_risk":5,"migraine_risk":7,"frizz_risk":0,"updated_at":"2026-04-09T04:12:32.360452+05:30"},{"city":"Bikaner","state":"Rajasthan","latitude":28.0229,"longitude":73.3119,"temp":22.0,"humidity":48,"rain":0.0,"pressure":984.2,"uv_index":7.8,"wind_gusts":21.6,"aqi":61,"pm10":175.1,"pm2_5":37.4,"mosquito_risk":0,"arthritis_risk":5,"migraine_risk":7,"frizz_risk":0,"updated_at":"2026-04-09T04:12:32.360459+05:30"},{"city":"Ajmer","state":"Rajasthan","latitude":26.4499,"longitude":74.6399,"temp":20.9,"humidity":57,"rain":0.0,"pressure":955.3,"uv_index":7.95,"wind_gusts":25.2,"aqi":79,"pm10":99.0,"pm2_5":27.0,"mosquito_risk":0,"arthritis_risk":5,"migraine_risk":7,"frizz_risk":0,"updated_at":"2026-04-09T04:12:32.360465+05:30"},{"city":"Gwalior","state":"Madhya Pradesh","latitude":26.2183,"longitude":78.1828,"temp":19.3,"humidity":86,"rain":0.0,"pressure":986.0,"uv_index":7.75,"wind_gusts":26.6,"aqi":85,"pm10":226.3,"pm2_5":58.7,"mosquito_risk":3,"arthritis_risk":10,"migraine_risk":7,"frizz_risk":1,"updated_at":"2026-04-09T04:12:32.360472+05:30"},{"city":"Indore","state":"Madhya Pradesh","latitude":22.7196,"longitude":75.8577,"temp":21.0,"humidity":68,"rain":0.0,"pressure":947.9,"uv_index":8.4,"wind_gusts":23.8,"aqi":73,"pm10":44.1,"pm2_5":28.8,"mosquito_risk":3,"arthritis_risk":5,"migraine_risk":7,"frizz_risk":0,"updated_at":"2026-04-09T04:12:32.360478+05:30"},{"city":"Bhopal","state":"Madhya Pradesh","latitude":23.2599,"longitude":77.4126,"temp":21.5,"humidity":60,"rain":0.0,"pressure":954.0,"uv_index":8.4,"wind_gusts":26.6,"aqi":71,"pm10":51.7,"pm2_5":23.1,"mosquito_risk":0,"arthritis_risk":5,"migraine_risk":7,"frizz_risk":0,"updated_at":"2026-04-09T04:12:32.360484+05:30"},{"city":"Jabalpur","state":"Madhya Pradesh","latitude":23.1815,"longitude":79.9864,"temp":22.3,"humidity":74,"rain":0.0,"pressure":961.9,"uv_index":8.55,"wind_gusts":26.6,"aqi":118,"pm10":102.9,"pm2_5":65.7,"mosquito_risk":3,"arthritis_risk":5,"migraine_risk":7,"frizz_risk":1,"updated_at":"2026-04-09T04:12:32.360491+05:30"},{"city":"Ujjain","state":"Madhya Pradesh","latitude":23.1765,"longitude":75.7885,"temp":21.7,"humidity":60,"rain":0.0,"pressure":953.8,"uv_index":8.35,"wind_gusts":23.0,"aqi":68,"pm10":44.5,"pm2_5":29.8,"mosquito_risk":0,"arthritis_risk":5,"migraine_risk":7,"frizz_risk":0,"updated_at":"2026-04-09T04:12:32.360498+05:30"},{"city":"Visakhapatnam","state":"Andhra Pradesh","latitude":17.6868,"longitude":83.2185,"temp":26.9,"humidity":93,"rain":0.0,"pressure":1003.5,"uv_index":9.15,"wind_gusts":43.9,"aqi":91,"pm10":39.3,"pm2_5":36.0,"mosquito_risk":7,"arthritis_risk":5,"migraine_risk":4,"frizz_risk":1,"updated_at":"2026-04-09T04:12:32.360504+05:30"},{"city":"Vijayawada","state":"Andhra Pradesh","latitude":16.5062,"longitude":80.648,"temp":27.7,"humidity":89,"rain":0.0,"pressure":1002.2,"uv_index":9.2,"wind_gusts":30.6,"aqi":98,"pm10":23.2,"pm2_5":20.1,"mosquito_risk":7,"arthritis_risk":5,"migraine_risk":4,"frizz_risk":1,"updated_at":"2026-04-09T04:12:32.360511+05:30"},{"city":"Guntur","state":"Andhra Pradesh","latitude":16.3067,"longitude":80.4365,"temp":27.9,"humidity":88,"rain":0.0,"pressure":1003.1,"uv_index":9.2,"wind_gusts":33.1,"aqi":97,"pm10":20.8,"pm2_5":17.8,"mosquito_risk":7,"arthritis_risk":5,"migraine_risk":4,"frizz_risk":1,"updated_at":"2026-04-09T04:12:32.360517+05:30"},{"city":"Nellore","state":"Andhra Pradesh","latitude":14.4426,"longitude":79.9865,"temp":28.2,"humidity":86,"rain":0.0,"pressure":1005.0,"uv_index":9.3,"wind_gusts":33.8,"aqi":85,"pm10":22.8,"pm2_5":20.2,"mosquito_risk":7,"arthritis_risk":5,"migraine_risk":4,"frizz_risk":1,"updated_at":"2026-04-09T04:12:32.360525+05:30"},{"city":"Kurnool","state":"Andhra Pradesh","latitude":15.8281,"longitude":78.0373,"temp":28.0,"humidity":71,"rain":0.0,"pressure":975.6,"uv_index":9.2,"wind_gusts":28.1,"aqi":75,"pm10":34.0,"pm2_5":29.6,"mosquito_risk":7,"arthritis_risk":5,"migraine_risk":7,"frizz_risk":1,"updated_at":"2026-04-09T04:12:32.360533+05:30"},{"city":"Kakinada","state":"Andhra Pradesh","latitude":16.9891,"longitude":82.2475,"temp":27.1,"humidity":92,"rain":0.0,"pressure":1007.5,"uv_index":9.15,"wind_gusts":29.2,"aqi":81,"pm10":33.1,"pm2_5":26.8,"mosquito_risk":7,"arthritis_risk":5,"migraine_risk":4,"frizz_risk":1,"updated_at":"2026-04-09T04:12:32.360540+05:30"},{"city":"Tirupati","state":"Andhra Pradesh","latitude":13.6288,"longitude":79.4192,"temp":27.0,"humidity":88,"rain":0.0,"pressure":991.8,"uv_index":9.35,"wind_gusts":33.8,"aqi":103,"pm10":36.7,"pm2_5":34.2,"mosquito_risk":7,"arthritis_risk":5,"migraine_risk":7,"frizz_risk":1,"updated_at":"2026-04-09T04:12:32.360547+05:30"},{"city":"Warangal","state":"Telangana","latitude":17.9689,"longitude":79.5941,"temp":26.8,"humidity":85,"rain":0.0,"pressure":977.7,"uv_index":9.05,"wind_gusts":24.5,"aqi":102,"pm10":44.6,"pm2_5":43.5,"mosquito_risk":7,"arthritis_risk":5,"migraine_risk":7,"frizz_risk":1,"updated_at":"2026-04-09T04:12:32.360553+05:30"},{"city":"Nizamabad","state":"Telangana","latitude":18.6725,"longitude":78.0941,"temp":25.4,"humidity":60,"rain":0.0,"pressure":964.5,"uv_index":9.0,"wind_gusts":26.6,"aqi":90,"pm10":61.0,"pm2_5":34.3,"mosquito_risk":4,"arthritis_risk":5,"migraine_risk":7,"frizz_risk":1,"updated_at":"2026-04-09T04:12:32.360560+05:30"},{"city":"Mysore","state":"Karnataka","latitude":12.2958,"longitude":76.6396,"temp":22.8,"humidity":90,"rain":0.0,"pressure":928.6,"uv_index":9.55,"wind_gusts":34.6,"aqi":46,"pm10":18.7,"pm2_5":13.6,"mosquito_risk":3,"arthritis_risk":5,"migraine_risk":7,"frizz_risk":1,"updated_at":"2026-04-09T04:12:32.360566+05:30"},{"city":"Mangalore","state":"Karnataka","latitude":12.9141,"longitude":74.856,"temp":28.9,"humidity":79,"rain":0.0,"pressure":1006.8,"uv_index":9.15,"wind_gusts":35.3,"aqi":67,"pm10":58.7,"pm2_5":26.2,"mosquito_risk":7,"arthritis_risk":5,"migraine_risk":4,"frizz_risk":1,"updated_at":"2026-04-09T04:12:32.360572+05:30"},{"city":"Hubli-Dharwad","state":"Karnataka","latitude":15.3647,"longitude":75.124,"temp":21.5,"humidity":95,"rain":0.0,"pressure":940.2,"uv_index":9.2,"wind_gusts":40.0,"aqi":63,"pm10":38.9,"pm2_5":18.6,"mosquito_risk":3,"arthritis_risk":5,"migraine_risk":7,"frizz_risk":1,"updated_at":"2026-04-09T04:12:32.360578+05:30"},{"city":"Belgaum","state":"Karnataka","latitude":15.8497,"longitude":74.4977,"temp":18.9,"humidity":97,"rain":0.0,"pressure":924.5,"uv_index":9.25,"wind_gusts":36.4,"aqi":74,"pm10":61.0,"pm2_5":24.3,"mosquito_risk":3,"arthritis_risk":10,"migraine_risk":7,"frizz_risk":1,"updated_at":"2026-04-09T04:12:35.715688+05:30"},{"city":"Coimbatore","state":"Tamil Nadu","latitude":11.0168,"longitude":76.9558,"temp":24.7,"humidity":74,"rain":0.0,"pressure":962.1,"uv_index":9.45,"wind_gusts":43.6,"aqi":50,"pm10":12.6,"pm2_5":11.6,"mosquito_risk":3,"arthritis_risk":5,"migraine_risk":7,"frizz_risk":1,"updated_at":"2026-04-09T04:12:35.715719+05:30"},{"city":"Madurai","state":"Tamil Nadu","latitude":9.9252,"longitude":78.1198,"temp":26.6,"humidity":83,"rain":0.0,"pressure":993.2,"uv_index":9.4,"wind_gusts":32.4,"aqi":96,"pm10":36.3,"pm2_5":32.6,"mosquito_risk":7,"arthritis_risk":5,"migraine_risk":7,"frizz_risk":1,"updated_at":"2026-04-09T04:12:35.715729+05:30"},{"city":"Trichy","state":"Tamil Nadu","latitude":10.7905,"longitude":78.7047,"temp":27.3,"humidity":90,"rain":0.0,"pressure":1000.2,"uv_index":9.4,"wind_gusts":25.9,"aqi":89,"pm10":21.7,"pm2_5":19.5,"mosquito_risk":7,"arthritis_risk":5,"migraine_risk":4,"frizz_risk":1,"updated_at":"2026-04-09T04:12:35.715737+05:30"},{"city":"Salem","state":"Tamil Nadu","latitude":11.6643,"longitude":78.146,"temp":24.6,"humidity":85,"rain":0.0,"pressure":977.9,"uv_index":9.0,"wind_gusts":36.4,"aqi":66,"pm10":33.5,"pm2_5":30.4,"mosquito_risk":3,"arthritis_risk":5,"migraine_risk":7,"frizz_risk":1,"updated_at":"2026-04-09T04:12:35.715745+05:30"},{"city":"Tirunelveli","state":"Tamil Nadu","latitude":8.7139,"longitude":77.7567,"temp":26.9,"humidity":81,"rain":0.0,"pressure":1003.0,"uv_index":9.0,"wind_gusts":35.6,"aqi":69,"pm10":18.4,"pm2_5":15.7,"mosquito_risk":7,"arthritis_risk":5,"migraine_risk":4,"frizz_risk":1,"updated_at":"2026-04-09T04:12:35.715753+05:30"},{"city":"Vellore","state":"Tamil Nadu","latitude":12.9165,"longitude":79.1325,"temp":26.9,"humidity":89,"rain":0.0,"pressure":984.8,"uv_index":9.45,"wind_gusts":23.0,"aqi":118,"pm10":54.7,"pm2_5":51.7,"mosquito_risk":7,"arthritis_risk":5,"migraine_risk":7,"frizz_risk":1,"updated_at":"2026-04-09T04:12:35.715760+05:30"},{"city":"Erode","state":"Tamil Nadu","latitude":11.341,"longitude":77.7172,"temp":26.6,"humidity":81,"rain":0.0,"pressure":989.5,"uv_index":9.45,"wind_gusts":24.5,"aqi":58,"pm10":25.3,"pm2_5":23.7,"mosquito_risk":7,"arthritis_risk":5,"migraine_risk":7,"frizz_risk":1,"updated_at":"2026-04-09T04:12:35.715767+05:30"},{"city":"Kochi","state":"Kerala","latitude":9.9312,"longitude":76.2673,"temp":28.7,"humidity":79,"rain":0.0,"pressure":1008.8,"uv_index":9.0,"wind_gusts":30.2,"aqi":62,"pm10":31.5,"pm2_5":28.6,"mosquito_risk":7,"arthritis_risk":0,"migraine_risk":4,"frizz_risk":1,"updated_at":"2026-04-09T04:12:35.715775+05:30"},{"city":"Thiruvananthapuram","state":"Kerala","latitude":8.5241,"longitude":76.9366,"temp":28.7,"humidity":80,"rain":0.0,"pressure":1008.0,"uv_index":9.15,"wind_gusts":36.0,"aqi":52,"pm10":19.0,"pm2_5":10.9,"mosquito_risk":7,"arthritis_risk":0,"migraine_risk":4,"frizz_risk":1,"updated_at":"2026-04-09T04:12:35.715782+05:30"},{"city":"Kozhikode","state":"Kerala","latitude":11.2588,"longitude":75.7804,"temp":28.7,"humidity":82,"rain":0.0,"pressure":1008.1,"uv_index":9.15,"wind_gusts":29.9,"aqi":54,"pm10":65.2,"pm2_5":24.6,"mosquito_risk":7,"arthritis_risk":0,"migraine_risk":4,"frizz_risk":1,"updated_at":"2026-04-09T04:12:35.715788+05:30"},{"city":"Thrissur","state":"Kerala","latitude":10.5276,"longitude":76.2144,"temp":27.5,"humidity":85,"rain":0.0,"pressure":1007.1,"uv_index":9.15,"wind_gusts":32.8,"aqi":61,"pm10":27.4,"pm2_5":24.8,"mosquito_risk":7,"arthritis_risk":5,"migraine_risk":4,"frizz_risk":1,"updated_at":"2026-04-09T04:12:35.715796+05:30"},{"city":"Kannur","state":"Kerala","latitude":11.8745,"longitude":75.3704,"temp":28.0,"humidity":81,"rain":0.0,"pressure":1007.3,"uv_index":9.15,"wind_gusts":36.7,"aqi":59,"pm10":53.8,"pm2_5":25.1,"mosquito_risk":7,"arthritis_risk":5,"migraine_risk":4,"frizz_risk":1,"updated_at":"2026-04-09T04:12:35.715804+05:30"},{"city":"Patna","state":"Bihar","latitude":25.5941,"longitude":85.1376,"temp":21.0,"humidity":85,"rain":0.0,"pressure":1003.5,"uv_index":8.3,"wind_gusts":27.4,"aqi":98,"pm10":60.3,"pm2_5":52.0,"mosquito_risk":3,"arthritis_risk":5,"migraine_risk":4,"frizz_risk":1,"updated_at":"2026-04-09T04:12:35.715810+05:30"},{"city":"Gaya","state":"Bihar","latitude":24.7914,"longitude":85.0002,"temp":21.9,"humidity":91,"rain":0.0,"pressure":996.2,"uv_index":8.4,"wind_gusts":22.3,"aqi":99,"pm10":56.0,"pm2_5":49.2,"mosquito_risk":3,"arthritis_risk":5,"migraine_risk":7,"frizz_risk":1,"updated_at":"2026-04-09T04:12:35.715817+05:30"},{"city":"Muzaffarpur","state":"Bihar","latitude":26.1209,"longitude":85.3647,"temp":19.3,"humidity":87,"rain":0.0,"pressure":1003.6,"uv_index":8.3,"wind_gusts":20.5,"aqi":118,"pm10":60.8,"pm2_5":52.4,"mosquito_risk":3,"arthritis_risk":10,"migraine_risk":4,"frizz_risk":1,"updated_at":"2026-04-09T04:12:35.715824+05:30"},{"city":"Bhagalpur","state":"Bihar","latitude":25.2425,"longitude":87.0117,"temp":20.4,"humidity":90,"rain":0.0,"pressure":1004.7,"uv_index":8.3,"wind_gusts":23.4,"aqi":110,"pm10":34.6,"pm2_5":30.9,"mosquito_risk":3,"arthritis_risk":5,"migraine_risk":4,"frizz_risk":1,"updated_at":"2026-04-09T04:12:35.715830+05:30"},{"city":"Ranchi","state":"Jharkhand","latitude":23.3441,"longitude":85.3096,"temp":19.8,"humidity":94,"rain":0.0,"pressure":938.5,"uv_index":8.8,"wind_gusts":30.6,"aqi":109,"pm10":98.5,"pm2_5":60.1,"mosquito_risk":3,"arthritis_risk":10,"migraine_risk":7,"frizz_risk":1,"updated_at":"2026-04-09T04:12:35.715837+05:30"},{"city":"Jamshedpur","state":"Jharkhand","latitude":22.8046,"longitude":86.2029,"temp":22.2,"humidity":89,"rain":0.0,"pressure":992.9,"uv_index":8.6,"wind_gusts":17.6,"aqi":105,"pm10":34.7,"pm2_5":32.1,"mosquito_risk":3,"arthritis_risk":5,"migraine_risk":7,"frizz_risk":1,"updated_at":"2026-04-09T04:12:35.715843+05:30"},{"city":"Dhanbad","state":"Jharkhand","latitude":23.7957,"longitude":86.4304,"temp":21.9,"humidity":90,"rain":0.0,"pressure":981.7,"uv_index":8.7,"wind_gusts":23.4,"aqi":152,"pm10":77.5,"pm2_5":74.3,"mosquito_risk":3,"arthritis_risk":5,"migraine_risk":7,"frizz_risk":1,"updated_at":"2026-04-09T04:12:35.715850+05:30"},{"city":"Bokaro","state":"Jharkhand","latitude":23.6693,"longitude":86.1511,"temp":21.8,"humidity":93,"rain":0.1,"pressure":985.7,"uv_index":8.7,"wind_gusts":23.8,"aqi":156,"pm10":83.8,"pm2_5":78.2,"mosquito_risk":6,"arthritis_risk":5,"migraine_risk":7,"frizz_risk":1,"updated_at":"2026-04-09T04:12:35.715856+05:30"},{"city":"Bhubaneswar","state":"Odisha","latitude":20.2961,"longitude":85.8245,"temp":26.3,"humidity":94,"rain":0.0,"pressure":1002.4,"uv_index":9.0,"wind_gusts":29.2,"aqi":73,"pm10":31.2,"pm2_5":28.4,"mosquito_risk":7,"arthritis_risk":5,"migraine_risk":4,"frizz_risk":1,"updated_at":"2026-04-09T04:12:35.715863+05:30"},{"city":"Cuttack","state":"Odisha","latitude":20.4625,"longitude":85.8828,"temp":25.7,"humidity":96,"rain":0.0,"pressure":1004.5,"uv_index":9.05,"wind_gusts":28.4,"aqi":73,"pm10":31.2,"pm2_5":28.4,"mosquito_risk":7,"arthritis_risk":5,"migraine_risk":4,"frizz_risk":1,"updated_at":"2026-04-09T04:12:35.715869+05:30"},{"city":"Rourkela","state":"Odisha","latitude":22.2604,"longitude":84.8536,"temp":22.4,"humidity":90,"rain":0.0,"pressure":986.6,"uv_index":8.4,"wind_gusts":23.0,"aqi":120,"pm10":71.5,"pm2_5":44.4,"mosquito_risk":3,"arthritis_risk":5,"migraine_risk":7,"frizz_risk":1,"updated_at":"2026-04-09T04:12:35.715875+05:30"},{"city":"Raipur","state":"Chhattisgarh","latitude":21.2514,"longitude":81.6296,"temp":26.0,"humidity":57,"rain":0.0,"pressure":974.5,"uv_index":8.85,"wind_gusts":27.0,"aqi":107,"pm10":75.0,"pm2_5":42.6,"mosquito_risk":4,"arthritis_risk":5,"migraine_risk":7,"frizz_risk":1,"updated_at":"2026-04-09T04:12:35.715881+05:30"},{"city":"Bhilai","state":"Chhattisgarh","latitude":21.1938,"longitude":81.3509,"temp":25.9,"humidity":60,"rain":0.0,"pressure":974.8,"uv_index":8.85,"wind_gusts":24.8,"aqi":100,"pm10":79.4,"pm2_5":47.7,"mosquito_risk":4,"arthritis_risk":5,"migraine_risk":7,"frizz_risk":1,"updated_at":"2026-04-09T04:12:35.715887+05:30"},{"city":"Guwahati","state":"Assam","latitude":26.1158,"longitude":91.7086,"temp":22.4,"humidity":87,"rain":0.0,"pressure":1004.2,"uv_index":8.0,"wind_gusts":22.7,"aqi":71,"pm10":29.7,"pm2_5":26.0,"mosquito_risk":3,"arthritis_risk":5,"migraine_risk":4,"frizz_risk":1,"updated_at":"2026-04-09T04:12:35.715893+05:30"},{"city":"Agartala","state":"Tripura","latitude":23.8315,"longitude":91.2868,"temp":21.4,"humidity":96,"rain":0.0,"pressure":1008.1,"uv_index":7.8,"wind_gusts":19.1,"aqi":107,"pm10":36.4,"pm2_5":34.3,"mosquito_risk":3,"arthritis_risk":0,"migraine_risk":4,"frizz_risk":1,"updated_at":"2026-04-09T04:12:35.715900+05:30"},{"city":"Shillong","state":"Meghalaya","latitude":25.5788,"longitude":91.8933,"temp":11.8,"humidity":89,"rain":0.3,"pressure":855.5,"uv_index":7.85,"wind_gusts":42.5,"aqi":58,"pm10":20.0,"pm2_5":15.7,"mosquito_risk":6,"arthritis_risk":10,"migraine_risk":7,"frizz_risk":0,"updated_at":"2026-04-09T04:12:35.715907+05:30"},{"city":"Imphal","state":"Manipur","latitude":24.817,"longitude":93.9368,"temp":15.9,"humidity":76,"rain":0.0,"pressure":924.3,"uv_index":8.8,"wind_gusts":58.0,"aqi":71,"pm10":42.3,"pm2_5":39.0,"mosquito_risk":3,"arthritis_risk":5,"migraine_risk":7,"frizz_risk":0,"updated_at":"2026-04-09T04:12:35.715913+05:30"},{"city":"Aizawl","state":"Mizoram","latitude":23.7271,"longitude":92.7176,"temp":16.7,"humidity":87,"rain":0.0,"pressure":893.7,"uv_index":3.3,"wind_gusts":49.3,"aqi":64,"pm10":25.8,"pm2_5":23.7,"mosquito_risk":3,"arthritis_risk":10,"migraine_risk":3,"frizz_risk":0,"updated_at":"2026-04-09T04:12:35.715920+05:30"},{"city":"Kohima","state":"Nagaland","latitude":25.6701,"longitude":94.1077,"temp":13.6,"humidity":71,"rain":0.0,"pressure":855.0,"uv_index":8.65,"wind_gusts":70.9,"aqi":53,"pm10":21.4,"pm2_5":18.9,"mosquito_risk":3,"arthritis_risk":5,"migraine_risk":7,"frizz_risk":0,"updated_at":"2026-04-09T04:12:35.715926+05:30"},{"city":"Gangtok","state":"Sikkim","latitude":27.3314,"longitude":88.6138,"temp":10.8,"humidity":84,"rain":0.0,"pressure":836.3,"uv_index":5.6,"wind_gusts":22.7,"aqi":61,"pm10":19.3,"pm2_5":16.0,"mosquito_risk":3,"arthritis_risk":10,"migraine_risk":3,"frizz_risk":0,"updated_at":"2026-04-09T04:12:35.715932+05:30"},{"city":"Siliguri","state":"West Bengal","latitude":26.7271,"longitude":88.3953,"temp":18.4,"humidity":74,"rain":0.0,"pressure":996.6,"uv_index":7.7,"wind_gusts":26.3,"aqi":84,"pm10":27.1,"pm2_5":22.2,"mosquito_risk":3,"arthritis_risk":5,"migraine_risk":7,"frizz_risk":0,"updated_at":"2026-04-09T04:12:39.074075+05:30"},{"city":"Durgapur","state":"West Bengal","latitude":23.5204,"longitude":87.3119,"temp":22.4,"humidity":94,"rain":0.1,"pressure":997.4,"uv_index":8.7,"wind_gusts":18.0,"aqi":122,"pm10":53.3,"pm2_5":50.9,"mosquito_risk":6,"arthritis_risk":5,"migraine_risk":7,"frizz_risk":1,"updated_at":"2026-04-09T04:12:39.074106+05:30"},{"city":"Asansol","state":"West Bengal","latitude":23.6739,"longitude":86.9524,"temp":22.7,"humidity":93,"rain":0.1,"pressure":995.7,"uv_index":8.7,"wind_gusts":18.4,"aqi":123,"pm10":58.1,"pm2_5":55.9,"mosquito_risk":6,"arthritis_risk":5,"migraine_risk":7,"frizz_risk":1,"updated_at":"2026-04-09T04:12:39.074116+05:30"},{"city":"Pondicherry","state":"Puducherry","latitude":11.9139,"longitude":79.8145,"temp":27.8,"humidity":94,"rain":0.0,"pressure":1008.7,"uv_index":9.3,"wind_gusts":34.2,"aqi":73,"pm10":21.7,"pm2_5":15.2,"mosquito_risk":7,"arthritis_risk":0,"migraine_risk":4,"frizz_risk":1,"updated_at":"2026-04-09T04:12:39.074124+05:30"},{"city":"Port Blair","state":"Andaman and Nicobar Islands","latitude":11.6234,"longitude":92.7265,"temp":28.6,"humidity":79,"rain":0.0,"pressure":1007.6,"uv_index":9.25,"wind_gusts":11.5,"aqi":31,"pm10":8.1,"pm2_5":6.1,"mosquito_risk":7,"arthritis_risk":5,"migraine_risk":4,"frizz_risk":1,"updated_at":"2026-04-09T04:12:39.074132+05:30"},{"city":"Haridwar","state":"Uttarakhand","latitude":29.9457,"longitude":78.1642,"temp":14.6,"humidity":92,"rain":0.0,"pressure":978.2,"uv_index":6.9,"wind_gusts":29.9,"aqi":68,"pm10":27.2,"pm2_5":24.2,"mosquito_risk":3,"arthritis_risk":10,"migraine_risk":7,"frizz_risk":0,"updated_at":"2026-04-09T04:12:39.074140+05:30"},{"city":"Rishikesh","state":"Uttarakhand","latitude":30.0869,"longitude":78.2676,"temp":13.4,"humidity":90,"rain":0.0,"pressure":970.5,"uv_index":6.95,"wind_gusts":33.1,"aqi":55,"pm10":18.9,"pm2_5":14.0,"mosquito_risk":3,"arthritis_risk":10,"migraine_risk":7,"frizz_risk":0,"updated_at":"2026-04-09T04:12:39.074148+05:30"},{"city":"Nainital","state":"Uttarakhand","latitude":29.3919,"longitude":79.4542,"temp":10.5,"humidity":71,"rain":0.0,"pressure":803.8,"uv_index":7.8,"wind_gusts":41.4,"aqi":60,"pm10":17.1,"pm2_5":10.6,"mosquito_risk":3,"arthritis_risk":5,"migraine_risk":7,"frizz_risk":0,"updated_at":"2026-04-09T04:12:39.074154+05:30"},{"city":"Mussoorie","state":"Uttarakhand","latitude":30.4599,"longitude":78.0664,"temp":8.2,"humidity":82,"rain":0.0,"pressure":800.0,"uv_index":7.3,"wind_gusts":26.6,"aqi":66,"pm10":24.2,"pm2_5":19.8,"mosquito_risk":3,"arthritis_risk":10,"migraine_risk":7,"frizz_risk":0,"updated_at":"2026-04-09T04:12:39.074161+05:30"},{"city":"Dharamshala","state":"Himachal Pradesh","latitude":32.219,"longitude":76.3234,"temp":12.2,"humidity":65,"rain":0.0,"pressure":868.2,"uv_index":7.5,"wind_gusts":21.6,"aqi":64,"pm10":3.8,"pm2_5":3.1,"mosquito_risk":3,"arthritis_risk":5,"migraine_risk":7,"frizz_risk":0,"updated_at":"2026-04-09T04:12:39.074168+05:30"},{"city":"Dalhousie","state":"Himachal Pradesh","latitude":32.5387,"longitude":75.971,"temp":8.3,"humidity":65,"rain":0.0,"pressure":800.9,"uv_index":7.75,"wind_gusts":18.4,"aqi":55,"pm10":25.2,"pm2_5":20.9,"mosquito_risk":3,"arthritis_risk":5,"migraine_risk":7,"frizz_risk":0,"updated_at":"2026-04-09T04:12:39.074176+05:30"},{"city":"Patiala","state":"Punjab","latitude":30.3398,"longitude":76.3869,"temp":16.5,"humidity":93,"rain":0.0,"pressure":982.3,"uv_index":6.9,"wind_gusts":23.0,"aqi":77,"pm10":37.3,"pm2_5":26.7,"mosquito_risk":3,"arthritis_risk":10,"migraine_risk":7,"frizz_risk":0,"updated_at":"2026-04-09T04:12:39.074183+05:30"},{"city":"Bhatinda","state":"Punjab","latitude":30.211,"longitude":74.9455,"temp":17.3,"humidity":88,"rain":0.0,"pressure":987.1,"uv_index":7.6,"wind_gusts":25.2,"aqi":97,"pm10":38.3,"pm2_5":34.6,"mosquito_risk":3,"arthritis_risk":10,"migraine_risk":7,"frizz_risk":0,"updated_at":"2026-04-09T04:12:39.074190+05:30"},{"city":"Rohtak","state":"Haryana","latitude":28.8955,"longitude":76.6066,"temp":16.9,"humidity":97,"rain":0.0,"pressure":985.0,"uv_index":7.1,"wind_gusts":21.6,"aqi":143,"pm10":83.6,"pm2_5":52.9,"mosquito_risk":3,"arthritis_risk":10,"migraine_risk":7,"frizz_risk":1,"updated_at":"2026-04-09T04:12:39.074197+05:30"},{"city":"Panipat","state":"Haryana","latitude":29.3909,"longitude":76.9635,"temp":16.3,"humidity":97,"rain":0.0,"pressure":984.2,"uv_index":6.9,"wind_gusts":20.2,"aqi":121,"pm10":63.6,"pm2_5":45.5,"mosquito_risk":3,"arthritis_risk":10,"migraine_risk":7,"frizz_risk":0,"updated_at":"2026-04-09T04:12:39.074224+05:30"},{"city":"Mathura","state":"Uttar Pradesh","latitude":27.4924,"longitude":77.6737,"temp":17.8,"humidity":92,"rain":0.0,"pressure":990.5,"uv_index":7.4,"wind_gusts":22.7,"aqi":270,"pm10":293.4,"pm2_5":67.1,"mosquito_risk":3,"arthritis_risk":10,"migraine_risk":7,"frizz_risk":1,"updated_at":"2026-04-09T04:12:39.074232+05:30"},{"city":"Vrindavan","state":"Uttar Pradesh","latitude":27.5823,"longitude":77.7027,"temp":17.4,"humidity":95,"rain":0.0,"pressure":990.9,"uv_index":7.35,"wind_gusts":23.8,"aqi":270,"pm10":293.4,"pm2_5":67.1,"mosquito_risk":3,"arthritis_risk":10,"migraine_risk":7,"frizz_risk":1,"updated_at":"2026-04-09T04:12:39.074239+05:30"},{"city":"Ayodhya","state":"Uttar Pradesh","latitude":26.7922,"longitude":82.1998,"temp":17.5,"humidity":87,"rain":0.0,"pressure":998.9,"uv_index":7.7,"wind_gusts":33.8,"aqi":105,"pm10":78.2,"pm2_5":54.8,"mosquito_risk":3,"arthritis_risk":10,"migraine_risk":7,"frizz_risk":0,"updated_at":"2026-04-09T04:12:39.074247+05:30"},{"city":"Ratlam","state":"Madhya Pradesh","latitude":23.3315,"longitude":75.0367,"temp":22.4,"humidity":74,"rain":0.0,"pressure":954.7,"uv_index":8.3,"wind_gusts":27.4,"aqi":63,"pm10":38.5,"pm2_5":22.0,"mosquito_risk":3,"arthritis_risk":5,"migraine_risk":7,"frizz_risk":1,"updated_at":"2026-04-09T04:12:39.074254+05:30"},{"city":"Sagar","state":"Madhya Pradesh","latitude":23.8388,"longitude":78.7378,"temp":21.0,"humidity":68,"rain":0.0,"pressure":950.9,"uv_index":8.4,"wind_gusts":25.9,"aqi":69,"pm10":49.2,"pm2_5":20.3,"mosquito_risk":3,"arthritis_risk":5,"migraine_risk":7,"frizz_risk":0,"updated_at":"2026-04-09T04:12:39.074261+05:30"},{"city":"Satna","state":"Madhya Pradesh","latitude":24.6005,"longitude":80.8322,"temp":21.4,"humidity":76,"rain":0.0,"pressure":973.2,"uv_index":8.4,"wind_gusts":24.8,"aqi":78,"pm10":62.4,"pm2_5":34.1,"mosquito_risk":3,"arthritis_risk":5,"migraine_risk":7,"frizz_risk":1,"updated_at":"2026-04-09T04:12:39.074268+05:30"},{"city":"Akola","state":"Maharashtra","latitude":20.7002,"longitude":77.0082,"temp":23.8,"humidity":64,"rain":0.0,"pressure":975.3,"uv_index":8.7,"wind_gusts":29.5,"aqi":67,"pm10":37.1,"pm2_5":21.5,"mosquito_risk":3,"arthritis_risk":5,"migraine_risk":7,"frizz_risk":1,"updated_at":"2026-04-09T04:12:39.074275+05:30"},{"city":"Amravati","state":"Maharashtra","latitude":20.9374,"longitude":77.7796,"temp":24.0,"humidity":61,"rain":0.0,"pressure":967.2,"uv_index":8.75,"wind_gusts":20.2,"aqi":67,"pm10":34.5,"pm2_5":20.5,"mosquito_risk":3,"arthritis_risk":5,"migraine_risk":7,"frizz_risk":1,"updated_at":"2026-04-09T04:12:39.074282+05:30"},{"city":"Latur","state":"Maharashtra","latitude":18.4088,"longitude":76.5604,"temp":21.8,"humidity":65,"rain":0.0,"pressure":939.5,"uv_index":8.95,"wind_gusts":28.8,"aqi":72,"pm10":41.6,"pm2_5":23.9,"mosquito_risk":3,"arthritis_risk":5,"migraine_risk":7,"frizz_risk":0,"updated_at":"2026-04-09T04:12:39.074288+05:30"},{"city":"Nanded","state":"Maharashtra","latitude":19.1383,"longitude":77.3091,"temp":23.9,"humidity":68,"rain":0.0,"pressure":968.6,"uv_index":8.9,"wind_gusts":21.2,"aqi":74,"pm10":34.0,"pm2_5":21.5,"mosquito_risk":3,"arthritis_risk":5,"migraine_risk":7,"frizz_risk":1,"updated_at":"2026-04-09T04:12:39.074295+05:30"},{"city":"Gulbarga","state":"Karnataka","latitude":17.3297,"longitude":76.8343,"temp":26.8,"humidity":44,"rain":0.0,"pressure":958.3,"uv_index":9.05,"wind_gusts":32.0,"aqi":76,"pm10":31.1,"pm2_5":21.1,"mosquito_risk":4,"arthritis_risk":5,"migraine_risk":7,"frizz_risk":0,"updated_at":"2026-04-09T04:12:39.074301+05:30"},{"city":"Bidar","state":"Karnataka","latitude":17.9104,"longitude":77.5199,"temp":24.7,"humidity":53,"rain":0.0,"pressure":935.0,"uv_index":9.05,"wind_gusts":34.2,"aqi":90,"pm10":85.7,"pm2_5":42.4,"mosquito_risk":0,"arthritis_risk":5,"migraine_risk":7,"frizz_risk":0,"updated_at":"2026-04-09T04:12:39.074307+05:30"},{"city":"Hospet","state":"Karnataka","latitude":15.2689,"longitude":76.3909,"temp":26.5,"humidity":74,"rain":0.0,"pressure":955.6,"uv_index":9.2,"wind_gusts":21.6,"aqi":60,"pm10":31.3,"pm2_5":20.5,"mosquito_risk":7,"arthritis_risk":5,"migraine_risk":7,"frizz_risk":1,"updated_at":"2026-04-09T04:12:39.074314+05:30"},{"city":"Tirupur","state":"Tamil Nadu","latitude":11.1085,"longitude":77.3411,"temp":26.2,"humidity":76,"rain":0.0,"pressure":975.6,"uv_index":9.45,"wind_gusts":34.9,"aqi":56,"pm10":18.7,"pm2_5":17.3,"mosquito_risk":7,"arthritis_risk":5,"migraine_risk":7,"frizz_risk":1,"updated_at":"2026-04-09T04:12:39.074320+05:30"},{"city":"Alappuzha","state":"Kerala","latitude":9.4981,"longitude":76.3388,"temp":28.5,"humidity":80,"rain":0.0,"pressure":1008.9,"uv_index":8.7,"wind_gusts":28.8,"aqi":58,"pm10":25.2,"pm2_5":19.2,"mosquito_risk":7,"arthritis_risk":0,"migraine_risk":4,"frizz_risk":1,"updated_at":"2026-04-09T04:12:39.074326+05:30"},{"city":"Munnar","state":"Kerala","latitude":10.0889,"longitude":77.0595,"temp":20.7,"humidity":91,"rain":0.0,"pressure":856.7,"uv_index":9.45,"wind_gusts":32.8,"aqi":62,"pm10":21.9,"pm2_5":19.5,"mosquito_risk":3,"arthritis_risk":5,"migraine_risk":7,"frizz_risk":1,"updated_at":"2026-04-09T04:12:39.074334+05:30"},{"city":"Silchar","state":"Assam","latitude":24.8333,"longitude":92.7789,"temp":20.9,"humidity":86,"rain":0.1,"pressure":1008.5,"uv_index":6.3,"wind_gusts":26.6,"aqi":85,"pm10":29.1,"pm2_5":27.0,"mosquito_risk":6,"arthritis_risk":0,"migraine_risk":4,"frizz_risk":1,"updated_at":"2026-04-09T04:12:39.074341+05:30"},{"city":"Dibrugarh","state":"Assam","latitude":27.4728,"longitude":94.912,"temp":20.6,"humidity":84,"rain":0.0,"pressure":999.0,"uv_index":5.05,"wind_gusts":18.0,"aqi":80,"pm10":38.6,"pm2_5":32.6,"mosquito_risk":3,"arthritis_risk":5,"migraine_risk":3,"frizz_risk":1,"updated_at":"2026-04-09T04:12:39.074347+05:30"}]