[{"city":"Delhi","state":"Delhi","latitude":28.6139,"longitude":77.209,"temp":30.5,"humidity":33,"rain":0.0,"pressure":977.6,"uv_index":7.45,"wind_gusts":47.2,"aqi":542,"pm10":616.5,"pm2_5":112.9,"mosquito_risk":0,"arthritis_risk":5,"migraine_risk":7,"frizz_risk":0,"updated_at":"2026-04-27T02:12:08.813128+05:30"},{"city":"Mumbai","state":"Maharashtra","latitude":19.076,"longitude":72.8777,"temp":28.1,"humidity":88,"rain":0.0,"pressure":1006.0,"uv_index":8.05,"wind_gusts":40.3,"aqi":92,"pm10":65.4,"pm2_5":23.1,"mosquito_risk":7,"arthritis_risk":5,"migraine_risk":4,"frizz_risk":1,"updated_at":"2026-04-27T02:12:08.813183+05:30"},{"city":"Bangalore","state":"Karnataka","latitude":12.9716,"longitude":77.5946,"temp":25.4,"humidity":49,"rain":0.0,"pressure":910.5,"uv_index":9.55,"wind_gusts":33.8,"aqi":86,"pm10":25.6,"pm2_5":23.9,"mosquito_risk":4,"arthritis_risk":5,"migraine_risk":7,"frizz_risk":0,"updated_at":"2026-04-27T02:12:08.813201+05:30"},{"city":"Hyderabad","state":"Telangana","latitude":17.385,"longitude":78.4867,"temp":28.5,"humidity":55,"rain":0.0,"pressure":950.6,"uv_index":9.2,"wind_gusts":29.9,"aqi":98,"pm10":37.7,"pm2_5":33.1,"mosquito_risk":4,"arthritis_risk":5,"migraine_risk":7,"frizz_risk":1,"updated_at":"2026-04-27T02:12:08.813211+05:30"},{"city":"Chennai","state":"Tamil Nadu","latitude":13.0827,"longitude":80.2707,"temp":27.9,"humidity":91,"rain":0.0,"pressure":1004.8,"uv_index":9.25,"wind_gusts":56.5,"aqi":47,"pm10":19.7,"pm2_5":13.3,"mosquito_risk":7,"arthritis_risk":5,"migraine_risk":4,"frizz_risk":1,"updated_at":"2026-04-27T02:12:08.813241+05:30"},{"city":"Kolkata","state":"West Bengal","latitude":22.5726,"longitude":88.3639,"temp":28.0,"humidity":85,"rain":0.0,"pressure":1001.1,"uv_index":8.8,"wind_gusts":46.8,"aqi":58,"pm10":19.3,"pm2_5":13.7,"mosquito_risk":7,"arthritis_risk":5,"migraine_risk":4,"frizz_risk":1,"updated_at":"2026-04-27T02:12:08.813257+05:30"},{"city":"Pune","state":"Maharashtra","latitude":18.5204,"longitude":73.8567,"temp":26.3,"humidity":67,"rain":0.0,"pressure":945.3,"uv_index":8.1,"wind_gusts":42.5,"aqi":113,"pm10":37.6,"pm2_5":25.0,"mosquito_risk":7,"arthritis_risk":5,"migraine_risk":7,"frizz_risk":1,"updated_at":"2026-04-27T02:12:08.813266+05:30"},{"city":"Ahmedabad","state":"Gujarat","latitude":23.0225,"longitude":72.5714,"temp":33.0,"humidity":23,"rain":0.0,"pressure":998.2,"uv_index":8.2,"wind_gusts":45.4,"aqi":60,"pm10":20.5,"pm2_5":10.7,"mosquito_risk":0,"arthritis_risk":5,"migraine_risk":7,"frizz_risk":0,"updated_at":"2026-04-27T02:12:08.813274+05:30"},{"city":"Jaipur","state":"Rajasthan","latitude":26.9124,"longitude":75.7873,"temp":32.0,"humidity":22,"rain":0.0,"pressure":955.3,"uv_index":8.05,"wind_gusts":39.6,"aqi":140,"pm10":149.0,"pm2_5":31.3,"mosquito_risk":0,"arthritis_risk":5,"migraine_risk":7,"frizz_risk":0,"updated_at":"2026-04-27T02:12:08.813283+05:30"},{"city":"Lucknow","state":"Uttar Pradesh","latitude":26.8467,"longitude":80.9462,"temp":28.5,"humidity":67,"rain":0.0,"pressure":988.3,"uv_index":7.9,"wind_gusts":42.5,"aqi":179,"pm10":324.1,"pm2_5":71.0,"mosquito_risk":7,"arthritis_risk":5,"migraine_risk":7,"frizz_risk":1,"updated_at":"2026-04-27T02:12:08.813291+05:30"},{"city":"Kanpur","state":"Uttar Pradesh","latitude":26.4499,"longitude":80.3319,"temp":32.2,"humidity":24,"rain":0.0,"pressure":985.5,"uv_index":7.95,"wind_gusts":49.3,"aqi":542,"pm10":341.8,"pm2_5":57.5,"mosquito_risk":0,"arthritis_risk":5,"migraine_risk":7,"frizz_risk":0,"updated_at":"2026-04-27T02:12:08.813300+05:30"},{"city":"Chandigarh","state":"Chandigarh","latitude":30.7333,"longitude":76.7794,"temp":27.0,"humidity":28,"rain":0.0,"pressure":962.8,"uv_index":7.3,"wind_gusts":45.4,"aqi":62,"pm10":21.1,"pm2_5":16.5,"mosquito_risk":4,"arthritis_risk":5,"migraine_risk":7,"frizz_risk":0,"updated_at":"2026-04-27T02:12:08.813307+05:30"},{"city":"Srinagar","state":"Jammu and Kashmir","latitude":34.0837,"longitude":74.7973,"temp":10.0,"humidity":89,"rain":0.0,"pressure":837.4,"uv_index":8.3,"wind_gusts":20.2,"aqi":76,"pm10":35.0,"pm2_5":29.3,"mosquito_risk":3,"arthritis_risk":10,"migraine_risk":7,"frizz_risk":0,"updated_at":"2026-04-27T02:12:08.813315+05:30"},{"city":"Jammu","state":"Jammu and Kashmir","latitude":32.7266,"longitude":74.857,"temp":22.8,"humidity":39,"rain":0.0,"pressure":966.5,"uv_index":8.25,"wind_gusts":30.2,"aqi":67,"pm10":28.6,"pm2_5":23.6,"mosquito_risk":0,"arthritis_risk":5,"migraine_risk":7,"frizz_risk":0,"updated_at":"2026-04-27T02:12:08.813322+05:30"},{"city":"Amritsar","state":"Punjab","latitude":31.634,"longitude":74.8723,"temp":27.2,"humidity":36,"rain":0.0,"pressure":975.1,"uv_index":8.15,"wind_gusts":35.6,"aqi":75,"pm10":43.1,"pm2_5":25.6,"mosquito_risk":4,"arthritis_risk":5,"migraine_risk":7,"frizz_risk":0,"updated_at":"2026-04-27T02:12:08.813330+05:30"},{"city":"Ludhiana","state":"Punjab","latitude":30.901,"longitude":75.8573,"temp":26.9,"humidity":37,"rain":0.0,"pressure":973.1,"uv_index":7.7,"wind_gusts":34.6,"aqi":76,"pm10":45.4,"pm2_5":28.4,"mosquito_risk":4,"arthritis_risk":5,"migraine_risk":7,"frizz_risk":0,"updated_at":"2026-04-27T02:12:08.813339+05:30"},{"city":"Jalandhar","state":"Punjab","latitude":31.326,"longitude":75.5762,"temp":26.2,"humidity":37,"rain":0.0,"pressure":974.1,"uv_index":7.9,"wind_gusts":28.1,"aqi":83,"pm10":39.5,"pm2_5":33.3,"mosquito_risk":4,"arthritis_risk":5,"migraine_risk":7,"frizz_risk":0,"updated_at":"2026-04-27T02:12:08.813346+05:30"},{"city":"Dehradun","state":"Uttarakhand","latitude":30.6284,"longitude":78.0322,"temp":13.5,"humidity":51,"rain":0.0,"pressure":824.4,"uv_index":7.9,"wind_gusts":43.9,"aqi":46,"pm10":24.7,"pm2_5":13.1,"mosquito_risk":0,"arthritis_risk":5,"migraine_risk":7,"frizz_risk":0,"updated_at":"2026-04-27T02:12:08.813353+05:30"},{"city":"Shimla","state":"Himachal Pradesh","latitude":31.1048,"longitude":77.1734,"temp":12.2,"humidity":43,"rain":0.0,"pressure":779.1,"uv_index":7.8,"wind_gusts":50.0,"aqi":51,"pm10":26.1,"pm2_5":13.1,"mosquito_risk":0,"arthritis_risk":5,"migraine_risk":7,"frizz_risk":0,"updated_at":"2026-04-27T02:12:08.813361+05:30"},{"city":"Manali","state":"Himachal Pradesh","latitude":32.2396,"longitude":77.1887,"temp":6.9,"humidity":45,"rain":0.0,"pressure":810.1,"uv_index":9.15,"wind_gusts":41.4,"aqi":64,"pm10":23.3,"pm2_5":9.8,"mosquito_risk":0,"arthritis_risk":5,"migraine_risk":7,"frizz_risk":1,"updated_at":"2026-04-27T02:12:08.813371+05:30"},{"city":"Gurgaon","state":"Haryana","latitude":28.4595,"longitude":77.0266,"temp":27.9,"humidity":33,"rain":0.0,"pressure":975.9,"uv_index":7.55,"wind_gusts":36.4,"aqi":1372,"pm10":702.2,"pm2_5":112.7,"mosquito_risk":4,"arthritis_risk":5,"migraine_risk":7,"frizz_risk":0,"updated_at":"2026-04-27T02:12:08.813379+05:30"},{"city":"Noida","state":"Uttar Pradesh","latitude":28.5355,"longitude":77.391,"temp":29.6,"humidity":28,"rain":0.0,"pressure":978.9,"uv_index":7.45,"wind_gusts":43.9,"aqi":1372,"pm10":702.2,"pm2_5":112.7,"mosquito_risk":4,"arthritis_risk":5,"migraine_risk":7,"frizz_risk":0,"updated_at":"2026-04-27T02:12:08.813386+05:30"},{"city":"Ghaziabad","state":"Uttar Pradesh","latitude":28.6692,"longitude":77.4538,"temp":28.5,"humidity":27,"rain":0.0,"pressure":977.1,"uv_index":7.4,"wind_gusts":41.4,"aqi":451,"pm10":601.6,"pm2_5":112.2,"mosquito_risk":4,"arthritis_risk":5,"migraine_risk":7,"frizz_risk":0,"updated_at":"2026-04-27T02:12:08.813393+05:30"},{"city":"Faridabad","state":"Haryana","latitude":28.4089,"longitude":77.3178,"temp":31.9,"humidity":22,"rain":0.0,"pressure":978.3,"uv_index":7.5,"wind_gusts":47.5,"aqi":1372,"pm10":702.2,"pm2_5":112.7,"mosquito_risk":0,"arthritis_risk":5,"migraine_risk":7,"frizz_risk":0,"updated_at":"2026-04-27T02:12:08.813400+05:30"},{"city":"Meerut","state":"Uttar Pradesh","latitude":28.9845,"longitude":77.7064,"temp":28.1,"humidity":28,"rain":0.0,"pressure":975.8,"uv_index":7.35,"wind_gusts":40.3,"aqi":451,"pm10":601.6,"pm2_5":112.2,"mosquito_risk":4,"arthritis_risk":5,"migraine_risk":7,"frizz_risk":0,"updated_at":"2026-04-27T02:12:08.813407+05:30"},{"city":"Agra","state":"Uttar Pradesh","latitude":27.1767,"longitude":78.0081,"temp":31.0,"humidity":28,"rain":0.0,"pressure":981.9,"uv_index":7.8,"wind_gusts":45.4,"aqi":842,"pm10":245.9,"pm2_5":46.1,"mosquito_risk":0,"arthritis_risk":5,"migraine_risk":7,"frizz_risk":0,"updated_at":"2026-04-27T02:12:08.813415+05:30"},{"city":"Varanasi","state":"Uttar Pradesh","latitude":25.3176,"longitude":82.9739,"temp":28.5,"humidity":67,"rain":0.0,"pressure":992.3,"uv_index":8.5,"wind_gusts":44.3,"aqi":143,"pm10":82.4,"pm2_5":67.1,"mosquito_risk":7,"arthritis_risk":5,"migraine_risk":7,"frizz_risk":1,"updated_at":"2026-04-27T02:12:08.813423+05:30"},{"city":"Prayagraj","state":"Uttar Pradesh","latitude":25.4358,"longitude":81.8463,"temp":28.7,"humidity":56,"rain":0.0,"pressure":990.2,"uv_index":8.4,"wind_gusts":43.6,"aqi":134,"pm10":108.3,"pm2_5":54.0,"mosquito_risk":4,"arthritis_risk":5,"migraine_risk":7,"frizz_risk":1,"updated_at":"2026-04-27T02:12:08.813430+05:30"},{"city":"Gorakhpur","state":"Uttar Pradesh","latitude":26.7606,"longitude":83.3732,"temp":25.1,"humidity":74,"rain":0.0,"pressure":993.5,"uv_index":8.35,"wind_gusts":37.1,"aqi":151,"pm10":70.8,"pm2_5":55.1,"mosquito_risk":7,"arthritis_risk":5,"migraine_risk":7,"frizz_risk":1,"updated_at":"2026-04-27T02:12:08.813437+05:30"},{"city":"Bareilly","state":"Uttar Pradesh","latitude":28.367,"longitude":79.4304,"temp":27.1,"humidity":34,"rain":0.0,"pressure":980.8,"uv_index":7.6,"wind_gusts":45.0,"aqi":121,"pm10":270.1,"pm2_5":65.4,"mosquito_risk":4,"arthritis_risk":5,"migraine_risk":7,"frizz_risk":0,"updated_at":"2026-04-27T02:12:08.813444+05:30"},{"city":"Aligarh","state":"Uttar Pradesh","latitude":27.8974,"longitude":78.088,"temp":29.0,"humidity":31,"rain":0.0,"pressure":979.9,"uv_index":7.6,"wind_gusts":46.8,"aqi":962,"pm10":760.0,"pm2_5":132.7,"mosquito_risk":4,"arthritis_risk":5,"migraine_risk":7,"frizz_risk":0,"updated_at":"2026-04-27T02:12:08.813451+05:30"},{"city":"Moradabad","state":"Uttar Pradesh","latitude":28.8386,"longitude":78.7733,"temp":28.3,"humidity":27,"rain":0.0,"pressure":977.9,"uv_index":7.55,"wind_gusts":48.2,"aqi":130,"pm10":352.0,"pm2_5":84.3,"mosquito_risk":4,"arthritis_risk":5,"migraine_risk":7,"frizz_risk":0,"updated_at":"2026-04-27T02:12:08.813458+05:30"},{"city":"Saharanpur","state":"Uttar Pradesh","latitude":29.9637,"longitude":77.546,"temp":27.5,"humidity":27,"rain":0.0,"pressure":969.6,"uv_index":7.05,"wind_gusts":46.8,"aqi":83,"pm10":118.7,"pm2_5":37.4,"mosquito_risk":4,"arthritis_risk":5,"migraine_risk":7,"frizz_risk":0,"updated_at":"2026-04-27T02:12:08.813467+05:30"},{"city":"Jhansi","state":"Uttar Pradesh","latitude":25.4484,"longitude":78.5685,"temp":30.6,"humidity":28,"rain":0.0,"pressure":972.4,"uv_index":8.3,"wind_gusts":43.6,"aqi":90,"pm10":52.5,"pm2_5":23.2,"mosquito_risk":0,"arthritis_risk":5,"migraine_risk":7,"frizz_risk":0,"updated_at":"2026-04-27T02:12:12.086967+05:30"},{"city":"Surat","state":"Gujarat","latitude":21.1702,"longitude":72.8311,"temp":29.1,"humidity":72,"rain":0.0,"pressure":1002.8,"uv_index":7.85,"wind_gusts":40.7,"aqi":118,"pm10":45.2,"pm2_5":27.1,"mosquito_risk":7,"arthritis_risk":5,"migraine_risk":4,"frizz_risk":1,"updated_at":"2026-04-27T02:12:12.087000+05:30"},{"city":"Vadodara","state":"Gujarat","latitude":22.3072,"longitude":73.1812,"temp":30.7,"humidity":38,"rain":0.0,"pressure":1000.4,"uv_index":8.15,"wind_gusts":41.4,"aqi":77,"pm10":42.4,"pm2_5":29.3,"mosquito_risk":0,"arthritis_risk":5,"migraine_risk":4,"frizz_risk":0,"updated_at":"2026-04-27T02:12:12.087010+05:30"},{"city":"Rajkot","state":"Gujarat","latitude":22.3039,"longitude":70.8022,"temp":27.6,"humidity":50,"rain":0.0,"pressure":991.4,"uv_index":7.9,"wind_gusts":49.0,"aqi":58,"pm10":34.1,"pm2_5":14.1,"mosquito_risk":4,"arthritis_risk":5,"migraine_risk":7,"frizz_risk":1,"updated_at":"2026-04-27T02:12:12.087018+05:30"},{"city":"Thane","state":"Maharashtra","latitude":19.2183,"longitude":72.9781,"temp":27.6,"humidity":91,"rain":0.0,"pressure":1005.4,"uv_index":8.05,"wind_gusts":37.1,"aqi":92,"pm10":65.4,"pm2_5":23.1,"mosquito_risk":7,"arthritis_risk":5,"migraine_risk":4,"frizz_risk":1,"updated_at":"2026-04-27T02:12:12.087025+05:30"},{"city":"Nagpur","state":"Maharashtra","latitude":21.1458,"longitude":79.0882,"temp":32.2,"humidity":26,"rain":0.0,"pressure":969.2,"uv_index":8.55,"wind_gusts":36.7,"aqi":104,"pm10":54.6,"pm2_5":30.3,"mosquito_risk":0,"arthritis_risk":5,"migraine_risk":7,"frizz_risk":0,"updated_at":"2026-04-27T02:12:12.087032+05:30"},{"city":"Nashik","state":"Maharashtra","latitude":19.9975,"longitude":73.7898,"temp":27.0,"humidity":42,"rain":0.0,"pressure":943.1,"uv_index":8.3,"wind_gusts":37.8,"aqi":77,"pm10":55.5,"pm2_5":34.8,"mosquito_risk":4,"arthritis_risk":5,"migraine_risk":7,"frizz_risk":0,"updated_at":"2026-04-27T02:12:12.087039+05:30"},{"city":"Aurangabad","state":"Maharashtra","latitude":19.8762,"longitude":75.3433,"temp":30.5,"humidity":23,"rain":0.0,"pressure":941.0,"uv_index":9.05,"wind_gusts":32.8,"aqi":68,"pm10":28.9,"pm2_5":23.6,"mosquito_risk":0,"arthritis_risk":5,"migraine_risk":7,"frizz_risk":0,"updated_at":"2026-04-27T02:12:12.087046+05:30"},{"city":"Solapur","state":"Maharashtra","latitude":17.6599,"longitude":75.9064,"temp":30.7,"humidity":35,"rain":0.0,"pressure":954.5,"uv_index":9.1,"wind_gusts":32.8,"aqi":107,"pm10":41.1,"pm2_5":37.3,"mosquito_risk":0,"arthritis_risk":5,"migraine_risk":7,"frizz_risk":0,"updated_at":"2026-04-27T02:12:12.087054+05:30"},{"city":"Kolhapur","state":"Maharashtra","latitude":16.705,"longitude":74.2433,"temp":24.5,"humidity":93,"rain":0.0,"pressure":946.2,"uv_index":9.0,"wind_gusts":49.7,"aqi":98,"pm10":26.4,"pm2_5":17.2,"mosquito_risk":3,"arthritis_risk":5,"migraine_risk":7,"frizz_risk":1,"updated_at":"2026-04-27T02:12:12.087061+05:30"},{"city":"Goa","state":"Goa","latitude":15.2993,"longitude":74.124,"temp":28.4,"humidity":88,"rain":0.0,"pressure":995.8,"uv_index":8.95,"wind_gusts":37.1,"aqi":88,"pm10":40.0,"pm2_5":29.1,"mosquito_risk":7,"arthritis_risk":5,"migraine_risk":7,"frizz_risk":1,"updated_at":"2026-04-27T02:12:12.087068+05:30"},{"city":"Jodhpur","state":"Rajasthan","latitude":26.2389,"longitude":73.0243,"temp":32.8,"humidity":19,"rain":0.0,"pressure":978.0,"uv_index":8.3,"wind_gusts":41.8,"aqi":82,"pm10":154.1,"pm2_5":26.4,"mosquito_risk":0,"arthritis_risk":5,"migraine_risk":7,"frizz_risk":0,"updated_at":"2026-04-27T02:12:12.087075+05:30"},{"city":"Udaipur","state":"Rajasthan","latitude":24.5854,"longitude":73.7125,"temp":30.5,"humidity":18,"rain":0.0,"pressure":943.3,"uv_index":8.75,"wind_gusts":44.3,"aqi":50,"pm10":45.1,"pm2_5":14.3,"mosquito_risk":0,"arthritis_risk":5,"migraine_risk":7,"frizz_risk":0,"updated_at":"2026-04-27T02:12:12.087082+05:30"},{"city":"Kota","state":"Rajasthan","latitude":25.2138,"longitude":75.8648,"temp":32.0,"humidity":21,"rain":0.0,"pressure":974.0,"uv_index":8.25,"wind_gusts":29.9,"aqi":89,"pm10":71.0,"pm2_5":40.7,"mosquito_risk":0,"arthritis_risk":5,"migraine_risk":7,"frizz_risk":0,"updated_at":"2026-04-27T02:12:12.087089+05:30"},{"city":"Bikaner","state":"Rajasthan","latitude":28.0229,"longitude":73.3119,"temp":31.8,"humidity":24,"rain":0.0,"pressure":976.4,"uv_index":8.1,"wind_gusts":52.2,"aqi":70,"pm10":68.0,"pm2_5":20.3,"mosquito_risk":0,"arthritis_risk":5,"migraine_risk":7,"frizz_risk":0,"updated_at":"2026-04-27T02:12:12.087096+05:30"},{"city":"Ajmer","state":"Rajasthan","latitude":26.4499,"longitude":74.6399,"temp":30.3,"humidity":27,"rain":0.0,"pressure":950.8,"uv_index":8.25,"wind_gusts":46.8,"aqi":66,"pm10":36.9,"pm2_5":14.8,"mosquito_risk":0,"arthritis_risk":5,"migraine_risk":7,"frizz_risk":0,"updated_at":"2026-04-27T02:12:12.087102+05:30"},{"city":"Gwalior","state":"Madhya Pradesh","latitude":26.2183,"longitude":78.1828,"temp":31.6,"humidity":24,"rain":0.0,"pressure":977.3,"uv_index":8.05,"wind_gusts":46.8,"aqi":117,"pm10":85.7,"pm2_5":24.0,"mosquito_risk":0,"arthritis_risk":5,"migraine_risk":7,"frizz_risk":0,"updated_at":"2026-04-27T02:12:12.087109+05:30"},{"city":"Indore","state":"Madhya Pradesh","latitude":22.7196,"longitude":75.8577,"temp":30.6,"humidity":19,"rain":0.0,"pressure":945.1,"uv_index":8.6,"wind_gusts":49.0,"aqi":70,"pm10":55.9,"pm2_5":35.3,"mosquito_risk":0,"arthritis_risk":5,"migraine_risk":7,"frizz_risk":0,"updated_at":"2026-04-27T02:12:12.087115+05:30"},{"city":"Bhopal","state":"Madhya Pradesh","latitude":23.2599,"longitude":77.4126,"temp":33.0,"humidity":21,"rain":0.0,"pressure":950.0,"uv_index":8.6,"wind_gusts":44.6,"aqi":83,"pm10":71.2,"pm2_5":36.4,"mosquito_risk":0,"arthritis_risk":5,"migraine_risk":7,"frizz_risk":0,"updated_at":"2026-04-27T02:12:12.087121+05:30"},{"city":"Jabalpur","state":"Madhya Pradesh","latitude":23.1815,"longitude":79.9864,"temp":28.9,"humidity":29,"rain":0.0,"pressure":956.8,"uv_index":8.25,"wind_gusts":40.0,"aqi":74,"pm10":72.4,"pm2_5":27.4,"mosquito_risk":4,"arthritis_risk":5,"migraine_risk":7,"frizz_risk":0,"updated_at":"2026-04-27T02:12:12.087127+05:30"},{"city":"Ujjain","state":"Madhya Pradesh","latitude":23.1765,"longitude":75.7885,"temp":29.8,"humidity":20,"rain":0.0,"pressure":950.5,"uv_index":8.55,"wind_gusts":46.1,"aqi":73,"pm10":41.2,"pm2_5":29.7,"mosquito_risk":4,"arthritis_risk":5,"migraine_risk":7,"frizz_risk":0,"updated_at":"2026-04-27T02:12:12.087134+05:30"},{"city":"Visakhapatnam","state":"Andhra Pradesh","latitude":17.6868,"longitude":83.2185,"temp":27.0,"humidity":91,"rain":0.0,"pressure":1000.7,"uv_index":9.15,"wind_gusts":54.4,"aqi":56,"pm10":20.3,"pm2_5":14.8,"mosquito_risk":7,"arthritis_risk":5,"migraine_risk":4,"frizz_risk":1,"updated_at":"2026-04-27T02:12:12.087141+05:30"},{"city":"Vijayawada","state":"Andhra Pradesh","latitude":16.5062,"longitude":80.648,"temp":26.8,"humidity":92,"rain":0.0,"pressure":1000.3,"uv_index":9.2,"wind_gusts":37.1,"aqi":58,"pm10":21.9,"pm2_5":15.9,"mosquito_risk":7,"arthritis_risk":5,"migraine_risk":4,"frizz_risk":1,"updated_at":"2026-04-27T02:12:12.087147+05:30"},{"city":"Guntur","state":"Andhra Pradesh","latitude":16.3067,"longitude":80.4365,"temp":27.2,"humidity":94,"rain":0.0,"pressure":1001.5,"uv_index":9.2,"wind_gusts":42.1,"aqi":59,"pm10":21.2,"pm2_5":15.2,"mosquito_risk":7,"arthritis_risk":5,"migraine_risk":4,"frizz_risk":1,"updated_at":"2026-04-27T02:12:12.087153+05:30"},{"city":"Nellore","state":"Andhra Pradesh","latitude":14.4426,"longitude":79.9865,"temp":26.9,"humidity":88,"rain":0.0,"pressure":1003.2,"uv_index":9.3,"wind_gusts":49.0,"aqi":54,"pm10":15.4,"pm2_5":12.1,"mosquito_risk":7,"arthritis_risk":5,"migraine_risk":4,"frizz_risk":1,"updated_at":"2026-04-27T02:12:12.087160+05:30"},{"city":"Kurnool","state":"Andhra Pradesh","latitude":15.8281,"longitude":78.0373,"temp":30.8,"humidity":50,"rain":0.0,"pressure":974.2,"uv_index":9.2,"wind_gusts":38.2,"aqi":86,"pm10":31.3,"pm2_5":27.2,"mosquito_risk":0,"arthritis_risk":5,"migraine_risk":7,"frizz_risk":1,"updated_at":"2026-04-27T02:12:12.087167+05:30"},{"city":"Kakinada","state":"Andhra Pradesh","latitude":16.9891,"longitude":82.2475,"temp":27.0,"humidity":93,"rain":0.0,"pressure":1005.0,"uv_index":9.2,"wind_gusts":42.5,"aqi":50,"pm10":23.0,"pm2_5":14.7,"mosquito_risk":7,"arthritis_risk":5,"migraine_risk":4,"frizz_risk":1,"updated_at":"2026-04-27T02:12:12.087174+05:30"},{"city":"Tirupati","state":"Andhra Pradesh","latitude":13.6288,"longitude":79.4192,"temp":27.1,"humidity":77,"rain":0.0,"pressure":989.4,"uv_index":9.3,"wind_gusts":46.4,"aqi":65,"pm10":18.9,"pm2_5":16.2,"mosquito_risk":7,"arthritis_risk":5,"migraine_risk":7,"frizz_risk":1,"updated_at":"2026-04-27T02:12:12.087180+05:30"},{"city":"Warangal","state":"Telangana","latitude":17.9689,"longitude":79.5941,"temp":27.5,"humidity":65,"rain":0.0,"pressure":975.9,"uv_index":8.85,"wind_gusts":40.0,"aqi":77,"pm10":24.4,"pm2_5":21.5,"mosquito_risk":7,"arthritis_risk":5,"migraine_risk":7,"frizz_risk":1,"updated_at":"2026-04-27T02:12:12.087186+05:30"},{"city":"Nizamabad","state":"Telangana","latitude":18.6725,"longitude":78.0941,"temp":30.6,"humidity":35,"rain":0.0,"pressure":960.8,"uv_index":9.1,"wind_gusts":29.9,"aqi":102,"pm10":44.6,"pm2_5":41.2,"mosquito_risk":0,"arthritis_risk":5,"migraine_risk":7,"frizz_risk":0,"updated_at":"2026-04-27T02:12:12.087192+05:30"},{"city":"Mysore","state":"Karnataka","latitude":12.2958,"longitude":76.6396,"temp":23.4,"humidity":92,"rain":0.0,"pressure":927.0,"uv_index":9.45,"wind_gusts":44.3,"aqi":90,"pm10":38.0,"pm2_5":34.9,"mosquito_risk":3,"arthritis_risk":5,"migraine_risk":7,"frizz_risk":1,"updated_at":"2026-04-27T02:12:12.087198+05:30"},{"city":"Mangalore","state":"Karnataka","latitude":12.9141,"longitude":74.856,"temp":29.0,"humidity":83,"rain":0.0,"pressure":1005.1,"uv_index":8.45,"wind_gusts":38.9,"aqi":83,"pm10":42.3,"pm2_5":35.2,"mosquito_risk":7,"arthritis_risk":5,"migraine_risk":4,"frizz_risk":1,"updated_at":"2026-04-27T02:12:12.087204+05:30"},{"city":"Hubli-Dharwad","state":"Karnataka","latitude":15.3647,"longitude":75.124,"temp":24.2,"humidity":94,"rain":0.0,"pressure":938.8,"uv_index":9.2,"wind_gusts":48.2,"aqi":94,"pm10":31.2,"pm2_5":27.2,"mosquito_risk":3,"arthritis_risk":5,"migraine_risk":7,"frizz_risk":1,"updated_at":"2026-04-27T02:12:12.087210+05:30"},{"city":"Belgaum","state":"Karnataka","latitude":15.8497,"longitude":74.4977,"temp":22.9,"humidity":98,"rain":0.0,"pressure":923.4,"uv_index":9.25,"wind_gusts":48.2,"aqi":104,"pm10":33.5,"pm2_5":28.3,"mosquito_risk":3,"arthritis_risk":5,"migraine_risk":7,"frizz_risk":1,"updated_at":"2026-04-27T02:12:15.365026+05:30"},{"city":"Coimbatore","state":"Tamil Nadu","latitude":11.0168,"longitude":76.9558,"temp":26.7,"humidity":78,"rain":0.0,"pressure":960.0,"uv_index":9.35,"wind_gusts":46.8,"aqi":82,"pm10":37.4,"pm2_5":35.4,"mosquito_risk":7,"arthritis_risk":5,"migraine_risk":7,"frizz_risk":1,"updated_at":"2026-04-27T02:12:15.365058+05:30"},{"city":"Madurai","state":"Tamil Nadu","latitude":9.9252,"longitude":78.1198,"temp":28.4,"humidity":75,"rain":0.0,"pressure":991.6,"uv_index":9.2,"wind_gusts":46.4,"aqi":47,"pm10":9.8,"pm2_5":9.6,"mosquito_risk":7,"arthritis_risk":5,"migraine_risk":7,"frizz_risk":1,"updated_at":"2026-04-27T02:12:15.365068+05:30"},{"city":"Trichy","state":"Tamil Nadu","latitude":10.7905,"longitude":78.7047,"temp":26.9,"humidity":91,"rain":0.0,"pressure":998.0,"uv_index":9.25,"wind_gusts":41.0,"aqi":49,"pm10":16.6,"pm2_5":14.6,"mosquito_risk":7,"arthritis_risk":5,"migraine_risk":7,"frizz_risk":1,"updated_at":"2026-04-27T02:12:15.365076+05:30"},{"city":"Salem","state":"Tamil Nadu","latitude":11.6643,"longitude":78.146,"temp":27.4,"humidity":72,"rain":0.0,"pressure":975.4,"uv_index":9.3,"wind_gusts":34.2,"aqi":65,"pm10":20.8,"pm2_5":19.8,"mosquito_risk":7,"arthritis_risk":5,"migraine_risk":7,"frizz_risk":1,"updated_at":"2026-04-27T02:12:15.365084+05:30"},{"city":"Tirunelveli","state":"Tamil Nadu","latitude":8.7139,"longitude":77.7567,"temp":27.6,"humidity":75,"rain":0.0,"pressure":1001.4,"uv_index":8.55,"wind_gusts":46.1,"aqi":51,"pm10":14.7,"pm2_5":14.2,"mosquito_risk":7,"arthritis_risk":5,"migraine_risk":4,"frizz_risk":1,"updated_at":"2026-04-27T02:12:15.365091+05:30"},{"city":"Vellore","state":"Tamil Nadu","latitude":12.9165,"longitude":79.1325,"temp":26.1,"humidity":80,"rain":0.0,"pressure":982.4,"uv_index":9.25,"wind_gusts":40.3,"aqi":83,"pm10":35.0,"pm2_5":32.8,"mosquito_risk":7,"arthritis_risk":5,"migraine_risk":7,"frizz_risk":1,"updated_at":"2026-04-27T02:12:15.365098+05:30"},{"city":"Erode","state":"Tamil Nadu","latitude":11.341,"longitude":77.7172,"temp":28.8,"humidity":60,"rain":0.0,"pressure":987.5,"uv_index":9.3,"wind_gusts":45.4,"aqi":54,"pm10":11.7,"pm2_5":11.4,"mosquito_risk":4,"arthritis_risk":5,"migraine_risk":7,"frizz_risk":1,"updated_at":"2026-04-27T02:12:15.365105+05:30"},{"city":"Kochi","state":"Kerala","latitude":9.9312,"longitude":76.2673,"temp":27.8,"humidity":89,"rain":0.0,"pressure":1007.0,"uv_index":9.0,"wind_gusts":35.3,"aqi":68,"pm10":24.7,"pm2_5":23.3,"mosquito_risk":7,"arthritis_risk":5,"migraine_risk":4,"frizz_risk":1,"updated_at":"2026-04-27T02:12:15.365112+05:30"},{"city":"Thiruvananthapuram","state":"Kerala","latitude":8.5241,"longitude":76.9366,"temp":25.5,"humidity":91,"rain":0.0,"pressure":1006.3,"uv_index":8.65,"wind_gusts":34.9,"aqi":45,"pm10":11.8,"pm2_5":9.7,"mosquito_risk":7,"arthritis_risk":5,"migraine_risk":4,"frizz_risk":1,"updated_at":"2026-04-27T02:12:15.365119+05:30"},{"city":"Kozhikode","state":"Kerala","latitude":11.2588,"longitude":75.7804,"temp":25.9,"humidity":91,"rain":0.0,"pressure":1006.6,"uv_index":8.8,"wind_gusts":38.9,"aqi":53,"pm10":22.6,"pm2_5":16.5,"mosquito_risk":7,"arthritis_risk":5,"migraine_risk":4,"frizz_risk":1,"updated_at":"2026-04-27T02:12:15.365126+05:30"},{"city":"Thrissur","state":"Kerala","latitude":10.5276,"longitude":76.2144,"temp":26.3,"humidity":97,"rain":0.0,"pressure":1005.5,"uv_index":9.0,"wind_gusts":33.8,"aqi":66,"pm10":23.7,"pm2_5":22.3,"mosquito_risk":7,"arthritis_risk":5,"migraine_risk":4,"frizz_risk":1,"updated_at":"2026-04-27T02:12:15.365133+05:30"},{"city":"Kannur","state":"Kerala","latitude":11.8745,"longitude":75.3704,"temp":26.0,"humidity":95,"rain":0.0,"pressure":1005.9,"uv_index":9.0,"wind_gusts":37.4,"aqi":69,"pm10":34.7,"pm2_5":29.8,"mosquito_risk":7,"arthritis_risk":5,"migraine_risk":4,"frizz_risk":1,"updated_at":"2026-04-27T02:12:15.365140+05:30"},{"city":"Patna","state":"Bihar","latitude":25.5941,"longitude":85.1376,"temp":24.5,"humidity":81,"rain":0.0,"pressure":996.0,"uv_index":8.6,"wind_gusts":34.9,"aqi":151,"pm10":43.2,"pm2_5":40.0,"mosquito_risk":3,"arthritis_risk":5,"migraine_risk":7,"frizz_risk":1,"updated_at":"2026-04-27T02:12:15.365147+05:30"},{"city":"Gaya","state":"Bihar","latitude":24.7914,"longitude":85.0002,"temp":26.5,"humidity":79,"rain":0.0,"pressure":988.3,"uv_index":8.7,"wind_gusts":31.0,"aqi":136,"pm10":57.6,"pm2_5":54.6,"mosquito_risk":7,"arthritis_risk":5,"migraine_risk":7,"frizz_risk":1,"updated_at":"2026-04-27T02:12:15.365153+05:30"},{"city":"Muzaffarpur","state":"Bihar","latitude":26.1209,"longitude":85.3647,"temp":23.5,"humidity":79,"rain":0.0,"pressure":997.0,"uv_index":8.6,"wind_gusts":36.7,"aqi":152,"pm10":47.3,"pm2_5":43.2,"mosquito_risk":3,"arthritis_risk":5,"migraine_risk":7,"frizz_risk":1,"updated_at":"2026-04-27T02:12:15.365159+05:30"},{"city":"Bhagalpur","state":"Bihar","latitude":25.2425,"longitude":87.0117,"temp":24.0,"humidity":85,"rain":0.0,"pressure":997.5,"uv_index":8.15,"wind_gusts":32.8,"aqi":127,"pm10":24.2,"pm2_5":20.4,"mosquito_risk":3,"arthritis_risk":5,"migraine_risk":7,"frizz_risk":1,"updated_at":"2026-04-27T02:12:15.365165+05:30"},{"city":"Ranchi","state":"Jharkhand","latitude":23.3441,"longitude":85.3096,"temp":25.2,"humidity":57,"rain":0.0,"pressure":933.1,"uv_index":8.55,"wind_gusts":45.4,"aqi":119,"pm10":108.3,"pm2_5":48.2,"mosquito_risk":4,"arthritis_risk":5,"migraine_risk":7,"frizz_risk":1,"updated_at":"2026-04-27T02:12:15.365172+05:30"},{"city":"Jamshedpur","state":"Jharkhand","latitude":22.8046,"longitude":86.2029,"temp":27.9,"humidity":77,"rain":0.0,"pressure":985.9,"uv_index":9.0,"wind_gusts":52.9,"aqi":129,"pm10":49.2,"pm2_5":39.1,"mosquito_risk":7,"arthritis_risk":5,"migraine_risk":7,"frizz_risk":1,"updated_at":"2026-04-27T02:12:15.365178+05:30"},{"city":"Dhanbad","state":"Jharkhand","latitude":23.7957,"longitude":86.4304,"temp":27.0,"humidity":90,"rain":0.0,"pressure":974.9,"uv_index":8.95,"wind_gusts":55.4,"aqi":153,"pm10":65.4,"pm2_5":53.0,"mosquito_risk":7,"arthritis_risk":5,"migraine_risk":7,"frizz_risk":1,"updated_at":"2026-04-27T02:12:15.365185+05:30"},{"city":"Bokaro","state":"Jharkhand","latitude":23.6693,"longitude":86.1511,"temp":26.2,"humidity":96,"rain":0.0,"pressure":978.5,"uv_index":8.95,"wind_gusts":51.1,"aqi":154,"pm10":74.3,"pm2_5":62.6,"mosquito_risk":7,"arthritis_risk":5,"migraine_risk":7,"frizz_risk":1,"updated_at":"2026-04-27T02:12:15.365191+05:30"},{"city":"Bhubaneswar","state":"Odisha","latitude":20.2961,"longitude":85.8245,"temp":27.1,"humidity":90,"rain":0.0,"pressure":998.3,"uv_index":8.9,"wind_gusts":53.3,"aqi":53,"pm10":14.8,"pm2_5":10.4,"mosquito_risk":7,"arthritis_risk":5,"migraine_risk":7,"frizz_risk":1,"updated_at":"2026-04-27T02:12:15.365197+05:30"},{"city":"Cuttack","state":"Odisha","latitude":20.4625,"longitude":85.8828,"temp":27.1,"humidity":89,"rain":0.0,"pressure":1000.0,"uv_index":8.9,"wind_gusts":47.2,"aqi":53,"pm10":14.8,"pm2_5":10.4,"mosquito_risk":7,"arthritis_risk":5,"migraine_risk":4,"frizz_risk":1,"updated_at":"2026-04-27T02:12:15.365204+05:30"},{"city":"Rourkela","state":"Odisha","latitude":22.2604,"longitude":84.8536,"temp":27.6,"humidity":79,"rain":0.0,"pressure":980.2,"uv_index":8.95,"wind_gusts":46.8,"aqi":133,"pm10":52.4,"pm2_5":37.3,"mosquito_risk":7,"arthritis_risk":5,"migraine_risk":7,"frizz_risk":1,"updated_at":"2026-04-27T02:12:15.365210+05:30"},{"city":"Raipur","state":"Chhattisgarh","latitude":21.2514,"longitude":81.6296,"temp":30.8,"humidity":27,"rain":0.0,"pressure":970.2,"uv_index":8.4,"wind_gusts":57.2,"aqi":118,"pm10":54.8,"pm2_5":50.1,"mosquito_risk":0,"arthritis_risk":5,"migraine_risk":7,"frizz_risk":0,"updated_at":"2026-04-27T02:12:15.365216+05:30"},{"city":"Bhilai","state":"Chhattisgarh","latitude":21.1938,"longitude":81.3509,"temp":30.1,"humidity":32,"rain":0.0,"pressure":970.5,"uv_index":7.6,"wind_gusts":47.2,"aqi":105,"pm10":54.0,"pm2_5":43.8,"mosquito_risk":0,"arthritis_risk":5,"migraine_risk":7,"frizz_risk":0,"updated_at":"2026-04-27T02:12:15.365242+05:30"},{"city":"Guwahati","state":"Assam","latitude":26.1158,"longitude":91.7086,"temp":20.9,"humidity":98,"rain":0.1,"pressure":999.7,"uv_index":2.45,"wind_gusts":31.0,"aqi":127,"pm10":55.5,"pm2_5":37.1,"mosquito_risk":6,"arthritis_risk":5,"migraine_risk":3,"frizz_risk":1,"updated_at":"2026-04-27T02:12:15.365251+05:30"},{"city":"Agartala","state":"Tripura","latitude":23.8315,"longitude":91.2868,"temp":24.1,"humidity":95,"rain":0.0,"pressure":1003.7,"uv_index":7.8,"wind_gusts":57.6,"aqi":72,"pm10":15.3,"pm2_5":10.9,"mosquito_risk":3,"arthritis_risk":5,"migraine_risk":4,"frizz_risk":1,"updated_at":"2026-04-27T02:12:15.365258+05:30"},{"city":"Shillong","state":"Meghalaya","latitude":25.5788,"longitude":91.8933,"temp":14.5,"humidity":96,"rain":0.0,"pressure":852.1,"uv_index":1.75,"wind_gusts":43.2,"aqi":114,"pm10":16.5,"pm2_5":9.7,"mosquito_risk":3,"arthritis_risk":10,"migraine_risk":3,"frizz_risk":0,"updated_at":"2026-04-27T02:12:15.365264+05:30"},{"city":"Imphal","state":"Manipur","latitude":24.817,"longitude":93.9368,"temp":17.9,"humidity":96,"rain":0.0,"pressure":921.1,"uv_index":8.35,"wind_gusts":32.0,"aqi":152,"pm10":85.9,"pm2_5":59.6,"mosquito_risk":3,"arthritis_risk":10,"migraine_risk":7,"frizz_risk":1,"updated_at":"2026-04-27T02:12:15.365271+05:30"},{"city":"Aizawl","state":"Mizoram","latitude":23.7271,"longitude":92.7176,"temp":17.4,"humidity":99,"rain":0.0,"pressure":889.7,"uv_index":9.0,"wind_gusts":56.2,"aqi":97,"pm10":35.0,"pm2_5":23.1,"mosquito_risk":3,"arthritis_risk":10,"migraine_risk":7,"frizz_risk":1,"updated_at":"2026-04-27T02:12:15.365278+05:30"},{"city":"Kohima","state":"Nagaland","latitude":25.6701,"longitude":94.1077,"temp":14.2,"humidity":96,"rain":0.0,"pressure":851.2,"uv_index":1.2,"wind_gusts":28.8,"aqi":135,"pm10":56.6,"pm2_5":34.7,"mosquito_risk":3,"arthritis_risk":10,"migraine_risk":3,"frizz_risk":0,"updated_at":"2026-04-27T02:12:15.365284+05:30"},{"city":"Gangtok","state":"Sikkim","latitude":27.3314,"longitude":88.6138,"temp":12.7,"humidity":99,"rain":0.2,"pressure":832.4,"uv_index":8.5,"wind_gusts":41.4,"aqi":83,"pm10":40.3,"pm2_5":25.4,"mosquito_risk":6,"arthritis_risk":10,"migraine_risk":7,"frizz_risk":0,"updated_at":"2026-04-27T02:12:15.365291+05:30"},{"city":"Siliguri","state":"West Bengal","latitude":26.7271,"longitude":88.3953,"temp":20.4,"humidity":93,"rain":0.0,"pressure":990.9,"uv_index":8.4,"wind_gusts":32.4,"aqi":115,"pm10":55.2,"pm2_5":35.5,"mosquito_risk":3,"arthritis_risk":5,"migraine_risk":7,"frizz_risk":1,"updated_at":"2026-04-27T02:12:18.646755+05:30"},{"city":"Durgapur","state":"West Bengal","latitude":23.5204,"longitude":87.3119,"temp":27.5,"humidity":92,"rain":0.0,"pressure":989.9,"uv_index":8.8,"wind_gusts":37.4,"aqi":115,"pm10":35.0,"pm2_5":31.1,"mosquito_risk":7,"arthritis_risk":5,"migraine_risk":7,"frizz_risk":1,"updated_at":"2026-04-27T02:12:18.646786+05:30"},{"city":"Asansol","state":"West Bengal","latitude":23.6739,"longitude":86.9524,"temp":27.4,"humidity":92,"rain":0.0,"pressure":988.5,"uv_index":8.75,"wind_gusts":41.0,"aqi":126,"pm10":34.2,"pm2_5":31.0,"mosquito_risk":7,"arthritis_risk":5,"migraine_risk":7,"frizz_risk":1,"updated_at":"2026-04-27T02:12:18.646796+05:30"},{"city":"Pondicherry","state":"Puducherry","latitude":11.9139,"longitude":79.8145,"temp":28.4,"humidity":87,"rain":0.0,"pressure":1006.1,"uv_index":9.2,"wind_gusts":48.6,"aqi":41,"pm10":17.9,"pm2_5":11.9,"mosquito_risk":7,"arthritis_risk":5,"migraine_risk":4,"frizz_risk":1,"updated_at":"2026-04-27T02:12:18.646804+05:30"},{"city":"Port Blair","state":"Andaman and Nicobar Islands","latitude":11.6234,"longitude":92.7265,"temp":27.2,"humidity":87,"rain":0.0,"pressure":1004.9,"uv_index":9.1,"wind_gusts":34.2,"aqi":56,"pm10":17.8,"pm2_5":13.2,"mosquito_risk":7,"arthritis_risk":5,"migraine_risk":4,"frizz_risk":1,"updated_at":"2026-04-27T02:12:18.646812+05:30"},{"city":"Haridwar","state":"Uttarakhand","latitude":29.9457,"longitude":78.1642,"temp":19.6,"humidity":56,"rain":0.0,"pressure":967.2,"uv_index":7.25,"wind_gusts":27.4,"aqi":66,"pm10":26.7,"pm2_5":21.3,"mosquito_risk":0,"arthritis_risk":5,"migraine_risk":7,"frizz_risk":0,"updated_at":"2026-04-27T02:12:18.646820+05:30"},{"city":"Rishikesh","state":"Uttarakhand","latitude":30.0869,"longitude":78.2676,"temp":18.2,"humidity":60,"rain":0.0,"pressure":959.8,"uv_index":7.35,"wind_gusts":26.6,"aqi":70,"pm10":28.0,"pm2_5":20.1,"mosquito_risk":0,"arthritis_risk":5,"migraine_risk":7,"frizz_risk":0,"updated_at":"2026-04-27T02:12:18.646826+05:30"},{"city":"Nainital","state":"Uttarakhand","latitude":29.3919,"longitude":79.4542,"temp":15.0,"humidity":37,"rain":0.0,"pressure":801.5,"uv_index":8.2,"wind_gusts":38.9,"aqi":73,"pm10":51.0,"pm2_5":19.5,"mosquito_risk":0,"arthritis_risk":5,"migraine_risk":7,"frizz_risk":0,"updated_at":"2026-04-27T02:12:18.646833+05:30"},{"city":"Mussoorie","state":"Uttarakhand","latitude":30.4599,"longitude":78.0664,"temp":14.3,"humidity":42,"rain":0.0,"pressure":798.0,"uv_index":7.75,"wind_gusts":54.0,"aqi":60,"pm10":28.0,"pm2_5":22.1,"mosquito_risk":0,"arthritis_risk":5,"migraine_risk":7,"frizz_risk":0,"updated_at":"2026-04-27T02:12:18.646840+05:30"},{"city":"Dharamshala","state":"Himachal Pradesh","latitude":32.219,"longitude":76.3234,"temp":22.7,"humidity":32,"rain":0.0,"pressure":866.0,"uv_index":8.0,"wind_gusts":47.9,"aqi":46,"pm10":17.6,"pm2_5":9.2,"mosquito_risk":0,"arthritis_risk":5,"migraine_risk":7,"frizz_risk":0,"updated_at":"2026-04-27T02:12:18.646846+05:30"},{"city":"Dalhousie","state":"Himachal Pradesh","latitude":32.5387,"longitude":75.971,"temp":10.4,"humidity":73,"rain":0.0,"pressure":797.3,"uv_index":8.25,"wind_gusts":43.9,"aqi":59,"pm10":25.0,"pm2_5":18.6,"mosquito_risk":3,"arthritis_risk":5,"migraine_risk":7,"frizz_risk":0,"updated_at":"2026-04-27T02:12:18.646853+05:30"},{"city":"Patiala","state":"Punjab","latitude":30.3398,"longitude":76.3869,"temp":27.5,"humidity":32,"rain":0.0,"pressure":972.5,"uv_index":7.25,"wind_gusts":40.0,"aqi":396,"pm10":444.2,"pm2_5":69.8,"mosquito_risk":4,"arthritis_risk":5,"migraine_risk":7,"frizz_risk":0,"updated_at":"2026-04-27T02:12:18.646860+05:30"},{"city":"Bhatinda","state":"Punjab","latitude":30.211,"longitude":74.9455,"temp":28.5,"humidity":30,"rain":0.0,"pressure":978.0,"uv_index":7.8,"wind_gusts":64.1,"aqi":86,"pm10":69.4,"pm2_5":31.2,"mosquito_risk":4,"arthritis_risk":5,"migraine_risk":7,"frizz_risk":0,"updated_at":"2026-04-27T02:12:18.646868+05:30"},{"city":"Rohtak","state":"Haryana","latitude":28.8955,"longitude":76.6066,"temp":28.2,"humidity":26,"rain":0.0,"pressure":976.1,"uv_index":7.5,"wind_gusts":40.7,"aqi":686,"pm10":705.9,"pm2_5":113.4,"mosquito_risk":4,"arthritis_risk":5,"migraine_risk":7,"frizz_risk":0,"updated_at":"2026-04-27T02:12:18.646874+05:30"},{"city":"Panipat","state":"Haryana","latitude":29.3909,"longitude":76.9635,"temp":28.4,"humidity":27,"rain":0.0,"pressure":974.7,"uv_index":7.3,"wind_gusts":43.2,"aqi":1421,"pm10":1266.6,"pm2_5":169.0,"mosquito_risk":4,"arthritis_risk":5,"migraine_risk":7,"frizz_risk":0,"updated_at":"2026-04-27T02:12:18.646880+05:30"},{"city":"Mathura","state":"Uttar Pradesh","latitude":27.4924,"longitude":77.6737,"temp":28.5,"humidity":36,"rain":0.0,"pressure":981.0,"uv_index":7.75,"wind_gusts":38.2,"aqi":768,"pm10":173.7,"pm2_5":51.0,"mosquito_risk":4,"arthritis_risk":5,"migraine_risk":7,"frizz_risk":0,"updated_at":"2026-04-27T02:12:18.646886+05:30"},{"city":"Vrindavan","state":"Uttar Pradesh","latitude":27.5823,"longitude":77.7027,"temp":27.9,"humidity":37,"rain":0.0,"pressure":981.5,"uv_index":7.7,"wind_gusts":37.8,"aqi":768,"pm10":173.7,"pm2_5":51.0,"mosquito_risk":4,"arthritis_risk":5,"migraine_risk":7,"frizz_risk":0,"updated_at":"2026-04-27T02:12:18.646893+05:30"},{"city":"Ayodhya","state":"Uttar Pradesh","latitude":26.7922,"longitude":82.1998,"temp":25.4,"humidity":73,"rain":0.0,"pressure":991.0,"uv_index":8.1,"wind_gusts":33.5,"aqi":150,"pm10":67.8,"pm2_5":59.1,"mosquito_risk":7,"arthritis_risk":5,"migraine_risk":7,"frizz_risk":1,"updated_at":"2026-04-27T02:12:18.646899+05:30"},{"city":"Ratlam","state":"Madhya Pradesh","latitude":23.3315,"longitude":75.0367,"temp":29.6,"humidity":21,"rain":0.0,"pressure":951.2,"uv_index":8.45,"wind_gusts":44.6,"aqi":63,"pm10":25.6,"pm2_5":19.0,"mosquito_risk":4,"arthritis_risk":5,"migraine_risk":7,"frizz_risk":0,"updated_at":"2026-04-27T02:12:18.646906+05:30"},{"city":"Sagar","state":"Madhya Pradesh","latitude":23.8388,"longitude":78.7378,"temp":27.9,"humidity":32,"rain":0.0,"pressure":946.1,"uv_index":8.65,"wind_gusts":38.5,"aqi":76,"pm10":57.6,"pm2_5":25.6,"mosquito_risk":4,"arthritis_risk":5,"migraine_risk":7,"frizz_risk":0,"updated_at":"2026-04-27T02:12:18.646913+05:30"},{"city":"Satna","state":"Madhya Pradesh","latitude":24.6005,"longitude":80.8322,"temp":30.4,"humidity":27,"rain":0.0,"pressure":966.0,"uv_index":8.65,"wind_gusts":52.2,"aqi":94,"pm10":58.3,"pm2_5":21.8,"mosquito_risk":0,"arthritis_risk":5,"migraine_risk":7,"frizz_risk":0,"updated_at":"2026-04-27T02:12:18.646918+05:30"},{"city":"Akola","state":"Maharashtra","latitude":20.7002,"longitude":77.0082,"temp":32.5,"humidity":20,"rain":0.0,"pressure":970.7,"uv_index":8.9,"wind_gusts":33.8,"aqi":60,"pm10":28.3,"pm2_5":21.1,"mosquito_risk":0,"arthritis_risk":5,"migraine_risk":7,"frizz_risk":0,"updated_at":"2026-04-27T02:12:18.646926+05:30"},{"city":"Amravati","state":"Maharashtra","latitude":20.9374,"longitude":77.7796,"temp":31.2,"humidity":24,"rain":0.0,"pressure":963.0,"uv_index":8.9,"wind_gusts":36.7,"aqi":64,"pm10":41.8,"pm2_5":30.0,"mosquito_risk":0,"arthritis_risk":5,"migraine_risk":7,"frizz_risk":0,"updated_at":"2026-04-27T02:12:18.646932+05:30"},{"city":"Latur","state":"Maharashtra","latitude":18.4088,"longitude":76.5604,"temp":29.9,"humidity":29,"rain":0.0,"pressure":936.6,"uv_index":9.1,"wind_gusts":38.9,"aqi":97,"pm10":39.3,"pm2_5":33.2,"mosquito_risk":4,"arthritis_risk":5,"migraine_risk":7,"frizz_risk":0,"updated_at":"2026-04-27T02:12:18.646940+05:30"},{"city":"Nanded","state":"Maharashtra","latitude":19.1383,"longitude":77.3091,"temp":31.0,"humidity":29,"rain":0.0,"pressure":964.5,"uv_index":9.0,"wind_gusts":36.0,"aqi":89,"pm10":34.2,"pm2_5":28.6,"mosquito_risk":0,"arthritis_risk":5,"migraine_risk":7,"frizz_risk":0,"updated_at":"2026-04-27T02:12:18.646947+05:30"},{"city":"Gulbarga","state":"Karnataka","latitude":17.3297,"longitude":76.8343,"temp":30.4,"humidity":37,"rain":0.0,"pressure":955.7,"uv_index":9.1,"wind_gusts":31.3,"aqi":105,"pm10":39.0,"pm2_5":34.6,"mosquito_risk":0,"arthritis_risk":5,"migraine_risk":7,"frizz_risk":0,"updated_at":"2026-04-27T02:12:18.646953+05:30"},{"city":"Bidar","state":"Karnataka","latitude":17.9104,"longitude":77.5199,"temp":29.0,"humidity":36,"rain":0.0,"pressure":932.1,"uv_index":9.1,"wind_gusts":30.6,"aqi":104,"pm10":41.6,"pm2_5":37.8,"mosquito_risk":4,"arthritis_risk":5,"migraine_risk":7,"frizz_risk":0,"updated_at":"2026-04-27T02:12:18.646959+05:30"},{"city":"Hospet","state":"Karnataka","latitude":15.2689,"longitude":76.3909,"temp":27.2,"humidity":80,"rain":0.0,"pressure":953.9,"uv_index":9.25,"wind_gusts":35.6,"aqi":102,"pm10":36.2,"pm2_5":34.1,"mosquito_risk":7,"arthritis_risk":5,"migraine_risk":7,"frizz_risk":1,"updated_at":"2026-04-27T02:12:18.646965+05:30"},{"city":"Tirupur","state":"Tamil Nadu","latitude":11.1085,"longitude":77.3411,"temp":27.5,"humidity":77,"rain":0.0,"pressure":973.3,"uv_index":9.35,"wind_gusts":31.0,"aqi":65,"pm10":25.7,"pm2_5":24.7,"mosquito_risk":7,"arthritis_risk":5,"migraine_risk":7,"frizz_risk":1,"updated_at":"2026-04-27T02:12:18.646971+05:30"},{"city":"Alappuzha","state":"Kerala","latitude":9.4981,"longitude":76.3388,"temp":26.0,"humidity":96,"rain":0.0,"pressure":1007.1,"uv_index":8.1,"wind_gusts":34.6,"aqi":62,"pm10":23.7,"pm2_5":20.1,"mosquito_risk":7,"arthritis_risk":5,"migraine_risk":4,"frizz_risk":1,"updated_at":"2026-04-27T02:12:18.646978+05:30"},{"city":"Munnar","state":"Kerala","latitude":10.0889,"longitude":77.0595,"temp":16.8,"humidity":76,"rain":0.0,"pressure":854.5,"uv_index":9.6,"wind_gusts":27.0,"aqi":67,"pm10":29.5,"pm2_5":28.5,"mosquito_risk":3,"arthritis_risk":5,"migraine_risk":7,"frizz_risk":0,"updated_at":"2026-04-27T02:12:18.646985+05:30"},{"city":"Silchar","state":"Assam","latitude":24.8333,"longitude":92.7789,"temp":21.9,"humidity":93,"rain":0.2,"pressure":1003.9,"uv_index":8.75,"wind_gusts":26.3,"aqi":158,"pm10":74.3,"pm2_5":47.4,"mosquito_risk":6,"arthritis_risk":5,"migraine_risk":4,"frizz_risk":1,"updated_at":"2026-04-27T02:12:18.646992+05:30"},{"city":"Dibrugarh","state":"Assam","latitude":27.4728,"longitude":94.912,"temp":20.6,"humidity":98,"rain":0.0,"pressure":994.6,"uv_index":4.3,"wind_gusts":25.6,"aqi":92,"pm10":64.0,"pm2_5":38.9,"mosquito_risk":3,"arthritis_risk":5,"migraine_risk":3,"frizz_risk":1,"updated_at":"2026-04-27T02:12:18.646999+05:30"}]