[{"city":"Delhi","state":"Delhi","latitude":28.6139,"longitude":77.209,"temp":41.0,"humidity":14,"rain":0.0,"pressure":981.2,"uv_index":7.25,"wind_gusts":50.4,"aqi":353,"pm10":378.1,"pm2_5":53.6,"mosquito_risk":0,"arthritis_risk":5,"migraine_risk":10,"frizz_risk":0,"updated_at":"2026-04-25T15:27:55.935810+05:30"},{"city":"Mumbai","state":"Maharashtra","latitude":19.076,"longitude":72.8777,"temp":38.0,"humidity":31,"rain":0.0,"pressure":1004.6,"uv_index":8.0,"wind_gusts":44.6,"aqi":79,"pm10":44.2,"pm2_5":33.2,"mosquito_risk":0,"arthritis_risk":5,"migraine_risk":7,"frizz_risk":1,"updated_at":"2026-04-25T15:27:55.935855+05:30"},{"city":"Bangalore","state":"Karnataka","latitude":12.9716,"longitude":77.5946,"temp":35.1,"humidity":22,"rain":0.0,"pressure":911.7,"uv_index":9.5,"wind_gusts":37.1,"aqi":90,"pm10":36.9,"pm2_5":28.0,"mosquito_risk":0,"arthritis_risk":5,"migraine_risk":10,"frizz_risk":0,"updated_at":"2026-04-25T15:27:55.935872+05:30"},{"city":"Hyderabad","state":"Telangana","latitude":17.385,"longitude":78.4867,"temp":38.5,"humidity":19,"rain":0.0,"pressure":952.3,"uv_index":9.3,"wind_gusts":31.7,"aqi":126,"pm10":52.7,"pm2_5":44.6,"mosquito_risk":0,"arthritis_risk":5,"migraine_risk":10,"frizz_risk":0,"updated_at":"2026-04-25T15:27:55.935882+05:30"},{"city":"Chennai","state":"Tamil Nadu","latitude":13.0827,"longitude":80.2707,"temp":33.8,"humidity":52,"rain":0.0,"pressure":1005.3,"uv_index":9.3,"wind_gusts":51.1,"aqi":31,"pm10":13.2,"pm2_5":8.8,"mosquito_risk":0,"arthritis_risk":5,"migraine_risk":4,"frizz_risk":1,"updated_at":"2026-04-25T15:27:55.935891+05:30"},{"city":"Kolkata","state":"West Bengal","latitude":22.5726,"longitude":88.3639,"temp":36.2,"humidity":50,"rain":0.0,"pressure":1002.6,"uv_index":8.45,"wind_gusts":43.9,"aqi":82,"pm10":37.7,"pm2_5":29.1,"mosquito_risk":0,"arthritis_risk":5,"migraine_risk":7,"frizz_risk":1,"updated_at":"2026-04-25T15:27:55.935903+05:30"},{"city":"Pune","state":"Maharashtra","latitude":18.5204,"longitude":73.8567,"temp":39.3,"humidity":12,"rain":0.0,"pressure":946.5,"uv_index":8.45,"wind_gusts":37.8,"aqi":113,"pm10":31.4,"pm2_5":25.0,"mosquito_risk":0,"arthritis_risk":5,"migraine_risk":10,"frizz_risk":0,"updated_at":"2026-04-25T15:27:55.935911+05:30"},{"city":"Ahmedabad","state":"Gujarat","latitude":23.0225,"longitude":72.5714,"temp":43.2,"humidity":12,"rain":0.0,"pressure":999.3,"uv_index":8.2,"wind_gusts":24.1,"aqi":63,"pm10":56.8,"pm2_5":17.0,"mosquito_risk":0,"arthritis_risk":5,"migraine_risk":10,"frizz_risk":0,"updated_at":"2026-04-25T15:27:55.935918+05:30"},{"city":"Jaipur","state":"Rajasthan","latitude":26.9124,"longitude":75.7873,"temp":40.5,"humidity":14,"rain":0.0,"pressure":959.2,"uv_index":8.05,"wind_gusts":31.0,"aqi":126,"pm10":174.6,"pm2_5":32.1,"mosquito_risk":0,"arthritis_risk":5,"migraine_risk":10,"frizz_risk":0,"updated_at":"2026-04-25T15:27:55.935926+05:30"},{"city":"Lucknow","state":"Uttar Pradesh","latitude":26.8467,"longitude":80.9462,"temp":42.8,"humidity":11,"rain":0.0,"pressure":989.1,"uv_index":7.9,"wind_gusts":43.6,"aqi":131,"pm10":279.4,"pm2_5":45.5,"mosquito_risk":0,"arthritis_risk":5,"migraine_risk":10,"frizz_risk":0,"updated_at":"2026-04-25T15:27:55.935934+05:30"},{"city":"Kanpur","state":"Uttar Pradesh","latitude":26.4499,"longitude":80.3319,"temp":43.7,"humidity":10,"rain":0.0,"pressure":987.3,"uv_index":7.95,"wind_gusts":45.4,"aqi":150,"pm10":445.2,"pm2_5":53.4,"mosquito_risk":0,"arthritis_risk":5,"migraine_risk":10,"frizz_risk":0,"updated_at":"2026-04-25T15:27:55.935941+05:30"},{"city":"Chandigarh","state":"Chandigarh","latitude":30.7333,"longitude":76.7794,"temp":34.5,"humidity":29,"rain":0.0,"pressure":968.6,"uv_index":7.25,"wind_gusts":58.3,"aqi":67,"pm10":52.2,"pm2_5":16.5,"mosquito_risk":0,"arthritis_risk":5,"migraine_risk":7,"frizz_risk":0,"updated_at":"2026-04-25T15:27:55.935949+05:30"},{"city":"Srinagar","state":"Jammu and Kashmir","latitude":34.0837,"longitude":74.7973,"temp":19.8,"humidity":60,"rain":0.0,"pressure":846.5,"uv_index":8.6,"wind_gusts":36.7,"aqi":71,"pm10":48.1,"pm2_5":14.2,"mosquito_risk":0,"arthritis_risk":5,"migraine_risk":7,"frizz_risk":0,"updated_at":"2026-04-25T15:27:55.935956+05:30"},{"city":"Jammu","state":"Jammu and Kashmir","latitude":32.7266,"longitude":74.857,"temp":36.2,"humidity":21,"rain":0.0,"pressure":973.0,"uv_index":8.2,"wind_gusts":27.7,"aqi":78,"pm10":95.5,"pm2_5":21.5,"mosquito_risk":0,"arthritis_risk":5,"migraine_risk":10,"frizz_risk":0,"updated_at":"2026-04-25T15:27:55.935966+05:30"},{"city":"Amritsar","state":"Punjab","latitude":31.634,"longitude":74.8723,"temp":38.5,"humidity":18,"rain":0.0,"pressure":980.5,"uv_index":8.1,"wind_gusts":33.5,"aqi":87,"pm10":165.8,"pm2_5":35.4,"mosquito_risk":0,"arthritis_risk":5,"migraine_risk":10,"frizz_risk":0,"updated_at":"2026-04-25T15:27:55.935973+05:30"},{"city":"Ludhiana","state":"Punjab","latitude":30.901,"longitude":75.8573,"temp":37.2,"humidity":21,"rain":0.0,"pressure":978.9,"uv_index":7.7,"wind_gusts":48.6,"aqi":77,"pm10":100.1,"pm2_5":24.0,"mosquito_risk":0,"arthritis_risk":5,"migraine_risk":10,"frizz_risk":0,"updated_at":"2026-04-25T15:27:55.935982+05:30"},{"city":"Jalandhar","state":"Punjab","latitude":31.326,"longitude":75.5762,"temp":36.7,"humidity":20,"rain":0.0,"pressure":980.1,"uv_index":7.85,"wind_gusts":38.5,"aqi":88,"pm10":151.3,"pm2_5":30.2,"mosquito_risk":0,"arthritis_risk":5,"migraine_risk":10,"frizz_risk":0,"updated_at":"2026-04-25T15:27:55.935988+05:30"},{"city":"Dehradun","state":"Uttarakhand","latitude":30.6284,"longitude":78.0322,"temp":25.4,"humidity":33,"rain":0.0,"pressure":833.9,"uv_index":7.85,"wind_gusts":52.9,"aqi":58,"pm10":45.9,"pm2_5":13.0,"mosquito_risk":4,"arthritis_risk":5,"migraine_risk":7,"frizz_risk":0,"updated_at":"2026-04-25T15:27:55.935995+05:30"},{"city":"Shimla","state":"Himachal Pradesh","latitude":31.1048,"longitude":77.1734,"temp":21.5,"humidity":29,"rain":0.0,"pressure":788.9,"uv_index":7.45,"wind_gusts":55.8,"aqi":56,"pm10":42.6,"pm2_5":11.6,"mosquito_risk":0,"arthritis_risk":5,"migraine_risk":7,"frizz_risk":0,"updated_at":"2026-04-25T15:27:55.936002+05:30"},{"city":"Manali","state":"Himachal Pradesh","latitude":32.2396,"longitude":77.1887,"temp":19.2,"humidity":47,"rain":0.0,"pressure":821.4,"uv_index":9.85,"wind_gusts":43.9,"aqi":92,"pm10":32.7,"pm2_5":8.1,"mosquito_risk":0,"arthritis_risk":5,"migraine_risk":7,"frizz_risk":0,"updated_at":"2026-04-25T15:27:55.936009+05:30"},{"city":"Gurgaon","state":"Haryana","latitude":28.4595,"longitude":77.0266,"temp":39.8,"humidity":16,"rain":0.0,"pressure":980.1,"uv_index":7.45,"wind_gusts":51.1,"aqi":892,"pm10":1259.1,"pm2_5":126.2,"mosquito_risk":0,"arthritis_risk":5,"migraine_risk":10,"frizz_risk":0,"updated_at":"2026-04-25T15:27:55.936016+05:30"},{"city":"Noida","state":"Uttar Pradesh","latitude":28.5355,"longitude":77.391,"temp":40.9,"humidity":14,"rain":0.0,"pressure":982.1,"uv_index":7.3,"wind_gusts":43.9,"aqi":892,"pm10":1259.1,"pm2_5":126.2,"mosquito_risk":0,"arthritis_risk":5,"migraine_risk":10,"frizz_risk":0,"updated_at":"2026-04-25T15:27:55.936022+05:30"},{"city":"Ghaziabad","state":"Uttar Pradesh","latitude":28.6692,"longitude":77.4538,"temp":40.4,"humidity":15,"rain":0.0,"pressure":980.7,"uv_index":7.25,"wind_gusts":50.8,"aqi":178,"pm10":278.5,"pm2_5":43.8,"mosquito_risk":0,"arthritis_risk":5,"migraine_risk":10,"frizz_risk":0,"updated_at":"2026-04-25T15:27:55.936029+05:30"},{"city":"Faridabad","state":"Haryana","latitude":28.4089,"longitude":77.3178,"temp":40.8,"humidity":14,"rain":0.0,"pressure":981.5,"uv_index":7.35,"wind_gusts":52.6,"aqi":892,"pm10":1259.1,"pm2_5":126.2,"mosquito_risk":0,"arthritis_risk":5,"migraine_risk":10,"frizz_risk":0,"updated_at":"2026-04-25T15:27:55.936035+05:30"},{"city":"Meerut","state":"Uttar Pradesh","latitude":28.9845,"longitude":77.7064,"temp":38.7,"humidity":18,"rain":0.0,"pressure":979.4,"uv_index":7.35,"wind_gusts":55.4,"aqi":178,"pm10":278.5,"pm2_5":43.8,"mosquito_risk":0,"arthritis_risk":5,"migraine_risk":10,"frizz_risk":0,"updated_at":"2026-04-25T15:27:55.936041+05:30"},{"city":"Agra","state":"Uttar Pradesh","latitude":27.1767,"longitude":78.0081,"temp":42.7,"humidity":12,"rain":0.0,"pressure":984.8,"uv_index":7.8,"wind_gusts":45.0,"aqi":283,"pm10":616.5,"pm2_5":67.1,"mosquito_risk":0,"arthritis_risk":5,"migraine_risk":10,"frizz_risk":0,"updated_at":"2026-04-25T15:27:55.936049+05:30"},{"city":"Varanasi","state":"Uttar Pradesh","latitude":25.3176,"longitude":82.9739,"temp":44.0,"humidity":10,"rain":0.0,"pressure":992.6,"uv_index":8.5,"wind_gusts":41.0,"aqi":126,"pm10":160.2,"pm2_5":35.7,"mosquito_risk":0,"arthritis_risk":5,"migraine_risk":10,"frizz_risk":0,"updated_at":"2026-04-25T15:27:55.936057+05:30"},{"city":"Prayagraj","state":"Uttar Pradesh","latitude":25.4358,"longitude":81.8463,"temp":43.0,"humidity":12,"rain":0.0,"pressure":991.7,"uv_index":8.4,"wind_gusts":29.5,"aqi":129,"pm10":149.9,"pm2_5":34.1,"mosquito_risk":0,"arthritis_risk":5,"migraine_risk":10,"frizz_risk":0,"updated_at":"2026-04-25T15:27:55.936064+05:30"},{"city":"Gorakhpur","state":"Uttar Pradesh","latitude":26.7606,"longitude":83.3732,"temp":39.2,"humidity":22,"rain":0.0,"pressure":993.7,"uv_index":8.35,"wind_gusts":41.4,"aqi":162,"pm10":136.4,"pm2_5":45.3,"mosquito_risk":0,"arthritis_risk":5,"migraine_risk":10,"frizz_risk":0,"updated_at":"2026-04-25T15:27:55.936073+05:30"},{"city":"Bareilly","state":"Uttar Pradesh","latitude":28.367,"longitude":79.4304,"temp":41.2,"humidity":16,"rain":0.0,"pressure":983.1,"uv_index":7.7,"wind_gusts":48.2,"aqi":148,"pm10":64.5,"pm2_5":23.2,"mosquito_risk":0,"arthritis_risk":5,"migraine_risk":10,"frizz_risk":0,"updated_at":"2026-04-25T15:27:55.936079+05:30"},{"city":"Aligarh","state":"Uttar Pradesh","latitude":27.8974,"longitude":78.088,"temp":42.5,"humidity":12,"rain":0.0,"pressure":982.4,"uv_index":7.6,"wind_gusts":47.9,"aqi":341,"pm10":521.5,"pm2_5":63.3,"mosquito_risk":0,"arthritis_risk":5,"migraine_risk":10,"frizz_risk":0,"updated_at":"2026-04-25T15:27:55.936086+05:30"},{"city":"Moradabad","state":"Uttar Pradesh","latitude":28.8386,"longitude":78.7733,"temp":39.6,"humidity":20,"rain":0.0,"pressure":981.2,"uv_index":7.5,"wind_gusts":49.3,"aqi":160,"pm10":87.8,"pm2_5":31.4,"mosquito_risk":0,"arthritis_risk":5,"migraine_risk":10,"frizz_risk":0,"updated_at":"2026-04-25T15:27:55.936092+05:30"},{"city":"Saharanpur","state":"Uttar Pradesh","latitude":29.9637,"longitude":77.546,"temp":37.2,"humidity":19,"rain":0.0,"pressure":974.0,"uv_index":7.1,"wind_gusts":53.6,"aqi":103,"pm10":100.8,"pm2_5":24.1,"mosquito_risk":0,"arthritis_risk":5,"migraine_risk":10,"frizz_risk":0,"updated_at":"2026-04-25T15:27:55.936098+05:30"},{"city":"Jhansi","state":"Uttar Pradesh","latitude":25.4484,"longitude":78.5685,"temp":43.2,"humidity":11,"rain":0.0,"pressure":974.9,"uv_index":8.3,"wind_gusts":29.5,"aqi":64,"pm10":120.1,"pm2_5":26.3,"mosquito_risk":0,"arthritis_risk":5,"migraine_risk":10,"frizz_risk":0,"updated_at":"2026-04-25T15:27:59.162620+05:30"},{"city":"Surat","state":"Gujarat","latitude":21.1702,"longitude":72.8311,"temp":42.6,"humidity":14,"rain":0.0,"pressure":1003.4,"uv_index":7.85,"wind_gusts":36.7,"aqi":102,"pm10":75.4,"pm2_5":45.9,"mosquito_risk":0,"arthritis_risk":5,"migraine_risk":7,"frizz_risk":0,"updated_at":"2026-04-25T15:27:59.162652+05:30"},{"city":"Vadodara","state":"Gujarat","latitude":22.3072,"longitude":73.1812,"temp":43.5,"humidity":12,"rain":0.0,"pressure":1001.1,"uv_index":8.15,"wind_gusts":25.2,"aqi":84,"pm10":58.9,"pm2_5":20.7,"mosquito_risk":0,"arthritis_risk":5,"migraine_risk":7,"frizz_risk":0,"updated_at":"2026-04-25T15:27:59.162662+05:30"},{"city":"Rajkot","state":"Gujarat","latitude":22.3039,"longitude":70.8022,"temp":41.8,"humidity":13,"rain":0.0,"pressure":992.3,"uv_index":7.9,"wind_gusts":33.1,"aqi":49,"pm10":49.7,"pm2_5":15.3,"mosquito_risk":0,"arthritis_risk":5,"migraine_risk":10,"frizz_risk":0,"updated_at":"2026-04-25T15:27:59.162670+05:30"},{"city":"Thane","state":"Maharashtra","latitude":19.2183,"longitude":72.9781,"temp":43.2,"humidity":14,"rain":0.0,"pressure":1003.3,"uv_index":8.0,"wind_gusts":47.5,"aqi":79,"pm10":44.2,"pm2_5":33.2,"mosquito_risk":0,"arthritis_risk":5,"migraine_risk":7,"frizz_risk":0,"updated_at":"2026-04-25T15:27:59.162677+05:30"},{"city":"Nagpur","state":"Maharashtra","latitude":21.1458,"longitude":79.0882,"temp":43.7,"humidity":9,"rain":0.0,"pressure":970.3,"uv_index":8.9,"wind_gusts":29.9,"aqi":138,"pm10":33.4,"pm2_5":24.3,"mosquito_risk":0,"arthritis_risk":5,"migraine_risk":10,"frizz_risk":0,"updated_at":"2026-04-25T15:27:59.162685+05:30"},{"city":"Nashik","state":"Maharashtra","latitude":19.9975,"longitude":73.7898,"temp":40.3,"humidity":13,"rain":0.0,"pressure":944.0,"uv_index":8.25,"wind_gusts":31.7,"aqi":89,"pm10":31.7,"pm2_5":22.3,"mosquito_risk":0,"arthritis_risk":5,"migraine_risk":10,"frizz_risk":0,"updated_at":"2026-04-25T15:27:59.162692+05:30"},{"city":"Aurangabad","state":"Maharashtra","latitude":19.8762,"longitude":75.3433,"temp":40.2,"humidity":13,"rain":0.0,"pressure":943.0,"uv_index":8.75,"wind_gusts":29.5,"aqi":106,"pm10":33.6,"pm2_5":22.6,"mosquito_risk":0,"arthritis_risk":5,"migraine_risk":10,"frizz_risk":0,"updated_at":"2026-04-25T15:27:59.162700+05:30"},{"city":"Solapur","state":"Maharashtra","latitude":17.6599,"longitude":75.9064,"temp":40.0,"humidity":16,"rain":0.0,"pressure":954.8,"uv_index":8.65,"wind_gusts":24.8,"aqi":119,"pm10":44.2,"pm2_5":36.4,"mosquito_risk":0,"arthritis_risk":5,"migraine_risk":10,"frizz_risk":0,"updated_at":"2026-04-25T15:27:59.162707+05:30"},{"city":"Kolhapur","state":"Maharashtra","latitude":16.705,"longitude":74.2433,"temp":38.5,"humidity":18,"rain":0.0,"pressure":946.4,"uv_index":9.05,"wind_gusts":34.2,"aqi":150,"pm10":46.9,"pm2_5":39.0,"mosquito_risk":0,"arthritis_risk":5,"migraine_risk":10,"frizz_risk":0,"updated_at":"2026-04-25T15:27:59.162715+05:30"},{"city":"Goa","state":"Goa","latitude":15.2993,"longitude":74.124,"temp":37.8,"humidity":47,"rain":0.0,"pressure":994.5,"uv_index":8.95,"wind_gusts":32.0,"aqi":75,"pm10":29.0,"pm2_5":22.6,"mosquito_risk":0,"arthritis_risk":5,"migraine_risk":10,"frizz_risk":1,"updated_at":"2026-04-25T15:27:59.162722+05:30"},{"city":"Jodhpur","state":"Rajasthan","latitude":26.2389,"longitude":73.0243,"temp":43.0,"humidity":11,"rain":0.0,"pressure":981.1,"uv_index":8.3,"wind_gusts":27.4,"aqi":105,"pm10":137.4,"pm2_5":27.1,"mosquito_risk":0,"arthritis_risk":5,"migraine_risk":10,"frizz_risk":0,"updated_at":"2026-04-25T15:27:59.162730+05:30"},{"city":"Udaipur","state":"Rajasthan","latitude":24.5854,"longitude":73.7125,"temp":39.2,"humidity":15,"rain":0.0,"pressure":946.1,"uv_index":8.8,"wind_gusts":42.5,"aqi":58,"pm10":63.1,"pm2_5":16.5,"mosquito_risk":0,"arthritis_risk":5,"migraine_risk":10,"frizz_risk":0,"updated_at":"2026-04-25T15:27:59.162737+05:30"},{"city":"Kota","state":"Rajasthan","latitude":25.2138,"longitude":75.8648,"temp":43.0,"humidity":12,"rain":0.0,"pressure":976.4,"uv_index":8.3,"wind_gusts":32.8,"aqi":73,"pm10":110.8,"pm2_5":26.4,"mosquito_risk":0,"arthritis_risk":5,"migraine_risk":10,"frizz_risk":0,"updated_at":"2026-04-25T15:27:59.162744+05:30"},{"city":"Bikaner","state":"Rajasthan","latitude":28.0229,"longitude":73.3119,"temp":43.2,"humidity":12,"rain":0.0,"pressure":979.7,"uv_index":8.15,"wind_gusts":33.8,"aqi":69,"pm10":105.0,"pm2_5":25.1,"mosquito_risk":0,"arthritis_risk":5,"migraine_risk":10,"frizz_risk":0,"updated_at":"2026-04-25T15:27:59.162751+05:30"},{"city":"Ajmer","state":"Rajasthan","latitude":26.4499,"longitude":74.6399,"temp":40.5,"humidity":13,"rain":0.0,"pressure":954.2,"uv_index":8.25,"wind_gusts":33.5,"aqi":74,"pm10":120.6,"pm2_5":25.7,"mosquito_risk":0,"arthritis_risk":5,"migraine_risk":10,"frizz_risk":0,"updated_at":"2026-04-25T15:27:59.162758+05:30"},{"city":"Gwalior","state":"Madhya Pradesh","latitude":26.2183,"longitude":78.1828,"temp":43.0,"humidity":11,"rain":0.0,"pressure":980.2,"uv_index":8.05,"wind_gusts":39.6,"aqi":86,"pm10":149.5,"pm2_5":30.4,"mosquito_risk":0,"arthritis_risk":5,"migraine_risk":10,"frizz_risk":0,"updated_at":"2026-04-25T15:27:59.162766+05:30"},{"city":"Indore","state":"Madhya Pradesh","latitude":22.7196,"longitude":75.8577,"temp":42.0,"humidity":10,"rain":0.0,"pressure":946.6,"uv_index":8.65,"wind_gusts":32.4,"aqi":57,"pm10":33.9,"pm2_5":11.4,"mosquito_risk":0,"arthritis_risk":5,"migraine_risk":10,"frizz_risk":0,"updated_at":"2026-04-25T15:27:59.162773+05:30"},{"city":"Bhopal","state":"Madhya Pradesh","latitude":23.2599,"longitude":77.4126,"temp":42.4,"humidity":9,"rain":0.0,"pressure":951.7,"uv_index":8.65,"wind_gusts":30.6,"aqi":57,"pm10":26.2,"pm2_5":9.9,"mosquito_risk":0,"arthritis_risk":5,"migraine_risk":10,"frizz_risk":0,"updated_at":"2026-04-25T15:27:59.162780+05:30"},{"city":"Jabalpur","state":"Madhya Pradesh","latitude":23.1815,"longitude":79.9864,"temp":41.8,"humidity":10,"rain":0.0,"pressure":959.3,"uv_index":8.75,"wind_gusts":32.0,"aqi":87,"pm10":17.3,"pm2_5":9.6,"mosquito_risk":0,"arthritis_risk":5,"migraine_risk":10,"frizz_risk":0,"updated_at":"2026-04-25T15:27:59.162787+05:30"},{"city":"Ujjain","state":"Madhya Pradesh","latitude":23.1765,"longitude":75.7885,"temp":41.5,"humidity":11,"rain":0.0,"pressure":952.2,"uv_index":8.55,"wind_gusts":29.2,"aqi":56,"pm10":49.2,"pm2_5":14.6,"mosquito_risk":0,"arthritis_risk":5,"migraine_risk":10,"frizz_risk":0,"updated_at":"2026-04-25T15:27:59.162795+05:30"},{"city":"Visakhapatnam","state":"Andhra Pradesh","latitude":17.6868,"longitude":83.2185,"temp":33.5,"humidity":60,"rain":0.0,"pressure":1001.7,"uv_index":8.7,"wind_gusts":44.3,"aqi":61,"pm10":20.6,"pm2_5":15.7,"mosquito_risk":0,"arthritis_risk":5,"migraine_risk":4,"frizz_risk":1,"updated_at":"2026-04-25T15:27:59.162802+05:30"},{"city":"Vijayawada","state":"Andhra Pradesh","latitude":16.5062,"longitude":80.648,"temp":39.0,"humidity":30,"rain":0.0,"pressure":1000.3,"uv_index":8.65,"wind_gusts":34.2,"aqi":52,"pm10":21.7,"pm2_5":16.1,"mosquito_risk":0,"arthritis_risk":5,"migraine_risk":7,"frizz_risk":1,"updated_at":"2026-04-25T15:27:59.162809+05:30"},{"city":"Guntur","state":"Andhra Pradesh","latitude":16.3067,"longitude":80.4365,"temp":37.5,"humidity":36,"rain":0.0,"pressure":1001.8,"uv_index":8.7,"wind_gusts":40.0,"aqi":55,"pm10":25.7,"pm2_5":19.4,"mosquito_risk":0,"arthritis_risk":5,"migraine_risk":7,"frizz_risk":1,"updated_at":"2026-04-25T15:27:59.162816+05:30"},{"city":"Nellore","state":"Andhra Pradesh","latitude":14.4426,"longitude":79.9865,"temp":36.2,"humidity":46,"rain":0.0,"pressure":1003.3,"uv_index":9.2,"wind_gusts":42.1,"aqi":42,"pm10":24.7,"pm2_5":17.3,"mosquito_risk":0,"arthritis_risk":5,"migraine_risk":7,"frizz_risk":1,"updated_at":"2026-04-25T15:27:59.162823+05:30"},{"city":"Kurnool","state":"Andhra Pradesh","latitude":15.8281,"longitude":78.0373,"temp":41.6,"humidity":15,"rain":0.0,"pressure":974.1,"uv_index":8.9,"wind_gusts":32.8,"aqi":83,"pm10":37.4,"pm2_5":30.6,"mosquito_risk":0,"arthritis_risk":5,"migraine_risk":10,"frizz_risk":0,"updated_at":"2026-04-25T15:27:59.162830+05:30"},{"city":"Kakinada","state":"Andhra Pradesh","latitude":16.9891,"longitude":82.2475,"temp":37.8,"humidity":39,"rain":0.0,"pressure":1004.9,"uv_index":8.45,"wind_gusts":39.6,"aqi":42,"pm10":14.3,"pm2_5":9.1,"mosquito_risk":0,"arthritis_risk":5,"migraine_risk":7,"frizz_risk":1,"updated_at":"2026-04-25T15:27:59.162838+05:30"},{"city":"Tirupati","state":"Andhra Pradesh","latitude":13.6288,"longitude":79.4192,"temp":39.4,"humidity":22,"rain":0.0,"pressure":988.3,"uv_index":9.35,"wind_gusts":37.4,"aqi":58,"pm10":27.5,"pm2_5":20.3,"mosquito_risk":0,"arthritis_risk":5,"migraine_risk":10,"frizz_risk":0,"updated_at":"2026-04-25T15:27:59.162844+05:30"},{"city":"Warangal","state":"Telangana","latitude":17.9689,"longitude":79.5941,"temp":39.6,"humidity":23,"rain":0.0,"pressure":977.0,"uv_index":8.9,"wind_gusts":28.1,"aqi":106,"pm10":46.4,"pm2_5":38.8,"mosquito_risk":0,"arthritis_risk":5,"migraine_risk":10,"frizz_risk":0,"updated_at":"2026-04-25T15:27:59.162851+05:30"},{"city":"Nizamabad","state":"Telangana","latitude":18.6725,"longitude":78.0941,"temp":40.3,"humidity":15,"rain":0.0,"pressure":963.1,"uv_index":9.05,"wind_gusts":27.7,"aqi":116,"pm10":31.9,"pm2_5":22.1,"mosquito_risk":0,"arthritis_risk":5,"migraine_risk":10,"frizz_risk":0,"updated_at":"2026-04-25T15:27:59.162858+05:30"},{"city":"Mysore","state":"Karnataka","latitude":12.2958,"longitude":76.6396,"temp":35.9,"humidity":22,"rain":0.0,"pressure":927.2,"uv_index":8.85,"wind_gusts":44.6,"aqi":87,"pm10":28.2,"pm2_5":22.1,"mosquito_risk":0,"arthritis_risk":5,"migraine_risk":10,"frizz_risk":0,"updated_at":"2026-04-25T15:27:59.162864+05:30"},{"city":"Mangalore","state":"Karnataka","latitude":12.9141,"longitude":74.856,"temp":33.1,"humidity":64,"rain":0.0,"pressure":1003.7,"uv_index":9.1,"wind_gusts":41.4,"aqi":70,"pm10":26.3,"pm2_5":20.7,"mosquito_risk":3,"arthritis_risk":5,"migraine_risk":4,"frizz_risk":1,"updated_at":"2026-04-25T15:27:59.162872+05:30"},{"city":"Hubli-Dharwad","state":"Karnataka","latitude":15.3647,"longitude":75.124,"temp":38.1,"humidity":19,"rain":0.0,"pressure":939.3,"uv_index":9.1,"wind_gusts":37.8,"aqi":107,"pm10":40.4,"pm2_5":32.6,"mosquito_risk":0,"arthritis_risk":5,"migraine_risk":10,"frizz_risk":0,"updated_at":"2026-04-25T15:27:59.162879+05:30"},{"city":"Belgaum","state":"Karnataka","latitude":15.8497,"longitude":74.4977,"temp":37.0,"humidity":19,"rain":0.0,"pressure":925.0,"uv_index":9.15,"wind_gusts":37.1,"aqi":135,"pm10":46.0,"pm2_5":37.6,"mosquito_risk":0,"arthritis_risk":5,"migraine_risk":10,"frizz_risk":0,"updated_at":"2026-04-25T15:28:02.402157+05:30"},{"city":"Coimbatore","state":"Tamil Nadu","latitude":11.0168,"longitude":76.9558,"temp":37.6,"humidity":22,"rain":0.0,"pressure":959.6,"uv_index":8.9,"wind_gusts":46.4,"aqi":73,"pm10":21.1,"pm2_5":16.7,"mosquito_risk":0,"arthritis_risk":5,"migraine_risk":10,"frizz_risk":0,"updated_at":"2026-04-25T15:28:02.402183+05:30"},{"city":"Madurai","state":"Tamil Nadu","latitude":9.9252,"longitude":78.1198,"temp":39.5,"humidity":23,"rain":0.0,"pressure":989.7,"uv_index":9.1,"wind_gusts":39.6,"aqi":54,"pm10":17.4,"pm2_5":14.4,"mosquito_risk":0,"arthritis_risk":5,"migraine_risk":10,"frizz_risk":0,"updated_at":"2026-04-25T15:28:02.402192+05:30"},{"city":"Trichy","state":"Tamil Nadu","latitude":10.7905,"longitude":78.7047,"temp":38.0,"humidity":31,"rain":0.0,"pressure":996.6,"uv_index":9.3,"wind_gusts":33.1,"aqi":50,"pm10":18.2,"pm2_5":13.4,"mosquito_risk":0,"arthritis_risk":5,"migraine_risk":10,"frizz_risk":1,"updated_at":"2026-04-25T15:28:02.402199+05:30"},{"city":"Salem","state":"Tamil Nadu","latitude":11.6643,"longitude":78.146,"temp":38.9,"humidity":22,"rain":0.0,"pressure":974.8,"uv_index":9.0,"wind_gusts":42.1,"aqi":60,"pm10":24.7,"pm2_5":18.9,"mosquito_risk":0,"arthritis_risk":5,"migraine_risk":10,"frizz_risk":0,"updated_at":"2026-04-25T15:28:02.402206+05:30"},{"city":"Tirunelveli","state":"Tamil Nadu","latitude":8.7139,"longitude":77.7567,"temp":37.8,"humidity":27,"rain":0.0,"pressure":1000.1,"uv_index":9.2,"wind_gusts":40.7,"aqi":66,"pm10":12.5,"pm2_5":11.3,"mosquito_risk":0,"arthritis_risk":5,"migraine_risk":7,"frizz_risk":0,"updated_at":"2026-04-25T15:28:02.402212+05:30"},{"city":"Vellore","state":"Tamil Nadu","latitude":12.9165,"longitude":79.1325,"temp":39.0,"humidity":23,"rain":0.0,"pressure":981.9,"uv_index":9.25,"wind_gusts":36.0,"aqi":81,"pm10":28.4,"pm2_5":22.6,"mosquito_risk":0,"arthritis_risk":5,"migraine_risk":10,"frizz_risk":0,"updated_at":"2026-04-25T15:28:02.402218+05:30"},{"city":"Erode","state":"Tamil Nadu","latitude":11.341,"longitude":77.7172,"temp":39.7,"humidity":22,"rain":0.0,"pressure":985.9,"uv_index":9.25,"wind_gusts":46.1,"aqi":50,"pm10":18.3,"pm2_5":14.1,"mosquito_risk":0,"arthritis_risk":5,"migraine_risk":10,"frizz_risk":0,"updated_at":"2026-04-25T15:28:02.402225+05:30"},{"city":"Kochi","state":"Kerala","latitude":9.9312,"longitude":76.2673,"temp":32.8,"humidity":60,"rain":0.0,"pressure":1005.1,"uv_index":8.05,"wind_gusts":39.2,"aqi":92,"pm10":24.6,"pm2_5":22.4,"mosquito_risk":0,"arthritis_risk":5,"migraine_risk":4,"frizz_risk":1,"updated_at":"2026-04-25T15:28:02.402231+05:30"},{"city":"Thiruvananthapuram","state":"Kerala","latitude":8.5241,"longitude":76.9366,"temp":31.0,"humidity":69,"rain":0.0,"pressure":1005.3,"uv_index":8.2,"wind_gusts":33.1,"aqi":71,"pm10":19.1,"pm2_5":16.2,"mosquito_risk":3,"arthritis_risk":5,"migraine_risk":4,"frizz_risk":1,"updated_at":"2026-04-25T15:28:02.402237+05:30"},{"city":"Kozhikode","state":"Kerala","latitude":11.2588,"longitude":75.7804,"temp":32.2,"humidity":70,"rain":0.0,"pressure":1004.3,"uv_index":8.55,"wind_gusts":37.1,"aqi":95,"pm10":22.1,"pm2_5":18.9,"mosquito_risk":3,"arthritis_risk":5,"migraine_risk":4,"frizz_risk":1,"updated_at":"2026-04-25T15:28:02.402242+05:30"},{"city":"Thrissur","state":"Kerala","latitude":10.5276,"longitude":76.2144,"temp":33.8,"humidity":58,"rain":0.0,"pressure":1003.2,"uv_index":8.15,"wind_gusts":44.3,"aqi":86,"pm10":18.7,"pm2_5":16.2,"mosquito_risk":0,"arthritis_risk":5,"migraine_risk":4,"frizz_risk":1,"updated_at":"2026-04-25T15:28:02.402249+05:30"},{"city":"Kannur","state":"Kerala","latitude":11.8745,"longitude":75.3704,"temp":32.5,"humidity":66,"rain":0.0,"pressure":1003.9,"uv_index":8.55,"wind_gusts":40.7,"aqi":71,"pm10":23.2,"pm2_5":18.8,"mosquito_risk":3,"arthritis_risk":5,"migraine_risk":4,"frizz_risk":1,"updated_at":"2026-04-25T15:28:02.402254+05:30"},{"city":"Patna","state":"Bihar","latitude":25.5941,"longitude":85.1376,"temp":33.3,"humidity":55,"rain":0.0,"pressure":997.6,"uv_index":8.65,"wind_gusts":60.1,"aqi":160,"pm10":147.1,"pm2_5":51.2,"mosquito_risk":0,"arthritis_risk":5,"migraine_risk":7,"frizz_risk":1,"updated_at":"2026-04-25T15:28:02.402260+05:30"},{"city":"Gaya","state":"Bihar","latitude":24.7914,"longitude":85.0002,"temp":41.8,"humidity":11,"rain":0.0,"pressure":990.0,"uv_index":8.7,"wind_gusts":48.2,"aqi":151,"pm10":81.3,"pm2_5":21.1,"mosquito_risk":0,"arthritis_risk":5,"migraine_risk":10,"frizz_risk":0,"updated_at":"2026-04-25T15:28:02.402266+05:30"},{"city":"Muzaffarpur","state":"Bihar","latitude":26.1209,"longitude":85.3647,"temp":31.5,"humidity":64,"rain":0.1,"pressure":998.3,"uv_index":8.65,"wind_gusts":34.6,"aqi":156,"pm10":136.0,"pm2_5":58.4,"mosquito_risk":6,"arthritis_risk":5,"migraine_risk":7,"frizz_risk":1,"updated_at":"2026-04-25T15:28:02.402271+05:30"},{"city":"Bhagalpur","state":"Bihar","latitude":25.2425,"longitude":87.0117,"temp":28.3,"humidity":71,"rain":0.0,"pressure":999.9,"uv_index":8.6,"wind_gusts":52.9,"aqi":154,"pm10":127.1,"pm2_5":54.4,"mosquito_risk":7,"arthritis_risk":5,"migraine_risk":7,"frizz_risk":1,"updated_at":"2026-04-25T15:28:02.402277+05:30"},{"city":"Ranchi","state":"Jharkhand","latitude":23.3441,"longitude":85.3096,"temp":37.2,"humidity":16,"rain":0.0,"pressure":936.5,"uv_index":9.2,"wind_gusts":28.8,"aqi":169,"pm10":53.3,"pm2_5":25.9,"mosquito_risk":0,"arthritis_risk":5,"migraine_risk":10,"frizz_risk":0,"updated_at":"2026-04-25T15:28:02.402283+05:30"},{"city":"Jamshedpur","state":"Jharkhand","latitude":22.8046,"longitude":86.2029,"temp":42.2,"humidity":12,"rain":0.0,"pressure":987.0,"uv_index":8.9,"wind_gusts":35.3,"aqi":151,"pm10":82.7,"pm2_5":49.7,"mosquito_risk":0,"arthritis_risk":5,"migraine_risk":10,"frizz_risk":0,"updated_at":"2026-04-25T15:28:02.402289+05:30"},{"city":"Dhanbad","state":"Jharkhand","latitude":23.7957,"longitude":86.4304,"temp":42.4,"humidity":12,"rain":0.0,"pressure":975.8,"uv_index":8.95,"wind_gusts":42.1,"aqi":157,"pm10":94.8,"pm2_5":60.5,"mosquito_risk":0,"arthritis_risk":5,"migraine_risk":10,"frizz_risk":0,"updated_at":"2026-04-25T15:28:02.402294+05:30"},{"city":"Bokaro","state":"Jharkhand","latitude":23.6693,"longitude":86.1511,"temp":42.0,"humidity":12,"rain":0.0,"pressure":979.7,"uv_index":9.0,"wind_gusts":34.6,"aqi":164,"pm10":78.7,"pm2_5":41.3,"mosquito_risk":0,"arthritis_risk":5,"migraine_risk":10,"frizz_risk":0,"updated_at":"2026-04-25T15:28:02.402300+05:30"},{"city":"Bhubaneswar","state":"Odisha","latitude":20.2961,"longitude":85.8245,"temp":32.8,"humidity":66,"rain":0.0,"pressure":1000.6,"uv_index":9.1,"wind_gusts":41.0,"aqi":68,"pm10":29.2,"pm2_5":22.2,"mosquito_risk":3,"arthritis_risk":5,"migraine_risk":4,"frizz_risk":1,"updated_at":"2026-04-25T15:28:02.402306+05:30"},{"city":"Cuttack","state":"Odisha","latitude":20.4625,"longitude":85.8828,"temp":34.5,"humidity":61,"rain":0.0,"pressure":1002.0,"uv_index":9.15,"wind_gusts":37.8,"aqi":68,"pm10":29.2,"pm2_5":22.2,"mosquito_risk":3,"arthritis_risk":5,"migraine_risk":4,"frizz_risk":1,"updated_at":"2026-04-25T15:28:02.402311+05:30"},{"city":"Rourkela","state":"Odisha","latitude":22.2604,"longitude":84.8536,"temp":42.3,"humidity":12,"rain":0.0,"pressure":981.5,"uv_index":8.6,"wind_gusts":45.0,"aqi":184,"pm10":46.7,"pm2_5":33.9,"mosquito_risk":0,"arthritis_risk":5,"migraine_risk":10,"frizz_risk":0,"updated_at":"2026-04-25T15:28:02.402317+05:30"},{"city":"Raipur","state":"Chhattisgarh","latitude":21.2514,"longitude":81.6296,"temp":42.5,"humidity":10,"rain":0.0,"pressure":971.8,"uv_index":9.0,"wind_gusts":31.0,"aqi":180,"pm10":30.6,"pm2_5":21.7,"mosquito_risk":0,"arthritis_risk":5,"migraine_risk":10,"frizz_risk":0,"updated_at":"2026-04-25T15:28:02.402323+05:30"},{"city":"Bhilai","state":"Chhattisgarh","latitude":21.1938,"longitude":81.3509,"temp":42.3,"humidity":10,"rain":0.0,"pressure":972.3,"uv_index":9.0,"wind_gusts":35.6,"aqi":144,"pm10":30.3,"pm2_5":20.6,"mosquito_risk":0,"arthritis_risk":5,"migraine_risk":10,"frizz_risk":0,"updated_at":"2026-04-25T15:28:02.402329+05:30"},{"city":"Guwahati","state":"Assam","latitude":26.1158,"longitude":91.7086,"temp":31.5,"humidity":63,"rain":0.0,"pressure":999.4,"uv_index":8.55,"wind_gusts":42.1,"aqi":161,"pm10":102.0,"pm2_5":62.9,"mosquito_risk":3,"arthritis_risk":5,"migraine_risk":7,"frizz_risk":1,"updated_at":"2026-04-25T15:28:02.402334+05:30"},{"city":"Agartala","state":"Tripura","latitude":23.8315,"longitude":91.2868,"temp":37.5,"humidity":32,"rain":0.0,"pressure":1002.5,"uv_index":8.75,"wind_gusts":35.6,"aqi":153,"pm10":70.5,"pm2_5":39.5,"mosquito_risk":0,"arthritis_risk":5,"migraine_risk":7,"frizz_risk":1,"updated_at":"2026-04-25T15:28:02.402340+05:30"},{"city":"Shillong","state":"Meghalaya","latitude":25.5788,"longitude":91.8933,"temp":24.0,"humidity":54,"rain":0.0,"pressure":858.5,"uv_index":8.2,"wind_gusts":27.0,"aqi":146,"pm10":84.5,"pm2_5":43.3,"mosquito_risk":0,"arthritis_risk":5,"migraine_risk":7,"frizz_risk":0,"updated_at":"2026-04-25T15:28:02.402346+05:30"},{"city":"Imphal","state":"Manipur","latitude":24.817,"longitude":93.9368,"temp":31.4,"humidity":36,"rain":0.0,"pressure":922.2,"uv_index":9.1,"wind_gusts":34.2,"aqi":155,"pm10":74.0,"pm2_5":34.7,"mosquito_risk":0,"arthritis_risk":5,"migraine_risk":7,"frizz_risk":0,"updated_at":"2026-04-25T15:28:02.402352+05:30"},{"city":"Aizawl","state":"Mizoram","latitude":23.7271,"longitude":92.7176,"temp":32.0,"humidity":23,"rain":0.0,"pressure":892.9,"uv_index":8.95,"wind_gusts":37.8,"aqi":121,"pm10":80.6,"pm2_5":28.2,"mosquito_risk":0,"arthritis_risk":5,"migraine_risk":7,"frizz_risk":0,"updated_at":"2026-04-25T15:28:02.402357+05:30"},{"city":"Kohima","state":"Nagaland","latitude":25.6701,"longitude":94.1077,"temp":22.0,"humidity":74,"rain":0.0,"pressure":856.1,"uv_index":8.8,"wind_gusts":38.2,"aqi":156,"pm10":106.9,"pm2_5":57.2,"mosquito_risk":3,"arthritis_risk":5,"migraine_risk":7,"frizz_risk":1,"updated_at":"2026-04-25T15:28:02.402363+05:30"},{"city":"Gangtok","state":"Sikkim","latitude":27.3314,"longitude":88.6138,"temp":19.5,"humidity":68,"rain":0.0,"pressure":838.6,"uv_index":8.8,"wind_gusts":41.4,"aqi":111,"pm10":44.9,"pm2_5":26.6,"mosquito_risk":3,"arthritis_risk":5,"migraine_risk":7,"frizz_risk":0,"updated_at":"2026-04-25T15:28:02.402369+05:30"},{"city":"Siliguri","state":"West Bengal","latitude":26.7271,"longitude":88.3953,"temp":30.6,"humidity":59,"rain":0.0,"pressure":991.4,"uv_index":8.45,"wind_gusts":29.2,"aqi":150,"pm10":87.3,"pm2_5":51.5,"mosquito_risk":0,"arthritis_risk":5,"migraine_risk":7,"frizz_risk":1,"updated_at":"2026-04-25T15:28:05.636807+05:30"},{"city":"Durgapur","state":"West Bengal","latitude":23.5204,"longitude":87.3119,"temp":37.8,"humidity":44,"rain":0.0,"pressure":991.7,"uv_index":8.9,"wind_gusts":38.2,"aqi":141,"pm10":88.2,"pm2_5":62.2,"mosquito_risk":0,"arthritis_risk":5,"migraine_risk":10,"frizz_risk":1,"updated_at":"2026-04-25T15:28:05.636840+05:30"},{"city":"Asansol","state":"West Bengal","latitude":23.6739,"longitude":86.9524,"temp":38.0,"humidity":37,"rain":0.0,"pressure":990.0,"uv_index":8.95,"wind_gusts":38.9,"aqi":143,"pm10":90.3,"pm2_5":64.5,"mosquito_risk":0,"arthritis_risk":5,"migraine_risk":10,"frizz_risk":1,"updated_at":"2026-04-25T15:28:05.636853+05:30"},{"city":"Pondicherry","state":"Puducherry","latitude":11.9139,"longitude":79.8145,"temp":32.2,"humidity":64,"rain":0.0,"pressure":1006.7,"uv_index":9.15,"wind_gusts":44.6,"aqi":26,"pm10":10.9,"pm2_5":7.0,"mosquito_risk":3,"arthritis_risk":5,"migraine_risk":4,"frizz_risk":1,"updated_at":"2026-04-25T15:28:05.636862+05:30"},{"city":"Port Blair","state":"Andaman and Nicobar Islands","latitude":11.6234,"longitude":92.7265,"temp":32.2,"humidity":60,"rain":0.0,"pressure":1005.2,"uv_index":9.15,"wind_gusts":32.4,"aqi":38,"pm10":18.0,"pm2_5":11.5,"mosquito_risk":0,"arthritis_risk":5,"migraine_risk":4,"frizz_risk":1,"updated_at":"2026-04-25T15:28:05.636872+05:30"},{"city":"Haridwar","state":"Uttarakhand","latitude":29.9457,"longitude":78.1642,"temp":36.2,"humidity":27,"rain":0.0,"pressure":972.2,"uv_index":7.2,"wind_gusts":32.8,"aqi":80,"pm10":61.2,"pm2_5":18.7,"mosquito_risk":0,"arthritis_risk":5,"migraine_risk":10,"frizz_risk":0,"updated_at":"2026-04-25T15:28:05.636881+05:30"},{"city":"Rishikesh","state":"Uttarakhand","latitude":30.0869,"longitude":78.2676,"temp":34.0,"humidity":31,"rain":0.0,"pressure":965.3,"uv_index":7.35,"wind_gusts":37.4,"aqi":75,"pm10":59.5,"pm2_5":17.1,"mosquito_risk":0,"arthritis_risk":5,"migraine_risk":7,"frizz_risk":0,"updated_at":"2026-04-25T15:28:05.636890+05:30"},{"city":"Nainital","state":"Uttarakhand","latitude":29.3919,"longitude":79.4542,"temp":24.5,"humidity":30,"rain":0.0,"pressure":808.9,"uv_index":8.15,"wind_gusts":43.6,"aqi":114,"pm10":50.1,"pm2_5":20.3,"mosquito_risk":0,"arthritis_risk":5,"migraine_risk":7,"frizz_risk":0,"updated_at":"2026-04-25T15:28:05.636899+05:30"},{"city":"Mussoorie","state":"Uttarakhand","latitude":30.4599,"longitude":78.0664,"temp":22.6,"humidity":36,"rain":0.0,"pressure":806.6,"uv_index":7.75,"wind_gusts":58.7,"aqi":79,"pm10":54.2,"pm2_5":16.5,"mosquito_risk":0,"arthritis_risk":5,"migraine_risk":7,"frizz_risk":0,"updated_at":"2026-04-25T15:28:05.636907+05:30"},{"city":"Dharamshala","state":"Himachal Pradesh","latitude":32.219,"longitude":76.3234,"temp":27.5,"humidity":27,"rain":0.0,"pressure":872.5,"uv_index":7.55,"wind_gusts":59.0,"aqi":49,"pm10":59.0,"pm2_5":12.3,"mosquito_risk":4,"arthritis_risk":5,"migraine_risk":7,"frizz_risk":0,"updated_at":"2026-04-25T15:28:05.636915+05:30"},{"city":"Dalhousie","state":"Himachal Pradesh","latitude":32.5387,"longitude":75.971,"temp":20.2,"humidity":53,"rain":0.0,"pressure":808.8,"uv_index":8.1,"wind_gusts":45.7,"aqi":57,"pm10":79.4,"pm2_5":17.3,"mosquito_risk":0,"arthritis_risk":5,"migraine_risk":7,"frizz_risk":0,"updated_at":"2026-04-25T15:28:05.636925+05:30"},{"city":"Patiala","state":"Punjab","latitude":30.3398,"longitude":76.3869,"temp":37.2,"humidity":21,"rain":0.0,"pressure":977.8,"uv_index":7.35,"wind_gusts":56.2,"aqi":418,"pm10":722.7,"pm2_5":70.1,"mosquito_risk":0,"arthritis_risk":5,"migraine_risk":10,"frizz_risk":0,"updated_at":"2026-04-25T15:28:05.636934+05:30"},{"city":"Bhatinda","state":"Punjab","latitude":30.211,"longitude":74.9455,"temp":39.2,"humidity":17,"rain":0.0,"pressure":983.4,"uv_index":8.0,"wind_gusts":46.1,"aqi":86,"pm10":127.6,"pm2_5":30.0,"mosquito_risk":0,"arthritis_risk":5,"migraine_risk":10,"frizz_risk":0,"updated_at":"2026-04-25T15:28:05.636942+05:30"},{"city":"Rohtak","state":"Haryana","latitude":28.8955,"longitude":76.6066,"temp":39.1,"humidity":17,"rain":0.0,"pressure":980.6,"uv_index":7.45,"wind_gusts":54.4,"aqi":581,"pm10":610.9,"pm2_5":67.5,"mosquito_risk":0,"arthritis_risk":5,"migraine_risk":10,"frizz_risk":0,"updated_at":"2026-04-25T15:28:05.636950+05:30"},{"city":"Panipat","state":"Haryana","latitude":29.3909,"longitude":76.9635,"temp":40.3,"humidity":14,"rain":0.0,"pressure":978.5,"uv_index":7.15,"wind_gusts":51.1,"aqi":1010,"pm10":1348.6,"pm2_5":121.1,"mosquito_risk":0,"arthritis_risk":5,"migraine_risk":10,"frizz_risk":0,"updated_at":"2026-04-25T15:28:05.636959+05:30"},{"city":"Mathura","state":"Uttar Pradesh","latitude":27.4924,"longitude":77.6737,"temp":41.7,"humidity":13,"rain":0.0,"pressure":984.2,"uv_index":7.65,"wind_gusts":45.0,"aqi":376,"pm10":627.7,"pm2_5":71.7,"mosquito_risk":0,"arthritis_risk":5,"migraine_risk":10,"frizz_risk":0,"updated_at":"2026-04-25T15:28:05.636967+05:30"},{"city":"Vrindavan","state":"Uttar Pradesh","latitude":27.5823,"longitude":77.7027,"temp":41.5,"humidity":13,"rain":0.0,"pressure":984.6,"uv_index":7.55,"wind_gusts":45.0,"aqi":376,"pm10":627.7,"pm2_5":71.7,"mosquito_risk":0,"arthritis_risk":5,"migraine_risk":10,"frizz_risk":0,"updated_at":"2026-04-25T15:28:05.636975+05:30"},{"city":"Ayodhya","state":"Uttar Pradesh","latitude":26.7922,"longitude":82.1998,"temp":43.2,"humidity":12,"rain":0.0,"pressure":991.0,"uv_index":8.1,"wind_gusts":38.5,"aqi":150,"pm10":160.7,"pm2_5":39.5,"mosquito_risk":0,"arthritis_risk":5,"migraine_risk":10,"frizz_risk":0,"updated_at":"2026-04-25T15:28:05.636983+05:30"},{"city":"Ratlam","state":"Madhya Pradesh","latitude":23.3315,"longitude":75.0367,"temp":41.7,"humidity":12,"rain":0.0,"pressure":953.0,"uv_index":8.45,"wind_gusts":25.9,"aqi":55,"pm10":47.8,"pm2_5":14.3,"mosquito_risk":0,"arthritis_risk":5,"migraine_risk":10,"frizz_risk":0,"updated_at":"2026-04-25T15:28:05.636991+05:30"},{"city":"Sagar","state":"Madhya Pradesh","latitude":23.8388,"longitude":78.7378,"temp":41.2,"humidity":12,"rain":0.0,"pressure":948.5,"uv_index":8.65,"wind_gusts":29.9,"aqi":98,"pm10":32.4,"pm2_5":11.7,"mosquito_risk":0,"arthritis_risk":5,"migraine_risk":10,"frizz_risk":0,"updated_at":"2026-04-25T15:28:05.636999+05:30"},{"city":"Satna","state":"Madhya Pradesh","latitude":24.6005,"longitude":80.8322,"temp":42.8,"humidity":11,"rain":0.0,"pressure":968.2,"uv_index":8.7,"wind_gusts":43.9,"aqi":104,"pm10":146.7,"pm2_5":31.1,"mosquito_risk":0,"arthritis_risk":5,"migraine_risk":10,"frizz_risk":0,"updated_at":"2026-04-25T15:28:05.637007+05:30"},{"city":"Akola","state":"Maharashtra","latitude":20.7002,"longitude":77.0082,"temp":42.2,"humidity":12,"rain":0.0,"pressure":972.5,"uv_index":8.7,"wind_gusts":23.8,"aqi":80,"pm10":27.0,"pm2_5":14.3,"mosquito_risk":0,"arthritis_risk":5,"migraine_risk":10,"frizz_risk":0,"updated_at":"2026-04-25T15:28:05.637016+05:30"},{"city":"Amravati","state":"Maharashtra","latitude":20.9374,"longitude":77.7796,"temp":42.2,"humidity":11,"rain":0.0,"pressure":964.9,"uv_index":8.5,"wind_gusts":27.7,"aqi":76,"pm10":25.9,"pm2_5":13.2,"mosquito_risk":0,"arthritis_risk":5,"migraine_risk":10,"frizz_risk":0,"updated_at":"2026-04-25T15:28:05.637026+05:30"},{"city":"Latur","state":"Maharashtra","latitude":18.4088,"longitude":76.5604,"temp":39.7,"humidity":14,"rain":0.0,"pressure":939.0,"uv_index":8.8,"wind_gusts":32.8,"aqi":115,"pm10":31.9,"pm2_5":25.4,"mosquito_risk":0,"arthritis_risk":5,"migraine_risk":10,"frizz_risk":0,"updated_at":"2026-04-25T15:28:05.637034+05:30"},{"city":"Nanded","state":"Maharashtra","latitude":19.1383,"longitude":77.3091,"temp":41.7,"humidity":13,"rain":0.0,"pressure":966.6,"uv_index":8.6,"wind_gusts":28.1,"aqi":104,"pm10":30.2,"pm2_5":20.6,"mosquito_risk":0,"arthritis_risk":5,"migraine_risk":10,"frizz_risk":0,"updated_at":"2026-04-25T15:28:05.637042+05:30"},{"city":"Gulbarga","state":"Karnataka","latitude":17.3297,"longitude":76.8343,"temp":40.2,"humidity":16,"rain":0.0,"pressure":957.2,"uv_index":9.15,"wind_gusts":26.6,"aqi":124,"pm10":49.1,"pm2_5":41.0,"mosquito_risk":0,"arthritis_risk":5,"migraine_risk":10,"frizz_risk":0,"updated_at":"2026-04-25T15:28:05.637049+05:30"},{"city":"Bidar","state":"Karnataka","latitude":17.9104,"longitude":77.5199,"temp":38.5,"humidity":18,"rain":0.0,"pressure":935.1,"uv_index":8.9,"wind_gusts":27.0,"aqi":126,"pm10":40.0,"pm2_5":33.2,"mosquito_risk":0,"arthritis_risk":5,"migraine_risk":10,"frizz_risk":0,"updated_at":"2026-04-25T15:28:05.637057+05:30"},{"city":"Hospet","state":"Karnataka","latitude":15.2689,"longitude":76.3909,"temp":38.6,"humidity":20,"rain":0.0,"pressure":953.8,"uv_index":9.3,"wind_gusts":27.4,"aqi":95,"pm10":42.3,"pm2_5":34.8,"mosquito_risk":0,"arthritis_risk":5,"migraine_risk":10,"frizz_risk":0,"updated_at":"2026-04-25T15:28:05.637065+05:30"},{"city":"Tirupur","state":"Tamil Nadu","latitude":11.1085,"longitude":77.3411,"temp":38.8,"humidity":22,"rain":0.0,"pressure":972.4,"uv_index":9.4,"wind_gusts":42.1,"aqi":55,"pm10":17.6,"pm2_5":13.6,"mosquito_risk":0,"arthritis_risk":5,"migraine_risk":10,"frizz_risk":0,"updated_at":"2026-04-25T15:28:05.637073+05:30"},{"city":"Alappuzha","state":"Kerala","latitude":9.4981,"longitude":76.3388,"temp":31.4,"humidity":71,"rain":0.0,"pressure":1005.5,"uv_index":8.05,"wind_gusts":36.7,"aqi":100,"pm10":29.9,"pm2_5":27.4,"mosquito_risk":3,"arthritis_risk":5,"migraine_risk":4,"frizz_risk":1,"updated_at":"2026-04-25T15:28:05.637081+05:30"},{"city":"Munnar","state":"Kerala","latitude":10.0889,"longitude":77.0595,"temp":26.1,"humidity":41,"rain":0.0,"pressure":857.6,"uv_index":9.15,"wind_gusts":31.7,"aqi":61,"pm10":12.2,"pm2_5":10.3,"mosquito_risk":4,"arthritis_risk":5,"migraine_risk":7,"frizz_risk":0,"updated_at":"2026-04-25T15:28:05.637090+05:30"},{"city":"Silchar","state":"Assam","latitude":24.8333,"longitude":92.7789,"temp":34.2,"humidity":55,"rain":0.0,"pressure":1001.5,"uv_index":8.75,"wind_gusts":21.6,"aqi":159,"pm10":112.5,"pm2_5":46.6,"mosquito_risk":0,"arthritis_risk":5,"migraine_risk":4,"frizz_risk":1,"updated_at":"2026-04-25T15:28:05.637098+05:30"},{"city":"Dibrugarh","state":"Assam","latitude":27.4728,"longitude":94.912,"temp":28.5,"humidity":67,"rain":0.0,"pressure":994.8,"uv_index":8.6,"wind_gusts":31.7,"aqi":98,"pm10":78.7,"pm2_5":38.5,"mosquito_risk":7,"arthritis_risk":5,"migraine_risk":7,"frizz_risk":1,"updated_at":"2026-04-25T15:28:05.637106+05:30"}]