[{"city":"Delhi","state":"Delhi","latitude":28.6139,"longitude":77.209,"temp":38.2,"humidity":26,"rain":0.1,"pressure":976.5,"uv_index":7.65,"wind_gusts":60.5,"aqi":193,"pm10":281.3,"pm2_5":68.5,"no2":6.5,"co":450.0,"o3":225.0,"so2":23.5,"mosquito_risk":3,"arthritis_risk":5,"migraine_risk":10,"frizz_risk":0,"updated_at":"2026-05-13T16:01:21.976838+05:30"},{"city":"Mumbai","state":"Maharashtra","latitude":19.076,"longitude":72.8777,"temp":32.5,"humidity":64,"rain":0.0,"pressure":1003.3,"uv_index":7.65,"wind_gusts":43.2,"aqi":73,"pm10":41.8,"pm2_5":20.8,"no2":5.6,"co":218.0,"o3":109.0,"so2":15.3,"mosquito_risk":3,"arthritis_risk":5,"migraine_risk":4,"frizz_risk":1,"updated_at":"2026-05-13T16:01:21.976873+05:30"},{"city":"Bangalore","state":"Karnataka","latitude":12.9716,"longitude":77.5946,"temp":34.2,"humidity":26,"rain":0.0,"pressure":907.4,"uv_index":9.45,"wind_gusts":38.5,"aqi":114,"pm10":36.3,"pm2_5":21.4,"no2":5.2,"co":313.0,"o3":167.0,"so2":4.1,"mosquito_risk":0,"arthritis_risk":5,"migraine_risk":7,"frizz_risk":0,"updated_at":"2026-05-13T16:01:21.976888+05:30"},{"city":"Hyderabad","state":"Telangana","latitude":17.385,"longitude":78.4867,"temp":37.8,"humidity":24,"rain":0.0,"pressure":947.6,"uv_index":8.8,"wind_gusts":26.6,"aqi":85,"pm10":67.5,"pm2_5":25.3,"no2":2.1,"co":326.0,"o3":163.0,"so2":5.0,"mosquito_risk":0,"arthritis_risk":5,"migraine_risk":10,"frizz_risk":0,"updated_at":"2026-05-13T16:01:21.976898+05:30"},{"city":"Chennai","state":"Tamil Nadu","latitude":13.0827,"longitude":80.2707,"temp":32.8,"humidity":58,"rain":0.0,"pressure":1000.5,"uv_index":9.0,"wind_gusts":46.4,"aqi":25,"pm10":6.5,"pm2_5":4.4,"no2":2.6,"co":143.0,"o3":51.0,"so2":5.1,"mosquito_risk":0,"arthritis_risk":5,"migraine_risk":4,"frizz_risk":1,"updated_at":"2026-05-13T16:01:21.976905+05:30"},{"city":"Kolkata","state":"West Bengal","latitude":22.5726,"longitude":88.3639,"temp":30.8,"humidity":69,"rain":0.1,"pressure":1000.2,"uv_index":8.95,"wind_gusts":34.6,"aqi":71,"pm10":22.6,"pm2_5":13.9,"no2":3.8,"co":260.0,"o3":85.0,"so2":5.7,"mosquito_risk":6,"arthritis_risk":5,"migraine_risk":4,"frizz_risk":1,"updated_at":"2026-05-13T16:01:21.976913+05:30"},{"city":"Pune","state":"Maharashtra","latitude":18.5204,"longitude":73.8567,"temp":34.5,"humidity":36,"rain":0.0,"pressure":943.7,"uv_index":8.5,"wind_gusts":43.9,"aqi":100,"pm10":62.4,"pm2_5":26.0,"no2":2.4,"co":245.0,"o3":167.0,"so2":7.6,"mosquito_risk":0,"arthritis_risk":5,"migraine_risk":7,"frizz_risk":1,"updated_at":"2026-05-13T16:01:21.976920+05:30"},{"city":"Ahmedabad","state":"Gujarat","latitude":23.0225,"longitude":72.5714,"temp":43.6,"humidity":14,"rain":0.0,"pressure":993.9,"uv_index":8.2,"wind_gusts":35.6,"aqi":72,"pm10":55.8,"pm2_5":17.6,"no2":1.7,"co":191.0,"o3":140.0,"so2":4.5,"mosquito_risk":0,"arthritis_risk":5,"migraine_risk":10,"frizz_risk":0,"updated_at":"2026-05-13T16:01:21.976931+05:30"},{"city":"Jaipur","state":"Rajasthan","latitude":26.9124,"longitude":75.7873,"temp":41.2,"humidity":12,"rain":0.0,"pressure":953.6,"uv_index":8.2,"wind_gusts":49.3,"aqi":160,"pm10":218.4,"pm2_5":36.4,"no2":1.0,"co":182.0,"o3":131.0,"so2":2.9,"mosquito_risk":0,"arthritis_risk":5,"migraine_risk":10,"frizz_risk":0,"updated_at":"2026-05-13T16:01:21.976959+05:30"},{"city":"Lucknow","state":"Uttar Pradesh","latitude":26.8467,"longitude":80.9462,"temp":38.3,"humidity":31,"rain":0.0,"pressure":985.5,"uv_index":8.15,"wind_gusts":32.4,"aqi":170,"pm10":107.6,"pm2_5":51.1,"no2":2.3,"co":372.0,"o3":191.0,"so2":10.6,"mosquito_risk":0,"arthritis_risk":5,"migraine_risk":10,"frizz_risk":1,"updated_at":"2026-05-13T16:01:21.976967+05:30"},{"city":"Kanpur","state":"Uttar Pradesh","latitude":26.4499,"longitude":80.3319,"temp":39.8,"humidity":24,"rain":0.0,"pressure":983.8,"uv_index":8.2,"wind_gusts":37.8,"aqi":179,"pm10":191.4,"pm2_5":52.7,"no2":2.4,"co":338.0,"o3":192.0,"so2":10.4,"mosquito_risk":0,"arthritis_risk":5,"migraine_risk":10,"frizz_risk":0,"updated_at":"2026-05-13T16:01:21.976979+05:30"},{"city":"Chandigarh","state":"Chandigarh","latitude":30.7333,"longitude":76.7794,"temp":33.2,"humidity":35,"rain":0.0,"pressure":964.3,"uv_index":7.7,"wind_gusts":36.7,"aqi":171,"pm10":143.4,"pm2_5":43.8,"no2":2.0,"co":403.0,"o3":190.0,"so2":13.3,"mosquito_risk":0,"arthritis_risk":5,"migraine_risk":7,"frizz_risk":0,"updated_at":"2026-05-13T16:01:21.976987+05:30"},{"city":"Srinagar","state":"Jammu and Kashmir","latitude":34.0837,"longitude":74.7973,"temp":19.3,"humidity":57,"rain":0.0,"pressure":842.1,"uv_index":8.8,"wind_gusts":26.3,"aqi":76,"pm10":21.3,"pm2_5":11.4,"no2":2.1,"co":283.0,"o3":136.0,"so2":1.7,"mosquito_risk":0,"arthritis_risk":5,"migraine_risk":7,"frizz_risk":0,"updated_at":"2026-05-13T16:01:21.976994+05:30"},{"city":"Jammu","state":"Jammu and Kashmir","latitude":32.7266,"longitude":74.857,"temp":34.5,"humidity":23,"rain":0.0,"pressure":968.6,"uv_index":8.45,"wind_gusts":25.6,"aqi":111,"pm10":82.0,"pm2_5":31.1,"no2":1.0,"co":234.0,"o3":157.0,"so2":2.6,"mosquito_risk":0,"arthritis_risk":5,"migraine_risk":7,"frizz_risk":0,"updated_at":"2026-05-13T16:01:21.977001+05:30"},{"city":"Amritsar","state":"Punjab","latitude":31.634,"longitude":74.8723,"temp":33.8,"humidity":29,"rain":0.0,"pressure":976.2,"uv_index":8.35,"wind_gusts":35.3,"aqi":150,"pm10":168.1,"pm2_5":48.0,"no2":1.4,"co":320.0,"o3":176.0,"so2":6.7,"mosquito_risk":0,"arthritis_risk":5,"migraine_risk":7,"frizz_risk":0,"updated_at":"2026-05-13T16:01:21.977007+05:30"},{"city":"Ludhiana","state":"Punjab","latitude":30.901,"longitude":75.8573,"temp":34.2,"humidity":32,"rain":0.0,"pressure":974.3,"uv_index":7.95,"wind_gusts":32.0,"aqi":164,"pm10":240.3,"pm2_5":59.4,"no2":1.0,"co":387.0,"o3":177.0,"so2":11.2,"mosquito_risk":0,"arthritis_risk":5,"migraine_risk":7,"frizz_risk":0,"updated_at":"2026-05-13T16:01:21.977014+05:30"},{"city":"Jalandhar","state":"Punjab","latitude":31.326,"longitude":75.5762,"temp":34.3,"humidity":31,"rain":0.0,"pressure":975.3,"uv_index":8.15,"wind_gusts":37.8,"aqi":151,"pm10":165.3,"pm2_5":47.8,"no2":0.8,"co":388.0,"o3":170.0,"so2":8.1,"mosquito_risk":0,"arthritis_risk":5,"migraine_risk":7,"frizz_risk":0,"updated_at":"2026-05-13T16:01:21.977020+05:30"},{"city":"Dehradun","state":"Uttarakhand","latitude":30.6284,"longitude":78.0322,"temp":22.0,"humidity":50,"rain":0.0,"pressure":829.6,"uv_index":8.1,"wind_gusts":34.6,"aqi":106,"pm10":59.3,"pm2_5":26.5,"no2":0.9,"co":299.0,"o3":162.0,"so2":6.4,"mosquito_risk":0,"arthritis_risk":5,"migraine_risk":7,"frizz_risk":0,"updated_at":"2026-05-13T16:01:21.977028+05:30"},{"city":"Shimla","state":"Himachal Pradesh","latitude":31.1048,"longitude":77.1734,"temp":20.2,"humidity":33,"rain":0.0,"pressure":784.6,"uv_index":8.2,"wind_gusts":44.3,"aqi":124,"pm10":51.1,"pm2_5":26.1,"no2":1.0,"co":228.0,"o3":180.0,"so2":14.6,"mosquito_risk":0,"arthritis_risk":5,"migraine_risk":7,"frizz_risk":0,"updated_at":"2026-05-13T16:01:21.977034+05:30"},{"city":"Manali","state":"Himachal Pradesh","latitude":32.2396,"longitude":77.1887,"temp":18.9,"humidity":41,"rain":0.0,"pressure":816.5,"uv_index":9.95,"wind_gusts":41.0,"aqi":119,"pm10":21.9,"pm2_5":10.6,"no2":0.7,"co":155.0,"o3":169.0,"so2":0.5,"mosquito_risk":0,"arthritis_risk":5,"migraine_risk":7,"frizz_risk":0,"updated_at":"2026-05-13T16:01:21.977041+05:30"},{"city":"Gurgaon","state":"Haryana","latitude":28.4595,"longitude":77.0266,"temp":37.5,"humidity":24,"rain":0.0,"pressure":974.8,"uv_index":7.75,"wind_gusts":59.4,"aqi":705,"pm10":538.3,"pm2_5":84.3,"no2":5.3,"co":320.0,"o3":191.0,"so2":16.7,"mosquito_risk":0,"arthritis_risk":5,"migraine_risk":10,"frizz_risk":0,"updated_at":"2026-05-13T16:01:21.977047+05:30"},{"city":"Noida","state":"Uttar Pradesh","latitude":28.5355,"longitude":77.391,"temp":36.1,"humidity":34,"rain":0.1,"pressure":977.8,"uv_index":7.7,"wind_gusts":43.9,"aqi":705,"pm10":538.3,"pm2_5":84.3,"no2":5.3,"co":407.0,"o3":191.0,"so2":16.7,"mosquito_risk":3,"arthritis_risk":5,"migraine_risk":10,"frizz_risk":1,"updated_at":"2026-05-13T16:01:21.977054+05:30"},{"city":"Ghaziabad","state":"Uttar Pradesh","latitude":28.6692,"longitude":77.4538,"temp":36.5,"humidity":34,"rain":0.1,"pressure":976.0,"uv_index":7.65,"wind_gusts":33.1,"aqi":160,"pm10":268.2,"pm2_5":64.3,"no2":4.2,"co":374.0,"o3":208.0,"so2":13.4,"mosquito_risk":3,"arthritis_risk":5,"migraine_risk":10,"frizz_risk":1,"updated_at":"2026-05-13T16:01:21.977060+05:30"},{"city":"Faridabad","state":"Haryana","latitude":28.4089,"longitude":77.3178,"temp":37.3,"humidity":24,"rain":0.1,"pressure":977.1,"uv_index":7.75,"wind_gusts":55.4,"aqi":705,"pm10":538.3,"pm2_5":84.3,"no2":5.3,"co":365.0,"o3":191.0,"so2":16.7,"mosquito_risk":3,"arthritis_risk":5,"migraine_risk":10,"frizz_risk":0,"updated_at":"2026-05-13T16:01:21.977066+05:30"},{"city":"Meerut","state":"Uttar Pradesh","latitude":28.9845,"longitude":77.7064,"temp":36.0,"humidity":33,"rain":0.0,"pressure":975.2,"uv_index":7.6,"wind_gusts":33.5,"aqi":160,"pm10":268.2,"pm2_5":64.3,"no2":4.2,"co":356.0,"o3":208.0,"so2":13.4,"mosquito_risk":0,"arthritis_risk":5,"migraine_risk":10,"frizz_risk":1,"updated_at":"2026-05-13T16:01:21.977072+05:30"},{"city":"Agra","state":"Uttar Pradesh","latitude":27.1767,"longitude":78.0081,"temp":38.3,"humidity":26,"rain":0.0,"pressure":980.5,"uv_index":8.0,"wind_gusts":32.0,"aqi":725,"pm10":372.5,"pm2_5":65.2,"no2":1.8,"co":326.0,"o3":168.0,"so2":8.9,"mosquito_risk":0,"arthritis_risk":5,"migraine_risk":10,"frizz_risk":0,"updated_at":"2026-05-13T16:01:21.977079+05:30"},{"city":"Varanasi","state":"Uttar Pradesh","latitude":25.3176,"longitude":82.9739,"temp":38.7,"humidity":28,"rain":0.0,"pressure":989.6,"uv_index":8.7,"wind_gusts":43.6,"aqi":197,"pm10":101.5,"pm2_5":53.4,"no2":2.5,"co":376.0,"o3":212.0,"so2":13.9,"mosquito_risk":0,"arthritis_risk":5,"migraine_risk":10,"frizz_risk":1,"updated_at":"2026-05-13T16:01:21.977085+05:30"},{"city":"Prayagraj","state":"Uttar Pradesh","latitude":25.4358,"longitude":81.8463,"temp":40.2,"humidity":21,"rain":0.0,"pressure":987.8,"uv_index":8.55,"wind_gusts":39.2,"aqi":198,"pm10":102.0,"pm2_5":56.1,"no2":2.5,"co":320.0,"o3":208.0,"so2":12.5,"mosquito_risk":0,"arthritis_risk":5,"migraine_risk":10,"frizz_risk":0,"updated_at":"2026-05-13T16:01:21.977093+05:30"},{"city":"Gorakhpur","state":"Uttar Pradesh","latitude":26.7606,"longitude":83.3732,"temp":34.0,"humidity":48,"rain":0.0,"pressure":990.1,"uv_index":8.5,"wind_gusts":38.2,"aqi":163,"pm10":127.6,"pm2_5":49.8,"no2":1.7,"co":332.0,"o3":186.0,"so2":7.7,"mosquito_risk":0,"arthritis_risk":5,"migraine_risk":7,"frizz_risk":1,"updated_at":"2026-05-13T16:01:21.977099+05:30"},{"city":"Bareilly","state":"Uttar Pradesh","latitude":28.367,"longitude":79.4304,"temp":35.7,"humidity":43,"rain":0.0,"pressure":979.5,"uv_index":7.95,"wind_gusts":42.5,"aqi":166,"pm10":199.3,"pm2_5":56.9,"no2":1.8,"co":356.0,"o3":197.0,"so2":12.6,"mosquito_risk":0,"arthritis_risk":5,"migraine_risk":10,"frizz_risk":1,"updated_at":"2026-05-13T16:01:21.977106+05:30"},{"city":"Aligarh","state":"Uttar Pradesh","latitude":27.8974,"longitude":78.088,"temp":36.7,"humidity":32,"rain":0.0,"pressure":978.2,"uv_index":7.8,"wind_gusts":37.8,"aqi":332,"pm10":314.8,"pm2_5":63.1,"no2":2.5,"co":315.0,"o3":182.0,"so2":13.9,"mosquito_risk":0,"arthritis_risk":5,"migraine_risk":10,"frizz_risk":1,"updated_at":"2026-05-13T16:01:21.977112+05:30"},{"city":"Moradabad","state":"Uttar Pradesh","latitude":28.8386,"longitude":78.7733,"temp":35.0,"humidity":43,"rain":0.0,"pressure":977.4,"uv_index":7.8,"wind_gusts":27.0,"aqi":174,"pm10":168.1,"pm2_5":58.8,"no2":3.0,"co":361.0,"o3":206.0,"so2":21.8,"mosquito_risk":0,"arthritis_risk":5,"migraine_risk":7,"frizz_risk":1,"updated_at":"2026-05-13T16:01:21.977118+05:30"},{"city":"Saharanpur","state":"Uttar Pradesh","latitude":29.9637,"longitude":77.546,"temp":33.8,"humidity":40,"rain":0.0,"pressure":970.5,"uv_index":7.4,"wind_gusts":31.0,"aqi":159,"pm10":134.6,"pm2_5":49.7,"no2":2.0,"co":371.0,"o3":191.0,"so2":10.6,"mosquito_risk":0,"arthritis_risk":5,"migraine_risk":7,"frizz_risk":1,"updated_at":"2026-05-13T16:01:21.977123+05:30"},{"city":"Jhansi","state":"Uttar Pradesh","latitude":25.4484,"longitude":78.5685,"temp":41.8,"humidity":14,"rain":0.0,"pressure":970.5,"uv_index":8.45,"wind_gusts":32.4,"aqi":126,"pm10":122.0,"pm2_5":35.2,"no2":1.2,"co":207.0,"o3":153.0,"so2":10.3,"mosquito_risk":0,"arthritis_risk":5,"migraine_risk":10,"frizz_risk":0,"updated_at":"2026-05-13T16:01:25.342682+05:30"},{"city":"Surat","state":"Gujarat","latitude":21.1702,"longitude":72.8311,"temp":35.3,"humidity":47,"rain":0.0,"pressure":1000.2,"uv_index":6.4,"wind_gusts":41.8,"aqi":92,"pm10":60.5,"pm2_5":34.1,"no2":30.1,"co":495.0,"o3":76.0,"so2":65.1,"mosquito_risk":0,"arthritis_risk":5,"migraine_risk":7,"frizz_risk":1,"updated_at":"2026-05-13T16:01:25.342708+05:30"},{"city":"Vadodara","state":"Gujarat","latitude":22.3072,"longitude":73.1812,"temp":43.1,"humidity":14,"rain":0.0,"pressure":996.3,"uv_index":7.95,"wind_gusts":40.3,"aqi":87,"pm10":48.4,"pm2_5":19.8,"no2":1.7,"co":193.0,"o3":157.0,"so2":5.8,"mosquito_risk":0,"arthritis_risk":5,"migraine_risk":10,"frizz_risk":0,"updated_at":"2026-05-13T16:01:25.342721+05:30"},{"city":"Rajkot","state":"Gujarat","latitude":22.3039,"longitude":70.8022,"temp":39.7,"humidity":24,"rain":0.0,"pressure":987.3,"uv_index":7.75,"wind_gusts":52.9,"aqi":59,"pm10":49.2,"pm2_5":15.3,"no2":1.2,"co":145.0,"o3":132.0,"so2":6.1,"mosquito_risk":0,"arthritis_risk":5,"migraine_risk":10,"frizz_risk":0,"updated_at":"2026-05-13T16:01:25.342731+05:30"},{"city":"Thane","state":"Maharashtra","latitude":19.2183,"longitude":72.9781,"temp":35.2,"humidity":49,"rain":0.0,"pressure":1002.1,"uv_index":7.9,"wind_gusts":38.2,"aqi":73,"pm10":41.8,"pm2_5":20.8,"no2":5.6,"co":188.0,"o3":109.0,"so2":15.3,"mosquito_risk":0,"arthritis_risk":5,"migraine_risk":7,"frizz_risk":1,"updated_at":"2026-05-13T16:01:25.342740+05:30"},{"city":"Nagpur","state":"Maharashtra","latitude":21.1458,"longitude":79.0882,"temp":41.3,"humidity":20,"rain":0.0,"pressure":966.6,"uv_index":8.95,"wind_gusts":40.3,"aqi":146,"pm10":79.2,"pm2_5":31.7,"no2":4.3,"co":225.0,"o3":188.0,"so2":18.9,"mosquito_risk":0,"arthritis_risk":5,"migraine_risk":10,"frizz_risk":0,"updated_at":"2026-05-13T16:01:25.342748+05:30"},{"city":"Nashik","state":"Maharashtra","latitude":19.9975,"longitude":73.7898,"temp":35.0,"humidity":34,"rain":0.0,"pressure":941.3,"uv_index":8.25,"wind_gusts":46.8,"aqi":78,"pm10":49.0,"pm2_5":21.5,"no2":1.3,"co":186.0,"o3":143.0,"so2":3.9,"mosquito_risk":0,"arthritis_risk":5,"migraine_risk":7,"frizz_risk":1,"updated_at":"2026-05-13T16:01:25.342757+05:30"},{"city":"Aurangabad","state":"Maharashtra","latitude":19.8762,"longitude":75.3433,"temp":40.8,"humidity":14,"rain":0.0,"pressure":938.1,"uv_index":9.1,"wind_gusts":32.8,"aqi":122,"pm10":41.0,"pm2_5":19.7,"no2":1.0,"co":209.0,"o3":159.0,"so2":7.4,"mosquito_risk":0,"arthritis_risk":5,"migraine_risk":10,"frizz_risk":0,"updated_at":"2026-05-13T16:01:25.342766+05:30"},{"city":"Solapur","state":"Maharashtra","latitude":17.6599,"longitude":75.9064,"temp":39.1,"humidity":25,"rain":0.0,"pressure":951.2,"uv_index":9.1,"wind_gusts":37.4,"aqi":116,"pm10":68.9,"pm2_5":26.8,"no2":1.0,"co":225.0,"o3":170.0,"so2":5.7,"mosquito_risk":0,"arthritis_risk":5,"migraine_risk":10,"frizz_risk":0,"updated_at":"2026-05-13T16:01:25.342774+05:30"},{"city":"Kolhapur","state":"Maharashtra","latitude":16.705,"longitude":74.2433,"temp":33.0,"humidity":46,"rain":0.0,"pressure":943.2,"uv_index":8.95,"wind_gusts":45.7,"aqi":81,"pm10":43.7,"pm2_5":22.6,"no2":3.4,"co":200.0,"o3":152.0,"so2":5.5,"mosquito_risk":0,"arthritis_risk":5,"migraine_risk":7,"frizz_risk":1,"updated_at":"2026-05-13T16:01:25.342782+05:30"},{"city":"Goa","state":"Goa","latitude":15.2993,"longitude":74.124,"temp":31.2,"humidity":71,"rain":0.1,"pressure":992.5,"uv_index":8.9,"wind_gusts":28.4,"aqi":72,"pm10":32.4,"pm2_5":14.7,"no2":0.8,"co":148.0,"o3":91.0,"so2":1.3,"mosquito_risk":6,"arthritis_risk":5,"migraine_risk":7,"frizz_risk":1,"updated_at":"2026-05-13T16:01:25.342791+05:30"},{"city":"Jodhpur","state":"Rajasthan","latitude":26.2389,"longitude":73.0243,"temp":43.3,"humidity":10,"rain":0.0,"pressure":975.5,"uv_index":8.4,"wind_gusts":42.5,"aqi":120,"pm10":170.9,"pm2_5":26.9,"no2":0.5,"co":172.0,"o3":140.0,"so2":2.2,"mosquito_risk":0,"arthritis_risk":5,"migraine_risk":10,"frizz_risk":0,"updated_at":"2026-05-13T16:01:25.342800+05:30"},{"city":"Udaipur","state":"Rajasthan","latitude":24.5854,"longitude":73.7125,"temp":39.3,"humidity":16,"rain":0.0,"pressure":941.8,"uv_index":8.85,"wind_gusts":39.2,"aqi":88,"pm10":29.0,"pm2_5":12.6,"no2":0.5,"co":166.0,"o3":139.0,"so2":2.5,"mosquito_risk":0,"arthritis_risk":5,"migraine_risk":10,"frizz_risk":0,"updated_at":"2026-05-13T16:01:25.342808+05:30"},{"city":"Kota","state":"Rajasthan","latitude":25.2138,"longitude":75.8648,"temp":42.8,"humidity":11,"rain":0.0,"pressure":971.7,"uv_index":8.4,"wind_gusts":45.0,"aqi":84,"pm10":47.1,"pm2_5":13.2,"no2":0.7,"co":174.0,"o3":144.0,"so2":2.7,"mosquito_risk":0,"arthritis_risk":5,"migraine_risk":10,"frizz_risk":0,"updated_at":"2026-05-13T16:01:25.342817+05:30"},{"city":"Bikaner","state":"Rajasthan","latitude":28.0229,"longitude":73.3119,"temp":42.5,"humidity":11,"rain":0.0,"pressure":974.2,"uv_index":8.35,"wind_gusts":50.8,"aqi":100,"pm10":183.5,"pm2_5":32.5,"no2":0.2,"co":149.0,"o3":135.0,"so2":5.9,"mosquito_risk":0,"arthritis_risk":5,"migraine_risk":10,"frizz_risk":0,"updated_at":"2026-05-13T16:01:25.342825+05:30"},{"city":"Ajmer","state":"Rajasthan","latitude":26.4499,"longitude":74.6399,"temp":40.0,"humidity":13,"rain":0.0,"pressure":948.8,"uv_index":8.35,"wind_gusts":48.2,"aqi":79,"pm10":135.0,"pm2_5":26.3,"no2":0.5,"co":169.0,"o3":121.0,"so2":2.2,"mosquito_risk":0,"arthritis_risk":5,"migraine_risk":10,"frizz_risk":0,"updated_at":"2026-05-13T16:01:25.342833+05:30"},{"city":"Gwalior","state":"Madhya Pradesh","latitude":26.2183,"longitude":78.1828,"temp":41.8,"humidity":14,"rain":0.0,"pressure":975.4,"uv_index":8.25,"wind_gusts":41.8,"aqi":121,"pm10":151.3,"pm2_5":33.6,"no2":0.6,"co":246.0,"o3":143.0,"so2":4.2,"mosquito_risk":0,"arthritis_risk":5,"migraine_risk":10,"frizz_risk":0,"updated_at":"2026-05-13T16:01:25.342839+05:30"},{"city":"Indore","state":"Madhya Pradesh","latitude":22.7196,"longitude":75.8577,"temp":41.7,"humidity":12,"rain":0.0,"pressure":942.6,"uv_index":8.75,"wind_gusts":44.3,"aqi":102,"pm10":81.7,"pm2_5":23.5,"no2":0.7,"co":205.0,"o3":144.0,"so2":4.1,"mosquito_risk":0,"arthritis_risk":5,"migraine_risk":10,"frizz_risk":0,"updated_at":"2026-05-13T16:01:25.342844+05:30"},{"city":"Bhopal","state":"Madhya Pradesh","latitude":23.2599,"longitude":77.4126,"temp":41.2,"humidity":13,"rain":0.0,"pressure":947.9,"uv_index":8.75,"wind_gusts":41.4,"aqi":98,"pm10":62.2,"pm2_5":18.6,"no2":0.6,"co":189.0,"o3":136.0,"so2":3.3,"mosquito_risk":0,"arthritis_risk":5,"migraine_risk":10,"frizz_risk":0,"updated_at":"2026-05-13T16:01:25.342850+05:30"},{"city":"Jabalpur","state":"Madhya Pradesh","latitude":23.1815,"longitude":79.9864,"temp":41.2,"humidity":15,"rain":0.0,"pressure":954.8,"uv_index":8.9,"wind_gusts":38.5,"aqi":121,"pm10":67.3,"pm2_5":19.7,"no2":0.9,"co":193.0,"o3":145.0,"so2":4.5,"mosquito_risk":0,"arthritis_risk":5,"migraine_risk":10,"frizz_risk":0,"updated_at":"2026-05-13T16:01:25.342856+05:30"},{"city":"Ujjain","state":"Madhya Pradesh","latitude":23.1765,"longitude":75.7885,"temp":40.8,"humidity":13,"rain":0.0,"pressure":948.3,"uv_index":8.65,"wind_gusts":36.7,"aqi":85,"pm10":72.6,"pm2_5":21.4,"no2":0.6,"co":177.0,"o3":137.0,"so2":3.7,"mosquito_risk":0,"arthritis_risk":5,"migraine_risk":10,"frizz_risk":0,"updated_at":"2026-05-13T16:01:25.342862+05:30"},{"city":"Visakhapatnam","state":"Andhra Pradesh","latitude":17.6868,"longitude":83.2185,"temp":32.2,"humidity":61,"rain":0.0,"pressure":997.3,"uv_index":9.0,"wind_gusts":37.1,"aqi":70,"pm10":18.2,"pm2_5":14.3,"no2":20.6,"co":444.0,"o3":48.0,"so2":23.8,"mosquito_risk":3,"arthritis_risk":5,"migraine_risk":7,"frizz_risk":1,"updated_at":"2026-05-13T16:01:25.342868+05:30"},{"city":"Vijayawada","state":"Andhra Pradesh","latitude":16.5062,"longitude":80.648,"temp":39.1,"humidity":28,"rain":0.0,"pressure":995.1,"uv_index":9.2,"wind_gusts":39.6,"aqi":59,"pm10":41.3,"pm2_5":27.1,"no2":2.7,"co":192.0,"o3":148.0,"so2":6.3,"mosquito_risk":0,"arthritis_risk":5,"migraine_risk":10,"frizz_risk":1,"updated_at":"2026-05-13T16:01:25.342874+05:30"},{"city":"Guntur","state":"Andhra Pradesh","latitude":16.3067,"longitude":80.4365,"temp":39.0,"humidity":27,"rain":0.0,"pressure":996.1,"uv_index":9.25,"wind_gusts":34.6,"aqi":59,"pm10":48.4,"pm2_5":30.0,"no2":2.3,"co":219.0,"o3":161.0,"so2":5.7,"mosquito_risk":0,"arthritis_risk":5,"migraine_risk":10,"frizz_risk":1,"updated_at":"2026-05-13T16:01:25.342880+05:30"},{"city":"Nellore","state":"Andhra Pradesh","latitude":14.4426,"longitude":79.9865,"temp":35.0,"humidity":45,"rain":0.0,"pressure":998.9,"uv_index":9.15,"wind_gusts":37.4,"aqi":33,"pm10":13.7,"pm2_5":7.8,"no2":1.2,"co":121.0,"o3":75.0,"so2":2.1,"mosquito_risk":0,"arthritis_risk":5,"migraine_risk":7,"frizz_risk":1,"updated_at":"2026-05-13T16:01:25.342886+05:30"},{"city":"Kurnool","state":"Andhra Pradesh","latitude":15.8281,"longitude":78.0373,"temp":39.2,"humidity":25,"rain":0.0,"pressure":970.1,"uv_index":9.2,"wind_gusts":34.2,"aqi":55,"pm10":45.6,"pm2_5":19.8,"no2":0.4,"co":202.0,"o3":142.0,"so2":2.7,"mosquito_risk":0,"arthritis_risk":5,"migraine_risk":10,"frizz_risk":0,"updated_at":"2026-05-13T16:01:25.342893+05:30"},{"city":"Kakinada","state":"Andhra Pradesh","latitude":16.9891,"longitude":82.2475,"temp":33.2,"humidity":53,"rain":0.0,"pressure":1000.7,"uv_index":9.15,"wind_gusts":37.4,"aqi":35,"pm10":12.7,"pm2_5":8.1,"no2":1.0,"co":167.0,"o3":78.0,"so2":0.9,"mosquito_risk":0,"arthritis_risk":5,"migraine_risk":4,"frizz_risk":1,"updated_at":"2026-05-13T16:01:25.342899+05:30"},{"city":"Tirupati","state":"Andhra Pradesh","latitude":13.6288,"longitude":79.4192,"temp":36.2,"humidity":35,"rain":0.0,"pressure":984.1,"uv_index":9.25,"wind_gusts":33.1,"aqi":50,"pm10":13.2,"pm2_5":7.1,"no2":1.7,"co":163.0,"o3":108.0,"so2":1.4,"mosquito_risk":0,"arthritis_risk":5,"migraine_risk":10,"frizz_risk":1,"updated_at":"2026-05-13T16:01:25.342905+05:30"},{"city":"Warangal","state":"Telangana","latitude":17.9689,"longitude":79.5941,"temp":37.5,"humidity":34,"rain":0.0,"pressure":972.4,"uv_index":9.2,"wind_gusts":41.4,"aqi":66,"pm10":55.4,"pm2_5":25.4,"no2":1.4,"co":219.0,"o3":160.0,"so2":6.6,"mosquito_risk":0,"arthritis_risk":5,"migraine_risk":10,"frizz_risk":1,"updated_at":"2026-05-13T16:01:25.342911+05:30"},{"city":"Nizamabad","state":"Telangana","latitude":18.6725,"longitude":78.0941,"temp":40.0,"humidity":23,"rain":0.0,"pressure":958.7,"uv_index":9.15,"wind_gusts":33.8,"aqi":94,"pm10":72.6,"pm2_5":26.9,"no2":0.4,"co":226.0,"o3":160.0,"so2":4.3,"mosquito_risk":0,"arthritis_risk":5,"migraine_risk":10,"frizz_risk":0,"updated_at":"2026-05-13T16:01:25.342917+05:30"},{"city":"Mysore","state":"Karnataka","latitude":12.2958,"longitude":76.6396,"temp":32.9,"humidity":37,"rain":0.0,"pressure":923.5,"uv_index":9.3,"wind_gusts":42.8,"aqi":117,"pm10":38.0,"pm2_5":22.8,"no2":3.0,"co":245.0,"o3":173.0,"so2":3.6,"mosquito_risk":0,"arthritis_risk":5,"migraine_risk":7,"frizz_risk":1,"updated_at":"2026-05-13T16:01:25.342923+05:30"},{"city":"Mangalore","state":"Karnataka","latitude":12.9141,"longitude":74.856,"temp":30.9,"humidity":72,"rain":0.1,"pressure":1001.3,"uv_index":7.95,"wind_gusts":34.9,"aqi":77,"pm10":34.5,"pm2_5":16.4,"no2":1.5,"co":139.0,"o3":99.0,"so2":1.3,"mosquito_risk":6,"arthritis_risk":5,"migraine_risk":4,"frizz_risk":1,"updated_at":"2026-05-13T16:01:25.342929+05:30"},{"city":"Hubli-Dharwad","state":"Karnataka","latitude":15.3647,"longitude":75.124,"temp":32.2,"humidity":49,"rain":0.1,"pressure":935.7,"uv_index":8.4,"wind_gusts":47.9,"aqi":80,"pm10":50.1,"pm2_5":23.9,"no2":2.0,"co":214.0,"o3":163.0,"so2":4.6,"mosquito_risk":3,"arthritis_risk":5,"migraine_risk":7,"frizz_risk":1,"updated_at":"2026-05-13T16:01:25.342935+05:30"},{"city":"Belgaum","state":"Karnataka","latitude":15.8497,"longitude":74.4977,"temp":28.2,"humidity":64,"rain":0.1,"pressure":921.8,"uv_index":9.15,"wind_gusts":38.9,"aqi":78,"pm10":51.8,"pm2_5":23.1,"no2":2.2,"co":207.0,"o3":144.0,"so2":4.9,"mosquito_risk":10,"arthritis_risk":5,"migraine_risk":7,"frizz_risk":1,"updated_at":"2026-05-13T16:01:28.714316+05:30"},{"city":"Coimbatore","state":"Tamil Nadu","latitude":11.0168,"longitude":76.9558,"temp":31.7,"humidity":53,"rain":0.0,"pressure":955.9,"uv_index":9.2,"wind_gusts":43.6,"aqi":113,"pm10":35.6,"pm2_5":21.3,"no2":2.5,"co":242.0,"o3":156.0,"so2":3.4,"mosquito_risk":0,"arthritis_risk":5,"migraine_risk":7,"frizz_risk":1,"updated_at":"2026-05-13T16:01:28.714336+05:30"},{"city":"Madurai","state":"Tamil Nadu","latitude":9.9252,"longitude":78.1198,"temp":34.6,"humidity":44,"rain":0.0,"pressure":986.3,"uv_index":9.05,"wind_gusts":24.8,"aqi":114,"pm10":35.2,"pm2_5":22.4,"no2":7.0,"co":278.0,"o3":168.0,"so2":4.8,"mosquito_risk":0,"arthritis_risk":5,"migraine_risk":7,"frizz_risk":1,"updated_at":"2026-05-13T16:01:28.714346+05:30"},{"city":"Trichy","state":"Tamil Nadu","latitude":10.7905,"longitude":78.7047,"temp":34.8,"humidity":44,"rain":0.0,"pressure":993.0,"uv_index":9.0,"wind_gusts":31.7,"aqi":72,"pm10":32.1,"pm2_5":22.8,"no2":3.8,"co":235.0,"o3":159.0,"so2":9.7,"mosquito_risk":0,"arthritis_risk":5,"migraine_risk":7,"frizz_risk":1,"updated_at":"2026-05-13T16:01:28.714353+05:30"},{"city":"Salem","state":"Tamil Nadu","latitude":11.6643,"longitude":78.146,"temp":37.2,"humidity":28,"rain":0.0,"pressure":970.3,"uv_index":9.2,"wind_gusts":27.4,"aqi":119,"pm10":36.0,"pm2_5":22.5,"no2":2.9,"co":236.0,"o3":190.0,"so2":10.9,"mosquito_risk":0,"arthritis_risk":5,"migraine_risk":10,"frizz_risk":0,"updated_at":"2026-05-13T16:01:28.714360+05:30"},{"city":"Tirunelveli","state":"Tamil Nadu","latitude":8.7139,"longitude":77.7567,"temp":33.8,"humidity":49,"rain":0.0,"pressure":996.7,"uv_index":7.7,"wind_gusts":21.2,"aqi":66,"pm10":26.0,"pm2_5":18.1,"no2":1.7,"co":213.0,"o3":138.0,"so2":1.1,"mosquito_risk":0,"arthritis_risk":5,"migraine_risk":7,"frizz_risk":1,"updated_at":"2026-05-13T16:01:28.714366+05:30"},{"city":"Vellore","state":"Tamil Nadu","latitude":12.9165,"longitude":79.1325,"temp":36.7,"humidity":31,"rain":0.0,"pressure":977.5,"uv_index":9.2,"wind_gusts":31.3,"aqi":65,"pm10":13.2,"pm2_5":8.1,"no2":1.5,"co":172.0,"o3":120.0,"so2":2.1,"mosquito_risk":0,"arthritis_risk":5,"migraine_risk":10,"frizz_risk":1,"updated_at":"2026-05-13T16:01:28.714373+05:30"},{"city":"Erode","state":"Tamil Nadu","latitude":11.341,"longitude":77.7172,"temp":36.8,"humidity":30,"rain":0.0,"pressure":982.1,"uv_index":9.15,"wind_gusts":33.5,"aqi":139,"pm10":36.8,"pm2_5":22.8,"no2":3.2,"co":318.0,"o3":186.0,"so2":3.9,"mosquito_risk":0,"arthritis_risk":5,"migraine_risk":10,"frizz_risk":1,"updated_at":"2026-05-13T16:01:28.714379+05:30"},{"city":"Kochi","state":"Kerala","latitude":9.9312,"longitude":76.2673,"temp":29.4,"humidity":77,"rain":0.1,"pressure":1003.3,"uv_index":8.75,"wind_gusts":34.6,"aqi":80,"pm10":25.8,"pm2_5":15.9,"no2":3.3,"co":161.0,"o3":108.0,"so2":1.0,"mosquito_risk":10,"arthritis_risk":5,"migraine_risk":4,"frizz_risk":1,"updated_at":"2026-05-13T16:01:28.714385+05:30"},{"city":"Thiruvananthapuram","state":"Kerala","latitude":8.5241,"longitude":76.9366,"temp":29.0,"humidity":78,"rain":0.0,"pressure":1002.8,"uv_index":7.45,"wind_gusts":33.8,"aqi":59,"pm10":22.1,"pm2_5":12.0,"no2":1.3,"co":141.0,"o3":111.0,"so2":0.9,"mosquito_risk":7,"arthritis_risk":5,"migraine_risk":4,"frizz_risk":1,"updated_at":"2026-05-13T16:01:28.714392+05:30"},{"city":"Kozhikode","state":"Kerala","latitude":11.2588,"longitude":75.7804,"temp":29.3,"humidity":81,"rain":0.1,"pressure":1002.3,"uv_index":8.35,"wind_gusts":36.7,"aqi":67,"pm10":35.0,"pm2_5":14.8,"no2":0.8,"co":155.0,"o3":92.0,"so2":0.9,"mosquito_risk":10,"arthritis_risk":5,"migraine_risk":4,"frizz_risk":1,"updated_at":"2026-05-13T16:01:28.714398+05:30"},{"city":"Thrissur","state":"Kerala","latitude":10.5276,"longitude":76.2144,"temp":29.1,"humidity":81,"rain":0.1,"pressure":1001.5,"uv_index":8.7,"wind_gusts":38.2,"aqi":77,"pm10":25.4,"pm2_5":15.8,"no2":1.3,"co":143.0,"o3":112.0,"so2":1.1,"mosquito_risk":10,"arthritis_risk":5,"migraine_risk":4,"frizz_risk":1,"updated_at":"2026-05-13T16:01:28.714405+05:30"},{"city":"Kannur","state":"Kerala","latitude":11.8745,"longitude":75.3704,"temp":30.2,"humidity":77,"rain":0.0,"pressure":1001.7,"uv_index":8.75,"wind_gusts":33.8,"aqi":84,"pm10":36.9,"pm2_5":16.8,"no2":1.9,"co":164.0,"o3":102.0,"so2":1.2,"mosquito_risk":3,"arthritis_risk":5,"migraine_risk":4,"frizz_risk":1,"updated_at":"2026-05-13T16:01:28.714411+05:30"},{"city":"Patna","state":"Bihar","latitude":25.5941,"longitude":85.1376,"temp":33.3,"humidity":52,"rain":0.0,"pressure":993.2,"uv_index":8.75,"wind_gusts":30.2,"aqi":154,"pm10":76.8,"pm2_5":61.5,"no2":3.4,"co":372.0,"o3":205.0,"so2":12.1,"mosquito_risk":0,"arthritis_risk":5,"migraine_risk":7,"frizz_risk":1,"updated_at":"2026-05-13T16:01:28.714418+05:30"},{"city":"Gaya","state":"Bihar","latitude":24.7914,"longitude":85.0002,"temp":36.2,"humidity":41,"rain":0.0,"pressure":986.2,"uv_index":8.85,"wind_gusts":29.5,"aqi":170,"pm10":105.7,"pm2_5":53.4,"no2":2.3,"co":364.0,"o3":193.0,"so2":11.6,"mosquito_risk":0,"arthritis_risk":5,"migraine_risk":10,"frizz_risk":1,"updated_at":"2026-05-13T16:01:28.714424+05:30"},{"city":"Muzaffarpur","state":"Bihar","latitude":26.1209,"longitude":85.3647,"temp":32.8,"humidity":53,"rain":0.0,"pressure":993.5,"uv_index":8.75,"wind_gusts":33.8,"aqi":149,"pm10":57.5,"pm2_5":48.8,"no2":3.9,"co":338.0,"o3":188.0,"so2":9.0,"mosquito_risk":0,"arthritis_risk":5,"migraine_risk":7,"frizz_risk":1,"updated_at":"2026-05-13T16:01:28.714430+05:30"},{"city":"Bhagalpur","state":"Bihar","latitude":25.2425,"longitude":87.0117,"temp":31.2,"humidity":63,"rain":0.0,"pressure":994.6,"uv_index":8.75,"wind_gusts":38.2,"aqi":103,"pm10":57.9,"pm2_5":47.6,"no2":6.5,"co":308.0,"o3":182.0,"so2":5.9,"mosquito_risk":3,"arthritis_risk":5,"migraine_risk":7,"frizz_risk":1,"updated_at":"2026-05-13T16:01:28.714436+05:30"},{"city":"Ranchi","state":"Jharkhand","latitude":23.3441,"longitude":85.3096,"temp":32.5,"humidity":40,"rain":0.1,"pressure":932.3,"uv_index":9.15,"wind_gusts":35.3,"aqi":110,"pm10":81.0,"pm2_5":35.9,"no2":2.2,"co":251.0,"o3":167.0,"so2":11.0,"mosquito_risk":3,"arthritis_risk":5,"migraine_risk":7,"frizz_risk":1,"updated_at":"2026-05-13T16:01:28.714442+05:30"},{"city":"Jamshedpur","state":"Jharkhand","latitude":22.8046,"longitude":86.2029,"temp":35.1,"humidity":44,"rain":0.0,"pressure":983.7,"uv_index":9.15,"wind_gusts":32.0,"aqi":93,"pm10":76.6,"pm2_5":38.8,"no2":3.2,"co":265.0,"o3":180.0,"so2":16.1,"mosquito_risk":0,"arthritis_risk":5,"migraine_risk":10,"frizz_risk":1,"updated_at":"2026-05-13T16:01:28.714448+05:30"},{"city":"Dhanbad","state":"Jharkhand","latitude":23.7957,"longitude":86.4304,"temp":36.2,"humidity":35,"rain":0.0,"pressure":972.6,"uv_index":9.1,"wind_gusts":36.7,"aqi":150,"pm10":105.9,"pm2_5":59.8,"no2":14.1,"co":454.0,"o3":207.0,"so2":46.0,"mosquito_risk":0,"arthritis_risk":5,"migraine_risk":10,"frizz_risk":1,"updated_at":"2026-05-13T16:01:28.714454+05:30"},{"city":"Bokaro","state":"Jharkhand","latitude":23.6693,"longitude":86.1511,"temp":36.2,"humidity":35,"rain":0.0,"pressure":976.4,"uv_index":9.1,"wind_gusts":33.5,"aqi":152,"pm10":116.4,"pm2_5":52.2,"no2":12.9,"co":408.0,"o3":191.0,"so2":36.2,"mosquito_risk":0,"arthritis_risk":5,"migraine_risk":10,"frizz_risk":1,"updated_at":"2026-05-13T16:01:28.714460+05:30"},{"city":"Bhubaneswar","state":"Odisha","latitude":20.2961,"longitude":85.8245,"temp":32.3,"humidity":58,"rain":0.0,"pressure":996.3,"uv_index":9.0,"wind_gusts":39.2,"aqi":48,"pm10":16.3,"pm2_5":9.8,"no2":2.2,"co":150.0,"o3":86.0,"so2":2.9,"mosquito_risk":0,"arthritis_risk":5,"migraine_risk":7,"frizz_risk":1,"updated_at":"2026-05-13T16:01:28.714467+05:30"},{"city":"Cuttack","state":"Odisha","latitude":20.4625,"longitude":85.8828,"temp":33.3,"humidity":56,"rain":0.0,"pressure":997.8,"uv_index":9.05,"wind_gusts":41.4,"aqi":48,"pm10":16.3,"pm2_5":9.8,"no2":2.2,"co":158.0,"o3":86.0,"so2":2.9,"mosquito_risk":0,"arthritis_risk":5,"migraine_risk":7,"frizz_risk":1,"updated_at":"2026-05-13T16:01:28.714473+05:30"},{"city":"Rourkela","state":"Odisha","latitude":22.2604,"longitude":84.8536,"temp":36.8,"humidity":35,"rain":0.0,"pressure":978.4,"uv_index":9.1,"wind_gusts":46.1,"aqi":105,"pm10":71.0,"pm2_5":38.4,"no2":2.0,"co":266.0,"o3":190.0,"so2":25.5,"mosquito_risk":0,"arthritis_risk":5,"migraine_risk":10,"frizz_risk":1,"updated_at":"2026-05-13T16:01:28.714479+05:30"},{"city":"Raipur","state":"Chhattisgarh","latitude":21.2514,"longitude":81.6296,"temp":38.5,"humidity":30,"rain":0.0,"pressure":968.3,"uv_index":9.1,"wind_gusts":38.5,"aqi":170,"pm10":80.6,"pm2_5":32.5,"no2":5.0,"co":173.0,"o3":196.0,"so2":7.0,"mosquito_risk":0,"arthritis_risk":5,"migraine_risk":10,"frizz_risk":1,"updated_at":"2026-05-13T16:01:28.714485+05:30"},{"city":"Bhilai","state":"Chhattisgarh","latitude":21.1938,"longitude":81.3509,"temp":37.1,"humidity":33,"rain":0.0,"pressure":968.8,"uv_index":9.1,"wind_gusts":41.8,"aqi":136,"pm10":78.5,"pm2_5":31.9,"no2":5.3,"co":244.0,"o3":180.0,"so2":7.4,"mosquito_risk":0,"arthritis_risk":5,"migraine_risk":10,"frizz_risk":1,"updated_at":"2026-05-13T16:01:28.714490+05:30"},{"city":"Guwahati","state":"Assam","latitude":26.1158,"longitude":91.7086,"temp":27.0,"humidity":80,"rain":0.1,"pressure":996.6,"uv_index":7.45,"wind_gusts":22.3,"aqi":115,"pm10":29.5,"pm2_5":26.1,"no2":2.8,"co":342.0,"o3":137.0,"so2":1.0,"mosquito_risk":10,"arthritis_risk":5,"migraine_risk":7,"frizz_risk":1,"updated_at":"2026-05-13T16:01:28.714496+05:30"},{"city":"Agartala","state":"Tripura","latitude":23.8315,"longitude":91.2868,"temp":29.5,"humidity":71,"rain":0.1,"pressure":1000.3,"uv_index":8.75,"wind_gusts":29.2,"aqi":96,"pm10":21.1,"pm2_5":15.8,"no2":4.8,"co":210.0,"o3":132.0,"so2":0.9,"mosquito_risk":10,"arthritis_risk":5,"migraine_risk":4,"frizz_risk":1,"updated_at":"2026-05-13T16:01:28.714503+05:30"},{"city":"Shillong","state":"Meghalaya","latitude":25.5788,"longitude":91.8933,"temp":21.8,"humidity":63,"rain":0.0,"pressure":853.6,"uv_index":7.9,"wind_gusts":30.6,"aqi":102,"pm10":12.2,"pm2_5":10.4,"no2":2.1,"co":256.0,"o3":135.0,"so2":1.0,"mosquito_risk":3,"arthritis_risk":5,"migraine_risk":7,"frizz_risk":0,"updated_at":"2026-05-13T16:01:28.714509+05:30"},{"city":"Imphal","state":"Manipur","latitude":24.817,"longitude":93.9368,"temp":27.0,"humidity":57,"rain":0.0,"pressure":918.3,"uv_index":9.3,"wind_gusts":27.7,"aqi":98,"pm10":18.7,"pm2_5":15.6,"no2":2.0,"co":268.0,"o3":116.0,"so2":1.1,"mosquito_risk":4,"arthritis_risk":5,"migraine_risk":7,"frizz_risk":1,"updated_at":"2026-05-13T16:01:28.714515+05:30"},{"city":"Aizawl","state":"Mizoram","latitude":23.7271,"longitude":92.7176,"temp":25.2,"humidity":56,"rain":0.1,"pressure":888.8,"uv_index":9.1,"wind_gusts":26.3,"aqi":80,"pm10":24.6,"pm2_5":19.5,"no2":2.4,"co":234.0,"o3":122.0,"so2":1.2,"mosquito_risk":7,"arthritis_risk":5,"migraine_risk":7,"frizz_risk":0,"updated_at":"2026-05-13T16:01:28.714521+05:30"},{"city":"Kohima","state":"Nagaland","latitude":25.6701,"longitude":94.1077,"temp":18.2,"humidity":97,"rain":0.1,"pressure":851.3,"uv_index":8.85,"wind_gusts":32.8,"aqi":87,"pm10":22.9,"pm2_5":18.0,"no2":2.1,"co":279.0,"o3":118.0,"so2":0.8,"mosquito_risk":6,"arthritis_risk":10,"migraine_risk":7,"frizz_risk":1,"updated_at":"2026-05-13T16:01:28.714527+05:30"},{"city":"Gangtok","state":"Sikkim","latitude":27.3314,"longitude":88.6138,"temp":16.3,"humidity":94,"rain":0.0,"pressure":832.8,"uv_index":9.05,"wind_gusts":34.6,"aqi":97,"pm10":14.6,"pm2_5":11.8,"no2":1.8,"co":287.0,"o3":140.0,"so2":0.5,"mosquito_risk":3,"arthritis_risk":10,"migraine_risk":7,"frizz_risk":0,"updated_at":"2026-05-13T16:01:28.714533+05:30"},{"city":"Siliguri","state":"West Bengal","latitude":26.7271,"longitude":88.3953,"temp":24.7,"humidity":89,"rain":0.1,"pressure":987.9,"uv_index":8.7,"wind_gusts":27.0,"aqi":125,"pm10":28.5,"pm2_5":23.3,"no2":3.3,"co":406.0,"o3":146.0,"so2":1.5,"mosquito_risk":6,"arthritis_risk":5,"migraine_risk":7,"frizz_risk":1,"updated_at":"2026-05-13T16:01:32.084979+05:30"},{"city":"Durgapur","state":"West Bengal","latitude":23.5204,"longitude":87.3119,"temp":29.0,"humidity":74,"rain":0.2,"pressure":988.7,"uv_index":9.05,"wind_gusts":41.4,"aqi":113,"pm10":71.5,"pm2_5":52.3,"no2":14.8,"co":560.0,"o3":165.0,"so2":48.4,"mosquito_risk":10,"arthritis_risk":5,"migraine_risk":7,"frizz_risk":1,"updated_at":"2026-05-13T16:01:32.085000+05:30"},{"city":"Asansol","state":"West Bengal","latitude":23.6739,"longitude":86.9524,"temp":31.9,"humidity":59,"rain":0.0,"pressure":986.8,"uv_index":9.05,"wind_gusts":33.5,"aqi":114,"pm10":85.2,"pm2_5":56.0,"no2":13.4,"co":305.0,"o3":195.0,"so2":49.1,"mosquito_risk":0,"arthritis_risk":5,"migraine_risk":7,"frizz_risk":1,"updated_at":"2026-05-13T16:01:32.085011+05:30"},{"city":"Pondicherry","state":"Puducherry","latitude":11.9139,"longitude":79.8145,"temp":30.9,"humidity":74,"rain":0.0,"pressure":1001.9,"uv_index":9.1,"wind_gusts":34.2,"aqi":32,"pm10":13.6,"pm2_5":11.1,"no2":3.2,"co":207.0,"o3":97.0,"so2":6.9,"mosquito_risk":3,"arthritis_risk":5,"migraine_risk":4,"frizz_risk":1,"updated_at":"2026-05-13T16:01:32.085019+05:30"},{"city":"Port Blair","state":"Andaman and Nicobar Islands","latitude":11.6234,"longitude":92.7265,"temp":26.0,"humidity":98,"rain":0.3,"pressure":1003.0,"uv_index":3.75,"wind_gusts":35.6,"aqi":24,"pm10":2.6,"pm2_5":1.8,"no2":0.4,"co":116.0,"o3":45.0,"so2":0.1,"mosquito_risk":10,"arthritis_risk":5,"migraine_risk":0,"frizz_risk":1,"updated_at":"2026-05-13T16:01:32.085027+05:30"},{"city":"Haridwar","state":"Uttarakhand","latitude":29.9457,"longitude":78.1642,"temp":34.2,"humidity":38,"rain":0.0,"pressure":968.5,"uv_index":7.5,"wind_gusts":29.5,"aqi":156,"pm10":126.7,"pm2_5":47.6,"no2":1.2,"co":329.0,"o3":184.0,"so2":11.7,"mosquito_risk":0,"arthritis_risk":5,"migraine_risk":7,"frizz_risk":1,"updated_at":"2026-05-13T16:01:32.085033+05:30"},{"city":"Rishikesh","state":"Uttarakhand","latitude":30.0869,"longitude":78.2676,"temp":33.3,"humidity":39,"rain":0.0,"pressure":961.6,"uv_index":7.6,"wind_gusts":24.8,"aqi":146,"pm10":100.1,"pm2_5":39.1,"no2":0.8,"co":292.0,"o3":175.0,"so2":9.0,"mosquito_risk":0,"arthritis_risk":5,"migraine_risk":7,"frizz_risk":1,"updated_at":"2026-05-13T16:01:32.085040+05:30"},{"city":"Nainital","state":"Uttarakhand","latitude":29.3919,"longitude":79.4542,"temp":21.7,"humidity":47,"rain":0.0,"pressure":804.5,"uv_index":8.45,"wind_gusts":43.9,"aqi":149,"pm10":102.2,"pm2_5":40.0,"no2":1.4,"co":274.0,"o3":189.0,"so2":8.1,"mosquito_risk":0,"arthritis_risk":5,"migraine_risk":7,"frizz_risk":0,"updated_at":"2026-05-13T16:01:32.085047+05:30"},{"city":"Mussoorie","state":"Uttarakhand","latitude":30.4599,"longitude":78.0664,"temp":20.5,"humidity":43,"rain":0.1,"pressure":802.2,"uv_index":8.0,"wind_gusts":49.3,"aqi":149,"pm10":94.5,"pm2_5":40.7,"no2":1.4,"co":287.0,"o3":182.0,"so2":11.0,"mosquito_risk":3,"arthritis_risk":5,"migraine_risk":7,"frizz_risk":0,"updated_at":"2026-05-13T16:01:32.085053+05:30"},{"city":"Dharamshala","state":"Himachal Pradesh","latitude":32.219,"longitude":76.3234,"temp":24.5,"humidity":35,"rain":0.0,"pressure":867.4,"uv_index":8.35,"wind_gusts":47.2,"aqi":108,"pm10":42.8,"pm2_5":17.3,"no2":0.4,"co":205.0,"o3":148.0,"so2":1.2,"mosquito_risk":0,"arthritis_risk":5,"migraine_risk":7,"frizz_risk":0,"updated_at":"2026-05-13T16:01:32.085060+05:30"},{"city":"Dalhousie","state":"Himachal Pradesh","latitude":32.5387,"longitude":75.971,"temp":20.8,"humidity":37,"rain":0.0,"pressure":804.2,"uv_index":8.6,"wind_gusts":33.5,"aqi":103,"pm10":82.9,"pm2_5":30.6,"no2":1.3,"co":232.0,"o3":152.0,"so2":2.3,"mosquito_risk":0,"arthritis_risk":5,"migraine_risk":7,"frizz_risk":0,"updated_at":"2026-05-13T16:01:32.085067+05:30"},{"city":"Patiala","state":"Punjab","latitude":30.3398,"longitude":76.3869,"temp":34.7,"humidity":32,"rain":0.0,"pressure":973.2,"uv_index":7.6,"wind_gusts":42.5,"aqi":193,"pm10":424.7,"pm2_5":73.6,"no2":1.7,"co":324.0,"o3":189.0,"so2":13.1,"mosquito_risk":0,"arthritis_risk":5,"migraine_risk":7,"frizz_risk":0,"updated_at":"2026-05-13T16:01:32.085074+05:30"},{"city":"Bhatinda","state":"Punjab","latitude":30.211,"longitude":74.9455,"temp":40.7,"humidity":16,"rain":0.0,"pressure":976.6,"uv_index":8.25,"wind_gusts":48.2,"aqi":316,"pm10":303.6,"pm2_5":69.8,"no2":2.1,"co":280.0,"o3":191.0,"so2":19.2,"mosquito_risk":0,"arthritis_risk":5,"migraine_risk":10,"frizz_risk":0,"updated_at":"2026-05-13T16:01:32.085081+05:30"},{"city":"Rohtak","state":"Haryana","latitude":28.8955,"longitude":76.6066,"temp":36.8,"humidity":29,"rain":0.0,"pressure":975.3,"uv_index":7.7,"wind_gusts":59.8,"aqi":360,"pm10":381.8,"pm2_5":68.9,"no2":2.5,"co":317.0,"o3":187.0,"so2":11.9,"mosquito_risk":0,"arthritis_risk":5,"migraine_risk":10,"frizz_risk":0,"updated_at":"2026-05-13T16:01:32.085087+05:30"},{"city":"Panipat","state":"Haryana","latitude":29.3909,"longitude":76.9635,"temp":35.3,"humidity":35,"rain":0.0,"pressure":974.5,"uv_index":7.55,"wind_gusts":43.2,"aqi":481,"pm10":540.2,"pm2_5":87.1,"no2":4.0,"co":344.0,"o3":214.0,"so2":24.3,"mosquito_risk":0,"arthritis_risk":5,"migraine_risk":10,"frizz_risk":1,"updated_at":"2026-05-13T16:01:32.085093+05:30"},{"city":"Mathura","state":"Uttar Pradesh","latitude":27.4924,"longitude":77.6737,"temp":38.5,"humidity":26,"rain":0.0,"pressure":979.5,"uv_index":7.95,"wind_gusts":28.4,"aqi":584,"pm10":361.4,"pm2_5":63.3,"no2":1.8,"co":322.0,"o3":161.0,"so2":6.8,"mosquito_risk":0,"arthritis_risk":5,"migraine_risk":10,"frizz_risk":0,"updated_at":"2026-05-13T16:01:32.085100+05:30"},{"city":"Vrindavan","state":"Uttar Pradesh","latitude":27.5823,"longitude":77.7027,"temp":38.2,"humidity":26,"rain":0.0,"pressure":979.8,"uv_index":7.95,"wind_gusts":28.8,"aqi":584,"pm10":361.4,"pm2_5":63.3,"no2":1.8,"co":319.0,"o3":161.0,"so2":6.8,"mosquito_risk":0,"arthritis_risk":5,"migraine_risk":10,"frizz_risk":0,"updated_at":"2026-05-13T16:01:32.085106+05:30"},{"city":"Ayodhya","state":"Uttar Pradesh","latitude":26.7922,"longitude":82.1998,"temp":35.4,"humidity":41,"rain":0.0,"pressure":987.8,"uv_index":8.3,"wind_gusts":28.8,"aqi":163,"pm10":119.2,"pm2_5":52.4,"no2":2.1,"co":353.0,"o3":183.0,"so2":8.6,"mosquito_risk":0,"arthritis_risk":5,"migraine_risk":10,"frizz_risk":1,"updated_at":"2026-05-13T16:01:32.085112+05:30"},{"city":"Ratlam","state":"Madhya Pradesh","latitude":23.3315,"longitude":75.0367,"temp":39.7,"humidity":17,"rain":0.0,"pressure":949.4,"uv_index":8.55,"wind_gusts":41.4,"aqi":87,"pm10":63.3,"pm2_5":19.6,"no2":0.6,"co":169.0,"o3":137.0,"so2":3.5,"mosquito_risk":0,"arthritis_risk":5,"migraine_risk":10,"frizz_risk":0,"updated_at":"2026-05-13T16:01:32.085118+05:30"},{"city":"Sagar","state":"Madhya Pradesh","latitude":23.8388,"longitude":78.7378,"temp":40.3,"humidity":13,"rain":0.0,"pressure":944.7,"uv_index":8.8,"wind_gusts":43.2,"aqi":103,"pm10":65.0,"pm2_5":17.7,"no2":0.4,"co":172.0,"o3":148.0,"so2":6.1,"mosquito_risk":0,"arthritis_risk":5,"migraine_risk":10,"frizz_risk":0,"updated_at":"2026-05-13T16:01:32.085123+05:30"},{"city":"Satna","state":"Madhya Pradesh","latitude":24.6005,"longitude":80.8322,"temp":41.1,"humidity":15,"rain":0.0,"pressure":964.1,"uv_index":8.5,"wind_gusts":41.4,"aqi":142,"pm10":112.2,"pm2_5":32.1,"no2":0.6,"co":202.0,"o3":142.0,"so2":5.4,"mosquito_risk":0,"arthritis_risk":5,"migraine_risk":10,"frizz_risk":0,"updated_at":"2026-05-13T16:01:32.085129+05:30"},{"city":"Akola","state":"Maharashtra","latitude":20.7002,"longitude":77.0082,"temp":42.8,"humidity":16,"rain":0.0,"pressure":967.6,"uv_index":8.95,"wind_gusts":33.8,"aqi":121,"pm10":83.4,"pm2_5":29.4,"no2":1.3,"co":212.0,"o3":167.0,"so2":13.3,"mosquito_risk":0,"arthritis_risk":5,"migraine_risk":10,"frizz_risk":0,"updated_at":"2026-05-13T16:01:32.085136+05:30"},{"city":"Amravati","state":"Maharashtra","latitude":20.9374,"longitude":77.7796,"temp":41.7,"humidity":18,"rain":0.0,"pressure":960.6,"uv_index":8.95,"wind_gusts":36.7,"aqi":123,"pm10":83.8,"pm2_5":28.8,"no2":1.7,"co":215.0,"o3":167.0,"so2":8.3,"mosquito_risk":0,"arthritis_risk":5,"migraine_risk":10,"frizz_risk":0,"updated_at":"2026-05-13T16:01:32.085143+05:30"},{"city":"Latur","state":"Maharashtra","latitude":18.4088,"longitude":76.5604,"temp":38.8,"humidity":24,"rain":0.0,"pressure":934.6,"uv_index":8.95,"wind_gusts":41.8,"aqi":106,"pm10":71.0,"pm2_5":26.8,"no2":0.6,"co":218.0,"o3":162.0,"so2":7.1,"mosquito_risk":0,"arthritis_risk":5,"migraine_risk":10,"frizz_risk":0,"updated_at":"2026-05-13T16:01:32.085149+05:30"},{"city":"Nanded","state":"Maharashtra","latitude":19.1383,"longitude":77.3091,"temp":40.2,"humidity":21,"rain":0.0,"pressure":962.2,"uv_index":9.05,"wind_gusts":30.6,"aqi":125,"pm10":70.3,"pm2_5":27.7,"no2":0.5,"co":220.0,"o3":171.0,"so2":7.2,"mosquito_risk":0,"arthritis_risk":5,"migraine_risk":10,"frizz_risk":0,"updated_at":"2026-05-13T16:01:32.085156+05:30"},{"city":"Gulbarga","state":"Karnataka","latitude":17.3297,"longitude":76.8343,"temp":39.5,"humidity":24,"rain":0.0,"pressure":952.5,"uv_index":9.15,"wind_gusts":28.1,"aqi":86,"pm10":61.0,"pm2_5":23.2,"no2":1.5,"co":215.0,"o3":162.0,"so2":5.7,"mosquito_risk":0,"arthritis_risk":5,"migraine_risk":10,"frizz_risk":0,"updated_at":"2026-05-13T16:01:32.085161+05:30"},{"city":"Bidar","state":"Karnataka","latitude":17.9104,"longitude":77.5199,"temp":36.7,"humidity":30,"rain":0.0,"pressure":930.7,"uv_index":9.15,"wind_gusts":36.0,"aqi":90,"pm10":64.7,"pm2_5":23.9,"no2":0.9,"co":211.0,"o3":157.0,"so2":4.1,"mosquito_risk":0,"arthritis_risk":5,"migraine_risk":10,"frizz_risk":1,"updated_at":"2026-05-13T16:01:32.085167+05:30"},{"city":"Hospet","state":"Karnataka","latitude":15.2689,"longitude":76.3909,"temp":35.1,"humidity":40,"rain":0.0,"pressure":950.0,"uv_index":9.2,"wind_gusts":46.4,"aqi":86,"pm10":49.4,"pm2_5":23.3,"no2":1.8,"co":212.0,"o3":176.0,"so2":5.1,"mosquito_risk":0,"arthritis_risk":5,"migraine_risk":10,"frizz_risk":1,"updated_at":"2026-05-13T16:01:32.085173+05:30"},{"city":"Tirupur","state":"Tamil Nadu","latitude":11.1085,"longitude":77.3411,"temp":37.3,"humidity":27,"rain":0.0,"pressure":968.6,"uv_index":9.25,"wind_gusts":40.3,"aqi":139,"pm10":40.9,"pm2_5":24.2,"no2":3.9,"co":259.0,"o3":177.0,"so2":3.8,"mosquito_risk":0,"arthritis_risk":5,"migraine_risk":10,"frizz_risk":0,"updated_at":"2026-05-13T16:01:32.085179+05:30"},{"city":"Alappuzha","state":"Kerala","latitude":9.4981,"longitude":76.3388,"temp":29.6,"humidity":77,"rain":0.0,"pressure":1003.4,"uv_index":8.05,"wind_gusts":36.7,"aqi":73,"pm10":25.7,"pm2_5":15.5,"no2":3.3,"co":138.0,"o3":113.0,"so2":2.1,"mosquito_risk":7,"arthritis_risk":5,"migraine_risk":4,"frizz_risk":1,"updated_at":"2026-05-13T16:01:32.085185+05:30"},{"city":"Munnar","state":"Kerala","latitude":10.0889,"longitude":77.0595,"temp":20.2,"humidity":87,"rain":0.0,"pressure":853.5,"uv_index":9.45,"wind_gusts":31.3,"aqi":79,"pm10":30.6,"pm2_5":18.7,"no2":2.3,"co":181.0,"o3":132.0,"so2":1.9,"mosquito_risk":3,"arthritis_risk":5,"migraine_risk":7,"frizz_risk":1,"updated_at":"2026-05-13T16:01:32.085192+05:30"},{"city":"Silchar","state":"Assam","latitude":24.8333,"longitude":92.7789,"temp":30.1,"humidity":63,"rain":0.0,"pressure":999.0,"uv_index":8.9,"wind_gusts":25.6,"aqi":111,"pm10":17.6,"pm2_5":14.9,"no2":2.1,"co":317.0,"o3":131.0,"so2":3.4,"mosquito_risk":3,"arthritis_risk":5,"migraine_risk":7,"frizz_risk":1,"updated_at":"2026-05-13T16:01:32.085198+05:30"},{"city":"Dibrugarh","state":"Assam","latitude":27.4728,"longitude":94.912,"temp":26.4,"humidity":82,"rain":0.1,"pressure":990.6,"uv_index":8.7,"wind_gusts":24.1,"aqi":105,"pm10":27.0,"pm2_5":20.1,"no2":2.8,"co":305.0,"o3":133.0,"so2":1.5,"mosquito_risk":10,"arthritis_risk":5,"migraine_risk":7,"frizz_risk":1,"updated_at":"2026-05-13T16:01:32.085204+05:30"}]