[{"city":"Delhi","state":"Delhi","latitude":28.6139,"longitude":77.209,"temp":18.3,"humidity":84,"rain":0.0,"pressure":985.1,"uv_index":6.1,"wind_gusts":53.6,"aqi":156,"pm10":366.9,"pm2_5":59.6,"mosquito_risk":3,"arthritis_risk":10,"migraine_risk":7,"frizz_risk":0,"updated_at":"2026-03-16T02:03:51.479023+05:30"},{"city":"Mumbai","state":"Maharashtra","latitude":19.076,"longitude":72.8777,"temp":26.9,"humidity":86,"rain":0.0,"pressure":1008.9,"uv_index":7.7,"wind_gusts":18.4,"aqi":103,"pm10":61.7,"pm2_5":28.9,"mosquito_risk":7,"arthritis_risk":0,"migraine_risk":4,"frizz_risk":1,"updated_at":"2026-03-16T02:03:51.479060+05:30"},{"city":"Bangalore","state":"Karnataka","latitude":12.9716,"longitude":77.5946,"temp":21.2,"humidity":69,"rain":0.0,"pressure":911.5,"uv_index":9.35,"wind_gusts":28.4,"aqi":82,"pm10":27.2,"pm2_5":26.7,"mosquito_risk":3,"arthritis_risk":5,"migraine_risk":7,"frizz_risk":0,"updated_at":"2026-03-16T02:03:51.479075+05:30"},{"city":"Hyderabad","state":"Telangana","latitude":17.385,"longitude":78.4867,"temp":23.0,"humidity":72,"rain":0.0,"pressure":953.5,"uv_index":8.75,"wind_gusts":29.5,"aqi":91,"pm10":25.3,"pm2_5":22.1,"mosquito_risk":3,"arthritis_risk":5,"migraine_risk":7,"frizz_risk":1,"updated_at":"2026-03-16T02:03:51.479084+05:30"},{"city":"Chennai","state":"Tamil Nadu","latitude":13.0827,"longitude":80.2707,"temp":25.3,"humidity":83,"rain":0.0,"pressure":1008.3,"uv_index":9.1,"wind_gusts":33.1,"aqi":41,"pm10":11.0,"pm2_5":8.1,"mosquito_risk":7,"arthritis_risk":0,"migraine_risk":4,"frizz_risk":1,"updated_at":"2026-03-16T02:03:51.479093+05:30"},{"city":"Kolkata","state":"West Bengal","latitude":22.5726,"longitude":88.3639,"temp":24.9,"humidity":92,"rain":0.0,"pressure":1005.8,"uv_index":8.05,"wind_gusts":32.8,"aqi":59,"pm10":21.6,"pm2_5":18.3,"mosquito_risk":3,"arthritis_risk":5,"migraine_risk":4,"frizz_risk":1,"updated_at":"2026-03-16T02:03:51.479101+05:30"},{"city":"Pune","state":"Maharashtra","latitude":18.5204,"longitude":73.8567,"temp":18.7,"humidity":74,"rain":0.0,"pressure":948.1,"uv_index":8.25,"wind_gusts":40.3,"aqi":104,"pm10":50.2,"pm2_5":36.3,"mosquito_risk":3,"arthritis_risk":5,"migraine_risk":7,"frizz_risk":0,"updated_at":"2026-03-16T02:03:51.479113+05:30"},{"city":"Ahmedabad","state":"Gujarat","latitude":23.0225,"longitude":72.5714,"temp":23.5,"humidity":65,"rain":0.0,"pressure":1002.6,"uv_index":7.15,"wind_gusts":27.0,"aqi":71,"pm10":47.7,"pm2_5":25.0,"mosquito_risk":3,"arthritis_risk":5,"migraine_risk":4,"frizz_risk":1,"updated_at":"2026-03-16T02:03:51.479120+05:30"},{"city":"Jaipur","state":"Rajasthan","latitude":26.9124,"longitude":75.7873,"temp":23.6,"humidity":22,"rain":0.0,"pressure":959.1,"uv_index":6.9,"wind_gusts":34.9,"aqi":124,"pm10":91.7,"pm2_5":28.5,"mosquito_risk":0,"arthritis_risk":5,"migraine_risk":7,"frizz_risk":0,"updated_at":"2026-03-16T02:03:51.479127+05:30"},{"city":"Lucknow","state":"Uttar Pradesh","latitude":26.8467,"longitude":80.9462,"temp":19.0,"humidity":74,"rain":0.0,"pressure":994.1,"uv_index":6.65,"wind_gusts":65.9,"aqi":106,"pm10":35.7,"pm2_5":28.4,"mosquito_risk":3,"arthritis_risk":5,"migraine_risk":7,"frizz_risk":0,"updated_at":"2026-03-16T02:03:51.479135+05:30"},{"city":"Kanpur","state":"Uttar Pradesh","latitude":26.4499,"longitude":80.3319,"temp":18.8,"humidity":76,"rain":0.0,"pressure":992.2,"uv_index":6.7,"wind_gusts":41.0,"aqi":156,"pm10":144.4,"pm2_5":36.0,"mosquito_risk":3,"arthritis_risk":5,"migraine_risk":7,"frizz_risk":0,"updated_at":"2026-03-16T02:03:51.479142+05:30"},{"city":"Chandigarh","state":"Chandigarh","latitude":30.7333,"longitude":76.7794,"temp":14.8,"humidity":82,"rain":0.0,"pressure":970.5,"uv_index":5.9,"wind_gusts":51.8,"aqi":72,"pm10":23.1,"pm2_5":15.4,"mosquito_risk":3,"arthritis_risk":10,"migraine_risk":3,"frizz_risk":0,"updated_at":"2026-03-16T02:03:51.479149+05:30"},{"city":"Srinagar","state":"Jammu and Kashmir","latitude":34.0837,"longitude":74.7973,"temp":5.3,"humidity":94,"rain":0.0,"pressure":837.7,"uv_index":4.2,"wind_gusts":25.6,"aqi":79,"pm10":6.2,"pm2_5":6.0,"mosquito_risk":3,"arthritis_risk":10,"migraine_risk":3,"frizz_risk":0,"updated_at":"2026-03-16T02:03:51.479156+05:30"},{"city":"Jammu","state":"Jammu and Kashmir","latitude":32.7266,"longitude":74.857,"temp":14.1,"humidity":89,"rain":0.0,"pressure":974.0,"uv_index":4.9,"wind_gusts":41.8,"aqi":88,"pm10":36.4,"pm2_5":24.3,"mosquito_risk":3,"arthritis_risk":10,"migraine_risk":3,"frizz_risk":0,"updated_at":"2026-03-16T02:03:51.479163+05:30"},{"city":"Amritsar","state":"Punjab","latitude":31.634,"longitude":74.8723,"temp":13.7,"humidity":95,"rain":0.0,"pressure":982.8,"uv_index":6.45,"wind_gusts":31.3,"aqi":101,"pm10":32.1,"pm2_5":16.2,"mosquito_risk":3,"arthritis_risk":10,"migraine_risk":7,"frizz_risk":0,"updated_at":"2026-03-16T02:03:51.479169+05:30"},{"city":"Ludhiana","state":"Punjab","latitude":30.901,"longitude":75.8573,"temp":14.7,"humidity":96,"rain":0.0,"pressure":980.7,"uv_index":6.2,"wind_gusts":43.9,"aqi":106,"pm10":63.1,"pm2_5":34.3,"mosquito_risk":3,"arthritis_risk":10,"migraine_risk":7,"frizz_risk":0,"updated_at":"2026-03-16T02:03:51.479176+05:30"},{"city":"Jalandhar","state":"Punjab","latitude":31.326,"longitude":75.5762,"temp":14.1,"humidity":92,"rain":0.0,"pressure":982.0,"uv_index":6.3,"wind_gusts":42.1,"aqi":99,"pm10":29.2,"pm2_5":18.0,"mosquito_risk":3,"arthritis_risk":10,"migraine_risk":7,"frizz_risk":0,"updated_at":"2026-03-16T02:03:51.479185+05:30"},{"city":"Dehradun","state":"Uttarakhand","latitude":30.6284,"longitude":78.0322,"temp":8.7,"humidity":87,"rain":0.1,"pressure":828.2,"uv_index":6.3,"wind_gusts":40.3,"aqi":52,"pm10":26.8,"pm2_5":8.0,"mosquito_risk":6,"arthritis_risk":10,"migraine_risk":7,"frizz_risk":0,"updated_at":"2026-03-16T02:03:51.479192+05:30"},{"city":"Shimla","state":"Himachal Pradesh","latitude":31.1048,"longitude":77.1734,"temp":6.7,"humidity":81,"rain":0.0,"pressure":780.5,"uv_index":6.3,"wind_gusts":50.4,"aqi":56,"pm10":15.4,"pm2_5":7.2,"mosquito_risk":3,"arthritis_risk":10,"migraine_risk":7,"frizz_risk":0,"updated_at":"2026-03-16T02:03:51.479199+05:30"},{"city":"Manali","state":"Himachal Pradesh","latitude":32.2396,"longitude":77.1887,"temp":8.5,"humidity":79,"rain":0.1,"pressure":814.7,"uv_index":7.1,"wind_gusts":37.1,"aqi":49,"pm10":11.3,"pm2_5":4.3,"mosquito_risk":6,"arthritis_risk":5,"migraine_risk":7,"frizz_risk":0,"updated_at":"2026-03-16T02:03:51.479205+05:30"},{"city":"Gurgaon","state":"Haryana","latitude":28.4595,"longitude":77.0266,"temp":17.6,"humidity":87,"rain":0.0,"pressure":983.4,"uv_index":6.2,"wind_gusts":42.5,"aqi":1304,"pm10":1829.1,"pm2_5":210.5,"mosquito_risk":3,"arthritis_risk":10,"migraine_risk":7,"frizz_risk":0,"updated_at":"2026-03-16T02:03:51.479212+05:30"},{"city":"Noida","state":"Uttar Pradesh","latitude":28.5355,"longitude":77.391,"temp":18.5,"humidity":84,"rain":0.0,"pressure":986.7,"uv_index":6.15,"wind_gusts":45.4,"aqi":1304,"pm10":1829.1,"pm2_5":210.5,"mosquito_risk":3,"arthritis_risk":10,"migraine_risk":7,"frizz_risk":0,"updated_at":"2026-03-16T02:03:51.479218+05:30"},{"city":"Ghaziabad","state":"Uttar Pradesh","latitude":28.6692,"longitude":77.4538,"temp":17.7,"humidity":86,"rain":0.0,"pressure":984.9,"uv_index":6.1,"wind_gusts":58.7,"aqi":138,"pm10":258.0,"pm2_5":41.7,"mosquito_risk":3,"arthritis_risk":10,"migraine_risk":7,"frizz_risk":0,"updated_at":"2026-03-16T02:03:51.479224+05:30"},{"city":"Faridabad","state":"Haryana","latitude":28.4089,"longitude":77.3178,"temp":18.3,"humidity":83,"rain":0.0,"pressure":985.8,"uv_index":6.15,"wind_gusts":39.2,"aqi":1304,"pm10":1829.1,"pm2_5":210.5,"mosquito_risk":3,"arthritis_risk":10,"migraine_risk":7,"frizz_risk":0,"updated_at":"2026-03-16T02:03:51.479231+05:30"},{"city":"Meerut","state":"Uttar Pradesh","latitude":28.9845,"longitude":77.7064,"temp":16.8,"humidity":86,"rain":0.0,"pressure":984.0,"uv_index":6.0,"wind_gusts":59.4,"aqi":138,"pm10":258.0,"pm2_5":41.7,"mosquito_risk":3,"arthritis_risk":10,"migraine_risk":3,"frizz_risk":0,"updated_at":"2026-03-16T02:03:51.479237+05:30"},{"city":"Agra","state":"Uttar Pradesh","latitude":27.1767,"longitude":78.0081,"temp":17.9,"humidity":90,"rain":0.0,"pressure":988.2,"uv_index":6.5,"wind_gusts":38.2,"aqi":893,"pm10":1005.8,"pm2_5":125.3,"mosquito_risk":3,"arthritis_risk":10,"migraine_risk":7,"frizz_risk":1,"updated_at":"2026-03-16T02:03:51.479244+05:30"},{"city":"Varanasi","state":"Uttar Pradesh","latitude":25.3176,"longitude":82.9739,"temp":20.9,"humidity":74,"rain":0.0,"pressure":998.6,"uv_index":7.35,"wind_gusts":37.1,"aqi":142,"pm10":64.3,"pm2_5":51.7,"mosquito_risk":3,"arthritis_risk":5,"migraine_risk":7,"frizz_risk":0,"updated_at":"2026-03-16T02:03:51.479253+05:30"},{"city":"Prayagraj","state":"Uttar Pradesh","latitude":25.4358,"longitude":81.8463,"temp":20.4,"humidity":75,"rain":0.0,"pressure":996.6,"uv_index":7.2,"wind_gusts":36.0,"aqi":117,"pm10":38.4,"pm2_5":30.4,"mosquito_risk":3,"arthritis_risk":5,"migraine_risk":7,"frizz_risk":0,"updated_at":"2026-03-16T02:03:51.479259+05:30"},{"city":"Gorakhpur","state":"Uttar Pradesh","latitude":26.7606,"longitude":83.3732,"temp":19.1,"humidity":71,"rain":0.0,"pressure":997.8,"uv_index":6.85,"wind_gusts":33.5,"aqi":151,"pm10":74.0,"pm2_5":62.6,"mosquito_risk":3,"arthritis_risk":5,"migraine_risk":7,"frizz_risk":0,"updated_at":"2026-03-16T02:03:51.479266+05:30"},{"city":"Bareilly","state":"Uttar Pradesh","latitude":28.367,"longitude":79.4304,"temp":18.3,"humidity":86,"rain":0.0,"pressure":986.9,"uv_index":6.3,"wind_gusts":74.5,"aqi":126,"pm10":33.4,"pm2_5":18.7,"mosquito_risk":3,"arthritis_risk":10,"migraine_risk":7,"frizz_risk":0,"updated_at":"2026-03-16T02:03:51.479279+05:30"},{"city":"Aligarh","state":"Uttar Pradesh","latitude":27.8974,"longitude":78.088,"temp":17.3,"humidity":89,"rain":0.0,"pressure":986.7,"uv_index":6.25,"wind_gusts":37.8,"aqi":182,"pm10":713.4,"pm2_5":90.3,"mosquito_risk":3,"arthritis_risk":10,"migraine_risk":7,"frizz_risk":0,"updated_at":"2026-03-16T02:03:51.479288+05:30"},{"city":"Moradabad","state":"Uttar Pradesh","latitude":28.8386,"longitude":78.7733,"temp":18.0,"humidity":86,"rain":0.0,"pressure":987.4,"uv_index":6.15,"wind_gusts":85.0,"aqi":127,"pm10":39.7,"pm2_5":21.8,"mosquito_risk":3,"arthritis_risk":10,"migraine_risk":7,"frizz_risk":0,"updated_at":"2026-03-16T02:03:51.479295+05:30"},{"city":"Saharanpur","state":"Uttar Pradesh","latitude":29.9637,"longitude":77.546,"temp":15.2,"humidity":90,"rain":0.0,"pressure":978.9,"uv_index":5.75,"wind_gusts":37.8,"aqi":126,"pm10":35.3,"pm2_5":22.9,"mosquito_risk":3,"arthritis_risk":10,"migraine_risk":3,"frizz_risk":0,"updated_at":"2026-03-16T02:03:51.479301+05:30"},{"city":"Jhansi","state":"Uttar Pradesh","latitude":25.4484,"longitude":78.5685,"temp":21.7,"humidity":70,"rain":0.0,"pressure":977.2,"uv_index":7.15,"wind_gusts":34.9,"aqi":79,"pm10":49.0,"pm2_5":25.2,"mosquito_risk":3,"arthritis_risk":5,"migraine_risk":7,"frizz_risk":0,"updated_at":"2026-03-16T02:03:54.754359+05:30"},{"city":"Surat","state":"Gujarat","latitude":21.1702,"longitude":72.8311,"temp":25.8,"humidity":88,"rain":0.0,"pressure":1007.2,"uv_index":7.4,"wind_gusts":26.3,"aqi":126,"pm10":43.9,"pm2_5":26.2,"mosquito_risk":7,"arthritis_risk":5,"migraine_risk":4,"frizz_risk":1,"updated_at":"2026-03-16T02:03:54.754388+05:30"},{"city":"Vadodara","state":"Gujarat","latitude":22.3072,"longitude":73.1812,"temp":24.4,"humidity":84,"rain":0.0,"pressure":1004.8,"uv_index":7.1,"wind_gusts":23.4,"aqi":88,"pm10":39.1,"pm2_5":26.4,"mosquito_risk":3,"arthritis_risk":5,"migraine_risk":4,"frizz_risk":1,"updated_at":"2026-03-16T02:03:54.754400+05:30"},{"city":"Rajkot","state":"Gujarat","latitude":22.3039,"longitude":70.8022,"temp":23.9,"humidity":79,"rain":0.0,"pressure":995.2,"uv_index":7.3,"wind_gusts":31.3,"aqi":68,"pm10":37.6,"pm2_5":19.3,"mosquito_risk":3,"arthritis_risk":5,"migraine_risk":7,"frizz_risk":1,"updated_at":"2026-03-16T02:03:54.754409+05:30"},{"city":"Thane","state":"Maharashtra","latitude":19.2183,"longitude":72.9781,"temp":24.8,"humidity":94,"rain":0.0,"pressure":1008.4,"uv_index":7.7,"wind_gusts":31.3,"aqi":103,"pm10":61.7,"pm2_5":28.9,"mosquito_risk":3,"arthritis_risk":0,"migraine_risk":4,"frizz_risk":1,"updated_at":"2026-03-16T02:03:54.754417+05:30"},{"city":"Nagpur","state":"Maharashtra","latitude":21.1458,"longitude":79.0882,"temp":25.9,"humidity":65,"rain":0.0,"pressure":972.6,"uv_index":7.95,"wind_gusts":22.0,"aqi":106,"pm10":39.1,"pm2_5":35.5,"mosquito_risk":7,"arthritis_risk":5,"migraine_risk":7,"frizz_risk":1,"updated_at":"2026-03-16T02:03:54.754425+05:30"},{"city":"Nashik","state":"Maharashtra","latitude":19.9975,"longitude":73.7898,"temp":19.9,"humidity":64,"rain":0.0,"pressure":945.1,"uv_index":7.7,"wind_gusts":29.5,"aqi":73,"pm10":67.1,"pm2_5":32.7,"mosquito_risk":3,"arthritis_risk":5,"migraine_risk":7,"frizz_risk":0,"updated_at":"2026-03-16T02:03:54.754433+05:30"},{"city":"Aurangabad","state":"Maharashtra","latitude":19.8762,"longitude":75.3433,"temp":23.0,"humidity":55,"rain":0.0,"pressure":943.8,"uv_index":8.05,"wind_gusts":27.0,"aqi":74,"pm10":41.9,"pm2_5":27.3,"mosquito_risk":0,"arthritis_risk":5,"migraine_risk":7,"frizz_risk":0,"updated_at":"2026-03-16T02:03:54.754441+05:30"},{"city":"Solapur","state":"Maharashtra","latitude":17.6599,"longitude":75.9064,"temp":23.9,"humidity":56,"rain":0.0,"pressure":957.3,"uv_index":8.65,"wind_gusts":23.0,"aqi":106,"pm10":47.5,"pm2_5":43.7,"mosquito_risk":0,"arthritis_risk":5,"migraine_risk":7,"frizz_risk":0,"updated_at":"2026-03-16T02:03:54.754449+05:30"},{"city":"Kolhapur","state":"Maharashtra","latitude":16.705,"longitude":74.2433,"temp":20.8,"humidity":74,"rain":0.0,"pressure":947.8,"uv_index":8.75,"wind_gusts":38.2,"aqi":124,"pm10":42.6,"pm2_5":32.6,"mosquito_risk":3,"arthritis_risk":5,"migraine_risk":7,"frizz_risk":0,"updated_at":"2026-03-16T02:03:54.754456+05:30"},{"city":"Goa","state":"Goa","latitude":15.2993,"longitude":74.124,"temp":27.4,"humidity":80,"rain":0.0,"pressure":998.6,"uv_index":8.8,"wind_gusts":31.7,"aqi":114,"pm10":54.4,"pm2_5":37.5,"mosquito_risk":7,"arthritis_risk":5,"migraine_risk":7,"frizz_risk":1,"updated_at":"2026-03-16T02:03:54.754464+05:30"},{"city":"Jodhpur","state":"Rajasthan","latitude":26.2389,"longitude":73.0243,"temp":24.5,"humidity":23,"rain":0.0,"pressure":982.8,"uv_index":7.2,"wind_gusts":36.7,"aqi":106,"pm10":222.6,"pm2_5":35.5,"mosquito_risk":0,"arthritis_risk":5,"migraine_risk":7,"frizz_risk":0,"updated_at":"2026-03-16T02:03:54.754472+05:30"},{"city":"Udaipur","state":"Rajasthan","latitude":24.5854,"longitude":73.7125,"temp":22.0,"humidity":28,"rain":0.0,"pressure":946.5,"uv_index":7.85,"wind_gusts":34.6,"aqi":63,"pm10":42.8,"pm2_5":14.5,"mosquito_risk":0,"arthritis_risk":5,"migraine_risk":7,"frizz_risk":0,"updated_at":"2026-03-16T02:03:54.754480+05:30"},{"city":"Kota","state":"Rajasthan","latitude":25.2138,"longitude":75.8648,"temp":21.7,"humidity":38,"rain":0.0,"pressure":977.8,"uv_index":7.2,"wind_gusts":29.2,"aqi":65,"pm10":32.6,"pm2_5":18.3,"mosquito_risk":0,"arthritis_risk":5,"migraine_risk":7,"frizz_risk":0,"updated_at":"2026-03-16T02:03:54.754487+05:30"},{"city":"Bikaner","state":"Rajasthan","latitude":28.0229,"longitude":73.3119,"temp":24.3,"humidity":36,"rain":0.0,"pressure":981.5,"uv_index":6.9,"wind_gusts":25.9,"aqi":52,"pm10":22.4,"pm2_5":8.2,"mosquito_risk":0,"arthritis_risk":5,"migraine_risk":7,"frizz_risk":0,"updated_at":"2026-03-16T02:03:54.754495+05:30"},{"city":"Ajmer","state":"Rajasthan","latitude":26.4499,"longitude":74.6399,"temp":23.3,"humidity":39,"rain":0.0,"pressure":954.1,"uv_index":7.15,"wind_gusts":39.2,"aqi":75,"pm10":59.6,"pm2_5":21.9,"mosquito_risk":0,"arthritis_risk":5,"migraine_risk":7,"frizz_risk":0,"updated_at":"2026-03-16T02:03:54.754502+05:30"},{"city":"Gwalior","state":"Madhya Pradesh","latitude":26.2183,"longitude":78.1828,"temp":22.0,"humidity":68,"rain":0.0,"pressure":982.9,"uv_index":6.85,"wind_gusts":32.4,"aqi":104,"pm10":108.0,"pm2_5":39.0,"mosquito_risk":3,"arthritis_risk":5,"migraine_risk":7,"frizz_risk":0,"updated_at":"2026-03-16T02:03:54.754510+05:30"},{"city":"Indore","state":"Madhya Pradesh","latitude":22.7196,"longitude":75.8577,"temp":21.9,"humidity":47,"rain":0.0,"pressure":947.5,"uv_index":7.75,"wind_gusts":32.4,"aqi":66,"pm10":32.5,"pm2_5":19.0,"mosquito_risk":0,"arthritis_risk":5,"migraine_risk":7,"frizz_risk":0,"updated_at":"2026-03-16T02:03:54.754518+05:30"},{"city":"Bhopal","state":"Madhya Pradesh","latitude":23.2599,"longitude":77.4126,"temp":21.0,"humidity":52,"rain":0.0,"pressure":952.8,"uv_index":7.65,"wind_gusts":32.0,"aqi":61,"pm10":36.8,"pm2_5":21.5,"mosquito_risk":0,"arthritis_risk":5,"migraine_risk":7,"frizz_risk":0,"updated_at":"2026-03-16T02:03:54.754525+05:30"},{"city":"Jabalpur","state":"Madhya Pradesh","latitude":23.1815,"longitude":79.9864,"temp":23.3,"humidity":55,"rain":0.0,"pressure":960.3,"uv_index":7.8,"wind_gusts":38.2,"aqi":66,"pm10":30.9,"pm2_5":22.5,"mosquito_risk":0,"arthritis_risk":5,"migraine_risk":7,"frizz_risk":0,"updated_at":"2026-03-16T02:03:54.754532+05:30"},{"city":"Ujjain","state":"Madhya Pradesh","latitude":23.1765,"longitude":75.7885,"temp":22.0,"humidity":49,"rain":0.0,"pressure":953.2,"uv_index":7.65,"wind_gusts":31.0,"aqi":69,"pm10":32.8,"pm2_5":18.3,"mosquito_risk":0,"arthritis_risk":5,"migraine_risk":7,"frizz_risk":0,"updated_at":"2026-03-16T02:03:54.754540+05:30"},{"city":"Visakhapatnam","state":"Andhra Pradesh","latitude":17.6868,"longitude":83.2185,"temp":25.0,"humidity":88,"rain":0.0,"pressure":1005.8,"uv_index":8.7,"wind_gusts":42.1,"aqi":63,"pm10":20.2,"pm2_5":16.5,"mosquito_risk":7,"arthritis_risk":5,"migraine_risk":4,"frizz_risk":1,"updated_at":"2026-03-16T02:03:54.754548+05:30"},{"city":"Vijayawada","state":"Andhra Pradesh","latitude":16.5062,"longitude":80.648,"temp":24.0,"humidity":90,"rain":0.0,"pressure":1004.6,"uv_index":8.8,"wind_gusts":27.7,"aqi":56,"pm10":15.4,"pm2_5":13.2,"mosquito_risk":3,"arthritis_risk":5,"migraine_risk":4,"frizz_risk":1,"updated_at":"2026-03-16T02:03:54.754555+05:30"},{"city":"Guntur","state":"Andhra Pradesh","latitude":16.3067,"longitude":80.4365,"temp":23.8,"humidity":90,"rain":0.0,"pressure":1005.6,"uv_index":8.8,"wind_gusts":29.2,"aqi":53,"pm10":13.5,"pm2_5":11.5,"mosquito_risk":3,"arthritis_risk":5,"migraine_risk":4,"frizz_risk":1,"updated_at":"2026-03-16T02:03:54.754563+05:30"},{"city":"Nellore","state":"Andhra Pradesh","latitude":14.4426,"longitude":79.9865,"temp":24.3,"humidity":90,"rain":0.0,"pressure":1007.1,"uv_index":8.95,"wind_gusts":32.8,"aqi":50,"pm10":8.5,"pm2_5":7.0,"mosquito_risk":3,"arthritis_risk":5,"migraine_risk":4,"frizz_risk":1,"updated_at":"2026-03-16T02:03:54.754571+05:30"},{"city":"Kurnool","state":"Andhra Pradesh","latitude":15.8281,"longitude":78.0373,"temp":26.4,"humidity":54,"rain":0.0,"pressure":977.7,"uv_index":8.55,"wind_gusts":21.6,"aqi":83,"pm10":23.2,"pm2_5":21.0,"mosquito_risk":4,"arthritis_risk":5,"migraine_risk":7,"frizz_risk":1,"updated_at":"2026-03-16T02:03:54.754580+05:30"},{"city":"Kakinada","state":"Andhra Pradesh","latitude":16.9891,"longitude":82.2475,"temp":23.3,"humidity":89,"rain":0.0,"pressure":1009.7,"uv_index":8.7,"wind_gusts":29.9,"aqi":56,"pm10":16.7,"pm2_5":12.0,"mosquito_risk":3,"arthritis_risk":0,"migraine_risk":4,"frizz_risk":1,"updated_at":"2026-03-16T02:03:54.754588+05:30"},{"city":"Tirupati","state":"Andhra Pradesh","latitude":13.6288,"longitude":79.4192,"temp":22.7,"humidity":88,"rain":0.0,"pressure":993.0,"uv_index":9.1,"wind_gusts":24.5,"aqi":65,"pm10":21.2,"pm2_5":19.8,"mosquito_risk":3,"arthritis_risk":5,"migraine_risk":7,"frizz_risk":1,"updated_at":"2026-03-16T02:03:54.754595+05:30"},{"city":"Warangal","state":"Telangana","latitude":17.9689,"longitude":79.5941,"temp":24.6,"humidity":79,"rain":0.0,"pressure":979.2,"uv_index":8.6,"wind_gusts":33.1,"aqi":74,"pm10":14.8,"pm2_5":13.8,"mosquito_risk":3,"arthritis_risk":5,"migraine_risk":7,"frizz_risk":1,"updated_at":"2026-03-16T02:03:54.754602+05:30"},{"city":"Nizamabad","state":"Telangana","latitude":18.6725,"longitude":78.0941,"temp":25.9,"humidity":56,"rain":0.0,"pressure":964.4,"uv_index":8.45,"wind_gusts":27.0,"aqi":126,"pm10":40.9,"pm2_5":36.6,"mosquito_risk":4,"arthritis_risk":5,"migraine_risk":7,"frizz_risk":1,"updated_at":"2026-03-16T02:03:54.754610+05:30"},{"city":"Mysore","state":"Karnataka","latitude":12.2958,"longitude":76.6396,"temp":21.5,"humidity":90,"rain":0.0,"pressure":928.7,"uv_index":9.35,"wind_gusts":32.8,"aqi":90,"pm10":38.1,"pm2_5":35.7,"mosquito_risk":3,"arthritis_risk":5,"migraine_risk":7,"frizz_risk":1,"updated_at":"2026-03-16T02:03:54.754618+05:30"},{"city":"Mangalore","state":"Karnataka","latitude":12.9141,"longitude":74.856,"temp":28.8,"humidity":77,"rain":0.0,"pressure":1007.2,"uv_index":9.0,"wind_gusts":24.5,"aqi":83,"pm10":29.8,"pm2_5":26.0,"mosquito_risk":7,"arthritis_risk":5,"migraine_risk":4,"frizz_risk":1,"updated_at":"2026-03-16T02:03:54.754625+05:30"},{"city":"Hubli-Dharwad","state":"Karnataka","latitude":15.3647,"longitude":75.124,"temp":22.6,"humidity":87,"rain":0.0,"pressure":941.3,"uv_index":8.95,"wind_gusts":37.4,"aqi":108,"pm10":36.3,"pm2_5":34.5,"mosquito_risk":3,"arthritis_risk":5,"migraine_risk":7,"frizz_risk":1,"updated_at":"2026-03-16T02:03:54.754631+05:30"},{"city":"Belgaum","state":"Karnataka","latitude":15.8497,"longitude":74.4977,"temp":21.7,"humidity":96,"rain":0.0,"pressure":925.9,"uv_index":9.0,"wind_gusts":37.4,"aqi":116,"pm10":48.0,"pm2_5":33.9,"mosquito_risk":3,"arthritis_risk":5,"migraine_risk":7,"frizz_risk":1,"updated_at":"2026-03-16T02:03:58.034110+05:30"},{"city":"Coimbatore","state":"Tamil Nadu","latitude":11.0168,"longitude":76.9558,"temp":23.0,"humidity":92,"rain":0.0,"pressure":962.2,"uv_index":9.3,"wind_gusts":42.5,"aqi":70,"pm10":34.2,"pm2_5":31.7,"mosquito_risk":3,"arthritis_risk":5,"migraine_risk":7,"frizz_risk":1,"updated_at":"2026-03-16T02:03:58.034136+05:30"},{"city":"Madurai","state":"Tamil Nadu","latitude":9.9252,"longitude":78.1198,"temp":24.6,"humidity":81,"rain":0.0,"pressure":994.1,"uv_index":9.3,"wind_gusts":19.1,"aqi":53,"pm10":17.1,"pm2_5":16.0,"mosquito_risk":3,"arthritis_risk":5,"migraine_risk":7,"frizz_risk":1,"updated_at":"2026-03-16T02:03:58.034144+05:30"},{"city":"Trichy","state":"Tamil Nadu","latitude":10.7905,"longitude":78.7047,"temp":24.5,"humidity":94,"rain":0.0,"pressure":1000.9,"uv_index":9.2,"wind_gusts":21.2,"aqi":52,"pm10":13.1,"pm2_5":11.8,"mosquito_risk":3,"arthritis_risk":5,"migraine_risk":4,"frizz_risk":1,"updated_at":"2026-03-16T02:03:58.034151+05:30"},{"city":"Salem","state":"Tamil Nadu","latitude":11.6643,"longitude":78.146,"temp":23.8,"humidity":86,"rain":0.0,"pressure":978.1,"uv_index":9.25,"wind_gusts":13.7,"aqi":69,"pm10":22.0,"pm2_5":21.4,"mosquito_risk":3,"arthritis_risk":5,"migraine_risk":7,"frizz_risk":1,"updated_at":"2026-03-16T02:03:58.034158+05:30"},{"city":"Tirunelveli","state":"Tamil Nadu","latitude":8.7139,"longitude":77.7567,"temp":24.9,"humidity":87,"rain":0.0,"pressure":1004.0,"uv_index":9.3,"wind_gusts":46.1,"aqi":50,"pm10":17.7,"pm2_5":16.4,"mosquito_risk":3,"arthritis_risk":5,"migraine_risk":4,"frizz_risk":1,"updated_at":"2026-03-16T02:03:58.034165+05:30"},{"city":"Vellore","state":"Tamil Nadu","latitude":12.9165,"longitude":79.1325,"temp":22.0,"humidity":82,"rain":0.0,"pressure":985.7,"uv_index":9.15,"wind_gusts":36.7,"aqi":87,"pm10":34.2,"pm2_5":32.2,"mosquito_risk":3,"arthritis_risk":5,"migraine_risk":7,"frizz_risk":1,"updated_at":"2026-03-16T02:03:58.034171+05:30"},{"city":"Erode","state":"Tamil Nadu","latitude":11.341,"longitude":77.7172,"temp":25.1,"humidity":85,"rain":0.0,"pressure":990.2,"uv_index":9.25,"wind_gusts":24.5,"aqi":50,"pm10":10.6,"pm2_5":9.8,"mosquito_risk":7,"arthritis_risk":5,"migraine_risk":7,"frizz_risk":1,"updated_at":"2026-03-16T02:03:58.034177+05:30"},{"city":"Kochi","state":"Kerala","latitude":9.9312,"longitude":76.2673,"temp":27.5,"humidity":81,"rain":0.0,"pressure":1009.4,"uv_index":9.1,"wind_gusts":34.6,"aqi":77,"pm10":43.2,"pm2_5":42.6,"mosquito_risk":7,"arthritis_risk":0,"migraine_risk":4,"frizz_risk":1,"updated_at":"2026-03-16T02:03:58.034183+05:30"},{"city":"Thiruvananthapuram","state":"Kerala","latitude":8.5241,"longitude":76.9366,"temp":27.7,"humidity":80,"rain":0.0,"pressure":1008.2,"uv_index":9.15,"wind_gusts":30.6,"aqi":57,"pm10":11.5,"pm2_5":8.9,"mosquito_risk":7,"arthritis_risk":0,"migraine_risk":4,"frizz_risk":1,"updated_at":"2026-03-16T02:03:58.034189+05:30"},{"city":"Kozhikode","state":"Kerala","latitude":11.2588,"longitude":75.7804,"temp":27.4,"humidity":83,"rain":0.0,"pressure":1008.5,"uv_index":9.0,"wind_gusts":29.2,"aqi":66,"pm10":25.5,"pm2_5":21.5,"mosquito_risk":7,"arthritis_risk":0,"migraine_risk":4,"frizz_risk":1,"updated_at":"2026-03-16T02:03:58.034195+05:30"},{"city":"Thrissur","state":"Kerala","latitude":10.5276,"longitude":76.2144,"temp":26.6,"humidity":87,"rain":0.0,"pressure":1007.6,"uv_index":9.05,"wind_gusts":37.8,"aqi":75,"pm10":43.0,"pm2_5":41.1,"mosquito_risk":7,"arthritis_risk":5,"migraine_risk":4,"frizz_risk":1,"updated_at":"2026-03-16T02:03:58.034201+05:30"},{"city":"Kannur","state":"Kerala","latitude":11.8745,"longitude":75.3704,"temp":27.1,"humidity":85,"rain":0.0,"pressure":1007.7,"uv_index":9.0,"wind_gusts":31.7,"aqi":78,"pm10":24.9,"pm2_5":22.0,"mosquito_risk":7,"arthritis_risk":5,"migraine_risk":4,"frizz_risk":1,"updated_at":"2026-03-16T02:03:58.034207+05:30"},{"city":"Patna","state":"Bihar","latitude":25.5941,"longitude":85.1376,"temp":22.9,"humidity":84,"rain":0.1,"pressure":1001.3,"uv_index":7.55,"wind_gusts":38.2,"aqi":159,"pm10":82.9,"pm2_5":66.8,"mosquito_risk":6,"arthritis_risk":5,"migraine_risk":4,"frizz_risk":1,"updated_at":"2026-03-16T02:03:58.034213+05:30"},{"city":"Gaya","state":"Bihar","latitude":24.7914,"longitude":85.0002,"temp":21.5,"humidity":88,"rain":0.0,"pressure":995.3,"uv_index":7.65,"wind_gusts":68.0,"aqi":135,"pm10":61.2,"pm2_5":47.4,"mosquito_risk":3,"arthritis_risk":5,"migraine_risk":7,"frizz_risk":1,"updated_at":"2026-03-16T02:03:58.034219+05:30"},{"city":"Muzaffarpur","state":"Bihar","latitude":26.1209,"longitude":85.3647,"temp":20.5,"humidity":83,"rain":0.0,"pressure":1001.7,"uv_index":7.5,"wind_gusts":29.9,"aqi":159,"pm10":96.9,"pm2_5":80.8,"mosquito_risk":3,"arthritis_risk":5,"migraine_risk":4,"frizz_risk":1,"updated_at":"2026-03-16T02:03:58.034225+05:30"},{"city":"Bhagalpur","state":"Bihar","latitude":25.2425,"longitude":87.0117,"temp":22.8,"humidity":91,"rain":0.0,"pressure":1000.6,"uv_index":7.55,"wind_gusts":41.8,"aqi":151,"pm10":72.9,"pm2_5":61.0,"mosquito_risk":3,"arthritis_risk":5,"migraine_risk":4,"frizz_risk":1,"updated_at":"2026-03-16T02:03:58.034231+05:30"},{"city":"Ranchi","state":"Jharkhand","latitude":23.3441,"longitude":85.3096,"temp":20.7,"humidity":87,"rain":0.0,"pressure":937.2,"uv_index":7.7,"wind_gusts":62.6,"aqi":129,"pm10":50.9,"pm2_5":46.3,"mosquito_risk":3,"arthritis_risk":5,"migraine_risk":7,"frizz_risk":1,"updated_at":"2026-03-16T02:03:58.034237+05:30"},{"city":"Jamshedpur","state":"Jharkhand","latitude":22.8046,"longitude":86.2029,"temp":23.5,"humidity":82,"rain":0.0,"pressure":990.7,"uv_index":8.05,"wind_gusts":55.4,"aqi":130,"pm10":63.1,"pm2_5":55.5,"mosquito_risk":3,"arthritis_risk":5,"migraine_risk":7,"frizz_risk":1,"updated_at":"2026-03-16T02:03:58.034242+05:30"},{"city":"Dhanbad","state":"Jharkhand","latitude":23.7957,"longitude":86.4304,"temp":23.2,"humidity":82,"rain":0.0,"pressure":979.0,"uv_index":7.55,"wind_gusts":32.0,"aqi":160,"pm10":76.8,"pm2_5":70.5,"mosquito_risk":3,"arthritis_risk":5,"migraine_risk":7,"frizz_risk":1,"updated_at":"2026-03-16T02:03:58.034248+05:30"},{"city":"Bokaro","state":"Jharkhand","latitude":23.6693,"longitude":86.1511,"temp":24.0,"humidity":74,"rain":0.0,"pressure":983.0,"uv_index":7.25,"wind_gusts":31.7,"aqi":154,"pm10":67.1,"pm2_5":60.8,"mosquito_risk":3,"arthritis_risk":5,"migraine_risk":7,"frizz_risk":1,"updated_at":"2026-03-16T02:03:58.034254+05:30"},{"city":"Bhubaneswar","state":"Odisha","latitude":20.2961,"longitude":85.8245,"temp":25.0,"humidity":88,"rain":0.0,"pressure":1003.5,"uv_index":8.5,"wind_gusts":37.8,"aqi":57,"pm10":14.5,"pm2_5":11.8,"mosquito_risk":7,"arthritis_risk":5,"migraine_risk":4,"frizz_risk":1,"updated_at":"2026-03-16T02:03:58.034260+05:30"},{"city":"Cuttack","state":"Odisha","latitude":20.4625,"longitude":85.8828,"temp":24.7,"humidity":89,"rain":0.0,"pressure":1005.4,"uv_index":8.5,"wind_gusts":40.7,"aqi":57,"pm10":14.5,"pm2_5":11.8,"mosquito_risk":3,"arthritis_risk":5,"migraine_risk":4,"frizz_risk":1,"updated_at":"2026-03-16T02:03:58.034266+05:30"},{"city":"Rourkela","state":"Odisha","latitude":22.2604,"longitude":84.8536,"temp":24.8,"humidity":81,"rain":0.0,"pressure":985.2,"uv_index":8.0,"wind_gusts":52.2,"aqi":137,"pm10":65.4,"pm2_5":57.3,"mosquito_risk":3,"arthritis_risk":5,"migraine_risk":7,"frizz_risk":1,"updated_at":"2026-03-16T02:03:58.034272+05:30"},{"city":"Raipur","state":"Chhattisgarh","latitude":21.2514,"longitude":81.6296,"temp":23.3,"humidity":69,"rain":0.0,"pressure":974.6,"uv_index":8.25,"wind_gusts":46.4,"aqi":132,"pm10":55.9,"pm2_5":51.2,"mosquito_risk":3,"arthritis_risk":5,"migraine_risk":7,"frizz_risk":1,"updated_at":"2026-03-16T02:03:58.034278+05:30"},{"city":"Bhilai","state":"Chhattisgarh","latitude":21.1938,"longitude":81.3509,"temp":24.7,"humidity":65,"rain":0.0,"pressure":974.8,"uv_index":8.25,"wind_gusts":45.0,"aqi":127,"pm10":56.6,"pm2_5":51.2,"mosquito_risk":3,"arthritis_risk":5,"migraine_risk":7,"frizz_risk":1,"updated_at":"2026-03-16T02:03:58.034283+05:30"},{"city":"Guwahati","state":"Assam","latitude":26.1158,"longitude":91.7086,"temp":20.4,"humidity":90,"rain":0.0,"pressure":1003.5,"uv_index":7.15,"wind_gusts":34.2,"aqi":65,"pm10":13.0,"pm2_5":10.9,"mosquito_risk":3,"arthritis_risk":5,"migraine_risk":4,"frizz_risk":1,"updated_at":"2026-03-16T02:03:58.034289+05:30"},{"city":"Agartala","state":"Tripura","latitude":23.8315,"longitude":91.2868,"temp":21.3,"humidity":94,"rain":0.0,"pressure":1007.4,"uv_index":7.85,"wind_gusts":45.0,"aqi":57,"pm10":14.8,"pm2_5":12.7,"mosquito_risk":3,"arthritis_risk":5,"migraine_risk":4,"frizz_risk":1,"updated_at":"2026-03-16T02:03:58.034295+05:30"},{"city":"Shillong","state":"Meghalaya","latitude":25.5788,"longitude":91.8933,"temp":12.5,"humidity":92,"rain":0.0,"pressure":855.0,"uv_index":7.9,"wind_gusts":69.8,"aqi":51,"pm10":4.8,"pm2_5":4.0,"mosquito_risk":3,"arthritis_risk":10,"migraine_risk":7,"frizz_risk":0,"updated_at":"2026-03-16T02:03:58.034301+05:30"},{"city":"Imphal","state":"Manipur","latitude":24.817,"longitude":93.9368,"temp":14.7,"humidity":93,"rain":0.2,"pressure":924.1,"uv_index":8.15,"wind_gusts":77.4,"aqi":85,"pm10":45.2,"pm2_5":37.8,"mosquito_risk":6,"arthritis_risk":10,"migraine_risk":7,"frizz_risk":0,"updated_at":"2026-03-16T02:03:58.034307+05:30"},{"city":"Aizawl","state":"Mizoram","latitude":23.7271,"longitude":92.7176,"temp":15.3,"humidity":91,"rain":0.0,"pressure":893.1,"uv_index":8.1,"wind_gusts":63.0,"aqi":78,"pm10":27.0,"pm2_5":19.9,"mosquito_risk":3,"arthritis_risk":10,"migraine_risk":7,"frizz_risk":0,"updated_at":"2026-03-16T02:03:58.034313+05:30"},{"city":"Kohima","state":"Nagaland","latitude":25.6701,"longitude":94.1077,"temp":14.1,"humidity":78,"rain":0.0,"pressure":853.8,"uv_index":7.05,"wind_gusts":96.5,"aqi":69,"pm10":32.4,"pm2_5":26.5,"mosquito_risk":3,"arthritis_risk":5,"migraine_risk":7,"frizz_risk":0,"updated_at":"2026-03-16T02:03:58.034318+05:30"},{"city":"Gangtok","state":"Sikkim","latitude":27.3314,"longitude":88.6138,"temp":11.4,"humidity":76,"rain":0.0,"pressure":833.5,"uv_index":7.8,"wind_gusts":20.9,"aqi":103,"pm10":61.2,"pm2_5":40.2,"mosquito_risk":3,"arthritis_risk":5,"migraine_risk":7,"frizz_risk":0,"updated_at":"2026-03-16T02:03:58.034324+05:30"},{"city":"Siliguri","state":"West Bengal","latitude":26.7271,"longitude":88.3953,"temp":18.8,"humidity":85,"rain":0.0,"pressure":993.6,"uv_index":6.75,"wind_gusts":30.6,"aqi":131,"pm10":81.7,"pm2_5":58.3,"mosquito_risk":3,"arthritis_risk":10,"migraine_risk":7,"frizz_risk":1,"updated_at":"2026-03-16T02:04:01.319977+05:30"},{"city":"Durgapur","state":"West Bengal","latitude":23.5204,"longitude":87.3119,"temp":23.5,"humidity":94,"rain":0.0,"pressure":994.3,"uv_index":7.85,"wind_gusts":42.5,"aqi":142,"pm10":64.0,"pm2_5":61.5,"mosquito_risk":3,"arthritis_risk":5,"migraine_risk":7,"frizz_risk":1,"updated_at":"2026-03-16T02:04:01.320009+05:30"},{"city":"Asansol","state":"West Bengal","latitude":23.6739,"longitude":86.9524,"temp":23.6,"humidity":91,"rain":0.0,"pressure":992.6,"uv_index":7.8,"wind_gusts":35.6,"aqi":150,"pm10":70.3,"pm2_5":65.9,"mosquito_risk":3,"arthritis_risk":5,"migraine_risk":7,"frizz_risk":1,"updated_at":"2026-03-16T02:04:01.320022+05:30"},{"city":"Pondicherry","state":"Puducherry","latitude":11.9139,"longitude":79.8145,"temp":23.9,"humidity":95,"rain":0.0,"pressure":1009.6,"uv_index":9.05,"wind_gusts":32.0,"aqi":32,"pm10":9.2,"pm2_5":6.3,"mosquito_risk":3,"arthritis_risk":0,"migraine_risk":4,"frizz_risk":1,"updated_at":"2026-03-16T02:04:01.320029+05:30"},{"city":"Port Blair","state":"Andaman and Nicobar Islands","latitude":11.6234,"longitude":92.7265,"temp":27.6,"humidity":81,"rain":0.0,"pressure":1007.2,"uv_index":9.0,"wind_gusts":20.2,"aqi":78,"pm10":15.8,"pm2_5":12.7,"mosquito_risk":7,"arthritis_risk":5,"migraine_risk":4,"frizz_risk":1,"updated_at":"2026-03-16T02:04:01.320036+05:30"},{"city":"Haridwar","state":"Uttarakhand","latitude":29.9457,"longitude":78.1642,"temp":17.0,"humidity":83,"rain":0.1,"pressure":978.6,"uv_index":5.85,"wind_gusts":36.0,"aqi":78,"pm10":27.0,"pm2_5":17.0,"mosquito_risk":6,"arthritis_risk":10,"migraine_risk":3,"frizz_risk":0,"updated_at":"2026-03-16T02:04:01.320043+05:30"},{"city":"Rishikesh","state":"Uttarakhand","latitude":30.0869,"longitude":78.2676,"temp":16.1,"humidity":86,"rain":0.2,"pressure":970.9,"uv_index":5.95,"wind_gusts":29.5,"aqi":65,"pm10":24.1,"pm2_5":14.1,"mosquito_risk":6,"arthritis_risk":10,"migraine_risk":3,"frizz_risk":0,"updated_at":"2026-03-16T02:04:01.320051+05:30"},{"city":"Nainital","state":"Uttarakhand","latitude":29.3919,"longitude":79.4542,"temp":14.1,"humidity":56,"rain":0.0,"pressure":804.7,"uv_index":6.75,"wind_gusts":83.9,"aqi":70,"pm10":24.3,"pm2_5":14.9,"mosquito_risk":0,"arthritis_risk":5,"migraine_risk":7,"frizz_risk":0,"updated_at":"2026-03-16T02:04:01.320058+05:30"},{"city":"Mussoorie","state":"Uttarakhand","latitude":30.4599,"longitude":78.0664,"temp":9.5,"humidity":81,"rain":0.0,"pressure":800.5,"uv_index":6.25,"wind_gusts":47.9,"aqi":70,"pm10":26.5,"pm2_5":13.7,"mosquito_risk":3,"arthritis_risk":10,"migraine_risk":7,"frizz_risk":0,"updated_at":"2026-03-16T02:04:01.320065+05:30"},{"city":"Dharamshala","state":"Himachal Pradesh","latitude":32.219,"longitude":76.3234,"temp":12.4,"humidity":69,"rain":0.0,"pressure":867.0,"uv_index":6.05,"wind_gusts":32.8,"aqi":45,"pm10":12.6,"pm2_5":5.0,"mosquito_risk":3,"arthritis_risk":5,"migraine_risk":7,"frizz_risk":0,"updated_at":"2026-03-16T02:04:01.320071+05:30"},{"city":"Dalhousie","state":"Himachal Pradesh","latitude":32.5387,"longitude":75.971,"temp":8.3,"humidity":70,"rain":0.0,"pressure":799.5,"uv_index":3.9,"wind_gusts":31.7,"aqi":71,"pm10":37.7,"pm2_5":23.1,"mosquito_risk":3,"arthritis_risk":5,"migraine_risk":3,"frizz_risk":0,"updated_at":"2026-03-16T02:04:01.320078+05:30"},{"city":"Patiala","state":"Punjab","latitude":30.3398,"longitude":76.3869,"temp":13.9,"humidity":93,"rain":0.0,"pressure":980.2,"uv_index":5.9,"wind_gusts":43.6,"aqi":101,"pm10":126.7,"pm2_5":32.9,"mosquito_risk":3,"arthritis_risk":10,"migraine_risk":3,"frizz_risk":0,"updated_at":"2026-03-16T02:04:01.320084+05:30"},{"city":"Bhatinda","state":"Punjab","latitude":30.211,"longitude":74.9455,"temp":15.2,"humidity":95,"rain":0.0,"pressure":984.6,"uv_index":6.6,"wind_gusts":32.0,"aqi":106,"pm10":257.0,"pm2_5":62.6,"mosquito_risk":3,"arthritis_risk":10,"migraine_risk":7,"frizz_risk":0,"updated_at":"2026-03-16T02:04:01.320091+05:30"},{"city":"Rohtak","state":"Haryana","latitude":28.8955,"longitude":76.6066,"temp":16.5,"humidity":88,"rain":0.0,"pressure":983.8,"uv_index":6.15,"wind_gusts":46.4,"aqi":315,"pm10":603.5,"pm2_5":88.9,"mosquito_risk":3,"arthritis_risk":10,"migraine_risk":7,"frizz_risk":0,"updated_at":"2026-03-16T02:04:01.320098+05:30"},{"city":"Panipat","state":"Haryana","latitude":29.3909,"longitude":76.9635,"temp":15.9,"humidity":87,"rain":0.0,"pressure":982.9,"uv_index":5.9,"wind_gusts":45.0,"aqi":186,"pm10":633.3,"pm2_5":79.2,"mosquito_risk":3,"arthritis_risk":10,"migraine_risk":3,"frizz_risk":0,"updated_at":"2026-03-16T02:04:01.320105+05:30"},{"city":"Mathura","state":"Uttar Pradesh","latitude":27.4924,"longitude":77.6737,"temp":17.5,"humidity":90,"rain":0.0,"pressure":987.8,"uv_index":6.4,"wind_gusts":34.6,"aqi":352,"pm10":841.9,"pm2_5":108.5,"mosquito_risk":3,"arthritis_risk":10,"migraine_risk":7,"frizz_risk":0,"updated_at":"2026-03-16T02:04:01.320111+05:30"},{"city":"Vrindavan","state":"Uttar Pradesh","latitude":27.5823,"longitude":77.7027,"temp":17.1,"humidity":90,"rain":0.0,"pressure":988.6,"uv_index":6.35,"wind_gusts":37.1,"aqi":352,"pm10":841.9,"pm2_5":108.5,"mosquito_risk":3,"arthritis_risk":10,"migraine_risk":7,"frizz_risk":0,"updated_at":"2026-03-16T02:04:01.320118+05:30"},{"city":"Ayodhya","state":"Uttar Pradesh","latitude":26.7922,"longitude":82.1998,"temp":18.9,"humidity":73,"rain":0.0,"pressure":995.9,"uv_index":6.6,"wind_gusts":51.5,"aqi":111,"pm10":44.8,"pm2_5":34.0,"mosquito_risk":3,"arthritis_risk":5,"migraine_risk":7,"frizz_risk":0,"updated_at":"2026-03-16T02:04:01.320124+05:30"},{"city":"Ratlam","state":"Madhya Pradesh","latitude":23.3315,"longitude":75.0367,"temp":24.1,"humidity":43,"rain":0.0,"pressure":954.4,"uv_index":7.6,"wind_gusts":34.9,"aqi":67,"pm10":35.7,"pm2_5":18.7,"mosquito_risk":0,"arthritis_risk":5,"migraine_risk":7,"frizz_risk":0,"updated_at":"2026-03-16T02:04:01.320130+05:30"},{"city":"Sagar","state":"Madhya Pradesh","latitude":23.8388,"longitude":78.7378,"temp":25.1,"humidity":39,"rain":0.0,"pressure":948.9,"uv_index":7.6,"wind_gusts":30.2,"aqi":57,"pm10":29.0,"pm2_5":17.6,"mosquito_risk":4,"arthritis_risk":5,"migraine_risk":7,"frizz_risk":0,"updated_at":"2026-03-16T02:04:01.320137+05:30"},{"city":"Satna","state":"Madhya Pradesh","latitude":24.6005,"longitude":80.8322,"temp":22.9,"humidity":62,"rain":0.0,"pressure":971.1,"uv_index":7.6,"wind_gusts":42.1,"aqi":75,"pm10":50.1,"pm2_5":35.4,"mosquito_risk":3,"arthritis_risk":5,"migraine_risk":7,"frizz_risk":0,"updated_at":"2026-03-16T02:04:01.320143+05:30"},{"city":"Akola","state":"Maharashtra","latitude":20.7002,"longitude":77.0082,"temp":25.6,"humidity":50,"rain":0.0,"pressure":974.6,"uv_index":8.0,"wind_gusts":24.8,"aqi":79,"pm10":32.8,"pm2_5":21.9,"mosquito_risk":4,"arthritis_risk":5,"migraine_risk":7,"frizz_risk":0,"updated_at":"2026-03-16T02:04:01.320150+05:30"},{"city":"Amravati","state":"Maharashtra","latitude":20.9374,"longitude":77.7796,"temp":23.9,"humidity":58,"rain":0.0,"pressure":966.5,"uv_index":7.8,"wind_gusts":30.2,"aqi":84,"pm10":32.5,"pm2_5":24.0,"mosquito_risk":0,"arthritis_risk":5,"migraine_risk":7,"frizz_risk":0,"updated_at":"2026-03-16T02:04:01.320157+05:30"},{"city":"Latur","state":"Maharashtra","latitude":18.4088,"longitude":76.5604,"temp":22.9,"humidity":55,"rain":0.0,"pressure":939.9,"uv_index":8.55,"wind_gusts":20.2,"aqi":102,"pm10":46.8,"pm2_5":39.9,"mosquito_risk":0,"arthritis_risk":5,"migraine_risk":7,"frizz_risk":0,"updated_at":"2026-03-16T02:04:01.320163+05:30"},{"city":"Nanded","state":"Maharashtra","latitude":19.1383,"longitude":77.3091,"temp":24.2,"humidity":60,"rain":0.0,"pressure":968.1,"uv_index":8.25,"wind_gusts":20.2,"aqi":122,"pm10":68.5,"pm2_5":60.8,"mosquito_risk":0,"arthritis_risk":5,"migraine_risk":7,"frizz_risk":0,"updated_at":"2026-03-16T02:04:01.320169+05:30"},{"city":"Gulbarga","state":"Karnataka","latitude":17.3297,"longitude":76.8343,"temp":25.3,"humidity":61,"rain":0.0,"pressure":958.9,"uv_index":8.65,"wind_gusts":34.6,"aqi":109,"pm10":44.8,"pm2_5":38.2,"mosquito_risk":7,"arthritis_risk":5,"migraine_risk":7,"frizz_risk":1,"updated_at":"2026-03-16T02:04:01.320175+05:30"},{"city":"Bidar","state":"Karnataka","latitude":17.9104,"longitude":77.5199,"temp":23.7,"humidity":65,"rain":0.0,"pressure":935.4,"uv_index":8.65,"wind_gusts":32.0,"aqi":101,"pm10":38.6,"pm2_5":33.5,"mosquito_risk":3,"arthritis_risk":5,"migraine_risk":7,"frizz_risk":1,"updated_at":"2026-03-16T02:04:01.320180+05:30"},{"city":"Hospet","state":"Karnataka","latitude":15.2689,"longitude":76.3909,"temp":25.7,"humidity":78,"rain":0.0,"pressure":956.8,"uv_index":8.9,"wind_gusts":21.2,"aqi":117,"pm10":53.0,"pm2_5":48.9,"mosquito_risk":7,"arthritis_risk":5,"migraine_risk":7,"frizz_risk":1,"updated_at":"2026-03-16T02:04:01.320186+05:30"},{"city":"Tirupur","state":"Tamil Nadu","latitude":11.1085,"longitude":77.3411,"temp":25.0,"humidity":85,"rain":0.0,"pressure":975.9,"uv_index":9.3,"wind_gusts":46.1,"aqi":59,"pm10":20.4,"pm2_5":19.4,"mosquito_risk":7,"arthritis_risk":5,"migraine_risk":7,"frizz_risk":1,"updated_at":"2026-03-16T02:04:01.320192+05:30"},{"city":"Alappuzha","state":"Kerala","latitude":9.4981,"longitude":76.3388,"temp":26.5,"humidity":87,"rain":0.0,"pressure":1009.5,"uv_index":9.1,"wind_gusts":30.6,"aqi":71,"pm10":29.7,"pm2_5":28.0,"mosquito_risk":7,"arthritis_risk":0,"migraine_risk":4,"frizz_risk":1,"updated_at":"2026-03-16T02:04:01.320198+05:30"},{"city":"Munnar","state":"Kerala","latitude":10.0889,"longitude":77.0595,"temp":18.9,"humidity":91,"rain":0.0,"pressure":856.1,"uv_index":9.6,"wind_gusts":32.4,"aqi":60,"pm10":26.7,"pm2_5":24.6,"mosquito_risk":3,"arthritis_risk":10,"migraine_risk":7,"frizz_risk":1,"updated_at":"2026-03-16T02:04:01.320204+05:30"},{"city":"Silchar","state":"Assam","latitude":24.8333,"longitude":92.7789,"temp":19.9,"humidity":93,"rain":0.0,"pressure":1008.0,"uv_index":7.9,"wind_gusts":42.5,"aqi":89,"pm10":37.3,"pm2_5":34.6,"mosquito_risk":3,"arthritis_risk":5,"migraine_risk":4,"frizz_risk":1,"updated_at":"2026-03-16T02:04:01.320210+05:30"},{"city":"Dibrugarh","state":"Assam","latitude":27.4728,"longitude":94.912,"temp":18.2,"humidity":94,"rain":0.1,"pressure":997.4,"uv_index":5.0,"wind_gusts":29.5,"aqi":73,"pm10":30.0,"pm2_5":22.6,"mosquito_risk":6,"arthritis_risk":10,"migraine_risk":3,"frizz_risk":1,"updated_at":"2026-03-16T02:04:01.320217+05:30"}]