[{"city":"Delhi","state":"Delhi","latitude":28.6139,"longitude":77.209,"temp":41.0,"humidity":14,"rain":0.0,"pressure":978.3,"uv_index":7.4,"wind_gusts":50.4,"aqi":516,"pm10":737.6,"pm2_5":83.8,"mosquito_risk":0,"arthritis_risk":5,"migraine_risk":10,"frizz_risk":0,"updated_at":"2026-04-26T15:25:39.009398+05:30"},{"city":"Mumbai","state":"Maharashtra","latitude":19.076,"longitude":72.8777,"temp":36.3,"humidity":45,"rain":0.0,"pressure":1004.4,"uv_index":7.6,"wind_gusts":34.9,"aqi":86,"pm10":61.2,"pm2_5":32.8,"mosquito_risk":0,"arthritis_risk":5,"migraine_risk":7,"frizz_risk":1,"updated_at":"2026-04-26T15:25:39.009443+05:30"},{"city":"Bangalore","state":"Karnataka","latitude":12.9716,"longitude":77.5946,"temp":36.2,"humidity":20,"rain":0.0,"pressure":910.6,"uv_index":9.6,"wind_gusts":37.8,"aqi":114,"pm10":41.9,"pm2_5":29.9,"mosquito_risk":0,"arthritis_risk":5,"migraine_risk":10,"frizz_risk":0,"updated_at":"2026-04-26T15:25:39.009458+05:30"},{"city":"Hyderabad","state":"Telangana","latitude":17.385,"longitude":78.4867,"temp":38.8,"humidity":21,"rain":0.0,"pressure":951.0,"uv_index":9.3,"wind_gusts":33.8,"aqi":95,"pm10":40.3,"pm2_5":32.6,"mosquito_risk":0,"arthritis_risk":5,"migraine_risk":10,"frizz_risk":0,"updated_at":"2026-04-26T15:25:39.009467+05:30"},{"city":"Chennai","state":"Tamil Nadu","latitude":13.0827,"longitude":80.2707,"temp":34.0,"humidity":49,"rain":0.0,"pressure":1004.4,"uv_index":9.25,"wind_gusts":51.8,"aqi":38,"pm10":20.4,"pm2_5":12.9,"mosquito_risk":0,"arthritis_risk":5,"migraine_risk":4,"frizz_risk":1,"updated_at":"2026-04-26T15:25:39.009475+05:30"},{"city":"Kolkata","state":"West Bengal","latitude":22.5726,"longitude":88.3639,"temp":34.5,"humidity":53,"rain":0.0,"pressure":1001.1,"uv_index":8.9,"wind_gusts":49.3,"aqi":64,"pm10":25.6,"pm2_5":17.2,"mosquito_risk":0,"arthritis_risk":5,"migraine_risk":4,"frizz_risk":1,"updated_at":"2026-04-26T15:25:39.009486+05:30"},{"city":"Pune","state":"Maharashtra","latitude":18.5204,"longitude":73.8567,"temp":40.5,"humidity":12,"rain":0.0,"pressure":945.7,"uv_index":8.45,"wind_gusts":39.2,"aqi":96,"pm10":27.3,"pm2_5":20.3,"mosquito_risk":0,"arthritis_risk":5,"migraine_risk":10,"frizz_risk":0,"updated_at":"2026-04-26T15:25:39.009492+05:30"},{"city":"Ahmedabad","state":"Gujarat","latitude":23.0225,"longitude":72.5714,"temp":44.0,"humidity":11,"rain":0.0,"pressure":997.4,"uv_index":8.2,"wind_gusts":38.9,"aqi":65,"pm10":38.6,"pm2_5":14.2,"mosquito_risk":0,"arthritis_risk":5,"migraine_risk":10,"frizz_risk":0,"updated_at":"2026-04-26T15:25:39.009499+05:30"},{"city":"Jaipur","state":"Rajasthan","latitude":26.9124,"longitude":75.7873,"temp":41.0,"humidity":13,"rain":0.0,"pressure":956.9,"uv_index":8.05,"wind_gusts":42.5,"aqi":131,"pm10":313.9,"pm2_5":41.2,"mosquito_risk":0,"arthritis_risk":5,"migraine_risk":10,"frizz_risk":0,"updated_at":"2026-04-26T15:25:39.009505+05:30"},{"city":"Lucknow","state":"Uttar Pradesh","latitude":26.8467,"longitude":80.9462,"temp":42.7,"humidity":13,"rain":0.0,"pressure":986.9,"uv_index":7.9,"wind_gusts":51.8,"aqi":151,"pm10":165.3,"pm2_5":40.0,"mosquito_risk":0,"arthritis_risk":5,"migraine_risk":10,"frizz_risk":0,"updated_at":"2026-04-26T15:25:39.009511+05:30"},{"city":"Kanpur","state":"Uttar Pradesh","latitude":26.4499,"longitude":80.3319,"temp":43.4,"humidity":13,"rain":0.0,"pressure":985.6,"uv_index":7.9,"wind_gusts":54.0,"aqi":392,"pm10":555.1,"pm2_5":69.4,"mosquito_risk":0,"arthritis_risk":5,"migraine_risk":10,"frizz_risk":0,"updated_at":"2026-04-26T15:25:39.009518+05:30"},{"city":"Chandigarh","state":"Chandigarh","latitude":30.7333,"longitude":76.7794,"temp":38.0,"humidity":15,"rain":0.0,"pressure":964.7,"uv_index":7.4,"wind_gusts":44.3,"aqi":70,"pm10":39.0,"pm2_5":14.4,"mosquito_risk":0,"arthritis_risk":5,"migraine_risk":10,"frizz_risk":0,"updated_at":"2026-04-26T15:25:39.009524+05:30"},{"city":"Srinagar","state":"Jammu and Kashmir","latitude":34.0837,"longitude":74.7973,"temp":23.4,"humidity":41,"rain":0.0,"pressure":843.3,"uv_index":8.6,"wind_gusts":15.8,"aqi":79,"pm10":17.5,"pm2_5":7.6,"mosquito_risk":0,"arthritis_risk":5,"migraine_risk":7,"frizz_risk":0,"updated_at":"2026-04-26T15:25:39.009530+05:30"},{"city":"Jammu","state":"Jammu and Kashmir","latitude":32.7266,"longitude":74.857,"temp":37.0,"humidity":16,"rain":0.0,"pressure":969.0,"uv_index":8.15,"wind_gusts":34.6,"aqi":76,"pm10":41.0,"pm2_5":13.2,"mosquito_risk":0,"arthritis_risk":5,"migraine_risk":10,"frizz_risk":0,"updated_at":"2026-04-26T15:25:39.009536+05:30"},{"city":"Amritsar","state":"Punjab","latitude":31.634,"longitude":74.8723,"temp":39.1,"humidity":15,"rain":0.0,"pressure":976.8,"uv_index":8.1,"wind_gusts":36.7,"aqi":93,"pm10":21.6,"pm2_5":9.8,"mosquito_risk":0,"arthritis_risk":5,"migraine_risk":10,"frizz_risk":0,"updated_at":"2026-04-26T15:25:39.009542+05:30"},{"city":"Ludhiana","state":"Punjab","latitude":30.901,"longitude":75.8573,"temp":39.2,"humidity":14,"rain":0.0,"pressure":974.5,"uv_index":7.65,"wind_gusts":41.0,"aqi":84,"pm10":47.6,"pm2_5":13.4,"mosquito_risk":0,"arthritis_risk":5,"migraine_risk":10,"frizz_risk":0,"updated_at":"2026-04-26T15:25:39.009550+05:30"},{"city":"Jalandhar","state":"Punjab","latitude":31.326,"longitude":75.5762,"temp":38.4,"humidity":15,"rain":0.0,"pressure":975.6,"uv_index":7.85,"wind_gusts":37.8,"aqi":93,"pm10":56.5,"pm2_5":14.0,"mosquito_risk":0,"arthritis_risk":5,"migraine_risk":10,"frizz_risk":0,"updated_at":"2026-04-26T15:25:39.009555+05:30"},{"city":"Dehradun","state":"Uttarakhand","latitude":30.6284,"longitude":78.0322,"temp":29.0,"humidity":15,"rain":0.0,"pressure":830.7,"uv_index":7.8,"wind_gusts":49.3,"aqi":54,"pm10":57.2,"pm2_5":15.0,"mosquito_risk":4,"arthritis_risk":5,"migraine_risk":7,"frizz_risk":0,"updated_at":"2026-04-26T15:25:39.009561+05:30"},{"city":"Shimla","state":"Himachal Pradesh","latitude":31.1048,"longitude":77.1734,"temp":23.6,"humidity":17,"rain":0.0,"pressure":786.8,"uv_index":7.9,"wind_gusts":52.2,"aqi":58,"pm10":49.2,"pm2_5":13.9,"mosquito_risk":0,"arthritis_risk":5,"migraine_risk":7,"frizz_risk":1,"updated_at":"2026-04-26T15:25:39.009567+05:30"},{"city":"Manali","state":"Himachal Pradesh","latitude":32.2396,"longitude":77.1887,"temp":21.8,"humidity":29,"rain":0.0,"pressure":818.6,"uv_index":9.8,"wind_gusts":45.0,"aqi":80,"pm10":22.6,"pm2_5":6.5,"mosquito_risk":0,"arthritis_risk":5,"migraine_risk":7,"frizz_risk":0,"updated_at":"2026-04-26T15:25:39.009572+05:30"},{"city":"Gurgaon","state":"Haryana","latitude":28.4595,"longitude":77.0266,"temp":40.2,"humidity":16,"rain":0.0,"pressure":977.4,"uv_index":7.55,"wind_gusts":50.8,"aqi":1450,"pm10":2108.5,"pm2_5":198.4,"mosquito_risk":0,"arthritis_risk":5,"migraine_risk":10,"frizz_risk":0,"updated_at":"2026-04-26T15:25:39.009578+05:30"},{"city":"Noida","state":"Uttar Pradesh","latitude":28.5355,"longitude":77.391,"temp":41.3,"humidity":15,"rain":0.0,"pressure":979.2,"uv_index":7.45,"wind_gusts":45.7,"aqi":1450,"pm10":2108.5,"pm2_5":198.4,"mosquito_risk":0,"arthritis_risk":5,"migraine_risk":10,"frizz_risk":0,"updated_at":"2026-04-26T15:25:39.009584+05:30"},{"city":"Ghaziabad","state":"Uttar Pradesh","latitude":28.6692,"longitude":77.4538,"temp":41.5,"humidity":14,"rain":0.0,"pressure":977.5,"uv_index":7.4,"wind_gusts":49.7,"aqi":404,"pm10":568.1,"pm2_5":68.7,"mosquito_risk":0,"arthritis_risk":5,"migraine_risk":10,"frizz_risk":0,"updated_at":"2026-04-26T15:25:39.009589+05:30"},{"city":"Faridabad","state":"Haryana","latitude":28.4089,"longitude":77.3178,"temp":40.9,"humidity":14,"rain":0.0,"pressure":978.9,"uv_index":7.5,"wind_gusts":55.1,"aqi":1450,"pm10":2108.5,"pm2_5":198.4,"mosquito_risk":0,"arthritis_risk":5,"migraine_risk":10,"frizz_risk":0,"updated_at":"2026-04-26T15:25:39.009595+05:30"},{"city":"Meerut","state":"Uttar Pradesh","latitude":28.9845,"longitude":77.7064,"temp":40.4,"humidity":15,"rain":0.0,"pressure":975.9,"uv_index":7.35,"wind_gusts":48.6,"aqi":404,"pm10":568.1,"pm2_5":68.7,"mosquito_risk":0,"arthritis_risk":5,"migraine_risk":10,"frizz_risk":0,"updated_at":"2026-04-26T15:25:39.009600+05:30"},{"city":"Agra","state":"Uttar Pradesh","latitude":27.1767,"longitude":78.0081,"temp":42.0,"humidity":13,"rain":0.0,"pressure":983.0,"uv_index":7.8,"wind_gusts":49.7,"aqi":1017,"pm10":1024.5,"pm2_5":99.7,"mosquito_risk":0,"arthritis_risk":5,"migraine_risk":10,"frizz_risk":0,"updated_at":"2026-04-26T15:25:39.009607+05:30"},{"city":"Varanasi","state":"Uttar Pradesh","latitude":25.3176,"longitude":82.9739,"temp":44.0,"humidity":12,"rain":0.0,"pressure":990.0,"uv_index":8.5,"wind_gusts":45.0,"aqi":150,"pm10":162.5,"pm2_5":37.5,"mosquito_risk":0,"arthritis_risk":5,"migraine_risk":10,"frizz_risk":0,"updated_at":"2026-04-26T15:25:39.009613+05:30"},{"city":"Prayagraj","state":"Uttar Pradesh","latitude":25.4358,"longitude":81.8463,"temp":42.8,"humidity":13,"rain":0.0,"pressure":989.3,"uv_index":8.4,"wind_gusts":50.8,"aqi":135,"pm10":133.2,"pm2_5":37.0,"mosquito_risk":0,"arthritis_risk":5,"migraine_risk":10,"frizz_risk":0,"updated_at":"2026-04-26T15:25:39.009619+05:30"},{"city":"Gorakhpur","state":"Uttar Pradesh","latitude":26.7606,"longitude":83.3732,"temp":37.5,"humidity":28,"rain":0.0,"pressure":991.7,"uv_index":8.35,"wind_gusts":42.5,"aqi":154,"pm10":101.0,"pm2_5":48.0,"mosquito_risk":0,"arthritis_risk":5,"migraine_risk":10,"frizz_risk":0,"updated_at":"2026-04-26T15:25:39.009625+05:30"},{"city":"Bareilly","state":"Uttar Pradesh","latitude":28.367,"longitude":79.4304,"temp":40.8,"humidity":16,"rain":0.0,"pressure":980.7,"uv_index":7.65,"wind_gusts":47.5,"aqi":124,"pm10":95.7,"pm2_5":30.0,"mosquito_risk":0,"arthritis_risk":5,"migraine_risk":10,"frizz_risk":0,"updated_at":"2026-04-26T15:25:39.009630+05:30"},{"city":"Aligarh","state":"Uttar Pradesh","latitude":27.8974,"longitude":78.088,"temp":40.8,"humidity":15,"rain":0.0,"pressure":980.5,"uv_index":7.6,"wind_gusts":52.6,"aqi":871,"pm10":1121.3,"pm2_5":117.3,"mosquito_risk":0,"arthritis_risk":5,"migraine_risk":10,"frizz_risk":0,"updated_at":"2026-04-26T15:25:39.009636+05:30"},{"city":"Moradabad","state":"Uttar Pradesh","latitude":28.8386,"longitude":78.7733,"temp":40.8,"humidity":15,"rain":0.0,"pressure":977.7,"uv_index":7.5,"wind_gusts":52.6,"aqi":139,"pm10":80.3,"pm2_5":25.0,"mosquito_risk":0,"arthritis_risk":5,"migraine_risk":10,"frizz_risk":0,"updated_at":"2026-04-26T15:25:39.009643+05:30"},{"city":"Saharanpur","state":"Uttar Pradesh","latitude":29.9637,"longitude":77.546,"temp":39.2,"humidity":14,"rain":0.0,"pressure":970.3,"uv_index":7.1,"wind_gusts":51.8,"aqi":95,"pm10":111.5,"pm2_5":24.2,"mosquito_risk":0,"arthritis_risk":5,"migraine_risk":10,"frizz_risk":0,"updated_at":"2026-04-26T15:25:39.009649+05:30"},{"city":"Jhansi","state":"Uttar Pradesh","latitude":25.4484,"longitude":78.5685,"temp":41.7,"humidity":14,"rain":0.0,"pressure":974.1,"uv_index":8.3,"wind_gusts":42.8,"aqi":106,"pm10":100.8,"pm2_5":27.2,"mosquito_risk":0,"arthritis_risk":5,"migraine_risk":10,"frizz_risk":0,"updated_at":"2026-04-26T15:25:42.345012+05:30"},{"city":"Surat","state":"Gujarat","latitude":21.1702,"longitude":72.8311,"temp":43.0,"humidity":14,"rain":0.0,"pressure":1002.2,"uv_index":7.85,"wind_gusts":35.3,"aqi":109,"pm10":80.8,"pm2_5":44.0,"mosquito_risk":0,"arthritis_risk":5,"migraine_risk":7,"frizz_risk":0,"updated_at":"2026-04-26T15:25:42.345041+05:30"},{"city":"Vadodara","state":"Gujarat","latitude":22.3072,"longitude":73.1812,"temp":44.3,"humidity":12,"rain":0.0,"pressure":999.4,"uv_index":8.15,"wind_gusts":42.5,"aqi":74,"pm10":39.8,"pm2_5":18.8,"mosquito_risk":0,"arthritis_risk":5,"migraine_risk":10,"frizz_risk":0,"updated_at":"2026-04-26T15:25:42.345077+05:30"},{"city":"Rajkot","state":"Gujarat","latitude":22.3039,"longitude":70.8022,"temp":42.2,"humidity":13,"rain":0.0,"pressure":991.0,"uv_index":7.85,"wind_gusts":39.2,"aqi":60,"pm10":63.8,"pm2_5":17.3,"mosquito_risk":0,"arthritis_risk":5,"migraine_risk":10,"frizz_risk":0,"updated_at":"2026-04-26T15:25:42.345086+05:30"},{"city":"Thane","state":"Maharashtra","latitude":19.2183,"longitude":72.9781,"temp":41.0,"humidity":24,"rain":0.0,"pressure":1003.4,"uv_index":7.55,"wind_gusts":31.0,"aqi":86,"pm10":61.2,"pm2_5":32.8,"mosquito_risk":0,"arthritis_risk":5,"migraine_risk":7,"frizz_risk":1,"updated_at":"2026-04-26T15:25:42.345094+05:30"},{"city":"Nagpur","state":"Maharashtra","latitude":21.1458,"longitude":79.0882,"temp":44.0,"humidity":10,"rain":0.0,"pressure":968.4,"uv_index":8.9,"wind_gusts":38.5,"aqi":140,"pm10":29.0,"pm2_5":19.6,"mosquito_risk":0,"arthritis_risk":5,"migraine_risk":10,"frizz_risk":0,"updated_at":"2026-04-26T15:25:42.345102+05:30"},{"city":"Nashik","state":"Maharashtra","latitude":19.9975,"longitude":73.7898,"temp":40.0,"humidity":14,"rain":0.0,"pressure":943.7,"uv_index":8.1,"wind_gusts":36.7,"aqi":83,"pm10":31.2,"pm2_5":19.3,"mosquito_risk":0,"arthritis_risk":5,"migraine_risk":10,"frizz_risk":0,"updated_at":"2026-04-26T15:25:42.345110+05:30"},{"city":"Aurangabad","state":"Maharashtra","latitude":19.8762,"longitude":75.3433,"temp":40.8,"humidity":11,"rain":0.0,"pressure":941.9,"uv_index":9.05,"wind_gusts":29.5,"aqi":98,"pm10":21.1,"pm2_5":13.2,"mosquito_risk":0,"arthritis_risk":5,"migraine_risk":10,"frizz_risk":0,"updated_at":"2026-04-26T15:25:42.345118+05:30"},{"city":"Solapur","state":"Maharashtra","latitude":17.6599,"longitude":75.9064,"temp":40.5,"humidity":17,"rain":0.0,"pressure":954.2,"uv_index":9.1,"wind_gusts":24.8,"aqi":124,"pm10":44.2,"pm2_5":34.8,"mosquito_risk":0,"arthritis_risk":5,"migraine_risk":10,"frizz_risk":0,"updated_at":"2026-04-26T15:25:42.345125+05:30"},{"city":"Kolhapur","state":"Maharashtra","latitude":16.705,"longitude":74.2433,"temp":37.6,"humidity":20,"rain":0.0,"pressure":945.7,"uv_index":9.0,"wind_gusts":49.3,"aqi":133,"pm10":41.6,"pm2_5":34.9,"mosquito_risk":0,"arthritis_risk":5,"migraine_risk":10,"frizz_risk":0,"updated_at":"2026-04-26T15:25:42.345132+05:30"},{"city":"Goa","state":"Goa","latitude":15.2993,"longitude":74.124,"temp":36.2,"humidity":50,"rain":0.0,"pressure":994.9,"uv_index":8.95,"wind_gusts":39.6,"aqi":86,"pm10":35.0,"pm2_5":24.7,"mosquito_risk":0,"arthritis_risk":5,"migraine_risk":10,"frizz_risk":1,"updated_at":"2026-04-26T15:25:42.345140+05:30"},{"city":"Jodhpur","state":"Rajasthan","latitude":26.2389,"longitude":73.0243,"temp":42.8,"humidity":12,"rain":0.0,"pressure":979.0,"uv_index":8.3,"wind_gusts":35.6,"aqi":77,"pm10":114.1,"pm2_5":19.0,"mosquito_risk":0,"arthritis_risk":5,"migraine_risk":10,"frizz_risk":0,"updated_at":"2026-04-26T15:25:42.345147+05:30"},{"city":"Udaipur","state":"Rajasthan","latitude":24.5854,"longitude":73.7125,"temp":39.0,"humidity":14,"rain":0.0,"pressure":944.7,"uv_index":8.75,"wind_gusts":29.9,"aqi":52,"pm10":29.0,"pm2_5":9.4,"mosquito_risk":0,"arthritis_risk":5,"migraine_risk":10,"frizz_risk":0,"updated_at":"2026-04-26T15:25:42.345154+05:30"},{"city":"Kota","state":"Rajasthan","latitude":25.2138,"longitude":75.8648,"temp":42.8,"humidity":13,"rain":0.0,"pressure":975.0,"uv_index":8.3,"wind_gusts":32.0,"aqi":93,"pm10":111.8,"pm2_5":25.3,"mosquito_risk":0,"arthritis_risk":5,"migraine_risk":10,"frizz_risk":0,"updated_at":"2026-04-26T15:25:42.345160+05:30"},{"city":"Bikaner","state":"Rajasthan","latitude":28.0229,"longitude":73.3119,"temp":43.0,"humidity":12,"rain":0.0,"pressure":977.6,"uv_index":8.15,"wind_gusts":35.3,"aqi":74,"pm10":99.9,"pm2_5":20.9,"mosquito_risk":0,"arthritis_risk":5,"migraine_risk":10,"frizz_risk":0,"updated_at":"2026-04-26T15:25:42.345168+05:30"},{"city":"Ajmer","state":"Rajasthan","latitude":26.4499,"longitude":74.6399,"temp":40.5,"humidity":13,"rain":0.0,"pressure":952.2,"uv_index":8.25,"wind_gusts":41.0,"aqi":72,"pm10":79.2,"pm2_5":17.5,"mosquito_risk":0,"arthritis_risk":5,"migraine_risk":10,"frizz_risk":0,"updated_at":"2026-04-26T15:25:42.345174+05:30"},{"city":"Gwalior","state":"Madhya Pradesh","latitude":26.2183,"longitude":78.1828,"temp":42.6,"humidity":13,"rain":0.0,"pressure":978.7,"uv_index":8.05,"wind_gusts":49.7,"aqi":128,"pm10":92.9,"pm2_5":25.4,"mosquito_risk":0,"arthritis_risk":5,"migraine_risk":10,"frizz_risk":0,"updated_at":"2026-04-26T15:25:42.345181+05:30"},{"city":"Indore","state":"Madhya Pradesh","latitude":22.7196,"longitude":75.8577,"temp":35.8,"humidity":24,"rain":0.0,"pressure":946.6,"uv_index":8.65,"wind_gusts":49.7,"aqi":70,"pm10":48.5,"pm2_5":15.7,"mosquito_risk":0,"arthritis_risk":5,"migraine_risk":10,"frizz_risk":0,"updated_at":"2026-04-26T15:25:42.345188+05:30"},{"city":"Bhopal","state":"Madhya Pradesh","latitude":23.2599,"longitude":77.4126,"temp":40.5,"humidity":14,"rain":0.0,"pressure":951.3,"uv_index":8.65,"wind_gusts":39.6,"aqi":89,"pm10":76.4,"pm2_5":22.8,"mosquito_risk":0,"arthritis_risk":5,"migraine_risk":10,"frizz_risk":0,"updated_at":"2026-04-26T15:25:42.345194+05:30"},{"city":"Jabalpur","state":"Madhya Pradesh","latitude":23.1815,"longitude":79.9864,"temp":42.0,"humidity":12,"rain":0.0,"pressure":957.9,"uv_index":8.7,"wind_gusts":39.6,"aqi":99,"pm10":205.8,"pm2_5":38.1,"mosquito_risk":0,"arthritis_risk":5,"migraine_risk":10,"frizz_risk":0,"updated_at":"2026-04-26T15:25:42.345201+05:30"},{"city":"Ujjain","state":"Madhya Pradesh","latitude":23.1765,"longitude":75.7885,"temp":41.2,"humidity":13,"rain":0.0,"pressure":951.3,"uv_index":8.55,"wind_gusts":37.4,"aqi":71,"pm10":55.4,"pm2_5":17.6,"mosquito_risk":0,"arthritis_risk":5,"migraine_risk":10,"frizz_risk":0,"updated_at":"2026-04-26T15:25:42.345208+05:30"},{"city":"Visakhapatnam","state":"Andhra Pradesh","latitude":17.6868,"longitude":83.2185,"temp":32.9,"humidity":61,"rain":0.0,"pressure":1000.6,"uv_index":9.05,"wind_gusts":48.2,"aqi":56,"pm10":23.4,"pm2_5":15.4,"mosquito_risk":3,"arthritis_risk":5,"migraine_risk":4,"frizz_risk":1,"updated_at":"2026-04-26T15:25:42.345216+05:30"},{"city":"Vijayawada","state":"Andhra Pradesh","latitude":16.5062,"longitude":80.648,"temp":38.5,"humidity":29,"rain":0.0,"pressure":999.3,"uv_index":8.8,"wind_gusts":39.6,"aqi":54,"pm10":32.9,"pm2_5":21.9,"mosquito_risk":0,"arthritis_risk":5,"migraine_risk":10,"frizz_risk":1,"updated_at":"2026-04-26T15:25:42.345223+05:30"},{"city":"Guntur","state":"Andhra Pradesh","latitude":16.3067,"longitude":80.4365,"temp":37.7,"humidity":31,"rain":0.0,"pressure":1000.5,"uv_index":8.9,"wind_gusts":42.1,"aqi":56,"pm10":39.5,"pm2_5":26.1,"mosquito_risk":0,"arthritis_risk":5,"migraine_risk":7,"frizz_risk":1,"updated_at":"2026-04-26T15:25:42.345230+05:30"},{"city":"Nellore","state":"Andhra Pradesh","latitude":14.4426,"longitude":79.9865,"temp":36.0,"humidity":50,"rain":0.0,"pressure":1002.2,"uv_index":9.1,"wind_gusts":45.0,"aqi":51,"pm10":28.9,"pm2_5":21.1,"mosquito_risk":0,"arthritis_risk":5,"migraine_risk":7,"frizz_risk":1,"updated_at":"2026-04-26T15:25:42.345237+05:30"},{"city":"Kurnool","state":"Andhra Pradesh","latitude":15.8281,"longitude":78.0373,"temp":41.8,"humidity":15,"rain":0.0,"pressure":973.0,"uv_index":9.2,"wind_gusts":33.5,"aqi":93,"pm10":39.9,"pm2_5":31.2,"mosquito_risk":0,"arthritis_risk":5,"migraine_risk":10,"frizz_risk":0,"updated_at":"2026-04-26T15:25:42.345245+05:30"},{"city":"Kakinada","state":"Andhra Pradesh","latitude":16.9891,"longitude":82.2475,"temp":37.7,"humidity":39,"rain":0.0,"pressure":1004.0,"uv_index":8.9,"wind_gusts":42.1,"aqi":45,"pm10":21.9,"pm2_5":12.2,"mosquito_risk":0,"arthritis_risk":5,"migraine_risk":7,"frizz_risk":1,"updated_at":"2026-04-26T15:25:42.345252+05:30"},{"city":"Tirupati","state":"Andhra Pradesh","latitude":13.6288,"longitude":79.4192,"temp":39.9,"humidity":19,"rain":0.0,"pressure":987.4,"uv_index":9.35,"wind_gusts":41.4,"aqi":64,"pm10":32.9,"pm2_5":25.2,"mosquito_risk":0,"arthritis_risk":5,"migraine_risk":10,"frizz_risk":0,"updated_at":"2026-04-26T15:25:42.345259+05:30"},{"city":"Warangal","state":"Telangana","latitude":17.9689,"longitude":79.5941,"temp":40.4,"humidity":20,"rain":0.0,"pressure":975.5,"uv_index":8.95,"wind_gusts":36.7,"aqi":83,"pm10":36.3,"pm2_5":29.0,"mosquito_risk":0,"arthritis_risk":5,"migraine_risk":10,"frizz_risk":0,"updated_at":"2026-04-26T15:25:42.345266+05:30"},{"city":"Nizamabad","state":"Telangana","latitude":18.6725,"longitude":78.0941,"temp":41.0,"humidity":16,"rain":0.0,"pressure":961.6,"uv_index":8.75,"wind_gusts":30.6,"aqi":116,"pm10":41.3,"pm2_5":33.2,"mosquito_risk":0,"arthritis_risk":5,"migraine_risk":10,"frizz_risk":0,"updated_at":"2026-04-26T15:25:42.345272+05:30"},{"city":"Mysore","state":"Karnataka","latitude":12.2958,"longitude":76.6396,"temp":35.1,"humidity":25,"rain":0.0,"pressure":926.8,"uv_index":9.45,"wind_gusts":40.3,"aqi":82,"pm10":38.8,"pm2_5":27.1,"mosquito_risk":0,"arthritis_risk":5,"migraine_risk":10,"frizz_risk":0,"updated_at":"2026-04-26T15:25:42.345279+05:30"},{"city":"Mangalore","state":"Karnataka","latitude":12.9141,"longitude":74.856,"temp":32.4,"humidity":66,"rain":0.0,"pressure":1003.8,"uv_index":9.1,"wind_gusts":37.8,"aqi":73,"pm10":27.3,"pm2_5":20.8,"mosquito_risk":3,"arthritis_risk":5,"migraine_risk":4,"frizz_risk":1,"updated_at":"2026-04-26T15:25:42.345286+05:30"},{"city":"Hubli-Dharwad","state":"Karnataka","latitude":15.3647,"longitude":75.124,"temp":39.1,"humidity":22,"rain":0.0,"pressure":938.5,"uv_index":9.05,"wind_gusts":57.2,"aqi":103,"pm10":43.5,"pm2_5":35.6,"mosquito_risk":0,"arthritis_risk":5,"migraine_risk":10,"frizz_risk":0,"updated_at":"2026-04-26T15:25:42.345294+05:30"},{"city":"Belgaum","state":"Karnataka","latitude":15.8497,"longitude":74.4977,"temp":29.5,"humidity":57,"rain":0.0,"pressure":924.7,"uv_index":8.85,"wind_gusts":45.7,"aqi":144,"pm10":45.8,"pm2_5":37.5,"mosquito_risk":4,"arthritis_risk":5,"migraine_risk":7,"frizz_risk":1,"updated_at":"2026-04-26T15:25:45.687780+05:30"},{"city":"Coimbatore","state":"Tamil Nadu","latitude":11.0168,"longitude":76.9558,"temp":38.3,"humidity":19,"rain":0.0,"pressure":959.0,"uv_index":9.35,"wind_gusts":37.8,"aqi":77,"pm10":28.3,"pm2_5":21.2,"mosquito_risk":0,"arthritis_risk":5,"migraine_risk":10,"frizz_risk":0,"updated_at":"2026-04-26T15:25:45.687809+05:30"},{"city":"Madurai","state":"Tamil Nadu","latitude":9.9252,"longitude":78.1198,"temp":39.6,"humidity":25,"rain":0.0,"pressure":989.3,"uv_index":9.25,"wind_gusts":39.6,"aqi":53,"pm10":10.1,"pm2_5":9.0,"mosquito_risk":0,"arthritis_risk":5,"migraine_risk":10,"frizz_risk":0,"updated_at":"2026-04-26T15:25:45.687818+05:30"},{"city":"Trichy","state":"Tamil Nadu","latitude":10.7905,"longitude":78.7047,"temp":38.2,"humidity":29,"rain":0.0,"pressure":996.1,"uv_index":9.25,"wind_gusts":32.4,"aqi":52,"pm10":13.5,"pm2_5":11.2,"mosquito_risk":0,"arthritis_risk":5,"migraine_risk":10,"frizz_risk":1,"updated_at":"2026-04-26T15:25:45.687826+05:30"},{"city":"Salem","state":"Tamil Nadu","latitude":11.6643,"longitude":78.146,"temp":39.3,"humidity":18,"rain":0.0,"pressure":973.9,"uv_index":9.35,"wind_gusts":41.4,"aqi":69,"pm10":25.0,"pm2_5":18.9,"mosquito_risk":0,"arthritis_risk":5,"migraine_risk":10,"frizz_risk":0,"updated_at":"2026-04-26T15:25:45.687833+05:30"},{"city":"Tirunelveli","state":"Tamil Nadu","latitude":8.7139,"longitude":77.7567,"temp":38.3,"humidity":31,"rain":0.0,"pressure":999.4,"uv_index":9.2,"wind_gusts":37.4,"aqi":48,"pm10":10.5,"pm2_5":10.1,"mosquito_risk":0,"arthritis_risk":5,"migraine_risk":10,"frizz_risk":1,"updated_at":"2026-04-26T15:25:45.687840+05:30"},{"city":"Vellore","state":"Tamil Nadu","latitude":12.9165,"longitude":79.1325,"temp":39.0,"humidity":23,"rain":0.0,"pressure":981.2,"uv_index":9.35,"wind_gusts":37.1,"aqi":83,"pm10":33.8,"pm2_5":25.8,"mosquito_risk":0,"arthritis_risk":5,"migraine_risk":10,"frizz_risk":0,"updated_at":"2026-04-26T15:25:45.687848+05:30"},{"city":"Erode","state":"Tamil Nadu","latitude":11.341,"longitude":77.7172,"temp":39.8,"humidity":20,"rain":0.0,"pressure":985.3,"uv_index":9.3,"wind_gusts":38.9,"aqi":58,"pm10":20.1,"pm2_5":15.3,"mosquito_risk":0,"arthritis_risk":5,"migraine_risk":10,"frizz_risk":0,"updated_at":"2026-04-26T15:25:45.687855+05:30"},{"city":"Kochi","state":"Kerala","latitude":9.9312,"longitude":76.2673,"temp":32.2,"humidity":64,"rain":0.0,"pressure":1005.4,"uv_index":9.0,"wind_gusts":36.7,"aqi":75,"pm10":20.7,"pm2_5":18.4,"mosquito_risk":3,"arthritis_risk":5,"migraine_risk":4,"frizz_risk":1,"updated_at":"2026-04-26T15:25:45.687862+05:30"},{"city":"Thiruvananthapuram","state":"Kerala","latitude":8.5241,"longitude":76.9366,"temp":31.2,"humidity":64,"rain":0.0,"pressure":1005.2,"uv_index":8.85,"wind_gusts":33.1,"aqi":48,"pm10":12.2,"pm2_5":9.7,"mosquito_risk":3,"arthritis_risk":5,"migraine_risk":4,"frizz_risk":1,"updated_at":"2026-04-26T15:25:45.687869+05:30"},{"city":"Kozhikode","state":"Kerala","latitude":11.2588,"longitude":75.7804,"temp":30.9,"humidity":75,"rain":0.1,"pressure":1004.9,"uv_index":8.25,"wind_gusts":34.9,"aqi":58,"pm10":13.2,"pm2_5":10.9,"mosquito_risk":6,"arthritis_risk":5,"migraine_risk":4,"frizz_risk":1,"updated_at":"2026-04-26T15:25:45.687876+05:30"},{"city":"Thrissur","state":"Kerala","latitude":10.5276,"longitude":76.2144,"temp":32.9,"humidity":61,"rain":0.0,"pressure":1003.7,"uv_index":9.0,"wind_gusts":40.0,"aqi":71,"pm10":23.4,"pm2_5":19.7,"mosquito_risk":3,"arthritis_risk":5,"migraine_risk":4,"frizz_risk":1,"updated_at":"2026-04-26T15:25:45.687884+05:30"},{"city":"Kannur","state":"Kerala","latitude":11.8745,"longitude":75.3704,"temp":31.2,"humidity":71,"rain":0.0,"pressure":1004.7,"uv_index":9.0,"wind_gusts":37.4,"aqi":68,"pm10":21.3,"pm2_5":16.5,"mosquito_risk":3,"arthritis_risk":5,"migraine_risk":4,"frizz_risk":1,"updated_at":"2026-04-26T15:25:45.687891+05:30"},{"city":"Patna","state":"Bihar","latitude":25.5941,"longitude":85.1376,"temp":32.6,"humidity":53,"rain":0.0,"pressure":995.7,"uv_index":8.65,"wind_gusts":43.9,"aqi":151,"pm10":87.1,"pm2_5":57.9,"mosquito_risk":0,"arthritis_risk":5,"migraine_risk":7,"frizz_risk":1,"updated_at":"2026-04-26T15:25:45.687898+05:30"},{"city":"Gaya","state":"Bihar","latitude":24.7914,"longitude":85.0002,"temp":38.4,"humidity":24,"rain":0.0,"pressure":988.0,"uv_index":8.7,"wind_gusts":44.3,"aqi":162,"pm10":162.5,"pm2_5":44.9,"mosquito_risk":0,"arthritis_risk":5,"migraine_risk":10,"frizz_risk":0,"updated_at":"2026-04-26T15:25:45.687906+05:30"},{"city":"Muzaffarpur","state":"Bihar","latitude":26.1209,"longitude":85.3647,"temp":33.0,"humidity":49,"rain":0.0,"pressure":996.5,"uv_index":8.65,"wind_gusts":48.6,"aqi":152,"pm10":78.9,"pm2_5":58.6,"mosquito_risk":0,"arthritis_risk":5,"migraine_risk":7,"frizz_risk":1,"updated_at":"2026-04-26T15:25:45.687912+05:30"},{"city":"Bhagalpur","state":"Bihar","latitude":25.2425,"longitude":87.0117,"temp":36.0,"humidity":40,"rain":0.0,"pressure":996.1,"uv_index":8.6,"wind_gusts":38.5,"aqi":142,"pm10":62.9,"pm2_5":56.7,"mosquito_risk":0,"arthritis_risk":5,"migraine_risk":10,"frizz_risk":1,"updated_at":"2026-04-26T15:25:45.687919+05:30"},{"city":"Ranchi","state":"Jharkhand","latitude":23.3441,"longitude":85.3096,"temp":38.0,"humidity":16,"rain":0.0,"pressure":934.3,"uv_index":9.2,"wind_gusts":41.0,"aqi":153,"pm10":108.7,"pm2_5":25.6,"mosquito_risk":0,"arthritis_risk":5,"migraine_risk":10,"frizz_risk":0,"updated_at":"2026-04-26T15:25:45.687926+05:30"},{"city":"Jamshedpur","state":"Jharkhand","latitude":22.8046,"longitude":86.2029,"temp":42.0,"humidity":15,"rain":0.0,"pressure":984.7,"uv_index":8.85,"wind_gusts":41.0,"aqi":158,"pm10":80.6,"pm2_5":35.2,"mosquito_risk":0,"arthritis_risk":5,"migraine_risk":10,"frizz_risk":0,"updated_at":"2026-04-26T15:25:45.687933+05:30"},{"city":"Dhanbad","state":"Jharkhand","latitude":23.7957,"longitude":86.4304,"temp":37.0,"humidity":31,"rain":0.0,"pressure":974.8,"uv_index":8.95,"wind_gusts":43.2,"aqi":154,"pm10":113.4,"pm2_5":31.1,"mosquito_risk":0,"arthritis_risk":5,"migraine_risk":10,"frizz_risk":1,"updated_at":"2026-04-26T15:25:45.687940+05:30"},{"city":"Bokaro","state":"Jharkhand","latitude":23.6693,"longitude":86.1511,"temp":37.0,"humidity":28,"rain":0.0,"pressure":978.8,"uv_index":8.95,"wind_gusts":36.0,"aqi":152,"pm10":130.9,"pm2_5":31.5,"mosquito_risk":0,"arthritis_risk":5,"migraine_risk":10,"frizz_risk":0,"updated_at":"2026-04-26T15:25:45.687946+05:30"},{"city":"Bhubaneswar","state":"Odisha","latitude":20.2961,"longitude":85.8245,"temp":32.8,"humidity":65,"rain":0.0,"pressure":998.4,"uv_index":9.05,"wind_gusts":52.2,"aqi":57,"pm10":26.0,"pm2_5":19.2,"mosquito_risk":3,"arthritis_risk":5,"migraine_risk":7,"frizz_risk":1,"updated_at":"2026-04-26T15:25:45.687953+05:30"},{"city":"Cuttack","state":"Odisha","latitude":20.4625,"longitude":85.8828,"temp":33.6,"humidity":62,"rain":0.0,"pressure":999.9,"uv_index":9.05,"wind_gusts":49.7,"aqi":57,"pm10":26.0,"pm2_5":19.2,"mosquito_risk":3,"arthritis_risk":5,"migraine_risk":7,"frizz_risk":1,"updated_at":"2026-04-26T15:25:45.687960+05:30"},{"city":"Rourkela","state":"Odisha","latitude":22.2604,"longitude":84.8536,"temp":41.7,"humidity":14,"rain":0.0,"pressure":979.6,"uv_index":8.6,"wind_gusts":45.7,"aqi":191,"pm10":80.8,"pm2_5":34.5,"mosquito_risk":0,"arthritis_risk":5,"migraine_risk":10,"frizz_risk":0,"updated_at":"2026-04-26T15:25:45.687967+05:30"},{"city":"Raipur","state":"Chhattisgarh","latitude":21.2514,"longitude":81.6296,"temp":43.0,"humidity":13,"rain":0.0,"pressure":970.0,"uv_index":8.95,"wind_gusts":41.0,"aqi":153,"pm10":27.8,"pm2_5":21.7,"mosquito_risk":0,"arthritis_risk":5,"migraine_risk":10,"frizz_risk":0,"updated_at":"2026-04-26T15:25:45.687974+05:30"},{"city":"Bhilai","state":"Chhattisgarh","latitude":21.1938,"longitude":81.3509,"temp":42.5,"humidity":13,"rain":0.0,"pressure":970.6,"uv_index":9.0,"wind_gusts":44.3,"aqi":139,"pm10":28.4,"pm2_5":20.4,"mosquito_risk":0,"arthritis_risk":5,"migraine_risk":10,"frizz_risk":0,"updated_at":"2026-04-26T15:25:45.687981+05:30"},{"city":"Guwahati","state":"Assam","latitude":26.1158,"longitude":91.7086,"temp":27.3,"humidity":67,"rain":0.0,"pressure":999.0,"uv_index":3.8,"wind_gusts":40.3,"aqi":139,"pm10":53.4,"pm2_5":36.7,"mosquito_risk":7,"arthritis_risk":5,"migraine_risk":3,"frizz_risk":1,"updated_at":"2026-04-26T15:25:45.687987+05:30"},{"city":"Agartala","state":"Tripura","latitude":23.8315,"longitude":91.2868,"temp":32.7,"humidity":53,"rain":0.0,"pressure":1002.4,"uv_index":8.8,"wind_gusts":36.4,"aqi":110,"pm10":35.5,"pm2_5":22.2,"mosquito_risk":0,"arthritis_risk":5,"migraine_risk":4,"frizz_risk":1,"updated_at":"2026-04-26T15:25:45.687994+05:30"},{"city":"Shillong","state":"Meghalaya","latitude":25.5788,"longitude":91.8933,"temp":21.1,"humidity":66,"rain":0.0,"pressure":855.3,"uv_index":4.1,"wind_gusts":45.4,"aqi":125,"pm10":53.8,"pm2_5":33.6,"mosquito_risk":3,"arthritis_risk":5,"migraine_risk":3,"frizz_risk":0,"updated_at":"2026-04-26T15:25:45.688001+05:30"},{"city":"Imphal","state":"Manipur","latitude":24.817,"longitude":93.9368,"temp":26.9,"humidity":54,"rain":0.0,"pressure":921.4,"uv_index":5.7,"wind_gusts":32.4,"aqi":152,"pm10":94.3,"pm2_5":44.1,"mosquito_risk":4,"arthritis_risk":5,"migraine_risk":3,"frizz_risk":1,"updated_at":"2026-04-26T15:25:45.688008+05:30"},{"city":"Aizawl","state":"Mizoram","latitude":23.7271,"longitude":92.7176,"temp":27.0,"humidity":48,"rain":0.0,"pressure":891.8,"uv_index":9.0,"wind_gusts":36.4,"aqi":112,"pm10":58.9,"pm2_5":28.0,"mosquito_risk":4,"arthritis_risk":5,"migraine_risk":7,"frizz_risk":0,"updated_at":"2026-04-26T15:25:45.688014+05:30"},{"city":"Kohima","state":"Nagaland","latitude":25.6701,"longitude":94.1077,"temp":21.8,"humidity":70,"rain":0.0,"pressure":854.1,"uv_index":6.95,"wind_gusts":35.6,"aqi":153,"pm10":105.5,"pm2_5":54.8,"mosquito_risk":3,"arthritis_risk":5,"migraine_risk":7,"frizz_risk":0,"updated_at":"2026-04-26T15:25:45.688021+05:30"},{"city":"Gangtok","state":"Sikkim","latitude":27.3314,"longitude":88.6138,"temp":17.9,"humidity":91,"rain":0.2,"pressure":835.7,"uv_index":8.0,"wind_gusts":42.1,"aqi":94,"pm10":53.3,"pm2_5":29.2,"mosquito_risk":6,"arthritis_risk":10,"migraine_risk":7,"frizz_risk":1,"updated_at":"2026-04-26T15:25:45.688028+05:30"},{"city":"Siliguri","state":"West Bengal","latitude":26.7271,"longitude":88.3953,"temp":28.0,"humidity":62,"rain":0.0,"pressure":990.1,"uv_index":8.4,"wind_gusts":33.1,"aqi":136,"pm10":68.5,"pm2_5":37.3,"mosquito_risk":7,"arthritis_risk":5,"migraine_risk":7,"frizz_risk":1,"updated_at":"2026-04-26T15:25:49.027390+05:30"},{"city":"Durgapur","state":"West Bengal","latitude":23.5204,"longitude":87.3119,"temp":28.6,"humidity":77,"rain":0.0,"pressure":990.6,"uv_index":8.9,"wind_gusts":38.9,"aqi":132,"pm10":87.8,"pm2_5":70.3,"mosquito_risk":7,"arthritis_risk":5,"migraine_risk":7,"frizz_risk":1,"updated_at":"2026-04-26T15:25:49.027420+05:30"},{"city":"Asansol","state":"West Bengal","latitude":23.6739,"longitude":86.9524,"temp":31.0,"humidity":65,"rain":0.0,"pressure":988.9,"uv_index":8.95,"wind_gusts":40.7,"aqi":155,"pm10":102.4,"pm2_5":48.1,"mosquito_risk":3,"arthritis_risk":5,"migraine_risk":7,"frizz_risk":1,"updated_at":"2026-04-26T15:25:49.027429+05:30"},{"city":"Pondicherry","state":"Puducherry","latitude":11.9139,"longitude":79.8145,"temp":32.2,"humidity":64,"rain":0.0,"pressure":1006.0,"uv_index":9.2,"wind_gusts":42.8,"aqi":32,"pm10":16.6,"pm2_5":10.8,"mosquito_risk":3,"arthritis_risk":5,"migraine_risk":4,"frizz_risk":1,"updated_at":"2026-04-26T15:25:49.027437+05:30"},{"city":"Port Blair","state":"Andaman and Nicobar Islands","latitude":11.6234,"longitude":92.7265,"temp":33.0,"humidity":51,"rain":0.0,"pressure":1004.8,"uv_index":9.1,"wind_gusts":34.9,"aqi":57,"pm10":18.3,"pm2_5":12.8,"mosquito_risk":0,"arthritis_risk":5,"migraine_risk":4,"frizz_risk":1,"updated_at":"2026-04-26T15:25:49.027445+05:30"},{"city":"Haridwar","state":"Uttarakhand","latitude":29.9457,"longitude":78.1642,"temp":38.0,"humidity":17,"rain":0.0,"pressure":968.2,"uv_index":7.2,"wind_gusts":45.7,"aqi":73,"pm10":53.1,"pm2_5":17.3,"mosquito_risk":0,"arthritis_risk":5,"migraine_risk":10,"frizz_risk":0,"updated_at":"2026-04-26T15:25:49.027453+05:30"},{"city":"Rishikesh","state":"Uttarakhand","latitude":30.0869,"longitude":78.2676,"temp":37.2,"humidity":18,"rain":0.0,"pressure":961.1,"uv_index":7.3,"wind_gusts":36.0,"aqi":67,"pm10":63.6,"pm2_5":18.8,"mosquito_risk":0,"arthritis_risk":5,"migraine_risk":10,"frizz_risk":0,"updated_at":"2026-04-26T15:25:49.027461+05:30"},{"city":"Nainital","state":"Uttarakhand","latitude":29.3919,"longitude":79.4542,"temp":23.8,"humidity":34,"rain":0.0,"pressure":806.0,"uv_index":8.15,"wind_gusts":52.2,"aqi":101,"pm10":78.9,"pm2_5":25.8,"mosquito_risk":0,"arthritis_risk":5,"migraine_risk":7,"frizz_risk":0,"updated_at":"2026-04-26T15:25:49.027469+05:30"},{"city":"Mussoorie","state":"Uttarakhand","latitude":30.4599,"longitude":78.0664,"temp":25.0,"humidity":21,"rain":0.0,"pressure":803.9,"uv_index":7.7,"wind_gusts":60.8,"aqi":63,"pm10":63.1,"pm2_5":19.4,"mosquito_risk":4,"arthritis_risk":5,"migraine_risk":7,"frizz_risk":0,"updated_at":"2026-04-26T15:25:49.027477+05:30"},{"city":"Dharamshala","state":"Himachal Pradesh","latitude":32.219,"longitude":76.3234,"temp":27.9,"humidity":25,"rain":0.0,"pressure":869.2,"uv_index":8.05,"wind_gusts":44.3,"aqi":52,"pm10":38.6,"pm2_5":10.8,"mosquito_risk":4,"arthritis_risk":5,"migraine_risk":7,"frizz_risk":0,"updated_at":"2026-04-26T15:25:49.027484+05:30"},{"city":"Dalhousie","state":"Himachal Pradesh","latitude":32.5387,"longitude":75.971,"temp":23.7,"humidity":29,"rain":0.0,"pressure":806.4,"uv_index":8.3,"wind_gusts":40.7,"aqi":69,"pm10":53.4,"pm2_5":16.3,"mosquito_risk":0,"arthritis_risk":5,"migraine_risk":7,"frizz_risk":0,"updated_at":"2026-04-26T15:25:49.027491+05:30"},{"city":"Patiala","state":"Punjab","latitude":30.3398,"longitude":76.3869,"temp":40.6,"humidity":12,"rain":0.0,"pressure":973.5,"uv_index":7.3,"wind_gusts":46.4,"aqi":465,"pm10":799.1,"pm2_5":72.9,"mosquito_risk":0,"arthritis_risk":5,"migraine_risk":10,"frizz_risk":0,"updated_at":"2026-04-26T15:25:49.027498+05:30"},{"city":"Bhatinda","state":"Punjab","latitude":30.211,"longitude":74.9455,"temp":41.2,"humidity":13,"rain":0.0,"pressure":979.6,"uv_index":8.0,"wind_gusts":37.4,"aqi":91,"pm10":50.9,"pm2_5":14.8,"mosquito_risk":0,"arthritis_risk":5,"migraine_risk":10,"frizz_risk":0,"updated_at":"2026-04-26T15:25:49.027505+05:30"},{"city":"Rohtak","state":"Haryana","latitude":28.8955,"longitude":76.6066,"temp":40.2,"humidity":15,"rain":0.0,"pressure":977.7,"uv_index":7.45,"wind_gusts":42.5,"aqi":719,"pm10":1031.9,"pm2_5":101.5,"mosquito_risk":0,"arthritis_risk":5,"migraine_risk":10,"frizz_risk":0,"updated_at":"2026-04-26T15:25:49.027512+05:30"},{"city":"Panipat","state":"Haryana","latitude":29.3909,"longitude":76.9635,"temp":42.0,"humidity":12,"rain":0.0,"pressure":974.9,"uv_index":7.25,"wind_gusts":49.7,"aqi":1449,"pm10":1944.6,"pm2_5":169.5,"mosquito_risk":0,"arthritis_risk":5,"migraine_risk":10,"frizz_risk":0,"updated_at":"2026-04-26T15:25:49.027519+05:30"},{"city":"Mathura","state":"Uttar Pradesh","latitude":27.4924,"longitude":77.6737,"temp":41.1,"humidity":14,"rain":0.0,"pressure":982.1,"uv_index":7.75,"wind_gusts":48.6,"aqi":943,"pm10":1143.7,"pm2_5":109.7,"mosquito_risk":0,"arthritis_risk":5,"migraine_risk":10,"frizz_risk":0,"updated_at":"2026-04-26T15:25:49.027526+05:30"},{"city":"Vrindavan","state":"Uttar Pradesh","latitude":27.5823,"longitude":77.7027,"temp":40.8,"humidity":14,"rain":0.0,"pressure":982.6,"uv_index":7.7,"wind_gusts":48.2,"aqi":943,"pm10":1143.7,"pm2_5":109.7,"mosquito_risk":0,"arthritis_risk":5,"migraine_risk":10,"frizz_risk":0,"updated_at":"2026-04-26T15:25:49.027533+05:30"},{"city":"Ayodhya","state":"Uttar Pradesh","latitude":26.7922,"longitude":82.1998,"temp":37.2,"humidity":32,"rain":0.0,"pressure":989.9,"uv_index":8.1,"wind_gusts":53.3,"aqi":151,"pm10":119.0,"pm2_5":40.3,"mosquito_risk":0,"arthritis_risk":5,"migraine_risk":10,"frizz_risk":1,"updated_at":"2026-04-26T15:25:49.027540+05:30"},{"city":"Ratlam","state":"Madhya Pradesh","latitude":23.3315,"longitude":75.0367,"temp":41.2,"humidity":13,"rain":0.0,"pressure":952.3,"uv_index":8.5,"wind_gusts":39.6,"aqi":62,"pm10":53.8,"pm2_5":16.6,"mosquito_risk":0,"arthritis_risk":5,"migraine_risk":10,"frizz_risk":0,"updated_at":"2026-04-26T15:25:49.027547+05:30"},{"city":"Sagar","state":"Madhya Pradesh","latitude":23.8388,"longitude":78.7378,"temp":39.8,"humidity":15,"rain":0.0,"pressure":948.0,"uv_index":8.65,"wind_gusts":44.3,"aqi":81,"pm10":113.2,"pm2_5":25.7,"mosquito_risk":0,"arthritis_risk":5,"migraine_risk":10,"frizz_risk":0,"updated_at":"2026-04-26T15:25:49.027553+05:30"},{"city":"Satna","state":"Madhya Pradesh","latitude":24.6005,"longitude":80.8322,"temp":41.8,"humidity":14,"rain":0.0,"pressure":967.1,"uv_index":8.65,"wind_gusts":43.2,"aqi":134,"pm10":132.7,"pm2_5":32.1,"mosquito_risk":0,"arthritis_risk":5,"migraine_risk":10,"frizz_risk":0,"updated_at":"2026-04-26T15:25:49.027560+05:30"},{"city":"Akola","state":"Maharashtra","latitude":20.7002,"longitude":77.0082,"temp":43.5,"humidity":11,"rain":0.0,"pressure":970.7,"uv_index":8.85,"wind_gusts":34.2,"aqi":92,"pm10":28.4,"pm2_5":12.5,"mosquito_risk":0,"arthritis_risk":5,"migraine_risk":10,"frizz_risk":0,"updated_at":"2026-04-26T15:25:49.027567+05:30"},{"city":"Amravati","state":"Maharashtra","latitude":20.9374,"longitude":77.7796,"temp":42.8,"humidity":10,"rain":0.0,"pressure":963.4,"uv_index":8.85,"wind_gusts":27.7,"aqi":88,"pm10":28.6,"pm2_5":12.3,"mosquito_risk":0,"arthritis_risk":5,"migraine_risk":10,"frizz_risk":0,"updated_at":"2026-04-26T15:25:49.027575+05:30"},{"city":"Latur","state":"Maharashtra","latitude":18.4088,"longitude":76.5604,"temp":39.3,"humidity":14,"rain":0.0,"pressure":937.9,"uv_index":9.0,"wind_gusts":26.6,"aqi":118,"pm10":42.3,"pm2_5":33.3,"mosquito_risk":0,"arthritis_risk":5,"migraine_risk":10,"frizz_risk":0,"updated_at":"2026-04-26T15:25:49.027582+05:30"},{"city":"Nanded","state":"Maharashtra","latitude":19.1383,"longitude":77.3091,"temp":42.3,"humidity":12,"rain":0.0,"pressure":965.0,"uv_index":9.05,"wind_gusts":29.9,"aqi":123,"pm10":27.4,"pm2_5":18.6,"mosquito_risk":0,"arthritis_risk":5,"migraine_risk":10,"frizz_risk":0,"updated_at":"2026-04-26T15:25:49.027588+05:30"},{"city":"Gulbarga","state":"Karnataka","latitude":17.3297,"longitude":76.8343,"temp":40.5,"humidity":16,"rain":0.0,"pressure":955.8,"uv_index":7.8,"wind_gusts":25.6,"aqi":109,"pm10":41.9,"pm2_5":33.4,"mosquito_risk":0,"arthritis_risk":5,"migraine_risk":10,"frizz_risk":0,"updated_at":"2026-04-26T15:25:49.027595+05:30"},{"city":"Bidar","state":"Karnataka","latitude":17.9104,"longitude":77.5199,"temp":39.0,"humidity":19,"rain":0.0,"pressure":933.9,"uv_index":7.95,"wind_gusts":33.8,"aqi":112,"pm10":42.8,"pm2_5":33.8,"mosquito_risk":0,"arthritis_risk":5,"migraine_risk":10,"frizz_risk":0,"updated_at":"2026-04-26T15:25:49.027602+05:30"},{"city":"Hospet","state":"Karnataka","latitude":15.2689,"longitude":76.3909,"temp":38.2,"humidity":24,"rain":0.0,"pressure":953.0,"uv_index":8.9,"wind_gusts":41.8,"aqi":94,"pm10":38.1,"pm2_5":30.6,"mosquito_risk":0,"arthritis_risk":5,"migraine_risk":10,"frizz_risk":0,"updated_at":"2026-04-26T15:25:49.027609+05:30"},{"city":"Tirupur","state":"Tamil Nadu","latitude":11.1085,"longitude":77.3411,"temp":39.7,"humidity":20,"rain":0.0,"pressure":971.7,"uv_index":9.4,"wind_gusts":31.0,"aqi":66,"pm10":22.2,"pm2_5":16.9,"mosquito_risk":0,"arthritis_risk":5,"migraine_risk":10,"frizz_risk":0,"updated_at":"2026-04-26T15:25:49.027615+05:30"},{"city":"Alappuzha","state":"Kerala","latitude":9.4981,"longitude":76.3388,"temp":31.2,"humidity":71,"rain":0.0,"pressure":1005.5,"uv_index":8.95,"wind_gusts":38.2,"aqi":70,"pm10":16.6,"pm2_5":15.0,"mosquito_risk":3,"arthritis_risk":5,"migraine_risk":4,"frizz_risk":1,"updated_at":"2026-04-26T15:25:49.027622+05:30"},{"city":"Munnar","state":"Kerala","latitude":10.0889,"longitude":77.0595,"temp":25.4,"humidity":43,"rain":0.0,"pressure":857.4,"uv_index":9.6,"wind_gusts":27.0,"aqi":64,"pm10":15.7,"pm2_5":13.4,"mosquito_risk":4,"arthritis_risk":5,"migraine_risk":7,"frizz_risk":0,"updated_at":"2026-04-26T15:25:49.027629+05:30"},{"city":"Silchar","state":"Assam","latitude":24.8333,"longitude":92.7789,"temp":30.0,"humidity":63,"rain":0.0,"pressure":1002.0,"uv_index":6.8,"wind_gusts":21.6,"aqi":161,"pm10":77.8,"pm2_5":41.9,"mosquito_risk":7,"arthritis_risk":5,"migraine_risk":4,"frizz_risk":1,"updated_at":"2026-04-26T15:25:49.027636+05:30"},{"city":"Dibrugarh","state":"Assam","latitude":27.4728,"longitude":94.912,"temp":26.4,"humidity":70,"rain":0.0,"pressure":993.3,"uv_index":5.15,"wind_gusts":25.2,"aqi":95,"pm10":51.8,"pm2_5":35.5,"mosquito_risk":7,"arthritis_risk":5,"migraine_risk":3,"frizz_risk":1,"updated_at":"2026-04-26T15:25:49.027642+05:30"}]