[{"city":"Delhi","state":"Delhi","latitude":28.6139,"longitude":77.209,"temp":30.7,"humidity":48,"rain":0.0,"pressure":986.5,"uv_index":5.5,"wind_gusts":25.6,"aqi":170,"pm10":374.4,"pm2_5":78.5,"mosquito_risk":0,"arthritis_risk":5,"migraine_risk":3,"frizz_risk":1,"updated_at":"2026-03-09T18:40:43.544924+05:30"},{"city":"Mumbai","state":"Maharashtra","latitude":19.076,"longitude":72.8777,"temp":29.9,"humidity":59,"rain":0.0,"pressure":1007.2,"uv_index":7.55,"wind_gusts":24.5,"aqi":234,"pm10":39.0,"pm2_5":37.3,"mosquito_risk":4,"arthritis_risk":5,"migraine_risk":4,"frizz_risk":1,"updated_at":"2026-03-09T18:40:43.544970+05:30"},{"city":"Bangalore","state":"Karnataka","latitude":12.9716,"longitude":77.5946,"temp":28.3,"humidity":37,"rain":0.0,"pressure":912.1,"uv_index":9.2,"wind_gusts":38.2,"aqi":133,"pm10":41.4,"pm2_5":34.9,"mosquito_risk":4,"arthritis_risk":5,"migraine_risk":7,"frizz_risk":0,"updated_at":"2026-03-09T18:40:43.544985+05:30"},{"city":"Hyderabad","state":"Telangana","latitude":17.385,"longitude":78.4867,"temp":30.5,"humidity":35,"rain":0.0,"pressure":955.2,"uv_index":8.55,"wind_gusts":31.3,"aqi":157,"pm10":41.6,"pm2_5":35.4,"mosquito_risk":0,"arthritis_risk":5,"migraine_risk":7,"frizz_risk":0,"updated_at":"2026-03-09T18:40:43.544996+05:30"},{"city":"Chennai","state":"Tamil Nadu","latitude":13.0827,"longitude":80.2707,"temp":27.4,"humidity":65,"rain":0.0,"pressure":1009.8,"uv_index":8.95,"wind_gusts":34.6,"aqi":85,"pm10":42.4,"pm2_5":29.6,"mosquito_risk":7,"arthritis_risk":0,"migraine_risk":4,"frizz_risk":1,"updated_at":"2026-03-09T18:40:43.545004+05:30"},{"city":"Kolkata","state":"West Bengal","latitude":22.5726,"longitude":88.3639,"temp":26.0,"humidity":80,"rain":0.0,"pressure":1010.7,"uv_index":7.9,"wind_gusts":16.6,"aqi":134,"pm10":51.2,"pm2_5":44.6,"mosquito_risk":7,"arthritis_risk":0,"migraine_risk":4,"frizz_risk":1,"updated_at":"2026-03-09T18:40:43.545013+05:30"},{"city":"Pune","state":"Maharashtra","latitude":18.5204,"longitude":73.8567,"temp":34.9,"humidity":17,"rain":0.0,"pressure":948.9,"uv_index":8.1,"wind_gusts":31.0,"aqi":136,"pm10":14.6,"pm2_5":12.6,"mosquito_risk":0,"arthritis_risk":5,"migraine_risk":7,"frizz_risk":0,"updated_at":"2026-03-09T18:40:43.545026+05:30"},{"city":"Ahmedabad","state":"Gujarat","latitude":23.0225,"longitude":72.5714,"temp":36.5,"humidity":18,"rain":0.0,"pressure":1003.5,"uv_index":7.35,"wind_gusts":21.6,"aqi":118,"pm10":14.6,"pm2_5":12.5,"mosquito_risk":0,"arthritis_risk":5,"migraine_risk":7,"frizz_risk":0,"updated_at":"2026-03-09T18:40:43.545034+05:30"},{"city":"Jaipur","state":"Rajasthan","latitude":26.9124,"longitude":75.7873,"temp":33.3,"humidity":15,"rain":0.0,"pressure":963.2,"uv_index":6.75,"wind_gusts":27.7,"aqi":96,"pm10":116.2,"pm2_5":21.4,"mosquito_risk":0,"arthritis_risk":5,"migraine_risk":7,"frizz_risk":0,"updated_at":"2026-03-09T18:40:43.545042+05:30"},{"city":"Lucknow","state":"Uttar Pradesh","latitude":26.8467,"longitude":80.9462,"temp":30.9,"humidity":52,"rain":0.0,"pressure":997.3,"uv_index":6.55,"wind_gusts":23.0,"aqi":177,"pm10":158.3,"pm2_5":57.6,"mosquito_risk":0,"arthritis_risk":5,"migraine_risk":7,"frizz_risk":1,"updated_at":"2026-03-09T18:40:43.545050+05:30"},{"city":"Kanpur","state":"Uttar Pradesh","latitude":26.4499,"longitude":80.3319,"temp":29.2,"humidity":62,"rain":0.0,"pressure":995.4,"uv_index":6.55,"wind_gusts":18.0,"aqi":165,"pm10":165.8,"pm2_5":50.9,"mosquito_risk":7,"arthritis_risk":5,"migraine_risk":7,"frizz_risk":1,"updated_at":"2026-03-09T18:40:43.545058+05:30"},{"city":"Chandigarh","state":"Chandigarh","latitude":30.7333,"longitude":76.7794,"temp":26.4,"humidity":64,"rain":0.0,"pressure":972.3,"uv_index":5.95,"wind_gusts":24.1,"aqi":105,"pm10":56.3,"pm2_5":46.0,"mosquito_risk":7,"arthritis_risk":5,"migraine_risk":3,"frizz_risk":1,"updated_at":"2026-03-09T18:40:43.545065+05:30"},{"city":"Srinagar","state":"Jammu and Kashmir","latitude":34.0837,"longitude":74.7973,"temp":14.5,"humidity":62,"rain":0.0,"pressure":846.1,"uv_index":6.5,"wind_gusts":25.2,"aqi":136,"pm10":86.6,"pm2_5":49.9,"mosquito_risk":3,"arthritis_risk":5,"migraine_risk":7,"frizz_risk":0,"updated_at":"2026-03-09T18:40:43.545073+05:30"},{"city":"Jammu","state":"Jammu and Kashmir","latitude":32.7266,"longitude":74.857,"temp":27.6,"humidity":64,"rain":0.0,"pressure":975.9,"uv_index":6.55,"wind_gusts":18.0,"aqi":92,"pm10":59.6,"pm2_5":41.2,"mosquito_risk":7,"arthritis_risk":5,"migraine_risk":7,"frizz_risk":1,"updated_at":"2026-03-09T18:40:43.545081+05:30"},{"city":"Amritsar","state":"Punjab","latitude":31.634,"longitude":74.8723,"temp":27.2,"humidity":73,"rain":0.0,"pressure":984.1,"uv_index":6.5,"wind_gusts":13.3,"aqi":169,"pm10":83.1,"pm2_5":63.1,"mosquito_risk":7,"arthritis_risk":5,"migraine_risk":7,"frizz_risk":1,"updated_at":"2026-03-09T18:40:43.545088+05:30"},{"city":"Ludhiana","state":"Punjab","latitude":30.901,"longitude":75.8573,"temp":28.8,"humidity":59,"rain":0.0,"pressure":982.4,"uv_index":6.15,"wind_gusts":18.7,"aqi":154,"pm10":106.6,"pm2_5":69.4,"mosquito_risk":4,"arthritis_risk":5,"migraine_risk":7,"frizz_risk":1,"updated_at":"2026-03-09T18:40:43.545095+05:30"},{"city":"Jalandhar","state":"Punjab","latitude":31.326,"longitude":75.5762,"temp":27.6,"humidity":67,"rain":0.0,"pressure":983.6,"uv_index":6.35,"wind_gusts":16.2,"aqi":158,"pm10":93.4,"pm2_5":58.1,"mosquito_risk":7,"arthritis_risk":5,"migraine_risk":7,"frizz_risk":1,"updated_at":"2026-03-09T18:40:43.545103+05:30"},{"city":"Dehradun","state":"Uttarakhand","latitude":30.6284,"longitude":78.0322,"temp":18.1,"humidity":80,"rain":0.0,"pressure":834.2,"uv_index":6.3,"wind_gusts":28.4,"aqi":89,"pm10":38.2,"pm2_5":25.4,"mosquito_risk":3,"arthritis_risk":5,"migraine_risk":7,"frizz_risk":0,"updated_at":"2026-03-09T18:40:43.545110+05:30"},{"city":"Shimla","state":"Himachal Pradesh","latitude":31.1048,"longitude":77.1734,"temp":17.0,"humidity":65,"rain":0.0,"pressure":789.1,"uv_index":6.35,"wind_gusts":48.2,"aqi":71,"pm10":29.9,"pm2_5":18.1,"mosquito_risk":3,"arthritis_risk":5,"migraine_risk":7,"frizz_risk":0,"updated_at":"2026-03-09T18:40:43.545117+05:30"},{"city":"Manali","state":"Himachal Pradesh","latitude":32.2396,"longitude":77.1887,"temp":19.8,"humidity":45,"rain":0.0,"pressure":825.9,"uv_index":8.05,"wind_gusts":35.6,"aqi":93,"pm10":23.5,"pm2_5":9.7,"mosquito_risk":0,"arthritis_risk":5,"migraine_risk":7,"frizz_risk":0,"updated_at":"2026-03-09T18:40:43.545124+05:30"},{"city":"Gurgaon","state":"Haryana","latitude":28.4595,"longitude":77.0266,"temp":29.1,"humidity":53,"rain":0.0,"pressure":984.9,"uv_index":5.85,"wind_gusts":24.5,"aqi":564,"pm10":564.4,"pm2_5":94.1,"mosquito_risk":4,"arthritis_risk":5,"migraine_risk":3,"frizz_risk":1,"updated_at":"2026-03-09T18:40:43.545131+05:30"},{"city":"Noida","state":"Uttar Pradesh","latitude":28.5355,"longitude":77.391,"temp":30.8,"humidity":47,"rain":0.0,"pressure":988.0,"uv_index":5.45,"wind_gusts":24.8,"aqi":564,"pm10":564.4,"pm2_5":94.1,"mosquito_risk":0,"arthritis_risk":5,"migraine_risk":3,"frizz_risk":1,"updated_at":"2026-03-09T18:40:43.545138+05:30"},{"city":"Ghaziabad","state":"Uttar Pradesh","latitude":28.6692,"longitude":77.4538,"temp":29.9,"humidity":56,"rain":0.0,"pressure":986.1,"uv_index":5.3,"wind_gusts":24.1,"aqi":182,"pm10":230.0,"pm2_5":71.2,"mosquito_risk":4,"arthritis_risk":5,"migraine_risk":3,"frizz_risk":1,"updated_at":"2026-03-09T18:40:43.545145+05:30"},{"city":"Faridabad","state":"Haryana","latitude":28.4089,"longitude":77.3178,"temp":29.1,"humidity":52,"rain":0.0,"pressure":987.3,"uv_index":5.85,"wind_gusts":23.0,"aqi":564,"pm10":564.4,"pm2_5":94.1,"mosquito_risk":4,"arthritis_risk":5,"migraine_risk":3,"frizz_risk":1,"updated_at":"2026-03-09T18:40:43.545151+05:30"},{"city":"Meerut","state":"Uttar Pradesh","latitude":28.9845,"longitude":77.7064,"temp":28.9,"humidity":60,"rain":0.0,"pressure":984.9,"uv_index":5.7,"wind_gusts":25.2,"aqi":182,"pm10":230.0,"pm2_5":71.2,"mosquito_risk":4,"arthritis_risk":5,"migraine_risk":3,"frizz_risk":1,"updated_at":"2026-03-09T18:40:43.545157+05:30"},{"city":"Agra","state":"Uttar Pradesh","latitude":27.1767,"longitude":78.0081,"temp":30.0,"humidity":42,"rain":0.0,"pressure":991.0,"uv_index":6.4,"wind_gusts":19.8,"aqi":185,"pm10":231.4,"pm2_5":65.0,"mosquito_risk":4,"arthritis_risk":5,"migraine_risk":7,"frizz_risk":0,"updated_at":"2026-03-09T18:40:43.545166+05:30"},{"city":"Varanasi","state":"Uttar Pradesh","latitude":25.3176,"longitude":82.9739,"temp":27.9,"humidity":64,"rain":0.0,"pressure":1001.9,"uv_index":7.2,"wind_gusts":15.5,"aqi":187,"pm10":128.5,"pm2_5":102.9,"mosquito_risk":7,"arthritis_risk":5,"migraine_risk":4,"frizz_risk":1,"updated_at":"2026-03-09T18:40:43.545176+05:30"},{"city":"Prayagraj","state":"Uttar Pradesh","latitude":25.4358,"longitude":81.8463,"temp":28.1,"humidity":65,"rain":0.0,"pressure":1000.0,"uv_index":7.05,"wind_gusts":15.1,"aqi":192,"pm10":135.0,"pm2_5":81.3,"mosquito_risk":7,"arthritis_risk":5,"migraine_risk":4,"frizz_risk":1,"updated_at":"2026-03-09T18:40:43.545183+05:30"},{"city":"Gorakhpur","state":"Uttar Pradesh","latitude":26.7606,"longitude":83.3732,"temp":25.4,"humidity":77,"rain":0.0,"pressure":1002.5,"uv_index":6.9,"wind_gusts":27.0,"aqi":204,"pm10":163.9,"pm2_5":150.4,"mosquito_risk":7,"arthritis_risk":5,"migraine_risk":4,"frizz_risk":1,"updated_at":"2026-03-09T18:40:43.545190+05:30"},{"city":"Bareilly","state":"Uttar Pradesh","latitude":28.367,"longitude":79.4304,"temp":28.0,"humidity":62,"rain":0.0,"pressure":990.5,"uv_index":6.2,"wind_gusts":16.6,"aqi":179,"pm10":125.3,"pm2_5":74.3,"mosquito_risk":7,"arthritis_risk":5,"migraine_risk":7,"frizz_risk":1,"updated_at":"2026-03-09T18:40:43.545197+05:30"},{"city":"Aligarh","state":"Uttar Pradesh","latitude":27.8974,"longitude":78.088,"temp":29.1,"humidity":50,"rain":0.0,"pressure":989.0,"uv_index":6.15,"wind_gusts":23.8,"aqi":199,"pm10":258.9,"pm2_5":92.0,"mosquito_risk":4,"arthritis_risk":5,"migraine_risk":7,"frizz_risk":1,"updated_at":"2026-03-09T18:40:43.545203+05:30"},{"city":"Moradabad","state":"Uttar Pradesh","latitude":28.8386,"longitude":78.7733,"temp":28.1,"humidity":61,"rain":0.0,"pressure":987.2,"uv_index":6.05,"wind_gusts":18.0,"aqi":176,"pm10":143.4,"pm2_5":95.5,"mosquito_risk":7,"arthritis_risk":5,"migraine_risk":7,"frizz_risk":1,"updated_at":"2026-03-09T18:40:43.545209+05:30"},{"city":"Saharanpur","state":"Uttar Pradesh","latitude":29.9637,"longitude":77.546,"temp":25.8,"humidity":71,"rain":0.0,"pressure":979.1,"uv_index":5.65,"wind_gusts":23.8,"aqi":158,"pm10":177.4,"pm2_5":66.4,"mosquito_risk":7,"arthritis_risk":5,"migraine_risk":3,"frizz_risk":1,"updated_at":"2026-03-09T18:40:43.545216+05:30"},{"city":"Jhansi","state":"Uttar Pradesh","latitude":25.4484,"longitude":78.5685,"temp":31.1,"humidity":30,"rain":0.0,"pressure":981.2,"uv_index":7.0,"wind_gusts":25.6,"aqi":99,"pm10":42.7,"pm2_5":17.8,"mosquito_risk":0,"arthritis_risk":5,"migraine_risk":7,"frizz_risk":0,"updated_at":"2026-03-09T18:40:46.764197+05:30"},{"city":"Surat","state":"Gujarat","latitude":21.1702,"longitude":72.8311,"temp":34.0,"humidity":32,"rain":0.0,"pressure":1007.1,"uv_index":7.25,"wind_gusts":23.8,"aqi":98,"pm10":42.1,"pm2_5":40.7,"mosquito_risk":0,"arthritis_risk":5,"migraine_risk":4,"frizz_risk":0,"updated_at":"2026-03-09T18:40:46.764259+05:30"},{"city":"Vadodara","state":"Gujarat","latitude":22.3072,"longitude":73.1812,"temp":37.3,"humidity":20,"rain":0.0,"pressure":1005.1,"uv_index":7.4,"wind_gusts":17.3,"aqi":124,"pm10":23.3,"pm2_5":22.2,"mosquito_risk":0,"arthritis_risk":5,"migraine_risk":7,"frizz_risk":0,"updated_at":"2026-03-09T18:40:46.764271+05:30"},{"city":"Rajkot","state":"Gujarat","latitude":22.3039,"longitude":70.8022,"temp":35.2,"humidity":18,"rain":0.0,"pressure":996.1,"uv_index":7.2,"wind_gusts":23.0,"aqi":121,"pm10":12.2,"pm2_5":10.7,"mosquito_risk":0,"arthritis_risk":5,"migraine_risk":10,"frizz_risk":0,"updated_at":"2026-03-09T18:40:46.764280+05:30"},{"city":"Thane","state":"Maharashtra","latitude":19.2183,"longitude":72.9781,"temp":33.9,"humidity":32,"rain":0.0,"pressure":1006.8,"uv_index":7.55,"wind_gusts":37.1,"aqi":234,"pm10":39.0,"pm2_5":37.3,"mosquito_risk":0,"arthritis_risk":5,"migraine_risk":4,"frizz_risk":0,"updated_at":"2026-03-09T18:40:46.764289+05:30"},{"city":"Nagpur","state":"Maharashtra","latitude":21.1458,"longitude":79.0882,"temp":30.9,"humidity":28,"rain":0.0,"pressure":975.3,"uv_index":7.95,"wind_gusts":26.6,"aqi":117,"pm10":47.4,"pm2_5":31.4,"mosquito_risk":0,"arthritis_risk":5,"migraine_risk":7,"frizz_risk":0,"updated_at":"2026-03-09T18:40:46.764297+05:30"},{"city":"Nashik","state":"Maharashtra","latitude":19.9975,"longitude":73.7898,"temp":33.0,"humidity":14,"rain":0.0,"pressure":946.9,"uv_index":7.75,"wind_gusts":31.0,"aqi":134,"pm10":12.5,"pm2_5":11.6,"mosquito_risk":0,"arthritis_risk":5,"migraine_risk":7,"frizz_risk":0,"updated_at":"2026-03-09T18:40:46.764305+05:30"},{"city":"Aurangabad","state":"Maharashtra","latitude":19.8762,"longitude":75.3433,"temp":33.4,"humidity":19,"rain":0.0,"pressure":945.5,"uv_index":8.25,"wind_gusts":34.2,"aqi":127,"pm10":16.5,"pm2_5":13.5,"mosquito_risk":0,"arthritis_risk":5,"migraine_risk":7,"frizz_risk":0,"updated_at":"2026-03-09T18:40:46.764313+05:30"},{"city":"Solapur","state":"Maharashtra","latitude":17.6599,"longitude":75.9064,"temp":32.0,"humidity":30,"rain":0.0,"pressure":957.5,"uv_index":8.45,"wind_gusts":25.9,"aqi":160,"pm10":24.2,"pm2_5":20.6,"mosquito_risk":0,"arthritis_risk":5,"migraine_risk":7,"frizz_risk":0,"updated_at":"2026-03-09T18:40:46.764321+05:30"},{"city":"Kolhapur","state":"Maharashtra","latitude":16.705,"longitude":74.2433,"temp":31.8,"humidity":20,"rain":0.0,"pressure":948.0,"uv_index":8.6,"wind_gusts":38.5,"aqi":158,"pm10":32.1,"pm2_5":29.6,"mosquito_risk":0,"arthritis_risk":5,"migraine_risk":7,"frizz_risk":0,"updated_at":"2026-03-09T18:40:46.764329+05:30"},{"city":"Goa","state":"Goa","latitude":15.2993,"longitude":74.124,"temp":28.8,"humidity":74,"rain":0.0,"pressure":997.1,"uv_index":8.65,"wind_gusts":36.0,"aqi":145,"pm10":40.7,"pm2_5":35.6,"mosquito_risk":7,"arthritis_risk":5,"migraine_risk":7,"frizz_risk":1,"updated_at":"2026-03-09T18:40:46.764337+05:30"},{"city":"Jodhpur","state":"Rajasthan","latitude":26.2389,"longitude":73.0243,"temp":33.4,"humidity":15,"rain":0.0,"pressure":986.4,"uv_index":7.1,"wind_gusts":23.4,"aqi":94,"pm10":46.8,"pm2_5":12.7,"mosquito_risk":0,"arthritis_risk":5,"migraine_risk":7,"frizz_risk":0,"updated_at":"2026-03-09T18:40:46.764346+05:30"},{"city":"Udaipur","state":"Rajasthan","latitude":24.5854,"longitude":73.7125,"temp":32.2,"humidity":21,"rain":0.0,"pressure":950.3,"uv_index":7.7,"wind_gusts":17.3,"aqi":107,"pm10":12.0,"pm2_5":8.4,"mosquito_risk":0,"arthritis_risk":5,"migraine_risk":7,"frizz_risk":0,"updated_at":"2026-03-09T18:40:46.764355+05:30"},{"city":"Kota","state":"Rajasthan","latitude":25.2138,"longitude":75.8648,"temp":32.5,"humidity":27,"rain":0.0,"pressure":981.8,"uv_index":7.1,"wind_gusts":17.3,"aqi":92,"pm10":16.8,"pm2_5":13.2,"mosquito_risk":0,"arthritis_risk":5,"migraine_risk":7,"frizz_risk":0,"updated_at":"2026-03-09T18:40:46.764363+05:30"},{"city":"Bikaner","state":"Rajasthan","latitude":28.0229,"longitude":73.3119,"temp":33.4,"humidity":18,"rain":0.0,"pressure":985.2,"uv_index":6.7,"wind_gusts":22.7,"aqi":78,"pm10":27.2,"pm2_5":8.2,"mosquito_risk":0,"arthritis_risk":5,"migraine_risk":7,"frizz_risk":0,"updated_at":"2026-03-09T18:40:46.764371+05:30"},{"city":"Ajmer","state":"Rajasthan","latitude":26.4499,"longitude":74.6399,"temp":30.8,"humidity":27,"rain":0.0,"pressure":958.2,"uv_index":7.05,"wind_gusts":22.7,"aqi":92,"pm10":46.1,"pm2_5":14.4,"mosquito_risk":0,"arthritis_risk":5,"migraine_risk":7,"frizz_risk":0,"updated_at":"2026-03-09T18:40:46.764379+05:30"},{"city":"Gwalior","state":"Madhya Pradesh","latitude":26.2183,"longitude":78.1828,"temp":30.2,"humidity":49,"rain":0.0,"pressure":986.6,"uv_index":6.7,"wind_gusts":21.2,"aqi":99,"pm10":58.8,"pm2_5":22.4,"mosquito_risk":0,"arthritis_risk":5,"migraine_risk":7,"frizz_risk":1,"updated_at":"2026-03-09T18:40:46.764386+05:30"},{"city":"Indore","state":"Madhya Pradesh","latitude":22.7196,"longitude":75.8577,"temp":29.1,"humidity":31,"rain":0.0,"pressure":950.8,"uv_index":7.65,"wind_gusts":26.6,"aqi":105,"pm10":22.5,"pm2_5":14.6,"mosquito_risk":4,"arthritis_risk":5,"migraine_risk":7,"frizz_risk":0,"updated_at":"2026-03-09T18:40:46.764394+05:30"},{"city":"Bhopal","state":"Madhya Pradesh","latitude":23.2599,"longitude":77.4126,"temp":29.3,"humidity":35,"rain":0.0,"pressure":956.6,"uv_index":7.5,"wind_gusts":20.5,"aqi":115,"pm10":31.2,"pm2_5":14.7,"mosquito_risk":4,"arthritis_risk":5,"migraine_risk":7,"frizz_risk":0,"updated_at":"2026-03-09T18:40:46.764402+05:30"},{"city":"Jabalpur","state":"Madhya Pradesh","latitude":23.1815,"longitude":79.9864,"temp":30.2,"humidity":37,"rain":0.0,"pressure":964.4,"uv_index":7.65,"wind_gusts":21.6,"aqi":98,"pm10":38.6,"pm2_5":20.3,"mosquito_risk":0,"arthritis_risk":5,"migraine_risk":7,"frizz_risk":0,"updated_at":"2026-03-09T18:40:46.764410+05:30"},{"city":"Ujjain","state":"Madhya Pradesh","latitude":23.1765,"longitude":75.7885,"temp":29.9,"humidity":35,"rain":0.0,"pressure":956.7,"uv_index":7.55,"wind_gusts":18.4,"aqi":100,"pm10":22.4,"pm2_5":20.5,"mosquito_risk":4,"arthritis_risk":5,"migraine_risk":7,"frizz_risk":0,"updated_at":"2026-03-09T18:40:46.764418+05:30"},{"city":"Visakhapatnam","state":"Andhra Pradesh","latitude":17.6868,"longitude":83.2185,"temp":26.6,"humidity":73,"rain":0.0,"pressure":1007.4,"uv_index":8.2,"wind_gusts":33.5,"aqi":97,"pm10":52.9,"pm2_5":42.1,"mosquito_risk":7,"arthritis_risk":5,"migraine_risk":4,"frizz_risk":1,"updated_at":"2026-03-09T18:40:46.764426+05:30"},{"city":"Vijayawada","state":"Andhra Pradesh","latitude":16.5062,"longitude":80.648,"temp":29.3,"humidity":62,"rain":0.0,"pressure":1005.5,"uv_index":8.6,"wind_gusts":25.6,"aqi":94,"pm10":49.5,"pm2_5":42.1,"mosquito_risk":7,"arthritis_risk":5,"migraine_risk":4,"frizz_risk":1,"updated_at":"2026-03-09T18:40:46.764434+05:30"},{"city":"Guntur","state":"Andhra Pradesh","latitude":16.3067,"longitude":80.4365,"temp":27.7,"humidity":69,"rain":0.0,"pressure":1006.9,"uv_index":8.65,"wind_gusts":27.7,"aqi":90,"pm10":48.1,"pm2_5":40.6,"mosquito_risk":7,"arthritis_risk":5,"migraine_risk":4,"frizz_risk":1,"updated_at":"2026-03-09T18:40:46.764442+05:30"},{"city":"Nellore","state":"Andhra Pradesh","latitude":14.4426,"longitude":79.9865,"temp":27.2,"humidity":70,"rain":0.0,"pressure":1008.8,"uv_index":8.8,"wind_gusts":34.2,"aqi":77,"pm10":46.6,"pm2_5":34.2,"mosquito_risk":7,"arthritis_risk":0,"migraine_risk":4,"frizz_risk":1,"updated_at":"2026-03-09T18:40:46.764450+05:30"},{"city":"Kurnool","state":"Andhra Pradesh","latitude":15.8281,"longitude":78.0373,"temp":33.3,"humidity":34,"rain":0.0,"pressure":977.6,"uv_index":8.65,"wind_gusts":42.1,"aqi":132,"pm10":48.2,"pm2_5":41.1,"mosquito_risk":0,"arthritis_risk":5,"migraine_risk":7,"frizz_risk":0,"updated_at":"2026-03-09T18:40:46.764459+05:30"},{"city":"Kakinada","state":"Andhra Pradesh","latitude":16.9891,"longitude":82.2475,"temp":26.4,"humidity":71,"rain":0.0,"pressure":1011.0,"uv_index":8.55,"wind_gusts":30.2,"aqi":90,"pm10":54.5,"pm2_5":40.2,"mosquito_risk":7,"arthritis_risk":0,"migraine_risk":4,"frizz_risk":1,"updated_at":"2026-03-09T18:40:46.764467+05:30"},{"city":"Tirupati","state":"Andhra Pradesh","latitude":13.6288,"longitude":79.4192,"temp":27.7,"humidity":61,"rain":0.0,"pressure":993.8,"uv_index":8.95,"wind_gusts":36.7,"aqi":103,"pm10":51.6,"pm2_5":43.1,"mosquito_risk":7,"arthritis_risk":5,"migraine_risk":7,"frizz_risk":1,"updated_at":"2026-03-09T18:40:46.764474+05:30"},{"city":"Warangal","state":"Telangana","latitude":17.9689,"longitude":79.5941,"temp":31.0,"humidity":53,"rain":0.0,"pressure":980.4,"uv_index":8.4,"wind_gusts":28.1,"aqi":113,"pm10":57.5,"pm2_5":49.6,"mosquito_risk":0,"arthritis_risk":5,"migraine_risk":7,"frizz_risk":1,"updated_at":"2026-03-09T18:40:46.764482+05:30"},{"city":"Nizamabad","state":"Telangana","latitude":18.6725,"longitude":78.0941,"temp":31.1,"humidity":39,"rain":0.0,"pressure":966.5,"uv_index":8.3,"wind_gusts":31.3,"aqi":151,"pm10":51.9,"pm2_5":41.9,"mosquito_risk":0,"arthritis_risk":5,"migraine_risk":7,"frizz_risk":0,"updated_at":"2026-03-09T18:40:46.764490+05:30"},{"city":"Mysore","state":"Karnataka","latitude":12.2958,"longitude":76.6396,"temp":29.8,"humidity":35,"rain":0.0,"pressure":928.0,"uv_index":9.25,"wind_gusts":38.2,"aqi":151,"pm10":43.0,"pm2_5":36.4,"mosquito_risk":4,"arthritis_risk":5,"migraine_risk":7,"frizz_risk":0,"updated_at":"2026-03-09T18:40:46.764497+05:30"},{"city":"Mangalore","state":"Karnataka","latitude":12.9141,"longitude":74.856,"temp":29.0,"humidity":81,"rain":0.0,"pressure":1005.9,"uv_index":8.85,"wind_gusts":26.3,"aqi":128,"pm10":35.4,"pm2_5":30.6,"mosquito_risk":7,"arthritis_risk":5,"migraine_risk":4,"frizz_risk":1,"updated_at":"2026-03-09T18:40:46.764505+05:30"},{"city":"Hubli-Dharwad","state":"Karnataka","latitude":15.3647,"longitude":75.124,"temp":32.7,"humidity":23,"rain":0.0,"pressure":940.7,"uv_index":8.8,"wind_gusts":37.1,"aqi":166,"pm10":30.5,"pm2_5":26.1,"mosquito_risk":0,"arthritis_risk":5,"migraine_risk":7,"frizz_risk":0,"updated_at":"2026-03-09T18:40:46.764513+05:30"},{"city":"Belgaum","state":"Karnataka","latitude":15.8497,"longitude":74.4977,"temp":31.9,"humidity":20,"rain":0.0,"pressure":925.9,"uv_index":8.85,"wind_gusts":44.6,"aqi":167,"pm10":22.9,"pm2_5":20.1,"mosquito_risk":0,"arthritis_risk":5,"migraine_risk":7,"frizz_risk":0,"updated_at":"2026-03-09T18:40:49.983824+05:30"},{"city":"Coimbatore","state":"Tamil Nadu","latitude":11.0168,"longitude":76.9558,"temp":30.6,"humidity":36,"rain":0.0,"pressure":961.4,"uv_index":9.25,"wind_gusts":49.0,"aqi":127,"pm10":44.1,"pm2_5":36.2,"mosquito_risk":0,"arthritis_risk":5,"migraine_risk":7,"frizz_risk":0,"updated_at":"2026-03-09T18:40:49.983857+05:30"},{"city":"Madurai","state":"Tamil Nadu","latitude":9.9252,"longitude":78.1198,"temp":29.9,"humidity":52,"rain":0.0,"pressure":993.6,"uv_index":9.2,"wind_gusts":38.2,"aqi":92,"pm10":46.9,"pm2_5":37.8,"mosquito_risk":4,"arthritis_risk":5,"migraine_risk":7,"frizz_risk":1,"updated_at":"2026-03-09T18:40:49.983869+05:30"},{"city":"Trichy","state":"Tamil Nadu","latitude":10.7905,"longitude":78.7047,"temp":29.7,"humidity":53,"rain":0.0,"pressure":1000.7,"uv_index":9.1,"wind_gusts":35.6,"aqi":96,"pm10":49.9,"pm2_5":41.0,"mosquito_risk":4,"arthritis_risk":5,"migraine_risk":4,"frizz_risk":1,"updated_at":"2026-03-09T18:40:49.983880+05:30"},{"city":"Salem","state":"Tamil Nadu","latitude":11.6643,"longitude":78.146,"temp":29.2,"humidity":53,"rain":0.0,"pressure":977.8,"uv_index":9.15,"wind_gusts":37.1,"aqi":131,"pm10":47.8,"pm2_5":39.8,"mosquito_risk":4,"arthritis_risk":5,"migraine_risk":7,"frizz_risk":1,"updated_at":"2026-03-09T18:40:49.983889+05:30"},{"city":"Tirunelveli","state":"Tamil Nadu","latitude":8.7139,"longitude":77.7567,"temp":30.2,"humidity":49,"rain":0.0,"pressure":1003.7,"uv_index":9.15,"wind_gusts":37.8,"aqi":96,"pm10":41.0,"pm2_5":31.3,"mosquito_risk":0,"arthritis_risk":5,"migraine_risk":4,"frizz_risk":1,"updated_at":"2026-03-09T18:40:49.983899+05:30"},{"city":"Vellore","state":"Tamil Nadu","latitude":12.9165,"longitude":79.1325,"temp":27.2,"humidity":61,"rain":0.0,"pressure":986.5,"uv_index":9.0,"wind_gusts":41.8,"aqi":104,"pm10":54.4,"pm2_5":44.4,"mosquito_risk":7,"arthritis_risk":5,"migraine_risk":7,"frizz_risk":1,"updated_at":"2026-03-09T18:40:49.983908+05:30"},{"city":"Erode","state":"Tamil Nadu","latitude":11.341,"longitude":77.7172,"temp":32.0,"humidity":42,"rain":0.0,"pressure":988.8,"uv_index":9.15,"wind_gusts":32.0,"aqi":109,"pm10":50.9,"pm2_5":41.7,"mosquito_risk":0,"arthritis_risk":5,"migraine_risk":7,"frizz_risk":1,"updated_at":"2026-03-09T18:40:49.983918+05:30"},{"city":"Kochi","state":"Kerala","latitude":9.9312,"longitude":76.2673,"temp":28.5,"humidity":80,"rain":0.0,"pressure":1008.0,"uv_index":8.9,"wind_gusts":28.8,"aqi":142,"pm10":42.4,"pm2_5":39.8,"mosquito_risk":7,"arthritis_risk":0,"migraine_risk":4,"frizz_risk":1,"updated_at":"2026-03-09T18:40:49.983927+05:30"},{"city":"Thiruvananthapuram","state":"Kerala","latitude":8.5241,"longitude":76.9366,"temp":27.7,"humidity":78,"rain":0.0,"pressure":1008.2,"uv_index":9.05,"wind_gusts":27.4,"aqi":121,"pm10":36.9,"pm2_5":29.6,"mosquito_risk":7,"arthritis_risk":0,"migraine_risk":4,"frizz_risk":1,"updated_at":"2026-03-09T18:40:49.983936+05:30"},{"city":"Kozhikode","state":"Kerala","latitude":11.2588,"longitude":75.7804,"temp":29.2,"humidity":78,"rain":0.0,"pressure":1007.0,"uv_index":8.55,"wind_gusts":24.5,"aqi":113,"pm10":25.8,"pm2_5":22.9,"mosquito_risk":7,"arthritis_risk":5,"migraine_risk":4,"frizz_risk":1,"updated_at":"2026-03-09T18:40:49.983945+05:30"},{"city":"Thrissur","state":"Kerala","latitude":10.5276,"longitude":76.2144,"temp":28.7,"humidity":76,"rain":0.0,"pressure":1006.6,"uv_index":9.0,"wind_gusts":40.0,"aqi":132,"pm10":37.1,"pm2_5":33.9,"mosquito_risk":7,"arthritis_risk":5,"migraine_risk":4,"frizz_risk":1,"updated_at":"2026-03-09T18:40:49.983954+05:30"},{"city":"Kannur","state":"Kerala","latitude":11.8745,"longitude":75.3704,"temp":28.7,"humidity":76,"rain":0.0,"pressure":1006.8,"uv_index":8.9,"wind_gusts":27.0,"aqi":130,"pm10":33.4,"pm2_5":30.0,"mosquito_risk":7,"arthritis_risk":5,"migraine_risk":4,"frizz_risk":1,"updated_at":"2026-03-09T18:40:49.983963+05:30"},{"city":"Patna","state":"Bihar","latitude":25.5941,"longitude":85.1376,"temp":26.5,"humidity":71,"rain":0.0,"pressure":1005.8,"uv_index":7.4,"wind_gusts":29.5,"aqi":181,"pm10":128.5,"pm2_5":120.6,"mosquito_risk":7,"arthritis_risk":5,"migraine_risk":4,"frizz_risk":1,"updated_at":"2026-03-09T18:40:49.983971+05:30"},{"city":"Gaya","state":"Bihar","latitude":24.7914,"longitude":85.0002,"temp":25.1,"humidity":85,"rain":0.0,"pressure":998.5,"uv_index":7.5,"wind_gusts":25.9,"aqi":179,"pm10":130.9,"pm2_5":122.9,"mosquito_risk":7,"arthritis_risk":5,"migraine_risk":7,"frizz_risk":1,"updated_at":"2026-03-09T18:40:49.983981+05:30"},{"city":"Muzaffarpur","state":"Bihar","latitude":26.1209,"longitude":85.3647,"temp":25.3,"humidity":75,"rain":0.0,"pressure":1005.8,"uv_index":7.3,"wind_gusts":34.2,"aqi":182,"pm10":127.1,"pm2_5":117.1,"mosquito_risk":7,"arthritis_risk":5,"migraine_risk":4,"frizz_risk":1,"updated_at":"2026-03-09T18:40:49.983990+05:30"},{"city":"Bhagalpur","state":"Bihar","latitude":25.2425,"longitude":87.0117,"temp":25.3,"humidity":84,"rain":0.0,"pressure":1006.1,"uv_index":3.9,"wind_gusts":25.9,"aqi":171,"pm10":110.8,"pm2_5":101.3,"mosquito_risk":7,"arthritis_risk":5,"migraine_risk":0,"frizz_risk":1,"updated_at":"2026-03-09T18:40:49.983999+05:30"},{"city":"Ranchi","state":"Jharkhand","latitude":23.3441,"longitude":85.3096,"temp":27.3,"humidity":50,"rain":0.0,"pressure":941.0,"uv_index":8.15,"wind_gusts":25.6,"aqi":168,"pm10":87.5,"pm2_5":71.5,"mosquito_risk":4,"arthritis_risk":5,"migraine_risk":7,"frizz_risk":0,"updated_at":"2026-03-09T18:40:49.984008+05:30"},{"city":"Jamshedpur","state":"Jharkhand","latitude":22.8046,"longitude":86.2029,"temp":27.3,"humidity":68,"rain":0.0,"pressure":994.2,"uv_index":8.0,"wind_gusts":31.3,"aqi":159,"pm10":91.7,"pm2_5":78.7,"mosquito_risk":7,"arthritis_risk":5,"migraine_risk":7,"frizz_risk":1,"updated_at":"2026-03-09T18:40:49.984016+05:30"},{"city":"Dhanbad","state":"Jharkhand","latitude":23.7957,"longitude":86.4304,"temp":24.5,"humidity":76,"rain":0.0,"pressure":984.4,"uv_index":7.75,"wind_gusts":28.8,"aqi":174,"pm10":115.7,"pm2_5":104.1,"mosquito_risk":3,"arthritis_risk":5,"migraine_risk":7,"frizz_risk":1,"updated_at":"2026-03-09T18:40:49.984025+05:30"},{"city":"Bokaro","state":"Jharkhand","latitude":23.6693,"longitude":86.1511,"temp":24.4,"humidity":81,"rain":0.0,"pressure":988.1,"uv_index":7.8,"wind_gusts":25.6,"aqi":180,"pm10":129.9,"pm2_5":116.4,"mosquito_risk":3,"arthritis_risk":5,"migraine_risk":7,"frizz_risk":1,"updated_at":"2026-03-09T18:40:49.984036+05:30"},{"city":"Bhubaneswar","state":"Odisha","latitude":20.2961,"longitude":85.8245,"temp":27.0,"humidity":72,"rain":0.0,"pressure":1006.4,"uv_index":8.3,"wind_gusts":32.8,"aqi":91,"pm10":35.0,"pm2_5":30.4,"mosquito_risk":7,"arthritis_risk":5,"migraine_risk":4,"frizz_risk":1,"updated_at":"2026-03-09T18:40:49.984044+05:30"},{"city":"Cuttack","state":"Odisha","latitude":20.4625,"longitude":85.8828,"temp":28.7,"humidity":63,"rain":0.0,"pressure":1008.1,"uv_index":8.35,"wind_gusts":30.6,"aqi":91,"pm10":35.0,"pm2_5":30.4,"mosquito_risk":7,"arthritis_risk":0,"migraine_risk":4,"frizz_risk":1,"updated_at":"2026-03-09T18:40:49.984053+05:30"},{"city":"Rourkela","state":"Odisha","latitude":22.2604,"longitude":84.8536,"temp":32.3,"humidity":48,"rain":0.0,"pressure":987.1,"uv_index":7.9,"wind_gusts":22.7,"aqi":167,"pm10":92.4,"pm2_5":76.4,"mosquito_risk":0,"arthritis_risk":5,"migraine_risk":7,"frizz_risk":1,"updated_at":"2026-03-09T18:40:49.984061+05:30"},{"city":"Raipur","state":"Chhattisgarh","latitude":21.2514,"longitude":81.6296,"temp":32.9,"humidity":28,"rain":0.0,"pressure":976.8,"uv_index":8.0,"wind_gusts":24.8,"aqi":163,"pm10":89.2,"pm2_5":67.5,"mosquito_risk":0,"arthritis_risk":5,"migraine_risk":7,"frizz_risk":0,"updated_at":"2026-03-09T18:40:49.984070+05:30"},{"city":"Bhilai","state":"Chhattisgarh","latitude":21.1938,"longitude":81.3509,"temp":32.3,"humidity":29,"rain":0.0,"pressure":977.1,"uv_index":8.05,"wind_gusts":24.5,"aqi":156,"pm10":78.0,"pm2_5":57.9,"mosquito_risk":0,"arthritis_risk":5,"migraine_risk":7,"frizz_risk":0,"updated_at":"2026-03-09T18:40:49.984078+05:30"},{"city":"Guwahati","state":"Assam","latitude":26.1158,"longitude":91.7086,"temp":27.7,"humidity":69,"rain":0.0,"pressure":1006.6,"uv_index":7.3,"wind_gusts":11.5,"aqi":155,"pm10":67.8,"pm2_5":61.2,"mosquito_risk":7,"arthritis_risk":5,"migraine_risk":4,"frizz_risk":1,"updated_at":"2026-03-09T18:40:49.984087+05:30"},{"city":"Agartala","state":"Tripura","latitude":23.8315,"longitude":91.2868,"temp":25.0,"humidity":76,"rain":0.0,"pressure":1011.0,"uv_index":7.7,"wind_gusts":12.2,"aqi":163,"pm10":102.9,"pm2_5":89.2,"mosquito_risk":7,"arthritis_risk":0,"migraine_risk":4,"frizz_risk":1,"updated_at":"2026-03-09T18:40:49.984096+05:30"},{"city":"Shillong","state":"Meghalaya","latitude":25.5788,"longitude":91.8933,"temp":13.2,"humidity":95,"rain":0.0,"pressure":859.7,"uv_index":6.45,"wind_gusts":22.0,"aqi":152,"pm10":73.8,"pm2_5":66.8,"mosquito_risk":3,"arthritis_risk":10,"migraine_risk":7,"frizz_risk":0,"updated_at":"2026-03-09T18:40:49.984105+05:30"},{"city":"Imphal","state":"Manipur","latitude":24.817,"longitude":93.9368,"temp":18.1,"humidity":90,"rain":0.0,"pressure":927.7,"uv_index":7.95,"wind_gusts":31.0,"aqi":160,"pm10":81.0,"pm2_5":76.4,"mosquito_risk":3,"arthritis_risk":10,"migraine_risk":7,"frizz_risk":1,"updated_at":"2026-03-09T18:40:49.984114+05:30"},{"city":"Aizawl","state":"Mizoram","latitude":23.7271,"longitude":92.7176,"temp":19.3,"humidity":73,"rain":0.0,"pressure":896.5,"uv_index":7.85,"wind_gusts":26.3,"aqi":165,"pm10":84.8,"pm2_5":75.2,"mosquito_risk":3,"arthritis_risk":5,"migraine_risk":7,"frizz_risk":0,"updated_at":"2026-03-09T18:40:49.984123+05:30"},{"city":"Kohima","state":"Nagaland","latitude":25.6701,"longitude":94.1077,"temp":14.9,"humidity":87,"rain":0.0,"pressure":858.8,"uv_index":7.0,"wind_gusts":53.3,"aqi":154,"pm10":75.2,"pm2_5":71.0,"mosquito_risk":3,"arthritis_risk":10,"migraine_risk":7,"frizz_risk":0,"updated_at":"2026-03-09T18:40:49.984131+05:30"},{"city":"Gangtok","state":"Sikkim","latitude":27.3314,"longitude":88.6138,"temp":14.5,"humidity":85,"rain":0.0,"pressure":841.2,"uv_index":4.8,"wind_gusts":16.9,"aqi":157,"pm10":90.6,"pm2_5":70.5,"mosquito_risk":3,"arthritis_risk":10,"migraine_risk":3,"frizz_risk":0,"updated_at":"2026-03-09T18:40:49.984140+05:30"},{"city":"Siliguri","state":"West Bengal","latitude":26.7271,"longitude":88.3953,"temp":23.0,"humidity":64,"rain":0.0,"pressure":999.1,"uv_index":7.35,"wind_gusts":18.4,"aqi":163,"pm10":104.8,"pm2_5":81.5,"mosquito_risk":3,"arthritis_risk":5,"migraine_risk":7,"frizz_risk":0,"updated_at":"2026-03-09T18:40:53.208445+05:30"},{"city":"Durgapur","state":"West Bengal","latitude":23.5204,"longitude":87.3119,"temp":27.0,"humidity":71,"rain":0.0,"pressure":999.3,"uv_index":7.8,"wind_gusts":25.2,"aqi":163,"pm10":94.3,"pm2_5":83.4,"mosquito_risk":7,"arthritis_risk":5,"migraine_risk":7,"frizz_risk":1,"updated_at":"2026-03-09T18:40:53.208477+05:30"},{"city":"Asansol","state":"West Bengal","latitude":23.6739,"longitude":86.9524,"temp":27.4,"humidity":68,"rain":0.0,"pressure":997.8,"uv_index":7.55,"wind_gusts":25.6,"aqi":164,"pm10":96.2,"pm2_5":85.7,"mosquito_risk":7,"arthritis_risk":5,"migraine_risk":7,"frizz_risk":1,"updated_at":"2026-03-09T18:40:53.208488+05:30"},{"city":"Pondicherry","state":"Puducherry","latitude":11.9139,"longitude":79.8145,"temp":27.0,"humidity":70,"rain":0.0,"pressure":1010.7,"uv_index":8.95,"wind_gusts":33.1,"aqi":80,"pm10":42.6,"pm2_5":29.2,"mosquito_risk":7,"arthritis_risk":0,"migraine_risk":4,"frizz_risk":1,"updated_at":"2026-03-09T18:40:53.208496+05:30"},{"city":"Port Blair","state":"Andaman and Nicobar Islands","latitude":11.6234,"longitude":92.7265,"temp":28.4,"humidity":70,"rain":0.0,"pressure":1009.2,"uv_index":8.9,"wind_gusts":23.8,"aqi":87,"pm10":31.8,"pm2_5":27.8,"mosquito_risk":7,"arthritis_risk":0,"migraine_risk":4,"frizz_risk":1,"updated_at":"2026-03-09T18:40:53.208505+05:30"},{"city":"Haridwar","state":"Uttarakhand","latitude":29.9457,"longitude":78.1642,"temp":27.4,"humidity":72,"rain":0.0,"pressure":978.1,"uv_index":5.8,"wind_gusts":24.5,"aqi":157,"pm10":73.8,"pm2_5":49.1,"mosquito_risk":7,"arthritis_risk":5,"migraine_risk":3,"frizz_risk":1,"updated_at":"2026-03-09T18:40:53.208513+05:30"},{"city":"Rishikesh","state":"Uttarakhand","latitude":30.0869,"longitude":78.2676,"temp":25.8,"humidity":76,"rain":0.0,"pressure":970.9,"uv_index":5.85,"wind_gusts":24.8,"aqi":156,"pm10":65.9,"pm2_5":44.1,"mosquito_risk":7,"arthritis_risk":5,"migraine_risk":3,"frizz_risk":1,"updated_at":"2026-03-09T18:40:53.208521+05:30"},{"city":"Nainital","state":"Uttarakhand","latitude":29.3919,"longitude":79.4542,"temp":19.5,"humidity":78,"rain":0.0,"pressure":810.2,"uv_index":6.65,"wind_gusts":54.0,"aqi":169,"pm10":124.3,"pm2_5":79.9,"mosquito_risk":3,"arthritis_risk":5,"migraine_risk":7,"frizz_risk":0,"updated_at":"2026-03-09T18:40:53.208529+05:30"},{"city":"Mussoorie","state":"Uttarakhand","latitude":30.4599,"longitude":78.0664,"temp":18.1,"humidity":77,"rain":0.0,"pressure":806.5,"uv_index":6.2,"wind_gusts":40.7,"aqi":162,"pm10":68.7,"pm2_5":47.6,"mosquito_risk":3,"arthritis_risk":5,"migraine_risk":7,"frizz_risk":0,"updated_at":"2026-03-09T18:40:53.208537+05:30"},{"city":"Dharamshala","state":"Himachal Pradesh","latitude":32.219,"longitude":76.3234,"temp":23.2,"humidity":53,"rain":0.0,"pressure":873.7,"uv_index":6.4,"wind_gusts":23.0,"aqi":71,"pm10":31.1,"pm2_5":14.5,"mosquito_risk":0,"arthritis_risk":5,"migraine_risk":7,"frizz_risk":0,"updated_at":"2026-03-09T18:40:53.208544+05:30"},{"city":"Dalhousie","state":"Himachal Pradesh","latitude":32.5387,"longitude":75.971,"temp":21.3,"humidity":46,"rain":0.0,"pressure":808.6,"uv_index":6.65,"wind_gusts":22.0,"aqi":93,"pm10":39.1,"pm2_5":25.1,"mosquito_risk":0,"arthritis_risk":5,"migraine_risk":7,"frizz_risk":0,"updated_at":"2026-03-09T18:40:53.208553+05:30"},{"city":"Patiala","state":"Punjab","latitude":30.3398,"longitude":76.3869,"temp":27.8,"humidity":67,"rain":0.0,"pressure":981.7,"uv_index":5.25,"wind_gusts":20.9,"aqi":177,"pm10":244.9,"pm2_5":76.6,"mosquito_risk":7,"arthritis_risk":5,"migraine_risk":3,"frizz_risk":1,"updated_at":"2026-03-09T18:40:53.208561+05:30"},{"city":"Bhatinda","state":"Punjab","latitude":30.211,"longitude":74.9455,"temp":29.5,"humidity":54,"rain":0.0,"pressure":987.0,"uv_index":6.35,"wind_gusts":20.5,"aqi":155,"pm10":76.1,"pm2_5":54.0,"mosquito_risk":4,"arthritis_risk":5,"migraine_risk":7,"frizz_risk":1,"updated_at":"2026-03-09T18:40:53.208568+05:30"},{"city":"Rohtak","state":"Haryana","latitude":28.8955,"longitude":76.6066,"temp":27.8,"humidity":56,"rain":0.0,"pressure":985.2,"uv_index":6.05,"wind_gusts":25.9,"aqi":181,"pm10":417.2,"pm2_5":81.7,"mosquito_risk":4,"arthritis_risk":5,"migraine_risk":7,"frizz_risk":1,"updated_at":"2026-03-09T18:40:53.208575+05:30"},{"city":"Panipat","state":"Haryana","latitude":29.3909,"longitude":76.9635,"temp":27.7,"humidity":64,"rain":0.0,"pressure":983.8,"uv_index":5.75,"wind_gusts":25.6,"aqi":581,"pm10":683.6,"pm2_5":104.8,"mosquito_risk":7,"arthritis_risk":5,"migraine_risk":3,"frizz_risk":1,"updated_at":"2026-03-09T18:40:53.208583+05:30"},{"city":"Mathura","state":"Uttar Pradesh","latitude":27.4924,"longitude":77.6737,"temp":29.9,"humidity":44,"rain":0.0,"pressure":990.1,"uv_index":6.3,"wind_gusts":23.8,"aqi":176,"pm10":218.4,"pm2_5":65.7,"mosquito_risk":4,"arthritis_risk":5,"migraine_risk":7,"frizz_risk":1,"updated_at":"2026-03-09T18:40:53.208591+05:30"},{"city":"Vrindavan","state":"Uttar Pradesh","latitude":27.5823,"longitude":77.7027,"temp":29.6,"humidity":45,"rain":0.0,"pressure":990.6,"uv_index":6.25,"wind_gusts":25.2,"aqi":176,"pm10":218.4,"pm2_5":65.7,"mosquito_risk":4,"arthritis_risk":5,"migraine_risk":7,"frizz_risk":1,"updated_at":"2026-03-09T18:40:53.208598+05:30"},{"city":"Ayodhya","state":"Uttar Pradesh","latitude":26.7922,"longitude":82.1998,"temp":27.0,"humidity":70,"rain":0.0,"pressure":1000.0,"uv_index":6.7,"wind_gusts":20.5,"aqi":198,"pm10":138.3,"pm2_5":117.6,"mosquito_risk":7,"arthritis_risk":5,"migraine_risk":4,"frizz_risk":1,"updated_at":"2026-03-09T18:40:53.208605+05:30"},{"city":"Ratlam","state":"Madhya Pradesh","latitude":23.3315,"longitude":75.0367,"temp":32.2,"humidity":32,"rain":0.0,"pressure":957.3,"uv_index":7.5,"wind_gusts":12.2,"aqi":109,"pm10":14.9,"pm2_5":14.5,"mosquito_risk":0,"arthritis_risk":5,"migraine_risk":7,"frizz_risk":0,"updated_at":"2026-03-09T18:40:53.208614+05:30"},{"city":"Sagar","state":"Madhya Pradesh","latitude":23.8388,"longitude":78.7378,"temp":29.9,"humidity":35,"rain":0.0,"pressure":953.1,"uv_index":7.5,"wind_gusts":17.3,"aqi":105,"pm10":25.4,"pm2_5":11.8,"mosquito_risk":4,"arthritis_risk":5,"migraine_risk":7,"frizz_risk":0,"updated_at":"2026-03-09T18:40:53.208620+05:30"},{"city":"Satna","state":"Madhya Pradesh","latitude":24.6005,"longitude":80.8322,"temp":31.1,"humidity":29,"rain":0.0,"pressure":974.7,"uv_index":7.45,"wind_gusts":18.7,"aqi":138,"pm10":60.1,"pm2_5":23.3,"mosquito_risk":0,"arthritis_risk":5,"migraine_risk":7,"frizz_risk":0,"updated_at":"2026-03-09T18:40:53.208628+05:30"},{"city":"Akola","state":"Maharashtra","latitude":20.7002,"longitude":77.0082,"temp":34.4,"humidity":26,"rain":0.0,"pressure":976.4,"uv_index":7.95,"wind_gusts":16.9,"aqi":125,"pm10":16.5,"pm2_5":13.0,"mosquito_risk":0,"arthritis_risk":5,"migraine_risk":7,"frizz_risk":0,"updated_at":"2026-03-09T18:40:53.208636+05:30"},{"city":"Amravati","state":"Maharashtra","latitude":20.9374,"longitude":77.7796,"temp":32.2,"humidity":25,"rain":0.0,"pressure":968.9,"uv_index":7.9,"wind_gusts":24.8,"aqi":115,"pm10":18.5,"pm2_5":13.7,"mosquito_risk":0,"arthritis_risk":5,"migraine_risk":7,"frizz_risk":0,"updated_at":"2026-03-09T18:40:53.208643+05:30"},{"city":"Latur","state":"Maharashtra","latitude":18.4088,"longitude":76.5604,"temp":30.2,"humidity":26,"rain":0.0,"pressure":941.2,"uv_index":8.4,"wind_gusts":29.5,"aqi":150,"pm10":28.8,"pm2_5":23.6,"mosquito_risk":0,"arthritis_risk":5,"migraine_risk":7,"frizz_risk":0,"updated_at":"2026-03-09T18:40:53.208651+05:30"},{"city":"Nanded","state":"Maharashtra","latitude":19.1383,"longitude":77.3091,"temp":32.0,"humidity":25,"rain":0.0,"pressure":970.0,"uv_index":8.15,"wind_gusts":29.5,"aqi":134,"pm10":33.4,"pm2_5":24.7,"mosquito_risk":0,"arthritis_risk":5,"migraine_risk":7,"frizz_risk":0,"updated_at":"2026-03-09T18:40:53.208658+05:30"},{"city":"Gulbarga","state":"Karnataka","latitude":17.3297,"longitude":76.8343,"temp":34.0,"humidity":16,"rain":0.0,"pressure":959.4,"uv_index":8.5,"wind_gusts":34.6,"aqi":173,"pm10":32.5,"pm2_5":27.5,"mosquito_risk":0,"arthritis_risk":5,"migraine_risk":7,"frizz_risk":0,"updated_at":"2026-03-09T18:40:53.208665+05:30"},{"city":"Bidar","state":"Karnataka","latitude":17.9104,"longitude":77.5199,"temp":31.6,"humidity":26,"rain":0.0,"pressure":937.0,"uv_index":8.45,"wind_gusts":33.5,"aqi":162,"pm10":38.0,"pm2_5":32.1,"mosquito_risk":0,"arthritis_risk":5,"migraine_risk":7,"frizz_risk":0,"updated_at":"2026-03-09T18:40:53.208672+05:30"},{"city":"Hospet","state":"Karnataka","latitude":15.2689,"longitude":76.3909,"temp":33.2,"humidity":26,"rain":0.0,"pressure":956.1,"uv_index":8.75,"wind_gusts":35.3,"aqi":162,"pm10":41.0,"pm2_5":34.5,"mosquito_risk":0,"arthritis_risk":5,"migraine_risk":7,"frizz_risk":0,"updated_at":"2026-03-09T18:40:53.208678+05:30"},{"city":"Tirupur","state":"Tamil Nadu","latitude":11.1085,"longitude":77.3411,"temp":31.4,"humidity":39,"rain":0.0,"pressure":975.0,"uv_index":9.25,"wind_gusts":39.2,"aqi":116,"pm10":50.4,"pm2_5":40.7,"mosquito_risk":0,"arthritis_risk":5,"migraine_risk":7,"frizz_risk":0,"updated_at":"2026-03-09T18:40:53.208685+05:30"},{"city":"Alappuzha","state":"Kerala","latitude":9.4981,"longitude":76.3388,"temp":28.3,"humidity":82,"rain":0.0,"pressure":1008.2,"uv_index":8.95,"wind_gusts":26.3,"aqi":137,"pm10":39.5,"pm2_5":36.3,"mosquito_risk":7,"arthritis_risk":0,"migraine_risk":4,"frizz_risk":1,"updated_at":"2026-03-09T18:40:53.208692+05:30"},{"city":"Munnar","state":"Kerala","latitude":10.0889,"longitude":77.0595,"temp":24.3,"humidity":65,"rain":0.0,"pressure":857.3,"uv_index":9.55,"wind_gusts":22.7,"aqi":100,"pm10":42.0,"pm2_5":34.0,"mosquito_risk":3,"arthritis_risk":5,"migraine_risk":7,"frizz_risk":1,"updated_at":"2026-03-09T18:40:53.208700+05:30"},{"city":"Silchar","state":"Assam","latitude":24.8333,"longitude":92.7789,"temp":27.0,"humidity":64,"rain":0.0,"pressure":1009.9,"uv_index":7.65,"wind_gusts":14.0,"aqi":169,"pm10":103.8,"pm2_5":92.9,"mosquito_risk":7,"arthritis_risk":0,"migraine_risk":4,"frizz_risk":1,"updated_at":"2026-03-09T18:40:53.208707+05:30"},{"city":"Dibrugarh","state":"Assam","latitude":27.4728,"longitude":94.912,"temp":26.3,"humidity":73,"rain":0.0,"pressure":1000.9,"uv_index":7.4,"wind_gusts":14.0,"aqi":163,"pm10":101.5,"pm2_5":88.7,"mosquito_risk":7,"arthritis_risk":5,"migraine_risk":4,"frizz_risk":1,"updated_at":"2026-03-09T18:40:53.208714+05:30"}]