[{"city":"Delhi","state":"Delhi","latitude":28.6139,"longitude":77.209,"temp":32.4,"humidity":69,"rain":0.0,"pressure":975.9,"uv_index":5.95,"wind_gusts":23.4,"aqi":166,"pm10":297.1,"pm2_5":67.5,"no2":16.0,"co":552.0,"o3":94.0,"so2":17.8,"mosquito_risk":3,"arthritis_risk":5,"migraine_risk":3,"frizz_risk":1,"updated_at":"2026-07-20T15:44:32.082887+05:30"},{"city":"Mumbai","state":"Maharashtra","latitude":19.076,"longitude":72.8777,"temp":26.7,"humidity":87,"rain":0.3,"pressure":1005.0,"uv_index":7.75,"wind_gusts":49.7,"aqi":55,"pm10":21.9,"pm2_5":11.9,"no2":6.9,"co":176.0,"o3":59.0,"so2":6.6,"mosquito_risk":10,"arthritis_risk":5,"migraine_risk":4,"frizz_risk":1,"updated_at":"2026-07-20T15:44:32.082925+05:30"},{"city":"Bangalore","state":"Karnataka","latitude":12.9716,"longitude":77.5946,"temp":27.2,"humidity":62,"rain":0.1,"pressure":910.7,"uv_index":9.0,"wind_gusts":48.6,"aqi":44,"pm10":15.0,"pm2_5":7.8,"no2":7.7,"co":357.0,"o3":61.0,"so2":2.5,"mosquito_risk":10,"arthritis_risk":5,"migraine_risk":7,"frizz_risk":1,"updated_at":"2026-07-20T15:44:32.082940+05:30"},{"city":"Hyderabad","state":"Telangana","latitude":17.385,"longitude":78.4867,"temp":27.4,"humidity":73,"rain":0.1,"pressure":949.5,"uv_index":8.0,"wind_gusts":46.4,"aqi":43,"pm10":14.1,"pm2_5":7.3,"no2":3.0,"co":267.0,"o3":69.0,"so2":2.4,"mosquito_risk":10,"arthritis_risk":5,"migraine_risk":7,"frizz_risk":1,"updated_at":"2026-07-20T15:44:32.082950+05:30"},{"city":"Chennai","state":"Tamil Nadu","latitude":13.0827,"longitude":80.2707,"temp":31.4,"humidity":67,"rain":0.0,"pressure":1003.6,"uv_index":8.2,"wind_gusts":43.9,"aqi":79,"pm10":33.1,"pm2_5":23.1,"no2":7.1,"co":244.0,"o3":113.0,"so2":7.9,"mosquito_risk":3,"arthritis_risk":5,"migraine_risk":4,"frizz_risk":1,"updated_at":"2026-07-20T15:44:32.082958+05:30"},{"city":"Kolkata","state":"West Bengal","latitude":22.5726,"longitude":88.3639,"temp":27.2,"humidity":95,"rain":0.3,"pressure":1000.7,"uv_index":8.8,"wind_gusts":26.3,"aqi":77,"pm10":22.2,"pm2_5":17.5,"no2":5.4,"co":361.0,"o3":85.0,"so2":6.0,"mosquito_risk":10,"arthritis_risk":5,"migraine_risk":4,"frizz_risk":1,"updated_at":"2026-07-20T15:44:32.082966+05:30"},{"city":"Pune","state":"Maharashtra","latitude":18.5204,"longitude":73.8567,"temp":24.6,"humidity":90,"rain":0.3,"pressure":944.7,"uv_index":5.75,"wind_gusts":50.8,"aqi":25,"pm10":10.4,"pm2_5":5.7,"no2":2.9,"co":152.0,"o3":57.0,"so2":3.3,"mosquito_risk":6,"arthritis_risk":5,"migraine_risk":3,"frizz_risk":1,"updated_at":"2026-07-20T15:44:32.082973+05:30"},{"city":"Ahmedabad","state":"Gujarat","latitude":23.0225,"longitude":72.5714,"temp":31.4,"humidity":65,"rain":0.0,"pressure":994.7,"uv_index":6.25,"wind_gusts":30.6,"aqi":62,"pm10":26.4,"pm2_5":11.6,"no2":2.8,"co":137.0,"o3":80.0,"so2":4.2,"mosquito_risk":3,"arthritis_risk":5,"migraine_risk":7,"frizz_risk":1,"updated_at":"2026-07-20T15:44:32.082980+05:30"},{"city":"Jaipur","state":"Rajasthan","latitude":26.9124,"longitude":75.7873,"temp":32.6,"humidity":56,"rain":0.0,"pressure":953.7,"uv_index":6.05,"wind_gusts":31.3,"aqi":123,"pm10":191.9,"pm2_5":36.4,"no2":2.4,"co":181.0,"o3":103.0,"so2":4.0,"mosquito_risk":0,"arthritis_risk":5,"migraine_risk":7,"frizz_risk":1,"updated_at":"2026-07-20T15:44:32.082987+05:30"},{"city":"Lucknow","state":"Uttar Pradesh","latitude":26.8467,"longitude":80.9462,"temp":30.2,"humidity":73,"rain":0.0,"pressure":987.3,"uv_index":7.15,"wind_gusts":25.2,"aqi":98,"pm10":21.1,"pm2_5":14.8,"no2":4.8,"co":306.0,"o3":117.0,"so2":4.9,"mosquito_risk":3,"arthritis_risk":5,"migraine_risk":7,"frizz_risk":1,"updated_at":"2026-07-20T15:44:32.082997+05:30"},{"city":"Kanpur","state":"Uttar Pradesh","latitude":26.4499,"longitude":80.3319,"temp":29.9,"humidity":76,"rain":0.0,"pressure":985.7,"uv_index":4.35,"wind_gusts":27.0,"aqi":93,"pm10":17.8,"pm2_5":14.1,"no2":6.0,"co":216.0,"o3":102.0,"so2":5.3,"mosquito_risk":7,"arthritis_risk":5,"migraine_risk":3,"frizz_risk":1,"updated_at":"2026-07-20T15:44:32.083004+05:30"},{"city":"Chandigarh","state":"Chandigarh","latitude":30.7333,"longitude":76.7794,"temp":29.1,"humidity":74,"rain":0.0,"pressure":963.0,"uv_index":4.05,"wind_gusts":40.3,"aqi":156,"pm10":67.8,"pm2_5":31.4,"no2":7.3,"co":331.0,"o3":140.0,"so2":10.3,"mosquito_risk":7,"arthritis_risk":5,"migraine_risk":3,"frizz_risk":1,"updated_at":"2026-07-20T15:44:32.083010+05:30"},{"city":"Srinagar","state":"Jammu and Kashmir","latitude":34.0837,"longitude":74.7973,"temp":26.7,"humidity":67,"rain":0.0,"pressure":838.2,"uv_index":8.75,"wind_gusts":22.0,"aqi":71,"pm10":10.1,"pm2_5":8.3,"no2":4.1,"co":310.0,"o3":128.0,"so2":3.3,"mosquito_risk":7,"arthritis_risk":5,"migraine_risk":7,"frizz_risk":1,"updated_at":"2026-07-20T15:44:32.083017+05:30"},{"city":"Jammu","state":"Jammu and Kashmir","latitude":32.7266,"longitude":74.857,"temp":30.0,"humidity":80,"rain":0.0,"pressure":965.5,"uv_index":8.45,"wind_gusts":24.5,"aqi":113,"pm10":113.2,"pm2_5":41.9,"no2":3.5,"co":249.0,"o3":125.0,"so2":3.8,"mosquito_risk":7,"arthritis_risk":5,"migraine_risk":7,"frizz_risk":1,"updated_at":"2026-07-20T15:44:32.083023+05:30"},{"city":"Amritsar","state":"Punjab","latitude":31.634,"longitude":74.8723,"temp":33.0,"humidity":71,"rain":0.1,"pressure":973.1,"uv_index":8.3,"wind_gusts":31.0,"aqi":173,"pm10":140.2,"pm2_5":60.5,"no2":6.3,"co":304.0,"o3":117.0,"so2":5.4,"mosquito_risk":6,"arthritis_risk":5,"migraine_risk":7,"frizz_risk":1,"updated_at":"2026-07-20T15:44:32.083029+05:30"},{"city":"Ludhiana","state":"Punjab","latitude":30.901,"longitude":75.8573,"temp":31.1,"humidity":77,"rain":0.1,"pressure":971.7,"uv_index":5.85,"wind_gusts":28.1,"aqi":175,"pm10":126.2,"pm2_5":47.8,"no2":4.6,"co":292.0,"o3":123.0,"so2":7.6,"mosquito_risk":6,"arthritis_risk":5,"migraine_risk":3,"frizz_risk":1,"updated_at":"2026-07-20T15:44:32.083035+05:30"},{"city":"Jalandhar","state":"Punjab","latitude":31.326,"longitude":75.5762,"temp":30.3,"humidity":81,"rain":0.2,"pressure":972.7,"uv_index":7.75,"wind_gusts":31.0,"aqi":173,"pm10":136.9,"pm2_5":53.3,"no2":4.0,"co":289.0,"o3":133.0,"so2":7.7,"mosquito_risk":6,"arthritis_risk":5,"migraine_risk":7,"frizz_risk":1,"updated_at":"2026-07-20T15:44:32.083041+05:30"},{"city":"Dehradun","state":"Uttarakhand","latitude":30.6284,"longitude":78.0322,"temp":20.7,"humidity":90,"rain":0.0,"pressure":828.1,"uv_index":5.35,"wind_gusts":15.1,"aqi":57,"pm10":24.0,"pm2_5":10.9,"no2":3.8,"co":191.0,"o3":105.0,"so2":1.7,"mosquito_risk":3,"arthritis_risk":5,"migraine_risk":3,"frizz_risk":1,"updated_at":"2026-07-20T15:44:32.083047+05:30"},{"city":"Shimla","state":"Himachal Pradesh","latitude":31.1048,"longitude":77.1734,"temp":19.0,"humidity":92,"rain":0.1,"pressure":783.0,"uv_index":7.4,"wind_gusts":31.3,"aqi":84,"pm10":34.2,"pm2_5":14.7,"no2":3.7,"co":168.0,"o3":110.0,"so2":4.1,"mosquito_risk":6,"arthritis_risk":10,"migraine_risk":7,"frizz_risk":1,"updated_at":"2026-07-20T15:44:32.083053+05:30"},{"city":"Manali","state":"Himachal Pradesh","latitude":32.2396,"longitude":77.1887,"temp":22.4,"humidity":97,"rain":0.1,"pressure":817.7,"uv_index":8.45,"wind_gusts":28.1,"aqi":39,"pm10":1.7,"pm2_5":1.4,"no2":4.1,"co":186.0,"o3":106.0,"so2":0.4,"mosquito_risk":6,"arthritis_risk":5,"migraine_risk":7,"frizz_risk":1,"updated_at":"2026-07-20T15:44:32.083061+05:30"},{"city":"Gurgaon","state":"Haryana","latitude":28.4595,"longitude":77.0266,"temp":33.1,"humidity":62,"rain":0.0,"pressure":974.4,"uv_index":7.3,"wind_gusts":27.7,"aqi":196,"pm10":150.4,"pm2_5":43.9,"no2":12.4,"co":321.0,"o3":88.0,"so2":11.2,"mosquito_risk":3,"arthritis_risk":5,"migraine_risk":7,"frizz_risk":1,"updated_at":"2026-07-20T15:44:32.083070+05:30"},{"city":"Noida","state":"Uttar Pradesh","latitude":28.5355,"longitude":77.391,"temp":32.4,"humidity":72,"rain":0.0,"pressure":977.2,"uv_index":6.05,"wind_gusts":24.8,"aqi":196,"pm10":150.4,"pm2_5":43.9,"no2":12.4,"co":499.0,"o3":88.0,"so2":11.2,"mosquito_risk":3,"arthritis_risk":5,"migraine_risk":7,"frizz_risk":1,"updated_at":"2026-07-20T15:44:32.083076+05:30"},{"city":"Ghaziabad","state":"Uttar Pradesh","latitude":28.6692,"longitude":77.4538,"temp":31.7,"humidity":74,"rain":0.0,"pressure":975.6,"uv_index":4.35,"wind_gusts":29.2,"aqi":154,"pm10":239.3,"pm2_5":71.0,"no2":13.9,"co":281.0,"o3":119.0,"so2":26.3,"mosquito_risk":3,"arthritis_risk":5,"migraine_risk":3,"frizz_risk":1,"updated_at":"2026-07-20T15:44:32.083082+05:30"},{"city":"Faridabad","state":"Haryana","latitude":28.4089,"longitude":77.3178,"temp":32.9,"humidity":66,"rain":0.0,"pressure":976.5,"uv_index":5.5,"wind_gusts":31.3,"aqi":196,"pm10":150.4,"pm2_5":43.9,"no2":12.4,"co":562.0,"o3":88.0,"so2":11.2,"mosquito_risk":3,"arthritis_risk":5,"migraine_risk":3,"frizz_risk":1,"updated_at":"2026-07-20T15:44:32.083089+05:30"},{"city":"Meerut","state":"Uttar Pradesh","latitude":28.9845,"longitude":77.7064,"temp":30.9,"humidity":76,"rain":0.0,"pressure":974.6,"uv_index":6.15,"wind_gusts":29.9,"aqi":154,"pm10":239.3,"pm2_5":71.0,"no2":13.9,"co":229.0,"o3":119.0,"so2":26.3,"mosquito_risk":3,"arthritis_risk":5,"migraine_risk":7,"frizz_risk":1,"updated_at":"2026-07-20T15:44:32.083096+05:30"},{"city":"Agra","state":"Uttar Pradesh","latitude":27.1767,"longitude":78.0081,"temp":29.2,"humidity":84,"rain":0.0,"pressure":981.4,"uv_index":1.3,"wind_gusts":30.2,"aqi":84,"pm10":64.5,"pm2_5":26.3,"no2":4.3,"co":172.0,"o3":99.0,"so2":3.1,"mosquito_risk":7,"arthritis_risk":5,"migraine_risk":3,"frizz_risk":1,"updated_at":"2026-07-20T15:44:32.083102+05:30"},{"city":"Varanasi","state":"Uttar Pradesh","latitude":25.3176,"longitude":82.9739,"temp":27.9,"humidity":91,"rain":0.2,"pressure":991.3,"uv_index":4.25,"wind_gusts":25.2,"aqi":98,"pm10":14.2,"pm2_5":14.1,"no2":8.0,"co":398.0,"o3":122.0,"so2":6.8,"mosquito_risk":10,"arthritis_risk":5,"migraine_risk":3,"frizz_risk":1,"updated_at":"2026-07-20T15:44:32.083108+05:30"},{"city":"Prayagraj","state":"Uttar Pradesh","latitude":25.4358,"longitude":81.8463,"temp":29.5,"humidity":83,"rain":0.0,"pressure":989.6,"uv_index":7.15,"wind_gusts":22.7,"aqi":100,"pm10":28.1,"pm2_5":19.7,"no2":3.6,"co":223.0,"o3":145.0,"so2":5.9,"mosquito_risk":7,"arthritis_risk":5,"migraine_risk":7,"frizz_risk":1,"updated_at":"2026-07-20T15:44:32.083114+05:30"},{"city":"Gorakhpur","state":"Uttar Pradesh","latitude":26.7606,"longitude":83.3732,"temp":29.5,"humidity":83,"rain":0.0,"pressure":991.3,"uv_index":8.2,"wind_gusts":27.0,"aqi":72,"pm10":8.9,"pm2_5":8.9,"no2":3.9,"co":374.0,"o3":139.0,"so2":6.2,"mosquito_risk":7,"arthritis_risk":5,"migraine_risk":7,"frizz_risk":1,"updated_at":"2026-07-20T15:44:32.083121+05:30"},{"city":"Bareilly","state":"Uttar Pradesh","latitude":28.367,"longitude":79.4304,"temp":27.8,"humidity":91,"rain":0.2,"pressure":980.5,"uv_index":0.7,"wind_gusts":37.1,"aqi":89,"pm10":16.4,"pm2_5":13.7,"no2":5.6,"co":275.0,"o3":120.0,"so2":4.4,"mosquito_risk":10,"arthritis_risk":5,"migraine_risk":3,"frizz_risk":1,"updated_at":"2026-07-20T15:44:32.083128+05:30"},{"city":"Aligarh","state":"Uttar Pradesh","latitude":27.8974,"longitude":78.088,"temp":29.5,"humidity":88,"rain":0.0,"pressure":978.8,"uv_index":2.6,"wind_gusts":28.8,"aqi":111,"pm10":127.6,"pm2_5":45.1,"no2":4.7,"co":203.0,"o3":106.0,"so2":8.4,"mosquito_risk":7,"arthritis_risk":5,"migraine_risk":3,"frizz_risk":1,"updated_at":"2026-07-20T15:44:32.083135+05:30"},{"city":"Moradabad","state":"Uttar Pradesh","latitude":28.8386,"longitude":78.7733,"temp":28.8,"humidity":83,"rain":0.0,"pressure":977.2,"uv_index":5.85,"wind_gusts":32.0,"aqi":108,"pm10":31.0,"pm2_5":18.5,"no2":7.5,"co":273.0,"o3":127.0,"so2":15.2,"mosquito_risk":7,"arthritis_risk":5,"migraine_risk":3,"frizz_risk":1,"updated_at":"2026-07-20T15:44:32.083141+05:30"},{"city":"Saharanpur","state":"Uttar Pradesh","latitude":29.9637,"longitude":77.546,"temp":28.3,"humidity":88,"rain":0.0,"pressure":969.9,"uv_index":5.1,"wind_gusts":33.8,"aqi":111,"pm10":30.2,"pm2_5":16.0,"no2":6.8,"co":268.0,"o3":95.0,"so2":6.4,"mosquito_risk":7,"arthritis_risk":5,"migraine_risk":3,"frizz_risk":1,"updated_at":"2026-07-20T15:44:32.083147+05:30"},{"city":"Jhansi","state":"Uttar Pradesh","latitude":25.4484,"longitude":78.5685,"temp":30.6,"humidity":67,"rain":0.0,"pressure":972.3,"uv_index":1.9,"wind_gusts":21.6,"aqi":75,"pm10":18.6,"pm2_5":14.2,"no2":6.5,"co":206.0,"o3":81.0,"so2":6.8,"mosquito_risk":3,"arthritis_risk":5,"migraine_risk":3,"frizz_risk":1,"updated_at":"2026-07-20T15:44:35.310801+05:30"},{"city":"Surat","state":"Gujarat","latitude":21.1702,"longitude":72.8311,"temp":29.9,"humidity":75,"rain":0.0,"pressure":1000.9,"uv_index":7.15,"wind_gusts":46.4,"aqi":63,"pm10":24.6,"pm2_5":16.4,"no2":15.1,"co":230.0,"o3":42.0,"so2":33.2,"mosquito_risk":7,"arthritis_risk":5,"migraine_risk":4,"frizz_risk":1,"updated_at":"2026-07-20T15:44:35.310830+05:30"},{"city":"Vadodara","state":"Gujarat","latitude":22.3072,"longitude":73.1812,"temp":28.0,"humidity":85,"rain":0.2,"pressure":998.0,"uv_index":6.9,"wind_gusts":41.0,"aqi":59,"pm10":20.0,"pm2_5":10.5,"no2":5.6,"co":150.0,"o3":70.0,"so2":4.4,"mosquito_risk":10,"arthritis_risk":5,"migraine_risk":7,"frizz_risk":1,"updated_at":"2026-07-20T15:44:35.310840+05:30"},{"city":"Rajkot","state":"Gujarat","latitude":22.3039,"longitude":70.8022,"temp":32.5,"humidity":56,"rain":0.1,"pressure":987.1,"uv_index":6.35,"wind_gusts":44.3,"aqi":58,"pm10":29.6,"pm2_5":14.3,"no2":1.4,"co":104.0,"o3":77.0,"so2":4.2,"mosquito_risk":3,"arthritis_risk":5,"migraine_risk":7,"frizz_risk":1,"updated_at":"2026-07-20T15:44:35.310847+05:30"},{"city":"Thane","state":"Maharashtra","latitude":19.2183,"longitude":72.9781,"temp":27.1,"humidity":87,"rain":0.0,"pressure":1004.2,"uv_index":7.7,"wind_gusts":37.1,"aqi":55,"pm10":21.9,"pm2_5":11.9,"no2":6.9,"co":167.0,"o3":59.0,"so2":6.6,"mosquito_risk":7,"arthritis_risk":5,"migraine_risk":4,"frizz_risk":1,"updated_at":"2026-07-20T15:44:35.310855+05:30"},{"city":"Nagpur","state":"Maharashtra","latitude":21.1458,"longitude":79.0882,"temp":29.7,"humidity":76,"rain":0.1,"pressure":967.5,"uv_index":5.4,"wind_gusts":30.6,"aqi":68,"pm10":17.6,"pm2_5":12.2,"no2":11.2,"co":178.0,"o3":82.0,"so2":26.5,"mosquito_risk":10,"arthritis_risk":5,"migraine_risk":3,"frizz_risk":1,"updated_at":"2026-07-20T15:44:35.310862+05:30"},{"city":"Nashik","state":"Maharashtra","latitude":19.9975,"longitude":73.7898,"temp":24.6,"humidity":85,"rain":0.0,"pressure":941.2,"uv_index":6.35,"wind_gusts":47.2,"aqi":22,"pm10":10.0,"pm2_5":5.9,"no2":2.9,"co":141.0,"o3":58.0,"so2":2.4,"mosquito_risk":3,"arthritis_risk":5,"migraine_risk":7,"frizz_risk":1,"updated_at":"2026-07-20T15:44:35.310868+05:30"},{"city":"Aurangabad","state":"Maharashtra","latitude":19.8762,"longitude":75.3433,"temp":28.3,"humidity":67,"rain":0.0,"pressure":939.6,"uv_index":7.35,"wind_gusts":52.2,"aqi":30,"pm10":12.4,"pm2_5":6.8,"no2":3.3,"co":133.0,"o3":66.0,"so2":5.6,"mosquito_risk":7,"arthritis_risk":5,"migraine_risk":7,"frizz_risk":1,"updated_at":"2026-07-20T15:44:35.310875+05:30"},{"city":"Solapur","state":"Maharashtra","latitude":17.6599,"longitude":75.9064,"temp":26.9,"humidity":78,"rain":0.0,"pressure":953.8,"uv_index":7.4,"wind_gusts":48.6,"aqi":30,"pm10":10.4,"pm2_5":5.4,"no2":2.4,"co":126.0,"o3":60.0,"so2":1.5,"mosquito_risk":7,"arthritis_risk":5,"migraine_risk":7,"frizz_risk":1,"updated_at":"2026-07-20T15:44:35.310881+05:30"},{"city":"Kolhapur","state":"Maharashtra","latitude":16.705,"longitude":74.2433,"temp":25.1,"humidity":83,"rain":0.0,"pressure":945.8,"uv_index":7.85,"wind_gusts":54.0,"aqi":24,"pm10":6.6,"pm2_5":4.5,"no2":4.3,"co":135.0,"o3":49.0,"so2":1.9,"mosquito_risk":7,"arthritis_risk":5,"migraine_risk":7,"frizz_risk":1,"updated_at":"2026-07-20T15:44:35.310888+05:30"},{"city":"Goa","state":"Goa","latitude":15.2993,"longitude":74.124,"temp":25.5,"humidity":96,"rain":0.5,"pressure":997.7,"uv_index":5.25,"wind_gusts":35.6,"aqi":56,"pm10":22.2,"pm2_5":11.2,"no2":1.4,"co":115.0,"o3":54.0,"so2":0.8,"mosquito_risk":10,"arthritis_risk":5,"migraine_risk":3,"frizz_risk":1,"updated_at":"2026-07-20T15:44:35.310894+05:30"},{"city":"Jodhpur","state":"Rajasthan","latitude":26.2389,"longitude":73.0243,"temp":35.9,"humidity":45,"rain":0.0,"pressure":975.2,"uv_index":7.9,"wind_gusts":35.3,"aqi":81,"pm10":56.5,"pm2_5":15.7,"no2":1.1,"co":109.0,"o3":88.0,"so2":1.5,"mosquito_risk":0,"arthritis_risk":5,"migraine_risk":10,"frizz_risk":1,"updated_at":"2026-07-20T15:44:35.310901+05:30"},{"city":"Udaipur","state":"Rajasthan","latitude":24.5854,"longitude":73.7125,"temp":30.6,"humidity":62,"rain":0.1,"pressure":940.4,"uv_index":6.05,"wind_gusts":32.4,"aqi":64,"pm10":34.6,"pm2_5":17.8,"no2":1.9,"co":118.0,"o3":90.0,"so2":6.0,"mosquito_risk":6,"arthritis_risk":5,"migraine_risk":7,"frizz_risk":1,"updated_at":"2026-07-20T15:44:35.310907+05:30"},{"city":"Kota","state":"Rajasthan","latitude":25.2138,"longitude":75.8648,"temp":33.1,"humidity":56,"rain":0.0,"pressure":972.4,"uv_index":1.35,"wind_gusts":32.4,"aqi":73,"pm10":29.5,"pm2_5":16.8,"no2":1.5,"co":144.0,"o3":116.0,"so2":7.4,"mosquito_risk":0,"arthritis_risk":5,"migraine_risk":3,"frizz_risk":1,"updated_at":"2026-07-20T15:44:35.310914+05:30"},{"city":"Bikaner","state":"Rajasthan","latitude":28.0229,"longitude":73.3119,"temp":38.9,"humidity":34,"rain":0.0,"pressure":973.1,"uv_index":8.4,"wind_gusts":45.7,"aqi":94,"pm10":83.4,"pm2_5":28.3,"no2":0.5,"co":107.0,"o3":83.0,"so2":2.2,"mosquito_risk":0,"arthritis_risk":5,"migraine_risk":10,"frizz_risk":1,"updated_at":"2026-07-20T15:44:35.310920+05:30"},{"city":"Ajmer","state":"Rajasthan","latitude":26.4499,"longitude":74.6399,"temp":32.2,"humidity":56,"rain":0.0,"pressure":948.3,"uv_index":7.45,"wind_gusts":37.4,"aqi":65,"pm10":29.2,"pm2_5":15.5,"no2":1.6,"co":125.0,"o3":97.0,"so2":3.6,"mosquito_risk":0,"arthritis_risk":5,"migraine_risk":7,"frizz_risk":1,"updated_at":"2026-07-20T15:44:35.310927+05:30"},{"city":"Gwalior","state":"Madhya Pradesh","latitude":26.2183,"longitude":78.1828,"temp":29.3,"humidity":76,"rain":0.1,"pressure":977.4,"uv_index":1.4,"wind_gusts":29.5,"aqi":74,"pm10":33.1,"pm2_5":21.8,"no2":4.8,"co":171.0,"o3":98.0,"so2":4.7,"mosquito_risk":10,"arthritis_risk":5,"migraine_risk":3,"frizz_risk":1,"updated_at":"2026-07-20T15:44:35.310933+05:30"},{"city":"Indore","state":"Madhya Pradesh","latitude":22.7196,"longitude":75.8577,"temp":27.2,"humidity":76,"rain":0.1,"pressure":942.8,"uv_index":5.4,"wind_gusts":33.5,"aqi":59,"pm10":20.2,"pm2_5":10.9,"no2":2.9,"co":193.0,"o3":81.0,"so2":4.1,"mosquito_risk":10,"arthritis_risk":5,"migraine_risk":3,"frizz_risk":1,"updated_at":"2026-07-20T15:44:35.310939+05:30"},{"city":"Bhopal","state":"Madhya Pradesh","latitude":23.2599,"longitude":77.4126,"temp":28.7,"humidity":70,"rain":0.1,"pressure":948.1,"uv_index":6.2,"wind_gusts":28.1,"aqi":67,"pm10":18.0,"pm2_5":12.2,"no2":3.8,"co":239.0,"o3":82.0,"so2":4.9,"mosquito_risk":10,"arthritis_risk":5,"migraine_risk":7,"frizz_risk":1,"updated_at":"2026-07-20T15:44:35.310945+05:30"},{"city":"Jabalpur","state":"Madhya Pradesh","latitude":23.1815,"longitude":79.9864,"temp":27.0,"humidity":89,"rain":0.2,"pressure":955.9,"uv_index":1.95,"wind_gusts":25.6,"aqi":81,"pm10":16.5,"pm2_5":12.4,"no2":2.9,"co":201.0,"o3":97.0,"so2":2.6,"mosquito_risk":10,"arthritis_risk":5,"migraine_risk":3,"frizz_risk":1,"updated_at":"2026-07-20T15:44:35.310952+05:30"},{"city":"Ujjain","state":"Madhya Pradesh","latitude":23.1765,"longitude":75.7885,"temp":26.2,"humidity":91,"rain":0.1,"pressure":948.3,"uv_index":4.55,"wind_gusts":29.5,"aqi":60,"pm10":21.1,"pm2_5":11.5,"no2":1.8,"co":158.0,"o3":81.0,"so2":4.2,"mosquito_risk":10,"arthritis_risk":5,"migraine_risk":3,"frizz_risk":1,"updated_at":"2026-07-20T15:44:35.310958+05:30"},{"city":"Visakhapatnam","state":"Andhra Pradesh","latitude":17.6868,"longitude":83.2185,"temp":28.5,"humidity":89,"rain":0.4,"pressure":997.6,"uv_index":7.5,"wind_gusts":49.7,"aqi":77,"pm10":28.2,"pm2_5":21.6,"no2":10.8,"co":307.0,"o3":115.0,"so2":26.5,"mosquito_risk":10,"arthritis_risk":5,"migraine_risk":7,"frizz_risk":1,"updated_at":"2026-07-20T15:44:35.310965+05:30"},{"city":"Vijayawada","state":"Andhra Pradesh","latitude":16.5062,"longitude":80.648,"temp":33.9,"humidity":50,"rain":0.0,"pressure":997.6,"uv_index":6.65,"wind_gusts":41.4,"aqi":60,"pm10":12.5,"pm2_5":7.6,"no2":2.2,"co":128.0,"o3":84.0,"so2":3.9,"mosquito_risk":0,"arthritis_risk":5,"migraine_risk":7,"frizz_risk":1,"updated_at":"2026-07-20T15:44:35.310971+05:30"},{"city":"Guntur","state":"Andhra Pradesh","latitude":16.3067,"longitude":80.4365,"temp":29.1,"humidity":75,"rain":0.1,"pressure":999.9,"uv_index":6.5,"wind_gusts":49.3,"aqi":56,"pm10":12.8,"pm2_5":7.2,"no2":2.2,"co":124.0,"o3":79.0,"so2":3.2,"mosquito_risk":10,"arthritis_risk":5,"migraine_risk":7,"frizz_risk":1,"updated_at":"2026-07-20T15:44:35.310978+05:30"},{"city":"Nellore","state":"Andhra Pradesh","latitude":14.4426,"longitude":79.9865,"temp":32.4,"humidity":59,"rain":0.0,"pressure":1001.7,"uv_index":6.85,"wind_gusts":39.6,"aqi":66,"pm10":25.4,"pm2_5":13.7,"no2":4.3,"co":115.0,"o3":89.0,"so2":4.8,"mosquito_risk":0,"arthritis_risk":5,"migraine_risk":4,"frizz_risk":1,"updated_at":"2026-07-20T15:44:35.310985+05:30"},{"city":"Kurnool","state":"Andhra Pradesh","latitude":15.8281,"longitude":78.0373,"temp":29.0,"humidity":67,"rain":0.0,"pressure":973.9,"uv_index":8.55,"wind_gusts":47.2,"aqi":46,"pm10":24.8,"pm2_5":10.4,"no2":1.4,"co":115.0,"o3":76.0,"so2":1.7,"mosquito_risk":7,"arthritis_risk":5,"migraine_risk":7,"frizz_risk":1,"updated_at":"2026-07-20T15:44:35.310992+05:30"},{"city":"Kakinada","state":"Andhra Pradesh","latitude":16.9891,"longitude":82.2475,"temp":31.7,"humidity":64,"rain":0.0,"pressure":1002.1,"uv_index":7.75,"wind_gusts":50.0,"aqi":68,"pm10":16.6,"pm2_5":12.3,"no2":2.1,"co":162.0,"o3":105.0,"so2":3.8,"mosquito_risk":3,"arthritis_risk":5,"migraine_risk":4,"frizz_risk":1,"updated_at":"2026-07-20T15:44:35.310999+05:30"},{"city":"Tirupati","state":"Andhra Pradesh","latitude":13.6288,"longitude":79.4192,"temp":31.2,"humidity":60,"rain":0.0,"pressure":987.7,"uv_index":8.75,"wind_gusts":37.1,"aqi":66,"pm10":21.0,"pm2_5":8.9,"no2":3.5,"co":104.0,"o3":68.0,"so2":1.2,"mosquito_risk":0,"arthritis_risk":5,"migraine_risk":7,"frizz_risk":1,"updated_at":"2026-07-20T15:44:35.311005+05:30"},{"city":"Warangal","state":"Telangana","latitude":17.9689,"longitude":79.5941,"temp":27.7,"humidity":83,"rain":0.2,"pressure":974.4,"uv_index":5.5,"wind_gusts":41.8,"aqi":54,"pm10":6.1,"pm2_5":4.6,"no2":3.1,"co":158.0,"o3":65.0,"so2":1.7,"mosquito_risk":10,"arthritis_risk":5,"migraine_risk":3,"frizz_risk":1,"updated_at":"2026-07-20T15:44:35.311012+05:30"},{"city":"Nizamabad","state":"Telangana","latitude":18.6725,"longitude":78.0941,"temp":27.2,"humidity":86,"rain":0.0,"pressure":960.4,"uv_index":6.85,"wind_gusts":44.3,"aqi":48,"pm10":11.5,"pm2_5":7.0,"no2":2.8,"co":152.0,"o3":71.0,"so2":5.5,"mosquito_risk":7,"arthritis_risk":5,"migraine_risk":7,"frizz_risk":1,"updated_at":"2026-07-20T15:44:35.311018+05:30"},{"city":"Mysore","state":"Karnataka","latitude":12.2958,"longitude":76.6396,"temp":27.1,"humidity":62,"rain":0.0,"pressure":927.7,"uv_index":7.9,"wind_gusts":50.8,"aqi":27,"pm10":13.8,"pm2_5":6.3,"no2":1.9,"co":126.0,"o3":70.0,"so2":1.3,"mosquito_risk":7,"arthritis_risk":5,"migraine_risk":7,"frizz_risk":1,"updated_at":"2026-07-20T15:44:35.311025+05:30"},{"city":"Mangalore","state":"Karnataka","latitude":12.9141,"longitude":74.856,"temp":26.9,"humidity":79,"rain":0.0,"pressure":1007.4,"uv_index":8.55,"wind_gusts":36.4,"aqi":52,"pm10":15.5,"pm2_5":7.7,"no2":1.4,"co":97.0,"o3":54.0,"so2":1.6,"mosquito_risk":7,"arthritis_risk":5,"migraine_risk":4,"frizz_risk":1,"updated_at":"2026-07-20T15:44:35.311031+05:30"},{"city":"Hubli-Dharwad","state":"Karnataka","latitude":15.3647,"longitude":75.124,"temp":25.2,"humidity":79,"rain":0.1,"pressure":939.3,"uv_index":8.1,"wind_gusts":58.0,"aqi":22,"pm10":6.2,"pm2_5":3.2,"no2":2.2,"co":104.0,"o3":49.0,"so2":0.8,"mosquito_risk":10,"arthritis_risk":5,"migraine_risk":7,"frizz_risk":1,"updated_at":"2026-07-20T15:44:35.311037+05:30"},{"city":"Belgaum","state":"Karnataka","latitude":15.8497,"longitude":74.4977,"temp":23.6,"humidity":87,"rain":0.1,"pressure":924.1,"uv_index":6.6,"wind_gusts":58.0,"aqi":19,"pm10":7.0,"pm2_5":4.5,"no2":4.3,"co":104.0,"o3":42.0,"so2":1.5,"mosquito_risk":6,"arthritis_risk":5,"migraine_risk":7,"frizz_risk":1,"updated_at":"2026-07-20T15:44:38.555641+05:30"},{"city":"Coimbatore","state":"Tamil Nadu","latitude":11.0168,"longitude":76.9558,"temp":28.9,"humidity":62,"rain":0.0,"pressure":960.4,"uv_index":8.45,"wind_gusts":55.1,"aqi":33,"pm10":8.2,"pm2_5":5.0,"no2":1.5,"co":144.0,"o3":66.0,"so2":1.8,"mosquito_risk":7,"arthritis_risk":5,"migraine_risk":7,"frizz_risk":1,"updated_at":"2026-07-20T15:44:38.555675+05:30"},{"city":"Madurai","state":"Tamil Nadu","latitude":9.9252,"longitude":78.1198,"temp":33.5,"humidity":46,"rain":0.1,"pressure":991.0,"uv_index":7.15,"wind_gusts":32.8,"aqi":63,"pm10":18.2,"pm2_5":7.9,"no2":2.3,"co":160.0,"o3":79.0,"so2":1.7,"mosquito_risk":3,"arthritis_risk":5,"migraine_risk":7,"frizz_risk":1,"updated_at":"2026-07-20T15:44:38.555689+05:30"},{"city":"Trichy","state":"Tamil Nadu","latitude":10.7905,"longitude":78.7047,"temp":35.9,"humidity":35,"rain":0.0,"pressure":997.0,"uv_index":7.6,"wind_gusts":56.2,"aqi":52,"pm10":13.0,"pm2_5":6.9,"no2":1.8,"co":122.0,"o3":75.0,"so2":1.8,"mosquito_risk":0,"arthritis_risk":5,"migraine_risk":10,"frizz_risk":1,"updated_at":"2026-07-20T15:44:38.555700+05:30"},{"city":"Salem","state":"Tamil Nadu","latitude":11.6643,"longitude":78.146,"temp":33.0,"humidity":48,"rain":0.0,"pressure":974.9,"uv_index":8.6,"wind_gusts":34.6,"aqi":59,"pm10":14.1,"pm2_5":8.1,"no2":3.2,"co":138.0,"o3":85.0,"so2":4.2,"mosquito_risk":0,"arthritis_risk":5,"migraine_risk":7,"frizz_risk":1,"updated_at":"2026-07-20T15:44:38.555710+05:30"},{"city":"Tirunelveli","state":"Tamil Nadu","latitude":8.7139,"longitude":77.7567,"temp":35.6,"humidity":38,"rain":0.0,"pressure":1001.3,"uv_index":8.25,"wind_gusts":43.6,"aqi":31,"pm10":11.4,"pm2_5":7.9,"no2":1.7,"co":118.0,"o3":72.0,"so2":1.4,"mosquito_risk":0,"arthritis_risk":5,"migraine_risk":7,"frizz_risk":1,"updated_at":"2026-07-20T15:44:38.555719+05:30"},{"city":"Vellore","state":"Tamil Nadu","latitude":12.9165,"longitude":79.1325,"temp":27.7,"humidity":85,"rain":0.0,"pressure":981.8,"uv_index":8.2,"wind_gusts":41.0,"aqi":71,"pm10":24.9,"pm2_5":11.7,"no2":4.1,"co":140.0,"o3":79.0,"so2":1.9,"mosquito_risk":7,"arthritis_risk":5,"migraine_risk":7,"frizz_risk":1,"updated_at":"2026-07-20T15:44:38.555728+05:30"},{"city":"Erode","state":"Tamil Nadu","latitude":11.341,"longitude":77.7172,"temp":29.7,"humidity":68,"rain":0.1,"pressure":987.0,"uv_index":8.0,"wind_gusts":49.3,"aqi":51,"pm10":10.7,"pm2_5":6.3,"no2":2.3,"co":158.0,"o3":79.0,"so2":1.8,"mosquito_risk":10,"arthritis_risk":5,"migraine_risk":7,"frizz_risk":1,"updated_at":"2026-07-20T15:44:38.555737+05:30"},{"city":"Kochi","state":"Kerala","latitude":9.9312,"longitude":76.2673,"temp":27.5,"humidity":80,"rain":0.0,"pressure":1009.4,"uv_index":7.75,"wind_gusts":27.4,"aqi":51,"pm10":10.9,"pm2_5":6.1,"no2":2.3,"co":113.0,"o3":56.0,"so2":2.4,"mosquito_risk":7,"arthritis_risk":0,"migraine_risk":4,"frizz_risk":1,"updated_at":"2026-07-20T15:44:38.555745+05:30"},{"city":"Thiruvananthapuram","state":"Kerala","latitude":8.5241,"longitude":76.9366,"temp":28.3,"humidity":77,"rain":0.0,"pressure":1008.5,"uv_index":7.4,"wind_gusts":40.3,"aqi":43,"pm10":14.2,"pm2_5":8.8,"no2":2.9,"co":103.0,"o3":63.0,"so2":1.3,"mosquito_risk":7,"arthritis_risk":0,"migraine_risk":4,"frizz_risk":1,"updated_at":"2026-07-20T15:44:38.555753+05:30"},{"city":"Kozhikode","state":"Kerala","latitude":11.2588,"longitude":75.7804,"temp":27.5,"humidity":79,"rain":0.0,"pressure":1008.5,"uv_index":8.0,"wind_gusts":29.9,"aqi":33,"pm10":9.4,"pm2_5":5.1,"no2":0.6,"co":107.0,"o3":55.0,"so2":1.2,"mosquito_risk":7,"arthritis_risk":0,"migraine_risk":4,"frizz_risk":1,"updated_at":"2026-07-20T15:44:38.555762+05:30"},{"city":"Thrissur","state":"Kerala","latitude":10.5276,"longitude":76.2144,"temp":26.1,"humidity":90,"rain":0.1,"pressure":1007.8,"uv_index":8.35,"wind_gusts":23.4,"aqi":50,"pm10":7.9,"pm2_5":4.8,"no2":1.5,"co":104.0,"o3":52.0,"so2":1.5,"mosquito_risk":10,"arthritis_risk":5,"migraine_risk":4,"frizz_risk":1,"updated_at":"2026-07-20T15:44:38.555771+05:30"},{"city":"Kannur","state":"Kerala","latitude":11.8745,"longitude":75.3704,"temp":27.7,"humidity":78,"rain":0.1,"pressure":1007.9,"uv_index":8.55,"wind_gusts":32.0,"aqi":43,"pm10":11.3,"pm2_5":5.5,"no2":1.2,"co":94.0,"o3":53.0,"so2":1.1,"mosquito_risk":10,"arthritis_risk":5,"migraine_risk":4,"frizz_risk":1,"updated_at":"2026-07-20T15:44:38.555780+05:30"},{"city":"Patna","state":"Bihar","latitude":25.5941,"longitude":85.1376,"temp":29.2,"humidity":86,"rain":0.2,"pressure":994.2,"uv_index":5.15,"wind_gusts":28.1,"aqi":83,"pm10":16.9,"pm2_5":16.8,"no2":12.0,"co":395.0,"o3":94.0,"so2":10.3,"mosquito_risk":10,"arthritis_risk":5,"migraine_risk":3,"frizz_risk":1,"updated_at":"2026-07-20T15:44:38.555789+05:30"},{"city":"Gaya","state":"Bihar","latitude":24.7914,"longitude":85.0002,"temp":27.7,"humidity":90,"rain":0.0,"pressure":987.8,"uv_index":1.15,"wind_gusts":25.9,"aqi":79,"pm10":12.2,"pm2_5":11.3,"no2":6.7,"co":261.0,"o3":106.0,"so2":8.6,"mosquito_risk":7,"arthritis_risk":5,"migraine_risk":3,"frizz_risk":1,"updated_at":"2026-07-20T15:44:38.555798+05:30"},{"city":"Muzaffarpur","state":"Bihar","latitude":26.1209,"longitude":85.3647,"temp":29.1,"humidity":86,"rain":0.1,"pressure":994.4,"uv_index":7.9,"wind_gusts":37.1,"aqi":72,"pm10":17.3,"pm2_5":17.3,"no2":11.5,"co":368.0,"o3":94.0,"so2":9.3,"mosquito_risk":10,"arthritis_risk":5,"migraine_risk":7,"frizz_risk":1,"updated_at":"2026-07-20T15:44:38.555806+05:30"},{"city":"Bhagalpur","state":"Bihar","latitude":25.2425,"longitude":87.0117,"temp":29.5,"humidity":84,"rain":0.0,"pressure":995.2,"uv_index":4.55,"wind_gusts":30.6,"aqi":73,"pm10":19.4,"pm2_5":18.8,"no2":10.8,"co":293.0,"o3":98.0,"so2":14.7,"mosquito_risk":7,"arthritis_risk":5,"migraine_risk":3,"frizz_risk":1,"updated_at":"2026-07-20T15:44:38.555814+05:30"},{"city":"Ranchi","state":"Jharkhand","latitude":23.3441,"longitude":85.3096,"temp":26.7,"humidity":83,"rain":0.0,"pressure":932.4,"uv_index":4.6,"wind_gusts":24.1,"aqi":72,"pm10":36.3,"pm2_5":26.1,"no2":3.1,"co":255.0,"o3":130.0,"so2":9.3,"mosquito_risk":7,"arthritis_risk":5,"migraine_risk":3,"frizz_risk":1,"updated_at":"2026-07-20T15:44:38.555822+05:30"},{"city":"Jamshedpur","state":"Jharkhand","latitude":22.8046,"longitude":86.2029,"temp":29.4,"humidity":84,"rain":0.0,"pressure":984.8,"uv_index":7.75,"wind_gusts":24.5,"aqi":95,"pm10":36.8,"pm2_5":33.4,"no2":5.8,"co":458.0,"o3":133.0,"so2":17.2,"mosquito_risk":7,"arthritis_risk":5,"migraine_risk":7,"frizz_risk":1,"updated_at":"2026-07-20T15:44:38.555829+05:30"},{"city":"Dhanbad","state":"Jharkhand","latitude":23.7957,"longitude":86.4304,"temp":27.6,"humidity":94,"rain":0.1,"pressure":974.1,"uv_index":7.4,"wind_gusts":23.0,"aqi":148,"pm10":51.6,"pm2_5":49.1,"no2":35.2,"co":597.0,"o3":104.0,"so2":71.9,"mosquito_risk":10,"arthritis_risk":5,"migraine_risk":7,"frizz_risk":1,"updated_at":"2026-07-20T15:44:38.555835+05:30"},{"city":"Bokaro","state":"Jharkhand","latitude":23.6693,"longitude":86.1511,"temp":27.4,"humidity":92,"rain":0.1,"pressure":978.0,"uv_index":7.15,"wind_gusts":26.3,"aqi":140,"pm10":53.7,"pm2_5":49.7,"no2":34.1,"co":1121.0,"o3":111.0,"so2":77.4,"mosquito_risk":10,"arthritis_risk":5,"migraine_risk":7,"frizz_risk":1,"updated_at":"2026-07-20T15:44:38.555842+05:30"},{"city":"Bhubaneswar","state":"Odisha","latitude":20.2961,"longitude":85.8245,"temp":27.9,"humidity":92,"rain":0.2,"pressure":996.6,"uv_index":8.05,"wind_gusts":35.3,"aqi":95,"pm10":27.2,"pm2_5":23.6,"no2":8.0,"co":248.0,"o3":92.0,"so2":6.3,"mosquito_risk":10,"arthritis_risk":5,"migraine_risk":7,"frizz_risk":1,"updated_at":"2026-07-20T15:44:38.555848+05:30"},{"city":"Cuttack","state":"Odisha","latitude":20.4625,"longitude":85.8828,"temp":28.3,"humidity":89,"rain":0.1,"pressure":998.6,"uv_index":8.45,"wind_gusts":24.5,"aqi":95,"pm10":27.2,"pm2_5":23.6,"no2":8.0,"co":240.0,"o3":92.0,"so2":6.3,"mosquito_risk":10,"arthritis_risk":5,"migraine_risk":7,"frizz_risk":1,"updated_at":"2026-07-20T15:44:38.555854+05:30"},{"city":"Rourkela","state":"Odisha","latitude":22.2604,"longitude":84.8536,"temp":28.6,"humidity":83,"rain":0.0,"pressure":978.8,"uv_index":5.65,"wind_gusts":28.4,"aqi":97,"pm10":55.1,"pm2_5":41.6,"no2":5.2,"co":271.0,"o3":146.0,"so2":21.9,"mosquito_risk":7,"arthritis_risk":5,"migraine_risk":3,"frizz_risk":1,"updated_at":"2026-07-20T15:44:38.555861+05:30"},{"city":"Raipur","state":"Chhattisgarh","latitude":21.2514,"longitude":81.6296,"temp":27.1,"humidity":89,"rain":0.0,"pressure":968.9,"uv_index":6.85,"wind_gusts":33.5,"aqi":93,"pm10":31.1,"pm2_5":25.7,"no2":20.2,"co":587.0,"o3":94.0,"so2":46.1,"mosquito_risk":7,"arthritis_risk":5,"migraine_risk":7,"frizz_risk":1,"updated_at":"2026-07-20T15:44:38.555867+05:30"},{"city":"Bhilai","state":"Chhattisgarh","latitude":21.1938,"longitude":81.3509,"temp":28.3,"humidity":83,"rain":0.0,"pressure":969.0,"uv_index":6.95,"wind_gusts":36.4,"aqi":85,"pm10":26.7,"pm2_5":21.2,"no2":17.3,"co":946.0,"o3":97.0,"so2":37.5,"mosquito_risk":7,"arthritis_risk":5,"migraine_risk":7,"frizz_risk":1,"updated_at":"2026-07-20T15:44:38.555874+05:30"},{"city":"Guwahati","state":"Assam","latitude":26.1158,"longitude":91.7086,"temp":28.9,"humidity":82,"rain":0.0,"pressure":997.2,"uv_index":5.6,"wind_gusts":20.2,"aqi":45,"pm10":5.8,"pm2_5":5.8,"no2":3.4,"co":272.0,"o3":76.0,"so2":1.1,"mosquito_risk":7,"arthritis_risk":5,"migraine_risk":3,"frizz_risk":1,"updated_at":"2026-07-20T15:44:38.555880+05:30"},{"city":"Agartala","state":"Tripura","latitude":23.8315,"longitude":91.2868,"temp":26.7,"humidity":92,"rain":0.2,"pressure":1002.1,"uv_index":5.6,"wind_gusts":28.8,"aqi":50,"pm10":8.1,"pm2_5":7.4,"no2":6.1,"co":160.0,"o3":77.0,"so2":0.9,"mosquito_risk":10,"arthritis_risk":5,"migraine_risk":0,"frizz_risk":1,"updated_at":"2026-07-20T15:44:38.555886+05:30"},{"city":"Shillong","state":"Meghalaya","latitude":25.5788,"longitude":91.8933,"temp":21.8,"humidity":88,"rain":0.1,"pressure":855.3,"uv_index":2.85,"wind_gusts":24.1,"aqi":24,"pm10":2.1,"pm2_5":2.0,"no2":6.7,"co":216.0,"o3":51.0,"so2":1.1,"mosquito_risk":6,"arthritis_risk":5,"migraine_risk":3,"frizz_risk":1,"updated_at":"2026-07-20T15:44:38.555893+05:30"},{"city":"Imphal","state":"Manipur","latitude":24.817,"longitude":93.9368,"temp":26.4,"humidity":70,"rain":0.0,"pressure":920.7,"uv_index":2.2,"wind_gusts":24.1,"aqi":42,"pm10":5.1,"pm2_5":5.0,"no2":5.3,"co":179.0,"o3":55.0,"so2":1.3,"mosquito_risk":7,"arthritis_risk":5,"migraine_risk":3,"frizz_risk":1,"updated_at":"2026-07-20T15:44:38.555899+05:30"},{"city":"Aizawl","state":"Mizoram","latitude":23.7271,"longitude":92.7176,"temp":20.8,"humidity":98,"rain":0.0,"pressure":889.7,"uv_index":1.05,"wind_gusts":26.6,"aqi":41,"pm10":2.1,"pm2_5":1.8,"no2":2.6,"co":123.0,"o3":50.0,"so2":0.4,"mosquito_risk":3,"arthritis_risk":5,"migraine_risk":3,"frizz_risk":1,"updated_at":"2026-07-20T15:44:38.555905+05:30"},{"city":"Kohima","state":"Nagaland","latitude":25.6701,"longitude":94.1077,"temp":21.7,"humidity":94,"rain":0.1,"pressure":853.2,"uv_index":6.2,"wind_gusts":21.2,"aqi":28,"pm10":1.6,"pm2_5":1.6,"no2":1.4,"co":147.0,"o3":65.0,"so2":0.4,"mosquito_risk":6,"arthritis_risk":5,"migraine_risk":7,"frizz_risk":1,"updated_at":"2026-07-20T15:44:38.555911+05:30"},{"city":"Gangtok","state":"Sikkim","latitude":27.3314,"longitude":88.6138,"temp":21.3,"humidity":91,"rain":0.1,"pressure":836.5,"uv_index":7.25,"wind_gusts":23.8,"aqi":36,"pm10":1.7,"pm2_5":1.7,"no2":2.7,"co":226.0,"o3":82.0,"so2":0.8,"mosquito_risk":6,"arthritis_risk":5,"migraine_risk":7,"frizz_risk":1,"updated_at":"2026-07-20T15:44:38.555917+05:30"},{"city":"Siliguri","state":"West Bengal","latitude":26.7271,"longitude":88.3953,"temp":29.5,"humidity":79,"rain":0.0,"pressure":988.6,"uv_index":3.3,"wind_gusts":28.8,"aqi":46,"pm10":5.5,"pm2_5":5.3,"no2":3.3,"co":334.0,"o3":95.0,"so2":2.1,"mosquito_risk":7,"arthritis_risk":5,"migraine_risk":3,"frizz_risk":1,"updated_at":"2026-07-20T15:44:41.809619+05:30"},{"city":"Durgapur","state":"West Bengal","latitude":23.5204,"longitude":87.3119,"temp":29.4,"humidity":89,"rain":0.0,"pressure":989.0,"uv_index":8.7,"wind_gusts":23.8,"aqi":102,"pm10":45.5,"pm2_5":39.0,"no2":21.8,"co":313.0,"o3":111.0,"so2":36.4,"mosquito_risk":7,"arthritis_risk":5,"migraine_risk":7,"frizz_risk":1,"updated_at":"2026-07-20T15:44:41.809651+05:30"},{"city":"Asansol","state":"West Bengal","latitude":23.6739,"longitude":86.9524,"temp":28.2,"humidity":93,"rain":0.1,"pressure":987.7,"uv_index":7.95,"wind_gusts":25.2,"aqi":100,"pm10":41.2,"pm2_5":37.8,"no2":24.4,"co":552.0,"o3":105.0,"so2":39.4,"mosquito_risk":10,"arthritis_risk":5,"migraine_risk":7,"frizz_risk":1,"updated_at":"2026-07-20T15:44:41.809664+05:30"},{"city":"Pondicherry","state":"Puducherry","latitude":11.9139,"longitude":79.8145,"temp":31.2,"humidity":67,"rain":0.1,"pressure":1005.3,"uv_index":8.4,"wind_gusts":43.6,"aqi":71,"pm10":32.1,"pm2_5":23.3,"no2":7.8,"co":218.0,"o3":124.0,"so2":8.2,"mosquito_risk":6,"arthritis_risk":5,"migraine_risk":4,"frizz_risk":1,"updated_at":"2026-07-20T15:44:41.809674+05:30"},{"city":"Port Blair","state":"Andaman and Nicobar Islands","latitude":11.6234,"longitude":92.7265,"temp":29.9,"humidity":67,"rain":0.0,"pressure":1006.7,"uv_index":7.1,"wind_gusts":41.0,"aqi":54,"pm10":34.1,"pm2_5":16.6,"no2":0.3,"co":95.0,"o3":45.0,"so2":0.6,"mosquito_risk":7,"arthritis_risk":5,"migraine_risk":4,"frizz_risk":1,"updated_at":"2026-07-20T15:44:41.809682+05:30"},{"city":"Haridwar","state":"Uttarakhand","latitude":29.9457,"longitude":78.1642,"temp":27.6,"humidity":95,"rain":0.1,"pressure":968.2,"uv_index":5.15,"wind_gusts":36.4,"aqi":98,"pm10":18.9,"pm2_5":12.0,"no2":5.6,"co":283.0,"o3":81.0,"so2":4.1,"mosquito_risk":10,"arthritis_risk":5,"migraine_risk":3,"frizz_risk":1,"updated_at":"2026-07-20T15:44:41.809691+05:30"},{"city":"Rishikesh","state":"Uttarakhand","latitude":30.0869,"longitude":78.2676,"temp":26.3,"humidity":96,"rain":0.2,"pressure":961.1,"uv_index":5.25,"wind_gusts":16.2,"aqi":76,"pm10":26.5,"pm2_5":12.9,"no2":3.2,"co":271.0,"o3":93.0,"so2":3.3,"mosquito_risk":10,"arthritis_risk":5,"migraine_risk":3,"frizz_risk":1,"updated_at":"2026-07-20T15:44:41.809699+05:30"},{"city":"Nainital","state":"Uttarakhand","latitude":29.3919,"longitude":79.4542,"temp":20.7,"humidity":78,"rain":0.1,"pressure":803.8,"uv_index":1.25,"wind_gusts":30.6,"aqi":58,"pm10":8.3,"pm2_5":7.6,"no2":2.5,"co":279.0,"o3":104.0,"so2":1.0,"mosquito_risk":6,"arthritis_risk":5,"migraine_risk":3,"frizz_risk":1,"updated_at":"2026-07-20T15:44:41.809708+05:30"},{"city":"Mussoorie","state":"Uttarakhand","latitude":30.4599,"longitude":78.0664,"temp":19.4,"humidity":91,"rain":0.0,"pressure":801.0,"uv_index":4.85,"wind_gusts":23.8,"aqi":78,"pm10":9.7,"pm2_5":6.2,"no2":5.6,"co":230.0,"o3":98.0,"so2":5.0,"mosquito_risk":3,"arthritis_risk":10,"migraine_risk":3,"frizz_risk":1,"updated_at":"2026-07-20T15:44:41.809716+05:30"},{"city":"Dharamshala","state":"Himachal Pradesh","latitude":32.219,"longitude":76.3234,"temp":22.0,"humidity":97,"rain":0.1,"pressure":864.9,"uv_index":5.75,"wind_gusts":28.1,"aqi":45,"pm10":6.0,"pm2_5":3.2,"no2":2.3,"co":216.0,"o3":102.0,"so2":0.7,"mosquito_risk":6,"arthritis_risk":5,"migraine_risk":3,"frizz_risk":1,"updated_at":"2026-07-20T15:44:41.809725+05:30"},{"city":"Dalhousie","state":"Himachal Pradesh","latitude":32.5387,"longitude":75.971,"temp":19.4,"humidity":95,"rain":0.0,"pressure":802.6,"uv_index":4.0,"wind_gusts":25.2,"aqi":92,"pm10":68.7,"pm2_5":26.1,"no2":4.5,"co":267.0,"o3":117.0,"so2":2.1,"mosquito_risk":3,"arthritis_risk":10,"migraine_risk":3,"frizz_risk":1,"updated_at":"2026-07-20T15:44:41.809733+05:30"},{"city":"Patiala","state":"Punjab","latitude":30.3398,"longitude":76.3869,"temp":30.2,"humidity":79,"rain":0.1,"pressure":971.5,"uv_index":7.3,"wind_gusts":32.0,"aqi":169,"pm10":109.2,"pm2_5":42.6,"no2":5.5,"co":254.0,"o3":116.0,"so2":6.3,"mosquito_risk":6,"arthritis_risk":5,"migraine_risk":7,"frizz_risk":1,"updated_at":"2026-07-20T15:44:41.809742+05:30"},{"city":"Bhatinda","state":"Punjab","latitude":30.211,"longitude":74.9455,"temp":37.3,"humidity":43,"rain":0.1,"pressure":975.6,"uv_index":6.25,"wind_gusts":32.8,"aqi":368,"pm10":375.3,"pm2_5":100.1,"no2":4.7,"co":148.0,"o3":145.0,"so2":11.4,"mosquito_risk":3,"arthritis_risk":5,"migraine_risk":10,"frizz_risk":1,"updated_at":"2026-07-20T15:44:41.809749+05:30"},{"city":"Rohtak","state":"Haryana","latitude":28.8955,"longitude":76.6066,"temp":32.5,"humidity":67,"rain":0.0,"pressure":974.5,"uv_index":5.25,"wind_gusts":25.9,"aqi":354,"pm10":618.4,"pm2_5":88.9,"no2":6.4,"co":215.0,"o3":95.0,"so2":3.6,"mosquito_risk":3,"arthritis_risk":5,"migraine_risk":3,"frizz_risk":1,"updated_at":"2026-07-20T15:44:41.809757+05:30"},{"city":"Panipat","state":"Haryana","latitude":29.3909,"longitude":76.9635,"temp":30.7,"humidity":80,"rain":0.0,"pressure":973.7,"uv_index":5.2,"wind_gusts":35.6,"aqi":316,"pm10":871.7,"pm2_5":126.2,"no2":8.6,"co":273.0,"o3":102.0,"so2":15.7,"mosquito_risk":3,"arthritis_risk":5,"migraine_risk":3,"frizz_risk":1,"updated_at":"2026-07-20T15:44:41.809765+05:30"},{"city":"Mathura","state":"Uttar Pradesh","latitude":27.4924,"longitude":77.6737,"temp":31.4,"humidity":68,"rain":0.0,"pressure":980.3,"uv_index":2.3,"wind_gusts":29.5,"aqi":119,"pm10":84.8,"pm2_5":26.3,"no2":4.0,"co":190.0,"o3":92.0,"so2":2.0,"mosquito_risk":3,"arthritis_risk":5,"migraine_risk":3,"frizz_risk":1,"updated_at":"2026-07-20T15:44:41.809773+05:30"},{"city":"Vrindavan","state":"Uttar Pradesh","latitude":27.5823,"longitude":77.7027,"temp":31.4,"humidity":68,"rain":0.0,"pressure":980.7,"uv_index":2.1,"wind_gusts":29.9,"aqi":119,"pm10":84.8,"pm2_5":26.3,"no2":4.0,"co":199.0,"o3":92.0,"so2":2.0,"mosquito_risk":3,"arthritis_risk":5,"migraine_risk":3,"frizz_risk":1,"updated_at":"2026-07-20T15:44:41.809781+05:30"},{"city":"Ayodhya","state":"Uttar Pradesh","latitude":26.7922,"longitude":82.1998,"temp":29.5,"humidity":84,"rain":0.0,"pressure":989.4,"uv_index":7.5,"wind_gusts":23.8,"aqi":79,"pm10":11.1,"pm2_5":11.1,"no2":5.0,"co":310.0,"o3":127.0,"so2":4.9,"mosquito_risk":7,"arthritis_risk":5,"migraine_risk":7,"frizz_risk":1,"updated_at":"2026-07-20T15:44:41.809788+05:30"},{"city":"Ratlam","state":"Madhya Pradesh","latitude":23.3315,"longitude":75.0367,"temp":26.3,"humidity":87,"rain":0.1,"pressure":949.0,"uv_index":5.85,"wind_gusts":29.9,"aqi":59,"pm10":20.8,"pm2_5":11.0,"no2":1.5,"co":124.0,"o3":83.0,"so2":4.1,"mosquito_risk":10,"arthritis_risk":5,"migraine_risk":3,"frizz_risk":1,"updated_at":"2026-07-20T15:44:41.809796+05:30"},{"city":"Sagar","state":"Madhya Pradesh","latitude":23.8388,"longitude":78.7378,"temp":25.9,"humidity":96,"rain":0.1,"pressure":944.7,"uv_index":7.15,"wind_gusts":32.0,"aqi":67,"pm10":11.6,"pm2_5":10.2,"no2":3.6,"co":160.0,"o3":78.0,"so2":1.8,"mosquito_risk":10,"arthritis_risk":5,"migraine_risk":7,"frizz_risk":1,"updated_at":"2026-07-20T15:44:41.809804+05:30"},{"city":"Satna","state":"Madhya Pradesh","latitude":24.6005,"longitude":80.8322,"temp":27.9,"humidity":85,"rain":0.1,"pressure":965.4,"uv_index":1.55,"wind_gusts":29.5,"aqi":90,"pm10":20.7,"pm2_5":11.1,"no2":2.2,"co":156.0,"o3":104.0,"so2":1.7,"mosquito_risk":10,"arthritis_risk":5,"migraine_risk":3,"frizz_risk":1,"updated_at":"2026-07-20T15:44:41.809812+05:30"},{"city":"Akola","state":"Maharashtra","latitude":20.7002,"longitude":77.0082,"temp":29.1,"humidity":73,"rain":0.2,"pressure":970.1,"uv_index":8.5,"wind_gusts":43.2,"aqi":48,"pm10":11.7,"pm2_5":6.7,"no2":2.4,"co":133.0,"o3":82.0,"so2":5.5,"mosquito_risk":10,"arthritis_risk":5,"migraine_risk":7,"frizz_risk":1,"updated_at":"2026-07-20T15:44:41.809821+05:30"},{"city":"Amravati","state":"Maharashtra","latitude":20.9374,"longitude":77.7796,"temp":29.0,"humidity":74,"rain":0.0,"pressure":962.3,"uv_index":7.35,"wind_gusts":41.4,"aqi":51,"pm10":15.6,"pm2_5":8.3,"no2":2.7,"co":131.0,"o3":83.0,"so2":6.8,"mosquito_risk":7,"arthritis_risk":5,"migraine_risk":7,"frizz_risk":1,"updated_at":"2026-07-20T15:44:41.809829+05:30"},{"city":"Latur","state":"Maharashtra","latitude":18.4088,"longitude":76.5604,"temp":27.3,"humidity":77,"rain":0.2,"pressure":935.7,"uv_index":3.0,"wind_gusts":46.1,"aqi":30,"pm10":24.9,"pm2_5":10.1,"no2":1.5,"co":125.0,"o3":65.0,"so2":1.4,"mosquito_risk":10,"arthritis_risk":5,"migraine_risk":3,"frizz_risk":1,"updated_at":"2026-07-20T15:44:41.809837+05:30"},{"city":"Nanded","state":"Maharashtra","latitude":19.1383,"longitude":77.3091,"temp":29.0,"humidity":72,"rain":0.0,"pressure":963.9,"uv_index":2.55,"wind_gusts":42.1,"aqi":45,"pm10":14.8,"pm2_5":7.3,"no2":2.2,"co":139.0,"o3":64.0,"so2":2.5,"mosquito_risk":7,"arthritis_risk":5,"migraine_risk":3,"frizz_risk":1,"updated_at":"2026-07-20T15:44:41.809845+05:30"},{"city":"Gulbarga","state":"Karnataka","latitude":17.3297,"longitude":76.8343,"temp":25.3,"humidity":85,"rain":0.1,"pressure":955.6,"uv_index":6.8,"wind_gusts":49.7,"aqi":32,"pm10":11.8,"pm2_5":5.9,"no2":2.6,"co":127.0,"o3":71.0,"so2":2.0,"mosquito_risk":10,"arthritis_risk":5,"migraine_risk":7,"frizz_risk":1,"updated_at":"2026-07-20T15:44:41.809853+05:30"},{"city":"Bidar","state":"Karnataka","latitude":17.9104,"longitude":77.5199,"temp":28.4,"humidity":65,"rain":0.0,"pressure":931.5,"uv_index":7.8,"wind_gusts":43.6,"aqi":39,"pm10":12.7,"pm2_5":6.1,"no2":2.8,"co":141.0,"o3":63.0,"so2":1.4,"mosquito_risk":7,"arthritis_risk":5,"migraine_risk":7,"frizz_risk":1,"updated_at":"2026-07-20T15:44:41.809860+05:30"},{"city":"Hospet","state":"Karnataka","latitude":15.2689,"longitude":76.3909,"temp":29.1,"humidity":59,"rain":0.0,"pressure":953.6,"uv_index":8.6,"wind_gusts":55.8,"aqi":27,"pm10":10.5,"pm2_5":4.7,"no2":2.1,"co":107.0,"o3":58.0,"so2":1.4,"mosquito_risk":4,"arthritis_risk":5,"migraine_risk":7,"frizz_risk":1,"updated_at":"2026-07-20T15:44:41.809868+05:30"},{"city":"Tirupur","state":"Tamil Nadu","latitude":11.1085,"longitude":77.3411,"temp":31.9,"humidity":50,"rain":0.0,"pressure":973.5,"uv_index":8.35,"wind_gusts":52.9,"aqi":53,"pm10":10.7,"pm2_5":6.5,"no2":2.0,"co":135.0,"o3":78.0,"so2":2.2,"mosquito_risk":0,"arthritis_risk":5,"migraine_risk":7,"frizz_risk":1,"updated_at":"2026-07-20T15:44:41.809875+05:30"},{"city":"Alappuzha","state":"Kerala","latitude":9.4981,"longitude":76.3388,"temp":27.8,"humidity":79,"rain":0.0,"pressure":1009.5,"uv_index":8.45,"wind_gusts":30.6,"aqi":51,"pm10":13.5,"pm2_5":8.0,"no2":2.9,"co":93.0,"o3":61.0,"so2":2.5,"mosquito_risk":7,"arthritis_risk":0,"migraine_risk":4,"frizz_risk":1,"updated_at":"2026-07-20T15:44:41.809883+05:30"},{"city":"Munnar","state":"Kerala","latitude":10.0889,"longitude":77.0595,"temp":18.8,"humidity":85,"rain":0.1,"pressure":857.0,"uv_index":8.25,"wind_gusts":41.8,"aqi":24,"pm10":8.8,"pm2_5":4.8,"no2":1.8,"co":104.0,"o3":60.0,"so2":1.4,"mosquito_risk":6,"arthritis_risk":10,"migraine_risk":7,"frizz_risk":1,"updated_at":"2026-07-20T15:44:41.809891+05:30"},{"city":"Silchar","state":"Assam","latitude":24.8333,"longitude":92.7789,"temp":26.6,"humidity":86,"rain":0.7,"pressure":1001.9,"uv_index":1.0,"wind_gusts":23.0,"aqi":61,"pm10":7.5,"pm2_5":7.1,"no2":5.4,"co":190.0,"o3":50.0,"so2":2.5,"mosquito_risk":10,"arthritis_risk":5,"migraine_risk":0,"frizz_risk":1,"updated_at":"2026-07-20T15:44:41.809898+05:30"},{"city":"Dibrugarh","state":"Assam","latitude":27.4728,"longitude":94.912,"temp":32.1,"humidity":63,"rain":0.0,"pressure":990.6,"uv_index":8.05,"wind_gusts":25.9,"aqi":75,"pm10":6.7,"pm2_5":6.3,"no2":2.1,"co":160.0,"o3":97.0,"so2":1.1,"mosquito_risk":3,"arthritis_risk":5,"migraine_risk":7,"frizz_risk":1,"updated_at":"2026-07-20T15:44:41.809906+05:30"}]