[{"city":"Delhi","state":"Delhi","latitude":28.6139,"longitude":77.209,"temp":33.6,"humidity":34,"rain":0.0,"pressure":988.2,"uv_index":6.05,"wind_gusts":23.4,"aqi":481,"pm10":204.9,"pm2_5":76.4,"mosquito_risk":0,"arthritis_risk":5,"migraine_risk":7,"frizz_risk":0,"updated_at":"2026-03-10T15:20:18.326752+05:30"},{"city":"Mumbai","state":"Maharashtra","latitude":19.076,"longitude":72.8777,"temp":28.9,"humidity":65,"rain":0.0,"pressure":1008.4,"uv_index":7.55,"wind_gusts":19.8,"aqi":202,"pm10":71.2,"pm2_5":68.5,"mosquito_risk":7,"arthritis_risk":0,"migraine_risk":4,"frizz_risk":1,"updated_at":"2026-03-10T15:20:18.326795+05:30"},{"city":"Bangalore","state":"Karnataka","latitude":12.9716,"longitude":77.5946,"temp":30.7,"humidity":24,"rain":0.0,"pressure":913.6,"uv_index":9.25,"wind_gusts":32.4,"aqi":116,"pm10":19.9,"pm2_5":15.5,"mosquito_risk":0,"arthritis_risk":5,"migraine_risk":7,"frizz_risk":0,"updated_at":"2026-03-10T15:20:18.326809+05:30"},{"city":"Hyderabad","state":"Telangana","latitude":17.385,"longitude":78.4867,"temp":33.7,"humidity":33,"rain":0.0,"pressure":956.1,"uv_index":8.6,"wind_gusts":31.0,"aqi":133,"pm10":61.7,"pm2_5":48.0,"mosquito_risk":0,"arthritis_risk":5,"migraine_risk":7,"frizz_risk":0,"updated_at":"2026-03-10T15:20:18.326819+05:30"},{"city":"Chennai","state":"Tamil Nadu","latitude":13.0827,"longitude":80.2707,"temp":30.6,"humidity":51,"rain":0.0,"pressure":1010.5,"uv_index":8.95,"wind_gusts":35.6,"aqi":91,"pm10":22.3,"pm2_5":16.8,"mosquito_risk":0,"arthritis_risk":0,"migraine_risk":4,"frizz_risk":1,"updated_at":"2026-03-10T15:20:18.326827+05:30"},{"city":"Kolkata","state":"West Bengal","latitude":22.5726,"longitude":88.3639,"temp":29.0,"humidity":72,"rain":0.0,"pressure":1009.9,"uv_index":4.85,"wind_gusts":18.0,"aqi":117,"pm10":56.1,"pm2_5":44.4,"mosquito_risk":7,"arthritis_risk":0,"migraine_risk":0,"frizz_risk":1,"updated_at":"2026-03-10T15:20:18.326835+05:30"},{"city":"Pune","state":"Maharashtra","latitude":18.5204,"longitude":73.8567,"temp":37.1,"humidity":19,"rain":0.0,"pressure":950.6,"uv_index":8.1,"wind_gusts":36.4,"aqi":101,"pm10":29.0,"pm2_5":24.0,"mosquito_risk":0,"arthritis_risk":5,"migraine_risk":10,"frizz_risk":0,"updated_at":"2026-03-10T15:20:18.326844+05:30"},{"city":"Ahmedabad","state":"Gujarat","latitude":23.0225,"longitude":72.5714,"temp":39.7,"humidity":13,"rain":0.0,"pressure":1004.7,"uv_index":7.4,"wind_gusts":19.1,"aqi":56,"pm10":14.8,"pm2_5":12.7,"mosquito_risk":0,"arthritis_risk":5,"migraine_risk":7,"frizz_risk":0,"updated_at":"2026-03-10T15:20:18.326851+05:30"},{"city":"Jaipur","state":"Rajasthan","latitude":26.9124,"longitude":75.7873,"temp":37.5,"humidity":11,"rain":0.0,"pressure":964.8,"uv_index":6.85,"wind_gusts":22.0,"aqi":83,"pm10":133.2,"pm2_5":21.0,"mosquito_risk":0,"arthritis_risk":5,"migraine_risk":10,"frizz_risk":0,"updated_at":"2026-03-10T15:20:18.326858+05:30"},{"city":"Lucknow","state":"Uttar Pradesh","latitude":26.8467,"longitude":80.9462,"temp":32.5,"humidity":46,"rain":0.0,"pressure":998.2,"uv_index":6.55,"wind_gusts":20.2,"aqi":176,"pm10":140.2,"pm2_5":101.5,"mosquito_risk":0,"arthritis_risk":5,"migraine_risk":7,"frizz_risk":1,"updated_at":"2026-03-10T15:20:18.326865+05:30"},{"city":"Kanpur","state":"Uttar Pradesh","latitude":26.4499,"longitude":80.3319,"temp":32.4,"humidity":48,"rain":0.0,"pressure":996.5,"uv_index":6.6,"wind_gusts":15.5,"aqi":170,"pm10":171.4,"pm2_5":97.6,"mosquito_risk":0,"arthritis_risk":5,"migraine_risk":7,"frizz_risk":1,"updated_at":"2026-03-10T15:20:18.326871+05:30"},{"city":"Chandigarh","state":"Chandigarh","latitude":30.7333,"longitude":76.7794,"temp":30.8,"humidity":55,"rain":0.0,"pressure":974.5,"uv_index":5.95,"wind_gusts":15.5,"aqi":131,"pm10":96.6,"pm2_5":56.1,"mosquito_risk":0,"arthritis_risk":5,"migraine_risk":3,"frizz_risk":1,"updated_at":"2026-03-10T15:20:18.326877+05:30"},{"city":"Srinagar","state":"Jammu and Kashmir","latitude":34.0837,"longitude":74.7973,"temp":12.9,"humidity":82,"rain":0.2,"pressure":847.2,"uv_index":3.8,"wind_gusts":28.8,"aqi":118,"pm10":44.5,"pm2_5":29.8,"mosquito_risk":6,"arthritis_risk":10,"migraine_risk":3,"frizz_risk":0,"updated_at":"2026-03-10T15:20:18.326884+05:30"},{"city":"Jammu","state":"Jammu and Kashmir","latitude":32.7266,"longitude":74.857,"temp":27.8,"humidity":65,"rain":0.0,"pressure":978.1,"uv_index":6.05,"wind_gusts":38.2,"aqi":100,"pm10":64.7,"pm2_5":38.0,"mosquito_risk":7,"arthritis_risk":5,"migraine_risk":7,"frizz_risk":1,"updated_at":"2026-03-10T15:20:18.326890+05:30"},{"city":"Amritsar","state":"Punjab","latitude":31.634,"longitude":74.8723,"temp":31.9,"humidity":50,"rain":0.0,"pressure":986.1,"uv_index":6.0,"wind_gusts":26.3,"aqi":163,"pm10":75.4,"pm2_5":49.8,"mosquito_risk":0,"arthritis_risk":5,"migraine_risk":3,"frizz_risk":1,"updated_at":"2026-03-10T15:20:18.326895+05:30"},{"city":"Ludhiana","state":"Punjab","latitude":30.901,"longitude":75.8573,"temp":32.2,"humidity":46,"rain":0.0,"pressure":984.3,"uv_index":5.6,"wind_gusts":13.0,"aqi":169,"pm10":130.9,"pm2_5":68.9,"mosquito_risk":0,"arthritis_risk":5,"migraine_risk":3,"frizz_risk":1,"updated_at":"2026-03-10T15:20:18.326901+05:30"},{"city":"Jalandhar","state":"Punjab","latitude":31.326,"longitude":75.5762,"temp":32.3,"humidity":47,"rain":0.0,"pressure":985.3,"uv_index":6.2,"wind_gusts":14.0,"aqi":167,"pm10":104.3,"pm2_5":60.3,"mosquito_risk":0,"arthritis_risk":5,"migraine_risk":7,"frizz_risk":1,"updated_at":"2026-03-10T15:20:18.326908+05:30"},{"city":"Dehradun","state":"Uttarakhand","latitude":30.6284,"longitude":78.0322,"temp":20.9,"humidity":66,"rain":0.0,"pressure":836.6,"uv_index":6.4,"wind_gusts":26.6,"aqi":75,"pm10":58.0,"pm2_5":33.9,"mosquito_risk":3,"arthritis_risk":5,"migraine_risk":7,"frizz_risk":0,"updated_at":"2026-03-10T15:20:18.326914+05:30"},{"city":"Shimla","state":"Himachal Pradesh","latitude":31.1048,"longitude":77.1734,"temp":20.2,"humidity":59,"rain":0.0,"pressure":792.1,"uv_index":6.05,"wind_gusts":37.1,"aqi":81,"pm10":42.5,"pm2_5":23.5,"mosquito_risk":0,"arthritis_risk":5,"migraine_risk":7,"frizz_risk":0,"updated_at":"2026-03-10T15:20:18.326919+05:30"},{"city":"Manali","state":"Himachal Pradesh","latitude":32.2396,"longitude":77.1887,"temp":21.4,"humidity":35,"rain":0.0,"pressure":827.2,"uv_index":7.35,"wind_gusts":41.0,"aqi":54,"pm10":26.3,"pm2_5":9.8,"mosquito_risk":0,"arthritis_risk":5,"migraine_risk":7,"frizz_risk":0,"updated_at":"2026-03-10T15:20:18.326925+05:30"},{"city":"Gurgaon","state":"Haryana","latitude":28.4595,"longitude":77.0266,"temp":33.9,"humidity":33,"rain":0.0,"pressure":986.7,"uv_index":5.7,"wind_gusts":21.2,"aqi":614,"pm10":381.8,"pm2_5":83.4,"mosquito_risk":0,"arthritis_risk":5,"migraine_risk":3,"frizz_risk":0,"updated_at":"2026-03-10T15:20:18.326931+05:30"},{"city":"Noida","state":"Uttar Pradesh","latitude":28.5355,"longitude":77.391,"temp":34.0,"humidity":33,"rain":0.0,"pressure":989.8,"uv_index":6.05,"wind_gusts":23.4,"aqi":614,"pm10":381.8,"pm2_5":83.4,"mosquito_risk":0,"arthritis_risk":5,"migraine_risk":7,"frizz_risk":0,"updated_at":"2026-03-10T15:20:18.326937+05:30"},{"city":"Ghaziabad","state":"Uttar Pradesh","latitude":28.6692,"longitude":77.4538,"temp":32.5,"humidity":44,"rain":0.0,"pressure":988.0,"uv_index":5.95,"wind_gusts":18.7,"aqi":292,"pm10":194.6,"pm2_5":82.0,"mosquito_risk":0,"arthritis_risk":5,"migraine_risk":3,"frizz_risk":1,"updated_at":"2026-03-10T15:20:18.326944+05:30"},{"city":"Faridabad","state":"Haryana","latitude":28.4089,"longitude":77.3178,"temp":33.8,"humidity":32,"rain":0.0,"pressure":989.0,"uv_index":5.95,"wind_gusts":23.0,"aqi":614,"pm10":381.8,"pm2_5":83.4,"mosquito_risk":0,"arthritis_risk":5,"migraine_risk":3,"frizz_risk":0,"updated_at":"2026-03-10T15:20:18.326949+05:30"},{"city":"Meerut","state":"Uttar Pradesh","latitude":28.9845,"longitude":77.7064,"temp":32.2,"humidity":45,"rain":0.0,"pressure":986.9,"uv_index":5.85,"wind_gusts":18.4,"aqi":292,"pm10":194.6,"pm2_5":82.0,"mosquito_risk":0,"arthritis_risk":5,"migraine_risk":3,"frizz_risk":1,"updated_at":"2026-03-10T15:20:18.326955+05:30"},{"city":"Agra","state":"Uttar Pradesh","latitude":27.1767,"longitude":78.0081,"temp":36.0,"humidity":24,"rain":0.0,"pressure":992.4,"uv_index":6.45,"wind_gusts":22.0,"aqi":202,"pm10":386.5,"pm2_5":75.0,"mosquito_risk":0,"arthritis_risk":5,"migraine_risk":10,"frizz_risk":0,"updated_at":"2026-03-10T15:20:18.326962+05:30"},{"city":"Varanasi","state":"Uttar Pradesh","latitude":25.3176,"longitude":82.9739,"temp":31.7,"humidity":52,"rain":0.0,"pressure":1001.8,"uv_index":7.25,"wind_gusts":15.5,"aqi":183,"pm10":119.7,"pm2_5":107.3,"mosquito_risk":0,"arthritis_risk":5,"migraine_risk":4,"frizz_risk":1,"updated_at":"2026-03-10T15:20:18.326969+05:30"},{"city":"Prayagraj","state":"Uttar Pradesh","latitude":25.4358,"longitude":81.8463,"temp":32.0,"humidity":51,"rain":0.0,"pressure":1000.4,"uv_index":7.1,"wind_gusts":15.5,"aqi":181,"pm10":125.7,"pm2_5":105.9,"mosquito_risk":0,"arthritis_risk":5,"migraine_risk":4,"frizz_risk":1,"updated_at":"2026-03-10T15:20:18.326975+05:30"},{"city":"Gorakhpur","state":"Uttar Pradesh","latitude":26.7606,"longitude":83.3732,"temp":30.3,"humidity":57,"rain":0.0,"pressure":1002.0,"uv_index":6.95,"wind_gusts":20.2,"aqi":190,"pm10":100.4,"pm2_5":88.9,"mosquito_risk":0,"arthritis_risk":5,"migraine_risk":4,"frizz_risk":1,"updated_at":"2026-03-10T15:20:18.326980+05:30"},{"city":"Bareilly","state":"Uttar Pradesh","latitude":28.367,"longitude":79.4304,"temp":31.2,"humidity":52,"rain":0.0,"pressure":992.0,"uv_index":5.9,"wind_gusts":18.0,"aqi":180,"pm10":195.1,"pm2_5":128.1,"mosquito_risk":0,"arthritis_risk":5,"migraine_risk":3,"frizz_risk":1,"updated_at":"2026-03-10T15:20:18.326985+05:30"},{"city":"Aligarh","state":"Uttar Pradesh","latitude":27.8974,"longitude":78.088,"temp":34.6,"humidity":31,"rain":0.0,"pressure":990.5,"uv_index":6.15,"wind_gusts":23.4,"aqi":190,"pm10":308.3,"pm2_5":77.5,"mosquito_risk":0,"arthritis_risk":5,"migraine_risk":7,"frizz_risk":0,"updated_at":"2026-03-10T15:20:18.326991+05:30"},{"city":"Moradabad","state":"Uttar Pradesh","latitude":28.8386,"longitude":78.7733,"temp":31.2,"humidity":51,"rain":0.0,"pressure":989.0,"uv_index":5.25,"wind_gusts":23.4,"aqi":179,"pm10":167.2,"pm2_5":122.5,"mosquito_risk":0,"arthritis_risk":5,"migraine_risk":3,"frizz_risk":1,"updated_at":"2026-03-10T15:20:18.326996+05:30"},{"city":"Saharanpur","state":"Uttar Pradesh","latitude":29.9637,"longitude":77.546,"temp":30.4,"humidity":55,"rain":0.0,"pressure":981.3,"uv_index":5.65,"wind_gusts":21.2,"aqi":165,"pm10":130.9,"pm2_5":79.9,"mosquito_risk":0,"arthritis_risk":5,"migraine_risk":3,"frizz_risk":1,"updated_at":"2026-03-10T15:20:18.327001+05:30"},{"city":"Jhansi","state":"Uttar Pradesh","latitude":25.4484,"longitude":78.5685,"temp":36.9,"humidity":18,"rain":0.0,"pressure":982.1,"uv_index":7.05,"wind_gusts":26.3,"aqi":99,"pm10":101.5,"pm2_5":29.5,"mosquito_risk":0,"arthritis_risk":5,"migraine_risk":10,"frizz_risk":0,"updated_at":"2026-03-10T15:20:21.604916+05:30"},{"city":"Surat","state":"Gujarat","latitude":21.1702,"longitude":72.8311,"temp":39.4,"humidity":18,"rain":0.0,"pressure":1007.8,"uv_index":7.3,"wind_gusts":23.8,"aqi":100,"pm10":48.5,"pm2_5":47.4,"mosquito_risk":0,"arthritis_risk":5,"migraine_risk":7,"frizz_risk":0,"updated_at":"2026-03-10T15:20:21.604948+05:30"},{"city":"Vadodara","state":"Gujarat","latitude":22.3072,"longitude":73.1812,"temp":41.6,"humidity":12,"rain":0.0,"pressure":1006.0,"uv_index":7.4,"wind_gusts":17.3,"aqi":68,"pm10":13.6,"pm2_5":10.6,"mosquito_risk":0,"arthritis_risk":5,"migraine_risk":7,"frizz_risk":0,"updated_at":"2026-03-10T15:20:21.604959+05:30"},{"city":"Rajkot","state":"Gujarat","latitude":22.3039,"longitude":70.8022,"temp":38.5,"humidity":13,"rain":0.0,"pressure":997.2,"uv_index":7.25,"wind_gusts":33.5,"aqi":60,"pm10":14.8,"pm2_5":12.7,"mosquito_risk":0,"arthritis_risk":5,"migraine_risk":10,"frizz_risk":0,"updated_at":"2026-03-10T15:20:21.604969+05:30"},{"city":"Thane","state":"Maharashtra","latitude":19.2183,"longitude":72.9781,"temp":36.4,"humidity":31,"rain":0.0,"pressure":1008.5,"uv_index":7.55,"wind_gusts":33.5,"aqi":202,"pm10":71.2,"pm2_5":68.5,"mosquito_risk":0,"arthritis_risk":0,"migraine_risk":7,"frizz_risk":1,"updated_at":"2026-03-10T15:20:21.604978+05:30"},{"city":"Nagpur","state":"Maharashtra","latitude":21.1458,"longitude":79.0882,"temp":36.8,"humidity":18,"rain":0.0,"pressure":975.9,"uv_index":7.95,"wind_gusts":24.8,"aqi":96,"pm10":37.4,"pm2_5":27.1,"mosquito_risk":0,"arthritis_risk":5,"migraine_risk":10,"frizz_risk":0,"updated_at":"2026-03-10T15:20:21.604987+05:30"},{"city":"Nashik","state":"Maharashtra","latitude":19.9975,"longitude":73.7898,"temp":36.9,"humidity":15,"rain":0.0,"pressure":948.2,"uv_index":7.75,"wind_gusts":28.1,"aqi":88,"pm10":15.2,"pm2_5":12.5,"mosquito_risk":0,"arthritis_risk":5,"migraine_risk":10,"frizz_risk":0,"updated_at":"2026-03-10T15:20:21.604996+05:30"},{"city":"Aurangabad","state":"Maharashtra","latitude":19.8762,"longitude":75.3433,"temp":36.8,"humidity":16,"rain":0.0,"pressure":946.8,"uv_index":8.3,"wind_gusts":21.6,"aqi":105,"pm10":14.3,"pm2_5":11.5,"mosquito_risk":0,"arthritis_risk":5,"migraine_risk":10,"frizz_risk":0,"updated_at":"2026-03-10T15:20:21.605005+05:30"},{"city":"Solapur","state":"Maharashtra","latitude":17.6599,"longitude":75.9064,"temp":35.4,"humidity":28,"rain":0.0,"pressure":958.9,"uv_index":8.5,"wind_gusts":29.5,"aqi":95,"pm10":47.1,"pm2_5":38.9,"mosquito_risk":0,"arthritis_risk":5,"migraine_risk":10,"frizz_risk":0,"updated_at":"2026-03-10T15:20:21.605013+05:30"},{"city":"Kolhapur","state":"Maharashtra","latitude":16.705,"longitude":74.2433,"temp":34.7,"humidity":25,"rain":0.0,"pressure":949.4,"uv_index":8.6,"wind_gusts":40.3,"aqi":108,"pm10":49.6,"pm2_5":41.9,"mosquito_risk":0,"arthritis_risk":5,"migraine_risk":7,"frizz_risk":0,"updated_at":"2026-03-10T15:20:21.605022+05:30"},{"city":"Goa","state":"Goa","latitude":15.2993,"longitude":74.124,"temp":32.0,"humidity":58,"rain":0.0,"pressure":997.5,"uv_index":8.6,"wind_gusts":38.9,"aqi":152,"pm10":56.9,"pm2_5":47.1,"mosquito_risk":0,"arthritis_risk":5,"migraine_risk":7,"frizz_risk":1,"updated_at":"2026-03-10T15:20:21.605031+05:30"},{"city":"Jodhpur","state":"Rajasthan","latitude":26.2389,"longitude":73.0243,"temp":37.6,"humidity":12,"rain":0.0,"pressure":987.7,"uv_index":7.15,"wind_gusts":26.3,"aqi":78,"pm10":29.6,"pm2_5":14.0,"mosquito_risk":0,"arthritis_risk":5,"migraine_risk":10,"frizz_risk":0,"updated_at":"2026-03-10T15:20:21.605040+05:30"},{"city":"Udaipur","state":"Rajasthan","latitude":24.5854,"longitude":73.7125,"temp":35.6,"humidity":13,"rain":0.0,"pressure":951.6,"uv_index":7.75,"wind_gusts":21.6,"aqi":62,"pm10":12.4,"pm2_5":5.6,"mosquito_risk":0,"arthritis_risk":5,"migraine_risk":10,"frizz_risk":0,"updated_at":"2026-03-10T15:20:21.605048+05:30"},{"city":"Kota","state":"Rajasthan","latitude":25.2138,"longitude":75.8648,"temp":37.9,"humidity":13,"rain":0.0,"pressure":983.1,"uv_index":7.15,"wind_gusts":17.3,"aqi":70,"pm10":50.2,"pm2_5":14.1,"mosquito_risk":0,"arthritis_risk":5,"migraine_risk":10,"frizz_risk":0,"updated_at":"2026-03-10T15:20:21.605056+05:30"},{"city":"Bikaner","state":"Rajasthan","latitude":28.0229,"longitude":73.3119,"temp":36.6,"humidity":13,"rain":0.0,"pressure":986.5,"uv_index":6.85,"wind_gusts":29.9,"aqi":80,"pm10":15.8,"pm2_5":13.1,"mosquito_risk":0,"arthritis_risk":5,"migraine_risk":10,"frizz_risk":0,"updated_at":"2026-03-10T15:20:21.605065+05:30"},{"city":"Ajmer","state":"Rajasthan","latitude":26.4499,"longitude":74.6399,"temp":35.9,"humidity":13,"rain":0.0,"pressure":959.8,"uv_index":7.1,"wind_gusts":21.2,"aqi":63,"pm10":160.7,"pm2_5":25.1,"mosquito_risk":0,"arthritis_risk":5,"migraine_risk":10,"frizz_risk":0,"updated_at":"2026-03-10T15:20:21.605073+05:30"},{"city":"Gwalior","state":"Madhya Pradesh","latitude":26.2183,"longitude":78.1828,"temp":34.8,"humidity":22,"rain":0.0,"pressure":988.0,"uv_index":6.75,"wind_gusts":24.5,"aqi":130,"pm10":141.6,"pm2_5":34.6,"mosquito_risk":0,"arthritis_risk":5,"migraine_risk":7,"frizz_risk":0,"updated_at":"2026-03-10T15:20:21.605082+05:30"},{"city":"Indore","state":"Madhya Pradesh","latitude":22.7196,"longitude":75.8577,"temp":36.2,"humidity":16,"rain":0.0,"pressure":952.0,"uv_index":7.65,"wind_gusts":26.3,"aqi":69,"pm10":18.9,"pm2_5":8.6,"mosquito_risk":0,"arthritis_risk":5,"migraine_risk":10,"frizz_risk":0,"updated_at":"2026-03-10T15:20:21.605090+05:30"},{"city":"Bhopal","state":"Madhya Pradesh","latitude":23.2599,"longitude":77.4126,"temp":36.4,"humidity":17,"rain":0.0,"pressure":957.7,"uv_index":7.55,"wind_gusts":23.0,"aqi":58,"pm10":17.2,"pm2_5":7.8,"mosquito_risk":0,"arthritis_risk":5,"migraine_risk":10,"frizz_risk":0,"updated_at":"2026-03-10T15:20:21.605098+05:30"},{"city":"Jabalpur","state":"Madhya Pradesh","latitude":23.1815,"longitude":79.9864,"temp":35.4,"humidity":24,"rain":0.0,"pressure":965.1,"uv_index":7.65,"wind_gusts":26.3,"aqi":80,"pm10":40.2,"pm2_5":16.8,"mosquito_risk":0,"arthritis_risk":5,"migraine_risk":10,"frizz_risk":0,"updated_at":"2026-03-10T15:20:21.605106+05:30"},{"city":"Ujjain","state":"Madhya Pradesh","latitude":23.1765,"longitude":75.7885,"temp":35.7,"humidity":17,"rain":0.0,"pressure":958.0,"uv_index":7.55,"wind_gusts":19.1,"aqi":87,"pm10":21.0,"pm2_5":8.4,"mosquito_risk":0,"arthritis_risk":5,"migraine_risk":10,"frizz_risk":0,"updated_at":"2026-03-10T15:20:21.605115+05:30"},{"city":"Visakhapatnam","state":"Andhra Pradesh","latitude":17.6868,"longitude":83.2185,"temp":31.1,"humidity":44,"rain":0.0,"pressure":1007.0,"uv_index":8.55,"wind_gusts":34.2,"aqi":134,"pm10":49.1,"pm2_5":38.3,"mosquito_risk":0,"arthritis_risk":5,"migraine_risk":4,"frizz_risk":1,"updated_at":"2026-03-10T15:20:21.605123+05:30"},{"city":"Vijayawada","state":"Andhra Pradesh","latitude":16.5062,"longitude":80.648,"temp":33.3,"humidity":34,"rain":0.0,"pressure":1005.6,"uv_index":8.6,"wind_gusts":21.6,"aqi":132,"pm10":29.7,"pm2_5":24.7,"mosquito_risk":0,"arthritis_risk":5,"migraine_risk":4,"frizz_risk":0,"updated_at":"2026-03-10T15:20:21.605132+05:30"},{"city":"Guntur","state":"Andhra Pradesh","latitude":16.3067,"longitude":80.4365,"temp":33.3,"humidity":35,"rain":0.0,"pressure":1006.8,"uv_index":8.65,"wind_gusts":23.4,"aqi":128,"pm10":29.9,"pm2_5":24.5,"mosquito_risk":0,"arthritis_risk":5,"migraine_risk":4,"frizz_risk":0,"updated_at":"2026-03-10T15:20:21.605140+05:30"},{"city":"Nellore","state":"Andhra Pradesh","latitude":14.4426,"longitude":79.9865,"temp":32.2,"humidity":44,"rain":0.0,"pressure":1008.9,"uv_index":8.85,"wind_gusts":28.1,"aqi":100,"pm10":25.4,"pm2_5":20.1,"mosquito_risk":0,"arthritis_risk":0,"migraine_risk":4,"frizz_risk":1,"updated_at":"2026-03-10T15:20:21.605150+05:30"},{"city":"Kurnool","state":"Andhra Pradesh","latitude":15.8281,"longitude":78.0373,"temp":35.1,"humidity":29,"rain":0.0,"pressure":979.0,"uv_index":8.65,"wind_gusts":31.7,"aqi":116,"pm10":57.7,"pm2_5":43.4,"mosquito_risk":0,"arthritis_risk":5,"migraine_risk":10,"frizz_risk":0,"updated_at":"2026-03-10T15:20:21.605159+05:30"},{"city":"Kakinada","state":"Andhra Pradesh","latitude":16.9891,"longitude":82.2475,"temp":32.7,"humidity":45,"rain":0.0,"pressure":1010.5,"uv_index":8.6,"wind_gusts":28.4,"aqi":115,"pm10":40.0,"pm2_5":30.7,"mosquito_risk":0,"arthritis_risk":0,"migraine_risk":4,"frizz_risk":1,"updated_at":"2026-03-10T15:20:21.605167+05:30"},{"city":"Tirupati","state":"Andhra Pradesh","latitude":13.6288,"longitude":79.4192,"temp":32.2,"humidity":36,"rain":0.0,"pressure":993.8,"uv_index":8.95,"wind_gusts":34.6,"aqi":141,"pm10":24.0,"pm2_5":20.1,"mosquito_risk":0,"arthritis_risk":5,"migraine_risk":7,"frizz_risk":0,"updated_at":"2026-03-10T15:20:21.605176+05:30"},{"city":"Warangal","state":"Telangana","latitude":17.9689,"longitude":79.5941,"temp":33.6,"humidity":44,"rain":0.0,"pressure":981.5,"uv_index":8.4,"wind_gusts":27.0,"aqi":138,"pm10":65.0,"pm2_5":50.5,"mosquito_risk":0,"arthritis_risk":5,"migraine_risk":7,"frizz_risk":1,"updated_at":"2026-03-10T15:20:21.605184+05:30"},{"city":"Nizamabad","state":"Telangana","latitude":18.6725,"longitude":78.0941,"temp":35.6,"humidity":27,"rain":0.0,"pressure":967.3,"uv_index":8.3,"wind_gusts":30.6,"aqi":134,"pm10":48.1,"pm2_5":38.1,"mosquito_risk":0,"arthritis_risk":5,"migraine_risk":10,"frizz_risk":0,"updated_at":"2026-03-10T15:20:21.605192+05:30"},{"city":"Mysore","state":"Karnataka","latitude":12.2958,"longitude":76.6396,"temp":31.9,"humidity":17,"rain":0.0,"pressure":929.7,"uv_index":9.25,"wind_gusts":39.2,"aqi":118,"pm10":27.5,"pm2_5":20.8,"mosquito_risk":0,"arthritis_risk":5,"migraine_risk":7,"frizz_risk":0,"updated_at":"2026-03-10T15:20:21.605200+05:30"},{"city":"Mangalore","state":"Karnataka","latitude":12.9141,"longitude":74.856,"temp":28.9,"humidity":80,"rain":0.0,"pressure":1006.1,"uv_index":8.9,"wind_gusts":31.7,"aqi":106,"pm10":44.8,"pm2_5":35.6,"mosquito_risk":7,"arthritis_risk":5,"migraine_risk":4,"frizz_risk":1,"updated_at":"2026-03-10T15:20:21.605209+05:30"},{"city":"Hubli-Dharwad","state":"Karnataka","latitude":15.3647,"longitude":75.124,"temp":34.7,"humidity":24,"rain":0.0,"pressure":942.1,"uv_index":8.8,"wind_gusts":44.3,"aqi":103,"pm10":59.6,"pm2_5":48.1,"mosquito_risk":0,"arthritis_risk":5,"migraine_risk":7,"frizz_risk":0,"updated_at":"2026-03-10T15:20:21.605218+05:30"},{"city":"Belgaum","state":"Karnataka","latitude":15.8497,"longitude":74.4977,"temp":34.0,"humidity":25,"rain":0.0,"pressure":927.3,"uv_index":8.85,"wind_gusts":46.8,"aqi":94,"pm10":53.0,"pm2_5":43.7,"mosquito_risk":0,"arthritis_risk":5,"migraine_risk":7,"frizz_risk":0,"updated_at":"2026-03-10T15:20:24.880926+05:30"},{"city":"Coimbatore","state":"Tamil Nadu","latitude":11.0168,"longitude":76.9558,"temp":33.1,"humidity":27,"rain":0.0,"pressure":962.6,"uv_index":9.25,"wind_gusts":46.4,"aqi":121,"pm10":27.9,"pm2_5":22.5,"mosquito_risk":0,"arthritis_risk":5,"migraine_risk":7,"frizz_risk":0,"updated_at":"2026-03-10T15:20:24.880951+05:30"},{"city":"Madurai","state":"Tamil Nadu","latitude":9.9252,"longitude":78.1198,"temp":34.3,"humidity":36,"rain":0.0,"pressure":993.1,"uv_index":9.2,"wind_gusts":41.4,"aqi":117,"pm10":21.6,"pm2_5":19.7,"mosquito_risk":0,"arthritis_risk":5,"migraine_risk":7,"frizz_risk":1,"updated_at":"2026-03-10T15:20:24.880959+05:30"},{"city":"Trichy","state":"Tamil Nadu","latitude":10.7905,"longitude":78.7047,"temp":32.8,"humidity":44,"rain":0.0,"pressure":1000.9,"uv_index":8.7,"wind_gusts":37.4,"aqi":113,"pm10":25.8,"pm2_5":23.8,"mosquito_risk":0,"arthritis_risk":5,"migraine_risk":4,"frizz_risk":1,"updated_at":"2026-03-10T15:20:24.880966+05:30"},{"city":"Salem","state":"Tamil Nadu","latitude":11.6643,"longitude":78.146,"temp":33.9,"humidity":32,"rain":0.0,"pressure":978.2,"uv_index":9.15,"wind_gusts":33.1,"aqi":134,"pm10":24.9,"pm2_5":21.1,"mosquito_risk":0,"arthritis_risk":5,"migraine_risk":7,"frizz_risk":0,"updated_at":"2026-03-10T15:20:24.880972+05:30"},{"city":"Tirunelveli","state":"Tamil Nadu","latitude":8.7139,"longitude":77.7567,"temp":35.9,"humidity":32,"rain":0.0,"pressure":1002.8,"uv_index":9.2,"wind_gusts":47.2,"aqi":95,"pm10":17.5,"pm2_5":14.6,"mosquito_risk":0,"arthritis_risk":5,"migraine_risk":7,"frizz_risk":1,"updated_at":"2026-03-10T15:20:24.880978+05:30"},{"city":"Vellore","state":"Tamil Nadu","latitude":12.9165,"longitude":79.1325,"temp":31.8,"humidity":36,"rain":0.0,"pressure":986.7,"uv_index":9.05,"wind_gusts":35.6,"aqi":146,"pm10":29.1,"pm2_5":25.4,"mosquito_risk":0,"arthritis_risk":5,"migraine_risk":7,"frizz_risk":0,"updated_at":"2026-03-10T15:20:24.880984+05:30"},{"city":"Erode","state":"Tamil Nadu","latitude":11.341,"longitude":77.7172,"temp":34.9,"humidity":31,"rain":0.0,"pressure":989.7,"uv_index":9.1,"wind_gusts":28.8,"aqi":125,"pm10":31.4,"pm2_5":26.3,"mosquito_risk":0,"arthritis_risk":5,"migraine_risk":7,"frizz_risk":0,"updated_at":"2026-03-10T15:20:24.880990+05:30"},{"city":"Kochi","state":"Kerala","latitude":9.9312,"longitude":76.2673,"temp":29.0,"humidity":73,"rain":0.0,"pressure":1008.1,"uv_index":9.05,"wind_gusts":39.2,"aqi":152,"pm10":52.7,"pm2_5":43.3,"mosquito_risk":7,"arthritis_risk":0,"migraine_risk":4,"frizz_risk":1,"updated_at":"2026-03-10T15:20:24.880996+05:30"},{"city":"Thiruvananthapuram","state":"Kerala","latitude":8.5241,"longitude":76.9366,"temp":29.0,"humidity":64,"rain":0.0,"pressure":1007.4,"uv_index":9.1,"wind_gusts":27.4,"aqi":119,"pm10":37.3,"pm2_5":30.6,"mosquito_risk":7,"arthritis_risk":5,"migraine_risk":4,"frizz_risk":1,"updated_at":"2026-03-10T15:20:24.881001+05:30"},{"city":"Kozhikode","state":"Kerala","latitude":11.2588,"longitude":75.7804,"temp":30.6,"humidity":59,"rain":0.0,"pressure":1007.3,"uv_index":8.95,"wind_gusts":24.8,"aqi":104,"pm10":60.5,"pm2_5":50.2,"mosquito_risk":0,"arthritis_risk":5,"migraine_risk":4,"frizz_risk":1,"updated_at":"2026-03-10T15:20:24.881007+05:30"},{"city":"Thrissur","state":"Kerala","latitude":10.5276,"longitude":76.2144,"temp":35.0,"humidity":41,"rain":0.0,"pressure":1006.2,"uv_index":9.0,"wind_gusts":37.4,"aqi":150,"pm10":28.2,"pm2_5":21.3,"mosquito_risk":0,"arthritis_risk":5,"migraine_risk":4,"frizz_risk":1,"updated_at":"2026-03-10T15:20:24.881013+05:30"},{"city":"Kannur","state":"Kerala","latitude":11.8745,"longitude":75.3704,"temp":30.8,"humidity":61,"rain":0.0,"pressure":1006.9,"uv_index":8.95,"wind_gusts":39.2,"aqi":93,"pm10":46.4,"pm2_5":37.6,"mosquito_risk":3,"arthritis_risk":5,"migraine_risk":4,"frizz_risk":1,"updated_at":"2026-03-10T15:20:24.881018+05:30"},{"city":"Patna","state":"Bihar","latitude":25.5941,"longitude":85.1376,"temp":31.0,"humidity":54,"rain":0.0,"pressure":1004.5,"uv_index":7.4,"wind_gusts":24.5,"aqi":173,"pm10":92.2,"pm2_5":81.3,"mosquito_risk":0,"arthritis_risk":5,"migraine_risk":4,"frizz_risk":1,"updated_at":"2026-03-10T15:20:24.881023+05:30"},{"city":"Gaya","state":"Bihar","latitude":24.7914,"longitude":85.0002,"temp":30.0,"humidity":61,"rain":0.0,"pressure":997.8,"uv_index":7.5,"wind_gusts":15.5,"aqi":172,"pm10":77.3,"pm2_5":66.6,"mosquito_risk":7,"arthritis_risk":5,"migraine_risk":7,"frizz_risk":1,"updated_at":"2026-03-10T15:20:24.881029+05:30"},{"city":"Muzaffarpur","state":"Bihar","latitude":26.1209,"longitude":85.3647,"temp":31.5,"humidity":50,"rain":0.0,"pressure":1004.4,"uv_index":7.35,"wind_gusts":22.0,"aqi":175,"pm10":94.3,"pm2_5":82.7,"mosquito_risk":0,"arthritis_risk":5,"migraine_risk":4,"frizz_risk":1,"updated_at":"2026-03-10T15:20:24.881034+05:30"},{"city":"Bhagalpur","state":"Bihar","latitude":25.2425,"longitude":87.0117,"temp":31.1,"humidity":51,"rain":0.0,"pressure":1005.1,"uv_index":7.4,"wind_gusts":17.6,"aqi":165,"pm10":91.7,"pm2_5":78.0,"mosquito_risk":0,"arthritis_risk":5,"migraine_risk":4,"frizz_risk":1,"updated_at":"2026-03-10T15:20:24.881039+05:30"},{"city":"Ranchi","state":"Jharkhand","latitude":23.3441,"longitude":85.3096,"temp":28.8,"humidity":46,"rain":0.0,"pressure":941.0,"uv_index":8.15,"wind_gusts":29.5,"aqi":158,"pm10":89.6,"pm2_5":68.0,"mosquito_risk":4,"arthritis_risk":5,"migraine_risk":7,"frizz_risk":0,"updated_at":"2026-03-10T15:20:24.881044+05:30"},{"city":"Jamshedpur","state":"Jharkhand","latitude":22.8046,"longitude":86.2029,"temp":32.1,"humidity":50,"rain":0.0,"pressure":993.5,"uv_index":8.05,"wind_gusts":31.0,"aqi":137,"pm10":88.0,"pm2_5":71.7,"mosquito_risk":0,"arthritis_risk":5,"migraine_risk":7,"frizz_risk":1,"updated_at":"2026-03-10T15:20:24.881049+05:30"},{"city":"Dhanbad","state":"Jharkhand","latitude":23.7957,"longitude":86.4304,"temp":30.0,"humidity":54,"rain":0.0,"pressure":983.4,"uv_index":7.55,"wind_gusts":20.9,"aqi":169,"pm10":98.5,"pm2_5":84.8,"mosquito_risk":4,"arthritis_risk":5,"migraine_risk":7,"frizz_risk":1,"updated_at":"2026-03-10T15:20:24.881055+05:30"},{"city":"Bokaro","state":"Jharkhand","latitude":23.6693,"longitude":86.1511,"temp":30.4,"humidity":52,"rain":0.0,"pressure":987.3,"uv_index":7.95,"wind_gusts":20.5,"aqi":174,"pm10":101.7,"pm2_5":89.2,"mosquito_risk":0,"arthritis_risk":5,"migraine_risk":7,"frizz_risk":1,"updated_at":"2026-03-10T15:20:24.881060+05:30"},{"city":"Bhubaneswar","state":"Odisha","latitude":20.2961,"longitude":85.8245,"temp":32.1,"humidity":50,"rain":0.0,"pressure":1005.5,"uv_index":8.35,"wind_gusts":32.4,"aqi":106,"pm10":56.8,"pm2_5":44.7,"mosquito_risk":0,"arthritis_risk":5,"migraine_risk":4,"frizz_risk":1,"updated_at":"2026-03-10T15:20:24.881066+05:30"},{"city":"Cuttack","state":"Odisha","latitude":20.4625,"longitude":85.8828,"temp":33.7,"humidity":47,"rain":0.0,"pressure":1007.0,"uv_index":8.35,"wind_gusts":29.2,"aqi":106,"pm10":56.8,"pm2_5":44.7,"mosquito_risk":0,"arthritis_risk":5,"migraine_risk":4,"frizz_risk":1,"updated_at":"2026-03-10T15:20:24.881072+05:30"},{"city":"Rourkela","state":"Odisha","latitude":22.2604,"longitude":84.8536,"temp":34.5,"humidity":32,"rain":0.0,"pressure":987.2,"uv_index":7.95,"wind_gusts":26.3,"aqi":159,"pm10":80.1,"pm2_5":61.0,"mosquito_risk":0,"arthritis_risk":5,"migraine_risk":7,"frizz_risk":0,"updated_at":"2026-03-10T15:20:24.881077+05:30"},{"city":"Raipur","state":"Chhattisgarh","latitude":21.2514,"longitude":81.6296,"temp":36.9,"humidity":20,"rain":0.0,"pressure":977.1,"uv_index":8.05,"wind_gusts":17.3,"aqi":155,"pm10":69.4,"pm2_5":44.6,"mosquito_risk":0,"arthritis_risk":5,"migraine_risk":10,"frizz_risk":0,"updated_at":"2026-03-10T15:20:24.881082+05:30"},{"city":"Bhilai","state":"Chhattisgarh","latitude":21.1938,"longitude":81.3509,"temp":37.4,"humidity":19,"rain":0.0,"pressure":977.4,"uv_index":8.05,"wind_gusts":13.7,"aqi":151,"pm10":62.4,"pm2_5":39.1,"mosquito_risk":0,"arthritis_risk":5,"migraine_risk":10,"frizz_risk":0,"updated_at":"2026-03-10T15:20:24.881088+05:30"},{"city":"Guwahati","state":"Assam","latitude":26.1158,"longitude":91.7086,"temp":30.6,"humidity":55,"rain":0.0,"pressure":1004.6,"uv_index":7.3,"wind_gusts":11.5,"aqi":156,"pm10":83.6,"pm2_5":73.1,"mosquito_risk":0,"arthritis_risk":5,"migraine_risk":4,"frizz_risk":1,"updated_at":"2026-03-10T15:20:24.881093+05:30"},{"city":"Agartala","state":"Tripura","latitude":23.8315,"longitude":91.2868,"temp":30.5,"humidity":52,"rain":0.0,"pressure":1009.3,"uv_index":7.7,"wind_gusts":14.4,"aqi":168,"pm10":80.6,"pm2_5":67.3,"mosquito_risk":0,"arthritis_risk":0,"migraine_risk":4,"frizz_risk":1,"updated_at":"2026-03-10T15:20:24.881099+05:30"},{"city":"Shillong","state":"Meghalaya","latitude":25.5788,"longitude":91.8933,"temp":17.2,"humidity":67,"rain":0.0,"pressure":859.9,"uv_index":6.75,"wind_gusts":18.4,"aqi":154,"pm10":74.5,"pm2_5":66.4,"mosquito_risk":3,"arthritis_risk":5,"migraine_risk":7,"frizz_risk":0,"updated_at":"2026-03-10T15:20:24.881104+05:30"},{"city":"Imphal","state":"Manipur","latitude":24.817,"longitude":93.9368,"temp":23.6,"humidity":55,"rain":0.0,"pressure":926.2,"uv_index":6.35,"wind_gusts":30.6,"aqi":153,"pm10":44.8,"pm2_5":38.1,"mosquito_risk":0,"arthritis_risk":5,"migraine_risk":7,"frizz_risk":0,"updated_at":"2026-03-10T15:20:24.881109+05:30"},{"city":"Aizawl","state":"Mizoram","latitude":23.7271,"longitude":92.7176,"temp":24.9,"humidity":47,"rain":0.0,"pressure":896.4,"uv_index":7.85,"wind_gusts":27.7,"aqi":151,"pm10":53.2,"pm2_5":42.4,"mosquito_risk":0,"arthritis_risk":5,"migraine_risk":7,"frizz_risk":0,"updated_at":"2026-03-10T15:20:24.881114+05:30"},{"city":"Kohima","state":"Nagaland","latitude":25.6701,"longitude":94.1077,"temp":17.7,"humidity":84,"rain":0.0,"pressure":858.2,"uv_index":6.8,"wind_gusts":50.0,"aqi":135,"pm10":54.2,"pm2_5":48.7,"mosquito_risk":3,"arthritis_risk":10,"migraine_risk":7,"frizz_risk":0,"updated_at":"2026-03-10T15:20:24.881120+05:30"},{"city":"Gangtok","state":"Sikkim","latitude":27.3314,"longitude":88.6138,"temp":21.2,"humidity":50,"rain":0.0,"pressure":842.5,"uv_index":6.25,"wind_gusts":18.7,"aqi":151,"pm10":63.8,"pm2_5":52.2,"mosquito_risk":0,"arthritis_risk":5,"migraine_risk":7,"frizz_risk":0,"updated_at":"2026-03-10T15:20:24.881125+05:30"},{"city":"Siliguri","state":"West Bengal","latitude":26.7271,"longitude":88.3953,"temp":27.7,"humidity":52,"rain":0.0,"pressure":997.8,"uv_index":7.35,"wind_gusts":21.2,"aqi":164,"pm10":64.7,"pm2_5":52.4,"mosquito_risk":4,"arthritis_risk":5,"migraine_risk":7,"frizz_risk":1,"updated_at":"2026-03-10T15:20:28.158277+05:30"},{"city":"Durgapur","state":"West Bengal","latitude":23.5204,"longitude":87.3119,"temp":28.7,"humidity":68,"rain":0.0,"pressure":998.9,"uv_index":7.8,"wind_gusts":19.4,"aqi":157,"pm10":82.2,"pm2_5":68.9,"mosquito_risk":7,"arthritis_risk":5,"migraine_risk":7,"frizz_risk":1,"updated_at":"2026-03-10T15:20:28.158307+05:30"},{"city":"Asansol","state":"West Bengal","latitude":23.6739,"longitude":86.9524,"temp":29.5,"humidity":64,"rain":0.0,"pressure":997.4,"uv_index":7.9,"wind_gusts":19.1,"aqi":161,"pm10":88.2,"pm2_5":74.0,"mosquito_risk":7,"arthritis_risk":5,"migraine_risk":7,"frizz_risk":1,"updated_at":"2026-03-10T15:20:28.158357+05:30"},{"city":"Pondicherry","state":"Puducherry","latitude":11.9139,"longitude":79.8145,"temp":31.5,"humidity":55,"rain":0.0,"pressure":1010.8,"uv_index":8.95,"wind_gusts":37.8,"aqi":85,"pm10":22.1,"pm2_5":16.1,"mosquito_risk":0,"arthritis_risk":0,"migraine_risk":4,"frizz_risk":1,"updated_at":"2026-03-10T15:20:28.158367+05:30"},{"city":"Port Blair","state":"Andaman and Nicobar Islands","latitude":11.6234,"longitude":92.7265,"temp":29.3,"humidity":68,"rain":0.0,"pressure":1008.2,"uv_index":8.95,"wind_gusts":29.2,"aqi":76,"pm10":24.6,"pm2_5":21.7,"mosquito_risk":7,"arthritis_risk":0,"migraine_risk":4,"frizz_risk":1,"updated_at":"2026-03-10T15:20:28.158375+05:30"},{"city":"Haridwar","state":"Uttarakhand","latitude":29.9457,"longitude":78.1642,"temp":30.7,"humidity":55,"rain":0.0,"pressure":979.9,"uv_index":5.85,"wind_gusts":22.3,"aqi":155,"pm10":129.0,"pm2_5":83.8,"mosquito_risk":0,"arthritis_risk":5,"migraine_risk":3,"frizz_risk":1,"updated_at":"2026-03-10T15:20:28.158383+05:30"},{"city":"Rishikesh","state":"Uttarakhand","latitude":30.0869,"longitude":78.2676,"temp":29.8,"humidity":54,"rain":0.0,"pressure":972.6,"uv_index":5.9,"wind_gusts":23.0,"aqi":152,"pm10":121.1,"pm2_5":79.2,"mosquito_risk":4,"arthritis_risk":5,"migraine_risk":3,"frizz_risk":1,"updated_at":"2026-03-10T15:20:28.158391+05:30"},{"city":"Nainital","state":"Uttarakhand","latitude":29.3919,"longitude":79.4542,"temp":22.1,"humidity":63,"rain":0.0,"pressure":812.2,"uv_index":6.75,"wind_gusts":56.9,"aqi":173,"pm10":149.0,"pm2_5":110.6,"mosquito_risk":3,"arthritis_risk":5,"migraine_risk":7,"frizz_risk":0,"updated_at":"2026-03-10T15:20:28.158398+05:30"},{"city":"Mussoorie","state":"Uttarakhand","latitude":30.4599,"longitude":78.0664,"temp":20.9,"humidity":67,"rain":0.0,"pressure":809.2,"uv_index":6.25,"wind_gusts":38.9,"aqi":146,"pm10":114.3,"pm2_5":72.2,"mosquito_risk":3,"arthritis_risk":5,"migraine_risk":7,"frizz_risk":0,"updated_at":"2026-03-10T15:20:28.158405+05:30"},{"city":"Dharamshala","state":"Himachal Pradesh","latitude":32.219,"longitude":76.3234,"temp":25.3,"humidity":51,"rain":0.0,"pressure":875.7,"uv_index":6.45,"wind_gusts":20.5,"aqi":58,"pm10":25.1,"pm2_5":9.1,"mosquito_risk":4,"arthritis_risk":5,"migraine_risk":7,"frizz_risk":0,"updated_at":"2026-03-10T15:20:28.158412+05:30"},{"city":"Dalhousie","state":"Himachal Pradesh","latitude":32.5387,"longitude":75.971,"temp":23.2,"humidity":42,"rain":0.0,"pressure":810.9,"uv_index":6.1,"wind_gusts":18.4,"aqi":90,"pm10":39.5,"pm2_5":17.8,"mosquito_risk":0,"arthritis_risk":5,"migraine_risk":7,"frizz_risk":0,"updated_at":"2026-03-10T15:20:28.158420+05:30"},{"city":"Patiala","state":"Punjab","latitude":30.3398,"longitude":76.3869,"temp":31.9,"humidity":48,"rain":0.0,"pressure":983.9,"uv_index":5.9,"wind_gusts":14.4,"aqi":169,"pm10":209.1,"pm2_5":77.3,"mosquito_risk":0,"arthritis_risk":5,"migraine_risk":3,"frizz_risk":1,"updated_at":"2026-03-10T15:20:28.158426+05:30"},{"city":"Bhatinda","state":"Punjab","latitude":30.211,"longitude":74.9455,"temp":33.3,"humidity":34,"rain":0.0,"pressure":988.9,"uv_index":6.45,"wind_gusts":16.9,"aqi":155,"pm10":117.8,"pm2_5":38.2,"mosquito_risk":0,"arthritis_risk":5,"migraine_risk":7,"frizz_risk":0,"updated_at":"2026-03-10T15:20:28.158433+05:30"},{"city":"Rohtak","state":"Haryana","latitude":28.8955,"longitude":76.6066,"temp":33.7,"humidity":31,"rain":0.0,"pressure":987.0,"uv_index":5.35,"wind_gusts":20.2,"aqi":504,"pm10":233.3,"pm2_5":60.3,"mosquito_risk":0,"arthritis_risk":5,"migraine_risk":3,"frizz_risk":0,"updated_at":"2026-03-10T15:20:28.158440+05:30"},{"city":"Panipat","state":"Haryana","latitude":29.3909,"longitude":76.9635,"temp":32.6,"humidity":41,"rain":0.0,"pressure":985.8,"uv_index":5.9,"wind_gusts":18.0,"aqi":536,"pm10":247.7,"pm2_5":75.7,"mosquito_risk":0,"arthritis_risk":5,"migraine_risk":3,"frizz_risk":1,"updated_at":"2026-03-10T15:20:28.158447+05:30"},{"city":"Mathura","state":"Uttar Pradesh","latitude":27.4924,"longitude":77.6737,"temp":35.9,"humidity":23,"rain":0.0,"pressure":991.6,"uv_index":6.35,"wind_gusts":23.0,"aqi":406,"pm10":414.4,"pm2_5":85.7,"mosquito_risk":0,"arthritis_risk":5,"migraine_risk":10,"frizz_risk":0,"updated_at":"2026-03-10T15:20:28.158454+05:30"},{"city":"Vrindavan","state":"Uttar Pradesh","latitude":27.5823,"longitude":77.7027,"temp":35.4,"humidity":28,"rain":0.0,"pressure":992.0,"uv_index":6.3,"wind_gusts":24.1,"aqi":406,"pm10":414.4,"pm2_5":85.7,"mosquito_risk":0,"arthritis_risk":5,"migraine_risk":10,"frizz_risk":0,"updated_at":"2026-03-10T15:20:28.158461+05:30"},{"city":"Ayodhya","state":"Uttar Pradesh","latitude":26.7922,"longitude":82.1998,"temp":31.6,"humidity":50,"rain":0.0,"pressure":1000.0,"uv_index":6.75,"wind_gusts":19.4,"aqi":189,"pm10":105.0,"pm2_5":93.8,"mosquito_risk":0,"arthritis_risk":5,"migraine_risk":4,"frizz_risk":1,"updated_at":"2026-03-10T15:20:28.158467+05:30"},{"city":"Ratlam","state":"Madhya Pradesh","latitude":23.3315,"longitude":75.0367,"temp":36.6,"humidity":15,"rain":0.0,"pressure":958.6,"uv_index":7.55,"wind_gusts":18.7,"aqi":71,"pm10":17.6,"pm2_5":8.1,"mosquito_risk":0,"arthritis_risk":5,"migraine_risk":10,"frizz_risk":0,"updated_at":"2026-03-10T15:20:28.158474+05:30"},{"city":"Sagar","state":"Madhya Pradesh","latitude":23.8388,"longitude":78.7378,"temp":35.9,"humidity":19,"rain":0.0,"pressure":954.3,"uv_index":7.5,"wind_gusts":21.2,"aqi":69,"pm10":40.0,"pm2_5":12.8,"mosquito_risk":0,"arthritis_risk":5,"migraine_risk":10,"frizz_risk":0,"updated_at":"2026-03-10T15:20:28.158481+05:30"},{"city":"Satna","state":"Madhya Pradesh","latitude":24.6005,"longitude":80.8322,"temp":35.4,"humidity":28,"rain":0.0,"pressure":975.0,"uv_index":7.5,"wind_gusts":24.5,"aqi":132,"pm10":91.3,"pm2_5":44.6,"mosquito_risk":0,"arthritis_risk":5,"migraine_risk":10,"frizz_risk":0,"updated_at":"2026-03-10T15:20:28.158488+05:30"},{"city":"Akola","state":"Maharashtra","latitude":20.7002,"longitude":77.0082,"temp":39.0,"humidity":15,"rain":0.0,"pressure":977.3,"uv_index":8.0,"wind_gusts":16.9,"aqi":68,"pm10":15.2,"pm2_5":9.1,"mosquito_risk":0,"arthritis_risk":5,"migraine_risk":10,"frizz_risk":0,"updated_at":"2026-03-10T15:20:28.158495+05:30"},{"city":"Amravati","state":"Maharashtra","latitude":20.9374,"longitude":77.7796,"temp":38.5,"humidity":15,"rain":0.0,"pressure":969.8,"uv_index":7.95,"wind_gusts":19.1,"aqi":71,"pm10":16.2,"pm2_5":9.5,"mosquito_risk":0,"arthritis_risk":5,"migraine_risk":10,"frizz_risk":0,"updated_at":"2026-03-10T15:20:28.158502+05:30"},{"city":"Latur","state":"Maharashtra","latitude":18.4088,"longitude":76.5604,"temp":34.9,"humidity":23,"rain":0.0,"pressure":942.4,"uv_index":8.4,"wind_gusts":27.0,"aqi":99,"pm10":36.1,"pm2_5":28.5,"mosquito_risk":0,"arthritis_risk":5,"migraine_risk":7,"frizz_risk":0,"updated_at":"2026-03-10T15:20:28.158509+05:30"},{"city":"Nanded","state":"Maharashtra","latitude":19.1383,"longitude":77.3091,"temp":37.5,"humidity":23,"rain":0.0,"pressure":970.8,"uv_index":8.2,"wind_gusts":19.4,"aqi":120,"pm10":24.7,"pm2_5":18.4,"mosquito_risk":0,"arthritis_risk":5,"migraine_risk":10,"frizz_risk":0,"updated_at":"2026-03-10T15:20:28.158516+05:30"},{"city":"Gulbarga","state":"Karnataka","latitude":17.3297,"longitude":76.8343,"temp":35.9,"humidity":26,"rain":0.0,"pressure":960.5,"uv_index":8.5,"wind_gusts":30.6,"aqi":112,"pm10":53.8,"pm2_5":43.7,"mosquito_risk":0,"arthritis_risk":5,"migraine_risk":10,"frizz_risk":0,"updated_at":"2026-03-10T15:20:28.158522+05:30"},{"city":"Bidar","state":"Karnataka","latitude":17.9104,"longitude":77.5199,"temp":35.0,"humidity":24,"rain":0.0,"pressure":938.0,"uv_index":8.45,"wind_gusts":33.1,"aqi":125,"pm10":47.8,"pm2_5":38.1,"mosquito_risk":0,"arthritis_risk":5,"migraine_risk":7,"frizz_risk":0,"updated_at":"2026-03-10T15:20:28.158528+05:30"},{"city":"Hospet","state":"Karnataka","latitude":15.2689,"longitude":76.3909,"temp":34.3,"humidity":27,"rain":0.0,"pressure":957.3,"uv_index":8.8,"wind_gusts":36.0,"aqi":118,"pm10":61.9,"pm2_5":49.7,"mosquito_risk":0,"arthritis_risk":5,"migraine_risk":7,"frizz_risk":0,"updated_at":"2026-03-10T15:20:28.158535+05:30"},{"city":"Tirupur","state":"Tamil Nadu","latitude":11.1085,"longitude":77.3411,"temp":34.3,"humidity":29,"rain":0.0,"pressure":976.1,"uv_index":9.25,"wind_gusts":42.5,"aqi":129,"pm10":37.6,"pm2_5":30.6,"mosquito_risk":0,"arthritis_risk":5,"migraine_risk":7,"frizz_risk":0,"updated_at":"2026-03-10T15:20:28.158541+05:30"},{"city":"Alappuzha","state":"Kerala","latitude":9.4981,"longitude":76.3388,"temp":29.1,"humidity":73,"rain":0.0,"pressure":1008.2,"uv_index":9.05,"wind_gusts":33.5,"aqi":151,"pm10":60.8,"pm2_5":50.9,"mosquito_risk":7,"arthritis_risk":0,"migraine_risk":4,"frizz_risk":1,"updated_at":"2026-03-10T15:20:28.158547+05:30"},{"city":"Munnar","state":"Kerala","latitude":10.0889,"longitude":77.0595,"temp":30.0,"humidity":32,"rain":0.0,"pressure":859.3,"uv_index":9.55,"wind_gusts":33.8,"aqi":113,"pm10":18.9,"pm2_5":15.8,"mosquito_risk":4,"arthritis_risk":5,"migraine_risk":7,"frizz_risk":0,"updated_at":"2026-03-10T15:20:28.158555+05:30"},{"city":"Silchar","state":"Assam","latitude":24.8333,"longitude":92.7789,"temp":30.9,"humidity":50,"rain":0.0,"pressure":1007.6,"uv_index":7.65,"wind_gusts":14.0,"aqi":170,"pm10":74.3,"pm2_5":64.0,"mosquito_risk":0,"arthritis_risk":5,"migraine_risk":4,"frizz_risk":1,"updated_at":"2026-03-10T15:20:28.158561+05:30"},{"city":"Dibrugarh","state":"Assam","latitude":27.4728,"longitude":94.912,"temp":30.6,"humidity":53,"rain":0.0,"pressure":997.5,"uv_index":7.4,"wind_gusts":14.4,"aqi":166,"pm10":82.0,"pm2_5":70.1,"mosquito_risk":0,"arthritis_risk":5,"migraine_risk":7,"frizz_risk":1,"updated_at":"2026-03-10T15:20:28.158568+05:30"}]