[{"city":"Delhi","state":"Delhi","latitude":28.6139,"longitude":77.209,"temp":33.2,"humidity":20,"rain":0.0,"pressure":978.0,"uv_index":7.7,"wind_gusts":41.8,"aqi":473,"pm10":776.7,"pm2_5":167.2,"no2":28.0,"co":487.0,"o3":64.0,"so2":17.1,"mosquito_risk":0,"arthritis_risk":5,"migraine_risk":7,"frizz_risk":0,"updated_at":"2026-05-24T00:44:50.245405+05:30"},{"city":"Mumbai","state":"Maharashtra","latitude":19.076,"longitude":72.8777,"temp":30.9,"humidity":73,"rain":0.0,"pressure":1009.3,"uv_index":7.65,"wind_gusts":36.4,"aqi":41,"pm10":9.8,"pm2_5":6.9,"no2":6.3,"co":251.0,"o3":54.0,"so2":4.9,"mosquito_risk":3,"arthritis_risk":0,"migraine_risk":4,"frizz_risk":1,"updated_at":"2026-05-24T00:44:50.245454+05:30"},{"city":"Bangalore","state":"Karnataka","latitude":12.9716,"longitude":77.5946,"temp":22.2,"humidity":92,"rain":0.0,"pressure":913.1,"uv_index":6.2,"wind_gusts":43.9,"aqi":43,"pm10":17.0,"pm2_5":15.1,"no2":27.3,"co":287.0,"o3":41.0,"so2":6.5,"mosquito_risk":3,"arthritis_risk":5,"migraine_risk":7,"frizz_risk":1,"updated_at":"2026-05-24T00:44:50.245470+05:30"},{"city":"Hyderabad","state":"Telangana","latitude":17.385,"longitude":78.4867,"temp":30.3,"humidity":50,"rain":0.0,"pressure":952.6,"uv_index":9.25,"wind_gusts":47.5,"aqi":80,"pm10":22.4,"pm2_5":19.5,"no2":8.3,"co":222.0,"o3":94.0,"so2":5.2,"mosquito_risk":0,"arthritis_risk":5,"migraine_risk":7,"frizz_risk":1,"updated_at":"2026-05-24T00:44:50.245480+05:30"},{"city":"Chennai","state":"Tamil Nadu","latitude":13.0827,"longitude":80.2707,"temp":31.8,"humidity":60,"rain":0.0,"pressure":1005.5,"uv_index":8.55,"wind_gusts":64.4,"aqi":74,"pm10":31.0,"pm2_5":26.2,"no2":13.3,"co":358.0,"o3":82.0,"so2":10.0,"mosquito_risk":0,"arthritis_risk":5,"migraine_risk":4,"frizz_risk":1,"updated_at":"2026-05-24T00:44:50.245489+05:30"},{"city":"Kolkata","state":"West Bengal","latitude":22.5726,"longitude":88.3639,"temp":29.6,"humidity":89,"rain":0.0,"pressure":1002.3,"uv_index":9.0,"wind_gusts":38.9,"aqi":97,"pm10":28.1,"pm2_5":22.6,"no2":5.0,"co":243.0,"o3":91.0,"so2":4.7,"mosquito_risk":7,"arthritis_risk":5,"migraine_risk":4,"frizz_risk":1,"updated_at":"2026-05-24T00:44:50.245498+05:30"},{"city":"Pune","state":"Maharashtra","latitude":18.5204,"longitude":73.8567,"temp":26.4,"humidity":84,"rain":0.0,"pressure":949.5,"uv_index":8.35,"wind_gusts":41.0,"aqi":39,"pm10":11.1,"pm2_5":9.9,"no2":14.2,"co":198.0,"o3":42.0,"so2":9.4,"mosquito_risk":7,"arthritis_risk":5,"migraine_risk":7,"frizz_risk":1,"updated_at":"2026-05-24T00:44:50.245505+05:30"},{"city":"Ahmedabad","state":"Gujarat","latitude":23.0225,"longitude":72.5714,"temp":33.7,"humidity":59,"rain":0.0,"pressure":1001.1,"uv_index":8.1,"wind_gusts":36.4,"aqi":74,"pm10":23.3,"pm2_5":18.9,"no2":6.7,"co":193.0,"o3":63.0,"so2":4.1,"mosquito_risk":0,"arthritis_risk":5,"migraine_risk":4,"frizz_risk":1,"updated_at":"2026-05-24T00:44:50.245512+05:30"},{"city":"Jaipur","state":"Rajasthan","latitude":26.9124,"longitude":75.7873,"temp":33.7,"humidity":23,"rain":0.0,"pressure":957.0,"uv_index":8.25,"wind_gusts":50.0,"aqi":180,"pm10":306.4,"pm2_5":74.5,"no2":9.8,"co":232.0,"o3":63.0,"so2":5.8,"mosquito_risk":0,"arthritis_risk":5,"migraine_risk":7,"frizz_risk":0,"updated_at":"2026-05-24T00:44:50.245526+05:30"},{"city":"Lucknow","state":"Uttar Pradesh","latitude":26.8467,"longitude":80.9462,"temp":33.2,"humidity":29,"rain":0.0,"pressure":987.6,"uv_index":8.2,"wind_gusts":47.9,"aqi":167,"pm10":439.6,"pm2_5":109.4,"no2":14.7,"co":370.0,"o3":80.0,"so2":9.5,"mosquito_risk":0,"arthritis_risk":5,"migraine_risk":7,"frizz_risk":0,"updated_at":"2026-05-24T00:44:50.245533+05:30"},{"city":"Kanpur","state":"Uttar Pradesh","latitude":26.4499,"longitude":80.3319,"temp":34.4,"humidity":25,"rain":0.0,"pressure":986.4,"uv_index":8.2,"wind_gusts":48.2,"aqi":455,"pm10":676.1,"pm2_5":137.4,"no2":15.2,"co":294.0,"o3":71.0,"so2":9.1,"mosquito_risk":0,"arthritis_risk":5,"migraine_risk":7,"frizz_risk":0,"updated_at":"2026-05-24T00:44:50.245539+05:30"},{"city":"Chandigarh","state":"Chandigarh","latitude":30.7333,"longitude":76.7794,"temp":29.3,"humidity":23,"rain":0.0,"pressure":963.3,"uv_index":7.75,"wind_gusts":48.2,"aqi":84,"pm10":38.9,"pm2_5":28.8,"no2":24.5,"co":350.0,"o3":55.0,"so2":8.4,"mosquito_risk":4,"arthritis_risk":5,"migraine_risk":7,"frizz_risk":0,"updated_at":"2026-05-24T00:44:50.245546+05:30"},{"city":"Srinagar","state":"Jammu and Kashmir","latitude":34.0837,"longitude":74.7973,"temp":13.1,"humidity":86,"rain":0.0,"pressure":841.5,"uv_index":8.9,"wind_gusts":29.5,"aqi":67,"pm10":47.8,"pm2_5":40.3,"no2":39.6,"co":827.0,"o3":15.0,"so2":2.4,"mosquito_risk":3,"arthritis_risk":10,"migraine_risk":7,"frizz_risk":0,"updated_at":"2026-05-24T00:44:50.245555+05:30"},{"city":"Jammu","state":"Jammu and Kashmir","latitude":32.7266,"longitude":74.857,"temp":27.0,"humidity":33,"rain":0.0,"pressure":968.7,"uv_index":8.55,"wind_gusts":32.8,"aqi":75,"pm10":31.4,"pm2_5":22.2,"no2":22.2,"co":289.0,"o3":42.0,"so2":2.8,"mosquito_risk":4,"arthritis_risk":5,"migraine_risk":7,"frizz_risk":0,"updated_at":"2026-05-24T00:44:50.245562+05:30"},{"city":"Amritsar","state":"Punjab","latitude":31.634,"longitude":74.8723,"temp":28.9,"humidity":35,"rain":0.0,"pressure":976.5,"uv_index":8.45,"wind_gusts":23.8,"aqi":132,"pm10":60.3,"pm2_5":46.2,"no2":32.3,"co":355.0,"o3":38.0,"so2":8.7,"mosquito_risk":4,"arthritis_risk":5,"migraine_risk":7,"frizz_risk":0,"updated_at":"2026-05-24T00:44:50.245568+05:30"},{"city":"Ludhiana","state":"Punjab","latitude":30.901,"longitude":75.8573,"temp":29.5,"humidity":31,"rain":0.0,"pressure":974.1,"uv_index":8.0,"wind_gusts":26.3,"aqi":105,"pm10":52.9,"pm2_5":35.9,"no2":17.8,"co":542.0,"o3":66.0,"so2":7.3,"mosquito_risk":4,"arthritis_risk":5,"migraine_risk":7,"frizz_risk":0,"updated_at":"2026-05-24T00:44:50.245576+05:30"},{"city":"Jalandhar","state":"Punjab","latitude":31.326,"longitude":75.5762,"temp":29.8,"humidity":30,"rain":0.0,"pressure":975.1,"uv_index":8.2,"wind_gusts":24.8,"aqi":111,"pm10":54.6,"pm2_5":34.6,"no2":20.8,"co":482.0,"o3":68.0,"so2":6.4,"mosquito_risk":4,"arthritis_risk":5,"migraine_risk":7,"frizz_risk":0,"updated_at":"2026-05-24T00:44:50.245582+05:30"},{"city":"Dehradun","state":"Uttarakhand","latitude":30.6284,"longitude":78.0322,"temp":15.2,"humidity":49,"rain":0.0,"pressure":825.0,"uv_index":7.95,"wind_gusts":52.9,"aqi":61,"pm10":45.8,"pm2_5":19.2,"no2":34.0,"co":199.0,"o3":33.0,"so2":1.0,"mosquito_risk":0,"arthritis_risk":5,"migraine_risk":7,"frizz_risk":0,"updated_at":"2026-05-24T00:44:50.245589+05:30"},{"city":"Shimla","state":"Himachal Pradesh","latitude":31.1048,"longitude":77.1734,"temp":15.7,"humidity":32,"rain":0.0,"pressure":782.0,"uv_index":8.25,"wind_gusts":69.5,"aqi":66,"pm10":42.8,"pm2_5":20.5,"no2":23.2,"co":195.0,"o3":56.0,"so2":1.9,"mosquito_risk":0,"arthritis_risk":5,"migraine_risk":7,"frizz_risk":1,"updated_at":"2026-05-24T00:44:50.245598+05:30"},{"city":"Manali","state":"Himachal Pradesh","latitude":32.2396,"longitude":77.1887,"temp":9.4,"humidity":63,"rain":0.0,"pressure":813.0,"uv_index":9.0,"wind_gusts":47.5,"aqi":45,"pm10":19.0,"pm2_5":5.8,"no2":45.5,"co":263.0,"o3":64.0,"so2":0.0,"mosquito_risk":3,"arthritis_risk":5,"migraine_risk":7,"frizz_risk":0,"updated_at":"2026-05-24T00:44:50.245605+05:30"},{"city":"Gurgaon","state":"Haryana","latitude":28.4595,"longitude":77.0266,"temp":29.5,"humidity":32,"rain":0.0,"pressure":976.5,"uv_index":7.85,"wind_gusts":39.2,"aqi":886,"pm10":724.6,"pm2_5":153.7,"no2":41.6,"co":587.0,"o3":38.0,"so2":18.7,"mosquito_risk":4,"arthritis_risk":5,"migraine_risk":7,"frizz_risk":0,"updated_at":"2026-05-24T00:44:50.245614+05:30"},{"city":"Noida","state":"Uttar Pradesh","latitude":28.5355,"longitude":77.391,"temp":32.2,"humidity":24,"rain":0.0,"pressure":979.3,"uv_index":7.75,"wind_gusts":37.8,"aqi":886,"pm10":724.6,"pm2_5":153.7,"no2":41.6,"co":530.0,"o3":38.0,"so2":18.7,"mosquito_risk":0,"arthritis_risk":5,"migraine_risk":7,"frizz_risk":0,"updated_at":"2026-05-24T00:44:50.245622+05:30"},{"city":"Ghaziabad","state":"Uttar Pradesh","latitude":28.6692,"longitude":77.4538,"temp":32.2,"humidity":21,"rain":0.0,"pressure":977.6,"uv_index":7.7,"wind_gusts":40.7,"aqi":296,"pm10":610.9,"pm2_5":136.9,"no2":18.1,"co":416.0,"o3":80.0,"so2":16.4,"mosquito_risk":0,"arthritis_risk":5,"migraine_risk":7,"frizz_risk":0,"updated_at":"2026-05-24T00:44:50.245629+05:30"},{"city":"Faridabad","state":"Haryana","latitude":28.4089,"longitude":77.3178,"temp":33.0,"humidity":21,"rain":0.0,"pressure":978.8,"uv_index":7.8,"wind_gusts":43.6,"aqi":886,"pm10":724.6,"pm2_5":153.7,"no2":41.6,"co":517.0,"o3":38.0,"so2":18.7,"mosquito_risk":0,"arthritis_risk":5,"migraine_risk":7,"frizz_risk":0,"updated_at":"2026-05-24T00:44:50.245638+05:30"},{"city":"Meerut","state":"Uttar Pradesh","latitude":28.9845,"longitude":77.7064,"temp":32.2,"humidity":20,"rain":0.0,"pressure":976.1,"uv_index":7.65,"wind_gusts":47.5,"aqi":296,"pm10":610.9,"pm2_5":136.9,"no2":18.1,"co":283.0,"o3":80.0,"so2":16.4,"mosquito_risk":0,"arthritis_risk":5,"migraine_risk":7,"frizz_risk":0,"updated_at":"2026-05-24T00:44:50.245645+05:30"},{"city":"Agra","state":"Uttar Pradesh","latitude":27.1767,"longitude":78.0081,"temp":32.8,"humidity":26,"rain":0.0,"pressure":982.8,"uv_index":8.05,"wind_gusts":38.9,"aqi":657,"pm10":416.3,"pm2_5":84.8,"no2":27.2,"co":450.0,"o3":31.0,"so2":8.2,"mosquito_risk":0,"arthritis_risk":5,"migraine_risk":7,"frizz_risk":0,"updated_at":"2026-05-24T00:44:50.245651+05:30"},{"city":"Varanasi","state":"Uttar Pradesh","latitude":25.3176,"longitude":82.9739,"temp":34.4,"humidity":26,"rain":0.0,"pressure":991.6,"uv_index":8.7,"wind_gusts":43.9,"aqi":154,"pm10":139.2,"pm2_5":68.2,"no2":35.8,"co":651.0,"o3":45.0,"so2":15.1,"mosquito_risk":0,"arthritis_risk":5,"migraine_risk":7,"frizz_risk":0,"updated_at":"2026-05-24T00:44:50.245658+05:30"},{"city":"Prayagraj","state":"Uttar Pradesh","latitude":25.4358,"longitude":81.8463,"temp":34.2,"humidity":27,"rain":0.0,"pressure":990.4,"uv_index":8.6,"wind_gusts":45.7,"aqi":152,"pm10":254.3,"pm2_5":74.0,"no2":27.9,"co":399.0,"o3":55.0,"so2":12.2,"mosquito_risk":0,"arthritis_risk":5,"migraine_risk":7,"frizz_risk":0,"updated_at":"2026-05-24T00:44:50.245665+05:30"},{"city":"Gorakhpur","state":"Uttar Pradesh","latitude":26.7606,"longitude":83.3732,"temp":29.0,"humidity":54,"rain":0.0,"pressure":991.1,"uv_index":8.55,"wind_gusts":31.7,"aqi":155,"pm10":119.2,"pm2_5":71.2,"no2":41.8,"co":318.0,"o3":51.0,"so2":16.2,"mosquito_risk":4,"arthritis_risk":5,"migraine_risk":7,"frizz_risk":1,"updated_at":"2026-05-24T00:44:50.245679+05:30"},{"city":"Bareilly","state":"Uttar Pradesh","latitude":28.367,"longitude":79.4304,"temp":30.6,"humidity":36,"rain":0.0,"pressure":980.7,"uv_index":8.0,"wind_gusts":43.9,"aqi":136,"pm10":136.9,"pm2_5":55.6,"no2":20.8,"co":291.0,"o3":62.0,"so2":10.6,"mosquito_risk":0,"arthritis_risk":5,"migraine_risk":7,"frizz_risk":0,"updated_at":"2026-05-24T00:44:50.245685+05:30"},{"city":"Aligarh","state":"Uttar Pradesh","latitude":27.8974,"longitude":78.088,"temp":31.6,"humidity":26,"rain":0.0,"pressure":980.5,"uv_index":7.9,"wind_gusts":41.4,"aqi":596,"pm10":646.3,"pm2_5":145.8,"no2":26.9,"co":350.0,"o3":41.0,"so2":10.3,"mosquito_risk":0,"arthritis_risk":5,"migraine_risk":7,"frizz_risk":0,"updated_at":"2026-05-24T00:44:50.245691+05:30"},{"city":"Moradabad","state":"Uttar Pradesh","latitude":28.8386,"longitude":78.7733,"temp":30.3,"humidity":32,"rain":0.0,"pressure":977.7,"uv_index":7.85,"wind_gusts":48.6,"aqi":120,"pm10":210.0,"pm2_5":69.8,"no2":22.3,"co":346.0,"o3":56.0,"so2":9.2,"mosquito_risk":0,"arthritis_risk":5,"migraine_risk":7,"frizz_risk":0,"updated_at":"2026-05-24T00:44:50.245697+05:30"},{"city":"Saharanpur","state":"Uttar Pradesh","latitude":29.9637,"longitude":77.546,"temp":29.1,"humidity":25,"rain":0.0,"pressure":969.7,"uv_index":7.4,"wind_gusts":46.8,"aqi":105,"pm10":118.5,"pm2_5":46.6,"no2":15.1,"co":273.0,"o3":72.0,"so2":8.8,"mosquito_risk":4,"arthritis_risk":5,"migraine_risk":7,"frizz_risk":0,"updated_at":"2026-05-24T00:44:50.245704+05:30"},{"city":"Jhansi","state":"Uttar Pradesh","latitude":25.4484,"longitude":78.5685,"temp":33.2,"humidity":27,"rain":0.0,"pressure":974.0,"uv_index":8.45,"wind_gusts":46.1,"aqi":89,"pm10":84.5,"pm2_5":40.0,"no2":4.1,"co":168.0,"o3":71.0,"so2":2.7,"mosquito_risk":0,"arthritis_risk":5,"migraine_risk":7,"frizz_risk":0,"updated_at":"2026-05-24T00:44:53.582803+05:30"},{"city":"Surat","state":"Gujarat","latitude":21.1702,"longitude":72.8311,"temp":30.3,"humidity":81,"rain":0.0,"pressure":1006.6,"uv_index":7.7,"wind_gusts":42.5,"aqi":56,"pm10":14.5,"pm2_5":11.3,"no2":15.9,"co":240.0,"o3":36.0,"so2":26.7,"mosquito_risk":3,"arthritis_risk":5,"migraine_risk":4,"frizz_risk":1,"updated_at":"2026-05-24T00:44:53.582839+05:30"},{"city":"Vadodara","state":"Gujarat","latitude":22.3072,"longitude":73.1812,"temp":30.6,"humidity":77,"rain":0.0,"pressure":1003.6,"uv_index":8.1,"wind_gusts":48.2,"aqi":61,"pm10":12.9,"pm2_5":10.7,"no2":19.5,"co":143.0,"o3":24.0,"so2":20.9,"mosquito_risk":3,"arthritis_risk":5,"migraine_risk":4,"frizz_risk":1,"updated_at":"2026-05-24T00:44:53.582850+05:30"},{"city":"Rajkot","state":"Gujarat","latitude":22.3039,"longitude":70.8022,"temp":30.4,"humidity":66,"rain":0.0,"pressure":994.6,"uv_index":7.7,"wind_gusts":50.8,"aqi":68,"pm10":27.7,"pm2_5":18.9,"no2":6.1,"co":124.0,"o3":44.0,"so2":6.2,"mosquito_risk":3,"arthritis_risk":5,"migraine_risk":7,"frizz_risk":1,"updated_at":"2026-05-24T00:44:53.582859+05:30"},{"city":"Thane","state":"Maharashtra","latitude":19.2183,"longitude":72.9781,"temp":30.3,"humidity":76,"rain":0.0,"pressure":1008.7,"uv_index":7.5,"wind_gusts":36.4,"aqi":41,"pm10":9.8,"pm2_5":6.9,"no2":6.3,"co":382.0,"o3":54.0,"so2":4.9,"mosquito_risk":3,"arthritis_risk":0,"migraine_risk":4,"frizz_risk":1,"updated_at":"2026-05-24T00:44:53.582867+05:30"},{"city":"Nagpur","state":"Maharashtra","latitude":21.1458,"longitude":79.0882,"temp":35.5,"humidity":24,"rain":0.0,"pressure":970.1,"uv_index":8.9,"wind_gusts":43.9,"aqi":66,"pm10":31.2,"pm2_5":21.7,"no2":11.2,"co":210.0,"o3":69.0,"so2":6.5,"mosquito_risk":0,"arthritis_risk":5,"migraine_risk":10,"frizz_risk":0,"updated_at":"2026-05-24T00:44:53.582874+05:30"},{"city":"Nashik","state":"Maharashtra","latitude":19.9975,"longitude":73.7898,"temp":25.8,"humidity":83,"rain":0.0,"pressure":946.5,"uv_index":7.85,"wind_gusts":40.3,"aqi":39,"pm10":6.6,"pm2_5":5.2,"no2":6.5,"co":170.0,"o3":46.0,"so2":3.3,"mosquito_risk":7,"arthritis_risk":5,"migraine_risk":7,"frizz_risk":1,"updated_at":"2026-05-24T00:44:53.582881+05:30"},{"city":"Aurangabad","state":"Maharashtra","latitude":19.8762,"longitude":75.3433,"temp":30.0,"humidity":56,"rain":0.0,"pressure":944.8,"uv_index":9.05,"wind_gusts":44.3,"aqi":57,"pm10":12.4,"pm2_5":9.9,"no2":9.1,"co":165.0,"o3":57.0,"so2":6.2,"mosquito_risk":4,"arthritis_risk":5,"migraine_risk":7,"frizz_risk":1,"updated_at":"2026-05-24T00:44:53.582889+05:30"},{"city":"Solapur","state":"Maharashtra","latitude":17.6599,"longitude":75.9064,"temp":29.9,"humidity":58,"rain":0.0,"pressure":958.0,"uv_index":8.2,"wind_gusts":42.1,"aqi":58,"pm10":15.6,"pm2_5":15.2,"no2":13.6,"co":224.0,"o3":43.0,"so2":2.7,"mosquito_risk":4,"arthritis_risk":5,"migraine_risk":7,"frizz_risk":1,"updated_at":"2026-05-24T00:44:53.582897+05:30"},{"city":"Kolhapur","state":"Maharashtra","latitude":16.705,"longitude":74.2433,"temp":24.9,"humidity":91,"rain":0.0,"pressure":949.5,"uv_index":8.9,"wind_gusts":42.5,"aqi":43,"pm10":12.7,"pm2_5":11.5,"no2":11.2,"co":165.0,"o3":38.0,"so2":3.0,"mosquito_risk":3,"arthritis_risk":5,"migraine_risk":7,"frizz_risk":1,"updated_at":"2026-05-24T00:44:53.582904+05:30"},{"city":"Goa","state":"Goa","latitude":15.2993,"longitude":74.124,"temp":26.6,"humidity":97,"rain":0.0,"pressure":1000.0,"uv_index":6.8,"wind_gusts":32.0,"aqi":36,"pm10":17.3,"pm2_5":13.9,"no2":7.9,"co":268.0,"o3":40.0,"so2":1.6,"mosquito_risk":7,"arthritis_risk":5,"migraine_risk":4,"frizz_risk":1,"updated_at":"2026-05-24T00:44:53.582911+05:30"},{"city":"Jodhpur","state":"Rajasthan","latitude":26.2389,"longitude":73.0243,"temp":34.9,"humidity":25,"rain":0.0,"pressure":980.2,"uv_index":8.4,"wind_gusts":56.9,"aqi":178,"pm10":275.7,"pm2_5":69.8,"no2":5.8,"co":142.0,"o3":56.0,"so2":3.2,"mosquito_risk":0,"arthritis_risk":5,"migraine_risk":7,"frizz_risk":0,"updated_at":"2026-05-24T00:44:53.582918+05:30"},{"city":"Udaipur","state":"Rajasthan","latitude":24.5854,"longitude":73.7125,"temp":31.6,"humidity":27,"rain":0.0,"pressure":945.6,"uv_index":8.8,"wind_gusts":54.4,"aqi":97,"pm10":88.0,"pm2_5":32.5,"no2":3.0,"co":150.0,"o3":72.0,"so2":2.6,"mosquito_risk":0,"arthritis_risk":5,"migraine_risk":7,"frizz_risk":0,"updated_at":"2026-05-24T00:44:53.582925+05:30"},{"city":"Kota","state":"Rajasthan","latitude":25.2138,"longitude":75.8648,"temp":35.2,"humidity":22,"rain":0.0,"pressure":975.7,"uv_index":8.4,"wind_gusts":42.5,"aqi":102,"pm10":96.2,"pm2_5":42.1,"no2":11.8,"co":161.0,"o3":54.0,"so2":4.2,"mosquito_risk":0,"arthritis_risk":5,"migraine_risk":10,"frizz_risk":0,"updated_at":"2026-05-24T00:44:53.582933+05:30"},{"city":"Bikaner","state":"Rajasthan","latitude":28.0229,"longitude":73.3119,"temp":32.5,"humidity":19,"rain":0.0,"pressure":978.1,"uv_index":8.45,"wind_gusts":55.1,"aqi":124,"pm10":61.2,"pm2_5":26.8,"no2":6.3,"co":358.0,"o3":58.0,"so2":2.6,"mosquito_risk":0,"arthritis_risk":5,"migraine_risk":7,"frizz_risk":0,"updated_at":"2026-05-24T00:44:53.582939+05:30"},{"city":"Ajmer","state":"Rajasthan","latitude":26.4499,"longitude":74.6399,"temp":32.5,"humidity":29,"rain":0.0,"pressure":952.8,"uv_index":8.4,"wind_gusts":61.9,"aqi":126,"pm10":136.4,"pm2_5":46.6,"no2":3.8,"co":160.0,"o3":71.0,"so2":3.8,"mosquito_risk":0,"arthritis_risk":5,"migraine_risk":7,"frizz_risk":0,"updated_at":"2026-05-24T00:44:53.582946+05:30"},{"city":"Gwalior","state":"Madhya Pradesh","latitude":26.2183,"longitude":78.1828,"temp":33.8,"humidity":26,"rain":0.0,"pressure":978.9,"uv_index":8.25,"wind_gusts":42.8,"aqi":99,"pm10":79.9,"pm2_5":39.6,"no2":6.7,"co":198.0,"o3":64.0,"so2":3.3,"mosquito_risk":0,"arthritis_risk":5,"migraine_risk":7,"frizz_risk":0,"updated_at":"2026-05-24T00:44:53.582953+05:30"},{"city":"Indore","state":"Madhya Pradesh","latitude":22.7196,"longitude":75.8577,"temp":32.2,"humidity":29,"rain":0.0,"pressure":947.3,"uv_index":8.7,"wind_gusts":45.0,"aqi":72,"pm10":72.2,"pm2_5":33.2,"no2":4.3,"co":223.0,"o3":86.0,"so2":3.9,"mosquito_risk":0,"arthritis_risk":5,"migraine_risk":7,"frizz_risk":0,"updated_at":"2026-05-24T00:44:53.582960+05:30"},{"city":"Bhopal","state":"Madhya Pradesh","latitude":23.2599,"longitude":77.4126,"temp":33.4,"humidity":23,"rain":0.0,"pressure":952.0,"uv_index":8.7,"wind_gusts":44.6,"aqi":76,"pm10":60.3,"pm2_5":34.5,"no2":7.7,"co":225.0,"o3":64.0,"so2":4.8,"mosquito_risk":0,"arthritis_risk":5,"migraine_risk":7,"frizz_risk":0,"updated_at":"2026-05-24T00:44:53.582966+05:30"},{"city":"Jabalpur","state":"Madhya Pradesh","latitude":23.1815,"longitude":79.9864,"temp":32.8,"humidity":23,"rain":0.0,"pressure":958.4,"uv_index":8.85,"wind_gusts":40.7,"aqi":71,"pm10":77.5,"pm2_5":36.7,"no2":23.1,"co":309.0,"o3":53.0,"so2":5.4,"mosquito_risk":0,"arthritis_risk":5,"migraine_risk":7,"frizz_risk":0,"updated_at":"2026-05-24T00:44:53.582972+05:30"},{"city":"Ujjain","state":"Madhya Pradesh","latitude":23.1765,"longitude":75.7885,"temp":32.9,"humidity":27,"rain":0.0,"pressure":952.7,"uv_index":8.65,"wind_gusts":46.8,"aqi":75,"pm10":73.3,"pm2_5":33.4,"no2":3.3,"co":205.0,"o3":83.0,"so2":3.9,"mosquito_risk":0,"arthritis_risk":5,"migraine_risk":7,"frizz_risk":0,"updated_at":"2026-05-24T00:44:53.582979+05:30"},{"city":"Visakhapatnam","state":"Andhra Pradesh","latitude":17.6868,"longitude":83.2185,"temp":30.8,"humidity":83,"rain":0.0,"pressure":999.5,"uv_index":9.05,"wind_gusts":31.3,"aqi":121,"pm10":52.6,"pm2_5":46.1,"no2":33.6,"co":347.0,"o3":81.0,"so2":30.6,"mosquito_risk":3,"arthritis_risk":5,"migraine_risk":7,"frizz_risk":1,"updated_at":"2026-05-24T00:44:53.582985+05:30"},{"city":"Vijayawada","state":"Andhra Pradesh","latitude":16.5062,"longitude":80.648,"temp":34.3,"humidity":39,"rain":0.0,"pressure":998.4,"uv_index":9.1,"wind_gusts":48.2,"aqi":92,"pm10":29.8,"pm2_5":27.1,"no2":8.1,"co":265.0,"o3":96.0,"so2":6.0,"mosquito_risk":0,"arthritis_risk":5,"migraine_risk":7,"frizz_risk":1,"updated_at":"2026-05-24T00:44:53.582992+05:30"},{"city":"Guntur","state":"Andhra Pradesh","latitude":16.3067,"longitude":80.4365,"temp":34.0,"humidity":40,"rain":0.0,"pressure":999.9,"uv_index":9.15,"wind_gusts":50.8,"aqi":87,"pm10":28.0,"pm2_5":25.0,"no2":5.8,"co":240.0,"o3":104.0,"so2":5.2,"mosquito_risk":0,"arthritis_risk":5,"migraine_risk":7,"frizz_risk":1,"updated_at":"2026-05-24T00:44:53.582998+05:30"},{"city":"Nellore","state":"Andhra Pradesh","latitude":14.4426,"longitude":79.9865,"temp":32.8,"humidity":53,"rain":0.0,"pressure":1003.2,"uv_index":7.0,"wind_gusts":49.7,"aqi":67,"pm10":25.8,"pm2_5":22.3,"no2":6.9,"co":186.0,"o3":97.0,"so2":8.2,"mosquito_risk":0,"arthritis_risk":5,"migraine_risk":4,"frizz_risk":1,"updated_at":"2026-05-24T00:44:53.583006+05:30"},{"city":"Kurnool","state":"Andhra Pradesh","latitude":15.8281,"longitude":78.0373,"temp":29.4,"humidity":59,"rain":0.0,"pressure":977.2,"uv_index":8.0,"wind_gusts":58.3,"aqi":57,"pm10":22.0,"pm2_5":19.4,"no2":7.7,"co":216.0,"o3":92.0,"so2":2.2,"mosquito_risk":4,"arthritis_risk":5,"migraine_risk":7,"frizz_risk":1,"updated_at":"2026-05-24T00:44:53.583014+05:30"},{"city":"Kakinada","state":"Andhra Pradesh","latitude":16.9891,"longitude":82.2475,"temp":32.3,"humidity":70,"rain":0.0,"pressure":1003.2,"uv_index":8.4,"wind_gusts":34.2,"aqi":106,"pm10":30.4,"pm2_5":22.9,"no2":4.2,"co":345.0,"o3":116.0,"so2":3.3,"mosquito_risk":3,"arthritis_risk":5,"migraine_risk":4,"frizz_risk":1,"updated_at":"2026-05-24T00:44:53.583021+05:30"},{"city":"Tirupati","state":"Andhra Pradesh","latitude":13.6288,"longitude":79.4192,"temp":30.4,"humidity":56,"rain":0.0,"pressure":989.7,"uv_index":8.65,"wind_gusts":44.6,"aqi":68,"pm10":25.5,"pm2_5":21.7,"no2":7.8,"co":178.0,"o3":87.0,"so2":4.1,"mosquito_risk":0,"arthritis_risk":5,"migraine_risk":7,"frizz_risk":1,"updated_at":"2026-05-24T00:44:53.583027+05:30"},{"city":"Warangal","state":"Telangana","latitude":17.9689,"longitude":79.5941,"temp":34.5,"humidity":32,"rain":0.0,"pressure":975.6,"uv_index":9.15,"wind_gusts":51.8,"aqi":95,"pm10":34.7,"pm2_5":30.9,"no2":10.6,"co":249.0,"o3":82.0,"so2":5.0,"mosquito_risk":0,"arthritis_risk":5,"migraine_risk":7,"frizz_risk":0,"updated_at":"2026-05-24T00:44:53.583033+05:30"},{"city":"Nizamabad","state":"Telangana","latitude":18.6725,"longitude":78.0941,"temp":33.7,"humidity":37,"rain":0.0,"pressure":963.5,"uv_index":9.1,"wind_gusts":45.4,"aqi":75,"pm10":34.6,"pm2_5":29.5,"no2":11.4,"co":176.0,"o3":69.0,"so2":5.3,"mosquito_risk":0,"arthritis_risk":5,"migraine_risk":7,"frizz_risk":1,"updated_at":"2026-05-24T00:44:53.583039+05:30"},{"city":"Mysore","state":"Karnataka","latitude":12.2958,"longitude":76.6396,"temp":22.2,"humidity":93,"rain":0.0,"pressure":930.7,"uv_index":7.65,"wind_gusts":42.5,"aqi":32,"pm10":9.0,"pm2_5":8.2,"no2":11.1,"co":280.0,"o3":49.0,"so2":2.3,"mosquito_risk":3,"arthritis_risk":5,"migraine_risk":7,"frizz_risk":1,"updated_at":"2026-05-24T00:44:53.583046+05:30"},{"city":"Mangalore","state":"Karnataka","latitude":12.9141,"longitude":74.856,"temp":25.7,"humidity":95,"rain":0.0,"pressure":1009.5,"uv_index":7.25,"wind_gusts":37.1,"aqi":41,"pm10":16.4,"pm2_5":12.0,"no2":8.6,"co":356.0,"o3":44.0,"so2":2.4,"mosquito_risk":7,"arthritis_risk":0,"migraine_risk":4,"frizz_risk":1,"updated_at":"2026-05-24T00:44:53.583052+05:30"},{"city":"Hubli-Dharwad","state":"Karnataka","latitude":15.3647,"longitude":75.124,"temp":24.1,"humidity":96,"rain":0.0,"pressure":942.7,"uv_index":9.05,"wind_gusts":40.0,"aqi":25,"pm10":6.2,"pm2_5":4.9,"no2":6.0,"co":141.0,"o3":39.0,"so2":1.3,"mosquito_risk":3,"arthritis_risk":5,"migraine_risk":7,"frizz_risk":1,"updated_at":"2026-05-24T00:44:53.583059+05:30"},{"city":"Belgaum","state":"Karnataka","latitude":15.8497,"longitude":74.4977,"temp":23.2,"humidity":97,"rain":0.0,"pressure":927.6,"uv_index":8.1,"wind_gusts":39.6,"aqi":26,"pm10":8.9,"pm2_5":7.0,"no2":8.6,"co":141.0,"o3":39.0,"so2":1.8,"mosquito_risk":3,"arthritis_risk":5,"migraine_risk":7,"frizz_risk":1,"updated_at":"2026-05-24T00:44:56.844051+05:30"},{"city":"Coimbatore","state":"Tamil Nadu","latitude":11.0168,"longitude":76.9558,"temp":25.4,"humidity":87,"rain":0.0,"pressure":963.5,"uv_index":6.4,"wind_gusts":51.1,"aqi":31,"pm10":7.7,"pm2_5":6.5,"no2":6.4,"co":219.0,"o3":54.0,"so2":2.7,"mosquito_risk":7,"arthritis_risk":5,"migraine_risk":7,"frizz_risk":1,"updated_at":"2026-05-24T00:44:56.844087+05:30"},{"city":"Madurai","state":"Tamil Nadu","latitude":9.9252,"longitude":78.1198,"temp":29.1,"humidity":66,"rain":0.0,"pressure":993.7,"uv_index":8.9,"wind_gusts":44.3,"aqi":54,"pm10":19.8,"pm2_5":18.3,"no2":29.8,"co":391.0,"o3":18.0,"so2":5.9,"mosquito_risk":7,"arthritis_risk":5,"migraine_risk":7,"frizz_risk":1,"updated_at":"2026-05-24T00:44:56.844098+05:30"},{"city":"Trichy","state":"Tamil Nadu","latitude":10.7905,"longitude":78.7047,"temp":28.8,"humidity":70,"rain":0.0,"pressure":1000.2,"uv_index":7.2,"wind_gusts":45.7,"aqi":48,"pm10":12.4,"pm2_5":10.3,"no2":9.9,"co":158.0,"o3":61.0,"so2":3.6,"mosquito_risk":7,"arthritis_risk":5,"migraine_risk":4,"frizz_risk":1,"updated_at":"2026-05-24T00:44:56.844107+05:30"},{"city":"Salem","state":"Tamil Nadu","latitude":11.6643,"longitude":78.146,"temp":27.8,"humidity":68,"rain":0.0,"pressure":978.8,"uv_index":6.8,"wind_gusts":39.6,"aqi":56,"pm10":28.3,"pm2_5":21.7,"no2":24.9,"co":204.0,"o3":42.0,"so2":7.5,"mosquito_risk":7,"arthritis_risk":5,"migraine_risk":7,"frizz_risk":1,"updated_at":"2026-05-24T00:44:56.844116+05:30"},{"city":"Tirunelveli","state":"Tamil Nadu","latitude":8.7139,"longitude":77.7567,"temp":29.8,"humidity":65,"rain":0.0,"pressure":1003.9,"uv_index":8.85,"wind_gusts":36.7,"aqi":30,"pm10":10.9,"pm2_5":9.2,"no2":8.6,"co":158.0,"o3":40.0,"so2":2.2,"mosquito_risk":7,"arthritis_risk":5,"migraine_risk":4,"frizz_risk":1,"updated_at":"2026-05-24T00:44:56.844124+05:30"},{"city":"Vellore","state":"Tamil Nadu","latitude":12.9165,"longitude":79.1325,"temp":29.5,"humidity":64,"rain":0.0,"pressure":983.9,"uv_index":8.95,"wind_gusts":66.6,"aqi":70,"pm10":23.4,"pm2_5":20.7,"no2":8.2,"co":368.0,"o3":73.0,"so2":2.9,"mosquito_risk":7,"arthritis_risk":5,"migraine_risk":7,"frizz_risk":1,"updated_at":"2026-05-24T00:44:56.844131+05:30"},{"city":"Erode","state":"Tamil Nadu","latitude":11.341,"longitude":77.7172,"temp":28.0,"humidity":74,"rain":0.0,"pressure":990.3,"uv_index":7.4,"wind_gusts":46.4,"aqi":39,"pm10":15.6,"pm2_5":13.4,"no2":17.2,"co":219.0,"o3":36.0,"so2":3.2,"mosquito_risk":7,"arthritis_risk":5,"migraine_risk":7,"frizz_risk":1,"updated_at":"2026-05-24T00:44:56.844138+05:30"},{"city":"Kochi","state":"Kerala","latitude":9.9312,"longitude":76.2673,"temp":26.3,"humidity":95,"rain":0.0,"pressure":1011.7,"uv_index":7.95,"wind_gusts":33.1,"aqi":60,"pm10":28.4,"pm2_5":25.6,"no2":27.6,"co":288.0,"o3":12.0,"so2":6.5,"mosquito_risk":7,"arthritis_risk":0,"migraine_risk":4,"frizz_risk":1,"updated_at":"2026-05-24T00:44:56.844146+05:30"},{"city":"Thiruvananthapuram","state":"Kerala","latitude":8.5241,"longitude":76.9366,"temp":24.9,"humidity":94,"rain":0.0,"pressure":1011.0,"uv_index":8.3,"wind_gusts":42.8,"aqi":41,"pm10":14.5,"pm2_5":9.1,"no2":4.1,"co":214.0,"o3":50.0,"so2":1.7,"mosquito_risk":3,"arthritis_risk":0,"migraine_risk":4,"frizz_risk":1,"updated_at":"2026-05-24T00:44:56.844154+05:30"},{"city":"Kozhikode","state":"Kerala","latitude":11.2588,"longitude":75.7804,"temp":26.5,"humidity":94,"rain":0.0,"pressure":1010.6,"uv_index":8.55,"wind_gusts":36.7,"aqi":31,"pm10":13.1,"pm2_5":8.5,"no2":2.0,"co":115.0,"o3":66.0,"so2":1.0,"mosquito_risk":7,"arthritis_risk":0,"migraine_risk":4,"frizz_risk":1,"updated_at":"2026-05-24T00:44:56.844161+05:30"},{"city":"Thrissur","state":"Kerala","latitude":10.5276,"longitude":76.2144,"temp":25.4,"humidity":98,"rain":0.0,"pressure":1010.0,"uv_index":7.75,"wind_gusts":34.6,"aqi":61,"pm10":30.4,"pm2_5":28.1,"no2":22.0,"co":589.0,"o3":20.0,"so2":5.1,"mosquito_risk":7,"arthritis_risk":0,"migraine_risk":4,"frizz_risk":1,"updated_at":"2026-05-24T00:44:56.844169+05:30"},{"city":"Kannur","state":"Kerala","latitude":11.8745,"longitude":75.3704,"temp":26.2,"humidity":94,"rain":0.0,"pressure":1009.8,"uv_index":8.5,"wind_gusts":40.7,"aqi":37,"pm10":12.1,"pm2_5":8.9,"no2":9.9,"co":230.0,"o3":41.0,"so2":2.0,"mosquito_risk":7,"arthritis_risk":0,"migraine_risk":4,"frizz_risk":1,"updated_at":"2026-05-24T00:44:56.844176+05:30"},{"city":"Patna","state":"Bihar","latitude":25.5941,"longitude":85.1376,"temp":30.2,"humidity":67,"rain":0.0,"pressure":994.3,"uv_index":8.8,"wind_gusts":25.9,"aqi":160,"pm10":147.1,"pm2_5":97.1,"no2":50.2,"co":780.0,"o3":60.0,"so2":26.5,"mosquito_risk":3,"arthritis_risk":5,"migraine_risk":7,"frizz_risk":1,"updated_at":"2026-05-24T00:44:56.844184+05:30"},{"city":"Gaya","state":"Bihar","latitude":24.7914,"longitude":85.0002,"temp":30.9,"humidity":47,"rain":0.0,"pressure":988.5,"uv_index":8.9,"wind_gusts":34.6,"aqi":158,"pm10":152.3,"pm2_5":68.9,"no2":26.3,"co":626.0,"o3":54.0,"so2":9.7,"mosquito_risk":0,"arthritis_risk":5,"migraine_risk":7,"frizz_risk":1,"updated_at":"2026-05-24T00:44:56.844191+05:30"},{"city":"Muzaffarpur","state":"Bihar","latitude":26.1209,"longitude":85.3647,"temp":29.4,"humidity":75,"rain":0.0,"pressure":994.3,"uv_index":8.8,"wind_gusts":33.1,"aqi":157,"pm10":94.5,"pm2_5":72.6,"no2":16.7,"co":684.0,"o3":103.0,"so2":17.9,"mosquito_risk":7,"arthritis_risk":5,"migraine_risk":7,"frizz_risk":1,"updated_at":"2026-05-24T00:44:56.844198+05:30"},{"city":"Bhagalpur","state":"Bihar","latitude":25.2425,"longitude":87.0117,"temp":31.0,"humidity":60,"rain":0.0,"pressure":996.0,"uv_index":8.8,"wind_gusts":33.8,"aqi":151,"pm10":76.6,"pm2_5":59.6,"no2":14.5,"co":503.0,"o3":98.0,"so2":19.1,"mosquito_risk":0,"arthritis_risk":5,"migraine_risk":7,"frizz_risk":1,"updated_at":"2026-05-24T00:44:56.844205+05:30"},{"city":"Ranchi","state":"Jharkhand","latitude":23.3441,"longitude":85.3096,"temp":27.1,"humidity":35,"rain":0.0,"pressure":934.2,"uv_index":9.25,"wind_gusts":28.1,"aqi":125,"pm10":122.5,"pm2_5":46.7,"no2":18.2,"co":235.0,"o3":75.0,"so2":7.4,"mosquito_risk":4,"arthritis_risk":5,"migraine_risk":7,"frizz_risk":0,"updated_at":"2026-05-24T00:44:56.844211+05:30"},{"city":"Jamshedpur","state":"Jharkhand","latitude":22.8046,"longitude":86.2029,"temp":29.3,"humidity":90,"rain":0.0,"pressure":986.7,"uv_index":9.1,"wind_gusts":42.5,"aqi":152,"pm10":52.9,"pm2_5":43.8,"no2":14.0,"co":514.0,"o3":84.0,"so2":19.4,"mosquito_risk":7,"arthritis_risk":5,"migraine_risk":7,"frizz_risk":1,"updated_at":"2026-05-24T00:44:56.844219+05:30"},{"city":"Dhanbad","state":"Jharkhand","latitude":23.7957,"longitude":86.4304,"temp":29.8,"humidity":83,"rain":0.0,"pressure":975.8,"uv_index":8.9,"wind_gusts":32.4,"aqi":163,"pm10":65.7,"pm2_5":57.7,"no2":41.3,"co":546.0,"o3":64.0,"so2":80.3,"mosquito_risk":7,"arthritis_risk":5,"migraine_risk":7,"frizz_risk":1,"updated_at":"2026-05-24T00:44:56.844227+05:30"},{"city":"Bokaro","state":"Jharkhand","latitude":23.6693,"longitude":86.1511,"temp":30.0,"humidity":70,"rain":0.0,"pressure":979.5,"uv_index":9.05,"wind_gusts":29.5,"aqi":163,"pm10":125.7,"pm2_5":78.2,"no2":49.1,"co":1422.0,"o3":39.0,"so2":57.5,"mosquito_risk":7,"arthritis_risk":5,"migraine_risk":7,"frizz_risk":1,"updated_at":"2026-05-24T00:44:56.844234+05:30"},{"city":"Bhubaneswar","state":"Odisha","latitude":20.2961,"longitude":85.8245,"temp":29.0,"humidity":95,"rain":0.0,"pressure":998.8,"uv_index":9.15,"wind_gusts":44.6,"aqi":85,"pm10":21.7,"pm2_5":16.6,"no2":4.9,"co":266.0,"o3":90.0,"so2":3.8,"mosquito_risk":7,"arthritis_risk":5,"migraine_risk":7,"frizz_risk":1,"updated_at":"2026-05-24T00:44:56.844241+05:30"},{"city":"Cuttack","state":"Odisha","latitude":20.4625,"longitude":85.8828,"temp":29.1,"humidity":95,"rain":0.0,"pressure":1000.5,"uv_index":9.2,"wind_gusts":40.0,"aqi":85,"pm10":21.7,"pm2_5":16.6,"no2":4.9,"co":292.0,"o3":90.0,"so2":3.8,"mosquito_risk":7,"arthritis_risk":5,"migraine_risk":4,"frizz_risk":1,"updated_at":"2026-05-24T00:44:56.844247+05:30"},{"city":"Rourkela","state":"Odisha","latitude":22.2604,"longitude":84.8536,"temp":30.1,"humidity":69,"rain":0.0,"pressure":980.9,"uv_index":9.0,"wind_gusts":54.7,"aqi":156,"pm10":109.2,"pm2_5":70.3,"no2":43.4,"co":309.0,"o3":34.0,"so2":12.8,"mosquito_risk":3,"arthritis_risk":5,"migraine_risk":7,"frizz_risk":1,"updated_at":"2026-05-24T00:44:56.844254+05:30"},{"city":"Raipur","state":"Chhattisgarh","latitude":21.2514,"longitude":81.6296,"temp":33.5,"humidity":24,"rain":0.0,"pressure":970.6,"uv_index":9.0,"wind_gusts":44.3,"aqi":123,"pm10":56.8,"pm2_5":43.5,"no2":45.7,"co":460.0,"o3":28.0,"so2":41.5,"mosquito_risk":0,"arthritis_risk":5,"migraine_risk":7,"frizz_risk":0,"updated_at":"2026-05-24T00:44:56.844260+05:30"},{"city":"Bhilai","state":"Chhattisgarh","latitude":21.1938,"longitude":81.3509,"temp":33.2,"humidity":25,"rain":0.0,"pressure":971.2,"uv_index":9.0,"wind_gusts":31.0,"aqi":102,"pm10":56.2,"pm2_5":43.5,"no2":39.7,"co":579.0,"o3":31.0,"so2":32.1,"mosquito_risk":0,"arthritis_risk":5,"migraine_risk":7,"frizz_risk":0,"updated_at":"2026-05-24T00:44:56.844267+05:30"},{"city":"Guwahati","state":"Assam","latitude":26.1158,"longitude":91.7086,"temp":23.0,"humidity":98,"rain":0.0,"pressure":998.7,"uv_index":8.75,"wind_gusts":23.0,"aqi":56,"pm10":17.2,"pm2_5":11.3,"no2":5.0,"co":355.0,"o3":95.0,"so2":2.6,"mosquito_risk":3,"arthritis_risk":5,"migraine_risk":7,"frizz_risk":1,"updated_at":"2026-05-24T00:44:56.844273+05:30"},{"city":"Agartala","state":"Tripura","latitude":23.8315,"longitude":91.2868,"temp":27.5,"humidity":91,"rain":0.0,"pressure":1003.9,"uv_index":8.35,"wind_gusts":43.2,"aqi":74,"pm10":29.6,"pm2_5":23.4,"no2":6.5,"co":198.0,"o3":57.0,"so2":2.3,"mosquito_risk":7,"arthritis_risk":5,"migraine_risk":4,"frizz_risk":1,"updated_at":"2026-05-24T00:44:56.844280+05:30"},{"city":"Shillong","state":"Meghalaya","latitude":25.5788,"longitude":91.8933,"temp":20.1,"humidity":91,"rain":0.0,"pressure":854.8,"uv_index":8.8,"wind_gusts":52.6,"aqi":43,"pm10":2.2,"pm2_5":1.5,"no2":4.8,"co":196.0,"o3":79.0,"so2":2.7,"mosquito_risk":3,"arthritis_risk":5,"migraine_risk":7,"frizz_risk":1,"updated_at":"2026-05-24T00:44:56.844287+05:30"},{"city":"Imphal","state":"Manipur","latitude":24.817,"longitude":93.9368,"temp":21.3,"humidity":97,"rain":0.0,"pressure":922.2,"uv_index":9.3,"wind_gusts":34.6,"aqi":54,"pm10":15.4,"pm2_5":12.2,"no2":8.7,"co":257.0,"o3":49.0,"so2":2.3,"mosquito_risk":3,"arthritis_risk":5,"migraine_risk":7,"frizz_risk":1,"updated_at":"2026-05-24T00:44:56.844294+05:30"},{"city":"Aizawl","state":"Mizoram","latitude":23.7271,"longitude":92.7176,"temp":20.5,"humidity":89,"rain":0.0,"pressure":891.8,"uv_index":8.5,"wind_gusts":44.6,"aqi":59,"pm10":19.7,"pm2_5":13.1,"no2":2.1,"co":178.0,"o3":61.0,"so2":1.0,"mosquito_risk":3,"arthritis_risk":5,"migraine_risk":7,"frizz_risk":1,"updated_at":"2026-05-24T00:44:56.844301+05:30"},{"city":"Kohima","state":"Nagaland","latitude":25.6701,"longitude":94.1077,"temp":15.6,"humidity":94,"rain":0.0,"pressure":851.4,"uv_index":9.3,"wind_gusts":34.9,"aqi":29,"pm10":10.7,"pm2_5":7.9,"no2":5.9,"co":234.0,"o3":52.0,"so2":1.2,"mosquito_risk":3,"arthritis_risk":10,"migraine_risk":7,"frizz_risk":0,"updated_at":"2026-05-24T00:44:56.844308+05:30"},{"city":"Gangtok","state":"Sikkim","latitude":27.3314,"longitude":88.6138,"temp":16.4,"humidity":83,"rain":0.1,"pressure":834.7,"uv_index":9.15,"wind_gusts":36.7,"aqi":75,"pm10":22.3,"pm2_5":11.0,"no2":2.8,"co":450.0,"o3":139.0,"so2":3.3,"mosquito_risk":6,"arthritis_risk":10,"migraine_risk":7,"frizz_risk":0,"updated_at":"2026-05-24T00:44:56.844314+05:30"},{"city":"Siliguri","state":"West Bengal","latitude":26.7271,"longitude":88.3953,"temp":22.7,"humidity":96,"rain":0.0,"pressure":989.7,"uv_index":8.7,"wind_gusts":24.8,"aqi":81,"pm10":45.3,"pm2_5":24.4,"no2":7.3,"co":437.0,"o3":120.0,"so2":4.8,"mosquito_risk":3,"arthritis_risk":5,"migraine_risk":7,"frizz_risk":1,"updated_at":"2026-05-24T00:45:00.175178+05:30"},{"city":"Durgapur","state":"West Bengal","latitude":23.5204,"longitude":87.3119,"temp":29.0,"humidity":92,"rain":0.0,"pressure":990.8,"uv_index":9.0,"wind_gusts":35.3,"aqi":154,"pm10":42.6,"pm2_5":37.3,"no2":16.4,"co":319.0,"o3":69.0,"so2":25.6,"mosquito_risk":7,"arthritis_risk":5,"migraine_risk":7,"frizz_risk":1,"updated_at":"2026-05-24T00:45:00.175221+05:30"},{"city":"Asansol","state":"West Bengal","latitude":23.6739,"longitude":86.9524,"temp":29.0,"humidity":91,"rain":0.0,"pressure":989.4,"uv_index":8.85,"wind_gusts":33.8,"aqi":153,"pm10":40.2,"pm2_5":35.7,"no2":13.2,"co":432.0,"o3":77.0,"so2":23.1,"mosquito_risk":7,"arthritis_risk":5,"migraine_risk":7,"frizz_risk":1,"updated_at":"2026-05-24T00:45:00.175233+05:30"},{"city":"Pondicherry","state":"Puducherry","latitude":11.9139,"longitude":79.8145,"temp":29.7,"humidity":71,"rain":0.0,"pressure":1007.7,"uv_index":8.8,"wind_gusts":32.8,"aqi":67,"pm10":31.5,"pm2_5":25.8,"no2":15.0,"co":366.0,"o3":78.0,"so2":7.0,"mosquito_risk":7,"arthritis_risk":5,"migraine_risk":4,"frizz_risk":1,"updated_at":"2026-05-24T00:45:00.175242+05:30"},{"city":"Port Blair","state":"Andaman and Nicobar Islands","latitude":11.6234,"longitude":92.7265,"temp":27.0,"humidity":91,"rain":0.0,"pressure":1006.8,"uv_index":8.0,"wind_gusts":33.5,"aqi":32,"pm10":11.0,"pm2_5":6.2,"no2":0.3,"co":115.0,"o3":80.0,"so2":0.6,"mosquito_risk":7,"arthritis_risk":5,"migraine_risk":4,"frizz_risk":1,"updated_at":"2026-05-24T00:45:00.175251+05:30"},{"city":"Haridwar","state":"Uttarakhand","latitude":29.9457,"longitude":78.1642,"temp":26.5,"humidity":39,"rain":0.0,"pressure":967.7,"uv_index":7.55,"wind_gusts":53.3,"aqi":89,"pm10":41.6,"pm2_5":26.8,"no2":14.2,"co":300.0,"o3":79.0,"so2":9.2,"mosquito_risk":4,"arthritis_risk":5,"migraine_risk":7,"frizz_risk":0,"updated_at":"2026-05-24T00:45:00.175259+05:30"},{"city":"Rishikesh","state":"Uttarakhand","latitude":30.0869,"longitude":78.2676,"temp":23.0,"humidity":51,"rain":0.0,"pressure":960.1,"uv_index":7.65,"wind_gusts":48.2,"aqi":89,"pm10":36.3,"pm2_5":21.9,"no2":11.4,"co":302.0,"o3":103.0,"so2":8.2,"mosquito_risk":0,"arthritis_risk":5,"migraine_risk":7,"frizz_risk":0,"updated_at":"2026-05-24T00:45:00.175267+05:30"},{"city":"Nainital","state":"Uttarakhand","latitude":29.3919,"longitude":79.4542,"temp":14.3,"humidity":57,"rain":0.0,"pressure":800.5,"uv_index":8.5,"wind_gusts":45.4,"aqi":107,"pm10":46.4,"pm2_5":22.3,"no2":9.8,"co":249.0,"o3":106.0,"so2":5.8,"mosquito_risk":0,"arthritis_risk":5,"migraine_risk":7,"frizz_risk":0,"updated_at":"2026-05-24T00:45:00.175274+05:30"},{"city":"Mussoorie","state":"Uttarakhand","latitude":30.4599,"longitude":78.0664,"temp":17.6,"humidity":36,"rain":0.0,"pressure":800.1,"uv_index":7.9,"wind_gusts":72.0,"aqi":79,"pm10":46.0,"pm2_5":27.0,"no2":29.4,"co":214.0,"o3":60.0,"so2":6.6,"mosquito_risk":0,"arthritis_risk":5,"migraine_risk":7,"frizz_risk":0,"updated_at":"2026-05-24T00:45:00.175282+05:30"},{"city":"Dharamshala","state":"Himachal Pradesh","latitude":32.219,"longitude":76.3234,"temp":22.4,"humidity":32,"rain":0.0,"pressure":866.5,"uv_index":8.4,"wind_gusts":54.0,"aqi":52,"pm10":29.5,"pm2_5":11.8,"no2":16.1,"co":184.0,"o3":26.0,"so2":0.3,"mosquito_risk":0,"arthritis_risk":5,"migraine_risk":7,"frizz_risk":0,"updated_at":"2026-05-24T00:45:00.175289+05:30"},{"city":"Dalhousie","state":"Himachal Pradesh","latitude":32.5387,"longitude":75.971,"temp":12.2,"humidity":55,"rain":0.0,"pressure":799.8,"uv_index":8.7,"wind_gusts":44.6,"aqi":68,"pm10":47.0,"pm2_5":26.0,"no2":48.1,"co":414.0,"o3":1.0,"so2":1.7,"mosquito_risk":0,"arthritis_risk":5,"migraine_risk":7,"frizz_risk":0,"updated_at":"2026-05-24T00:45:00.175297+05:30"},{"city":"Patiala","state":"Punjab","latitude":30.3398,"longitude":76.3869,"temp":29.7,"humidity":26,"rain":0.0,"pressure":973.3,"uv_index":7.65,"wind_gusts":41.0,"aqi":387,"pm10":650.1,"pm2_5":120.1,"no2":12.2,"co":358.0,"o3":77.0,"so2":7.5,"mosquito_risk":4,"arthritis_risk":5,"migraine_risk":7,"frizz_risk":0,"updated_at":"2026-05-24T00:45:00.175305+05:30"},{"city":"Bhatinda","state":"Punjab","latitude":30.211,"longitude":74.9455,"temp":32.0,"humidity":26,"rain":0.0,"pressure":979.5,"uv_index":8.3,"wind_gusts":29.2,"aqi":89,"pm10":53.3,"pm2_5":35.9,"no2":18.0,"co":357.0,"o3":74.0,"so2":8.7,"mosquito_risk":0,"arthritis_risk":5,"migraine_risk":7,"frizz_risk":0,"updated_at":"2026-05-24T00:45:00.175313+05:30"},{"city":"Rohtak","state":"Haryana","latitude":28.8955,"longitude":76.6066,"temp":31.9,"humidity":20,"rain":0.0,"pressure":976.8,"uv_index":7.75,"wind_gusts":34.2,"aqi":674,"pm10":873.6,"pm2_5":175.6,"no2":28.6,"co":324.0,"o3":56.0,"so2":9.4,"mosquito_risk":0,"arthritis_risk":5,"migraine_risk":7,"frizz_risk":0,"updated_at":"2026-05-24T00:45:00.175320+05:30"},{"city":"Panipat","state":"Haryana","latitude":29.3909,"longitude":76.9635,"temp":31.0,"humidity":23,"rain":0.0,"pressure":975.1,"uv_index":7.6,"wind_gusts":44.3,"aqi":1454,"pm10":1467.8,"pm2_5":241.2,"no2":14.8,"co":290.0,"o3":76.0,"so2":8.3,"mosquito_risk":0,"arthritis_risk":5,"migraine_risk":7,"frizz_risk":0,"updated_at":"2026-05-24T00:45:00.175327+05:30"},{"city":"Mathura","state":"Uttar Pradesh","latitude":27.4924,"longitude":77.6737,"temp":32.0,"humidity":28,"rain":0.0,"pressure":982.0,"uv_index":8.0,"wind_gusts":37.1,"aqi":597,"pm10":226.8,"pm2_5":64.3,"no2":31.7,"co":338.0,"o3":27.0,"so2":5.8,"mosquito_risk":0,"arthritis_risk":5,"migraine_risk":7,"frizz_risk":0,"updated_at":"2026-05-24T00:45:00.175347+05:30"},{"city":"Vrindavan","state":"Uttar Pradesh","latitude":27.5823,"longitude":77.7027,"temp":31.8,"humidity":28,"rain":0.0,"pressure":982.4,"uv_index":8.0,"wind_gusts":36.0,"aqi":597,"pm10":226.8,"pm2_5":64.3,"no2":31.7,"co":334.0,"o3":27.0,"so2":5.8,"mosquito_risk":0,"arthritis_risk":5,"migraine_risk":7,"frizz_risk":0,"updated_at":"2026-05-24T00:45:00.175353+05:30"},{"city":"Ayodhya","state":"Uttar Pradesh","latitude":26.7922,"longitude":82.1998,"temp":32.0,"humidity":33,"rain":0.0,"pressure":989.1,"uv_index":8.35,"wind_gusts":32.4,"aqi":154,"pm10":269.2,"pm2_5":77.1,"no2":16.0,"co":248.0,"o3":76.0,"so2":10.5,"mosquito_risk":0,"arthritis_risk":5,"migraine_risk":7,"frizz_risk":0,"updated_at":"2026-05-24T00:45:00.175361+05:30"},{"city":"Ratlam","state":"Madhya Pradesh","latitude":23.3315,"longitude":75.0367,"temp":31.8,"humidity":30,"rain":0.0,"pressure":953.8,"uv_index":8.55,"wind_gusts":49.7,"aqi":75,"pm10":68.7,"pm2_5":31.9,"no2":3.8,"co":178.0,"o3":78.0,"so2":5.0,"mosquito_risk":0,"arthritis_risk":5,"migraine_risk":7,"frizz_risk":0,"updated_at":"2026-05-24T00:45:00.175368+05:30"},{"city":"Sagar","state":"Madhya Pradesh","latitude":23.8388,"longitude":78.7378,"temp":32.7,"humidity":28,"rain":0.0,"pressure":948.1,"uv_index":8.75,"wind_gusts":50.8,"aqi":73,"pm10":56.5,"pm2_5":31.9,"no2":13.8,"co":227.0,"o3":55.0,"so2":4.0,"mosquito_risk":0,"arthritis_risk":5,"migraine_risk":7,"frizz_risk":0,"updated_at":"2026-05-24T00:45:00.175375+05:30"},{"city":"Satna","state":"Madhya Pradesh","latitude":24.6005,"longitude":80.8322,"temp":32.6,"humidity":30,"rain":0.0,"pressure":967.4,"uv_index":8.8,"wind_gusts":48.2,"aqi":105,"pm10":104.8,"pm2_5":45.5,"no2":17.7,"co":223.0,"o3":51.0,"so2":3.8,"mosquito_risk":0,"arthritis_risk":5,"migraine_risk":7,"frizz_risk":0,"updated_at":"2026-05-24T00:45:00.175382+05:30"},{"city":"Akola","state":"Maharashtra","latitude":20.7002,"longitude":77.0082,"temp":34.5,"humidity":40,"rain":0.0,"pressure":973.7,"uv_index":8.85,"wind_gusts":52.2,"aqi":64,"pm10":24.2,"pm2_5":19.4,"no2":7.8,"co":183.0,"o3":80.0,"so2":9.0,"mosquito_risk":0,"arthritis_risk":5,"migraine_risk":7,"frizz_risk":1,"updated_at":"2026-05-24T00:45:00.175390+05:30"},{"city":"Amravati","state":"Maharashtra","latitude":20.9374,"longitude":77.7796,"temp":34.5,"humidity":29,"rain":0.0,"pressure":965.8,"uv_index":8.85,"wind_gusts":50.4,"aqi":66,"pm10":23.1,"pm2_5":17.9,"no2":10.0,"co":167.0,"o3":67.0,"so2":6.8,"mosquito_risk":0,"arthritis_risk":5,"migraine_risk":7,"frizz_risk":0,"updated_at":"2026-05-24T00:45:00.175398+05:30"},{"city":"Latur","state":"Maharashtra","latitude":18.4088,"longitude":76.5604,"temp":30.0,"humidity":49,"rain":0.0,"pressure":940.0,"uv_index":9.05,"wind_gusts":40.3,"aqi":66,"pm10":23.5,"pm2_5":21.9,"no2":12.7,"co":249.0,"o3":63.0,"so2":3.5,"mosquito_risk":4,"arthritis_risk":5,"migraine_risk":7,"frizz_risk":1,"updated_at":"2026-05-24T00:45:00.175406+05:30"},{"city":"Nanded","state":"Maharashtra","latitude":19.1383,"longitude":77.3091,"temp":34.8,"humidity":33,"rain":0.0,"pressure":967.6,"uv_index":8.85,"wind_gusts":45.7,"aqi":67,"pm10":26.5,"pm2_5":22.0,"no2":7.0,"co":187.0,"o3":79.0,"so2":4.0,"mosquito_risk":0,"arthritis_risk":5,"migraine_risk":7,"frizz_risk":0,"updated_at":"2026-05-24T00:45:00.175413+05:30"},{"city":"Gulbarga","state":"Karnataka","latitude":17.3297,"longitude":76.8343,"temp":29.4,"humidity":57,"rain":0.0,"pressure":959.2,"uv_index":9.05,"wind_gusts":54.4,"aqi":57,"pm10":18.8,"pm2_5":17.3,"no2":12.2,"co":235.0,"o3":64.0,"so2":2.5,"mosquito_risk":4,"arthritis_risk":5,"migraine_risk":7,"frizz_risk":1,"updated_at":"2026-05-24T00:45:00.175420+05:30"},{"city":"Bidar","state":"Karnataka","latitude":17.9104,"longitude":77.5199,"temp":29.7,"humidity":48,"rain":0.0,"pressure":935.5,"uv_index":9.1,"wind_gusts":43.6,"aqi":78,"pm10":24.4,"pm2_5":21.8,"no2":8.9,"co":251.0,"o3":86.0,"so2":3.3,"mosquito_risk":4,"arthritis_risk":5,"migraine_risk":7,"frizz_risk":1,"updated_at":"2026-05-24T00:45:00.175428+05:30"},{"city":"Hospet","state":"Karnataka","latitude":15.2689,"longitude":76.3909,"temp":25.6,"humidity":89,"rain":0.0,"pressure":957.4,"uv_index":6.5,"wind_gusts":46.4,"aqi":34,"pm10":7.4,"pm2_5":6.7,"no2":11.7,"co":198.0,"o3":37.0,"so2":1.6,"mosquito_risk":7,"arthritis_risk":5,"migraine_risk":7,"frizz_risk":1,"updated_at":"2026-05-24T00:45:00.175435+05:30"},{"city":"Tirupur","state":"Tamil Nadu","latitude":11.1085,"longitude":77.3411,"temp":26.0,"humidity":86,"rain":0.0,"pressure":976.8,"uv_index":6.35,"wind_gusts":51.5,"aqi":40,"pm10":16.7,"pm2_5":14.2,"no2":18.5,"co":194.0,"o3":36.0,"so2":3.7,"mosquito_risk":7,"arthritis_risk":5,"migraine_risk":7,"frizz_risk":1,"updated_at":"2026-05-24T00:45:00.175442+05:30"},{"city":"Alappuzha","state":"Kerala","latitude":9.4981,"longitude":76.3388,"temp":26.3,"humidity":95,"rain":0.0,"pressure":1011.7,"uv_index":8.65,"wind_gusts":34.2,"aqi":49,"pm10":17.5,"pm2_5":13.9,"no2":14.3,"co":98.0,"o3":41.0,"so2":3.9,"mosquito_risk":7,"arthritis_risk":0,"migraine_risk":4,"frizz_risk":1,"updated_at":"2026-05-24T00:45:00.175450+05:30"},{"city":"Munnar","state":"Kerala","latitude":10.0889,"longitude":77.0595,"temp":17.3,"humidity":98,"rain":0.0,"pressure":858.5,"uv_index":7.7,"wind_gusts":32.8,"aqi":28,"pm10":10.1,"pm2_5":9.5,"no2":8.8,"co":154.0,"o3":36.0,"so2":1.5,"mosquito_risk":3,"arthritis_risk":10,"migraine_risk":7,"frizz_risk":1,"updated_at":"2026-05-24T00:45:00.175457+05:30"},{"city":"Silchar","state":"Assam","latitude":24.8333,"longitude":92.7789,"temp":24.9,"humidity":97,"rain":0.4,"pressure":1003.4,"uv_index":8.95,"wind_gusts":36.4,"aqi":54,"pm10":26.9,"pm2_5":15.5,"no2":4.8,"co":267.0,"o3":75.0,"so2":2.1,"mosquito_risk":6,"arthritis_risk":5,"migraine_risk":4,"frizz_risk":1,"updated_at":"2026-05-24T00:45:00.175465+05:30"},{"city":"Dibrugarh","state":"Assam","latitude":27.4728,"longitude":94.912,"temp":22.9,"humidity":99,"rain":0.1,"pressure":992.9,"uv_index":7.3,"wind_gusts":37.1,"aqi":54,"pm10":15.4,"pm2_5":12.2,"no2":7.2,"co":243.0,"o3":89.0,"so2":1.7,"mosquito_risk":6,"arthritis_risk":5,"migraine_risk":7,"frizz_risk":1,"updated_at":"2026-05-24T00:45:00.175472+05:30"}]