[{"city":"Delhi","state":"Delhi","latitude":28.6139,"longitude":77.209,"temp":26.8,"humidity":55,"rain":0.0,"pressure":984.9,"uv_index":7.55,"wind_gusts":38.2,"aqi":243,"pm10":188.6,"pm2_5":58.1,"no2":28.1,"co":613.0,"o3":101.0,"so2":21.8,"mosquito_risk":4,"arthritis_risk":5,"migraine_risk":7,"frizz_risk":1,"updated_at":"2026-05-08T22:51:44.357278+05:30"},{"city":"Mumbai","state":"Maharashtra","latitude":19.076,"longitude":72.8777,"temp":29.4,"humidity":81,"rain":0.0,"pressure":1008.0,"uv_index":7.85,"wind_gusts":48.2,"aqi":90,"pm10":48.5,"pm2_5":21.8,"no2":15.3,"co":379.0,"o3":75.0,"so2":12.6,"mosquito_risk":7,"arthritis_risk":0,"migraine_risk":4,"frizz_risk":1,"updated_at":"2026-05-08T22:51:44.357319+05:30"},{"city":"Bangalore","state":"Karnataka","latitude":12.9716,"longitude":77.5946,"temp":24.2,"humidity":76,"rain":0.0,"pressure":912.0,"uv_index":9.45,"wind_gusts":45.4,"aqi":47,"pm10":14.3,"pm2_5":14.0,"no2":18.6,"co":305.0,"o3":65.0,"so2":9.6,"mosquito_risk":3,"arthritis_risk":5,"migraine_risk":7,"frizz_risk":1,"updated_at":"2026-05-08T22:51:44.357336+05:30"},{"city":"Hyderabad","state":"Telangana","latitude":17.385,"longitude":78.4867,"temp":27.5,"humidity":62,"rain":0.0,"pressure":955.3,"uv_index":9.25,"wind_gusts":39.2,"aqi":69,"pm10":19.4,"pm2_5":17.2,"no2":11.8,"co":336.0,"o3":87.0,"so2":7.3,"mosquito_risk":7,"arthritis_risk":5,"migraine_risk":7,"frizz_risk":1,"updated_at":"2026-05-08T22:51:44.357346+05:30"},{"city":"Chennai","state":"Tamil Nadu","latitude":13.0827,"longitude":80.2707,"temp":27.9,"humidity":81,"rain":0.0,"pressure":1007.9,"uv_index":8.05,"wind_gusts":44.3,"aqi":19,"pm10":5.8,"pm2_5":4.6,"no2":7.4,"co":143.0,"o3":37.0,"so2":2.9,"mosquito_risk":7,"arthritis_risk":5,"migraine_risk":4,"frizz_risk":1,"updated_at":"2026-05-08T22:51:44.357356+05:30"},{"city":"Kolkata","state":"West Bengal","latitude":22.5726,"longitude":88.3639,"temp":24.5,"humidity":90,"rain":0.0,"pressure":1009.7,"uv_index":8.9,"wind_gusts":29.2,"aqi":144,"pm10":68.5,"pm2_5":64.0,"no2":21.8,"co":691.0,"o3":111.0,"so2":20.4,"mosquito_risk":3,"arthritis_risk":0,"migraine_risk":4,"frizz_risk":1,"updated_at":"2026-05-08T22:51:44.357365+05:30"},{"city":"Pune","state":"Maharashtra","latitude":18.5204,"longitude":73.8567,"temp":29.5,"humidity":50,"rain":0.0,"pressure":948.7,"uv_index":8.45,"wind_gusts":40.7,"aqi":110,"pm10":57.5,"pm2_5":37.1,"no2":22.1,"co":413.0,"o3":86.0,"so2":15.9,"mosquito_risk":4,"arthritis_risk":5,"migraine_risk":7,"frizz_risk":1,"updated_at":"2026-05-08T22:51:44.357372+05:30"},{"city":"Ahmedabad","state":"Gujarat","latitude":23.0225,"longitude":72.5714,"temp":34.4,"humidity":22,"rain":0.0,"pressure":1001.6,"uv_index":8.1,"wind_gusts":27.7,"aqi":79,"pm10":76.6,"pm2_5":52.0,"no2":49.4,"co":330.0,"o3":44.0,"so2":18.2,"mosquito_risk":0,"arthritis_risk":5,"migraine_risk":4,"frizz_risk":0,"updated_at":"2026-05-08T22:51:44.357384+05:30"},{"city":"Jaipur","state":"Rajasthan","latitude":26.9124,"longitude":75.7873,"temp":28.4,"humidity":40,"rain":0.0,"pressure":960.4,"uv_index":8.1,"wind_gusts":36.4,"aqi":164,"pm10":388.4,"pm2_5":67.1,"no2":9.9,"co":320.0,"o3":112.0,"so2":7.9,"mosquito_risk":4,"arthritis_risk":5,"migraine_risk":7,"frizz_risk":0,"updated_at":"2026-05-08T22:51:44.357392+05:30"},{"city":"Lucknow","state":"Uttar Pradesh","latitude":26.8467,"longitude":80.9462,"temp":25.5,"humidity":59,"rain":0.0,"pressure":995.6,"uv_index":8.05,"wind_gusts":27.0,"aqi":122,"pm10":55.1,"pm2_5":32.2,"no2":11.5,"co":395.0,"o3":111.0,"so2":10.2,"mosquito_risk":4,"arthritis_risk":5,"migraine_risk":7,"frizz_risk":1,"updated_at":"2026-05-08T22:51:44.357402+05:30"},{"city":"Kanpur","state":"Uttar Pradesh","latitude":26.4499,"longitude":80.3319,"temp":26.9,"humidity":55,"rain":0.0,"pressure":993.2,"uv_index":8.05,"wind_gusts":27.7,"aqi":141,"pm10":451.7,"pm2_5":66.1,"no2":8.4,"co":385.0,"o3":117.0,"so2":8.2,"mosquito_risk":4,"arthritis_risk":5,"migraine_risk":7,"frizz_risk":1,"updated_at":"2026-05-08T22:51:44.357410+05:30"},{"city":"Chandigarh","state":"Chandigarh","latitude":30.7333,"longitude":76.7794,"temp":23.0,"humidity":64,"rain":0.0,"pressure":970.5,"uv_index":7.55,"wind_gusts":37.8,"aqi":103,"pm10":54.9,"pm2_5":38.3,"no2":41.6,"co":987.0,"o3":46.0,"so2":6.2,"mosquito_risk":3,"arthritis_risk":5,"migraine_risk":7,"frizz_risk":0,"updated_at":"2026-05-08T22:51:44.357418+05:30"},{"city":"Srinagar","state":"Jammu and Kashmir","latitude":34.0837,"longitude":74.7973,"temp":12.7,"humidity":81,"rain":0.0,"pressure":839.9,"uv_index":8.8,"wind_gusts":28.1,"aqi":82,"pm10":70.3,"pm2_5":41.3,"no2":40.1,"co":937.0,"o3":33.0,"so2":6.9,"mosquito_risk":3,"arthritis_risk":10,"migraine_risk":7,"frizz_risk":0,"updated_at":"2026-05-08T22:51:44.357426+05:30"},{"city":"Jammu","state":"Jammu and Kashmir","latitude":32.7266,"longitude":74.857,"temp":25.0,"humidity":61,"rain":0.0,"pressure":974.4,"uv_index":8.35,"wind_gusts":34.9,"aqi":127,"pm10":96.9,"pm2_5":48.8,"no2":29.5,"co":574.0,"o3":82.0,"so2":8.6,"mosquito_risk":7,"arthritis_risk":5,"migraine_risk":7,"frizz_risk":1,"updated_at":"2026-05-08T22:51:44.357434+05:30"},{"city":"Amritsar","state":"Punjab","latitude":31.634,"longitude":74.8723,"temp":26.9,"humidity":51,"rain":0.0,"pressure":982.1,"uv_index":8.2,"wind_gusts":31.3,"aqi":146,"pm10":138.3,"pm2_5":51.6,"no2":5.5,"co":563.0,"o3":139.0,"so2":14.0,"mosquito_risk":4,"arthritis_risk":5,"migraine_risk":7,"frizz_risk":0,"updated_at":"2026-05-08T22:51:44.357441+05:30"},{"city":"Ludhiana","state":"Punjab","latitude":30.901,"longitude":75.8573,"temp":25.3,"humidity":59,"rain":0.0,"pressure":980.2,"uv_index":7.8,"wind_gusts":30.6,"aqi":162,"pm10":73.6,"pm2_5":46.1,"no2":13.3,"co":673.0,"o3":109.0,"so2":20.5,"mosquito_risk":4,"arthritis_risk":5,"migraine_risk":7,"frizz_risk":1,"updated_at":"2026-05-08T22:51:44.357448+05:30"},{"city":"Jalandhar","state":"Punjab","latitude":31.326,"longitude":75.5762,"temp":24.8,"humidity":61,"rain":0.0,"pressure":981.0,"uv_index":8.0,"wind_gusts":31.7,"aqi":146,"pm10":115.0,"pm2_5":52.2,"no2":10.1,"co":576.0,"o3":126.0,"so2":22.4,"mosquito_risk":3,"arthritis_risk":5,"migraine_risk":7,"frizz_risk":1,"updated_at":"2026-05-08T22:51:44.357455+05:30"},{"city":"Dehradun","state":"Uttarakhand","latitude":30.6284,"longitude":78.0322,"temp":10.5,"humidity":96,"rain":0.0,"pressure":829.4,"uv_index":5.65,"wind_gusts":22.7,"aqi":81,"pm10":30.7,"pm2_5":15.4,"no2":31.5,"co":237.0,"o3":71.0,"so2":0.6,"mosquito_risk":3,"arthritis_risk":10,"migraine_risk":3,"frizz_risk":0,"updated_at":"2026-05-08T22:51:44.357465+05:30"},{"city":"Shimla","state":"Himachal Pradesh","latitude":31.1048,"longitude":77.1734,"temp":10.2,"humidity":84,"rain":0.0,"pressure":783.7,"uv_index":7.3,"wind_gusts":24.5,"aqi":82,"pm10":27.8,"pm2_5":16.5,"no2":23.7,"co":393.0,"o3":68.0,"so2":0.7,"mosquito_risk":3,"arthritis_risk":10,"migraine_risk":7,"frizz_risk":0,"updated_at":"2026-05-08T22:51:44.357472+05:30"},{"city":"Manali","state":"Himachal Pradesh","latitude":32.2396,"longitude":77.1887,"temp":10.0,"humidity":84,"rain":0.0,"pressure":816.4,"uv_index":9.9,"wind_gusts":33.1,"aqi":120,"pm10":33.4,"pm2_5":11.0,"no2":36.3,"co":395.0,"o3":108.0,"so2":0.9,"mosquito_risk":3,"arthritis_risk":10,"migraine_risk":7,"frizz_risk":0,"updated_at":"2026-05-08T22:51:44.357479+05:30"},{"city":"Gurgaon","state":"Haryana","latitude":28.4595,"longitude":77.0266,"temp":26.1,"humidity":57,"rain":0.0,"pressure":983.0,"uv_index":7.65,"wind_gusts":40.3,"aqi":1689,"pm10":1169.7,"pm2_5":155.1,"no2":25.2,"co":665.0,"o3":111.0,"so2":21.5,"mosquito_risk":4,"arthritis_risk":5,"migraine_risk":7,"frizz_risk":1,"updated_at":"2026-05-08T22:51:44.357486+05:30"},{"city":"Noida","state":"Uttar Pradesh","latitude":28.5355,"longitude":77.391,"temp":24.9,"humidity":63,"rain":0.0,"pressure":986.3,"uv_index":7.6,"wind_gusts":36.7,"aqi":1689,"pm10":1169.7,"pm2_5":155.1,"no2":25.2,"co":614.0,"o3":111.0,"so2":21.5,"mosquito_risk":3,"arthritis_risk":5,"migraine_risk":7,"frizz_risk":1,"updated_at":"2026-05-08T22:51:44.357493+05:30"},{"city":"Ghaziabad","state":"Uttar Pradesh","latitude":28.6692,"longitude":77.4538,"temp":24.9,"humidity":62,"rain":0.0,"pressure":984.6,"uv_index":7.55,"wind_gusts":40.0,"aqi":148,"pm10":141.1,"pm2_5":48.9,"no2":11.6,"co":475.0,"o3":114.0,"so2":14.0,"mosquito_risk":3,"arthritis_risk":5,"migraine_risk":7,"frizz_risk":1,"updated_at":"2026-05-08T22:51:44.357500+05:30"},{"city":"Faridabad","state":"Haryana","latitude":28.4089,"longitude":77.3178,"temp":25.9,"humidity":60,"rain":0.0,"pressure":985.6,"uv_index":7.6,"wind_gusts":38.9,"aqi":1689,"pm10":1169.7,"pm2_5":155.1,"no2":25.2,"co":592.0,"o3":111.0,"so2":21.5,"mosquito_risk":4,"arthritis_risk":5,"migraine_risk":7,"frizz_risk":1,"updated_at":"2026-05-08T22:51:44.357506+05:30"},{"city":"Meerut","state":"Uttar Pradesh","latitude":28.9845,"longitude":77.7064,"temp":24.2,"humidity":66,"rain":0.0,"pressure":983.4,"uv_index":7.5,"wind_gusts":40.7,"aqi":148,"pm10":141.1,"pm2_5":48.9,"no2":11.6,"co":643.0,"o3":114.0,"so2":14.0,"mosquito_risk":3,"arthritis_risk":5,"migraine_risk":7,"frizz_risk":1,"updated_at":"2026-05-08T22:51:44.357513+05:30"},{"city":"Agra","state":"Uttar Pradesh","latitude":27.1767,"longitude":78.0081,"temp":26.2,"humidity":55,"rain":0.0,"pressure":988.7,"uv_index":7.9,"wind_gusts":33.5,"aqi":1120,"pm10":1676.4,"pm2_5":192.8,"no2":7.7,"co":456.0,"o3":129.0,"so2":12.0,"mosquito_risk":4,"arthritis_risk":5,"migraine_risk":7,"frizz_risk":1,"updated_at":"2026-05-08T22:51:44.357520+05:30"},{"city":"Varanasi","state":"Uttar Pradesh","latitude":25.3176,"longitude":82.9739,"temp":26.1,"humidity":63,"rain":0.0,"pressure":1000.1,"uv_index":8.55,"wind_gusts":32.8,"aqi":151,"pm10":59.3,"pm2_5":42.7,"no2":15.3,"co":473.0,"o3":120.0,"so2":15.9,"mosquito_risk":7,"arthritis_risk":5,"migraine_risk":4,"frizz_risk":1,"updated_at":"2026-05-08T22:51:44.357527+05:30"},{"city":"Prayagraj","state":"Uttar Pradesh","latitude":25.4358,"longitude":81.8463,"temp":27.5,"humidity":53,"rain":0.0,"pressure":998.1,"uv_index":8.45,"wind_gusts":33.5,"aqi":142,"pm10":54.1,"pm2_5":36.6,"no2":16.1,"co":517.0,"o3":109.0,"so2":11.7,"mosquito_risk":4,"arthritis_risk":5,"migraine_risk":7,"frizz_risk":1,"updated_at":"2026-05-08T22:51:44.357538+05:30"},{"city":"Gorakhpur","state":"Uttar Pradesh","latitude":26.7606,"longitude":83.3732,"temp":24.3,"humidity":67,"rain":0.0,"pressure":1000.7,"uv_index":8.4,"wind_gusts":29.5,"aqi":143,"pm10":42.1,"pm2_5":32.2,"no2":11.3,"co":488.0,"o3":119.0,"so2":7.9,"mosquito_risk":3,"arthritis_risk":5,"migraine_risk":4,"frizz_risk":1,"updated_at":"2026-05-08T22:51:44.357546+05:30"},{"city":"Bareilly","state":"Uttar Pradesh","latitude":28.367,"longitude":79.4304,"temp":24.8,"humidity":56,"rain":0.0,"pressure":989.1,"uv_index":7.85,"wind_gusts":34.9,"aqi":111,"pm10":51.0,"pm2_5":35.5,"no2":19.2,"co":360.0,"o3":80.0,"so2":6.7,"mosquito_risk":0,"arthritis_risk":5,"migraine_risk":7,"frizz_risk":0,"updated_at":"2026-05-08T22:51:44.357553+05:30"},{"city":"Aligarh","state":"Uttar Pradesh","latitude":27.8974,"longitude":78.088,"temp":25.6,"humidity":60,"rain":0.0,"pressure":987.1,"uv_index":7.7,"wind_gusts":38.9,"aqi":680,"pm10":642.6,"pm2_5":95.9,"no2":9.3,"co":416.0,"o3":126.0,"so2":15.4,"mosquito_risk":4,"arthritis_risk":5,"migraine_risk":7,"frizz_risk":1,"updated_at":"2026-05-08T22:51:44.357560+05:30"},{"city":"Moradabad","state":"Uttar Pradesh","latitude":28.8386,"longitude":78.7733,"temp":24.4,"humidity":65,"rain":0.0,"pressure":986.0,"uv_index":7.65,"wind_gusts":37.1,"aqi":122,"pm10":68.9,"pm2_5":42.6,"no2":20.3,"co":491.0,"o3":90.0,"so2":9.0,"mosquito_risk":3,"arthritis_risk":5,"migraine_risk":7,"frizz_risk":1,"updated_at":"2026-05-08T22:51:44.357566+05:30"},{"city":"Saharanpur","state":"Uttar Pradesh","latitude":29.9637,"longitude":77.546,"temp":23.6,"humidity":66,"rain":0.0,"pressure":977.9,"uv_index":7.25,"wind_gusts":36.4,"aqi":105,"pm10":90.1,"pm2_5":56.8,"no2":33.4,"co":696.0,"o3":59.0,"so2":13.7,"mosquito_risk":3,"arthritis_risk":5,"migraine_risk":7,"frizz_risk":1,"updated_at":"2026-05-08T22:51:44.357573+05:30"},{"city":"Jhansi","state":"Uttar Pradesh","latitude":25.4484,"longitude":78.5685,"temp":27.1,"humidity":46,"rain":0.0,"pressure":978.2,"uv_index":8.35,"wind_gusts":27.7,"aqi":75,"pm10":57.4,"pm2_5":26.3,"no2":9.1,"co":385.0,"o3":76.0,"so2":9.7,"mosquito_risk":4,"arthritis_risk":5,"migraine_risk":7,"frizz_risk":0,"updated_at":"2026-05-08T22:51:47.733499+05:30"},{"city":"Surat","state":"Gujarat","latitude":21.1702,"longitude":72.8311,"temp":29.9,"humidity":65,"rain":0.0,"pressure":1005.7,"uv_index":7.7,"wind_gusts":33.5,"aqi":105,"pm10":54.1,"pm2_5":31.4,"no2":43.1,"co":521.0,"o3":57.0,"so2":55.9,"mosquito_risk":7,"arthritis_risk":5,"migraine_risk":4,"frizz_risk":1,"updated_at":"2026-05-08T22:51:47.733529+05:30"},{"city":"Vadodara","state":"Gujarat","latitude":22.3072,"longitude":73.1812,"temp":33.1,"humidity":24,"rain":0.0,"pressure":1003.4,"uv_index":8.05,"wind_gusts":27.0,"aqi":89,"pm10":70.8,"pm2_5":40.6,"no2":34.2,"co":474.0,"o3":65.0,"so2":15.1,"mosquito_risk":0,"arthritis_risk":5,"migraine_risk":4,"frizz_risk":0,"updated_at":"2026-05-08T22:51:47.733540+05:30"},{"city":"Rajkot","state":"Gujarat","latitude":22.3039,"longitude":70.8022,"temp":28.3,"humidity":73,"rain":0.0,"pressure":994.9,"uv_index":7.7,"wind_gusts":46.8,"aqi":81,"pm10":25.2,"pm2_5":11.4,"no2":6.3,"co":177.0,"o3":71.0,"so2":6.6,"mosquito_risk":7,"arthritis_risk":5,"migraine_risk":7,"frizz_risk":1,"updated_at":"2026-05-08T22:51:47.733549+05:30"},{"city":"Thane","state":"Maharashtra","latitude":19.2183,"longitude":72.9781,"temp":29.5,"humidity":75,"rain":0.0,"pressure":1007.3,"uv_index":7.85,"wind_gusts":45.4,"aqi":90,"pm10":48.5,"pm2_5":21.8,"no2":15.3,"co":291.0,"o3":75.0,"so2":12.6,"mosquito_risk":7,"arthritis_risk":5,"migraine_risk":4,"frizz_risk":1,"updated_at":"2026-05-08T22:51:47.733556+05:30"},{"city":"Nagpur","state":"Maharashtra","latitude":21.1458,"longitude":79.0882,"temp":32.3,"humidity":28,"rain":0.0,"pressure":973.9,"uv_index":8.9,"wind_gusts":32.0,"aqi":165,"pm10":57.2,"pm2_5":43.2,"no2":25.4,"co":375.0,"o3":94.0,"so2":23.7,"mosquito_risk":0,"arthritis_risk":5,"migraine_risk":7,"frizz_risk":0,"updated_at":"2026-05-08T22:51:47.733564+05:30"},{"city":"Nashik","state":"Maharashtra","latitude":19.9975,"longitude":73.7898,"temp":28.4,"humidity":46,"rain":0.0,"pressure":945.6,"uv_index":8.15,"wind_gusts":40.3,"aqi":90,"pm10":48.1,"pm2_5":23.4,"no2":15.7,"co":220.0,"o3":95.0,"so2":10.1,"mosquito_risk":4,"arthritis_risk":5,"migraine_risk":7,"frizz_risk":0,"updated_at":"2026-05-08T22:51:47.733571+05:30"},{"city":"Aurangabad","state":"Maharashtra","latitude":19.8762,"longitude":75.3433,"temp":30.8,"humidity":24,"rain":0.0,"pressure":944.6,"uv_index":9.05,"wind_gusts":34.9,"aqi":116,"pm10":73.6,"pm2_5":45.8,"no2":27.0,"co":301.0,"o3":84.0,"so2":13.6,"mosquito_risk":0,"arthritis_risk":5,"migraine_risk":7,"frizz_risk":0,"updated_at":"2026-05-08T22:51:47.733579+05:30"},{"city":"Solapur","state":"Maharashtra","latitude":17.6599,"longitude":75.9064,"temp":32.2,"humidity":31,"rain":0.0,"pressure":957.6,"uv_index":9.05,"wind_gusts":32.4,"aqi":98,"pm10":34.2,"pm2_5":27.2,"no2":12.2,"co":426.0,"o3":91.0,"so2":4.9,"mosquito_risk":0,"arthritis_risk":5,"migraine_risk":7,"frizz_risk":0,"updated_at":"2026-05-08T22:51:47.733586+05:30"},{"city":"Kolhapur","state":"Maharashtra","latitude":16.705,"longitude":74.2433,"temp":28.1,"humidity":66,"rain":0.0,"pressure":948.2,"uv_index":8.9,"wind_gusts":38.9,"aqi":150,"pm10":87.5,"pm2_5":64.5,"no2":26.3,"co":379.0,"o3":74.0,"so2":9.2,"mosquito_risk":7,"arthritis_risk":5,"migraine_risk":7,"frizz_risk":1,"updated_at":"2026-05-08T22:51:47.733593+05:30"},{"city":"Goa","state":"Goa","latitude":15.2993,"longitude":74.124,"temp":30.1,"humidity":77,"rain":0.0,"pressure":996.8,"uv_index":8.8,"wind_gusts":41.4,"aqi":109,"pm10":75.4,"pm2_5":45.9,"no2":13.8,"co":316.0,"o3":80.0,"so2":5.2,"mosquito_risk":3,"arthritis_risk":5,"migraine_risk":7,"frizz_risk":1,"updated_at":"2026-05-08T22:51:47.733600+05:30"},{"city":"Jodhpur","state":"Rajasthan","latitude":26.2389,"longitude":73.0243,"temp":34.7,"humidity":18,"rain":0.0,"pressure":981.9,"uv_index":8.3,"wind_gusts":40.0,"aqi":116,"pm10":171.4,"pm2_5":29.7,"no2":14.6,"co":246.0,"o3":64.0,"so2":4.0,"mosquito_risk":0,"arthritis_risk":5,"migraine_risk":7,"frizz_risk":0,"updated_at":"2026-05-08T22:51:47.733607+05:30"},{"city":"Udaipur","state":"Rajasthan","latitude":24.5854,"longitude":73.7125,"temp":28.0,"humidity":30,"rain":0.0,"pressure":946.7,"uv_index":8.75,"wind_gusts":33.8,"aqi":79,"pm10":28.7,"pm2_5":10.6,"no2":3.0,"co":317.0,"o3":96.0,"so2":2.1,"mosquito_risk":4,"arthritis_risk":5,"migraine_risk":7,"frizz_risk":0,"updated_at":"2026-05-08T22:51:47.733614+05:30"},{"city":"Kota","state":"Rajasthan","latitude":25.2138,"longitude":75.8648,"temp":29.1,"humidity":33,"rain":0.0,"pressure":978.1,"uv_index":8.35,"wind_gusts":42.8,"aqi":70,"pm10":100.8,"pm2_5":32.2,"no2":14.6,"co":324.0,"o3":63.0,"so2":4.8,"mosquito_risk":4,"arthritis_risk":5,"migraine_risk":7,"frizz_risk":0,"updated_at":"2026-05-08T22:51:47.733621+05:30"},{"city":"Bikaner","state":"Rajasthan","latitude":28.0229,"longitude":73.3119,"temp":31.8,"humidity":30,"rain":0.0,"pressure":981.5,"uv_index":8.2,"wind_gusts":32.8,"aqi":128,"pm10":100.1,"pm2_5":36.6,"no2":2.5,"co":297.0,"o3":137.0,"so2":7.8,"mosquito_risk":0,"arthritis_risk":5,"migraine_risk":7,"frizz_risk":0,"updated_at":"2026-05-08T22:51:47.733648+05:30"},{"city":"Ajmer","state":"Rajasthan","latitude":26.4499,"longitude":74.6399,"temp":29.6,"humidity":27,"rain":0.0,"pressure":954.3,"uv_index":8.25,"wind_gusts":55.4,"aqi":67,"pm10":47.8,"pm2_5":24.2,"no2":9.0,"co":329.0,"o3":90.0,"so2":4.8,"mosquito_risk":4,"arthritis_risk":5,"migraine_risk":7,"frizz_risk":0,"updated_at":"2026-05-08T22:51:47.733657+05:30"},{"city":"Gwalior","state":"Madhya Pradesh","latitude":26.2183,"longitude":78.1828,"temp":25.8,"humidity":60,"rain":0.0,"pressure":983.1,"uv_index":8.15,"wind_gusts":34.6,"aqi":94,"pm10":204.0,"pm2_5":50.6,"no2":4.8,"co":341.0,"o3":132.0,"so2":8.0,"mosquito_risk":4,"arthritis_risk":5,"migraine_risk":7,"frizz_risk":1,"updated_at":"2026-05-08T22:51:47.733664+05:30"},{"city":"Indore","state":"Madhya Pradesh","latitude":22.7196,"longitude":75.8577,"temp":32.5,"humidity":19,"rain":0.0,"pressure":948.4,"uv_index":8.65,"wind_gusts":31.0,"aqi":93,"pm10":64.3,"pm2_5":38.1,"no2":23.7,"co":732.0,"o3":77.0,"so2":9.5,"mosquito_risk":0,"arthritis_risk":5,"migraine_risk":7,"frizz_risk":0,"updated_at":"2026-05-08T22:51:47.733671+05:30"},{"city":"Bhopal","state":"Madhya Pradesh","latitude":23.2599,"longitude":77.4126,"temp":31.1,"humidity":25,"rain":0.0,"pressure":954.3,"uv_index":8.65,"wind_gusts":38.9,"aqi":93,"pm10":45.4,"pm2_5":27.8,"no2":9.6,"co":509.0,"o3":94.0,"so2":6.1,"mosquito_risk":0,"arthritis_risk":5,"migraine_risk":7,"frizz_risk":0,"updated_at":"2026-05-08T22:51:47.733678+05:30"},{"city":"Jabalpur","state":"Madhya Pradesh","latitude":23.1815,"longitude":79.9864,"temp":28.5,"humidity":35,"rain":0.0,"pressure":962.1,"uv_index":8.75,"wind_gusts":35.6,"aqi":96,"pm10":59.8,"pm2_5":29.2,"no2":26.2,"co":360.0,"o3":73.0,"so2":6.7,"mosquito_risk":4,"arthritis_risk":5,"migraine_risk":7,"frizz_risk":0,"updated_at":"2026-05-08T22:51:47.733684+05:30"},{"city":"Ujjain","state":"Madhya Pradesh","latitude":23.1765,"longitude":75.7885,"temp":32.0,"humidity":20,"rain":0.0,"pressure":953.8,"uv_index":8.55,"wind_gusts":27.4,"aqi":82,"pm10":73.8,"pm2_5":50.8,"no2":22.3,"co":394.0,"o3":56.0,"so2":8.5,"mosquito_risk":0,"arthritis_risk":5,"migraine_risk":7,"frizz_risk":0,"updated_at":"2026-05-08T22:51:47.733692+05:30"},{"city":"Visakhapatnam","state":"Andhra Pradesh","latitude":17.6868,"longitude":83.2185,"temp":26.8,"humidity":84,"rain":0.0,"pressure":1005.8,"uv_index":9.15,"wind_gusts":37.4,"aqi":59,"pm10":18.9,"pm2_5":16.8,"no2":17.7,"co":710.0,"o3":26.0,"so2":5.9,"mosquito_risk":7,"arthritis_risk":5,"migraine_risk":4,"frizz_risk":1,"updated_at":"2026-05-08T22:51:47.733700+05:30"},{"city":"Vijayawada","state":"Andhra Pradesh","latitude":16.5062,"longitude":80.648,"temp":27.9,"humidity":77,"rain":0.0,"pressure":1004.5,"uv_index":9.2,"wind_gusts":43.9,"aqi":37,"pm10":11.5,"pm2_5":10.5,"no2":9.7,"co":170.0,"o3":31.0,"so2":6.3,"mosquito_risk":7,"arthritis_risk":5,"migraine_risk":4,"frizz_risk":1,"updated_at":"2026-05-08T22:51:47.733706+05:30"},{"city":"Guntur","state":"Andhra Pradesh","latitude":16.3067,"longitude":80.4365,"temp":27.9,"humidity":78,"rain":0.0,"pressure":1005.7,"uv_index":9.2,"wind_gusts":45.4,"aqi":38,"pm10":11.4,"pm2_5":10.2,"no2":10.2,"co":173.0,"o3":36.0,"so2":8.1,"mosquito_risk":7,"arthritis_risk":5,"migraine_risk":4,"frizz_risk":1,"updated_at":"2026-05-08T22:51:47.733713+05:30"},{"city":"Nellore","state":"Andhra Pradesh","latitude":14.4426,"longitude":79.9865,"temp":27.6,"humidity":82,"rain":0.0,"pressure":1007.5,"uv_index":8.95,"wind_gusts":40.0,"aqi":21,"pm10":4.9,"pm2_5":3.5,"no2":3.1,"co":175.0,"o3":37.0,"so2":2.1,"mosquito_risk":7,"arthritis_risk":5,"migraine_risk":4,"frizz_risk":1,"updated_at":"2026-05-08T22:51:47.733721+05:30"},{"city":"Kurnool","state":"Andhra Pradesh","latitude":15.8281,"longitude":78.0373,"temp":30.2,"humidity":55,"rain":0.0,"pressure":977.9,"uv_index":9.15,"wind_gusts":43.9,"aqi":47,"pm10":10.7,"pm2_5":9.3,"no2":4.7,"co":172.0,"o3":68.0,"so2":1.5,"mosquito_risk":0,"arthritis_risk":5,"migraine_risk":7,"frizz_risk":1,"updated_at":"2026-05-08T22:51:47.733728+05:30"},{"city":"Kakinada","state":"Andhra Pradesh","latitude":16.9891,"longitude":82.2475,"temp":26.5,"humidity":90,"rain":0.0,"pressure":1009.6,"uv_index":9.1,"wind_gusts":47.9,"aqi":23,"pm10":7.1,"pm2_5":4.7,"no2":1.4,"co":288.0,"o3":50.0,"so2":0.5,"mosquito_risk":7,"arthritis_risk":0,"migraine_risk":4,"frizz_risk":1,"updated_at":"2026-05-08T22:51:47.733735+05:30"},{"city":"Tirupati","state":"Andhra Pradesh","latitude":13.6288,"longitude":79.4192,"temp":26.8,"humidity":79,"rain":0.0,"pressure":992.5,"uv_index":8.4,"wind_gusts":44.6,"aqi":21,"pm10":8.5,"pm2_5":7.8,"no2":12.3,"co":159.0,"o3":23.0,"so2":3.1,"mosquito_risk":7,"arthritis_risk":5,"migraine_risk":7,"frizz_risk":1,"updated_at":"2026-05-08T22:51:47.733742+05:30"},{"city":"Warangal","state":"Telangana","latitude":17.9689,"longitude":79.5941,"temp":27.8,"humidity":67,"rain":0.0,"pressure":980.5,"uv_index":9.15,"wind_gusts":35.3,"aqi":75,"pm10":20.6,"pm2_5":18.4,"no2":9.7,"co":290.0,"o3":84.0,"so2":7.7,"mosquito_risk":7,"arthritis_risk":5,"migraine_risk":7,"frizz_risk":1,"updated_at":"2026-05-08T22:51:47.733749+05:30"},{"city":"Nizamabad","state":"Telangana","latitude":18.6725,"longitude":78.0941,"temp":29.6,"humidity":49,"rain":0.0,"pressure":966.0,"uv_index":9.1,"wind_gusts":31.0,"aqi":98,"pm10":31.7,"pm2_5":27.5,"no2":12.2,"co":330.0,"o3":96.0,"so2":8.3,"mosquito_risk":4,"arthritis_risk":5,"migraine_risk":7,"frizz_risk":1,"updated_at":"2026-05-08T22:51:47.733755+05:30"},{"city":"Mysore","state":"Karnataka","latitude":12.2958,"longitude":76.6396,"temp":24.5,"humidity":75,"rain":0.0,"pressure":928.3,"uv_index":8.9,"wind_gusts":38.5,"aqi":69,"pm10":14.7,"pm2_5":13.6,"no2":14.9,"co":251.0,"o3":67.0,"so2":6.0,"mosquito_risk":3,"arthritis_risk":5,"migraine_risk":7,"frizz_risk":1,"updated_at":"2026-05-08T22:51:47.733762+05:30"},{"city":"Mangalore","state":"Karnataka","latitude":12.9141,"longitude":74.856,"temp":28.9,"humidity":85,"rain":0.0,"pressure":1005.5,"uv_index":9.0,"wind_gusts":41.4,"aqi":87,"pm10":50.8,"pm2_5":34.6,"no2":7.6,"co":360.0,"o3":100.0,"so2":4.2,"mosquito_risk":7,"arthritis_risk":5,"migraine_risk":4,"frizz_risk":1,"updated_at":"2026-05-08T22:51:47.733769+05:30"},{"city":"Hubli-Dharwad","state":"Karnataka","latitude":15.3647,"longitude":75.124,"temp":28.5,"humidity":41,"rain":0.0,"pressure":940.7,"uv_index":9.05,"wind_gusts":37.4,"aqi":78,"pm10":46.6,"pm2_5":39.6,"no2":35.2,"co":268.0,"o3":52.0,"so2":6.3,"mosquito_risk":4,"arthritis_risk":5,"migraine_risk":7,"frizz_risk":0,"updated_at":"2026-05-08T22:51:47.733775+05:30"},{"city":"Belgaum","state":"Karnataka","latitude":15.8497,"longitude":74.4977,"temp":25.9,"humidity":65,"rain":0.0,"pressure":925.7,"uv_index":9.15,"wind_gusts":36.0,"aqi":106,"pm10":61.7,"pm2_5":49.1,"no2":18.7,"co":343.0,"o3":77.0,"so2":6.4,"mosquito_risk":7,"arthritis_risk":5,"migraine_risk":7,"frizz_risk":1,"updated_at":"2026-05-08T22:51:51.093813+05:30"},{"city":"Coimbatore","state":"Tamil Nadu","latitude":11.0168,"longitude":76.9558,"temp":24.5,"humidity":93,"rain":0.0,"pressure":961.9,"uv_index":9.05,"wind_gusts":44.3,"aqi":62,"pm10":19.5,"pm2_5":19.0,"no2":13.1,"co":390.0,"o3":79.0,"so2":7.4,"mosquito_risk":3,"arthritis_risk":5,"migraine_risk":7,"frizz_risk":1,"updated_at":"2026-05-08T22:51:51.093845+05:30"},{"city":"Madurai","state":"Tamil Nadu","latitude":9.9252,"longitude":78.1198,"temp":26.6,"humidity":89,"rain":0.0,"pressure":993.1,"uv_index":8.1,"wind_gusts":35.3,"aqi":55,"pm10":40.5,"pm2_5":40.3,"no2":49.1,"co":395.0,"o3":20.0,"so2":15.0,"mosquito_risk":7,"arthritis_risk":5,"migraine_risk":7,"frizz_risk":1,"updated_at":"2026-05-08T22:51:51.093856+05:30"},{"city":"Trichy","state":"Tamil Nadu","latitude":10.7905,"longitude":78.7047,"temp":28.2,"humidity":77,"rain":0.0,"pressure":999.8,"uv_index":8.55,"wind_gusts":39.6,"aqi":43,"pm10":16.6,"pm2_5":15.7,"no2":27.9,"co":237.0,"o3":13.0,"so2":14.3,"mosquito_risk":7,"arthritis_risk":5,"migraine_risk":7,"frizz_risk":1,"updated_at":"2026-05-08T22:51:51.093865+05:30"},{"city":"Salem","state":"Tamil Nadu","latitude":11.6643,"longitude":78.146,"temp":26.7,"humidity":80,"rain":0.0,"pressure":977.5,"uv_index":7.6,"wind_gusts":34.6,"aqi":55,"pm10":14.5,"pm2_5":14.1,"no2":19.7,"co":394.0,"o3":43.0,"so2":11.7,"mosquito_risk":7,"arthritis_risk":5,"migraine_risk":7,"frizz_risk":1,"updated_at":"2026-05-08T22:51:51.093873+05:30"},{"city":"Tirunelveli","state":"Tamil Nadu","latitude":8.7139,"longitude":77.7567,"temp":26.4,"humidity":91,"rain":0.1,"pressure":1003.6,"uv_index":8.7,"wind_gusts":36.0,"aqi":46,"pm10":11.0,"pm2_5":10.9,"no2":12.6,"co":301.0,"o3":53.0,"so2":3.9,"mosquito_risk":10,"arthritis_risk":5,"migraine_risk":4,"frizz_risk":1,"updated_at":"2026-05-08T22:51:51.093881+05:30"},{"city":"Vellore","state":"Tamil Nadu","latitude":12.9165,"longitude":79.1325,"temp":26.7,"humidity":78,"rain":0.0,"pressure":985.4,"uv_index":7.05,"wind_gusts":54.0,"aqi":43,"pm10":16.2,"pm2_5":15.5,"no2":18.7,"co":232.0,"o3":31.0,"so2":8.9,"mosquito_risk":7,"arthritis_risk":5,"migraine_risk":7,"frizz_risk":1,"updated_at":"2026-05-08T22:51:51.093889+05:30"},{"city":"Erode","state":"Tamil Nadu","latitude":11.341,"longitude":77.7172,"temp":26.1,"humidity":90,"rain":0.0,"pressure":989.2,"uv_index":8.2,"wind_gusts":35.6,"aqi":55,"pm10":19.7,"pm2_5":19.3,"no2":22.5,"co":371.0,"o3":43.0,"so2":11.0,"mosquito_risk":7,"arthritis_risk":5,"migraine_risk":7,"frizz_risk":1,"updated_at":"2026-05-08T22:51:51.093897+05:30"},{"city":"Kochi","state":"Kerala","latitude":9.9312,"longitude":76.2673,"temp":25.8,"humidity":94,"rain":0.1,"pressure":1009.0,"uv_index":4.45,"wind_gusts":25.2,"aqi":65,"pm10":27.0,"pm2_5":26.3,"no2":17.5,"co":303.0,"o3":61.0,"so2":4.9,"mosquito_risk":10,"arthritis_risk":0,"migraine_risk":0,"frizz_risk":1,"updated_at":"2026-05-08T22:51:51.093904+05:30"},{"city":"Thiruvananthapuram","state":"Kerala","latitude":8.5241,"longitude":76.9366,"temp":25.2,"humidity":94,"rain":0.0,"pressure":1007.9,"uv_index":8.3,"wind_gusts":24.1,"aqi":98,"pm10":9.5,"pm2_5":8.7,"no2":4.9,"co":807.0,"o3":98.0,"so2":3.0,"mosquito_risk":7,"arthritis_risk":5,"migraine_risk":4,"frizz_risk":1,"updated_at":"2026-05-08T22:51:51.093911+05:30"},{"city":"Kozhikode","state":"Kerala","latitude":11.2588,"longitude":75.7804,"temp":26.1,"humidity":92,"rain":0.2,"pressure":1007.0,"uv_index":9.0,"wind_gusts":31.7,"aqi":70,"pm10":32.4,"pm2_5":21.4,"no2":4.3,"co":397.0,"o3":103.0,"so2":2.7,"mosquito_risk":10,"arthritis_risk":5,"migraine_risk":4,"frizz_risk":1,"updated_at":"2026-05-08T22:51:51.093918+05:30"},{"city":"Thrissur","state":"Kerala","latitude":10.5276,"longitude":76.2144,"temp":24.7,"humidity":99,"rain":0.3,"pressure":1007.1,"uv_index":8.95,"wind_gusts":27.4,"aqi":69,"pm10":28.1,"pm2_5":26.7,"no2":18.6,"co":588.0,"o3":48.0,"so2":4.5,"mosquito_risk":6,"arthritis_risk":5,"migraine_risk":4,"frizz_risk":1,"updated_at":"2026-05-08T22:51:51.093925+05:30"},{"city":"Kannur","state":"Kerala","latitude":11.8745,"longitude":75.3704,"temp":28.0,"humidity":93,"rain":0.0,"pressure":1005.9,"uv_index":8.85,"wind_gusts":40.0,"aqi":79,"pm10":50.1,"pm2_5":37.1,"no2":24.8,"co":982.0,"o3":58.0,"so2":5.0,"mosquito_risk":7,"arthritis_risk":5,"migraine_risk":4,"frizz_risk":1,"updated_at":"2026-05-08T22:51:51.093933+05:30"},{"city":"Patna","state":"Bihar","latitude":25.5941,"longitude":85.1376,"temp":24.8,"humidity":76,"rain":0.0,"pressure":1003.8,"uv_index":8.65,"wind_gusts":29.9,"aqi":151,"pm10":66.8,"pm2_5":58.3,"no2":17.2,"co":506.0,"o3":114.0,"so2":16.5,"mosquito_risk":3,"arthritis_risk":5,"migraine_risk":4,"frizz_risk":1,"updated_at":"2026-05-08T22:51:51.093939+05:30"},{"city":"Gaya","state":"Bihar","latitude":24.7914,"longitude":85.0002,"temp":25.0,"humidity":66,"rain":0.0,"pressure":996.7,"uv_index":8.75,"wind_gusts":33.8,"aqi":155,"pm10":57.6,"pm2_5":51.0,"no2":11.6,"co":469.0,"o3":124.0,"so2":15.5,"mosquito_risk":7,"arthritis_risk":5,"migraine_risk":7,"frizz_risk":1,"updated_at":"2026-05-08T22:51:51.093946+05:30"},{"city":"Muzaffarpur","state":"Bihar","latitude":26.1209,"longitude":85.3647,"temp":24.5,"humidity":71,"rain":0.0,"pressure":1003.9,"uv_index":8.65,"wind_gusts":28.8,"aqi":150,"pm10":74.0,"pm2_5":65.7,"no2":21.5,"co":498.0,"o3":98.0,"so2":15.2,"mosquito_risk":3,"arthritis_risk":5,"migraine_risk":4,"frizz_risk":1,"updated_at":"2026-05-08T22:51:51.093953+05:30"},{"city":"Bhagalpur","state":"Bihar","latitude":25.2425,"longitude":87.0117,"temp":24.8,"humidity":75,"rain":0.0,"pressure":1004.6,"uv_index":8.6,"wind_gusts":31.0,"aqi":180,"pm10":67.1,"pm2_5":56.3,"no2":15.4,"co":731.0,"o3":116.0,"so2":12.4,"mosquito_risk":3,"arthritis_risk":5,"migraine_risk":4,"frizz_risk":1,"updated_at":"2026-05-08T22:51:51.093959+05:30"},{"city":"Ranchi","state":"Jharkhand","latitude":23.3441,"longitude":85.3096,"temp":21.3,"humidity":83,"rain":0.0,"pressure":940.2,"uv_index":9.2,"wind_gusts":50.4,"aqi":140,"pm10":53.7,"pm2_5":45.9,"no2":16.9,"co":317.0,"o3":102.0,"so2":16.2,"mosquito_risk":3,"arthritis_risk":5,"migraine_risk":7,"frizz_risk":1,"updated_at":"2026-05-08T22:51:51.093966+05:30"},{"city":"Jamshedpur","state":"Jharkhand","latitude":22.8046,"longitude":86.2029,"temp":23.8,"humidity":82,"rain":0.0,"pressure":994.4,"uv_index":9.0,"wind_gusts":49.7,"aqi":127,"pm10":42.3,"pm2_5":35.4,"no2":15.6,"co":786.0,"o3":101.0,"so2":21.9,"mosquito_risk":3,"arthritis_risk":5,"migraine_risk":7,"frizz_risk":1,"updated_at":"2026-05-08T22:51:51.093972+05:30"},{"city":"Dhanbad","state":"Jharkhand","latitude":23.7957,"longitude":86.4304,"temp":23.5,"humidity":86,"rain":0.0,"pressure":983.3,"uv_index":8.95,"wind_gusts":32.4,"aqi":162,"pm10":82.4,"pm2_5":78.0,"no2":52.6,"co":536.0,"o3":73.0,"so2":74.2,"mosquito_risk":3,"arthritis_risk":5,"migraine_risk":7,"frizz_risk":1,"updated_at":"2026-05-08T22:51:51.093979+05:30"},{"city":"Bokaro","state":"Jharkhand","latitude":23.6693,"longitude":86.1511,"temp":23.8,"humidity":82,"rain":0.0,"pressure":987.1,"uv_index":8.95,"wind_gusts":44.3,"aqi":158,"pm10":78.9,"pm2_5":73.1,"no2":47.5,"co":780.0,"o3":82.0,"so2":72.1,"mosquito_risk":3,"arthritis_risk":5,"migraine_risk":7,"frizz_risk":1,"updated_at":"2026-05-08T22:51:51.093986+05:30"},{"city":"Bhubaneswar","state":"Odisha","latitude":20.2961,"longitude":85.8245,"temp":25.5,"humidity":95,"rain":0.0,"pressure":1006.1,"uv_index":9.1,"wind_gusts":36.0,"aqi":38,"pm10":12.8,"pm2_5":10.9,"no2":8.9,"co":244.0,"o3":39.0,"so2":3.3,"mosquito_risk":7,"arthritis_risk":5,"migraine_risk":4,"frizz_risk":1,"updated_at":"2026-05-08T22:51:51.093993+05:30"},{"city":"Cuttack","state":"Odisha","latitude":20.4625,"longitude":85.8828,"temp":25.5,"humidity":83,"rain":0.0,"pressure":1008.0,"uv_index":9.15,"wind_gusts":36.0,"aqi":38,"pm10":12.8,"pm2_5":10.9,"no2":8.9,"co":255.0,"o3":39.0,"so2":3.3,"mosquito_risk":7,"arthritis_risk":0,"migraine_risk":4,"frizz_risk":1,"updated_at":"2026-05-08T22:51:51.093999+05:30"},{"city":"Rourkela","state":"Odisha","latitude":22.2604,"longitude":84.8536,"temp":23.5,"humidity":91,"rain":0.0,"pressure":987.9,"uv_index":8.85,"wind_gusts":34.6,"aqi":137,"pm10":52.7,"pm2_5":45.3,"no2":22.7,"co":591.0,"o3":90.0,"so2":43.0,"mosquito_risk":3,"arthritis_risk":5,"migraine_risk":7,"frizz_risk":1,"updated_at":"2026-05-08T22:51:51.094006+05:30"},{"city":"Raipur","state":"Chhattisgarh","latitude":21.2514,"longitude":81.6296,"temp":29.3,"humidity":46,"rain":0.0,"pressure":976.3,"uv_index":8.95,"wind_gusts":33.5,"aqi":153,"pm10":104.1,"pm2_5":89.4,"no2":69.1,"co":452.0,"o3":53.0,"so2":23.8,"mosquito_risk":4,"arthritis_risk":5,"migraine_risk":7,"frizz_risk":1,"updated_at":"2026-05-08T22:51:51.094013+05:30"},{"city":"Bhilai","state":"Chhattisgarh","latitude":21.1938,"longitude":81.3509,"temp":29.0,"humidity":46,"rain":0.0,"pressure":976.7,"uv_index":8.95,"wind_gusts":32.0,"aqi":121,"pm10":93.4,"pm2_5":77.5,"no2":63.4,"co":475.0,"o3":50.0,"so2":17.2,"mosquito_risk":4,"arthritis_risk":5,"migraine_risk":7,"frizz_risk":1,"updated_at":"2026-05-08T22:51:51.094019+05:30"},{"city":"Guwahati","state":"Assam","latitude":26.1158,"longitude":91.7086,"temp":22.5,"humidity":86,"rain":0.0,"pressure":1005.1,"uv_index":8.65,"wind_gusts":23.8,"aqi":108,"pm10":48.0,"pm2_5":41.9,"no2":18.0,"co":395.0,"o3":29.0,"so2":2.0,"mosquito_risk":3,"arthritis_risk":5,"migraine_risk":4,"frizz_risk":1,"updated_at":"2026-05-08T22:51:51.094025+05:30"},{"city":"Agartala","state":"Tripura","latitude":23.8315,"longitude":91.2868,"temp":25.1,"humidity":87,"rain":0.0,"pressure":1009.3,"uv_index":8.85,"wind_gusts":28.1,"aqi":160,"pm10":108.7,"pm2_5":100.6,"no2":56.2,"co":772.0,"o3":61.0,"so2":8.0,"mosquito_risk":7,"arthritis_risk":0,"migraine_risk":4,"frizz_risk":1,"updated_at":"2026-05-08T22:51:51.094032+05:30"},{"city":"Shillong","state":"Meghalaya","latitude":25.5788,"longitude":91.8933,"temp":15.9,"humidity":93,"rain":0.0,"pressure":859.3,"uv_index":8.0,"wind_gusts":25.6,"aqi":83,"pm10":32.9,"pm2_5":28.8,"no2":17.6,"co":434.0,"o3":49.0,"so2":1.9,"mosquito_risk":3,"arthritis_risk":10,"migraine_risk":7,"frizz_risk":0,"updated_at":"2026-05-08T22:51:51.094039+05:30"},{"city":"Imphal","state":"Manipur","latitude":24.817,"longitude":93.9368,"temp":17.9,"humidity":85,"rain":0.0,"pressure":925.2,"uv_index":9.2,"wind_gusts":31.7,"aqi":101,"pm10":57.7,"pm2_5":50.6,"no2":31.7,"co":702.0,"o3":49.0,"so2":7.9,"mosquito_risk":3,"arthritis_risk":10,"migraine_risk":7,"frizz_risk":0,"updated_at":"2026-05-08T22:51:51.094046+05:30"},{"city":"Aizawl","state":"Mizoram","latitude":23.7271,"longitude":92.7176,"temp":17.8,"humidity":80,"rain":0.0,"pressure":894.6,"uv_index":8.5,"wind_gusts":25.2,"aqi":81,"pm10":43.3,"pm2_5":36.1,"no2":17.0,"co":392.0,"o3":47.0,"so2":2.1,"mosquito_risk":3,"arthritis_risk":5,"migraine_risk":7,"frizz_risk":0,"updated_at":"2026-05-08T22:51:51.094053+05:30"},{"city":"Kohima","state":"Nagaland","latitude":25.6701,"longitude":94.1077,"temp":15.0,"humidity":92,"rain":0.0,"pressure":856.9,"uv_index":9.15,"wind_gusts":31.7,"aqi":82,"pm10":39.5,"pm2_5":31.0,"no2":14.4,"co":373.0,"o3":80.0,"so2":2.5,"mosquito_risk":3,"arthritis_risk":10,"migraine_risk":7,"frizz_risk":0,"updated_at":"2026-05-08T22:51:51.094060+05:30"},{"city":"Gangtok","state":"Sikkim","latitude":27.3314,"longitude":88.6138,"temp":10.1,"humidity":80,"rain":0.0,"pressure":837.3,"uv_index":8.95,"wind_gusts":36.4,"aqi":71,"pm10":34.9,"pm2_5":28.0,"no2":22.9,"co":345.0,"o3":70.0,"so2":1.6,"mosquito_risk":3,"arthritis_risk":5,"migraine_risk":7,"frizz_risk":0,"updated_at":"2026-05-08T22:51:51.094066+05:30"},{"city":"Siliguri","state":"West Bengal","latitude":26.7271,"longitude":88.3953,"temp":24.0,"humidity":70,"rain":0.0,"pressure":996.8,"uv_index":8.55,"wind_gusts":25.2,"aqi":117,"pm10":75.0,"pm2_5":64.7,"no2":43.5,"co":993.0,"o3":54.0,"so2":7.1,"mosquito_risk":3,"arthritis_risk":5,"migraine_risk":7,"frizz_risk":1,"updated_at":"2026-05-08T22:51:54.467863+05:30"},{"city":"Durgapur","state":"West Bengal","latitude":23.5204,"longitude":87.3119,"temp":23.1,"humidity":92,"rain":0.0,"pressure":998.7,"uv_index":8.9,"wind_gusts":25.6,"aqi":159,"pm10":85.0,"pm2_5":80.8,"no2":42.2,"co":890.0,"o3":79.0,"so2":57.3,"mosquito_risk":3,"arthritis_risk":5,"migraine_risk":7,"frizz_risk":1,"updated_at":"2026-05-08T22:51:54.467897+05:30"},{"city":"Asansol","state":"West Bengal","latitude":23.6739,"longitude":86.9524,"temp":22.8,"humidity":92,"rain":0.0,"pressure":997.2,"uv_index":8.95,"wind_gusts":30.2,"aqi":157,"pm10":79.2,"pm2_5":75.2,"no2":42.9,"co":625.0,"o3":77.0,"so2":64.6,"mosquito_risk":3,"arthritis_risk":5,"migraine_risk":7,"frizz_risk":1,"updated_at":"2026-05-08T22:51:54.467917+05:30"},{"city":"Pondicherry","state":"Puducherry","latitude":11.9139,"longitude":79.8145,"temp":28.2,"humidity":79,"rain":0.0,"pressure":1008.4,"uv_index":7.4,"wind_gusts":46.8,"aqi":20,"pm10":4.5,"pm2_5":3.2,"no2":2.6,"co":240.0,"o3":42.0,"so2":0.3,"mosquito_risk":7,"arthritis_risk":0,"migraine_risk":4,"frizz_risk":1,"updated_at":"2026-05-08T22:51:54.467929+05:30"},{"city":"Port Blair","state":"Andaman and Nicobar Islands","latitude":11.6234,"longitude":92.7265,"temp":27.2,"humidity":85,"rain":0.0,"pressure":1008.2,"uv_index":9.1,"wind_gusts":36.4,"aqi":29,"pm10":3.9,"pm2_5":2.9,"no2":0.4,"co":150.0,"o3":59.0,"so2":0.1,"mosquito_risk":7,"arthritis_risk":0,"migraine_risk":4,"frizz_risk":1,"updated_at":"2026-05-08T22:51:54.467939+05:30"},{"city":"Haridwar","state":"Uttarakhand","latitude":29.9457,"longitude":78.1642,"temp":21.2,"humidity":76,"rain":0.0,"pressure":976.3,"uv_index":7.4,"wind_gusts":32.8,"aqi":99,"pm10":52.7,"pm2_5":41.3,"no2":31.9,"co":427.0,"o3":39.0,"so2":7.4,"mosquito_risk":3,"arthritis_risk":5,"migraine_risk":7,"frizz_risk":1,"updated_at":"2026-05-08T22:51:54.467948+05:30"},{"city":"Rishikesh","state":"Uttarakhand","latitude":30.0869,"longitude":78.2676,"temp":18.9,"humidity":84,"rain":0.0,"pressure":968.8,"uv_index":7.45,"wind_gusts":22.0,"aqi":110,"pm10":36.9,"pm2_5":22.0,"no2":15.7,"co":462.0,"o3":66.0,"so2":1.6,"mosquito_risk":3,"arthritis_risk":10,"migraine_risk":7,"frizz_risk":1,"updated_at":"2026-05-08T22:51:54.467957+05:30"},{"city":"Nainital","state":"Uttarakhand","latitude":29.3919,"longitude":79.4542,"temp":11.0,"humidity":83,"rain":0.0,"pressure":805.6,"uv_index":8.2,"wind_gusts":31.7,"aqi":104,"pm10":52.4,"pm2_5":29.8,"no2":19.5,"co":314.0,"o3":87.0,"so2":5.0,"mosquito_risk":3,"arthritis_risk":10,"migraine_risk":7,"frizz_risk":0,"updated_at":"2026-05-08T22:51:54.467967+05:30"},{"city":"Mussoorie","state":"Uttarakhand","latitude":30.4599,"longitude":78.0664,"temp":10.7,"humidity":87,"rain":0.0,"pressure":802.2,"uv_index":6.3,"wind_gusts":28.8,"aqi":104,"pm10":59.0,"pm2_5":38.4,"no2":41.4,"co":302.0,"o3":60.0,"so2":12.6,"mosquito_risk":3,"arthritis_risk":10,"migraine_risk":7,"frizz_risk":0,"updated_at":"2026-05-08T22:51:54.467976+05:30"},{"city":"Dharamshala","state":"Himachal Pradesh","latitude":32.219,"longitude":76.3234,"temp":18.3,"humidity":65,"rain":0.0,"pressure":870.5,"uv_index":8.2,"wind_gusts":33.8,"aqi":83,"pm10":44.7,"pm2_5":23.6,"no2":14.1,"co":295.0,"o3":77.0,"so2":1.4,"mosquito_risk":3,"arthritis_risk":5,"migraine_risk":7,"frizz_risk":0,"updated_at":"2026-05-08T22:51:54.467985+05:30"},{"city":"Dalhousie","state":"Himachal Pradesh","latitude":32.5387,"longitude":75.971,"temp":10.6,"humidity":93,"rain":0.0,"pressure":803.3,"uv_index":8.45,"wind_gusts":37.8,"aqi":126,"pm10":84.1,"pm2_5":46.6,"no2":34.4,"co":623.0,"o3":75.0,"so2":4.9,"mosquito_risk":3,"arthritis_risk":10,"migraine_risk":7,"frizz_risk":0,"updated_at":"2026-05-08T22:51:54.467995+05:30"},{"city":"Patiala","state":"Punjab","latitude":30.3398,"longitude":76.3869,"temp":24.8,"humidity":60,"rain":0.0,"pressure":980.0,"uv_index":7.5,"wind_gusts":38.5,"aqi":475,"pm10":241.2,"pm2_5":53.9,"no2":13.7,"co":415.0,"o3":101.0,"so2":9.9,"mosquito_risk":0,"arthritis_risk":5,"migraine_risk":7,"frizz_risk":1,"updated_at":"2026-05-08T22:51:54.468003+05:30"},{"city":"Bhatinda","state":"Punjab","latitude":30.211,"longitude":74.9455,"temp":27.5,"humidity":46,"rain":0.0,"pressure":985.0,"uv_index":8.1,"wind_gusts":35.3,"aqi":697,"pm10":521.5,"pm2_5":100.1,"no2":6.9,"co":429.0,"o3":131.0,"so2":10.7,"mosquito_risk":4,"arthritis_risk":5,"migraine_risk":7,"frizz_risk":0,"updated_at":"2026-05-08T22:51:54.468012+05:30"},{"city":"Rohtak","state":"Haryana","latitude":28.8955,"longitude":76.6066,"temp":25.3,"humidity":61,"rain":0.0,"pressure":983.4,"uv_index":7.6,"wind_gusts":37.8,"aqi":670,"pm10":299.0,"pm2_5":67.3,"no2":23.5,"co":466.0,"o3":104.0,"so2":22.1,"mosquito_risk":7,"arthritis_risk":5,"migraine_risk":7,"frizz_risk":1,"updated_at":"2026-05-08T22:51:54.468021+05:30"},{"city":"Panipat","state":"Haryana","latitude":29.3909,"longitude":76.9635,"temp":24.0,"humidity":67,"rain":0.0,"pressure":982.2,"uv_index":7.45,"wind_gusts":40.3,"aqi":1112,"pm10":243.1,"pm2_5":65.4,"no2":20.0,"co":633.0,"o3":87.0,"so2":11.0,"mosquito_risk":3,"arthritis_risk":5,"migraine_risk":7,"frizz_risk":1,"updated_at":"2026-05-08T22:51:54.468029+05:30"},{"city":"Mathura","state":"Uttar Pradesh","latitude":27.4924,"longitude":77.6737,"temp":26.2,"humidity":52,"rain":0.0,"pressure":988.0,"uv_index":7.85,"wind_gusts":36.4,"aqi":1149,"pm10":1285.2,"pm2_5":153.2,"no2":9.1,"co":392.0,"o3":125.0,"so2":11.6,"mosquito_risk":4,"arthritis_risk":5,"migraine_risk":7,"frizz_risk":0,"updated_at":"2026-05-08T22:51:54.468038+05:30"},{"city":"Vrindavan","state":"Uttar Pradesh","latitude":27.5823,"longitude":77.7027,"temp":26.4,"humidity":51,"rain":0.0,"pressure":988.5,"uv_index":7.85,"wind_gusts":37.8,"aqi":1149,"pm10":1285.2,"pm2_5":153.2,"no2":9.1,"co":386.0,"o3":125.0,"so2":11.6,"mosquito_risk":4,"arthritis_risk":5,"migraine_risk":7,"frizz_risk":0,"updated_at":"2026-05-08T22:51:54.468045+05:30"},{"city":"Ayodhya","state":"Uttar Pradesh","latitude":26.7922,"longitude":82.1998,"temp":25.0,"humidity":62,"rain":0.0,"pressure":998.5,"uv_index":8.2,"wind_gusts":28.8,"aqi":112,"pm10":59.6,"pm2_5":35.0,"no2":16.8,"co":407.0,"o3":94.0,"so2":7.5,"mosquito_risk":7,"arthritis_risk":5,"migraine_risk":7,"frizz_risk":1,"updated_at":"2026-05-08T22:51:54.468054+05:30"},{"city":"Ratlam","state":"Madhya Pradesh","latitude":23.3315,"longitude":75.0367,"temp":28.9,"humidity":26,"rain":0.0,"pressure":954.2,"uv_index":8.5,"wind_gusts":27.4,"aqi":86,"pm10":48.7,"pm2_5":33.6,"no2":7.7,"co":228.0,"o3":96.0,"so2":6.6,"mosquito_risk":4,"arthritis_risk":5,"migraine_risk":7,"frizz_risk":0,"updated_at":"2026-05-08T22:51:54.468062+05:30"},{"city":"Sagar","state":"Madhya Pradesh","latitude":23.8388,"longitude":78.7378,"temp":28.0,"humidity":36,"rain":0.0,"pressure":950.5,"uv_index":8.65,"wind_gusts":38.5,"aqi":84,"pm10":51.0,"pm2_5":23.3,"no2":12.1,"co":225.0,"o3":80.0,"so2":4.1,"mosquito_risk":4,"arthritis_risk":5,"migraine_risk":7,"frizz_risk":0,"updated_at":"2026-05-08T22:51:54.468070+05:30"},{"city":"Satna","state":"Madhya Pradesh","latitude":24.6005,"longitude":80.8322,"temp":26.8,"humidity":45,"rain":0.0,"pressure":972.5,"uv_index":8.7,"wind_gusts":30.2,"aqi":120,"pm10":40.5,"pm2_5":29.0,"no2":9.3,"co":388.0,"o3":136.0,"so2":10.9,"mosquito_risk":4,"arthritis_risk":5,"migraine_risk":7,"frizz_risk":0,"updated_at":"2026-05-08T22:51:54.468078+05:30"},{"city":"Akola","state":"Maharashtra","latitude":20.7002,"longitude":77.0082,"temp":31.7,"humidity":29,"rain":0.0,"pressure":975.3,"uv_index":8.85,"wind_gusts":26.3,"aqi":127,"pm10":37.3,"pm2_5":27.3,"no2":13.3,"co":352.0,"o3":108.0,"so2":5.7,"mosquito_risk":0,"arthritis_risk":5,"migraine_risk":7,"frizz_risk":0,"updated_at":"2026-05-08T22:51:54.468087+05:30"},{"city":"Amravati","state":"Maharashtra","latitude":20.9374,"longitude":77.7796,"temp":31.4,"humidity":29,"rain":0.0,"pressure":967.9,"uv_index":8.85,"wind_gusts":27.0,"aqi":133,"pm10":44.9,"pm2_5":32.2,"no2":19.8,"co":340.0,"o3":98.0,"so2":6.7,"mosquito_risk":0,"arthritis_risk":5,"migraine_risk":7,"frizz_risk":0,"updated_at":"2026-05-08T22:51:54.468096+05:30"},{"city":"Latur","state":"Maharashtra","latitude":18.4088,"longitude":76.5604,"temp":29.9,"humidity":38,"rain":0.0,"pressure":940.6,"uv_index":9.05,"wind_gusts":27.4,"aqi":105,"pm10":36.3,"pm2_5":28.8,"no2":12.3,"co":315.0,"o3":91.0,"so2":6.1,"mosquito_risk":4,"arthritis_risk":5,"migraine_risk":7,"frizz_risk":0,"updated_at":"2026-05-08T22:51:54.468104+05:30"},{"city":"Nanded","state":"Maharashtra","latitude":19.1383,"longitude":77.3091,"temp":30.7,"humidity":37,"rain":0.0,"pressure":969.1,"uv_index":8.95,"wind_gusts":25.9,"aqi":96,"pm10":39.7,"pm2_5":30.7,"no2":14.9,"co":326.0,"o3":91.0,"so2":5.5,"mosquito_risk":0,"arthritis_risk":5,"migraine_risk":7,"frizz_risk":0,"updated_at":"2026-05-08T22:51:54.468111+05:30"},{"city":"Gulbarga","state":"Karnataka","latitude":17.3297,"longitude":76.8343,"temp":30.5,"humidity":47,"rain":0.0,"pressure":959.6,"uv_index":9.05,"wind_gusts":32.8,"aqi":92,"pm10":19.7,"pm2_5":17.1,"no2":9.2,"co":267.0,"o3":104.0,"so2":5.7,"mosquito_risk":0,"arthritis_risk":5,"migraine_risk":7,"frizz_risk":1,"updated_at":"2026-05-08T22:51:54.468119+05:30"},{"city":"Bidar","state":"Karnataka","latitude":17.9104,"longitude":77.5199,"temp":28.2,"humidity":50,"rain":0.0,"pressure":937.0,"uv_index":9.1,"wind_gusts":28.1,"aqi":85,"pm10":22.0,"pm2_5":19.4,"no2":11.1,"co":297.0,"o3":90.0,"so2":5.1,"mosquito_risk":4,"arthritis_risk":5,"migraine_risk":7,"frizz_risk":1,"updated_at":"2026-05-08T22:51:54.468127+05:30"},{"city":"Hospet","state":"Karnataka","latitude":15.2689,"longitude":76.3909,"temp":28.4,"humidity":51,"rain":0.0,"pressure":956.2,"uv_index":9.2,"wind_gusts":36.4,"aqi":69,"pm10":15.1,"pm2_5":13.0,"no2":13.5,"co":288.0,"o3":79.0,"so2":9.1,"mosquito_risk":4,"arthritis_risk":5,"migraine_risk":7,"frizz_risk":1,"updated_at":"2026-05-08T22:51:54.468134+05:30"},{"city":"Tirupur","state":"Tamil Nadu","latitude":11.1085,"longitude":77.3411,"temp":25.1,"humidity":94,"rain":0.0,"pressure":975.5,"uv_index":8.8,"wind_gusts":34.2,"aqi":67,"pm10":26.0,"pm2_5":25.6,"no2":21.5,"co":321.0,"o3":66.0,"so2":8.1,"mosquito_risk":7,"arthritis_risk":5,"migraine_risk":7,"frizz_risk":1,"updated_at":"2026-05-08T22:51:54.468142+05:30"},{"city":"Alappuzha","state":"Kerala","latitude":9.4981,"longitude":76.3388,"temp":25.7,"humidity":98,"rain":0.2,"pressure":1008.5,"uv_index":8.65,"wind_gusts":31.0,"aqi":109,"pm10":26.3,"pm2_5":25.6,"no2":16.6,"co":210.0,"o3":86.0,"so2":7.4,"mosquito_risk":10,"arthritis_risk":0,"migraine_risk":4,"frizz_risk":1,"updated_at":"2026-05-08T22:51:54.468150+05:30"},{"city":"Munnar","state":"Kerala","latitude":10.0889,"longitude":77.0595,"temp":18.1,"humidity":98,"rain":0.0,"pressure":856.6,"uv_index":9.5,"wind_gusts":23.0,"aqi":38,"pm10":16.2,"pm2_5":15.9,"no2":11.1,"co":366.0,"o3":50.0,"so2":3.2,"mosquito_risk":3,"arthritis_risk":10,"migraine_risk":7,"frizz_risk":1,"updated_at":"2026-05-08T22:51:54.468159+05:30"},{"city":"Silchar","state":"Assam","latitude":24.8333,"longitude":92.7789,"temp":24.2,"humidity":81,"rain":0.0,"pressure":1007.9,"uv_index":6.75,"wind_gusts":22.7,"aqi":126,"pm10":84.1,"pm2_5":75.2,"no2":25.4,"co":661.0,"o3":55.0,"so2":12.0,"mosquito_risk":3,"arthritis_risk":5,"migraine_risk":4,"frizz_risk":1,"updated_at":"2026-05-08T22:51:54.468167+05:30"},{"city":"Dibrugarh","state":"Assam","latitude":27.4728,"longitude":94.912,"temp":24.2,"humidity":83,"rain":0.0,"pressure":998.7,"uv_index":8.8,"wind_gusts":50.0,"aqi":70,"pm10":51.5,"pm2_5":46.9,"no2":32.5,"co":771.0,"o3":31.0,"so2":4.0,"mosquito_risk":3,"arthritis_risk":5,"migraine_risk":7,"frizz_risk":1,"updated_at":"2026-05-08T22:51:54.468175+05:30"}]