[{"city":"Delhi","state":"Delhi","latitude":28.6139,"longitude":77.209,"temp":32.4,"humidity":38,"rain":0.0,"pressure":987.7,"uv_index":6.05,"wind_gusts":23.4,"aqi":464,"pm10":242.1,"pm2_5":61.5,"mosquito_risk":0,"arthritis_risk":5,"migraine_risk":7,"frizz_risk":1,"updated_at":"2026-03-10T17:05:42.535305+05:30"},{"city":"Mumbai","state":"Maharashtra","latitude":19.076,"longitude":72.8777,"temp":29.0,"humidity":64,"rain":0.0,"pressure":1007.9,"uv_index":7.55,"wind_gusts":19.8,"aqi":229,"pm10":45.2,"pm2_5":42.0,"mosquito_risk":7,"arthritis_risk":5,"migraine_risk":4,"frizz_risk":1,"updated_at":"2026-03-10T17:05:42.535350+05:30"},{"city":"Bangalore","state":"Karnataka","latitude":12.9716,"longitude":77.5946,"temp":29.4,"humidity":31,"rain":0.0,"pressure":913.2,"uv_index":9.25,"wind_gusts":32.4,"aqi":110,"pm10":19.6,"pm2_5":16.6,"mosquito_risk":4,"arthritis_risk":5,"migraine_risk":7,"frizz_risk":0,"updated_at":"2026-03-10T17:05:42.535366+05:30"},{"city":"Hyderabad","state":"Telangana","latitude":17.385,"longitude":78.4867,"temp":32.3,"humidity":35,"rain":0.0,"pressure":955.9,"uv_index":8.6,"wind_gusts":31.0,"aqi":136,"pm10":59.5,"pm2_5":46.7,"mosquito_risk":0,"arthritis_risk":5,"migraine_risk":7,"frizz_risk":0,"updated_at":"2026-03-10T17:05:42.535376+05:30"},{"city":"Chennai","state":"Tamil Nadu","latitude":13.0827,"longitude":80.2707,"temp":29.0,"humidity":59,"rain":0.0,"pressure":1010.3,"uv_index":8.95,"wind_gusts":35.6,"aqi":88,"pm10":20.7,"pm2_5":15.6,"mosquito_risk":4,"arthritis_risk":0,"migraine_risk":4,"frizz_risk":1,"updated_at":"2026-03-10T17:05:42.535385+05:30"},{"city":"Kolkata","state":"West Bengal","latitude":22.5726,"longitude":88.3639,"temp":25.4,"humidity":78,"rain":0.0,"pressure":1010.4,"uv_index":5.1,"wind_gusts":18.0,"aqi":117,"pm10":58.7,"pm2_5":50.1,"mosquito_risk":7,"arthritis_risk":0,"migraine_risk":0,"frizz_risk":1,"updated_at":"2026-03-10T17:05:42.535394+05:30"},{"city":"Pune","state":"Maharashtra","latitude":18.5204,"longitude":73.8567,"temp":36.2,"humidity":19,"rain":0.0,"pressure":949.9,"uv_index":8.1,"wind_gusts":36.4,"aqi":126,"pm10":26.5,"pm2_5":22.0,"mosquito_risk":0,"arthritis_risk":5,"migraine_risk":10,"frizz_risk":0,"updated_at":"2026-03-10T17:05:42.535406+05:30"},{"city":"Ahmedabad","state":"Gujarat","latitude":23.0225,"longitude":72.5714,"temp":38.9,"humidity":14,"rain":0.0,"pressure":1003.9,"uv_index":7.4,"wind_gusts":19.1,"aqi":110,"pm10":15.9,"pm2_5":14.1,"mosquito_risk":0,"arthritis_risk":5,"migraine_risk":7,"frizz_risk":0,"updated_at":"2026-03-10T17:05:42.535414+05:30"},{"city":"Jaipur","state":"Rajasthan","latitude":26.9124,"longitude":75.7873,"temp":36.2,"humidity":9,"rain":0.0,"pressure":964.1,"uv_index":6.85,"wind_gusts":22.0,"aqi":109,"pm10":178.3,"pm2_5":25.3,"mosquito_risk":0,"arthritis_risk":5,"migraine_risk":10,"frizz_risk":1,"updated_at":"2026-03-10T17:05:42.535423+05:30"},{"city":"Lucknow","state":"Uttar Pradesh","latitude":26.8467,"longitude":80.9462,"temp":31.9,"humidity":45,"rain":0.0,"pressure":997.7,"uv_index":6.55,"wind_gusts":20.2,"aqi":179,"pm10":151.8,"pm2_5":92.9,"mosquito_risk":0,"arthritis_risk":5,"migraine_risk":7,"frizz_risk":1,"updated_at":"2026-03-10T17:05:42.535431+05:30"},{"city":"Kanpur","state":"Uttar Pradesh","latitude":26.4499,"longitude":80.3319,"temp":31.4,"humidity":50,"rain":0.0,"pressure":996.1,"uv_index":6.6,"wind_gusts":15.5,"aqi":171,"pm10":182.1,"pm2_5":72.2,"mosquito_risk":0,"arthritis_risk":5,"migraine_risk":7,"frizz_risk":1,"updated_at":"2026-03-10T17:05:42.535438+05:30"},{"city":"Chandigarh","state":"Chandigarh","latitude":30.7333,"longitude":76.7794,"temp":29.6,"humidity":61,"rain":0.0,"pressure":973.8,"uv_index":6.0,"wind_gusts":15.5,"aqi":137,"pm10":88.7,"pm2_5":56.5,"mosquito_risk":7,"arthritis_risk":5,"migraine_risk":3,"frizz_risk":1,"updated_at":"2026-03-10T17:05:42.535445+05:30"},{"city":"Srinagar","state":"Jammu and Kashmir","latitude":34.0837,"longitude":74.7973,"temp":11.8,"humidity":88,"rain":0.3,"pressure":847.0,"uv_index":3.95,"wind_gusts":28.8,"aqi":123,"pm10":51.2,"pm2_5":29.9,"mosquito_risk":6,"arthritis_risk":10,"migraine_risk":3,"frizz_risk":0,"updated_at":"2026-03-10T17:05:42.535453+05:30"},{"city":"Jammu","state":"Jammu and Kashmir","latitude":32.7266,"longitude":74.857,"temp":26.4,"humidity":77,"rain":0.0,"pressure":977.3,"uv_index":6.0,"wind_gusts":38.2,"aqi":102,"pm10":63.8,"pm2_5":36.6,"mosquito_risk":7,"arthritis_risk":5,"migraine_risk":3,"frizz_risk":1,"updated_at":"2026-03-10T17:05:42.535461+05:30"},{"city":"Amritsar","state":"Punjab","latitude":31.634,"longitude":74.8723,"temp":30.0,"humidity":60,"rain":0.0,"pressure":985.2,"uv_index":6.0,"wind_gusts":26.3,"aqi":162,"pm10":70.8,"pm2_5":43.2,"mosquito_risk":4,"arthritis_risk":5,"migraine_risk":3,"frizz_risk":1,"updated_at":"2026-03-10T17:05:42.535468+05:30"},{"city":"Ludhiana","state":"Punjab","latitude":30.901,"longitude":75.8573,"temp":31.2,"humidity":48,"rain":0.0,"pressure":983.7,"uv_index":5.7,"wind_gusts":13.0,"aqi":171,"pm10":122.0,"pm2_5":61.5,"mosquito_risk":0,"arthritis_risk":5,"migraine_risk":3,"frizz_risk":1,"updated_at":"2026-03-10T17:05:42.535475+05:30"},{"city":"Jalandhar","state":"Punjab","latitude":31.326,"longitude":75.5762,"temp":31.2,"humidity":50,"rain":0.0,"pressure":984.7,"uv_index":6.0,"wind_gusts":14.0,"aqi":167,"pm10":102.0,"pm2_5":53.6,"mosquito_risk":0,"arthritis_risk":5,"migraine_risk":3,"frizz_risk":1,"updated_at":"2026-03-10T17:05:42.535484+05:30"},{"city":"Dehradun","state":"Uttarakhand","latitude":30.6284,"longitude":78.0322,"temp":19.9,"humidity":70,"rain":0.0,"pressure":835.8,"uv_index":6.4,"wind_gusts":26.6,"aqi":76,"pm10":49.0,"pm2_5":29.8,"mosquito_risk":3,"arthritis_risk":5,"migraine_risk":7,"frizz_risk":0,"updated_at":"2026-03-10T17:05:42.535492+05:30"},{"city":"Shimla","state":"Himachal Pradesh","latitude":31.1048,"longitude":77.1734,"temp":18.7,"humidity":61,"rain":0.0,"pressure":791.0,"uv_index":6.1,"wind_gusts":37.1,"aqi":83,"pm10":45.6,"pm2_5":28.2,"mosquito_risk":3,"arthritis_risk":5,"migraine_risk":7,"frizz_risk":0,"updated_at":"2026-03-10T17:05:42.535498+05:30"},{"city":"Manali","state":"Himachal Pradesh","latitude":32.2396,"longitude":77.1887,"temp":19.8,"humidity":41,"rain":0.0,"pressure":826.7,"uv_index":7.45,"wind_gusts":41.0,"aqi":75,"pm10":20.6,"pm2_5":8.2,"mosquito_risk":0,"arthritis_risk":5,"migraine_risk":7,"frizz_risk":0,"updated_at":"2026-03-10T17:05:42.535506+05:30"},{"city":"Gurgaon","state":"Haryana","latitude":28.4595,"longitude":77.0266,"temp":32.2,"humidity":38,"rain":0.0,"pressure":986.1,"uv_index":5.9,"wind_gusts":21.2,"aqi":615,"pm10":823.3,"pm2_5":99.2,"mosquito_risk":0,"arthritis_risk":5,"migraine_risk":3,"frizz_risk":1,"updated_at":"2026-03-10T17:05:42.535513+05:30"},{"city":"Noida","state":"Uttar Pradesh","latitude":28.5355,"longitude":77.391,"temp":32.6,"humidity":37,"rain":0.0,"pressure":989.2,"uv_index":6.1,"wind_gusts":23.4,"aqi":615,"pm10":823.3,"pm2_5":99.2,"mosquito_risk":0,"arthritis_risk":5,"migraine_risk":7,"frizz_risk":0,"updated_at":"2026-03-10T17:05:42.535520+05:30"},{"city":"Ghaziabad","state":"Uttar Pradesh","latitude":28.6692,"longitude":77.4538,"temp":31.7,"humidity":42,"rain":0.0,"pressure":987.5,"uv_index":5.9,"wind_gusts":18.7,"aqi":295,"pm10":154.1,"pm2_5":67.3,"mosquito_risk":0,"arthritis_risk":5,"migraine_risk":3,"frizz_risk":1,"updated_at":"2026-03-10T17:05:42.535527+05:30"},{"city":"Faridabad","state":"Haryana","latitude":28.4089,"longitude":77.3178,"temp":32.0,"humidity":38,"rain":0.0,"pressure":988.4,"uv_index":6.05,"wind_gusts":23.0,"aqi":615,"pm10":823.3,"pm2_5":99.2,"mosquito_risk":0,"arthritis_risk":5,"migraine_risk":7,"frizz_risk":0,"updated_at":"2026-03-10T17:05:42.535533+05:30"},{"city":"Meerut","state":"Uttar Pradesh","latitude":28.9845,"longitude":77.7064,"temp":30.8,"humidity":51,"rain":0.0,"pressure":986.3,"uv_index":5.7,"wind_gusts":18.4,"aqi":295,"pm10":154.1,"pm2_5":67.3,"mosquito_risk":0,"arthritis_risk":5,"migraine_risk":3,"frizz_risk":1,"updated_at":"2026-03-10T17:05:42.535539+05:30"},{"city":"Agra","state":"Uttar Pradesh","latitude":27.1767,"longitude":78.0081,"temp":34.3,"humidity":28,"rain":0.0,"pressure":992.0,"uv_index":6.45,"wind_gusts":22.0,"aqi":197,"pm10":562.5,"pm2_5":73.8,"mosquito_risk":0,"arthritis_risk":5,"migraine_risk":7,"frizz_risk":0,"updated_at":"2026-03-10T17:05:42.535547+05:30"},{"city":"Varanasi","state":"Uttar Pradesh","latitude":25.3176,"longitude":82.9739,"temp":30.6,"humidity":56,"rain":0.0,"pressure":1001.5,"uv_index":7.2,"wind_gusts":15.5,"aqi":184,"pm10":113.4,"pm2_5":103.1,"mosquito_risk":0,"arthritis_risk":5,"migraine_risk":4,"frizz_risk":1,"updated_at":"2026-03-10T17:05:42.535556+05:30"},{"city":"Prayagraj","state":"Uttar Pradesh","latitude":25.4358,"longitude":81.8463,"temp":31.1,"humidity":52,"rain":0.0,"pressure":1000.1,"uv_index":7.1,"wind_gusts":15.5,"aqi":183,"pm10":133.2,"pm2_5":94.5,"mosquito_risk":0,"arthritis_risk":5,"migraine_risk":4,"frizz_risk":1,"updated_at":"2026-03-10T17:05:42.535564+05:30"},{"city":"Gorakhpur","state":"Uttar Pradesh","latitude":26.7606,"longitude":83.3732,"temp":29.4,"humidity":61,"rain":0.0,"pressure":1001.5,"uv_index":6.95,"wind_gusts":20.2,"aqi":188,"pm10":110.8,"pm2_5":95.7,"mosquito_risk":7,"arthritis_risk":5,"migraine_risk":4,"frizz_risk":1,"updated_at":"2026-03-10T17:05:42.535571+05:30"},{"city":"Bareilly","state":"Uttar Pradesh","latitude":28.367,"longitude":79.4304,"temp":30.1,"humidity":56,"rain":0.0,"pressure":991.5,"uv_index":5.9,"wind_gusts":18.0,"aqi":181,"pm10":147.6,"pm2_5":102.2,"mosquito_risk":0,"arthritis_risk":5,"migraine_risk":3,"frizz_risk":1,"updated_at":"2026-03-10T17:05:42.535580+05:30"},{"city":"Aligarh","state":"Uttar Pradesh","latitude":27.8974,"longitude":78.088,"temp":32.9,"humidity":37,"rain":0.0,"pressure":990.0,"uv_index":6.15,"wind_gusts":23.4,"aqi":190,"pm10":344.6,"pm2_5":79.6,"mosquito_risk":0,"arthritis_risk":5,"migraine_risk":7,"frizz_risk":1,"updated_at":"2026-03-10T17:05:42.535587+05:30"},{"city":"Moradabad","state":"Uttar Pradesh","latitude":28.8386,"longitude":78.7733,"temp":30.2,"humidity":53,"rain":0.0,"pressure":988.4,"uv_index":5.45,"wind_gusts":23.4,"aqi":181,"pm10":148.5,"pm2_5":99.9,"mosquito_risk":0,"arthritis_risk":5,"migraine_risk":3,"frizz_risk":1,"updated_at":"2026-03-10T17:05:42.535593+05:30"},{"city":"Saharanpur","state":"Uttar Pradesh","latitude":29.9637,"longitude":77.546,"temp":29.5,"humidity":57,"rain":0.0,"pressure":980.5,"uv_index":5.7,"wind_gusts":21.2,"aqi":165,"pm10":108.7,"pm2_5":61.7,"mosquito_risk":4,"arthritis_risk":5,"migraine_risk":3,"frizz_risk":1,"updated_at":"2026-03-10T17:05:42.535599+05:30"},{"city":"Jhansi","state":"Uttar Pradesh","latitude":25.4484,"longitude":78.5685,"temp":34.9,"humidity":18,"rain":0.0,"pressure":981.8,"uv_index":7.05,"wind_gusts":26.3,"aqi":121,"pm10":82.7,"pm2_5":22.0,"mosquito_risk":0,"arthritis_risk":5,"migraine_risk":7,"frizz_risk":0,"updated_at":"2026-03-10T17:05:45.752741+05:30"},{"city":"Surat","state":"Gujarat","latitude":21.1702,"longitude":72.8311,"temp":37.0,"humidity":26,"rain":0.0,"pressure":1007.3,"uv_index":7.3,"wind_gusts":23.8,"aqi":104,"pm10":47.0,"pm2_5":46.0,"mosquito_risk":0,"arthritis_risk":5,"migraine_risk":7,"frizz_risk":0,"updated_at":"2026-03-10T17:05:45.752774+05:30"},{"city":"Vadodara","state":"Gujarat","latitude":22.3072,"longitude":73.1812,"temp":40.4,"humidity":13,"rain":0.0,"pressure":1005.2,"uv_index":7.4,"wind_gusts":17.3,"aqi":115,"pm10":15.7,"pm2_5":11.0,"mosquito_risk":0,"arthritis_risk":5,"migraine_risk":7,"frizz_risk":0,"updated_at":"2026-03-10T17:05:45.752786+05:30"},{"city":"Rajkot","state":"Gujarat","latitude":22.3039,"longitude":70.8022,"temp":37.8,"humidity":13,"rain":0.0,"pressure":996.4,"uv_index":7.25,"wind_gusts":33.5,"aqi":79,"pm10":14.2,"pm2_5":12.4,"mosquito_risk":0,"arthritis_risk":5,"migraine_risk":10,"frizz_risk":0,"updated_at":"2026-03-10T17:05:45.752796+05:30"},{"city":"Thane","state":"Maharashtra","latitude":19.2183,"longitude":72.9781,"temp":34.1,"humidity":34,"rain":0.0,"pressure":1007.8,"uv_index":7.55,"wind_gusts":33.5,"aqi":229,"pm10":45.2,"pm2_5":42.0,"mosquito_risk":0,"arthritis_risk":5,"migraine_risk":4,"frizz_risk":0,"updated_at":"2026-03-10T17:05:45.752804+05:30"},{"city":"Nagpur","state":"Maharashtra","latitude":21.1458,"longitude":79.0882,"temp":35.5,"humidity":21,"rain":0.0,"pressure":975.7,"uv_index":7.95,"wind_gusts":24.8,"aqi":128,"pm10":36.4,"pm2_5":24.3,"mosquito_risk":0,"arthritis_risk":5,"migraine_risk":10,"frizz_risk":0,"updated_at":"2026-03-10T17:05:45.752813+05:30"},{"city":"Nashik","state":"Maharashtra","latitude":19.9975,"longitude":73.7898,"temp":35.8,"humidity":16,"rain":0.0,"pressure":947.4,"uv_index":7.75,"wind_gusts":28.1,"aqi":127,"pm10":16.6,"pm2_5":13.5,"mosquito_risk":0,"arthritis_risk":5,"migraine_risk":10,"frizz_risk":0,"updated_at":"2026-03-10T17:05:45.752821+05:30"},{"city":"Aurangabad","state":"Maharashtra","latitude":19.8762,"longitude":75.3433,"temp":36.1,"humidity":17,"rain":0.0,"pressure":946.1,"uv_index":8.3,"wind_gusts":21.6,"aqi":120,"pm10":12.6,"pm2_5":10.0,"mosquito_risk":0,"arthritis_risk":5,"migraine_risk":10,"frizz_risk":0,"updated_at":"2026-03-10T17:05:45.752829+05:30"},{"city":"Solapur","state":"Maharashtra","latitude":17.6599,"longitude":75.9064,"temp":34.8,"humidity":28,"rain":0.0,"pressure":958.4,"uv_index":8.5,"wind_gusts":29.5,"aqi":141,"pm10":47.7,"pm2_5":40.0,"mosquito_risk":0,"arthritis_risk":5,"migraine_risk":7,"frizz_risk":0,"updated_at":"2026-03-10T17:05:45.752837+05:30"},{"city":"Kolhapur","state":"Maharashtra","latitude":16.705,"longitude":74.2433,"temp":33.9,"humidity":27,"rain":0.0,"pressure":948.8,"uv_index":8.6,"wind_gusts":40.3,"aqi":128,"pm10":50.4,"pm2_5":43.1,"mosquito_risk":0,"arthritis_risk":5,"migraine_risk":7,"frizz_risk":0,"updated_at":"2026-03-10T17:05:45.752845+05:30"},{"city":"Goa","state":"Goa","latitude":15.2993,"longitude":74.124,"temp":30.1,"humidity":75,"rain":0.0,"pressure":997.6,"uv_index":8.6,"wind_gusts":38.9,"aqi":151,"pm10":56.2,"pm2_5":46.7,"mosquito_risk":3,"arthritis_risk":5,"migraine_risk":7,"frizz_risk":1,"updated_at":"2026-03-10T17:05:45.752854+05:30"},{"city":"Jodhpur","state":"Rajasthan","latitude":26.2389,"longitude":73.0243,"temp":36.5,"humidity":12,"rain":0.0,"pressure":987.0,"uv_index":7.15,"wind_gusts":26.3,"aqi":88,"pm10":34.2,"pm2_5":12.7,"mosquito_risk":0,"arthritis_risk":5,"migraine_risk":10,"frizz_risk":0,"updated_at":"2026-03-10T17:05:45.752862+05:30"},{"city":"Udaipur","state":"Rajasthan","latitude":24.5854,"longitude":73.7125,"temp":34.8,"humidity":15,"rain":0.0,"pressure":950.7,"uv_index":7.75,"wind_gusts":21.6,"aqi":97,"pm10":12.7,"pm2_5":8.8,"mosquito_risk":0,"arthritis_risk":5,"migraine_risk":7,"frizz_risk":0,"updated_at":"2026-03-10T17:05:45.752870+05:30"},{"city":"Kota","state":"Rajasthan","latitude":25.2138,"longitude":75.8648,"temp":36.6,"humidity":15,"rain":0.0,"pressure":982.5,"uv_index":7.15,"wind_gusts":17.3,"aqi":76,"pm10":41.4,"pm2_5":12.1,"mosquito_risk":0,"arthritis_risk":5,"migraine_risk":10,"frizz_risk":0,"updated_at":"2026-03-10T17:05:45.752877+05:30"},{"city":"Bikaner","state":"Rajasthan","latitude":28.0229,"longitude":73.3119,"temp":35.7,"humidity":13,"rain":0.0,"pressure":985.9,"uv_index":6.85,"wind_gusts":29.9,"aqi":105,"pm10":15.1,"pm2_5":13.2,"mosquito_risk":0,"arthritis_risk":5,"migraine_risk":10,"frizz_risk":0,"updated_at":"2026-03-10T17:05:45.752886+05:30"},{"city":"Ajmer","state":"Rajasthan","latitude":26.4499,"longitude":74.6399,"temp":34.6,"humidity":15,"rain":0.0,"pressure":959.1,"uv_index":7.1,"wind_gusts":21.2,"aqi":85,"pm10":84.8,"pm2_5":17.2,"mosquito_risk":0,"arthritis_risk":5,"migraine_risk":7,"frizz_risk":0,"updated_at":"2026-03-10T17:05:45.752923+05:30"},{"city":"Gwalior","state":"Madhya Pradesh","latitude":26.2183,"longitude":78.1828,"temp":32.8,"humidity":27,"rain":0.0,"pressure":987.5,"uv_index":6.75,"wind_gusts":24.5,"aqi":128,"pm10":86.1,"pm2_5":22.6,"mosquito_risk":0,"arthritis_risk":5,"migraine_risk":7,"frizz_risk":0,"updated_at":"2026-03-10T17:05:45.752933+05:30"},{"city":"Indore","state":"Madhya Pradesh","latitude":22.7196,"longitude":75.8577,"temp":34.6,"humidity":17,"rain":0.0,"pressure":951.3,"uv_index":7.65,"wind_gusts":26.3,"aqi":92,"pm10":17.0,"pm2_5":8.6,"mosquito_risk":0,"arthritis_risk":5,"migraine_risk":7,"frizz_risk":0,"updated_at":"2026-03-10T17:05:45.752942+05:30"},{"city":"Bhopal","state":"Madhya Pradesh","latitude":23.2599,"longitude":77.4126,"temp":34.8,"humidity":21,"rain":0.0,"pressure":957.1,"uv_index":7.55,"wind_gusts":23.0,"aqi":82,"pm10":15.5,"pm2_5":6.8,"mosquito_risk":0,"arthritis_risk":5,"migraine_risk":7,"frizz_risk":0,"updated_at":"2026-03-10T17:05:45.752950+05:30"},{"city":"Jabalpur","state":"Madhya Pradesh","latitude":23.1815,"longitude":79.9864,"temp":34.3,"humidity":27,"rain":0.0,"pressure":964.7,"uv_index":7.65,"wind_gusts":26.3,"aqi":102,"pm10":37.0,"pm2_5":18.0,"mosquito_risk":0,"arthritis_risk":5,"migraine_risk":7,"frizz_risk":0,"updated_at":"2026-03-10T17:05:45.752958+05:30"},{"city":"Ujjain","state":"Madhya Pradesh","latitude":23.1765,"longitude":75.7885,"temp":34.0,"humidity":20,"rain":0.0,"pressure":957.2,"uv_index":7.55,"wind_gusts":19.1,"aqi":86,"pm10":18.3,"pm2_5":8.5,"mosquito_risk":0,"arthritis_risk":5,"migraine_risk":7,"frizz_risk":0,"updated_at":"2026-03-10T17:05:45.752967+05:30"},{"city":"Visakhapatnam","state":"Andhra Pradesh","latitude":17.6868,"longitude":83.2185,"temp":28.4,"humidity":54,"rain":0.0,"pressure":1006.8,"uv_index":8.55,"wind_gusts":34.2,"aqi":134,"pm10":43.5,"pm2_5":34.6,"mosquito_risk":4,"arthritis_risk":5,"migraine_risk":4,"frizz_risk":1,"updated_at":"2026-03-10T17:05:45.752976+05:30"},{"city":"Vijayawada","state":"Andhra Pradesh","latitude":16.5062,"longitude":80.648,"temp":32.3,"humidity":40,"rain":0.0,"pressure":1005.2,"uv_index":8.6,"wind_gusts":21.6,"aqi":133,"pm10":31.9,"pm2_5":26.3,"mosquito_risk":0,"arthritis_risk":5,"migraine_risk":4,"frizz_risk":1,"updated_at":"2026-03-10T17:05:45.752984+05:30"},{"city":"Guntur","state":"Andhra Pradesh","latitude":16.3067,"longitude":80.4365,"temp":31.8,"humidity":32,"rain":0.0,"pressure":1006.7,"uv_index":8.65,"wind_gusts":23.4,"aqi":128,"pm10":29.3,"pm2_5":23.6,"mosquito_risk":0,"arthritis_risk":5,"migraine_risk":4,"frizz_risk":0,"updated_at":"2026-03-10T17:05:45.752992+05:30"},{"city":"Nellore","state":"Andhra Pradesh","latitude":14.4426,"longitude":79.9865,"temp":29.8,"humidity":52,"rain":0.0,"pressure":1009.0,"uv_index":8.85,"wind_gusts":28.1,"aqi":99,"pm10":25.4,"pm2_5":19.9,"mosquito_risk":4,"arthritis_risk":0,"migraine_risk":4,"frizz_risk":1,"updated_at":"2026-03-10T17:05:45.753001+05:30"},{"city":"Kurnool","state":"Andhra Pradesh","latitude":15.8281,"longitude":78.0373,"temp":34.7,"humidity":24,"rain":0.0,"pressure":978.6,"uv_index":8.65,"wind_gusts":31.7,"aqi":115,"pm10":42.7,"pm2_5":33.5,"mosquito_risk":0,"arthritis_risk":5,"migraine_risk":7,"frizz_risk":0,"updated_at":"2026-03-10T17:05:45.753010+05:30"},{"city":"Kakinada","state":"Andhra Pradesh","latitude":16.9891,"longitude":82.2475,"temp":30.1,"humidity":49,"rain":0.0,"pressure":1010.4,"uv_index":8.6,"wind_gusts":28.4,"aqi":119,"pm10":38.8,"pm2_5":30.3,"mosquito_risk":0,"arthritis_risk":0,"migraine_risk":4,"frizz_risk":1,"updated_at":"2026-03-10T17:05:45.753019+05:30"},{"city":"Tirupati","state":"Andhra Pradesh","latitude":13.6288,"longitude":79.4192,"temp":30.8,"humidity":39,"rain":0.0,"pressure":993.7,"uv_index":8.95,"wind_gusts":34.6,"aqi":137,"pm10":20.6,"pm2_5":16.7,"mosquito_risk":0,"arthritis_risk":5,"migraine_risk":7,"frizz_risk":0,"updated_at":"2026-03-10T17:05:45.753026+05:30"},{"city":"Warangal","state":"Telangana","latitude":17.9689,"longitude":79.5941,"temp":32.7,"humidity":47,"rain":0.0,"pressure":981.1,"uv_index":8.4,"wind_gusts":27.0,"aqi":141,"pm10":66.4,"pm2_5":51.8,"mosquito_risk":0,"arthritis_risk":5,"migraine_risk":7,"frizz_risk":1,"updated_at":"2026-03-10T17:05:45.753035+05:30"},{"city":"Nizamabad","state":"Telangana","latitude":18.6725,"longitude":78.0941,"temp":34.5,"humidity":28,"rain":0.0,"pressure":966.9,"uv_index":8.3,"wind_gusts":30.6,"aqi":135,"pm10":42.6,"pm2_5":33.1,"mosquito_risk":0,"arthritis_risk":5,"migraine_risk":7,"frizz_risk":0,"updated_at":"2026-03-10T17:05:45.753046+05:30"},{"city":"Mysore","state":"Karnataka","latitude":12.2958,"longitude":76.6396,"temp":30.9,"humidity":19,"rain":0.0,"pressure":929.2,"uv_index":9.25,"wind_gusts":39.2,"aqi":113,"pm10":20.8,"pm2_5":17.3,"mosquito_risk":0,"arthritis_risk":5,"migraine_risk":7,"frizz_risk":0,"updated_at":"2026-03-10T17:05:45.753055+05:30"},{"city":"Mangalore","state":"Karnataka","latitude":12.9141,"longitude":74.856,"temp":28.8,"humidity":80,"rain":0.0,"pressure":1006.4,"uv_index":8.85,"wind_gusts":31.7,"aqi":113,"pm10":37.1,"pm2_5":31.9,"mosquito_risk":7,"arthritis_risk":5,"migraine_risk":4,"frizz_risk":1,"updated_at":"2026-03-10T17:05:45.753063+05:30"},{"city":"Hubli-Dharwad","state":"Karnataka","latitude":15.3647,"longitude":75.124,"temp":33.5,"humidity":25,"rain":0.0,"pressure":941.7,"uv_index":8.8,"wind_gusts":44.3,"aqi":129,"pm10":54.1,"pm2_5":44.4,"mosquito_risk":0,"arthritis_risk":5,"migraine_risk":7,"frizz_risk":0,"updated_at":"2026-03-10T17:05:45.753072+05:30"},{"city":"Belgaum","state":"Karnataka","latitude":15.8497,"longitude":74.4977,"temp":33.0,"humidity":27,"rain":0.0,"pressure":926.8,"uv_index":8.85,"wind_gusts":46.8,"aqi":133,"pm10":54.6,"pm2_5":45.4,"mosquito_risk":0,"arthritis_risk":5,"migraine_risk":7,"frizz_risk":0,"updated_at":"2026-03-10T17:05:48.974665+05:30"},{"city":"Coimbatore","state":"Tamil Nadu","latitude":11.0168,"longitude":76.9558,"temp":32.1,"humidity":31,"rain":0.0,"pressure":962.1,"uv_index":9.25,"wind_gusts":46.4,"aqi":119,"pm10":22.2,"pm2_5":18.9,"mosquito_risk":0,"arthritis_risk":5,"migraine_risk":7,"frizz_risk":0,"updated_at":"2026-03-10T17:05:48.974695+05:30"},{"city":"Madurai","state":"Tamil Nadu","latitude":9.9252,"longitude":78.1198,"temp":31.8,"humidity":47,"rain":0.0,"pressure":993.5,"uv_index":9.2,"wind_gusts":41.4,"aqi":114,"pm10":14.8,"pm2_5":13.9,"mosquito_risk":0,"arthritis_risk":5,"migraine_risk":7,"frizz_risk":1,"updated_at":"2026-03-10T17:05:48.974706+05:30"},{"city":"Trichy","state":"Tamil Nadu","latitude":10.7905,"longitude":78.7047,"temp":30.3,"humidity":55,"rain":0.0,"pressure":1001.2,"uv_index":9.05,"wind_gusts":37.4,"aqi":106,"pm10":17.5,"pm2_5":15.9,"mosquito_risk":0,"arthritis_risk":5,"migraine_risk":4,"frizz_risk":1,"updated_at":"2026-03-10T17:05:48.974714+05:30"},{"city":"Salem","state":"Tamil Nadu","latitude":11.6643,"longitude":78.146,"temp":32.7,"humidity":36,"rain":0.0,"pressure":977.9,"uv_index":9.15,"wind_gusts":33.1,"aqi":127,"pm10":19.8,"pm2_5":17.7,"mosquito_risk":0,"arthritis_risk":5,"migraine_risk":7,"frizz_risk":0,"updated_at":"2026-03-10T17:05:48.974721+05:30"},{"city":"Tirunelveli","state":"Tamil Nadu","latitude":8.7139,"longitude":77.7567,"temp":32.1,"humidity":49,"rain":0.0,"pressure":1003.4,"uv_index":9.2,"wind_gusts":47.2,"aqi":95,"pm10":16.1,"pm2_5":13.4,"mosquito_risk":0,"arthritis_risk":5,"migraine_risk":4,"frizz_risk":1,"updated_at":"2026-03-10T17:05:48.974728+05:30"},{"city":"Vellore","state":"Tamil Nadu","latitude":12.9165,"longitude":79.1325,"temp":30.5,"humidity":40,"rain":0.0,"pressure":986.4,"uv_index":9.05,"wind_gusts":35.6,"aqi":144,"pm10":24.2,"pm2_5":21.2,"mosquito_risk":0,"arthritis_risk":5,"migraine_risk":7,"frizz_risk":0,"updated_at":"2026-03-10T17:05:48.974735+05:30"},{"city":"Erode","state":"Tamil Nadu","latitude":11.341,"longitude":77.7172,"temp":34.6,"humidity":31,"rain":0.0,"pressure":989.1,"uv_index":9.1,"wind_gusts":28.8,"aqi":122,"pm10":24.2,"pm2_5":21.4,"mosquito_risk":0,"arthritis_risk":5,"migraine_risk":7,"frizz_risk":0,"updated_at":"2026-03-10T17:05:48.974742+05:30"},{"city":"Kochi","state":"Kerala","latitude":9.9312,"longitude":76.2673,"temp":28.9,"humidity":75,"rain":0.0,"pressure":1007.4,"uv_index":9.05,"wind_gusts":39.2,"aqi":151,"pm10":54.5,"pm2_5":44.9,"mosquito_risk":7,"arthritis_risk":5,"migraine_risk":4,"frizz_risk":1,"updated_at":"2026-03-10T17:05:48.974749+05:30"},{"city":"Thiruvananthapuram","state":"Kerala","latitude":8.5241,"longitude":76.9366,"temp":28.6,"humidity":71,"rain":0.0,"pressure":1007.5,"uv_index":9.1,"wind_gusts":27.4,"aqi":117,"pm10":37.1,"pm2_5":28.9,"mosquito_risk":7,"arthritis_risk":5,"migraine_risk":4,"frizz_risk":1,"updated_at":"2026-03-10T17:05:48.974756+05:30"},{"city":"Kozhikode","state":"Kerala","latitude":11.2588,"longitude":75.7804,"temp":30.1,"humidity":62,"rain":0.0,"pressure":1007.1,"uv_index":8.95,"wind_gusts":24.8,"aqi":141,"pm10":60.1,"pm2_5":46.2,"mosquito_risk":3,"arthritis_risk":5,"migraine_risk":4,"frizz_risk":1,"updated_at":"2026-03-10T17:05:48.974763+05:30"},{"city":"Thrissur","state":"Kerala","latitude":10.5276,"longitude":76.2144,"temp":31.0,"humidity":60,"rain":0.0,"pressure":1006.2,"uv_index":9.0,"wind_gusts":37.4,"aqi":140,"pm10":28.2,"pm2_5":22.9,"mosquito_risk":0,"arthritis_risk":5,"migraine_risk":4,"frizz_risk":1,"updated_at":"2026-03-10T17:05:48.974770+05:30"},{"city":"Kannur","state":"Kerala","latitude":11.8745,"longitude":75.3704,"temp":30.3,"humidity":57,"rain":0.0,"pressure":1006.9,"uv_index":8.95,"wind_gusts":39.2,"aqi":108,"pm10":53.0,"pm2_5":42.7,"mosquito_risk":0,"arthritis_risk":5,"migraine_risk":4,"frizz_risk":1,"updated_at":"2026-03-10T17:05:48.974777+05:30"},{"city":"Patna","state":"Bihar","latitude":25.5941,"longitude":85.1376,"temp":30.3,"humidity":55,"rain":0.0,"pressure":1004.5,"uv_index":7.4,"wind_gusts":24.5,"aqi":172,"pm10":92.4,"pm2_5":82.4,"mosquito_risk":0,"arthritis_risk":5,"migraine_risk":4,"frizz_risk":1,"updated_at":"2026-03-10T17:05:48.974783+05:30"},{"city":"Gaya","state":"Bihar","latitude":24.7914,"longitude":85.0002,"temp":29.0,"humidity":65,"rain":0.0,"pressure":997.7,"uv_index":7.5,"wind_gusts":15.5,"aqi":169,"pm10":81.0,"pm2_5":70.3,"mosquito_risk":7,"arthritis_risk":5,"migraine_risk":7,"frizz_risk":1,"updated_at":"2026-03-10T17:05:48.974789+05:30"},{"city":"Muzaffarpur","state":"Bihar","latitude":26.1209,"longitude":85.3647,"temp":30.4,"humidity":53,"rain":0.0,"pressure":1004.3,"uv_index":7.35,"wind_gusts":22.0,"aqi":174,"pm10":97.6,"pm2_5":85.9,"mosquito_risk":0,"arthritis_risk":5,"migraine_risk":4,"frizz_risk":1,"updated_at":"2026-03-10T17:05:48.974795+05:30"},{"city":"Bhagalpur","state":"Bihar","latitude":25.2425,"longitude":87.0117,"temp":30.0,"humidity":55,"rain":0.0,"pressure":1004.9,"uv_index":7.4,"wind_gusts":17.6,"aqi":163,"pm10":89.4,"pm2_5":76.4,"mosquito_risk":4,"arthritis_risk":5,"migraine_risk":4,"frizz_risk":1,"updated_at":"2026-03-10T17:05:48.974802+05:30"},{"city":"Ranchi","state":"Jharkhand","latitude":23.3441,"longitude":85.3096,"temp":27.1,"humidity":58,"rain":0.0,"pressure":941.1,"uv_index":8.15,"wind_gusts":29.5,"aqi":159,"pm10":89.6,"pm2_5":65.7,"mosquito_risk":4,"arthritis_risk":5,"migraine_risk":7,"frizz_risk":1,"updated_at":"2026-03-10T17:05:48.974808+05:30"},{"city":"Jamshedpur","state":"Jharkhand","latitude":22.8046,"longitude":86.2029,"temp":30.5,"humidity":55,"rain":0.0,"pressure":993.9,"uv_index":8.05,"wind_gusts":31.0,"aqi":132,"pm10":86.1,"pm2_5":72.2,"mosquito_risk":0,"arthritis_risk":5,"migraine_risk":7,"frizz_risk":1,"updated_at":"2026-03-10T17:05:48.974814+05:30"},{"city":"Dhanbad","state":"Jharkhand","latitude":23.7957,"longitude":86.4304,"temp":29.0,"humidity":57,"rain":0.0,"pressure":983.5,"uv_index":7.9,"wind_gusts":20.9,"aqi":167,"pm10":105.5,"pm2_5":92.2,"mosquito_risk":4,"arthritis_risk":5,"migraine_risk":7,"frizz_risk":1,"updated_at":"2026-03-10T17:05:48.974820+05:30"},{"city":"Bokaro","state":"Jharkhand","latitude":23.6693,"longitude":86.1511,"temp":29.4,"humidity":55,"rain":0.0,"pressure":987.5,"uv_index":7.9,"wind_gusts":20.5,"aqi":173,"pm10":111.8,"pm2_5":98.3,"mosquito_risk":4,"arthritis_risk":5,"migraine_risk":7,"frizz_risk":1,"updated_at":"2026-03-10T17:05:48.974827+05:30"},{"city":"Bhubaneswar","state":"Odisha","latitude":20.2961,"longitude":85.8245,"temp":29.4,"humidity":58,"rain":0.0,"pressure":1006.0,"uv_index":8.35,"wind_gusts":32.4,"aqi":109,"pm10":53.7,"pm2_5":44.0,"mosquito_risk":4,"arthritis_risk":5,"migraine_risk":4,"frizz_risk":1,"updated_at":"2026-03-10T17:05:48.974833+05:30"},{"city":"Cuttack","state":"Odisha","latitude":20.4625,"longitude":85.8828,"temp":31.9,"humidity":51,"rain":0.0,"pressure":1007.3,"uv_index":8.35,"wind_gusts":29.2,"aqi":109,"pm10":53.7,"pm2_5":44.0,"mosquito_risk":0,"arthritis_risk":5,"migraine_risk":4,"frizz_risk":1,"updated_at":"2026-03-10T17:05:48.974839+05:30"},{"city":"Rourkela","state":"Odisha","latitude":22.2604,"longitude":84.8536,"temp":33.7,"humidity":36,"rain":0.0,"pressure":987.0,"uv_index":7.95,"wind_gusts":26.3,"aqi":158,"pm10":81.0,"pm2_5":56.3,"mosquito_risk":0,"arthritis_risk":5,"migraine_risk":7,"frizz_risk":1,"updated_at":"2026-03-10T17:05:48.974845+05:30"},{"city":"Raipur","state":"Chhattisgarh","latitude":21.2514,"longitude":81.6296,"temp":35.7,"humidity":23,"rain":0.0,"pressure":977.0,"uv_index":8.05,"wind_gusts":17.3,"aqi":155,"pm10":64.5,"pm2_5":40.0,"mosquito_risk":0,"arthritis_risk":5,"migraine_risk":10,"frizz_risk":0,"updated_at":"2026-03-10T17:05:48.974851+05:30"},{"city":"Bhilai","state":"Chhattisgarh","latitude":21.1938,"longitude":81.3509,"temp":36.0,"humidity":23,"rain":0.0,"pressure":977.2,"uv_index":8.05,"wind_gusts":13.7,"aqi":151,"pm10":62.2,"pm2_5":36.7,"mosquito_risk":0,"arthritis_risk":5,"migraine_risk":10,"frizz_risk":0,"updated_at":"2026-03-10T17:05:48.974858+05:30"},{"city":"Guwahati","state":"Assam","latitude":26.1158,"longitude":91.7086,"temp":29.2,"humidity":63,"rain":0.0,"pressure":1004.8,"uv_index":7.3,"wind_gusts":11.5,"aqi":154,"pm10":82.9,"pm2_5":73.1,"mosquito_risk":7,"arthritis_risk":5,"migraine_risk":4,"frizz_risk":1,"updated_at":"2026-03-10T17:05:48.974864+05:30"},{"city":"Agartala","state":"Tripura","latitude":23.8315,"longitude":91.2868,"temp":28.5,"humidity":63,"rain":0.0,"pressure":1009.4,"uv_index":7.7,"wind_gusts":14.4,"aqi":169,"pm10":77.3,"pm2_5":66.4,"mosquito_risk":7,"arthritis_risk":0,"migraine_risk":4,"frizz_risk":1,"updated_at":"2026-03-10T17:05:48.974870+05:30"},{"city":"Shillong","state":"Meghalaya","latitude":25.5788,"longitude":91.8933,"temp":16.0,"humidity":77,"rain":0.0,"pressure":859.5,"uv_index":6.75,"wind_gusts":18.4,"aqi":151,"pm10":55.2,"pm2_5":49.2,"mosquito_risk":3,"arthritis_risk":5,"migraine_risk":7,"frizz_risk":0,"updated_at":"2026-03-10T17:05:48.974877+05:30"},{"city":"Imphal","state":"Manipur","latitude":24.817,"longitude":93.9368,"temp":21.5,"humidity":63,"rain":0.0,"pressure":926.3,"uv_index":6.2,"wind_gusts":30.6,"aqi":154,"pm10":49.7,"pm2_5":45.5,"mosquito_risk":3,"arthritis_risk":5,"migraine_risk":7,"frizz_risk":0,"updated_at":"2026-03-10T17:05:48.974884+05:30"},{"city":"Aizawl","state":"Mizoram","latitude":23.7271,"longitude":92.7176,"temp":22.5,"humidity":56,"rain":0.0,"pressure":895.9,"uv_index":7.85,"wind_gusts":27.7,"aqi":150,"pm10":56.5,"pm2_5":46.3,"mosquito_risk":0,"arthritis_risk":5,"migraine_risk":7,"frizz_risk":0,"updated_at":"2026-03-10T17:05:48.974913+05:30"},{"city":"Kohima","state":"Nagaland","latitude":25.6701,"longitude":94.1077,"temp":16.5,"humidity":87,"rain":0.0,"pressure":857.9,"uv_index":6.8,"wind_gusts":50.0,"aqi":137,"pm10":49.0,"pm2_5":45.2,"mosquito_risk":3,"arthritis_risk":10,"migraine_risk":7,"frizz_risk":0,"updated_at":"2026-03-10T17:05:48.974922+05:30"},{"city":"Gangtok","state":"Sikkim","latitude":27.3314,"longitude":88.6138,"temp":19.1,"humidity":59,"rain":0.0,"pressure":842.0,"uv_index":6.25,"wind_gusts":18.7,"aqi":151,"pm10":70.5,"pm2_5":58.4,"mosquito_risk":0,"arthritis_risk":5,"migraine_risk":7,"frizz_risk":0,"updated_at":"2026-03-10T17:05:48.974929+05:30"},{"city":"Siliguri","state":"West Bengal","latitude":26.7271,"longitude":88.3953,"temp":26.2,"humidity":58,"rain":0.0,"pressure":997.9,"uv_index":7.3,"wind_gusts":21.2,"aqi":164,"pm10":76.8,"pm2_5":64.7,"mosquito_risk":4,"arthritis_risk":5,"migraine_risk":7,"frizz_risk":1,"updated_at":"2026-03-10T17:05:52.193756+05:30"},{"city":"Durgapur","state":"West Bengal","latitude":23.5204,"longitude":87.3119,"temp":26.7,"humidity":71,"rain":0.0,"pressure":999.3,"uv_index":7.85,"wind_gusts":19.4,"aqi":155,"pm10":85.4,"pm2_5":73.3,"mosquito_risk":7,"arthritis_risk":5,"migraine_risk":7,"frizz_risk":1,"updated_at":"2026-03-10T17:05:52.193789+05:30"},{"city":"Asansol","state":"West Bengal","latitude":23.6739,"longitude":86.9524,"temp":28.2,"humidity":64,"rain":0.0,"pressure":997.6,"uv_index":7.9,"wind_gusts":19.1,"aqi":159,"pm10":96.2,"pm2_5":82.7,"mosquito_risk":7,"arthritis_risk":5,"migraine_risk":7,"frizz_risk":1,"updated_at":"2026-03-10T17:05:52.193801+05:30"},{"city":"Pondicherry","state":"Puducherry","latitude":11.9139,"longitude":79.8145,"temp":29.4,"humidity":63,"rain":0.0,"pressure":1010.8,"uv_index":8.95,"wind_gusts":37.8,"aqi":81,"pm10":21.0,"pm2_5":15.2,"mosquito_risk":7,"arthritis_risk":0,"migraine_risk":4,"frizz_risk":1,"updated_at":"2026-03-10T17:05:52.193810+05:30"},{"city":"Port Blair","state":"Andaman and Nicobar Islands","latitude":11.6234,"longitude":92.7265,"temp":29.3,"humidity":69,"rain":0.0,"pressure":1008.7,"uv_index":8.95,"wind_gusts":29.2,"aqi":72,"pm10":22.1,"pm2_5":19.5,"mosquito_risk":7,"arthritis_risk":0,"migraine_risk":4,"frizz_risk":1,"updated_at":"2026-03-10T17:05:52.193820+05:30"},{"city":"Haridwar","state":"Uttarakhand","latitude":29.9457,"longitude":78.1642,"temp":29.5,"humidity":60,"rain":0.0,"pressure":979.2,"uv_index":5.85,"wind_gusts":22.3,"aqi":155,"pm10":100.1,"pm2_5":58.0,"mosquito_risk":4,"arthritis_risk":5,"migraine_risk":3,"frizz_risk":1,"updated_at":"2026-03-10T17:05:52.193828+05:30"},{"city":"Rishikesh","state":"Uttarakhand","latitude":30.0869,"longitude":78.2676,"temp":28.5,"humidity":61,"rain":0.0,"pressure":972.1,"uv_index":5.9,"wind_gusts":23.0,"aqi":152,"pm10":100.6,"pm2_5":61.0,"mosquito_risk":7,"arthritis_risk":5,"migraine_risk":3,"frizz_risk":1,"updated_at":"2026-03-10T17:05:52.193837+05:30"},{"city":"Nainital","state":"Uttarakhand","latitude":29.3919,"longitude":79.4542,"temp":21.1,"humidity":67,"rain":0.0,"pressure":811.3,"uv_index":6.75,"wind_gusts":56.9,"aqi":174,"pm10":135.5,"pm2_5":98.3,"mosquito_risk":3,"arthritis_risk":5,"migraine_risk":7,"frizz_risk":0,"updated_at":"2026-03-10T17:05:52.193846+05:30"},{"city":"Mussoorie","state":"Uttarakhand","latitude":30.4599,"longitude":78.0664,"temp":20.1,"humidity":69,"rain":0.0,"pressure":808.3,"uv_index":6.25,"wind_gusts":38.9,"aqi":143,"pm10":101.5,"pm2_5":61.5,"mosquito_risk":3,"arthritis_risk":5,"migraine_risk":7,"frizz_risk":0,"updated_at":"2026-03-10T17:05:52.193854+05:30"},{"city":"Dharamshala","state":"Himachal Pradesh","latitude":32.219,"longitude":76.3234,"temp":24.2,"humidity":56,"rain":0.0,"pressure":874.9,"uv_index":6.45,"wind_gusts":20.5,"aqi":58,"pm10":29.7,"pm2_5":12.2,"mosquito_risk":0,"arthritis_risk":5,"migraine_risk":7,"frizz_risk":0,"updated_at":"2026-03-10T17:05:52.193863+05:30"},{"city":"Dalhousie","state":"Himachal Pradesh","latitude":32.5387,"longitude":75.971,"temp":22.5,"humidity":45,"rain":0.0,"pressure":810.0,"uv_index":6.15,"wind_gusts":18.4,"aqi":89,"pm10":45.5,"pm2_5":20.3,"mosquito_risk":0,"arthritis_risk":5,"migraine_risk":7,"frizz_risk":0,"updated_at":"2026-03-10T17:05:52.193873+05:30"},{"city":"Patiala","state":"Punjab","latitude":30.3398,"longitude":76.3869,"temp":30.4,"humidity":57,"rain":0.0,"pressure":983.1,"uv_index":5.9,"wind_gusts":14.4,"aqi":170,"pm10":178.8,"pm2_5":65.0,"mosquito_risk":0,"arthritis_risk":5,"migraine_risk":3,"frizz_risk":1,"updated_at":"2026-03-10T17:05:52.193881+05:30"},{"city":"Bhatinda","state":"Punjab","latitude":30.211,"longitude":74.9455,"temp":31.8,"humidity":45,"rain":0.0,"pressure":988.2,"uv_index":6.45,"wind_gusts":16.9,"aqi":154,"pm10":82.9,"pm2_5":34.6,"mosquito_risk":0,"arthritis_risk":5,"migraine_risk":7,"frizz_risk":1,"updated_at":"2026-03-10T17:05:52.193916+05:30"},{"city":"Rohtak","state":"Haryana","latitude":28.8955,"longitude":76.6066,"temp":31.3,"humidity":40,"rain":0.0,"pressure":986.4,"uv_index":5.75,"wind_gusts":20.2,"aqi":481,"pm10":272.9,"pm2_5":52.0,"mosquito_risk":0,"arthritis_risk":5,"migraine_risk":3,"frizz_risk":1,"updated_at":"2026-03-10T17:05:52.193926+05:30"},{"city":"Panipat","state":"Haryana","latitude":29.3909,"longitude":76.9635,"temp":30.1,"humidity":53,"rain":0.0,"pressure":985.2,"uv_index":5.9,"wind_gusts":18.0,"aqi":498,"pm10":334.3,"pm2_5":66.8,"mosquito_risk":0,"arthritis_risk":5,"migraine_risk":3,"frizz_risk":1,"updated_at":"2026-03-10T17:05:52.193934+05:30"},{"city":"Mathura","state":"Uttar Pradesh","latitude":27.4924,"longitude":77.6737,"temp":34.2,"humidity":26,"rain":0.0,"pressure":991.2,"uv_index":6.35,"wind_gusts":23.0,"aqi":380,"pm10":402.3,"pm2_5":69.2,"mosquito_risk":0,"arthritis_risk":5,"migraine_risk":7,"frizz_risk":0,"updated_at":"2026-03-10T17:05:52.193942+05:30"},{"city":"Vrindavan","state":"Uttar Pradesh","latitude":27.5823,"longitude":77.7027,"temp":33.9,"humidity":30,"rain":0.0,"pressure":991.6,"uv_index":6.3,"wind_gusts":24.1,"aqi":380,"pm10":402.3,"pm2_5":69.2,"mosquito_risk":0,"arthritis_risk":5,"migraine_risk":7,"frizz_risk":0,"updated_at":"2026-03-10T17:05:52.193950+05:30"},{"city":"Ayodhya","state":"Uttar Pradesh","latitude":26.7922,"longitude":82.1998,"temp":30.8,"humidity":52,"rain":0.0,"pressure":999.5,"uv_index":6.75,"wind_gusts":19.4,"aqi":190,"pm10":116.9,"pm2_5":99.7,"mosquito_risk":0,"arthritis_risk":5,"migraine_risk":7,"frizz_risk":1,"updated_at":"2026-03-10T17:05:52.193957+05:30"},{"city":"Ratlam","state":"Madhya Pradesh","latitude":23.3315,"longitude":75.0367,"temp":35.6,"humidity":18,"rain":0.0,"pressure":957.8,"uv_index":7.55,"wind_gusts":18.7,"aqi":94,"pm10":16.2,"pm2_5":7.6,"mosquito_risk":0,"arthritis_risk":5,"migraine_risk":10,"frizz_risk":0,"updated_at":"2026-03-10T17:05:52.193965+05:30"},{"city":"Sagar","state":"Madhya Pradesh","latitude":23.8388,"longitude":78.7378,"temp":34.1,"humidity":22,"rain":0.0,"pressure":953.7,"uv_index":7.5,"wind_gusts":21.2,"aqi":95,"pm10":33.4,"pm2_5":13.4,"mosquito_risk":0,"arthritis_risk":5,"migraine_risk":7,"frizz_risk":0,"updated_at":"2026-03-10T17:05:52.193973+05:30"},{"city":"Satna","state":"Madhya Pradesh","latitude":24.6005,"longitude":80.8322,"temp":34.4,"humidity":24,"rain":0.0,"pressure":974.8,"uv_index":7.5,"wind_gusts":24.5,"aqi":137,"pm10":73.1,"pm2_5":31.7,"mosquito_risk":0,"arthritis_risk":5,"migraine_risk":7,"frizz_risk":0,"updated_at":"2026-03-10T17:05:52.193981+05:30"},{"city":"Akola","state":"Maharashtra","latitude":20.7002,"longitude":77.0082,"temp":37.9,"humidity":17,"rain":0.0,"pressure":976.6,"uv_index":8.0,"wind_gusts":16.9,"aqi":109,"pm10":14.1,"pm2_5":8.7,"mosquito_risk":0,"arthritis_risk":5,"migraine_risk":10,"frizz_risk":0,"updated_at":"2026-03-10T17:05:52.193990+05:30"},{"city":"Amravati","state":"Maharashtra","latitude":20.9374,"longitude":77.7796,"temp":37.2,"humidity":17,"rain":0.0,"pressure":969.2,"uv_index":7.95,"wind_gusts":19.1,"aqi":98,"pm10":13.3,"pm2_5":7.4,"mosquito_risk":0,"arthritis_risk":5,"migraine_risk":10,"frizz_risk":0,"updated_at":"2026-03-10T17:05:52.193999+05:30"},{"city":"Latur","state":"Maharashtra","latitude":18.4088,"longitude":76.5604,"temp":33.7,"humidity":24,"rain":0.0,"pressure":941.9,"uv_index":8.4,"wind_gusts":27.0,"aqi":146,"pm10":35.6,"pm2_5":28.6,"mosquito_risk":0,"arthritis_risk":5,"migraine_risk":7,"frizz_risk":0,"updated_at":"2026-03-10T17:05:52.194007+05:30"},{"city":"Nanded","state":"Maharashtra","latitude":19.1383,"longitude":77.3091,"temp":36.2,"humidity":24,"rain":0.0,"pressure":970.3,"uv_index":8.2,"wind_gusts":19.4,"aqi":129,"pm10":28.2,"pm2_5":21.5,"mosquito_risk":0,"arthritis_risk":5,"migraine_risk":10,"frizz_risk":0,"updated_at":"2026-03-10T17:05:52.194014+05:30"},{"city":"Gulbarga","state":"Karnataka","latitude":17.3297,"longitude":76.8343,"temp":35.5,"humidity":26,"rain":0.0,"pressure":960.0,"uv_index":8.5,"wind_gusts":30.6,"aqi":120,"pm10":53.2,"pm2_5":43.7,"mosquito_risk":0,"arthritis_risk":5,"migraine_risk":10,"frizz_risk":0,"updated_at":"2026-03-10T17:05:52.194022+05:30"},{"city":"Bidar","state":"Karnataka","latitude":17.9104,"longitude":77.5199,"temp":33.8,"humidity":27,"rain":0.0,"pressure":937.7,"uv_index":8.45,"wind_gusts":33.1,"aqi":135,"pm10":45.5,"pm2_5":36.4,"mosquito_risk":0,"arthritis_risk":5,"migraine_risk":7,"frizz_risk":0,"updated_at":"2026-03-10T17:05:52.194029+05:30"},{"city":"Hospet","state":"Karnataka","latitude":15.2689,"longitude":76.3909,"temp":33.9,"humidity":26,"rain":0.0,"pressure":956.9,"uv_index":8.8,"wind_gusts":36.0,"aqi":120,"pm10":49.2,"pm2_5":39.8,"mosquito_risk":0,"arthritis_risk":5,"migraine_risk":7,"frizz_risk":0,"updated_at":"2026-03-10T17:05:52.194037+05:30"},{"city":"Tirupur","state":"Tamil Nadu","latitude":11.1085,"longitude":77.3411,"temp":33.7,"humidity":29,"rain":0.0,"pressure":975.5,"uv_index":9.25,"wind_gusts":42.5,"aqi":129,"pm10":27.2,"pm2_5":23.1,"mosquito_risk":0,"arthritis_risk":5,"migraine_risk":7,"frizz_risk":0,"updated_at":"2026-03-10T17:05:52.194044+05:30"},{"city":"Alappuzha","state":"Kerala","latitude":9.4981,"longitude":76.3388,"temp":29.0,"humidity":73,"rain":0.0,"pressure":1007.7,"uv_index":9.05,"wind_gusts":33.5,"aqi":151,"pm10":56.3,"pm2_5":44.4,"mosquito_risk":7,"arthritis_risk":5,"migraine_risk":4,"frizz_risk":1,"updated_at":"2026-03-10T17:05:52.194052+05:30"},{"city":"Munnar","state":"Kerala","latitude":10.0889,"longitude":77.0595,"temp":28.6,"humidity":36,"rain":0.0,"pressure":858.6,"uv_index":9.55,"wind_gusts":33.8,"aqi":109,"pm10":19.3,"pm2_5":16.8,"mosquito_risk":4,"arthritis_risk":5,"migraine_risk":7,"frizz_risk":0,"updated_at":"2026-03-10T17:05:52.194060+05:30"},{"city":"Silchar","state":"Assam","latitude":24.8333,"longitude":92.7789,"temp":29.0,"humidity":61,"rain":0.0,"pressure":1007.9,"uv_index":7.65,"wind_gusts":14.0,"aqi":167,"pm10":70.3,"pm2_5":62.9,"mosquito_risk":7,"arthritis_risk":5,"migraine_risk":4,"frizz_risk":1,"updated_at":"2026-03-10T17:05:52.194068+05:30"},{"city":"Dibrugarh","state":"Assam","latitude":27.4728,"longitude":94.912,"temp":29.5,"humidity":57,"rain":0.0,"pressure":998.1,"uv_index":7.4,"wind_gusts":14.4,"aqi":164,"pm10":84.8,"pm2_5":73.8,"mosquito_risk":4,"arthritis_risk":5,"migraine_risk":7,"frizz_risk":1,"updated_at":"2026-03-10T17:05:52.194076+05:30"}]