[{"city":"Delhi","state":"Delhi","latitude":28.6139,"longitude":77.209,"temp":23.6,"humidity":65,"rain":0.0,"pressure":985.1,"uv_index":6.25,"wind_gusts":30.2,"aqi":300,"pm10":345.5,"pm2_5":85.7,"mosquito_risk":3,"arthritis_risk":5,"migraine_risk":7,"frizz_risk":1,"updated_at":"2026-03-30T22:30:44.018429+05:30"},{"city":"Mumbai","state":"Maharashtra","latitude":19.076,"longitude":72.8777,"temp":27.8,"humidity":87,"rain":0.0,"pressure":1009.4,"uv_index":8.05,"wind_gusts":26.6,"aqi":68,"pm10":53.8,"pm2_5":21.0,"mosquito_risk":7,"arthritis_risk":0,"migraine_risk":4,"frizz_risk":1,"updated_at":"2026-03-30T22:30:44.018469+05:30"},{"city":"Bangalore","state":"Karnataka","latitude":12.9716,"longitude":77.5946,"temp":25.1,"humidity":64,"rain":0.0,"pressure":912.6,"uv_index":8.7,"wind_gusts":29.2,"aqi":124,"pm10":25.3,"pm2_5":24.3,"mosquito_risk":7,"arthritis_risk":5,"migraine_risk":7,"frizz_risk":1,"updated_at":"2026-03-30T22:30:44.018485+05:30"},{"city":"Hyderabad","state":"Telangana","latitude":17.385,"longitude":78.4867,"temp":25.7,"humidity":76,"rain":0.0,"pressure":953.9,"uv_index":8.25,"wind_gusts":34.2,"aqi":126,"pm10":96.9,"pm2_5":86.1,"mosquito_risk":7,"arthritis_risk":5,"migraine_risk":7,"frizz_risk":1,"updated_at":"2026-03-30T22:30:44.018496+05:30"},{"city":"Chennai","state":"Tamil Nadu","latitude":13.0827,"longitude":80.2707,"temp":27.4,"humidity":82,"rain":0.0,"pressure":1008.5,"uv_index":9.3,"wind_gusts":32.0,"aqi":50,"pm10":14.3,"pm2_5":10.3,"mosquito_risk":7,"arthritis_risk":0,"migraine_risk":4,"frizz_risk":1,"updated_at":"2026-03-30T22:30:44.018504+05:30"},{"city":"Kolkata","state":"West Bengal","latitude":22.5726,"longitude":88.3639,"temp":27.1,"humidity":88,"rain":0.0,"pressure":1007.8,"uv_index":8.5,"wind_gusts":27.7,"aqi":91,"pm10":32.0,"pm2_5":27.7,"mosquito_risk":7,"arthritis_risk":5,"migraine_risk":4,"frizz_risk":1,"updated_at":"2026-03-30T22:30:44.018513+05:30"},{"city":"Pune","state":"Maharashtra","latitude":18.5204,"longitude":73.8567,"temp":25.8,"humidity":83,"rain":0.0,"pressure":949.4,"uv_index":8.55,"wind_gusts":36.4,"aqi":88,"pm10":49.8,"pm2_5":43.9,"mosquito_risk":7,"arthritis_risk":5,"migraine_risk":7,"frizz_risk":1,"updated_at":"2026-03-30T22:30:44.018521+05:30"},{"city":"Ahmedabad","state":"Gujarat","latitude":23.0225,"longitude":72.5714,"temp":29.2,"humidity":53,"rain":0.0,"pressure":1002.6,"uv_index":8.0,"wind_gusts":31.7,"aqi":56,"pm10":48.0,"pm2_5":27.6,"mosquito_risk":4,"arthritis_risk":5,"migraine_risk":4,"frizz_risk":1,"updated_at":"2026-03-30T22:30:44.018528+05:30"},{"city":"Jaipur","state":"Rajasthan","latitude":26.9124,"longitude":75.7873,"temp":24.2,"humidity":63,"rain":0.0,"pressure":961.9,"uv_index":6.5,"wind_gusts":46.1,"aqi":109,"pm10":169.5,"pm2_5":29.3,"mosquito_risk":3,"arthritis_risk":5,"migraine_risk":7,"frizz_risk":1,"updated_at":"2026-03-30T22:30:44.018539+05:30"},{"city":"Lucknow","state":"Uttar Pradesh","latitude":26.8467,"longitude":80.9462,"temp":29.1,"humidity":49,"rain":0.0,"pressure":993.9,"uv_index":7.3,"wind_gusts":18.7,"aqi":109,"pm10":385.6,"pm2_5":76.4,"mosquito_risk":4,"arthritis_risk":5,"migraine_risk":7,"frizz_risk":1,"updated_at":"2026-03-30T22:30:44.018546+05:30"},{"city":"Kanpur","state":"Uttar Pradesh","latitude":26.4499,"longitude":80.3319,"temp":26.9,"humidity":69,"rain":0.0,"pressure":992.4,"uv_index":7.3,"wind_gusts":18.4,"aqi":135,"pm10":875.4,"pm2_5":133.2,"mosquito_risk":7,"arthritis_risk":5,"migraine_risk":7,"frizz_risk":1,"updated_at":"2026-03-30T22:30:44.018552+05:30"},{"city":"Chandigarh","state":"Chandigarh","latitude":30.7333,"longitude":76.7794,"temp":23.9,"humidity":78,"rain":0.0,"pressure":971.0,"uv_index":6.0,"wind_gusts":16.6,"aqi":109,"pm10":208.6,"pm2_5":67.1,"mosquito_risk":3,"arthritis_risk":5,"migraine_risk":3,"frizz_risk":1,"updated_at":"2026-03-30T22:30:44.018560+05:30"},{"city":"Srinagar","state":"Jammu and Kashmir","latitude":34.0837,"longitude":74.7973,"temp":10.2,"humidity":94,"rain":0.0,"pressure":843.7,"uv_index":5.35,"wind_gusts":37.1,"aqi":84,"pm10":71.9,"pm2_5":42.5,"mosquito_risk":3,"arthritis_risk":10,"migraine_risk":3,"frizz_risk":0,"updated_at":"2026-03-30T22:30:44.018567+05:30"},{"city":"Jammu","state":"Jammu and Kashmir","latitude":32.7266,"longitude":74.857,"temp":20.3,"humidity":73,"rain":0.0,"pressure":975.4,"uv_index":6.15,"wind_gusts":45.7,"aqi":74,"pm10":62.6,"pm2_5":25.6,"mosquito_risk":3,"arthritis_risk":5,"migraine_risk":7,"frizz_risk":0,"updated_at":"2026-03-30T22:30:44.018574+05:30"},{"city":"Amritsar","state":"Punjab","latitude":31.634,"longitude":74.8723,"temp":21.1,"humidity":87,"rain":0.0,"pressure":982.6,"uv_index":5.3,"wind_gusts":50.8,"aqi":101,"pm10":75.7,"pm2_5":29.3,"mosquito_risk":3,"arthritis_risk":5,"migraine_risk":3,"frizz_risk":1,"updated_at":"2026-03-30T22:30:44.018581+05:30"},{"city":"Ludhiana","state":"Punjab","latitude":30.901,"longitude":75.8573,"temp":23.8,"humidity":71,"rain":0.0,"pressure":980.9,"uv_index":5.95,"wind_gusts":41.8,"aqi":151,"pm10":134.1,"pm2_5":54.6,"mosquito_risk":3,"arthritis_risk":5,"migraine_risk":3,"frizz_risk":1,"updated_at":"2026-03-30T22:30:44.018588+05:30"},{"city":"Jalandhar","state":"Punjab","latitude":31.326,"longitude":75.5762,"temp":22.6,"humidity":81,"rain":0.0,"pressure":982.0,"uv_index":4.7,"wind_gusts":33.1,"aqi":130,"pm10":82.9,"pm2_5":38.8,"mosquito_risk":3,"arthritis_risk":5,"migraine_risk":3,"frizz_risk":1,"updated_at":"2026-03-30T22:30:44.018595+05:30"},{"city":"Dehradun","state":"Uttarakhand","latitude":30.6284,"longitude":78.0322,"temp":15.1,"humidity":70,"rain":0.0,"pressure":831.4,"uv_index":6.1,"wind_gusts":26.6,"aqi":47,"pm10":34.1,"pm2_5":12.9,"mosquito_risk":3,"arthritis_risk":5,"migraine_risk":7,"frizz_risk":0,"updated_at":"2026-03-30T22:30:44.018601+05:30"},{"city":"Shimla","state":"Himachal Pradesh","latitude":31.1048,"longitude":77.1734,"temp":13.2,"humidity":73,"rain":0.0,"pressure":785.4,"uv_index":6.35,"wind_gusts":23.4,"aqi":56,"pm10":22.1,"pm2_5":13.8,"mosquito_risk":3,"arthritis_risk":5,"migraine_risk":7,"frizz_risk":0,"updated_at":"2026-03-30T22:30:44.018609+05:30"},{"city":"Manali","state":"Himachal Pradesh","latitude":32.2396,"longitude":77.1887,"temp":14.0,"humidity":61,"rain":0.0,"pressure":820.6,"uv_index":8.4,"wind_gusts":30.2,"aqi":66,"pm10":7.1,"pm2_5":4.6,"mosquito_risk":3,"arthritis_risk":5,"migraine_risk":7,"frizz_risk":0,"updated_at":"2026-03-30T22:30:44.018616+05:30"},{"city":"Gurgaon","state":"Haryana","latitude":28.4595,"longitude":77.0266,"temp":21.8,"humidity":75,"rain":0.0,"pressure":983.4,"uv_index":6.1,"wind_gusts":27.0,"aqi":1043,"pm10":336.2,"pm2_5":82.2,"mosquito_risk":3,"arthritis_risk":5,"migraine_risk":7,"frizz_risk":1,"updated_at":"2026-03-30T22:30:44.018623+05:30"},{"city":"Noida","state":"Uttar Pradesh","latitude":28.5355,"longitude":77.391,"temp":23.4,"humidity":66,"rain":0.0,"pressure":986.6,"uv_index":6.1,"wind_gusts":32.0,"aqi":1043,"pm10":336.2,"pm2_5":82.2,"mosquito_risk":3,"arthritis_risk":5,"migraine_risk":7,"frizz_risk":1,"updated_at":"2026-03-30T22:30:44.018629+05:30"},{"city":"Ghaziabad","state":"Uttar Pradesh","latitude":28.6692,"longitude":77.4538,"temp":22.7,"humidity":69,"rain":0.0,"pressure":984.6,"uv_index":6.1,"wind_gusts":31.3,"aqi":192,"pm10":405.1,"pm2_5":90.3,"mosquito_risk":3,"arthritis_risk":5,"migraine_risk":7,"frizz_risk":1,"updated_at":"2026-03-30T22:30:44.018635+05:30"},{"city":"Faridabad","state":"Haryana","latitude":28.4089,"longitude":77.3178,"temp":22.0,"humidity":68,"rain":0.0,"pressure":985.8,"uv_index":5.9,"wind_gusts":32.4,"aqi":1043,"pm10":336.2,"pm2_5":82.2,"mosquito_risk":3,"arthritis_risk":5,"migraine_risk":3,"frizz_risk":0,"updated_at":"2026-03-30T22:30:44.018642+05:30"},{"city":"Meerut","state":"Uttar Pradesh","latitude":28.9845,"longitude":77.7064,"temp":22.3,"humidity":70,"rain":0.0,"pressure":983.1,"uv_index":5.9,"wind_gusts":25.2,"aqi":192,"pm10":405.1,"pm2_5":90.3,"mosquito_risk":3,"arthritis_risk":5,"migraine_risk":3,"frizz_risk":1,"updated_at":"2026-03-30T22:30:44.018648+05:30"},{"city":"Agra","state":"Uttar Pradesh","latitude":27.1767,"longitude":78.0081,"temp":25.4,"humidity":52,"rain":0.0,"pressure":989.9,"uv_index":6.85,"wind_gusts":42.5,"aqi":603,"pm10":543.9,"pm2_5":85.9,"mosquito_risk":4,"arthritis_risk":5,"migraine_risk":7,"frizz_risk":0,"updated_at":"2026-03-30T22:30:44.018657+05:30"},{"city":"Varanasi","state":"Uttar Pradesh","latitude":25.3176,"longitude":82.9739,"temp":27.7,"humidity":57,"rain":0.0,"pressure":998.3,"uv_index":7.95,"wind_gusts":24.8,"aqi":95,"pm10":74.3,"pm2_5":57.7,"mosquito_risk":4,"arthritis_risk":5,"migraine_risk":7,"frizz_risk":1,"updated_at":"2026-03-30T22:30:44.018664+05:30"},{"city":"Prayagraj","state":"Uttar Pradesh","latitude":25.4358,"longitude":81.8463,"temp":27.7,"humidity":59,"rain":0.0,"pressure":996.8,"uv_index":7.85,"wind_gusts":26.6,"aqi":100,"pm10":77.5,"pm2_5":58.6,"mosquito_risk":4,"arthritis_risk":5,"migraine_risk":7,"frizz_risk":1,"updated_at":"2026-03-30T22:30:44.018670+05:30"},{"city":"Gorakhpur","state":"Uttar Pradesh","latitude":26.7606,"longitude":83.3732,"temp":25.4,"humidity":72,"rain":0.0,"pressure":997.6,"uv_index":7.65,"wind_gusts":25.9,"aqi":148,"pm10":91.7,"pm2_5":67.1,"mosquito_risk":7,"arthritis_risk":5,"migraine_risk":7,"frizz_risk":1,"updated_at":"2026-03-30T22:30:44.018679+05:30"},{"city":"Bareilly","state":"Uttar Pradesh","latitude":28.367,"longitude":79.4304,"temp":24.8,"humidity":73,"rain":0.0,"pressure":987.5,"uv_index":6.3,"wind_gusts":20.9,"aqi":111,"pm10":161.1,"pm2_5":53.2,"mosquito_risk":3,"arthritis_risk":5,"migraine_risk":7,"frizz_risk":1,"updated_at":"2026-03-30T22:30:44.018685+05:30"},{"city":"Aligarh","state":"Uttar Pradesh","latitude":27.8974,"longitude":78.088,"temp":23.0,"humidity":67,"rain":0.0,"pressure":986.9,"uv_index":6.35,"wind_gusts":36.4,"aqi":617,"pm10":754.4,"pm2_5":133.2,"mosquito_risk":3,"arthritis_risk":5,"migraine_risk":7,"frizz_risk":1,"updated_at":"2026-03-30T22:30:44.018691+05:30"},{"city":"Moradabad","state":"Uttar Pradesh","latitude":28.8386,"longitude":78.7733,"temp":24.3,"humidity":76,"rain":0.0,"pressure":984.7,"uv_index":6.35,"wind_gusts":21.2,"aqi":151,"pm10":246.8,"pm2_5":70.8,"mosquito_risk":3,"arthritis_risk":5,"migraine_risk":7,"frizz_risk":1,"updated_at":"2026-03-30T22:30:44.018697+05:30"},{"city":"Saharanpur","state":"Uttar Pradesh","latitude":29.9637,"longitude":77.546,"temp":22.6,"humidity":85,"rain":0.0,"pressure":977.5,"uv_index":6.1,"wind_gusts":17.6,"aqi":133,"pm10":482.4,"pm2_5":107.8,"mosquito_risk":3,"arthritis_risk":5,"migraine_risk":7,"frizz_risk":1,"updated_at":"2026-03-30T22:30:44.018703+05:30"},{"city":"Jhansi","state":"Uttar Pradesh","latitude":25.4484,"longitude":78.5685,"temp":27.1,"humidity":50,"rain":0.0,"pressure":979.5,"uv_index":7.1,"wind_gusts":36.0,"aqi":55,"pm10":27.7,"pm2_5":14.0,"mosquito_risk":4,"arthritis_risk":5,"migraine_risk":7,"frizz_risk":0,"updated_at":"2026-03-30T22:30:48.972964+05:30"},{"city":"Surat","state":"Gujarat","latitude":21.1702,"longitude":72.8311,"temp":27.6,"humidity":79,"rain":0.0,"pressure":1007.3,"uv_index":7.8,"wind_gusts":27.0,"aqi":106,"pm10":46.4,"pm2_5":31.3,"mosquito_risk":7,"arthritis_risk":5,"migraine_risk":4,"frizz_risk":1,"updated_at":"2026-03-30T22:30:48.972995+05:30"},{"city":"Vadodara","state":"Gujarat","latitude":22.3072,"longitude":73.1812,"temp":29.6,"humidity":62,"rain":0.0,"pressure":1004.4,"uv_index":8.0,"wind_gusts":29.5,"aqi":72,"pm10":54.1,"pm2_5":34.9,"mosquito_risk":7,"arthritis_risk":5,"migraine_risk":4,"frizz_risk":1,"updated_at":"2026-03-30T22:30:48.973006+05:30"},{"city":"Rajkot","state":"Gujarat","latitude":22.3039,"longitude":70.8022,"temp":26.6,"humidity":72,"rain":0.0,"pressure":995.5,"uv_index":7.8,"wind_gusts":34.9,"aqi":56,"pm10":28.2,"pm2_5":14.2,"mosquito_risk":7,"arthritis_risk":5,"migraine_risk":7,"frizz_risk":1,"updated_at":"2026-03-30T22:30:48.973016+05:30"},{"city":"Thane","state":"Maharashtra","latitude":19.2183,"longitude":72.9781,"temp":27.4,"humidity":84,"rain":0.0,"pressure":1008.8,"uv_index":8.05,"wind_gusts":39.2,"aqi":68,"pm10":53.8,"pm2_5":21.0,"mosquito_risk":7,"arthritis_risk":0,"migraine_risk":4,"frizz_risk":1,"updated_at":"2026-03-30T22:30:48.973024+05:30"},{"city":"Nagpur","state":"Maharashtra","latitude":21.1458,"longitude":79.0882,"temp":27.9,"humidity":59,"rain":0.0,"pressure":973.6,"uv_index":8.55,"wind_gusts":28.4,"aqi":65,"pm10":45.3,"pm2_5":38.4,"mosquito_risk":4,"arthritis_risk":5,"migraine_risk":7,"frizz_risk":1,"updated_at":"2026-03-30T22:30:48.973032+05:30"},{"city":"Nashik","state":"Maharashtra","latitude":19.9975,"longitude":73.7898,"temp":25.4,"humidity":78,"rain":0.0,"pressure":946.5,"uv_index":8.25,"wind_gusts":32.0,"aqi":68,"pm10":40.5,"pm2_5":31.1,"mosquito_risk":7,"arthritis_risk":5,"migraine_risk":7,"frizz_risk":1,"updated_at":"2026-03-30T22:30:48.973040+05:30"},{"city":"Aurangabad","state":"Maharashtra","latitude":19.8762,"longitude":75.3433,"temp":24.6,"humidity":70,"rain":0.0,"pressure":945.8,"uv_index":8.75,"wind_gusts":53.3,"aqi":67,"pm10":26.1,"pm2_5":21.1,"mosquito_risk":3,"arthritis_risk":5,"migraine_risk":7,"frizz_risk":1,"updated_at":"2026-03-30T22:30:48.973048+05:30"},{"city":"Solapur","state":"Maharashtra","latitude":17.6599,"longitude":75.9064,"temp":28.6,"humidity":50,"rain":0.0,"pressure":958.5,"uv_index":8.85,"wind_gusts":43.6,"aqi":101,"pm10":45.3,"pm2_5":40.4,"mosquito_risk":4,"arthritis_risk":5,"migraine_risk":7,"frizz_risk":1,"updated_at":"2026-03-30T22:30:48.973056+05:30"},{"city":"Kolhapur","state":"Maharashtra","latitude":16.705,"longitude":74.2433,"temp":24.6,"humidity":88,"rain":0.0,"pressure":948.9,"uv_index":8.55,"wind_gusts":38.9,"aqi":94,"pm10":35.0,"pm2_5":31.2,"mosquito_risk":3,"arthritis_risk":5,"migraine_risk":7,"frizz_risk":1,"updated_at":"2026-03-30T22:30:48.973064+05:30"},{"city":"Goa","state":"Goa","latitude":15.2993,"longitude":74.124,"temp":28.6,"humidity":79,"rain":0.0,"pressure":999.0,"uv_index":8.95,"wind_gusts":30.2,"aqi":58,"pm10":31.3,"pm2_5":23.3,"mosquito_risk":7,"arthritis_risk":5,"migraine_risk":7,"frizz_risk":1,"updated_at":"2026-03-30T22:30:48.973072+05:30"},{"city":"Jodhpur","state":"Rajasthan","latitude":26.2389,"longitude":73.0243,"temp":26.0,"humidity":61,"rain":0.0,"pressure":984.3,"uv_index":7.8,"wind_gusts":37.4,"aqi":106,"pm10":104.5,"pm2_5":21.8,"mosquito_risk":7,"arthritis_risk":5,"migraine_risk":7,"frizz_risk":1,"updated_at":"2026-03-30T22:30:48.973080+05:30"},{"city":"Udaipur","state":"Rajasthan","latitude":24.5854,"longitude":73.7125,"temp":24.0,"humidity":56,"rain":0.0,"pressure":948.0,"uv_index":8.15,"wind_gusts":51.5,"aqi":46,"pm10":34.2,"pm2_5":14.3,"mosquito_risk":0,"arthritis_risk":5,"migraine_risk":7,"frizz_risk":0,"updated_at":"2026-03-30T22:30:48.973087+05:30"},{"city":"Kota","state":"Rajasthan","latitude":25.2138,"longitude":75.8648,"temp":26.7,"humidity":56,"rain":0.0,"pressure":980.6,"uv_index":7.1,"wind_gusts":26.6,"aqi":46,"pm10":25.6,"pm2_5":14.5,"mosquito_risk":4,"arthritis_risk":5,"migraine_risk":7,"frizz_risk":1,"updated_at":"2026-03-30T22:30:48.973095+05:30"},{"city":"Bikaner","state":"Rajasthan","latitude":28.0229,"longitude":73.3119,"temp":27.9,"humidity":45,"rain":0.0,"pressure":982.6,"uv_index":6.85,"wind_gusts":45.4,"aqi":110,"pm10":77.1,"pm2_5":25.6,"mosquito_risk":4,"arthritis_risk":5,"migraine_risk":7,"frizz_risk":0,"updated_at":"2026-03-30T22:30:48.973103+05:30"},{"city":"Ajmer","state":"Rajasthan","latitude":26.4499,"longitude":74.6399,"temp":23.6,"humidity":65,"rain":0.0,"pressure":956.2,"uv_index":7.25,"wind_gusts":37.4,"aqi":48,"pm10":18.5,"pm2_5":10.7,"mosquito_risk":3,"arthritis_risk":5,"migraine_risk":7,"frizz_risk":1,"updated_at":"2026-03-30T22:30:48.973112+05:30"},{"city":"Gwalior","state":"Madhya Pradesh","latitude":26.2183,"longitude":78.1828,"temp":27.6,"humidity":54,"rain":0.0,"pressure":984.7,"uv_index":6.25,"wind_gusts":38.9,"aqi":67,"pm10":36.0,"pm2_5":16.0,"mosquito_risk":4,"arthritis_risk":5,"migraine_risk":7,"frizz_risk":1,"updated_at":"2026-03-30T22:30:48.973141+05:30"},{"city":"Indore","state":"Madhya Pradesh","latitude":22.7196,"longitude":75.8577,"temp":24.7,"humidity":66,"rain":0.0,"pressure":949.0,"uv_index":8.1,"wind_gusts":24.1,"aqi":50,"pm10":29.2,"pm2_5":18.4,"mosquito_risk":3,"arthritis_risk":5,"migraine_risk":7,"frizz_risk":1,"updated_at":"2026-03-30T22:30:48.973150+05:30"},{"city":"Bhopal","state":"Madhya Pradesh","latitude":23.2599,"longitude":77.4126,"temp":27.8,"humidity":48,"rain":0.0,"pressure":954.7,"uv_index":8.2,"wind_gusts":29.2,"aqi":51,"pm10":18.4,"pm2_5":9.3,"mosquito_risk":4,"arthritis_risk":5,"migraine_risk":7,"frizz_risk":0,"updated_at":"2026-03-30T22:30:48.973158+05:30"},{"city":"Jabalpur","state":"Madhya Pradesh","latitude":23.1815,"longitude":79.9864,"temp":27.0,"humidity":55,"rain":0.0,"pressure":963.1,"uv_index":8.35,"wind_gusts":29.5,"aqi":50,"pm10":30.3,"pm2_5":20.7,"mosquito_risk":4,"arthritis_risk":5,"migraine_risk":7,"frizz_risk":1,"updated_at":"2026-03-30T22:30:48.973165+05:30"},{"city":"Ujjain","state":"Madhya Pradesh","latitude":23.1765,"longitude":75.7885,"temp":25.9,"humidity":60,"rain":0.0,"pressure":954.8,"uv_index":7.7,"wind_gusts":27.0,"aqi":52,"pm10":39.6,"pm2_5":27.2,"mosquito_risk":4,"arthritis_risk":5,"migraine_risk":7,"frizz_risk":1,"updated_at":"2026-03-30T22:30:48.973174+05:30"},{"city":"Visakhapatnam","state":"Andhra Pradesh","latitude":17.6868,"longitude":83.2185,"temp":27.0,"humidity":84,"rain":0.0,"pressure":1005.4,"uv_index":8.95,"wind_gusts":43.6,"aqi":61,"pm10":19.4,"pm2_5":15.0,"mosquito_risk":7,"arthritis_risk":5,"migraine_risk":4,"frizz_risk":1,"updated_at":"2026-03-30T22:30:48.973182+05:30"},{"city":"Vijayawada","state":"Andhra Pradesh","latitude":16.5062,"longitude":80.648,"temp":26.7,"humidity":83,"rain":0.0,"pressure":1004.2,"uv_index":9.05,"wind_gusts":32.0,"aqi":63,"pm10":15.4,"pm2_5":12.8,"mosquito_risk":7,"arthritis_risk":5,"migraine_risk":4,"frizz_risk":1,"updated_at":"2026-03-30T22:30:48.973190+05:30"},{"city":"Guntur","state":"Andhra Pradesh","latitude":16.3067,"longitude":80.4365,"temp":26.6,"humidity":87,"rain":0.0,"pressure":1005.3,"uv_index":9.05,"wind_gusts":34.2,"aqi":69,"pm10":15.9,"pm2_5":13.6,"mosquito_risk":7,"arthritis_risk":5,"migraine_risk":4,"frizz_risk":1,"updated_at":"2026-03-30T22:30:48.973198+05:30"},{"city":"Nellore","state":"Andhra Pradesh","latitude":14.4426,"longitude":79.9865,"temp":27.2,"humidity":84,"rain":0.0,"pressure":1006.9,"uv_index":9.2,"wind_gusts":32.4,"aqi":59,"pm10":12.6,"pm2_5":9.5,"mosquito_risk":7,"arthritis_risk":5,"migraine_risk":4,"frizz_risk":1,"updated_at":"2026-03-30T22:30:48.973207+05:30"},{"city":"Kurnool","state":"Andhra Pradesh","latitude":15.8281,"longitude":78.0373,"temp":31.0,"humidity":54,"rain":0.0,"pressure":976.7,"uv_index":9.05,"wind_gusts":24.5,"aqi":121,"pm10":50.8,"pm2_5":43.5,"mosquito_risk":0,"arthritis_risk":5,"migraine_risk":7,"frizz_risk":1,"updated_at":"2026-03-30T22:30:48.973215+05:30"},{"city":"Kakinada","state":"Andhra Pradesh","latitude":16.9891,"longitude":82.2475,"temp":25.5,"humidity":87,"rain":0.0,"pressure":1009.4,"uv_index":9.0,"wind_gusts":34.6,"aqi":51,"pm10":14.7,"pm2_5":10.0,"mosquito_risk":7,"arthritis_risk":0,"migraine_risk":4,"frizz_risk":1,"updated_at":"2026-03-30T22:30:48.973223+05:30"},{"city":"Tirupati","state":"Andhra Pradesh","latitude":13.6288,"longitude":79.4192,"temp":27.8,"humidity":65,"rain":0.0,"pressure":993.0,"uv_index":9.3,"wind_gusts":36.4,"aqi":81,"pm10":26.2,"pm2_5":24.5,"mosquito_risk":7,"arthritis_risk":5,"migraine_risk":7,"frizz_risk":1,"updated_at":"2026-03-30T22:30:48.973231+05:30"},{"city":"Warangal","state":"Telangana","latitude":17.9689,"longitude":79.5941,"temp":29.7,"humidity":64,"rain":0.0,"pressure":979.4,"uv_index":8.9,"wind_gusts":27.0,"aqi":115,"pm10":45.3,"pm2_5":41.2,"mosquito_risk":7,"arthritis_risk":5,"migraine_risk":7,"frizz_risk":1,"updated_at":"2026-03-30T22:30:48.973238+05:30"},{"city":"Nizamabad","state":"Telangana","latitude":18.6725,"longitude":78.0941,"temp":25.9,"humidity":76,"rain":0.0,"pressure":967.5,"uv_index":8.8,"wind_gusts":43.6,"aqi":84,"pm10":43.5,"pm2_5":40.4,"mosquito_risk":7,"arthritis_risk":5,"migraine_risk":7,"frizz_risk":1,"updated_at":"2026-03-30T22:30:48.973246+05:30"},{"city":"Mysore","state":"Karnataka","latitude":12.2958,"longitude":76.6396,"temp":24.2,"humidity":84,"rain":0.0,"pressure":929.2,"uv_index":9.45,"wind_gusts":21.6,"aqi":128,"pm10":39.2,"pm2_5":37.1,"mosquito_risk":3,"arthritis_risk":5,"migraine_risk":7,"frizz_risk":1,"updated_at":"2026-03-30T22:30:48.973254+05:30"},{"city":"Mangalore","state":"Karnataka","latitude":12.9141,"longitude":74.856,"temp":30.2,"humidity":76,"rain":0.0,"pressure":1007.2,"uv_index":4.85,"wind_gusts":23.0,"aqi":63,"pm10":27.1,"pm2_5":23.3,"mosquito_risk":3,"arthritis_risk":5,"migraine_risk":0,"frizz_risk":1,"updated_at":"2026-03-30T22:30:48.973261+05:30"},{"city":"Hubli-Dharwad","state":"Karnataka","latitude":15.3647,"longitude":75.124,"temp":25.1,"humidity":80,"rain":0.0,"pressure":941.8,"uv_index":8.1,"wind_gusts":30.6,"aqi":96,"pm10":13.0,"pm2_5":12.1,"mosquito_risk":7,"arthritis_risk":5,"migraine_risk":7,"frizz_risk":1,"updated_at":"2026-03-30T22:30:48.973269+05:30"},{"city":"Belgaum","state":"Karnataka","latitude":15.8497,"longitude":74.4977,"temp":23.3,"humidity":93,"rain":0.0,"pressure":926.4,"uv_index":9.2,"wind_gusts":31.7,"aqi":99,"pm10":26.2,"pm2_5":22.8,"mosquito_risk":3,"arthritis_risk":5,"migraine_risk":7,"frizz_risk":1,"updated_at":"2026-03-30T22:30:52.973295+05:30"},{"city":"Coimbatore","state":"Tamil Nadu","latitude":11.0168,"longitude":76.9558,"temp":25.5,"humidity":85,"rain":0.0,"pressure":962.6,"uv_index":9.45,"wind_gusts":36.4,"aqi":94,"pm10":58.9,"pm2_5":55.4,"mosquito_risk":7,"arthritis_risk":5,"migraine_risk":7,"frizz_risk":1,"updated_at":"2026-03-30T22:30:52.973330+05:30"},{"city":"Madurai","state":"Tamil Nadu","latitude":9.9252,"longitude":78.1198,"temp":27.8,"humidity":80,"rain":0.0,"pressure":994.6,"uv_index":9.4,"wind_gusts":30.6,"aqi":72,"pm10":19.3,"pm2_5":18.1,"mosquito_risk":7,"arthritis_risk":5,"migraine_risk":7,"frizz_risk":1,"updated_at":"2026-03-30T22:30:52.973344+05:30"},{"city":"Trichy","state":"Tamil Nadu","latitude":10.7905,"longitude":78.7047,"temp":27.3,"humidity":81,"rain":0.0,"pressure":1001.0,"uv_index":9.35,"wind_gusts":25.6,"aqi":63,"pm10":16.9,"pm2_5":16.0,"mosquito_risk":7,"arthritis_risk":5,"migraine_risk":4,"frizz_risk":1,"updated_at":"2026-03-30T22:30:52.973356+05:30"},{"city":"Salem","state":"Tamil Nadu","latitude":11.6643,"longitude":78.146,"temp":29.6,"humidity":49,"rain":0.0,"pressure":977.8,"uv_index":9.45,"wind_gusts":25.6,"aqi":80,"pm10":22.2,"pm2_5":21.1,"mosquito_risk":4,"arthritis_risk":5,"migraine_risk":7,"frizz_risk":1,"updated_at":"2026-03-30T22:30:52.973367+05:30"},{"city":"Tirunelveli","state":"Tamil Nadu","latitude":8.7139,"longitude":77.7567,"temp":27.1,"humidity":75,"rain":0.0,"pressure":1004.4,"uv_index":9.35,"wind_gusts":52.2,"aqi":79,"pm10":27.5,"pm2_5":25.7,"mosquito_risk":7,"arthritis_risk":5,"migraine_risk":4,"frizz_risk":1,"updated_at":"2026-03-30T22:30:52.973377+05:30"},{"city":"Vellore","state":"Tamil Nadu","latitude":12.9165,"longitude":79.1325,"temp":26.6,"humidity":70,"rain":0.0,"pressure":985.9,"uv_index":9.35,"wind_gusts":33.5,"aqi":93,"pm10":38.6,"pm2_5":37.0,"mosquito_risk":7,"arthritis_risk":5,"migraine_risk":7,"frizz_risk":1,"updated_at":"2026-03-30T22:30:52.973388+05:30"},{"city":"Erode","state":"Tamil Nadu","latitude":11.341,"longitude":77.7172,"temp":29.9,"humidity":57,"rain":0.0,"pressure":989.5,"uv_index":9.4,"wind_gusts":25.2,"aqi":73,"pm10":15.0,"pm2_5":14.2,"mosquito_risk":4,"arthritis_risk":5,"migraine_risk":7,"frizz_risk":1,"updated_at":"2026-03-30T22:30:52.973399+05:30"},{"city":"Kochi","state":"Kerala","latitude":9.9312,"longitude":76.2673,"temp":29.3,"humidity":80,"rain":0.0,"pressure":1009.2,"uv_index":9.2,"wind_gusts":27.0,"aqi":101,"pm10":53.9,"pm2_5":52.2,"mosquito_risk":7,"arthritis_risk":0,"migraine_risk":4,"frizz_risk":1,"updated_at":"2026-03-30T22:30:52.973409+05:30"},{"city":"Thiruvananthapuram","state":"Kerala","latitude":8.5241,"longitude":76.9366,"temp":28.8,"humidity":81,"rain":0.0,"pressure":1008.8,"uv_index":9.2,"wind_gusts":33.1,"aqi":90,"pm10":28.4,"pm2_5":23.2,"mosquito_risk":7,"arthritis_risk":0,"migraine_risk":4,"frizz_risk":1,"updated_at":"2026-03-30T22:30:52.973419+05:30"},{"city":"Kozhikode","state":"Kerala","latitude":11.2588,"longitude":75.7804,"temp":29.8,"humidity":80,"rain":0.0,"pressure":1007.9,"uv_index":9.1,"wind_gusts":28.4,"aqi":100,"pm10":34.3,"pm2_5":26.5,"mosquito_risk":7,"arthritis_risk":5,"migraine_risk":4,"frizz_risk":1,"updated_at":"2026-03-30T22:30:52.973427+05:30"},{"city":"Thrissur","state":"Kerala","latitude":10.5276,"longitude":76.2144,"temp":28.7,"humidity":85,"rain":0.0,"pressure":1007.3,"uv_index":9.15,"wind_gusts":30.6,"aqi":106,"pm10":61.2,"pm2_5":57.2,"mosquito_risk":7,"arthritis_risk":5,"migraine_risk":4,"frizz_risk":1,"updated_at":"2026-03-30T22:30:52.973435+05:30"},{"city":"Kannur","state":"Kerala","latitude":11.8745,"longitude":75.3704,"temp":29.5,"humidity":77,"rain":0.0,"pressure":1007.5,"uv_index":8.5,"wind_gusts":24.8,"aqi":108,"pm10":51.1,"pm2_5":46.8,"mosquito_risk":7,"arthritis_risk":5,"migraine_risk":4,"frizz_risk":1,"updated_at":"2026-03-30T22:30:52.973443+05:30"},{"city":"Patna","state":"Bihar","latitude":25.5941,"longitude":85.1376,"temp":26.3,"humidity":79,"rain":0.0,"pressure":1001.5,"uv_index":8.1,"wind_gusts":30.6,"aqi":154,"pm10":90.3,"pm2_5":76.1,"mosquito_risk":7,"arthritis_risk":5,"migraine_risk":4,"frizz_risk":1,"updated_at":"2026-03-30T22:30:52.973451+05:30"},{"city":"Gaya","state":"Bihar","latitude":24.7914,"longitude":85.0002,"temp":26.2,"humidity":81,"rain":0.0,"pressure":994.8,"uv_index":8.2,"wind_gusts":23.4,"aqi":105,"pm10":66.4,"pm2_5":51.3,"mosquito_risk":7,"arthritis_risk":5,"migraine_risk":7,"frizz_risk":1,"updated_at":"2026-03-30T22:30:52.973459+05:30"},{"city":"Muzaffarpur","state":"Bihar","latitude":26.1209,"longitude":85.3647,"temp":24.3,"humidity":83,"rain":0.0,"pressure":1001.9,"uv_index":8.05,"wind_gusts":29.2,"aqi":158,"pm10":108.3,"pm2_5":90.1,"mosquito_risk":3,"arthritis_risk":5,"migraine_risk":4,"frizz_risk":1,"updated_at":"2026-03-30T22:30:52.973467+05:30"},{"city":"Bhagalpur","state":"Bihar","latitude":25.2425,"longitude":87.0117,"temp":24.0,"humidity":91,"rain":0.0,"pressure":1003.4,"uv_index":8.05,"wind_gusts":19.4,"aqi":156,"pm10":75.4,"pm2_5":70.5,"mosquito_risk":3,"arthritis_risk":5,"migraine_risk":4,"frizz_risk":1,"updated_at":"2026-03-30T22:30:52.973475+05:30"},{"city":"Ranchi","state":"Jharkhand","latitude":23.3441,"longitude":85.3096,"temp":24.5,"humidity":74,"rain":0.0,"pressure":938.8,"uv_index":8.75,"wind_gusts":25.9,"aqi":103,"pm10":36.6,"pm2_5":25.8,"mosquito_risk":3,"arthritis_risk":5,"migraine_risk":7,"frizz_risk":1,"updated_at":"2026-03-30T22:30:52.973482+05:30"},{"city":"Jamshedpur","state":"Jharkhand","latitude":22.8046,"longitude":86.2029,"temp":27.9,"humidity":75,"rain":0.0,"pressure":991.8,"uv_index":8.6,"wind_gusts":27.7,"aqi":124,"pm10":42.6,"pm2_5":36.4,"mosquito_risk":7,"arthritis_risk":5,"migraine_risk":7,"frizz_risk":1,"updated_at":"2026-03-30T22:30:52.973490+05:30"},{"city":"Dhanbad","state":"Jharkhand","latitude":23.7957,"longitude":86.4304,"temp":26.8,"humidity":73,"rain":0.0,"pressure":981.3,"uv_index":8.5,"wind_gusts":28.1,"aqi":164,"pm10":67.5,"pm2_5":61.5,"mosquito_risk":7,"arthritis_risk":5,"migraine_risk":7,"frizz_risk":1,"updated_at":"2026-03-30T22:30:52.973498+05:30"},{"city":"Bokaro","state":"Jharkhand","latitude":23.6693,"longitude":86.1511,"temp":25.6,"humidity":74,"rain":0.0,"pressure":985.5,"uv_index":8.5,"wind_gusts":23.0,"aqi":159,"pm10":65.9,"pm2_5":55.8,"mosquito_risk":7,"arthritis_risk":5,"migraine_risk":7,"frizz_risk":1,"updated_at":"2026-03-30T22:30:52.973506+05:30"},{"city":"Bhubaneswar","state":"Odisha","latitude":20.2961,"longitude":85.8245,"temp":27.1,"humidity":84,"rain":0.0,"pressure":1004.1,"uv_index":8.8,"wind_gusts":38.9,"aqi":65,"pm10":19.3,"pm2_5":15.7,"mosquito_risk":7,"arthritis_risk":5,"migraine_risk":4,"frizz_risk":1,"updated_at":"2026-03-30T22:30:52.973514+05:30"},{"city":"Cuttack","state":"Odisha","latitude":20.4625,"longitude":85.8828,"temp":27.2,"humidity":85,"rain":0.0,"pressure":1006.1,"uv_index":8.8,"wind_gusts":32.8,"aqi":65,"pm10":19.3,"pm2_5":15.7,"mosquito_risk":7,"arthritis_risk":5,"migraine_risk":4,"frizz_risk":1,"updated_at":"2026-03-30T22:30:52.973522+05:30"},{"city":"Rourkela","state":"Odisha","latitude":22.2604,"longitude":84.8536,"temp":26.6,"humidity":78,"rain":0.0,"pressure":985.9,"uv_index":8.5,"wind_gusts":52.6,"aqi":101,"pm10":52.6,"pm2_5":44.9,"mosquito_risk":7,"arthritis_risk":5,"migraine_risk":7,"frizz_risk":1,"updated_at":"2026-03-30T22:30:52.973529+05:30"},{"city":"Raipur","state":"Chhattisgarh","latitude":21.2514,"longitude":81.6296,"temp":29.4,"humidity":49,"rain":0.0,"pressure":975.3,"uv_index":8.6,"wind_gusts":32.8,"aqi":99,"pm10":48.9,"pm2_5":41.3,"mosquito_risk":4,"arthritis_risk":5,"migraine_risk":7,"frizz_risk":1,"updated_at":"2026-03-30T22:30:52.973536+05:30"},{"city":"Bhilai","state":"Chhattisgarh","latitude":21.1938,"longitude":81.3509,"temp":28.1,"humidity":56,"rain":0.0,"pressure":975.6,"uv_index":8.65,"wind_gusts":31.3,"aqi":76,"pm10":37.5,"pm2_5":29.9,"mosquito_risk":4,"arthritis_risk":5,"migraine_risk":7,"frizz_risk":1,"updated_at":"2026-03-30T22:30:52.973544+05:30"},{"city":"Guwahati","state":"Assam","latitude":26.1158,"longitude":91.7086,"temp":22.3,"humidity":93,"rain":0.0,"pressure":1004.8,"uv_index":7.35,"wind_gusts":27.7,"aqi":99,"pm10":48.7,"pm2_5":42.3,"mosquito_risk":3,"arthritis_risk":5,"migraine_risk":4,"frizz_risk":1,"updated_at":"2026-03-30T22:30:52.973551+05:30"},{"city":"Agartala","state":"Tripura","latitude":23.8315,"longitude":91.2868,"temp":24.0,"humidity":92,"rain":0.0,"pressure":1009.4,"uv_index":8.3,"wind_gusts":29.9,"aqi":117,"pm10":46.9,"pm2_5":40.9,"mosquito_risk":3,"arthritis_risk":0,"migraine_risk":4,"frizz_risk":1,"updated_at":"2026-03-30T22:30:52.973559+05:30"},{"city":"Shillong","state":"Meghalaya","latitude":25.5788,"longitude":91.8933,"temp":12.9,"humidity":90,"rain":0.0,"pressure":856.8,"uv_index":6.25,"wind_gusts":42.1,"aqi":98,"pm10":42.3,"pm2_5":38.4,"mosquito_risk":3,"arthritis_risk":10,"migraine_risk":7,"frizz_risk":0,"updated_at":"2026-03-30T22:30:52.973567+05:30"},{"city":"Imphal","state":"Manipur","latitude":24.817,"longitude":93.9368,"temp":17.2,"humidity":87,"rain":0.0,"pressure":925.4,"uv_index":7.75,"wind_gusts":58.7,"aqi":144,"pm10":34.1,"pm2_5":29.5,"mosquito_risk":3,"arthritis_risk":10,"migraine_risk":7,"frizz_risk":0,"updated_at":"2026-03-30T22:30:52.973576+05:30"},{"city":"Aizawl","state":"Mizoram","latitude":23.7271,"longitude":92.7176,"temp":18.0,"humidity":93,"rain":0.0,"pressure":894.8,"uv_index":8.45,"wind_gusts":50.8,"aqi":119,"pm10":45.4,"pm2_5":37.6,"mosquito_risk":3,"arthritis_risk":10,"migraine_risk":7,"frizz_risk":1,"updated_at":"2026-03-30T22:30:52.973584+05:30"},{"city":"Kohima","state":"Nagaland","latitude":25.6701,"longitude":94.1077,"temp":14.2,"humidity":91,"rain":0.0,"pressure":856.3,"uv_index":8.45,"wind_gusts":77.8,"aqi":117,"pm10":25.2,"pm2_5":20.1,"mosquito_risk":3,"arthritis_risk":10,"migraine_risk":7,"frizz_risk":0,"updated_at":"2026-03-30T22:30:52.973591+05:30"},{"city":"Gangtok","state":"Sikkim","latitude":27.3314,"longitude":88.6138,"temp":13.5,"humidity":93,"rain":0.0,"pressure":838.0,"uv_index":7.55,"wind_gusts":21.2,"aqi":93,"pm10":45.2,"pm2_5":38.3,"mosquito_risk":3,"arthritis_risk":10,"migraine_risk":7,"frizz_risk":0,"updated_at":"2026-03-30T22:30:52.973599+05:30"},{"city":"Siliguri","state":"West Bengal","latitude":26.7271,"longitude":88.3953,"temp":19.2,"humidity":86,"rain":0.0,"pressure":996.9,"uv_index":7.45,"wind_gusts":14.8,"aqi":154,"pm10":88.9,"pm2_5":70.5,"mosquito_risk":3,"arthritis_risk":10,"migraine_risk":7,"frizz_risk":1,"updated_at":"2026-03-30T22:30:56.663350+05:30"},{"city":"Durgapur","state":"West Bengal","latitude":23.5204,"longitude":87.3119,"temp":26.4,"humidity":82,"rain":0.0,"pressure":997.0,"uv_index":8.5,"wind_gusts":25.2,"aqi":157,"pm10":47.1,"pm2_5":42.8,"mosquito_risk":7,"arthritis_risk":5,"migraine_risk":7,"frizz_risk":1,"updated_at":"2026-03-30T22:30:56.663379+05:30"},{"city":"Asansol","state":"West Bengal","latitude":23.6739,"longitude":86.9524,"temp":25.3,"humidity":80,"rain":0.0,"pressure":995.4,"uv_index":8.5,"wind_gusts":22.3,"aqi":158,"pm10":53.9,"pm2_5":48.5,"mosquito_risk":7,"arthritis_risk":5,"migraine_risk":7,"frizz_risk":1,"updated_at":"2026-03-30T22:30:56.663391+05:30"},{"city":"Pondicherry","state":"Puducherry","latitude":11.9139,"longitude":79.8145,"temp":25.7,"humidity":92,"rain":0.0,"pressure":1009.6,"uv_index":9.25,"wind_gusts":27.7,"aqi":45,"pm10":13.1,"pm2_5":9.1,"mosquito_risk":7,"arthritis_risk":0,"migraine_risk":4,"frizz_risk":1,"updated_at":"2026-03-30T22:30:56.663400+05:30"},{"city":"Port Blair","state":"Andaman and Nicobar Islands","latitude":11.6234,"longitude":92.7265,"temp":28.8,"humidity":77,"rain":0.0,"pressure":1008.6,"uv_index":9.2,"wind_gusts":15.1,"aqi":60,"pm10":12.0,"pm2_5":8.9,"mosquito_risk":7,"arthritis_risk":0,"migraine_risk":4,"frizz_risk":1,"updated_at":"2026-03-30T22:30:56.663408+05:30"},{"city":"Haridwar","state":"Uttarakhand","latitude":29.9457,"longitude":78.1642,"temp":23.5,"humidity":77,"rain":0.0,"pressure":975.9,"uv_index":5.75,"wind_gusts":21.2,"aqi":97,"pm10":308.3,"pm2_5":77.5,"mosquito_risk":3,"arthritis_risk":5,"migraine_risk":3,"frizz_risk":1,"updated_at":"2026-03-30T22:30:56.663416+05:30"},{"city":"Rishikesh","state":"Uttarakhand","latitude":30.0869,"longitude":78.2676,"temp":22.3,"humidity":74,"rain":0.0,"pressure":968.7,"uv_index":5.8,"wind_gusts":24.8,"aqi":76,"pm10":108.0,"pm2_5":34.3,"mosquito_risk":3,"arthritis_risk":5,"migraine_risk":3,"frizz_risk":1,"updated_at":"2026-03-30T22:30:56.663424+05:30"},{"city":"Nainital","state":"Uttarakhand","latitude":29.3919,"longitude":79.4542,"temp":20.0,"humidity":44,"rain":0.0,"pressure":807.6,"uv_index":7.3,"wind_gusts":47.9,"aqi":98,"pm10":105.9,"pm2_5":38.8,"mosquito_risk":0,"arthritis_risk":5,"migraine_risk":7,"frizz_risk":0,"updated_at":"2026-03-30T22:30:56.663432+05:30"},{"city":"Mussoorie","state":"Uttarakhand","latitude":30.4599,"longitude":78.0664,"temp":16.6,"humidity":63,"rain":0.0,"pressure":804.0,"uv_index":6.2,"wind_gusts":34.2,"aqi":76,"pm10":121.1,"pm2_5":40.9,"mosquito_risk":3,"arthritis_risk":5,"migraine_risk":7,"frizz_risk":0,"updated_at":"2026-03-30T22:30:56.663440+05:30"},{"city":"Dharamshala","state":"Himachal Pradesh","latitude":32.219,"longitude":76.3234,"temp":18.4,"humidity":71,"rain":0.0,"pressure":870.8,"uv_index":6.05,"wind_gusts":36.4,"aqi":42,"pm10":16.2,"pm2_5":7.4,"mosquito_risk":3,"arthritis_risk":5,"migraine_risk":7,"frizz_risk":0,"updated_at":"2026-03-30T22:30:56.663448+05:30"},{"city":"Dalhousie","state":"Himachal Pradesh","latitude":32.5387,"longitude":75.971,"temp":12.9,"humidity":78,"rain":0.0,"pressure":804.7,"uv_index":5.75,"wind_gusts":42.5,"aqi":64,"pm10":49.1,"pm2_5":25.9,"mosquito_risk":3,"arthritis_risk":5,"migraine_risk":3,"frizz_risk":0,"updated_at":"2026-03-30T22:30:56.663456+05:30"},{"city":"Patiala","state":"Punjab","latitude":30.3398,"longitude":76.3869,"temp":22.2,"humidity":72,"rain":0.0,"pressure":980.3,"uv_index":5.4,"wind_gusts":25.6,"aqi":363,"pm10":189.1,"pm2_5":54.0,"mosquito_risk":3,"arthritis_risk":5,"migraine_risk":3,"frizz_risk":1,"updated_at":"2026-03-30T22:30:56.663464+05:30"},{"city":"Bhatinda","state":"Punjab","latitude":30.211,"longitude":74.9455,"temp":22.9,"humidity":70,"rain":0.0,"pressure":985.5,"uv_index":4.15,"wind_gusts":38.9,"aqi":154,"pm10":123.4,"pm2_5":27.2,"mosquito_risk":3,"arthritis_risk":5,"migraine_risk":3,"frizz_risk":1,"updated_at":"2026-03-30T22:30:56.663472+05:30"},{"city":"Rohtak","state":"Haryana","latitude":28.8955,"longitude":76.6066,"temp":21.8,"humidity":77,"rain":0.0,"pressure":983.8,"uv_index":6.65,"wind_gusts":34.2,"aqi":424,"pm10":230.5,"pm2_5":70.1,"mosquito_risk":3,"arthritis_risk":5,"migraine_risk":7,"frizz_risk":1,"updated_at":"2026-03-30T22:30:56.663480+05:30"},{"city":"Panipat","state":"Haryana","latitude":29.3909,"longitude":76.9635,"temp":20.9,"humidity":74,"rain":0.0,"pressure":982.3,"uv_index":6.6,"wind_gusts":25.9,"aqi":638,"pm10":735.7,"pm2_5":116.6,"mosquito_risk":3,"arthritis_risk":5,"migraine_risk":7,"frizz_risk":1,"updated_at":"2026-03-30T22:30:56.663487+05:30"},{"city":"Mathura","state":"Uttar Pradesh","latitude":27.4924,"longitude":77.6737,"temp":24.1,"humidity":62,"rain":0.0,"pressure":989.2,"uv_index":6.2,"wind_gusts":39.6,"aqi":511,"pm10":425.6,"pm2_5":88.2,"mosquito_risk":3,"arthritis_risk":5,"migraine_risk":7,"frizz_risk":1,"updated_at":"2026-03-30T22:30:56.663495+05:30"},{"city":"Vrindavan","state":"Uttar Pradesh","latitude":27.5823,"longitude":77.7027,"temp":23.4,"humidity":66,"rain":0.0,"pressure":989.3,"uv_index":6.45,"wind_gusts":40.0,"aqi":511,"pm10":425.6,"pm2_5":88.2,"mosquito_risk":3,"arthritis_risk":5,"migraine_risk":7,"frizz_risk":1,"updated_at":"2026-03-30T22:30:56.663502+05:30"},{"city":"Ayodhya","state":"Uttar Pradesh","latitude":26.7922,"longitude":82.1998,"temp":27.5,"humidity":62,"rain":0.0,"pressure":995.6,"uv_index":7.45,"wind_gusts":25.2,"aqi":138,"pm10":60.5,"pm2_5":31.8,"mosquito_risk":7,"arthritis_risk":5,"migraine_risk":7,"frizz_risk":1,"updated_at":"2026-03-30T22:30:56.663509+05:30"},{"city":"Ratlam","state":"Madhya Pradesh","latitude":23.3315,"longitude":75.0367,"temp":26.2,"humidity":64,"rain":0.0,"pressure":955.5,"uv_index":8.15,"wind_gusts":38.2,"aqi":52,"pm10":38.6,"pm2_5":26.1,"mosquito_risk":7,"arthritis_risk":5,"migraine_risk":7,"frizz_risk":1,"updated_at":"2026-03-30T22:30:56.663516+05:30"},{"city":"Sagar","state":"Madhya Pradesh","latitude":23.8388,"longitude":78.7378,"temp":27.9,"humidity":45,"rain":0.0,"pressure":951.4,"uv_index":8.15,"wind_gusts":32.0,"aqi":49,"pm10":30.6,"pm2_5":13.1,"mosquito_risk":4,"arthritis_risk":5,"migraine_risk":7,"frizz_risk":0,"updated_at":"2026-03-30T22:30:56.663524+05:30"},{"city":"Satna","state":"Madhya Pradesh","latitude":24.6005,"longitude":80.8322,"temp":25.4,"humidity":65,"rain":0.0,"pressure":972.7,"uv_index":8.15,"wind_gusts":66.2,"aqi":68,"pm10":143.9,"pm2_5":31.2,"mosquito_risk":7,"arthritis_risk":5,"migraine_risk":7,"frizz_risk":1,"updated_at":"2026-03-30T22:30:56.663531+05:30"},{"city":"Akola","state":"Maharashtra","latitude":20.7002,"longitude":77.0082,"temp":28.9,"humidity":56,"rain":0.0,"pressure":976.2,"uv_index":8.5,"wind_gusts":42.5,"aqi":55,"pm10":24.5,"pm2_5":19.1,"mosquito_risk":4,"arthritis_risk":5,"migraine_risk":7,"frizz_risk":1,"updated_at":"2026-03-30T22:30:56.663539+05:30"},{"city":"Amravati","state":"Maharashtra","latitude":20.9374,"longitude":77.7796,"temp":28.9,"humidity":49,"rain":0.0,"pressure":967.9,"uv_index":8.5,"wind_gusts":24.8,"aqi":49,"pm10":22.4,"pm2_5":18.0,"mosquito_risk":4,"arthritis_risk":5,"migraine_risk":7,"frizz_risk":1,"updated_at":"2026-03-30T22:30:56.663547+05:30"},{"city":"Latur","state":"Maharashtra","latitude":18.4088,"longitude":76.5604,"temp":25.1,"humidity":64,"rain":0.0,"pressure":941.7,"uv_index":8.6,"wind_gusts":33.1,"aqi":92,"pm10":38.2,"pm2_5":34.6,"mosquito_risk":7,"arthritis_risk":5,"migraine_risk":7,"frizz_risk":1,"updated_at":"2026-03-30T22:30:56.663554+05:30"},{"city":"Nanded","state":"Maharashtra","latitude":19.1383,"longitude":77.3091,"temp":24.6,"humidity":79,"rain":0.0,"pressure":971.1,"uv_index":8.7,"wind_gusts":48.2,"aqi":57,"pm10":38.6,"pm2_5":34.6,"mosquito_risk":3,"arthritis_risk":5,"migraine_risk":7,"frizz_risk":1,"updated_at":"2026-03-30T22:30:56.663562+05:30"},{"city":"Gulbarga","state":"Karnataka","latitude":17.3297,"longitude":76.8343,"temp":28.3,"humidity":55,"rain":0.0,"pressure":960.0,"uv_index":8.85,"wind_gusts":38.9,"aqi":115,"pm10":66.1,"pm2_5":57.5,"mosquito_risk":4,"arthritis_risk":5,"migraine_risk":7,"frizz_risk":1,"updated_at":"2026-03-30T22:30:56.663569+05:30"},{"city":"Bidar","state":"Karnataka","latitude":17.9104,"longitude":77.5199,"temp":25.1,"humidity":70,"rain":0.0,"pressure":937.5,"uv_index":8.9,"wind_gusts":45.0,"aqi":116,"pm10":55.3,"pm2_5":50.3,"mosquito_risk":7,"arthritis_risk":5,"migraine_risk":7,"frizz_risk":1,"updated_at":"2026-03-30T22:30:56.663576+05:30"},{"city":"Hospet","state":"Karnataka","latitude":15.2689,"longitude":76.3909,"temp":29.2,"humidity":63,"rain":0.0,"pressure":956.5,"uv_index":9.1,"wind_gusts":16.9,"aqi":118,"pm10":63.6,"pm2_5":57.0,"mosquito_risk":7,"arthritis_risk":5,"migraine_risk":7,"frizz_risk":1,"updated_at":"2026-03-30T22:30:56.663584+05:30"},{"city":"Tirupur","state":"Tamil Nadu","latitude":11.1085,"longitude":77.3411,"temp":28.0,"humidity":74,"rain":0.0,"pressure":976.0,"uv_index":9.45,"wind_gusts":27.0,"aqi":84,"pm10":36.6,"pm2_5":34.6,"mosquito_risk":7,"arthritis_risk":5,"migraine_risk":7,"frizz_risk":1,"updated_at":"2026-03-30T22:30:56.663591+05:30"},{"city":"Alappuzha","state":"Kerala","latitude":9.4981,"longitude":76.3388,"temp":29.0,"humidity":81,"rain":0.0,"pressure":1009.4,"uv_index":9.2,"wind_gusts":27.0,"aqi":98,"pm10":46.2,"pm2_5":42.3,"mosquito_risk":7,"arthritis_risk":0,"migraine_risk":4,"frizz_risk":1,"updated_at":"2026-03-30T22:30:56.663598+05:30"},{"city":"Munnar","state":"Kerala","latitude":10.0889,"longitude":77.0595,"temp":22.1,"humidity":90,"rain":0.0,"pressure":857.9,"uv_index":8.7,"wind_gusts":36.4,"aqi":82,"pm10":41.4,"pm2_5":39.5,"mosquito_risk":3,"arthritis_risk":5,"migraine_risk":7,"frizz_risk":1,"updated_at":"2026-03-30T22:30:56.663606+05:30"},{"city":"Silchar","state":"Assam","latitude":24.8333,"longitude":92.7789,"temp":23.9,"humidity":91,"rain":0.0,"pressure":1008.2,"uv_index":8.3,"wind_gusts":25.9,"aqi":140,"pm10":43.0,"pm2_5":34.9,"mosquito_risk":3,"arthritis_risk":0,"migraine_risk":4,"frizz_risk":1,"updated_at":"2026-03-30T22:30:56.663614+05:30"},{"city":"Dibrugarh","state":"Assam","latitude":27.4728,"longitude":94.912,"temp":22.7,"humidity":84,"rain":0.0,"pressure":999.6,"uv_index":5.75,"wind_gusts":10.1,"aqi":92,"pm10":36.9,"pm2_5":34.0,"mosquito_risk":3,"arthritis_risk":5,"migraine_risk":3,"frizz_risk":1,"updated_at":"2026-03-30T22:30:56.663621+05:30"}]