[{"city":"Delhi","state":"Delhi","latitude":28.6139,"longitude":77.209,"temp":22.6,"humidity":61,"rain":0.0,"pressure":985.0,"uv_index":6.6,"wind_gusts":24.8,"aqi":199,"pm10":581.1,"pm2_5":117.1,"mosquito_risk":3,"arthritis_risk":5,"migraine_risk":7,"frizz_risk":0,"updated_at":"2026-03-25T00:37:42.642335+05:30"},{"city":"Mumbai","state":"Maharashtra","latitude":19.076,"longitude":72.8777,"temp":28.5,"humidity":76,"rain":0.0,"pressure":1008.0,"uv_index":7.9,"wind_gusts":22.0,"aqi":103,"pm10":32.4,"pm2_5":24.1,"mosquito_risk":7,"arthritis_risk":0,"migraine_risk":4,"frizz_risk":1,"updated_at":"2026-03-25T00:37:42.642373+05:30"},{"city":"Bangalore","state":"Karnataka","latitude":12.9716,"longitude":77.5946,"temp":23.6,"humidity":71,"rain":0.0,"pressure":912.2,"uv_index":9.5,"wind_gusts":24.1,"aqi":78,"pm10":24.7,"pm2_5":22.4,"mosquito_risk":3,"arthritis_risk":5,"migraine_risk":7,"frizz_risk":1,"updated_at":"2026-03-25T00:37:42.642389+05:30"},{"city":"Hyderabad","state":"Telangana","latitude":17.385,"longitude":78.4867,"temp":24.3,"humidity":73,"rain":0.0,"pressure":954.2,"uv_index":9.0,"wind_gusts":22.0,"aqi":83,"pm10":39.6,"pm2_5":34.6,"mosquito_risk":3,"arthritis_risk":5,"migraine_risk":7,"frizz_risk":1,"updated_at":"2026-03-25T00:37:42.642399+05:30"},{"city":"Chennai","state":"Tamil Nadu","latitude":13.0827,"longitude":80.2707,"temp":26.5,"humidity":80,"rain":0.0,"pressure":1008.9,"uv_index":9.2,"wind_gusts":31.7,"aqi":34,"pm10":10.6,"pm2_5":7.4,"mosquito_risk":7,"arthritis_risk":0,"migraine_risk":4,"frizz_risk":1,"updated_at":"2026-03-25T00:37:42.642407+05:30"},{"city":"Kolkata","state":"West Bengal","latitude":22.5726,"longitude":88.3639,"temp":24.8,"humidity":92,"rain":0.0,"pressure":1007.3,"uv_index":8.4,"wind_gusts":24.1,"aqi":125,"pm10":28.2,"pm2_5":21.7,"mosquito_risk":3,"arthritis_risk":5,"migraine_risk":4,"frizz_risk":1,"updated_at":"2026-03-25T00:37:42.642416+05:30"},{"city":"Pune","state":"Maharashtra","latitude":18.5204,"longitude":73.8567,"temp":24.8,"humidity":62,"rain":0.0,"pressure":948.4,"uv_index":8.5,"wind_gusts":38.5,"aqi":96,"pm10":47.6,"pm2_5":40.2,"mosquito_risk":3,"arthritis_risk":5,"migraine_risk":7,"frizz_risk":1,"updated_at":"2026-03-25T00:37:42.642428+05:30"},{"city":"Ahmedabad","state":"Gujarat","latitude":23.0225,"longitude":72.5714,"temp":27.2,"humidity":47,"rain":0.0,"pressure":1002.3,"uv_index":7.65,"wind_gusts":23.8,"aqi":67,"pm10":40.9,"pm2_5":24.6,"mosquito_risk":4,"arthritis_risk":5,"migraine_risk":4,"frizz_risk":0,"updated_at":"2026-03-25T00:37:42.642435+05:30"},{"city":"Jaipur","state":"Rajasthan","latitude":26.9124,"longitude":75.7873,"temp":24.2,"humidity":46,"rain":0.0,"pressure":961.0,"uv_index":7.35,"wind_gusts":32.4,"aqi":107,"pm10":290.6,"pm2_5":49.5,"mosquito_risk":0,"arthritis_risk":5,"migraine_risk":7,"frizz_risk":0,"updated_at":"2026-03-25T00:37:42.642443+05:30"},{"city":"Lucknow","state":"Uttar Pradesh","latitude":26.8467,"longitude":80.9462,"temp":23.0,"humidity":64,"rain":0.0,"pressure":995.1,"uv_index":7.15,"wind_gusts":34.9,"aqi":112,"pm10":242.1,"pm2_5":60.8,"mosquito_risk":3,"arthritis_risk":5,"migraine_risk":7,"frizz_risk":0,"updated_at":"2026-03-25T00:37:42.642451+05:30"},{"city":"Kanpur","state":"Uttar Pradesh","latitude":26.4499,"longitude":80.3319,"temp":22.6,"humidity":68,"rain":0.0,"pressure":993.3,"uv_index":7.15,"wind_gusts":26.6,"aqi":135,"pm10":299.9,"pm2_5":64.3,"mosquito_risk":3,"arthritis_risk":5,"migraine_risk":7,"frizz_risk":1,"updated_at":"2026-03-25T00:37:42.642458+05:30"},{"city":"Chandigarh","state":"Chandigarh","latitude":30.7333,"longitude":76.7794,"temp":18.2,"humidity":75,"rain":0.0,"pressure":970.3,"uv_index":6.15,"wind_gusts":29.9,"aqi":78,"pm10":25.0,"pm2_5":22.7,"mosquito_risk":3,"arthritis_risk":5,"migraine_risk":7,"frizz_risk":0,"updated_at":"2026-03-25T00:37:42.642465+05:30"},{"city":"Srinagar","state":"Jammu and Kashmir","latitude":34.0837,"longitude":74.7973,"temp":7.2,"humidity":65,"rain":0.0,"pressure":838.7,"uv_index":7.4,"wind_gusts":13.0,"aqi":71,"pm10":51.7,"pm2_5":41.4,"mosquito_risk":3,"arthritis_risk":5,"migraine_risk":7,"frizz_risk":0,"updated_at":"2026-03-25T00:37:42.642472+05:30"},{"city":"Jammu","state":"Jammu and Kashmir","latitude":32.7266,"longitude":74.857,"temp":19.0,"humidity":82,"rain":0.0,"pressure":974.5,"uv_index":6.75,"wind_gusts":21.2,"aqi":70,"pm10":42.5,"pm2_5":40.2,"mosquito_risk":3,"arthritis_risk":10,"migraine_risk":7,"frizz_risk":0,"updated_at":"2026-03-25T00:37:42.642480+05:30"},{"city":"Amritsar","state":"Punjab","latitude":31.634,"longitude":74.8723,"temp":20.4,"humidity":65,"rain":0.0,"pressure":982.8,"uv_index":5.85,"wind_gusts":22.0,"aqi":123,"pm10":88.9,"pm2_5":80.8,"mosquito_risk":3,"arthritis_risk":5,"migraine_risk":3,"frizz_risk":0,"updated_at":"2026-03-25T00:37:42.642487+05:30"},{"city":"Ludhiana","state":"Punjab","latitude":30.901,"longitude":75.8573,"temp":20.4,"humidity":67,"rain":0.0,"pressure":980.8,"uv_index":6.3,"wind_gusts":22.0,"aqi":139,"pm10":64.5,"pm2_5":60.8,"mosquito_risk":3,"arthritis_risk":5,"migraine_risk":7,"frizz_risk":0,"updated_at":"2026-03-25T00:37:42.642494+05:30"},{"city":"Jalandhar","state":"Punjab","latitude":31.326,"longitude":75.5762,"temp":19.9,"humidity":70,"rain":0.0,"pressure":981.9,"uv_index":6.65,"wind_gusts":22.3,"aqi":120,"pm10":58.8,"pm2_5":54.6,"mosquito_risk":3,"arthritis_risk":5,"migraine_risk":7,"frizz_risk":0,"updated_at":"2026-03-25T00:37:42.642503+05:30"},{"city":"Dehradun","state":"Uttarakhand","latitude":30.6284,"longitude":78.0322,"temp":10.7,"humidity":89,"rain":0.0,"pressure":828.0,"uv_index":7.0,"wind_gusts":22.7,"aqi":62,"pm10":30.6,"pm2_5":23.8,"mosquito_risk":3,"arthritis_risk":10,"migraine_risk":7,"frizz_risk":0,"updated_at":"2026-03-25T00:37:42.642509+05:30"},{"city":"Shimla","state":"Himachal Pradesh","latitude":31.1048,"longitude":77.1734,"temp":7.5,"humidity":83,"rain":0.0,"pressure":780.9,"uv_index":7.05,"wind_gusts":39.6,"aqi":52,"pm10":27.2,"pm2_5":21.3,"mosquito_risk":3,"arthritis_risk":10,"migraine_risk":7,"frizz_risk":0,"updated_at":"2026-03-25T00:37:42.642516+05:30"},{"city":"Manali","state":"Himachal Pradesh","latitude":32.2396,"longitude":77.1887,"temp":13.3,"humidity":31,"rain":0.0,"pressure":816.6,"uv_index":9.05,"wind_gusts":27.7,"aqi":81,"pm10":15.8,"pm2_5":10.1,"mosquito_risk":0,"arthritis_risk":5,"migraine_risk":7,"frizz_risk":1,"updated_at":"2026-03-25T00:37:42.642523+05:30"},{"city":"Gurgaon","state":"Haryana","latitude":28.4595,"longitude":77.0266,"temp":19.9,"humidity":72,"rain":0.0,"pressure":983.3,"uv_index":6.7,"wind_gusts":19.4,"aqi":603,"pm10":732.0,"pm2_5":133.6,"mosquito_risk":3,"arthritis_risk":5,"migraine_risk":7,"frizz_risk":0,"updated_at":"2026-03-25T00:37:42.642529+05:30"},{"city":"Noida","state":"Uttar Pradesh","latitude":28.5355,"longitude":77.391,"temp":22.3,"humidity":63,"rain":0.0,"pressure":986.5,"uv_index":6.65,"wind_gusts":24.1,"aqi":603,"pm10":732.0,"pm2_5":133.6,"mosquito_risk":3,"arthritis_risk":5,"migraine_risk":7,"frizz_risk":0,"updated_at":"2026-03-25T00:37:42.642536+05:30"},{"city":"Ghaziabad","state":"Uttar Pradesh","latitude":28.6692,"longitude":77.4538,"temp":20.8,"humidity":70,"rain":0.0,"pressure":984.6,"uv_index":6.6,"wind_gusts":24.5,"aqi":158,"pm10":426.5,"pm2_5":91.0,"mosquito_risk":3,"arthritis_risk":5,"migraine_risk":7,"frizz_risk":0,"updated_at":"2026-03-25T00:37:42.642542+05:30"},{"city":"Faridabad","state":"Haryana","latitude":28.4089,"longitude":77.3178,"temp":20.3,"humidity":69,"rain":0.0,"pressure":985.5,"uv_index":6.65,"wind_gusts":20.2,"aqi":603,"pm10":732.0,"pm2_5":133.6,"mosquito_risk":3,"arthritis_risk":5,"migraine_risk":7,"frizz_risk":0,"updated_at":"2026-03-25T00:37:42.642549+05:30"},{"city":"Meerut","state":"Uttar Pradesh","latitude":28.9845,"longitude":77.7064,"temp":19.4,"humidity":75,"rain":0.0,"pressure":983.3,"uv_index":6.4,"wind_gusts":28.1,"aqi":158,"pm10":426.5,"pm2_5":91.0,"mosquito_risk":3,"arthritis_risk":5,"migraine_risk":7,"frizz_risk":0,"updated_at":"2026-03-25T00:37:42.642556+05:30"},{"city":"Agra","state":"Uttar Pradesh","latitude":27.1767,"longitude":78.0081,"temp":21.2,"humidity":65,"rain":0.0,"pressure":989.4,"uv_index":6.65,"wind_gusts":24.8,"aqi":332,"pm10":825.2,"pm2_5":123.4,"mosquito_risk":3,"arthritis_risk":5,"migraine_risk":7,"frizz_risk":0,"updated_at":"2026-03-25T00:37:42.642562+05:30"},{"city":"Varanasi","state":"Uttar Pradesh","latitude":25.3176,"longitude":82.9739,"temp":21.7,"humidity":69,"rain":0.0,"pressure":999.0,"uv_index":7.45,"wind_gusts":29.9,"aqi":127,"pm10":77.1,"pm2_5":42.0,"mosquito_risk":3,"arthritis_risk":5,"migraine_risk":7,"frizz_risk":0,"updated_at":"2026-03-25T00:37:42.642570+05:30"},{"city":"Prayagraj","state":"Uttar Pradesh","latitude":25.4358,"longitude":81.8463,"temp":23.4,"humidity":59,"rain":0.0,"pressure":997.6,"uv_index":7.2,"wind_gusts":24.8,"aqi":111,"pm10":95.5,"pm2_5":34.6,"mosquito_risk":0,"arthritis_risk":5,"migraine_risk":7,"frizz_risk":0,"updated_at":"2026-03-25T00:37:42.642580+05:30"},{"city":"Gorakhpur","state":"Uttar Pradesh","latitude":26.7606,"longitude":83.3732,"temp":20.9,"humidity":71,"rain":0.0,"pressure":998.3,"uv_index":7.3,"wind_gusts":29.2,"aqi":123,"pm10":74.0,"pm2_5":34.9,"mosquito_risk":3,"arthritis_risk":5,"migraine_risk":7,"frizz_risk":0,"updated_at":"2026-03-25T00:37:42.642586+05:30"},{"city":"Bareilly","state":"Uttar Pradesh","latitude":28.367,"longitude":79.4304,"temp":19.7,"humidity":78,"rain":0.0,"pressure":988.5,"uv_index":6.85,"wind_gusts":30.6,"aqi":130,"pm10":54.5,"pm2_5":44.1,"mosquito_risk":3,"arthritis_risk":5,"migraine_risk":7,"frizz_risk":0,"updated_at":"2026-03-25T00:37:42.642592+05:30"},{"city":"Aligarh","state":"Uttar Pradesh","latitude":27.8974,"longitude":78.088,"temp":19.4,"humidity":74,"rain":0.0,"pressure":987.2,"uv_index":6.7,"wind_gusts":22.3,"aqi":294,"pm10":590.5,"pm2_5":109.4,"mosquito_risk":3,"arthritis_risk":5,"migraine_risk":7,"frizz_risk":0,"updated_at":"2026-03-25T00:37:42.642598+05:30"},{"city":"Moradabad","state":"Uttar Pradesh","latitude":28.8386,"longitude":78.7733,"temp":19.4,"humidity":76,"rain":0.0,"pressure":985.5,"uv_index":6.7,"wind_gusts":29.9,"aqi":143,"pm10":123.4,"pm2_5":44.7,"mosquito_risk":3,"arthritis_risk":5,"migraine_risk":7,"frizz_risk":0,"updated_at":"2026-03-25T00:37:42.642605+05:30"},{"city":"Saharanpur","state":"Uttar Pradesh","latitude":29.9637,"longitude":77.546,"temp":17.9,"humidity":79,"rain":0.0,"pressure":977.2,"uv_index":6.25,"wind_gusts":28.8,"aqi":150,"pm10":79.2,"pm2_5":56.7,"mosquito_risk":3,"arthritis_risk":5,"migraine_risk":7,"frizz_risk":0,"updated_at":"2026-03-25T00:37:42.642611+05:30"},{"city":"Jhansi","state":"Uttar Pradesh","latitude":25.4484,"longitude":78.5685,"temp":23.5,"humidity":55,"rain":0.0,"pressure":979.0,"uv_index":7.6,"wind_gusts":27.4,"aqi":110,"pm10":100.8,"pm2_5":34.8,"mosquito_risk":0,"arthritis_risk":5,"migraine_risk":7,"frizz_risk":0,"updated_at":"2026-03-25T00:37:45.988751+05:30"},{"city":"Surat","state":"Gujarat","latitude":21.1702,"longitude":72.8311,"temp":26.5,"humidity":80,"rain":0.0,"pressure":1006.5,"uv_index":7.7,"wind_gusts":21.6,"aqi":130,"pm10":30.6,"pm2_5":25.0,"mosquito_risk":7,"arthritis_risk":5,"migraine_risk":4,"frizz_risk":1,"updated_at":"2026-03-25T00:37:45.988781+05:30"},{"city":"Vadodara","state":"Gujarat","latitude":22.3072,"longitude":73.1812,"temp":27.1,"humidity":61,"rain":0.0,"pressure":1004.5,"uv_index":7.9,"wind_gusts":16.9,"aqi":87,"pm10":49.5,"pm2_5":43.9,"mosquito_risk":7,"arthritis_risk":5,"migraine_risk":4,"frizz_risk":1,"updated_at":"2026-03-25T00:37:45.988790+05:30"},{"city":"Rajkot","state":"Gujarat","latitude":22.3039,"longitude":70.8022,"temp":24.8,"humidity":72,"rain":0.0,"pressure":995.5,"uv_index":7.6,"wind_gusts":29.2,"aqi":45,"pm10":16.5,"pm2_5":9.3,"mosquito_risk":3,"arthritis_risk":5,"migraine_risk":7,"frizz_risk":1,"updated_at":"2026-03-25T00:37:45.988797+05:30"},{"city":"Thane","state":"Maharashtra","latitude":19.2183,"longitude":72.9781,"temp":27.0,"humidity":71,"rain":0.0,"pressure":1007.4,"uv_index":7.95,"wind_gusts":36.4,"aqi":103,"pm10":32.4,"pm2_5":24.1,"mosquito_risk":7,"arthritis_risk":5,"migraine_risk":4,"frizz_risk":1,"updated_at":"2026-03-25T00:37:45.988804+05:30"},{"city":"Nagpur","state":"Maharashtra","latitude":21.1458,"longitude":79.0882,"temp":24.9,"humidity":49,"rain":0.0,"pressure":973.0,"uv_index":8.1,"wind_gusts":18.4,"aqi":99,"pm10":61.7,"pm2_5":48.2,"mosquito_risk":0,"arthritis_risk":5,"migraine_risk":7,"frizz_risk":0,"updated_at":"2026-03-25T00:37:45.988810+05:30"},{"city":"Nashik","state":"Maharashtra","latitude":19.9975,"longitude":73.7898,"temp":24.5,"humidity":57,"rain":0.0,"pressure":945.7,"uv_index":8.15,"wind_gusts":25.9,"aqi":76,"pm10":51.1,"pm2_5":39.1,"mosquito_risk":0,"arthritis_risk":5,"migraine_risk":7,"frizz_risk":0,"updated_at":"2026-03-25T00:37:45.988816+05:30"},{"city":"Aurangabad","state":"Maharashtra","latitude":19.8762,"longitude":75.3433,"temp":25.9,"humidity":47,"rain":0.0,"pressure":944.1,"uv_index":8.7,"wind_gusts":23.4,"aqi":63,"pm10":47.5,"pm2_5":32.6,"mosquito_risk":4,"arthritis_risk":5,"migraine_risk":7,"frizz_risk":0,"updated_at":"2026-03-25T00:37:45.988822+05:30"},{"city":"Solapur","state":"Maharashtra","latitude":17.6599,"longitude":75.9064,"temp":26.4,"humidity":60,"rain":0.0,"pressure":957.7,"uv_index":8.85,"wind_gusts":44.3,"aqi":92,"pm10":43.1,"pm2_5":37.8,"mosquito_risk":4,"arthritis_risk":5,"migraine_risk":7,"frizz_risk":1,"updated_at":"2026-03-25T00:37:45.988829+05:30"},{"city":"Kolhapur","state":"Maharashtra","latitude":16.705,"longitude":74.2433,"temp":22.1,"humidity":92,"rain":0.0,"pressure":948.2,"uv_index":8.8,"wind_gusts":31.0,"aqi":120,"pm10":56.0,"pm2_5":49.0,"mosquito_risk":3,"arthritis_risk":5,"migraine_risk":7,"frizz_risk":1,"updated_at":"2026-03-25T00:37:45.988835+05:30"},{"city":"Goa","state":"Goa","latitude":15.2993,"longitude":74.124,"temp":28.0,"humidity":84,"rain":0.0,"pressure":998.2,"uv_index":8.95,"wind_gusts":27.0,"aqi":98,"pm10":58.1,"pm2_5":46.0,"mosquito_risk":7,"arthritis_risk":5,"migraine_risk":7,"frizz_risk":1,"updated_at":"2026-03-25T00:37:45.988842+05:30"},{"city":"Jodhpur","state":"Rajasthan","latitude":26.2389,"longitude":73.0243,"temp":27.3,"humidity":37,"rain":0.0,"pressure":983.4,"uv_index":7.45,"wind_gusts":29.9,"aqi":59,"pm10":31.7,"pm2_5":20.1,"mosquito_risk":4,"arthritis_risk":5,"migraine_risk":7,"frizz_risk":0,"updated_at":"2026-03-25T00:37:45.988847+05:30"},{"city":"Udaipur","state":"Rajasthan","latitude":24.5854,"longitude":73.7125,"temp":24.1,"humidity":45,"rain":0.0,"pressure":947.1,"uv_index":7.55,"wind_gusts":23.4,"aqi":58,"pm10":46.1,"pm2_5":20.1,"mosquito_risk":0,"arthritis_risk":5,"migraine_risk":7,"frizz_risk":0,"updated_at":"2026-03-25T00:37:45.988853+05:30"},{"city":"Kota","state":"Rajasthan","latitude":25.2138,"longitude":75.8648,"temp":26.2,"humidity":53,"rain":0.0,"pressure":979.4,"uv_index":7.7,"wind_gusts":22.7,"aqi":105,"pm10":68.0,"pm2_5":33.1,"mosquito_risk":4,"arthritis_risk":5,"migraine_risk":7,"frizz_risk":0,"updated_at":"2026-03-25T00:37:45.988859+05:30"},{"city":"Bikaner","state":"Rajasthan","latitude":28.0229,"longitude":73.3119,"temp":25.5,"humidity":37,"rain":0.0,"pressure":982.7,"uv_index":6.15,"wind_gusts":23.4,"aqi":65,"pm10":29.6,"pm2_5":16.9,"mosquito_risk":4,"arthritis_risk":5,"migraine_risk":7,"frizz_risk":0,"updated_at":"2026-03-25T00:37:45.988865+05:30"},{"city":"Ajmer","state":"Rajasthan","latitude":26.4499,"longitude":74.6399,"temp":24.0,"humidity":53,"rain":0.0,"pressure":955.1,"uv_index":7.5,"wind_gusts":32.8,"aqi":85,"pm10":40.3,"pm2_5":18.1,"mosquito_risk":0,"arthritis_risk":5,"migraine_risk":7,"frizz_risk":0,"updated_at":"2026-03-25T00:37:45.988871+05:30"},{"city":"Gwalior","state":"Madhya Pradesh","latitude":26.2183,"longitude":78.1828,"temp":24.6,"humidity":55,"rain":0.0,"pressure":984.7,"uv_index":7.25,"wind_gusts":22.0,"aqi":113,"pm10":390.2,"pm2_5":64.7,"mosquito_risk":0,"arthritis_risk":5,"migraine_risk":7,"frizz_risk":0,"updated_at":"2026-03-25T00:37:45.988876+05:30"},{"city":"Indore","state":"Madhya Pradesh","latitude":22.7196,"longitude":75.8577,"temp":23.0,"humidity":57,"rain":0.0,"pressure":947.9,"uv_index":8.15,"wind_gusts":23.0,"aqi":62,"pm10":48.3,"pm2_5":38.0,"mosquito_risk":0,"arthritis_risk":5,"migraine_risk":7,"frizz_risk":0,"updated_at":"2026-03-25T00:37:45.988882+05:30"},{"city":"Bhopal","state":"Madhya Pradesh","latitude":23.2599,"longitude":77.4126,"temp":24.6,"humidity":49,"rain":0.0,"pressure":953.5,"uv_index":8.0,"wind_gusts":23.8,"aqi":76,"pm10":43.1,"pm2_5":27.1,"mosquito_risk":0,"arthritis_risk":5,"migraine_risk":7,"frizz_risk":0,"updated_at":"2026-03-25T00:37:45.988888+05:30"},{"city":"Jabalpur","state":"Madhya Pradesh","latitude":23.1815,"longitude":79.9864,"temp":25.6,"humidity":52,"rain":0.0,"pressure":961.5,"uv_index":8.1,"wind_gusts":22.3,"aqi":82,"pm10":45.1,"pm2_5":24.8,"mosquito_risk":4,"arthritis_risk":5,"migraine_risk":7,"frizz_risk":0,"updated_at":"2026-03-25T00:37:45.988893+05:30"},{"city":"Ujjain","state":"Madhya Pradesh","latitude":23.1765,"longitude":75.7885,"temp":22.7,"humidity":65,"rain":0.0,"pressure":953.5,"uv_index":8.05,"wind_gusts":21.6,"aqi":70,"pm10":63.1,"pm2_5":51.6,"mosquito_risk":3,"arthritis_risk":5,"migraine_risk":7,"frizz_risk":0,"updated_at":"2026-03-25T00:37:45.988899+05:30"},{"city":"Visakhapatnam","state":"Andhra Pradesh","latitude":17.6868,"longitude":83.2185,"temp":25.7,"humidity":85,"rain":0.0,"pressure":1005.6,"uv_index":8.9,"wind_gusts":36.4,"aqi":84,"pm10":22.9,"pm2_5":15.9,"mosquito_risk":7,"arthritis_risk":5,"migraine_risk":4,"frizz_risk":1,"updated_at":"2026-03-25T00:37:45.988905+05:30"},{"city":"Vijayawada","state":"Andhra Pradesh","latitude":16.5062,"longitude":80.648,"temp":24.7,"humidity":88,"rain":0.0,"pressure":1004.6,"uv_index":9.0,"wind_gusts":22.0,"aqi":65,"pm10":17.1,"pm2_5":13.6,"mosquito_risk":3,"arthritis_risk":5,"migraine_risk":4,"frizz_risk":1,"updated_at":"2026-03-25T00:37:45.988911+05:30"},{"city":"Guntur","state":"Andhra Pradesh","latitude":16.3067,"longitude":80.4365,"temp":24.6,"humidity":91,"rain":0.0,"pressure":1005.8,"uv_index":9.0,"wind_gusts":23.4,"aqi":62,"pm10":14.8,"pm2_5":11.7,"mosquito_risk":3,"arthritis_risk":5,"migraine_risk":4,"frizz_risk":1,"updated_at":"2026-03-25T00:37:45.988917+05:30"},{"city":"Nellore","state":"Andhra Pradesh","latitude":14.4426,"longitude":79.9865,"temp":25.8,"humidity":85,"rain":0.0,"pressure":1007.8,"uv_index":9.15,"wind_gusts":29.9,"aqi":37,"pm10":7.4,"pm2_5":5.2,"mosquito_risk":7,"arthritis_risk":5,"migraine_risk":4,"frizz_risk":1,"updated_at":"2026-03-25T00:37:45.988923+05:30"},{"city":"Kurnool","state":"Andhra Pradesh","latitude":15.8281,"longitude":78.0373,"temp":26.3,"humidity":72,"rain":0.0,"pressure":978.2,"uv_index":9.0,"wind_gusts":24.8,"aqi":65,"pm10":30.9,"pm2_5":25.6,"mosquito_risk":7,"arthritis_risk":5,"migraine_risk":7,"frizz_risk":1,"updated_at":"2026-03-25T00:37:45.988929+05:30"},{"city":"Kakinada","state":"Andhra Pradesh","latitude":16.9891,"longitude":82.2475,"temp":24.0,"humidity":92,"rain":0.0,"pressure":1009.5,"uv_index":8.95,"wind_gusts":27.7,"aqi":49,"pm10":17.9,"pm2_5":10.8,"mosquito_risk":3,"arthritis_risk":0,"migraine_risk":4,"frizz_risk":1,"updated_at":"2026-03-25T00:37:45.988935+05:30"},{"city":"Tirupati","state":"Andhra Pradesh","latitude":13.6288,"longitude":79.4192,"temp":24.0,"humidity":83,"rain":0.0,"pressure":993.7,"uv_index":9.25,"wind_gusts":29.5,"aqi":62,"pm10":16.4,"pm2_5":14.6,"mosquito_risk":3,"arthritis_risk":5,"migraine_risk":7,"frizz_risk":1,"updated_at":"2026-03-25T00:37:45.988941+05:30"},{"city":"Warangal","state":"Telangana","latitude":17.9689,"longitude":79.5941,"temp":26.2,"humidity":76,"rain":0.0,"pressure":979.8,"uv_index":8.85,"wind_gusts":25.9,"aqi":85,"pm10":30.2,"pm2_5":27.5,"mosquito_risk":7,"arthritis_risk":5,"migraine_risk":7,"frizz_risk":1,"updated_at":"2026-03-25T00:37:45.988946+05:30"},{"city":"Nizamabad","state":"Telangana","latitude":18.6725,"longitude":78.0941,"temp":26.6,"humidity":61,"rain":0.0,"pressure":965.4,"uv_index":8.75,"wind_gusts":30.6,"aqi":100,"pm10":47.0,"pm2_5":41.3,"mosquito_risk":7,"arthritis_risk":5,"migraine_risk":7,"frizz_risk":1,"updated_at":"2026-03-25T00:37:45.988952+05:30"},{"city":"Mysore","state":"Karnataka","latitude":12.2958,"longitude":76.6396,"temp":24.1,"humidity":82,"rain":0.0,"pressure":928.9,"uv_index":9.45,"wind_gusts":41.0,"aqi":95,"pm10":47.7,"pm2_5":41.8,"mosquito_risk":3,"arthritis_risk":5,"migraine_risk":7,"frizz_risk":1,"updated_at":"2026-03-25T00:37:45.988958+05:30"},{"city":"Mangalore","state":"Karnataka","latitude":12.9141,"longitude":74.856,"temp":29.2,"humidity":80,"rain":0.0,"pressure":1006.8,"uv_index":9.1,"wind_gusts":29.2,"aqi":98,"pm10":51.9,"pm2_5":41.2,"mosquito_risk":7,"arthritis_risk":5,"migraine_risk":4,"frizz_risk":1,"updated_at":"2026-03-25T00:37:45.988963+05:30"},{"city":"Hubli-Dharwad","state":"Karnataka","latitude":15.3647,"longitude":75.124,"temp":23.0,"humidity":92,"rain":0.0,"pressure":941.1,"uv_index":9.1,"wind_gusts":37.1,"aqi":101,"pm10":66.8,"pm2_5":57.4,"mosquito_risk":3,"arthritis_risk":5,"migraine_risk":7,"frizz_risk":1,"updated_at":"2026-03-25T00:37:45.988969+05:30"},{"city":"Belgaum","state":"Karnataka","latitude":15.8497,"longitude":74.4977,"temp":21.9,"humidity":96,"rain":0.0,"pressure":925.8,"uv_index":9.05,"wind_gusts":29.9,"aqi":97,"pm10":57.5,"pm2_5":49.8,"mosquito_risk":3,"arthritis_risk":5,"migraine_risk":7,"frizz_risk":1,"updated_at":"2026-03-25T00:37:49.336357+05:30"},{"city":"Coimbatore","state":"Tamil Nadu","latitude":11.0168,"longitude":76.9558,"temp":24.2,"humidity":87,"rain":0.0,"pressure":962.6,"uv_index":9.4,"wind_gusts":36.4,"aqi":64,"pm10":28.1,"pm2_5":24.5,"mosquito_risk":3,"arthritis_risk":5,"migraine_risk":7,"frizz_risk":1,"updated_at":"2026-03-25T00:37:49.336387+05:30"},{"city":"Madurai","state":"Tamil Nadu","latitude":9.9252,"longitude":78.1198,"temp":26.1,"humidity":79,"rain":0.0,"pressure":994.6,"uv_index":9.4,"wind_gusts":25.9,"aqi":51,"pm10":19.5,"pm2_5":18.3,"mosquito_risk":7,"arthritis_risk":5,"migraine_risk":7,"frizz_risk":1,"updated_at":"2026-03-25T00:37:49.336399+05:30"},{"city":"Trichy","state":"Tamil Nadu","latitude":10.7905,"longitude":78.7047,"temp":25.0,"humidity":87,"rain":0.0,"pressure":1001.2,"uv_index":9.3,"wind_gusts":23.0,"aqi":52,"pm10":15.3,"pm2_5":13.9,"mosquito_risk":7,"arthritis_risk":5,"migraine_risk":4,"frizz_risk":1,"updated_at":"2026-03-25T00:37:49.336408+05:30"},{"city":"Salem","state":"Tamil Nadu","latitude":11.6643,"longitude":78.146,"temp":25.9,"humidity":80,"rain":0.0,"pressure":978.3,"uv_index":9.35,"wind_gusts":32.0,"aqi":80,"pm10":26.2,"pm2_5":24.4,"mosquito_risk":7,"arthritis_risk":5,"migraine_risk":7,"frizz_risk":1,"updated_at":"2026-03-25T00:37:49.336416+05:30"},{"city":"Tirunelveli","state":"Tamil Nadu","latitude":8.7139,"longitude":77.7567,"temp":26.5,"humidity":71,"rain":0.0,"pressure":1004.5,"uv_index":9.35,"wind_gusts":38.9,"aqi":47,"pm10":21.7,"pm2_5":19.6,"mosquito_risk":7,"arthritis_risk":5,"migraine_risk":4,"frizz_risk":1,"updated_at":"2026-03-25T00:37:49.336424+05:30"},{"city":"Vellore","state":"Tamil Nadu","latitude":12.9165,"longitude":79.1325,"temp":24.3,"humidity":81,"rain":0.0,"pressure":986.4,"uv_index":9.3,"wind_gusts":32.4,"aqi":60,"pm10":24.6,"pm2_5":22.8,"mosquito_risk":3,"arthritis_risk":5,"migraine_risk":7,"frizz_risk":1,"updated_at":"2026-03-25T00:37:49.336431+05:30"},{"city":"Erode","state":"Tamil Nadu","latitude":11.341,"longitude":77.7172,"temp":26.6,"humidity":81,"rain":0.0,"pressure":990.3,"uv_index":9.35,"wind_gusts":24.8,"aqi":57,"pm10":12.1,"pm2_5":10.9,"mosquito_risk":7,"arthritis_risk":5,"migraine_risk":7,"frizz_risk":1,"updated_at":"2026-03-25T00:37:49.336439+05:30"},{"city":"Kochi","state":"Kerala","latitude":9.9312,"longitude":76.2673,"temp":28.0,"humidity":81,"rain":0.0,"pressure":1009.3,"uv_index":9.2,"wind_gusts":33.8,"aqi":89,"pm10":37.5,"pm2_5":34.3,"mosquito_risk":7,"arthritis_risk":0,"migraine_risk":4,"frizz_risk":1,"updated_at":"2026-03-25T00:37:49.336447+05:30"},{"city":"Thiruvananthapuram","state":"Kerala","latitude":8.5241,"longitude":76.9366,"temp":27.3,"humidity":79,"rain":0.0,"pressure":1008.7,"uv_index":9.2,"wind_gusts":28.1,"aqi":89,"pm10":28.1,"pm2_5":19.2,"mosquito_risk":7,"arthritis_risk":0,"migraine_risk":4,"frizz_risk":1,"updated_at":"2026-03-25T00:37:49.336455+05:30"},{"city":"Kozhikode","state":"Kerala","latitude":11.2588,"longitude":75.7804,"temp":29.4,"humidity":79,"rain":0.0,"pressure":1008.0,"uv_index":9.1,"wind_gusts":29.2,"aqi":93,"pm10":51.9,"pm2_5":36.2,"mosquito_risk":7,"arthritis_risk":0,"migraine_risk":4,"frizz_risk":1,"updated_at":"2026-03-25T00:37:49.336461+05:30"},{"city":"Thrissur","state":"Kerala","latitude":10.5276,"longitude":76.2144,"temp":27.5,"humidity":85,"rain":0.0,"pressure":1007.6,"uv_index":9.15,"wind_gusts":39.6,"aqi":88,"pm10":44.8,"pm2_5":39.7,"mosquito_risk":7,"arthritis_risk":5,"migraine_risk":4,"frizz_risk":1,"updated_at":"2026-03-25T00:37:49.336468+05:30"},{"city":"Kannur","state":"Kerala","latitude":11.8745,"longitude":75.3704,"temp":28.1,"humidity":79,"rain":0.0,"pressure":1007.3,"uv_index":9.1,"wind_gusts":30.2,"aqi":93,"pm10":51.1,"pm2_5":42.1,"mosquito_risk":7,"arthritis_risk":5,"migraine_risk":4,"frizz_risk":1,"updated_at":"2026-03-25T00:37:49.336474+05:30"},{"city":"Patna","state":"Bihar","latitude":25.5941,"longitude":85.1376,"temp":23.6,"humidity":66,"rain":0.0,"pressure":1001.3,"uv_index":7.7,"wind_gusts":33.1,"aqi":156,"pm10":67.1,"pm2_5":47.8,"mosquito_risk":3,"arthritis_risk":5,"migraine_risk":4,"frizz_risk":1,"updated_at":"2026-03-25T00:37:49.336480+05:30"},{"city":"Gaya","state":"Bihar","latitude":24.7914,"longitude":85.0002,"temp":23.9,"humidity":61,"rain":0.0,"pressure":995.1,"uv_index":8.05,"wind_gusts":23.4,"aqi":126,"pm10":96.9,"pm2_5":64.7,"mosquito_risk":3,"arthritis_risk":5,"migraine_risk":7,"frizz_risk":0,"updated_at":"2026-03-25T00:37:49.336486+05:30"},{"city":"Muzaffarpur","state":"Bihar","latitude":26.1209,"longitude":85.3647,"temp":22.3,"humidity":70,"rain":0.0,"pressure":1001.2,"uv_index":7.5,"wind_gusts":28.4,"aqi":157,"pm10":67.3,"pm2_5":48.4,"mosquito_risk":3,"arthritis_risk":5,"migraine_risk":4,"frizz_risk":1,"updated_at":"2026-03-25T00:37:49.336493+05:30"},{"city":"Bhagalpur","state":"Bihar","latitude":25.2425,"longitude":87.0117,"temp":23.6,"humidity":67,"rain":0.0,"pressure":1001.6,"uv_index":8.0,"wind_gusts":27.0,"aqi":151,"pm10":108.7,"pm2_5":75.7,"mosquito_risk":3,"arthritis_risk":5,"migraine_risk":4,"frizz_risk":1,"updated_at":"2026-03-25T00:37:49.336499+05:30"},{"city":"Ranchi","state":"Jharkhand","latitude":23.3441,"longitude":85.3096,"temp":22.2,"humidity":58,"rain":0.0,"pressure":938.2,"uv_index":8.4,"wind_gusts":28.4,"aqi":98,"pm10":61.2,"pm2_5":46.7,"mosquito_risk":0,"arthritis_risk":5,"migraine_risk":7,"frizz_risk":0,"updated_at":"2026-03-25T00:37:49.336505+05:30"},{"city":"Jamshedpur","state":"Jharkhand","latitude":22.8046,"longitude":86.2029,"temp":26.1,"humidity":70,"rain":0.0,"pressure":991.6,"uv_index":8.55,"wind_gusts":42.1,"aqi":138,"pm10":75.9,"pm2_5":58.8,"mosquito_risk":7,"arthritis_risk":5,"migraine_risk":7,"frizz_risk":1,"updated_at":"2026-03-25T00:37:49.336510+05:30"},{"city":"Dhanbad","state":"Jharkhand","latitude":23.7957,"longitude":86.4304,"temp":24.2,"humidity":62,"rain":0.0,"pressure":980.2,"uv_index":8.45,"wind_gusts":28.8,"aqi":163,"pm10":128.5,"pm2_5":102.7,"mosquito_risk":3,"arthritis_risk":5,"migraine_risk":7,"frizz_risk":1,"updated_at":"2026-03-25T00:37:49.336516+05:30"},{"city":"Bokaro","state":"Jharkhand","latitude":23.6693,"longitude":86.1511,"temp":24.5,"humidity":68,"rain":0.0,"pressure":984.5,"uv_index":8.4,"wind_gusts":26.6,"aqi":155,"pm10":113.9,"pm2_5":89.9,"mosquito_risk":3,"arthritis_risk":5,"migraine_risk":7,"frizz_risk":1,"updated_at":"2026-03-25T00:37:49.336523+05:30"},{"city":"Bhubaneswar","state":"Odisha","latitude":20.2961,"longitude":85.8245,"temp":25.7,"humidity":83,"rain":0.0,"pressure":1004.1,"uv_index":8.75,"wind_gusts":27.4,"aqi":81,"pm10":18.6,"pm2_5":13.6,"mosquito_risk":7,"arthritis_risk":5,"migraine_risk":4,"frizz_risk":1,"updated_at":"2026-03-25T00:37:49.336529+05:30"},{"city":"Cuttack","state":"Odisha","latitude":20.4625,"longitude":85.8828,"temp":25.7,"humidity":82,"rain":0.0,"pressure":1006.0,"uv_index":8.8,"wind_gusts":26.3,"aqi":81,"pm10":18.6,"pm2_5":13.6,"mosquito_risk":7,"arthritis_risk":5,"migraine_risk":4,"frizz_risk":1,"updated_at":"2026-03-25T00:37:49.336535+05:30"},{"city":"Rourkela","state":"Odisha","latitude":22.2604,"longitude":84.8536,"temp":25.0,"humidity":78,"rain":0.0,"pressure":985.3,"uv_index":8.25,"wind_gusts":19.8,"aqi":125,"pm10":66.1,"pm2_5":51.2,"mosquito_risk":7,"arthritis_risk":5,"migraine_risk":7,"frizz_risk":1,"updated_at":"2026-03-25T00:37:49.336540+05:30"},{"city":"Raipur","state":"Chhattisgarh","latitude":21.2514,"longitude":81.6296,"temp":25.9,"humidity":59,"rain":0.0,"pressure":974.2,"uv_index":7.95,"wind_gusts":36.4,"aqi":117,"pm10":58.6,"pm2_5":52.6,"mosquito_risk":4,"arthritis_risk":5,"migraine_risk":7,"frizz_risk":1,"updated_at":"2026-03-25T00:37:49.336546+05:30"},{"city":"Bhilai","state":"Chhattisgarh","latitude":21.1938,"longitude":81.3509,"temp":25.6,"humidity":63,"rain":0.0,"pressure":974.5,"uv_index":8.2,"wind_gusts":31.7,"aqi":115,"pm10":50.1,"pm2_5":43.8,"mosquito_risk":7,"arthritis_risk":5,"migraine_risk":7,"frizz_risk":1,"updated_at":"2026-03-25T00:37:49.336552+05:30"},{"city":"Guwahati","state":"Assam","latitude":26.1158,"longitude":91.7086,"temp":21.1,"humidity":95,"rain":0.0,"pressure":1003.0,"uv_index":7.8,"wind_gusts":35.3,"aqi":114,"pm10":46.1,"pm2_5":39.7,"mosquito_risk":3,"arthritis_risk":5,"migraine_risk":4,"frizz_risk":1,"updated_at":"2026-03-25T00:37:49.336558+05:30"},{"city":"Agartala","state":"Tripura","latitude":23.8315,"longitude":91.2868,"temp":21.6,"humidity":87,"rain":0.0,"pressure":1007.8,"uv_index":8.2,"wind_gusts":29.9,"aqi":164,"pm10":92.0,"pm2_5":80.8,"mosquito_risk":3,"arthritis_risk":5,"migraine_risk":4,"frizz_risk":1,"updated_at":"2026-03-25T00:37:49.336564+05:30"},{"city":"Shillong","state":"Meghalaya","latitude":25.5788,"longitude":91.8933,"temp":11.9,"humidity":92,"rain":0.0,"pressure":854.8,"uv_index":7.4,"wind_gusts":63.7,"aqi":92,"pm10":43.2,"pm2_5":37.0,"mosquito_risk":3,"arthritis_risk":10,"migraine_risk":7,"frizz_risk":0,"updated_at":"2026-03-25T00:37:49.336570+05:30"},{"city":"Imphal","state":"Manipur","latitude":24.817,"longitude":93.9368,"temp":15.0,"humidity":86,"rain":0.0,"pressure":923.4,"uv_index":8.45,"wind_gusts":68.8,"aqi":108,"pm10":65.7,"pm2_5":60.1,"mosquito_risk":3,"arthritis_risk":10,"migraine_risk":7,"frizz_risk":0,"updated_at":"2026-03-25T00:37:49.336576+05:30"},{"city":"Aizawl","state":"Mizoram","latitude":23.7271,"longitude":92.7176,"temp":14.6,"humidity":77,"rain":0.0,"pressure":892.1,"uv_index":8.4,"wind_gusts":38.2,"aqi":123,"pm10":63.3,"pm2_5":53.9,"mosquito_risk":3,"arthritis_risk":5,"migraine_risk":7,"frizz_risk":0,"updated_at":"2026-03-25T00:37:49.336582+05:30"},{"city":"Kohima","state":"Nagaland","latitude":25.6701,"longitude":94.1077,"temp":12.3,"humidity":73,"rain":0.0,"pressure":853.2,"uv_index":8.05,"wind_gusts":79.2,"aqi":84,"pm10":43.9,"pm2_5":40.0,"mosquito_risk":3,"arthritis_risk":5,"migraine_risk":7,"frizz_risk":0,"updated_at":"2026-03-25T00:37:49.336589+05:30"},{"city":"Gangtok","state":"Sikkim","latitude":27.3314,"longitude":88.6138,"temp":10.3,"humidity":88,"rain":0.1,"pressure":834.1,"uv_index":8.2,"wind_gusts":17.3,"aqi":84,"pm10":37.0,"pm2_5":27.1,"mosquito_risk":6,"arthritis_risk":10,"migraine_risk":7,"frizz_risk":0,"updated_at":"2026-03-25T00:37:49.336595+05:30"},{"city":"Siliguri","state":"West Bengal","latitude":26.7271,"longitude":88.3953,"temp":17.5,"humidity":85,"rain":0.0,"pressure":994.9,"uv_index":7.9,"wind_gusts":22.3,"aqi":152,"pm10":86.6,"pm2_5":68.9,"mosquito_risk":3,"arthritis_risk":10,"migraine_risk":7,"frizz_risk":0,"updated_at":"2026-03-25T00:37:52.686192+05:30"},{"city":"Durgapur","state":"West Bengal","latitude":23.5204,"longitude":87.3119,"temp":24.7,"humidity":84,"rain":0.0,"pressure":995.9,"uv_index":8.35,"wind_gusts":27.7,"aqi":156,"pm10":81.7,"pm2_5":67.1,"mosquito_risk":3,"arthritis_risk":5,"migraine_risk":7,"frizz_risk":1,"updated_at":"2026-03-25T00:37:52.686219+05:30"},{"city":"Asansol","state":"West Bengal","latitude":23.6739,"longitude":86.9524,"temp":25.3,"humidity":81,"rain":0.0,"pressure":994.4,"uv_index":8.4,"wind_gusts":23.0,"aqi":155,"pm10":85.4,"pm2_5":65.2,"mosquito_risk":7,"arthritis_risk":5,"migraine_risk":7,"frizz_risk":1,"updated_at":"2026-03-25T00:37:52.686230+05:30"},{"city":"Pondicherry","state":"Puducherry","latitude":11.9139,"longitude":79.8145,"temp":24.9,"humidity":88,"rain":0.0,"pressure":1010.0,"uv_index":9.2,"wind_gusts":30.6,"aqi":34,"pm10":8.7,"pm2_5":5.8,"mosquito_risk":3,"arthritis_risk":0,"migraine_risk":4,"frizz_risk":1,"updated_at":"2026-03-25T00:37:52.686237+05:30"},{"city":"Port Blair","state":"Andaman and Nicobar Islands","latitude":11.6234,"longitude":92.7265,"temp":27.7,"humidity":74,"rain":0.0,"pressure":1007.0,"uv_index":9.15,"wind_gusts":23.4,"aqi":68,"pm10":19.9,"pm2_5":14.6,"mosquito_risk":7,"arthritis_risk":5,"migraine_risk":4,"frizz_risk":1,"updated_at":"2026-03-25T00:37:52.686245+05:30"},{"city":"Haridwar","state":"Uttarakhand","latitude":29.9457,"longitude":78.1642,"temp":16.8,"humidity":88,"rain":0.0,"pressure":975.6,"uv_index":6.3,"wind_gusts":27.7,"aqi":96,"pm10":50.9,"pm2_5":46.4,"mosquito_risk":3,"arthritis_risk":10,"migraine_risk":7,"frizz_risk":0,"updated_at":"2026-03-25T00:37:52.686252+05:30"},{"city":"Rishikesh","state":"Uttarakhand","latitude":30.0869,"longitude":78.2676,"temp":17.8,"humidity":75,"rain":0.0,"pressure":968.2,"uv_index":6.3,"wind_gusts":25.6,"aqi":89,"pm10":38.0,"pm2_5":34.0,"mosquito_risk":3,"arthritis_risk":5,"migraine_risk":7,"frizz_risk":0,"updated_at":"2026-03-25T00:37:52.686260+05:30"},{"city":"Nainital","state":"Uttarakhand","latitude":29.3919,"longitude":79.4542,"temp":14.3,"humidity":66,"rain":0.0,"pressure":804.5,"uv_index":7.3,"wind_gusts":43.2,"aqi":90,"pm10":30.9,"pm2_5":28.2,"mosquito_risk":3,"arthritis_risk":5,"migraine_risk":7,"frizz_risk":0,"updated_at":"2026-03-25T00:37:52.686267+05:30"},{"city":"Mussoorie","state":"Uttarakhand","latitude":30.4599,"longitude":78.0664,"temp":12.3,"humidity":72,"rain":0.0,"pressure":800.7,"uv_index":6.85,"wind_gusts":25.9,"aqi":75,"pm10":42.1,"pm2_5":38.4,"mosquito_risk":3,"arthritis_risk":5,"migraine_risk":7,"frizz_risk":0,"updated_at":"2026-03-25T00:37:52.686274+05:30"},{"city":"Dharamshala","state":"Himachal Pradesh","latitude":32.219,"longitude":76.3234,"temp":16.1,"humidity":53,"rain":0.0,"pressure":868.6,"uv_index":6.7,"wind_gusts":21.2,"aqi":85,"pm10":19.3,"pm2_5":12.0,"mosquito_risk":0,"arthritis_risk":5,"migraine_risk":7,"frizz_risk":0,"updated_at":"2026-03-25T00:37:52.686281+05:30"},{"city":"Dalhousie","state":"Himachal Pradesh","latitude":32.5387,"longitude":75.971,"temp":11.9,"humidity":67,"rain":0.0,"pressure":801.7,"uv_index":7.15,"wind_gusts":20.9,"aqi":66,"pm10":37.4,"pm2_5":34.1,"mosquito_risk":3,"arthritis_risk":5,"migraine_risk":7,"frizz_risk":0,"updated_at":"2026-03-25T00:37:52.686288+05:30"},{"city":"Patiala","state":"Punjab","latitude":30.3398,"longitude":76.3869,"temp":18.2,"humidity":79,"rain":0.0,"pressure":980.0,"uv_index":6.4,"wind_gusts":24.8,"aqi":158,"pm10":81.3,"pm2_5":50.8,"mosquito_risk":3,"arthritis_risk":5,"migraine_risk":7,"frizz_risk":0,"updated_at":"2026-03-25T00:37:52.686294+05:30"},{"city":"Bhatinda","state":"Punjab","latitude":30.211,"longitude":74.9455,"temp":21.0,"humidity":68,"rain":0.0,"pressure":985.9,"uv_index":6.0,"wind_gusts":20.5,"aqi":132,"pm10":113.4,"pm2_5":65.4,"mosquito_risk":3,"arthritis_risk":5,"migraine_risk":3,"frizz_risk":0,"updated_at":"2026-03-25T00:37:52.686301+05:30"},{"city":"Rohtak","state":"Haryana","latitude":28.8955,"longitude":76.6066,"temp":20.2,"humidity":70,"rain":0.0,"pressure":983.7,"uv_index":6.5,"wind_gusts":20.5,"aqi":332,"pm10":879.2,"pm2_5":147.6,"mosquito_risk":3,"arthritis_risk":5,"migraine_risk":7,"frizz_risk":0,"updated_at":"2026-03-25T00:37:52.686307+05:30"},{"city":"Panipat","state":"Haryana","latitude":29.3909,"longitude":76.9635,"temp":18.9,"humidity":75,"rain":0.0,"pressure":982.3,"uv_index":6.4,"wind_gusts":25.9,"aqi":535,"pm10":821.4,"pm2_5":134.6,"mosquito_risk":3,"arthritis_risk":5,"migraine_risk":7,"frizz_risk":0,"updated_at":"2026-03-25T00:37:52.686314+05:30"},{"city":"Mathura","state":"Uttar Pradesh","latitude":27.4924,"longitude":77.6737,"temp":20.2,"humidity":71,"rain":0.0,"pressure":988.7,"uv_index":6.85,"wind_gusts":18.0,"aqi":320,"pm10":763.7,"pm2_5":124.8,"mosquito_risk":3,"arthritis_risk":5,"migraine_risk":7,"frizz_risk":0,"updated_at":"2026-03-25T00:37:52.686321+05:30"},{"city":"Vrindavan","state":"Uttar Pradesh","latitude":27.5823,"longitude":77.7027,"temp":20.4,"humidity":70,"rain":0.0,"pressure":989.1,"uv_index":6.8,"wind_gusts":19.1,"aqi":320,"pm10":763.7,"pm2_5":124.8,"mosquito_risk":3,"arthritis_risk":5,"migraine_risk":7,"frizz_risk":0,"updated_at":"2026-03-25T00:37:52.686327+05:30"},{"city":"Ayodhya","state":"Uttar Pradesh","latitude":26.7922,"longitude":82.1998,"temp":21.9,"humidity":68,"rain":0.0,"pressure":996.7,"uv_index":7.25,"wind_gusts":34.2,"aqi":101,"pm10":137.8,"pm2_5":44.6,"mosquito_risk":3,"arthritis_risk":5,"migraine_risk":7,"frizz_risk":0,"updated_at":"2026-03-25T00:37:52.686333+05:30"},{"city":"Ratlam","state":"Madhya Pradesh","latitude":23.3315,"longitude":75.0367,"temp":25.2,"humidity":53,"rain":0.0,"pressure":954.5,"uv_index":8.05,"wind_gusts":24.1,"aqi":61,"pm10":50.3,"pm2_5":36.8,"mosquito_risk":4,"arthritis_risk":5,"migraine_risk":7,"frizz_risk":0,"updated_at":"2026-03-25T00:37:52.686339+05:30"},{"city":"Sagar","state":"Madhya Pradesh","latitude":23.8388,"longitude":78.7378,"temp":25.8,"humidity":43,"rain":0.0,"pressure":950.8,"uv_index":7.95,"wind_gusts":26.3,"aqi":75,"pm10":46.1,"pm2_5":20.7,"mosquito_risk":4,"arthritis_risk":5,"migraine_risk":7,"frizz_risk":0,"updated_at":"2026-03-25T00:37:52.686345+05:30"},{"city":"Satna","state":"Madhya Pradesh","latitude":24.6005,"longitude":80.8322,"temp":24.2,"humidity":52,"rain":0.0,"pressure":972.8,"uv_index":7.85,"wind_gusts":24.5,"aqi":83,"pm10":89.9,"pm2_5":28.2,"mosquito_risk":0,"arthritis_risk":5,"migraine_risk":7,"frizz_risk":0,"updated_at":"2026-03-25T00:37:52.686351+05:30"},{"city":"Akola","state":"Maharashtra","latitude":20.7002,"longitude":77.0082,"temp":26.2,"humidity":54,"rain":0.0,"pressure":974.9,"uv_index":8.45,"wind_gusts":24.1,"aqi":75,"pm10":27.8,"pm2_5":19.2,"mosquito_risk":4,"arthritis_risk":5,"migraine_risk":7,"frizz_risk":1,"updated_at":"2026-03-25T00:37:52.686358+05:30"},{"city":"Amravati","state":"Maharashtra","latitude":20.9374,"longitude":77.7796,"temp":26.3,"humidity":56,"rain":0.0,"pressure":967.1,"uv_index":8.2,"wind_gusts":24.5,"aqi":84,"pm10":27.5,"pm2_5":18.7,"mosquito_risk":4,"arthritis_risk":5,"migraine_risk":7,"frizz_risk":1,"updated_at":"2026-03-25T00:37:52.686365+05:30"},{"city":"Latur","state":"Maharashtra","latitude":18.4088,"longitude":76.5604,"temp":23.7,"humidity":72,"rain":0.0,"pressure":940.3,"uv_index":8.75,"wind_gusts":19.1,"aqi":103,"pm10":53.6,"pm2_5":47.0,"mosquito_risk":3,"arthritis_risk":5,"migraine_risk":7,"frizz_risk":1,"updated_at":"2026-03-25T00:37:52.686371+05:30"},{"city":"Nanded","state":"Maharashtra","latitude":19.1383,"longitude":77.3091,"temp":26.4,"humidity":65,"rain":0.0,"pressure":969.2,"uv_index":8.65,"wind_gusts":20.9,"aqi":89,"pm10":46.0,"pm2_5":41.1,"mosquito_risk":7,"arthritis_risk":5,"migraine_risk":7,"frizz_risk":1,"updated_at":"2026-03-25T00:37:52.686377+05:30"},{"city":"Gulbarga","state":"Karnataka","latitude":17.3297,"longitude":76.8343,"temp":24.7,"humidity":74,"rain":0.0,"pressure":959.8,"uv_index":8.85,"wind_gusts":38.9,"aqi":100,"pm10":35.5,"pm2_5":31.1,"mosquito_risk":3,"arthritis_risk":5,"migraine_risk":7,"frizz_risk":1,"updated_at":"2026-03-25T00:37:52.686383+05:30"},{"city":"Bidar","state":"Karnataka","latitude":17.9104,"longitude":77.5199,"temp":24.0,"humidity":72,"rain":0.0,"pressure":936.3,"uv_index":8.85,"wind_gusts":31.0,"aqi":98,"pm10":46.7,"pm2_5":40.7,"mosquito_risk":3,"arthritis_risk":5,"migraine_risk":7,"frizz_risk":1,"updated_at":"2026-03-25T00:37:52.686390+05:30"},{"city":"Hospet","state":"Karnataka","latitude":15.2689,"longitude":76.3909,"temp":25.4,"humidity":80,"rain":0.0,"pressure":957.1,"uv_index":9.1,"wind_gusts":24.1,"aqi":99,"pm10":48.7,"pm2_5":42.1,"mosquito_risk":7,"arthritis_risk":5,"migraine_risk":7,"frizz_risk":1,"updated_at":"2026-03-25T00:37:52.686395+05:30"},{"city":"Tirupur","state":"Tamil Nadu","latitude":11.1085,"longitude":77.3411,"temp":27.1,"humidity":69,"rain":0.0,"pressure":976.4,"uv_index":9.4,"wind_gusts":30.2,"aqi":68,"pm10":16.9,"pm2_5":15.4,"mosquito_risk":7,"arthritis_risk":5,"migraine_risk":7,"frizz_risk":1,"updated_at":"2026-03-25T00:37:52.686402+05:30"},{"city":"Alappuzha","state":"Kerala","latitude":9.4981,"longitude":76.3388,"temp":27.4,"humidity":84,"rain":0.0,"pressure":1009.7,"uv_index":9.15,"wind_gusts":28.1,"aqi":83,"pm10":41.4,"pm2_5":32.8,"mosquito_risk":7,"arthritis_risk":0,"migraine_risk":4,"frizz_risk":1,"updated_at":"2026-03-25T00:37:52.686408+05:30"},{"city":"Munnar","state":"Kerala","latitude":10.0889,"longitude":77.0595,"temp":21.7,"humidity":81,"rain":0.0,"pressure":857.4,"uv_index":9.65,"wind_gusts":32.4,"aqi":65,"pm10":30.7,"pm2_5":27.4,"mosquito_risk":3,"arthritis_risk":5,"migraine_risk":7,"frizz_risk":1,"updated_at":"2026-03-25T00:37:52.686415+05:30"},{"city":"Silchar","state":"Assam","latitude":24.8333,"longitude":92.7789,"temp":20.5,"humidity":83,"rain":0.0,"pressure":1006.4,"uv_index":8.15,"wind_gusts":31.7,"aqi":156,"pm10":107.1,"pm2_5":96.9,"mosquito_risk":3,"arthritis_risk":5,"migraine_risk":4,"frizz_risk":1,"updated_at":"2026-03-25T00:37:52.686421+05:30"},{"city":"Dibrugarh","state":"Assam","latitude":27.4728,"longitude":94.912,"temp":20.5,"humidity":92,"rain":0.0,"pressure":997.0,"uv_index":6.75,"wind_gusts":24.8,"aqi":63,"pm10":11.7,"pm2_5":10.0,"mosquito_risk":3,"arthritis_risk":5,"migraine_risk":7,"frizz_risk":1,"updated_at":"2026-03-25T00:37:52.686427+05:30"}]