[{"city":"Delhi","state":"Delhi","latitude":28.6139,"longitude":77.209,"temp":24.1,"humidity":53,"rain":0.0,"pressure":987.1,"uv_index":6.15,"wind_gusts":45.7,"aqi":187,"pm10":430.3,"pm2_5":74.3,"mosquito_risk":0,"arthritis_risk":5,"migraine_risk":7,"frizz_risk":0,"updated_at":"2026-03-15T10:38:20.321628+05:30"},{"city":"Mumbai","state":"Maharashtra","latitude":19.076,"longitude":72.8777,"temp":27.4,"humidity":78,"rain":0.0,"pressure":1012.5,"uv_index":7.7,"wind_gusts":19.4,"aqi":109,"pm10":86.6,"pm2_5":46.4,"mosquito_risk":7,"arthritis_risk":0,"migraine_risk":4,"frizz_risk":1,"updated_at":"2026-03-15T10:38:20.321668+05:30"},{"city":"Bangalore","state":"Karnataka","latitude":12.9716,"longitude":77.5946,"temp":26.0,"humidity":60,"rain":0.0,"pressure":916.6,"uv_index":9.3,"wind_gusts":19.1,"aqi":85,"pm10":24.5,"pm2_5":21.8,"mosquito_risk":4,"arthritis_risk":5,"migraine_risk":7,"frizz_risk":1,"updated_at":"2026-03-15T10:38:20.321683+05:30"},{"city":"Hyderabad","state":"Telangana","latitude":17.385,"longitude":78.4867,"temp":29.6,"humidity":48,"rain":0.0,"pressure":958.3,"uv_index":8.7,"wind_gusts":33.1,"aqi":94,"pm10":34.8,"pm2_5":24.6,"mosquito_risk":4,"arthritis_risk":5,"migraine_risk":7,"frizz_risk":1,"updated_at":"2026-03-15T10:38:20.321693+05:30"},{"city":"Chennai","state":"Tamil Nadu","latitude":13.0827,"longitude":80.2707,"temp":31.2,"humidity":55,"rain":0.0,"pressure":1013.0,"uv_index":9.05,"wind_gusts":31.3,"aqi":51,"pm10":13.4,"pm2_5":10.3,"mosquito_risk":0,"arthritis_risk":0,"migraine_risk":4,"frizz_risk":1,"updated_at":"2026-03-15T10:38:20.321701+05:30"},{"city":"Kolkata","state":"West Bengal","latitude":22.5726,"longitude":88.3639,"temp":29.2,"humidity":70,"rain":0.0,"pressure":1011.1,"uv_index":8.1,"wind_gusts":38.5,"aqi":67,"pm10":25.5,"pm2_5":17.8,"mosquito_risk":7,"arthritis_risk":0,"migraine_risk":4,"frizz_risk":1,"updated_at":"2026-03-15T10:38:20.321709+05:30"},{"city":"Pune","state":"Maharashtra","latitude":18.5204,"longitude":73.8567,"temp":33.3,"humidity":14,"rain":0.0,"pressure":952.6,"uv_index":8.25,"wind_gusts":41.0,"aqi":91,"pm10":36.2,"pm2_5":21.4,"mosquito_risk":0,"arthritis_risk":5,"migraine_risk":7,"frizz_risk":0,"updated_at":"2026-03-15T10:38:20.321721+05:30"},{"city":"Ahmedabad","state":"Gujarat","latitude":23.0225,"longitude":72.5714,"temp":29.4,"humidity":55,"rain":0.0,"pressure":1005.9,"uv_index":7.45,"wind_gusts":27.0,"aqi":73,"pm10":56.3,"pm2_5":22.6,"mosquito_risk":4,"arthritis_risk":5,"migraine_risk":4,"frizz_risk":1,"updated_at":"2026-03-15T10:38:20.321729+05:30"},{"city":"Jaipur","state":"Rajasthan","latitude":26.9124,"longitude":75.7873,"temp":28.4,"humidity":33,"rain":0.0,"pressure":962.0,"uv_index":7.0,"wind_gusts":47.5,"aqi":120,"pm10":220.7,"pm2_5":45.6,"mosquito_risk":4,"arthritis_risk":5,"migraine_risk":7,"frizz_risk":0,"updated_at":"2026-03-15T10:38:20.321739+05:30"},{"city":"Lucknow","state":"Uttar Pradesh","latitude":26.8467,"longitude":80.9462,"temp":27.5,"humidity":54,"rain":0.0,"pressure":997.3,"uv_index":6.7,"wind_gusts":49.7,"aqi":150,"pm10":58.0,"pm2_5":26.7,"mosquito_risk":4,"arthritis_risk":5,"migraine_risk":7,"frizz_risk":1,"updated_at":"2026-03-15T10:38:20.321747+05:30"},{"city":"Kanpur","state":"Uttar Pradesh","latitude":26.4499,"longitude":80.3319,"temp":26.1,"humidity":60,"rain":0.0,"pressure":995.0,"uv_index":6.65,"wind_gusts":47.2,"aqi":158,"pm10":182.1,"pm2_5":41.4,"mosquito_risk":4,"arthritis_risk":5,"migraine_risk":7,"frizz_risk":1,"updated_at":"2026-03-15T10:38:20.321753+05:30"},{"city":"Chandigarh","state":"Chandigarh","latitude":30.7333,"longitude":76.7794,"temp":22.5,"humidity":62,"rain":0.0,"pressure":972.5,"uv_index":5.95,"wind_gusts":35.3,"aqi":79,"pm10":43.3,"pm2_5":23.5,"mosquito_risk":3,"arthritis_risk":5,"migraine_risk":3,"frizz_risk":0,"updated_at":"2026-03-15T10:38:20.321760+05:30"},{"city":"Srinagar","state":"Jammu and Kashmir","latitude":34.0837,"longitude":74.7973,"temp":12.6,"humidity":61,"rain":0.0,"pressure":839.7,"uv_index":4.95,"wind_gusts":42.8,"aqi":93,"pm10":59.8,"pm2_5":31.7,"mosquito_risk":3,"arthritis_risk":5,"migraine_risk":3,"frizz_risk":0,"updated_at":"2026-03-15T10:38:20.321767+05:30"},{"city":"Jammu","state":"Jammu and Kashmir","latitude":32.7266,"longitude":74.857,"temp":20.1,"humidity":77,"rain":0.0,"pressure":974.6,"uv_index":3.35,"wind_gusts":51.8,"aqi":84,"pm10":41.1,"pm2_5":31.5,"mosquito_risk":3,"arthritis_risk":5,"migraine_risk":3,"frizz_risk":0,"updated_at":"2026-03-15T10:38:20.321774+05:30"},{"city":"Amritsar","state":"Punjab","latitude":31.634,"longitude":74.8723,"temp":18.7,"humidity":86,"rain":0.2,"pressure":983.7,"uv_index":3.5,"wind_gusts":41.4,"aqi":99,"pm10":46.1,"pm2_5":32.1,"mosquito_risk":6,"arthritis_risk":10,"migraine_risk":3,"frizz_risk":1,"updated_at":"2026-03-15T10:38:20.321781+05:30"},{"city":"Ludhiana","state":"Punjab","latitude":30.901,"longitude":75.8573,"temp":19.3,"humidity":77,"rain":0.0,"pressure":981.3,"uv_index":6.25,"wind_gusts":35.3,"aqi":117,"pm10":50.4,"pm2_5":30.6,"mosquito_risk":3,"arthritis_risk":5,"migraine_risk":7,"frizz_risk":0,"updated_at":"2026-03-15T10:38:20.321787+05:30"},{"city":"Jalandhar","state":"Punjab","latitude":31.326,"longitude":75.5762,"temp":19.9,"humidity":74,"rain":0.0,"pressure":983.1,"uv_index":5.4,"wind_gusts":29.5,"aqi":109,"pm10":60.3,"pm2_5":32.2,"mosquito_risk":3,"arthritis_risk":5,"migraine_risk":3,"frizz_risk":0,"updated_at":"2026-03-15T10:38:20.321796+05:30"},{"city":"Dehradun","state":"Uttarakhand","latitude":30.6284,"longitude":78.0322,"temp":13.9,"humidity":58,"rain":0.0,"pressure":830.8,"uv_index":6.1,"wind_gusts":38.5,"aqi":53,"pm10":24.8,"pm2_5":10.6,"mosquito_risk":0,"arthritis_risk":5,"migraine_risk":7,"frizz_risk":0,"updated_at":"2026-03-15T10:38:20.321803+05:30"},{"city":"Shimla","state":"Himachal Pradesh","latitude":31.1048,"longitude":77.1734,"temp":15.3,"humidity":54,"rain":0.0,"pressure":785.5,"uv_index":5.9,"wind_gusts":45.7,"aqi":63,"pm10":28.9,"pm2_5":14.3,"mosquito_risk":0,"arthritis_risk":5,"migraine_risk":3,"frizz_risk":0,"updated_at":"2026-03-15T10:38:20.321809+05:30"},{"city":"Manali","state":"Himachal Pradesh","latitude":32.2396,"longitude":77.1887,"temp":15.2,"humidity":41,"rain":0.0,"pressure":818.8,"uv_index":5.85,"wind_gusts":34.2,"aqi":46,"pm10":28.9,"pm2_5":7.9,"mosquito_risk":0,"arthritis_risk":5,"migraine_risk":3,"frizz_risk":0,"updated_at":"2026-03-15T10:38:20.321816+05:30"},{"city":"Gurgaon","state":"Haryana","latitude":28.4595,"longitude":77.0266,"temp":25.3,"humidity":45,"rain":0.0,"pressure":984.3,"uv_index":6.25,"wind_gusts":45.4,"aqi":397,"pm10":363.2,"pm2_5":74.7,"mosquito_risk":4,"arthritis_risk":5,"migraine_risk":7,"frizz_risk":0,"updated_at":"2026-03-15T10:38:20.321823+05:30"},{"city":"Noida","state":"Uttar Pradesh","latitude":28.5355,"longitude":77.391,"temp":23.8,"humidity":58,"rain":0.0,"pressure":989.2,"uv_index":6.15,"wind_gusts":44.6,"aqi":397,"pm10":363.2,"pm2_5":74.7,"mosquito_risk":0,"arthritis_risk":5,"migraine_risk":7,"frizz_risk":0,"updated_at":"2026-03-15T10:38:20.321830+05:30"},{"city":"Ghaziabad","state":"Uttar Pradesh","latitude":28.6692,"longitude":77.4538,"temp":24.3,"humidity":59,"rain":0.0,"pressure":986.7,"uv_index":6.15,"wind_gusts":40.7,"aqi":171,"pm10":375.3,"pm2_5":58.9,"mosquito_risk":0,"arthritis_risk":5,"migraine_risk":7,"frizz_risk":0,"updated_at":"2026-03-15T10:38:20.321836+05:30"},{"city":"Faridabad","state":"Haryana","latitude":28.4089,"longitude":77.3178,"temp":22.6,"humidity":65,"rain":0.0,"pressure":988.1,"uv_index":6.2,"wind_gusts":42.5,"aqi":397,"pm10":363.2,"pm2_5":74.7,"mosquito_risk":3,"arthritis_risk":5,"migraine_risk":7,"frizz_risk":0,"updated_at":"2026-03-15T10:38:20.321843+05:30"},{"city":"Meerut","state":"Uttar Pradesh","latitude":28.9845,"longitude":77.7064,"temp":22.5,"humidity":73,"rain":0.0,"pressure":984.7,"uv_index":6.05,"wind_gusts":32.0,"aqi":171,"pm10":375.3,"pm2_5":58.9,"mosquito_risk":3,"arthritis_risk":5,"migraine_risk":7,"frizz_risk":1,"updated_at":"2026-03-15T10:38:20.321849+05:30"},{"city":"Agra","state":"Uttar Pradesh","latitude":27.1767,"longitude":78.0081,"temp":27.7,"humidity":39,"rain":0.0,"pressure":990.3,"uv_index":6.6,"wind_gusts":45.7,"aqi":509,"pm10":806.5,"pm2_5":98.3,"mosquito_risk":4,"arthritis_risk":5,"migraine_risk":7,"frizz_risk":0,"updated_at":"2026-03-15T10:38:20.321855+05:30"},{"city":"Varanasi","state":"Uttar Pradesh","latitude":25.3176,"longitude":82.9739,"temp":29.6,"humidity":54,"rain":0.0,"pressure":1000.8,"uv_index":7.35,"wind_gusts":34.2,"aqi":151,"pm10":107.6,"pm2_5":49.0,"mosquito_risk":4,"arthritis_risk":5,"migraine_risk":4,"frizz_risk":1,"updated_at":"2026-03-15T10:38:20.321864+05:30"},{"city":"Prayagraj","state":"Uttar Pradesh","latitude":25.4358,"longitude":81.8463,"temp":28.3,"humidity":59,"rain":0.0,"pressure":999.6,"uv_index":7.25,"wind_gusts":42.8,"aqi":135,"pm10":88.5,"pm2_5":46.2,"mosquito_risk":4,"arthritis_risk":5,"migraine_risk":7,"frizz_risk":1,"updated_at":"2026-03-15T10:38:20.321873+05:30"},{"city":"Gorakhpur","state":"Uttar Pradesh","latitude":26.7606,"longitude":83.3732,"temp":25.3,"humidity":71,"rain":0.0,"pressure":1002.4,"uv_index":7.1,"wind_gusts":39.2,"aqi":155,"pm10":97.1,"pm2_5":64.5,"mosquito_risk":7,"arthritis_risk":5,"migraine_risk":4,"frizz_risk":1,"updated_at":"2026-03-15T10:38:20.321879+05:30"},{"city":"Bareilly","state":"Uttar Pradesh","latitude":28.367,"longitude":79.4304,"temp":24.3,"humidity":64,"rain":0.0,"pressure":990.5,"uv_index":6.15,"wind_gusts":41.0,"aqi":150,"pm10":51.8,"pm2_5":29.2,"mosquito_risk":3,"arthritis_risk":5,"migraine_risk":7,"frizz_risk":1,"updated_at":"2026-03-15T10:38:20.321886+05:30"},{"city":"Aligarh","state":"Uttar Pradesh","latitude":27.8974,"longitude":78.088,"temp":27.8,"humidity":46,"rain":0.0,"pressure":988.5,"uv_index":6.25,"wind_gusts":51.5,"aqi":191,"pm10":616.5,"pm2_5":87.8,"mosquito_risk":4,"arthritis_risk":5,"migraine_risk":7,"frizz_risk":0,"updated_at":"2026-03-15T10:38:20.321892+05:30"},{"city":"Moradabad","state":"Uttar Pradesh","latitude":28.8386,"longitude":78.7733,"temp":22.9,"humidity":70,"rain":0.0,"pressure":987.2,"uv_index":5.4,"wind_gusts":41.0,"aqi":156,"pm10":65.4,"pm2_5":29.6,"mosquito_risk":3,"arthritis_risk":5,"migraine_risk":3,"frizz_risk":1,"updated_at":"2026-03-15T10:38:20.321898+05:30"},{"city":"Saharanpur","state":"Uttar Pradesh","latitude":29.9637,"longitude":77.546,"temp":18.4,"humidity":85,"rain":0.0,"pressure":980.3,"uv_index":5.8,"wind_gusts":33.1,"aqi":134,"pm10":46.6,"pm2_5":21.4,"mosquito_risk":3,"arthritis_risk":10,"migraine_risk":3,"frizz_risk":0,"updated_at":"2026-03-15T10:38:20.321903+05:30"},{"city":"Jhansi","state":"Uttar Pradesh","latitude":25.4484,"longitude":78.5685,"temp":29.3,"humidity":47,"rain":0.0,"pressure":980.0,"uv_index":7.2,"wind_gusts":49.3,"aqi":114,"pm10":131.8,"pm2_5":39.5,"mosquito_risk":4,"arthritis_risk":5,"migraine_risk":7,"frizz_risk":1,"updated_at":"2026-03-15T10:38:23.664640+05:30"},{"city":"Surat","state":"Gujarat","latitude":21.1702,"longitude":72.8311,"temp":29.4,"humidity":57,"rain":0.0,"pressure":1010.7,"uv_index":7.4,"wind_gusts":24.5,"aqi":137,"pm10":109.2,"pm2_5":57.6,"mosquito_risk":4,"arthritis_risk":0,"migraine_risk":4,"frizz_risk":1,"updated_at":"2026-03-15T10:38:23.664677+05:30"},{"city":"Vadodara","state":"Gujarat","latitude":22.3072,"longitude":73.1812,"temp":30.2,"humidity":48,"rain":0.0,"pressure":1008.4,"uv_index":7.5,"wind_gusts":24.5,"aqi":94,"pm10":80.3,"pm2_5":29.8,"mosquito_risk":0,"arthritis_risk":0,"migraine_risk":4,"frizz_risk":1,"updated_at":"2026-03-15T10:38:23.664690+05:30"},{"city":"Rajkot","state":"Gujarat","latitude":22.3039,"longitude":70.8022,"temp":29.8,"humidity":49,"rain":0.0,"pressure":998.1,"uv_index":7.35,"wind_gusts":37.8,"aqi":75,"pm10":61.0,"pm2_5":20.3,"mosquito_risk":4,"arthritis_risk":5,"migraine_risk":7,"frizz_risk":1,"updated_at":"2026-03-15T10:38:23.664701+05:30"},{"city":"Thane","state":"Maharashtra","latitude":19.2183,"longitude":72.9781,"temp":29.8,"humidity":59,"rain":0.0,"pressure":1012.0,"uv_index":7.7,"wind_gusts":33.5,"aqi":109,"pm10":86.6,"pm2_5":46.4,"mosquito_risk":4,"arthritis_risk":0,"migraine_risk":4,"frizz_risk":1,"updated_at":"2026-03-15T10:38:23.664711+05:30"},{"city":"Nagpur","state":"Maharashtra","latitude":21.1458,"longitude":79.0882,"temp":32.6,"humidity":37,"rain":0.0,"pressure":977.1,"uv_index":8.15,"wind_gusts":26.3,"aqi":123,"pm10":47.3,"pm2_5":42.1,"mosquito_risk":0,"arthritis_risk":5,"migraine_risk":7,"frizz_risk":0,"updated_at":"2026-03-15T10:38:23.664720+05:30"},{"city":"Nashik","state":"Maharashtra","latitude":19.9975,"longitude":73.7898,"temp":29.1,"humidity":40,"rain":0.0,"pressure":949.7,"uv_index":7.9,"wind_gusts":40.0,"aqi":74,"pm10":58.3,"pm2_5":23.1,"mosquito_risk":4,"arthritis_risk":5,"migraine_risk":7,"frizz_risk":0,"updated_at":"2026-03-15T10:38:23.664727+05:30"},{"city":"Aurangabad","state":"Maharashtra","latitude":19.8762,"longitude":75.3433,"temp":30.3,"humidity":23,"rain":0.0,"pressure":948.3,"uv_index":8.4,"wind_gusts":30.6,"aqi":70,"pm10":37.1,"pm2_5":17.3,"mosquito_risk":0,"arthritis_risk":5,"migraine_risk":7,"frizz_risk":0,"updated_at":"2026-03-15T10:38:23.664733+05:30"},{"city":"Solapur","state":"Maharashtra","latitude":17.6599,"longitude":75.9064,"temp":30.1,"humidity":33,"rain":0.0,"pressure":961.6,"uv_index":8.65,"wind_gusts":23.4,"aqi":118,"pm10":39.6,"pm2_5":36.1,"mosquito_risk":0,"arthritis_risk":5,"migraine_risk":7,"frizz_risk":0,"updated_at":"2026-03-15T10:38:23.664741+05:30"},{"city":"Kolhapur","state":"Maharashtra","latitude":16.705,"longitude":74.2433,"temp":27.7,"humidity":49,"rain":0.0,"pressure":952.4,"uv_index":8.75,"wind_gusts":40.3,"aqi":151,"pm10":47.8,"pm2_5":43.9,"mosquito_risk":4,"arthritis_risk":5,"migraine_risk":7,"frizz_risk":0,"updated_at":"2026-03-15T10:38:23.664747+05:30"},{"city":"Goa","state":"Goa","latitude":15.2993,"longitude":74.124,"temp":31.3,"humidity":61,"rain":0.0,"pressure":1002.3,"uv_index":8.75,"wind_gusts":32.8,"aqi":123,"pm10":46.0,"pm2_5":41.1,"mosquito_risk":3,"arthritis_risk":5,"migraine_risk":4,"frizz_risk":1,"updated_at":"2026-03-15T10:38:23.664754+05:30"},{"city":"Jodhpur","state":"Rajasthan","latitude":26.2389,"longitude":73.0243,"temp":30.4,"humidity":28,"rain":0.0,"pressure":985.1,"uv_index":7.25,"wind_gusts":32.0,"aqi":120,"pm10":155.5,"pm2_5":45.4,"mosquito_risk":0,"arthritis_risk":5,"migraine_risk":7,"frizz_risk":0,"updated_at":"2026-03-15T10:38:23.664761+05:30"},{"city":"Udaipur","state":"Rajasthan","latitude":24.5854,"longitude":73.7125,"temp":30.9,"humidity":28,"rain":0.0,"pressure":949.4,"uv_index":7.85,"wind_gusts":37.4,"aqi":61,"pm10":69.6,"pm2_5":23.5,"mosquito_risk":0,"arthritis_risk":5,"migraine_risk":7,"frizz_risk":0,"updated_at":"2026-03-15T10:38:23.664769+05:30"},{"city":"Kota","state":"Rajasthan","latitude":25.2138,"longitude":75.8648,"temp":32.9,"humidity":24,"rain":0.0,"pressure":980.8,"uv_index":7.3,"wind_gusts":37.8,"aqi":67,"pm10":50.9,"pm2_5":23.5,"mosquito_risk":0,"arthritis_risk":5,"migraine_risk":7,"frizz_risk":0,"updated_at":"2026-03-15T10:38:23.664775+05:30"},{"city":"Bikaner","state":"Rajasthan","latitude":28.0229,"longitude":73.3119,"temp":28.4,"humidity":39,"rain":0.0,"pressure":983.4,"uv_index":6.9,"wind_gusts":41.8,"aqi":70,"pm10":68.0,"pm2_5":21.7,"mosquito_risk":4,"arthritis_risk":5,"migraine_risk":7,"frizz_risk":0,"updated_at":"2026-03-15T10:38:23.664782+05:30"},{"city":"Ajmer","state":"Rajasthan","latitude":26.4499,"longitude":74.6399,"temp":29.1,"humidity":31,"rain":0.0,"pressure":956.5,"uv_index":7.25,"wind_gusts":40.3,"aqi":75,"pm10":93.4,"pm2_5":35.0,"mosquito_risk":4,"arthritis_risk":5,"migraine_risk":7,"frizz_risk":0,"updated_at":"2026-03-15T10:38:23.664788+05:30"},{"city":"Gwalior","state":"Madhya Pradesh","latitude":26.2183,"longitude":78.1828,"temp":25.8,"humidity":55,"rain":0.0,"pressure":986.1,"uv_index":6.9,"wind_gusts":33.8,"aqi":118,"pm10":88.2,"pm2_5":31.3,"mosquito_risk":4,"arthritis_risk":5,"migraine_risk":7,"frizz_risk":0,"updated_at":"2026-03-15T10:38:23.664794+05:30"},{"city":"Indore","state":"Madhya Pradesh","latitude":22.7196,"longitude":75.8577,"temp":30.6,"humidity":35,"rain":0.0,"pressure":951.7,"uv_index":7.8,"wind_gusts":36.0,"aqi":62,"pm10":61.5,"pm2_5":25.1,"mosquito_risk":0,"arthritis_risk":5,"migraine_risk":7,"frizz_risk":0,"updated_at":"2026-03-15T10:38:23.664800+05:30"},{"city":"Bhopal","state":"Madhya Pradesh","latitude":23.2599,"longitude":77.4126,"temp":31.7,"humidity":30,"rain":0.0,"pressure":957.0,"uv_index":7.7,"wind_gusts":42.8,"aqi":69,"pm10":42.6,"pm2_5":20.4,"mosquito_risk":0,"arthritis_risk":5,"migraine_risk":7,"frizz_risk":0,"updated_at":"2026-03-15T10:38:23.664806+05:30"},{"city":"Jabalpur","state":"Madhya Pradesh","latitude":23.1815,"longitude":79.9864,"temp":31.4,"humidity":33,"rain":0.0,"pressure":965.0,"uv_index":7.8,"wind_gusts":38.5,"aqi":64,"pm10":22.5,"pm2_5":15.9,"mosquito_risk":0,"arthritis_risk":5,"migraine_risk":7,"frizz_risk":0,"updated_at":"2026-03-15T10:38:23.664812+05:30"},{"city":"Ujjain","state":"Madhya Pradesh","latitude":23.1765,"longitude":75.7885,"temp":29.1,"humidity":43,"rain":0.0,"pressure":957.2,"uv_index":7.7,"wind_gusts":36.7,"aqi":62,"pm10":59.5,"pm2_5":26.3,"mosquito_risk":4,"arthritis_risk":5,"migraine_risk":7,"frizz_risk":0,"updated_at":"2026-03-15T10:38:23.664819+05:30"},{"city":"Visakhapatnam","state":"Andhra Pradesh","latitude":17.6868,"longitude":83.2185,"temp":30.5,"humidity":59,"rain":0.0,"pressure":1009.7,"uv_index":8.65,"wind_gusts":40.0,"aqi":61,"pm10":24.1,"pm2_5":18.3,"mosquito_risk":0,"arthritis_risk":0,"migraine_risk":4,"frizz_risk":1,"updated_at":"2026-03-15T10:38:23.664825+05:30"},{"city":"Vijayawada","state":"Andhra Pradesh","latitude":16.5062,"longitude":80.648,"temp":29.9,"humidity":63,"rain":0.0,"pressure":1008.4,"uv_index":8.75,"wind_gusts":29.2,"aqi":59,"pm10":16.0,"pm2_5":12.1,"mosquito_risk":7,"arthritis_risk":0,"migraine_risk":4,"frizz_risk":1,"updated_at":"2026-03-15T10:38:23.664832+05:30"},{"city":"Guntur","state":"Andhra Pradesh","latitude":16.3067,"longitude":80.4365,"temp":30.2,"humidity":62,"rain":0.0,"pressure":1009.4,"uv_index":8.75,"wind_gusts":30.2,"aqi":56,"pm10":15.9,"pm2_5":12.0,"mosquito_risk":3,"arthritis_risk":0,"migraine_risk":4,"frizz_risk":1,"updated_at":"2026-03-15T10:38:23.664838+05:30"},{"city":"Nellore","state":"Andhra Pradesh","latitude":14.4426,"longitude":79.9865,"temp":30.2,"humidity":59,"rain":0.0,"pressure":1011.6,"uv_index":8.95,"wind_gusts":29.2,"aqi":55,"pm10":20.8,"pm2_5":19.2,"mosquito_risk":0,"arthritis_risk":0,"migraine_risk":4,"frizz_risk":1,"updated_at":"2026-03-15T10:38:23.664846+05:30"},{"city":"Kurnool","state":"Andhra Pradesh","latitude":15.8281,"longitude":78.0373,"temp":32.2,"humidity":49,"rain":0.0,"pressure":981.7,"uv_index":8.75,"wind_gusts":20.2,"aqi":87,"pm10":27.4,"pm2_5":23.3,"mosquito_risk":0,"arthritis_risk":5,"migraine_risk":7,"frizz_risk":1,"updated_at":"2026-03-15T10:38:23.664852+05:30"},{"city":"Kakinada","state":"Andhra Pradesh","latitude":16.9891,"longitude":82.2475,"temp":31.2,"humidity":57,"rain":0.0,"pressure":1013.5,"uv_index":8.7,"wind_gusts":31.7,"aqi":56,"pm10":21.0,"pm2_5":14.6,"mosquito_risk":0,"arthritis_risk":0,"migraine_risk":4,"frizz_risk":1,"updated_at":"2026-03-15T10:38:23.664859+05:30"},{"city":"Tirupati","state":"Andhra Pradesh","latitude":13.6288,"longitude":79.4192,"temp":28.8,"humidity":62,"rain":0.0,"pressure":997.6,"uv_index":9.05,"wind_gusts":28.8,"aqi":71,"pm10":19.6,"pm2_5":18.0,"mosquito_risk":7,"arthritis_risk":5,"migraine_risk":7,"frizz_risk":1,"updated_at":"2026-03-15T10:38:23.664864+05:30"},{"city":"Warangal","state":"Telangana","latitude":17.9689,"longitude":79.5941,"temp":27.5,"humidity":69,"rain":0.0,"pressure":984.3,"uv_index":8.55,"wind_gusts":31.7,"aqi":79,"pm10":20.7,"pm2_5":17.5,"mosquito_risk":7,"arthritis_risk":5,"migraine_risk":7,"frizz_risk":1,"updated_at":"2026-03-15T10:38:23.664871+05:30"},{"city":"Nizamabad","state":"Telangana","latitude":18.6725,"longitude":78.0941,"temp":31.3,"humidity":44,"rain":0.0,"pressure":969.3,"uv_index":8.45,"wind_gusts":31.3,"aqi":121,"pm10":37.5,"pm2_5":32.0,"mosquito_risk":0,"arthritis_risk":5,"migraine_risk":7,"frizz_risk":1,"updated_at":"2026-03-15T10:38:23.664877+05:30"},{"city":"Mysore","state":"Karnataka","latitude":12.2958,"longitude":76.6396,"temp":27.3,"humidity":57,"rain":0.0,"pressure":933.3,"uv_index":9.3,"wind_gusts":28.4,"aqi":94,"pm10":27.0,"pm2_5":24.5,"mosquito_risk":4,"arthritis_risk":5,"migraine_risk":7,"frizz_risk":1,"updated_at":"2026-03-15T10:38:23.664883+05:30"},{"city":"Mangalore","state":"Karnataka","latitude":12.9141,"longitude":74.856,"temp":28.1,"humidity":80,"rain":0.0,"pressure":1011.5,"uv_index":8.95,"wind_gusts":28.1,"aqi":90,"pm10":34.7,"pm2_5":29.6,"mosquito_risk":7,"arthritis_risk":0,"migraine_risk":4,"frizz_risk":1,"updated_at":"2026-03-15T10:38:23.664889+05:30"},{"city":"Hubli-Dharwad","state":"Karnataka","latitude":15.3647,"longitude":75.124,"temp":28.2,"humidity":58,"rain":0.0,"pressure":945.7,"uv_index":8.95,"wind_gusts":45.4,"aqi":110,"pm10":50.4,"pm2_5":44.6,"mosquito_risk":4,"arthritis_risk":5,"migraine_risk":7,"frizz_risk":1,"updated_at":"2026-03-15T10:38:23.664895+05:30"},{"city":"Belgaum","state":"Karnataka","latitude":15.8497,"longitude":74.4977,"temp":28.4,"humidity":44,"rain":0.0,"pressure":930.5,"uv_index":9.0,"wind_gusts":37.1,"aqi":137,"pm10":42.0,"pm2_5":37.3,"mosquito_risk":4,"arthritis_risk":5,"migraine_risk":7,"frizz_risk":0,"updated_at":"2026-03-15T10:38:27.012466+05:30"},{"city":"Coimbatore","state":"Tamil Nadu","latitude":11.0168,"longitude":76.9558,"temp":29.3,"humidity":54,"rain":0.0,"pressure":967.1,"uv_index":9.3,"wind_gusts":34.6,"aqi":69,"pm10":13.0,"pm2_5":11.4,"mosquito_risk":4,"arthritis_risk":5,"migraine_risk":7,"frizz_risk":1,"updated_at":"2026-03-15T10:38:27.012494+05:30"},{"city":"Madurai","state":"Tamil Nadu","latitude":9.9252,"longitude":78.1198,"temp":30.9,"humidity":54,"rain":0.0,"pressure":998.3,"uv_index":9.25,"wind_gusts":28.4,"aqi":52,"pm10":11.4,"pm2_5":9.1,"mosquito_risk":0,"arthritis_risk":5,"migraine_risk":7,"frizz_risk":1,"updated_at":"2026-03-15T10:38:27.012504+05:30"},{"city":"Trichy","state":"Tamil Nadu","latitude":10.7905,"longitude":78.7047,"temp":30.3,"humidity":59,"rain":0.0,"pressure":1005.4,"uv_index":9.15,"wind_gusts":20.2,"aqi":56,"pm10":13.6,"pm2_5":12.1,"mosquito_risk":0,"arthritis_risk":5,"migraine_risk":4,"frizz_risk":1,"updated_at":"2026-03-15T10:38:27.012512+05:30"},{"city":"Salem","state":"Tamil Nadu","latitude":11.6643,"longitude":78.146,"temp":29.1,"humidity":61,"rain":0.0,"pressure":982.8,"uv_index":9.2,"wind_gusts":13.3,"aqi":72,"pm10":17.9,"pm2_5":16.6,"mosquito_risk":7,"arthritis_risk":5,"migraine_risk":7,"frizz_risk":1,"updated_at":"2026-03-15T10:38:27.012547+05:30"},{"city":"Tirunelveli","state":"Tamil Nadu","latitude":8.7139,"longitude":77.7567,"temp":31.7,"humidity":52,"rain":0.0,"pressure":1008.2,"uv_index":9.25,"wind_gusts":34.9,"aqi":50,"pm10":8.8,"pm2_5":7.3,"mosquito_risk":0,"arthritis_risk":0,"migraine_risk":4,"frizz_risk":1,"updated_at":"2026-03-15T10:38:27.012556+05:30"},{"city":"Vellore","state":"Tamil Nadu","latitude":12.9165,"longitude":79.1325,"temp":29.0,"humidity":57,"rain":0.0,"pressure":990.3,"uv_index":9.1,"wind_gusts":29.9,"aqi":97,"pm10":27.5,"pm2_5":25.8,"mosquito_risk":4,"arthritis_risk":5,"migraine_risk":7,"frizz_risk":1,"updated_at":"2026-03-15T10:38:27.012564+05:30"},{"city":"Erode","state":"Tamil Nadu","latitude":11.341,"longitude":77.7172,"temp":30.4,"humidity":56,"rain":0.0,"pressure":994.6,"uv_index":9.2,"wind_gusts":21.2,"aqi":49,"pm10":10.9,"pm2_5":9.5,"mosquito_risk":0,"arthritis_risk":5,"migraine_risk":7,"frizz_risk":1,"updated_at":"2026-03-15T10:38:27.012571+05:30"},{"city":"Kochi","state":"Kerala","latitude":9.9312,"longitude":76.2673,"temp":27.7,"humidity":80,"rain":0.0,"pressure":1013.2,"uv_index":9.1,"wind_gusts":32.8,"aqi":77,"pm10":19.7,"pm2_5":18.5,"mosquito_risk":7,"arthritis_risk":0,"migraine_risk":4,"frizz_risk":1,"updated_at":"2026-03-15T10:38:27.012579+05:30"},{"city":"Thiruvananthapuram","state":"Kerala","latitude":8.5241,"longitude":76.9366,"temp":27.7,"humidity":79,"rain":0.0,"pressure":1012.4,"uv_index":9.1,"wind_gusts":27.0,"aqi":42,"pm10":12.3,"pm2_5":11.4,"mosquito_risk":7,"arthritis_risk":0,"migraine_risk":4,"frizz_risk":1,"updated_at":"2026-03-15T10:38:27.012586+05:30"},{"city":"Kozhikode","state":"Kerala","latitude":11.2588,"longitude":75.7804,"temp":29.1,"humidity":73,"rain":0.0,"pressure":1012.6,"uv_index":9.0,"wind_gusts":30.6,"aqi":79,"pm10":28.8,"pm2_5":26.3,"mosquito_risk":7,"arthritis_risk":0,"migraine_risk":4,"frizz_risk":1,"updated_at":"2026-03-15T10:38:27.012592+05:30"},{"city":"Thrissur","state":"Kerala","latitude":10.5276,"longitude":76.2144,"temp":31.6,"humidity":59,"rain":0.0,"pressure":1011.4,"uv_index":9.05,"wind_gusts":39.6,"aqi":76,"pm10":21.7,"pm2_5":19.8,"mosquito_risk":0,"arthritis_risk":0,"migraine_risk":4,"frizz_risk":1,"updated_at":"2026-03-15T10:38:27.012599+05:30"},{"city":"Kannur","state":"Kerala","latitude":11.8745,"longitude":75.3704,"temp":29.6,"humidity":70,"rain":0.0,"pressure":1011.8,"uv_index":9.0,"wind_gusts":33.8,"aqi":85,"pm10":27.8,"pm2_5":24.4,"mosquito_risk":7,"arthritis_risk":0,"migraine_risk":4,"frizz_risk":1,"updated_at":"2026-03-15T10:38:27.012606+05:30"},{"city":"Patna","state":"Bihar","latitude":25.5941,"longitude":85.1376,"temp":29.7,"humidity":51,"rain":0.0,"pressure":1004.9,"uv_index":7.4,"wind_gusts":28.1,"aqi":160,"pm10":126.2,"pm2_5":73.3,"mosquito_risk":4,"arthritis_risk":5,"migraine_risk":4,"frizz_risk":1,"updated_at":"2026-03-15T10:38:27.012613+05:30"},{"city":"Gaya","state":"Bihar","latitude":24.7914,"longitude":85.0002,"temp":30.4,"humidity":62,"rain":0.0,"pressure":997.6,"uv_index":7.65,"wind_gusts":32.0,"aqi":138,"pm10":94.1,"pm2_5":42.5,"mosquito_risk":3,"arthritis_risk":5,"migraine_risk":7,"frizz_risk":1,"updated_at":"2026-03-15T10:38:27.012621+05:30"},{"city":"Muzaffarpur","state":"Bihar","latitude":26.1209,"longitude":85.3647,"temp":28.9,"humidity":63,"rain":0.0,"pressure":1004.7,"uv_index":7.5,"wind_gusts":34.6,"aqi":160,"pm10":108.5,"pm2_5":70.5,"mosquito_risk":7,"arthritis_risk":5,"migraine_risk":4,"frizz_risk":1,"updated_at":"2026-03-15T10:38:27.012627+05:30"},{"city":"Bhagalpur","state":"Bihar","latitude":25.2425,"longitude":87.0117,"temp":28.4,"humidity":76,"rain":0.0,"pressure":1005.5,"uv_index":7.6,"wind_gusts":32.4,"aqi":151,"pm10":78.0,"pm2_5":57.5,"mosquito_risk":7,"arthritis_risk":5,"migraine_risk":4,"frizz_risk":1,"updated_at":"2026-03-15T10:38:27.012634+05:30"},{"city":"Ranchi","state":"Jharkhand","latitude":23.3441,"longitude":85.3096,"temp":30.3,"humidity":45,"rain":0.0,"pressure":942.0,"uv_index":8.3,"wind_gusts":45.7,"aqi":75,"pm10":52.6,"pm2_5":45.9,"mosquito_risk":0,"arthritis_risk":5,"migraine_risk":7,"frizz_risk":1,"updated_at":"2026-03-15T10:38:27.012640+05:30"},{"city":"Jamshedpur","state":"Jharkhand","latitude":22.8046,"longitude":86.2029,"temp":30.6,"humidity":61,"rain":0.0,"pressure":995.3,"uv_index":8.2,"wind_gusts":38.2,"aqi":119,"pm10":51.3,"pm2_5":42.0,"mosquito_risk":3,"arthritis_risk":5,"migraine_risk":7,"frizz_risk":1,"updated_at":"2026-03-15T10:38:27.012646+05:30"},{"city":"Dhanbad","state":"Jharkhand","latitude":23.7957,"longitude":86.4304,"temp":31.6,"humidity":54,"rain":0.0,"pressure":983.9,"uv_index":8.05,"wind_gusts":35.3,"aqi":156,"pm10":77.1,"pm2_5":70.3,"mosquito_risk":0,"arthritis_risk":5,"migraine_risk":7,"frizz_risk":1,"updated_at":"2026-03-15T10:38:27.012652+05:30"},{"city":"Bokaro","state":"Jharkhand","latitude":23.6693,"longitude":86.1511,"temp":32.0,"humidity":51,"rain":0.0,"pressure":988.0,"uv_index":8.05,"wind_gusts":37.8,"aqi":147,"pm10":70.3,"pm2_5":57.7,"mosquito_risk":0,"arthritis_risk":5,"migraine_risk":7,"frizz_risk":1,"updated_at":"2026-03-15T10:38:27.012659+05:30"},{"city":"Bhubaneswar","state":"Odisha","latitude":20.2961,"longitude":85.8245,"temp":30.2,"humidity":65,"rain":0.0,"pressure":1008.3,"uv_index":8.5,"wind_gusts":41.8,"aqi":57,"pm10":24.6,"pm2_5":17.2,"mosquito_risk":3,"arthritis_risk":0,"migraine_risk":4,"frizz_risk":1,"updated_at":"2026-03-15T10:38:27.012665+05:30"},{"city":"Cuttack","state":"Odisha","latitude":20.4625,"longitude":85.8828,"temp":30.6,"humidity":65,"rain":0.0,"pressure":1010.0,"uv_index":8.5,"wind_gusts":35.6,"aqi":57,"pm10":24.6,"pm2_5":17.2,"mosquito_risk":3,"arthritis_risk":0,"migraine_risk":4,"frizz_risk":1,"updated_at":"2026-03-15T10:38:27.012671+05:30"},{"city":"Rourkela","state":"Odisha","latitude":22.2604,"longitude":84.8536,"temp":32.1,"humidity":55,"rain":0.0,"pressure":989.3,"uv_index":8.1,"wind_gusts":54.0,"aqi":128,"pm10":52.3,"pm2_5":44.9,"mosquito_risk":0,"arthritis_risk":5,"migraine_risk":7,"frizz_risk":1,"updated_at":"2026-03-15T10:38:27.012677+05:30"},{"city":"Raipur","state":"Chhattisgarh","latitude":21.2514,"longitude":81.6296,"temp":31.6,"humidity":48,"rain":0.0,"pressure":979.0,"uv_index":8.2,"wind_gusts":41.8,"aqi":150,"pm10":39.9,"pm2_5":34.6,"mosquito_risk":0,"arthritis_risk":5,"migraine_risk":7,"frizz_risk":1,"updated_at":"2026-03-15T10:38:27.012684+05:30"},{"city":"Bhilai","state":"Chhattisgarh","latitude":21.1938,"longitude":81.3509,"temp":32.0,"humidity":46,"rain":0.0,"pressure":979.2,"uv_index":8.2,"wind_gusts":42.1,"aqi":135,"pm10":36.6,"pm2_5":31.0,"mosquito_risk":0,"arthritis_risk":5,"migraine_risk":7,"frizz_risk":1,"updated_at":"2026-03-15T10:38:27.012690+05:30"},{"city":"Guwahati","state":"Assam","latitude":26.1158,"longitude":91.7086,"temp":23.0,"humidity":82,"rain":0.0,"pressure":1007.4,"uv_index":7.45,"wind_gusts":40.7,"aqi":78,"pm10":25.3,"pm2_5":18.5,"mosquito_risk":3,"arthritis_risk":5,"migraine_risk":4,"frizz_risk":1,"updated_at":"2026-03-15T10:38:27.012696+05:30"},{"city":"Agartala","state":"Tripura","latitude":23.8315,"longitude":91.2868,"temp":24.5,"humidity":79,"rain":0.0,"pressure":1013.9,"uv_index":7.9,"wind_gusts":38.2,"aqi":64,"pm10":19.7,"pm2_5":13.6,"mosquito_risk":3,"arthritis_risk":0,"migraine_risk":4,"frizz_risk":1,"updated_at":"2026-03-15T10:38:27.012702+05:30"},{"city":"Shillong","state":"Meghalaya","latitude":25.5788,"longitude":91.8933,"temp":15.9,"humidity":76,"rain":0.0,"pressure":860.4,"uv_index":7.8,"wind_gusts":85.0,"aqi":65,"pm10":12.6,"pm2_5":8.3,"mosquito_risk":3,"arthritis_risk":5,"migraine_risk":7,"frizz_risk":0,"updated_at":"2026-03-15T10:38:27.012709+05:30"},{"city":"Imphal","state":"Manipur","latitude":24.817,"longitude":93.9368,"temp":18.9,"humidity":81,"rain":0.0,"pressure":928.7,"uv_index":8.15,"wind_gusts":76.7,"aqi":96,"pm10":56.0,"pm2_5":35.0,"mosquito_risk":3,"arthritis_risk":10,"migraine_risk":7,"frizz_risk":0,"updated_at":"2026-03-15T10:38:27.012715+05:30"},{"city":"Aizawl","state":"Mizoram","latitude":23.7271,"longitude":92.7176,"temp":18.4,"humidity":80,"rain":0.1,"pressure":899.3,"uv_index":8.1,"wind_gusts":64.4,"aqi":96,"pm10":28.8,"pm2_5":17.0,"mosquito_risk":6,"arthritis_risk":5,"migraine_risk":7,"frizz_risk":0,"updated_at":"2026-03-15T10:38:27.012722+05:30"},{"city":"Kohima","state":"Nagaland","latitude":25.6701,"longitude":94.1077,"temp":18.8,"humidity":59,"rain":0.0,"pressure":859.4,"uv_index":7.3,"wind_gusts":111.2,"aqi":79,"pm10":36.7,"pm2_5":23.5,"mosquito_risk":0,"arthritis_risk":5,"migraine_risk":7,"frizz_risk":0,"updated_at":"2026-03-15T10:38:27.012728+05:30"},{"city":"Gangtok","state":"Sikkim","latitude":27.3314,"longitude":88.6138,"temp":18.2,"humidity":70,"rain":0.0,"pressure":841.2,"uv_index":7.5,"wind_gusts":20.9,"aqi":97,"pm10":58.2,"pm2_5":34.3,"mosquito_risk":3,"arthritis_risk":5,"migraine_risk":7,"frizz_risk":0,"updated_at":"2026-03-15T10:38:27.012734+05:30"},{"city":"Siliguri","state":"West Bengal","latitude":26.7271,"longitude":88.3953,"temp":22.6,"humidity":74,"rain":0.0,"pressure":999.1,"uv_index":7.45,"wind_gusts":31.7,"aqi":120,"pm10":66.6,"pm2_5":44.0,"mosquito_risk":3,"arthritis_risk":5,"migraine_risk":7,"frizz_risk":1,"updated_at":"2026-03-15T10:38:30.360680+05:30"},{"city":"Durgapur","state":"West Bengal","latitude":23.5204,"longitude":87.3119,"temp":31.1,"humidity":59,"rain":0.0,"pressure":999.3,"uv_index":8.05,"wind_gusts":37.8,"aqi":113,"pm10":55.5,"pm2_5":50.4,"mosquito_risk":0,"arthritis_risk":5,"migraine_risk":7,"frizz_risk":1,"updated_at":"2026-03-15T10:38:30.360710+05:30"},{"city":"Asansol","state":"West Bengal","latitude":23.6739,"longitude":86.9524,"temp":30.9,"humidity":61,"rain":0.0,"pressure":997.8,"uv_index":8.05,"wind_gusts":33.5,"aqi":125,"pm10":67.8,"pm2_5":61.9,"mosquito_risk":3,"arthritis_risk":5,"migraine_risk":7,"frizz_risk":1,"updated_at":"2026-03-15T10:38:30.360720+05:30"},{"city":"Pondicherry","state":"Puducherry","latitude":11.9139,"longitude":79.8145,"temp":30.6,"humidity":60,"rain":0.0,"pressure":1014.2,"uv_index":9.0,"wind_gusts":27.0,"aqi":43,"pm10":11.4,"pm2_5":8.1,"mosquito_risk":0,"arthritis_risk":0,"migraine_risk":4,"frizz_risk":1,"updated_at":"2026-03-15T10:38:30.360727+05:30"},{"city":"Port Blair","state":"Andaman and Nicobar Islands","latitude":11.6234,"longitude":92.7265,"temp":28.4,"humidity":74,"rain":0.0,"pressure":1011.8,"uv_index":8.95,"wind_gusts":21.6,"aqi":68,"pm10":14.6,"pm2_5":11.2,"mosquito_risk":7,"arthritis_risk":0,"migraine_risk":4,"frizz_risk":1,"updated_at":"2026-03-15T10:38:30.360735+05:30"},{"city":"Haridwar","state":"Uttarakhand","latitude":29.9457,"longitude":78.1642,"temp":22.1,"humidity":70,"rain":0.0,"pressure":978.6,"uv_index":5.75,"wind_gusts":28.8,"aqi":89,"pm10":40.2,"pm2_5":17.9,"mosquito_risk":3,"arthritis_risk":5,"migraine_risk":3,"frizz_risk":1,"updated_at":"2026-03-15T10:38:30.360742+05:30"},{"city":"Rishikesh","state":"Uttarakhand","latitude":30.0869,"longitude":78.2676,"temp":23.0,"humidity":65,"rain":0.0,"pressure":970.9,"uv_index":5.55,"wind_gusts":29.2,"aqi":66,"pm10":37.0,"pm2_5":14.6,"mosquito_risk":3,"arthritis_risk":5,"migraine_risk":3,"frizz_risk":0,"updated_at":"2026-03-15T10:38:30.360749+05:30"},{"city":"Nainital","state":"Uttarakhand","latitude":29.3919,"longitude":79.4542,"temp":18.0,"humidity":62,"rain":0.0,"pressure":808.6,"uv_index":4.8,"wind_gusts":49.3,"aqi":85,"pm10":45.2,"pm2_5":19.8,"mosquito_risk":3,"arthritis_risk":5,"migraine_risk":3,"frizz_risk":0,"updated_at":"2026-03-15T10:38:30.360755+05:30"},{"city":"Mussoorie","state":"Uttarakhand","latitude":30.4599,"longitude":78.0664,"temp":14.0,"humidity":78,"rain":0.0,"pressure":803.4,"uv_index":5.8,"wind_gusts":54.7,"aqi":74,"pm10":35.6,"pm2_5":14.3,"mosquito_risk":3,"arthritis_risk":5,"migraine_risk":3,"frizz_risk":0,"updated_at":"2026-03-15T10:38:30.360762+05:30"},{"city":"Dharamshala","state":"Himachal Pradesh","latitude":32.219,"longitude":76.3234,"temp":16.6,"humidity":53,"rain":0.0,"pressure":869.7,"uv_index":5.15,"wind_gusts":32.8,"aqi":51,"pm10":40.4,"pm2_5":12.8,"mosquito_risk":0,"arthritis_risk":5,"migraine_risk":3,"frizz_risk":0,"updated_at":"2026-03-15T10:38:30.360768+05:30"},{"city":"Dalhousie","state":"Himachal Pradesh","latitude":32.5387,"longitude":75.971,"temp":14.1,"humidity":51,"rain":0.0,"pressure":803.1,"uv_index":5.05,"wind_gusts":35.6,"aqi":70,"pm10":36.7,"pm2_5":18.5,"mosquito_risk":0,"arthritis_risk":5,"migraine_risk":3,"frizz_risk":0,"updated_at":"2026-03-15T10:38:30.360775+05:30"},{"city":"Patiala","state":"Punjab","latitude":30.3398,"longitude":76.3869,"temp":18.2,"humidity":87,"rain":0.0,"pressure":981.9,"uv_index":5.95,"wind_gusts":34.9,"aqi":126,"pm10":53.1,"pm2_5":26.8,"mosquito_risk":3,"arthritis_risk":10,"migraine_risk":3,"frizz_risk":0,"updated_at":"2026-03-15T10:38:30.360782+05:30"},{"city":"Bhatinda","state":"Punjab","latitude":30.211,"longitude":74.9455,"temp":21.9,"humidity":78,"rain":0.0,"pressure":987.0,"uv_index":6.5,"wind_gusts":45.0,"aqi":88,"pm10":46.6,"pm2_5":23.4,"mosquito_risk":3,"arthritis_risk":5,"migraine_risk":7,"frizz_risk":1,"updated_at":"2026-03-15T10:38:30.360789+05:30"},{"city":"Rohtak","state":"Haryana","latitude":28.8955,"longitude":76.6066,"temp":25.3,"humidity":50,"rain":0.0,"pressure":984.4,"uv_index":6.15,"wind_gusts":51.5,"aqi":178,"pm10":305.5,"pm2_5":69.6,"mosquito_risk":4,"arthritis_risk":5,"migraine_risk":7,"frizz_risk":0,"updated_at":"2026-03-15T10:38:30.360795+05:30"},{"city":"Panipat","state":"Haryana","latitude":29.3909,"longitude":76.9635,"temp":21.9,"humidity":74,"rain":0.0,"pressure":984.2,"uv_index":5.95,"wind_gusts":36.0,"aqi":288,"pm10":139.7,"pm2_5":40.3,"mosquito_risk":3,"arthritis_risk":5,"migraine_risk":3,"frizz_risk":1,"updated_at":"2026-03-15T10:38:30.360801+05:30"},{"city":"Mathura","state":"Uttar Pradesh","latitude":27.4924,"longitude":77.6737,"temp":29.5,"humidity":34,"rain":0.0,"pressure":989.1,"uv_index":6.5,"wind_gusts":39.6,"aqi":287,"pm10":573.7,"pm2_5":81.0,"mosquito_risk":4,"arthritis_risk":5,"migraine_risk":7,"frizz_risk":0,"updated_at":"2026-03-15T10:38:30.360807+05:30"},{"city":"Vrindavan","state":"Uttar Pradesh","latitude":27.5823,"longitude":77.7027,"temp":29.1,"humidity":38,"rain":0.0,"pressure":989.7,"uv_index":6.45,"wind_gusts":38.5,"aqi":287,"pm10":573.7,"pm2_5":81.0,"mosquito_risk":4,"arthritis_risk":5,"migraine_risk":7,"frizz_risk":0,"updated_at":"2026-03-15T10:38:30.360813+05:30"},{"city":"Ayodhya","state":"Uttar Pradesh","latitude":26.7922,"longitude":82.1998,"temp":25.8,"humidity":58,"rain":0.0,"pressure":1000.1,"uv_index":6.9,"wind_gusts":47.2,"aqi":143,"pm10":62.4,"pm2_5":32.1,"mosquito_risk":4,"arthritis_risk":5,"migraine_risk":4,"frizz_risk":1,"updated_at":"2026-03-15T10:38:30.360819+05:30"},{"city":"Ratlam","state":"Madhya Pradesh","latitude":23.3315,"longitude":75.0367,"temp":29.0,"humidity":42,"rain":0.0,"pressure":958.1,"uv_index":7.65,"wind_gusts":38.2,"aqi":61,"pm10":63.8,"pm2_5":25.3,"mosquito_risk":4,"arthritis_risk":5,"migraine_risk":7,"frizz_risk":0,"updated_at":"2026-03-15T10:38:30.360825+05:30"},{"city":"Sagar","state":"Madhya Pradesh","latitude":23.8388,"longitude":78.7378,"temp":30.5,"humidity":32,"rain":0.0,"pressure":953.0,"uv_index":7.65,"wind_gusts":39.6,"aqi":56,"pm10":29.7,"pm2_5":14.4,"mosquito_risk":0,"arthritis_risk":5,"migraine_risk":7,"frizz_risk":0,"updated_at":"2026-03-15T10:38:30.360831+05:30"},{"city":"Satna","state":"Madhya Pradesh","latitude":24.6005,"longitude":80.8322,"temp":32.3,"humidity":33,"rain":0.0,"pressure":973.8,"uv_index":7.6,"wind_gusts":50.0,"aqi":88,"pm10":80.8,"pm2_5":30.3,"mosquito_risk":0,"arthritis_risk":5,"migraine_risk":7,"frizz_risk":0,"updated_at":"2026-03-15T10:38:30.360837+05:30"},{"city":"Akola","state":"Maharashtra","latitude":20.7002,"longitude":77.0082,"temp":31.5,"humidity":29,"rain":0.0,"pressure":979.3,"uv_index":8.15,"wind_gusts":26.3,"aqi":79,"pm10":31.1,"pm2_5":21.1,"mosquito_risk":0,"arthritis_risk":5,"migraine_risk":7,"frizz_risk":0,"updated_at":"2026-03-15T10:38:30.360844+05:30"},{"city":"Amravati","state":"Maharashtra","latitude":20.9374,"longitude":77.7796,"temp":31.5,"humidity":33,"rain":0.0,"pressure":971.5,"uv_index":8.1,"wind_gusts":27.4,"aqi":88,"pm10":28.1,"pm2_5":20.5,"mosquito_risk":0,"arthritis_risk":5,"migraine_risk":7,"frizz_risk":0,"updated_at":"2026-03-15T10:38:30.360851+05:30"},{"city":"Latur","state":"Maharashtra","latitude":18.4088,"longitude":76.5604,"temp":31.6,"humidity":23,"rain":0.0,"pressure":944.4,"uv_index":8.55,"wind_gusts":26.3,"aqi":135,"pm10":46.3,"pm2_5":39.8,"mosquito_risk":0,"arthritis_risk":5,"migraine_risk":7,"frizz_risk":0,"updated_at":"2026-03-15T10:38:30.360857+05:30"},{"city":"Nanded","state":"Maharashtra","latitude":19.1383,"longitude":77.3091,"temp":31.1,"humidity":39,"rain":0.0,"pressure":973.2,"uv_index":8.35,"wind_gusts":18.4,"aqi":142,"pm10":42.4,"pm2_5":37.4,"mosquito_risk":0,"arthritis_risk":5,"migraine_risk":7,"frizz_risk":0,"updated_at":"2026-03-15T10:38:30.360863+05:30"},{"city":"Gulbarga","state":"Karnataka","latitude":17.3297,"longitude":76.8343,"temp":30.4,"humidity":48,"rain":0.0,"pressure":963.2,"uv_index":8.6,"wind_gusts":20.9,"aqi":103,"pm10":40.3,"pm2_5":34.8,"mosquito_risk":0,"arthritis_risk":5,"migraine_risk":7,"frizz_risk":1,"updated_at":"2026-03-15T10:38:30.360868+05:30"},{"city":"Bidar","state":"Karnataka","latitude":17.9104,"longitude":77.5199,"temp":30.4,"humidity":45,"rain":0.0,"pressure":940.0,"uv_index":8.6,"wind_gusts":27.7,"aqi":103,"pm10":27.5,"pm2_5":23.8,"mosquito_risk":0,"arthritis_risk":5,"migraine_risk":7,"frizz_risk":1,"updated_at":"2026-03-15T10:38:30.360874+05:30"},{"city":"Hospet","state":"Karnataka","latitude":15.2689,"longitude":76.3909,"temp":28.0,"humidity":66,"rain":0.0,"pressure":960.8,"uv_index":8.9,"wind_gusts":32.0,"aqi":113,"pm10":47.8,"pm2_5":43.7,"mosquito_risk":7,"arthritis_risk":5,"migraine_risk":7,"frizz_risk":1,"updated_at":"2026-03-15T10:38:30.360880+05:30"},{"city":"Tirupur","state":"Tamil Nadu","latitude":11.1085,"longitude":77.3411,"temp":29.9,"humidity":55,"rain":0.0,"pressure":980.7,"uv_index":9.3,"wind_gusts":27.7,"aqi":56,"pm10":12.1,"pm2_5":10.4,"mosquito_risk":4,"arthritis_risk":5,"migraine_risk":7,"frizz_risk":1,"updated_at":"2026-03-15T10:38:30.360886+05:30"},{"city":"Alappuzha","state":"Kerala","latitude":9.4981,"longitude":76.3388,"temp":27.7,"humidity":78,"rain":0.0,"pressure":1013.3,"uv_index":9.1,"wind_gusts":28.1,"aqi":68,"pm10":19.0,"pm2_5":18.0,"mosquito_risk":7,"arthritis_risk":0,"migraine_risk":4,"frizz_risk":1,"updated_at":"2026-03-15T10:38:30.360892+05:30"},{"city":"Munnar","state":"Kerala","latitude":10.0889,"longitude":77.0595,"temp":27.8,"humidity":48,"rain":0.0,"pressure":862.6,"uv_index":9.55,"wind_gusts":34.6,"aqi":57,"pm10":6.0,"pm2_5":5.2,"mosquito_risk":4,"arthritis_risk":5,"migraine_risk":7,"frizz_risk":0,"updated_at":"2026-03-15T10:38:30.360899+05:30"},{"city":"Silchar","state":"Assam","latitude":24.8333,"longitude":92.7789,"temp":22.8,"humidity":83,"rain":0.0,"pressure":1013.4,"uv_index":7.85,"wind_gusts":44.3,"aqi":116,"pm10":29.2,"pm2_5":23.1,"mosquito_risk":3,"arthritis_risk":0,"migraine_risk":4,"frizz_risk":1,"updated_at":"2026-03-15T10:38:30.360906+05:30"},{"city":"Dibrugarh","state":"Assam","latitude":27.4728,"longitude":94.912,"temp":19.9,"humidity":91,"rain":0.0,"pressure":1001.2,"uv_index":4.65,"wind_gusts":36.0,"aqi":70,"pm10":28.5,"pm2_5":20.3,"mosquito_risk":3,"arthritis_risk":10,"migraine_risk":0,"frizz_risk":1,"updated_at":"2026-03-15T10:38:30.360912+05:30"}]