[{"city":"Delhi","state":"Delhi","latitude":28.6139,"longitude":77.209,"temp":26.5,"humidity":44,"rain":0.0,"pressure":980.8,"uv_index":6.05,"wind_gusts":21.6,"aqi":136,"pm10":165.3,"pm2_5":66.6,"mosquito_risk":4,"arthritis_risk":5,"migraine_risk":7,"frizz_risk":0,"updated_at":"2026-03-28T22:08:55.386931+05:30"},{"city":"Mumbai","state":"Maharashtra","latitude":19.076,"longitude":72.8777,"temp":27.0,"humidity":83,"rain":0.0,"pressure":1008.3,"uv_index":8.0,"wind_gusts":24.5,"aqi":69,"pm10":82.0,"pm2_5":18.7,"mosquito_risk":7,"arthritis_risk":0,"migraine_risk":4,"frizz_risk":1,"updated_at":"2026-03-28T22:08:55.386977+05:30"},{"city":"Bangalore","state":"Karnataka","latitude":12.9716,"longitude":77.5946,"temp":25.6,"humidity":61,"rain":0.0,"pressure":911.8,"uv_index":9.5,"wind_gusts":42.5,"aqi":140,"pm10":71.0,"pm2_5":63.1,"mosquito_risk":7,"arthritis_risk":5,"migraine_risk":7,"frizz_risk":1,"updated_at":"2026-03-28T22:08:55.386992+05:30"},{"city":"Hyderabad","state":"Telangana","latitude":17.385,"longitude":78.4867,"temp":29.5,"humidity":48,"rain":0.0,"pressure":951.5,"uv_index":9.0,"wind_gusts":24.8,"aqi":106,"pm10":51.6,"pm2_5":47.0,"mosquito_risk":4,"arthritis_risk":5,"migraine_risk":7,"frizz_risk":1,"updated_at":"2026-03-28T22:08:55.387003+05:30"},{"city":"Chennai","state":"Tamil Nadu","latitude":13.0827,"longitude":80.2707,"temp":27.2,"humidity":83,"rain":0.0,"pressure":1007.0,"uv_index":9.25,"wind_gusts":34.6,"aqi":67,"pm10":21.9,"pm2_5":15.7,"mosquito_risk":7,"arthritis_risk":5,"migraine_risk":4,"frizz_risk":1,"updated_at":"2026-03-28T22:08:55.387011+05:30"},{"city":"Kolkata","state":"West Bengal","latitude":22.5726,"longitude":88.3639,"temp":23.5,"humidity":89,"rain":0.0,"pressure":1006.4,"uv_index":8.4,"wind_gusts":31.7,"aqi":154,"pm10":50.4,"pm2_5":45.4,"mosquito_risk":3,"arthritis_risk":5,"migraine_risk":4,"frizz_risk":1,"updated_at":"2026-03-28T22:08:55.387019+05:30"},{"city":"Pune","state":"Maharashtra","latitude":18.5204,"longitude":73.8567,"temp":26.2,"humidity":36,"rain":0.0,"pressure":948.1,"uv_index":8.5,"wind_gusts":49.0,"aqi":107,"pm10":21.1,"pm2_5":19.6,"mosquito_risk":4,"arthritis_risk":5,"migraine_risk":7,"frizz_risk":0,"updated_at":"2026-03-28T22:08:55.387029+05:30"},{"city":"Ahmedabad","state":"Gujarat","latitude":23.0225,"longitude":72.5714,"temp":29.8,"humidity":50,"rain":0.0,"pressure":1000.1,"uv_index":7.95,"wind_gusts":34.2,"aqi":36,"pm10":15.8,"pm2_5":8.7,"mosquito_risk":4,"arthritis_risk":5,"migraine_risk":4,"frizz_risk":1,"updated_at":"2026-03-28T22:08:55.387036+05:30"},{"city":"Jaipur","state":"Rajasthan","latitude":26.9124,"longitude":75.7873,"temp":28.3,"humidity":36,"rain":0.0,"pressure":956.7,"uv_index":7.45,"wind_gusts":32.4,"aqi":88,"pm10":89.2,"pm2_5":27.8,"mosquito_risk":4,"arthritis_risk":5,"migraine_risk":7,"frizz_risk":0,"updated_at":"2026-03-28T22:08:55.387043+05:30"},{"city":"Lucknow","state":"Uttar Pradesh","latitude":26.8467,"longitude":80.9462,"temp":26.6,"humidity":51,"rain":0.0,"pressure":991.7,"uv_index":7.15,"wind_gusts":28.1,"aqi":130,"pm10":173.2,"pm2_5":47.3,"mosquito_risk":4,"arthritis_risk":5,"migraine_risk":7,"frizz_risk":0,"updated_at":"2026-03-28T22:08:55.387050+05:30"},{"city":"Kanpur","state":"Uttar Pradesh","latitude":26.4499,"longitude":80.3319,"temp":26.3,"humidity":56,"rain":0.0,"pressure":989.8,"uv_index":6.95,"wind_gusts":25.2,"aqi":193,"pm10":306.4,"pm2_5":60.1,"mosquito_risk":4,"arthritis_risk":5,"migraine_risk":7,"frizz_risk":1,"updated_at":"2026-03-28T22:08:55.387057+05:30"},{"city":"Chandigarh","state":"Chandigarh","latitude":30.7333,"longitude":76.7794,"temp":23.9,"humidity":69,"rain":0.0,"pressure":966.6,"uv_index":5.4,"wind_gusts":23.4,"aqi":103,"pm10":39.1,"pm2_5":36.6,"mosquito_risk":3,"arthritis_risk":5,"migraine_risk":3,"frizz_risk":1,"updated_at":"2026-03-28T22:08:55.387063+05:30"},{"city":"Srinagar","state":"Jammu and Kashmir","latitude":34.0837,"longitude":74.7973,"temp":13.4,"humidity":76,"rain":0.0,"pressure":837.5,"uv_index":6.0,"wind_gusts":16.2,"aqi":93,"pm10":57.9,"pm2_5":45.1,"mosquito_risk":3,"arthritis_risk":5,"migraine_risk":3,"frizz_risk":0,"updated_at":"2026-03-28T22:08:55.387069+05:30"},{"city":"Jammu","state":"Jammu and Kashmir","latitude":32.7266,"longitude":74.857,"temp":24.2,"humidity":66,"rain":0.0,"pressure":970.4,"uv_index":7.05,"wind_gusts":16.6,"aqi":92,"pm10":48.5,"pm2_5":46.9,"mosquito_risk":3,"arthritis_risk":5,"migraine_risk":7,"frizz_risk":1,"updated_at":"2026-03-28T22:08:55.387075+05:30"},{"city":"Amritsar","state":"Punjab","latitude":31.634,"longitude":74.8723,"temp":23.1,"humidity":73,"rain":0.0,"pressure":978.1,"uv_index":7.0,"wind_gusts":14.8,"aqi":129,"pm10":34.1,"pm2_5":25.7,"mosquito_risk":3,"arthritis_risk":5,"migraine_risk":7,"frizz_risk":1,"updated_at":"2026-03-28T22:08:55.387082+05:30"},{"city":"Ludhiana","state":"Punjab","latitude":30.901,"longitude":75.8573,"temp":25.0,"humidity":61,"rain":0.0,"pressure":976.6,"uv_index":6.05,"wind_gusts":13.7,"aqi":100,"pm10":80.1,"pm2_5":67.1,"mosquito_risk":7,"arthritis_risk":5,"migraine_risk":7,"frizz_risk":1,"updated_at":"2026-03-28T22:08:55.387087+05:30"},{"city":"Jalandhar","state":"Punjab","latitude":31.326,"longitude":75.5762,"temp":23.4,"humidity":71,"rain":0.0,"pressure":977.7,"uv_index":6.25,"wind_gusts":14.4,"aqi":105,"pm10":67.3,"pm2_5":50.9,"mosquito_risk":3,"arthritis_risk":5,"migraine_risk":7,"frizz_risk":1,"updated_at":"2026-03-28T22:08:55.387095+05:30"},{"city":"Dehradun","state":"Uttarakhand","latitude":30.6284,"longitude":78.0322,"temp":14.5,"humidity":83,"rain":0.0,"pressure":827.7,"uv_index":5.85,"wind_gusts":22.3,"aqi":102,"pm10":32.0,"pm2_5":25.8,"mosquito_risk":3,"arthritis_risk":10,"migraine_risk":3,"frizz_risk":0,"updated_at":"2026-03-28T22:08:55.387101+05:30"},{"city":"Shimla","state":"Himachal Pradesh","latitude":31.1048,"longitude":77.1734,"temp":12.5,"humidity":86,"rain":0.0,"pressure":781.7,"uv_index":6.15,"wind_gusts":33.1,"aqi":110,"pm10":33.4,"pm2_5":28.9,"mosquito_risk":3,"arthritis_risk":10,"migraine_risk":7,"frizz_risk":0,"updated_at":"2026-03-28T22:08:55.387107+05:30"},{"city":"Manali","state":"Himachal Pradesh","latitude":32.2396,"longitude":77.1887,"temp":15.6,"humidity":74,"rain":0.0,"pressure":817.3,"uv_index":8.45,"wind_gusts":29.9,"aqi":126,"pm10":29.3,"pm2_5":13.2,"mosquito_risk":3,"arthritis_risk":5,"migraine_risk":7,"frizz_risk":0,"updated_at":"2026-03-28T22:08:55.387112+05:30"},{"city":"Gurgaon","state":"Haryana","latitude":28.4595,"longitude":77.0266,"temp":23.9,"humidity":57,"rain":0.0,"pressure":979.1,"uv_index":6.2,"wind_gusts":17.3,"aqi":376,"pm10":294.3,"pm2_5":81.3,"mosquito_risk":0,"arthritis_risk":5,"migraine_risk":7,"frizz_risk":0,"updated_at":"2026-03-28T22:08:55.387118+05:30"},{"city":"Noida","state":"Uttar Pradesh","latitude":28.5355,"longitude":77.391,"temp":25.1,"humidity":51,"rain":0.0,"pressure":982.4,"uv_index":6.05,"wind_gusts":21.6,"aqi":376,"pm10":294.3,"pm2_5":81.3,"mosquito_risk":4,"arthritis_risk":5,"migraine_risk":7,"frizz_risk":0,"updated_at":"2026-03-28T22:08:55.387124+05:30"},{"city":"Ghaziabad","state":"Uttar Pradesh","latitude":28.6692,"longitude":77.4538,"temp":24.6,"humidity":53,"rain":0.0,"pressure":980.6,"uv_index":5.95,"wind_gusts":20.5,"aqi":126,"pm10":159.3,"pm2_5":66.8,"mosquito_risk":0,"arthritis_risk":5,"migraine_risk":3,"frizz_risk":0,"updated_at":"2026-03-28T22:08:55.387129+05:30"},{"city":"Faridabad","state":"Haryana","latitude":28.4089,"longitude":77.3178,"temp":25.2,"humidity":47,"rain":0.0,"pressure":981.5,"uv_index":6.15,"wind_gusts":19.8,"aqi":376,"pm10":294.3,"pm2_5":81.3,"mosquito_risk":4,"arthritis_risk":5,"migraine_risk":7,"frizz_risk":0,"updated_at":"2026-03-28T22:08:55.387135+05:30"},{"city":"Meerut","state":"Uttar Pradesh","latitude":28.9845,"longitude":77.7064,"temp":23.5,"humidity":61,"rain":0.0,"pressure":979.5,"uv_index":5.9,"wind_gusts":23.0,"aqi":126,"pm10":159.3,"pm2_5":66.8,"mosquito_risk":3,"arthritis_risk":5,"migraine_risk":3,"frizz_risk":0,"updated_at":"2026-03-28T22:08:55.387141+05:30"},{"city":"Agra","state":"Uttar Pradesh","latitude":27.1767,"longitude":78.0081,"temp":25.1,"humidity":53,"rain":0.0,"pressure":985.4,"uv_index":6.45,"wind_gusts":25.6,"aqi":443,"pm10":461.9,"pm2_5":83.4,"mosquito_risk":4,"arthritis_risk":5,"migraine_risk":7,"frizz_risk":0,"updated_at":"2026-03-28T22:08:55.387147+05:30"},{"city":"Varanasi","state":"Uttar Pradesh","latitude":25.3176,"longitude":82.9739,"temp":23.8,"humidity":59,"rain":0.0,"pressure":996.1,"uv_index":7.8,"wind_gusts":37.4,"aqi":90,"pm10":111.5,"pm2_5":57.2,"mosquito_risk":0,"arthritis_risk":5,"migraine_risk":7,"frizz_risk":0,"updated_at":"2026-03-28T22:08:55.387154+05:30"},{"city":"Prayagraj","state":"Uttar Pradesh","latitude":25.4358,"longitude":81.8463,"temp":25.0,"humidity":57,"rain":0.0,"pressure":994.1,"uv_index":7.7,"wind_gusts":30.2,"aqi":87,"pm10":126.7,"pm2_5":54.9,"mosquito_risk":4,"arthritis_risk":5,"migraine_risk":7,"frizz_risk":0,"updated_at":"2026-03-28T22:08:55.387162+05:30"},{"city":"Gorakhpur","state":"Uttar Pradesh","latitude":26.7606,"longitude":83.3732,"temp":23.2,"humidity":73,"rain":0.0,"pressure":996.3,"uv_index":6.1,"wind_gusts":28.1,"aqi":93,"pm10":60.8,"pm2_5":38.1,"mosquito_risk":3,"arthritis_risk":5,"migraine_risk":7,"frizz_risk":1,"updated_at":"2026-03-28T22:08:55.387167+05:30"},{"city":"Bareilly","state":"Uttar Pradesh","latitude":28.367,"longitude":79.4304,"temp":24.0,"humidity":65,"rain":0.0,"pressure":985.1,"uv_index":6.3,"wind_gusts":24.5,"aqi":90,"pm10":52.5,"pm2_5":37.1,"mosquito_risk":3,"arthritis_risk":5,"migraine_risk":7,"frizz_risk":1,"updated_at":"2026-03-28T22:08:55.387173+05:30"},{"city":"Aligarh","state":"Uttar Pradesh","latitude":27.8974,"longitude":78.088,"temp":23.2,"humidity":63,"rain":0.0,"pressure":983.4,"uv_index":6.2,"wind_gusts":23.8,"aqi":282,"pm10":462.9,"pm2_5":91.7,"mosquito_risk":3,"arthritis_risk":5,"migraine_risk":7,"frizz_risk":0,"updated_at":"2026-03-28T22:08:55.387178+05:30"},{"city":"Moradabad","state":"Uttar Pradesh","latitude":28.8386,"longitude":78.7733,"temp":23.7,"humidity":67,"rain":0.0,"pressure":981.9,"uv_index":6.1,"wind_gusts":23.0,"aqi":90,"pm10":78.2,"pm2_5":59.6,"mosquito_risk":3,"arthritis_risk":5,"migraine_risk":7,"frizz_risk":1,"updated_at":"2026-03-28T22:08:55.387183+05:30"},{"city":"Saharanpur","state":"Uttar Pradesh","latitude":29.9637,"longitude":77.546,"temp":23.1,"humidity":68,"rain":0.0,"pressure":973.8,"uv_index":5.15,"wind_gusts":24.8,"aqi":110,"pm10":88.2,"pm2_5":62.6,"mosquito_risk":3,"arthritis_risk":5,"migraine_risk":3,"frizz_risk":1,"updated_at":"2026-03-28T22:08:55.387188+05:30"},{"city":"Jhansi","state":"Uttar Pradesh","latitude":25.4484,"longitude":78.5685,"temp":26.1,"humidity":48,"rain":0.0,"pressure":975.6,"uv_index":7.05,"wind_gusts":25.9,"aqi":90,"pm10":42.8,"pm2_5":18.8,"mosquito_risk":4,"arthritis_risk":5,"migraine_risk":7,"frizz_risk":0,"updated_at":"2026-03-28T22:08:58.705687+05:30"},{"city":"Surat","state":"Gujarat","latitude":21.1702,"longitude":72.8311,"temp":27.0,"humidity":85,"rain":0.0,"pressure":1005.6,"uv_index":7.75,"wind_gusts":30.6,"aqi":80,"pm10":36.2,"pm2_5":18.9,"mosquito_risk":7,"arthritis_risk":5,"migraine_risk":4,"frizz_risk":1,"updated_at":"2026-03-28T22:08:58.705719+05:30"},{"city":"Vadodara","state":"Gujarat","latitude":22.3072,"longitude":73.1812,"temp":28.7,"humidity":55,"rain":0.0,"pressure":1002.6,"uv_index":7.95,"wind_gusts":32.8,"aqi":60,"pm10":34.5,"pm2_5":21.4,"mosquito_risk":4,"arthritis_risk":5,"migraine_risk":4,"frizz_risk":1,"updated_at":"2026-03-28T22:08:58.705770+05:30"},{"city":"Rajkot","state":"Gujarat","latitude":22.3039,"longitude":70.8022,"temp":26.9,"humidity":71,"rain":0.0,"pressure":993.4,"uv_index":7.8,"wind_gusts":43.2,"aqi":39,"pm10":15.7,"pm2_5":7.9,"mosquito_risk":7,"arthritis_risk":5,"migraine_risk":7,"frizz_risk":1,"updated_at":"2026-03-28T22:08:58.705784+05:30"},{"city":"Thane","state":"Maharashtra","latitude":19.2183,"longitude":72.9781,"temp":26.1,"humidity":86,"rain":0.0,"pressure":1007.8,"uv_index":8.0,"wind_gusts":37.8,"aqi":69,"pm10":82.0,"pm2_5":18.7,"mosquito_risk":7,"arthritis_risk":5,"migraine_risk":4,"frizz_risk":1,"updated_at":"2026-03-28T22:08:58.705793+05:30"},{"city":"Nagpur","state":"Maharashtra","latitude":21.1458,"longitude":79.0882,"temp":29.4,"humidity":31,"rain":0.0,"pressure":970.4,"uv_index":8.5,"wind_gusts":31.3,"aqi":60,"pm10":45.9,"pm2_5":36.8,"mosquito_risk":4,"arthritis_risk":5,"migraine_risk":7,"frizz_risk":0,"updated_at":"2026-03-28T22:08:58.705802+05:30"},{"city":"Nashik","state":"Maharashtra","latitude":19.9975,"longitude":73.7898,"temp":23.7,"humidity":56,"rain":0.0,"pressure":944.8,"uv_index":8.2,"wind_gusts":43.6,"aqi":55,"pm10":32.5,"pm2_5":11.6,"mosquito_risk":0,"arthritis_risk":5,"migraine_risk":7,"frizz_risk":0,"updated_at":"2026-03-28T22:08:58.705811+05:30"},{"city":"Aurangabad","state":"Maharashtra","latitude":19.8762,"longitude":75.3433,"temp":28.6,"humidity":30,"rain":0.0,"pressure":943.0,"uv_index":8.7,"wind_gusts":43.6,"aqi":67,"pm10":19.8,"pm2_5":10.4,"mosquito_risk":4,"arthritis_risk":5,"migraine_risk":7,"frizz_risk":0,"updated_at":"2026-03-28T22:08:58.705820+05:30"},{"city":"Solapur","state":"Maharashtra","latitude":17.6599,"longitude":75.9064,"temp":30.9,"humidity":32,"rain":0.0,"pressure":955.9,"uv_index":8.85,"wind_gusts":31.3,"aqi":80,"pm10":24.4,"pm2_5":21.3,"mosquito_risk":0,"arthritis_risk":5,"migraine_risk":7,"frizz_risk":0,"updated_at":"2026-03-28T22:08:58.705829+05:30"},{"city":"Kolhapur","state":"Maharashtra","latitude":16.705,"longitude":74.2433,"temp":23.4,"humidity":72,"rain":0.0,"pressure":947.8,"uv_index":8.95,"wind_gusts":43.6,"aqi":122,"pm10":25.6,"pm2_5":24.4,"mosquito_risk":3,"arthritis_risk":5,"migraine_risk":7,"frizz_risk":1,"updated_at":"2026-03-28T22:08:58.705837+05:30"},{"city":"Goa","state":"Goa","latitude":15.2993,"longitude":74.124,"temp":28.4,"humidity":74,"rain":0.0,"pressure":997.9,"uv_index":8.95,"wind_gusts":28.4,"aqi":98,"pm10":46.7,"pm2_5":40.6,"mosquito_risk":7,"arthritis_risk":5,"migraine_risk":7,"frizz_risk":1,"updated_at":"2026-03-28T22:08:58.705846+05:30"},{"city":"Jodhpur","state":"Rajasthan","latitude":26.2389,"longitude":73.0243,"temp":28.6,"humidity":47,"rain":0.0,"pressure":979.5,"uv_index":7.8,"wind_gusts":31.0,"aqi":79,"pm10":190.5,"pm2_5":26.6,"mosquito_risk":4,"arthritis_risk":5,"migraine_risk":7,"frizz_risk":1,"updated_at":"2026-03-28T22:08:58.705855+05:30"},{"city":"Udaipur","state":"Rajasthan","latitude":24.5854,"longitude":73.7125,"temp":25.4,"humidity":50,"rain":0.0,"pressure":944.8,"uv_index":8.35,"wind_gusts":33.5,"aqi":38,"pm10":20.4,"pm2_5":7.1,"mosquito_risk":4,"arthritis_risk":5,"migraine_risk":7,"frizz_risk":0,"updated_at":"2026-03-28T22:08:58.705863+05:30"},{"city":"Kota","state":"Rajasthan","latitude":25.2138,"longitude":75.8648,"temp":30.4,"humidity":34,"rain":0.0,"pressure":975.3,"uv_index":7.7,"wind_gusts":24.5,"aqi":52,"pm10":92.7,"pm2_5":31.7,"mosquito_risk":0,"arthritis_risk":5,"migraine_risk":7,"frizz_risk":0,"updated_at":"2026-03-28T22:08:58.705872+05:30"},{"city":"Bikaner","state":"Rajasthan","latitude":28.0229,"longitude":73.3119,"temp":30.7,"humidity":36,"rain":0.0,"pressure":977.4,"uv_index":7.5,"wind_gusts":20.9,"aqi":47,"pm10":51.0,"pm2_5":16.9,"mosquito_risk":0,"arthritis_risk":5,"migraine_risk":7,"frizz_risk":0,"updated_at":"2026-03-28T22:08:58.705880+05:30"},{"city":"Ajmer","state":"Rajasthan","latitude":26.4499,"longitude":74.6399,"temp":26.8,"humidity":46,"rain":0.0,"pressure":951.8,"uv_index":7.75,"wind_gusts":30.6,"aqi":49,"pm10":44.9,"pm2_5":15.0,"mosquito_risk":4,"arthritis_risk":5,"migraine_risk":7,"frizz_risk":0,"updated_at":"2026-03-28T22:08:58.705888+05:30"},{"city":"Gwalior","state":"Madhya Pradesh","latitude":26.2183,"longitude":78.1828,"temp":25.7,"humidity":58,"rain":0.0,"pressure":980.8,"uv_index":6.75,"wind_gusts":36.4,"aqi":137,"pm10":184.4,"pm2_5":37.5,"mosquito_risk":4,"arthritis_risk":5,"migraine_risk":7,"frizz_risk":1,"updated_at":"2026-03-28T22:08:58.705896+05:30"},{"city":"Indore","state":"Madhya Pradesh","latitude":22.7196,"longitude":75.8577,"temp":25.9,"humidity":55,"rain":0.0,"pressure":946.5,"uv_index":8.2,"wind_gusts":37.1,"aqi":50,"pm10":19.6,"pm2_5":14.1,"mosquito_risk":4,"arthritis_risk":5,"migraine_risk":7,"frizz_risk":1,"updated_at":"2026-03-28T22:08:58.705904+05:30"},{"city":"Bhopal","state":"Madhya Pradesh","latitude":23.2599,"longitude":77.4126,"temp":28.2,"humidity":40,"rain":0.0,"pressure":951.4,"uv_index":8.15,"wind_gusts":31.3,"aqi":47,"pm10":21.8,"pm2_5":15.5,"mosquito_risk":4,"arthritis_risk":5,"migraine_risk":7,"frizz_risk":0,"updated_at":"2026-03-28T22:08:58.705912+05:30"},{"city":"Jabalpur","state":"Madhya Pradesh","latitude":23.1815,"longitude":79.9864,"temp":26.6,"humidity":53,"rain":0.0,"pressure":958.7,"uv_index":8.25,"wind_gusts":29.9,"aqi":56,"pm10":35.2,"pm2_5":21.5,"mosquito_risk":4,"arthritis_risk":5,"migraine_risk":7,"frizz_risk":1,"updated_at":"2026-03-28T22:08:58.705920+05:30"},{"city":"Ujjain","state":"Madhya Pradesh","latitude":23.1765,"longitude":75.7885,"temp":26.0,"humidity":58,"rain":0.0,"pressure":952.2,"uv_index":8.15,"wind_gusts":34.2,"aqi":47,"pm10":19.4,"pm2_5":12.9,"mosquito_risk":4,"arthritis_risk":5,"migraine_risk":7,"frizz_risk":1,"updated_at":"2026-03-28T22:08:58.705929+05:30"},{"city":"Visakhapatnam","state":"Andhra Pradesh","latitude":17.6868,"longitude":83.2185,"temp":27.2,"humidity":86,"rain":0.0,"pressure":1002.6,"uv_index":9.0,"wind_gusts":41.8,"aqi":93,"pm10":29.8,"pm2_5":20.4,"mosquito_risk":7,"arthritis_risk":5,"migraine_risk":4,"frizz_risk":1,"updated_at":"2026-03-28T22:08:58.705937+05:30"},{"city":"Vijayawada","state":"Andhra Pradesh","latitude":16.5062,"longitude":80.648,"temp":27.6,"humidity":79,"rain":0.0,"pressure":1001.5,"uv_index":9.05,"wind_gusts":29.2,"aqi":85,"pm10":33.2,"pm2_5":27.2,"mosquito_risk":7,"arthritis_risk":5,"migraine_risk":4,"frizz_risk":1,"updated_at":"2026-03-28T22:08:58.705945+05:30"},{"city":"Guntur","state":"Andhra Pradesh","latitude":16.3067,"longitude":80.4365,"temp":27.0,"humidity":86,"rain":0.0,"pressure":1002.7,"uv_index":9.05,"wind_gusts":33.1,"aqi":86,"pm10":39.0,"pm2_5":33.2,"mosquito_risk":7,"arthritis_risk":5,"migraine_risk":4,"frizz_risk":1,"updated_at":"2026-03-28T22:08:58.705954+05:30"},{"city":"Nellore","state":"Andhra Pradesh","latitude":14.4426,"longitude":79.9865,"temp":27.0,"humidity":86,"rain":0.0,"pressure":1005.3,"uv_index":9.2,"wind_gusts":34.6,"aqi":115,"pm10":20.7,"pm2_5":15.9,"mosquito_risk":7,"arthritis_risk":5,"migraine_risk":4,"frizz_risk":1,"updated_at":"2026-03-28T22:08:58.705963+05:30"},{"city":"Kurnool","state":"Andhra Pradesh","latitude":15.8281,"longitude":78.0373,"temp":31.6,"humidity":44,"rain":0.0,"pressure":975.2,"uv_index":9.05,"wind_gusts":33.5,"aqi":147,"pm10":60.1,"pm2_5":52.2,"mosquito_risk":0,"arthritis_risk":5,"migraine_risk":7,"frizz_risk":1,"updated_at":"2026-03-28T22:08:58.705973+05:30"},{"city":"Kakinada","state":"Andhra Pradesh","latitude":16.9891,"longitude":82.2475,"temp":26.6,"humidity":89,"rain":0.0,"pressure":1006.6,"uv_index":9.0,"wind_gusts":35.3,"aqi":72,"pm10":27.6,"pm2_5":16.4,"mosquito_risk":7,"arthritis_risk":5,"migraine_risk":4,"frizz_risk":1,"updated_at":"2026-03-28T22:08:58.705980+05:30"},{"city":"Tirupati","state":"Andhra Pradesh","latitude":13.6288,"longitude":79.4192,"temp":27.7,"humidity":77,"rain":0.0,"pressure":991.6,"uv_index":9.25,"wind_gusts":27.4,"aqi":104,"pm10":46.7,"pm2_5":42.3,"mosquito_risk":7,"arthritis_risk":5,"migraine_risk":7,"frizz_risk":1,"updated_at":"2026-03-28T22:08:58.705987+05:30"},{"city":"Warangal","state":"Telangana","latitude":17.9689,"longitude":79.5941,"temp":30.7,"humidity":53,"rain":0.0,"pressure":976.6,"uv_index":8.85,"wind_gusts":25.6,"aqi":105,"pm10":72.2,"pm2_5":68.0,"mosquito_risk":0,"arthritis_risk":5,"migraine_risk":7,"frizz_risk":1,"updated_at":"2026-03-28T22:08:58.705993+05:30"},{"city":"Nizamabad","state":"Telangana","latitude":18.6725,"longitude":78.0941,"temp":28.7,"humidity":46,"rain":0.0,"pressure":962.4,"uv_index":8.8,"wind_gusts":26.3,"aqi":85,"pm10":27.9,"pm2_5":25.2,"mosquito_risk":4,"arthritis_risk":5,"migraine_risk":7,"frizz_risk":0,"updated_at":"2026-03-28T22:08:58.706000+05:30"},{"city":"Mysore","state":"Karnataka","latitude":12.2958,"longitude":76.6396,"temp":24.6,"humidity":81,"rain":0.0,"pressure":928.4,"uv_index":9.45,"wind_gusts":45.7,"aqi":152,"pm10":39.9,"pm2_5":36.6,"mosquito_risk":3,"arthritis_risk":5,"migraine_risk":7,"frizz_risk":1,"updated_at":"2026-03-28T22:08:58.706006+05:30"},{"city":"Mangalore","state":"Karnataka","latitude":12.9141,"longitude":74.856,"temp":29.9,"humidity":78,"rain":0.0,"pressure":1006.4,"uv_index":9.1,"wind_gusts":23.8,"aqi":94,"pm10":37.4,"pm2_5":30.3,"mosquito_risk":7,"arthritis_risk":5,"migraine_risk":4,"frizz_risk":1,"updated_at":"2026-03-28T22:08:58.706013+05:30"},{"city":"Hubli-Dharwad","state":"Karnataka","latitude":15.3647,"longitude":75.124,"temp":25.7,"humidity":80,"rain":0.0,"pressure":940.7,"uv_index":8.3,"wind_gusts":44.3,"aqi":124,"pm10":39.5,"pm2_5":36.0,"mosquito_risk":7,"arthritis_risk":5,"migraine_risk":7,"frizz_risk":1,"updated_at":"2026-03-28T22:08:58.706019+05:30"},{"city":"Belgaum","state":"Karnataka","latitude":15.8497,"longitude":74.4977,"temp":23.5,"humidity":87,"rain":0.0,"pressure":925.6,"uv_index":8.95,"wind_gusts":36.4,"aqi":116,"pm10":43.9,"pm2_5":39.9,"mosquito_risk":3,"arthritis_risk":5,"migraine_risk":7,"frizz_risk":1,"updated_at":"2026-03-28T22:09:02.023583+05:30"},{"city":"Coimbatore","state":"Tamil Nadu","latitude":11.0168,"longitude":76.9558,"temp":25.5,"humidity":80,"rain":0.0,"pressure":962.0,"uv_index":9.45,"wind_gusts":52.2,"aqi":90,"pm10":34.3,"pm2_5":32.8,"mosquito_risk":7,"arthritis_risk":5,"migraine_risk":7,"frizz_risk":1,"updated_at":"2026-03-28T22:09:02.023616+05:30"},{"city":"Madurai","state":"Tamil Nadu","latitude":9.9252,"longitude":78.1198,"temp":27.9,"humidity":72,"rain":0.0,"pressure":993.6,"uv_index":9.4,"wind_gusts":38.2,"aqi":103,"pm10":17.5,"pm2_5":16.1,"mosquito_risk":7,"arthritis_risk":5,"migraine_risk":7,"frizz_risk":1,"updated_at":"2026-03-28T22:09:02.023627+05:30"},{"city":"Trichy","state":"Tamil Nadu","latitude":10.7905,"longitude":78.7047,"temp":27.7,"humidity":79,"rain":0.0,"pressure":999.7,"uv_index":9.35,"wind_gusts":23.8,"aqi":72,"pm10":15.4,"pm2_5":14.4,"mosquito_risk":7,"arthritis_risk":5,"migraine_risk":7,"frizz_risk":1,"updated_at":"2026-03-28T22:09:02.023636+05:30"},{"city":"Salem","state":"Tamil Nadu","latitude":11.6643,"longitude":78.146,"temp":30.2,"humidity":48,"rain":0.0,"pressure":976.7,"uv_index":9.4,"wind_gusts":25.2,"aqi":142,"pm10":41.2,"pm2_5":35.6,"mosquito_risk":0,"arthritis_risk":5,"migraine_risk":7,"frizz_risk":1,"updated_at":"2026-03-28T22:09:02.023645+05:30"},{"city":"Tirunelveli","state":"Tamil Nadu","latitude":8.7139,"longitude":77.7567,"temp":28.7,"humidity":67,"rain":0.0,"pressure":1003.3,"uv_index":9.35,"wind_gusts":47.5,"aqi":100,"pm10":26.8,"pm2_5":24.4,"mosquito_risk":7,"arthritis_risk":5,"migraine_risk":4,"frizz_risk":1,"updated_at":"2026-03-28T22:09:02.023659+05:30"},{"city":"Vellore","state":"Tamil Nadu","latitude":12.9165,"longitude":79.1325,"temp":27.9,"humidity":74,"rain":0.0,"pressure":984.4,"uv_index":9.35,"wind_gusts":31.0,"aqi":130,"pm10":55.9,"pm2_5":51.7,"mosquito_risk":7,"arthritis_risk":5,"migraine_risk":7,"frizz_risk":1,"updated_at":"2026-03-28T22:09:02.023669+05:30"},{"city":"Erode","state":"Tamil Nadu","latitude":11.341,"longitude":77.7172,"temp":29.9,"humidity":61,"rain":0.0,"pressure":988.8,"uv_index":9.35,"wind_gusts":25.6,"aqi":122,"pm10":39.0,"pm2_5":34.3,"mosquito_risk":7,"arthritis_risk":5,"migraine_risk":7,"frizz_risk":1,"updated_at":"2026-03-28T22:09:02.023678+05:30"},{"city":"Kochi","state":"Kerala","latitude":9.9312,"longitude":76.2673,"temp":28.6,"humidity":81,"rain":0.0,"pressure":1009.3,"uv_index":8.45,"wind_gusts":31.7,"aqi":94,"pm10":38.4,"pm2_5":36.0,"mosquito_risk":7,"arthritis_risk":0,"migraine_risk":4,"frizz_risk":1,"updated_at":"2026-03-28T22:09:02.023687+05:30"},{"city":"Thiruvananthapuram","state":"Kerala","latitude":8.5241,"longitude":76.9366,"temp":28.6,"humidity":81,"rain":0.0,"pressure":1008.7,"uv_index":9.15,"wind_gusts":39.6,"aqi":65,"pm10":26.4,"pm2_5":21.0,"mosquito_risk":7,"arthritis_risk":0,"migraine_risk":4,"frizz_risk":1,"updated_at":"2026-03-28T22:09:02.023696+05:30"},{"city":"Kozhikode","state":"Kerala","latitude":11.2588,"longitude":75.7804,"temp":28.6,"humidity":82,"rain":0.0,"pressure":1008.0,"uv_index":9.1,"wind_gusts":31.0,"aqi":79,"pm10":32.2,"pm2_5":25.6,"mosquito_risk":7,"arthritis_risk":0,"migraine_risk":4,"frizz_risk":1,"updated_at":"2026-03-28T22:09:02.023705+05:30"},{"city":"Thrissur","state":"Kerala","latitude":10.5276,"longitude":76.2144,"temp":27.9,"humidity":84,"rain":0.0,"pressure":1007.2,"uv_index":9.15,"wind_gusts":36.4,"aqi":89,"pm10":39.5,"pm2_5":36.7,"mosquito_risk":7,"arthritis_risk":5,"migraine_risk":4,"frizz_risk":1,"updated_at":"2026-03-28T22:09:02.023714+05:30"},{"city":"Kannur","state":"Kerala","latitude":11.8745,"longitude":75.3704,"temp":28.8,"humidity":81,"rain":0.0,"pressure":1007.1,"uv_index":9.05,"wind_gusts":31.0,"aqi":88,"pm10":43.0,"pm2_5":36.1,"mosquito_risk":7,"arthritis_risk":5,"migraine_risk":4,"frizz_risk":1,"updated_at":"2026-03-28T22:09:02.023723+05:30"},{"city":"Patna","state":"Bihar","latitude":25.5941,"longitude":85.1376,"temp":24.7,"humidity":74,"rain":0.0,"pressure":1000.1,"uv_index":7.9,"wind_gusts":29.5,"aqi":92,"pm10":83.8,"pm2_5":56.9,"mosquito_risk":3,"arthritis_risk":5,"migraine_risk":4,"frizz_risk":1,"updated_at":"2026-03-28T22:09:02.023747+05:30"},{"city":"Gaya","state":"Bihar","latitude":24.7914,"longitude":85.0002,"temp":23.5,"humidity":80,"rain":0.0,"pressure":993.1,"uv_index":7.9,"wind_gusts":24.1,"aqi":80,"pm10":61.9,"pm2_5":36.1,"mosquito_risk":3,"arthritis_risk":5,"migraine_risk":7,"frizz_risk":1,"updated_at":"2026-03-28T22:09:02.023756+05:30"},{"city":"Muzaffarpur","state":"Bihar","latitude":26.1209,"longitude":85.3647,"temp":22.9,"humidity":82,"rain":0.0,"pressure":1000.4,"uv_index":7.85,"wind_gusts":21.2,"aqi":109,"pm10":82.4,"pm2_5":60.8,"mosquito_risk":3,"arthritis_risk":5,"migraine_risk":4,"frizz_risk":1,"updated_at":"2026-03-28T22:09:02.023765+05:30"},{"city":"Bhagalpur","state":"Bihar","latitude":25.2425,"longitude":87.0117,"temp":22.3,"humidity":89,"rain":0.0,"pressure":1001.8,"uv_index":7.75,"wind_gusts":25.2,"aqi":105,"pm10":44.5,"pm2_5":35.7,"mosquito_risk":3,"arthritis_risk":5,"migraine_risk":4,"frizz_risk":1,"updated_at":"2026-03-28T22:09:02.023773+05:30"},{"city":"Ranchi","state":"Jharkhand","latitude":23.3441,"longitude":85.3096,"temp":23.1,"humidity":71,"rain":0.0,"pressure":936.4,"uv_index":8.7,"wind_gusts":31.7,"aqi":91,"pm10":43.3,"pm2_5":28.3,"mosquito_risk":3,"arthritis_risk":5,"migraine_risk":7,"frizz_risk":1,"updated_at":"2026-03-28T22:09:02.023781+05:30"},{"city":"Jamshedpur","state":"Jharkhand","latitude":22.8046,"longitude":86.2029,"temp":26.4,"humidity":75,"rain":0.0,"pressure":989.5,"uv_index":8.5,"wind_gusts":32.4,"aqi":155,"pm10":56.8,"pm2_5":52.2,"mosquito_risk":7,"arthritis_risk":5,"migraine_risk":7,"frizz_risk":1,"updated_at":"2026-03-28T22:09:02.023790+05:30"},{"city":"Dhanbad","state":"Jharkhand","latitude":23.7957,"longitude":86.4304,"temp":25.1,"humidity":69,"rain":0.0,"pressure":979.3,"uv_index":8.4,"wind_gusts":30.2,"aqi":153,"pm10":80.6,"pm2_5":74.7,"mosquito_risk":7,"arthritis_risk":5,"migraine_risk":7,"frizz_risk":1,"updated_at":"2026-03-28T22:09:02.023799+05:30"},{"city":"Bokaro","state":"Jharkhand","latitude":23.6693,"longitude":86.1511,"temp":24.6,"humidity":75,"rain":0.0,"pressure":983.3,"uv_index":8.45,"wind_gusts":31.0,"aqi":146,"pm10":65.2,"pm2_5":52.2,"mosquito_risk":3,"arthritis_risk":5,"migraine_risk":7,"frizz_risk":1,"updated_at":"2026-03-28T22:09:02.023806+05:30"},{"city":"Bhubaneswar","state":"Odisha","latitude":20.2961,"longitude":85.8245,"temp":26.8,"humidity":83,"rain":0.0,"pressure":1001.0,"uv_index":8.8,"wind_gusts":31.7,"aqi":118,"pm10":35.4,"pm2_5":28.2,"mosquito_risk":7,"arthritis_risk":5,"migraine_risk":4,"frizz_risk":1,"updated_at":"2026-03-28T22:09:02.023813+05:30"},{"city":"Cuttack","state":"Odisha","latitude":20.4625,"longitude":85.8828,"temp":26.8,"humidity":84,"rain":0.0,"pressure":1002.8,"uv_index":8.8,"wind_gusts":28.4,"aqi":118,"pm10":35.4,"pm2_5":28.2,"mosquito_risk":7,"arthritis_risk":5,"migraine_risk":4,"frizz_risk":1,"updated_at":"2026-03-28T22:09:02.023820+05:30"},{"city":"Rourkela","state":"Odisha","latitude":22.2604,"longitude":84.8536,"temp":27.1,"humidity":72,"rain":0.0,"pressure":982.4,"uv_index":8.4,"wind_gusts":43.9,"aqi":128,"pm10":47.3,"pm2_5":36.7,"mosquito_risk":7,"arthritis_risk":5,"migraine_risk":7,"frizz_risk":1,"updated_at":"2026-03-28T22:09:02.023827+05:30"},{"city":"Raipur","state":"Chhattisgarh","latitude":21.2514,"longitude":81.6296,"temp":30.0,"humidity":38,"rain":0.0,"pressure":971.7,"uv_index":8.55,"wind_gusts":34.6,"aqi":87,"pm10":33.2,"pm2_5":28.6,"mosquito_risk":4,"arthritis_risk":5,"migraine_risk":7,"frizz_risk":0,"updated_at":"2026-03-28T22:09:02.023835+05:30"},{"city":"Bhilai","state":"Chhattisgarh","latitude":21.1938,"longitude":81.3509,"temp":29.4,"humidity":43,"rain":0.0,"pressure":972.0,"uv_index":8.55,"wind_gusts":33.8,"aqi":74,"pm10":29.7,"pm2_5":25.1,"mosquito_risk":4,"arthritis_risk":5,"migraine_risk":7,"frizz_risk":0,"updated_at":"2026-03-28T22:09:02.023841+05:30"},{"city":"Guwahati","state":"Assam","latitude":26.1158,"longitude":91.7086,"temp":21.1,"humidity":93,"rain":0.0,"pressure":1002.7,"uv_index":4.0,"wind_gusts":28.1,"aqi":132,"pm10":37.6,"pm2_5":35.6,"mosquito_risk":3,"arthritis_risk":5,"migraine_risk":0,"frizz_risk":1,"updated_at":"2026-03-28T22:09:02.023848+05:30"},{"city":"Agartala","state":"Tripura","latitude":23.8315,"longitude":91.2868,"temp":21.4,"humidity":94,"rain":0.0,"pressure":1006.9,"uv_index":6.4,"wind_gusts":38.5,"aqi":136,"pm10":85.2,"pm2_5":78.7,"mosquito_risk":3,"arthritis_risk":5,"migraine_risk":4,"frizz_risk":1,"updated_at":"2026-03-28T22:09:02.023855+05:30"},{"city":"Shillong","state":"Meghalaya","latitude":25.5788,"longitude":91.8933,"temp":10.2,"humidity":88,"rain":0.0,"pressure":853.0,"uv_index":3.7,"wind_gusts":43.9,"aqi":82,"pm10":21.5,"pm2_5":17.9,"mosquito_risk":3,"arthritis_risk":10,"migraine_risk":3,"frizz_risk":0,"updated_at":"2026-03-28T22:09:02.023862+05:30"},{"city":"Imphal","state":"Manipur","latitude":24.817,"longitude":93.9368,"temp":15.3,"humidity":92,"rain":0.0,"pressure":922.3,"uv_index":7.7,"wind_gusts":55.1,"aqi":150,"pm10":73.8,"pm2_5":64.0,"mosquito_risk":3,"arthritis_risk":10,"migraine_risk":7,"frizz_risk":0,"updated_at":"2026-03-28T22:09:02.023869+05:30"},{"city":"Aizawl","state":"Mizoram","latitude":23.7271,"longitude":92.7176,"temp":15.4,"humidity":95,"rain":0.0,"pressure":891.2,"uv_index":7.35,"wind_gusts":38.2,"aqi":117,"pm10":58.0,"pm2_5":46.2,"mosquito_risk":3,"arthritis_risk":10,"migraine_risk":7,"frizz_risk":0,"updated_at":"2026-03-28T22:09:02.023876+05:30"},{"city":"Kohima","state":"Nagaland","latitude":25.6701,"longitude":94.1077,"temp":13.3,"humidity":81,"rain":0.0,"pressure":852.6,"uv_index":4.95,"wind_gusts":71.3,"aqi":110,"pm10":32.4,"pm2_5":24.9,"mosquito_risk":3,"arthritis_risk":10,"migraine_risk":3,"frizz_risk":0,"updated_at":"2026-03-28T22:09:02.023884+05:30"},{"city":"Gangtok","state":"Sikkim","latitude":27.3314,"longitude":88.6138,"temp":11.8,"humidity":85,"rain":0.0,"pressure":834.4,"uv_index":6.7,"wind_gusts":17.3,"aqi":76,"pm10":22.9,"pm2_5":20.8,"mosquito_risk":3,"arthritis_risk":10,"migraine_risk":7,"frizz_risk":0,"updated_at":"2026-03-28T22:09:02.023890+05:30"},{"city":"Siliguri","state":"West Bengal","latitude":26.7271,"longitude":88.3953,"temp":17.4,"humidity":87,"rain":0.0,"pressure":995.0,"uv_index":7.5,"wind_gusts":26.3,"aqi":139,"pm10":39.9,"pm2_5":33.1,"mosquito_risk":3,"arthritis_risk":10,"migraine_risk":7,"frizz_risk":0,"updated_at":"2026-03-28T22:09:05.338879+05:30"},{"city":"Durgapur","state":"West Bengal","latitude":23.5204,"longitude":87.3119,"temp":23.8,"humidity":80,"rain":0.0,"pressure":995.2,"uv_index":8.35,"wind_gusts":28.4,"aqi":151,"pm10":66.8,"pm2_5":59.5,"mosquito_risk":3,"arthritis_risk":5,"migraine_risk":7,"frizz_risk":1,"updated_at":"2026-03-28T22:09:05.338911+05:30"},{"city":"Asansol","state":"West Bengal","latitude":23.6739,"longitude":86.9524,"temp":24.4,"humidity":76,"rain":0.0,"pressure":993.5,"uv_index":8.35,"wind_gusts":31.7,"aqi":148,"pm10":75.0,"pm2_5":68.0,"mosquito_risk":3,"arthritis_risk":5,"migraine_risk":7,"frizz_risk":1,"updated_at":"2026-03-28T22:09:05.338921+05:30"},{"city":"Pondicherry","state":"Puducherry","latitude":11.9139,"longitude":79.8145,"temp":26.0,"humidity":93,"rain":0.0,"pressure":1008.4,"uv_index":9.25,"wind_gusts":32.4,"aqi":61,"pm10":17.8,"pm2_5":12.6,"mosquito_risk":7,"arthritis_risk":0,"migraine_risk":4,"frizz_risk":1,"updated_at":"2026-03-28T22:09:05.338929+05:30"},{"city":"Port Blair","state":"Andaman and Nicobar Islands","latitude":11.6234,"longitude":92.7265,"temp":29.0,"humidity":73,"rain":0.0,"pressure":1006.5,"uv_index":9.15,"wind_gusts":27.0,"aqi":69,"pm10":24.7,"pm2_5":19.6,"mosquito_risk":7,"arthritis_risk":5,"migraine_risk":4,"frizz_risk":1,"updated_at":"2026-03-28T22:09:05.338937+05:30"},{"city":"Haridwar","state":"Uttarakhand","latitude":29.9457,"longitude":78.1642,"temp":23.5,"humidity":73,"rain":0.0,"pressure":972.6,"uv_index":5.7,"wind_gusts":27.0,"aqi":109,"pm10":38.6,"pm2_5":35.3,"mosquito_risk":3,"arthritis_risk":5,"migraine_risk":3,"frizz_risk":1,"updated_at":"2026-03-28T22:09:05.338945+05:30"},{"city":"Rishikesh","state":"Uttarakhand","latitude":30.0869,"longitude":78.2676,"temp":21.2,"humidity":77,"rain":0.0,"pressure":965.4,"uv_index":5.8,"wind_gusts":24.8,"aqi":99,"pm10":31.0,"pm2_5":27.1,"mosquito_risk":3,"arthritis_risk":5,"migraine_risk":3,"frizz_risk":1,"updated_at":"2026-03-28T22:09:05.338953+05:30"},{"city":"Nainital","state":"Uttarakhand","latitude":29.3919,"longitude":79.4542,"temp":17.0,"humidity":68,"rain":0.0,"pressure":804.0,"uv_index":4.8,"wind_gusts":25.9,"aqi":103,"pm10":31.9,"pm2_5":26.9,"mosquito_risk":3,"arthritis_risk":5,"migraine_risk":3,"frizz_risk":0,"updated_at":"2026-03-28T22:09:05.338962+05:30"},{"city":"Mussoorie","state":"Uttarakhand","latitude":30.4599,"longitude":78.0664,"temp":15.2,"humidity":76,"rain":0.0,"pressure":800.3,"uv_index":5.65,"wind_gusts":25.9,"aqi":118,"pm10":45.3,"pm2_5":40.3,"mosquito_risk":3,"arthritis_risk":5,"migraine_risk":3,"frizz_risk":0,"updated_at":"2026-03-28T22:09:05.338969+05:30"},{"city":"Dharamshala","state":"Himachal Pradesh","latitude":32.219,"longitude":76.3234,"temp":18.8,"humidity":69,"rain":0.0,"pressure":866.6,"uv_index":6.9,"wind_gusts":16.6,"aqi":96,"pm10":31.1,"pm2_5":21.1,"mosquito_risk":3,"arthritis_risk":5,"migraine_risk":7,"frizz_risk":0,"updated_at":"2026-03-28T22:09:05.338976+05:30"},{"city":"Dalhousie","state":"Himachal Pradesh","latitude":32.5387,"longitude":75.971,"temp":15.7,"humidity":72,"rain":0.0,"pressure":800.8,"uv_index":6.45,"wind_gusts":17.3,"aqi":105,"pm10":37.4,"pm2_5":33.5,"mosquito_risk":3,"arthritis_risk":5,"migraine_risk":7,"frizz_risk":0,"updated_at":"2026-03-28T22:09:05.338983+05:30"},{"city":"Patiala","state":"Punjab","latitude":30.3398,"longitude":76.3869,"temp":23.7,"humidity":64,"rain":0.0,"pressure":976.0,"uv_index":5.95,"wind_gusts":17.3,"aqi":100,"pm10":67.3,"pm2_5":46.4,"mosquito_risk":3,"arthritis_risk":5,"migraine_risk":3,"frizz_risk":1,"updated_at":"2026-03-28T22:09:05.338990+05:30"},{"city":"Bhatinda","state":"Punjab","latitude":30.211,"longitude":74.9455,"temp":24.2,"humidity":61,"rain":0.0,"pressure":980.4,"uv_index":6.95,"wind_gusts":17.3,"aqi":79,"pm10":44.5,"pm2_5":29.9,"mosquito_risk":3,"arthritis_risk":5,"migraine_risk":7,"frizz_risk":1,"updated_at":"2026-03-28T22:09:05.338997+05:30"},{"city":"Rohtak","state":"Haryana","latitude":28.8955,"longitude":76.6066,"temp":23.5,"humidity":61,"rain":0.0,"pressure":979.4,"uv_index":6.25,"wind_gusts":14.8,"aqi":126,"pm10":152.3,"pm2_5":64.5,"mosquito_risk":3,"arthritis_risk":5,"migraine_risk":7,"frizz_risk":0,"updated_at":"2026-03-28T22:09:05.339004+05:30"},{"city":"Panipat","state":"Haryana","latitude":29.3909,"longitude":76.9635,"temp":23.3,"humidity":61,"rain":0.0,"pressure":978.2,"uv_index":5.65,"wind_gusts":19.4,"aqi":184,"pm10":224.4,"pm2_5":80.3,"mosquito_risk":3,"arthritis_risk":5,"migraine_risk":3,"frizz_risk":0,"updated_at":"2026-03-28T22:09:05.339011+05:30"},{"city":"Mathura","state":"Uttar Pradesh","latitude":27.4924,"longitude":77.6737,"temp":24.2,"humidity":58,"rain":0.0,"pressure":984.1,"uv_index":6.5,"wind_gusts":20.9,"aqi":262,"pm10":415.4,"pm2_5":79.4,"mosquito_risk":0,"arthritis_risk":5,"migraine_risk":7,"frizz_risk":0,"updated_at":"2026-03-28T22:09:05.339018+05:30"},{"city":"Vrindavan","state":"Uttar Pradesh","latitude":27.5823,"longitude":77.7027,"temp":23.8,"humidity":60,"rain":0.0,"pressure":984.6,"uv_index":6.5,"wind_gusts":22.7,"aqi":262,"pm10":415.4,"pm2_5":79.4,"mosquito_risk":0,"arthritis_risk":5,"migraine_risk":7,"frizz_risk":0,"updated_at":"2026-03-28T22:09:05.339026+05:30"},{"city":"Ayodhya","state":"Uttar Pradesh","latitude":26.7922,"longitude":82.1998,"temp":24.0,"humidity":65,"rain":0.0,"pressure":993.8,"uv_index":6.85,"wind_gusts":31.7,"aqi":98,"pm10":83.4,"pm2_5":38.3,"mosquito_risk":3,"arthritis_risk":5,"migraine_risk":7,"frizz_risk":1,"updated_at":"2026-03-28T22:09:05.339033+05:30"},{"city":"Ratlam","state":"Madhya Pradesh","latitude":23.3315,"longitude":75.0367,"temp":26.9,"humidity":54,"rain":0.0,"pressure":952.8,"uv_index":8.1,"wind_gusts":37.1,"aqi":49,"pm10":19.8,"pm2_5":11.3,"mosquito_risk":4,"arthritis_risk":5,"migraine_risk":7,"frizz_risk":1,"updated_at":"2026-03-28T22:09:05.339040+05:30"},{"city":"Sagar","state":"Madhya Pradesh","latitude":23.8388,"longitude":78.7378,"temp":28.9,"humidity":41,"rain":0.0,"pressure":947.8,"uv_index":8.15,"wind_gusts":32.4,"aqi":54,"pm10":43.5,"pm2_5":16.5,"mosquito_risk":4,"arthritis_risk":5,"migraine_risk":7,"frizz_risk":0,"updated_at":"2026-03-28T22:09:05.339047+05:30"},{"city":"Satna","state":"Madhya Pradesh","latitude":24.6005,"longitude":80.8322,"temp":27.0,"humidity":40,"rain":0.0,"pressure":969.3,"uv_index":8.1,"wind_gusts":23.8,"aqi":78,"pm10":49.0,"pm2_5":18.8,"mosquito_risk":4,"arthritis_risk":5,"migraine_risk":7,"frizz_risk":0,"updated_at":"2026-03-28T22:09:05.339054+05:30"},{"city":"Akola","state":"Maharashtra","latitude":20.7002,"longitude":77.0082,"temp":28.4,"humidity":42,"rain":0.0,"pressure":972.9,"uv_index":8.5,"wind_gusts":37.1,"aqi":60,"pm10":21.7,"pm2_5":14.8,"mosquito_risk":4,"arthritis_risk":5,"migraine_risk":7,"frizz_risk":0,"updated_at":"2026-03-28T22:09:05.339061+05:30"},{"city":"Amravati","state":"Maharashtra","latitude":20.9374,"longitude":77.7796,"temp":28.3,"humidity":46,"rain":0.0,"pressure":965.0,"uv_index":8.45,"wind_gusts":33.5,"aqi":57,"pm10":19.5,"pm2_5":13.6,"mosquito_risk":4,"arthritis_risk":5,"migraine_risk":7,"frizz_risk":0,"updated_at":"2026-03-28T22:09:05.339069+05:30"},{"city":"Latur","state":"Maharashtra","latitude":18.4088,"longitude":76.5604,"temp":28.5,"humidity":39,"rain":0.0,"pressure":938.2,"uv_index":8.8,"wind_gusts":32.4,"aqi":72,"pm10":33.9,"pm2_5":31.5,"mosquito_risk":4,"arthritis_risk":5,"migraine_risk":7,"frizz_risk":0,"updated_at":"2026-03-28T22:09:05.339076+05:30"},{"city":"Nanded","state":"Maharashtra","latitude":19.1383,"longitude":77.3091,"temp":29.6,"humidity":34,"rain":0.0,"pressure":966.0,"uv_index":8.7,"wind_gusts":28.8,"aqi":67,"pm10":24.1,"pm2_5":21.9,"mosquito_risk":4,"arthritis_risk":5,"migraine_risk":7,"frizz_risk":0,"updated_at":"2026-03-28T22:09:05.339083+05:30"},{"city":"Gulbarga","state":"Karnataka","latitude":17.3297,"longitude":76.8343,"temp":31.0,"humidity":32,"rain":0.0,"pressure":957.0,"uv_index":8.85,"wind_gusts":31.7,"aqi":90,"pm10":31.1,"pm2_5":26.4,"mosquito_risk":0,"arthritis_risk":5,"migraine_risk":7,"frizz_risk":0,"updated_at":"2026-03-28T22:09:05.339090+05:30"},{"city":"Bidar","state":"Karnataka","latitude":17.9104,"longitude":77.5199,"temp":30.5,"humidity":33,"rain":0.0,"pressure":934.3,"uv_index":8.85,"wind_gusts":28.8,"aqi":88,"pm10":23.6,"pm2_5":21.6,"mosquito_risk":0,"arthritis_risk":5,"migraine_risk":7,"frizz_risk":0,"updated_at":"2026-03-28T22:09:05.339096+05:30"},{"city":"Hospet","state":"Karnataka","latitude":15.2689,"longitude":76.3909,"temp":28.8,"humidity":56,"rain":0.0,"pressure":955.3,"uv_index":9.1,"wind_gusts":30.6,"aqi":116,"pm10":54.8,"pm2_5":47.8,"mosquito_risk":4,"arthritis_risk":5,"migraine_risk":7,"frizz_risk":1,"updated_at":"2026-03-28T22:09:05.339102+05:30"},{"city":"Tirupur","state":"Tamil Nadu","latitude":11.1085,"longitude":77.3411,"temp":27.6,"humidity":75,"rain":0.0,"pressure":975.2,"uv_index":9.45,"wind_gusts":43.6,"aqi":119,"pm10":46.3,"pm2_5":42.5,"mosquito_risk":7,"arthritis_risk":5,"migraine_risk":7,"frizz_risk":1,"updated_at":"2026-03-28T22:09:05.339109+05:30"},{"city":"Alappuzha","state":"Kerala","latitude":9.4981,"longitude":76.3388,"temp":28.2,"humidity":82,"rain":0.0,"pressure":1009.5,"uv_index":9.1,"wind_gusts":31.3,"aqi":87,"pm10":37.0,"pm2_5":31.3,"mosquito_risk":7,"arthritis_risk":0,"migraine_risk":4,"frizz_risk":1,"updated_at":"2026-03-28T22:09:05.339116+05:30"},{"city":"Munnar","state":"Kerala","latitude":10.0889,"longitude":77.0595,"temp":20.8,"humidity":95,"rain":0.0,"pressure":857.4,"uv_index":9.7,"wind_gusts":40.7,"aqi":80,"pm10":47.1,"pm2_5":44.1,"mosquito_risk":3,"arthritis_risk":5,"migraine_risk":7,"frizz_risk":1,"updated_at":"2026-03-28T22:09:05.339123+05:30"},{"city":"Silchar","state":"Assam","latitude":24.8333,"longitude":92.7789,"temp":21.1,"humidity":93,"rain":0.0,"pressure":1006.0,"uv_index":4.85,"wind_gusts":30.2,"aqi":153,"pm10":87.8,"pm2_5":76.4,"mosquito_risk":3,"arthritis_risk":5,"migraine_risk":0,"frizz_risk":1,"updated_at":"2026-03-28T22:09:05.339130+05:30"},{"city":"Dibrugarh","state":"Assam","latitude":27.4728,"longitude":94.912,"temp":19.6,"humidity":89,"rain":0.0,"pressure":996.8,"uv_index":4.5,"wind_gusts":31.0,"aqi":106,"pm10":41.2,"pm2_5":33.3,"mosquito_risk":3,"arthritis_risk":10,"migraine_risk":3,"frizz_risk":1,"updated_at":"2026-03-28T22:09:05.339136+05:30"}]