[{"city":"Delhi","state":"Delhi","latitude":28.6139,"longitude":77.209,"temp":37.3,"humidity":22,"rain":0.0,"pressure":982.7,"uv_index":7.3,"wind_gusts":20.5,"aqi":320,"pm10":68.0,"pm2_5":19.0,"mosquito_risk":0,"arthritis_risk":5,"migraine_risk":10,"frizz_risk":0,"updated_at":"2026-04-16T13:22:21.506408+05:30"},{"city":"Mumbai","state":"Maharashtra","latitude":19.076,"longitude":72.8777,"temp":28.7,"humidity":73,"rain":0.0,"pressure":1007.6,"uv_index":8.0,"wind_gusts":19.4,"aqi":81,"pm10":60.5,"pm2_5":34.2,"mosquito_risk":7,"arthritis_risk":5,"migraine_risk":4,"frizz_risk":1,"updated_at":"2026-04-16T13:22:21.506451+05:30"},{"city":"Bangalore","state":"Karnataka","latitude":12.9716,"longitude":77.5946,"temp":35.1,"humidity":28,"rain":0.0,"pressure":912.0,"uv_index":9.6,"wind_gusts":33.8,"aqi":79,"pm10":28.8,"pm2_5":23.3,"mosquito_risk":0,"arthritis_risk":5,"migraine_risk":10,"frizz_risk":0,"updated_at":"2026-04-16T13:22:21.506466+05:30"},{"city":"Hyderabad","state":"Telangana","latitude":17.385,"longitude":78.4867,"temp":39.3,"humidity":24,"rain":0.0,"pressure":952.1,"uv_index":9.25,"wind_gusts":34.6,"aqi":89,"pm10":30.6,"pm2_5":24.7,"mosquito_risk":0,"arthritis_risk":5,"migraine_risk":10,"frizz_risk":0,"updated_at":"2026-04-16T13:22:21.506477+05:30"},{"city":"Chennai","state":"Tamil Nadu","latitude":13.0827,"longitude":80.2707,"temp":36.2,"humidity":53,"rain":0.0,"pressure":1006.0,"uv_index":9.3,"wind_gusts":34.2,"aqi":34,"pm10":11.6,"pm2_5":8.7,"mosquito_risk":0,"arthritis_risk":5,"migraine_risk":7,"frizz_risk":1,"updated_at":"2026-04-16T13:22:21.506486+05:30"},{"city":"Kolkata","state":"West Bengal","latitude":22.5726,"longitude":88.3639,"temp":34.1,"humidity":59,"rain":0.0,"pressure":1004.4,"uv_index":8.85,"wind_gusts":33.5,"aqi":85,"pm10":35.0,"pm2_5":25.7,"mosquito_risk":0,"arthritis_risk":5,"migraine_risk":4,"frizz_risk":1,"updated_at":"2026-04-16T13:22:21.506495+05:30"},{"city":"Pune","state":"Maharashtra","latitude":18.5204,"longitude":73.8567,"temp":40.0,"humidity":10,"rain":0.0,"pressure":948.0,"uv_index":8.6,"wind_gusts":42.1,"aqi":63,"pm10":16.5,"pm2_5":9.6,"mosquito_risk":0,"arthritis_risk":5,"migraine_risk":10,"frizz_risk":0,"updated_at":"2026-04-16T13:22:21.506507+05:30"},{"city":"Ahmedabad","state":"Gujarat","latitude":23.0225,"longitude":72.5714,"temp":38.0,"humidity":31,"rain":0.0,"pressure":1000.7,"uv_index":8.15,"wind_gusts":15.8,"aqi":83,"pm10":72.2,"pm2_5":24.6,"mosquito_risk":0,"arthritis_risk":5,"migraine_risk":7,"frizz_risk":1,"updated_at":"2026-04-16T13:22:21.506515+05:30"},{"city":"Jaipur","state":"Rajasthan","latitude":26.9124,"longitude":75.7873,"temp":39.5,"humidity":12,"rain":0.0,"pressure":959.7,"uv_index":7.95,"wind_gusts":26.6,"aqi":132,"pm10":205.8,"pm2_5":25.6,"mosquito_risk":0,"arthritis_risk":5,"migraine_risk":10,"frizz_risk":0,"updated_at":"2026-04-16T13:22:21.506523+05:30"},{"city":"Lucknow","state":"Uttar Pradesh","latitude":26.8467,"longitude":80.9462,"temp":38.3,"humidity":16,"rain":0.0,"pressure":992.5,"uv_index":7.8,"wind_gusts":23.8,"aqi":102,"pm10":204.0,"pm2_5":31.9,"mosquito_risk":0,"arthritis_risk":5,"migraine_risk":10,"frizz_risk":0,"updated_at":"2026-04-16T13:22:21.506531+05:30"},{"city":"Kanpur","state":"Uttar Pradesh","latitude":26.4499,"longitude":80.3319,"temp":37.9,"humidity":19,"rain":0.0,"pressure":991.0,"uv_index":7.85,"wind_gusts":21.6,"aqi":139,"pm10":352.0,"pm2_5":42.1,"mosquito_risk":0,"arthritis_risk":5,"migraine_risk":10,"frizz_risk":0,"updated_at":"2026-04-16T13:22:21.506539+05:30"},{"city":"Chandigarh","state":"Chandigarh","latitude":30.7333,"longitude":76.7794,"temp":36.4,"humidity":23,"rain":0.0,"pressure":968.9,"uv_index":7.2,"wind_gusts":23.0,"aqi":48,"pm10":18.6,"pm2_5":7.4,"mosquito_risk":0,"arthritis_risk":5,"migraine_risk":10,"frizz_risk":0,"updated_at":"2026-04-16T13:22:21.506546+05:30"},{"city":"Srinagar","state":"Jammu and Kashmir","latitude":34.0837,"longitude":74.7973,"temp":19.9,"humidity":48,"rain":0.0,"pressure":843.8,"uv_index":7.95,"wind_gusts":28.4,"aqi":67,"pm10":19.6,"pm2_5":9.5,"mosquito_risk":0,"arthritis_risk":5,"migraine_risk":7,"frizz_risk":0,"updated_at":"2026-04-16T13:22:21.506553+05:30"},{"city":"Jammu","state":"Jammu and Kashmir","latitude":32.7266,"longitude":74.857,"temp":35.2,"humidity":32,"rain":0.0,"pressure":972.5,"uv_index":7.4,"wind_gusts":31.3,"aqi":59,"pm10":12.4,"pm2_5":5.5,"mosquito_risk":0,"arthritis_risk":5,"migraine_risk":10,"frizz_risk":0,"updated_at":"2026-04-16T13:22:21.506560+05:30"},{"city":"Amritsar","state":"Punjab","latitude":31.634,"longitude":74.8723,"temp":36.7,"humidity":26,"rain":0.0,"pressure":980.0,"uv_index":7.9,"wind_gusts":42.8,"aqi":71,"pm10":21.7,"pm2_5":7.6,"mosquito_risk":0,"arthritis_risk":5,"migraine_risk":10,"frizz_risk":0,"updated_at":"2026-04-16T13:22:21.506567+05:30"},{"city":"Ludhiana","state":"Punjab","latitude":30.901,"longitude":75.8573,"temp":37.0,"humidity":19,"rain":0.0,"pressure":978.2,"uv_index":7.4,"wind_gusts":24.1,"aqi":76,"pm10":19.5,"pm2_5":9.0,"mosquito_risk":0,"arthritis_risk":5,"migraine_risk":10,"frizz_risk":0,"updated_at":"2026-04-16T13:22:21.506574+05:30"},{"city":"Jalandhar","state":"Punjab","latitude":31.326,"longitude":75.5762,"temp":36.9,"humidity":21,"rain":0.0,"pressure":979.4,"uv_index":7.0,"wind_gusts":24.5,"aqi":65,"pm10":20.2,"pm2_5":7.0,"mosquito_risk":0,"arthritis_risk":5,"migraine_risk":10,"frizz_risk":0,"updated_at":"2026-04-16T13:22:21.506583+05:30"},{"city":"Dehradun","state":"Uttarakhand","latitude":30.6284,"longitude":78.0322,"temp":24.6,"humidity":38,"rain":0.0,"pressure":833.5,"uv_index":7.35,"wind_gusts":31.3,"aqi":51,"pm10":4.4,"pm2_5":2.7,"mosquito_risk":0,"arthritis_risk":5,"migraine_risk":7,"frizz_risk":0,"updated_at":"2026-04-16T13:22:21.506590+05:30"},{"city":"Shimla","state":"Himachal Pradesh","latitude":31.1048,"longitude":77.1734,"temp":23.4,"humidity":28,"rain":0.0,"pressure":789.4,"uv_index":7.5,"wind_gusts":42.1,"aqi":59,"pm10":4.5,"pm2_5":2.4,"mosquito_risk":0,"arthritis_risk":5,"migraine_risk":7,"frizz_risk":0,"updated_at":"2026-04-16T13:22:21.506597+05:30"},{"city":"Manali","state":"Himachal Pradesh","latitude":32.2396,"longitude":77.1887,"temp":23.4,"humidity":34,"rain":0.0,"pressure":823.9,"uv_index":9.05,"wind_gusts":36.0,"aqi":94,"pm10":11.1,"pm2_5":7.1,"mosquito_risk":0,"arthritis_risk":5,"migraine_risk":7,"frizz_risk":0,"updated_at":"2026-04-16T13:22:21.506605+05:30"},{"city":"Gurgaon","state":"Haryana","latitude":28.4595,"longitude":77.0266,"temp":37.7,"humidity":23,"rain":0.0,"pressure":981.2,"uv_index":7.45,"wind_gusts":19.4,"aqi":663,"pm10":237.0,"pm2_5":40.0,"mosquito_risk":0,"arthritis_risk":5,"migraine_risk":10,"frizz_risk":0,"updated_at":"2026-04-16T13:22:21.506612+05:30"},{"city":"Noida","state":"Uttar Pradesh","latitude":28.5355,"longitude":77.391,"temp":37.6,"humidity":23,"rain":0.0,"pressure":984.2,"uv_index":7.35,"wind_gusts":22.3,"aqi":663,"pm10":237.0,"pm2_5":40.0,"mosquito_risk":0,"arthritis_risk":5,"migraine_risk":10,"frizz_risk":0,"updated_at":"2026-04-16T13:22:21.506619+05:30"},{"city":"Ghaziabad","state":"Uttar Pradesh","latitude":28.6692,"longitude":77.4538,"temp":37.1,"humidity":25,"rain":0.0,"pressure":982.5,"uv_index":7.35,"wind_gusts":20.9,"aqi":155,"pm10":39.0,"pm2_5":12.7,"mosquito_risk":0,"arthritis_risk":5,"migraine_risk":10,"frizz_risk":0,"updated_at":"2026-04-16T13:22:21.506627+05:30"},{"city":"Faridabad","state":"Haryana","latitude":28.4089,"longitude":77.3178,"temp":38.3,"humidity":21,"rain":0.0,"pressure":983.3,"uv_index":7.4,"wind_gusts":23.8,"aqi":663,"pm10":237.0,"pm2_5":40.0,"mosquito_risk":0,"arthritis_risk":5,"migraine_risk":10,"frizz_risk":0,"updated_at":"2026-04-16T13:22:21.506633+05:30"},{"city":"Meerut","state":"Uttar Pradesh","latitude":28.9845,"longitude":77.7064,"temp":37.6,"humidity":21,"rain":0.0,"pressure":981.2,"uv_index":7.25,"wind_gusts":26.6,"aqi":155,"pm10":39.0,"pm2_5":12.7,"mosquito_risk":0,"arthritis_risk":5,"migraine_risk":10,"frizz_risk":0,"updated_at":"2026-04-16T13:22:21.506639+05:30"},{"city":"Agra","state":"Uttar Pradesh","latitude":27.1767,"longitude":78.0081,"temp":39.2,"humidity":18,"rain":0.0,"pressure":987.1,"uv_index":7.7,"wind_gusts":21.6,"aqi":456,"pm10":489.9,"pm2_5":56.6,"mosquito_risk":0,"arthritis_risk":5,"migraine_risk":10,"frizz_risk":0,"updated_at":"2026-04-16T13:22:21.506648+05:30"},{"city":"Varanasi","state":"Uttar Pradesh","latitude":25.3176,"longitude":82.9739,"temp":40.1,"humidity":16,"rain":0.0,"pressure":995.9,"uv_index":8.45,"wind_gusts":22.0,"aqi":92,"pm10":135.5,"pm2_5":27.2,"mosquito_risk":0,"arthritis_risk":5,"migraine_risk":10,"frizz_risk":0,"updated_at":"2026-04-16T13:22:21.506657+05:30"},{"city":"Prayagraj","state":"Uttar Pradesh","latitude":25.4358,"longitude":81.8463,"temp":39.7,"humidity":15,"rain":0.0,"pressure":994.6,"uv_index":8.3,"wind_gusts":28.1,"aqi":80,"pm10":163.0,"pm2_5":26.1,"mosquito_risk":0,"arthritis_risk":5,"migraine_risk":10,"frizz_risk":0,"updated_at":"2026-04-16T13:22:21.506664+05:30"},{"city":"Gorakhpur","state":"Uttar Pradesh","latitude":26.7606,"longitude":83.3732,"temp":36.9,"humidity":37,"rain":0.0,"pressure":996.3,"uv_index":8.25,"wind_gusts":31.3,"aqi":113,"pm10":90.1,"pm2_5":53.1,"mosquito_risk":0,"arthritis_risk":5,"migraine_risk":10,"frizz_risk":1,"updated_at":"2026-04-16T13:22:21.506670+05:30"},{"city":"Bareilly","state":"Uttar Pradesh","latitude":28.367,"longitude":79.4304,"temp":37.6,"humidity":20,"rain":0.0,"pressure":986.3,"uv_index":7.6,"wind_gusts":24.1,"aqi":74,"pm10":15.5,"pm2_5":10.2,"mosquito_risk":0,"arthritis_risk":5,"migraine_risk":10,"frizz_risk":0,"updated_at":"2026-04-16T13:22:21.506677+05:30"},{"city":"Aligarh","state":"Uttar Pradesh","latitude":27.8974,"longitude":78.088,"temp":40.0,"humidity":15,"rain":0.0,"pressure":984.7,"uv_index":7.5,"wind_gusts":29.2,"aqi":308,"pm10":79.2,"pm2_5":17.1,"mosquito_risk":0,"arthritis_risk":5,"migraine_risk":10,"frizz_risk":0,"updated_at":"2026-04-16T13:22:21.506684+05:30"},{"city":"Moradabad","state":"Uttar Pradesh","latitude":28.8386,"longitude":78.7733,"temp":37.3,"humidity":21,"rain":0.0,"pressure":983.2,"uv_index":7.45,"wind_gusts":26.3,"aqi":86,"pm10":23.1,"pm2_5":15.7,"mosquito_risk":0,"arthritis_risk":5,"migraine_risk":10,"frizz_risk":0,"updated_at":"2026-04-16T13:22:21.506691+05:30"},{"city":"Saharanpur","state":"Uttar Pradesh","latitude":29.9637,"longitude":77.546,"temp":36.0,"humidity":23,"rain":0.0,"pressure":975.5,"uv_index":7.05,"wind_gusts":25.6,"aqi":72,"pm10":26.1,"pm2_5":9.0,"mosquito_risk":0,"arthritis_risk":5,"migraine_risk":10,"frizz_risk":0,"updated_at":"2026-04-16T13:22:21.506697+05:30"},{"city":"Jhansi","state":"Uttar Pradesh","latitude":25.4484,"longitude":78.5685,"temp":41.7,"humidity":12,"rain":0.0,"pressure":976.8,"uv_index":8.2,"wind_gusts":36.4,"aqi":79,"pm10":217.5,"pm2_5":29.9,"mosquito_risk":0,"arthritis_risk":5,"migraine_risk":10,"frizz_risk":0,"updated_at":"2026-04-16T13:22:24.770369+05:30"},{"city":"Surat","state":"Gujarat","latitude":21.1702,"longitude":72.8311,"temp":30.5,"humidity":64,"rain":0.0,"pressure":1006.4,"uv_index":7.8,"wind_gusts":28.1,"aqi":93,"pm10":50.6,"pm2_5":34.2,"mosquito_risk":3,"arthritis_risk":5,"migraine_risk":4,"frizz_risk":1,"updated_at":"2026-04-16T13:22:24.770401+05:30"},{"city":"Vadodara","state":"Gujarat","latitude":22.3072,"longitude":73.1812,"temp":37.8,"humidity":39,"rain":0.0,"pressure":1002.9,"uv_index":8.0,"wind_gusts":23.0,"aqi":81,"pm10":70.5,"pm2_5":28.1,"mosquito_risk":0,"arthritis_risk":5,"migraine_risk":7,"frizz_risk":1,"updated_at":"2026-04-16T13:22:24.770412+05:30"},{"city":"Rajkot","state":"Gujarat","latitude":22.3039,"longitude":70.8022,"temp":35.5,"humidity":36,"rain":0.0,"pressure":993.5,"uv_index":7.8,"wind_gusts":30.2,"aqi":62,"pm10":79.4,"pm2_5":23.8,"mosquito_risk":0,"arthritis_risk":5,"migraine_risk":10,"frizz_risk":1,"updated_at":"2026-04-16T13:22:24.770420+05:30"},{"city":"Thane","state":"Maharashtra","latitude":19.2183,"longitude":72.9781,"temp":33.2,"humidity":48,"rain":0.0,"pressure":1007.1,"uv_index":8.0,"wind_gusts":30.6,"aqi":81,"pm10":60.5,"pm2_5":34.2,"mosquito_risk":0,"arthritis_risk":5,"migraine_risk":4,"frizz_risk":1,"updated_at":"2026-04-16T13:22:24.770427+05:30"},{"city":"Nagpur","state":"Maharashtra","latitude":21.1458,"longitude":79.0882,"temp":40.2,"humidity":22,"rain":0.0,"pressure":971.0,"uv_index":8.85,"wind_gusts":24.8,"aqi":57,"pm10":41.3,"pm2_5":22.9,"mosquito_risk":0,"arthritis_risk":5,"migraine_risk":10,"frizz_risk":0,"updated_at":"2026-04-16T13:22:24.770434+05:30"},{"city":"Nashik","state":"Maharashtra","latitude":19.9975,"longitude":73.7898,"temp":36.4,"humidity":19,"rain":0.0,"pressure":945.7,"uv_index":8.3,"wind_gusts":31.3,"aqi":57,"pm10":15.4,"pm2_5":9.2,"mosquito_risk":0,"arthritis_risk":5,"migraine_risk":10,"frizz_risk":0,"updated_at":"2026-04-16T13:22:24.770442+05:30"},{"city":"Aurangabad","state":"Maharashtra","latitude":19.8762,"longitude":75.3433,"temp":39.4,"humidity":13,"rain":0.0,"pressure":943.8,"uv_index":8.95,"wind_gusts":27.0,"aqi":44,"pm10":24.9,"pm2_5":8.9,"mosquito_risk":0,"arthritis_risk":5,"migraine_risk":10,"frizz_risk":0,"updated_at":"2026-04-16T13:22:24.770449+05:30"},{"city":"Solapur","state":"Maharashtra","latitude":17.6599,"longitude":75.9064,"temp":40.4,"humidity":11,"rain":0.0,"pressure":956.5,"uv_index":9.05,"wind_gusts":23.0,"aqi":68,"pm10":29.6,"pm2_5":15.5,"mosquito_risk":0,"arthritis_risk":5,"migraine_risk":10,"frizz_risk":0,"updated_at":"2026-04-16T13:22:24.770456+05:30"},{"city":"Kolhapur","state":"Maharashtra","latitude":16.705,"longitude":74.2433,"temp":35.6,"humidity":34,"rain":0.0,"pressure":948.0,"uv_index":9.0,"wind_gusts":41.4,"aqi":73,"pm10":29.3,"pm2_5":16.1,"mosquito_risk":0,"arthritis_risk":5,"migraine_risk":10,"frizz_risk":1,"updated_at":"2026-04-16T13:22:24.770464+05:30"},{"city":"Goa","state":"Goa","latitude":15.2993,"longitude":74.124,"temp":32.2,"humidity":58,"rain":0.0,"pressure":997.4,"uv_index":9.0,"wind_gusts":27.7,"aqi":76,"pm10":42.7,"pm2_5":20.1,"mosquito_risk":0,"arthritis_risk":5,"migraine_risk":7,"frizz_risk":1,"updated_at":"2026-04-16T13:22:24.770471+05:30"},{"city":"Jodhpur","state":"Rajasthan","latitude":26.2389,"longitude":73.0243,"temp":39.4,"humidity":23,"rain":0.0,"pressure":981.7,"uv_index":7.6,"wind_gusts":28.8,"aqi":68,"pm10":91.0,"pm2_5":19.6,"mosquito_risk":0,"arthritis_risk":5,"migraine_risk":10,"frizz_risk":0,"updated_at":"2026-04-16T13:22:24.770478+05:30"},{"city":"Udaipur","state":"Rajasthan","latitude":24.5854,"longitude":73.7125,"temp":37.8,"humidity":20,"rain":0.0,"pressure":946.4,"uv_index":8.65,"wind_gusts":29.9,"aqi":70,"pm10":78.5,"pm2_5":17.7,"mosquito_risk":0,"arthritis_risk":5,"migraine_risk":10,"frizz_risk":0,"updated_at":"2026-04-16T13:22:24.770486+05:30"},{"city":"Kota","state":"Rajasthan","latitude":25.2138,"longitude":75.8648,"temp":40.9,"humidity":18,"rain":0.0,"pressure":977.4,"uv_index":8.2,"wind_gusts":16.9,"aqi":73,"pm10":155.1,"pm2_5":30.7,"mosquito_risk":0,"arthritis_risk":5,"migraine_risk":10,"frizz_risk":0,"updated_at":"2026-04-16T13:22:24.770493+05:30"},{"city":"Bikaner","state":"Rajasthan","latitude":28.0229,"longitude":73.3119,"temp":40.9,"humidity":12,"rain":0.0,"pressure":980.2,"uv_index":7.6,"wind_gusts":22.3,"aqi":54,"pm10":50.6,"pm2_5":12.7,"mosquito_risk":0,"arthritis_risk":5,"migraine_risk":10,"frizz_risk":0,"updated_at":"2026-04-16T13:22:24.770500+05:30"},{"city":"Ajmer","state":"Rajasthan","latitude":26.4499,"longitude":74.6399,"temp":39.2,"humidity":15,"rain":0.0,"pressure":954.4,"uv_index":8.15,"wind_gusts":23.8,"aqi":62,"pm10":87.3,"pm2_5":17.4,"mosquito_risk":0,"arthritis_risk":5,"migraine_risk":10,"frizz_risk":0,"updated_at":"2026-04-16T13:22:24.770507+05:30"},{"city":"Gwalior","state":"Madhya Pradesh","latitude":26.2183,"longitude":78.1828,"temp":40.5,"humidity":14,"rain":0.0,"pressure":982.8,"uv_index":7.95,"wind_gusts":30.6,"aqi":134,"pm10":322.2,"pm2_5":37.8,"mosquito_risk":0,"arthritis_risk":5,"migraine_risk":10,"frizz_risk":0,"updated_at":"2026-04-16T13:22:24.770514+05:30"},{"city":"Indore","state":"Madhya Pradesh","latitude":22.7196,"longitude":75.8577,"temp":37.6,"humidity":25,"rain":0.0,"pressure":947.7,"uv_index":8.55,"wind_gusts":26.6,"aqi":69,"pm10":61.9,"pm2_5":22.2,"mosquito_risk":0,"arthritis_risk":5,"migraine_risk":10,"frizz_risk":0,"updated_at":"2026-04-16T13:22:24.770521+05:30"},{"city":"Bhopal","state":"Madhya Pradesh","latitude":23.2599,"longitude":77.4126,"temp":39.8,"humidity":19,"rain":0.0,"pressure":952.6,"uv_index":8.55,"wind_gusts":20.9,"aqi":65,"pm10":44.8,"pm2_5":14.8,"mosquito_risk":0,"arthritis_risk":5,"migraine_risk":10,"frizz_risk":0,"updated_at":"2026-04-16T13:22:24.770528+05:30"},{"city":"Jabalpur","state":"Madhya Pradesh","latitude":23.1815,"longitude":79.9864,"temp":39.0,"humidity":21,"rain":0.0,"pressure":960.3,"uv_index":8.7,"wind_gusts":22.0,"aqi":48,"pm10":38.1,"pm2_5":15.7,"mosquito_risk":0,"arthritis_risk":5,"migraine_risk":10,"frizz_risk":0,"updated_at":"2026-04-16T13:22:24.770535+05:30"},{"city":"Ujjain","state":"Madhya Pradesh","latitude":23.1765,"longitude":75.7885,"temp":37.9,"humidity":27,"rain":0.0,"pressure":953.2,"uv_index":8.5,"wind_gusts":25.9,"aqi":73,"pm10":62.2,"pm2_5":23.1,"mosquito_risk":0,"arthritis_risk":5,"migraine_risk":10,"frizz_risk":0,"updated_at":"2026-04-16T13:22:24.770543+05:30"},{"city":"Visakhapatnam","state":"Andhra Pradesh","latitude":17.6868,"longitude":83.2185,"temp":34.0,"humidity":54,"rain":0.0,"pressure":1002.5,"uv_index":9.15,"wind_gusts":44.6,"aqi":50,"pm10":15.7,"pm2_5":11.7,"mosquito_risk":0,"arthritis_risk":5,"migraine_risk":4,"frizz_risk":1,"updated_at":"2026-04-16T13:22:24.770550+05:30"},{"city":"Vijayawada","state":"Andhra Pradesh","latitude":16.5062,"longitude":80.648,"temp":36.2,"humidity":52,"rain":0.0,"pressure":1001.1,"uv_index":9.2,"wind_gusts":30.2,"aqi":44,"pm10":16.4,"pm2_5":12.0,"mosquito_risk":0,"arthritis_risk":5,"migraine_risk":7,"frizz_risk":1,"updated_at":"2026-04-16T13:22:24.770557+05:30"},{"city":"Guntur","state":"Andhra Pradesh","latitude":16.3067,"longitude":80.4365,"temp":36.2,"humidity":53,"rain":0.0,"pressure":1002.3,"uv_index":9.2,"wind_gusts":33.1,"aqi":50,"pm10":18.0,"pm2_5":14.7,"mosquito_risk":0,"arthritis_risk":5,"migraine_risk":7,"frizz_risk":1,"updated_at":"2026-04-16T13:22:24.770564+05:30"},{"city":"Nellore","state":"Andhra Pradesh","latitude":14.4426,"longitude":79.9865,"temp":38.4,"humidity":42,"rain":0.0,"pressure":1003.8,"uv_index":9.3,"wind_gusts":35.6,"aqi":47,"pm10":21.7,"pm2_5":19.7,"mosquito_risk":0,"arthritis_risk":5,"migraine_risk":7,"frizz_risk":1,"updated_at":"2026-04-16T13:22:24.770572+05:30"},{"city":"Kurnool","state":"Andhra Pradesh","latitude":15.8281,"longitude":78.0373,"temp":40.8,"humidity":23,"rain":0.0,"pressure":974.8,"uv_index":9.2,"wind_gusts":29.9,"aqi":86,"pm10":31.7,"pm2_5":24.6,"mosquito_risk":0,"arthritis_risk":5,"migraine_risk":10,"frizz_risk":0,"updated_at":"2026-04-16T13:22:24.770580+05:30"},{"city":"Kakinada","state":"Andhra Pradesh","latitude":16.9891,"longitude":82.2475,"temp":37.2,"humidity":46,"rain":0.0,"pressure":1005.8,"uv_index":9.2,"wind_gusts":35.6,"aqi":31,"pm10":10.8,"pm2_5":6.9,"mosquito_risk":0,"arthritis_risk":5,"migraine_risk":7,"frizz_risk":1,"updated_at":"2026-04-16T13:22:24.770587+05:30"},{"city":"Tirupati","state":"Andhra Pradesh","latitude":13.6288,"longitude":79.4192,"temp":37.2,"humidity":41,"rain":0.0,"pressure":990.4,"uv_index":9.4,"wind_gusts":33.8,"aqi":64,"pm10":27.2,"pm2_5":25.3,"mosquito_risk":0,"arthritis_risk":5,"migraine_risk":10,"frizz_risk":1,"updated_at":"2026-04-16T13:22:24.770594+05:30"},{"city":"Warangal","state":"Telangana","latitude":17.9689,"longitude":79.5941,"temp":39.2,"humidity":38,"rain":0.0,"pressure":976.9,"uv_index":9.1,"wind_gusts":28.4,"aqi":73,"pm10":24.5,"pm2_5":21.1,"mosquito_risk":0,"arthritis_risk":5,"migraine_risk":10,"frizz_risk":1,"updated_at":"2026-04-16T13:22:24.770601+05:30"},{"city":"Nizamabad","state":"Telangana","latitude":18.6725,"longitude":78.0941,"temp":40.3,"humidity":20,"rain":0.0,"pressure":963.7,"uv_index":9.05,"wind_gusts":25.9,"aqi":81,"pm10":36.4,"pm2_5":16.4,"mosquito_risk":0,"arthritis_risk":5,"migraine_risk":10,"frizz_risk":0,"updated_at":"2026-04-16T13:22:24.770608+05:30"},{"city":"Mysore","state":"Karnataka","latitude":12.2958,"longitude":76.6396,"temp":37.0,"humidity":24,"rain":0.0,"pressure":928.5,"uv_index":9.5,"wind_gusts":39.6,"aqi":85,"pm10":31.5,"pm2_5":24.2,"mosquito_risk":0,"arthritis_risk":5,"migraine_risk":10,"frizz_risk":0,"updated_at":"2026-04-16T13:22:24.770615+05:30"},{"city":"Mangalore","state":"Karnataka","latitude":12.9141,"longitude":74.856,"temp":29.2,"humidity":85,"rain":0.0,"pressure":1005.7,"uv_index":8.4,"wind_gusts":22.0,"aqi":85,"pm10":52.6,"pm2_5":32.2,"mosquito_risk":7,"arthritis_risk":5,"migraine_risk":4,"frizz_risk":1,"updated_at":"2026-04-16T13:22:24.770622+05:30"},{"city":"Hubli-Dharwad","state":"Karnataka","latitude":15.3647,"longitude":75.124,"temp":33.3,"humidity":44,"rain":0.0,"pressure":940.8,"uv_index":9.2,"wind_gusts":31.7,"aqi":68,"pm10":23.3,"pm2_5":13.4,"mosquito_risk":0,"arthritis_risk":5,"migraine_risk":7,"frizz_risk":1,"updated_at":"2026-04-16T13:22:24.770630+05:30"},{"city":"Belgaum","state":"Karnataka","latitude":15.8497,"longitude":74.4977,"temp":34.3,"humidity":32,"rain":0.0,"pressure":926.2,"uv_index":9.25,"wind_gusts":33.8,"aqi":64,"pm10":27.0,"pm2_5":13.1,"mosquito_risk":0,"arthritis_risk":5,"migraine_risk":7,"frizz_risk":0,"updated_at":"2026-04-16T13:22:28.036346+05:30"},{"city":"Coimbatore","state":"Tamil Nadu","latitude":11.0168,"longitude":76.9558,"temp":37.3,"humidity":34,"rain":0.0,"pressure":961.1,"uv_index":9.45,"wind_gusts":37.1,"aqi":100,"pm10":32.4,"pm2_5":25.0,"mosquito_risk":0,"arthritis_risk":5,"migraine_risk":10,"frizz_risk":1,"updated_at":"2026-04-16T13:22:28.036379+05:30"},{"city":"Madurai","state":"Tamil Nadu","latitude":9.9252,"longitude":78.1198,"temp":38.3,"humidity":33,"rain":0.0,"pressure":991.5,"uv_index":9.3,"wind_gusts":42.1,"aqi":55,"pm10":14.2,"pm2_5":11.8,"mosquito_risk":0,"arthritis_risk":5,"migraine_risk":10,"frizz_risk":1,"updated_at":"2026-04-16T13:22:28.036389+05:30"},{"city":"Trichy","state":"Tamil Nadu","latitude":10.7905,"longitude":78.7047,"temp":37.9,"humidity":36,"rain":0.0,"pressure":998.1,"uv_index":9.35,"wind_gusts":28.8,"aqi":47,"pm10":12.8,"pm2_5":10.8,"mosquito_risk":0,"arthritis_risk":5,"migraine_risk":10,"frizz_risk":1,"updated_at":"2026-04-16T13:22:28.036398+05:30"},{"city":"Salem","state":"Tamil Nadu","latitude":11.6643,"longitude":78.146,"temp":37.1,"humidity":41,"rain":0.0,"pressure":976.3,"uv_index":9.45,"wind_gusts":27.7,"aqi":60,"pm10":18.4,"pm2_5":14.8,"mosquito_risk":0,"arthritis_risk":5,"migraine_risk":10,"frizz_risk":1,"updated_at":"2026-04-16T13:22:28.036407+05:30"},{"city":"Tirunelveli","state":"Tamil Nadu","latitude":8.7139,"longitude":77.7567,"temp":39.9,"humidity":27,"rain":0.0,"pressure":1000.8,"uv_index":8.75,"wind_gusts":50.8,"aqi":70,"pm10":16.9,"pm2_5":13.1,"mosquito_risk":0,"arthritis_risk":5,"migraine_risk":7,"frizz_risk":1,"updated_at":"2026-04-16T13:22:28.036415+05:30"},{"city":"Vellore","state":"Tamil Nadu","latitude":12.9165,"longitude":79.1325,"temp":36.9,"humidity":41,"rain":0.0,"pressure":983.3,"uv_index":9.4,"wind_gusts":33.5,"aqi":77,"pm10":23.5,"pm2_5":21.4,"mosquito_risk":0,"arthritis_risk":5,"migraine_risk":10,"frizz_risk":1,"updated_at":"2026-04-16T13:22:28.036423+05:30"},{"city":"Erode","state":"Tamil Nadu","latitude":11.341,"longitude":77.7172,"temp":39.2,"humidity":35,"rain":0.0,"pressure":987.2,"uv_index":9.4,"wind_gusts":30.2,"aqi":62,"pm10":28.8,"pm2_5":22.2,"mosquito_risk":0,"arthritis_risk":5,"migraine_risk":10,"frizz_risk":1,"updated_at":"2026-04-16T13:22:28.036431+05:30"},{"city":"Kochi","state":"Kerala","latitude":9.9312,"longitude":76.2673,"temp":29.7,"humidity":81,"rain":0.0,"pressure":1007.3,"uv_index":9.2,"wind_gusts":29.9,"aqi":99,"pm10":40.9,"pm2_5":29.9,"mosquito_risk":7,"arthritis_risk":5,"migraine_risk":4,"frizz_risk":1,"updated_at":"2026-04-16T13:22:28.036439+05:30"},{"city":"Thiruvananthapuram","state":"Kerala","latitude":8.5241,"longitude":76.9366,"temp":29.5,"humidity":82,"rain":0.0,"pressure":1006.5,"uv_index":9.15,"wind_gusts":33.8,"aqi":77,"pm10":37.4,"pm2_5":26.7,"mosquito_risk":7,"arthritis_risk":5,"migraine_risk":4,"frizz_risk":1,"updated_at":"2026-04-16T13:22:28.036447+05:30"},{"city":"Kozhikode","state":"Kerala","latitude":11.2588,"longitude":75.7804,"temp":31.5,"humidity":71,"rain":0.0,"pressure":1006.5,"uv_index":9.15,"wind_gusts":32.0,"aqi":85,"pm10":48.1,"pm2_5":30.5,"mosquito_risk":3,"arthritis_risk":5,"migraine_risk":4,"frizz_risk":1,"updated_at":"2026-04-16T13:22:28.036455+05:30"},{"city":"Thrissur","state":"Kerala","latitude":10.5276,"longitude":76.2144,"temp":34.3,"humidity":60,"rain":0.0,"pressure":1005.7,"uv_index":9.1,"wind_gusts":35.6,"aqi":102,"pm10":43.3,"pm2_5":31.2,"mosquito_risk":0,"arthritis_risk":5,"migraine_risk":4,"frizz_risk":1,"updated_at":"2026-04-16T13:22:28.036462+05:30"},{"city":"Kannur","state":"Kerala","latitude":11.8745,"longitude":75.3704,"temp":32.6,"humidity":67,"rain":0.0,"pressure":1005.9,"uv_index":9.15,"wind_gusts":31.7,"aqi":86,"pm10":49.1,"pm2_5":31.0,"mosquito_risk":3,"arthritis_risk":5,"migraine_risk":4,"frizz_risk":1,"updated_at":"2026-04-16T13:22:28.036470+05:30"},{"city":"Patna","state":"Bihar","latitude":25.5941,"longitude":85.1376,"temp":33.8,"humidity":57,"rain":0.0,"pressure":999.4,"uv_index":8.55,"wind_gusts":34.2,"aqi":134,"pm10":78.7,"pm2_5":59.3,"mosquito_risk":0,"arthritis_risk":5,"migraine_risk":7,"frizz_risk":1,"updated_at":"2026-04-16T13:22:28.036477+05:30"},{"city":"Gaya","state":"Bihar","latitude":24.7914,"longitude":85.0002,"temp":34.9,"humidity":53,"rain":0.0,"pressure":992.4,"uv_index":8.65,"wind_gusts":23.0,"aqi":87,"pm10":80.8,"pm2_5":30.6,"mosquito_risk":0,"arthritis_risk":5,"migraine_risk":7,"frizz_risk":1,"updated_at":"2026-04-16T13:22:28.036485+05:30"},{"city":"Muzaffarpur","state":"Bihar","latitude":26.1209,"longitude":85.3647,"temp":33.0,"humidity":57,"rain":0.0,"pressure":999.8,"uv_index":8.55,"wind_gusts":35.3,"aqi":148,"pm10":77.1,"pm2_5":57.9,"mosquito_risk":0,"arthritis_risk":5,"migraine_risk":7,"frizz_risk":1,"updated_at":"2026-04-16T13:22:28.036493+05:30"},{"city":"Bhagalpur","state":"Bihar","latitude":25.2425,"longitude":87.0117,"temp":31.6,"humidity":66,"rain":0.0,"pressure":1000.7,"uv_index":8.55,"wind_gusts":30.6,"aqi":140,"pm10":79.9,"pm2_5":65.9,"mosquito_risk":3,"arthritis_risk":5,"migraine_risk":4,"frizz_risk":1,"updated_at":"2026-04-16T13:22:28.036500+05:30"},{"city":"Ranchi","state":"Jharkhand","latitude":23.3441,"longitude":85.3096,"temp":35.1,"humidity":40,"rain":0.0,"pressure":937.2,"uv_index":9.15,"wind_gusts":38.9,"aqi":112,"pm10":54.9,"pm2_5":41.1,"mosquito_risk":0,"arthritis_risk":5,"migraine_risk":10,"frizz_risk":1,"updated_at":"2026-04-16T13:22:28.036507+05:30"},{"city":"Jamshedpur","state":"Jharkhand","latitude":22.8046,"longitude":86.2029,"temp":37.4,"humidity":48,"rain":0.0,"pressure":988.1,"uv_index":9.0,"wind_gusts":30.2,"aqi":130,"pm10":64.0,"pm2_5":54.7,"mosquito_risk":0,"arthritis_risk":5,"migraine_risk":10,"frizz_risk":1,"updated_at":"2026-04-16T13:22:28.036515+05:30"},{"city":"Dhanbad","state":"Jharkhand","latitude":23.7957,"longitude":86.4304,"temp":37.3,"humidity":40,"rain":0.0,"pressure":978.0,"uv_index":8.95,"wind_gusts":29.9,"aqi":152,"pm10":94.1,"pm2_5":82.2,"mosquito_risk":0,"arthritis_risk":5,"migraine_risk":10,"frizz_risk":1,"updated_at":"2026-04-16T13:22:28.036522+05:30"},{"city":"Bokaro","state":"Jharkhand","latitude":23.6693,"longitude":86.1511,"temp":36.0,"humidity":49,"rain":0.0,"pressure":982.1,"uv_index":8.95,"wind_gusts":34.6,"aqi":151,"pm10":106.2,"pm2_5":90.6,"mosquito_risk":0,"arthritis_risk":5,"migraine_risk":10,"frizz_risk":1,"updated_at":"2026-04-16T13:22:28.036530+05:30"},{"city":"Bhubaneswar","state":"Odisha","latitude":20.2961,"longitude":85.8245,"temp":33.2,"humidity":65,"rain":0.0,"pressure":1001.1,"uv_index":9.1,"wind_gusts":41.4,"aqi":59,"pm10":17.6,"pm2_5":13.4,"mosquito_risk":3,"arthritis_risk":5,"migraine_risk":4,"frizz_risk":1,"updated_at":"2026-04-16T13:22:28.036537+05:30"},{"city":"Cuttack","state":"Odisha","latitude":20.4625,"longitude":85.8828,"temp":36.2,"humidity":55,"rain":0.0,"pressure":1002.3,"uv_index":9.15,"wind_gusts":37.8,"aqi":59,"pm10":17.6,"pm2_5":13.4,"mosquito_risk":0,"arthritis_risk":5,"migraine_risk":7,"frizz_risk":1,"updated_at":"2026-04-16T13:22:28.036545+05:30"},{"city":"Rourkela","state":"Odisha","latitude":22.2604,"longitude":84.8536,"temp":40.7,"humidity":32,"rain":0.0,"pressure":981.9,"uv_index":8.9,"wind_gusts":32.4,"aqi":139,"pm10":44.7,"pm2_5":40.4,"mosquito_risk":0,"arthritis_risk":5,"migraine_risk":10,"frizz_risk":1,"updated_at":"2026-04-16T13:22:28.036552+05:30"},{"city":"Raipur","state":"Chhattisgarh","latitude":21.2514,"longitude":81.6296,"temp":42.0,"humidity":19,"rain":0.0,"pressure":972.1,"uv_index":8.95,"wind_gusts":32.0,"aqi":91,"pm10":28.6,"pm2_5":20.1,"mosquito_risk":0,"arthritis_risk":5,"migraine_risk":10,"frizz_risk":0,"updated_at":"2026-04-16T13:22:28.036559+05:30"},{"city":"Bhilai","state":"Chhattisgarh","latitude":21.1938,"longitude":81.3509,"temp":41.6,"humidity":21,"rain":0.0,"pressure":972.4,"uv_index":8.95,"wind_gusts":30.2,"aqi":72,"pm10":27.3,"pm2_5":17.8,"mosquito_risk":0,"arthritis_risk":5,"migraine_risk":10,"frizz_risk":0,"updated_at":"2026-04-16T13:22:28.036566+05:30"},{"city":"Guwahati","state":"Assam","latitude":26.1158,"longitude":91.7086,"temp":30.5,"humidity":59,"rain":0.0,"pressure":1001.9,"uv_index":8.45,"wind_gusts":24.5,"aqi":133,"pm10":67.8,"pm2_5":43.5,"mosquito_risk":0,"arthritis_risk":5,"migraine_risk":4,"frizz_risk":1,"updated_at":"2026-04-16T13:22:28.036573+05:30"},{"city":"Agartala","state":"Tripura","latitude":23.8315,"longitude":91.2868,"temp":30.7,"humidity":69,"rain":0.0,"pressure":1006.5,"uv_index":8.7,"wind_gusts":27.4,"aqi":114,"pm10":60.8,"pm2_5":42.7,"mosquito_risk":3,"arthritis_risk":5,"migraine_risk":4,"frizz_risk":1,"updated_at":"2026-04-16T13:22:28.036580+05:30"},{"city":"Shillong","state":"Meghalaya","latitude":25.5788,"longitude":91.8933,"temp":21.6,"humidity":52,"rain":0.0,"pressure":858.7,"uv_index":7.75,"wind_gusts":54.0,"aqi":110,"pm10":64.5,"pm2_5":37.3,"mosquito_risk":0,"arthritis_risk":5,"migraine_risk":7,"frizz_risk":0,"updated_at":"2026-04-16T13:22:28.036588+05:30"},{"city":"Imphal","state":"Manipur","latitude":24.817,"longitude":93.9368,"temp":24.1,"humidity":68,"rain":0.0,"pressure":924.3,"uv_index":9.05,"wind_gusts":65.2,"aqi":118,"pm10":78.5,"pm2_5":41.0,"mosquito_risk":3,"arthritis_risk":5,"migraine_risk":7,"frizz_risk":1,"updated_at":"2026-04-16T13:22:28.036595+05:30"},{"city":"Aizawl","state":"Mizoram","latitude":23.7271,"longitude":92.7176,"temp":27.7,"humidity":54,"rain":0.0,"pressure":894.9,"uv_index":8.95,"wind_gusts":36.7,"aqi":127,"pm10":81.0,"pm2_5":42.1,"mosquito_risk":4,"arthritis_risk":5,"migraine_risk":7,"frizz_risk":1,"updated_at":"2026-04-16T13:22:28.036603+05:30"},{"city":"Kohima","state":"Nagaland","latitude":25.6701,"longitude":94.1077,"temp":19.5,"humidity":80,"rain":0.0,"pressure":856.7,"uv_index":8.5,"wind_gusts":67.3,"aqi":93,"pm10":67.5,"pm2_5":37.0,"mosquito_risk":3,"arthritis_risk":5,"migraine_risk":7,"frizz_risk":0,"updated_at":"2026-04-16T13:22:28.036610+05:30"},{"city":"Gangtok","state":"Sikkim","latitude":27.3314,"longitude":88.6138,"temp":20.5,"humidity":67,"rain":0.0,"pressure":840.1,"uv_index":8.8,"wind_gusts":20.2,"aqi":130,"pm10":73.6,"pm2_5":45.8,"mosquito_risk":3,"arthritis_risk":5,"migraine_risk":7,"frizz_risk":0,"updated_at":"2026-04-16T13:22:28.036617+05:30"},{"city":"Siliguri","state":"West Bengal","latitude":26.7271,"longitude":88.3953,"temp":27.1,"humidity":57,"rain":0.0,"pressure":995.0,"uv_index":8.45,"wind_gusts":25.9,"aqi":166,"pm10":104.8,"pm2_5":60.3,"mosquito_risk":4,"arthritis_risk":5,"migraine_risk":7,"frizz_risk":1,"updated_at":"2026-04-16T13:22:31.303775+05:30"},{"city":"Durgapur","state":"West Bengal","latitude":23.5204,"longitude":87.3119,"temp":35.4,"humidity":54,"rain":0.0,"pressure":993.1,"uv_index":8.85,"wind_gusts":29.2,"aqi":124,"pm10":73.8,"pm2_5":62.6,"mosquito_risk":0,"arthritis_risk":5,"migraine_risk":10,"frizz_risk":1,"updated_at":"2026-04-16T13:22:31.303807+05:30"},{"city":"Asansol","state":"West Bengal","latitude":23.6739,"longitude":86.9524,"temp":36.0,"humidity":52,"rain":0.0,"pressure":991.9,"uv_index":8.9,"wind_gusts":30.6,"aqi":125,"pm10":79.2,"pm2_5":68.2,"mosquito_risk":0,"arthritis_risk":5,"migraine_risk":10,"frizz_risk":1,"updated_at":"2026-04-16T13:22:31.303817+05:30"},{"city":"Pondicherry","state":"Puducherry","latitude":11.9139,"longitude":79.8145,"temp":36.8,"humidity":50,"rain":0.0,"pressure":1006.7,"uv_index":9.25,"wind_gusts":28.1,"aqi":39,"pm10":10.4,"pm2_5":7.3,"mosquito_risk":0,"arthritis_risk":5,"migraine_risk":7,"frizz_risk":1,"updated_at":"2026-04-16T13:22:31.303825+05:30"},{"city":"Port Blair","state":"Andaman and Nicobar Islands","latitude":11.6234,"longitude":92.7265,"temp":29.2,"humidity":73,"rain":0.0,"pressure":1005.9,"uv_index":9.2,"wind_gusts":13.0,"aqi":62,"pm10":22.5,"pm2_5":16.6,"mosquito_risk":7,"arthritis_risk":5,"migraine_risk":4,"frizz_risk":1,"updated_at":"2026-04-16T13:22:31.303834+05:30"},{"city":"Haridwar","state":"Uttarakhand","latitude":29.9457,"longitude":78.1642,"temp":36.0,"humidity":25,"rain":0.0,"pressure":974.0,"uv_index":7.1,"wind_gusts":29.9,"aqi":54,"pm10":20.6,"pm2_5":6.4,"mosquito_risk":0,"arthritis_risk":5,"migraine_risk":10,"frizz_risk":0,"updated_at":"2026-04-16T13:22:31.303842+05:30"},{"city":"Rishikesh","state":"Uttarakhand","latitude":30.0869,"longitude":78.2676,"temp":35.2,"humidity":26,"rain":0.0,"pressure":967.0,"uv_index":7.1,"wind_gusts":32.8,"aqi":49,"pm10":10.0,"pm2_5":3.7,"mosquito_risk":0,"arthritis_risk":5,"migraine_risk":10,"frizz_risk":0,"updated_at":"2026-04-16T13:22:31.303850+05:30"},{"city":"Nainital","state":"Uttarakhand","latitude":29.3919,"longitude":79.4542,"temp":28.0,"humidity":27,"rain":0.0,"pressure":810.8,"uv_index":8.1,"wind_gusts":38.2,"aqi":88,"pm10":11.4,"pm2_5":6.7,"mosquito_risk":4,"arthritis_risk":5,"migraine_risk":7,"frizz_risk":0,"updated_at":"2026-04-16T13:22:31.303881+05:30"},{"city":"Mussoorie","state":"Uttarakhand","latitude":30.4599,"longitude":78.0664,"temp":25.6,"humidity":35,"rain":0.0,"pressure":807.0,"uv_index":6.9,"wind_gusts":35.6,"aqi":52,"pm10":10.0,"pm2_5":3.8,"mosquito_risk":4,"arthritis_risk":5,"migraine_risk":7,"frizz_risk":0,"updated_at":"2026-04-16T13:22:31.303891+05:30"},{"city":"Dharamshala","state":"Himachal Pradesh","latitude":32.219,"longitude":76.3234,"temp":28.3,"humidity":40,"rain":0.0,"pressure":871.9,"uv_index":7.75,"wind_gusts":25.6,"aqi":94,"pm10":7.0,"pm2_5":2.9,"mosquito_risk":4,"arthritis_risk":5,"migraine_risk":7,"frizz_risk":0,"updated_at":"2026-04-16T13:22:31.303898+05:30"},{"city":"Dalhousie","state":"Himachal Pradesh","latitude":32.5387,"longitude":75.971,"temp":27.2,"humidity":31,"rain":0.0,"pressure":808.1,"uv_index":7.9,"wind_gusts":27.0,"aqi":49,"pm10":7.1,"pm2_5":3.2,"mosquito_risk":4,"arthritis_risk":5,"migraine_risk":7,"frizz_risk":0,"updated_at":"2026-04-16T13:22:31.303908+05:30"},{"city":"Patiala","state":"Punjab","latitude":30.3398,"longitude":76.3869,"temp":37.8,"humidity":19,"rain":0.0,"pressure":977.9,"uv_index":7.2,"wind_gusts":22.0,"aqi":126,"pm10":232.4,"pm2_5":28.1,"mosquito_risk":0,"arthritis_risk":5,"migraine_risk":10,"frizz_risk":0,"updated_at":"2026-04-16T13:22:31.303916+05:30"},{"city":"Bhatinda","state":"Punjab","latitude":30.211,"longitude":74.9455,"temp":39.7,"humidity":17,"rain":0.0,"pressure":982.6,"uv_index":7.35,"wind_gusts":27.7,"aqi":63,"pm10":49.1,"pm2_5":15.0,"mosquito_risk":0,"arthritis_risk":5,"migraine_risk":10,"frizz_risk":0,"updated_at":"2026-04-16T13:22:31.303923+05:30"},{"city":"Rohtak","state":"Haryana","latitude":28.8955,"longitude":76.6066,"temp":38.9,"humidity":19,"rain":0.0,"pressure":981.3,"uv_index":7.35,"wind_gusts":24.5,"aqi":494,"pm10":121.1,"pm2_5":25.8,"mosquito_risk":0,"arthritis_risk":5,"migraine_risk":10,"frizz_risk":0,"updated_at":"2026-04-16T13:22:31.303931+05:30"},{"city":"Panipat","state":"Haryana","latitude":29.3909,"longitude":76.9635,"temp":37.7,"humidity":22,"rain":0.0,"pressure":980.2,"uv_index":7.15,"wind_gusts":22.0,"aqi":608,"pm10":158.8,"pm2_5":29.5,"mosquito_risk":0,"arthritis_risk":5,"migraine_risk":10,"frizz_risk":0,"updated_at":"2026-04-16T13:22:31.303939+05:30"},{"city":"Mathura","state":"Uttar Pradesh","latitude":27.4924,"longitude":77.6737,"temp":40.2,"humidity":16,"rain":0.0,"pressure":985.9,"uv_index":7.65,"wind_gusts":22.7,"aqi":459,"pm10":422.8,"pm2_5":53.3,"mosquito_risk":0,"arthritis_risk":5,"migraine_risk":10,"frizz_risk":0,"updated_at":"2026-04-16T13:22:31.303946+05:30"},{"city":"Vrindavan","state":"Uttar Pradesh","latitude":27.5823,"longitude":77.7027,"temp":39.9,"humidity":16,"rain":0.0,"pressure":986.3,"uv_index":7.6,"wind_gusts":23.0,"aqi":459,"pm10":422.8,"pm2_5":53.3,"mosquito_risk":0,"arthritis_risk":5,"migraine_risk":10,"frizz_risk":0,"updated_at":"2026-04-16T13:22:31.303954+05:30"},{"city":"Ayodhya","state":"Uttar Pradesh","latitude":26.7922,"longitude":82.1998,"temp":39.4,"humidity":20,"rain":0.0,"pressure":993.9,"uv_index":8.0,"wind_gusts":24.1,"aqi":85,"pm10":89.4,"pm2_5":28.4,"mosquito_risk":0,"arthritis_risk":5,"migraine_risk":10,"frizz_risk":0,"updated_at":"2026-04-16T13:22:31.303962+05:30"},{"city":"Ratlam","state":"Madhya Pradesh","latitude":23.3315,"longitude":75.0367,"temp":34.8,"humidity":40,"rain":0.0,"pressure":954.3,"uv_index":8.4,"wind_gusts":29.9,"aqi":66,"pm10":67.8,"pm2_5":22.7,"mosquito_risk":0,"arthritis_risk":5,"migraine_risk":7,"frizz_risk":1,"updated_at":"2026-04-16T13:22:31.303969+05:30"},{"city":"Sagar","state":"Madhya Pradesh","latitude":23.8388,"longitude":78.7378,"temp":39.4,"humidity":17,"rain":0.0,"pressure":949.8,"uv_index":8.55,"wind_gusts":19.1,"aqi":86,"pm10":75.4,"pm2_5":19.2,"mosquito_risk":0,"arthritis_risk":5,"migraine_risk":10,"frizz_risk":0,"updated_at":"2026-04-16T13:22:31.303976+05:30"},{"city":"Satna","state":"Madhya Pradesh","latitude":24.6005,"longitude":80.8322,"temp":40.6,"humidity":12,"rain":0.0,"pressure":970.5,"uv_index":8.6,"wind_gusts":27.0,"aqi":81,"pm10":149.0,"pm2_5":23.7,"mosquito_risk":0,"arthritis_risk":5,"migraine_risk":10,"frizz_risk":0,"updated_at":"2026-04-16T13:22:31.303983+05:30"},{"city":"Akola","state":"Maharashtra","latitude":20.7002,"longitude":77.0082,"temp":40.1,"humidity":24,"rain":0.0,"pressure":973.6,"uv_index":8.8,"wind_gusts":25.6,"aqi":56,"pm10":45.6,"pm2_5":19.1,"mosquito_risk":0,"arthritis_risk":5,"migraine_risk":10,"frizz_risk":0,"updated_at":"2026-04-16T13:22:31.303991+05:30"},{"city":"Amravati","state":"Maharashtra","latitude":20.9374,"longitude":77.7796,"temp":40.0,"humidity":18,"rain":0.0,"pressure":965.9,"uv_index":8.8,"wind_gusts":19.4,"aqi":56,"pm10":41.8,"pm2_5":16.5,"mosquito_risk":0,"arthritis_risk":5,"migraine_risk":10,"frizz_risk":0,"updated_at":"2026-04-16T13:22:31.303999+05:30"},{"city":"Latur","state":"Maharashtra","latitude":18.4088,"longitude":76.5604,"temp":38.0,"humidity":14,"rain":0.0,"pressure":939.8,"uv_index":9.05,"wind_gusts":23.0,"aqi":60,"pm10":32.9,"pm2_5":15.0,"mosquito_risk":0,"arthritis_risk":5,"migraine_risk":10,"frizz_risk":0,"updated_at":"2026-04-16T13:22:31.304006+05:30"},{"city":"Nanded","state":"Maharashtra","latitude":19.1383,"longitude":77.3091,"temp":39.4,"humidity":19,"rain":0.0,"pressure":967.6,"uv_index":8.95,"wind_gusts":17.3,"aqi":63,"pm10":31.2,"pm2_5":11.5,"mosquito_risk":0,"arthritis_risk":5,"migraine_risk":10,"frizz_risk":0,"updated_at":"2026-04-16T13:22:31.304013+05:30"},{"city":"Gulbarga","state":"Karnataka","latitude":17.3297,"longitude":76.8343,"temp":41.1,"humidity":18,"rain":0.0,"pressure":957.3,"uv_index":9.1,"wind_gusts":22.3,"aqi":85,"pm10":33.2,"pm2_5":26.8,"mosquito_risk":0,"arthritis_risk":5,"migraine_risk":10,"frizz_risk":0,"updated_at":"2026-04-16T13:22:31.304020+05:30"},{"city":"Bidar","state":"Karnataka","latitude":17.9104,"longitude":77.5199,"temp":39.5,"humidity":18,"rain":0.0,"pressure":935.0,"uv_index":9.1,"wind_gusts":34.2,"aqi":102,"pm10":39.5,"pm2_5":30.4,"mosquito_risk":0,"arthritis_risk":5,"migraine_risk":10,"frizz_risk":0,"updated_at":"2026-04-16T13:22:31.304027+05:30"},{"city":"Hospet","state":"Karnataka","latitude":15.2689,"longitude":76.3909,"temp":36.3,"humidity":36,"rain":0.0,"pressure":955.2,"uv_index":9.25,"wind_gusts":23.8,"aqi":79,"pm10":26.5,"pm2_5":18.7,"mosquito_risk":0,"arthritis_risk":5,"migraine_risk":10,"frizz_risk":1,"updated_at":"2026-04-16T13:22:31.304033+05:30"},{"city":"Tirupur","state":"Tamil Nadu","latitude":11.1085,"longitude":77.3411,"temp":38.8,"humidity":31,"rain":0.0,"pressure":973.9,"uv_index":9.45,"wind_gusts":34.6,"aqi":77,"pm10":31.3,"pm2_5":23.6,"mosquito_risk":0,"arthritis_risk":5,"migraine_risk":10,"frizz_risk":1,"updated_at":"2026-04-16T13:22:31.304040+05:30"},{"city":"Alappuzha","state":"Kerala","latitude":9.4981,"longitude":76.3388,"temp":29.6,"humidity":81,"rain":0.0,"pressure":1007.4,"uv_index":8.55,"wind_gusts":26.6,"aqi":94,"pm10":41.7,"pm2_5":30.5,"mosquito_risk":7,"arthritis_risk":5,"migraine_risk":4,"frizz_risk":1,"updated_at":"2026-04-16T13:22:31.304047+05:30"},{"city":"Munnar","state":"Kerala","latitude":10.0889,"longitude":77.0595,"temp":32.8,"humidity":34,"rain":0.0,"pressure":859.5,"uv_index":8.95,"wind_gusts":32.4,"aqi":74,"pm10":18.5,"pm2_5":13.4,"mosquito_risk":0,"arthritis_risk":5,"migraine_risk":7,"frizz_risk":0,"updated_at":"2026-04-16T13:22:31.304055+05:30"},{"city":"Silchar","state":"Assam","latitude":24.8333,"longitude":92.7789,"temp":30.9,"humidity":61,"rain":0.0,"pressure":1005.5,"uv_index":8.7,"wind_gusts":24.1,"aqi":115,"pm10":85.7,"pm2_5":46.7,"mosquito_risk":3,"arthritis_risk":5,"migraine_risk":4,"frizz_risk":1,"updated_at":"2026-04-16T13:22:31.304063+05:30"},{"city":"Dibrugarh","state":"Assam","latitude":27.4728,"longitude":94.912,"temp":28.0,"humidity":59,"rain":0.0,"pressure":996.2,"uv_index":8.55,"wind_gusts":10.8,"aqi":148,"pm10":92.7,"pm2_5":45.4,"mosquito_risk":4,"arthritis_risk":5,"migraine_risk":7,"frizz_risk":1,"updated_at":"2026-04-16T13:22:31.304070+05:30"}]