[{"city":"Delhi","state":"Delhi","latitude":28.6139,"longitude":77.209,"temp":17.0,"humidity":83,"rain":0.0,"pressure":984.8,"uv_index":6.1,"wind_gusts":43.2,"aqi":182,"pm10":304.5,"pm2_5":54.1,"mosquito_risk":3,"arthritis_risk":10,"migraine_risk":7,"frizz_risk":0,"updated_at":"2026-03-16T04:01:36.217785+05:30"},{"city":"Mumbai","state":"Maharashtra","latitude":19.076,"longitude":72.8777,"temp":27.2,"humidity":80,"rain":0.0,"pressure":1008.5,"uv_index":7.7,"wind_gusts":19.4,"aqi":103,"pm10":70.1,"pm2_5":31.9,"mosquito_risk":7,"arthritis_risk":0,"migraine_risk":4,"frizz_risk":1,"updated_at":"2026-03-16T04:01:36.217833+05:30"},{"city":"Bangalore","state":"Karnataka","latitude":12.9716,"longitude":77.5946,"temp":19.9,"humidity":74,"rain":0.0,"pressure":910.9,"uv_index":9.35,"wind_gusts":18.0,"aqi":82,"pm10":31.7,"pm2_5":31.2,"mosquito_risk":3,"arthritis_risk":5,"migraine_risk":7,"frizz_risk":0,"updated_at":"2026-03-16T04:01:36.217849+05:30"},{"city":"Hyderabad","state":"Telangana","latitude":17.385,"longitude":78.4867,"temp":22.7,"humidity":74,"rain":0.0,"pressure":952.5,"uv_index":8.75,"wind_gusts":27.4,"aqi":96,"pm10":31.8,"pm2_5":25.4,"mosquito_risk":3,"arthritis_risk":5,"migraine_risk":7,"frizz_risk":1,"updated_at":"2026-03-16T04:01:36.217859+05:30"},{"city":"Chennai","state":"Tamil Nadu","latitude":13.0827,"longitude":80.2707,"temp":25.3,"humidity":83,"rain":0.0,"pressure":1008.1,"uv_index":9.1,"wind_gusts":32.4,"aqi":39,"pm10":11.9,"pm2_5":9.0,"mosquito_risk":7,"arthritis_risk":0,"migraine_risk":4,"frizz_risk":1,"updated_at":"2026-03-16T04:01:36.217869+05:30"},{"city":"Kolkata","state":"West Bengal","latitude":22.5726,"longitude":88.3639,"temp":24.2,"humidity":91,"rain":0.0,"pressure":1006.0,"uv_index":8.05,"wind_gusts":33.5,"aqi":63,"pm10":30.4,"pm2_5":25.6,"mosquito_risk":3,"arthritis_risk":5,"migraine_risk":4,"frizz_risk":1,"updated_at":"2026-03-16T04:01:36.217878+05:30"},{"city":"Pune","state":"Maharashtra","latitude":18.5204,"longitude":73.8567,"temp":17.5,"humidity":78,"rain":0.0,"pressure":947.2,"uv_index":8.25,"wind_gusts":40.7,"aqi":90,"pm10":59.6,"pm2_5":41.7,"mosquito_risk":3,"arthritis_risk":5,"migraine_risk":7,"frizz_risk":0,"updated_at":"2026-03-16T04:01:36.217890+05:30"},{"city":"Ahmedabad","state":"Gujarat","latitude":23.0225,"longitude":72.5714,"temp":22.9,"humidity":67,"rain":0.0,"pressure":1002.0,"uv_index":7.15,"wind_gusts":25.6,"aqi":66,"pm10":35.0,"pm2_5":18.6,"mosquito_risk":3,"arthritis_risk":5,"migraine_risk":4,"frizz_risk":1,"updated_at":"2026-03-16T04:01:36.217898+05:30"},{"city":"Jaipur","state":"Rajasthan","latitude":26.9124,"longitude":75.7873,"temp":22.4,"humidity":26,"rain":0.0,"pressure":958.6,"uv_index":6.9,"wind_gusts":36.0,"aqi":132,"pm10":407.9,"pm2_5":73.8,"mosquito_risk":0,"arthritis_risk":5,"migraine_risk":7,"frizz_risk":0,"updated_at":"2026-03-16T04:01:36.217906+05:30"},{"city":"Lucknow","state":"Uttar Pradesh","latitude":26.8467,"longitude":80.9462,"temp":19.3,"humidity":71,"rain":0.0,"pressure":993.0,"uv_index":6.65,"wind_gusts":61.6,"aqi":100,"pm10":40.7,"pm2_5":34.6,"mosquito_risk":3,"arthritis_risk":5,"migraine_risk":7,"frizz_risk":0,"updated_at":"2026-03-16T04:01:36.217914+05:30"},{"city":"Kanpur","state":"Uttar Pradesh","latitude":26.4499,"longitude":80.3319,"temp":19.3,"humidity":72,"rain":0.0,"pressure":991.1,"uv_index":6.7,"wind_gusts":50.4,"aqi":138,"pm10":102.7,"pm2_5":31.9,"mosquito_risk":3,"arthritis_risk":5,"migraine_risk":7,"frizz_risk":0,"updated_at":"2026-03-16T04:01:36.217921+05:30"},{"city":"Chandigarh","state":"Chandigarh","latitude":30.7333,"longitude":76.7794,"temp":14.0,"humidity":82,"rain":0.0,"pressure":969.5,"uv_index":5.9,"wind_gusts":50.8,"aqi":72,"pm10":19.6,"pm2_5":15.5,"mosquito_risk":3,"arthritis_risk":10,"migraine_risk":3,"frizz_risk":0,"updated_at":"2026-03-16T04:01:36.217929+05:30"},{"city":"Srinagar","state":"Jammu and Kashmir","latitude":34.0837,"longitude":74.7973,"temp":4.6,"humidity":91,"rain":0.0,"pressure":836.4,"uv_index":4.2,"wind_gusts":19.8,"aqi":69,"pm10":4.1,"pm2_5":4.0,"mosquito_risk":3,"arthritis_risk":10,"migraine_risk":3,"frizz_risk":0,"updated_at":"2026-03-16T04:01:36.217936+05:30"},{"city":"Jammu","state":"Jammu and Kashmir","latitude":32.7266,"longitude":74.857,"temp":14.0,"humidity":82,"rain":0.0,"pressure":973.2,"uv_index":4.9,"wind_gusts":42.1,"aqi":84,"pm10":21.3,"pm2_5":16.6,"mosquito_risk":3,"arthritis_risk":10,"migraine_risk":3,"frizz_risk":0,"updated_at":"2026-03-16T04:01:36.217943+05:30"},{"city":"Amritsar","state":"Punjab","latitude":31.634,"longitude":74.8723,"temp":13.2,"humidity":91,"rain":0.0,"pressure":980.9,"uv_index":6.45,"wind_gusts":35.6,"aqi":96,"pm10":39.5,"pm2_5":25.1,"mosquito_risk":3,"arthritis_risk":10,"migraine_risk":7,"frizz_risk":0,"updated_at":"2026-03-16T04:01:36.217950+05:30"},{"city":"Ludhiana","state":"Punjab","latitude":30.901,"longitude":75.8573,"temp":13.8,"humidity":91,"rain":0.0,"pressure":979.5,"uv_index":6.2,"wind_gusts":50.8,"aqi":96,"pm10":43.7,"pm2_5":29.6,"mosquito_risk":3,"arthritis_risk":10,"migraine_risk":7,"frizz_risk":0,"updated_at":"2026-03-16T04:01:36.217957+05:30"},{"city":"Jalandhar","state":"Punjab","latitude":31.326,"longitude":75.5762,"temp":13.4,"humidity":91,"rain":0.0,"pressure":980.6,"uv_index":6.3,"wind_gusts":47.5,"aqi":94,"pm10":29.0,"pm2_5":18.7,"mosquito_risk":3,"arthritis_risk":10,"migraine_risk":7,"frizz_risk":0,"updated_at":"2026-03-16T04:01:36.217966+05:30"},{"city":"Dehradun","state":"Uttarakhand","latitude":30.6284,"longitude":78.0322,"temp":8.3,"humidity":74,"rain":0.0,"pressure":827.0,"uv_index":6.3,"wind_gusts":39.2,"aqi":51,"pm10":16.5,"pm2_5":5.8,"mosquito_risk":3,"arthritis_risk":5,"migraine_risk":7,"frizz_risk":0,"updated_at":"2026-03-16T04:01:36.217972+05:30"},{"city":"Shimla","state":"Himachal Pradesh","latitude":31.1048,"longitude":77.1734,"temp":6.1,"humidity":78,"rain":0.0,"pressure":779.4,"uv_index":6.3,"wind_gusts":50.8,"aqi":53,"pm10":10.1,"pm2_5":4.8,"mosquito_risk":3,"arthritis_risk":5,"migraine_risk":7,"frizz_risk":0,"updated_at":"2026-03-16T04:01:36.217979+05:30"},{"city":"Manali","state":"Himachal Pradesh","latitude":32.2396,"longitude":77.1887,"temp":8.0,"humidity":72,"rain":0.0,"pressure":814.1,"uv_index":7.1,"wind_gusts":29.5,"aqi":49,"pm10":6.6,"pm2_5":3.3,"mosquito_risk":3,"arthritis_risk":5,"migraine_risk":7,"frizz_risk":0,"updated_at":"2026-03-16T04:01:36.217986+05:30"},{"city":"Gurgaon","state":"Haryana","latitude":28.4595,"longitude":77.0266,"temp":16.5,"humidity":87,"rain":0.0,"pressure":982.9,"uv_index":6.2,"wind_gusts":46.1,"aqi":1462,"pm10":1922.2,"pm2_5":213.7,"mosquito_risk":3,"arthritis_risk":10,"migraine_risk":7,"frizz_risk":0,"updated_at":"2026-03-16T04:01:36.217993+05:30"},{"city":"Noida","state":"Uttar Pradesh","latitude":28.5355,"longitude":77.391,"temp":17.0,"humidity":84,"rain":0.0,"pressure":986.4,"uv_index":6.15,"wind_gusts":42.8,"aqi":1462,"pm10":1922.2,"pm2_5":213.7,"mosquito_risk":3,"arthritis_risk":10,"migraine_risk":7,"frizz_risk":0,"updated_at":"2026-03-16T04:01:36.217999+05:30"},{"city":"Ghaziabad","state":"Uttar Pradesh","latitude":28.6692,"longitude":77.4538,"temp":16.4,"humidity":85,"rain":0.0,"pressure":984.6,"uv_index":6.1,"wind_gusts":45.7,"aqi":115,"pm10":44.2,"pm2_5":28.5,"mosquito_risk":3,"arthritis_risk":10,"migraine_risk":7,"frizz_risk":0,"updated_at":"2026-03-16T04:01:36.218006+05:30"},{"city":"Faridabad","state":"Haryana","latitude":28.4089,"longitude":77.3178,"temp":16.8,"humidity":88,"rain":0.0,"pressure":985.3,"uv_index":6.15,"wind_gusts":42.1,"aqi":1462,"pm10":1922.2,"pm2_5":213.7,"mosquito_risk":3,"arthritis_risk":10,"migraine_risk":7,"frizz_risk":0,"updated_at":"2026-03-16T04:01:36.218013+05:30"},{"city":"Meerut","state":"Uttar Pradesh","latitude":28.9845,"longitude":77.7064,"temp":15.8,"humidity":85,"rain":0.0,"pressure":983.4,"uv_index":6.0,"wind_gusts":53.6,"aqi":115,"pm10":44.2,"pm2_5":28.5,"mosquito_risk":3,"arthritis_risk":10,"migraine_risk":3,"frizz_risk":0,"updated_at":"2026-03-16T04:01:36.218020+05:30"},{"city":"Agra","state":"Uttar Pradesh","latitude":27.1767,"longitude":78.0081,"temp":17.6,"humidity":87,"rain":0.0,"pressure":988.2,"uv_index":6.5,"wind_gusts":36.7,"aqi":922,"pm10":1143.7,"pm2_5":136.4,"mosquito_risk":3,"arthritis_risk":10,"migraine_risk":7,"frizz_risk":0,"updated_at":"2026-03-16T04:01:36.218027+05:30"},{"city":"Varanasi","state":"Uttar Pradesh","latitude":25.3176,"longitude":82.9739,"temp":21.0,"humidity":75,"rain":0.0,"pressure":997.6,"uv_index":7.35,"wind_gusts":39.2,"aqi":141,"pm10":108.7,"pm2_5":82.9,"mosquito_risk":3,"arthritis_risk":5,"migraine_risk":7,"frizz_risk":1,"updated_at":"2026-03-16T04:01:36.218036+05:30"},{"city":"Prayagraj","state":"Uttar Pradesh","latitude":25.4358,"longitude":81.8463,"temp":20.4,"humidity":76,"rain":0.0,"pressure":995.5,"uv_index":7.2,"wind_gusts":35.3,"aqi":111,"pm10":56.6,"pm2_5":46.7,"mosquito_risk":3,"arthritis_risk":5,"migraine_risk":7,"frizz_risk":0,"updated_at":"2026-03-16T04:01:36.218043+05:30"},{"city":"Gorakhpur","state":"Uttar Pradesh","latitude":26.7606,"longitude":83.3732,"temp":19.2,"humidity":72,"rain":0.0,"pressure":997.0,"uv_index":6.85,"wind_gusts":52.9,"aqi":151,"pm10":86.4,"pm2_5":72.2,"mosquito_risk":3,"arthritis_risk":5,"migraine_risk":7,"frizz_risk":0,"updated_at":"2026-03-16T04:01:36.218050+05:30"},{"city":"Bareilly","state":"Uttar Pradesh","latitude":28.367,"longitude":79.4304,"temp":17.7,"humidity":82,"rain":0.0,"pressure":989.3,"uv_index":6.3,"wind_gusts":60.8,"aqi":116,"pm10":47.3,"pm2_5":39.3,"mosquito_risk":3,"arthritis_risk":10,"migraine_risk":7,"frizz_risk":0,"updated_at":"2026-03-16T04:01:36.218058+05:30"},{"city":"Aligarh","state":"Uttar Pradesh","latitude":27.8974,"longitude":78.088,"temp":17.2,"humidity":88,"rain":0.0,"pressure":986.7,"uv_index":6.25,"wind_gusts":37.4,"aqi":406,"pm10":558.8,"pm2_5":75.0,"mosquito_risk":3,"arthritis_risk":10,"migraine_risk":7,"frizz_risk":0,"updated_at":"2026-03-16T04:01:36.218065+05:30"},{"city":"Moradabad","state":"Uttar Pradesh","latitude":28.8386,"longitude":78.7733,"temp":16.7,"humidity":83,"rain":0.0,"pressure":985.9,"uv_index":6.15,"wind_gusts":69.1,"aqi":125,"pm10":57.2,"pm2_5":34.2,"mosquito_risk":3,"arthritis_risk":10,"migraine_risk":7,"frizz_risk":0,"updated_at":"2026-03-16T04:01:36.218071+05:30"},{"city":"Saharanpur","state":"Uttar Pradesh","latitude":29.9637,"longitude":77.546,"temp":14.5,"humidity":87,"rain":0.0,"pressure":977.2,"uv_index":5.75,"wind_gusts":42.5,"aqi":120,"pm10":34.8,"pm2_5":27.7,"mosquito_risk":3,"arthritis_risk":10,"migraine_risk":3,"frizz_risk":0,"updated_at":"2026-03-16T04:01:36.218078+05:30"},{"city":"Jhansi","state":"Uttar Pradesh","latitude":25.4484,"longitude":78.5685,"temp":22.2,"humidity":68,"rain":0.0,"pressure":976.6,"uv_index":7.15,"wind_gusts":28.8,"aqi":79,"pm10":23.2,"pm2_5":17.9,"mosquito_risk":3,"arthritis_risk":5,"migraine_risk":7,"frizz_risk":0,"updated_at":"2026-03-16T04:01:39.511142+05:30"},{"city":"Surat","state":"Gujarat","latitude":21.1702,"longitude":72.8311,"temp":25.7,"humidity":89,"rain":0.0,"pressure":1006.6,"uv_index":7.4,"wind_gusts":24.1,"aqi":124,"pm10":47.3,"pm2_5":27.9,"mosquito_risk":7,"arthritis_risk":5,"migraine_risk":4,"frizz_risk":1,"updated_at":"2026-03-16T04:01:39.511171+05:30"},{"city":"Vadodara","state":"Gujarat","latitude":22.3072,"longitude":73.1812,"temp":24.0,"humidity":93,"rain":0.0,"pressure":1004.3,"uv_index":7.1,"wind_gusts":25.2,"aqi":85,"pm10":38.4,"pm2_5":24.4,"mosquito_risk":3,"arthritis_risk":5,"migraine_risk":4,"frizz_risk":1,"updated_at":"2026-03-16T04:01:39.511181+05:30"},{"city":"Rajkot","state":"Gujarat","latitude":22.3039,"longitude":70.8022,"temp":23.0,"humidity":86,"rain":0.0,"pressure":994.6,"uv_index":7.3,"wind_gusts":30.2,"aqi":68,"pm10":40.5,"pm2_5":19.5,"mosquito_risk":3,"arthritis_risk":5,"migraine_risk":7,"frizz_risk":1,"updated_at":"2026-03-16T04:01:39.511188+05:30"},{"city":"Thane","state":"Maharashtra","latitude":19.2183,"longitude":72.9781,"temp":25.2,"humidity":91,"rain":0.0,"pressure":1008.0,"uv_index":7.7,"wind_gusts":32.0,"aqi":103,"pm10":70.1,"pm2_5":31.9,"mosquito_risk":7,"arthritis_risk":0,"migraine_risk":4,"frizz_risk":1,"updated_at":"2026-03-16T04:01:39.511196+05:30"},{"city":"Nagpur","state":"Maharashtra","latitude":21.1458,"longitude":79.0882,"temp":24.9,"humidity":71,"rain":0.0,"pressure":971.8,"uv_index":7.95,"wind_gusts":22.0,"aqi":126,"pm10":55.1,"pm2_5":50.6,"mosquito_risk":3,"arthritis_risk":5,"migraine_risk":7,"frizz_risk":1,"updated_at":"2026-03-16T04:01:39.511203+05:30"},{"city":"Nashik","state":"Maharashtra","latitude":19.9975,"longitude":73.7898,"temp":19.5,"humidity":66,"rain":0.0,"pressure":944.8,"uv_index":7.7,"wind_gusts":28.1,"aqi":74,"pm10":70.5,"pm2_5":33.8,"mosquito_risk":3,"arthritis_risk":5,"migraine_risk":7,"frizz_risk":0,"updated_at":"2026-03-16T04:01:39.511209+05:30"},{"city":"Aurangabad","state":"Maharashtra","latitude":19.8762,"longitude":75.3433,"temp":21.8,"humidity":57,"rain":0.0,"pressure":943.2,"uv_index":8.05,"wind_gusts":30.2,"aqi":74,"pm10":46.6,"pm2_5":27.6,"mosquito_risk":0,"arthritis_risk":5,"migraine_risk":7,"frizz_risk":0,"updated_at":"2026-03-16T04:01:39.511216+05:30"},{"city":"Solapur","state":"Maharashtra","latitude":17.6599,"longitude":75.9064,"temp":22.0,"humidity":61,"rain":0.0,"pressure":956.2,"uv_index":8.65,"wind_gusts":25.6,"aqi":109,"pm10":33.8,"pm2_5":31.5,"mosquito_risk":3,"arthritis_risk":5,"migraine_risk":7,"frizz_risk":0,"updated_at":"2026-03-16T04:01:39.511224+05:30"},{"city":"Kolhapur","state":"Maharashtra","latitude":16.705,"longitude":74.2433,"temp":18.6,"humidity":77,"rain":0.0,"pressure":946.7,"uv_index":8.75,"wind_gusts":35.6,"aqi":119,"pm10":45.4,"pm2_5":33.9,"mosquito_risk":3,"arthritis_risk":5,"migraine_risk":7,"frizz_risk":0,"updated_at":"2026-03-16T04:01:39.511230+05:30"},{"city":"Goa","state":"Goa","latitude":15.2993,"longitude":74.124,"temp":26.5,"humidity":83,"rain":0.0,"pressure":997.5,"uv_index":8.8,"wind_gusts":32.0,"aqi":116,"pm10":58.0,"pm2_5":38.0,"mosquito_risk":7,"arthritis_risk":5,"migraine_risk":7,"frizz_risk":1,"updated_at":"2026-03-16T04:01:39.511238+05:30"},{"city":"Jodhpur","state":"Rajasthan","latitude":26.2389,"longitude":73.0243,"temp":23.8,"humidity":26,"rain":0.0,"pressure":982.0,"uv_index":7.2,"wind_gusts":38.9,"aqi":99,"pm10":153.7,"pm2_5":24.3,"mosquito_risk":0,"arthritis_risk":5,"migraine_risk":7,"frizz_risk":0,"updated_at":"2026-03-16T04:01:39.511245+05:30"},{"city":"Udaipur","state":"Rajasthan","latitude":24.5854,"longitude":73.7125,"temp":21.3,"humidity":35,"rain":0.0,"pressure":945.6,"uv_index":7.85,"wind_gusts":33.1,"aqi":57,"pm10":17.2,"pm2_5":9.0,"mosquito_risk":0,"arthritis_risk":5,"migraine_risk":7,"frizz_risk":0,"updated_at":"2026-03-16T04:01:39.511251+05:30"},{"city":"Kota","state":"Rajasthan","latitude":25.2138,"longitude":75.8648,"temp":20.7,"humidity":40,"rain":0.0,"pressure":977.2,"uv_index":7.2,"wind_gusts":25.6,"aqi":61,"pm10":14.6,"pm2_5":9.6,"mosquito_risk":0,"arthritis_risk":5,"migraine_risk":7,"frizz_risk":0,"updated_at":"2026-03-16T04:01:39.511258+05:30"},{"city":"Bikaner","state":"Rajasthan","latitude":28.0229,"longitude":73.3119,"temp":23.5,"humidity":27,"rain":0.0,"pressure":980.4,"uv_index":6.9,"wind_gusts":25.9,"aqi":47,"pm10":24.3,"pm2_5":7.8,"mosquito_risk":0,"arthritis_risk":5,"migraine_risk":7,"frizz_risk":0,"updated_at":"2026-03-16T04:01:39.511265+05:30"},{"city":"Ajmer","state":"Rajasthan","latitude":26.4499,"longitude":74.6399,"temp":20.7,"humidity":45,"rain":0.0,"pressure":953.1,"uv_index":7.15,"wind_gusts":38.9,"aqi":70,"pm10":49.1,"pm2_5":19.2,"mosquito_risk":0,"arthritis_risk":5,"migraine_risk":7,"frizz_risk":0,"updated_at":"2026-03-16T04:01:39.511271+05:30"},{"city":"Gwalior","state":"Madhya Pradesh","latitude":26.2183,"longitude":78.1828,"temp":21.4,"humidity":73,"rain":0.0,"pressure":982.2,"uv_index":6.85,"wind_gusts":27.7,"aqi":98,"pm10":92.4,"pm2_5":30.9,"mosquito_risk":3,"arthritis_risk":5,"migraine_risk":7,"frizz_risk":1,"updated_at":"2026-03-16T04:01:39.511277+05:30"},{"city":"Indore","state":"Madhya Pradesh","latitude":22.7196,"longitude":75.8577,"temp":21.3,"humidity":46,"rain":0.0,"pressure":947.0,"uv_index":7.75,"wind_gusts":31.3,"aqi":62,"pm10":28.2,"pm2_5":16.4,"mosquito_risk":0,"arthritis_risk":5,"migraine_risk":7,"frizz_risk":0,"updated_at":"2026-03-16T04:01:39.511284+05:30"},{"city":"Bhopal","state":"Madhya Pradesh","latitude":23.2599,"longitude":77.4126,"temp":20.0,"humidity":51,"rain":0.0,"pressure":952.3,"uv_index":7.65,"wind_gusts":32.0,"aqi":57,"pm10":20.0,"pm2_5":11.9,"mosquito_risk":0,"arthritis_risk":5,"migraine_risk":7,"frizz_risk":0,"updated_at":"2026-03-16T04:01:39.511290+05:30"},{"city":"Jabalpur","state":"Madhya Pradesh","latitude":23.1815,"longitude":79.9864,"temp":22.9,"humidity":51,"rain":0.0,"pressure":959.8,"uv_index":7.8,"wind_gusts":41.0,"aqi":66,"pm10":29.1,"pm2_5":22.3,"mosquito_risk":0,"arthritis_risk":5,"migraine_risk":7,"frizz_risk":0,"updated_at":"2026-03-16T04:01:39.511296+05:30"},{"city":"Ujjain","state":"Madhya Pradesh","latitude":23.1765,"longitude":75.7885,"temp":21.4,"humidity":48,"rain":0.0,"pressure":952.8,"uv_index":7.65,"wind_gusts":29.9,"aqi":65,"pm10":28.8,"pm2_5":17.0,"mosquito_risk":0,"arthritis_risk":5,"migraine_risk":7,"frizz_risk":0,"updated_at":"2026-03-16T04:01:39.511304+05:30"},{"city":"Visakhapatnam","state":"Andhra Pradesh","latitude":17.6868,"longitude":83.2185,"temp":24.8,"humidity":89,"rain":0.0,"pressure":1005.1,"uv_index":8.7,"wind_gusts":40.0,"aqi":66,"pm10":22.8,"pm2_5":18.4,"mosquito_risk":3,"arthritis_risk":5,"migraine_risk":4,"frizz_risk":1,"updated_at":"2026-03-16T04:01:39.511310+05:30"},{"city":"Vijayawada","state":"Andhra Pradesh","latitude":16.5062,"longitude":80.648,"temp":23.6,"humidity":89,"rain":0.0,"pressure":1004.0,"uv_index":8.8,"wind_gusts":27.0,"aqi":57,"pm10":13.9,"pm2_5":11.6,"mosquito_risk":3,"arthritis_risk":5,"migraine_risk":4,"frizz_risk":1,"updated_at":"2026-03-16T04:01:39.511317+05:30"},{"city":"Guntur","state":"Andhra Pradesh","latitude":16.3067,"longitude":80.4365,"temp":23.9,"humidity":88,"rain":0.0,"pressure":1005.0,"uv_index":8.8,"wind_gusts":28.1,"aqi":55,"pm10":13.0,"pm2_5":10.8,"mosquito_risk":3,"arthritis_risk":5,"migraine_risk":4,"frizz_risk":1,"updated_at":"2026-03-16T04:01:39.511324+05:30"},{"city":"Nellore","state":"Andhra Pradesh","latitude":14.4426,"longitude":79.9865,"temp":24.1,"humidity":91,"rain":0.0,"pressure":1006.8,"uv_index":8.95,"wind_gusts":30.2,"aqi":49,"pm10":9.3,"pm2_5":8.0,"mosquito_risk":3,"arthritis_risk":5,"migraine_risk":4,"frizz_risk":1,"updated_at":"2026-03-16T04:01:39.511331+05:30"},{"city":"Kurnool","state":"Andhra Pradesh","latitude":15.8281,"longitude":78.0373,"temp":25.5,"humidity":64,"rain":0.0,"pressure":976.9,"uv_index":8.55,"wind_gusts":20.5,"aqi":85,"pm10":21.9,"pm2_5":19.8,"mosquito_risk":7,"arthritis_risk":5,"migraine_risk":7,"frizz_risk":1,"updated_at":"2026-03-16T04:01:39.511338+05:30"},{"city":"Kakinada","state":"Andhra Pradesh","latitude":16.9891,"longitude":82.2475,"temp":23.1,"humidity":91,"rain":0.0,"pressure":1009.2,"uv_index":8.7,"wind_gusts":26.6,"aqi":57,"pm10":17.1,"pm2_5":11.9,"mosquito_risk":3,"arthritis_risk":0,"migraine_risk":4,"frizz_risk":1,"updated_at":"2026-03-16T04:01:39.511345+05:30"},{"city":"Tirupati","state":"Andhra Pradesh","latitude":13.6288,"longitude":79.4192,"temp":21.8,"humidity":89,"rain":0.0,"pressure":992.4,"uv_index":9.1,"wind_gusts":25.6,"aqi":64,"pm10":24.2,"pm2_5":22.5,"mosquito_risk":3,"arthritis_risk":5,"migraine_risk":7,"frizz_risk":1,"updated_at":"2026-03-16T04:01:39.511351+05:30"},{"city":"Warangal","state":"Telangana","latitude":17.9689,"longitude":79.5941,"temp":23.3,"humidity":86,"rain":0.0,"pressure":978.7,"uv_index":8.6,"wind_gusts":31.7,"aqi":79,"pm10":14.4,"pm2_5":12.6,"mosquito_risk":3,"arthritis_risk":5,"migraine_risk":7,"frizz_risk":1,"updated_at":"2026-03-16T04:01:39.511357+05:30"},{"city":"Nizamabad","state":"Telangana","latitude":18.6725,"longitude":78.0941,"temp":25.5,"humidity":59,"rain":0.0,"pressure":963.7,"uv_index":8.45,"wind_gusts":26.3,"aqi":135,"pm10":42.5,"pm2_5":38.3,"mosquito_risk":4,"arthritis_risk":5,"migraine_risk":7,"frizz_risk":1,"updated_at":"2026-03-16T04:01:39.511363+05:30"},{"city":"Mysore","state":"Karnataka","latitude":12.2958,"longitude":76.6396,"temp":20.8,"humidity":93,"rain":0.0,"pressure":928.1,"uv_index":9.35,"wind_gusts":29.2,"aqi":95,"pm10":51.2,"pm2_5":47.6,"mosquito_risk":3,"arthritis_risk":5,"migraine_risk":7,"frizz_risk":1,"updated_at":"2026-03-16T04:01:39.511370+05:30"},{"city":"Mangalore","state":"Karnataka","latitude":12.9141,"longitude":74.856,"temp":27.9,"humidity":82,"rain":0.0,"pressure":1006.4,"uv_index":9.0,"wind_gusts":20.9,"aqi":90,"pm10":41.0,"pm2_5":36.9,"mosquito_risk":7,"arthritis_risk":5,"migraine_risk":4,"frizz_risk":1,"updated_at":"2026-03-16T04:01:39.511376+05:30"},{"city":"Hubli-Dharwad","state":"Karnataka","latitude":15.3647,"longitude":75.124,"temp":22.0,"humidity":88,"rain":0.0,"pressure":939.9,"uv_index":8.95,"wind_gusts":29.9,"aqi":110,"pm10":38.2,"pm2_5":35.4,"mosquito_risk":3,"arthritis_risk":5,"migraine_risk":7,"frizz_risk":1,"updated_at":"2026-03-16T04:01:39.511382+05:30"},{"city":"Belgaum","state":"Karnataka","latitude":15.8497,"longitude":74.4977,"temp":20.7,"humidity":99,"rain":0.0,"pressure":924.5,"uv_index":9.0,"wind_gusts":34.2,"aqi":112,"pm10":51.3,"pm2_5":32.8,"mosquito_risk":3,"arthritis_risk":5,"migraine_risk":7,"frizz_risk":1,"updated_at":"2026-03-16T04:01:42.790678+05:30"},{"city":"Coimbatore","state":"Tamil Nadu","latitude":11.0168,"longitude":76.9558,"temp":22.2,"humidity":95,"rain":0.0,"pressure":961.8,"uv_index":9.3,"wind_gusts":33.5,"aqi":75,"pm10":45.3,"pm2_5":42.0,"mosquito_risk":3,"arthritis_risk":5,"migraine_risk":7,"frizz_risk":1,"updated_at":"2026-03-16T04:01:42.790711+05:30"},{"city":"Madurai","state":"Tamil Nadu","latitude":9.9252,"longitude":78.1198,"temp":24.7,"humidity":84,"rain":0.0,"pressure":993.6,"uv_index":9.3,"wind_gusts":20.2,"aqi":52,"pm10":20.7,"pm2_5":19.4,"mosquito_risk":3,"arthritis_risk":5,"migraine_risk":7,"frizz_risk":1,"updated_at":"2026-03-16T04:01:42.790721+05:30"},{"city":"Trichy","state":"Tamil Nadu","latitude":10.7905,"longitude":78.7047,"temp":24.3,"humidity":95,"rain":0.0,"pressure":1000.7,"uv_index":9.2,"wind_gusts":22.0,"aqi":51,"pm10":18.6,"pm2_5":16.8,"mosquito_risk":3,"arthritis_risk":5,"migraine_risk":4,"frizz_risk":1,"updated_at":"2026-03-16T04:01:42.790729+05:30"},{"city":"Salem","state":"Tamil Nadu","latitude":11.6643,"longitude":78.146,"temp":23.5,"humidity":84,"rain":0.0,"pressure":977.9,"uv_index":9.25,"wind_gusts":13.3,"aqi":67,"pm10":25.1,"pm2_5":24.9,"mosquito_risk":3,"arthritis_risk":5,"migraine_risk":7,"frizz_risk":1,"updated_at":"2026-03-16T04:01:42.790737+05:30"},{"city":"Tirunelveli","state":"Tamil Nadu","latitude":8.7139,"longitude":77.7567,"temp":23.8,"humidity":88,"rain":0.0,"pressure":1003.5,"uv_index":9.3,"wind_gusts":40.3,"aqi":51,"pm10":28.2,"pm2_5":26.6,"mosquito_risk":3,"arthritis_risk":5,"migraine_risk":4,"frizz_risk":1,"updated_at":"2026-03-16T04:01:42.790744+05:30"},{"city":"Vellore","state":"Tamil Nadu","latitude":12.9165,"longitude":79.1325,"temp":20.8,"humidity":88,"rain":0.0,"pressure":985.4,"uv_index":9.15,"wind_gusts":32.0,"aqi":84,"pm10":38.4,"pm2_5":37.3,"mosquito_risk":3,"arthritis_risk":5,"migraine_risk":7,"frizz_risk":1,"updated_at":"2026-03-16T04:01:42.790751+05:30"},{"city":"Erode","state":"Tamil Nadu","latitude":11.341,"longitude":77.7172,"temp":24.6,"humidity":89,"rain":0.0,"pressure":989.6,"uv_index":9.25,"wind_gusts":22.0,"aqi":47,"pm10":10.0,"pm2_5":9.1,"mosquito_risk":3,"arthritis_risk":5,"migraine_risk":7,"frizz_risk":1,"updated_at":"2026-03-16T04:01:42.790775+05:30"},{"city":"Kochi","state":"Kerala","latitude":9.9312,"longitude":76.2673,"temp":27.1,"humidity":82,"rain":0.0,"pressure":1008.8,"uv_index":9.1,"wind_gusts":37.1,"aqi":74,"pm10":27.2,"pm2_5":25.8,"mosquito_risk":7,"arthritis_risk":0,"migraine_risk":4,"frizz_risk":1,"updated_at":"2026-03-16T04:01:42.790784+05:30"},{"city":"Thiruvananthapuram","state":"Kerala","latitude":8.5241,"longitude":76.9366,"temp":27.3,"humidity":83,"rain":0.0,"pressure":1007.7,"uv_index":9.15,"wind_gusts":31.0,"aqi":49,"pm10":12.7,"pm2_5":9.5,"mosquito_risk":7,"arthritis_risk":5,"migraine_risk":4,"frizz_risk":1,"updated_at":"2026-03-16T04:01:42.790791+05:30"},{"city":"Kozhikode","state":"Kerala","latitude":11.2588,"longitude":75.7804,"temp":27.5,"humidity":82,"rain":0.0,"pressure":1007.9,"uv_index":9.0,"wind_gusts":31.3,"aqi":67,"pm10":26.0,"pm2_5":21.9,"mosquito_risk":7,"arthritis_risk":5,"migraine_risk":4,"frizz_risk":1,"updated_at":"2026-03-16T04:01:42.790798+05:30"},{"city":"Thrissur","state":"Kerala","latitude":10.5276,"longitude":76.2144,"temp":26.3,"humidity":88,"rain":0.0,"pressure":1007.1,"uv_index":9.05,"wind_gusts":39.2,"aqi":75,"pm10":26.5,"pm2_5":24.3,"mosquito_risk":7,"arthritis_risk":5,"migraine_risk":4,"frizz_risk":1,"updated_at":"2026-03-16T04:01:42.790806+05:30"},{"city":"Kannur","state":"Kerala","latitude":11.8745,"longitude":75.3704,"temp":27.1,"humidity":84,"rain":0.0,"pressure":1007.1,"uv_index":9.0,"wind_gusts":32.0,"aqi":80,"pm10":31.3,"pm2_5":28.1,"mosquito_risk":7,"arthritis_risk":5,"migraine_risk":4,"frizz_risk":1,"updated_at":"2026-03-16T04:01:42.790813+05:30"},{"city":"Patna","state":"Bihar","latitude":25.5941,"longitude":85.1376,"temp":22.7,"humidity":81,"rain":0.0,"pressure":1000.3,"uv_index":7.55,"wind_gusts":53.3,"aqi":158,"pm10":92.9,"pm2_5":74.5,"mosquito_risk":3,"arthritis_risk":5,"migraine_risk":4,"frizz_risk":1,"updated_at":"2026-03-16T04:01:42.790820+05:30"},{"city":"Gaya","state":"Bihar","latitude":24.7914,"longitude":85.0002,"temp":21.4,"humidity":91,"rain":0.0,"pressure":993.7,"uv_index":7.65,"wind_gusts":45.4,"aqi":143,"pm10":89.6,"pm2_5":62.9,"mosquito_risk":3,"arthritis_risk":5,"migraine_risk":7,"frizz_risk":1,"updated_at":"2026-03-16T04:01:42.790827+05:30"},{"city":"Muzaffarpur","state":"Bihar","latitude":26.1209,"longitude":85.3647,"temp":20.2,"humidity":95,"rain":0.0,"pressure":1000.5,"uv_index":7.5,"wind_gusts":50.8,"aqi":160,"pm10":103.4,"pm2_5":88.9,"mosquito_risk":3,"arthritis_risk":5,"migraine_risk":4,"frizz_risk":1,"updated_at":"2026-03-16T04:01:42.790833+05:30"},{"city":"Bhagalpur","state":"Bihar","latitude":25.2425,"longitude":87.0117,"temp":21.7,"humidity":88,"rain":0.0,"pressure":1001.6,"uv_index":7.55,"wind_gusts":53.6,"aqi":152,"pm10":88.0,"pm2_5":81.7,"mosquito_risk":3,"arthritis_risk":5,"migraine_risk":4,"frizz_risk":1,"updated_at":"2026-03-16T04:01:42.790840+05:30"},{"city":"Ranchi","state":"Jharkhand","latitude":23.3441,"longitude":85.3096,"temp":20.6,"humidity":90,"rain":0.0,"pressure":937.0,"uv_index":7.7,"wind_gusts":37.1,"aqi":124,"pm10":79.4,"pm2_5":69.2,"mosquito_risk":3,"arthritis_risk":5,"migraine_risk":7,"frizz_risk":1,"updated_at":"2026-03-16T04:01:42.790846+05:30"},{"city":"Jamshedpur","state":"Jharkhand","latitude":22.8046,"longitude":86.2029,"temp":23.0,"humidity":84,"rain":0.0,"pressure":991.0,"uv_index":8.05,"wind_gusts":41.0,"aqi":150,"pm10":80.6,"pm2_5":70.8,"mosquito_risk":3,"arthritis_risk":5,"migraine_risk":7,"frizz_risk":1,"updated_at":"2026-03-16T04:01:42.790853+05:30"},{"city":"Dhanbad","state":"Jharkhand","latitude":23.7957,"longitude":86.4304,"temp":22.7,"humidity":79,"rain":0.0,"pressure":978.9,"uv_index":7.55,"wind_gusts":44.6,"aqi":167,"pm10":134.6,"pm2_5":129.0,"mosquito_risk":3,"arthritis_risk":5,"migraine_risk":7,"frizz_risk":1,"updated_at":"2026-03-16T04:01:42.790859+05:30"},{"city":"Bokaro","state":"Jharkhand","latitude":23.6693,"longitude":86.1511,"temp":22.9,"humidity":73,"rain":0.0,"pressure":983.1,"uv_index":7.25,"wind_gusts":33.1,"aqi":158,"pm10":108.0,"pm2_5":99.0,"mosquito_risk":3,"arthritis_risk":5,"migraine_risk":7,"frizz_risk":1,"updated_at":"2026-03-16T04:01:42.790865+05:30"},{"city":"Bhubaneswar","state":"Odisha","latitude":20.2961,"longitude":85.8245,"temp":24.6,"humidity":88,"rain":0.0,"pressure":1003.2,"uv_index":8.5,"wind_gusts":39.6,"aqi":64,"pm10":22.9,"pm2_5":17.9,"mosquito_risk":3,"arthritis_risk":5,"migraine_risk":4,"frizz_risk":1,"updated_at":"2026-03-16T04:01:42.790872+05:30"},{"city":"Cuttack","state":"Odisha","latitude":20.4625,"longitude":85.8828,"temp":24.5,"humidity":91,"rain":0.0,"pressure":1005.3,"uv_index":8.5,"wind_gusts":43.6,"aqi":64,"pm10":22.9,"pm2_5":17.9,"mosquito_risk":3,"arthritis_risk":5,"migraine_risk":4,"frizz_risk":1,"updated_at":"2026-03-16T04:01:42.790878+05:30"},{"city":"Rourkela","state":"Odisha","latitude":22.2604,"longitude":84.8536,"temp":23.7,"humidity":87,"rain":0.0,"pressure":985.2,"uv_index":8.0,"wind_gusts":47.2,"aqi":154,"pm10":75.7,"pm2_5":65.4,"mosquito_risk":3,"arthritis_risk":5,"migraine_risk":7,"frizz_risk":1,"updated_at":"2026-03-16T04:01:42.790884+05:30"},{"city":"Raipur","state":"Chhattisgarh","latitude":21.2514,"longitude":81.6296,"temp":24.4,"humidity":66,"rain":0.0,"pressure":973.6,"uv_index":8.25,"wind_gusts":43.9,"aqi":140,"pm10":64.5,"pm2_5":57.9,"mosquito_risk":3,"arthritis_risk":5,"migraine_risk":7,"frizz_risk":1,"updated_at":"2026-03-16T04:01:42.790890+05:30"},{"city":"Bhilai","state":"Chhattisgarh","latitude":21.1938,"longitude":81.3509,"temp":24.3,"humidity":68,"rain":0.0,"pressure":973.8,"uv_index":8.25,"wind_gusts":44.3,"aqi":134,"pm10":60.5,"pm2_5":54.0,"mosquito_risk":3,"arthritis_risk":5,"migraine_risk":7,"frizz_risk":1,"updated_at":"2026-03-16T04:01:42.790897+05:30"},{"city":"Guwahati","state":"Assam","latitude":26.1158,"longitude":91.7086,"temp":20.5,"humidity":91,"rain":0.0,"pressure":1003.5,"uv_index":7.15,"wind_gusts":33.5,"aqi":79,"pm10":32.5,"pm2_5":27.7,"mosquito_risk":3,"arthritis_risk":5,"migraine_risk":4,"frizz_risk":1,"updated_at":"2026-03-16T04:01:42.790903+05:30"},{"city":"Agartala","state":"Tripura","latitude":23.8315,"longitude":91.2868,"temp":22.6,"humidity":95,"rain":0.0,"pressure":1007.8,"uv_index":7.85,"wind_gusts":37.1,"aqi":61,"pm10":14.0,"pm2_5":11.6,"mosquito_risk":3,"arthritis_risk":5,"migraine_risk":4,"frizz_risk":1,"updated_at":"2026-03-16T04:01:42.790910+05:30"},{"city":"Shillong","state":"Meghalaya","latitude":25.5788,"longitude":91.8933,"temp":12.3,"humidity":94,"rain":0.0,"pressure":855.0,"uv_index":7.9,"wind_gusts":74.2,"aqi":51,"pm10":10.0,"pm2_5":8.2,"mosquito_risk":3,"arthritis_risk":10,"migraine_risk":7,"frizz_risk":0,"updated_at":"2026-03-16T04:01:42.790917+05:30"},{"city":"Imphal","state":"Manipur","latitude":24.817,"longitude":93.9368,"temp":15.5,"humidity":85,"rain":0.1,"pressure":924.1,"uv_index":8.15,"wind_gusts":66.2,"aqi":91,"pm10":39.5,"pm2_5":32.8,"mosquito_risk":6,"arthritis_risk":10,"migraine_risk":7,"frizz_risk":0,"updated_at":"2026-03-16T04:01:42.790924+05:30"},{"city":"Aizawl","state":"Mizoram","latitude":23.7271,"longitude":92.7176,"temp":16.6,"humidity":87,"rain":0.0,"pressure":893.6,"uv_index":8.1,"wind_gusts":48.2,"aqi":84,"pm10":43.9,"pm2_5":29.9,"mosquito_risk":3,"arthritis_risk":10,"migraine_risk":7,"frizz_risk":0,"updated_at":"2026-03-16T04:01:42.790931+05:30"},{"city":"Kohima","state":"Nagaland","latitude":25.6701,"longitude":94.1077,"temp":13.9,"humidity":76,"rain":0.0,"pressure":854.0,"uv_index":7.05,"wind_gusts":100.4,"aqi":72,"pm10":32.6,"pm2_5":25.1,"mosquito_risk":3,"arthritis_risk":5,"migraine_risk":7,"frizz_risk":0,"updated_at":"2026-03-16T04:01:42.790938+05:30"},{"city":"Gangtok","state":"Sikkim","latitude":27.3314,"longitude":88.6138,"temp":11.0,"humidity":77,"rain":0.0,"pressure":833.5,"uv_index":7.8,"wind_gusts":23.4,"aqi":110,"pm10":55.8,"pm2_5":37.1,"mosquito_risk":3,"arthritis_risk":5,"migraine_risk":7,"frizz_risk":0,"updated_at":"2026-03-16T04:01:42.790944+05:30"},{"city":"Siliguri","state":"West Bengal","latitude":26.7271,"longitude":88.3953,"temp":18.6,"humidity":78,"rain":0.0,"pressure":993.9,"uv_index":6.75,"wind_gusts":27.4,"aqi":152,"pm10":100.1,"pm2_5":77.5,"mosquito_risk":3,"arthritis_risk":5,"migraine_risk":7,"frizz_risk":0,"updated_at":"2026-03-16T04:01:46.079831+05:30"},{"city":"Durgapur","state":"West Bengal","latitude":23.5204,"longitude":87.3119,"temp":22.4,"humidity":92,"rain":0.0,"pressure":994.4,"uv_index":7.85,"wind_gusts":33.1,"aqi":150,"pm10":70.8,"pm2_5":65.9,"mosquito_risk":3,"arthritis_risk":5,"migraine_risk":7,"frizz_risk":1,"updated_at":"2026-03-16T04:01:46.079869+05:30"},{"city":"Asansol","state":"West Bengal","latitude":23.6739,"longitude":86.9524,"temp":22.7,"humidity":86,"rain":0.0,"pressure":992.9,"uv_index":7.8,"wind_gusts":39.2,"aqi":155,"pm10":94.1,"pm2_5":89.4,"mosquito_risk":3,"arthritis_risk":5,"migraine_risk":7,"frizz_risk":1,"updated_at":"2026-03-16T04:01:46.079879+05:30"},{"city":"Pondicherry","state":"Puducherry","latitude":11.9139,"longitude":79.8145,"temp":24.0,"humidity":97,"rain":0.0,"pressure":1009.3,"uv_index":9.05,"wind_gusts":31.7,"aqi":30,"pm10":10.2,"pm2_5":7.1,"mosquito_risk":3,"arthritis_risk":0,"migraine_risk":4,"frizz_risk":1,"updated_at":"2026-03-16T04:01:46.079886+05:30"},{"city":"Port Blair","state":"Andaman and Nicobar Islands","latitude":11.6234,"longitude":92.7265,"temp":27.7,"humidity":80,"rain":0.0,"pressure":1007.3,"uv_index":9.0,"wind_gusts":22.7,"aqi":83,"pm10":20.3,"pm2_5":16.4,"mosquito_risk":7,"arthritis_risk":5,"migraine_risk":4,"frizz_risk":1,"updated_at":"2026-03-16T04:01:46.079894+05:30"},{"city":"Haridwar","state":"Uttarakhand","latitude":29.9457,"longitude":78.1642,"temp":17.0,"humidity":73,"rain":0.0,"pressure":976.1,"uv_index":5.85,"wind_gusts":51.8,"aqi":77,"pm10":18.9,"pm2_5":14.7,"mosquito_risk":3,"arthritis_risk":5,"migraine_risk":3,"frizz_risk":0,"updated_at":"2026-03-16T04:01:46.079902+05:30"},{"city":"Rishikesh","state":"Uttarakhand","latitude":30.0869,"longitude":78.2676,"temp":15.5,"humidity":75,"rain":0.0,"pressure":968.6,"uv_index":5.95,"wind_gusts":44.6,"aqi":63,"pm10":18.3,"pm2_5":10.8,"mosquito_risk":3,"arthritis_risk":5,"migraine_risk":3,"frizz_risk":0,"updated_at":"2026-03-16T04:01:46.079909+05:30"},{"city":"Nainital","state":"Uttarakhand","latitude":29.3919,"longitude":79.4542,"temp":13.0,"humidity":54,"rain":0.3,"pressure":804.2,"uv_index":6.75,"wind_gusts":68.8,"aqi":70,"pm10":25.9,"pm2_5":11.7,"mosquito_risk":3,"arthritis_risk":5,"migraine_risk":7,"frizz_risk":0,"updated_at":"2026-03-16T04:01:46.079917+05:30"},{"city":"Mussoorie","state":"Uttarakhand","latitude":30.4599,"longitude":78.0664,"temp":9.4,"humidity":67,"rain":0.0,"pressure":799.2,"uv_index":6.25,"wind_gusts":58.3,"aqi":67,"pm10":19.2,"pm2_5":11.0,"mosquito_risk":3,"arthritis_risk":5,"migraine_risk":7,"frizz_risk":0,"updated_at":"2026-03-16T04:01:46.079924+05:30"},{"city":"Dharamshala","state":"Himachal Pradesh","latitude":32.219,"longitude":76.3234,"temp":12.6,"humidity":61,"rain":0.0,"pressure":866.0,"uv_index":6.05,"wind_gusts":34.9,"aqi":46,"pm10":8.0,"pm2_5":3.3,"mosquito_risk":3,"arthritis_risk":5,"migraine_risk":7,"frizz_risk":0,"updated_at":"2026-03-16T04:01:46.079931+05:30"},{"city":"Dalhousie","state":"Himachal Pradesh","latitude":32.5387,"longitude":75.971,"temp":8.1,"humidity":67,"rain":0.0,"pressure":798.5,"uv_index":3.9,"wind_gusts":28.1,"aqi":71,"pm10":14.3,"pm2_5":10.4,"mosquito_risk":3,"arthritis_risk":5,"migraine_risk":3,"frizz_risk":0,"updated_at":"2026-03-16T04:01:46.079939+05:30"},{"city":"Patiala","state":"Punjab","latitude":30.3398,"longitude":76.3869,"temp":13.6,"humidity":92,"rain":0.0,"pressure":979.1,"uv_index":5.9,"wind_gusts":47.9,"aqi":93,"pm10":39.3,"pm2_5":27.2,"mosquito_risk":3,"arthritis_risk":10,"migraine_risk":3,"frizz_risk":0,"updated_at":"2026-03-16T04:01:46.079946+05:30"},{"city":"Bhatinda","state":"Punjab","latitude":30.211,"longitude":74.9455,"temp":15.6,"humidity":90,"rain":0.0,"pressure":982.3,"uv_index":6.6,"wind_gusts":31.7,"aqi":88,"pm10":31.5,"pm2_5":24.0,"mosquito_risk":3,"arthritis_risk":10,"migraine_risk":7,"frizz_risk":0,"updated_at":"2026-03-16T04:01:46.079952+05:30"},{"city":"Rohtak","state":"Haryana","latitude":28.8955,"longitude":76.6066,"temp":15.8,"humidity":85,"rain":0.0,"pressure":982.9,"uv_index":6.15,"wind_gusts":47.5,"aqi":222,"pm10":420.0,"pm2_5":65.7,"mosquito_risk":3,"arthritis_risk":10,"migraine_risk":7,"frizz_risk":0,"updated_at":"2026-03-16T04:01:46.079959+05:30"},{"city":"Panipat","state":"Haryana","latitude":29.3909,"longitude":76.9635,"temp":15.3,"humidity":85,"rain":0.0,"pressure":981.6,"uv_index":5.9,"wind_gusts":49.7,"aqi":124,"pm10":253.3,"pm2_5":41.2,"mosquito_risk":3,"arthritis_risk":10,"migraine_risk":3,"frizz_risk":0,"updated_at":"2026-03-16T04:01:46.079965+05:30"},{"city":"Mathura","state":"Uttar Pradesh","latitude":27.4924,"longitude":77.6737,"temp":17.1,"humidity":85,"rain":0.0,"pressure":988.0,"uv_index":6.4,"wind_gusts":34.6,"aqi":862,"pm10":1192.1,"pm2_5":139.7,"mosquito_risk":3,"arthritis_risk":10,"migraine_risk":7,"frizz_risk":0,"updated_at":"2026-03-16T04:01:46.079973+05:30"},{"city":"Vrindavan","state":"Uttar Pradesh","latitude":27.5823,"longitude":77.7027,"temp":16.7,"humidity":88,"rain":0.0,"pressure":988.4,"uv_index":6.35,"wind_gusts":38.2,"aqi":862,"pm10":1192.1,"pm2_5":139.7,"mosquito_risk":3,"arthritis_risk":10,"migraine_risk":7,"frizz_risk":0,"updated_at":"2026-03-16T04:01:46.079979+05:30"},{"city":"Ayodhya","state":"Uttar Pradesh","latitude":26.7922,"longitude":82.1998,"temp":19.5,"humidity":68,"rain":0.0,"pressure":994.9,"uv_index":6.6,"wind_gusts":57.6,"aqi":121,"pm10":64.5,"pm2_5":55.5,"mosquito_risk":3,"arthritis_risk":5,"migraine_risk":7,"frizz_risk":0,"updated_at":"2026-03-16T04:01:46.079986+05:30"},{"city":"Ratlam","state":"Madhya Pradesh","latitude":23.3315,"longitude":75.0367,"temp":22.3,"humidity":46,"rain":0.0,"pressure":953.9,"uv_index":7.6,"wind_gusts":34.2,"aqi":64,"pm10":29.9,"pm2_5":16.9,"mosquito_risk":0,"arthritis_risk":5,"migraine_risk":7,"frizz_risk":0,"updated_at":"2026-03-16T04:01:46.079993+05:30"},{"city":"Sagar","state":"Madhya Pradesh","latitude":23.8388,"longitude":78.7378,"temp":24.0,"humidity":36,"rain":0.0,"pressure":948.6,"uv_index":7.6,"wind_gusts":30.6,"aqi":52,"pm10":19.2,"pm2_5":12.6,"mosquito_risk":0,"arthritis_risk":5,"migraine_risk":7,"frizz_risk":0,"updated_at":"2026-03-16T04:01:46.079999+05:30"},{"city":"Satna","state":"Madhya Pradesh","latitude":24.6005,"longitude":80.8322,"temp":21.8,"humidity":67,"rain":0.0,"pressure":970.3,"uv_index":7.6,"wind_gusts":43.6,"aqi":75,"pm10":45.8,"pm2_5":33.3,"mosquito_risk":3,"arthritis_risk":5,"migraine_risk":7,"frizz_risk":0,"updated_at":"2026-03-16T04:01:46.080006+05:30"},{"city":"Akola","state":"Maharashtra","latitude":20.7002,"longitude":77.0082,"temp":24.3,"humidity":55,"rain":0.0,"pressure":974.0,"uv_index":8.0,"wind_gusts":24.8,"aqi":78,"pm10":26.8,"pm2_5":18.5,"mosquito_risk":0,"arthritis_risk":5,"migraine_risk":7,"frizz_risk":0,"updated_at":"2026-03-16T04:01:46.080013+05:30"},{"city":"Amravati","state":"Maharashtra","latitude":20.9374,"longitude":77.7796,"temp":23.5,"humidity":59,"rain":0.0,"pressure":966.0,"uv_index":7.8,"wind_gusts":29.9,"aqi":82,"pm10":29.5,"pm2_5":21.5,"mosquito_risk":0,"arthritis_risk":5,"migraine_risk":7,"frizz_risk":0,"updated_at":"2026-03-16T04:01:46.080019+05:30"},{"city":"Latur","state":"Maharashtra","latitude":18.4088,"longitude":76.5604,"temp":21.1,"humidity":64,"rain":0.0,"pressure":938.7,"uv_index":8.55,"wind_gusts":20.9,"aqi":106,"pm10":49.2,"pm2_5":42.4,"mosquito_risk":3,"arthritis_risk":5,"migraine_risk":7,"frizz_risk":0,"updated_at":"2026-03-16T04:01:46.080026+05:30"},{"city":"Nanded","state":"Maharashtra","latitude":19.1383,"longitude":77.3091,"temp":23.1,"humidity":56,"rain":0.0,"pressure":967.4,"uv_index":8.25,"wind_gusts":20.5,"aqi":124,"pm10":64.3,"pm2_5":56.2,"mosquito_risk":0,"arthritis_risk":5,"migraine_risk":7,"frizz_risk":0,"updated_at":"2026-03-16T04:01:46.080032+05:30"},{"city":"Gulbarga","state":"Karnataka","latitude":17.3297,"longitude":76.8343,"temp":25.3,"humidity":60,"rain":0.0,"pressure":958.1,"uv_index":8.65,"wind_gusts":22.0,"aqi":118,"pm10":45.2,"pm2_5":40.3,"mosquito_risk":4,"arthritis_risk":5,"migraine_risk":7,"frizz_risk":1,"updated_at":"2026-03-16T04:01:46.080039+05:30"},{"city":"Bidar","state":"Karnataka","latitude":17.9104,"longitude":77.5199,"temp":23.9,"humidity":64,"rain":0.0,"pressure":934.6,"uv_index":8.65,"wind_gusts":41.0,"aqi":107,"pm10":43.5,"pm2_5":37.8,"mosquito_risk":3,"arthritis_risk":5,"migraine_risk":7,"frizz_risk":1,"updated_at":"2026-03-16T04:01:46.080045+05:30"},{"city":"Hospet","state":"Karnataka","latitude":15.2689,"longitude":76.3909,"temp":25.5,"humidity":77,"rain":0.0,"pressure":955.7,"uv_index":8.9,"wind_gusts":19.1,"aqi":121,"pm10":50.5,"pm2_5":48.4,"mosquito_risk":7,"arthritis_risk":5,"migraine_risk":7,"frizz_risk":1,"updated_at":"2026-03-16T04:01:46.080051+05:30"},{"city":"Tirupur","state":"Tamil Nadu","latitude":11.1085,"longitude":77.3411,"temp":24.4,"humidity":87,"rain":0.0,"pressure":975.7,"uv_index":9.3,"wind_gusts":40.0,"aqi":60,"pm10":25.9,"pm2_5":23.9,"mosquito_risk":3,"arthritis_risk":5,"migraine_risk":7,"frizz_risk":1,"updated_at":"2026-03-16T04:01:46.080057+05:30"},{"city":"Alappuzha","state":"Kerala","latitude":9.4981,"longitude":76.3388,"temp":26.1,"humidity":87,"rain":0.0,"pressure":1009.1,"uv_index":9.1,"wind_gusts":32.4,"aqi":70,"pm10":25.8,"pm2_5":23.7,"mosquito_risk":7,"arthritis_risk":0,"migraine_risk":4,"frizz_risk":1,"updated_at":"2026-03-16T04:01:46.080064+05:30"},{"city":"Munnar","state":"Kerala","latitude":10.0889,"longitude":77.0595,"temp":17.6,"humidity":91,"rain":0.0,"pressure":855.0,"uv_index":9.6,"wind_gusts":30.2,"aqi":63,"pm10":31.7,"pm2_5":30.3,"mosquito_risk":3,"arthritis_risk":10,"migraine_risk":7,"frizz_risk":1,"updated_at":"2026-03-16T04:01:46.080071+05:30"},{"city":"Silchar","state":"Assam","latitude":24.8333,"longitude":92.7789,"temp":20.0,"humidity":95,"rain":0.0,"pressure":1008.3,"uv_index":7.9,"wind_gusts":37.1,"aqi":88,"pm10":25.6,"pm2_5":22.8,"mosquito_risk":3,"arthritis_risk":0,"migraine_risk":4,"frizz_risk":1,"updated_at":"2026-03-16T04:01:46.080077+05:30"},{"city":"Dibrugarh","state":"Assam","latitude":27.4728,"longitude":94.912,"temp":17.9,"humidity":95,"rain":1.2,"pressure":997.9,"uv_index":5.0,"wind_gusts":36.7,"aqi":79,"pm10":35.5,"pm2_5":25.0,"mosquito_risk":6,"arthritis_risk":10,"migraine_risk":3,"frizz_risk":1,"updated_at":"2026-03-16T04:01:46.080084+05:30"}]