[{"city":"Delhi","state":"Delhi","latitude":28.6139,"longitude":77.209,"temp":32.2,"humidity":22,"rain":0.0,"pressure":977.1,"uv_index":7.75,"wind_gusts":36.7,"aqi":484,"pm10":553.2,"pm2_5":146.7,"no2":30.3,"co":451.0,"o3":50.0,"so2":15.1,"mosquito_risk":0,"arthritis_risk":5,"migraine_risk":7,"frizz_risk":0,"updated_at":"2026-05-27T03:52:01.659568+05:30"},{"city":"Mumbai","state":"Maharashtra","latitude":19.076,"longitude":72.8777,"temp":29.8,"humidity":75,"rain":0.0,"pressure":1008.3,"uv_index":7.8,"wind_gusts":40.0,"aqi":42,"pm10":12.9,"pm2_5":8.6,"no2":5.7,"co":170.0,"o3":42.0,"so2":3.8,"mosquito_risk":7,"arthritis_risk":0,"migraine_risk":4,"frizz_risk":1,"updated_at":"2026-05-27T03:52:01.659627+05:30"},{"city":"Bangalore","state":"Karnataka","latitude":12.9716,"longitude":77.5946,"temp":21.5,"humidity":93,"rain":0.0,"pressure":910.9,"uv_index":9.25,"wind_gusts":30.6,"aqi":82,"pm10":29.8,"pm2_5":27.5,"no2":24.1,"co":325.0,"o3":48.0,"so2":6.9,"mosquito_risk":3,"arthritis_risk":5,"migraine_risk":7,"frizz_risk":1,"updated_at":"2026-05-27T03:52:01.659644+05:30"},{"city":"Hyderabad","state":"Telangana","latitude":17.385,"longitude":78.4867,"temp":29.6,"humidity":51,"rain":0.0,"pressure":952.2,"uv_index":8.85,"wind_gusts":40.3,"aqi":102,"pm10":17.2,"pm2_5":14.6,"no2":7.3,"co":197.0,"o3":76.0,"so2":6.8,"mosquito_risk":4,"arthritis_risk":5,"migraine_risk":7,"frizz_risk":1,"updated_at":"2026-05-27T03:52:01.659656+05:30"},{"city":"Chennai","state":"Tamil Nadu","latitude":13.0827,"longitude":80.2707,"temp":29.6,"humidity":57,"rain":0.0,"pressure":1004.6,"uv_index":8.55,"wind_gusts":36.0,"aqi":83,"pm10":26.8,"pm2_5":23.6,"no2":19.1,"co":250.0,"o3":51.0,"so2":13.9,"mosquito_risk":4,"arthritis_risk":5,"migraine_risk":4,"frizz_risk":1,"updated_at":"2026-05-27T03:52:01.659666+05:30"},{"city":"Kolkata","state":"West Bengal","latitude":22.5726,"longitude":88.3639,"temp":29.2,"humidity":87,"rain":0.0,"pressure":1002.2,"uv_index":8.9,"wind_gusts":38.9,"aqi":122,"pm10":42.5,"pm2_5":35.7,"no2":6.2,"co":254.0,"o3":87.0,"so2":5.9,"mosquito_risk":7,"arthritis_risk":5,"migraine_risk":4,"frizz_risk":1,"updated_at":"2026-05-27T03:52:01.659675+05:30"},{"city":"Pune","state":"Maharashtra","latitude":18.5204,"longitude":73.8567,"temp":24.6,"humidity":87,"rain":0.0,"pressure":948.1,"uv_index":8.4,"wind_gusts":41.0,"aqi":40,"pm10":10.6,"pm2_5":8.5,"no2":12.0,"co":137.0,"o3":32.0,"so2":10.5,"mosquito_risk":3,"arthritis_risk":5,"migraine_risk":7,"frizz_risk":1,"updated_at":"2026-05-27T03:52:01.659683+05:30"},{"city":"Ahmedabad","state":"Gujarat","latitude":23.0225,"longitude":72.5714,"temp":29.8,"humidity":73,"rain":0.0,"pressure":1000.6,"uv_index":8.15,"wind_gusts":36.0,"aqi":81,"pm10":36.9,"pm2_5":18.2,"no2":4.1,"co":131.0,"o3":49.0,"so2":3.7,"mosquito_risk":7,"arthritis_risk":5,"migraine_risk":4,"frizz_risk":1,"updated_at":"2026-05-27T03:52:01.659692+05:30"},{"city":"Jaipur","state":"Rajasthan","latitude":26.9124,"longitude":75.7873,"temp":32.8,"humidity":31,"rain":0.0,"pressure":955.8,"uv_index":8.25,"wind_gusts":48.2,"aqi":158,"pm10":380.0,"pm2_5":74.0,"no2":4.0,"co":161.0,"o3":79.0,"so2":4.3,"mosquito_risk":0,"arthritis_risk":5,"migraine_risk":7,"frizz_risk":0,"updated_at":"2026-05-27T03:52:01.659708+05:30"},{"city":"Lucknow","state":"Uttar Pradesh","latitude":26.8467,"longitude":80.9462,"temp":28.6,"humidity":63,"rain":0.0,"pressure":988.0,"uv_index":8.2,"wind_gusts":29.9,"aqi":171,"pm10":302.7,"pm2_5":85.0,"no2":31.7,"co":418.0,"o3":49.0,"so2":12.3,"mosquito_risk":7,"arthritis_risk":5,"migraine_risk":7,"frizz_risk":1,"updated_at":"2026-05-27T03:52:01.659717+05:30"},{"city":"Kanpur","state":"Uttar Pradesh","latitude":26.4499,"longitude":80.3319,"temp":31.4,"humidity":27,"rain":0.0,"pressure":985.5,"uv_index":8.2,"wind_gusts":36.0,"aqi":479,"pm10":586.7,"pm2_5":117.1,"no2":23.9,"co":477.0,"o3":55.0,"so2":8.7,"mosquito_risk":0,"arthritis_risk":5,"migraine_risk":7,"frizz_risk":0,"updated_at":"2026-05-27T03:52:01.659725+05:30"},{"city":"Chandigarh","state":"Chandigarh","latitude":30.7333,"longitude":76.7794,"temp":26.9,"humidity":28,"rain":0.0,"pressure":962.0,"uv_index":7.8,"wind_gusts":41.0,"aqi":59,"pm10":25.1,"pm2_5":20.6,"no2":23.6,"co":252.0,"o3":47.0,"so2":5.8,"mosquito_risk":4,"arthritis_risk":5,"migraine_risk":7,"frizz_risk":0,"updated_at":"2026-05-27T03:52:01.659733+05:30"},{"city":"Srinagar","state":"Jammu and Kashmir","latitude":34.0837,"longitude":74.7973,"temp":10.3,"humidity":90,"rain":0.0,"pressure":839.5,"uv_index":9.0,"wind_gusts":23.0,"aqi":72,"pm10":43.5,"pm2_5":38.2,"no2":25.8,"co":296.0,"o3":40.0,"so2":2.6,"mosquito_risk":3,"arthritis_risk":10,"migraine_risk":7,"frizz_risk":0,"updated_at":"2026-05-27T03:52:01.659743+05:30"},{"city":"Jammu","state":"Jammu and Kashmir","latitude":32.7266,"longitude":74.857,"temp":25.1,"humidity":33,"rain":0.0,"pressure":966.5,"uv_index":8.6,"wind_gusts":48.6,"aqi":65,"pm10":25.5,"pm2_5":22.5,"no2":27.9,"co":348.0,"o3":20.0,"so2":2.2,"mosquito_risk":4,"arthritis_risk":5,"migraine_risk":7,"frizz_risk":0,"updated_at":"2026-05-27T03:52:01.659751+05:30"},{"city":"Amritsar","state":"Punjab","latitude":31.634,"longitude":74.8723,"temp":28.2,"humidity":34,"rain":0.0,"pressure":975.1,"uv_index":8.45,"wind_gusts":31.3,"aqi":92,"pm10":72.9,"pm2_5":66.6,"no2":58.9,"co":478.0,"o3":7.0,"so2":9.7,"mosquito_risk":4,"arthritis_risk":5,"migraine_risk":7,"frizz_risk":0,"updated_at":"2026-05-27T03:52:01.659758+05:30"},{"city":"Ludhiana","state":"Punjab","latitude":30.901,"longitude":75.8573,"temp":28.4,"humidity":29,"rain":0.0,"pressure":972.9,"uv_index":8.05,"wind_gusts":38.9,"aqi":68,"pm10":36.1,"pm2_5":32.9,"no2":25.4,"co":494.0,"o3":44.0,"so2":6.8,"mosquito_risk":4,"arthritis_risk":5,"migraine_risk":7,"frizz_risk":0,"updated_at":"2026-05-27T03:52:01.659768+05:30"},{"city":"Jalandhar","state":"Punjab","latitude":31.326,"longitude":75.5762,"temp":28.0,"humidity":30,"rain":0.0,"pressure":973.7,"uv_index":8.25,"wind_gusts":36.4,"aqi":81,"pm10":56.3,"pm2_5":46.7,"no2":37.8,"co":442.0,"o3":38.0,"so2":7.6,"mosquito_risk":4,"arthritis_risk":5,"migraine_risk":7,"frizz_risk":0,"updated_at":"2026-05-27T03:52:01.659775+05:30"},{"city":"Dehradun","state":"Uttarakhand","latitude":30.6284,"longitude":78.0322,"temp":12.7,"humidity":55,"rain":0.0,"pressure":823.8,"uv_index":8.2,"wind_gusts":41.8,"aqi":52,"pm10":14.5,"pm2_5":11.6,"no2":26.0,"co":196.0,"o3":13.0,"so2":0.3,"mosquito_risk":0,"arthritis_risk":5,"migraine_risk":7,"frizz_risk":0,"updated_at":"2026-05-27T03:52:01.659790+05:30"},{"city":"Shimla","state":"Himachal Pradesh","latitude":31.1048,"longitude":77.1734,"temp":12.7,"humidity":38,"rain":0.0,"pressure":779.1,"uv_index":8.3,"wind_gusts":54.7,"aqi":49,"pm10":22.3,"pm2_5":13.9,"no2":19.6,"co":169.0,"o3":69.0,"so2":1.3,"mosquito_risk":0,"arthritis_risk":5,"migraine_risk":7,"frizz_risk":1,"updated_at":"2026-05-27T03:52:01.659800+05:30"},{"city":"Manali","state":"Himachal Pradesh","latitude":32.2396,"longitude":77.1887,"temp":9.8,"humidity":43,"rain":0.0,"pressure":811.9,"uv_index":9.65,"wind_gusts":50.0,"aqi":44,"pm10":12.9,"pm2_5":8.8,"no2":31.0,"co":178.0,"o3":104.0,"so2":0.0,"mosquito_risk":0,"arthritis_risk":5,"migraine_risk":7,"frizz_risk":1,"updated_at":"2026-05-27T03:52:01.659808+05:30"},{"city":"Gurgaon","state":"Haryana","latitude":28.4595,"longitude":77.0266,"temp":28.8,"humidity":32,"rain":0.0,"pressure":975.3,"uv_index":7.85,"wind_gusts":36.4,"aqi":900,"pm10":584.9,"pm2_5":132.7,"no2":43.4,"co":450.0,"o3":36.0,"so2":20.6,"mosquito_risk":4,"arthritis_risk":5,"migraine_risk":7,"frizz_risk":0,"updated_at":"2026-05-27T03:52:01.659815+05:30"},{"city":"Noida","state":"Uttar Pradesh","latitude":28.5355,"longitude":77.391,"temp":31.3,"humidity":27,"rain":0.0,"pressure":978.2,"uv_index":7.75,"wind_gusts":30.2,"aqi":900,"pm10":584.9,"pm2_5":132.7,"no2":43.4,"co":498.0,"o3":36.0,"so2":20.6,"mosquito_risk":0,"arthritis_risk":5,"migraine_risk":7,"frizz_risk":0,"updated_at":"2026-05-27T03:52:01.659823+05:30"},{"city":"Ghaziabad","state":"Uttar Pradesh","latitude":28.6692,"longitude":77.4538,"temp":30.4,"humidity":29,"rain":0.0,"pressure":976.5,"uv_index":7.75,"wind_gusts":35.3,"aqi":329,"pm10":423.8,"pm2_5":116.6,"no2":22.9,"co":386.0,"o3":60.0,"so2":13.1,"mosquito_risk":0,"arthritis_risk":5,"migraine_risk":7,"frizz_risk":0,"updated_at":"2026-05-27T03:52:01.659830+05:30"},{"city":"Faridabad","state":"Haryana","latitude":28.4089,"longitude":77.3178,"temp":32.2,"humidity":21,"rain":0.0,"pressure":977.6,"uv_index":7.8,"wind_gusts":38.5,"aqi":900,"pm10":584.9,"pm2_5":132.7,"no2":43.4,"co":579.0,"o3":36.0,"so2":20.6,"mosquito_risk":0,"arthritis_risk":5,"migraine_risk":7,"frizz_risk":0,"updated_at":"2026-05-27T03:52:01.659837+05:30"},{"city":"Meerut","state":"Uttar Pradesh","latitude":28.9845,"longitude":77.7064,"temp":29.9,"humidity":25,"rain":0.0,"pressure":975.1,"uv_index":7.7,"wind_gusts":27.4,"aqi":329,"pm10":423.8,"pm2_5":116.6,"no2":22.9,"co":333.0,"o3":60.0,"so2":13.1,"mosquito_risk":4,"arthritis_risk":5,"migraine_risk":7,"frizz_risk":0,"updated_at":"2026-05-27T03:52:01.659845+05:30"},{"city":"Agra","state":"Uttar Pradesh","latitude":27.1767,"longitude":78.0081,"temp":32.0,"humidity":32,"rain":0.0,"pressure":981.8,"uv_index":8.1,"wind_gusts":37.1,"aqi":756,"pm10":244.0,"pm2_5":84.5,"no2":50.0,"co":629.0,"o3":19.0,"so2":15.4,"mosquito_risk":0,"arthritis_risk":5,"migraine_risk":7,"frizz_risk":0,"updated_at":"2026-05-27T03:52:01.659852+05:30"},{"city":"Varanasi","state":"Uttar Pradesh","latitude":25.3176,"longitude":82.9739,"temp":29.5,"humidity":69,"rain":0.0,"pressure":992.0,"uv_index":8.7,"wind_gusts":36.0,"aqi":145,"pm10":58.7,"pm2_5":48.9,"no2":16.4,"co":494.0,"o3":87.0,"so2":18.1,"mosquito_risk":7,"arthritis_risk":5,"migraine_risk":7,"frizz_risk":1,"updated_at":"2026-05-27T03:52:01.659860+05:30"},{"city":"Prayagraj","state":"Uttar Pradesh","latitude":25.4358,"longitude":81.8463,"temp":30.3,"humidity":52,"rain":0.0,"pressure":990.3,"uv_index":8.55,"wind_gusts":52.6,"aqi":151,"pm10":101.7,"pm2_5":60.3,"no2":37.1,"co":548.0,"o3":49.0,"so2":16.0,"mosquito_risk":0,"arthritis_risk":5,"migraine_risk":7,"frizz_risk":1,"updated_at":"2026-05-27T03:52:01.659867+05:30"},{"city":"Gorakhpur","state":"Uttar Pradesh","latitude":26.7606,"longitude":83.3732,"temp":24.9,"humidity":77,"rain":0.0,"pressure":993.6,"uv_index":8.55,"wind_gusts":37.4,"aqi":104,"pm10":52.7,"pm2_5":36.8,"no2":20.5,"co":334.0,"o3":64.0,"so2":6.5,"mosquito_risk":3,"arthritis_risk":5,"migraine_risk":7,"frizz_risk":1,"updated_at":"2026-05-27T03:52:01.659876+05:30"},{"city":"Bareilly","state":"Uttar Pradesh","latitude":28.367,"longitude":79.4304,"temp":27.1,"humidity":39,"rain":0.0,"pressure":980.2,"uv_index":8.0,"wind_gusts":31.3,"aqi":151,"pm10":210.9,"pm2_5":74.3,"no2":42.7,"co":483.0,"o3":34.0,"so2":12.5,"mosquito_risk":4,"arthritis_risk":5,"migraine_risk":7,"frizz_risk":0,"updated_at":"2026-05-27T03:52:01.659884+05:30"},{"city":"Aligarh","state":"Uttar Pradesh","latitude":27.8974,"longitude":78.088,"temp":29.3,"humidity":36,"rain":0.0,"pressure":979.1,"uv_index":7.9,"wind_gusts":33.8,"aqi":668,"pm10":412.6,"pm2_5":115.7,"no2":50.7,"co":560.0,"o3":18.0,"so2":14.3,"mosquito_risk":4,"arthritis_risk":5,"migraine_risk":7,"frizz_risk":0,"updated_at":"2026-05-27T03:52:01.659891+05:30"},{"city":"Moradabad","state":"Uttar Pradesh","latitude":28.8386,"longitude":78.7733,"temp":28.5,"humidity":27,"rain":0.0,"pressure":977.0,"uv_index":7.85,"wind_gusts":33.1,"aqi":156,"pm10":209.5,"pm2_5":72.4,"no2":32.7,"co":481.0,"o3":41.0,"so2":9.6,"mosquito_risk":4,"arthritis_risk":5,"migraine_risk":7,"frizz_risk":0,"updated_at":"2026-05-27T03:52:01.659899+05:30"},{"city":"Saharanpur","state":"Uttar Pradesh","latitude":29.9637,"longitude":77.546,"temp":28.9,"humidity":20,"rain":0.0,"pressure":968.7,"uv_index":7.5,"wind_gusts":35.3,"aqi":81,"pm10":29.7,"pm2_5":20.7,"no2":18.5,"co":233.0,"o3":67.0,"so2":8.7,"mosquito_risk":4,"arthritis_risk":5,"migraine_risk":7,"frizz_risk":0,"updated_at":"2026-05-27T03:52:01.659906+05:30"},{"city":"Jhansi","state":"Uttar Pradesh","latitude":25.4484,"longitude":78.5685,"temp":32.5,"humidity":27,"rain":0.0,"pressure":973.1,"uv_index":8.45,"wind_gusts":52.6,"aqi":89,"pm10":62.6,"pm2_5":32.8,"no2":11.5,"co":198.0,"o3":42.0,"so2":4.8,"mosquito_risk":0,"arthritis_risk":5,"migraine_risk":7,"frizz_risk":0,"updated_at":"2026-05-27T03:52:04.931057+05:30"},{"city":"Surat","state":"Gujarat","latitude":21.1702,"longitude":72.8311,"temp":29.2,"humidity":80,"rain":0.0,"pressure":1006.2,"uv_index":7.7,"wind_gusts":45.7,"aqi":68,"pm10":50.6,"pm2_5":25.2,"no2":18.7,"co":275.0,"o3":34.0,"so2":31.5,"mosquito_risk":7,"arthritis_risk":5,"migraine_risk":4,"frizz_risk":1,"updated_at":"2026-05-27T03:52:04.931093+05:30"},{"city":"Vadodara","state":"Gujarat","latitude":22.3072,"longitude":73.1812,"temp":29.8,"humidity":77,"rain":0.0,"pressure":1003.0,"uv_index":8.05,"wind_gusts":40.7,"aqi":71,"pm10":34.9,"pm2_5":20.6,"no2":11.7,"co":173.0,"o3":36.0,"so2":12.2,"mosquito_risk":7,"arthritis_risk":5,"migraine_risk":4,"frizz_risk":1,"updated_at":"2026-05-27T03:52:04.931104+05:30"},{"city":"Rajkot","state":"Gujarat","latitude":22.3039,"longitude":70.8022,"temp":27.6,"humidity":80,"rain":0.0,"pressure":992.8,"uv_index":7.75,"wind_gusts":47.5,"aqi":69,"pm10":38.0,"pm2_5":16.6,"no2":4.7,"co":115.0,"o3":43.0,"so2":4.8,"mosquito_risk":7,"arthritis_risk":5,"migraine_risk":7,"frizz_risk":1,"updated_at":"2026-05-27T03:52:04.931113+05:30"},{"city":"Thane","state":"Maharashtra","latitude":19.2183,"longitude":72.9781,"temp":28.9,"humidity":84,"rain":0.0,"pressure":1007.6,"uv_index":7.85,"wind_gusts":38.2,"aqi":42,"pm10":12.9,"pm2_5":8.6,"no2":5.7,"co":327.0,"o3":42.0,"so2":3.8,"mosquito_risk":7,"arthritis_risk":5,"migraine_risk":4,"frizz_risk":1,"updated_at":"2026-05-27T03:52:04.931120+05:30"},{"city":"Nagpur","state":"Maharashtra","latitude":21.1458,"longitude":79.0882,"temp":34.3,"humidity":32,"rain":0.0,"pressure":969.5,"uv_index":8.9,"wind_gusts":44.3,"aqi":79,"pm10":37.1,"pm2_5":25.6,"no2":11.3,"co":265.0,"o3":65.0,"so2":6.8,"mosquito_risk":0,"arthritis_risk":5,"migraine_risk":7,"frizz_risk":0,"updated_at":"2026-05-27T03:52:04.931128+05:30"},{"city":"Nashik","state":"Maharashtra","latitude":19.9975,"longitude":73.7898,"temp":24.4,"humidity":91,"rain":0.0,"pressure":945.4,"uv_index":8.15,"wind_gusts":40.0,"aqi":25,"pm10":8.4,"pm2_5":6.4,"no2":7.3,"co":127.0,"o3":32.0,"so2":3.5,"mosquito_risk":3,"arthritis_risk":5,"migraine_risk":7,"frizz_risk":1,"updated_at":"2026-05-27T03:52:04.931134+05:30"},{"city":"Aurangabad","state":"Maharashtra","latitude":19.8762,"longitude":75.3433,"temp":27.0,"humidity":75,"rain":0.0,"pressure":943.3,"uv_index":9.0,"wind_gusts":41.0,"aqi":40,"pm10":9.4,"pm2_5":7.1,"no2":9.0,"co":150.0,"o3":37.0,"so2":6.4,"mosquito_risk":7,"arthritis_risk":5,"migraine_risk":7,"frizz_risk":1,"updated_at":"2026-05-27T03:52:04.931142+05:30"},{"city":"Solapur","state":"Maharashtra","latitude":17.6599,"longitude":75.9064,"temp":28.8,"humidity":66,"rain":0.0,"pressure":957.0,"uv_index":8.95,"wind_gusts":38.9,"aqi":51,"pm10":12.6,"pm2_5":10.6,"no2":10.8,"co":211.0,"o3":41.0,"so2":4.0,"mosquito_risk":7,"arthritis_risk":5,"migraine_risk":7,"frizz_risk":1,"updated_at":"2026-05-27T03:52:04.931149+05:30"},{"city":"Kolhapur","state":"Maharashtra","latitude":16.705,"longitude":74.2433,"temp":24.5,"humidity":90,"rain":0.0,"pressure":948.1,"uv_index":8.8,"wind_gusts":41.8,"aqi":30,"pm10":7.3,"pm2_5":5.8,"no2":5.7,"co":147.0,"o3":36.0,"so2":2.4,"mosquito_risk":3,"arthritis_risk":5,"migraine_risk":7,"frizz_risk":1,"updated_at":"2026-05-27T03:52:04.931156+05:30"},{"city":"Goa","state":"Goa","latitude":15.2993,"longitude":74.124,"temp":26.6,"humidity":97,"rain":0.0,"pressure":998.4,"uv_index":5.85,"wind_gusts":29.2,"aqi":46,"pm10":17.6,"pm2_5":15.5,"no2":10.7,"co":307.0,"o3":35.0,"so2":2.2,"mosquito_risk":7,"arthritis_risk":5,"migraine_risk":3,"frizz_risk":1,"updated_at":"2026-05-27T03:52:04.931164+05:30"},{"city":"Jodhpur","state":"Rajasthan","latitude":26.2389,"longitude":73.0243,"temp":32.7,"humidity":43,"rain":0.0,"pressure":979.4,"uv_index":8.4,"wind_gusts":43.2,"aqi":160,"pm10":268.2,"pm2_5":60.5,"no2":3.3,"co":135.0,"o3":57.0,"so2":2.9,"mosquito_risk":0,"arthritis_risk":5,"migraine_risk":7,"frizz_risk":1,"updated_at":"2026-05-27T03:52:04.931171+05:30"},{"city":"Udaipur","state":"Rajasthan","latitude":24.5854,"longitude":73.7125,"temp":28.9,"humidity":60,"rain":0.0,"pressure":944.2,"uv_index":8.85,"wind_gusts":43.2,"aqi":89,"pm10":31.7,"pm2_5":19.0,"no2":3.9,"co":138.0,"o3":62.0,"so2":3.1,"mosquito_risk":4,"arthritis_risk":5,"migraine_risk":7,"frizz_risk":1,"updated_at":"2026-05-27T03:52:04.931178+05:30"},{"city":"Kota","state":"Rajasthan","latitude":25.2138,"longitude":75.8648,"temp":33.5,"humidity":29,"rain":0.0,"pressure":974.8,"uv_index":8.4,"wind_gusts":44.3,"aqi":100,"pm10":55.9,"pm2_5":31.0,"no2":5.5,"co":183.0,"o3":69.0,"so2":6.7,"mosquito_risk":0,"arthritis_risk":5,"migraine_risk":7,"frizz_risk":0,"updated_at":"2026-05-27T03:52:04.931185+05:30"},{"city":"Bikaner","state":"Rajasthan","latitude":28.0229,"longitude":73.3119,"temp":30.9,"humidity":28,"rain":0.0,"pressure":976.5,"uv_index":8.4,"wind_gusts":41.8,"aqi":156,"pm10":257.0,"pm2_5":79.9,"no2":3.1,"co":141.0,"o3":57.0,"so2":2.1,"mosquito_risk":0,"arthritis_risk":5,"migraine_risk":7,"frizz_risk":0,"updated_at":"2026-05-27T03:52:04.931212+05:30"},{"city":"Ajmer","state":"Rajasthan","latitude":26.4499,"longitude":74.6399,"temp":31.0,"humidity":42,"rain":0.0,"pressure":951.7,"uv_index":8.4,"wind_gusts":58.0,"aqi":93,"pm10":63.3,"pm2_5":25.1,"no2":3.9,"co":160.0,"o3":74.0,"so2":4.0,"mosquito_risk":0,"arthritis_risk":5,"migraine_risk":7,"frizz_risk":1,"updated_at":"2026-05-27T03:52:04.931219+05:30"},{"city":"Gwalior","state":"Madhya Pradesh","latitude":26.2183,"longitude":78.1828,"temp":32.6,"humidity":26,"rain":0.0,"pressure":977.6,"uv_index":8.25,"wind_gusts":54.7,"aqi":108,"pm10":71.2,"pm2_5":34.0,"no2":10.6,"co":196.0,"o3":46.0,"so2":4.8,"mosquito_risk":0,"arthritis_risk":5,"migraine_risk":7,"frizz_risk":0,"updated_at":"2026-05-27T03:52:04.931226+05:30"},{"city":"Indore","state":"Madhya Pradesh","latitude":22.7196,"longitude":75.8577,"temp":28.8,"humidity":50,"rain":0.0,"pressure":946.8,"uv_index":8.65,"wind_gusts":47.9,"aqi":73,"pm10":31.5,"pm2_5":21.7,"no2":5.6,"co":209.0,"o3":77.0,"so2":10.1,"mosquito_risk":4,"arthritis_risk":5,"migraine_risk":7,"frizz_risk":1,"updated_at":"2026-05-27T03:52:04.931232+05:30"},{"city":"Bhopal","state":"Madhya Pradesh","latitude":23.2599,"longitude":77.4126,"temp":32.2,"humidity":34,"rain":0.0,"pressure":950.9,"uv_index":8.65,"wind_gusts":42.8,"aqi":72,"pm10":45.2,"pm2_5":26.8,"no2":3.5,"co":185.0,"o3":84.0,"so2":5.9,"mosquito_risk":0,"arthritis_risk":5,"migraine_risk":7,"frizz_risk":0,"updated_at":"2026-05-27T03:52:04.931239+05:30"},{"city":"Jabalpur","state":"Madhya Pradesh","latitude":23.1815,"longitude":79.9864,"temp":31.5,"humidity":26,"rain":0.0,"pressure":957.4,"uv_index":8.85,"wind_gusts":40.0,"aqi":81,"pm10":47.1,"pm2_5":26.7,"no2":15.1,"co":218.0,"o3":51.0,"so2":4.8,"mosquito_risk":0,"arthritis_risk":5,"migraine_risk":7,"frizz_risk":0,"updated_at":"2026-05-27T03:52:04.931246+05:30"},{"city":"Ujjain","state":"Madhya Pradesh","latitude":23.1765,"longitude":75.7885,"temp":29.0,"humidity":52,"rain":0.0,"pressure":952.3,"uv_index":8.6,"wind_gusts":49.3,"aqi":76,"pm10":28.7,"pm2_5":19.6,"no2":5.8,"co":216.0,"o3":68.0,"so2":11.0,"mosquito_risk":4,"arthritis_risk":5,"migraine_risk":7,"frizz_risk":1,"updated_at":"2026-05-27T03:52:04.931253+05:30"},{"city":"Visakhapatnam","state":"Andhra Pradesh","latitude":17.6868,"longitude":83.2185,"temp":30.0,"humidity":85,"rain":0.0,"pressure":999.1,"uv_index":9.05,"wind_gusts":31.7,"aqi":131,"pm10":45.4,"pm2_5":36.7,"no2":37.1,"co":313.0,"o3":91.0,"so2":46.4,"mosquito_risk":7,"arthritis_risk":5,"migraine_risk":7,"frizz_risk":1,"updated_at":"2026-05-27T03:52:04.931260+05:30"},{"city":"Vijayawada","state":"Andhra Pradesh","latitude":16.5062,"longitude":80.648,"temp":32.1,"humidity":53,"rain":0.0,"pressure":999.7,"uv_index":9.05,"wind_gusts":39.2,"aqi":139,"pm10":27.9,"pm2_5":24.2,"no2":8.5,"co":280.0,"o3":88.0,"so2":4.7,"mosquito_risk":0,"arthritis_risk":5,"migraine_risk":7,"frizz_risk":1,"updated_at":"2026-05-27T03:52:04.931267+05:30"},{"city":"Guntur","state":"Andhra Pradesh","latitude":16.3067,"longitude":80.4365,"temp":30.9,"humidity":56,"rain":0.0,"pressure":1000.6,"uv_index":9.05,"wind_gusts":40.3,"aqi":130,"pm10":22.0,"pm2_5":19.1,"no2":7.2,"co":235.0,"o3":90.0,"so2":5.0,"mosquito_risk":0,"arthritis_risk":5,"migraine_risk":4,"frizz_risk":1,"updated_at":"2026-05-27T03:52:04.931274+05:30"},{"city":"Nellore","state":"Andhra Pradesh","latitude":14.4426,"longitude":79.9865,"temp":29.8,"humidity":59,"rain":0.0,"pressure":1002.8,"uv_index":9.05,"wind_gusts":56.2,"aqi":71,"pm10":17.0,"pm2_5":14.8,"no2":5.8,"co":161.0,"o3":91.0,"so2":5.7,"mosquito_risk":4,"arthritis_risk":5,"migraine_risk":4,"frizz_risk":1,"updated_at":"2026-05-27T03:52:04.931281+05:30"},{"city":"Kurnool","state":"Andhra Pradesh","latitude":15.8281,"longitude":78.0373,"temp":28.8,"humidity":69,"rain":0.0,"pressure":975.9,"uv_index":8.75,"wind_gusts":40.3,"aqi":57,"pm10":13.3,"pm2_5":11.9,"no2":12.5,"co":187.0,"o3":56.0,"so2":4.2,"mosquito_risk":7,"arthritis_risk":5,"migraine_risk":7,"frizz_risk":1,"updated_at":"2026-05-27T03:52:04.931289+05:30"},{"city":"Kakinada","state":"Andhra Pradesh","latitude":16.9891,"longitude":82.2475,"temp":31.0,"humidity":74,"rain":0.0,"pressure":1003.2,"uv_index":9.0,"wind_gusts":40.3,"aqi":108,"pm10":34.1,"pm2_5":27.9,"no2":4.8,"co":278.0,"o3":137.0,"so2":5.2,"mosquito_risk":3,"arthritis_risk":5,"migraine_risk":4,"frizz_risk":1,"updated_at":"2026-05-27T03:52:04.931297+05:30"},{"city":"Tirupati","state":"Andhra Pradesh","latitude":13.6288,"longitude":79.4192,"temp":28.2,"humidity":59,"rain":0.0,"pressure":988.5,"uv_index":9.05,"wind_gusts":27.7,"aqi":79,"pm10":22.6,"pm2_5":20.3,"no2":13.0,"co":193.0,"o3":54.0,"so2":2.4,"mosquito_risk":4,"arthritis_risk":5,"migraine_risk":7,"frizz_risk":1,"updated_at":"2026-05-27T03:52:04.931303+05:30"},{"city":"Warangal","state":"Telangana","latitude":17.9689,"longitude":79.5941,"temp":31.5,"humidity":48,"rain":0.0,"pressure":975.9,"uv_index":9.05,"wind_gusts":43.6,"aqi":122,"pm10":57.3,"pm2_5":42.6,"no2":15.8,"co":306.0,"o3":61.0,"so2":5.7,"mosquito_risk":0,"arthritis_risk":5,"migraine_risk":7,"frizz_risk":1,"updated_at":"2026-05-27T03:52:04.931310+05:30"},{"city":"Nizamabad","state":"Telangana","latitude":18.6725,"longitude":78.0941,"temp":29.3,"humidity":56,"rain":0.0,"pressure":962.8,"uv_index":9.0,"wind_gusts":35.6,"aqi":96,"pm10":51.8,"pm2_5":35.5,"no2":17.4,"co":207.0,"o3":54.0,"so2":6.6,"mosquito_risk":4,"arthritis_risk":5,"migraine_risk":7,"frizz_risk":1,"updated_at":"2026-05-27T03:52:04.931317+05:30"},{"city":"Mysore","state":"Karnataka","latitude":12.2958,"longitude":76.6396,"temp":22.1,"humidity":96,"rain":0.0,"pressure":927.8,"uv_index":9.15,"wind_gusts":43.6,"aqi":56,"pm10":13.0,"pm2_5":12.3,"no2":10.6,"co":172.0,"o3":45.0,"so2":2.8,"mosquito_risk":3,"arthritis_risk":5,"migraine_risk":7,"frizz_risk":1,"updated_at":"2026-05-27T03:52:04.931323+05:30"},{"city":"Mangalore","state":"Karnataka","latitude":12.9141,"longitude":74.856,"temp":25.9,"humidity":97,"rain":0.0,"pressure":1007.0,"uv_index":7.4,"wind_gusts":28.8,"aqi":58,"pm10":16.1,"pm2_5":13.7,"no2":11.3,"co":247.0,"o3":34.0,"so2":3.7,"mosquito_risk":7,"arthritis_risk":5,"migraine_risk":4,"frizz_risk":1,"updated_at":"2026-05-27T03:52:04.931330+05:30"},{"city":"Hubli-Dharwad","state":"Karnataka","latitude":15.3647,"longitude":75.124,"temp":24.0,"humidity":95,"rain":0.0,"pressure":940.8,"uv_index":7.55,"wind_gusts":39.6,"aqi":25,"pm10":4.4,"pm2_5":3.5,"no2":3.6,"co":148.0,"o3":43.0,"so2":1.1,"mosquito_risk":3,"arthritis_risk":5,"migraine_risk":7,"frizz_risk":1,"updated_at":"2026-05-27T03:52:04.931337+05:30"},{"city":"Belgaum","state":"Karnataka","latitude":15.8497,"longitude":74.4977,"temp":23.2,"humidity":95,"rain":0.0,"pressure":926.0,"uv_index":9.0,"wind_gusts":37.4,"aqi":26,"pm10":5.6,"pm2_5":4.5,"no2":3.8,"co":135.0,"o3":42.0,"so2":1.5,"mosquito_risk":3,"arthritis_risk":5,"migraine_risk":7,"frizz_risk":1,"updated_at":"2026-05-27T03:52:08.180998+05:30"},{"city":"Coimbatore","state":"Tamil Nadu","latitude":11.0168,"longitude":76.9558,"temp":24.5,"humidity":89,"rain":0.0,"pressure":961.0,"uv_index":8.4,"wind_gusts":53.3,"aqi":41,"pm10":8.1,"pm2_5":6.6,"no2":4.9,"co":152.0,"o3":54.0,"so2":3.2,"mosquito_risk":3,"arthritis_risk":5,"migraine_risk":7,"frizz_risk":1,"updated_at":"2026-05-27T03:52:08.181034+05:30"},{"city":"Madurai","state":"Tamil Nadu","latitude":9.9252,"longitude":78.1198,"temp":27.8,"humidity":73,"rain":0.0,"pressure":991.7,"uv_index":8.55,"wind_gusts":26.6,"aqi":102,"pm10":50.5,"pm2_5":45.2,"no2":38.1,"co":207.0,"o3":5.0,"so2":6.4,"mosquito_risk":7,"arthritis_risk":5,"migraine_risk":7,"frizz_risk":1,"updated_at":"2026-05-27T03:52:08.181045+05:30"},{"city":"Trichy","state":"Tamil Nadu","latitude":10.7905,"longitude":78.7047,"temp":28.8,"humidity":67,"rain":0.0,"pressure":998.2,"uv_index":8.3,"wind_gusts":42.8,"aqi":62,"pm10":16.6,"pm2_5":15.4,"no2":16.4,"co":145.0,"o3":38.0,"so2":4.9,"mosquito_risk":7,"arthritis_risk":5,"migraine_risk":7,"frizz_risk":1,"updated_at":"2026-05-27T03:52:08.181054+05:30"},{"city":"Salem","state":"Tamil Nadu","latitude":11.6643,"longitude":78.146,"temp":27.6,"humidity":71,"rain":0.0,"pressure":976.4,"uv_index":8.4,"wind_gusts":35.3,"aqi":78,"pm10":28.4,"pm2_5":25.0,"no2":24.3,"co":206.0,"o3":34.0,"so2":7.8,"mosquito_risk":7,"arthritis_risk":5,"migraine_risk":7,"frizz_risk":1,"updated_at":"2026-05-27T03:52:08.181063+05:30"},{"city":"Tirunelveli","state":"Tamil Nadu","latitude":8.7139,"longitude":77.7567,"temp":28.7,"humidity":68,"rain":0.0,"pressure":1002.7,"uv_index":8.85,"wind_gusts":29.9,"aqi":30,"pm10":9.2,"pm2_5":7.7,"no2":7.2,"co":162.0,"o3":40.0,"so2":2.4,"mosquito_risk":7,"arthritis_risk":5,"migraine_risk":4,"frizz_risk":1,"updated_at":"2026-05-27T03:52:08.181071+05:30"},{"city":"Vellore","state":"Tamil Nadu","latitude":12.9165,"longitude":79.1325,"temp":27.5,"humidity":63,"rain":0.0,"pressure":982.5,"uv_index":8.55,"wind_gusts":36.0,"aqi":96,"pm10":33.2,"pm2_5":31.4,"no2":20.2,"co":263.0,"o3":32.0,"so2":4.8,"mosquito_risk":7,"arthritis_risk":5,"migraine_risk":7,"frizz_risk":1,"updated_at":"2026-05-27T03:52:08.181078+05:30"},{"city":"Erode","state":"Tamil Nadu","latitude":11.341,"longitude":77.7172,"temp":27.3,"humidity":76,"rain":0.0,"pressure":988.2,"uv_index":8.95,"wind_gusts":46.1,"aqi":56,"pm10":13.9,"pm2_5":12.7,"no2":17.4,"co":185.0,"o3":35.0,"so2":4.4,"mosquito_risk":7,"arthritis_risk":5,"migraine_risk":7,"frizz_risk":1,"updated_at":"2026-05-27T03:52:08.181086+05:30"},{"city":"Kochi","state":"Kerala","latitude":9.9312,"longitude":76.2673,"temp":25.9,"humidity":99,"rain":0.0,"pressure":1009.4,"uv_index":7.95,"wind_gusts":29.5,"aqi":57,"pm10":18.9,"pm2_5":16.9,"no2":19.8,"co":254.0,"o3":15.0,"so2":5.1,"mosquito_risk":7,"arthritis_risk":0,"migraine_risk":4,"frizz_risk":1,"updated_at":"2026-05-27T03:52:08.181094+05:30"},{"city":"Thiruvananthapuram","state":"Kerala","latitude":8.5241,"longitude":76.9366,"temp":24.3,"humidity":97,"rain":0.0,"pressure":1009.1,"uv_index":7.8,"wind_gusts":34.2,"aqi":27,"pm10":7.7,"pm2_5":4.3,"no2":1.9,"co":247.0,"o3":52.0,"so2":0.7,"mosquito_risk":3,"arthritis_risk":0,"migraine_risk":4,"frizz_risk":1,"updated_at":"2026-05-27T03:52:08.181101+05:30"},{"city":"Kozhikode","state":"Kerala","latitude":11.2588,"longitude":75.7804,"temp":25.2,"humidity":100,"rain":0.0,"pressure":1008.4,"uv_index":6.8,"wind_gusts":29.5,"aqi":29,"pm10":8.0,"pm2_5":5.4,"no2":2.3,"co":462.0,"o3":60.0,"so2":1.2,"mosquito_risk":7,"arthritis_risk":0,"migraine_risk":4,"frizz_risk":1,"updated_at":"2026-05-27T03:52:08.181108+05:30"},{"city":"Thrissur","state":"Kerala","latitude":10.5276,"longitude":76.2144,"temp":24.9,"humidity":97,"rain":0.0,"pressure":1007.7,"uv_index":7.95,"wind_gusts":30.2,"aqi":55,"pm10":15.9,"pm2_5":14.5,"no2":16.0,"co":263.0,"o3":23.0,"so2":5.9,"mosquito_risk":3,"arthritis_risk":5,"migraine_risk":4,"frizz_risk":1,"updated_at":"2026-05-27T03:52:08.181116+05:30"},{"city":"Kannur","state":"Kerala","latitude":11.8745,"longitude":75.3704,"temp":25.8,"humidity":95,"rain":0.0,"pressure":1007.5,"uv_index":8.15,"wind_gusts":31.0,"aqi":61,"pm10":18.2,"pm2_5":16.4,"no2":16.3,"co":236.0,"o3":24.0,"so2":3.4,"mosquito_risk":7,"arthritis_risk":5,"migraine_risk":4,"frizz_risk":1,"updated_at":"2026-05-27T03:52:08.181122+05:30"},{"city":"Patna","state":"Bihar","latitude":25.5941,"longitude":85.1376,"temp":24.8,"humidity":85,"rain":0.0,"pressure":996.4,"uv_index":8.75,"wind_gusts":44.3,"aqi":99,"pm10":45.3,"pm2_5":40.2,"no2":16.2,"co":385.0,"o3":74.0,"so2":15.7,"mosquito_risk":3,"arthritis_risk":5,"migraine_risk":7,"frizz_risk":1,"updated_at":"2026-05-27T03:52:08.181129+05:30"},{"city":"Gaya","state":"Bihar","latitude":24.7914,"longitude":85.0002,"temp":28.4,"humidity":78,"rain":0.0,"pressure":988.8,"uv_index":8.85,"wind_gusts":37.8,"aqi":125,"pm10":52.2,"pm2_5":46.3,"no2":16.8,"co":427.0,"o3":72.0,"so2":15.9,"mosquito_risk":7,"arthritis_risk":5,"migraine_risk":7,"frizz_risk":1,"updated_at":"2026-05-27T03:52:08.181135+05:30"},{"city":"Muzaffarpur","state":"Bihar","latitude":26.1209,"longitude":85.3647,"temp":24.0,"humidity":90,"rain":0.1,"pressure":997.1,"uv_index":8.75,"wind_gusts":45.4,"aqi":91,"pm10":44.7,"pm2_5":38.5,"no2":17.5,"co":396.0,"o3":60.0,"so2":12.7,"mosquito_risk":6,"arthritis_risk":5,"migraine_risk":7,"frizz_risk":1,"updated_at":"2026-05-27T03:52:08.181142+05:30"},{"city":"Bhagalpur","state":"Bihar","latitude":25.2425,"longitude":87.0117,"temp":23.2,"humidity":94,"rain":0.2,"pressure":999.4,"uv_index":8.7,"wind_gusts":42.5,"aqi":93,"pm10":59.8,"pm2_5":46.0,"no2":8.4,"co":428.0,"o3":116.0,"so2":12.8,"mosquito_risk":6,"arthritis_risk":5,"migraine_risk":7,"frizz_risk":1,"updated_at":"2026-05-27T03:52:08.181148+05:30"},{"city":"Ranchi","state":"Jharkhand","latitude":23.3441,"longitude":85.3096,"temp":25.3,"humidity":80,"rain":0.0,"pressure":933.9,"uv_index":9.0,"wind_gusts":45.7,"aqi":99,"pm10":88.5,"pm2_5":42.7,"no2":19.0,"co":314.0,"o3":66.0,"so2":8.9,"mosquito_risk":7,"arthritis_risk":5,"migraine_risk":7,"frizz_risk":1,"updated_at":"2026-05-27T03:52:08.181156+05:30"},{"city":"Jamshedpur","state":"Jharkhand","latitude":22.8046,"longitude":86.2029,"temp":28.8,"humidity":93,"rain":0.0,"pressure":986.6,"uv_index":9.0,"wind_gusts":54.4,"aqi":155,"pm10":90.3,"pm2_5":68.9,"no2":25.4,"co":488.0,"o3":66.0,"so2":21.0,"mosquito_risk":7,"arthritis_risk":5,"migraine_risk":7,"frizz_risk":1,"updated_at":"2026-05-27T03:52:08.181163+05:30"},{"city":"Dhanbad","state":"Jharkhand","latitude":23.7957,"longitude":86.4304,"temp":29.1,"humidity":87,"rain":0.0,"pressure":975.7,"uv_index":8.85,"wind_gusts":38.5,"aqi":164,"pm10":123.4,"pm2_5":108.5,"no2":54.5,"co":704.0,"o3":27.0,"so2":173.4,"mosquito_risk":7,"arthritis_risk":5,"migraine_risk":7,"frizz_risk":1,"updated_at":"2026-05-27T03:52:08.181170+05:30"},{"city":"Bokaro","state":"Jharkhand","latitude":23.6693,"longitude":86.1511,"temp":28.0,"humidity":93,"rain":0.0,"pressure":979.5,"uv_index":8.85,"wind_gusts":39.6,"aqi":157,"pm10":138.3,"pm2_5":108.3,"no2":58.5,"co":1437.0,"o3":9.0,"so2":149.4,"mosquito_risk":7,"arthritis_risk":5,"migraine_risk":7,"frizz_risk":1,"updated_at":"2026-05-27T03:52:08.181177+05:30"},{"city":"Bhubaneswar","state":"Odisha","latitude":20.2961,"longitude":85.8245,"temp":29.5,"humidity":90,"rain":0.0,"pressure":998.7,"uv_index":9.05,"wind_gusts":41.0,"aqi":115,"pm10":26.4,"pm2_5":20.4,"no2":4.4,"co":189.0,"o3":80.0,"so2":4.6,"mosquito_risk":7,"arthritis_risk":5,"migraine_risk":7,"frizz_risk":1,"updated_at":"2026-05-27T03:52:08.181184+05:30"},{"city":"Cuttack","state":"Odisha","latitude":20.4625,"longitude":85.8828,"temp":29.5,"humidity":92,"rain":0.0,"pressure":1000.5,"uv_index":9.1,"wind_gusts":54.4,"aqi":115,"pm10":26.4,"pm2_5":20.4,"no2":4.4,"co":193.0,"o3":80.0,"so2":4.6,"mosquito_risk":7,"arthritis_risk":5,"migraine_risk":4,"frizz_risk":1,"updated_at":"2026-05-27T03:52:08.181209+05:30"},{"city":"Rourkela","state":"Odisha","latitude":22.2604,"longitude":84.8536,"temp":29.2,"humidity":86,"rain":0.0,"pressure":980.8,"uv_index":8.95,"wind_gusts":49.3,"aqi":153,"pm10":109.7,"pm2_5":74.7,"no2":38.2,"co":290.0,"o3":49.0,"so2":20.0,"mosquito_risk":7,"arthritis_risk":5,"migraine_risk":7,"frizz_risk":1,"updated_at":"2026-05-27T03:52:08.181217+05:30"},{"city":"Raipur","state":"Chhattisgarh","latitude":21.2514,"longitude":81.6296,"temp":32.3,"humidity":34,"rain":0.0,"pressure":970.1,"uv_index":8.95,"wind_gusts":39.2,"aqi":113,"pm10":53.3,"pm2_5":39.0,"no2":32.8,"co":316.0,"o3":53.0,"so2":51.6,"mosquito_risk":0,"arthritis_risk":5,"migraine_risk":7,"frizz_risk":0,"updated_at":"2026-05-27T03:52:08.181225+05:30"},{"city":"Bhilai","state":"Chhattisgarh","latitude":21.1938,"longitude":81.3509,"temp":31.0,"humidity":39,"rain":0.0,"pressure":970.6,"uv_index":8.95,"wind_gusts":42.8,"aqi":105,"pm10":49.2,"pm2_5":35.4,"no2":24.7,"co":531.0,"o3":58.0,"so2":38.6,"mosquito_risk":0,"arthritis_risk":5,"migraine_risk":7,"frizz_risk":0,"updated_at":"2026-05-27T03:52:08.181232+05:30"},{"city":"Guwahati","state":"Assam","latitude":26.1158,"longitude":91.7086,"temp":22.5,"humidity":98,"rain":0.0,"pressure":1001.5,"uv_index":8.7,"wind_gusts":22.7,"aqi":59,"pm10":22.6,"pm2_5":15.9,"no2":7.8,"co":317.0,"o3":60.0,"so2":2.7,"mosquito_risk":3,"arthritis_risk":5,"migraine_risk":4,"frizz_risk":1,"updated_at":"2026-05-27T03:52:08.181239+05:30"},{"city":"Agartala","state":"Tripura","latitude":23.8315,"longitude":91.2868,"temp":24.4,"humidity":89,"rain":0.0,"pressure":1005.0,"uv_index":8.45,"wind_gusts":42.1,"aqi":79,"pm10":19.6,"pm2_5":15.6,"no2":10.3,"co":219.0,"o3":52.0,"so2":1.9,"mosquito_risk":3,"arthritis_risk":5,"migraine_risk":4,"frizz_risk":1,"updated_at":"2026-05-27T03:52:08.181246+05:30"},{"city":"Shillong","state":"Meghalaya","latitude":25.5788,"longitude":91.8933,"temp":16.5,"humidity":96,"rain":0.1,"pressure":854.7,"uv_index":8.45,"wind_gusts":36.7,"aqi":38,"pm10":4.2,"pm2_5":2.7,"no2":5.2,"co":192.0,"o3":69.0,"so2":2.2,"mosquito_risk":6,"arthritis_risk":10,"migraine_risk":7,"frizz_risk":0,"updated_at":"2026-05-27T03:52:08.181253+05:30"},{"city":"Imphal","state":"Manipur","latitude":24.817,"longitude":93.9368,"temp":18.6,"humidity":96,"rain":0.0,"pressure":922.4,"uv_index":9.25,"wind_gusts":32.8,"aqi":80,"pm10":23.0,"pm2_5":14.1,"no2":2.7,"co":410.0,"o3":72.0,"so2":1.8,"mosquito_risk":3,"arthritis_risk":10,"migraine_risk":7,"frizz_risk":1,"updated_at":"2026-05-27T03:52:08.181260+05:30"},{"city":"Aizawl","state":"Mizoram","latitude":23.7271,"longitude":92.7176,"temp":14.5,"humidity":96,"rain":0.0,"pressure":890.1,"uv_index":9.05,"wind_gusts":33.8,"aqi":72,"pm10":34.0,"pm2_5":20.8,"no2":3.4,"co":175.0,"o3":56.0,"so2":1.2,"mosquito_risk":3,"arthritis_risk":10,"migraine_risk":7,"frizz_risk":0,"updated_at":"2026-05-27T03:52:08.181267+05:30"},{"city":"Kohima","state":"Nagaland","latitude":25.6701,"longitude":94.1077,"temp":14.8,"humidity":72,"rain":0.0,"pressure":852.9,"uv_index":9.25,"wind_gusts":31.7,"aqi":50,"pm10":15.9,"pm2_5":8.0,"no2":3.9,"co":220.0,"o3":67.0,"so2":1.1,"mosquito_risk":3,"arthritis_risk":5,"migraine_risk":7,"frizz_risk":0,"updated_at":"2026-05-27T03:52:08.181275+05:30"},{"city":"Gangtok","state":"Sikkim","latitude":27.3314,"longitude":88.6138,"temp":14.4,"humidity":91,"rain":0.0,"pressure":834.9,"uv_index":9.15,"wind_gusts":37.1,"aqi":80,"pm10":31.5,"pm2_5":11.9,"no2":4.9,"co":521.0,"o3":122.0,"so2":2.5,"mosquito_risk":3,"arthritis_risk":10,"migraine_risk":7,"frizz_risk":0,"updated_at":"2026-05-27T03:52:08.181282+05:30"},{"city":"Siliguri","state":"West Bengal","latitude":26.7271,"longitude":88.3953,"temp":22.1,"humidity":91,"rain":0.0,"pressure":992.0,"uv_index":8.65,"wind_gusts":28.8,"aqi":78,"pm10":44.2,"pm2_5":20.9,"no2":13.2,"co":335.0,"o3":88.0,"so2":3.7,"mosquito_risk":3,"arthritis_risk":5,"migraine_risk":7,"frizz_risk":1,"updated_at":"2026-05-27T03:52:11.469458+05:30"},{"city":"Durgapur","state":"West Bengal","latitude":23.5204,"longitude":87.3119,"temp":29.0,"humidity":90,"rain":0.0,"pressure":990.7,"uv_index":8.9,"wind_gusts":36.4,"aqi":158,"pm10":59.5,"pm2_5":54.9,"no2":25.0,"co":407.0,"o3":48.0,"so2":30.3,"mosquito_risk":7,"arthritis_risk":5,"migraine_risk":7,"frizz_risk":1,"updated_at":"2026-05-27T03:52:11.469495+05:30"},{"city":"Asansol","state":"West Bengal","latitude":23.6739,"longitude":86.9524,"temp":29.1,"humidity":90,"rain":0.0,"pressure":989.3,"uv_index":8.95,"wind_gusts":33.5,"aqi":161,"pm10":60.5,"pm2_5":56.2,"no2":26.8,"co":600.0,"o3":47.0,"so2":31.5,"mosquito_risk":7,"arthritis_risk":5,"migraine_risk":7,"frizz_risk":1,"updated_at":"2026-05-27T03:52:11.469506+05:30"},{"city":"Pondicherry","state":"Puducherry","latitude":11.9139,"longitude":79.8145,"temp":28.5,"humidity":81,"rain":0.0,"pressure":1006.2,"uv_index":6.3,"wind_gusts":43.9,"aqi":76,"pm10":13.2,"pm2_5":11.1,"no2":13.5,"co":221.0,"o3":47.0,"so2":9.1,"mosquito_risk":7,"arthritis_risk":5,"migraine_risk":4,"frizz_risk":1,"updated_at":"2026-05-27T03:52:11.469514+05:30"},{"city":"Port Blair","state":"Andaman and Nicobar Islands","latitude":11.6234,"longitude":92.7265,"temp":26.0,"humidity":90,"rain":0.0,"pressure":1006.3,"uv_index":8.15,"wind_gusts":39.2,"aqi":30,"pm10":14.0,"pm2_5":8.6,"no2":0.2,"co":110.0,"o3":68.0,"so2":0.4,"mosquito_risk":7,"arthritis_risk":5,"migraine_risk":4,"frizz_risk":1,"updated_at":"2026-05-27T03:52:11.469522+05:30"},{"city":"Haridwar","state":"Uttarakhand","latitude":29.9457,"longitude":78.1642,"temp":23.8,"humidity":38,"rain":0.0,"pressure":966.4,"uv_index":7.55,"wind_gusts":39.2,"aqi":67,"pm10":20.0,"pm2_5":18.1,"no2":21.3,"co":228.0,"o3":53.0,"so2":6.2,"mosquito_risk":0,"arthritis_risk":5,"migraine_risk":7,"frizz_risk":0,"updated_at":"2026-05-27T03:52:11.469530+05:30"},{"city":"Rishikesh","state":"Uttarakhand","latitude":30.0869,"longitude":78.2676,"temp":21.1,"humidity":48,"rain":0.0,"pressure":959.3,"uv_index":7.65,"wind_gusts":36.7,"aqi":72,"pm10":27.1,"pm2_5":23.6,"no2":21.3,"co":274.0,"o3":60.0,"so2":4.8,"mosquito_risk":0,"arthritis_risk":5,"migraine_risk":7,"frizz_risk":0,"updated_at":"2026-05-27T03:52:11.469538+05:30"},{"city":"Nainital","state":"Uttarakhand","latitude":29.3919,"longitude":79.4542,"temp":16.3,"humidity":29,"rain":0.0,"pressure":801.8,"uv_index":8.5,"wind_gusts":32.8,"aqi":78,"pm10":56.0,"pm2_5":26.5,"no2":19.6,"co":248.0,"o3":80.0,"so2":4.4,"mosquito_risk":0,"arthritis_risk":5,"migraine_risk":7,"frizz_risk":1,"updated_at":"2026-05-27T03:52:11.469546+05:30"},{"city":"Mussoorie","state":"Uttarakhand","latitude":30.4599,"longitude":78.0664,"temp":16.6,"humidity":35,"rain":0.0,"pressure":799.1,"uv_index":8.1,"wind_gusts":52.6,"aqi":62,"pm10":25.0,"pm2_5":21.0,"no2":35.5,"co":151.0,"o3":23.0,"so2":3.8,"mosquito_risk":0,"arthritis_risk":5,"migraine_risk":7,"frizz_risk":0,"updated_at":"2026-05-27T03:52:11.469553+05:30"},{"city":"Dharamshala","state":"Himachal Pradesh","latitude":32.219,"longitude":76.3234,"temp":22.3,"humidity":32,"rain":0.0,"pressure":865.2,"uv_index":8.5,"wind_gusts":46.8,"aqi":36,"pm10":9.9,"pm2_5":8.0,"no2":11.8,"co":170.0,"o3":41.0,"so2":0.0,"mosquito_risk":0,"arthritis_risk":5,"migraine_risk":7,"frizz_risk":0,"updated_at":"2026-05-27T03:52:11.469560+05:30"},{"city":"Dalhousie","state":"Himachal Pradesh","latitude":32.5387,"longitude":75.971,"temp":10.5,"humidity":63,"rain":0.0,"pressure":797.3,"uv_index":8.7,"wind_gusts":42.8,"aqi":55,"pm10":20.9,"pm2_5":19.0,"no2":37.9,"co":235.0,"o3":4.0,"so2":0.8,"mosquito_risk":3,"arthritis_risk":5,"migraine_risk":7,"frizz_risk":0,"updated_at":"2026-05-27T03:52:11.469568+05:30"},{"city":"Patiala","state":"Punjab","latitude":30.3398,"longitude":76.3869,"temp":28.5,"humidity":26,"rain":0.0,"pressure":972.2,"uv_index":7.7,"wind_gusts":40.7,"aqi":456,"pm10":187.7,"pm2_5":46.1,"no2":16.5,"co":328.0,"o3":59.0,"so2":7.5,"mosquito_risk":4,"arthritis_risk":5,"migraine_risk":7,"frizz_risk":0,"updated_at":"2026-05-27T03:52:11.469576+05:30"},{"city":"Bhatinda","state":"Punjab","latitude":30.211,"longitude":74.9455,"temp":30.0,"humidity":35,"rain":0.0,"pressure":978.3,"uv_index":8.35,"wind_gusts":29.9,"aqi":79,"pm10":48.5,"pm2_5":41.8,"no2":27.6,"co":376.0,"o3":68.0,"so2":10.6,"mosquito_risk":4,"arthritis_risk":5,"migraine_risk":7,"frizz_risk":0,"updated_at":"2026-05-27T03:52:11.469582+05:30"},{"city":"Rohtak","state":"Haryana","latitude":28.8955,"longitude":76.6066,"temp":28.1,"humidity":37,"rain":0.0,"pressure":975.9,"uv_index":7.8,"wind_gusts":33.5,"aqi":597,"pm10":737.6,"pm2_5":159.3,"no2":30.0,"co":375.0,"o3":50.0,"so2":8.2,"mosquito_risk":4,"arthritis_risk":5,"migraine_risk":7,"frizz_risk":0,"updated_at":"2026-05-27T03:52:11.469589+05:30"},{"city":"Panipat","state":"Haryana","latitude":29.3909,"longitude":76.9635,"temp":30.0,"humidity":23,"rain":0.0,"pressure":974.3,"uv_index":7.6,"wind_gusts":37.8,"aqi":1362,"pm10":972.3,"pm2_5":190.0,"no2":17.5,"co":291.0,"o3":62.0,"so2":6.0,"mosquito_risk":4,"arthritis_risk":5,"migraine_risk":7,"frizz_risk":0,"updated_at":"2026-05-27T03:52:11.469596+05:30"},{"city":"Mathura","state":"Uttar Pradesh","latitude":27.4924,"longitude":77.6737,"temp":30.6,"humidity":34,"rain":0.0,"pressure":980.4,"uv_index":8.0,"wind_gusts":34.9,"aqi":573,"pm10":197.9,"pm2_5":80.8,"no2":64.4,"co":529.0,"o3":3.0,"so2":10.1,"mosquito_risk":0,"arthritis_risk":5,"migraine_risk":7,"frizz_risk":0,"updated_at":"2026-05-27T03:52:11.469602+05:30"},{"city":"Vrindavan","state":"Uttar Pradesh","latitude":27.5823,"longitude":77.7027,"temp":29.3,"humidity":42,"rain":0.0,"pressure":980.9,"uv_index":8.0,"wind_gusts":33.5,"aqi":573,"pm10":197.9,"pm2_5":80.8,"no2":64.4,"co":489.0,"o3":3.0,"so2":10.1,"mosquito_risk":4,"arthritis_risk":5,"migraine_risk":7,"frizz_risk":0,"updated_at":"2026-05-27T03:52:11.469608+05:30"},{"city":"Ayodhya","state":"Uttar Pradesh","latitude":26.7922,"longitude":82.1998,"temp":26.0,"humidity":69,"rain":0.0,"pressure":991.0,"uv_index":8.3,"wind_gusts":36.0,"aqi":131,"pm10":49.6,"pm2_5":34.7,"no2":11.1,"co":368.0,"o3":106.0,"so2":9.2,"mosquito_risk":7,"arthritis_risk":5,"migraine_risk":7,"frizz_risk":1,"updated_at":"2026-05-27T03:52:11.469615+05:30"},{"city":"Ratlam","state":"Madhya Pradesh","latitude":23.3315,"longitude":75.0367,"temp":27.9,"humidity":62,"rain":0.0,"pressure":953.3,"uv_index":8.55,"wind_gusts":47.2,"aqi":76,"pm10":26.4,"pm2_5":16.8,"no2":7.2,"co":226.0,"o3":57.0,"so2":13.6,"mosquito_risk":7,"arthritis_risk":5,"migraine_risk":7,"frizz_risk":1,"updated_at":"2026-05-27T03:52:11.469622+05:30"},{"city":"Sagar","state":"Madhya Pradesh","latitude":23.8388,"longitude":78.7378,"temp":32.1,"humidity":23,"rain":0.0,"pressure":947.1,"uv_index":8.7,"wind_gusts":46.1,"aqi":86,"pm10":42.7,"pm2_5":26.7,"no2":8.2,"co":192.0,"o3":59.0,"so2":4.2,"mosquito_risk":0,"arthritis_risk":5,"migraine_risk":7,"frizz_risk":0,"updated_at":"2026-05-27T03:52:11.469629+05:30"},{"city":"Satna","state":"Madhya Pradesh","latitude":24.6005,"longitude":80.8322,"temp":30.6,"humidity":29,"rain":0.0,"pressure":966.0,"uv_index":8.75,"wind_gusts":53.3,"aqi":82,"pm10":138.3,"pm2_5":37.4,"no2":30.6,"co":223.0,"o3":55.0,"so2":4.6,"mosquito_risk":0,"arthritis_risk":5,"migraine_risk":7,"frizz_risk":0,"updated_at":"2026-05-27T03:52:11.469635+05:30"},{"city":"Akola","state":"Maharashtra","latitude":20.7002,"longitude":77.0082,"temp":31.8,"humidity":44,"rain":0.0,"pressure":972.9,"uv_index":8.85,"wind_gusts":46.4,"aqi":59,"pm10":22.8,"pm2_5":18.5,"no2":7.6,"co":204.0,"o3":86.0,"so2":13.4,"mosquito_risk":0,"arthritis_risk":5,"migraine_risk":7,"frizz_risk":1,"updated_at":"2026-05-27T03:52:11.469643+05:30"},{"city":"Amravati","state":"Maharashtra","latitude":20.9374,"longitude":77.7796,"temp":33.0,"humidity":38,"rain":0.0,"pressure":964.7,"uv_index":8.85,"wind_gusts":45.4,"aqi":61,"pm10":23.9,"pm2_5":18.9,"no2":8.0,"co":191.0,"o3":85.0,"so2":11.9,"mosquito_risk":0,"arthritis_risk":5,"migraine_risk":7,"frizz_risk":1,"updated_at":"2026-05-27T03:52:11.469652+05:30"},{"city":"Latur","state":"Maharashtra","latitude":18.4088,"longitude":76.5604,"temp":27.5,"humidity":71,"rain":0.0,"pressure":939.0,"uv_index":9.0,"wind_gusts":37.8,"aqi":69,"pm10":18.9,"pm2_5":16.6,"no2":6.9,"co":201.0,"o3":86.0,"so2":8.3,"mosquito_risk":7,"arthritis_risk":5,"migraine_risk":7,"frizz_risk":1,"updated_at":"2026-05-27T03:52:11.469659+05:30"},{"city":"Nanded","state":"Maharashtra","latitude":19.1383,"longitude":77.3091,"temp":29.8,"humidity":53,"rain":0.0,"pressure":966.7,"uv_index":8.95,"wind_gusts":37.8,"aqi":77,"pm10":30.3,"pm2_5":21.9,"no2":11.1,"co":178.0,"o3":69.0,"so2":4.5,"mosquito_risk":4,"arthritis_risk":5,"migraine_risk":7,"frizz_risk":1,"updated_at":"2026-05-27T03:52:11.469666+05:30"},{"city":"Gulbarga","state":"Karnataka","latitude":17.3297,"longitude":76.8343,"temp":29.2,"humidity":62,"rain":0.0,"pressure":958.2,"uv_index":8.4,"wind_gusts":41.8,"aqi":52,"pm10":11.6,"pm2_5":9.9,"no2":11.0,"co":241.0,"o3":44.0,"so2":3.3,"mosquito_risk":7,"arthritis_risk":5,"migraine_risk":7,"frizz_risk":1,"updated_at":"2026-05-27T03:52:11.469673+05:30"},{"city":"Bidar","state":"Karnataka","latitude":17.9104,"longitude":77.5199,"temp":27.7,"humidity":57,"rain":0.0,"pressure":934.4,"uv_index":8.85,"wind_gusts":46.8,"aqi":94,"pm10":14.2,"pm2_5":12.5,"no2":9.9,"co":206.0,"o3":69.0,"so2":3.6,"mosquito_risk":4,"arthritis_risk":5,"migraine_risk":7,"frizz_risk":1,"updated_at":"2026-05-27T03:52:11.469679+05:30"},{"city":"Hospet","state":"Karnataka","latitude":15.2689,"longitude":76.3909,"temp":25.0,"humidity":89,"rain":0.0,"pressure":955.8,"uv_index":6.05,"wind_gusts":40.3,"aqi":33,"pm10":8.1,"pm2_5":7.8,"no2":10.7,"co":165.0,"o3":35.0,"so2":1.8,"mosquito_risk":7,"arthritis_risk":5,"migraine_risk":7,"frizz_risk":1,"updated_at":"2026-05-27T03:52:11.469686+05:30"},{"city":"Tirupur","state":"Tamil Nadu","latitude":11.1085,"longitude":77.3411,"temp":25.4,"humidity":86,"rain":0.0,"pressure":974.4,"uv_index":8.2,"wind_gusts":57.2,"aqi":58,"pm10":17.0,"pm2_5":15.4,"no2":20.1,"co":151.0,"o3":31.0,"so2":5.1,"mosquito_risk":7,"arthritis_risk":5,"migraine_risk":7,"frizz_risk":1,"updated_at":"2026-05-27T03:52:11.469692+05:30"},{"city":"Alappuzha","state":"Kerala","latitude":9.4981,"longitude":76.3388,"temp":25.6,"humidity":99,"rain":0.0,"pressure":1009.6,"uv_index":8.25,"wind_gusts":29.5,"aqi":47,"pm10":14.0,"pm2_5":11.5,"no2":11.5,"co":206.0,"o3":44.0,"so2":2.8,"mosquito_risk":7,"arthritis_risk":0,"migraine_risk":4,"frizz_risk":1,"updated_at":"2026-05-27T03:52:11.469699+05:30"},{"city":"Munnar","state":"Kerala","latitude":10.0889,"longitude":77.0595,"temp":18.0,"humidity":100,"rain":0.1,"pressure":856.8,"uv_index":8.65,"wind_gusts":28.1,"aqi":42,"pm10":6.7,"pm2_5":6.5,"no2":8.9,"co":128.0,"o3":25.0,"so2":1.6,"mosquito_risk":6,"arthritis_risk":10,"migraine_risk":7,"frizz_risk":1,"updated_at":"2026-05-27T03:52:11.469706+05:30"},{"city":"Silchar","state":"Assam","latitude":24.8333,"longitude":92.7789,"temp":23.4,"humidity":98,"rain":0.0,"pressure":1005.2,"uv_index":8.85,"wind_gusts":31.0,"aqi":78,"pm10":21.8,"pm2_5":13.8,"no2":5.4,"co":253.0,"o3":78.0,"so2":2.2,"mosquito_risk":3,"arthritis_risk":5,"migraine_risk":4,"frizz_risk":1,"updated_at":"2026-05-27T03:52:11.469713+05:30"},{"city":"Dibrugarh","state":"Assam","latitude":27.4728,"longitude":94.912,"temp":22.3,"humidity":95,"rain":0.0,"pressure":995.2,"uv_index":7.0,"wind_gusts":27.7,"aqi":76,"pm10":19.2,"pm2_5":12.4,"no2":13.3,"co":215.0,"o3":42.0,"so2":1.2,"mosquito_risk":3,"arthritis_risk":5,"migraine_risk":7,"frizz_risk":1,"updated_at":"2026-05-27T03:52:11.469720+05:30"}]