[{"city":"Delhi","state":"Delhi","latitude":28.6139,"longitude":77.209,"temp":35.0,"humidity":34,"rain":0.0,"pressure":982.1,"uv_index":7.65,"wind_gusts":51.8,"aqi":161,"pm10":453.6,"pm2_5":88.2,"no2":18.6,"co":603.0,"o3":167.0,"so2":27.7,"mosquito_risk":0,"arthritis_risk":5,"migraine_risk":7,"frizz_risk":1,"updated_at":"2026-05-12T10:07:10.492153+05:30"},{"city":"Mumbai","state":"Maharashtra","latitude":19.076,"longitude":72.8777,"temp":33.2,"humidity":59,"rain":0.0,"pressure":1006.6,"uv_index":7.9,"wind_gusts":46.8,"aqi":92,"pm10":71.5,"pm2_5":35.0,"no2":21.0,"co":430.0,"o3":101.0,"so2":41.1,"mosquito_risk":0,"arthritis_risk":5,"migraine_risk":4,"frizz_risk":1,"updated_at":"2026-05-12T10:07:10.492191+05:30"},{"city":"Bangalore","state":"Karnataka","latitude":12.9716,"longitude":77.5946,"temp":29.8,"humidity":37,"rain":0.0,"pressure":911.7,"uv_index":8.75,"wind_gusts":39.2,"aqi":74,"pm10":27.0,"pm2_5":18.2,"no2":16.7,"co":594.0,"o3":113.0,"so2":16.2,"mosquito_risk":4,"arthritis_risk":5,"migraine_risk":7,"frizz_risk":0,"updated_at":"2026-05-12T10:07:10.492208+05:30"},{"city":"Hyderabad","state":"Telangana","latitude":17.385,"longitude":78.4867,"temp":31.8,"humidity":46,"rain":0.0,"pressure":953.2,"uv_index":8.6,"wind_gusts":34.9,"aqi":59,"pm10":23.3,"pm2_5":13.6,"no2":5.6,"co":429.0,"o3":105.0,"so2":5.5,"mosquito_risk":0,"arthritis_risk":5,"migraine_risk":7,"frizz_risk":1,"updated_at":"2026-05-12T10:07:10.492223+05:30"},{"city":"Chennai","state":"Tamil Nadu","latitude":13.0827,"longitude":80.2707,"temp":32.5,"humidity":58,"rain":0.0,"pressure":1005.3,"uv_index":9.2,"wind_gusts":41.0,"aqi":24,"pm10":7.5,"pm2_5":5.0,"no2":3.1,"co":143.0,"o3":49.0,"so2":4.7,"mosquito_risk":0,"arthritis_risk":5,"migraine_risk":4,"frizz_risk":1,"updated_at":"2026-05-12T10:07:10.492231+05:30"},{"city":"Kolkata","state":"West Bengal","latitude":22.5726,"longitude":88.3639,"temp":31.4,"humidity":60,"rain":0.0,"pressure":1007.2,"uv_index":9.0,"wind_gusts":25.2,"aqi":83,"pm10":25.6,"pm2_5":18.4,"no2":3.3,"co":306.0,"o3":103.0,"so2":7.9,"mosquito_risk":0,"arthritis_risk":5,"migraine_risk":4,"frizz_risk":1,"updated_at":"2026-05-12T10:07:10.492240+05:30"},{"city":"Pune","state":"Maharashtra","latitude":18.5204,"longitude":73.8567,"temp":35.1,"humidity":23,"rain":0.0,"pressure":947.2,"uv_index":8.5,"wind_gusts":58.0,"aqi":63,"pm10":48.2,"pm2_5":20.1,"no2":9.7,"co":294.0,"o3":114.0,"so2":16.3,"mosquito_risk":0,"arthritis_risk":5,"migraine_risk":10,"frizz_risk":0,"updated_at":"2026-05-12T10:07:10.492248+05:30"},{"city":"Ahmedabad","state":"Gujarat","latitude":23.0225,"longitude":72.5714,"temp":35.8,"humidity":32,"rain":0.0,"pressure":1000.3,"uv_index":8.15,"wind_gusts":30.2,"aqi":61,"pm10":34.7,"pm2_5":16.4,"no2":5.2,"co":281.0,"o3":94.0,"so2":6.6,"mosquito_risk":0,"arthritis_risk":5,"migraine_risk":7,"frizz_risk":1,"updated_at":"2026-05-12T10:07:10.492258+05:30"},{"city":"Jaipur","state":"Rajasthan","latitude":26.9124,"longitude":75.7873,"temp":35.7,"humidity":24,"rain":0.0,"pressure":959.0,"uv_index":8.2,"wind_gusts":54.0,"aqi":134,"pm10":275.7,"pm2_5":58.2,"no2":4.5,"co":383.0,"o3":137.0,"so2":11.2,"mosquito_risk":0,"arthritis_risk":5,"migraine_risk":10,"frizz_risk":0,"updated_at":"2026-05-12T10:07:10.492266+05:30"},{"city":"Lucknow","state":"Uttar Pradesh","latitude":26.8467,"longitude":80.9462,"temp":33.2,"humidity":45,"rain":0.0,"pressure":993.8,"uv_index":8.15,"wind_gusts":32.4,"aqi":90,"pm10":55.5,"pm2_5":49.7,"no2":6.9,"co":448.0,"o3":174.0,"so2":18.8,"mosquito_risk":0,"arthritis_risk":5,"migraine_risk":7,"frizz_risk":1,"updated_at":"2026-05-12T10:07:10.492275+05:30"},{"city":"Kanpur","state":"Uttar Pradesh","latitude":26.4499,"longitude":80.3319,"temp":35.3,"humidity":32,"rain":0.0,"pressure":991.7,"uv_index":8.2,"wind_gusts":32.8,"aqi":104,"pm10":178.8,"pm2_5":55.2,"no2":5.5,"co":417.0,"o3":172.0,"so2":17.7,"mosquito_risk":0,"arthritis_risk":5,"migraine_risk":10,"frizz_risk":0,"updated_at":"2026-05-12T10:07:10.492282+05:30"},{"city":"Chandigarh","state":"Chandigarh","latitude":30.7333,"longitude":76.7794,"temp":26.4,"humidity":71,"rain":0.0,"pressure":969.6,"uv_index":7.65,"wind_gusts":37.1,"aqi":136,"pm10":102.2,"pm2_5":46.9,"no2":4.2,"co":401.0,"o3":199.0,"so2":12.9,"mosquito_risk":7,"arthritis_risk":5,"migraine_risk":7,"frizz_risk":1,"updated_at":"2026-05-12T10:07:10.492290+05:30"},{"city":"Srinagar","state":"Jammu and Kashmir","latitude":34.0837,"longitude":74.7973,"temp":16.6,"humidity":68,"rain":0.0,"pressure":843.3,"uv_index":8.5,"wind_gusts":31.0,"aqi":93,"pm10":47.3,"pm2_5":25.4,"no2":5.7,"co":315.0,"o3":114.0,"so2":3.9,"mosquito_risk":3,"arthritis_risk":5,"migraine_risk":7,"frizz_risk":0,"updated_at":"2026-05-12T10:07:10.492298+05:30"},{"city":"Jammu","state":"Jammu and Kashmir","latitude":32.7266,"longitude":74.857,"temp":25.1,"humidity":63,"rain":0.0,"pressure":974.1,"uv_index":8.45,"wind_gusts":50.8,"aqi":128,"pm10":47.1,"pm2_5":25.8,"no2":10.0,"co":297.0,"o3":109.0,"so2":3.2,"mosquito_risk":7,"arthritis_risk":5,"migraine_risk":7,"frizz_risk":1,"updated_at":"2026-05-12T10:07:10.492306+05:30"},{"city":"Amritsar","state":"Punjab","latitude":31.634,"longitude":74.8723,"temp":29.8,"humidity":50,"rain":0.0,"pressure":981.2,"uv_index":8.35,"wind_gusts":52.9,"aqi":160,"pm10":118.0,"pm2_5":63.6,"no2":4.7,"co":376.0,"o3":157.0,"so2":18.6,"mosquito_risk":4,"arthritis_risk":5,"migraine_risk":7,"frizz_risk":1,"updated_at":"2026-05-12T10:07:10.492313+05:30"},{"city":"Ludhiana","state":"Punjab","latitude":30.901,"longitude":75.8573,"temp":29.8,"humidity":54,"rain":0.0,"pressure":978.9,"uv_index":7.95,"wind_gusts":52.6,"aqi":163,"pm10":219.3,"pm2_5":66.4,"no2":6.9,"co":468.0,"o3":160.0,"so2":19.1,"mosquito_risk":4,"arthritis_risk":5,"migraine_risk":7,"frizz_risk":1,"updated_at":"2026-05-12T10:07:10.492322+05:30"},{"city":"Jalandhar","state":"Punjab","latitude":31.326,"longitude":75.5762,"temp":29.6,"humidity":52,"rain":0.0,"pressure":980.2,"uv_index":8.1,"wind_gusts":57.2,"aqi":161,"pm10":134.6,"pm2_5":67.8,"no2":6.2,"co":544.0,"o3":167.0,"so2":27.4,"mosquito_risk":4,"arthritis_risk":5,"migraine_risk":7,"frizz_risk":1,"updated_at":"2026-05-12T10:07:10.492329+05:30"},{"city":"Dehradun","state":"Uttarakhand","latitude":30.6284,"longitude":78.0322,"temp":18.8,"humidity":78,"rain":0.1,"pressure":832.8,"uv_index":8.1,"wind_gusts":36.0,"aqi":78,"pm10":54.0,"pm2_5":27.0,"no2":1.1,"co":294.0,"o3":165.0,"so2":3.7,"mosquito_risk":6,"arthritis_risk":5,"migraine_risk":7,"frizz_risk":0,"updated_at":"2026-05-12T10:07:10.492338+05:30"},{"city":"Shimla","state":"Himachal Pradesh","latitude":31.1048,"longitude":77.1734,"temp":18.1,"humidity":54,"rain":0.0,"pressure":787.2,"uv_index":8.15,"wind_gusts":34.6,"aqi":114,"pm10":66.4,"pm2_5":27.4,"no2":0.7,"co":288.0,"o3":172.0,"so2":3.5,"mosquito_risk":0,"arthritis_risk":5,"migraine_risk":7,"frizz_risk":0,"updated_at":"2026-05-12T10:07:10.492346+05:30"},{"city":"Manali","state":"Himachal Pradesh","latitude":32.2396,"longitude":77.1887,"temp":15.7,"humidity":58,"rain":0.1,"pressure":820.2,"uv_index":8.85,"wind_gusts":36.7,"aqi":61,"pm10":17.3,"pm2_5":9.2,"no2":5.4,"co":249.0,"o3":136.0,"so2":0.7,"mosquito_risk":3,"arthritis_risk":5,"migraine_risk":7,"frizz_risk":0,"updated_at":"2026-05-12T10:07:10.492353+05:30"},{"city":"Gurgaon","state":"Haryana","latitude":28.4595,"longitude":77.0266,"temp":34.5,"humidity":36,"rain":0.0,"pressure":980.4,"uv_index":7.8,"wind_gusts":43.6,"aqi":521,"pm10":1337.4,"pm2_5":159.7,"no2":13.1,"co":501.0,"o3":151.0,"so2":18.1,"mosquito_risk":0,"arthritis_risk":5,"migraine_risk":7,"frizz_risk":1,"updated_at":"2026-05-12T10:07:10.492360+05:30"},{"city":"Noida","state":"Uttar Pradesh","latitude":28.5355,"longitude":77.391,"temp":34.2,"humidity":39,"rain":0.0,"pressure":983.7,"uv_index":7.7,"wind_gusts":54.0,"aqi":521,"pm10":1337.4,"pm2_5":159.7,"no2":13.1,"co":507.0,"o3":151.0,"so2":18.1,"mosquito_risk":0,"arthritis_risk":5,"migraine_risk":7,"frizz_risk":1,"updated_at":"2026-05-12T10:07:10.492367+05:30"},{"city":"Ghaziabad","state":"Uttar Pradesh","latitude":28.6692,"longitude":77.4538,"temp":34.0,"humidity":40,"rain":0.0,"pressure":982.2,"uv_index":7.65,"wind_gusts":56.9,"aqi":155,"pm10":305.5,"pm2_5":68.7,"no2":7.3,"co":374.0,"o3":153.0,"so2":14.7,"mosquito_risk":0,"arthritis_risk":5,"migraine_risk":7,"frizz_risk":1,"updated_at":"2026-05-12T10:07:10.492374+05:30"},{"city":"Faridabad","state":"Haryana","latitude":28.4089,"longitude":77.3178,"temp":34.0,"humidity":37,"rain":0.0,"pressure":983.0,"uv_index":7.7,"wind_gusts":58.7,"aqi":521,"pm10":1337.4,"pm2_5":159.7,"no2":13.1,"co":470.0,"o3":151.0,"so2":18.1,"mosquito_risk":0,"arthritis_risk":5,"migraine_risk":7,"frizz_risk":1,"updated_at":"2026-05-12T10:07:10.492381+05:30"},{"city":"Meerut","state":"Uttar Pradesh","latitude":28.9845,"longitude":77.7064,"temp":31.7,"humidity":52,"rain":0.0,"pressure":981.4,"uv_index":7.6,"wind_gusts":46.8,"aqi":155,"pm10":305.5,"pm2_5":68.7,"no2":7.3,"co":403.0,"o3":153.0,"so2":14.7,"mosquito_risk":0,"arthritis_risk":5,"migraine_risk":7,"frizz_risk":1,"updated_at":"2026-05-12T10:07:10.492388+05:30"},{"city":"Agra","state":"Uttar Pradesh","latitude":27.1767,"longitude":78.0081,"temp":35.0,"humidity":34,"rain":0.0,"pressure":987.2,"uv_index":8.05,"wind_gusts":37.4,"aqi":345,"pm10":538.3,"pm2_5":68.2,"no2":5.6,"co":409.0,"o3":148.0,"so2":10.6,"mosquito_risk":0,"arthritis_risk":5,"migraine_risk":7,"frizz_risk":1,"updated_at":"2026-05-12T10:07:10.492395+05:30"},{"city":"Varanasi","state":"Uttar Pradesh","latitude":25.3176,"longitude":82.9739,"temp":34.8,"humidity":42,"rain":0.0,"pressure":996.8,"uv_index":8.7,"wind_gusts":30.2,"aqi":126,"pm10":71.0,"pm2_5":53.3,"no2":6.4,"co":438.0,"o3":173.0,"so2":29.3,"mosquito_risk":0,"arthritis_risk":5,"migraine_risk":7,"frizz_risk":1,"updated_at":"2026-05-12T10:07:10.492403+05:30"},{"city":"Prayagraj","state":"Uttar Pradesh","latitude":25.4358,"longitude":81.8463,"temp":35.4,"humidity":38,"rain":0.0,"pressure":995.3,"uv_index":8.55,"wind_gusts":30.6,"aqi":111,"pm10":59.5,"pm2_5":50.2,"no2":6.5,"co":453.0,"o3":178.0,"so2":25.6,"mosquito_risk":0,"arthritis_risk":5,"migraine_risk":10,"frizz_risk":1,"updated_at":"2026-05-12T10:07:10.492412+05:30"},{"city":"Gorakhpur","state":"Uttar Pradesh","latitude":26.7606,"longitude":83.3732,"temp":29.7,"humidity":58,"rain":0.0,"pressure":998.7,"uv_index":8.5,"wind_gusts":44.3,"aqi":108,"pm10":54.4,"pm2_5":49.9,"no2":4.6,"co":392.0,"o3":165.0,"so2":15.5,"mosquito_risk":4,"arthritis_risk":5,"migraine_risk":7,"frizz_risk":1,"updated_at":"2026-05-12T10:07:10.492419+05:30"},{"city":"Bareilly","state":"Uttar Pradesh","latitude":28.367,"longitude":79.4304,"temp":32.3,"humidity":45,"rain":0.0,"pressure":987.9,"uv_index":7.95,"wind_gusts":40.3,"aqi":125,"pm10":66.8,"pm2_5":38.1,"no2":4.9,"co":367.0,"o3":161.0,"so2":9.3,"mosquito_risk":0,"arthritis_risk":5,"migraine_risk":7,"frizz_risk":1,"updated_at":"2026-05-12T10:07:10.492426+05:30"},{"city":"Aligarh","state":"Uttar Pradesh","latitude":27.8974,"longitude":78.088,"temp":34.1,"humidity":37,"rain":0.0,"pressure":985.3,"uv_index":7.85,"wind_gusts":37.1,"aqi":208,"pm10":465.7,"pm2_5":75.0,"no2":5.4,"co":379.0,"o3":148.0,"so2":16.2,"mosquito_risk":0,"arthritis_risk":5,"migraine_risk":7,"frizz_risk":1,"updated_at":"2026-05-12T10:07:10.492433+05:30"},{"city":"Moradabad","state":"Uttar Pradesh","latitude":28.8386,"longitude":78.7733,"temp":31.7,"humidity":49,"rain":0.0,"pressure":984.7,"uv_index":7.8,"wind_gusts":42.8,"aqi":149,"pm10":55.6,"pm2_5":43.2,"no2":6.7,"co":377.0,"o3":156.0,"so2":10.5,"mosquito_risk":0,"arthritis_risk":5,"migraine_risk":7,"frizz_risk":1,"updated_at":"2026-05-12T10:07:10.492440+05:30"},{"city":"Saharanpur","state":"Uttar Pradesh","latitude":29.9637,"longitude":77.546,"temp":28.4,"humidity":63,"rain":0.0,"pressure":977.4,"uv_index":7.4,"wind_gusts":40.7,"aqi":133,"pm10":82.7,"pm2_5":48.7,"no2":6.0,"co":378.0,"o3":170.0,"so2":12.9,"mosquito_risk":7,"arthritis_risk":5,"migraine_risk":7,"frizz_risk":1,"updated_at":"2026-05-12T10:07:10.492446+05:30"},{"city":"Jhansi","state":"Uttar Pradesh","latitude":25.4484,"longitude":78.5685,"temp":36.2,"humidity":30,"rain":0.0,"pressure":977.4,"uv_index":8.45,"wind_gusts":26.6,"aqi":109,"pm10":50.6,"pm2_5":28.8,"no2":3.0,"co":335.0,"o3":154.0,"so2":16.1,"mosquito_risk":0,"arthritis_risk":5,"migraine_risk":10,"frizz_risk":0,"updated_at":"2026-05-12T10:07:13.849127+05:30"},{"city":"Surat","state":"Gujarat","latitude":21.1702,"longitude":72.8311,"temp":37.7,"humidity":23,"rain":0.0,"pressure":1004.8,"uv_index":7.75,"wind_gusts":36.0,"aqi":95,"pm10":64.3,"pm2_5":43.9,"no2":44.2,"co":268.0,"o3":53.0,"so2":121.0,"mosquito_risk":0,"arthritis_risk":5,"migraine_risk":7,"frizz_risk":0,"updated_at":"2026-05-12T10:07:13.849153+05:30"},{"city":"Vadodara","state":"Gujarat","latitude":22.3072,"longitude":73.1812,"temp":36.5,"humidity":33,"rain":0.0,"pressure":1002.5,"uv_index":8.1,"wind_gusts":27.4,"aqi":78,"pm10":34.6,"pm2_5":19.8,"no2":8.3,"co":322.0,"o3":112.0,"so2":10.7,"mosquito_risk":0,"arthritis_risk":5,"migraine_risk":7,"frizz_risk":1,"updated_at":"2026-05-12T10:07:13.849162+05:30"},{"city":"Rajkot","state":"Gujarat","latitude":22.3039,"longitude":70.8022,"temp":33.4,"humidity":50,"rain":0.0,"pressure":992.8,"uv_index":7.75,"wind_gusts":50.0,"aqi":52,"pm10":39.1,"pm2_5":13.7,"no2":3.6,"co":163.0,"o3":86.0,"so2":5.6,"mosquito_risk":0,"arthritis_risk":5,"migraine_risk":7,"frizz_risk":1,"updated_at":"2026-05-12T10:07:13.849170+05:30"},{"city":"Thane","state":"Maharashtra","latitude":19.2183,"longitude":72.9781,"temp":34.8,"humidity":50,"rain":0.0,"pressure":1005.9,"uv_index":7.9,"wind_gusts":42.5,"aqi":92,"pm10":71.5,"pm2_5":35.0,"no2":21.0,"co":372.0,"o3":101.0,"so2":41.1,"mosquito_risk":0,"arthritis_risk":5,"migraine_risk":4,"frizz_risk":1,"updated_at":"2026-05-12T10:07:13.849176+05:30"},{"city":"Nagpur","state":"Maharashtra","latitude":21.1458,"longitude":79.0882,"temp":36.8,"humidity":30,"rain":0.0,"pressure":972.7,"uv_index":8.95,"wind_gusts":34.9,"aqi":116,"pm10":47.0,"pm2_5":34.7,"no2":12.7,"co":308.0,"o3":178.0,"so2":34.5,"mosquito_risk":0,"arthritis_risk":5,"migraine_risk":10,"frizz_risk":1,"updated_at":"2026-05-12T10:07:13.849183+05:30"},{"city":"Nashik","state":"Maharashtra","latitude":19.9975,"longitude":73.7898,"temp":35.2,"humidity":28,"rain":0.0,"pressure":945.0,"uv_index":8.2,"wind_gusts":47.9,"aqi":66,"pm10":45.5,"pm2_5":19.8,"no2":3.8,"co":233.0,"o3":117.0,"so2":7.0,"mosquito_risk":0,"arthritis_risk":5,"migraine_risk":10,"frizz_risk":0,"updated_at":"2026-05-12T10:07:13.849190+05:30"},{"city":"Aurangabad","state":"Maharashtra","latitude":19.8762,"longitude":75.3433,"temp":37.4,"humidity":19,"rain":0.0,"pressure":943.4,"uv_index":9.05,"wind_gusts":38.2,"aqi":65,"pm10":23.7,"pm2_5":15.1,"no2":4.1,"co":337.0,"o3":150.0,"so2":14.1,"mosquito_risk":0,"arthritis_risk":5,"migraine_risk":10,"frizz_risk":0,"updated_at":"2026-05-12T10:07:13.849196+05:30"},{"city":"Solapur","state":"Maharashtra","latitude":17.6599,"longitude":75.9064,"temp":35.8,"humidity":32,"rain":0.0,"pressure":955.9,"uv_index":8.8,"wind_gusts":39.2,"aqi":68,"pm10":29.7,"pm2_5":19.9,"no2":4.0,"co":283.0,"o3":129.0,"so2":9.2,"mosquito_risk":0,"arthritis_risk":5,"migraine_risk":10,"frizz_risk":1,"updated_at":"2026-05-12T10:07:13.849203+05:30"},{"city":"Kolhapur","state":"Maharashtra","latitude":16.705,"longitude":74.2433,"temp":32.8,"humidity":39,"rain":0.0,"pressure":947.3,"uv_index":7.95,"wind_gusts":57.2,"aqi":73,"pm10":50.4,"pm2_5":23.8,"no2":4.9,"co":219.0,"o3":93.0,"so2":3.1,"mosquito_risk":0,"arthritis_risk":5,"migraine_risk":7,"frizz_risk":1,"updated_at":"2026-05-12T10:07:13.849210+05:30"},{"city":"Goa","state":"Goa","latitude":15.2993,"longitude":74.124,"temp":33.5,"humidity":59,"rain":0.0,"pressure":996.2,"uv_index":8.75,"wind_gusts":34.9,"aqi":80,"pm10":54.2,"pm2_5":20.8,"no2":1.5,"co":178.0,"o3":84.0,"so2":2.2,"mosquito_risk":0,"arthritis_risk":5,"migraine_risk":7,"frizz_risk":1,"updated_at":"2026-05-12T10:07:13.849216+05:30"},{"city":"Jodhpur","state":"Rajasthan","latitude":26.2389,"longitude":73.0243,"temp":37.1,"humidity":28,"rain":0.0,"pressure":981.6,"uv_index":8.05,"wind_gusts":43.9,"aqi":113,"pm10":240.3,"pm2_5":56.8,"no2":2.4,"co":179.0,"o3":107.0,"so2":2.6,"mosquito_risk":0,"arthritis_risk":5,"migraine_risk":10,"frizz_risk":0,"updated_at":"2026-05-12T10:07:13.849223+05:30"},{"city":"Udaipur","state":"Rajasthan","latitude":24.5854,"longitude":73.7125,"temp":38.3,"humidity":15,"rain":0.0,"pressure":946.2,"uv_index":8.85,"wind_gusts":34.9,"aqi":41,"pm10":23.2,"pm2_5":10.0,"no2":2.3,"co":192.0,"o3":126.0,"so2":4.6,"mosquito_risk":0,"arthritis_risk":5,"migraine_risk":10,"frizz_risk":0,"updated_at":"2026-05-12T10:07:13.849230+05:30"},{"city":"Kota","state":"Rajasthan","latitude":25.2138,"longitude":75.8648,"temp":38.8,"humidity":19,"rain":0.0,"pressure":977.8,"uv_index":8.4,"wind_gusts":38.9,"aqi":99,"pm10":82.4,"pm2_5":42.5,"no2":3.4,"co":349.0,"o3":146.0,"so2":16.1,"mosquito_risk":0,"arthritis_risk":5,"migraine_risk":10,"frizz_risk":0,"updated_at":"2026-05-12T10:07:13.849236+05:30"},{"city":"Bikaner","state":"Rajasthan","latitude":28.0229,"longitude":73.3119,"temp":38.0,"humidity":24,"rain":0.0,"pressure":979.5,"uv_index":8.3,"wind_gusts":41.4,"aqi":78,"pm10":68.0,"pm2_5":25.4,"no2":1.7,"co":231.0,"o3":108.0,"so2":6.1,"mosquito_risk":0,"arthritis_risk":5,"migraine_risk":10,"frizz_risk":0,"updated_at":"2026-05-12T10:07:13.849243+05:30"},{"city":"Ajmer","state":"Rajasthan","latitude":26.4499,"longitude":74.6399,"temp":36.0,"humidity":23,"rain":0.0,"pressure":954.2,"uv_index":8.35,"wind_gusts":54.4,"aqi":73,"pm10":78.7,"pm2_5":21.0,"no2":3.3,"co":215.0,"o3":106.0,"so2":3.1,"mosquito_risk":0,"arthritis_risk":5,"migraine_risk":10,"frizz_risk":0,"updated_at":"2026-05-12T10:07:13.849249+05:30"},{"city":"Gwalior","state":"Madhya Pradesh","latitude":26.2183,"longitude":78.1828,"temp":35.7,"humidity":31,"rain":0.0,"pressure":982.4,"uv_index":8.25,"wind_gusts":49.7,"aqi":114,"pm10":53.1,"pm2_5":27.3,"no2":2.7,"co":338.0,"o3":149.0,"so2":10.5,"mosquito_risk":0,"arthritis_risk":5,"migraine_risk":10,"frizz_risk":1,"updated_at":"2026-05-12T10:07:13.849256+05:30"},{"city":"Indore","state":"Madhya Pradesh","latitude":22.7196,"longitude":75.8577,"temp":38.5,"humidity":18,"rain":0.0,"pressure":947.8,"uv_index":8.7,"wind_gusts":37.8,"aqi":77,"pm10":73.6,"pm2_5":30.4,"no2":3.7,"co":345.0,"o3":145.0,"so2":9.0,"mosquito_risk":0,"arthritis_risk":5,"migraine_risk":10,"frizz_risk":0,"updated_at":"2026-05-12T10:07:13.849262+05:30"},{"city":"Bhopal","state":"Madhya Pradesh","latitude":23.2599,"longitude":77.4126,"temp":37.2,"humidity":24,"rain":0.0,"pressure":953.6,"uv_index":8.7,"wind_gusts":33.8,"aqi":90,"pm10":68.5,"pm2_5":31.8,"no2":2.2,"co":385.0,"o3":160.0,"so2":7.5,"mosquito_risk":0,"arthritis_risk":5,"migraine_risk":10,"frizz_risk":0,"updated_at":"2026-05-12T10:07:13.849268+05:30"},{"city":"Jabalpur","state":"Madhya Pradesh","latitude":23.1815,"longitude":79.9864,"temp":36.8,"humidity":26,"rain":0.0,"pressure":961.0,"uv_index":8.9,"wind_gusts":38.2,"aqi":91,"pm10":74.0,"pm2_5":41.9,"no2":4.6,"co":304.0,"o3":172.0,"so2":19.0,"mosquito_risk":0,"arthritis_risk":5,"migraine_risk":10,"frizz_risk":0,"updated_at":"2026-05-12T10:07:13.849274+05:30"},{"city":"Ujjain","state":"Madhya Pradesh","latitude":23.1765,"longitude":75.7885,"temp":39.2,"humidity":15,"rain":0.0,"pressure":953.4,"uv_index":8.6,"wind_gusts":33.5,"aqi":82,"pm10":87.1,"pm2_5":32.7,"no2":3.6,"co":287.0,"o3":134.0,"so2":9.6,"mosquito_risk":0,"arthritis_risk":5,"migraine_risk":10,"frizz_risk":0,"updated_at":"2026-05-12T10:07:13.849281+05:30"},{"city":"Visakhapatnam","state":"Andhra Pradesh","latitude":17.6868,"longitude":83.2185,"temp":32.8,"humidity":56,"rain":0.0,"pressure":1003.1,"uv_index":8.8,"wind_gusts":38.2,"aqi":64,"pm10":19.6,"pm2_5":14.9,"no2":21.6,"co":833.0,"o3":45.0,"so2":21.1,"mosquito_risk":0,"arthritis_risk":5,"migraine_risk":4,"frizz_risk":1,"updated_at":"2026-05-12T10:07:13.849287+05:30"},{"city":"Vijayawada","state":"Andhra Pradesh","latitude":16.5062,"longitude":80.648,"temp":33.9,"humidity":51,"rain":0.0,"pressure":1001.5,"uv_index":9.15,"wind_gusts":40.0,"aqi":55,"pm10":16.6,"pm2_5":11.1,"no2":2.4,"co":157.0,"o3":80.0,"so2":6.6,"mosquito_risk":0,"arthritis_risk":5,"migraine_risk":4,"frizz_risk":1,"updated_at":"2026-05-12T10:07:13.849294+05:30"},{"city":"Guntur","state":"Andhra Pradesh","latitude":16.3067,"longitude":80.4365,"temp":34.2,"humidity":51,"rain":0.0,"pressure":1002.6,"uv_index":9.2,"wind_gusts":38.2,"aqi":56,"pm10":15.9,"pm2_5":11.5,"no2":2.5,"co":168.0,"o3":81.0,"so2":7.4,"mosquito_risk":0,"arthritis_risk":5,"migraine_risk":4,"frizz_risk":1,"updated_at":"2026-05-12T10:07:13.849300+05:30"},{"city":"Nellore","state":"Andhra Pradesh","latitude":14.4426,"longitude":79.9865,"temp":33.3,"humidity":56,"rain":0.0,"pressure":1004.3,"uv_index":9.15,"wind_gusts":38.9,"aqi":30,"pm10":10.9,"pm2_5":6.2,"no2":1.0,"co":114.0,"o3":63.0,"so2":2.6,"mosquito_risk":0,"arthritis_risk":5,"migraine_risk":4,"frizz_risk":1,"updated_at":"2026-05-12T10:07:13.849308+05:30"},{"city":"Kurnool","state":"Andhra Pradesh","latitude":15.8281,"longitude":78.0373,"temp":34.9,"humidity":36,"rain":0.0,"pressure":976.2,"uv_index":8.9,"wind_gusts":40.7,"aqi":52,"pm10":16.1,"pm2_5":8.7,"no2":2.0,"co":165.0,"o3":92.0,"so2":4.7,"mosquito_risk":0,"arthritis_risk":5,"migraine_risk":7,"frizz_risk":1,"updated_at":"2026-05-12T10:07:13.849315+05:30"},{"city":"Kakinada","state":"Andhra Pradesh","latitude":16.9891,"longitude":82.2475,"temp":31.9,"humidity":61,"rain":0.0,"pressure":1006.7,"uv_index":9.1,"wind_gusts":41.4,"aqi":25,"pm10":12.5,"pm2_5":7.9,"no2":4.3,"co":245.0,"o3":66.0,"so2":3.3,"mosquito_risk":3,"arthritis_risk":5,"migraine_risk":4,"frizz_risk":1,"updated_at":"2026-05-12T10:07:13.849321+05:30"},{"city":"Tirupati","state":"Andhra Pradesh","latitude":13.6288,"longitude":79.4192,"temp":32.4,"humidity":50,"rain":0.0,"pressure":989.8,"uv_index":9.25,"wind_gusts":39.2,"aqi":54,"pm10":12.0,"pm2_5":7.9,"no2":0.9,"co":140.0,"o3":76.0,"so2":2.5,"mosquito_risk":0,"arthritis_risk":5,"migraine_risk":7,"frizz_risk":1,"updated_at":"2026-05-12T10:07:13.849327+05:30"},{"city":"Warangal","state":"Telangana","latitude":17.9689,"longitude":79.5941,"temp":32.8,"humidity":54,"rain":0.0,"pressure":978.4,"uv_index":8.65,"wind_gusts":41.0,"aqi":63,"pm10":15.7,"pm2_5":11.9,"no2":4.8,"co":174.0,"o3":77.0,"so2":10.8,"mosquito_risk":0,"arthritis_risk":5,"migraine_risk":7,"frizz_risk":1,"updated_at":"2026-05-12T10:07:13.849334+05:30"},{"city":"Nizamabad","state":"Telangana","latitude":18.6725,"longitude":78.0941,"temp":35.3,"humidity":34,"rain":0.0,"pressure":964.1,"uv_index":9.15,"wind_gusts":31.0,"aqi":68,"pm10":26.4,"pm2_5":19.6,"no2":4.8,"co":226.0,"o3":127.0,"so2":6.8,"mosquito_risk":0,"arthritis_risk":5,"migraine_risk":10,"frizz_risk":1,"updated_at":"2026-05-12T10:07:13.849340+05:30"},{"city":"Mysore","state":"Karnataka","latitude":12.2958,"longitude":76.6396,"temp":29.8,"humidity":50,"rain":0.0,"pressure":928.0,"uv_index":8.95,"wind_gusts":34.9,"aqi":83,"pm10":32.5,"pm2_5":26.8,"no2":7.7,"co":371.0,"o3":126.0,"so2":3.4,"mosquito_risk":4,"arthritis_risk":5,"migraine_risk":7,"frizz_risk":1,"updated_at":"2026-05-12T10:07:13.849346+05:30"},{"city":"Mangalore","state":"Karnataka","latitude":12.9141,"longitude":74.856,"temp":31.6,"humidity":70,"rain":0.0,"pressure":1004.5,"uv_index":8.7,"wind_gusts":36.0,"aqi":88,"pm10":44.1,"pm2_5":23.9,"no2":4.2,"co":225.0,"o3":113.0,"so2":3.1,"mosquito_risk":3,"arthritis_risk":5,"migraine_risk":4,"frizz_risk":1,"updated_at":"2026-05-12T10:07:13.849352+05:30"},{"city":"Hubli-Dharwad","state":"Karnataka","latitude":15.3647,"longitude":75.124,"temp":32.2,"humidity":46,"rain":0.0,"pressure":940.3,"uv_index":9.15,"wind_gusts":44.6,"aqi":70,"pm10":43.2,"pm2_5":19.7,"no2":3.1,"co":223.0,"o3":103.0,"so2":2.6,"mosquito_risk":0,"arthritis_risk":5,"migraine_risk":7,"frizz_risk":1,"updated_at":"2026-05-12T10:07:13.849359+05:30"},{"city":"Belgaum","state":"Karnataka","latitude":15.8497,"longitude":74.4977,"temp":31.2,"humidity":42,"rain":0.0,"pressure":925.7,"uv_index":8.45,"wind_gusts":38.5,"aqi":69,"pm10":49.9,"pm2_5":19.6,"no2":3.3,"co":196.0,"o3":100.0,"so2":3.6,"mosquito_risk":0,"arthritis_risk":5,"migraine_risk":7,"frizz_risk":1,"updated_at":"2026-05-12T10:07:17.203885+05:30"},{"city":"Coimbatore","state":"Tamil Nadu","latitude":11.0168,"longitude":76.9558,"temp":29.9,"humidity":66,"rain":0.0,"pressure":960.5,"uv_index":8.55,"wind_gusts":27.7,"aqi":72,"pm10":30.4,"pm2_5":20.3,"no2":3.9,"co":405.0,"o3":148.0,"so2":8.2,"mosquito_risk":7,"arthritis_risk":5,"migraine_risk":7,"frizz_risk":1,"updated_at":"2026-05-12T10:07:17.203919+05:30"},{"city":"Madurai","state":"Tamil Nadu","latitude":9.9252,"longitude":78.1198,"temp":31.9,"humidity":61,"rain":0.0,"pressure":991.2,"uv_index":8.75,"wind_gusts":37.8,"aqi":81,"pm10":26.9,"pm2_5":24.2,"no2":6.4,"co":315.0,"o3":127.0,"so2":14.3,"mosquito_risk":3,"arthritis_risk":5,"migraine_risk":7,"frizz_risk":1,"updated_at":"2026-05-12T10:07:17.203932+05:30"},{"city":"Trichy","state":"Tamil Nadu","latitude":10.7905,"longitude":78.7047,"temp":31.8,"humidity":63,"rain":0.0,"pressure":997.8,"uv_index":8.75,"wind_gusts":31.3,"aqi":68,"pm10":20.4,"pm2_5":17.7,"no2":5.7,"co":261.0,"o3":87.0,"so2":22.1,"mosquito_risk":3,"arthritis_risk":5,"migraine_risk":7,"frizz_risk":1,"updated_at":"2026-05-12T10:07:17.203942+05:30"},{"city":"Salem","state":"Tamil Nadu","latitude":11.6643,"longitude":78.146,"temp":30.5,"humidity":62,"rain":0.0,"pressure":976.0,"uv_index":7.55,"wind_gusts":32.4,"aqi":87,"pm10":29.7,"pm2_5":25.7,"no2":8.6,"co":246.0,"o3":131.0,"so2":25.0,"mosquito_risk":3,"arthritis_risk":5,"migraine_risk":7,"frizz_risk":1,"updated_at":"2026-05-12T10:07:17.203952+05:30"},{"city":"Tirunelveli","state":"Tamil Nadu","latitude":8.7139,"longitude":77.7567,"temp":33.8,"humidity":51,"rain":0.0,"pressure":1001.0,"uv_index":9.0,"wind_gusts":36.7,"aqi":64,"pm10":23.1,"pm2_5":19.3,"no2":3.4,"co":246.0,"o3":122.0,"so2":1.6,"mosquito_risk":0,"arthritis_risk":5,"migraine_risk":4,"frizz_risk":1,"updated_at":"2026-05-12T10:07:17.203961+05:30"},{"city":"Vellore","state":"Tamil Nadu","latitude":12.9165,"longitude":79.1325,"temp":31.3,"humidity":55,"rain":0.0,"pressure":983.1,"uv_index":9.1,"wind_gusts":30.6,"aqi":69,"pm10":15.0,"pm2_5":10.9,"no2":3.8,"co":171.0,"o3":85.0,"so2":11.0,"mosquito_risk":0,"arthritis_risk":5,"migraine_risk":7,"frizz_risk":1,"updated_at":"2026-05-12T10:07:17.203970+05:30"},{"city":"Erode","state":"Tamil Nadu","latitude":11.341,"longitude":77.7172,"temp":30.8,"humidity":66,"rain":0.0,"pressure":987.6,"uv_index":9.15,"wind_gusts":21.6,"aqi":89,"pm10":36.9,"pm2_5":30.0,"no2":8.8,"co":317.0,"o3":148.0,"so2":4.1,"mosquito_risk":3,"arthritis_risk":5,"migraine_risk":7,"frizz_risk":1,"updated_at":"2026-05-12T10:07:17.203978+05:30"},{"city":"Kochi","state":"Kerala","latitude":9.9312,"longitude":76.2673,"temp":30.2,"humidity":79,"rain":0.0,"pressure":1006.9,"uv_index":8.5,"wind_gusts":32.4,"aqi":84,"pm10":26.8,"pm2_5":22.5,"no2":6.3,"co":278.0,"o3":99.0,"so2":3.0,"mosquito_risk":3,"arthritis_risk":5,"migraine_risk":4,"frizz_risk":1,"updated_at":"2026-05-12T10:07:17.203986+05:30"},{"city":"Thiruvananthapuram","state":"Kerala","latitude":8.5241,"longitude":76.9366,"temp":30.4,"humidity":74,"rain":0.0,"pressure":1006.1,"uv_index":8.65,"wind_gusts":36.7,"aqi":50,"pm10":24.0,"pm2_5":20.5,"no2":4.9,"co":285.0,"o3":115.0,"so2":4.5,"mosquito_risk":3,"arthritis_risk":5,"migraine_risk":4,"frizz_risk":1,"updated_at":"2026-05-12T10:07:17.203994+05:30"},{"city":"Kozhikode","state":"Kerala","latitude":11.2588,"longitude":75.7804,"temp":31.2,"humidity":68,"rain":0.0,"pressure":1005.5,"uv_index":8.5,"wind_gusts":37.1,"aqi":60,"pm10":29.4,"pm2_5":18.9,"no2":1.9,"co":276.0,"o3":110.0,"so2":2.7,"mosquito_risk":3,"arthritis_risk":5,"migraine_risk":4,"frizz_risk":1,"updated_at":"2026-05-12T10:07:17.204003+05:30"},{"city":"Thrissur","state":"Kerala","latitude":10.5276,"longitude":76.2144,"temp":30.7,"humidity":72,"rain":0.0,"pressure":1005.1,"uv_index":8.75,"wind_gusts":34.6,"aqi":83,"pm10":27.6,"pm2_5":22.4,"no2":3.8,"co":289.0,"o3":101.0,"so2":2.4,"mosquito_risk":3,"arthritis_risk":5,"migraine_risk":4,"frizz_risk":1,"updated_at":"2026-05-12T10:07:17.204012+05:30"},{"city":"Kannur","state":"Kerala","latitude":11.8745,"longitude":75.3704,"temp":32.3,"humidity":61,"rain":0.0,"pressure":1004.8,"uv_index":8.95,"wind_gusts":46.1,"aqi":71,"pm10":33.9,"pm2_5":20.3,"no2":3.7,"co":281.0,"o3":110.0,"so2":2.2,"mosquito_risk":3,"arthritis_risk":5,"migraine_risk":4,"frizz_risk":1,"updated_at":"2026-05-12T10:07:17.204020+05:30"},{"city":"Patna","state":"Bihar","latitude":25.5941,"longitude":85.1376,"temp":29.5,"humidity":66,"rain":0.0,"pressure":1001.5,"uv_index":8.7,"wind_gusts":40.7,"aqi":123,"pm10":49.0,"pm2_5":45.3,"no2":6.2,"co":338.0,"o3":156.0,"so2":19.1,"mosquito_risk":7,"arthritis_risk":5,"migraine_risk":4,"frizz_risk":1,"updated_at":"2026-05-12T10:07:17.204029+05:30"},{"city":"Gaya","state":"Bihar","latitude":24.7914,"longitude":85.0002,"temp":33.2,"humidity":50,"rain":0.0,"pressure":993.9,"uv_index":8.65,"wind_gusts":38.9,"aqi":107,"pm10":60.1,"pm2_5":41.4,"no2":8.7,"co":340.0,"o3":156.0,"so2":37.0,"mosquito_risk":0,"arthritis_risk":5,"migraine_risk":7,"frizz_risk":1,"updated_at":"2026-05-12T10:07:17.204037+05:30"},{"city":"Muzaffarpur","state":"Bihar","latitude":26.1209,"longitude":85.3647,"temp":28.1,"humidity":70,"rain":0.0,"pressure":1002.0,"uv_index":8.75,"wind_gusts":40.3,"aqi":117,"pm10":46.1,"pm2_5":42.6,"no2":5.2,"co":345.0,"o3":154.0,"so2":12.7,"mosquito_risk":7,"arthritis_risk":5,"migraine_risk":4,"frizz_risk":1,"updated_at":"2026-05-12T10:07:17.204045+05:30"},{"city":"Bhagalpur","state":"Bihar","latitude":25.2425,"longitude":87.0117,"temp":27.5,"humidity":70,"rain":0.0,"pressure":1003.5,"uv_index":8.1,"wind_gusts":36.0,"aqi":135,"pm10":41.3,"pm2_5":37.6,"no2":8.1,"co":332.0,"o3":133.0,"so2":12.8,"mosquito_risk":7,"arthritis_risk":5,"migraine_risk":4,"frizz_risk":1,"updated_at":"2026-05-12T10:07:17.204053+05:30"},{"city":"Ranchi","state":"Jharkhand","latitude":23.3441,"longitude":85.3096,"temp":29.0,"humidity":61,"rain":0.0,"pressure":939.0,"uv_index":9.1,"wind_gusts":33.5,"aqi":124,"pm10":53.7,"pm2_5":38.2,"no2":3.2,"co":235.0,"o3":159.0,"so2":33.7,"mosquito_risk":7,"arthritis_risk":5,"migraine_risk":7,"frizz_risk":1,"updated_at":"2026-05-12T10:07:17.204061+05:30"},{"city":"Jamshedpur","state":"Jharkhand","latitude":22.8046,"longitude":86.2029,"temp":33.3,"humidity":50,"rain":0.0,"pressure":991.7,"uv_index":9.1,"wind_gusts":40.0,"aqi":72,"pm10":32.0,"pm2_5":26.3,"no2":11.1,"co":494.0,"o3":112.0,"so2":40.6,"mosquito_risk":0,"arthritis_risk":5,"migraine_risk":7,"frizz_risk":1,"updated_at":"2026-05-12T10:07:17.204070+05:30"},{"city":"Dhanbad","state":"Jharkhand","latitude":23.7957,"longitude":86.4304,"temp":32.3,"humidity":53,"rain":0.0,"pressure":980.8,"uv_index":8.95,"wind_gusts":28.4,"aqi":113,"pm10":53.6,"pm2_5":45.4,"no2":33.2,"co":628.0,"o3":80.0,"so2":77.1,"mosquito_risk":0,"arthritis_risk":5,"migraine_risk":7,"frizz_risk":1,"updated_at":"2026-05-12T10:07:17.204078+05:30"},{"city":"Bokaro","state":"Jharkhand","latitude":23.6693,"longitude":86.1511,"temp":32.7,"humidity":54,"rain":0.0,"pressure":984.5,"uv_index":8.9,"wind_gusts":30.2,"aqi":126,"pm10":61.7,"pm2_5":47.6,"no2":31.7,"co":1034.0,"o3":113.0,"so2":82.8,"mosquito_risk":0,"arthritis_risk":5,"migraine_risk":7,"frizz_risk":1,"updated_at":"2026-05-12T10:07:17.204087+05:30"},{"city":"Bhubaneswar","state":"Odisha","latitude":20.2961,"longitude":85.8245,"temp":32.3,"humidity":59,"rain":0.0,"pressure":1003.4,"uv_index":9.15,"wind_gusts":32.0,"aqi":66,"pm10":19.4,"pm2_5":12.5,"no2":1.7,"co":201.0,"o3":80.0,"so2":4.8,"mosquito_risk":0,"arthritis_risk":5,"migraine_risk":4,"frizz_risk":1,"updated_at":"2026-05-12T10:07:17.204095+05:30"},{"city":"Cuttack","state":"Odisha","latitude":20.4625,"longitude":85.8828,"temp":32.2,"humidity":61,"rain":0.0,"pressure":1005.2,"uv_index":9.2,"wind_gusts":31.3,"aqi":66,"pm10":19.4,"pm2_5":12.5,"no2":1.7,"co":189.0,"o3":80.0,"so2":4.8,"mosquito_risk":3,"arthritis_risk":5,"migraine_risk":4,"frizz_risk":1,"updated_at":"2026-05-12T10:07:17.204103+05:30"},{"city":"Rourkela","state":"Odisha","latitude":22.2604,"longitude":84.8536,"temp":33.0,"humidity":51,"rain":0.0,"pressure":985.7,"uv_index":9.05,"wind_gusts":34.2,"aqi":107,"pm10":37.3,"pm2_5":30.7,"no2":5.3,"co":212.0,"o3":112.0,"so2":50.1,"mosquito_risk":0,"arthritis_risk":5,"migraine_risk":7,"frizz_risk":1,"updated_at":"2026-05-12T10:07:17.204111+05:30"},{"city":"Raipur","state":"Chhattisgarh","latitude":21.2514,"longitude":81.6296,"temp":34.8,"humidity":40,"rain":0.0,"pressure":974.6,"uv_index":9.0,"wind_gusts":31.7,"aqi":107,"pm10":47.3,"pm2_5":33.6,"no2":21.3,"co":664.0,"o3":186.0,"so2":8.6,"mosquito_risk":0,"arthritis_risk":5,"migraine_risk":7,"frizz_risk":1,"updated_at":"2026-05-12T10:07:17.204120+05:30"},{"city":"Bhilai","state":"Chhattisgarh","latitude":21.1938,"longitude":81.3509,"temp":34.2,"humidity":44,"rain":0.0,"pressure":974.9,"uv_index":9.0,"wind_gusts":32.0,"aqi":100,"pm10":37.7,"pm2_5":28.4,"no2":24.2,"co":905.0,"o3":149.0,"so2":7.8,"mosquito_risk":0,"arthritis_risk":5,"migraine_risk":7,"frizz_risk":1,"updated_at":"2026-05-12T10:07:17.204129+05:30"},{"city":"Guwahati","state":"Assam","latitude":26.1158,"longitude":91.7086,"temp":28.0,"humidity":67,"rain":0.0,"pressure":1003.7,"uv_index":8.65,"wind_gusts":23.4,"aqi":81,"pm10":28.6,"pm2_5":23.6,"no2":1.1,"co":317.0,"o3":133.0,"so2":1.8,"mosquito_risk":7,"arthritis_risk":5,"migraine_risk":4,"frizz_risk":1,"updated_at":"2026-05-12T10:07:17.204137+05:30"},{"city":"Agartala","state":"Tripura","latitude":23.8315,"longitude":91.2868,"temp":28.6,"humidity":70,"rain":0.1,"pressure":1008.3,"uv_index":8.85,"wind_gusts":19.8,"aqi":89,"pm10":30.9,"pm2_5":26.7,"no2":5.1,"co":240.0,"o3":131.0,"so2":2.1,"mosquito_risk":10,"arthritis_risk":0,"migraine_risk":4,"frizz_risk":1,"updated_at":"2026-05-12T10:07:17.204146+05:30"},{"city":"Shillong","state":"Meghalaya","latitude":25.5788,"longitude":91.8933,"temp":22.6,"humidity":53,"rain":0.0,"pressure":859.5,"uv_index":6.5,"wind_gusts":22.3,"aqi":70,"pm10":25.0,"pm2_5":18.5,"no2":0.7,"co":431.0,"o3":144.0,"so2":1.1,"mosquito_risk":0,"arthritis_risk":5,"migraine_risk":7,"frizz_risk":0,"updated_at":"2026-05-12T10:07:17.204155+05:30"},{"city":"Imphal","state":"Manipur","latitude":24.817,"longitude":93.9368,"temp":24.7,"humidity":62,"rain":0.0,"pressure":925.2,"uv_index":9.2,"wind_gusts":20.9,"aqi":82,"pm10":27.9,"pm2_5":20.8,"no2":0.3,"co":300.0,"o3":133.0,"so2":1.6,"mosquito_risk":3,"arthritis_risk":5,"migraine_risk":7,"frizz_risk":1,"updated_at":"2026-05-12T10:07:17.204164+05:30"},{"city":"Aizawl","state":"Mizoram","latitude":23.7271,"longitude":92.7176,"temp":24.2,"humidity":54,"rain":0.0,"pressure":894.8,"uv_index":9.05,"wind_gusts":23.4,"aqi":70,"pm10":19.5,"pm2_5":15.9,"no2":0.6,"co":295.0,"o3":106.0,"so2":0.4,"mosquito_risk":0,"arthritis_risk":5,"migraine_risk":7,"frizz_risk":0,"updated_at":"2026-05-12T10:07:17.204172+05:30"},{"city":"Kohima","state":"Nagaland","latitude":25.6701,"longitude":94.1077,"temp":22.5,"humidity":54,"rain":0.0,"pressure":857.6,"uv_index":7.4,"wind_gusts":29.9,"aqi":57,"pm10":22.1,"pm2_5":16.2,"no2":0.2,"co":257.0,"o3":131.0,"so2":1.1,"mosquito_risk":0,"arthritis_risk":5,"migraine_risk":7,"frizz_risk":0,"updated_at":"2026-05-12T10:07:17.204181+05:30"},{"city":"Gangtok","state":"Sikkim","latitude":27.3314,"longitude":88.6138,"temp":20.1,"humidity":62,"rain":0.0,"pressure":840.1,"uv_index":9.05,"wind_gusts":37.8,"aqi":75,"pm10":31.5,"pm2_5":19.4,"no2":0.6,"co":279.0,"o3":139.0,"so2":1.5,"mosquito_risk":3,"arthritis_risk":5,"migraine_risk":7,"frizz_risk":0,"updated_at":"2026-05-12T10:07:17.204190+05:30"},{"city":"Siliguri","state":"West Bengal","latitude":26.7271,"longitude":88.3953,"temp":26.3,"humidity":69,"rain":0.0,"pressure":996.0,"uv_index":8.55,"wind_gusts":24.8,"aqi":111,"pm10":55.5,"pm2_5":36.6,"no2":0.6,"co":405.0,"o3":148.0,"so2":2.5,"mosquito_risk":7,"arthritis_risk":5,"migraine_risk":7,"frizz_risk":1,"updated_at":"2026-05-12T10:07:20.565312+05:30"},{"city":"Durgapur","state":"West Bengal","latitude":23.5204,"longitude":87.3119,"temp":30.5,"humidity":70,"rain":0.0,"pressure":996.3,"uv_index":9.0,"wind_gusts":28.1,"aqi":103,"pm10":31.2,"pm2_5":27.2,"no2":17.0,"co":205.0,"o3":70.0,"so2":38.1,"mosquito_risk":3,"arthritis_risk":5,"migraine_risk":7,"frizz_risk":1,"updated_at":"2026-05-12T10:07:20.565347+05:30"},{"city":"Asansol","state":"West Bengal","latitude":23.6739,"longitude":86.9524,"temp":31.6,"humidity":62,"rain":0.0,"pressure":994.7,"uv_index":8.9,"wind_gusts":29.9,"aqi":94,"pm10":37.5,"pm2_5":31.9,"no2":18.9,"co":434.0,"o3":67.0,"so2":42.7,"mosquito_risk":3,"arthritis_risk":5,"migraine_risk":7,"frizz_risk":1,"updated_at":"2026-05-12T10:07:20.565360+05:30"},{"city":"Pondicherry","state":"Puducherry","latitude":11.9139,"longitude":79.8145,"temp":30.1,"humidity":74,"rain":0.0,"pressure":1006.4,"uv_index":8.35,"wind_gusts":33.5,"aqi":35,"pm10":13.2,"pm2_5":10.9,"no2":10.7,"co":190.0,"o3":47.0,"so2":12.6,"mosquito_risk":3,"arthritis_risk":5,"migraine_risk":4,"frizz_risk":1,"updated_at":"2026-05-12T10:07:20.565371+05:30"},{"city":"Port Blair","state":"Andaman and Nicobar Islands","latitude":11.6234,"longitude":92.7265,"temp":30.2,"humidity":73,"rain":0.0,"pressure":1006.0,"uv_index":3.9,"wind_gusts":35.6,"aqi":25,"pm10":7.1,"pm2_5":5.0,"no2":0.5,"co":116.0,"o3":53.0,"so2":0.1,"mosquito_risk":3,"arthritis_risk":5,"migraine_risk":0,"frizz_risk":1,"updated_at":"2026-05-12T10:07:20.565381+05:30"},{"city":"Haridwar","state":"Uttarakhand","latitude":29.9457,"longitude":78.1642,"temp":31.7,"humidity":48,"rain":0.0,"pressure":975.1,"uv_index":7.3,"wind_gusts":29.5,"aqi":114,"pm10":85.2,"pm2_5":45.2,"no2":3.2,"co":332.0,"o3":169.0,"so2":10.6,"mosquito_risk":0,"arthritis_risk":5,"migraine_risk":7,"frizz_risk":1,"updated_at":"2026-05-12T10:07:20.565391+05:30"},{"city":"Rishikesh","state":"Uttarakhand","latitude":30.0869,"longitude":78.2676,"temp":30.9,"humidity":48,"rain":0.0,"pressure":968.1,"uv_index":7.45,"wind_gusts":30.2,"aqi":108,"pm10":98.7,"pm2_5":42.4,"no2":1.5,"co":295.0,"o3":174.0,"so2":8.1,"mosquito_risk":0,"arthritis_risk":5,"migraine_risk":7,"frizz_risk":1,"updated_at":"2026-05-12T10:07:20.565400+05:30"},{"city":"Nainital","state":"Uttarakhand","latitude":29.3919,"longitude":79.4542,"temp":17.2,"humidity":72,"rain":0.0,"pressure":808.3,"uv_index":8.45,"wind_gusts":34.6,"aqi":113,"pm10":63.6,"pm2_5":36.1,"no2":1.0,"co":287.0,"o3":163.0,"so2":3.9,"mosquito_risk":3,"arthritis_risk":5,"migraine_risk":7,"frizz_risk":0,"updated_at":"2026-05-12T10:07:20.565409+05:30"},{"city":"Mussoorie","state":"Uttarakhand","latitude":30.4599,"longitude":78.0664,"temp":17.2,"humidity":74,"rain":0.1,"pressure":805.5,"uv_index":7.95,"wind_gusts":43.2,"aqi":104,"pm10":94.5,"pm2_5":44.1,"no2":1.9,"co":312.0,"o3":182.0,"so2":10.8,"mosquito_risk":6,"arthritis_risk":5,"migraine_risk":7,"frizz_risk":0,"updated_at":"2026-05-12T10:07:20.565419+05:30"},{"city":"Dharamshala","state":"Himachal Pradesh","latitude":32.219,"longitude":76.3234,"temp":20.1,"humidity":69,"rain":0.1,"pressure":870.8,"uv_index":8.35,"wind_gusts":41.0,"aqi":87,"pm10":53.0,"pm2_5":19.3,"no2":1.1,"co":250.0,"o3":132.0,"so2":1.4,"mosquito_risk":6,"arthritis_risk":5,"migraine_risk":7,"frizz_risk":0,"updated_at":"2026-05-12T10:07:20.565429+05:30"},{"city":"Dalhousie","state":"Himachal Pradesh","latitude":32.5387,"longitude":75.971,"temp":14.3,"humidity":72,"rain":0.0,"pressure":804.6,"uv_index":8.5,"wind_gusts":50.0,"aqi":140,"pm10":85.9,"pm2_5":37.4,"no2":6.2,"co":303.0,"o3":135.0,"so2":2.2,"mosquito_risk":3,"arthritis_risk":5,"migraine_risk":7,"frizz_risk":0,"updated_at":"2026-05-12T10:07:20.565439+05:30"},{"city":"Patiala","state":"Punjab","latitude":30.3398,"longitude":76.3869,"temp":28.8,"humidity":56,"rain":0.0,"pressure":978.5,"uv_index":7.6,"wind_gusts":58.7,"aqi":295,"pm10":735.7,"pm2_5":105.0,"no2":5.5,"co":390.0,"o3":165.0,"so2":13.7,"mosquito_risk":4,"arthritis_risk":5,"migraine_risk":7,"frizz_risk":1,"updated_at":"2026-05-12T10:07:20.565449+05:30"},{"city":"Bhatinda","state":"Punjab","latitude":30.211,"longitude":74.9455,"temp":34.2,"humidity":42,"rain":0.0,"pressure":982.1,"uv_index":8.2,"wind_gusts":41.8,"aqi":203,"pm10":346.5,"pm2_5":79.9,"no2":4.3,"co":446.0,"o3":163.0,"so2":20.7,"mosquito_risk":0,"arthritis_risk":5,"migraine_risk":7,"frizz_risk":1,"updated_at":"2026-05-12T10:07:20.565460+05:30"},{"city":"Rohtak","state":"Haryana","latitude":28.8955,"longitude":76.6066,"temp":35.3,"humidity":35,"rain":0.0,"pressure":980.2,"uv_index":7.7,"wind_gusts":49.0,"aqi":233,"pm10":696.6,"pm2_5":112.7,"no2":13.7,"co":452.0,"o3":165.0,"so2":23.6,"mosquito_risk":0,"arthritis_risk":5,"migraine_risk":10,"frizz_risk":1,"updated_at":"2026-05-12T10:07:20.565469+05:30"},{"city":"Panipat","state":"Haryana","latitude":29.3909,"longitude":76.9635,"temp":33.3,"humidity":46,"rain":0.0,"pressure":979.9,"uv_index":7.55,"wind_gusts":58.0,"aqi":475,"pm10":1233.1,"pm2_5":150.4,"no2":11.6,"co":416.0,"o3":168.0,"so2":23.9,"mosquito_risk":0,"arthritis_risk":5,"migraine_risk":7,"frizz_risk":1,"updated_at":"2026-05-12T10:07:20.565480+05:30"},{"city":"Mathura","state":"Uttar Pradesh","latitude":27.4924,"longitude":77.6737,"temp":34.7,"humidity":35,"rain":0.0,"pressure":986.2,"uv_index":7.95,"wind_gusts":41.0,"aqi":357,"pm10":635.2,"pm2_5":81.5,"no2":5.8,"co":405.0,"o3":146.0,"so2":9.0,"mosquito_risk":0,"arthritis_risk":5,"migraine_risk":7,"frizz_risk":1,"updated_at":"2026-05-12T10:07:20.565490+05:30"},{"city":"Vrindavan","state":"Uttar Pradesh","latitude":27.5823,"longitude":77.7027,"temp":34.8,"humidity":34,"rain":0.0,"pressure":986.6,"uv_index":7.95,"wind_gusts":33.8,"aqi":357,"pm10":635.2,"pm2_5":81.5,"no2":5.8,"co":407.0,"o3":146.0,"so2":9.0,"mosquito_risk":0,"arthritis_risk":5,"migraine_risk":7,"frizz_risk":1,"updated_at":"2026-05-12T10:07:20.565499+05:30"},{"city":"Ayodhya","state":"Uttar Pradesh","latitude":26.7922,"longitude":82.1998,"temp":30.9,"humidity":53,"rain":0.0,"pressure":996.3,"uv_index":8.3,"wind_gusts":41.0,"aqi":106,"pm10":53.9,"pm2_5":48.9,"no2":4.4,"co":495.0,"o3":167.0,"so2":16.3,"mosquito_risk":0,"arthritis_risk":5,"migraine_risk":7,"frizz_risk":1,"updated_at":"2026-05-12T10:07:20.565509+05:30"},{"city":"Ratlam","state":"Madhya Pradesh","latitude":23.3315,"longitude":75.0367,"temp":38.2,"humidity":17,"rain":0.0,"pressure":954.4,"uv_index":8.55,"wind_gusts":28.4,"aqi":67,"pm10":65.4,"pm2_5":23.2,"no2":2.6,"co":239.0,"o3":128.0,"so2":7.7,"mosquito_risk":0,"arthritis_risk":5,"migraine_risk":10,"frizz_risk":0,"updated_at":"2026-05-12T10:07:20.565518+05:30"},{"city":"Sagar","state":"Madhya Pradesh","latitude":23.8388,"longitude":78.7378,"temp":36.1,"humidity":26,"rain":0.0,"pressure":950.5,"uv_index":8.75,"wind_gusts":29.9,"aqi":94,"pm10":64.3,"pm2_5":31.5,"no2":2.3,"co":278.0,"o3":173.0,"so2":10.9,"mosquito_risk":0,"arthritis_risk":5,"migraine_risk":10,"frizz_risk":0,"updated_at":"2026-05-12T10:07:20.565525+05:30"},{"city":"Satna","state":"Madhya Pradesh","latitude":24.6005,"longitude":80.8322,"temp":35.7,"humidity":29,"rain":0.0,"pressure":971.0,"uv_index":8.75,"wind_gusts":36.4,"aqi":94,"pm10":62.4,"pm2_5":39.5,"no2":3.2,"co":373.0,"o3":175.0,"so2":14.7,"mosquito_risk":0,"arthritis_risk":5,"migraine_risk":10,"frizz_risk":0,"updated_at":"2026-05-12T10:07:20.565532+05:30"},{"city":"Akola","state":"Maharashtra","latitude":20.7002,"longitude":77.0082,"temp":38.0,"humidity":28,"rain":0.0,"pressure":973.6,"uv_index":8.9,"wind_gusts":35.6,"aqi":83,"pm10":28.9,"pm2_5":21.8,"no2":6.6,"co":282.0,"o3":145.0,"so2":11.7,"mosquito_risk":0,"arthritis_risk":5,"migraine_risk":10,"frizz_risk":1,"updated_at":"2026-05-12T10:07:20.565540+05:30"},{"city":"Amravati","state":"Maharashtra","latitude":20.9374,"longitude":77.7796,"temp":36.8,"humidity":29,"rain":0.0,"pressure":966.9,"uv_index":8.9,"wind_gusts":40.0,"aqi":85,"pm10":27.5,"pm2_5":21.0,"no2":6.7,"co":261.0,"o3":143.0,"so2":7.0,"mosquito_risk":0,"arthritis_risk":5,"migraine_risk":10,"frizz_risk":1,"updated_at":"2026-05-12T10:07:20.565547+05:30"},{"city":"Latur","state":"Maharashtra","latitude":18.4088,"longitude":76.5604,"temp":36.0,"humidity":30,"rain":0.0,"pressure":939.0,"uv_index":9.0,"wind_gusts":35.3,"aqi":66,"pm10":26.8,"pm2_5":18.2,"no2":4.3,"co":235.0,"o3":130.0,"so2":11.3,"mosquito_risk":0,"arthritis_risk":5,"migraine_risk":10,"frizz_risk":0,"updated_at":"2026-05-12T10:07:20.565555+05:30"},{"city":"Nanded","state":"Maharashtra","latitude":19.1383,"longitude":77.3091,"temp":37.4,"humidity":28,"rain":0.0,"pressure":967.3,"uv_index":9.05,"wind_gusts":33.8,"aqi":68,"pm10":25.6,"pm2_5":17.5,"no2":5.2,"co":253.0,"o3":136.0,"so2":9.7,"mosquito_risk":0,"arthritis_risk":5,"migraine_risk":10,"frizz_risk":1,"updated_at":"2026-05-12T10:07:20.565562+05:30"},{"city":"Gulbarga","state":"Karnataka","latitude":17.3297,"longitude":76.8343,"temp":35.8,"humidity":31,"rain":0.0,"pressure":957.7,"uv_index":8.85,"wind_gusts":34.9,"aqi":59,"pm10":24.7,"pm2_5":17.6,"no2":5.4,"co":232.0,"o3":124.0,"so2":9.8,"mosquito_risk":0,"arthritis_risk":5,"migraine_risk":10,"frizz_risk":1,"updated_at":"2026-05-12T10:07:20.565568+05:30"},{"city":"Bidar","state":"Karnataka","latitude":17.9104,"longitude":77.5199,"temp":34.3,"humidity":33,"rain":0.0,"pressure":935.5,"uv_index":9.15,"wind_gusts":36.7,"aqi":63,"pm10":19.9,"pm2_5":13.5,"no2":4.4,"co":206.0,"o3":121.0,"so2":6.2,"mosquito_risk":0,"arthritis_risk":5,"migraine_risk":7,"frizz_risk":0,"updated_at":"2026-05-12T10:07:20.565576+05:30"},{"city":"Hospet","state":"Karnataka","latitude":15.2689,"longitude":76.3909,"temp":30.9,"humidity":63,"rain":0.0,"pressure":955.3,"uv_index":9.15,"wind_gusts":28.4,"aqi":67,"pm10":36.9,"pm2_5":20.3,"no2":3.9,"co":212.0,"o3":106.0,"so2":3.7,"mosquito_risk":3,"arthritis_risk":5,"migraine_risk":7,"frizz_risk":1,"updated_at":"2026-05-12T10:07:20.565583+05:30"},{"city":"Tirupur","state":"Tamil Nadu","latitude":11.1085,"longitude":77.3411,"temp":31.0,"humidity":58,"rain":0.0,"pressure":973.9,"uv_index":9.0,"wind_gusts":28.1,"aqi":88,"pm10":39.2,"pm2_5":30.4,"no2":9.4,"co":365.0,"o3":158.0,"so2":9.2,"mosquito_risk":0,"arthritis_risk":5,"migraine_risk":7,"frizz_risk":1,"updated_at":"2026-05-12T10:07:20.565590+05:30"},{"city":"Alappuzha","state":"Kerala","latitude":9.4981,"longitude":76.3388,"temp":30.8,"humidity":73,"rain":0.0,"pressure":1006.9,"uv_index":8.15,"wind_gusts":32.8,"aqi":69,"pm10":27.4,"pm2_5":23.1,"no2":6.9,"co":312.0,"o3":110.0,"so2":4.9,"mosquito_risk":3,"arthritis_risk":5,"migraine_risk":4,"frizz_risk":1,"updated_at":"2026-05-12T10:07:20.565618+05:30"},{"city":"Munnar","state":"Kerala","latitude":10.0889,"longitude":77.0595,"temp":24.2,"humidity":43,"rain":0.0,"pressure":857.3,"uv_index":7.85,"wind_gusts":20.9,"aqi":76,"pm10":26.4,"pm2_5":18.5,"no2":1.6,"co":215.0,"o3":126.0,"so2":1.7,"mosquito_risk":0,"arthritis_risk":5,"migraine_risk":7,"frizz_risk":0,"updated_at":"2026-05-12T10:07:20.565626+05:30"},{"city":"Silchar","state":"Assam","latitude":24.8333,"longitude":92.7789,"temp":29.2,"humidity":63,"rain":0.0,"pressure":1006.9,"uv_index":8.85,"wind_gusts":20.9,"aqi":101,"pm10":35.0,"pm2_5":28.8,"no2":1.1,"co":338.0,"o3":151.0,"so2":5.5,"mosquito_risk":7,"arthritis_risk":5,"migraine_risk":4,"frizz_risk":1,"updated_at":"2026-05-12T10:07:20.565633+05:30"},{"city":"Dibrugarh","state":"Assam","latitude":27.4728,"longitude":94.912,"temp":27.9,"humidity":59,"rain":0.0,"pressure":997.2,"uv_index":8.8,"wind_gusts":19.1,"aqi":84,"pm10":20.4,"pm2_5":14.5,"no2":0.2,"co":252.0,"o3":136.0,"so2":1.6,"mosquito_risk":4,"arthritis_risk":5,"migraine_risk":7,"frizz_risk":1,"updated_at":"2026-05-12T10:07:20.565640+05:30"}]