[{"city":"Delhi","state":"Delhi","latitude":28.6139,"longitude":77.209,"temp":26.3,"humidity":58,"rain":0.0,"pressure":982.4,"uv_index":7.6,"wind_gusts":26.6,"aqi":150,"pm10":254.3,"pm2_5":69.2,"no2":21.1,"co":493.0,"o3":95.0,"so2":18.4,"mosquito_risk":4,"arthritis_risk":5,"migraine_risk":7,"frizz_risk":1,"updated_at":"2026-05-10T03:19:34.222528+05:30"},{"city":"Mumbai","state":"Maharashtra","latitude":19.076,"longitude":72.8777,"temp":27.7,"humidity":87,"rain":0.0,"pressure":1005.9,"uv_index":7.9,"wind_gusts":52.2,"aqi":80,"pm10":49.9,"pm2_5":20.5,"no2":15.1,"co":542.0,"o3":71.0,"so2":11.0,"mosquito_risk":7,"arthritis_risk":5,"migraine_risk":4,"frizz_risk":1,"updated_at":"2026-05-10T03:19:34.222569+05:30"},{"city":"Bangalore","state":"Karnataka","latitude":12.9716,"longitude":77.5946,"temp":21.2,"humidity":95,"rain":0.0,"pressure":909.5,"uv_index":9.45,"wind_gusts":37.8,"aqi":49,"pm10":14.7,"pm2_5":14.6,"no2":14.5,"co":206.0,"o3":41.0,"so2":8.2,"mosquito_risk":3,"arthritis_risk":5,"migraine_risk":7,"frizz_risk":1,"updated_at":"2026-05-10T03:19:34.222582+05:30"},{"city":"Hyderabad","state":"Telangana","latitude":17.385,"longitude":78.4867,"temp":25.9,"humidity":65,"rain":0.0,"pressure":951.8,"uv_index":9.25,"wind_gusts":37.8,"aqi":51,"pm10":9.4,"pm2_5":8.7,"no2":9.0,"co":203.0,"o3":48.0,"so2":4.4,"mosquito_risk":7,"arthritis_risk":5,"migraine_risk":7,"frizz_risk":1,"updated_at":"2026-05-10T03:19:34.222591+05:30"},{"city":"Chennai","state":"Tamil Nadu","latitude":13.0827,"longitude":80.2707,"temp":26.6,"humidity":91,"rain":0.0,"pressure":1005.0,"uv_index":8.0,"wind_gusts":35.6,"aqi":20,"pm10":6.3,"pm2_5":4.8,"no2":6.2,"co":206.0,"o3":44.0,"so2":1.9,"mosquito_risk":7,"arthritis_risk":5,"migraine_risk":4,"frizz_risk":1,"updated_at":"2026-05-10T03:19:34.222602+05:30"},{"city":"Kolkata","state":"West Bengal","latitude":22.5726,"longitude":88.3639,"temp":25.0,"humidity":89,"rain":0.0,"pressure":1006.0,"uv_index":8.85,"wind_gusts":33.8,"aqi":152,"pm10":92.2,"pm2_5":86.6,"no2":29.2,"co":674.0,"o3":67.0,"so2":21.4,"mosquito_risk":7,"arthritis_risk":5,"migraine_risk":4,"frizz_risk":1,"updated_at":"2026-05-10T03:19:34.222609+05:30"},{"city":"Pune","state":"Maharashtra","latitude":18.5204,"longitude":73.8567,"temp":27.5,"humidity":39,"rain":0.0,"pressure":945.9,"uv_index":8.5,"wind_gusts":37.1,"aqi":91,"pm10":35.3,"pm2_5":24.0,"no2":21.6,"co":273.0,"o3":68.0,"so2":15.3,"mosquito_risk":4,"arthritis_risk":5,"migraine_risk":7,"frizz_risk":0,"updated_at":"2026-05-10T03:19:34.222616+05:30"},{"city":"Ahmedabad","state":"Gujarat","latitude":23.0225,"longitude":72.5714,"temp":31.3,"humidity":30,"rain":0.0,"pressure":999.0,"uv_index":8.1,"wind_gusts":33.8,"aqi":62,"pm10":25.2,"pm2_5":14.1,"no2":7.9,"co":192.0,"o3":60.0,"so2":5.7,"mosquito_risk":0,"arthritis_risk":5,"migraine_risk":7,"frizz_risk":0,"updated_at":"2026-05-10T03:19:34.222625+05:30"},{"city":"Jaipur","state":"Rajasthan","latitude":26.9124,"longitude":75.7873,"temp":25.7,"humidity":51,"rain":0.0,"pressure":958.8,"uv_index":8.15,"wind_gusts":26.6,"aqi":158,"pm10":428.4,"pm2_5":78.0,"no2":5.3,"co":364.0,"o3":114.0,"so2":8.2,"mosquito_risk":4,"arthritis_risk":5,"migraine_risk":7,"frizz_risk":0,"updated_at":"2026-05-10T03:19:34.222631+05:30"},{"city":"Lucknow","state":"Uttar Pradesh","latitude":26.8467,"longitude":80.9462,"temp":23.9,"humidity":66,"rain":0.0,"pressure":993.4,"uv_index":7.95,"wind_gusts":33.5,"aqi":115,"pm10":75.0,"pm2_5":53.3,"no2":18.9,"co":464.0,"o3":86.0,"so2":13.1,"mosquito_risk":3,"arthritis_risk":5,"migraine_risk":7,"frizz_risk":1,"updated_at":"2026-05-10T03:19:34.222638+05:30"},{"city":"Kanpur","state":"Uttar Pradesh","latitude":26.4499,"longitude":80.3319,"temp":25.0,"humidity":67,"rain":0.0,"pressure":991.3,"uv_index":8.1,"wind_gusts":31.7,"aqi":155,"pm10":77.5,"pm2_5":41.7,"no2":10.7,"co":411.0,"o3":96.0,"so2":8.7,"mosquito_risk":7,"arthritis_risk":5,"migraine_risk":7,"frizz_risk":1,"updated_at":"2026-05-10T03:19:34.222644+05:30"},{"city":"Chandigarh","state":"Chandigarh","latitude":30.7333,"longitude":76.7794,"temp":21.9,"humidity":74,"rain":0.0,"pressure":967.9,"uv_index":7.7,"wind_gusts":38.5,"aqi":95,"pm10":56.6,"pm2_5":38.5,"no2":21.7,"co":375.0,"o3":65.0,"so2":6.6,"mosquito_risk":3,"arthritis_risk":5,"migraine_risk":7,"frizz_risk":1,"updated_at":"2026-05-10T03:19:34.222650+05:30"},{"city":"Srinagar","state":"Jammu and Kashmir","latitude":34.0837,"longitude":74.7973,"temp":9.1,"humidity":75,"rain":0.0,"pressure":838.4,"uv_index":8.35,"wind_gusts":16.2,"aqi":87,"pm10":68.5,"pm2_5":42.7,"no2":27.0,"co":241.0,"o3":35.0,"so2":4.4,"mosquito_risk":3,"arthritis_risk":5,"migraine_risk":7,"frizz_risk":0,"updated_at":"2026-05-10T03:19:34.222657+05:30"},{"city":"Jammu","state":"Jammu and Kashmir","latitude":32.7266,"longitude":74.857,"temp":23.6,"humidity":62,"rain":0.0,"pressure":971.2,"uv_index":7.95,"wind_gusts":34.2,"aqi":151,"pm10":72.2,"pm2_5":52.0,"no2":28.7,"co":377.0,"o3":29.0,"so2":4.2,"mosquito_risk":3,"arthritis_risk":5,"migraine_risk":7,"frizz_risk":0,"updated_at":"2026-05-10T03:19:34.222663+05:30"},{"city":"Amritsar","state":"Punjab","latitude":31.634,"longitude":74.8723,"temp":26.1,"humidity":59,"rain":0.0,"pressure":979.2,"uv_index":8.35,"wind_gusts":32.4,"aqi":152,"pm10":159.3,"pm2_5":58.7,"no2":6.6,"co":511.0,"o3":94.0,"so2":9.0,"mosquito_risk":4,"arthritis_risk":5,"migraine_risk":7,"frizz_risk":1,"updated_at":"2026-05-10T03:19:34.222668+05:30"},{"city":"Ludhiana","state":"Punjab","latitude":30.901,"longitude":75.8573,"temp":24.4,"humidity":65,"rain":0.0,"pressure":977.6,"uv_index":7.95,"wind_gusts":34.2,"aqi":150,"pm10":322.2,"pm2_5":76.8,"no2":8.9,"co":571.0,"o3":102.0,"so2":10.8,"mosquito_risk":3,"arthritis_risk":5,"migraine_risk":7,"frizz_risk":1,"updated_at":"2026-05-10T03:19:34.222674+05:30"},{"city":"Jalandhar","state":"Punjab","latitude":31.326,"longitude":75.5762,"temp":23.8,"humidity":67,"rain":0.0,"pressure":978.4,"uv_index":8.15,"wind_gusts":33.1,"aqi":148,"pm10":305.5,"pm2_5":76.1,"no2":9.6,"co":548.0,"o3":98.0,"so2":12.8,"mosquito_risk":3,"arthritis_risk":5,"migraine_risk":7,"frizz_risk":1,"updated_at":"2026-05-10T03:19:34.222679+05:30"},{"city":"Dehradun","state":"Uttarakhand","latitude":30.6284,"longitude":78.0322,"temp":10.4,"humidity":100,"rain":0.0,"pressure":827.2,"uv_index":8.1,"wind_gusts":35.6,"aqi":64,"pm10":38.0,"pm2_5":21.7,"no2":23.9,"co":276.0,"o3":37.0,"so2":0.3,"mosquito_risk":3,"arthritis_risk":10,"migraine_risk":7,"frizz_risk":0,"updated_at":"2026-05-10T03:19:34.222688+05:30"},{"city":"Shimla","state":"Himachal Pradesh","latitude":31.1048,"longitude":77.1734,"temp":10.1,"humidity":82,"rain":0.0,"pressure":781.3,"uv_index":8.2,"wind_gusts":42.1,"aqi":84,"pm10":97.3,"pm2_5":40.0,"no2":22.4,"co":319.0,"o3":78.0,"so2":8.3,"mosquito_risk":3,"arthritis_risk":10,"migraine_risk":7,"frizz_risk":0,"updated_at":"2026-05-10T03:19:34.222693+05:30"},{"city":"Manali","state":"Himachal Pradesh","latitude":32.2396,"longitude":77.1887,"temp":7.2,"humidity":39,"rain":0.0,"pressure":811.3,"uv_index":9.2,"wind_gusts":42.8,"aqi":67,"pm10":36.1,"pm2_5":9.9,"no2":23.7,"co":198.0,"o3":105.0,"so2":0.5,"mosquito_risk":0,"arthritis_risk":5,"migraine_risk":7,"frizz_risk":1,"updated_at":"2026-05-10T03:19:34.222698+05:30"},{"city":"Gurgaon","state":"Haryana","latitude":28.4595,"longitude":77.0266,"temp":25.0,"humidity":63,"rain":0.0,"pressure":980.6,"uv_index":7.75,"wind_gusts":30.2,"aqi":822,"pm10":478.7,"pm2_5":95.9,"no2":14.1,"co":435.0,"o3":100.0,"so2":14.6,"mosquito_risk":7,"arthritis_risk":5,"migraine_risk":7,"frizz_risk":1,"updated_at":"2026-05-10T03:19:34.222704+05:30"},{"city":"Noida","state":"Uttar Pradesh","latitude":28.5355,"longitude":77.391,"temp":23.4,"humidity":71,"rain":0.0,"pressure":983.7,"uv_index":7.65,"wind_gusts":23.0,"aqi":822,"pm10":478.7,"pm2_5":95.9,"no2":14.1,"co":514.0,"o3":100.0,"so2":14.6,"mosquito_risk":3,"arthritis_risk":5,"migraine_risk":7,"frizz_risk":1,"updated_at":"2026-05-10T03:19:34.222710+05:30"},{"city":"Ghaziabad","state":"Uttar Pradesh","latitude":28.6692,"longitude":77.4538,"temp":23.4,"humidity":73,"rain":0.0,"pressure":982.0,"uv_index":7.6,"wind_gusts":26.6,"aqi":118,"pm10":125.7,"pm2_5":53.9,"no2":11.7,"co":432.0,"o3":93.0,"so2":9.5,"mosquito_risk":3,"arthritis_risk":5,"migraine_risk":7,"frizz_risk":1,"updated_at":"2026-05-10T03:19:34.222715+05:30"},{"city":"Faridabad","state":"Haryana","latitude":28.4089,"longitude":77.3178,"temp":25.1,"humidity":64,"rain":0.0,"pressure":983.1,"uv_index":7.7,"wind_gusts":23.8,"aqi":822,"pm10":478.7,"pm2_5":95.9,"no2":14.1,"co":467.0,"o3":100.0,"so2":14.6,"mosquito_risk":7,"arthritis_risk":5,"migraine_risk":7,"frizz_risk":1,"updated_at":"2026-05-10T03:19:34.222721+05:30"},{"city":"Meerut","state":"Uttar Pradesh","latitude":28.9845,"longitude":77.7064,"temp":23.5,"humidity":74,"rain":0.0,"pressure":980.9,"uv_index":7.55,"wind_gusts":26.6,"aqi":118,"pm10":125.7,"pm2_5":53.9,"no2":11.7,"co":452.0,"o3":93.0,"so2":9.5,"mosquito_risk":3,"arthritis_risk":5,"migraine_risk":7,"frizz_risk":1,"updated_at":"2026-05-10T03:19:34.222726+05:30"},{"city":"Agra","state":"Uttar Pradesh","latitude":27.1767,"longitude":78.0081,"temp":24.5,"humidity":66,"rain":0.0,"pressure":986.9,"uv_index":7.95,"wind_gusts":24.8,"aqi":849,"pm10":625.8,"pm2_5":88.2,"no2":7.3,"co":355.0,"o3":99.0,"so2":11.0,"mosquito_risk":3,"arthritis_risk":5,"migraine_risk":7,"frizz_risk":1,"updated_at":"2026-05-10T03:19:34.222732+05:30"},{"city":"Varanasi","state":"Uttar Pradesh","latitude":25.3176,"longitude":82.9739,"temp":23.6,"humidity":76,"rain":0.0,"pressure":997.1,"uv_index":8.55,"wind_gusts":33.8,"aqi":130,"pm10":65.4,"pm2_5":54.9,"no2":19.0,"co":492.0,"o3":82.0,"so2":16.8,"mosquito_risk":3,"arthritis_risk":5,"migraine_risk":7,"frizz_risk":1,"updated_at":"2026-05-10T03:19:34.222737+05:30"},{"city":"Prayagraj","state":"Uttar Pradesh","latitude":25.4358,"longitude":81.8463,"temp":25.0,"humidity":66,"rain":0.0,"pressure":995.1,"uv_index":8.45,"wind_gusts":32.4,"aqi":131,"pm10":68.5,"pm2_5":61.7,"no2":15.2,"co":524.0,"o3":98.0,"so2":15.6,"mosquito_risk":7,"arthritis_risk":5,"migraine_risk":7,"frizz_risk":1,"updated_at":"2026-05-10T03:19:34.222745+05:30"},{"city":"Gorakhpur","state":"Uttar Pradesh","latitude":26.7606,"longitude":83.3732,"temp":23.7,"humidity":69,"rain":0.0,"pressure":998.2,"uv_index":8.4,"wind_gusts":32.4,"aqi":119,"pm10":63.3,"pm2_5":54.4,"no2":9.1,"co":476.0,"o3":125.0,"so2":13.3,"mosquito_risk":3,"arthritis_risk":5,"migraine_risk":7,"frizz_risk":1,"updated_at":"2026-05-10T03:19:34.222750+05:30"},{"city":"Bareilly","state":"Uttar Pradesh","latitude":28.367,"longitude":79.4304,"temp":22.9,"humidity":69,"rain":0.0,"pressure":987.0,"uv_index":7.9,"wind_gusts":24.5,"aqi":100,"pm10":42.5,"pm2_5":34.7,"no2":21.0,"co":449.0,"o3":62.0,"so2":4.6,"mosquito_risk":3,"arthritis_risk":5,"migraine_risk":7,"frizz_risk":1,"updated_at":"2026-05-10T03:19:34.222756+05:30"},{"city":"Aligarh","state":"Uttar Pradesh","latitude":27.8974,"longitude":78.088,"temp":23.6,"humidity":70,"rain":0.0,"pressure":985.0,"uv_index":7.75,"wind_gusts":24.1,"aqi":402,"pm10":339.9,"pm2_5":70.8,"no2":8.7,"co":434.0,"o3":99.0,"so2":17.2,"mosquito_risk":3,"arthritis_risk":5,"migraine_risk":7,"frizz_risk":1,"updated_at":"2026-05-10T03:19:34.222761+05:30"},{"city":"Moradabad","state":"Uttar Pradesh","latitude":28.8386,"longitude":78.7733,"temp":22.6,"humidity":72,"rain":0.0,"pressure":983.6,"uv_index":7.75,"wind_gusts":27.7,"aqi":113,"pm10":94.1,"pm2_5":59.6,"no2":25.8,"co":510.0,"o3":58.0,"so2":10.4,"mosquito_risk":3,"arthritis_risk":5,"migraine_risk":7,"frizz_risk":1,"updated_at":"2026-05-10T03:19:34.222767+05:30"},{"city":"Saharanpur","state":"Uttar Pradesh","latitude":29.9637,"longitude":77.546,"temp":23.0,"humidity":75,"rain":0.0,"pressure":975.2,"uv_index":7.4,"wind_gusts":30.6,"aqi":106,"pm10":70.1,"pm2_5":54.9,"no2":27.8,"co":494.0,"o3":43.0,"so2":9.9,"mosquito_risk":3,"arthritis_risk":5,"migraine_risk":7,"frizz_risk":1,"updated_at":"2026-05-10T03:19:34.222772+05:30"},{"city":"Jhansi","state":"Uttar Pradesh","latitude":25.4484,"longitude":78.5685,"temp":23.9,"humidity":68,"rain":0.0,"pressure":976.4,"uv_index":8.4,"wind_gusts":26.6,"aqi":88,"pm10":62.6,"pm2_5":33.6,"no2":4.1,"co":349.0,"o3":108.0,"so2":8.3,"mosquito_risk":3,"arthritis_risk":5,"migraine_risk":7,"frizz_risk":1,"updated_at":"2026-05-10T03:19:37.584110+05:30"},{"city":"Surat","state":"Gujarat","latitude":21.1702,"longitude":72.8311,"temp":29.8,"humidity":50,"rain":0.0,"pressure":1003.6,"uv_index":7.75,"wind_gusts":32.0,"aqi":104,"pm10":34.3,"pm2_5":22.9,"no2":27.8,"co":221.0,"o3":54.0,"so2":43.0,"mosquito_risk":4,"arthritis_risk":5,"migraine_risk":4,"frizz_risk":1,"updated_at":"2026-05-10T03:19:37.584142+05:30"},{"city":"Vadodara","state":"Gujarat","latitude":22.3072,"longitude":73.1812,"temp":30.8,"humidity":32,"rain":0.0,"pressure":1001.0,"uv_index":8.1,"wind_gusts":30.2,"aqi":76,"pm10":49.0,"pm2_5":39.1,"no2":35.1,"co":299.0,"o3":31.0,"so2":16.8,"mosquito_risk":0,"arthritis_risk":5,"migraine_risk":4,"frizz_risk":0,"updated_at":"2026-05-10T03:19:37.584151+05:30"},{"city":"Rajkot","state":"Gujarat","latitude":22.3039,"longitude":70.8022,"temp":25.1,"humidity":95,"rain":0.0,"pressure":992.8,"uv_index":7.7,"wind_gusts":40.0,"aqi":54,"pm10":28.4,"pm2_5":10.3,"no2":6.4,"co":167.0,"o3":54.0,"so2":5.4,"mosquito_risk":7,"arthritis_risk":5,"migraine_risk":7,"frizz_risk":1,"updated_at":"2026-05-10T03:19:37.584159+05:30"},{"city":"Thane","state":"Maharashtra","latitude":19.2183,"longitude":72.9781,"temp":26.9,"humidity":87,"rain":0.0,"pressure":1005.2,"uv_index":7.9,"wind_gusts":48.6,"aqi":80,"pm10":49.9,"pm2_5":20.5,"no2":15.1,"co":457.0,"o3":71.0,"so2":11.0,"mosquito_risk":7,"arthritis_risk":5,"migraine_risk":4,"frizz_risk":1,"updated_at":"2026-05-10T03:19:37.584165+05:30"},{"city":"Nagpur","state":"Maharashtra","latitude":21.1458,"longitude":79.0882,"temp":28.5,"humidity":47,"rain":0.0,"pressure":971.7,"uv_index":8.9,"wind_gusts":36.7,"aqi":91,"pm10":48.1,"pm2_5":34.5,"no2":21.5,"co":323.0,"o3":73.0,"so2":12.6,"mosquito_risk":4,"arthritis_risk":5,"migraine_risk":7,"frizz_risk":0,"updated_at":"2026-05-10T03:19:37.584172+05:30"},{"city":"Nashik","state":"Maharashtra","latitude":19.9975,"longitude":73.7898,"temp":26.7,"humidity":35,"rain":0.0,"pressure":943.4,"uv_index":8.2,"wind_gusts":40.3,"aqi":79,"pm10":48.7,"pm2_5":28.2,"no2":24.3,"co":322.0,"o3":76.0,"so2":14.0,"mosquito_risk":4,"arthritis_risk":5,"migraine_risk":7,"frizz_risk":0,"updated_at":"2026-05-10T03:19:37.584177+05:30"},{"city":"Aurangabad","state":"Maharashtra","latitude":19.8762,"longitude":75.3433,"temp":30.0,"humidity":24,"rain":0.0,"pressure":941.9,"uv_index":9.05,"wind_gusts":45.0,"aqi":81,"pm10":45.6,"pm2_5":25.6,"no2":19.7,"co":306.0,"o3":89.0,"so2":11.7,"mosquito_risk":4,"arthritis_risk":5,"migraine_risk":7,"frizz_risk":0,"updated_at":"2026-05-10T03:19:37.584183+05:30"},{"city":"Solapur","state":"Maharashtra","latitude":17.6599,"longitude":75.9064,"temp":29.1,"humidity":37,"rain":0.0,"pressure":954.7,"uv_index":9.1,"wind_gusts":33.8,"aqi":67,"pm10":24.3,"pm2_5":19.6,"no2":12.8,"co":323.0,"o3":80.0,"so2":5.0,"mosquito_risk":4,"arthritis_risk":5,"migraine_risk":7,"frizz_risk":0,"updated_at":"2026-05-10T03:19:37.584190+05:30"},{"city":"Kolhapur","state":"Maharashtra","latitude":16.705,"longitude":74.2433,"temp":25.3,"humidity":67,"rain":0.0,"pressure":945.4,"uv_index":8.9,"wind_gusts":44.6,"aqi":111,"pm10":89.2,"pm2_5":73.6,"no2":38.4,"co":282.0,"o3":35.0,"so2":9.0,"mosquito_risk":7,"arthritis_risk":5,"migraine_risk":7,"frizz_risk":1,"updated_at":"2026-05-10T03:19:37.584196+05:30"},{"city":"Goa","state":"Goa","latitude":15.2993,"longitude":74.124,"temp":27.0,"humidity":88,"rain":0.0,"pressure":994.9,"uv_index":6.25,"wind_gusts":48.6,"aqi":89,"pm10":58.8,"pm2_5":44.5,"no2":13.2,"co":359.0,"o3":85.0,"so2":4.7,"mosquito_risk":7,"arthritis_risk":5,"migraine_risk":7,"frizz_risk":1,"updated_at":"2026-05-10T03:19:37.584202+05:30"},{"city":"Jodhpur","state":"Rajasthan","latitude":26.2389,"longitude":73.0243,"temp":31.2,"humidity":20,"rain":0.0,"pressure":980.2,"uv_index":8.35,"wind_gusts":32.4,"aqi":90,"pm10":84.5,"pm2_5":32.4,"no2":13.2,"co":458.0,"o3":56.0,"so2":5.5,"mosquito_risk":0,"arthritis_risk":5,"migraine_risk":7,"frizz_risk":0,"updated_at":"2026-05-10T03:19:37.584207+05:30"},{"city":"Udaipur","state":"Rajasthan","latitude":24.5854,"longitude":73.7125,"temp":29.9,"humidity":23,"rain":0.0,"pressure":944.2,"uv_index":8.8,"wind_gusts":40.0,"aqi":43,"pm10":27.5,"pm2_5":13.3,"no2":5.4,"co":172.0,"o3":57.0,"so2":3.0,"mosquito_risk":4,"arthritis_risk":5,"migraine_risk":7,"frizz_risk":0,"updated_at":"2026-05-10T03:19:37.584213+05:30"},{"city":"Kota","state":"Rajasthan","latitude":25.2138,"longitude":75.8648,"temp":27.2,"humidity":49,"rain":0.0,"pressure":976.9,"uv_index":8.35,"wind_gusts":33.8,"aqi":72,"pm10":81.7,"pm2_5":30.7,"no2":4.3,"co":295.0,"o3":95.0,"so2":8.0,"mosquito_risk":4,"arthritis_risk":5,"migraine_risk":7,"frizz_risk":0,"updated_at":"2026-05-10T03:19:37.584218+05:30"},{"city":"Bikaner","state":"Rajasthan","latitude":28.0229,"longitude":73.3119,"temp":28.5,"humidity":40,"rain":0.0,"pressure":979.7,"uv_index":8.35,"wind_gusts":28.8,"aqi":119,"pm10":110.1,"pm2_5":37.3,"no2":2.6,"co":281.0,"o3":101.0,"so2":5.5,"mosquito_risk":4,"arthritis_risk":5,"migraine_risk":7,"frizz_risk":0,"updated_at":"2026-05-10T03:19:37.584223+05:30"},{"city":"Ajmer","state":"Rajasthan","latitude":26.4499,"longitude":74.6399,"temp":26.3,"humidity":46,"rain":0.0,"pressure":953.4,"uv_index":8.35,"wind_gusts":33.5,"aqi":87,"pm10":150.4,"pm2_5":43.8,"no2":5.0,"co":342.0,"o3":103.0,"so2":6.6,"mosquito_risk":4,"arthritis_risk":5,"migraine_risk":7,"frizz_risk":0,"updated_at":"2026-05-10T03:19:37.584229+05:30"},{"city":"Gwalior","state":"Madhya Pradesh","latitude":26.2183,"longitude":78.1828,"temp":24.6,"humidity":66,"rain":0.0,"pressure":982.1,"uv_index":8.2,"wind_gusts":24.1,"aqi":122,"pm10":128.5,"pm2_5":43.7,"no2":4.4,"co":309.0,"o3":107.0,"so2":8.1,"mosquito_risk":3,"arthritis_risk":5,"migraine_risk":7,"frizz_risk":1,"updated_at":"2026-05-10T03:19:37.584234+05:30"},{"city":"Indore","state":"Madhya Pradesh","latitude":22.7196,"longitude":75.8577,"temp":29.3,"humidity":24,"rain":0.0,"pressure":946.0,"uv_index":8.65,"wind_gusts":41.4,"aqi":56,"pm10":42.6,"pm2_5":23.9,"no2":9.0,"co":359.0,"o3":60.0,"so2":5.0,"mosquito_risk":4,"arthritis_risk":5,"migraine_risk":7,"frizz_risk":0,"updated_at":"2026-05-10T03:19:37.584239+05:30"},{"city":"Bhopal","state":"Madhya Pradesh","latitude":23.2599,"longitude":77.4126,"temp":27.2,"humidity":36,"rain":0.0,"pressure":951.2,"uv_index":8.65,"wind_gusts":45.0,"aqi":61,"pm10":34.2,"pm2_5":21.2,"no2":3.5,"co":271.0,"o3":103.0,"so2":6.3,"mosquito_risk":4,"arthritis_risk":5,"migraine_risk":7,"frizz_risk":0,"updated_at":"2026-05-10T03:19:37.584244+05:30"},{"city":"Jabalpur","state":"Madhya Pradesh","latitude":23.1815,"longitude":79.9864,"temp":25.9,"humidity":54,"rain":0.0,"pressure":958.9,"uv_index":8.8,"wind_gusts":32.4,"aqi":68,"pm10":37.6,"pm2_5":25.3,"no2":17.7,"co":288.0,"o3":58.0,"so2":4.7,"mosquito_risk":4,"arthritis_risk":5,"migraine_risk":7,"frizz_risk":0,"updated_at":"2026-05-10T03:19:37.584249+05:30"},{"city":"Ujjain","state":"Madhya Pradesh","latitude":23.1765,"longitude":75.7885,"temp":28.5,"humidity":24,"rain":0.0,"pressure":951.5,"uv_index":8.6,"wind_gusts":43.2,"aqi":55,"pm10":35.3,"pm2_5":23.0,"no2":6.9,"co":370.0,"o3":61.0,"so2":4.4,"mosquito_risk":4,"arthritis_risk":5,"migraine_risk":7,"frizz_risk":0,"updated_at":"2026-05-10T03:19:37.584254+05:30"},{"city":"Visakhapatnam","state":"Andhra Pradesh","latitude":17.6868,"longitude":83.2185,"temp":25.9,"humidity":95,"rain":0.0,"pressure":1003.1,"uv_index":8.95,"wind_gusts":35.3,"aqi":75,"pm10":29.3,"pm2_5":27.4,"no2":21.2,"co":1370.0,"o3":24.0,"so2":6.3,"mosquito_risk":7,"arthritis_risk":5,"migraine_risk":4,"frizz_risk":1,"updated_at":"2026-05-10T03:19:37.584260+05:30"},{"city":"Vijayawada","state":"Andhra Pradesh","latitude":16.5062,"longitude":80.648,"temp":27.3,"humidity":84,"rain":0.0,"pressure":1001.6,"uv_index":9.05,"wind_gusts":38.9,"aqi":44,"pm10":14.9,"pm2_5":13.4,"no2":11.3,"co":180.0,"o3":26.0,"so2":4.7,"mosquito_risk":7,"arthritis_risk":5,"migraine_risk":4,"frizz_risk":1,"updated_at":"2026-05-10T03:19:37.584265+05:30"},{"city":"Guntur","state":"Andhra Pradesh","latitude":16.3067,"longitude":80.4365,"temp":27.6,"humidity":82,"rain":0.0,"pressure":1002.9,"uv_index":8.9,"wind_gusts":39.6,"aqi":43,"pm10":11.3,"pm2_5":10.2,"no2":11.1,"co":176.0,"o3":26.0,"so2":6.6,"mosquito_risk":7,"arthritis_risk":5,"migraine_risk":4,"frizz_risk":1,"updated_at":"2026-05-10T03:19:37.584270+05:30"},{"city":"Nellore","state":"Andhra Pradesh","latitude":14.4426,"longitude":79.9865,"temp":26.6,"humidity":89,"rain":0.0,"pressure":1004.4,"uv_index":9.2,"wind_gusts":37.1,"aqi":20,"pm10":7.0,"pm2_5":5.1,"no2":4.7,"co":174.0,"o3":37.0,"so2":2.0,"mosquito_risk":7,"arthritis_risk":5,"migraine_risk":4,"frizz_risk":1,"updated_at":"2026-05-10T03:19:37.584276+05:30"},{"city":"Kurnool","state":"Andhra Pradesh","latitude":15.8281,"longitude":78.0373,"temp":27.4,"humidity":66,"rain":0.0,"pressure":975.5,"uv_index":8.8,"wind_gusts":42.1,"aqi":31,"pm10":3.9,"pm2_5":3.4,"no2":4.5,"co":138.0,"o3":37.0,"so2":1.2,"mosquito_risk":7,"arthritis_risk":5,"migraine_risk":7,"frizz_risk":1,"updated_at":"2026-05-10T03:19:37.584282+05:30"},{"city":"Kakinada","state":"Andhra Pradesh","latitude":16.9891,"longitude":82.2475,"temp":26.3,"humidity":91,"rain":0.0,"pressure":1006.6,"uv_index":9.15,"wind_gusts":36.7,"aqi":22,"pm10":7.9,"pm2_5":5.4,"no2":1.4,"co":181.0,"o3":48.0,"so2":0.5,"mosquito_risk":7,"arthritis_risk":5,"migraine_risk":4,"frizz_risk":1,"updated_at":"2026-05-10T03:19:37.584287+05:30"},{"city":"Tirupati","state":"Andhra Pradesh","latitude":13.6288,"longitude":79.4192,"temp":25.0,"humidity":93,"rain":0.0,"pressure":989.7,"uv_index":9.25,"wind_gusts":40.7,"aqi":36,"pm10":25.1,"pm2_5":23.7,"no2":29.3,"co":210.0,"o3":6.0,"so2":5.3,"mosquito_risk":7,"arthritis_risk":5,"migraine_risk":7,"frizz_risk":1,"updated_at":"2026-05-10T03:19:37.584293+05:30"},{"city":"Warangal","state":"Telangana","latitude":17.9689,"longitude":79.5941,"temp":26.4,"humidity":77,"rain":0.0,"pressure":977.1,"uv_index":9.15,"wind_gusts":44.6,"aqi":59,"pm10":10.0,"pm2_5":9.5,"no2":9.6,"co":198.0,"o3":44.0,"so2":9.0,"mosquito_risk":7,"arthritis_risk":5,"migraine_risk":7,"frizz_risk":1,"updated_at":"2026-05-10T03:19:37.584298+05:30"},{"city":"Nizamabad","state":"Telangana","latitude":18.6725,"longitude":78.0941,"temp":27.5,"humidity":50,"rain":0.0,"pressure":962.4,"uv_index":9.1,"wind_gusts":31.7,"aqi":74,"pm10":23.8,"pm2_5":20.7,"no2":11.0,"co":261.0,"o3":79.0,"so2":4.4,"mosquito_risk":4,"arthritis_risk":5,"migraine_risk":7,"frizz_risk":1,"updated_at":"2026-05-10T03:19:37.584303+05:30"},{"city":"Mysore","state":"Karnataka","latitude":12.2958,"longitude":76.6396,"temp":22.2,"humidity":89,"rain":0.0,"pressure":925.9,"uv_index":9.1,"wind_gusts":36.4,"aqi":56,"pm10":13.7,"pm2_5":13.5,"no2":15.0,"co":220.0,"o3":43.0,"so2":5.3,"mosquito_risk":3,"arthritis_risk":5,"migraine_risk":7,"frizz_risk":1,"updated_at":"2026-05-10T03:19:37.584307+05:30"},{"city":"Mangalore","state":"Karnataka","latitude":12.9141,"longitude":74.856,"temp":25.5,"humidity":96,"rain":0.0,"pressure":1003.7,"uv_index":8.95,"wind_gusts":41.4,"aqi":69,"pm10":31.2,"pm2_5":25.1,"no2":13.4,"co":214.0,"o3":56.0,"so2":4.3,"mosquito_risk":7,"arthritis_risk":5,"migraine_risk":4,"frizz_risk":1,"updated_at":"2026-05-10T03:19:37.584312+05:30"},{"city":"Hubli-Dharwad","state":"Karnataka","latitude":15.3647,"longitude":75.124,"temp":23.5,"humidity":92,"rain":0.0,"pressure":938.0,"uv_index":7.2,"wind_gusts":47.9,"aqi":55,"pm10":35.6,"pm2_5":31.1,"no2":18.6,"co":327.0,"o3":40.0,"so2":1.2,"mosquito_risk":3,"arthritis_risk":5,"migraine_risk":7,"frizz_risk":1,"updated_at":"2026-05-10T03:19:37.584317+05:30"},{"city":"Belgaum","state":"Karnataka","latitude":15.8497,"longitude":74.4977,"temp":24.0,"humidity":71,"rain":0.0,"pressure":922.9,"uv_index":8.3,"wind_gusts":40.0,"aqi":81,"pm10":55.1,"pm2_5":41.8,"no2":19.7,"co":259.0,"o3":74.0,"so2":6.1,"mosquito_risk":3,"arthritis_risk":5,"migraine_risk":7,"frizz_risk":1,"updated_at":"2026-05-10T03:19:40.940173+05:30"},{"city":"Coimbatore","state":"Tamil Nadu","latitude":11.0168,"longitude":76.9558,"temp":23.5,"humidity":96,"rain":0.0,"pressure":958.6,"uv_index":9.15,"wind_gusts":34.6,"aqi":57,"pm10":10.5,"pm2_5":10.3,"no2":13.1,"co":265.0,"o3":41.0,"so2":4.0,"mosquito_risk":3,"arthritis_risk":5,"migraine_risk":7,"frizz_risk":1,"updated_at":"2026-05-10T03:19:40.940206+05:30"},{"city":"Madurai","state":"Tamil Nadu","latitude":9.9252,"longitude":78.1198,"temp":25.2,"humidity":94,"rain":0.0,"pressure":989.3,"uv_index":3.4,"wind_gusts":39.2,"aqi":61,"pm10":15.7,"pm2_5":15.5,"no2":20.3,"co":336.0,"o3":31.0,"so2":7.6,"mosquito_risk":7,"arthritis_risk":5,"migraine_risk":3,"frizz_risk":1,"updated_at":"2026-05-10T03:19:40.940215+05:30"},{"city":"Trichy","state":"Tamil Nadu","latitude":10.7905,"longitude":78.7047,"temp":25.6,"humidity":93,"rain":0.0,"pressure":996.9,"uv_index":4.85,"wind_gusts":40.0,"aqi":39,"pm10":10.7,"pm2_5":10.2,"no2":20.0,"co":255.0,"o3":23.0,"so2":13.4,"mosquito_risk":7,"arthritis_risk":5,"migraine_risk":3,"frizz_risk":1,"updated_at":"2026-05-10T03:19:40.940222+05:30"},{"city":"Salem","state":"Tamil Nadu","latitude":11.6643,"longitude":78.146,"temp":25.0,"humidity":88,"rain":0.0,"pressure":974.9,"uv_index":8.5,"wind_gusts":50.8,"aqi":52,"pm10":17.8,"pm2_5":17.5,"no2":18.7,"co":227.0,"o3":39.0,"so2":9.5,"mosquito_risk":7,"arthritis_risk":5,"migraine_risk":7,"frizz_risk":1,"updated_at":"2026-05-10T03:19:40.940229+05:30"},{"city":"Tirunelveli","state":"Tamil Nadu","latitude":8.7139,"longitude":77.7567,"temp":26.0,"humidity":90,"rain":0.0,"pressure":999.9,"uv_index":3.85,"wind_gusts":34.9,"aqi":56,"pm10":11.2,"pm2_5":11.0,"no2":7.0,"co":278.0,"o3":54.0,"so2":3.7,"mosquito_risk":7,"arthritis_risk":5,"migraine_risk":3,"frizz_risk":1,"updated_at":"2026-05-10T03:19:40.940235+05:30"},{"city":"Vellore","state":"Tamil Nadu","latitude":12.9165,"longitude":79.1325,"temp":24.6,"humidity":96,"rain":0.0,"pressure":982.8,"uv_index":9.25,"wind_gusts":34.9,"aqi":52,"pm10":21.5,"pm2_5":19.7,"no2":22.9,"co":283.0,"o3":18.0,"so2":12.1,"mosquito_risk":3,"arthritis_risk":5,"migraine_risk":7,"frizz_risk":1,"updated_at":"2026-05-10T03:19:40.940240+05:30"},{"city":"Erode","state":"Tamil Nadu","latitude":11.341,"longitude":77.7172,"temp":24.5,"humidity":93,"rain":0.0,"pressure":986.4,"uv_index":6.2,"wind_gusts":33.5,"aqi":58,"pm10":14.7,"pm2_5":14.4,"no2":16.4,"co":290.0,"o3":47.0,"so2":6.3,"mosquito_risk":3,"arthritis_risk":5,"migraine_risk":7,"frizz_risk":1,"updated_at":"2026-05-10T03:19:40.940246+05:30"},{"city":"Kochi","state":"Kerala","latitude":9.9312,"longitude":76.2673,"temp":26.0,"humidity":93,"rain":0.0,"pressure":1004.5,"uv_index":8.65,"wind_gusts":24.1,"aqi":70,"pm10":21.0,"pm2_5":20.4,"no2":13.8,"co":287.0,"o3":41.0,"so2":3.4,"mosquito_risk":7,"arthritis_risk":5,"migraine_risk":4,"frizz_risk":1,"updated_at":"2026-05-10T03:19:40.940252+05:30"},{"city":"Thiruvananthapuram","state":"Kerala","latitude":8.5241,"longitude":76.9366,"temp":24.8,"humidity":95,"rain":0.0,"pressure":1004.4,"uv_index":2.8,"wind_gusts":25.2,"aqi":49,"pm10":10.2,"pm2_5":9.7,"no2":4.8,"co":401.0,"o3":102.0,"so2":3.2,"mosquito_risk":3,"arthritis_risk":5,"migraine_risk":0,"frizz_risk":1,"updated_at":"2026-05-10T03:19:40.940258+05:30"},{"city":"Kozhikode","state":"Kerala","latitude":11.2588,"longitude":75.7804,"temp":25.1,"humidity":96,"rain":0.0,"pressure":1004.1,"uv_index":8.85,"wind_gusts":38.2,"aqi":48,"pm10":11.4,"pm2_5":9.7,"no2":4.6,"co":277.0,"o3":97.0,"so2":2.5,"mosquito_risk":7,"arthritis_risk":5,"migraine_risk":4,"frizz_risk":1,"updated_at":"2026-05-10T03:19:40.940263+05:30"},{"city":"Thrissur","state":"Kerala","latitude":10.5276,"longitude":76.2144,"temp":24.5,"humidity":97,"rain":0.0,"pressure":1003.2,"uv_index":8.95,"wind_gusts":32.4,"aqi":71,"pm10":21.2,"pm2_5":20.7,"no2":12.1,"co":278.0,"o3":51.0,"so2":3.7,"mosquito_risk":3,"arthritis_risk":5,"migraine_risk":4,"frizz_risk":1,"updated_at":"2026-05-10T03:19:40.940270+05:30"},{"city":"Kannur","state":"Kerala","latitude":11.8745,"longitude":75.3704,"temp":25.5,"humidity":91,"rain":0.0,"pressure":1003.7,"uv_index":8.75,"wind_gusts":45.4,"aqi":64,"pm10":21.4,"pm2_5":19.0,"no2":12.6,"co":265.0,"o3":57.0,"so2":2.7,"mosquito_risk":7,"arthritis_risk":5,"migraine_risk":4,"frizz_risk":1,"updated_at":"2026-05-10T03:19:40.940276+05:30"},{"city":"Patna","state":"Bihar","latitude":25.5941,"longitude":85.1376,"temp":23.5,"humidity":84,"rain":0.0,"pressure":1000.9,"uv_index":8.65,"wind_gusts":34.2,"aqi":144,"pm10":63.1,"pm2_5":55.4,"no2":12.7,"co":372.0,"o3":113.0,"so2":19.3,"mosquito_risk":3,"arthritis_risk":5,"migraine_risk":4,"frizz_risk":1,"updated_at":"2026-05-10T03:19:40.940281+05:30"},{"city":"Gaya","state":"Bihar","latitude":24.7914,"longitude":85.0002,"temp":21.8,"humidity":80,"rain":0.0,"pressure":993.4,"uv_index":8.7,"wind_gusts":33.5,"aqi":121,"pm10":70.3,"pm2_5":52.3,"no2":15.5,"co":330.0,"o3":87.0,"so2":13.1,"mosquito_risk":3,"arthritis_risk":5,"migraine_risk":7,"frizz_risk":1,"updated_at":"2026-05-10T03:19:40.940287+05:30"},{"city":"Muzaffarpur","state":"Bihar","latitude":26.1209,"longitude":85.3647,"temp":23.2,"humidity":81,"rain":0.0,"pressure":1001.3,"uv_index":8.65,"wind_gusts":31.0,"aqi":151,"pm10":67.1,"pm2_5":60.8,"no2":14.6,"co":398.0,"o3":95.0,"so2":17.0,"mosquito_risk":3,"arthritis_risk":5,"migraine_risk":4,"frizz_risk":1,"updated_at":"2026-05-10T03:19:40.940293+05:30"},{"city":"Bhagalpur","state":"Bihar","latitude":25.2425,"longitude":87.0117,"temp":23.5,"humidity":88,"rain":0.0,"pressure":1002.0,"uv_index":8.6,"wind_gusts":25.2,"aqi":151,"pm10":73.1,"pm2_5":61.7,"no2":16.7,"co":381.0,"o3":104.0,"so2":13.8,"mosquito_risk":3,"arthritis_risk":5,"migraine_risk":4,"frizz_risk":1,"updated_at":"2026-05-10T03:19:40.940298+05:30"},{"city":"Ranchi","state":"Jharkhand","latitude":23.3441,"longitude":85.3096,"temp":21.0,"humidity":73,"rain":0.0,"pressure":936.5,"uv_index":9.15,"wind_gusts":46.1,"aqi":104,"pm10":77.3,"pm2_5":49.4,"no2":9.6,"co":256.0,"o3":113.0,"so2":16.1,"mosquito_risk":3,"arthritis_risk":5,"migraine_risk":7,"frizz_risk":0,"updated_at":"2026-05-10T03:19:40.940303+05:30"},{"city":"Jamshedpur","state":"Jharkhand","latitude":22.8046,"longitude":86.2029,"temp":23.4,"humidity":91,"rain":0.0,"pressure":990.8,"uv_index":8.95,"wind_gusts":32.4,"aqi":99,"pm10":32.2,"pm2_5":26.4,"no2":14.0,"co":313.0,"o3":76.0,"so2":17.2,"mosquito_risk":3,"arthritis_risk":5,"migraine_risk":7,"frizz_risk":1,"updated_at":"2026-05-10T03:19:40.940308+05:30"},{"city":"Dhanbad","state":"Jharkhand","latitude":23.7957,"longitude":86.4304,"temp":22.6,"humidity":88,"rain":0.0,"pressure":980.0,"uv_index":8.9,"wind_gusts":29.9,"aqi":157,"pm10":103.6,"pm2_5":93.4,"no2":69.5,"co":327.0,"o3":37.0,"so2":86.9,"mosquito_risk":3,"arthritis_risk":5,"migraine_risk":7,"frizz_risk":1,"updated_at":"2026-05-10T03:19:40.940313+05:30"},{"city":"Bokaro","state":"Jharkhand","latitude":23.6693,"longitude":86.1511,"temp":21.8,"humidity":89,"rain":0.0,"pressure":983.7,"uv_index":8.9,"wind_gusts":27.0,"aqi":159,"pm10":124.3,"pm2_5":105.5,"no2":61.7,"co":2073.0,"o3":43.0,"so2":72.6,"mosquito_risk":3,"arthritis_risk":5,"migraine_risk":7,"frizz_risk":1,"updated_at":"2026-05-10T03:19:40.940319+05:30"},{"city":"Bhubaneswar","state":"Odisha","latitude":20.2961,"longitude":85.8245,"temp":25.5,"humidity":95,"rain":0.0,"pressure":1002.3,"uv_index":9.05,"wind_gusts":32.4,"aqi":56,"pm10":26.3,"pm2_5":23.8,"no2":20.4,"co":293.0,"o3":29.0,"so2":5.5,"mosquito_risk":7,"arthritis_risk":5,"migraine_risk":4,"frizz_risk":1,"updated_at":"2026-05-10T03:19:40.940324+05:30"},{"city":"Cuttack","state":"Odisha","latitude":20.4625,"longitude":85.8828,"temp":25.4,"humidity":96,"rain":0.0,"pressure":1004.3,"uv_index":9.1,"wind_gusts":28.1,"aqi":56,"pm10":26.3,"pm2_5":23.8,"no2":20.4,"co":286.0,"o3":29.0,"so2":5.5,"mosquito_risk":7,"arthritis_risk":5,"migraine_risk":4,"frizz_risk":1,"updated_at":"2026-05-10T03:19:40.940329+05:30"},{"city":"Rourkela","state":"Odisha","latitude":22.2604,"longitude":84.8536,"temp":24.3,"humidity":81,"rain":0.0,"pressure":984.5,"uv_index":8.85,"wind_gusts":38.2,"aqi":128,"pm10":82.7,"pm2_5":65.4,"no2":36.9,"co":461.0,"o3":46.0,"so2":37.4,"mosquito_risk":3,"arthritis_risk":5,"migraine_risk":7,"frizz_risk":1,"updated_at":"2026-05-10T03:19:40.940334+05:30"},{"city":"Raipur","state":"Chhattisgarh","latitude":21.2514,"longitude":81.6296,"temp":27.0,"humidity":53,"rain":0.0,"pressure":972.4,"uv_index":8.9,"wind_gusts":35.6,"aqi":87,"pm10":37.5,"pm2_5":28.2,"no2":13.7,"co":475.0,"o3":110.0,"so2":5.8,"mosquito_risk":4,"arthritis_risk":5,"migraine_risk":7,"frizz_risk":1,"updated_at":"2026-05-10T03:19:40.940340+05:30"},{"city":"Bhilai","state":"Chhattisgarh","latitude":21.1938,"longitude":81.3509,"temp":26.5,"humidity":58,"rain":0.0,"pressure":972.7,"uv_index":8.95,"wind_gusts":33.1,"aqi":89,"pm10":40.6,"pm2_5":31.0,"no2":24.1,"co":435.0,"o3":102.0,"so2":5.7,"mosquito_risk":4,"arthritis_risk":5,"migraine_risk":7,"frizz_risk":1,"updated_at":"2026-05-10T03:19:40.940344+05:30"},{"city":"Guwahati","state":"Assam","latitude":26.1158,"longitude":91.7086,"temp":21.4,"humidity":87,"rain":0.0,"pressure":1002.5,"uv_index":8.6,"wind_gusts":24.1,"aqi":93,"pm10":43.0,"pm2_5":37.6,"no2":19.0,"co":359.0,"o3":30.0,"so2":3.2,"mosquito_risk":3,"arthritis_risk":5,"migraine_risk":4,"frizz_risk":1,"updated_at":"2026-05-10T03:19:40.940349+05:30"},{"city":"Agartala","state":"Tripura","latitude":23.8315,"longitude":91.2868,"temp":23.0,"humidity":90,"rain":0.0,"pressure":1006.4,"uv_index":7.65,"wind_gusts":32.0,"aqi":159,"pm10":113.6,"pm2_5":103.1,"no2":60.3,"co":489.0,"o3":22.0,"so2":10.8,"mosquito_risk":3,"arthritis_risk":5,"migraine_risk":4,"frizz_risk":1,"updated_at":"2026-05-10T03:19:40.940367+05:30"},{"city":"Shillong","state":"Meghalaya","latitude":25.5788,"longitude":91.8933,"temp":17.2,"humidity":69,"rain":0.0,"pressure":857.5,"uv_index":9.05,"wind_gusts":24.8,"aqi":77,"pm10":35.6,"pm2_5":26.3,"no2":11.8,"co":295.0,"o3":48.0,"so2":1.9,"mosquito_risk":3,"arthritis_risk":5,"migraine_risk":7,"frizz_risk":0,"updated_at":"2026-05-10T03:19:40.940373+05:30"},{"city":"Imphal","state":"Manipur","latitude":24.817,"longitude":93.9368,"temp":17.4,"humidity":88,"rain":0.0,"pressure":922.6,"uv_index":7.0,"wind_gusts":22.0,"aqi":96,"pm10":57.0,"pm2_5":51.0,"no2":32.6,"co":492.0,"o3":22.0,"so2":5.4,"mosquito_risk":3,"arthritis_risk":10,"migraine_risk":7,"frizz_risk":0,"updated_at":"2026-05-10T03:19:40.940378+05:30"},{"city":"Aizawl","state":"Mizoram","latitude":23.7271,"longitude":92.7176,"temp":15.4,"humidity":84,"rain":0.0,"pressure":890.9,"uv_index":8.55,"wind_gusts":14.0,"aqi":91,"pm10":63.6,"pm2_5":44.2,"no2":12.0,"co":373.0,"o3":48.0,"so2":3.9,"mosquito_risk":3,"arthritis_risk":10,"migraine_risk":7,"frizz_risk":0,"updated_at":"2026-05-10T03:19:40.940383+05:30"},{"city":"Kohima","state":"Nagaland","latitude":25.6701,"longitude":94.1077,"temp":14.2,"humidity":93,"rain":0.0,"pressure":854.0,"uv_index":7.95,"wind_gusts":24.1,"aqi":75,"pm10":38.3,"pm2_5":27.8,"no2":13.6,"co":269.0,"o3":39.0,"so2":1.7,"mosquito_risk":3,"arthritis_risk":10,"migraine_risk":7,"frizz_risk":0,"updated_at":"2026-05-10T03:19:40.940388+05:30"},{"city":"Gangtok","state":"Sikkim","latitude":27.3314,"longitude":88.6138,"temp":12.1,"humidity":86,"rain":0.2,"pressure":837.8,"uv_index":7.1,"wind_gusts":34.9,"aqi":60,"pm10":22.8,"pm2_5":16.5,"no2":12.8,"co":292.0,"o3":69.0,"so2":0.9,"mosquito_risk":6,"arthritis_risk":10,"migraine_risk":7,"frizz_risk":0,"updated_at":"2026-05-10T03:19:40.940393+05:30"},{"city":"Siliguri","state":"West Bengal","latitude":26.7271,"longitude":88.3953,"temp":22.0,"humidity":63,"rain":0.0,"pressure":993.9,"uv_index":8.1,"wind_gusts":20.9,"aqi":106,"pm10":65.7,"pm2_5":51.9,"no2":35.0,"co":433.0,"o3":45.0,"so2":4.9,"mosquito_risk":3,"arthritis_risk":5,"migraine_risk":7,"frizz_risk":0,"updated_at":"2026-05-10T03:19:44.292496+05:30"},{"city":"Durgapur","state":"West Bengal","latitude":23.5204,"longitude":87.3119,"temp":23.2,"humidity":91,"rain":0.0,"pressure":995.2,"uv_index":8.85,"wind_gusts":32.8,"aqi":146,"pm10":69.6,"pm2_5":64.5,"no2":38.8,"co":551.0,"o3":53.0,"so2":46.3,"mosquito_risk":3,"arthritis_risk":5,"migraine_risk":7,"frizz_risk":1,"updated_at":"2026-05-10T03:19:44.292527+05:30"},{"city":"Asansol","state":"West Bengal","latitude":23.6739,"longitude":86.9524,"temp":22.6,"humidity":91,"rain":0.0,"pressure":993.8,"uv_index":8.85,"wind_gusts":26.3,"aqi":141,"pm10":70.8,"pm2_5":63.8,"no2":39.6,"co":831.0,"o3":53.0,"so2":57.8,"mosquito_risk":3,"arthritis_risk":5,"migraine_risk":7,"frizz_risk":1,"updated_at":"2026-05-10T03:19:44.292536+05:30"},{"city":"Pondicherry","state":"Puducherry","latitude":11.9139,"longitude":79.8145,"temp":25.9,"humidity":94,"rain":0.2,"pressure":1005.8,"uv_index":8.0,"wind_gusts":39.6,"aqi":21,"pm10":4.1,"pm2_5":3.2,"no2":3.4,"co":255.0,"o3":44.0,"so2":0.5,"mosquito_risk":10,"arthritis_risk":5,"migraine_risk":4,"frizz_risk":1,"updated_at":"2026-05-10T03:19:44.292544+05:30"},{"city":"Port Blair","state":"Andaman and Nicobar Islands","latitude":11.6234,"longitude":92.7265,"temp":24.5,"humidity":96,"rain":0.0,"pressure":1005.2,"uv_index":9.0,"wind_gusts":29.9,"aqi":26,"pm10":2.3,"pm2_5":1.7,"no2":0.3,"co":144.0,"o3":57.0,"so2":0.1,"mosquito_risk":3,"arthritis_risk":5,"migraine_risk":4,"frizz_risk":1,"updated_at":"2026-05-10T03:19:44.292550+05:30"},{"city":"Haridwar","state":"Uttarakhand","latitude":29.9457,"longitude":78.1642,"temp":20.9,"humidity":80,"rain":0.0,"pressure":973.5,"uv_index":7.45,"wind_gusts":28.8,"aqi":97,"pm10":61.9,"pm2_5":44.9,"no2":20.2,"co":336.0,"o3":62.0,"so2":7.3,"mosquito_risk":3,"arthritis_risk":5,"migraine_risk":7,"frizz_risk":1,"updated_at":"2026-05-10T03:19:44.292556+05:30"},{"city":"Rishikesh","state":"Uttarakhand","latitude":30.0869,"longitude":78.2676,"temp":18.5,"humidity":88,"rain":0.0,"pressure":966.0,"uv_index":7.55,"wind_gusts":23.8,"aqi":90,"pm10":68.5,"pm2_5":39.1,"no2":13.6,"co":335.0,"o3":96.0,"so2":5.9,"mosquito_risk":3,"arthritis_risk":10,"migraine_risk":7,"frizz_risk":1,"updated_at":"2026-05-10T03:19:44.292562+05:30"},{"city":"Nainital","state":"Uttarakhand","latitude":29.3919,"longitude":79.4542,"temp":11.5,"humidity":85,"rain":0.0,"pressure":804.2,"uv_index":8.1,"wind_gusts":32.8,"aqi":74,"pm10":41.9,"pm2_5":31.5,"no2":21.7,"co":286.0,"o3":55.0,"so2":3.3,"mosquito_risk":3,"arthritis_risk":10,"migraine_risk":7,"frizz_risk":0,"updated_at":"2026-05-10T03:19:44.292568+05:30"},{"city":"Mussoorie","state":"Uttarakhand","latitude":30.4599,"longitude":78.0664,"temp":12.2,"humidity":86,"rain":0.0,"pressure":801.2,"uv_index":7.95,"wind_gusts":39.2,"aqi":84,"pm10":63.1,"pm2_5":42.5,"no2":31.5,"co":300.0,"o3":48.0,"so2":9.2,"mosquito_risk":3,"arthritis_risk":10,"migraine_risk":7,"frizz_risk":0,"updated_at":"2026-05-10T03:19:44.292574+05:30"},{"city":"Dharamshala","state":"Himachal Pradesh","latitude":32.219,"longitude":76.3234,"temp":19.5,"humidity":67,"rain":0.0,"pressure":868.3,"uv_index":7.7,"wind_gusts":35.6,"aqi":74,"pm10":38.5,"pm2_5":19.2,"no2":11.0,"co":287.0,"o3":70.0,"so2":1.1,"mosquito_risk":3,"arthritis_risk":5,"migraine_risk":7,"frizz_risk":0,"updated_at":"2026-05-10T03:19:44.292579+05:30"},{"city":"Dalhousie","state":"Himachal Pradesh","latitude":32.5387,"longitude":75.971,"temp":9.3,"humidity":93,"rain":0.0,"pressure":799.9,"uv_index":7.95,"wind_gusts":35.3,"aqi":118,"pm10":64.5,"pm2_5":42.8,"no2":24.6,"co":389.0,"o3":54.0,"so2":3.2,"mosquito_risk":3,"arthritis_risk":10,"migraine_risk":7,"frizz_risk":0,"updated_at":"2026-05-10T03:19:44.292586+05:30"},{"city":"Patiala","state":"Punjab","latitude":30.3398,"longitude":76.3869,"temp":23.5,"humidity":70,"rain":0.0,"pressure":977.2,"uv_index":7.6,"wind_gusts":34.9,"aqi":281,"pm10":429.3,"pm2_5":75.7,"no2":9.1,"co":468.0,"o3":95.0,"so2":9.6,"mosquito_risk":3,"arthritis_risk":5,"migraine_risk":7,"frizz_risk":1,"updated_at":"2026-05-10T03:19:44.292592+05:30"},{"city":"Bhatinda","state":"Punjab","latitude":30.211,"longitude":74.9455,"temp":26.6,"humidity":53,"rain":0.0,"pressure":982.3,"uv_index":8.25,"wind_gusts":29.2,"aqi":317,"pm10":612.8,"pm2_5":123.4,"no2":7.9,"co":424.0,"o3":104.0,"so2":12.8,"mosquito_risk":4,"arthritis_risk":5,"migraine_risk":7,"frizz_risk":1,"updated_at":"2026-05-10T03:19:44.292597+05:30"},{"city":"Rohtak","state":"Haryana","latitude":28.8955,"longitude":76.6066,"temp":24.5,"humidity":69,"rain":0.0,"pressure":980.8,"uv_index":7.7,"wind_gusts":29.9,"aqi":302,"pm10":460.1,"pm2_5":92.4,"no2":19.6,"co":499.0,"o3":91.0,"so2":23.8,"mosquito_risk":3,"arthritis_risk":5,"migraine_risk":7,"frizz_risk":1,"updated_at":"2026-05-10T03:19:44.292603+05:30"},{"city":"Panipat","state":"Haryana","latitude":29.3909,"longitude":76.9635,"temp":23.5,"humidity":72,"rain":0.0,"pressure":979.6,"uv_index":7.55,"wind_gusts":31.0,"aqi":625,"pm10":510.4,"pm2_5":88.0,"no2":16.1,"co":399.0,"o3":89.0,"so2":18.4,"mosquito_risk":3,"arthritis_risk":5,"migraine_risk":7,"frizz_risk":1,"updated_at":"2026-05-10T03:19:44.292608+05:30"},{"city":"Mathura","state":"Uttar Pradesh","latitude":27.4924,"longitude":77.6737,"temp":24.3,"humidity":66,"rain":0.0,"pressure":986.1,"uv_index":7.9,"wind_gusts":22.0,"aqi":710,"pm10":570.0,"pm2_5":92.9,"no2":7.4,"co":396.0,"o3":96.0,"so2":11.4,"mosquito_risk":3,"arthritis_risk":5,"migraine_risk":7,"frizz_risk":1,"updated_at":"2026-05-10T03:19:44.292614+05:30"},{"city":"Vrindavan","state":"Uttar Pradesh","latitude":27.5823,"longitude":77.7027,"temp":24.5,"humidity":65,"rain":0.0,"pressure":986.5,"uv_index":7.9,"wind_gusts":22.3,"aqi":710,"pm10":570.0,"pm2_5":92.9,"no2":7.4,"co":406.0,"o3":96.0,"so2":11.4,"mosquito_risk":3,"arthritis_risk":5,"migraine_risk":7,"frizz_risk":1,"updated_at":"2026-05-10T03:19:44.292619+05:30"},{"city":"Ayodhya","state":"Uttar Pradesh","latitude":26.7922,"longitude":82.1998,"temp":23.4,"humidity":68,"rain":0.0,"pressure":995.8,"uv_index":8.2,"wind_gusts":32.0,"aqi":123,"pm10":72.2,"pm2_5":61.7,"no2":19.6,"co":457.0,"o3":88.0,"so2":10.8,"mosquito_risk":3,"arthritis_risk":5,"migraine_risk":7,"frizz_risk":1,"updated_at":"2026-05-10T03:19:44.292624+05:30"},{"city":"Ratlam","state":"Madhya Pradesh","latitude":23.3315,"longitude":75.0367,"temp":27.1,"humidity":29,"rain":0.0,"pressure":952.1,"uv_index":8.5,"wind_gusts":43.6,"aqi":51,"pm10":23.3,"pm2_5":14.8,"no2":3.5,"co":212.0,"o3":82.0,"so2":3.4,"mosquito_risk":4,"arthritis_risk":5,"migraine_risk":7,"frizz_risk":0,"updated_at":"2026-05-10T03:19:44.292630+05:30"},{"city":"Sagar","state":"Madhya Pradesh","latitude":23.8388,"longitude":78.7378,"temp":24.2,"humidity":49,"rain":0.0,"pressure":947.3,"uv_index":8.65,"wind_gusts":35.3,"aqi":98,"pm10":41.3,"pm2_5":28.5,"no2":5.5,"co":291.0,"o3":124.0,"so2":8.1,"mosquito_risk":0,"arthritis_risk":5,"migraine_risk":7,"frizz_risk":0,"updated_at":"2026-05-10T03:19:44.292635+05:30"},{"city":"Satna","state":"Madhya Pradesh","latitude":24.6005,"longitude":80.8322,"temp":23.5,"humidity":58,"rain":0.0,"pressure":969.1,"uv_index":8.65,"wind_gusts":28.4,"aqi":133,"pm10":55.5,"pm2_5":45.6,"no2":11.1,"co":391.0,"o3":106.0,"so2":13.5,"mosquito_risk":0,"arthritis_risk":5,"migraine_risk":7,"frizz_risk":0,"updated_at":"2026-05-10T03:19:44.292641+05:30"},{"city":"Akola","state":"Maharashtra","latitude":20.7002,"longitude":77.0082,"temp":27.8,"humidity":39,"rain":0.0,"pressure":972.5,"uv_index":8.9,"wind_gusts":39.6,"aqi":84,"pm10":71.7,"pm2_5":37.3,"no2":24.3,"co":304.0,"o3":55.0,"so2":10.3,"mosquito_risk":4,"arthritis_risk":5,"migraine_risk":7,"frizz_risk":0,"updated_at":"2026-05-10T03:19:44.292647+05:30"},{"city":"Amravati","state":"Maharashtra","latitude":20.9374,"longitude":77.7796,"temp":27.9,"humidity":39,"rain":0.0,"pressure":965.4,"uv_index":8.85,"wind_gusts":38.2,"aqi":83,"pm10":75.0,"pm2_5":38.5,"no2":26.4,"co":322.0,"o3":51.0,"so2":8.3,"mosquito_risk":4,"arthritis_risk":5,"migraine_risk":7,"frizz_risk":0,"updated_at":"2026-05-10T03:19:44.292654+05:30"},{"city":"Latur","state":"Maharashtra","latitude":18.4088,"longitude":76.5604,"temp":27.2,"humidity":42,"rain":0.0,"pressure":937.5,"uv_index":9.1,"wind_gusts":37.4,"aqi":78,"pm10":36.0,"pm2_5":25.8,"no2":12.7,"co":307.0,"o3":76.0,"so2":4.3,"mosquito_risk":4,"arthritis_risk":5,"migraine_risk":7,"frizz_risk":0,"updated_at":"2026-05-10T03:19:44.292660+05:30"},{"city":"Nanded","state":"Maharashtra","latitude":19.1383,"longitude":77.3091,"temp":27.5,"humidity":49,"rain":0.0,"pressure":966.3,"uv_index":9.0,"wind_gusts":31.0,"aqi":80,"pm10":49.6,"pm2_5":31.5,"no2":12.3,"co":283.0,"o3":86.0,"so2":4.4,"mosquito_risk":4,"arthritis_risk":5,"migraine_risk":7,"frizz_risk":0,"updated_at":"2026-05-10T03:19:44.292665+05:30"},{"city":"Gulbarga","state":"Karnataka","latitude":17.3297,"longitude":76.8343,"temp":27.5,"humidity":48,"rain":0.0,"pressure":956.5,"uv_index":9.1,"wind_gusts":35.3,"aqi":54,"pm10":17.6,"pm2_5":15.2,"no2":11.6,"co":273.0,"o3":82.0,"so2":6.0,"mosquito_risk":4,"arthritis_risk":5,"migraine_risk":7,"frizz_risk":0,"updated_at":"2026-05-10T03:19:44.292670+05:30"},{"city":"Bidar","state":"Karnataka","latitude":17.9104,"longitude":77.5199,"temp":26.0,"humidity":52,"rain":0.0,"pressure":933.3,"uv_index":9.15,"wind_gusts":34.9,"aqi":63,"pm10":21.9,"pm2_5":19.1,"no2":13.6,"co":288.0,"o3":76.0,"so2":7.4,"mosquito_risk":4,"arthritis_risk":5,"migraine_risk":7,"frizz_risk":0,"updated_at":"2026-05-10T03:19:44.292674+05:30"},{"city":"Hospet","state":"Karnataka","latitude":15.2689,"longitude":76.3909,"temp":25.5,"humidity":66,"rain":0.0,"pressure":953.7,"uv_index":9.2,"wind_gusts":39.2,"aqi":42,"pm10":10.3,"pm2_5":9.4,"no2":11.5,"co":147.0,"o3":47.0,"so2":6.8,"mosquito_risk":7,"arthritis_risk":5,"migraine_risk":7,"frizz_risk":1,"updated_at":"2026-05-10T03:19:44.292679+05:30"},{"city":"Tirupur","state":"Tamil Nadu","latitude":11.1085,"longitude":77.3411,"temp":24.0,"humidity":96,"rain":0.0,"pressure":972.2,"uv_index":7.0,"wind_gusts":28.1,"aqi":69,"pm10":19.0,"pm2_5":18.6,"no2":20.1,"co":236.0,"o3":40.0,"so2":6.1,"mosquito_risk":3,"arthritis_risk":5,"migraine_risk":7,"frizz_risk":1,"updated_at":"2026-05-10T03:19:44.292684+05:30"},{"city":"Alappuzha","state":"Kerala","latitude":9.4981,"longitude":76.3388,"temp":26.0,"humidity":96,"rain":0.0,"pressure":1004.7,"uv_index":7.55,"wind_gusts":30.2,"aqi":60,"pm10":19.0,"pm2_5":18.3,"no2":12.2,"co":317.0,"o3":67.0,"so2":4.3,"mosquito_risk":7,"arthritis_risk":5,"migraine_risk":4,"frizz_risk":1,"updated_at":"2026-05-10T03:19:44.292689+05:30"},{"city":"Munnar","state":"Kerala","latitude":10.0889,"longitude":77.0595,"temp":16.4,"humidity":97,"rain":0.0,"pressure":851.8,"uv_index":5.4,"wind_gusts":22.7,"aqi":39,"pm10":3.7,"pm2_5":3.6,"no2":9.6,"co":152.0,"o3":39.0,"so2":1.8,"mosquito_risk":3,"arthritis_risk":10,"migraine_risk":3,"frizz_risk":0,"updated_at":"2026-05-10T03:19:44.292694+05:30"},{"city":"Silchar","state":"Assam","latitude":24.8333,"longitude":92.7789,"temp":22.8,"humidity":92,"rain":0.0,"pressure":1005.2,"uv_index":8.1,"wind_gusts":15.8,"aqi":125,"pm10":81.7,"pm2_5":63.3,"no2":27.1,"co":682.0,"o3":21.0,"so2":7.2,"mosquito_risk":3,"arthritis_risk":5,"migraine_risk":4,"frizz_risk":1,"updated_at":"2026-05-10T03:19:44.292699+05:30"},{"city":"Dibrugarh","state":"Assam","latitude":27.4728,"longitude":94.912,"temp":22.5,"humidity":96,"rain":0.0,"pressure":996.1,"uv_index":8.75,"wind_gusts":45.4,"aqi":103,"pm10":50.6,"pm2_5":45.9,"no2":36.9,"co":742.0,"o3":6.0,"so2":1.8,"mosquito_risk":3,"arthritis_risk":5,"migraine_risk":7,"frizz_risk":1,"updated_at":"2026-05-10T03:19:44.292704+05:30"}]