[{"city":"Delhi","state":"Delhi","latitude":28.6139,"longitude":77.209,"temp":30.0,"humidity":45,"rain":0.0,"pressure":983.4,"uv_index":6.8,"wind_gusts":29.2,"aqi":188,"pm10":244.0,"pm2_5":67.3,"mosquito_risk":4,"arthritis_risk":5,"migraine_risk":7,"frizz_risk":1,"updated_at":"2026-04-17T21:38:01.364878+05:30"},{"city":"Mumbai","state":"Maharashtra","latitude":19.076,"longitude":72.8777,"temp":30.1,"humidity":70,"rain":0.0,"pressure":1008.5,"uv_index":7.05,"wind_gusts":22.3,"aqi":96,"pm10":69.8,"pm2_5":24.5,"mosquito_risk":3,"arthritis_risk":0,"migraine_risk":4,"frizz_risk":1,"updated_at":"2026-04-17T21:38:01.364928+05:30"},{"city":"Bangalore","state":"Karnataka","latitude":12.9716,"longitude":77.5946,"temp":27.9,"humidity":52,"rain":0.0,"pressure":912.7,"uv_index":9.2,"wind_gusts":34.9,"aqi":121,"pm10":27.6,"pm2_5":25.4,"mosquito_risk":4,"arthritis_risk":5,"migraine_risk":7,"frizz_risk":1,"updated_at":"2026-04-17T21:38:01.364945+05:30"},{"city":"Hyderabad","state":"Telangana","latitude":17.385,"longitude":78.4867,"temp":29.9,"humidity":49,"rain":0.0,"pressure":954.2,"uv_index":9.2,"wind_gusts":40.0,"aqi":145,"pm10":43.4,"pm2_5":40.3,"mosquito_risk":4,"arthritis_risk":5,"migraine_risk":7,"frizz_risk":1,"updated_at":"2026-04-17T21:38:01.364956+05:30"},{"city":"Chennai","state":"Tamil Nadu","latitude":13.0827,"longitude":80.2707,"temp":29.2,"humidity":78,"rain":0.0,"pressure":1008.2,"uv_index":8.95,"wind_gusts":33.1,"aqi":35,"pm10":11.6,"pm2_5":8.0,"mosquito_risk":7,"arthritis_risk":0,"migraine_risk":4,"frizz_risk":1,"updated_at":"2026-04-17T21:38:01.364966+05:30"},{"city":"Kolkata","state":"West Bengal","latitude":22.5726,"longitude":88.3639,"temp":27.6,"humidity":86,"rain":0.0,"pressure":1007.0,"uv_index":8.85,"wind_gusts":24.1,"aqi":65,"pm10":16.6,"pm2_5":14.1,"mosquito_risk":7,"arthritis_risk":5,"migraine_risk":4,"frizz_risk":1,"updated_at":"2026-04-17T21:38:01.364978+05:30"},{"city":"Pune","state":"Maharashtra","latitude":18.5204,"longitude":73.8567,"temp":28.3,"humidity":67,"rain":0.0,"pressure":949.6,"uv_index":7.85,"wind_gusts":42.1,"aqi":162,"pm10":44.6,"pm2_5":32.6,"mosquito_risk":7,"arthritis_risk":5,"migraine_risk":7,"frizz_risk":1,"updated_at":"2026-04-17T21:38:01.364987+05:30"},{"city":"Ahmedabad","state":"Gujarat","latitude":23.0225,"longitude":72.5714,"temp":32.4,"humidity":31,"rain":0.0,"pressure":1001.7,"uv_index":7.55,"wind_gusts":21.6,"aqi":63,"pm10":69.2,"pm2_5":48.5,"mosquito_risk":0,"arthritis_risk":5,"migraine_risk":4,"frizz_risk":0,"updated_at":"2026-04-17T21:38:01.364995+05:30"},{"city":"Jaipur","state":"Rajasthan","latitude":26.9124,"longitude":75.7873,"temp":31.1,"humidity":33,"rain":0.0,"pressure":960.3,"uv_index":7.55,"wind_gusts":28.4,"aqi":85,"pm10":112.2,"pm2_5":42.3,"mosquito_risk":0,"arthritis_risk":5,"migraine_risk":7,"frizz_risk":0,"updated_at":"2026-04-17T21:38:01.365003+05:30"},{"city":"Lucknow","state":"Uttar Pradesh","latitude":26.8467,"longitude":80.9462,"temp":30.8,"humidity":37,"rain":0.0,"pressure":993.2,"uv_index":7.35,"wind_gusts":19.4,"aqi":135,"pm10":102.4,"pm2_5":43.5,"mosquito_risk":0,"arthritis_risk":5,"migraine_risk":7,"frizz_risk":0,"updated_at":"2026-04-17T21:38:01.365011+05:30"},{"city":"Kanpur","state":"Uttar Pradesh","latitude":26.4499,"longitude":80.3319,"temp":29.1,"humidity":47,"rain":0.0,"pressure":991.0,"uv_index":7.85,"wind_gusts":15.8,"aqi":116,"pm10":198.8,"pm2_5":42.6,"mosquito_risk":4,"arthritis_risk":5,"migraine_risk":7,"frizz_risk":1,"updated_at":"2026-04-17T21:38:01.365019+05:30"},{"city":"Chandigarh","state":"Chandigarh","latitude":30.7333,"longitude":76.7794,"temp":23.9,"humidity":50,"rain":0.0,"pressure":969.7,"uv_index":7.2,"wind_gusts":34.2,"aqi":92,"pm10":27.2,"pm2_5":18.0,"mosquito_risk":0,"arthritis_risk":5,"migraine_risk":7,"frizz_risk":0,"updated_at":"2026-04-17T21:38:01.365027+05:30"},{"city":"Srinagar","state":"Jammu and Kashmir","latitude":34.0837,"longitude":74.7973,"temp":11.1,"humidity":88,"rain":0.0,"pressure":845.4,"uv_index":5.75,"wind_gusts":25.6,"aqi":72,"pm10":47.5,"pm2_5":44.4,"mosquito_risk":3,"arthritis_risk":10,"migraine_risk":3,"frizz_risk":0,"updated_at":"2026-04-17T21:38:01.365035+05:30"},{"city":"Jammu","state":"Jammu and Kashmir","latitude":32.7266,"longitude":74.857,"temp":25.2,"humidity":45,"rain":0.0,"pressure":975.1,"uv_index":4.95,"wind_gusts":47.9,"aqi":62,"pm10":54.2,"pm2_5":33.4,"mosquito_risk":4,"arthritis_risk":5,"migraine_risk":3,"frizz_risk":0,"updated_at":"2026-04-17T21:38:01.365042+05:30"},{"city":"Amritsar","state":"Punjab","latitude":31.634,"longitude":74.8723,"temp":25.0,"humidity":43,"rain":0.0,"pressure":982.7,"uv_index":7.25,"wind_gusts":32.0,"aqi":87,"pm10":30.2,"pm2_5":19.4,"mosquito_risk":4,"arthritis_risk":5,"migraine_risk":7,"frizz_risk":0,"updated_at":"2026-04-17T21:38:01.365049+05:30"},{"city":"Ludhiana","state":"Punjab","latitude":30.901,"longitude":75.8573,"temp":25.2,"humidity":44,"rain":0.0,"pressure":980.2,"uv_index":7.4,"wind_gusts":38.5,"aqi":95,"pm10":31.5,"pm2_5":18.6,"mosquito_risk":4,"arthritis_risk":5,"migraine_risk":7,"frizz_risk":0,"updated_at":"2026-04-17T21:38:01.365077+05:30"},{"city":"Jalandhar","state":"Punjab","latitude":31.326,"longitude":75.5762,"temp":23.9,"humidity":41,"rain":0.0,"pressure":981.5,"uv_index":6.85,"wind_gusts":38.2,"aqi":83,"pm10":54.2,"pm2_5":18.8,"mosquito_risk":0,"arthritis_risk":5,"migraine_risk":7,"frizz_risk":0,"updated_at":"2026-04-17T21:38:01.365086+05:30"},{"city":"Dehradun","state":"Uttarakhand","latitude":30.6284,"longitude":78.0322,"temp":18.0,"humidity":44,"rain":0.0,"pressure":833.7,"uv_index":6.8,"wind_gusts":33.5,"aqi":74,"pm10":31.8,"pm2_5":13.5,"mosquito_risk":0,"arthritis_risk":5,"migraine_risk":7,"frizz_risk":0,"updated_at":"2026-04-17T21:38:01.365094+05:30"},{"city":"Shimla","state":"Himachal Pradesh","latitude":31.1048,"longitude":77.1734,"temp":14.9,"humidity":57,"rain":0.0,"pressure":787.9,"uv_index":6.95,"wind_gusts":35.6,"aqi":76,"pm10":27.7,"pm2_5":14.9,"mosquito_risk":0,"arthritis_risk":5,"migraine_risk":7,"frizz_risk":0,"updated_at":"2026-04-17T21:38:01.365101+05:30"},{"city":"Manali","state":"Himachal Pradesh","latitude":32.2396,"longitude":77.1887,"temp":14.4,"humidity":82,"rain":0.0,"pressure":823.9,"uv_index":9.45,"wind_gusts":32.8,"aqi":91,"pm10":7.4,"pm2_5":5.2,"mosquito_risk":3,"arthritis_risk":10,"migraine_risk":7,"frizz_risk":0,"updated_at":"2026-04-17T21:38:01.365108+05:30"},{"city":"Gurgaon","state":"Haryana","latitude":28.4595,"longitude":77.0266,"temp":27.7,"humidity":53,"rain":0.0,"pressure":981.8,"uv_index":6.75,"wind_gusts":25.6,"aqi":354,"pm10":1218.2,"pm2_5":157.4,"mosquito_risk":4,"arthritis_risk":5,"migraine_risk":7,"frizz_risk":1,"updated_at":"2026-04-17T21:38:01.365115+05:30"},{"city":"Noida","state":"Uttar Pradesh","latitude":28.5355,"longitude":77.391,"temp":29.6,"humidity":46,"rain":0.0,"pressure":984.9,"uv_index":6.8,"wind_gusts":23.0,"aqi":354,"pm10":1218.2,"pm2_5":157.4,"mosquito_risk":4,"arthritis_risk":5,"migraine_risk":7,"frizz_risk":1,"updated_at":"2026-04-17T21:38:01.365122+05:30"},{"city":"Ghaziabad","state":"Uttar Pradesh","latitude":28.6692,"longitude":77.4538,"temp":28.2,"humidity":53,"rain":0.0,"pressure":983.1,"uv_index":6.65,"wind_gusts":27.4,"aqi":185,"pm10":103.8,"pm2_5":48.4,"mosquito_risk":4,"arthritis_risk":5,"migraine_risk":7,"frizz_risk":1,"updated_at":"2026-04-17T21:38:01.365129+05:30"},{"city":"Faridabad","state":"Haryana","latitude":28.4089,"longitude":77.3178,"temp":28.5,"humidity":46,"rain":0.0,"pressure":984.0,"uv_index":6.7,"wind_gusts":34.2,"aqi":354,"pm10":1218.2,"pm2_5":157.4,"mosquito_risk":4,"arthritis_risk":5,"migraine_risk":7,"frizz_risk":0,"updated_at":"2026-04-17T21:38:01.365136+05:30"},{"city":"Meerut","state":"Uttar Pradesh","latitude":28.9845,"longitude":77.7064,"temp":28.3,"humidity":55,"rain":0.0,"pressure":982.0,"uv_index":6.4,"wind_gusts":16.2,"aqi":185,"pm10":103.8,"pm2_5":48.4,"mosquito_risk":4,"arthritis_risk":5,"migraine_risk":7,"frizz_risk":1,"updated_at":"2026-04-17T21:38:01.365142+05:30"},{"city":"Agra","state":"Uttar Pradesh","latitude":27.1767,"longitude":78.0081,"temp":29.0,"humidity":40,"rain":0.0,"pressure":987.6,"uv_index":6.4,"wind_gusts":17.6,"aqi":197,"pm10":843.8,"pm2_5":109.2,"mosquito_risk":4,"arthritis_risk":5,"migraine_risk":7,"frizz_risk":0,"updated_at":"2026-04-17T21:38:01.365154+05:30"},{"city":"Varanasi","state":"Uttar Pradesh","latitude":25.3176,"longitude":82.9739,"temp":29.5,"humidity":45,"rain":0.0,"pressure":997.1,"uv_index":8.45,"wind_gusts":23.8,"aqi":131,"pm10":78.2,"pm2_5":47.1,"mosquito_risk":4,"arthritis_risk":5,"migraine_risk":7,"frizz_risk":1,"updated_at":"2026-04-17T21:38:01.365162+05:30"},{"city":"Prayagraj","state":"Uttar Pradesh","latitude":25.4358,"longitude":81.8463,"temp":30.5,"humidity":39,"rain":0.0,"pressure":995.0,"uv_index":8.3,"wind_gusts":24.1,"aqi":133,"pm10":51.8,"pm2_5":32.9,"mosquito_risk":0,"arthritis_risk":5,"migraine_risk":7,"frizz_risk":0,"updated_at":"2026-04-17T21:38:01.365169+05:30"},{"city":"Gorakhpur","state":"Uttar Pradesh","latitude":26.7606,"longitude":83.3732,"temp":28.8,"humidity":62,"rain":0.0,"pressure":997.3,"uv_index":7.7,"wind_gusts":27.0,"aqi":156,"pm10":89.9,"pm2_5":72.2,"mosquito_risk":7,"arthritis_risk":5,"migraine_risk":7,"frizz_risk":1,"updated_at":"2026-04-17T21:38:01.365179+05:30"},{"city":"Bareilly","state":"Uttar Pradesh","latitude":28.367,"longitude":79.4304,"temp":26.8,"humidity":62,"rain":0.0,"pressure":986.9,"uv_index":6.85,"wind_gusts":22.7,"aqi":159,"pm10":66.4,"pm2_5":32.5,"mosquito_risk":7,"arthritis_risk":5,"migraine_risk":7,"frizz_risk":1,"updated_at":"2026-04-17T21:38:01.365186+05:30"},{"city":"Aligarh","state":"Uttar Pradesh","latitude":27.8974,"longitude":78.088,"temp":27.8,"humidity":42,"rain":0.0,"pressure":985.5,"uv_index":6.5,"wind_gusts":34.9,"aqi":142,"pm10":549.5,"pm2_5":76.1,"mosquito_risk":4,"arthritis_risk":5,"migraine_risk":7,"frizz_risk":0,"updated_at":"2026-04-17T21:38:01.365192+05:30"},{"city":"Moradabad","state":"Uttar Pradesh","latitude":28.8386,"longitude":78.7733,"temp":27.2,"humidity":52,"rain":0.0,"pressure":983.9,"uv_index":5.9,"wind_gusts":17.6,"aqi":144,"pm10":72.6,"pm2_5":39.7,"mosquito_risk":4,"arthritis_risk":5,"migraine_risk":3,"frizz_risk":1,"updated_at":"2026-04-17T21:38:01.365199+05:30"},{"city":"Saharanpur","state":"Uttar Pradesh","latitude":29.9637,"longitude":77.546,"temp":24.2,"humidity":59,"rain":0.0,"pressure":976.3,"uv_index":6.1,"wind_gusts":26.6,"aqi":93,"pm10":53.2,"pm2_5":23.8,"mosquito_risk":0,"arthritis_risk":5,"migraine_risk":7,"frizz_risk":0,"updated_at":"2026-04-17T21:38:01.365204+05:30"},{"city":"Jhansi","state":"Uttar Pradesh","latitude":25.4484,"longitude":78.5685,"temp":31.5,"humidity":31,"rain":0.0,"pressure":978.0,"uv_index":7.85,"wind_gusts":20.9,"aqi":124,"pm10":77.5,"pm2_5":23.4,"mosquito_risk":0,"arthritis_risk":5,"migraine_risk":7,"frizz_risk":0,"updated_at":"2026-04-17T21:38:04.588721+05:30"},{"city":"Surat","state":"Gujarat","latitude":21.1702,"longitude":72.8311,"temp":28.3,"humidity":77,"rain":0.0,"pressure":1007.0,"uv_index":7.6,"wind_gusts":23.4,"aqi":109,"pm10":64.0,"pm2_5":39.2,"mosquito_risk":7,"arthritis_risk":5,"migraine_risk":4,"frizz_risk":1,"updated_at":"2026-04-17T21:38:04.588751+05:30"},{"city":"Vadodara","state":"Gujarat","latitude":22.3072,"longitude":73.1812,"temp":30.6,"humidity":31,"rain":0.0,"pressure":1003.7,"uv_index":7.8,"wind_gusts":22.7,"aqi":98,"pm10":67.3,"pm2_5":48.7,"mosquito_risk":0,"arthritis_risk":5,"migraine_risk":4,"frizz_risk":0,"updated_at":"2026-04-17T21:38:04.588761+05:30"},{"city":"Rajkot","state":"Gujarat","latitude":22.3039,"longitude":70.8022,"temp":28.4,"humidity":43,"rain":0.0,"pressure":994.9,"uv_index":7.85,"wind_gusts":30.2,"aqi":67,"pm10":52.2,"pm2_5":19.3,"mosquito_risk":4,"arthritis_risk":5,"migraine_risk":7,"frizz_risk":0,"updated_at":"2026-04-17T21:38:04.588770+05:30"},{"city":"Thane","state":"Maharashtra","latitude":19.2183,"longitude":72.9781,"temp":28.5,"humidity":74,"rain":0.0,"pressure":1008.0,"uv_index":7.1,"wind_gusts":32.8,"aqi":96,"pm10":69.8,"pm2_5":24.5,"mosquito_risk":7,"arthritis_risk":0,"migraine_risk":4,"frizz_risk":1,"updated_at":"2026-04-17T21:38:04.588777+05:30"},{"city":"Nagpur","state":"Maharashtra","latitude":21.1458,"longitude":79.0882,"temp":31.7,"humidity":44,"rain":0.0,"pressure":972.2,"uv_index":8.25,"wind_gusts":22.3,"aqi":182,"pm10":47.4,"pm2_5":36.7,"mosquito_risk":0,"arthritis_risk":5,"migraine_risk":7,"frizz_risk":1,"updated_at":"2026-04-17T21:38:04.588785+05:30"},{"city":"Nashik","state":"Maharashtra","latitude":19.9975,"longitude":73.7898,"temp":27.9,"humidity":43,"rain":0.0,"pressure":946.8,"uv_index":7.35,"wind_gusts":33.5,"aqi":87,"pm10":38.0,"pm2_5":21.5,"mosquito_risk":4,"arthritis_risk":5,"migraine_risk":7,"frizz_risk":0,"updated_at":"2026-04-17T21:38:04.588793+05:30"},{"city":"Aurangabad","state":"Maharashtra","latitude":19.8762,"longitude":75.3433,"temp":31.7,"humidity":26,"rain":0.0,"pressure":944.8,"uv_index":8.1,"wind_gusts":34.6,"aqi":102,"pm10":17.5,"pm2_5":13.0,"mosquito_risk":0,"arthritis_risk":5,"migraine_risk":7,"frizz_risk":0,"updated_at":"2026-04-17T21:38:04.588800+05:30"},{"city":"Solapur","state":"Maharashtra","latitude":17.6599,"longitude":75.9064,"temp":33.3,"humidity":35,"rain":0.0,"pressure":956.8,"uv_index":8.5,"wind_gusts":22.0,"aqi":160,"pm10":37.5,"pm2_5":34.1,"mosquito_risk":0,"arthritis_risk":5,"migraine_risk":7,"frizz_risk":0,"updated_at":"2026-04-17T21:38:04.588808+05:30"},{"city":"Kolhapur","state":"Maharashtra","latitude":16.705,"longitude":74.2433,"temp":24.9,"humidity":71,"rain":0.0,"pressure":948.3,"uv_index":8.2,"wind_gusts":40.7,"aqi":115,"pm10":27.9,"pm2_5":20.9,"mosquito_risk":3,"arthritis_risk":5,"migraine_risk":7,"frizz_risk":1,"updated_at":"2026-04-17T21:38:04.588816+05:30"},{"city":"Goa","state":"Goa","latitude":15.2993,"longitude":74.124,"temp":28.7,"humidity":73,"rain":0.0,"pressure":998.1,"uv_index":8.6,"wind_gusts":33.1,"aqi":69,"pm10":40.6,"pm2_5":21.1,"mosquito_risk":7,"arthritis_risk":5,"migraine_risk":7,"frizz_risk":1,"updated_at":"2026-04-17T21:38:04.588824+05:30"},{"city":"Jodhpur","state":"Rajasthan","latitude":26.2389,"longitude":73.0243,"temp":30.5,"humidity":29,"rain":0.0,"pressure":982.3,"uv_index":8.15,"wind_gusts":32.8,"aqi":95,"pm10":170.9,"pm2_5":27.2,"mosquito_risk":0,"arthritis_risk":5,"migraine_risk":7,"frizz_risk":0,"updated_at":"2026-04-17T21:38:04.588832+05:30"},{"city":"Udaipur","state":"Rajasthan","latitude":24.5854,"longitude":73.7125,"temp":28.7,"humidity":22,"rain":0.0,"pressure":947.4,"uv_index":7.85,"wind_gusts":28.8,"aqi":59,"pm10":21.3,"pm2_5":9.7,"mosquito_risk":4,"arthritis_risk":5,"migraine_risk":7,"frizz_risk":0,"updated_at":"2026-04-17T21:38:04.588839+05:30"},{"city":"Kota","state":"Rajasthan","latitude":25.2138,"longitude":75.8648,"temp":32.6,"humidity":32,"rain":0.0,"pressure":978.2,"uv_index":7.15,"wind_gusts":27.0,"aqi":81,"pm10":59.4,"pm2_5":36.4,"mosquito_risk":0,"arthritis_risk":5,"migraine_risk":7,"frizz_risk":0,"updated_at":"2026-04-17T21:38:04.588847+05:30"},{"city":"Bikaner","state":"Rajasthan","latitude":28.0229,"longitude":73.3119,"temp":34.6,"humidity":26,"rain":0.0,"pressure":980.5,"uv_index":8.0,"wind_gusts":27.4,"aqi":69,"pm10":22.5,"pm2_5":11.5,"mosquito_risk":0,"arthritis_risk":5,"migraine_risk":7,"frizz_risk":0,"updated_at":"2026-04-17T21:38:04.588854+05:30"},{"city":"Ajmer","state":"Rajasthan","latitude":26.4499,"longitude":74.6399,"temp":30.2,"humidity":34,"rain":0.0,"pressure":954.8,"uv_index":7.8,"wind_gusts":31.7,"aqi":71,"pm10":32.7,"pm2_5":17.9,"mosquito_risk":0,"arthritis_risk":5,"migraine_risk":7,"frizz_risk":0,"updated_at":"2026-04-17T21:38:04.588861+05:30"},{"city":"Gwalior","state":"Madhya Pradesh","latitude":26.2183,"longitude":78.1828,"temp":32.0,"humidity":41,"rain":0.0,"pressure":983.3,"uv_index":7.15,"wind_gusts":25.2,"aqi":111,"pm10":111.5,"pm2_5":39.1,"mosquito_risk":0,"arthritis_risk":5,"migraine_risk":7,"frizz_risk":1,"updated_at":"2026-04-17T21:38:04.588869+05:30"},{"city":"Indore","state":"Madhya Pradesh","latitude":22.7196,"longitude":75.8577,"temp":28.5,"humidity":43,"rain":0.0,"pressure":948.9,"uv_index":7.75,"wind_gusts":27.0,"aqi":109,"pm10":36.2,"pm2_5":30.5,"mosquito_risk":4,"arthritis_risk":5,"migraine_risk":7,"frizz_risk":0,"updated_at":"2026-04-17T21:38:04.588876+05:30"},{"city":"Bhopal","state":"Madhya Pradesh","latitude":23.2599,"longitude":77.4126,"temp":32.2,"humidity":32,"rain":0.0,"pressure":953.8,"uv_index":7.8,"wind_gusts":29.2,"aqi":102,"pm10":34.2,"pm2_5":26.0,"mosquito_risk":0,"arthritis_risk":5,"migraine_risk":7,"frizz_risk":0,"updated_at":"2026-04-17T21:38:04.588883+05:30"},{"city":"Jabalpur","state":"Madhya Pradesh","latitude":23.1815,"longitude":79.9864,"temp":32.0,"humidity":38,"rain":0.0,"pressure":961.2,"uv_index":8.65,"wind_gusts":24.5,"aqi":114,"pm10":62.4,"pm2_5":30.5,"mosquito_risk":0,"arthritis_risk":5,"migraine_risk":7,"frizz_risk":0,"updated_at":"2026-04-17T21:38:04.588890+05:30"},{"city":"Ujjain","state":"Madhya Pradesh","latitude":23.1765,"longitude":75.7885,"temp":28.7,"humidity":43,"rain":0.0,"pressure":954.6,"uv_index":7.85,"wind_gusts":27.7,"aqi":95,"pm10":31.2,"pm2_5":26.1,"mosquito_risk":4,"arthritis_risk":5,"migraine_risk":7,"frizz_risk":0,"updated_at":"2026-04-17T21:38:04.588898+05:30"},{"city":"Visakhapatnam","state":"Andhra Pradesh","latitude":17.6868,"longitude":83.2185,"temp":28.4,"humidity":85,"rain":0.0,"pressure":1004.7,"uv_index":9.2,"wind_gusts":37.1,"aqi":49,"pm10":16.1,"pm2_5":12.1,"mosquito_risk":7,"arthritis_risk":5,"migraine_risk":4,"frizz_risk":1,"updated_at":"2026-04-17T21:38:04.588906+05:30"},{"city":"Vijayawada","state":"Andhra Pradesh","latitude":16.5062,"longitude":80.648,"temp":28.3,"humidity":82,"rain":0.0,"pressure":1003.1,"uv_index":9.15,"wind_gusts":23.4,"aqi":50,"pm10":12.5,"pm2_5":10.4,"mosquito_risk":7,"arthritis_risk":5,"migraine_risk":4,"frizz_risk":1,"updated_at":"2026-04-17T21:38:04.588914+05:30"},{"city":"Guntur","state":"Andhra Pradesh","latitude":16.3067,"longitude":80.4365,"temp":27.9,"humidity":86,"rain":0.0,"pressure":1004.4,"uv_index":9.2,"wind_gusts":26.6,"aqi":61,"pm10":15.3,"pm2_5":13.0,"mosquito_risk":7,"arthritis_risk":5,"migraine_risk":4,"frizz_risk":1,"updated_at":"2026-04-17T21:38:04.588921+05:30"},{"city":"Nellore","state":"Andhra Pradesh","latitude":14.4426,"longitude":79.9865,"temp":28.5,"humidity":81,"rain":0.0,"pressure":1006.4,"uv_index":9.3,"wind_gusts":33.8,"aqi":52,"pm10":10.9,"pm2_5":8.4,"mosquito_risk":7,"arthritis_risk":5,"migraine_risk":4,"frizz_risk":1,"updated_at":"2026-04-17T21:38:04.588929+05:30"},{"city":"Kurnool","state":"Andhra Pradesh","latitude":15.8281,"longitude":78.0373,"temp":35.2,"humidity":36,"rain":0.0,"pressure":976.3,"uv_index":9.2,"wind_gusts":27.0,"aqi":124,"pm10":35.7,"pm2_5":32.4,"mosquito_risk":0,"arthritis_risk":5,"migraine_risk":10,"frizz_risk":1,"updated_at":"2026-04-17T21:38:04.588937+05:30"},{"city":"Kakinada","state":"Andhra Pradesh","latitude":16.9891,"longitude":82.2475,"temp":28.4,"humidity":83,"rain":0.0,"pressure":1008.6,"uv_index":9.2,"wind_gusts":30.6,"aqi":32,"pm10":11.3,"pm2_5":7.5,"mosquito_risk":7,"arthritis_risk":0,"migraine_risk":4,"frizz_risk":1,"updated_at":"2026-04-17T21:38:04.588945+05:30"},{"city":"Tirupati","state":"Andhra Pradesh","latitude":13.6288,"longitude":79.4192,"temp":29.8,"humidity":72,"rain":0.0,"pressure":992.8,"uv_index":9.25,"wind_gusts":31.7,"aqi":103,"pm10":16.3,"pm2_5":15.0,"mosquito_risk":7,"arthritis_risk":5,"migraine_risk":7,"frizz_risk":1,"updated_at":"2026-04-17T21:38:04.588952+05:30"},{"city":"Warangal","state":"Telangana","latitude":17.9689,"longitude":79.5941,"temp":32.0,"humidity":57,"rain":0.0,"pressure":978.3,"uv_index":9.1,"wind_gusts":26.6,"aqi":121,"pm10":37.8,"pm2_5":35.3,"mosquito_risk":0,"arthritis_risk":5,"migraine_risk":7,"frizz_risk":1,"updated_at":"2026-04-17T21:38:04.588959+05:30"},{"city":"Nizamabad","state":"Telangana","latitude":18.6725,"longitude":78.0941,"temp":32.7,"humidity":42,"rain":0.0,"pressure":964.9,"uv_index":9.05,"wind_gusts":22.7,"aqi":119,"pm10":60.3,"pm2_5":54.2,"mosquito_risk":0,"arthritis_risk":5,"migraine_risk":7,"frizz_risk":1,"updated_at":"2026-04-17T21:38:04.588966+05:30"},{"city":"Mysore","state":"Karnataka","latitude":12.2958,"longitude":76.6396,"temp":27.3,"humidity":62,"rain":0.0,"pressure":929.0,"uv_index":9.3,"wind_gusts":38.9,"aqi":123,"pm10":26.4,"pm2_5":24.0,"mosquito_risk":7,"arthritis_risk":5,"migraine_risk":7,"frizz_risk":1,"updated_at":"2026-04-17T21:38:04.588973+05:30"},{"city":"Mangalore","state":"Karnataka","latitude":12.9141,"longitude":74.856,"temp":30.1,"humidity":81,"rain":0.0,"pressure":1006.8,"uv_index":9.15,"wind_gusts":25.2,"aqi":80,"pm10":28.6,"pm2_5":17.9,"mosquito_risk":3,"arthritis_risk":5,"migraine_risk":4,"frizz_risk":1,"updated_at":"2026-04-17T21:38:04.588981+05:30"},{"city":"Hubli-Dharwad","state":"Karnataka","latitude":15.3647,"longitude":75.124,"temp":27.4,"humidity":64,"rain":0.0,"pressure":941.2,"uv_index":9.15,"wind_gusts":33.1,"aqi":123,"pm10":34.2,"pm2_5":30.5,"mosquito_risk":7,"arthritis_risk":5,"migraine_risk":7,"frizz_risk":1,"updated_at":"2026-04-17T21:38:04.588989+05:30"},{"city":"Belgaum","state":"Karnataka","latitude":15.8497,"longitude":74.4977,"temp":24.3,"humidity":83,"rain":0.0,"pressure":926.1,"uv_index":8.95,"wind_gusts":39.2,"aqi":115,"pm10":28.8,"pm2_5":19.3,"mosquito_risk":3,"arthritis_risk":5,"migraine_risk":7,"frizz_risk":1,"updated_at":"2026-04-17T21:38:07.807022+05:30"},{"city":"Coimbatore","state":"Tamil Nadu","latitude":11.0168,"longitude":76.9558,"temp":26.9,"humidity":78,"rain":0.0,"pressure":962.6,"uv_index":9.05,"wind_gusts":38.2,"aqi":132,"pm10":39.2,"pm2_5":36.0,"mosquito_risk":7,"arthritis_risk":5,"migraine_risk":7,"frizz_risk":1,"updated_at":"2026-04-17T21:38:07.807052+05:30"},{"city":"Madurai","state":"Tamil Nadu","latitude":9.9252,"longitude":78.1198,"temp":30.0,"humidity":67,"rain":0.0,"pressure":993.9,"uv_index":9.35,"wind_gusts":28.8,"aqi":82,"pm10":21.8,"pm2_5":20.3,"mosquito_risk":7,"arthritis_risk":5,"migraine_risk":7,"frizz_risk":1,"updated_at":"2026-04-17T21:38:07.807089+05:30"},{"city":"Trichy","state":"Tamil Nadu","latitude":10.7905,"longitude":78.7047,"temp":29.4,"humidity":78,"rain":0.0,"pressure":1000.4,"uv_index":9.25,"wind_gusts":20.2,"aqi":77,"pm10":20.8,"pm2_5":19.9,"mosquito_risk":7,"arthritis_risk":5,"migraine_risk":4,"frizz_risk":1,"updated_at":"2026-04-17T21:38:07.807100+05:30"},{"city":"Salem","state":"Tamil Nadu","latitude":11.6643,"longitude":78.146,"temp":30.2,"humidity":64,"rain":0.0,"pressure":977.6,"uv_index":9.05,"wind_gusts":24.1,"aqi":108,"pm10":34.5,"pm2_5":30.9,"mosquito_risk":3,"arthritis_risk":5,"migraine_risk":7,"frizz_risk":1,"updated_at":"2026-04-17T21:38:07.807107+05:30"},{"city":"Tirunelveli","state":"Tamil Nadu","latitude":8.7139,"longitude":77.7567,"temp":29.5,"humidity":72,"rain":0.0,"pressure":1003.9,"uv_index":8.8,"wind_gusts":43.2,"aqi":93,"pm10":29.3,"pm2_5":26.3,"mosquito_risk":7,"arthritis_risk":5,"migraine_risk":4,"frizz_risk":1,"updated_at":"2026-04-17T21:38:07.807114+05:30"},{"city":"Vellore","state":"Tamil Nadu","latitude":12.9165,"longitude":79.1325,"temp":28.8,"humidity":75,"rain":0.0,"pressure":985.8,"uv_index":8.8,"wind_gusts":27.7,"aqi":106,"pm10":29.9,"pm2_5":28.3,"mosquito_risk":7,"arthritis_risk":5,"migraine_risk":7,"frizz_risk":1,"updated_at":"2026-04-17T21:38:07.807122+05:30"},{"city":"Erode","state":"Tamil Nadu","latitude":11.341,"longitude":77.7172,"temp":31.9,"humidity":51,"rain":0.0,"pressure":989.0,"uv_index":9.3,"wind_gusts":28.8,"aqi":110,"pm10":25.1,"pm2_5":22.6,"mosquito_risk":0,"arthritis_risk":5,"migraine_risk":7,"frizz_risk":1,"updated_at":"2026-04-17T21:38:07.807129+05:30"},{"city":"Kochi","state":"Kerala","latitude":9.9312,"longitude":76.2673,"temp":29.5,"humidity":82,"rain":0.0,"pressure":1009.2,"uv_index":8.9,"wind_gusts":29.9,"aqi":99,"pm10":49.4,"pm2_5":38.0,"mosquito_risk":7,"arthritis_risk":0,"migraine_risk":4,"frizz_risk":1,"updated_at":"2026-04-17T21:38:07.807137+05:30"},{"city":"Thiruvananthapuram","state":"Kerala","latitude":8.5241,"longitude":76.9366,"temp":29.1,"humidity":82,"rain":0.0,"pressure":1008.7,"uv_index":8.85,"wind_gusts":28.4,"aqi":88,"pm10":29.7,"pm2_5":20.8,"mosquito_risk":7,"arthritis_risk":0,"migraine_risk":4,"frizz_risk":1,"updated_at":"2026-04-17T21:38:07.807144+05:30"},{"city":"Kozhikode","state":"Kerala","latitude":11.2588,"longitude":75.7804,"temp":30.7,"humidity":79,"rain":0.0,"pressure":1007.8,"uv_index":8.85,"wind_gusts":32.8,"aqi":99,"pm10":49.1,"pm2_5":26.6,"mosquito_risk":3,"arthritis_risk":5,"migraine_risk":4,"frizz_risk":1,"updated_at":"2026-04-17T21:38:07.807150+05:30"},{"city":"Thrissur","state":"Kerala","latitude":10.5276,"longitude":76.2144,"temp":29.6,"humidity":82,"rain":0.0,"pressure":1007.0,"uv_index":8.6,"wind_gusts":41.8,"aqi":99,"pm10":42.4,"pm2_5":28.7,"mosquito_risk":7,"arthritis_risk":5,"migraine_risk":4,"frizz_risk":1,"updated_at":"2026-04-17T21:38:07.807158+05:30"},{"city":"Kannur","state":"Kerala","latitude":11.8745,"longitude":75.3704,"temp":29.9,"humidity":80,"rain":0.0,"pressure":1007.2,"uv_index":8.2,"wind_gusts":30.6,"aqi":99,"pm10":35.0,"pm2_5":23.1,"mosquito_risk":7,"arthritis_risk":5,"migraine_risk":4,"frizz_risk":1,"updated_at":"2026-04-17T21:38:07.807165+05:30"},{"city":"Patna","state":"Bihar","latitude":25.5941,"longitude":85.1376,"temp":30.0,"humidity":66,"rain":0.0,"pressure":1000.7,"uv_index":8.25,"wind_gusts":25.2,"aqi":157,"pm10":72.6,"pm2_5":57.4,"mosquito_risk":7,"arthritis_risk":5,"migraine_risk":4,"frizz_risk":1,"updated_at":"2026-04-17T21:38:07.807172+05:30"},{"city":"Gaya","state":"Bihar","latitude":24.7914,"longitude":85.0002,"temp":28.8,"humidity":71,"rain":0.0,"pressure":994.2,"uv_index":8.45,"wind_gusts":15.5,"aqi":145,"pm10":67.1,"pm2_5":52.4,"mosquito_risk":7,"arthritis_risk":5,"migraine_risk":7,"frizz_risk":1,"updated_at":"2026-04-17T21:38:07.807179+05:30"},{"city":"Muzaffarpur","state":"Bihar","latitude":26.1209,"longitude":85.3647,"temp":28.2,"humidity":72,"rain":0.0,"pressure":1001.0,"uv_index":8.45,"wind_gusts":24.8,"aqi":154,"pm10":75.2,"pm2_5":59.8,"mosquito_risk":7,"arthritis_risk":5,"migraine_risk":4,"frizz_risk":1,"updated_at":"2026-04-17T21:38:07.807186+05:30"},{"city":"Bhagalpur","state":"Bihar","latitude":25.2425,"longitude":87.0117,"temp":27.7,"humidity":79,"rain":0.0,"pressure":1002.1,"uv_index":8.55,"wind_gusts":21.6,"aqi":166,"pm10":67.5,"pm2_5":58.3,"mosquito_risk":7,"arthritis_risk":5,"migraine_risk":4,"frizz_risk":1,"updated_at":"2026-04-17T21:38:07.807193+05:30"},{"city":"Ranchi","state":"Jharkhand","latitude":23.3441,"longitude":85.3096,"temp":26.4,"humidity":45,"rain":0.0,"pressure":938.9,"uv_index":9.15,"wind_gusts":38.5,"aqi":122,"pm10":41.3,"pm2_5":22.0,"mosquito_risk":4,"arthritis_risk":5,"migraine_risk":7,"frizz_risk":0,"updated_at":"2026-04-17T21:38:07.807203+05:30"},{"city":"Jamshedpur","state":"Jharkhand","latitude":22.8046,"longitude":86.2029,"temp":29.5,"humidity":74,"rain":0.0,"pressure":991.6,"uv_index":9.0,"wind_gusts":26.6,"aqi":128,"pm10":35.4,"pm2_5":31.8,"mosquito_risk":7,"arthritis_risk":5,"migraine_risk":7,"frizz_risk":1,"updated_at":"2026-04-17T21:38:07.807210+05:30"},{"city":"Dhanbad","state":"Jharkhand","latitude":23.7957,"longitude":86.4304,"temp":29.9,"humidity":65,"rain":0.0,"pressure":980.7,"uv_index":8.9,"wind_gusts":27.7,"aqi":150,"pm10":72.2,"pm2_5":64.0,"mosquito_risk":7,"arthritis_risk":5,"migraine_risk":7,"frizz_risk":1,"updated_at":"2026-04-17T21:38:07.807218+05:30"},{"city":"Bokaro","state":"Jharkhand","latitude":23.6693,"longitude":86.1511,"temp":29.3,"humidity":73,"rain":0.0,"pressure":984.7,"uv_index":8.9,"wind_gusts":24.1,"aqi":154,"pm10":92.0,"pm2_5":64.7,"mosquito_risk":7,"arthritis_risk":5,"migraine_risk":7,"frizz_risk":1,"updated_at":"2026-04-17T21:38:07.807225+05:30"},{"city":"Bhubaneswar","state":"Odisha","latitude":20.2961,"longitude":85.8245,"temp":27.4,"humidity":89,"rain":0.0,"pressure":1003.4,"uv_index":9.1,"wind_gusts":26.6,"aqi":54,"pm10":14.9,"pm2_5":11.7,"mosquito_risk":7,"arthritis_risk":5,"migraine_risk":4,"frizz_risk":1,"updated_at":"2026-04-17T21:38:07.807231+05:30"},{"city":"Cuttack","state":"Odisha","latitude":20.4625,"longitude":85.8828,"temp":27.9,"humidity":85,"rain":0.0,"pressure":1005.1,"uv_index":9.15,"wind_gusts":25.2,"aqi":54,"pm10":14.9,"pm2_5":11.7,"mosquito_risk":7,"arthritis_risk":5,"migraine_risk":4,"frizz_risk":1,"updated_at":"2026-04-17T21:38:07.807238+05:30"},{"city":"Rourkela","state":"Odisha","latitude":22.2604,"longitude":84.8536,"temp":30.4,"humidity":64,"rain":0.0,"pressure":985.0,"uv_index":8.9,"wind_gusts":43.2,"aqi":162,"pm10":71.9,"pm2_5":49.2,"mosquito_risk":3,"arthritis_risk":5,"migraine_risk":7,"frizz_risk":1,"updated_at":"2026-04-17T21:38:07.807245+05:30"},{"city":"Raipur","state":"Chhattisgarh","latitude":21.2514,"longitude":81.6296,"temp":33.4,"humidity":44,"rain":0.0,"pressure":973.6,"uv_index":8.95,"wind_gusts":39.6,"aqi":201,"pm10":66.6,"pm2_5":50.3,"mosquito_risk":0,"arthritis_risk":5,"migraine_risk":7,"frizz_risk":1,"updated_at":"2026-04-17T21:38:07.807252+05:30"},{"city":"Bhilai","state":"Chhattisgarh","latitude":21.1938,"longitude":81.3509,"temp":31.6,"humidity":51,"rain":0.0,"pressure":973.8,"uv_index":8.95,"wind_gusts":42.5,"aqi":161,"pm10":73.6,"pm2_5":58.0,"mosquito_risk":0,"arthritis_risk":5,"migraine_risk":7,"frizz_risk":1,"updated_at":"2026-04-17T21:38:07.807259+05:30"},{"city":"Guwahati","state":"Assam","latitude":26.1158,"longitude":91.7086,"temp":26.5,"humidity":79,"rain":0.0,"pressure":1003.6,"uv_index":8.55,"wind_gusts":22.3,"aqi":151,"pm10":68.0,"pm2_5":59.0,"mosquito_risk":7,"arthritis_risk":5,"migraine_risk":4,"frizz_risk":1,"updated_at":"2026-04-17T21:38:07.807266+05:30"},{"city":"Agartala","state":"Tripura","latitude":23.8315,"longitude":91.2868,"temp":27.4,"humidity":82,"rain":0.0,"pressure":1008.0,"uv_index":8.75,"wind_gusts":19.4,"aqi":123,"pm10":69.6,"pm2_5":64.0,"mosquito_risk":7,"arthritis_risk":0,"migraine_risk":4,"frizz_risk":1,"updated_at":"2026-04-17T21:38:07.807272+05:30"},{"city":"Shillong","state":"Meghalaya","latitude":25.5788,"longitude":91.8933,"temp":15.4,"humidity":93,"rain":0.0,"pressure":858.5,"uv_index":6.65,"wind_gusts":28.1,"aqi":124,"pm10":60.8,"pm2_5":51.9,"mosquito_risk":3,"arthritis_risk":10,"migraine_risk":7,"frizz_risk":0,"updated_at":"2026-04-17T21:38:07.807280+05:30"},{"city":"Imphal","state":"Manipur","latitude":24.817,"longitude":93.9368,"temp":20.1,"humidity":86,"rain":0.0,"pressure":925.7,"uv_index":9.1,"wind_gusts":40.3,"aqi":151,"pm10":103.1,"pm2_5":83.1,"mosquito_risk":3,"arthritis_risk":5,"migraine_risk":7,"frizz_risk":1,"updated_at":"2026-04-17T21:38:07.807287+05:30"},{"city":"Aizawl","state":"Mizoram","latitude":23.7271,"longitude":92.7176,"temp":21.7,"humidity":79,"rain":0.0,"pressure":895.0,"uv_index":9.0,"wind_gusts":36.0,"aqi":154,"pm10":64.3,"pm2_5":52.0,"mosquito_risk":3,"arthritis_risk":5,"migraine_risk":7,"frizz_risk":1,"updated_at":"2026-04-17T21:38:07.807293+05:30"},{"city":"Kohima","state":"Nagaland","latitude":25.6701,"longitude":94.1077,"temp":16.7,"humidity":91,"rain":0.0,"pressure":857.4,"uv_index":8.4,"wind_gusts":52.2,"aqi":121,"pm10":79.2,"pm2_5":51.7,"mosquito_risk":3,"arthritis_risk":10,"migraine_risk":7,"frizz_risk":0,"updated_at":"2026-04-17T21:38:07.807300+05:30"},{"city":"Gangtok","state":"Sikkim","latitude":27.3314,"longitude":88.6138,"temp":16.9,"humidity":92,"rain":0.0,"pressure":840.0,"uv_index":8.85,"wind_gusts":19.8,"aqi":124,"pm10":66.1,"pm2_5":48.0,"mosquito_risk":3,"arthritis_risk":10,"migraine_risk":7,"frizz_risk":0,"updated_at":"2026-04-17T21:38:07.807307+05:30"},{"city":"Siliguri","state":"West Bengal","latitude":26.7271,"longitude":88.3953,"temp":22.7,"humidity":76,"rain":0.0,"pressure":996.3,"uv_index":8.5,"wind_gusts":18.4,"aqi":160,"pm10":122.5,"pm2_5":83.6,"mosquito_risk":3,"arthritis_risk":5,"migraine_risk":7,"frizz_risk":1,"updated_at":"2026-04-17T21:38:11.041638+05:30"},{"city":"Durgapur","state":"West Bengal","latitude":23.5204,"longitude":87.3119,"temp":29.8,"humidity":73,"rain":0.0,"pressure":995.8,"uv_index":8.85,"wind_gusts":19.8,"aqi":122,"pm10":56.3,"pm2_5":52.5,"mosquito_risk":7,"arthritis_risk":5,"migraine_risk":7,"frizz_risk":1,"updated_at":"2026-04-17T21:38:11.041675+05:30"},{"city":"Asansol","state":"West Bengal","latitude":23.6739,"longitude":86.9524,"temp":30.5,"humidity":68,"rain":0.0,"pressure":994.2,"uv_index":8.9,"wind_gusts":21.2,"aqi":128,"pm10":57.9,"pm2_5":52.3,"mosquito_risk":3,"arthritis_risk":5,"migraine_risk":7,"frizz_risk":1,"updated_at":"2026-04-17T21:38:11.041687+05:30"},{"city":"Pondicherry","state":"Puducherry","latitude":11.9139,"longitude":79.8145,"temp":27.6,"humidity":89,"rain":0.0,"pressure":1009.5,"uv_index":8.6,"wind_gusts":27.4,"aqi":32,"pm10":11.5,"pm2_5":7.6,"mosquito_risk":7,"arthritis_risk":0,"migraine_risk":4,"frizz_risk":1,"updated_at":"2026-04-17T21:38:11.041696+05:30"},{"city":"Port Blair","state":"Andaman and Nicobar Islands","latitude":11.6234,"longitude":92.7265,"temp":29.5,"humidity":70,"rain":0.0,"pressure":1008.9,"uv_index":9.2,"wind_gusts":20.9,"aqi":48,"pm10":12.1,"pm2_5":8.4,"mosquito_risk":7,"arthritis_risk":0,"migraine_risk":4,"frizz_risk":1,"updated_at":"2026-04-17T21:38:11.041705+05:30"},{"city":"Haridwar","state":"Uttarakhand","latitude":29.9457,"longitude":78.1642,"temp":28.1,"humidity":53,"rain":0.0,"pressure":975.2,"uv_index":5.95,"wind_gusts":24.8,"aqi":90,"pm10":43.0,"pm2_5":20.7,"mosquito_risk":4,"arthritis_risk":5,"migraine_risk":3,"frizz_risk":1,"updated_at":"2026-04-17T21:38:11.041714+05:30"},{"city":"Rishikesh","state":"Uttarakhand","latitude":30.0869,"longitude":78.2676,"temp":23.2,"humidity":61,"rain":0.0,"pressure":968.2,"uv_index":6.05,"wind_gusts":24.8,"aqi":91,"pm10":42.4,"pm2_5":14.7,"mosquito_risk":3,"arthritis_risk":5,"migraine_risk":7,"frizz_risk":0,"updated_at":"2026-04-17T21:38:11.041724+05:30"},{"city":"Nainital","state":"Uttarakhand","latitude":29.3919,"longitude":79.4542,"temp":23.4,"humidity":32,"rain":0.0,"pressure":809.7,"uv_index":7.65,"wind_gusts":56.2,"aqi":119,"pm10":39.6,"pm2_5":15.9,"mosquito_risk":0,"arthritis_risk":5,"migraine_risk":7,"frizz_risk":0,"updated_at":"2026-04-17T21:38:11.041732+05:30"},{"city":"Mussoorie","state":"Uttarakhand","latitude":30.4599,"longitude":78.0664,"temp":19.4,"humidity":41,"rain":0.0,"pressure":805.9,"uv_index":6.65,"wind_gusts":43.6,"aqi":91,"pm10":43.5,"pm2_5":18.5,"mosquito_risk":0,"arthritis_risk":5,"migraine_risk":7,"frizz_risk":0,"updated_at":"2026-04-17T21:38:11.041741+05:30"},{"city":"Dharamshala","state":"Himachal Pradesh","latitude":32.219,"longitude":76.3234,"temp":21.1,"humidity":41,"rain":0.0,"pressure":871.7,"uv_index":6.9,"wind_gusts":36.7,"aqi":58,"pm10":19.8,"pm2_5":12.1,"mosquito_risk":0,"arthritis_risk":5,"migraine_risk":7,"frizz_risk":0,"updated_at":"2026-04-17T21:38:11.041749+05:30"},{"city":"Dalhousie","state":"Himachal Pradesh","latitude":32.5387,"longitude":75.971,"temp":17.9,"humidity":43,"rain":0.0,"pressure":806.2,"uv_index":5.15,"wind_gusts":34.2,"aqi":63,"pm10":36.8,"pm2_5":26.3,"mosquito_risk":0,"arthritis_risk":5,"migraine_risk":3,"frizz_risk":0,"updated_at":"2026-04-17T21:38:11.041758+05:30"},{"city":"Patiala","state":"Punjab","latitude":30.3398,"longitude":76.3869,"temp":24.6,"humidity":51,"rain":0.0,"pressure":979.2,"uv_index":7.2,"wind_gusts":34.9,"aqi":157,"pm10":387.4,"pm2_5":52.2,"mosquito_risk":0,"arthritis_risk":5,"migraine_risk":7,"frizz_risk":0,"updated_at":"2026-04-17T21:38:11.041767+05:30"},{"city":"Bhatinda","state":"Punjab","latitude":30.211,"longitude":74.9455,"temp":28.3,"humidity":35,"rain":0.0,"pressure":984.6,"uv_index":7.8,"wind_gusts":43.6,"aqi":120,"pm10":186.3,"pm2_5":37.6,"mosquito_risk":4,"arthritis_risk":5,"migraine_risk":7,"frizz_risk":0,"updated_at":"2026-04-17T21:38:11.041776+05:30"},{"city":"Rohtak","state":"Haryana","latitude":28.8955,"longitude":76.6066,"temp":25.3,"humidity":69,"rain":0.0,"pressure":982.3,"uv_index":6.55,"wind_gusts":25.6,"aqi":206,"pm10":347.4,"pm2_5":76.1,"mosquito_risk":7,"arthritis_risk":5,"migraine_risk":7,"frizz_risk":1,"updated_at":"2026-04-17T21:38:11.041784+05:30"},{"city":"Panipat","state":"Haryana","latitude":29.3909,"longitude":76.9635,"temp":26.0,"humidity":50,"rain":0.0,"pressure":981.0,"uv_index":6.8,"wind_gusts":19.8,"aqi":450,"pm10":685.5,"pm2_5":113.9,"mosquito_risk":4,"arthritis_risk":5,"migraine_risk":7,"frizz_risk":0,"updated_at":"2026-04-17T21:38:11.041793+05:30"},{"city":"Mathura","state":"Uttar Pradesh","latitude":27.4924,"longitude":77.6737,"temp":27.5,"humidity":48,"rain":0.0,"pressure":986.7,"uv_index":6.75,"wind_gusts":23.8,"aqi":178,"pm10":758.1,"pm2_5":95.7,"mosquito_risk":4,"arthritis_risk":5,"migraine_risk":7,"frizz_risk":0,"updated_at":"2026-04-17T21:38:11.041801+05:30"},{"city":"Vrindavan","state":"Uttar Pradesh","latitude":27.5823,"longitude":77.7027,"temp":27.6,"humidity":46,"rain":0.0,"pressure":987.1,"uv_index":6.6,"wind_gusts":29.5,"aqi":178,"pm10":758.1,"pm2_5":95.7,"mosquito_risk":4,"arthritis_risk":5,"migraine_risk":7,"frizz_risk":0,"updated_at":"2026-04-17T21:38:11.041809+05:30"},{"city":"Ayodhya","state":"Uttar Pradesh","latitude":26.7922,"longitude":82.1998,"temp":28.7,"humidity":58,"rain":0.0,"pressure":995.3,"uv_index":7.05,"wind_gusts":27.4,"aqi":143,"pm10":51.1,"pm2_5":36.2,"mosquito_risk":4,"arthritis_risk":5,"migraine_risk":7,"frizz_risk":1,"updated_at":"2026-04-17T21:38:11.041817+05:30"},{"city":"Ratlam","state":"Madhya Pradesh","latitude":23.3315,"longitude":75.0367,"temp":27.8,"humidity":50,"rain":0.0,"pressure":955.3,"uv_index":7.5,"wind_gusts":28.1,"aqi":95,"pm10":15.7,"pm2_5":11.6,"mosquito_risk":4,"arthritis_risk":5,"migraine_risk":7,"frizz_risk":1,"updated_at":"2026-04-17T21:38:11.041825+05:30"},{"city":"Sagar","state":"Madhya Pradesh","latitude":23.8388,"longitude":78.7378,"temp":31.3,"humidity":41,"rain":0.0,"pressure":950.0,"uv_index":7.75,"wind_gusts":22.7,"aqi":104,"pm10":39.6,"pm2_5":21.7,"mosquito_risk":0,"arthritis_risk":5,"migraine_risk":7,"frizz_risk":1,"updated_at":"2026-04-17T21:38:11.041834+05:30"},{"city":"Satna","state":"Madhya Pradesh","latitude":24.6005,"longitude":80.8322,"temp":31.9,"humidity":24,"rain":0.0,"pressure":971.3,"uv_index":8.6,"wind_gusts":16.9,"aqi":126,"pm10":53.7,"pm2_5":16.4,"mosquito_risk":0,"arthritis_risk":5,"migraine_risk":7,"frizz_risk":0,"updated_at":"2026-04-17T21:38:11.041842+05:30"},{"city":"Akola","state":"Maharashtra","latitude":20.7002,"longitude":77.0082,"temp":32.2,"humidity":33,"rain":0.0,"pressure":974.8,"uv_index":8.05,"wind_gusts":26.3,"aqi":125,"pm10":18.0,"pm2_5":16.9,"mosquito_risk":0,"arthritis_risk":5,"migraine_risk":7,"frizz_risk":0,"updated_at":"2026-04-17T21:38:11.041849+05:30"},{"city":"Amravati","state":"Maharashtra","latitude":20.9374,"longitude":77.7796,"temp":31.0,"humidity":34,"rain":0.0,"pressure":966.7,"uv_index":8.15,"wind_gusts":17.3,"aqi":120,"pm10":20.1,"pm2_5":18.5,"mosquito_risk":0,"arthritis_risk":5,"migraine_risk":7,"frizz_risk":0,"updated_at":"2026-04-17T21:38:11.041857+05:30"},{"city":"Latur","state":"Maharashtra","latitude":18.4088,"longitude":76.5604,"temp":29.4,"humidity":50,"rain":0.0,"pressure":940.2,"uv_index":8.6,"wind_gusts":31.7,"aqi":154,"pm10":37.7,"pm2_5":33.9,"mosquito_risk":4,"arthritis_risk":5,"migraine_risk":7,"frizz_risk":1,"updated_at":"2026-04-17T21:38:11.041864+05:30"},{"city":"Nanded","state":"Maharashtra","latitude":19.1383,"longitude":77.3091,"temp":32.2,"humidity":42,"rain":0.0,"pressure":968.0,"uv_index":8.65,"wind_gusts":18.4,"aqi":119,"pm10":48.2,"pm2_5":42.8,"mosquito_risk":0,"arthritis_risk":5,"migraine_risk":7,"frizz_risk":1,"updated_at":"2026-04-17T21:38:11.041870+05:30"},{"city":"Gulbarga","state":"Karnataka","latitude":17.3297,"longitude":76.8343,"temp":32.8,"humidity":41,"rain":0.0,"pressure":959.0,"uv_index":8.65,"wind_gusts":37.4,"aqi":161,"pm10":36.6,"pm2_5":33.6,"mosquito_risk":0,"arthritis_risk":5,"migraine_risk":7,"frizz_risk":1,"updated_at":"2026-04-17T21:38:11.041877+05:30"},{"city":"Bidar","state":"Karnataka","latitude":17.9104,"longitude":77.5199,"temp":29.3,"humidity":56,"rain":0.0,"pressure":935.8,"uv_index":8.85,"wind_gusts":49.0,"aqi":152,"pm10":44.0,"pm2_5":40.2,"mosquito_risk":4,"arthritis_risk":5,"migraine_risk":7,"frizz_risk":1,"updated_at":"2026-04-17T21:38:11.041884+05:30"},{"city":"Hospet","state":"Karnataka","latitude":15.2689,"longitude":76.3909,"temp":32.2,"humidity":51,"rain":0.0,"pressure":955.5,"uv_index":9.25,"wind_gusts":22.7,"aqi":167,"pm10":50.2,"pm2_5":45.9,"mosquito_risk":0,"arthritis_risk":5,"migraine_risk":7,"frizz_risk":1,"updated_at":"2026-04-17T21:38:11.041892+05:30"},{"city":"Tirupur","state":"Tamil Nadu","latitude":11.1085,"longitude":77.3411,"temp":31.6,"humidity":44,"rain":0.0,"pressure":975.7,"uv_index":8.95,"wind_gusts":32.8,"aqi":122,"pm10":27.0,"pm2_5":23.8,"mosquito_risk":0,"arthritis_risk":5,"migraine_risk":7,"frizz_risk":1,"updated_at":"2026-04-17T21:38:11.041899+05:30"},{"city":"Alappuzha","state":"Kerala","latitude":9.4981,"longitude":76.3388,"temp":28.8,"humidity":83,"rain":0.0,"pressure":1009.5,"uv_index":8.25,"wind_gusts":28.4,"aqi":101,"pm10":49.0,"pm2_5":36.2,"mosquito_risk":7,"arthritis_risk":0,"migraine_risk":4,"frizz_risk":1,"updated_at":"2026-04-17T21:38:11.041906+05:30"},{"city":"Munnar","state":"Kerala","latitude":10.0889,"longitude":77.0595,"temp":22.6,"humidity":86,"rain":0.0,"pressure":858.0,"uv_index":9.05,"wind_gusts":28.4,"aqi":82,"pm10":40.6,"pm2_5":36.7,"mosquito_risk":3,"arthritis_risk":5,"migraine_risk":7,"frizz_risk":1,"updated_at":"2026-04-17T21:38:11.041913+05:30"},{"city":"Silchar","state":"Assam","latitude":24.8333,"longitude":92.7789,"temp":27.2,"humidity":81,"rain":0.0,"pressure":1006.8,"uv_index":8.75,"wind_gusts":19.4,"aqi":156,"pm10":109.2,"pm2_5":87.5,"mosquito_risk":7,"arthritis_risk":5,"migraine_risk":4,"frizz_risk":1,"updated_at":"2026-04-17T21:38:11.041920+05:30"},{"city":"Dibrugarh","state":"Assam","latitude":27.4728,"longitude":94.912,"temp":26.6,"humidity":78,"rain":0.0,"pressure":997.6,"uv_index":8.65,"wind_gusts":11.5,"aqi":143,"pm10":89.4,"pm2_5":65.4,"mosquito_risk":7,"arthritis_risk":5,"migraine_risk":7,"frizz_risk":1,"updated_at":"2026-04-17T21:38:11.041926+05:30"}]