[{"city":"Delhi","state":"Delhi","latitude":28.6139,"longitude":77.209,"temp":32.0,"humidity":28,"rain":0.0,"pressure":981.2,"uv_index":7.4,"wind_gusts":33.1,"aqi":152,"pm10":366.9,"pm2_5":84.3,"mosquito_risk":0,"arthritis_risk":5,"migraine_risk":7,"frizz_risk":0,"updated_at":"2026-04-25T00:27:50.463382+05:30"},{"city":"Mumbai","state":"Maharashtra","latitude":19.076,"longitude":72.8777,"temp":29.6,"humidity":56,"rain":0.0,"pressure":1006.8,"uv_index":8.05,"wind_gusts":41.0,"aqi":79,"pm10":30.6,"pm2_5":15.7,"mosquito_risk":4,"arthritis_risk":5,"migraine_risk":4,"frizz_risk":1,"updated_at":"2026-04-25T00:27:50.463429+05:30"},{"city":"Bangalore","state":"Karnataka","latitude":12.9716,"longitude":77.5946,"temp":26.5,"humidity":41,"rain":0.0,"pressure":911.5,"uv_index":9.6,"wind_gusts":40.3,"aqi":83,"pm10":21.2,"pm2_5":20.3,"mosquito_risk":4,"arthritis_risk":5,"migraine_risk":7,"frizz_risk":0,"updated_at":"2026-04-25T00:27:50.463446+05:30"},{"city":"Hyderabad","state":"Telangana","latitude":17.385,"longitude":78.4867,"temp":29.2,"humidity":38,"rain":0.0,"pressure":952.7,"uv_index":9.25,"wind_gusts":29.5,"aqi":116,"pm10":42.5,"pm2_5":37.5,"mosquito_risk":4,"arthritis_risk":5,"migraine_risk":7,"frizz_risk":0,"updated_at":"2026-04-25T00:27:50.463457+05:30"},{"city":"Chennai","state":"Tamil Nadu","latitude":13.0827,"longitude":80.2707,"temp":28.9,"humidity":83,"rain":0.0,"pressure":1006.2,"uv_index":9.25,"wind_gusts":51.1,"aqi":28,"pm10":9.1,"pm2_5":6.4,"mosquito_risk":7,"arthritis_risk":5,"migraine_risk":4,"frizz_risk":1,"updated_at":"2026-04-25T00:27:50.463467+05:30"},{"city":"Kolkata","state":"West Bengal","latitude":22.5726,"longitude":88.3639,"temp":27.2,"humidity":94,"rain":0.0,"pressure":1004.6,"uv_index":8.9,"wind_gusts":33.8,"aqi":75,"pm10":23.6,"pm2_5":19.6,"mosquito_risk":7,"arthritis_risk":5,"migraine_risk":4,"frizz_risk":1,"updated_at":"2026-04-25T00:27:50.463480+05:30"},{"city":"Pune","state":"Maharashtra","latitude":18.5204,"longitude":73.8567,"temp":29.2,"humidity":39,"rain":0.0,"pressure":947.4,"uv_index":8.65,"wind_gusts":47.2,"aqi":108,"pm10":48.0,"pm2_5":45.1,"mosquito_risk":4,"arthritis_risk":5,"migraine_risk":7,"frizz_risk":0,"updated_at":"2026-04-25T00:27:50.463487+05:30"},{"city":"Ahmedabad","state":"Gujarat","latitude":23.0225,"longitude":72.5714,"temp":33.5,"humidity":17,"rain":0.0,"pressure":1001.1,"uv_index":8.2,"wind_gusts":30.2,"aqi":56,"pm10":76.6,"pm2_5":40.4,"mosquito_risk":0,"arthritis_risk":5,"migraine_risk":4,"frizz_risk":0,"updated_at":"2026-04-25T00:27:50.463494+05:30"},{"city":"Jaipur","state":"Rajasthan","latitude":26.9124,"longitude":75.7873,"temp":31.3,"humidity":23,"rain":0.0,"pressure":958.7,"uv_index":8.05,"wind_gusts":32.4,"aqi":107,"pm10":162.5,"pm2_5":39.0,"mosquito_risk":0,"arthritis_risk":5,"migraine_risk":7,"frizz_risk":0,"updated_at":"2026-04-25T00:27:50.463502+05:30"},{"city":"Lucknow","state":"Uttar Pradesh","latitude":26.8467,"longitude":80.9462,"temp":31.8,"humidity":20,"rain":0.0,"pressure":990.7,"uv_index":7.9,"wind_gusts":36.7,"aqi":130,"pm10":235.2,"pm2_5":57.0,"mosquito_risk":0,"arthritis_risk":5,"migraine_risk":7,"frizz_risk":0,"updated_at":"2026-04-25T00:27:50.463511+05:30"},{"city":"Kanpur","state":"Uttar Pradesh","latitude":26.4499,"longitude":80.3319,"temp":31.9,"humidity":21,"rain":0.0,"pressure":989.3,"uv_index":7.95,"wind_gusts":31.0,"aqi":130,"pm10":211.4,"pm2_5":50.6,"mosquito_risk":0,"arthritis_risk":5,"migraine_risk":7,"frizz_risk":0,"updated_at":"2026-04-25T00:27:50.463521+05:30"},{"city":"Chandigarh","state":"Chandigarh","latitude":30.7333,"longitude":76.7794,"temp":28.5,"humidity":31,"rain":0.0,"pressure":967.0,"uv_index":7.4,"wind_gusts":44.6,"aqi":77,"pm10":30.5,"pm2_5":22.2,"mosquito_risk":4,"arthritis_risk":5,"migraine_risk":7,"frizz_risk":0,"updated_at":"2026-04-25T00:27:50.463528+05:30"},{"city":"Srinagar","state":"Jammu and Kashmir","latitude":34.0837,"longitude":74.7973,"temp":12.1,"humidity":96,"rain":0.0,"pressure":845.0,"uv_index":8.6,"wind_gusts":38.2,"aqi":77,"pm10":51.0,"pm2_5":24.3,"mosquito_risk":3,"arthritis_risk":10,"migraine_risk":7,"frizz_risk":0,"updated_at":"2026-04-25T00:27:50.463536+05:30"},{"city":"Jammu","state":"Jammu and Kashmir","latitude":32.7266,"longitude":74.857,"temp":26.4,"humidity":33,"rain":0.0,"pressure":972.0,"uv_index":8.15,"wind_gusts":36.4,"aqi":75,"pm10":39.8,"pm2_5":27.5,"mosquito_risk":4,"arthritis_risk":5,"migraine_risk":7,"frizz_risk":0,"updated_at":"2026-04-25T00:27:50.463543+05:30"},{"city":"Amritsar","state":"Punjab","latitude":31.634,"longitude":74.8723,"temp":29.1,"humidity":31,"rain":0.0,"pressure":980.1,"uv_index":8.05,"wind_gusts":42.5,"aqi":97,"pm10":84.5,"pm2_5":38.4,"mosquito_risk":4,"arthritis_risk":5,"migraine_risk":7,"frizz_risk":0,"updated_at":"2026-04-25T00:27:50.463550+05:30"},{"city":"Ludhiana","state":"Punjab","latitude":30.901,"longitude":75.8573,"temp":29.1,"humidity":31,"rain":0.0,"pressure":977.6,"uv_index":7.7,"wind_gusts":38.9,"aqi":82,"pm10":49.9,"pm2_5":24.9,"mosquito_risk":4,"arthritis_risk":5,"migraine_risk":7,"frizz_risk":0,"updated_at":"2026-04-25T00:27:50.463559+05:30"},{"city":"Jalandhar","state":"Punjab","latitude":31.326,"longitude":75.5762,"temp":29.2,"humidity":32,"rain":0.0,"pressure":978.7,"uv_index":7.85,"wind_gusts":33.5,"aqi":88,"pm10":85.7,"pm2_5":31.1,"mosquito_risk":4,"arthritis_risk":5,"migraine_risk":7,"frizz_risk":0,"updated_at":"2026-04-25T00:27:50.463565+05:30"},{"city":"Dehradun","state":"Uttarakhand","latitude":30.6284,"longitude":78.0322,"temp":15.0,"humidity":59,"rain":0.0,"pressure":829.3,"uv_index":7.85,"wind_gusts":40.7,"aqi":71,"pm10":27.2,"pm2_5":18.4,"mosquito_risk":0,"arthritis_risk":5,"migraine_risk":7,"frizz_risk":0,"updated_at":"2026-04-25T00:27:50.463571+05:30"},{"city":"Shimla","state":"Himachal Pradesh","latitude":31.1048,"longitude":77.1734,"temp":15.0,"humidity":46,"rain":0.0,"pressure":785.2,"uv_index":7.9,"wind_gusts":46.4,"aqi":79,"pm10":45.6,"pm2_5":21.4,"mosquito_risk":0,"arthritis_risk":5,"migraine_risk":7,"frizz_risk":0,"updated_at":"2026-04-25T00:27:50.463579+05:30"},{"city":"Manali","state":"Himachal Pradesh","latitude":32.2396,"longitude":77.1887,"temp":9.4,"humidity":66,"rain":0.0,"pressure":816.4,"uv_index":9.95,"wind_gusts":42.1,"aqi":89,"pm10":32.2,"pm2_5":18.0,"mosquito_risk":3,"arthritis_risk":5,"migraine_risk":7,"frizz_risk":0,"updated_at":"2026-04-25T00:27:50.463585+05:30"},{"city":"Gurgaon","state":"Haryana","latitude":28.4595,"longitude":77.0266,"temp":29.5,"humidity":30,"rain":0.0,"pressure":979.4,"uv_index":7.5,"wind_gusts":31.3,"aqi":601,"pm10":364.1,"pm2_5":83.6,"mosquito_risk":4,"arthritis_risk":5,"migraine_risk":7,"frizz_risk":0,"updated_at":"2026-04-25T00:27:50.463592+05:30"},{"city":"Noida","state":"Uttar Pradesh","latitude":28.5355,"longitude":77.391,"temp":30.4,"humidity":27,"rain":0.0,"pressure":982.3,"uv_index":7.45,"wind_gusts":20.5,"aqi":601,"pm10":364.1,"pm2_5":83.6,"mosquito_risk":0,"arthritis_risk":5,"migraine_risk":7,"frizz_risk":0,"updated_at":"2026-04-25T00:27:50.463598+05:30"},{"city":"Ghaziabad","state":"Uttar Pradesh","latitude":28.6692,"longitude":77.4538,"temp":28.6,"humidity":32,"rain":0.0,"pressure":980.5,"uv_index":7.4,"wind_gusts":35.3,"aqi":151,"pm10":340.9,"pm2_5":77.3,"mosquito_risk":4,"arthritis_risk":5,"migraine_risk":7,"frizz_risk":0,"updated_at":"2026-04-25T00:27:50.463604+05:30"},{"city":"Faridabad","state":"Haryana","latitude":28.4089,"longitude":77.3178,"temp":33.2,"humidity":22,"rain":0.0,"pressure":981.8,"uv_index":7.5,"wind_gusts":40.0,"aqi":601,"pm10":364.1,"pm2_5":83.6,"mosquito_risk":0,"arthritis_risk":5,"migraine_risk":7,"frizz_risk":0,"updated_at":"2026-04-25T00:27:50.463611+05:30"},{"city":"Meerut","state":"Uttar Pradesh","latitude":28.9845,"longitude":77.7064,"temp":27.9,"humidity":49,"rain":0.0,"pressure":979.1,"uv_index":7.35,"wind_gusts":27.4,"aqi":151,"pm10":340.9,"pm2_5":77.3,"mosquito_risk":4,"arthritis_risk":5,"migraine_risk":7,"frizz_risk":1,"updated_at":"2026-04-25T00:27:50.463617+05:30"},{"city":"Agra","state":"Uttar Pradesh","latitude":27.1767,"longitude":78.0081,"temp":30.7,"humidity":40,"rain":0.0,"pressure":985.3,"uv_index":7.8,"wind_gusts":30.2,"aqi":414,"pm10":259.8,"pm2_5":107.6,"mosquito_risk":0,"arthritis_risk":5,"migraine_risk":7,"frizz_risk":0,"updated_at":"2026-04-25T00:27:50.463626+05:30"},{"city":"Varanasi","state":"Uttar Pradesh","latitude":25.3176,"longitude":82.9739,"temp":30.6,"humidity":16,"rain":0.0,"pressure":995.2,"uv_index":8.45,"wind_gusts":34.6,"aqi":128,"pm10":67.8,"pm2_5":43.2,"mosquito_risk":0,"arthritis_risk":5,"migraine_risk":7,"frizz_risk":0,"updated_at":"2026-04-25T00:27:50.463633+05:30"},{"city":"Prayagraj","state":"Uttar Pradesh","latitude":25.4358,"longitude":81.8463,"temp":29.0,"humidity":26,"rain":0.0,"pressure":993.3,"uv_index":8.35,"wind_gusts":39.2,"aqi":119,"pm10":46.8,"pm2_5":31.0,"mosquito_risk":4,"arthritis_risk":5,"migraine_risk":7,"frizz_risk":0,"updated_at":"2026-04-25T00:27:50.463639+05:30"},{"city":"Gorakhpur","state":"Uttar Pradesh","latitude":26.7606,"longitude":83.3732,"temp":28.9,"humidity":54,"rain":0.0,"pressure":995.0,"uv_index":8.3,"wind_gusts":31.3,"aqi":148,"pm10":147.1,"pm2_5":75.0,"mosquito_risk":4,"arthritis_risk":5,"migraine_risk":7,"frizz_risk":1,"updated_at":"2026-04-25T00:27:50.463646+05:30"},{"city":"Bareilly","state":"Uttar Pradesh","latitude":28.367,"longitude":79.4304,"temp":30.1,"humidity":37,"rain":0.0,"pressure":984.2,"uv_index":7.65,"wind_gusts":38.2,"aqi":130,"pm10":71.2,"pm2_5":56.7,"mosquito_risk":0,"arthritis_risk":5,"migraine_risk":7,"frizz_risk":0,"updated_at":"2026-04-25T00:27:50.463652+05:30"},{"city":"Aligarh","state":"Uttar Pradesh","latitude":27.8974,"longitude":78.088,"temp":29.5,"humidity":32,"rain":0.0,"pressure":983.0,"uv_index":7.6,"wind_gusts":30.6,"aqi":251,"pm10":409.8,"pm2_5":111.8,"mosquito_risk":4,"arthritis_risk":5,"migraine_risk":7,"frizz_risk":0,"updated_at":"2026-04-25T00:27:50.463658+05:30"},{"city":"Moradabad","state":"Uttar Pradesh","latitude":28.8386,"longitude":78.7733,"temp":28.8,"humidity":38,"rain":0.0,"pressure":981.3,"uv_index":7.5,"wind_gusts":39.6,"aqi":155,"pm10":128.1,"pm2_5":89.4,"mosquito_risk":4,"arthritis_risk":5,"migraine_risk":7,"frizz_risk":0,"updated_at":"2026-04-25T00:27:50.463667+05:30"},{"city":"Saharanpur","state":"Uttar Pradesh","latitude":29.9637,"longitude":77.546,"temp":27.7,"humidity":36,"rain":0.0,"pressure":973.7,"uv_index":7.15,"wind_gusts":30.2,"aqi":106,"pm10":115.7,"pm2_5":63.8,"mosquito_risk":4,"arthritis_risk":5,"migraine_risk":7,"frizz_risk":0,"updated_at":"2026-04-25T00:27:50.463673+05:30"},{"city":"Jhansi","state":"Uttar Pradesh","latitude":25.4484,"longitude":78.5685,"temp":29.9,"humidity":23,"rain":0.0,"pressure":976.1,"uv_index":8.3,"wind_gusts":26.6,"aqi":89,"pm10":34.7,"pm2_5":26.9,"mosquito_risk":4,"arthritis_risk":5,"migraine_risk":7,"frizz_risk":0,"updated_at":"2026-04-25T00:27:53.702305+05:30"},{"city":"Surat","state":"Gujarat","latitude":21.1702,"longitude":72.8311,"temp":30.5,"humidity":50,"rain":0.0,"pressure":1005.4,"uv_index":7.9,"wind_gusts":33.5,"aqi":95,"pm10":31.2,"pm2_5":22.4,"mosquito_risk":0,"arthritis_risk":5,"migraine_risk":4,"frizz_risk":1,"updated_at":"2026-04-25T00:27:53.702340+05:30"},{"city":"Vadodara","state":"Gujarat","latitude":22.3072,"longitude":73.1812,"temp":31.4,"humidity":35,"rain":0.0,"pressure":1003.1,"uv_index":8.15,"wind_gusts":34.2,"aqi":75,"pm10":46.6,"pm2_5":38.3,"mosquito_risk":0,"arthritis_risk":5,"migraine_risk":4,"frizz_risk":0,"updated_at":"2026-04-25T00:27:53.702352+05:30"},{"city":"Rajkot","state":"Gujarat","latitude":22.3039,"longitude":70.8022,"temp":25.9,"humidity":61,"rain":0.0,"pressure":994.1,"uv_index":7.9,"wind_gusts":43.6,"aqi":45,"pm10":24.4,"pm2_5":9.6,"mosquito_risk":7,"arthritis_risk":5,"migraine_risk":7,"frizz_risk":1,"updated_at":"2026-04-25T00:27:53.702361+05:30"},{"city":"Thane","state":"Maharashtra","latitude":19.2183,"longitude":72.9781,"temp":29.5,"humidity":54,"rain":0.0,"pressure":1006.3,"uv_index":7.4,"wind_gusts":37.1,"aqi":79,"pm10":30.6,"pm2_5":15.7,"mosquito_risk":4,"arthritis_risk":5,"migraine_risk":4,"frizz_risk":1,"updated_at":"2026-04-25T00:27:53.702369+05:30"},{"city":"Nagpur","state":"Maharashtra","latitude":21.1458,"longitude":79.0882,"temp":33.5,"humidity":18,"rain":0.0,"pressure":971.6,"uv_index":8.6,"wind_gusts":29.2,"aqi":103,"pm10":62.4,"pm2_5":55.9,"mosquito_risk":0,"arthritis_risk":5,"migraine_risk":7,"frizz_risk":0,"updated_at":"2026-04-25T00:27:53.702376+05:30"},{"city":"Nashik","state":"Maharashtra","latitude":19.9975,"longitude":73.7898,"temp":29.1,"humidity":36,"rain":0.0,"pressure":945.2,"uv_index":8.35,"wind_gusts":34.6,"aqi":115,"pm10":31.7,"pm2_5":22.8,"mosquito_risk":4,"arthritis_risk":5,"migraine_risk":7,"frizz_risk":0,"updated_at":"2026-04-25T00:27:53.702383+05:30"},{"city":"Aurangabad","state":"Maharashtra","latitude":19.8762,"longitude":75.3433,"temp":31.2,"humidity":21,"rain":0.0,"pressure":943.7,"uv_index":9.1,"wind_gusts":43.2,"aqi":101,"pm10":26.0,"pm2_5":21.4,"mosquito_risk":0,"arthritis_risk":5,"migraine_risk":7,"frizz_risk":0,"updated_at":"2026-04-25T00:27:53.702389+05:30"},{"city":"Solapur","state":"Maharashtra","latitude":17.6599,"longitude":75.9064,"temp":30.9,"humidity":29,"rain":0.0,"pressure":956.4,"uv_index":9.0,"wind_gusts":55.4,"aqi":124,"pm10":46.3,"pm2_5":41.1,"mosquito_risk":0,"arthritis_risk":5,"migraine_risk":7,"frizz_risk":0,"updated_at":"2026-04-25T00:27:53.702396+05:30"},{"city":"Kolhapur","state":"Maharashtra","latitude":16.705,"longitude":74.2433,"temp":26.4,"humidity":53,"rain":0.0,"pressure":947.1,"uv_index":9.05,"wind_gusts":37.4,"aqi":151,"pm10":85.4,"pm2_5":77.8,"mosquito_risk":4,"arthritis_risk":5,"migraine_risk":7,"frizz_risk":0,"updated_at":"2026-04-25T00:27:53.702402+05:30"},{"city":"Goa","state":"Goa","latitude":15.2993,"longitude":74.124,"temp":27.9,"humidity":91,"rain":0.0,"pressure":996.6,"uv_index":9.0,"wind_gusts":37.1,"aqi":84,"pm10":42.8,"pm2_5":34.3,"mosquito_risk":7,"arthritis_risk":5,"migraine_risk":7,"frizz_risk":1,"updated_at":"2026-04-25T00:27:53.702409+05:30"},{"city":"Jodhpur","state":"Rajasthan","latitude":26.2389,"longitude":73.0243,"temp":34.0,"humidity":21,"rain":0.0,"pressure":981.6,"uv_index":8.25,"wind_gusts":23.0,"aqi":71,"pm10":127.1,"pm2_5":27.9,"mosquito_risk":0,"arthritis_risk":5,"migraine_risk":7,"frizz_risk":0,"updated_at":"2026-04-25T00:27:53.702416+05:30"},{"city":"Udaipur","state":"Rajasthan","latitude":24.5854,"longitude":73.7125,"temp":29.1,"humidity":25,"rain":0.0,"pressure":946.0,"uv_index":8.8,"wind_gusts":33.5,"aqi":50,"pm10":52.0,"pm2_5":16.9,"mosquito_risk":4,"arthritis_risk":5,"migraine_risk":7,"frizz_risk":0,"updated_at":"2026-04-25T00:27:53.702422+05:30"},{"city":"Kota","state":"Rajasthan","latitude":25.2138,"longitude":75.8648,"temp":31.0,"humidity":25,"rain":0.0,"pressure":977.0,"uv_index":8.3,"wind_gusts":32.0,"aqi":66,"pm10":49.6,"pm2_5":33.4,"mosquito_risk":0,"arthritis_risk":5,"migraine_risk":7,"frizz_risk":0,"updated_at":"2026-04-25T00:27:53.702428+05:30"},{"city":"Bikaner","state":"Rajasthan","latitude":28.0229,"longitude":73.3119,"temp":31.2,"humidity":23,"rain":0.0,"pressure":980.4,"uv_index":8.05,"wind_gusts":26.6,"aqi":58,"pm10":59.8,"pm2_5":21.0,"mosquito_risk":0,"arthritis_risk":5,"migraine_risk":7,"frizz_risk":0,"updated_at":"2026-04-25T00:27:53.702435+05:30"},{"city":"Ajmer","state":"Rajasthan","latitude":26.4499,"longitude":74.6399,"temp":30.0,"humidity":25,"rain":0.0,"pressure":953.9,"uv_index":8.2,"wind_gusts":33.8,"aqi":54,"pm10":74.3,"pm2_5":23.1,"mosquito_risk":4,"arthritis_risk":5,"migraine_risk":7,"frizz_risk":0,"updated_at":"2026-04-25T00:27:53.702440+05:30"},{"city":"Gwalior","state":"Madhya Pradesh","latitude":26.2183,"longitude":78.1828,"temp":32.5,"humidity":22,"rain":0.0,"pressure":981.3,"uv_index":8.05,"wind_gusts":34.2,"aqi":59,"pm10":112.0,"pm2_5":34.6,"mosquito_risk":0,"arthritis_risk":5,"migraine_risk":7,"frizz_risk":0,"updated_at":"2026-04-25T00:27:53.702446+05:30"},{"city":"Indore","state":"Madhya Pradesh","latitude":22.7196,"longitude":75.8577,"temp":30.3,"humidity":18,"rain":0.0,"pressure":947.9,"uv_index":8.65,"wind_gusts":46.8,"aqi":52,"pm10":24.7,"pm2_5":16.4,"mosquito_risk":0,"arthritis_risk":5,"migraine_risk":7,"frizz_risk":0,"updated_at":"2026-04-25T00:27:53.702452+05:30"},{"city":"Bhopal","state":"Madhya Pradesh","latitude":23.2599,"longitude":77.4126,"temp":30.6,"humidity":24,"rain":0.0,"pressure":952.8,"uv_index":8.65,"wind_gusts":38.9,"aqi":52,"pm10":36.9,"pm2_5":24.2,"mosquito_risk":0,"arthritis_risk":5,"migraine_risk":7,"frizz_risk":0,"updated_at":"2026-04-25T00:27:53.702458+05:30"},{"city":"Jabalpur","state":"Madhya Pradesh","latitude":23.1815,"longitude":79.9864,"temp":29.6,"humidity":20,"rain":0.0,"pressure":959.8,"uv_index":8.75,"wind_gusts":36.4,"aqi":81,"pm10":24.3,"pm2_5":16.7,"mosquito_risk":4,"arthritis_risk":5,"migraine_risk":7,"frizz_risk":0,"updated_at":"2026-04-25T00:27:53.702464+05:30"},{"city":"Ujjain","state":"Madhya Pradesh","latitude":23.1765,"longitude":75.7885,"temp":30.0,"humidity":20,"rain":0.0,"pressure":953.5,"uv_index":8.55,"wind_gusts":40.3,"aqi":56,"pm10":28.9,"pm2_5":19.0,"mosquito_risk":4,"arthritis_risk":5,"migraine_risk":7,"frizz_risk":0,"updated_at":"2026-04-25T00:27:53.702471+05:30"},{"city":"Visakhapatnam","state":"Andhra Pradesh","latitude":17.6868,"longitude":83.2185,"temp":27.7,"humidity":90,"rain":0.0,"pressure":1002.2,"uv_index":9.2,"wind_gusts":42.5,"aqi":58,"pm10":15.4,"pm2_5":12.2,"mosquito_risk":7,"arthritis_risk":5,"migraine_risk":4,"frizz_risk":1,"updated_at":"2026-04-25T00:27:53.702477+05:30"},{"city":"Vijayawada","state":"Andhra Pradesh","latitude":16.5062,"longitude":80.648,"temp":28.2,"humidity":85,"rain":0.0,"pressure":1001.6,"uv_index":9.15,"wind_gusts":27.4,"aqi":52,"pm10":13.0,"pm2_5":11.2,"mosquito_risk":7,"arthritis_risk":5,"migraine_risk":4,"frizz_risk":1,"updated_at":"2026-04-25T00:27:53.702483+05:30"},{"city":"Guntur","state":"Andhra Pradesh","latitude":16.3067,"longitude":80.4365,"temp":28.0,"humidity":88,"rain":0.0,"pressure":1003.0,"uv_index":9.25,"wind_gusts":36.0,"aqi":53,"pm10":12.9,"pm2_5":11.0,"mosquito_risk":7,"arthritis_risk":5,"migraine_risk":4,"frizz_risk":1,"updated_at":"2026-04-25T00:27:53.702489+05:30"},{"city":"Nellore","state":"Andhra Pradesh","latitude":14.4426,"longitude":79.9865,"temp":27.5,"humidity":88,"rain":0.0,"pressure":1004.8,"uv_index":9.3,"wind_gusts":40.0,"aqi":40,"pm10":8.5,"pm2_5":6.8,"mosquito_risk":7,"arthritis_risk":5,"migraine_risk":4,"frizz_risk":1,"updated_at":"2026-04-25T00:27:53.702495+05:30"},{"city":"Kurnool","state":"Andhra Pradesh","latitude":15.8281,"longitude":78.0373,"temp":31.5,"humidity":39,"rain":0.0,"pressure":976.1,"uv_index":9.25,"wind_gusts":41.4,"aqi":95,"pm10":26.0,"pm2_5":23.1,"mosquito_risk":0,"arthritis_risk":5,"migraine_risk":7,"frizz_risk":0,"updated_at":"2026-04-25T00:27:53.702502+05:30"},{"city":"Kakinada","state":"Andhra Pradesh","latitude":16.9891,"longitude":82.2475,"temp":28.1,"humidity":86,"rain":0.0,"pressure":1006.3,"uv_index":9.05,"wind_gusts":36.4,"aqi":37,"pm10":11.9,"pm2_5":8.3,"mosquito_risk":7,"arthritis_risk":5,"migraine_risk":4,"frizz_risk":1,"updated_at":"2026-04-25T00:27:53.702508+05:30"},{"city":"Tirupati","state":"Andhra Pradesh","latitude":13.6288,"longitude":79.4192,"temp":28.2,"humidity":69,"rain":0.0,"pressure":990.5,"uv_index":9.35,"wind_gusts":33.8,"aqi":54,"pm10":19.1,"pm2_5":17.8,"mosquito_risk":7,"arthritis_risk":5,"migraine_risk":7,"frizz_risk":1,"updated_at":"2026-04-25T00:27:53.702514+05:30"},{"city":"Warangal","state":"Telangana","latitude":17.9689,"longitude":79.5941,"temp":29.5,"humidity":44,"rain":0.0,"pressure":977.5,"uv_index":9.2,"wind_gusts":34.9,"aqi":129,"pm10":36.4,"pm2_5":33.6,"mosquito_risk":4,"arthritis_risk":5,"migraine_risk":7,"frizz_risk":0,"updated_at":"2026-04-25T00:27:53.702520+05:30"},{"city":"Nizamabad","state":"Telangana","latitude":18.6725,"longitude":78.0941,"temp":29.9,"humidity":36,"rain":0.0,"pressure":963.6,"uv_index":8.8,"wind_gusts":27.7,"aqi":124,"pm10":78.7,"pm2_5":71.5,"mosquito_risk":4,"arthritis_risk":5,"migraine_risk":7,"frizz_risk":0,"updated_at":"2026-04-25T00:27:53.702526+05:30"},{"city":"Mysore","state":"Karnataka","latitude":12.2958,"longitude":76.6396,"temp":25.6,"humidity":56,"rain":0.0,"pressure":927.6,"uv_index":9.5,"wind_gusts":35.3,"aqi":93,"pm10":26.7,"pm2_5":23.9,"mosquito_risk":4,"arthritis_risk":5,"migraine_risk":7,"frizz_risk":0,"updated_at":"2026-04-25T00:27:53.702531+05:30"},{"city":"Mangalore","state":"Karnataka","latitude":12.9141,"longitude":74.856,"temp":29.2,"humidity":83,"rain":0.0,"pressure":1005.3,"uv_index":9.1,"wind_gusts":40.0,"aqi":71,"pm10":26.3,"pm2_5":19.1,"mosquito_risk":7,"arthritis_risk":5,"migraine_risk":4,"frizz_risk":1,"updated_at":"2026-04-25T00:27:53.702537+05:30"},{"city":"Hubli-Dharwad","state":"Karnataka","latitude":15.3647,"longitude":75.124,"temp":25.8,"humidity":82,"rain":0.0,"pressure":939.3,"uv_index":9.2,"wind_gusts":36.0,"aqi":108,"pm10":54.1,"pm2_5":49.5,"mosquito_risk":7,"arthritis_risk":5,"migraine_risk":7,"frizz_risk":1,"updated_at":"2026-04-25T00:27:53.702543+05:30"},{"city":"Belgaum","state":"Karnataka","latitude":15.8497,"longitude":74.4977,"temp":25.2,"humidity":80,"rain":0.0,"pressure":924.8,"uv_index":9.25,"wind_gusts":36.0,"aqi":121,"pm10":72.2,"pm2_5":64.3,"mosquito_risk":7,"arthritis_risk":5,"migraine_risk":7,"frizz_risk":1,"updated_at":"2026-04-25T00:27:56.933570+05:30"},{"city":"Coimbatore","state":"Tamil Nadu","latitude":11.0168,"longitude":76.9558,"temp":27.8,"humidity":65,"rain":0.0,"pressure":960.7,"uv_index":9.4,"wind_gusts":42.1,"aqi":86,"pm10":27.0,"pm2_5":25.1,"mosquito_risk":7,"arthritis_risk":5,"migraine_risk":7,"frizz_risk":1,"updated_at":"2026-04-25T00:27:56.933603+05:30"},{"city":"Madurai","state":"Tamil Nadu","latitude":9.9252,"longitude":78.1198,"temp":28.0,"humidity":78,"rain":0.0,"pressure":992.7,"uv_index":9.3,"wind_gusts":38.5,"aqi":44,"pm10":11.3,"pm2_5":10.5,"mosquito_risk":7,"arthritis_risk":5,"migraine_risk":7,"frizz_risk":1,"updated_at":"2026-04-25T00:27:56.933615+05:30"},{"city":"Trichy","state":"Tamil Nadu","latitude":10.7905,"longitude":78.7047,"temp":28.4,"humidity":73,"rain":0.0,"pressure":999.0,"uv_index":9.3,"wind_gusts":29.5,"aqi":47,"pm10":10.7,"pm2_5":9.9,"mosquito_risk":7,"arthritis_risk":5,"migraine_risk":7,"frizz_risk":1,"updated_at":"2026-04-25T00:27:56.933623+05:30"},{"city":"Salem","state":"Tamil Nadu","latitude":11.6643,"longitude":78.146,"temp":28.6,"humidity":55,"rain":0.0,"pressure":976.2,"uv_index":9.35,"wind_gusts":40.7,"aqi":78,"pm10":22.0,"pm2_5":21.4,"mosquito_risk":4,"arthritis_risk":5,"migraine_risk":7,"frizz_risk":1,"updated_at":"2026-04-25T00:27:56.933632+05:30"},{"city":"Tirunelveli","state":"Tamil Nadu","latitude":8.7139,"longitude":77.7567,"temp":27.0,"humidity":86,"rain":0.0,"pressure":1002.6,"uv_index":9.2,"wind_gusts":41.8,"aqi":65,"pm10":19.8,"pm2_5":18.7,"mosquito_risk":7,"arthritis_risk":5,"migraine_risk":4,"frizz_risk":1,"updated_at":"2026-04-25T00:27:56.933639+05:30"},{"city":"Vellore","state":"Tamil Nadu","latitude":12.9165,"longitude":79.1325,"temp":27.4,"humidity":74,"rain":0.0,"pressure":983.7,"uv_index":9.4,"wind_gusts":36.4,"aqi":70,"pm10":31.9,"pm2_5":31.2,"mosquito_risk":7,"arthritis_risk":5,"migraine_risk":7,"frizz_risk":1,"updated_at":"2026-04-25T00:27:56.933647+05:30"},{"city":"Erode","state":"Tamil Nadu","latitude":11.341,"longitude":77.7172,"temp":29.8,"humidity":50,"rain":0.0,"pressure":988.0,"uv_index":9.35,"wind_gusts":44.3,"aqi":54,"pm10":11.1,"pm2_5":10.7,"mosquito_risk":4,"arthritis_risk":5,"migraine_risk":7,"frizz_risk":1,"updated_at":"2026-04-25T00:27:56.933654+05:30"},{"city":"Kochi","state":"Kerala","latitude":9.9312,"longitude":76.2673,"temp":27.1,"humidity":95,"rain":0.0,"pressure":1007.1,"uv_index":8.5,"wind_gusts":38.2,"aqi":88,"pm10":43.4,"pm2_5":41.2,"mosquito_risk":7,"arthritis_risk":5,"migraine_risk":4,"frizz_risk":1,"updated_at":"2026-04-25T00:27:56.933662+05:30"},{"city":"Thiruvananthapuram","state":"Kerala","latitude":8.5241,"longitude":76.9366,"temp":25.4,"humidity":98,"rain":0.0,"pressure":1007.1,"uv_index":8.9,"wind_gusts":34.9,"aqi":63,"pm10":24.4,"pm2_5":19.2,"mosquito_risk":7,"arthritis_risk":5,"migraine_risk":4,"frizz_risk":1,"updated_at":"2026-04-25T00:27:56.933668+05:30"},{"city":"Kozhikode","state":"Kerala","latitude":11.2588,"longitude":75.7804,"temp":27.4,"humidity":92,"rain":0.0,"pressure":1006.3,"uv_index":9.1,"wind_gusts":36.4,"aqi":79,"pm10":29.6,"pm2_5":21.9,"mosquito_risk":7,"arthritis_risk":5,"migraine_risk":4,"frizz_risk":1,"updated_at":"2026-04-25T00:27:56.933674+05:30"},{"city":"Thrissur","state":"Kerala","latitude":10.5276,"longitude":76.2144,"temp":27.5,"humidity":87,"rain":0.0,"pressure":1005.4,"uv_index":9.15,"wind_gusts":37.4,"aqi":95,"pm10":44.5,"pm2_5":41.0,"mosquito_risk":7,"arthritis_risk":5,"migraine_risk":4,"frizz_risk":1,"updated_at":"2026-04-25T00:27:56.933682+05:30"},{"city":"Kannur","state":"Kerala","latitude":11.8745,"longitude":75.3704,"temp":28.8,"humidity":82,"rain":0.0,"pressure":1005.8,"uv_index":9.1,"wind_gusts":39.6,"aqi":78,"pm10":29.6,"pm2_5":23.2,"mosquito_risk":7,"arthritis_risk":5,"migraine_risk":4,"frizz_risk":1,"updated_at":"2026-04-25T00:27:56.933689+05:30"},{"city":"Patna","state":"Bihar","latitude":25.5941,"longitude":85.1376,"temp":29.4,"humidity":69,"rain":0.0,"pressure":998.6,"uv_index":8.6,"wind_gusts":30.2,"aqi":153,"pm10":103.1,"pm2_5":58.3,"mosquito_risk":7,"arthritis_risk":5,"migraine_risk":7,"frizz_risk":1,"updated_at":"2026-04-25T00:27:56.933695+05:30"},{"city":"Gaya","state":"Bihar","latitude":24.7914,"longitude":85.0002,"temp":28.5,"humidity":41,"rain":0.0,"pressure":991.8,"uv_index":8.7,"wind_gusts":32.4,"aqi":137,"pm10":95.2,"pm2_5":43.8,"mosquito_risk":4,"arthritis_risk":5,"migraine_risk":7,"frizz_risk":0,"updated_at":"2026-04-25T00:27:56.933702+05:30"},{"city":"Muzaffarpur","state":"Bihar","latitude":26.1209,"longitude":85.3647,"temp":27.6,"humidity":79,"rain":0.0,"pressure":998.9,"uv_index":8.6,"wind_gusts":32.4,"aqi":154,"pm10":97.3,"pm2_5":61.5,"mosquito_risk":7,"arthritis_risk":5,"migraine_risk":7,"frizz_risk":1,"updated_at":"2026-04-25T00:27:56.933708+05:30"},{"city":"Bhagalpur","state":"Bihar","latitude":25.2425,"longitude":87.0117,"temp":28.8,"humidity":83,"rain":0.0,"pressure":1000.1,"uv_index":8.65,"wind_gusts":37.8,"aqi":151,"pm10":64.0,"pm2_5":57.5,"mosquito_risk":7,"arthritis_risk":5,"migraine_risk":4,"frizz_risk":1,"updated_at":"2026-04-25T00:27:56.933715+05:30"},{"city":"Ranchi","state":"Jharkhand","latitude":23.3441,"longitude":85.3096,"temp":25.8,"humidity":27,"rain":0.0,"pressure":936.2,"uv_index":9.15,"wind_gusts":31.0,"aqi":118,"pm10":117.8,"pm2_5":44.0,"mosquito_risk":4,"arthritis_risk":5,"migraine_risk":7,"frizz_risk":0,"updated_at":"2026-04-25T00:27:56.933722+05:30"},{"city":"Jamshedpur","state":"Jharkhand","latitude":22.8046,"longitude":86.2029,"temp":28.2,"humidity":83,"rain":0.0,"pressure":989.5,"uv_index":8.65,"wind_gusts":37.8,"aqi":153,"pm10":59.8,"pm2_5":41.6,"mosquito_risk":7,"arthritis_risk":5,"migraine_risk":7,"frizz_risk":1,"updated_at":"2026-04-25T00:27:56.933729+05:30"},{"city":"Dhanbad","state":"Jharkhand","latitude":23.7957,"longitude":86.4304,"temp":30.0,"humidity":63,"rain":0.0,"pressure":979.0,"uv_index":8.95,"wind_gusts":37.8,"aqi":166,"pm10":137.4,"pm2_5":80.1,"mosquito_risk":7,"arthritis_risk":5,"migraine_risk":7,"frizz_risk":1,"updated_at":"2026-04-25T00:27:56.933735+05:30"},{"city":"Bokaro","state":"Jharkhand","latitude":23.6693,"longitude":86.1511,"temp":27.5,"humidity":39,"rain":0.0,"pressure":982.4,"uv_index":8.95,"wind_gusts":22.7,"aqi":161,"pm10":136.4,"pm2_5":72.2,"mosquito_risk":4,"arthritis_risk":5,"migraine_risk":7,"frizz_risk":0,"updated_at":"2026-04-25T00:27:56.933741+05:30"},{"city":"Bhubaneswar","state":"Odisha","latitude":20.2961,"longitude":85.8245,"temp":26.7,"humidity":96,"rain":0.0,"pressure":1001.3,"uv_index":9.1,"wind_gusts":39.2,"aqi":71,"pm10":17.2,"pm2_5":13.4,"mosquito_risk":7,"arthritis_risk":5,"migraine_risk":4,"frizz_risk":1,"updated_at":"2026-04-25T00:27:56.933748+05:30"},{"city":"Cuttack","state":"Odisha","latitude":20.4625,"longitude":85.8828,"temp":26.9,"humidity":95,"rain":0.0,"pressure":1003.2,"uv_index":9.15,"wind_gusts":33.1,"aqi":71,"pm10":17.2,"pm2_5":13.4,"mosquito_risk":7,"arthritis_risk":5,"migraine_risk":4,"frizz_risk":1,"updated_at":"2026-04-25T00:27:56.933754+05:30"},{"city":"Rourkela","state":"Odisha","latitude":22.2604,"longitude":84.8536,"temp":28.4,"humidity":55,"rain":0.0,"pressure":983.8,"uv_index":8.85,"wind_gusts":30.2,"aqi":130,"pm10":98.7,"pm2_5":49.1,"mosquito_risk":4,"arthritis_risk":5,"migraine_risk":7,"frizz_risk":1,"updated_at":"2026-04-25T00:27:56.933761+05:30"},{"city":"Raipur","state":"Chhattisgarh","latitude":21.2514,"longitude":81.6296,"temp":29.3,"humidity":23,"rain":0.0,"pressure":972.5,"uv_index":8.95,"wind_gusts":42.1,"aqi":115,"pm10":68.9,"pm2_5":59.6,"mosquito_risk":4,"arthritis_risk":5,"migraine_risk":7,"frizz_risk":0,"updated_at":"2026-04-25T00:27:56.933768+05:30"},{"city":"Bhilai","state":"Chhattisgarh","latitude":21.1938,"longitude":81.3509,"temp":30.1,"humidity":31,"rain":0.0,"pressure":973.1,"uv_index":8.9,"wind_gusts":42.1,"aqi":108,"pm10":56.0,"pm2_5":51.3,"mosquito_risk":0,"arthritis_risk":5,"migraine_risk":7,"frizz_risk":0,"updated_at":"2026-04-25T00:27:56.933773+05:30"},{"city":"Guwahati","state":"Assam","latitude":26.1158,"longitude":91.7086,"temp":23.8,"humidity":97,"rain":0.0,"pressure":1001.9,"uv_index":8.55,"wind_gusts":23.4,"aqi":151,"pm10":80.1,"pm2_5":63.6,"mosquito_risk":3,"arthritis_risk":5,"migraine_risk":4,"frizz_risk":1,"updated_at":"2026-04-25T00:27:56.933779+05:30"},{"city":"Agartala","state":"Tripura","latitude":23.8315,"longitude":91.2868,"temp":27.0,"humidity":81,"rain":0.0,"pressure":1005.4,"uv_index":8.65,"wind_gusts":26.3,"aqi":126,"pm10":79.9,"pm2_5":61.7,"mosquito_risk":7,"arthritis_risk":5,"migraine_risk":4,"frizz_risk":1,"updated_at":"2026-04-25T00:27:56.933786+05:30"},{"city":"Shillong","state":"Meghalaya","latitude":25.5788,"longitude":91.8933,"temp":17.6,"humidity":80,"rain":0.0,"pressure":857.1,"uv_index":6.3,"wind_gusts":26.6,"aqi":126,"pm10":64.3,"pm2_5":47.0,"mosquito_risk":3,"arthritis_risk":5,"migraine_risk":7,"frizz_risk":0,"updated_at":"2026-04-25T00:27:56.933792+05:30"},{"city":"Imphal","state":"Manipur","latitude":24.817,"longitude":93.9368,"temp":19.4,"humidity":87,"rain":0.0,"pressure":922.7,"uv_index":9.1,"wind_gusts":31.7,"aqi":151,"pm10":116.9,"pm2_5":75.7,"mosquito_risk":3,"arthritis_risk":10,"migraine_risk":7,"frizz_risk":1,"updated_at":"2026-04-25T00:27:56.933799+05:30"},{"city":"Aizawl","state":"Mizoram","latitude":23.7271,"longitude":92.7176,"temp":19.5,"humidity":73,"rain":0.0,"pressure":891.7,"uv_index":8.45,"wind_gusts":28.4,"aqi":116,"pm10":110.4,"pm2_5":50.5,"mosquito_risk":3,"arthritis_risk":5,"migraine_risk":7,"frizz_risk":0,"updated_at":"2026-04-25T00:27:56.933822+05:30"},{"city":"Kohima","state":"Nagaland","latitude":25.6701,"longitude":94.1077,"temp":16.8,"humidity":90,"rain":0.0,"pressure":855.0,"uv_index":8.55,"wind_gusts":35.3,"aqi":142,"pm10":106.9,"pm2_5":65.9,"mosquito_risk":3,"arthritis_risk":10,"migraine_risk":7,"frizz_risk":0,"updated_at":"2026-04-25T00:27:56.933828+05:30"},{"city":"Gangtok","state":"Sikkim","latitude":27.3314,"longitude":88.6138,"temp":14.9,"humidity":79,"rain":0.0,"pressure":838.7,"uv_index":6.7,"wind_gusts":38.5,"aqi":97,"pm10":46.7,"pm2_5":35.0,"mosquito_risk":3,"arthritis_risk":5,"migraine_risk":7,"frizz_risk":0,"updated_at":"2026-04-25T00:27:56.933834+05:30"},{"city":"Siliguri","state":"West Bengal","latitude":26.7271,"longitude":88.3953,"temp":24.0,"humidity":84,"rain":0.0,"pressure":993.1,"uv_index":8.45,"wind_gusts":23.8,"aqi":157,"pm10":109.7,"pm2_5":78.7,"mosquito_risk":3,"arthritis_risk":5,"migraine_risk":7,"frizz_risk":1,"updated_at":"2026-04-25T00:28:00.170753+05:30"},{"city":"Durgapur","state":"West Bengal","latitude":23.5204,"longitude":87.3119,"temp":27.5,"humidity":94,"rain":0.0,"pressure":994.4,"uv_index":8.5,"wind_gusts":31.3,"aqi":151,"pm10":61.7,"pm2_5":50.9,"mosquito_risk":7,"arthritis_risk":5,"migraine_risk":7,"frizz_risk":1,"updated_at":"2026-04-25T00:28:00.170787+05:30"},{"city":"Asansol","state":"West Bengal","latitude":23.6739,"longitude":86.9524,"temp":28.2,"humidity":88,"rain":0.0,"pressure":992.8,"uv_index":8.9,"wind_gusts":35.6,"aqi":153,"pm10":83.8,"pm2_5":52.5,"mosquito_risk":7,"arthritis_risk":5,"migraine_risk":7,"frizz_risk":1,"updated_at":"2026-04-25T00:28:00.170798+05:30"},{"city":"Pondicherry","state":"Puducherry","latitude":11.9139,"longitude":79.8145,"temp":29.1,"humidity":80,"rain":0.0,"pressure":1007.5,"uv_index":9.15,"wind_gusts":40.3,"aqi":23,"pm10":7.6,"pm2_5":4.9,"mosquito_risk":7,"arthritis_risk":5,"migraine_risk":4,"frizz_risk":1,"updated_at":"2026-04-25T00:28:00.170825+05:30"},{"city":"Port Blair","state":"Andaman and Nicobar Islands","latitude":11.6234,"longitude":92.7265,"temp":26.3,"humidity":89,"rain":0.0,"pressure":1006.3,"uv_index":9.15,"wind_gusts":30.6,"aqi":37,"pm10":11.6,"pm2_5":6.1,"mosquito_risk":7,"arthritis_risk":5,"migraine_risk":4,"frizz_risk":1,"updated_at":"2026-04-25T00:28:00.170833+05:30"},{"city":"Haridwar","state":"Uttarakhand","latitude":29.9457,"longitude":78.1642,"temp":21.5,"humidity":64,"rain":0.0,"pressure":971.2,"uv_index":7.25,"wind_gusts":23.8,"aqi":81,"pm10":50.8,"pm2_5":41.4,"mosquito_risk":3,"arthritis_risk":5,"migraine_risk":7,"frizz_risk":0,"updated_at":"2026-04-25T00:28:00.170841+05:30"},{"city":"Rishikesh","state":"Uttarakhand","latitude":30.0869,"longitude":78.2676,"temp":20.1,"humidity":63,"rain":0.0,"pressure":964.0,"uv_index":7.35,"wind_gusts":23.8,"aqi":89,"pm10":31.0,"pm2_5":24.3,"mosquito_risk":3,"arthritis_risk":5,"migraine_risk":7,"frizz_risk":0,"updated_at":"2026-04-25T00:28:00.170849+05:30"},{"city":"Nainital","state":"Uttarakhand","latitude":29.3919,"longitude":79.4542,"temp":15.3,"humidity":53,"rain":0.0,"pressure":805.2,"uv_index":8.2,"wind_gusts":43.9,"aqi":130,"pm10":42.4,"pm2_5":33.8,"mosquito_risk":0,"arthritis_risk":5,"migraine_risk":7,"frizz_risk":0,"updated_at":"2026-04-25T00:28:00.170856+05:30"},{"city":"Mussoorie","state":"Uttarakhand","latitude":30.4599,"longitude":78.0664,"temp":15.8,"humidity":49,"rain":0.0,"pressure":802.6,"uv_index":7.75,"wind_gusts":46.1,"aqi":84,"pm10":39.6,"pm2_5":31.1,"mosquito_risk":0,"arthritis_risk":5,"migraine_risk":7,"frizz_risk":0,"updated_at":"2026-04-25T00:28:00.170863+05:30"},{"city":"Dharamshala","state":"Himachal Pradesh","latitude":32.219,"longitude":76.3234,"temp":22.6,"humidity":34,"rain":0.0,"pressure":870.3,"uv_index":8.05,"wind_gusts":50.4,"aqi":58,"pm10":26.5,"pm2_5":17.3,"mosquito_risk":0,"arthritis_risk":5,"migraine_risk":7,"frizz_risk":0,"updated_at":"2026-04-25T00:28:00.170871+05:30"},{"city":"Dalhousie","state":"Himachal Pradesh","latitude":32.5387,"longitude":75.971,"temp":13.6,"humidity":58,"rain":0.0,"pressure":803.8,"uv_index":8.3,"wind_gusts":37.4,"aqi":62,"pm10":35.4,"pm2_5":26.5,"mosquito_risk":0,"arthritis_risk":5,"migraine_risk":7,"frizz_risk":0,"updated_at":"2026-04-25T00:28:00.170878+05:30"},{"city":"Patiala","state":"Punjab","latitude":30.3398,"longitude":76.3869,"temp":30.3,"humidity":32,"rain":0.0,"pressure":977.2,"uv_index":7.35,"wind_gusts":44.6,"aqi":274,"pm10":1110.1,"pm2_5":126.2,"mosquito_risk":0,"arthritis_risk":5,"migraine_risk":7,"frizz_risk":0,"updated_at":"2026-04-25T00:28:00.170886+05:30"},{"city":"Bhatinda","state":"Punjab","latitude":30.211,"longitude":74.9455,"temp":30.9,"humidity":23,"rain":0.0,"pressure":982.5,"uv_index":8.0,"wind_gusts":34.9,"aqi":86,"pm10":83.4,"pm2_5":32.4,"mosquito_risk":0,"arthritis_risk":5,"migraine_risk":7,"frizz_risk":0,"updated_at":"2026-04-25T00:28:00.170893+05:30"},{"city":"Rohtak","state":"Haryana","latitude":28.8955,"longitude":76.6066,"temp":28.8,"humidity":26,"rain":0.0,"pressure":980.2,"uv_index":7.45,"wind_gusts":31.0,"aqi":175,"pm10":536.4,"pm2_5":95.2,"mosquito_risk":4,"arthritis_risk":5,"migraine_risk":7,"frizz_risk":0,"updated_at":"2026-04-25T00:28:00.170900+05:30"},{"city":"Panipat","state":"Haryana","latitude":29.3909,"longitude":76.9635,"temp":29.2,"humidity":26,"rain":0.0,"pressure":978.5,"uv_index":7.3,"wind_gusts":34.2,"aqi":357,"pm10":1169.7,"pm2_5":148.1,"mosquito_risk":4,"arthritis_risk":5,"migraine_risk":7,"frizz_risk":0,"updated_at":"2026-04-25T00:28:00.170907+05:30"},{"city":"Mathura","state":"Uttar Pradesh","latitude":27.4924,"longitude":77.6737,"temp":29.6,"humidity":30,"rain":0.0,"pressure":984.4,"uv_index":7.75,"wind_gusts":26.3,"aqi":361,"pm10":439.6,"pm2_5":81.5,"mosquito_risk":4,"arthritis_risk":5,"migraine_risk":7,"frizz_risk":0,"updated_at":"2026-04-25T00:28:00.170915+05:30"},{"city":"Vrindavan","state":"Uttar Pradesh","latitude":27.5823,"longitude":77.7027,"temp":29.5,"humidity":30,"rain":0.0,"pressure":984.9,"uv_index":7.7,"wind_gusts":25.9,"aqi":361,"pm10":439.6,"pm2_5":81.5,"mosquito_risk":4,"arthritis_risk":5,"migraine_risk":7,"frizz_risk":0,"updated_at":"2026-04-25T00:28:00.170922+05:30"},{"city":"Ayodhya","state":"Uttar Pradesh","latitude":26.7922,"longitude":82.1998,"temp":28.5,"humidity":31,"rain":0.0,"pressure":992.8,"uv_index":8.05,"wind_gusts":31.3,"aqi":138,"pm10":144.4,"pm2_5":49.8,"mosquito_risk":4,"arthritis_risk":5,"migraine_risk":7,"frizz_risk":0,"updated_at":"2026-04-25T00:28:00.170928+05:30"},{"city":"Ratlam","state":"Madhya Pradesh","latitude":23.3315,"longitude":75.0367,"temp":28.0,"humidity":25,"rain":0.0,"pressure":954.3,"uv_index":8.5,"wind_gusts":37.4,"aqi":54,"pm10":26.1,"pm2_5":13.3,"mosquito_risk":4,"arthritis_risk":5,"migraine_risk":7,"frizz_risk":0,"updated_at":"2026-04-25T00:28:00.170935+05:30"},{"city":"Sagar","state":"Madhya Pradesh","latitude":23.8388,"longitude":78.7378,"temp":28.2,"humidity":21,"rain":0.0,"pressure":948.5,"uv_index":8.65,"wind_gusts":44.6,"aqi":74,"pm10":21.2,"pm2_5":13.4,"mosquito_risk":4,"arthritis_risk":5,"migraine_risk":7,"frizz_risk":0,"updated_at":"2026-04-25T00:28:00.170941+05:30"},{"city":"Satna","state":"Madhya Pradesh","latitude":24.6005,"longitude":80.8322,"temp":28.7,"humidity":22,"rain":0.0,"pressure":969.6,"uv_index":8.65,"wind_gusts":41.8,"aqi":86,"pm10":33.9,"pm2_5":31.3,"mosquito_risk":4,"arthritis_risk":5,"migraine_risk":7,"frizz_risk":0,"updated_at":"2026-04-25T00:28:00.170948+05:30"},{"city":"Akola","state":"Maharashtra","latitude":20.7002,"longitude":77.0082,"temp":32.2,"humidity":21,"rain":0.0,"pressure":973.4,"uv_index":8.85,"wind_gusts":30.2,"aqi":82,"pm10":27.5,"pm2_5":24.1,"mosquito_risk":0,"arthritis_risk":5,"migraine_risk":7,"frizz_risk":0,"updated_at":"2026-04-25T00:28:00.170955+05:30"},{"city":"Amravati","state":"Maharashtra","latitude":20.9374,"longitude":77.7796,"temp":33.0,"humidity":20,"rain":0.0,"pressure":966.0,"uv_index":8.75,"wind_gusts":29.9,"aqi":82,"pm10":37.6,"pm2_5":31.8,"mosquito_risk":0,"arthritis_risk":5,"migraine_risk":7,"frizz_risk":0,"updated_at":"2026-04-25T00:28:00.170962+05:30"},{"city":"Latur","state":"Maharashtra","latitude":18.4088,"longitude":76.5604,"temp":29.3,"humidity":31,"rain":0.0,"pressure":939.2,"uv_index":8.3,"wind_gusts":29.2,"aqi":122,"pm10":47.5,"pm2_5":43.1,"mosquito_risk":4,"arthritis_risk":5,"migraine_risk":7,"frizz_risk":0,"updated_at":"2026-04-25T00:28:00.170969+05:30"},{"city":"Nanded","state":"Maharashtra","latitude":19.1383,"longitude":77.3091,"temp":30.0,"humidity":32,"rain":0.0,"pressure":967.4,"uv_index":8.1,"wind_gusts":27.7,"aqi":106,"pm10":52.2,"pm2_5":46.8,"mosquito_risk":4,"arthritis_risk":5,"migraine_risk":7,"frizz_risk":0,"updated_at":"2026-04-25T00:28:00.170975+05:30"},{"city":"Gulbarga","state":"Karnataka","latitude":17.3297,"longitude":76.8343,"temp":29.5,"humidity":39,"rain":0.0,"pressure":958.0,"uv_index":8.7,"wind_gusts":65.9,"aqi":113,"pm10":47.4,"pm2_5":39.8,"mosquito_risk":4,"arthritis_risk":5,"migraine_risk":7,"frizz_risk":0,"updated_at":"2026-04-25T00:28:00.170982+05:30"},{"city":"Bidar","state":"Karnataka","latitude":17.9104,"longitude":77.5199,"temp":26.8,"humidity":44,"rain":0.0,"pressure":934.6,"uv_index":8.9,"wind_gusts":43.9,"aqi":118,"pm10":61.7,"pm2_5":55.6,"mosquito_risk":4,"arthritis_risk":5,"migraine_risk":7,"frizz_risk":0,"updated_at":"2026-04-25T00:28:00.170988+05:30"},{"city":"Hospet","state":"Karnataka","latitude":15.2689,"longitude":76.3909,"temp":30.4,"humidity":29,"rain":0.0,"pressure":954.7,"uv_index":9.25,"wind_gusts":27.0,"aqi":103,"pm10":32.2,"pm2_5":28.4,"mosquito_risk":0,"arthritis_risk":5,"migraine_risk":7,"frizz_risk":0,"updated_at":"2026-04-25T00:28:00.170994+05:30"},{"city":"Tirupur","state":"Tamil Nadu","latitude":11.1085,"longitude":77.3411,"temp":30.4,"humidity":37,"rain":0.0,"pressure":974.1,"uv_index":9.4,"wind_gusts":42.5,"aqi":64,"pm10":14.4,"pm2_5":13.7,"mosquito_risk":0,"arthritis_risk":5,"migraine_risk":7,"frizz_risk":0,"updated_at":"2026-04-25T00:28:00.171001+05:30"},{"city":"Alappuzha","state":"Kerala","latitude":9.4981,"longitude":76.3388,"temp":26.7,"humidity":95,"rain":0.0,"pressure":1007.3,"uv_index":9.0,"wind_gusts":36.0,"aqi":82,"pm10":40.5,"pm2_5":35.2,"mosquito_risk":7,"arthritis_risk":5,"migraine_risk":4,"frizz_risk":1,"updated_at":"2026-04-25T00:28:00.171007+05:30"},{"city":"Munnar","state":"Kerala","latitude":10.0889,"longitude":77.0595,"temp":17.1,"humidity":71,"rain":0.0,"pressure":855.1,"uv_index":9.6,"wind_gusts":20.9,"aqi":66,"pm10":25.7,"pm2_5":24.8,"mosquito_risk":3,"arthritis_risk":5,"migraine_risk":7,"frizz_risk":0,"updated_at":"2026-04-25T00:28:00.171014+05:30"},{"city":"Silchar","state":"Assam","latitude":24.8333,"longitude":92.7789,"temp":25.0,"humidity":97,"rain":0.0,"pressure":1004.4,"uv_index":8.75,"wind_gusts":19.8,"aqi":158,"pm10":136.9,"pm2_5":88.7,"mosquito_risk":7,"arthritis_risk":5,"migraine_risk":4,"frizz_risk":1,"updated_at":"2026-04-25T00:28:00.171020+05:30"},{"city":"Dibrugarh","state":"Assam","latitude":27.4728,"longitude":94.912,"temp":24.8,"humidity":85,"rain":0.0,"pressure":995.1,"uv_index":8.65,"wind_gusts":16.6,"aqi":87,"pm10":23.6,"pm2_5":19.6,"mosquito_risk":3,"arthritis_risk":5,"migraine_risk":7,"frizz_risk":1,"updated_at":"2026-04-25T00:28:00.171026+05:30"}]