[{"city":"Delhi","state":"Delhi","latitude":28.6139,"longitude":77.209,"temp":32.5,"humidity":67,"rain":0.0,"pressure":973.1,"uv_index":7.3,"wind_gusts":23.4,"aqi":159,"pm10":61.7,"pm2_5":41.3,"no2":7.4,"co":606.0,"o3":231.0,"so2":25.1,"mosquito_risk":3,"arthritis_risk":5,"migraine_risk":7,"frizz_risk":1,"updated_at":"2026-07-04T15:42:53.153338+05:30"},{"city":"Mumbai","state":"Maharashtra","latitude":19.076,"longitude":72.8777,"temp":26.2,"humidity":91,"rain":0.5,"pressure":1001.1,"uv_index":0.3,"wind_gusts":55.4,"aqi":38,"pm10":9.1,"pm2_5":5.7,"no2":6.0,"co":214.0,"o3":52.0,"so2":2.8,"mosquito_risk":10,"arthritis_risk":5,"migraine_risk":0,"frizz_risk":1,"updated_at":"2026-07-04T15:42:53.153401+05:30"},{"city":"Bangalore","state":"Karnataka","latitude":12.9716,"longitude":77.5946,"temp":27.2,"humidity":54,"rain":0.0,"pressure":908.9,"uv_index":5.55,"wind_gusts":67.3,"aqi":23,"pm10":9.2,"pm2_5":5.5,"no2":7.3,"co":240.0,"o3":58.0,"so2":2.2,"mosquito_risk":4,"arthritis_risk":5,"migraine_risk":3,"frizz_risk":1,"updated_at":"2026-07-04T15:42:53.153417+05:30"},{"city":"Hyderabad","state":"Telangana","latitude":17.385,"longitude":78.4867,"temp":25.1,"humidity":84,"rain":0.1,"pressure":945.9,"uv_index":2.4,"wind_gusts":56.9,"aqi":25,"pm10":4.2,"pm2_5":3.3,"no2":4.8,"co":256.0,"o3":61.0,"so2":2.0,"mosquito_risk":10,"arthritis_risk":5,"migraine_risk":3,"frizz_risk":1,"updated_at":"2026-07-04T15:42:53.153428+05:30"},{"city":"Chennai","state":"Tamil Nadu","latitude":13.0827,"longitude":80.2707,"temp":30.8,"humidity":60,"rain":0.0,"pressure":1001.5,"uv_index":1.45,"wind_gusts":41.8,"aqi":38,"pm10":17.1,"pm2_5":11.6,"no2":5.6,"co":344.0,"o3":91.0,"so2":5.9,"mosquito_risk":0,"arthritis_risk":5,"migraine_risk":0,"frizz_risk":1,"updated_at":"2026-07-04T15:42:53.153437+05:30"},{"city":"Kolkata","state":"West Bengal","latitude":22.5726,"longitude":88.3639,"temp":30.8,"humidity":80,"rain":0.0,"pressure":991.9,"uv_index":7.5,"wind_gusts":50.4,"aqi":41,"pm10":9.7,"pm2_5":9.0,"no2":7.6,"co":409.0,"o3":78.0,"so2":6.1,"mosquito_risk":3,"arthritis_risk":5,"migraine_risk":7,"frizz_risk":1,"updated_at":"2026-07-04T15:42:53.153444+05:30"},{"city":"Pune","state":"Maharashtra","latitude":18.5204,"longitude":73.8567,"temp":24.2,"humidity":89,"rain":0.1,"pressure":940.8,"uv_index":0.45,"wind_gusts":47.9,"aqi":21,"pm10":1.7,"pm2_5":1.7,"no2":6.3,"co":159.0,"o3":45.0,"so2":2.2,"mosquito_risk":6,"arthritis_risk":5,"migraine_risk":3,"frizz_risk":1,"updated_at":"2026-07-04T15:42:53.153451+05:30"},{"city":"Ahmedabad","state":"Gujarat","latitude":23.0225,"longitude":72.5714,"temp":32.1,"humidity":64,"rain":0.0,"pressure":991.8,"uv_index":5.85,"wind_gusts":34.9,"aqi":60,"pm10":67.5,"pm2_5":25.1,"no2":6.0,"co":188.0,"o3":76.0,"so2":3.9,"mosquito_risk":3,"arthritis_risk":5,"migraine_risk":3,"frizz_risk":1,"updated_at":"2026-07-04T15:42:53.153458+05:30"},{"city":"Jaipur","state":"Rajasthan","latitude":26.9124,"longitude":75.7873,"temp":33.7,"humidity":59,"rain":0.0,"pressure":950.0,"uv_index":7.4,"wind_gusts":27.7,"aqi":106,"pm10":40.9,"pm2_5":23.2,"no2":1.8,"co":242.0,"o3":151.0,"so2":4.6,"mosquito_risk":0,"arthritis_risk":5,"migraine_risk":7,"frizz_risk":1,"updated_at":"2026-07-04T15:42:53.153465+05:30"},{"city":"Lucknow","state":"Uttar Pradesh","latitude":26.8467,"longitude":80.9462,"temp":35.8,"humidity":56,"rain":0.0,"pressure":981.9,"uv_index":6.75,"wind_gusts":21.6,"aqi":110,"pm10":23.6,"pm2_5":22.9,"no2":1.9,"co":306.0,"o3":149.0,"so2":6.0,"mosquito_risk":0,"arthritis_risk":5,"migraine_risk":10,"frizz_risk":1,"updated_at":"2026-07-04T15:42:53.153492+05:30"},{"city":"Kanpur","state":"Uttar Pradesh","latitude":26.4499,"longitude":80.3319,"temp":35.9,"humidity":57,"rain":0.0,"pressure":980.1,"uv_index":7.95,"wind_gusts":28.4,"aqi":120,"pm10":23.6,"pm2_5":23.0,"no2":1.9,"co":255.0,"o3":157.0,"so2":6.7,"mosquito_risk":0,"arthritis_risk":5,"migraine_risk":10,"frizz_risk":1,"updated_at":"2026-07-04T15:42:53.153499+05:30"},{"city":"Chandigarh","state":"Chandigarh","latitude":30.7333,"longitude":76.7794,"temp":31.6,"humidity":71,"rain":0.0,"pressure":959.9,"uv_index":7.45,"wind_gusts":23.0,"aqi":143,"pm10":29.8,"pm2_5":28.1,"no2":2.6,"co":448.0,"o3":187.0,"so2":9.5,"mosquito_risk":3,"arthritis_risk":5,"migraine_risk":7,"frizz_risk":1,"updated_at":"2026-07-04T15:42:53.153506+05:30"},{"city":"Srinagar","state":"Jammu and Kashmir","latitude":34.0837,"longitude":74.7973,"temp":31.1,"humidity":35,"rain":0.0,"pressure":838.6,"uv_index":9.05,"wind_gusts":21.2,"aqi":106,"pm10":19.0,"pm2_5":12.0,"no2":0.9,"co":281.0,"o3":153.0,"so2":2.3,"mosquito_risk":0,"arthritis_risk":5,"migraine_risk":7,"frizz_risk":0,"updated_at":"2026-07-04T15:42:53.153514+05:30"},{"city":"Jammu","state":"Jammu and Kashmir","latitude":32.7266,"longitude":74.857,"temp":36.6,"humidity":42,"rain":0.0,"pressure":963.3,"uv_index":8.6,"wind_gusts":29.9,"aqi":151,"pm10":46.8,"pm2_5":35.3,"no2":1.2,"co":320.0,"o3":192.0,"so2":5.9,"mosquito_risk":0,"arthritis_risk":5,"migraine_risk":10,"frizz_risk":1,"updated_at":"2026-07-04T15:42:53.153520+05:30"},{"city":"Amritsar","state":"Punjab","latitude":31.634,"longitude":74.8723,"temp":36.3,"humidity":48,"rain":0.0,"pressure":971.2,"uv_index":8.45,"wind_gusts":29.2,"aqi":121,"pm10":46.2,"pm2_5":35.3,"no2":1.5,"co":351.0,"o3":173.0,"so2":5.3,"mosquito_risk":0,"arthritis_risk":5,"migraine_risk":10,"frizz_risk":1,"updated_at":"2026-07-04T15:42:53.153526+05:30"},{"city":"Ludhiana","state":"Punjab","latitude":30.901,"longitude":75.8573,"temp":32.2,"humidity":70,"rain":0.0,"pressure":969.5,"uv_index":7.95,"wind_gusts":36.4,"aqi":147,"pm10":48.5,"pm2_5":39.3,"no2":2.3,"co":373.0,"o3":195.0,"so2":9.6,"mosquito_risk":3,"arthritis_risk":5,"migraine_risk":7,"frizz_risk":1,"updated_at":"2026-07-04T15:42:53.153532+05:30"},{"city":"Jalandhar","state":"Punjab","latitude":31.326,"longitude":75.5762,"temp":33.8,"humidity":63,"rain":0.0,"pressure":970.4,"uv_index":8.2,"wind_gusts":34.2,"aqi":143,"pm10":46.3,"pm2_5":37.4,"no2":1.2,"co":382.0,"o3":188.0,"so2":7.5,"mosquito_risk":3,"arthritis_risk":5,"migraine_risk":7,"frizz_risk":1,"updated_at":"2026-07-04T15:42:53.153538+05:30"},{"city":"Dehradun","state":"Uttarakhand","latitude":30.6284,"longitude":78.0322,"temp":23.9,"humidity":75,"rain":0.0,"pressure":826.6,"uv_index":7.15,"wind_gusts":26.3,"aqi":73,"pm10":9.6,"pm2_5":9.4,"no2":1.3,"co":257.0,"o3":124.0,"so2":2.2,"mosquito_risk":3,"arthritis_risk":5,"migraine_risk":7,"frizz_risk":1,"updated_at":"2026-07-04T15:42:53.153551+05:30"},{"city":"Shimla","state":"Himachal Pradesh","latitude":31.1048,"longitude":77.1734,"temp":21.8,"humidity":70,"rain":0.0,"pressure":782.0,"uv_index":7.4,"wind_gusts":25.2,"aqi":91,"pm10":11.9,"pm2_5":11.5,"no2":2.8,"co":257.0,"o3":155.0,"so2":6.8,"mosquito_risk":3,"arthritis_risk":5,"migraine_risk":7,"frizz_risk":1,"updated_at":"2026-07-04T15:42:53.153557+05:30"},{"city":"Manali","state":"Himachal Pradesh","latitude":32.2396,"longitude":77.1887,"temp":24.4,"humidity":81,"rain":0.0,"pressure":816.2,"uv_index":9.55,"wind_gusts":33.5,"aqi":83,"pm10":13.9,"pm2_5":13.2,"no2":9.9,"co":186.0,"o3":156.0,"so2":0.7,"mosquito_risk":3,"arthritis_risk":5,"migraine_risk":7,"frizz_risk":1,"updated_at":"2026-07-04T15:42:53.153565+05:30"},{"city":"Gurgaon","state":"Haryana","latitude":28.4595,"longitude":77.0266,"temp":32.4,"humidity":66,"rain":0.0,"pressure":971.5,"uv_index":6.8,"wind_gusts":30.2,"aqi":145,"pm10":46.2,"pm2_5":31.3,"no2":5.6,"co":488.0,"o3":203.0,"so2":16.5,"mosquito_risk":3,"arthritis_risk":5,"migraine_risk":7,"frizz_risk":1,"updated_at":"2026-07-04T15:42:53.153572+05:30"},{"city":"Noida","state":"Uttar Pradesh","latitude":28.5355,"longitude":77.391,"temp":32.2,"humidity":72,"rain":0.0,"pressure":974.4,"uv_index":6.8,"wind_gusts":27.4,"aqi":145,"pm10":46.2,"pm2_5":31.3,"no2":5.6,"co":436.0,"o3":203.0,"so2":16.5,"mosquito_risk":3,"arthritis_risk":5,"migraine_risk":7,"frizz_risk":1,"updated_at":"2026-07-04T15:42:53.153578+05:30"},{"city":"Ghaziabad","state":"Uttar Pradesh","latitude":28.6692,"longitude":77.4538,"temp":31.8,"humidity":74,"rain":0.0,"pressure":972.9,"uv_index":7.35,"wind_gusts":28.4,"aqi":126,"pm10":25.4,"pm2_5":24.6,"no2":3.1,"co":285.0,"o3":184.0,"so2":13.9,"mosquito_risk":3,"arthritis_risk":5,"migraine_risk":7,"frizz_risk":1,"updated_at":"2026-07-04T15:42:53.153587+05:30"},{"city":"Faridabad","state":"Haryana","latitude":28.4089,"longitude":77.3178,"temp":33.2,"humidity":64,"rain":0.1,"pressure":973.6,"uv_index":6.75,"wind_gusts":28.4,"aqi":145,"pm10":46.2,"pm2_5":31.3,"no2":5.6,"co":432.0,"o3":203.0,"so2":16.5,"mosquito_risk":6,"arthritis_risk":5,"migraine_risk":7,"frizz_risk":1,"updated_at":"2026-07-04T15:42:53.153593+05:30"},{"city":"Meerut","state":"Uttar Pradesh","latitude":28.9845,"longitude":77.7064,"temp":32.1,"humidity":71,"rain":0.0,"pressure":971.8,"uv_index":7.5,"wind_gusts":26.3,"aqi":126,"pm10":25.4,"pm2_5":24.6,"no2":3.1,"co":307.0,"o3":184.0,"so2":13.9,"mosquito_risk":3,"arthritis_risk":5,"migraine_risk":7,"frizz_risk":1,"updated_at":"2026-07-04T15:42:53.153599+05:30"},{"city":"Agra","state":"Uttar Pradesh","latitude":27.1767,"longitude":78.0081,"temp":34.1,"humidity":63,"rain":0.0,"pressure":977.0,"uv_index":7.25,"wind_gusts":22.3,"aqi":109,"pm10":28.6,"pm2_5":23.8,"no2":2.0,"co":280.0,"o3":156.0,"so2":4.7,"mosquito_risk":3,"arthritis_risk":5,"migraine_risk":7,"frizz_risk":1,"updated_at":"2026-07-04T15:42:53.153605+05:30"},{"city":"Varanasi","state":"Uttar Pradesh","latitude":25.3176,"longitude":82.9739,"temp":36.3,"humidity":50,"rain":0.0,"pressure":984.7,"uv_index":8.65,"wind_gusts":31.0,"aqi":87,"pm10":13.2,"pm2_5":12.9,"no2":2.1,"co":278.0,"o3":125.0,"so2":4.5,"mosquito_risk":0,"arthritis_risk":5,"migraine_risk":10,"frizz_risk":1,"updated_at":"2026-07-04T15:42:53.153612+05:30"},{"city":"Prayagraj","state":"Uttar Pradesh","latitude":25.4358,"longitude":81.8463,"temp":35.8,"humidity":55,"rain":0.0,"pressure":983.4,"uv_index":8.15,"wind_gusts":31.7,"aqi":98,"pm10":15.5,"pm2_5":15.2,"no2":2.0,"co":291.0,"o3":144.0,"so2":5.1,"mosquito_risk":0,"arthritis_risk":5,"migraine_risk":10,"frizz_risk":1,"updated_at":"2026-07-04T15:42:53.153618+05:30"},{"city":"Gorakhpur","state":"Uttar Pradesh","latitude":26.7606,"longitude":83.3732,"temp":36.1,"humidity":55,"rain":0.0,"pressure":985.3,"uv_index":8.5,"wind_gusts":28.8,"aqi":106,"pm10":20.2,"pm2_5":19.8,"no2":1.8,"co":247.0,"o3":150.0,"so2":5.1,"mosquito_risk":0,"arthritis_risk":5,"migraine_risk":10,"frizz_risk":1,"updated_at":"2026-07-04T15:42:53.153624+05:30"},{"city":"Bareilly","state":"Uttar Pradesh","latitude":28.367,"longitude":79.4304,"temp":35.0,"humidity":56,"rain":0.0,"pressure":976.7,"uv_index":7.95,"wind_gusts":24.1,"aqi":130,"pm10":32.5,"pm2_5":28.3,"no2":3.3,"co":316.0,"o3":164.0,"so2":7.9,"mosquito_risk":0,"arthritis_risk":5,"migraine_risk":7,"frizz_risk":1,"updated_at":"2026-07-04T15:42:53.153633+05:30"},{"city":"Aligarh","state":"Uttar Pradesh","latitude":27.8974,"longitude":78.088,"temp":32.4,"humidity":72,"rain":0.1,"pressure":974.9,"uv_index":7.7,"wind_gusts":26.3,"aqi":116,"pm10":28.8,"pm2_5":26.4,"no2":2.4,"co":265.0,"o3":170.0,"so2":8.6,"mosquito_risk":6,"arthritis_risk":5,"migraine_risk":7,"frizz_risk":1,"updated_at":"2026-07-04T15:42:53.153639+05:30"},{"city":"Moradabad","state":"Uttar Pradesh","latitude":28.8386,"longitude":78.7733,"temp":33.0,"humidity":67,"rain":0.0,"pressure":973.8,"uv_index":7.6,"wind_gusts":24.1,"aqi":141,"pm10":28.9,"pm2_5":27.9,"no2":2.1,"co":307.0,"o3":195.0,"so2":12.2,"mosquito_risk":3,"arthritis_risk":5,"migraine_risk":7,"frizz_risk":1,"updated_at":"2026-07-04T15:42:53.153645+05:30"},{"city":"Saharanpur","state":"Uttar Pradesh","latitude":29.9637,"longitude":77.546,"temp":31.5,"humidity":72,"rain":0.0,"pressure":966.5,"uv_index":7.1,"wind_gusts":19.4,"aqi":142,"pm10":27.6,"pm2_5":27.4,"no2":1.8,"co":359.0,"o3":186.0,"so2":11.1,"mosquito_risk":3,"arthritis_risk":5,"migraine_risk":7,"frizz_risk":1,"updated_at":"2026-07-04T15:42:53.153651+05:30"},{"city":"Jhansi","state":"Uttar Pradesh","latitude":25.4484,"longitude":78.5685,"temp":35.4,"humidity":54,"rain":0.0,"pressure":966.4,"uv_index":7.45,"wind_gusts":29.5,"aqi":97,"pm10":22.9,"pm2_5":22.4,"no2":1.7,"co":234.0,"o3":158.0,"so2":8.9,"mosquito_risk":0,"arthritis_risk":5,"migraine_risk":10,"frizz_risk":1,"updated_at":"2026-07-04T15:42:56.407846+05:30"},{"city":"Surat","state":"Gujarat","latitude":21.1702,"longitude":72.8311,"temp":29.1,"humidity":78,"rain":0.1,"pressure":997.5,"uv_index":0.8,"wind_gusts":33.1,"aqi":63,"pm10":33.3,"pm2_5":26.5,"no2":32.2,"co":466.0,"o3":21.0,"so2":47.2,"mosquito_risk":10,"arthritis_risk":5,"migraine_risk":3,"frizz_risk":1,"updated_at":"2026-07-04T15:42:56.407883+05:30"},{"city":"Vadodara","state":"Gujarat","latitude":22.3072,"longitude":73.1812,"temp":28.2,"humidity":91,"rain":0.3,"pressure":994.7,"uv_index":1.05,"wind_gusts":28.4,"aqi":53,"pm10":48.0,"pm2_5":23.9,"no2":8.7,"co":251.0,"o3":69.0,"so2":10.1,"mosquito_risk":10,"arthritis_risk":5,"migraine_risk":3,"frizz_risk":1,"updated_at":"2026-07-04T15:42:56.407895+05:30"},{"city":"Rajkot","state":"Gujarat","latitude":22.3039,"longitude":70.8022,"temp":34.0,"humidity":56,"rain":0.0,"pressure":984.4,"uv_index":5.95,"wind_gusts":36.0,"aqi":56,"pm10":48.3,"pm2_5":21.2,"no2":1.3,"co":101.0,"o3":87.0,"so2":3.8,"mosquito_risk":0,"arthritis_risk":5,"migraine_risk":3,"frizz_risk":1,"updated_at":"2026-07-04T15:42:56.407904+05:30"},{"city":"Thane","state":"Maharashtra","latitude":19.2183,"longitude":72.9781,"temp":26.0,"humidity":96,"rain":0.7,"pressure":1000.2,"uv_index":0.4,"wind_gusts":39.2,"aqi":38,"pm10":9.1,"pm2_5":5.7,"no2":6.0,"co":200.0,"o3":52.0,"so2":2.8,"mosquito_risk":10,"arthritis_risk":5,"migraine_risk":0,"frizz_risk":1,"updated_at":"2026-07-04T15:42:56.407912+05:30"},{"city":"Nagpur","state":"Maharashtra","latitude":21.1458,"longitude":79.0882,"temp":27.9,"humidity":81,"rain":0.0,"pressure":962.9,"uv_index":8.05,"wind_gusts":31.0,"aqi":50,"pm10":17.2,"pm2_5":16.9,"no2":11.9,"co":281.0,"o3":124.0,"so2":32.1,"mosquito_risk":7,"arthritis_risk":5,"migraine_risk":7,"frizz_risk":1,"updated_at":"2026-07-04T15:42:56.407920+05:30"},{"city":"Nashik","state":"Maharashtra","latitude":19.9975,"longitude":73.7898,"temp":24.2,"humidity":93,"rain":0.1,"pressure":937.3,"uv_index":0.95,"wind_gusts":34.6,"aqi":25,"pm10":3.1,"pm2_5":2.2,"no2":6.3,"co":139.0,"o3":51.0,"so2":0.9,"mosquito_risk":6,"arthritis_risk":5,"migraine_risk":3,"frizz_risk":1,"updated_at":"2026-07-04T15:42:56.407927+05:30"},{"city":"Aurangabad","state":"Maharashtra","latitude":19.8762,"longitude":75.3433,"temp":24.9,"humidity":87,"rain":0.1,"pressure":935.7,"uv_index":1.2,"wind_gusts":38.5,"aqi":23,"pm10":2.6,"pm2_5":2.6,"no2":6.8,"co":178.0,"o3":57.0,"so2":2.9,"mosquito_risk":6,"arthritis_risk":5,"migraine_risk":3,"frizz_risk":1,"updated_at":"2026-07-04T15:42:56.407935+05:30"},{"city":"Solapur","state":"Maharashtra","latitude":17.6599,"longitude":75.9064,"temp":24.9,"humidity":90,"rain":0.2,"pressure":950.8,"uv_index":1.05,"wind_gusts":48.2,"aqi":24,"pm10":1.9,"pm2_5":1.7,"no2":2.6,"co":122.0,"o3":55.0,"so2":1.3,"mosquito_risk":6,"arthritis_risk":5,"migraine_risk":3,"frizz_risk":1,"updated_at":"2026-07-04T15:42:56.407942+05:30"},{"city":"Kolhapur","state":"Maharashtra","latitude":16.705,"longitude":74.2433,"temp":23.1,"humidity":96,"rain":0.4,"pressure":942.6,"uv_index":1.2,"wind_gusts":51.8,"aqi":21,"pm10":2.9,"pm2_5":2.2,"no2":4.1,"co":137.0,"o3":47.0,"so2":1.1,"mosquito_risk":6,"arthritis_risk":5,"migraine_risk":3,"frizz_risk":1,"updated_at":"2026-07-04T15:42:56.407949+05:30"},{"city":"Goa","state":"Goa","latitude":15.2993,"longitude":74.124,"temp":24.5,"humidity":97,"rain":0.5,"pressure":995.5,"uv_index":3.8,"wind_gusts":39.2,"aqi":50,"pm10":18.0,"pm2_5":9.2,"no2":1.8,"co":147.0,"o3":54.0,"so2":0.6,"mosquito_risk":6,"arthritis_risk":5,"migraine_risk":3,"frizz_risk":1,"updated_at":"2026-07-04T15:42:56.407957+05:30"},{"city":"Jodhpur","state":"Rajasthan","latitude":26.2389,"longitude":73.0243,"temp":33.5,"humidity":57,"rain":0.0,"pressure":972.5,"uv_index":8.35,"wind_gusts":27.4,"aqi":152,"pm10":224.4,"pm2_5":64.0,"no2":0.2,"co":160.0,"o3":116.0,"so2":3.5,"mosquito_risk":0,"arthritis_risk":5,"migraine_risk":7,"frizz_risk":1,"updated_at":"2026-07-04T15:42:56.407964+05:30"},{"city":"Udaipur","state":"Rajasthan","latitude":24.5854,"longitude":73.7125,"temp":29.8,"humidity":69,"rain":0.0,"pressure":936.5,"uv_index":5.9,"wind_gusts":34.2,"aqi":61,"pm10":106.6,"pm2_5":38.0,"no2":1.7,"co":167.0,"o3":95.0,"so2":5.2,"mosquito_risk":7,"arthritis_risk":5,"migraine_risk":3,"frizz_risk":1,"updated_at":"2026-07-04T15:42:56.407972+05:30"},{"city":"Kota","state":"Rajasthan","latitude":25.2138,"longitude":75.8648,"temp":34.6,"humidity":56,"rain":0.0,"pressure":967.6,"uv_index":7.3,"wind_gusts":30.6,"aqi":96,"pm10":49.5,"pm2_5":23.3,"no2":1.2,"co":172.0,"o3":129.0,"so2":4.6,"mosquito_risk":0,"arthritis_risk":5,"migraine_risk":7,"frizz_risk":1,"updated_at":"2026-07-04T15:42:56.407979+05:30"},{"city":"Bikaner","state":"Rajasthan","latitude":28.0229,"longitude":73.3119,"temp":37.8,"humidity":40,"rain":0.0,"pressure":971.2,"uv_index":7.4,"wind_gusts":25.9,"aqi":119,"pm10":59.3,"pm2_5":29.7,"no2":0.5,"co":242.0,"o3":143.0,"so2":4.0,"mosquito_risk":0,"arthritis_risk":5,"migraine_risk":10,"frizz_risk":1,"updated_at":"2026-07-04T15:42:56.407986+05:30"},{"city":"Ajmer","state":"Rajasthan","latitude":26.4499,"longitude":74.6399,"temp":33.5,"humidity":55,"rain":0.0,"pressure":945.1,"uv_index":7.5,"wind_gusts":33.5,"aqi":121,"pm10":83.6,"pm2_5":33.5,"no2":1.0,"co":207.0,"o3":128.0,"so2":2.8,"mosquito_risk":0,"arthritis_risk":5,"migraine_risk":7,"frizz_risk":1,"updated_at":"2026-07-04T15:42:56.407993+05:30"},{"city":"Gwalior","state":"Madhya Pradesh","latitude":26.2183,"longitude":78.1828,"temp":34.9,"humidity":58,"rain":0.0,"pressure":971.8,"uv_index":8.0,"wind_gusts":25.9,"aqi":88,"pm10":20.0,"pm2_5":19.4,"no2":0.9,"co":239.0,"o3":141.0,"so2":3.7,"mosquito_risk":0,"arthritis_risk":5,"migraine_risk":7,"frizz_risk":1,"updated_at":"2026-07-04T15:42:56.407999+05:30"},{"city":"Indore","state":"Madhya Pradesh","latitude":22.7196,"longitude":75.8577,"temp":28.9,"humidity":70,"rain":0.0,"pressure":937.6,"uv_index":7.9,"wind_gusts":31.3,"aqi":50,"pm10":35.2,"pm2_5":19.0,"no2":2.9,"co":350.0,"o3":109.0,"so2":4.4,"mosquito_risk":7,"arthritis_risk":5,"migraine_risk":7,"frizz_risk":1,"updated_at":"2026-07-04T15:42:56.408007+05:30"},{"city":"Bhopal","state":"Madhya Pradesh","latitude":23.2599,"longitude":77.4126,"temp":29.3,"humidity":75,"rain":0.0,"pressure":942.9,"uv_index":8.55,"wind_gusts":29.9,"aqi":66,"pm10":11.7,"pm2_5":11.5,"no2":1.9,"co":249.0,"o3":120.0,"so2":3.4,"mosquito_risk":7,"arthritis_risk":5,"migraine_risk":7,"frizz_risk":1,"updated_at":"2026-07-04T15:42:56.408014+05:30"},{"city":"Jabalpur","state":"Madhya Pradesh","latitude":23.1815,"longitude":79.9864,"temp":32.1,"humidity":66,"rain":0.0,"pressure":949.6,"uv_index":8.5,"wind_gusts":24.8,"aqi":105,"pm10":28.8,"pm2_5":28.5,"no2":2.6,"co":225.0,"o3":160.0,"so2":13.0,"mosquito_risk":3,"arthritis_risk":5,"migraine_risk":7,"frizz_risk":1,"updated_at":"2026-07-04T15:42:56.408020+05:30"},{"city":"Ujjain","state":"Madhya Pradesh","latitude":23.1765,"longitude":75.7885,"temp":28.1,"humidity":82,"rain":0.2,"pressure":943.4,"uv_index":7.4,"wind_gusts":30.6,"aqi":52,"pm10":48.9,"pm2_5":22.4,"no2":1.9,"co":228.0,"o3":100.0,"so2":3.1,"mosquito_risk":10,"arthritis_risk":5,"migraine_risk":7,"frizz_risk":1,"updated_at":"2026-07-04T15:42:56.408028+05:30"},{"city":"Visakhapatnam","state":"Andhra Pradesh","latitude":17.6868,"longitude":83.2185,"temp":26.4,"humidity":91,"rain":0.3,"pressure":991.6,"uv_index":3.65,"wind_gusts":61.9,"aqi":37,"pm10":8.7,"pm2_5":8.2,"no2":8.5,"co":246.0,"o3":76.0,"so2":17.3,"mosquito_risk":10,"arthritis_risk":5,"migraine_risk":3,"frizz_risk":1,"updated_at":"2026-07-04T15:42:56.408035+05:30"},{"city":"Vijayawada","state":"Andhra Pradesh","latitude":16.5062,"longitude":80.648,"temp":29.4,"humidity":74,"rain":0.1,"pressure":994.8,"uv_index":2.0,"wind_gusts":66.2,"aqi":36,"pm10":10.3,"pm2_5":6.8,"no2":3.1,"co":127.0,"o3":73.0,"so2":3.6,"mosquito_risk":10,"arthritis_risk":5,"migraine_risk":3,"frizz_risk":1,"updated_at":"2026-07-04T15:42:56.408041+05:30"},{"city":"Guntur","state":"Andhra Pradesh","latitude":16.3067,"longitude":80.4365,"temp":28.9,"humidity":73,"rain":0.0,"pressure":996.3,"uv_index":2.5,"wind_gusts":51.8,"aqi":31,"pm10":10.6,"pm2_5":6.8,"no2":2.8,"co":132.0,"o3":73.0,"so2":3.5,"mosquito_risk":7,"arthritis_risk":5,"migraine_risk":3,"frizz_risk":1,"updated_at":"2026-07-04T15:42:56.408048+05:30"},{"city":"Nellore","state":"Andhra Pradesh","latitude":14.4426,"longitude":79.9865,"temp":32.4,"humidity":55,"rain":0.0,"pressure":999.0,"uv_index":1.5,"wind_gusts":46.8,"aqi":32,"pm10":13.5,"pm2_5":6.9,"no2":2.9,"co":113.0,"o3":65.0,"so2":2.8,"mosquito_risk":0,"arthritis_risk":5,"migraine_risk":3,"frizz_risk":1,"updated_at":"2026-07-04T15:42:56.408056+05:30"},{"city":"Kurnool","state":"Andhra Pradesh","latitude":15.8281,"longitude":78.0373,"temp":29.5,"humidity":58,"rain":0.0,"pressure":971.0,"uv_index":1.3,"wind_gusts":62.3,"aqi":26,"pm10":4.9,"pm2_5":2.6,"no2":1.4,"co":116.0,"o3":69.0,"so2":1.3,"mosquito_risk":4,"arthritis_risk":5,"migraine_risk":3,"frizz_risk":1,"updated_at":"2026-07-04T15:42:56.408064+05:30"},{"city":"Kakinada","state":"Andhra Pradesh","latitude":16.9891,"longitude":82.2475,"temp":30.4,"humidity":67,"rain":0.0,"pressure":997.1,"uv_index":1.75,"wind_gusts":77.0,"aqi":36,"pm10":7.8,"pm2_5":6.5,"no2":3.1,"co":147.0,"o3":79.0,"so2":3.9,"mosquito_risk":3,"arthritis_risk":5,"migraine_risk":3,"frizz_risk":1,"updated_at":"2026-07-04T15:42:56.408072+05:30"},{"city":"Tirupati","state":"Andhra Pradesh","latitude":13.6288,"longitude":79.4192,"temp":33.2,"humidity":43,"rain":0.0,"pressure":985.1,"uv_index":2.5,"wind_gusts":50.0,"aqi":31,"pm10":18.1,"pm2_5":9.5,"no2":3.3,"co":121.0,"o3":65.0,"so2":1.4,"mosquito_risk":0,"arthritis_risk":5,"migraine_risk":3,"frizz_risk":1,"updated_at":"2026-07-04T15:42:56.408078+05:30"},{"city":"Warangal","state":"Telangana","latitude":17.9689,"longitude":79.5941,"temp":29.0,"humidity":66,"rain":0.0,"pressure":970.3,"uv_index":2.0,"wind_gusts":58.3,"aqi":24,"pm10":5.6,"pm2_5":5.4,"no2":4.3,"co":142.0,"o3":62.0,"so2":1.8,"mosquito_risk":7,"arthritis_risk":5,"migraine_risk":3,"frizz_risk":1,"updated_at":"2026-07-04T15:42:56.408085+05:30"},{"city":"Nizamabad","state":"Telangana","latitude":18.6725,"longitude":78.0941,"temp":28.9,"humidity":69,"rain":0.0,"pressure":956.4,"uv_index":1.9,"wind_gusts":54.0,"aqi":24,"pm10":4.5,"pm2_5":4.0,"no2":4.1,"co":149.0,"o3":62.0,"so2":4.0,"mosquito_risk":7,"arthritis_risk":5,"migraine_risk":3,"frizz_risk":1,"updated_at":"2026-07-04T15:42:56.408092+05:30"},{"city":"Mysore","state":"Karnataka","latitude":12.2958,"longitude":76.6396,"temp":25.4,"humidity":72,"rain":0.1,"pressure":926.4,"uv_index":7.7,"wind_gusts":63.7,"aqi":24,"pm10":4.4,"pm2_5":2.6,"no2":2.8,"co":120.0,"o3":59.0,"so2":1.2,"mosquito_risk":10,"arthritis_risk":5,"migraine_risk":7,"frizz_risk":1,"updated_at":"2026-07-04T15:42:56.408098+05:30"},{"city":"Mangalore","state":"Karnataka","latitude":12.9141,"longitude":74.856,"temp":27.6,"humidity":80,"rain":0.1,"pressure":1005.6,"uv_index":7.75,"wind_gusts":59.4,"aqi":36,"pm10":18.0,"pm2_5":9.7,"no2":1.5,"co":104.0,"o3":53.0,"so2":1.1,"mosquito_risk":10,"arthritis_risk":5,"migraine_risk":4,"frizz_risk":1,"updated_at":"2026-07-04T15:42:56.408105+05:30"},{"city":"Hubli-Dharwad","state":"Karnataka","latitude":15.3647,"longitude":75.124,"temp":23.2,"humidity":91,"rain":0.2,"pressure":936.9,"uv_index":1.85,"wind_gusts":54.4,"aqi":24,"pm10":2.6,"pm2_5":1.7,"no2":3.7,"co":119.0,"o3":52.0,"so2":0.8,"mosquito_risk":6,"arthritis_risk":5,"migraine_risk":3,"frizz_risk":1,"updated_at":"2026-07-04T15:42:56.408111+05:30"},{"city":"Belgaum","state":"Karnataka","latitude":15.8497,"longitude":74.4977,"temp":21.7,"humidity":95,"rain":0.3,"pressure":921.2,"uv_index":2.0,"wind_gusts":56.2,"aqi":22,"pm10":3.1,"pm2_5":2.1,"no2":2.9,"co":120.0,"o3":49.0,"so2":0.7,"mosquito_risk":6,"arthritis_risk":5,"migraine_risk":3,"frizz_risk":1,"updated_at":"2026-07-04T15:42:59.670834+05:30"},{"city":"Coimbatore","state":"Tamil Nadu","latitude":11.0168,"longitude":76.9558,"temp":26.7,"humidity":76,"rain":0.1,"pressure":960.0,"uv_index":5.5,"wind_gusts":59.8,"aqi":24,"pm10":7.7,"pm2_5":4.9,"no2":2.7,"co":148.0,"o3":61.0,"so2":1.6,"mosquito_risk":10,"arthritis_risk":5,"migraine_risk":3,"frizz_risk":1,"updated_at":"2026-07-04T15:42:59.670871+05:30"},{"city":"Madurai","state":"Tamil Nadu","latitude":9.9252,"longitude":78.1198,"temp":34.2,"humidity":43,"rain":0.1,"pressure":989.8,"uv_index":2.15,"wind_gusts":59.4,"aqi":30,"pm10":10.3,"pm2_5":5.2,"no2":2.9,"co":121.0,"o3":74.0,"so2":1.6,"mosquito_risk":3,"arthritis_risk":5,"migraine_risk":3,"frizz_risk":1,"updated_at":"2026-07-04T15:42:59.670883+05:30"},{"city":"Trichy","state":"Tamil Nadu","latitude":10.7905,"longitude":78.7047,"temp":34.1,"humidity":42,"rain":0.0,"pressure":996.3,"uv_index":5.25,"wind_gusts":63.0,"aqi":27,"pm10":14.5,"pm2_5":7.0,"no2":2.7,"co":109.0,"o3":65.0,"so2":1.4,"mosquito_risk":0,"arthritis_risk":5,"migraine_risk":3,"frizz_risk":1,"updated_at":"2026-07-04T15:42:59.670892+05:30"},{"city":"Salem","state":"Tamil Nadu","latitude":11.6643,"longitude":78.146,"temp":32.2,"humidity":51,"rain":0.0,"pressure":974.0,"uv_index":7.25,"wind_gusts":38.5,"aqi":33,"pm10":14.4,"pm2_5":7.8,"no2":2.9,"co":123.0,"o3":86.0,"so2":3.8,"mosquito_risk":0,"arthritis_risk":5,"migraine_risk":7,"frizz_risk":1,"updated_at":"2026-07-04T15:42:59.670900+05:30"},{"city":"Tirunelveli","state":"Tamil Nadu","latitude":8.7139,"longitude":77.7567,"temp":33.2,"humidity":48,"rain":0.1,"pressure":1001.5,"uv_index":3.25,"wind_gusts":56.2,"aqi":27,"pm10":10.7,"pm2_5":5.6,"no2":1.9,"co":105.0,"o3":60.0,"so2":0.9,"mosquito_risk":3,"arthritis_risk":5,"migraine_risk":0,"frizz_risk":1,"updated_at":"2026-07-04T15:42:59.670908+05:30"},{"city":"Vellore","state":"Tamil Nadu","latitude":12.9165,"longitude":79.1325,"temp":32.5,"humidity":46,"rain":0.0,"pressure":979.4,"uv_index":2.85,"wind_gusts":56.2,"aqi":27,"pm10":14.6,"pm2_5":8.0,"no2":3.4,"co":125.0,"o3":70.0,"so2":2.0,"mosquito_risk":0,"arthritis_risk":5,"migraine_risk":3,"frizz_risk":1,"updated_at":"2026-07-04T15:42:59.670915+05:30"},{"city":"Erode","state":"Tamil Nadu","latitude":11.341,"longitude":77.7172,"temp":30.7,"humidity":59,"rain":0.0,"pressure":986.0,"uv_index":6.6,"wind_gusts":60.1,"aqi":28,"pm10":11.5,"pm2_5":6.4,"no2":2.6,"co":149.0,"o3":78.0,"so2":1.5,"mosquito_risk":0,"arthritis_risk":5,"migraine_risk":7,"frizz_risk":1,"updated_at":"2026-07-04T15:42:59.670922+05:30"},{"city":"Kochi","state":"Kerala","latitude":9.9312,"longitude":76.2673,"temp":27.7,"humidity":82,"rain":0.0,"pressure":1009.2,"uv_index":6.65,"wind_gusts":45.7,"aqi":40,"pm10":19.4,"pm2_5":9.7,"no2":2.6,"co":132.0,"o3":58.0,"so2":2.0,"mosquito_risk":7,"arthritis_risk":0,"migraine_risk":4,"frizz_risk":1,"updated_at":"2026-07-04T15:42:59.670930+05:30"},{"city":"Thiruvananthapuram","state":"Kerala","latitude":8.5241,"longitude":76.9366,"temp":27.2,"humidity":83,"rain":0.0,"pressure":1008.5,"uv_index":7.85,"wind_gusts":52.9,"aqi":37,"pm10":17.0,"pm2_5":8.4,"no2":1.3,"co":106.0,"o3":58.0,"so2":0.8,"mosquito_risk":7,"arthritis_risk":0,"migraine_risk":4,"frizz_risk":1,"updated_at":"2026-07-04T15:42:59.670936+05:30"},{"city":"Kozhikode","state":"Kerala","latitude":11.2588,"longitude":75.7804,"temp":26.7,"humidity":86,"rain":0.1,"pressure":1008.1,"uv_index":4.55,"wind_gusts":36.4,"aqi":31,"pm10":22.0,"pm2_5":10.0,"no2":0.7,"co":116.0,"o3":56.0,"so2":0.7,"mosquito_risk":10,"arthritis_risk":0,"migraine_risk":0,"frizz_risk":1,"updated_at":"2026-07-04T15:42:59.670943+05:30"},{"city":"Thrissur","state":"Kerala","latitude":10.5276,"longitude":76.2144,"temp":27.7,"humidity":80,"rain":0.0,"pressure":1007.4,"uv_index":8.1,"wind_gusts":39.2,"aqi":36,"pm10":16.6,"pm2_5":8.2,"no2":1.8,"co":126.0,"o3":54.0,"so2":1.3,"mosquito_risk":7,"arthritis_risk":5,"migraine_risk":4,"frizz_risk":1,"updated_at":"2026-07-04T15:42:59.670950+05:30"},{"city":"Kannur","state":"Kerala","latitude":11.8745,"longitude":75.3704,"temp":26.5,"humidity":88,"rain":0.1,"pressure":1007.0,"uv_index":8.2,"wind_gusts":39.6,"aqi":33,"pm10":20.6,"pm2_5":10.1,"no2":1.7,"co":109.0,"o3":54.0,"so2":0.9,"mosquito_risk":10,"arthritis_risk":5,"migraine_risk":4,"frizz_risk":1,"updated_at":"2026-07-04T15:42:59.670957+05:30"},{"city":"Patna","state":"Bihar","latitude":25.5941,"longitude":85.1376,"temp":35.6,"humidity":57,"rain":0.0,"pressure":987.8,"uv_index":8.5,"wind_gusts":37.8,"aqi":98,"pm10":16.4,"pm2_5":16.1,"no2":2.4,"co":236.0,"o3":160.0,"so2":7.3,"mosquito_risk":0,"arthritis_risk":5,"migraine_risk":10,"frizz_risk":1,"updated_at":"2026-07-04T15:42:59.670964+05:30"},{"city":"Gaya","state":"Bihar","latitude":24.7914,"longitude":85.0002,"temp":34.9,"humidity":57,"rain":0.0,"pressure":981.0,"uv_index":8.5,"wind_gusts":38.5,"aqi":60,"pm10":8.4,"pm2_5":7.9,"no2":1.8,"co":188.0,"o3":111.0,"so2":3.3,"mosquito_risk":0,"arthritis_risk":5,"migraine_risk":7,"frizz_risk":1,"updated_at":"2026-07-04T15:42:59.670970+05:30"},{"city":"Muzaffarpur","state":"Bihar","latitude":26.1209,"longitude":85.3647,"temp":35.2,"humidity":59,"rain":0.0,"pressure":988.0,"uv_index":8.1,"wind_gusts":31.7,"aqi":111,"pm10":16.3,"pm2_5":16.1,"no2":3.5,"co":231.0,"o3":159.0,"so2":6.0,"mosquito_risk":0,"arthritis_risk":5,"migraine_risk":10,"frizz_risk":1,"updated_at":"2026-07-04T15:42:59.670977+05:30"},{"city":"Bhagalpur","state":"Bihar","latitude":25.2425,"longitude":87.0117,"temp":35.0,"humidity":56,"rain":0.0,"pressure":988.5,"uv_index":7.6,"wind_gusts":38.9,"aqi":62,"pm10":11.0,"pm2_5":10.6,"no2":3.9,"co":162.0,"o3":131.0,"so2":8.5,"mosquito_risk":0,"arthritis_risk":5,"migraine_risk":7,"frizz_risk":1,"updated_at":"2026-07-04T15:42:59.670983+05:30"},{"city":"Ranchi","state":"Jharkhand","latitude":23.3441,"longitude":85.3096,"temp":27.5,"humidity":79,"rain":0.1,"pressure":926.5,"uv_index":7.15,"wind_gusts":55.1,"aqi":68,"pm10":13.4,"pm2_5":13.1,"no2":5.6,"co":230.0,"o3":103.0,"so2":18.0,"mosquito_risk":10,"arthritis_risk":5,"migraine_risk":7,"frizz_risk":1,"updated_at":"2026-07-04T15:42:59.670989+05:30"},{"city":"Jamshedpur","state":"Jharkhand","latitude":22.8046,"longitude":86.2029,"temp":29.6,"humidity":79,"rain":0.0,"pressure":977.8,"uv_index":7.1,"wind_gusts":44.3,"aqi":60,"pm10":10.6,"pm2_5":10.4,"no2":4.9,"co":222.0,"o3":96.0,"so2":7.6,"mosquito_risk":7,"arthritis_risk":5,"migraine_risk":7,"frizz_risk":1,"updated_at":"2026-07-04T15:42:59.670996+05:30"},{"city":"Dhanbad","state":"Jharkhand","latitude":23.7957,"longitude":86.4304,"temp":30.0,"humidity":74,"rain":0.0,"pressure":967.4,"uv_index":6.2,"wind_gusts":53.6,"aqi":85,"pm10":16.6,"pm2_5":16.4,"no2":12.6,"co":205.0,"o3":96.0,"so2":34.6,"mosquito_risk":7,"arthritis_risk":5,"migraine_risk":7,"frizz_risk":1,"updated_at":"2026-07-04T15:42:59.671002+05:30"},{"city":"Bokaro","state":"Jharkhand","latitude":23.6693,"longitude":86.1511,"temp":28.1,"humidity":85,"rain":0.0,"pressure":971.6,"uv_index":5.1,"wind_gusts":51.1,"aqi":90,"pm10":18.2,"pm2_5":17.8,"no2":12.6,"co":202.0,"o3":91.0,"so2":36.6,"mosquito_risk":7,"arthritis_risk":5,"migraine_risk":3,"frizz_risk":1,"updated_at":"2026-07-04T15:42:59.671009+05:30"},{"city":"Bhubaneswar","state":"Odisha","latitude":20.2961,"longitude":85.8245,"temp":27.4,"humidity":92,"rain":0.1,"pressure":986.7,"uv_index":2.95,"wind_gusts":35.3,"aqi":78,"pm10":8.4,"pm2_5":8.1,"no2":4.7,"co":242.0,"o3":90.0,"so2":3.6,"mosquito_risk":10,"arthritis_risk":5,"migraine_risk":3,"frizz_risk":1,"updated_at":"2026-07-04T15:42:59.671015+05:30"},{"city":"Cuttack","state":"Odisha","latitude":20.4625,"longitude":85.8828,"temp":27.8,"humidity":92,"rain":0.1,"pressure":988.5,"uv_index":2.3,"wind_gusts":43.6,"aqi":78,"pm10":8.4,"pm2_5":8.1,"no2":4.7,"co":213.0,"o3":90.0,"so2":3.6,"mosquito_risk":10,"arthritis_risk":5,"migraine_risk":3,"frizz_risk":1,"updated_at":"2026-07-04T15:42:59.671022+05:30"},{"city":"Rourkela","state":"Odisha","latitude":22.2604,"longitude":84.8536,"temp":30.3,"humidity":72,"rain":0.1,"pressure":971.1,"uv_index":6.7,"wind_gusts":51.8,"aqi":65,"pm10":10.9,"pm2_5":10.7,"no2":3.4,"co":205.0,"o3":103.0,"so2":9.3,"mosquito_risk":6,"arthritis_risk":5,"migraine_risk":7,"frizz_risk":1,"updated_at":"2026-07-04T15:42:59.671029+05:30"},{"city":"Raipur","state":"Chhattisgarh","latitude":21.2514,"longitude":81.6296,"temp":30.5,"humidity":73,"rain":0.0,"pressure":962.4,"uv_index":6.7,"wind_gusts":33.1,"aqi":72,"pm10":30.0,"pm2_5":29.7,"no2":13.7,"co":217.0,"o3":120.0,"so2":37.1,"mosquito_risk":3,"arthritis_risk":5,"migraine_risk":7,"frizz_risk":1,"updated_at":"2026-07-04T15:42:59.671036+05:30"},{"city":"Bhilai","state":"Chhattisgarh","latitude":21.1938,"longitude":81.3509,"temp":29.9,"humidity":77,"rain":0.0,"pressure":963.0,"uv_index":6.65,"wind_gusts":30.6,"aqi":68,"pm10":37.3,"pm2_5":37.0,"no2":22.4,"co":652.0,"o3":121.0,"so2":62.0,"mosquito_risk":7,"arthritis_risk":5,"migraine_risk":7,"frizz_risk":1,"updated_at":"2026-07-04T15:42:59.671043+05:30"},{"city":"Guwahati","state":"Assam","latitude":26.1158,"longitude":91.7086,"temp":34.4,"humidity":63,"rain":0.0,"pressure":989.1,"uv_index":8.7,"wind_gusts":33.1,"aqi":46,"pm10":7.3,"pm2_5":7.2,"no2":1.8,"co":212.0,"o3":100.0,"so2":1.2,"mosquito_risk":3,"arthritis_risk":5,"migraine_risk":7,"frizz_risk":1,"updated_at":"2026-07-04T15:42:59.671048+05:30"},{"city":"Agartala","state":"Tripura","latitude":23.8315,"longitude":91.2868,"temp":32.4,"humidity":71,"rain":0.0,"pressure":994.0,"uv_index":8.55,"wind_gusts":27.7,"aqi":58,"pm10":6.9,"pm2_5":6.8,"no2":4.7,"co":140.0,"o3":105.0,"so2":0.9,"mosquito_risk":3,"arthritis_risk":5,"migraine_risk":7,"frizz_risk":1,"updated_at":"2026-07-04T15:42:59.671055+05:30"},{"city":"Shillong","state":"Meghalaya","latitude":25.5788,"longitude":91.8933,"temp":23.0,"humidity":92,"rain":0.0,"pressure":850.9,"uv_index":8.3,"wind_gusts":34.9,"aqi":37,"pm10":4.7,"pm2_5":4.6,"no2":1.9,"co":170.0,"o3":78.0,"so2":1.0,"mosquito_risk":3,"arthritis_risk":5,"migraine_risk":7,"frizz_risk":1,"updated_at":"2026-07-04T15:42:59.671061+05:30"},{"city":"Imphal","state":"Manipur","latitude":24.817,"longitude":93.9368,"temp":28.5,"humidity":67,"rain":0.0,"pressure":915.6,"uv_index":6.95,"wind_gusts":32.4,"aqi":32,"pm10":2.5,"pm2_5":2.5,"no2":1.3,"co":169.0,"o3":69.0,"so2":0.8,"mosquito_risk":7,"arthritis_risk":5,"migraine_risk":7,"frizz_risk":1,"updated_at":"2026-07-04T15:42:59.671067+05:30"},{"city":"Aizawl","state":"Mizoram","latitude":23.7271,"longitude":92.7176,"temp":24.3,"humidity":85,"rain":0.0,"pressure":884.0,"uv_index":8.15,"wind_gusts":24.8,"aqi":33,"pm10":4.8,"pm2_5":4.7,"no2":2.6,"co":147.0,"o3":53.0,"so2":0.4,"mosquito_risk":3,"arthritis_risk":5,"migraine_risk":7,"frizz_risk":1,"updated_at":"2026-07-04T15:42:59.671073+05:30"},{"city":"Kohima","state":"Nagaland","latitude":25.6701,"longitude":94.1077,"temp":26.2,"humidity":71,"rain":0.1,"pressure":849.9,"uv_index":9.1,"wind_gusts":29.2,"aqi":36,"pm10":3.7,"pm2_5":3.6,"no2":1.5,"co":150.0,"o3":77.0,"so2":0.4,"mosquito_risk":10,"arthritis_risk":5,"migraine_risk":7,"frizz_risk":1,"updated_at":"2026-07-04T15:42:59.671079+05:30"},{"city":"Gangtok","state":"Sikkim","latitude":27.3314,"longitude":88.6138,"temp":23.6,"humidity":79,"rain":0.1,"pressure":833.0,"uv_index":8.85,"wind_gusts":32.4,"aqi":60,"pm10":6.8,"pm2_5":6.4,"no2":2.8,"co":215.0,"o3":108.0,"so2":0.5,"mosquito_risk":6,"arthritis_risk":5,"migraine_risk":7,"frizz_risk":1,"updated_at":"2026-07-04T15:42:59.671086+05:30"},{"city":"Siliguri","state":"West Bengal","latitude":26.7271,"longitude":88.3953,"temp":33.9,"humidity":62,"rain":0.0,"pressure":981.6,"uv_index":8.7,"wind_gusts":24.5,"aqi":84,"pm10":13.9,"pm2_5":13.5,"no2":2.5,"co":339.0,"o3":125.0,"so2":1.9,"mosquito_risk":3,"arthritis_risk":5,"migraine_risk":7,"frizz_risk":1,"updated_at":"2026-07-04T15:43:02.961334+05:30"},{"city":"Durgapur","state":"West Bengal","latitude":23.5204,"longitude":87.3119,"temp":31.8,"humidity":72,"rain":0.0,"pressure":981.9,"uv_index":6.95,"wind_gusts":52.6,"aqi":67,"pm10":13.2,"pm2_5":13.1,"no2":9.1,"co":237.0,"o3":102.0,"so2":17.5,"mosquito_risk":3,"arthritis_risk":5,"migraine_risk":7,"frizz_risk":1,"updated_at":"2026-07-04T15:43:02.961372+05:30"},{"city":"Asansol","state":"West Bengal","latitude":23.6739,"longitude":86.9524,"temp":31.3,"humidity":74,"rain":0.0,"pressure":980.7,"uv_index":7.25,"wind_gusts":52.9,"aqi":66,"pm10":10.6,"pm2_5":10.4,"no2":9.0,"co":224.0,"o3":104.0,"so2":17.8,"mosquito_risk":3,"arthritis_risk":5,"migraine_risk":7,"frizz_risk":1,"updated_at":"2026-07-04T15:43:02.961401+05:30"},{"city":"Pondicherry","state":"Puducherry","latitude":11.9139,"longitude":79.8145,"temp":29.9,"humidity":65,"rain":0.0,"pressure":1004.4,"uv_index":6.25,"wind_gusts":36.0,"aqi":44,"pm10":14.0,"pm2_5":10.2,"no2":7.4,"co":174.0,"o3":85.0,"so2":10.4,"mosquito_risk":7,"arthritis_risk":5,"migraine_risk":4,"frizz_risk":1,"updated_at":"2026-07-04T15:43:02.961411+05:30"},{"city":"Port Blair","state":"Andaman and Nicobar Islands","latitude":11.6234,"longitude":92.7265,"temp":28.9,"humidity":81,"rain":0.1,"pressure":1003.7,"uv_index":4.8,"wind_gusts":58.7,"aqi":51,"pm10":26.1,"pm2_5":14.1,"no2":0.4,"co":98.0,"o3":51.0,"so2":0.5,"mosquito_risk":10,"arthritis_risk":5,"migraine_risk":0,"frizz_risk":1,"updated_at":"2026-07-04T15:43:02.961420+05:30"},{"city":"Haridwar","state":"Uttarakhand","latitude":29.9457,"longitude":78.1642,"temp":31.7,"humidity":71,"rain":0.0,"pressure":964.7,"uv_index":6.55,"wind_gusts":18.7,"aqi":120,"pm10":19.8,"pm2_5":19.7,"no2":1.1,"co":315.0,"o3":161.0,"so2":6.6,"mosquito_risk":3,"arthritis_risk":5,"migraine_risk":7,"frizz_risk":1,"updated_at":"2026-07-04T15:43:02.961427+05:30"},{"city":"Rishikesh","state":"Uttarakhand","latitude":30.0869,"longitude":78.2676,"temp":31.1,"humidity":71,"rain":0.0,"pressure":957.6,"uv_index":6.7,"wind_gusts":24.8,"aqi":95,"pm10":16.1,"pm2_5":15.9,"no2":0.8,"co":300.0,"o3":148.0,"so2":5.9,"mosquito_risk":3,"arthritis_risk":5,"migraine_risk":7,"frizz_risk":1,"updated_at":"2026-07-04T15:43:02.961435+05:30"},{"city":"Nainital","state":"Uttarakhand","latitude":29.3919,"longitude":79.4542,"temp":23.5,"humidity":71,"rain":0.0,"pressure":802.8,"uv_index":6.65,"wind_gusts":25.2,"aqi":77,"pm10":14.2,"pm2_5":13.9,"no2":1.2,"co":243.0,"o3":135.0,"so2":2.7,"mosquito_risk":3,"arthritis_risk":5,"migraine_risk":7,"frizz_risk":1,"updated_at":"2026-07-04T15:43:02.961442+05:30"},{"city":"Mussoorie","state":"Uttarakhand","latitude":30.4599,"longitude":78.0664,"temp":23.7,"humidity":66,"rain":0.0,"pressure":800.3,"uv_index":6.25,"wind_gusts":31.0,"aqi":108,"pm10":14.8,"pm2_5":14.6,"no2":1.2,"co":265.0,"o3":151.0,"so2":5.5,"mosquito_risk":3,"arthritis_risk":5,"migraine_risk":7,"frizz_risk":1,"updated_at":"2026-07-04T15:43:02.961450+05:30"},{"city":"Dharamshala","state":"Himachal Pradesh","latitude":32.219,"longitude":76.3234,"temp":25.8,"humidity":78,"rain":0.0,"pressure":864.3,"uv_index":8.4,"wind_gusts":31.0,"aqi":75,"pm10":7.3,"pm2_5":6.9,"no2":1.2,"co":295.0,"o3":135.0,"so2":0.7,"mosquito_risk":7,"arthritis_risk":5,"migraine_risk":7,"frizz_risk":1,"updated_at":"2026-07-04T15:43:02.961457+05:30"},{"city":"Dalhousie","state":"Himachal Pradesh","latitude":32.5387,"longitude":75.971,"temp":22.2,"humidity":84,"rain":0.1,"pressure":801.9,"uv_index":8.45,"wind_gusts":23.8,"aqi":132,"pm10":18.4,"pm2_5":16.5,"no2":1.2,"co":297.0,"o3":180.0,"so2":2.7,"mosquito_risk":6,"arthritis_risk":5,"migraine_risk":7,"frizz_risk":1,"updated_at":"2026-07-04T15:43:02.961465+05:30"},{"city":"Patiala","state":"Punjab","latitude":30.3398,"longitude":76.3869,"temp":32.3,"humidity":70,"rain":0.0,"pressure":969.0,"uv_index":7.15,"wind_gusts":28.4,"aqi":143,"pm10":42.4,"pm2_5":37.0,"no2":2.8,"co":389.0,"o3":193.0,"so2":10.4,"mosquito_risk":3,"arthritis_risk":5,"migraine_risk":7,"frizz_risk":1,"updated_at":"2026-07-04T15:43:02.961473+05:30"},{"city":"Bhatinda","state":"Punjab","latitude":30.211,"longitude":74.9455,"temp":34.6,"humidity":59,"rain":0.0,"pressure":974.1,"uv_index":8.05,"wind_gusts":25.9,"aqi":173,"pm10":91.5,"pm2_5":53.0,"no2":3.3,"co":321.0,"o3":237.0,"so2":23.2,"mosquito_risk":0,"arthritis_risk":5,"migraine_risk":7,"frizz_risk":1,"updated_at":"2026-07-04T15:43:02.961479+05:30"},{"city":"Rohtak","state":"Haryana","latitude":28.8955,"longitude":76.6066,"temp":31.6,"humidity":72,"rain":0.0,"pressure":972.0,"uv_index":6.75,"wind_gusts":28.4,"aqi":154,"pm10":81.7,"pm2_5":43.0,"no2":3.7,"co":392.0,"o3":229.0,"so2":18.4,"mosquito_risk":3,"arthritis_risk":5,"migraine_risk":7,"frizz_risk":1,"updated_at":"2026-07-04T15:43:02.961486+05:30"},{"city":"Panipat","state":"Haryana","latitude":29.3909,"longitude":76.9635,"temp":31.8,"humidity":72,"rain":0.0,"pressure":970.8,"uv_index":6.5,"wind_gusts":22.3,"aqi":155,"pm10":112.5,"pm2_5":47.4,"no2":4.6,"co":370.0,"o3":225.0,"so2":24.6,"mosquito_risk":3,"arthritis_risk":5,"migraine_risk":7,"frizz_risk":1,"updated_at":"2026-07-04T15:43:02.961493+05:30"},{"city":"Mathura","state":"Uttar Pradesh","latitude":27.4924,"longitude":77.6737,"temp":35.5,"humidity":56,"rain":0.0,"pressure":976.0,"uv_index":6.7,"wind_gusts":23.0,"aqi":108,"pm10":106.9,"pm2_5":31.4,"no2":2.2,"co":263.0,"o3":163.0,"so2":3.8,"mosquito_risk":0,"arthritis_risk":5,"migraine_risk":10,"frizz_risk":1,"updated_at":"2026-07-04T15:43:02.961499+05:30"},{"city":"Vrindavan","state":"Uttar Pradesh","latitude":27.5823,"longitude":77.7027,"temp":35.6,"humidity":56,"rain":0.0,"pressure":976.3,"uv_index":7.7,"wind_gusts":25.6,"aqi":108,"pm10":106.9,"pm2_5":31.4,"no2":2.2,"co":265.0,"o3":163.0,"so2":3.8,"mosquito_risk":0,"arthritis_risk":5,"migraine_risk":10,"frizz_risk":1,"updated_at":"2026-07-04T15:43:02.961507+05:30"},{"city":"Ayodhya","state":"Uttar Pradesh","latitude":26.7922,"longitude":82.1998,"temp":35.1,"humidity":61,"rain":0.1,"pressure":983.7,"uv_index":7.45,"wind_gusts":25.6,"aqi":98,"pm10":20.4,"pm2_5":19.7,"no2":2.1,"co":253.0,"o3":137.0,"so2":4.9,"mosquito_risk":6,"arthritis_risk":5,"migraine_risk":10,"frizz_risk":1,"updated_at":"2026-07-04T15:43:02.961514+05:30"},{"city":"Ratlam","state":"Madhya Pradesh","latitude":23.3315,"longitude":75.0367,"temp":27.6,"humidity":78,"rain":0.2,"pressure":945.0,"uv_index":6.1,"wind_gusts":30.6,"aqi":45,"pm10":46.0,"pm2_5":19.9,"no2":1.7,"co":169.0,"o3":93.0,"so2":3.1,"mosquito_risk":10,"arthritis_risk":5,"migraine_risk":7,"frizz_risk":1,"updated_at":"2026-07-04T15:43:02.961521+05:30"},{"city":"Sagar","state":"Madhya Pradesh","latitude":23.8388,"longitude":78.7378,"temp":32.4,"humidity":58,"rain":0.0,"pressure":938.8,"uv_index":8.0,"wind_gusts":25.2,"aqi":82,"pm10":23.3,"pm2_5":22.9,"no2":1.0,"co":237.0,"o3":148.0,"so2":9.9,"mosquito_risk":0,"arthritis_risk":5,"migraine_risk":7,"frizz_risk":1,"updated_at":"2026-07-04T15:43:02.961527+05:30"},{"city":"Satna","state":"Madhya Pradesh","latitude":24.6005,"longitude":80.8322,"temp":34.3,"humidity":58,"rain":0.0,"pressure":959.4,"uv_index":7.0,"wind_gusts":43.6,"aqi":93,"pm10":13.3,"pm2_5":13.0,"no2":1.0,"co":213.0,"o3":131.0,"so2":4.8,"mosquito_risk":0,"arthritis_risk":5,"migraine_risk":7,"frizz_risk":1,"updated_at":"2026-07-04T15:43:02.961534+05:30"},{"city":"Akola","state":"Maharashtra","latitude":20.7002,"longitude":77.0082,"temp":28.5,"humidity":75,"rain":0.0,"pressure":965.5,"uv_index":5.2,"wind_gusts":40.7,"aqi":25,"pm10":2.4,"pm2_5":2.4,"no2":4.6,"co":147.0,"o3":73.0,"so2":6.4,"mosquito_risk":7,"arthritis_risk":5,"migraine_risk":3,"frizz_risk":1,"updated_at":"2026-07-04T15:43:02.961541+05:30"},{"city":"Amravati","state":"Maharashtra","latitude":20.9374,"longitude":77.7796,"temp":27.4,"humidity":83,"rain":0.0,"pressure":957.4,"uv_index":7.1,"wind_gusts":47.2,"aqi":26,"pm10":2.8,"pm2_5":2.7,"no2":4.9,"co":177.0,"o3":74.0,"so2":7.0,"mosquito_risk":7,"arthritis_risk":5,"migraine_risk":7,"frizz_risk":1,"updated_at":"2026-07-04T15:43:02.961549+05:30"},{"city":"Latur","state":"Maharashtra","latitude":18.4088,"longitude":76.5604,"temp":24.6,"humidity":87,"rain":0.2,"pressure":932.3,"uv_index":2.3,"wind_gusts":47.5,"aqi":24,"pm10":2.0,"pm2_5":2.0,"no2":3.0,"co":132.0,"o3":54.0,"so2":0.9,"mosquito_risk":6,"arthritis_risk":5,"migraine_risk":3,"frizz_risk":1,"updated_at":"2026-07-04T15:43:02.961557+05:30"},{"city":"Nanded","state":"Maharashtra","latitude":19.1383,"longitude":77.3091,"temp":27.1,"humidity":80,"rain":0.1,"pressure":960.1,"uv_index":1.5,"wind_gusts":42.8,"aqi":24,"pm10":3.5,"pm2_5":3.4,"no2":3.9,"co":145.0,"o3":62.0,"so2":2.9,"mosquito_risk":10,"arthritis_risk":5,"migraine_risk":3,"frizz_risk":1,"updated_at":"2026-07-04T15:43:02.961564+05:30"},{"city":"Gulbarga","state":"Karnataka","latitude":17.3297,"longitude":76.8343,"temp":25.4,"humidity":86,"rain":0.2,"pressure":952.2,"uv_index":1.45,"wind_gusts":54.0,"aqi":26,"pm10":2.9,"pm2_5":1.9,"no2":2.5,"co":141.0,"o3":65.0,"so2":1.7,"mosquito_risk":10,"arthritis_risk":5,"migraine_risk":3,"frizz_risk":1,"updated_at":"2026-07-04T15:43:02.961571+05:30"},{"city":"Bidar","state":"Karnataka","latitude":17.9104,"longitude":77.5199,"temp":23.9,"humidity":91,"rain":0.2,"pressure":928.3,"uv_index":1.15,"wind_gusts":55.1,"aqi":26,"pm10":2.7,"pm2_5":2.5,"no2":4.1,"co":133.0,"o3":56.0,"so2":1.1,"mosquito_risk":6,"arthritis_risk":5,"migraine_risk":3,"frizz_risk":1,"updated_at":"2026-07-04T15:43:02.961578+05:30"},{"city":"Hospet","state":"Karnataka","latitude":15.2689,"longitude":76.3909,"temp":26.4,"humidity":73,"rain":0.1,"pressure":951.5,"uv_index":1.5,"wind_gusts":65.2,"aqi":24,"pm10":2.9,"pm2_5":2.1,"no2":3.1,"co":104.0,"o3":56.0,"so2":1.3,"mosquito_risk":10,"arthritis_risk":5,"migraine_risk":3,"frizz_risk":1,"updated_at":"2026-07-04T15:43:02.961584+05:30"},{"city":"Tirupur","state":"Tamil Nadu","latitude":11.1085,"longitude":77.3411,"temp":30.0,"humidity":60,"rain":0.0,"pressure":972.5,"uv_index":7.75,"wind_gusts":65.9,"aqi":27,"pm10":10.6,"pm2_5":6.4,"no2":2.7,"co":132.0,"o3":77.0,"so2":2.0,"mosquito_risk":4,"arthritis_risk":5,"migraine_risk":7,"frizz_risk":1,"updated_at":"2026-07-04T15:43:02.961590+05:30"},{"city":"Alappuzha","state":"Kerala","latitude":9.4981,"longitude":76.3388,"temp":27.9,"humidity":82,"rain":0.0,"pressure":1009.1,"uv_index":6.8,"wind_gusts":47.2,"aqi":38,"pm10":21.0,"pm2_5":10.5,"no2":2.7,"co":88.0,"o3":58.0,"so2":1.7,"mosquito_risk":7,"arthritis_risk":0,"migraine_risk":4,"frizz_risk":1,"updated_at":"2026-07-04T15:43:02.961596+05:30"},{"city":"Munnar","state":"Kerala","latitude":10.0889,"longitude":77.0595,"temp":17.2,"humidity":97,"rain":0.5,"pressure":855.6,"uv_index":4.85,"wind_gusts":63.7,"aqi":22,"pm10":6.0,"pm2_5":3.4,"no2":2.0,"co":106.0,"o3":63.0,"so2":1.1,"mosquito_risk":6,"arthritis_risk":10,"migraine_risk":3,"frizz_risk":1,"updated_at":"2026-07-04T15:43:02.961603+05:30"},{"city":"Silchar","state":"Assam","latitude":24.8333,"longitude":92.7789,"temp":36.1,"humidity":54,"rain":0.0,"pressure":991.7,"uv_index":8.8,"wind_gusts":28.1,"aqi":54,"pm10":3.8,"pm2_5":3.8,"no2":1.5,"co":179.0,"o3":70.0,"so2":1.1,"mosquito_risk":0,"arthritis_risk":5,"migraine_risk":10,"frizz_risk":1,"updated_at":"2026-07-04T15:43:02.961610+05:30"},{"city":"Dibrugarh","state":"Assam","latitude":27.4728,"longitude":94.912,"temp":35.4,"humidity":56,"rain":0.0,"pressure":983.6,"uv_index":8.9,"wind_gusts":26.3,"aqi":62,"pm10":7.1,"pm2_5":7.0,"no2":1.8,"co":185.0,"o3":104.0,"so2":1.1,"mosquito_risk":0,"arthritis_risk":5,"migraine_risk":10,"frizz_risk":1,"updated_at":"2026-07-04T15:43:02.961617+05:30"}]