[{"city":"Delhi","state":"Delhi","latitude":28.6139,"longitude":77.209,"temp":32.7,"humidity":26,"rain":0.0,"pressure":979.7,"uv_index":7.3,"wind_gusts":28.8,"aqi":185,"pm10":560.7,"pm2_5":91.3,"mosquito_risk":0,"arthritis_risk":5,"migraine_risk":7,"frizz_risk":0,"updated_at":"2026-04-15T20:38:01.375627+05:30"},{"city":"Mumbai","state":"Maharashtra","latitude":19.076,"longitude":72.8777,"temp":29.7,"humidity":71,"rain":0.0,"pressure":1006.9,"uv_index":8.0,"wind_gusts":19.1,"aqi":102,"pm10":30.9,"pm2_5":21.0,"mosquito_risk":7,"arthritis_risk":5,"migraine_risk":4,"frizz_risk":1,"updated_at":"2026-04-15T20:38:01.375667+05:30"},{"city":"Bangalore","state":"Karnataka","latitude":12.9716,"longitude":77.5946,"temp":30.9,"humidity":31,"rain":0.0,"pressure":911.3,"uv_index":9.6,"wind_gusts":28.1,"aqi":149,"pm10":34.9,"pm2_5":30.4,"mosquito_risk":0,"arthritis_risk":5,"migraine_risk":7,"frizz_risk":0,"updated_at":"2026-04-15T20:38:01.375684+05:30"},{"city":"Hyderabad","state":"Telangana","latitude":17.385,"longitude":78.4867,"temp":34.4,"humidity":32,"rain":0.0,"pressure":951.3,"uv_index":9.2,"wind_gusts":31.3,"aqi":144,"pm10":65.9,"pm2_5":58.9,"mosquito_risk":0,"arthritis_risk":5,"migraine_risk":7,"frizz_risk":0,"updated_at":"2026-04-15T20:38:01.375694+05:30"},{"city":"Chennai","state":"Tamil Nadu","latitude":13.0827,"longitude":80.2707,"temp":29.2,"humidity":81,"rain":0.0,"pressure":1006.3,"uv_index":9.35,"wind_gusts":32.8,"aqi":40,"pm10":11.6,"pm2_5":8.4,"mosquito_risk":7,"arthritis_risk":5,"migraine_risk":4,"frizz_risk":1,"updated_at":"2026-04-15T20:38:01.375703+05:30"},{"city":"Kolkata","state":"West Bengal","latitude":22.5726,"longitude":88.3639,"temp":28.5,"humidity":84,"rain":0.0,"pressure":1004.0,"uv_index":8.85,"wind_gusts":27.7,"aqi":87,"pm10":27.2,"pm2_5":22.2,"mosquito_risk":7,"arthritis_risk":5,"migraine_risk":4,"frizz_risk":1,"updated_at":"2026-04-15T20:38:01.375712+05:30"},{"city":"Pune","state":"Maharashtra","latitude":18.5204,"longitude":73.8567,"temp":29.4,"humidity":30,"rain":0.0,"pressure":947.5,"uv_index":8.6,"wind_gusts":44.6,"aqi":153,"pm10":27.5,"pm2_5":21.1,"mosquito_risk":4,"arthritis_risk":5,"migraine_risk":7,"frizz_risk":0,"updated_at":"2026-04-15T20:38:01.375723+05:30"},{"city":"Ahmedabad","state":"Gujarat","latitude":23.0225,"longitude":72.5714,"temp":34.7,"humidity":34,"rain":0.0,"pressure":998.8,"uv_index":8.15,"wind_gusts":21.2,"aqi":86,"pm10":125.3,"pm2_5":48.5,"mosquito_risk":0,"arthritis_risk":5,"migraine_risk":7,"frizz_risk":1,"updated_at":"2026-04-15T20:38:01.375731+05:30"},{"city":"Jaipur","state":"Rajasthan","latitude":26.9124,"longitude":75.7873,"temp":32.9,"humidity":15,"rain":0.0,"pressure":957.3,"uv_index":7.95,"wind_gusts":32.4,"aqi":184,"pm10":228.2,"pm2_5":39.3,"mosquito_risk":0,"arthritis_risk":5,"migraine_risk":7,"frizz_risk":0,"updated_at":"2026-04-15T20:38:01.375739+05:30"},{"city":"Lucknow","state":"Uttar Pradesh","latitude":26.8467,"longitude":80.9462,"temp":30.6,"humidity":30,"rain":0.0,"pressure":989.6,"uv_index":7.75,"wind_gusts":25.9,"aqi":130,"pm10":120.6,"pm2_5":32.0,"mosquito_risk":0,"arthritis_risk":5,"migraine_risk":7,"frizz_risk":0,"updated_at":"2026-04-15T20:38:01.375747+05:30"},{"city":"Kanpur","state":"Uttar Pradesh","latitude":26.4499,"longitude":80.3319,"temp":30.4,"humidity":41,"rain":0.0,"pressure":987.9,"uv_index":7.8,"wind_gusts":21.2,"aqi":150,"pm10":422.8,"pm2_5":55.9,"mosquito_risk":0,"arthritis_risk":5,"migraine_risk":7,"frizz_risk":0,"updated_at":"2026-04-15T20:38:01.375754+05:30"},{"city":"Chandigarh","state":"Chandigarh","latitude":30.7333,"longitude":76.7794,"temp":26.1,"humidity":36,"rain":0.0,"pressure":965.6,"uv_index":7.25,"wind_gusts":31.0,"aqi":159,"pm10":21.6,"pm2_5":18.5,"mosquito_risk":4,"arthritis_risk":5,"migraine_risk":7,"frizz_risk":0,"updated_at":"2026-04-15T20:38:01.375761+05:30"},{"city":"Srinagar","state":"Jammu and Kashmir","latitude":34.0837,"longitude":74.7973,"temp":14.8,"humidity":52,"rain":0.0,"pressure":837.8,"uv_index":7.75,"wind_gusts":17.3,"aqi":110,"pm10":48.4,"pm2_5":36.6,"mosquito_risk":0,"arthritis_risk":5,"migraine_risk":7,"frizz_risk":0,"updated_at":"2026-04-15T20:38:01.375768+05:30"},{"city":"Jammu","state":"Jammu and Kashmir","latitude":32.7266,"longitude":74.857,"temp":27.9,"humidity":42,"rain":0.0,"pressure":969.5,"uv_index":7.95,"wind_gusts":35.6,"aqi":146,"pm10":37.6,"pm2_5":33.2,"mosquito_risk":4,"arthritis_risk":5,"migraine_risk":7,"frizz_risk":0,"updated_at":"2026-04-15T20:38:01.375776+05:30"},{"city":"Amritsar","state":"Punjab","latitude":31.634,"longitude":74.8723,"temp":27.2,"humidity":51,"rain":0.0,"pressure":977.8,"uv_index":7.65,"wind_gusts":30.2,"aqi":135,"pm10":27.9,"pm2_5":21.8,"mosquito_risk":4,"arthritis_risk":5,"migraine_risk":7,"frizz_risk":1,"updated_at":"2026-04-15T20:38:01.375783+05:30"},{"city":"Ludhiana","state":"Punjab","latitude":30.901,"longitude":75.8573,"temp":28.6,"humidity":35,"rain":0.0,"pressure":975.7,"uv_index":7.35,"wind_gusts":30.2,"aqi":132,"pm10":43.3,"pm2_5":31.9,"mosquito_risk":4,"arthritis_risk":5,"migraine_risk":7,"frizz_risk":0,"updated_at":"2026-04-15T20:38:01.375790+05:30"},{"city":"Jalandhar","state":"Punjab","latitude":31.326,"longitude":75.5762,"temp":27.0,"humidity":43,"rain":0.0,"pressure":976.8,"uv_index":7.5,"wind_gusts":29.2,"aqi":143,"pm10":30.9,"pm2_5":19.9,"mosquito_risk":4,"arthritis_risk":5,"migraine_risk":7,"frizz_risk":0,"updated_at":"2026-04-15T20:38:01.375799+05:30"},{"city":"Dehradun","state":"Uttarakhand","latitude":30.6284,"longitude":78.0322,"temp":16.3,"humidity":53,"rain":0.0,"pressure":827.8,"uv_index":7.65,"wind_gusts":27.7,"aqi":152,"pm10":14.4,"pm2_5":12.7,"mosquito_risk":0,"arthritis_risk":5,"migraine_risk":7,"frizz_risk":0,"updated_at":"2026-04-15T20:38:01.375806+05:30"},{"city":"Shimla","state":"Himachal Pradesh","latitude":31.1048,"longitude":77.1734,"temp":14.5,"humidity":50,"rain":0.0,"pressure":782.8,"uv_index":7.75,"wind_gusts":49.0,"aqi":150,"pm10":17.8,"pm2_5":12.4,"mosquito_risk":0,"arthritis_risk":5,"migraine_risk":7,"frizz_risk":0,"updated_at":"2026-04-15T20:38:01.375813+05:30"},{"city":"Manali","state":"Himachal Pradesh","latitude":32.2396,"longitude":77.1887,"temp":17.0,"humidity":69,"rain":0.0,"pressure":820.2,"uv_index":9.7,"wind_gusts":32.0,"aqi":159,"pm10":20.6,"pm2_5":11.1,"mosquito_risk":3,"arthritis_risk":5,"migraine_risk":7,"frizz_risk":0,"updated_at":"2026-04-15T20:38:01.375821+05:30"},{"city":"Gurgaon","state":"Haryana","latitude":28.4595,"longitude":77.0266,"temp":30.4,"humidity":40,"rain":0.0,"pressure":978.0,"uv_index":7.4,"wind_gusts":29.5,"aqi":698,"pm10":704.1,"pm2_5":107.3,"mosquito_risk":0,"arthritis_risk":5,"migraine_risk":7,"frizz_risk":0,"updated_at":"2026-04-15T20:38:01.375828+05:30"},{"city":"Noida","state":"Uttar Pradesh","latitude":28.5355,"longitude":77.391,"temp":32.7,"humidity":26,"rain":0.0,"pressure":981.2,"uv_index":7.3,"wind_gusts":27.4,"aqi":698,"pm10":704.1,"pm2_5":107.3,"mosquito_risk":0,"arthritis_risk":5,"migraine_risk":7,"frizz_risk":0,"updated_at":"2026-04-15T20:38:01.375834+05:30"},{"city":"Ghaziabad","state":"Uttar Pradesh","latitude":28.6692,"longitude":77.4538,"temp":30.8,"humidity":32,"rain":0.0,"pressure":979.3,"uv_index":7.3,"wind_gusts":27.7,"aqi":136,"pm10":465.7,"pm2_5":80.1,"mosquito_risk":0,"arthritis_risk":5,"migraine_risk":7,"frizz_risk":0,"updated_at":"2026-04-15T20:38:01.375841+05:30"},{"city":"Faridabad","state":"Haryana","latitude":28.4089,"longitude":77.3178,"temp":32.0,"humidity":28,"rain":0.0,"pressure":980.5,"uv_index":7.35,"wind_gusts":27.4,"aqi":698,"pm10":704.1,"pm2_5":107.3,"mosquito_risk":0,"arthritis_risk":5,"migraine_risk":7,"frizz_risk":0,"updated_at":"2026-04-15T20:38:01.375848+05:30"},{"city":"Meerut","state":"Uttar Pradesh","latitude":28.9845,"longitude":77.7064,"temp":29.3,"humidity":32,"rain":0.0,"pressure":978.0,"uv_index":7.2,"wind_gusts":32.0,"aqi":136,"pm10":465.7,"pm2_5":80.1,"mosquito_risk":4,"arthritis_risk":5,"migraine_risk":7,"frizz_risk":0,"updated_at":"2026-04-15T20:38:01.375854+05:30"},{"city":"Agra","state":"Uttar Pradesh","latitude":27.1767,"longitude":78.0081,"temp":30.1,"humidity":26,"rain":0.0,"pressure":984.4,"uv_index":7.65,"wind_gusts":29.9,"aqi":342,"pm10":590.5,"pm2_5":99.4,"mosquito_risk":0,"arthritis_risk":5,"migraine_risk":7,"frizz_risk":0,"updated_at":"2026-04-15T20:38:01.375863+05:30"},{"city":"Varanasi","state":"Uttar Pradesh","latitude":25.3176,"longitude":82.9739,"temp":30.6,"humidity":33,"rain":0.0,"pressure":993.3,"uv_index":8.35,"wind_gusts":19.4,"aqi":136,"pm10":53.1,"pm2_5":27.6,"mosquito_risk":0,"arthritis_risk":5,"migraine_risk":7,"frizz_risk":0,"updated_at":"2026-04-15T20:38:01.375872+05:30"},{"city":"Prayagraj","state":"Uttar Pradesh","latitude":25.4358,"longitude":81.8463,"temp":31.8,"humidity":35,"rain":0.0,"pressure":991.8,"uv_index":8.25,"wind_gusts":20.5,"aqi":147,"pm10":56.7,"pm2_5":22.3,"mosquito_risk":0,"arthritis_risk":5,"migraine_risk":7,"frizz_risk":0,"updated_at":"2026-04-15T20:38:01.375878+05:30"},{"city":"Gorakhpur","state":"Uttar Pradesh","latitude":26.7606,"longitude":83.3732,"temp":29.5,"humidity":29,"rain":0.0,"pressure":993.1,"uv_index":8.2,"wind_gusts":25.9,"aqi":132,"pm10":62.4,"pm2_5":25.5,"mosquito_risk":4,"arthritis_risk":5,"migraine_risk":7,"frizz_risk":0,"updated_at":"2026-04-15T20:38:01.375885+05:30"},{"city":"Bareilly","state":"Uttar Pradesh","latitude":28.367,"longitude":79.4304,"temp":28.1,"humidity":35,"rain":0.0,"pressure":983.2,"uv_index":7.55,"wind_gusts":31.3,"aqi":128,"pm10":21.7,"pm2_5":19.8,"mosquito_risk":4,"arthritis_risk":5,"migraine_risk":7,"frizz_risk":0,"updated_at":"2026-04-15T20:38:01.375892+05:30"},{"city":"Aligarh","state":"Uttar Pradesh","latitude":27.8974,"longitude":78.088,"temp":30.6,"humidity":25,"rain":0.0,"pressure":982.0,"uv_index":7.45,"wind_gusts":33.8,"aqi":270,"pm10":743.2,"pm2_5":109.0,"mosquito_risk":0,"arthritis_risk":5,"migraine_risk":7,"frizz_risk":0,"updated_at":"2026-04-15T20:38:01.375899+05:30"},{"city":"Moradabad","state":"Uttar Pradesh","latitude":28.8386,"longitude":78.7733,"temp":27.9,"humidity":33,"rain":0.0,"pressure":980.1,"uv_index":7.4,"wind_gusts":31.3,"aqi":126,"pm10":105.2,"pm2_5":42.7,"mosquito_risk":4,"arthritis_risk":5,"migraine_risk":7,"frizz_risk":0,"updated_at":"2026-04-15T20:38:01.375906+05:30"},{"city":"Saharanpur","state":"Uttar Pradesh","latitude":29.9637,"longitude":77.546,"temp":27.0,"humidity":37,"rain":0.0,"pressure":972.1,"uv_index":7.0,"wind_gusts":33.1,"aqi":155,"pm10":42.3,"pm2_5":22.9,"mosquito_risk":4,"arthritis_risk":5,"migraine_risk":7,"frizz_risk":0,"updated_at":"2026-04-15T20:38:01.375912+05:30"},{"city":"Jhansi","state":"Uttar Pradesh","latitude":25.4484,"longitude":78.5685,"temp":32.2,"humidity":29,"rain":0.0,"pressure":974.7,"uv_index":8.2,"wind_gusts":34.2,"aqi":134,"pm10":56.5,"pm2_5":17.1,"mosquito_risk":0,"arthritis_risk":5,"migraine_risk":7,"frizz_risk":0,"updated_at":"2026-04-15T20:38:04.592908+05:30"},{"city":"Surat","state":"Gujarat","latitude":21.1702,"longitude":72.8311,"temp":28.6,"humidity":69,"rain":0.0,"pressure":1004.7,"uv_index":7.8,"wind_gusts":31.0,"aqi":103,"pm10":30.5,"pm2_5":24.3,"mosquito_risk":7,"arthritis_risk":5,"migraine_risk":4,"frizz_risk":1,"updated_at":"2026-04-15T20:38:04.592939+05:30"},{"city":"Vadodara","state":"Gujarat","latitude":22.3072,"longitude":73.1812,"temp":32.1,"humidity":38,"rain":0.0,"pressure":1001.3,"uv_index":8.1,"wind_gusts":28.8,"aqi":119,"pm10":85.7,"pm2_5":39.1,"mosquito_risk":0,"arthritis_risk":5,"migraine_risk":4,"frizz_risk":0,"updated_at":"2026-04-15T20:38:04.592952+05:30"},{"city":"Rajkot","state":"Gujarat","latitude":22.3039,"longitude":70.8022,"temp":29.1,"humidity":53,"rain":0.0,"pressure":992.2,"uv_index":7.85,"wind_gusts":31.3,"aqi":112,"pm10":37.6,"pm2_5":17.8,"mosquito_risk":4,"arthritis_risk":5,"migraine_risk":7,"frizz_risk":1,"updated_at":"2026-04-15T20:38:04.592961+05:30"},{"city":"Thane","state":"Maharashtra","latitude":19.2183,"longitude":72.9781,"temp":28.4,"humidity":73,"rain":0.0,"pressure":1006.4,"uv_index":8.0,"wind_gusts":32.8,"aqi":102,"pm10":30.9,"pm2_5":21.0,"mosquito_risk":7,"arthritis_risk":5,"migraine_risk":4,"frizz_risk":1,"updated_at":"2026-04-15T20:38:04.592969+05:30"},{"city":"Nagpur","state":"Maharashtra","latitude":21.1458,"longitude":79.0882,"temp":30.2,"humidity":37,"rain":0.0,"pressure":969.5,"uv_index":8.85,"wind_gusts":35.6,"aqi":113,"pm10":21.0,"pm2_5":18.6,"mosquito_risk":0,"arthritis_risk":5,"migraine_risk":7,"frizz_risk":0,"updated_at":"2026-04-15T20:38:04.592977+05:30"},{"city":"Nashik","state":"Maharashtra","latitude":19.9975,"longitude":73.7898,"temp":28.0,"humidity":41,"rain":0.0,"pressure":944.6,"uv_index":8.3,"wind_gusts":38.9,"aqi":68,"pm10":26.1,"pm2_5":13.8,"mosquito_risk":4,"arthritis_risk":5,"migraine_risk":7,"frizz_risk":0,"updated_at":"2026-04-15T20:38:04.592985+05:30"},{"city":"Aurangabad","state":"Maharashtra","latitude":19.8762,"longitude":75.3433,"temp":32.9,"humidity":24,"rain":0.0,"pressure":942.5,"uv_index":8.95,"wind_gusts":38.9,"aqi":100,"pm10":13.9,"pm2_5":8.3,"mosquito_risk":0,"arthritis_risk":5,"migraine_risk":7,"frizz_risk":0,"updated_at":"2026-04-15T20:38:04.592993+05:30"},{"city":"Solapur","state":"Maharashtra","latitude":17.6599,"longitude":75.9064,"temp":34.6,"humidity":23,"rain":0.0,"pressure":954.5,"uv_index":9.05,"wind_gusts":28.8,"aqi":152,"pm10":36.8,"pm2_5":31.0,"mosquito_risk":0,"arthritis_risk":5,"migraine_risk":7,"frizz_risk":0,"updated_at":"2026-04-15T20:38:04.593001+05:30"},{"city":"Kolhapur","state":"Maharashtra","latitude":16.705,"longitude":74.2433,"temp":26.3,"humidity":67,"rain":0.0,"pressure":946.9,"uv_index":9.0,"wind_gusts":45.0,"aqi":125,"pm10":27.7,"pm2_5":20.7,"mosquito_risk":7,"arthritis_risk":5,"migraine_risk":7,"frizz_risk":1,"updated_at":"2026-04-15T20:38:04.593008+05:30"},{"city":"Goa","state":"Goa","latitude":15.2993,"longitude":74.124,"temp":29.2,"humidity":75,"rain":0.0,"pressure":997.1,"uv_index":9.0,"wind_gusts":31.3,"aqi":84,"pm10":51.3,"pm2_5":21.5,"mosquito_risk":7,"arthritis_risk":5,"migraine_risk":7,"frizz_risk":1,"updated_at":"2026-04-15T20:38:04.593016+05:30"},{"city":"Jodhpur","state":"Rajasthan","latitude":26.2389,"longitude":73.0243,"temp":32.4,"humidity":29,"rain":0.0,"pressure":979.8,"uv_index":8.15,"wind_gusts":24.5,"aqi":89,"pm10":69.4,"pm2_5":25.1,"mosquito_risk":0,"arthritis_risk":5,"migraine_risk":7,"frizz_risk":0,"updated_at":"2026-04-15T20:38:04.593024+05:30"},{"city":"Udaipur","state":"Rajasthan","latitude":24.5854,"longitude":73.7125,"temp":31.1,"humidity":25,"rain":0.0,"pressure":944.7,"uv_index":8.7,"wind_gusts":26.6,"aqi":75,"pm10":81.3,"pm2_5":22.8,"mosquito_risk":0,"arthritis_risk":5,"migraine_risk":7,"frizz_risk":0,"updated_at":"2026-04-15T20:38:04.593032+05:30"},{"city":"Kota","state":"Rajasthan","latitude":25.2138,"longitude":75.8648,"temp":33.6,"humidity":24,"rain":0.0,"pressure":975.3,"uv_index":8.2,"wind_gusts":23.4,"aqi":97,"pm10":54.4,"pm2_5":24.3,"mosquito_risk":0,"arthritis_risk":5,"migraine_risk":7,"frizz_risk":0,"updated_at":"2026-04-15T20:38:04.593040+05:30"},{"city":"Bikaner","state":"Rajasthan","latitude":28.0229,"longitude":73.3119,"temp":34.2,"humidity":22,"rain":0.0,"pressure":978.8,"uv_index":8.0,"wind_gusts":14.8,"aqi":115,"pm10":58.6,"pm2_5":15.9,"mosquito_risk":0,"arthritis_risk":5,"migraine_risk":7,"frizz_risk":0,"updated_at":"2026-04-15T20:38:04.593047+05:30"},{"city":"Ajmer","state":"Rajasthan","latitude":26.4499,"longitude":74.6399,"temp":32.7,"humidity":25,"rain":0.0,"pressure":952.3,"uv_index":8.15,"wind_gusts":26.6,"aqi":108,"pm10":101.5,"pm2_5":27.8,"mosquito_risk":0,"arthritis_risk":5,"migraine_risk":7,"frizz_risk":0,"updated_at":"2026-04-15T20:38:04.593055+05:30"},{"city":"Gwalior","state":"Madhya Pradesh","latitude":26.2183,"longitude":78.1828,"temp":32.2,"humidity":39,"rain":0.0,"pressure":980.2,"uv_index":7.9,"wind_gusts":31.3,"aqi":143,"pm10":180.2,"pm2_5":35.2,"mosquito_risk":0,"arthritis_risk":5,"migraine_risk":7,"frizz_risk":1,"updated_at":"2026-04-15T20:38:04.593062+05:30"},{"city":"Indore","state":"Madhya Pradesh","latitude":22.7196,"longitude":75.8577,"temp":29.5,"humidity":42,"rain":0.0,"pressure":946.1,"uv_index":8.55,"wind_gusts":32.0,"aqi":92,"pm10":61.2,"pm2_5":32.8,"mosquito_risk":4,"arthritis_risk":5,"migraine_risk":7,"frizz_risk":0,"updated_at":"2026-04-15T20:38:04.593070+05:30"},{"city":"Bhopal","state":"Madhya Pradesh","latitude":23.2599,"longitude":77.4126,"temp":32.6,"humidity":30,"rain":0.0,"pressure":950.9,"uv_index":8.55,"wind_gusts":31.3,"aqi":82,"pm10":41.6,"pm2_5":20.8,"mosquito_risk":0,"arthritis_risk":5,"migraine_risk":7,"frizz_risk":0,"updated_at":"2026-04-15T20:38:04.593077+05:30"},{"city":"Jabalpur","state":"Madhya Pradesh","latitude":23.1815,"longitude":79.9864,"temp":28.8,"humidity":36,"rain":0.0,"pressure":957.9,"uv_index":8.7,"wind_gusts":34.9,"aqi":83,"pm10":16.4,"pm2_5":10.7,"mosquito_risk":4,"arthritis_risk":5,"migraine_risk":7,"frizz_risk":0,"updated_at":"2026-04-15T20:38:04.593085+05:30"},{"city":"Ujjain","state":"Madhya Pradesh","latitude":23.1765,"longitude":75.7885,"temp":30.2,"humidity":43,"rain":0.0,"pressure":951.7,"uv_index":8.45,"wind_gusts":29.5,"aqi":83,"pm10":88.7,"pm2_5":46.2,"mosquito_risk":0,"arthritis_risk":5,"migraine_risk":7,"frizz_risk":1,"updated_at":"2026-04-15T20:38:04.593093+05:30"},{"city":"Visakhapatnam","state":"Andhra Pradesh","latitude":17.6868,"longitude":83.2185,"temp":28.4,"humidity":82,"rain":0.0,"pressure":1002.5,"uv_index":9.15,"wind_gusts":41.4,"aqi":60,"pm10":16.2,"pm2_5":12.3,"mosquito_risk":7,"arthritis_risk":5,"migraine_risk":4,"frizz_risk":1,"updated_at":"2026-04-15T20:38:04.593101+05:30"},{"city":"Vijayawada","state":"Andhra Pradesh","latitude":16.5062,"longitude":80.648,"temp":30.1,"humidity":62,"rain":0.0,"pressure":1001.0,"uv_index":9.2,"wind_gusts":31.7,"aqi":52,"pm10":13.7,"pm2_5":11.8,"mosquito_risk":3,"arthritis_risk":5,"migraine_risk":4,"frizz_risk":1,"updated_at":"2026-04-15T20:38:04.593108+05:30"},{"city":"Guntur","state":"Andhra Pradesh","latitude":16.3067,"longitude":80.4365,"temp":28.8,"humidity":79,"rain":0.0,"pressure":1002.3,"uv_index":9.2,"wind_gusts":31.0,"aqi":87,"pm10":16.9,"pm2_5":15.4,"mosquito_risk":7,"arthritis_risk":5,"migraine_risk":4,"frizz_risk":1,"updated_at":"2026-04-15T20:38:04.593115+05:30"},{"city":"Nellore","state":"Andhra Pradesh","latitude":14.4426,"longitude":79.9865,"temp":28.9,"humidity":80,"rain":0.0,"pressure":1004.4,"uv_index":9.3,"wind_gusts":36.4,"aqi":79,"pm10":12.3,"pm2_5":9.5,"mosquito_risk":7,"arthritis_risk":5,"migraine_risk":4,"frizz_risk":1,"updated_at":"2026-04-15T20:38:04.593124+05:30"},{"city":"Kurnool","state":"Andhra Pradesh","latitude":15.8281,"longitude":78.0373,"temp":36.5,"humidity":26,"rain":0.0,"pressure":974.1,"uv_index":9.2,"wind_gusts":24.5,"aqi":151,"pm10":43.4,"pm2_5":35.7,"mosquito_risk":0,"arthritis_risk":5,"migraine_risk":10,"frizz_risk":0,"updated_at":"2026-04-15T20:38:04.593133+05:30"},{"city":"Kakinada","state":"Andhra Pradesh","latitude":16.9891,"longitude":82.2475,"temp":28.9,"humidity":77,"rain":0.0,"pressure":1006.3,"uv_index":9.15,"wind_gusts":34.6,"aqi":46,"pm10":12.2,"pm2_5":8.1,"mosquito_risk":7,"arthritis_risk":5,"migraine_risk":4,"frizz_risk":1,"updated_at":"2026-04-15T20:38:04.593142+05:30"},{"city":"Tirupati","state":"Andhra Pradesh","latitude":13.6288,"longitude":79.4192,"temp":32.6,"humidity":44,"rain":0.0,"pressure":990.4,"uv_index":9.4,"wind_gusts":32.0,"aqi":110,"pm10":25.1,"pm2_5":23.6,"mosquito_risk":0,"arthritis_risk":5,"migraine_risk":7,"frizz_risk":1,"updated_at":"2026-04-15T20:38:04.593150+05:30"},{"city":"Warangal","state":"Telangana","latitude":17.9689,"longitude":79.5941,"temp":34.0,"humidity":44,"rain":0.0,"pressure":976.2,"uv_index":9.1,"wind_gusts":29.2,"aqi":131,"pm10":52.2,"pm2_5":46.2,"mosquito_risk":0,"arthritis_risk":5,"migraine_risk":7,"frizz_risk":1,"updated_at":"2026-04-15T20:38:04.593157+05:30"},{"city":"Nizamabad","state":"Telangana","latitude":18.6725,"longitude":78.0941,"temp":33.1,"humidity":28,"rain":0.0,"pressure":962.5,"uv_index":9.05,"wind_gusts":26.6,"aqi":113,"pm10":41.3,"pm2_5":34.8,"mosquito_risk":0,"arthritis_risk":5,"migraine_risk":7,"frizz_risk":0,"updated_at":"2026-04-15T20:38:04.593165+05:30"},{"city":"Mysore","state":"Karnataka","latitude":12.2958,"longitude":76.6396,"temp":27.8,"humidity":67,"rain":0.0,"pressure":927.8,"uv_index":9.5,"wind_gusts":46.4,"aqi":135,"pm10":45.4,"pm2_5":39.2,"mosquito_risk":7,"arthritis_risk":5,"migraine_risk":7,"frizz_risk":1,"updated_at":"2026-04-15T20:38:04.593172+05:30"},{"city":"Mangalore","state":"Karnataka","latitude":12.9141,"longitude":74.856,"temp":30.3,"humidity":78,"rain":0.0,"pressure":1005.8,"uv_index":9.1,"wind_gusts":24.1,"aqi":67,"pm10":34.6,"pm2_5":21.2,"mosquito_risk":3,"arthritis_risk":5,"migraine_risk":4,"frizz_risk":1,"updated_at":"2026-04-15T20:38:04.593180+05:30"},{"city":"Hubli-Dharwad","state":"Karnataka","latitude":15.3647,"longitude":75.124,"temp":26.5,"humidity":79,"rain":0.0,"pressure":940.0,"uv_index":9.2,"wind_gusts":47.5,"aqi":140,"pm10":27.3,"pm2_5":19.4,"mosquito_risk":7,"arthritis_risk":5,"migraine_risk":7,"frizz_risk":1,"updated_at":"2026-04-15T20:38:04.593188+05:30"},{"city":"Belgaum","state":"Karnataka","latitude":15.8497,"longitude":74.4977,"temp":24.5,"humidity":85,"rain":0.0,"pressure":924.7,"uv_index":9.2,"wind_gusts":39.6,"aqi":114,"pm10":32.6,"pm2_5":18.4,"mosquito_risk":3,"arthritis_risk":5,"migraine_risk":7,"frizz_risk":1,"updated_at":"2026-04-15T20:38:07.815663+05:30"},{"city":"Coimbatore","state":"Tamil Nadu","latitude":11.0168,"longitude":76.9558,"temp":27.7,"humidity":74,"rain":0.0,"pressure":961.2,"uv_index":9.45,"wind_gusts":52.2,"aqi":135,"pm10":36.3,"pm2_5":31.2,"mosquito_risk":7,"arthritis_risk":5,"migraine_risk":7,"frizz_risk":1,"updated_at":"2026-04-15T20:38:07.815690+05:30"},{"city":"Madurai","state":"Tamil Nadu","latitude":9.9252,"longitude":78.1198,"temp":30.4,"humidity":66,"rain":0.0,"pressure":992.3,"uv_index":9.35,"wind_gusts":40.7,"aqi":88,"pm10":19.0,"pm2_5":17.3,"mosquito_risk":3,"arthritis_risk":5,"migraine_risk":7,"frizz_risk":1,"updated_at":"2026-04-15T20:38:07.815700+05:30"},{"city":"Trichy","state":"Tamil Nadu","latitude":10.7905,"longitude":78.7047,"temp":31.1,"humidity":67,"rain":0.0,"pressure":998.3,"uv_index":9.4,"wind_gusts":22.0,"aqi":62,"pm10":18.6,"pm2_5":17.5,"mosquito_risk":3,"arthritis_risk":5,"migraine_risk":7,"frizz_risk":1,"updated_at":"2026-04-15T20:38:07.815707+05:30"},{"city":"Salem","state":"Tamil Nadu","latitude":11.6643,"longitude":78.146,"temp":32.6,"humidity":41,"rain":0.0,"pressure":975.9,"uv_index":9.45,"wind_gusts":19.1,"aqi":107,"pm10":33.3,"pm2_5":27.5,"mosquito_risk":0,"arthritis_risk":5,"migraine_risk":7,"frizz_risk":1,"updated_at":"2026-04-15T20:38:07.815714+05:30"},{"city":"Tirunelveli","state":"Tamil Nadu","latitude":8.7139,"longitude":77.7567,"temp":31.5,"humidity":57,"rain":0.0,"pressure":1002.1,"uv_index":9.3,"wind_gusts":50.4,"aqi":76,"pm10":22.2,"pm2_5":18.6,"mosquito_risk":0,"arthritis_risk":5,"migraine_risk":4,"frizz_risk":1,"updated_at":"2026-04-15T20:38:07.815721+05:30"},{"city":"Vellore","state":"Tamil Nadu","latitude":12.9165,"longitude":79.1325,"temp":31.1,"humidity":52,"rain":0.0,"pressure":983.4,"uv_index":9.45,"wind_gusts":29.5,"aqi":100,"pm10":34.2,"pm2_5":32.6,"mosquito_risk":0,"arthritis_risk":5,"migraine_risk":7,"frizz_risk":1,"updated_at":"2026-04-15T20:38:07.815728+05:30"},{"city":"Erode","state":"Tamil Nadu","latitude":11.341,"longitude":77.7172,"temp":33.9,"humidity":31,"rain":0.0,"pressure":987.0,"uv_index":9.4,"wind_gusts":25.9,"aqi":120,"pm10":20.4,"pm2_5":16.9,"mosquito_risk":0,"arthritis_risk":5,"migraine_risk":7,"frizz_risk":0,"updated_at":"2026-04-15T20:38:07.815735+05:30"},{"city":"Kochi","state":"Kerala","latitude":9.9312,"longitude":76.2673,"temp":29.9,"humidity":80,"rain":0.0,"pressure":1008.0,"uv_index":9.2,"wind_gusts":32.4,"aqi":92,"pm10":36.7,"pm2_5":30.9,"mosquito_risk":7,"arthritis_risk":0,"migraine_risk":4,"frizz_risk":1,"updated_at":"2026-04-15T20:38:07.815742+05:30"},{"city":"Thiruvananthapuram","state":"Kerala","latitude":8.5241,"longitude":76.9366,"temp":29.3,"humidity":80,"rain":0.0,"pressure":1007.5,"uv_index":9.15,"wind_gusts":34.9,"aqi":70,"pm10":27.1,"pm2_5":17.5,"mosquito_risk":7,"arthritis_risk":5,"migraine_risk":4,"frizz_risk":1,"updated_at":"2026-04-15T20:38:07.815749+05:30"},{"city":"Kozhikode","state":"Kerala","latitude":11.2588,"longitude":75.7804,"temp":30.5,"humidity":79,"rain":0.0,"pressure":1006.8,"uv_index":9.1,"wind_gusts":31.3,"aqi":70,"pm10":33.2,"pm2_5":20.3,"mosquito_risk":3,"arthritis_risk":5,"migraine_risk":4,"frizz_risk":1,"updated_at":"2026-04-15T20:38:07.815756+05:30"},{"city":"Thrissur","state":"Kerala","latitude":10.5276,"longitude":76.2144,"temp":29.8,"humidity":80,"rain":0.0,"pressure":1006.3,"uv_index":9.2,"wind_gusts":36.0,"aqi":93,"pm10":32.6,"pm2_5":25.6,"mosquito_risk":7,"arthritis_risk":5,"migraine_risk":4,"frizz_risk":1,"updated_at":"2026-04-15T20:38:07.815763+05:30"},{"city":"Kannur","state":"Kerala","latitude":11.8745,"longitude":75.3704,"temp":30.1,"humidity":76,"rain":0.0,"pressure":1006.5,"uv_index":9.15,"wind_gusts":31.7,"aqi":68,"pm10":31.1,"pm2_5":21.2,"mosquito_risk":3,"arthritis_risk":5,"migraine_risk":4,"frizz_risk":1,"updated_at":"2026-04-15T20:38:07.815769+05:30"},{"city":"Patna","state":"Bihar","latitude":25.5941,"longitude":85.1376,"temp":31.0,"humidity":46,"rain":0.0,"pressure":996.5,"uv_index":8.55,"wind_gusts":19.8,"aqi":150,"pm10":94.3,"pm2_5":47.7,"mosquito_risk":0,"arthritis_risk":5,"migraine_risk":7,"frizz_risk":1,"updated_at":"2026-04-15T20:38:07.815776+05:30"},{"city":"Gaya","state":"Bihar","latitude":24.7914,"longitude":85.0002,"temp":31.6,"humidity":42,"rain":0.0,"pressure":990.0,"uv_index":8.6,"wind_gusts":18.0,"aqi":125,"pm10":68.0,"pm2_5":33.6,"mosquito_risk":0,"arthritis_risk":5,"migraine_risk":7,"frizz_risk":1,"updated_at":"2026-04-15T20:38:07.815782+05:30"},{"city":"Muzaffarpur","state":"Bihar","latitude":26.1209,"longitude":85.3647,"temp":28.0,"humidity":62,"rain":0.0,"pressure":996.9,"uv_index":8.5,"wind_gusts":21.2,"aqi":159,"pm10":99.4,"pm2_5":52.9,"mosquito_risk":7,"arthritis_risk":5,"migraine_risk":7,"frizz_risk":1,"updated_at":"2026-04-15T20:38:07.815788+05:30"},{"city":"Bhagalpur","state":"Bihar","latitude":25.2425,"longitude":87.0117,"temp":27.8,"humidity":76,"rain":0.0,"pressure":997.8,"uv_index":8.5,"wind_gusts":16.2,"aqi":161,"pm10":70.1,"pm2_5":38.9,"mosquito_risk":7,"arthritis_risk":5,"migraine_risk":7,"frizz_risk":1,"updated_at":"2026-04-15T20:38:07.815794+05:30"},{"city":"Ranchi","state":"Jharkhand","latitude":23.3441,"longitude":85.3096,"temp":28.8,"humidity":39,"rain":0.0,"pressure":935.7,"uv_index":9.1,"wind_gusts":30.2,"aqi":170,"pm10":63.6,"pm2_5":39.9,"mosquito_risk":4,"arthritis_risk":5,"migraine_risk":7,"frizz_risk":0,"updated_at":"2026-04-15T20:38:07.815800+05:30"},{"city":"Jamshedpur","state":"Jharkhand","latitude":22.8046,"longitude":86.2029,"temp":30.8,"humidity":46,"rain":0.0,"pressure":987.5,"uv_index":8.95,"wind_gusts":20.9,"aqi":178,"pm10":68.2,"pm2_5":44.8,"mosquito_risk":0,"arthritis_risk":5,"migraine_risk":7,"frizz_risk":1,"updated_at":"2026-04-15T20:38:07.815806+05:30"},{"city":"Dhanbad","state":"Jharkhand","latitude":23.7957,"longitude":86.4304,"temp":31.8,"humidity":32,"rain":0.0,"pressure":976.6,"uv_index":8.9,"wind_gusts":22.7,"aqi":150,"pm10":97.3,"pm2_5":69.2,"mosquito_risk":0,"arthritis_risk":5,"migraine_risk":7,"frizz_risk":0,"updated_at":"2026-04-15T20:38:07.815813+05:30"},{"city":"Bokaro","state":"Jharkhand","latitude":23.6693,"longitude":86.1511,"temp":30.6,"humidity":49,"rain":0.0,"pressure":980.7,"uv_index":8.9,"wind_gusts":26.6,"aqi":145,"pm10":79.6,"pm2_5":53.3,"mosquito_risk":0,"arthritis_risk":5,"migraine_risk":7,"frizz_risk":1,"updated_at":"2026-04-15T20:38:07.815819+05:30"},{"city":"Bhubaneswar","state":"Odisha","latitude":20.2961,"longitude":85.8245,"temp":27.6,"humidity":84,"rain":0.0,"pressure":1000.9,"uv_index":9.1,"wind_gusts":31.7,"aqi":68,"pm10":19.0,"pm2_5":14.9,"mosquito_risk":7,"arthritis_risk":5,"migraine_risk":4,"frizz_risk":1,"updated_at":"2026-04-15T20:38:07.815825+05:30"},{"city":"Cuttack","state":"Odisha","latitude":20.4625,"longitude":85.8828,"temp":28.5,"humidity":80,"rain":0.0,"pressure":1002.5,"uv_index":9.15,"wind_gusts":25.9,"aqi":68,"pm10":19.0,"pm2_5":14.9,"mosquito_risk":7,"arthritis_risk":5,"migraine_risk":4,"frizz_risk":1,"updated_at":"2026-04-15T20:38:07.815832+05:30"},{"city":"Rourkela","state":"Odisha","latitude":22.2604,"longitude":84.8536,"temp":31.2,"humidity":60,"rain":0.0,"pressure":981.6,"uv_index":8.9,"wind_gusts":34.9,"aqi":191,"pm10":71.7,"pm2_5":52.4,"mosquito_risk":0,"arthritis_risk":5,"migraine_risk":7,"frizz_risk":1,"updated_at":"2026-04-15T20:38:07.815837+05:30"},{"city":"Raipur","state":"Chhattisgarh","latitude":21.2514,"longitude":81.6296,"temp":33.0,"humidity":29,"rain":0.0,"pressure":970.7,"uv_index":8.95,"wind_gusts":39.2,"aqi":156,"pm10":40.7,"pm2_5":36.6,"mosquito_risk":0,"arthritis_risk":5,"migraine_risk":7,"frizz_risk":0,"updated_at":"2026-04-15T20:38:07.815843+05:30"},{"city":"Bhilai","state":"Chhattisgarh","latitude":21.1938,"longitude":81.3509,"temp":30.9,"humidity":37,"rain":0.0,"pressure":971.0,"uv_index":8.95,"wind_gusts":40.7,"aqi":149,"pm10":30.4,"pm2_5":27.2,"mosquito_risk":0,"arthritis_risk":5,"migraine_risk":7,"frizz_risk":0,"updated_at":"2026-04-15T20:38:07.815849+05:30"},{"city":"Guwahati","state":"Assam","latitude":26.1158,"longitude":91.7086,"temp":24.2,"humidity":84,"rain":0.0,"pressure":1002.1,"uv_index":8.45,"wind_gusts":31.7,"aqi":127,"pm10":55.8,"pm2_5":43.9,"mosquito_risk":3,"arthritis_risk":5,"migraine_risk":4,"frizz_risk":1,"updated_at":"2026-04-15T20:38:07.815855+05:30"},{"city":"Agartala","state":"Tripura","latitude":23.8315,"longitude":91.2868,"temp":26.0,"humidity":83,"rain":0.0,"pressure":1005.0,"uv_index":8.7,"wind_gusts":24.5,"aqi":98,"pm10":47.0,"pm2_5":37.8,"mosquito_risk":7,"arthritis_risk":5,"migraine_risk":4,"frizz_risk":1,"updated_at":"2026-04-15T20:38:07.815862+05:30"},{"city":"Shillong","state":"Meghalaya","latitude":25.5788,"longitude":91.8933,"temp":14.4,"humidity":93,"rain":0.0,"pressure":855.1,"uv_index":8.6,"wind_gusts":59.4,"aqi":103,"pm10":45.3,"pm2_5":30.4,"mosquito_risk":3,"arthritis_risk":10,"migraine_risk":7,"frizz_risk":0,"updated_at":"2026-04-15T20:38:07.815869+05:30"},{"city":"Imphal","state":"Manipur","latitude":24.817,"longitude":93.9368,"temp":18.9,"humidity":81,"rain":0.0,"pressure":923.1,"uv_index":9.05,"wind_gusts":69.1,"aqi":125,"pm10":70.1,"pm2_5":51.7,"mosquito_risk":3,"arthritis_risk":10,"migraine_risk":7,"frizz_risk":0,"updated_at":"2026-04-15T20:38:07.815876+05:30"},{"city":"Aizawl","state":"Mizoram","latitude":23.7271,"longitude":92.7176,"temp":20.3,"humidity":85,"rain":0.0,"pressure":892.8,"uv_index":8.95,"wind_gusts":50.4,"aqi":118,"pm10":71.9,"pm2_5":48.2,"mosquito_risk":3,"arthritis_risk":5,"migraine_risk":7,"frizz_risk":1,"updated_at":"2026-04-15T20:38:07.815882+05:30"},{"city":"Kohima","state":"Nagaland","latitude":25.6701,"longitude":94.1077,"temp":15.8,"humidity":79,"rain":0.0,"pressure":854.5,"uv_index":8.95,"wind_gusts":73.8,"aqi":108,"pm10":59.4,"pm2_5":38.3,"mosquito_risk":3,"arthritis_risk":5,"migraine_risk":7,"frizz_risk":0,"updated_at":"2026-04-15T20:38:07.815889+05:30"},{"city":"Gangtok","state":"Sikkim","latitude":27.3314,"longitude":88.6138,"temp":15.7,"humidity":91,"rain":0.0,"pressure":836.6,"uv_index":8.1,"wind_gusts":17.6,"aqi":129,"pm10":53.9,"pm2_5":38.4,"mosquito_risk":3,"arthritis_risk":10,"migraine_risk":7,"frizz_risk":0,"updated_at":"2026-04-15T20:38:07.815895+05:30"},{"city":"Siliguri","state":"West Bengal","latitude":26.7271,"longitude":88.3953,"temp":21.5,"humidity":82,"rain":0.0,"pressure":993.3,"uv_index":8.4,"wind_gusts":27.7,"aqi":158,"pm10":110.8,"pm2_5":75.0,"mosquito_risk":3,"arthritis_risk":5,"migraine_risk":7,"frizz_risk":1,"updated_at":"2026-04-15T20:38:11.038811+05:30"},{"city":"Durgapur","state":"West Bengal","latitude":23.5204,"longitude":87.3119,"temp":30.8,"humidity":63,"rain":0.0,"pressure":992.1,"uv_index":8.8,"wind_gusts":25.9,"aqi":181,"pm10":62.2,"pm2_5":48.7,"mosquito_risk":3,"arthritis_risk":5,"migraine_risk":7,"frizz_risk":1,"updated_at":"2026-04-15T20:38:11.038839+05:30"},{"city":"Asansol","state":"West Bengal","latitude":23.6739,"longitude":86.9524,"temp":31.7,"humidity":49,"rain":0.0,"pressure":990.4,"uv_index":8.85,"wind_gusts":27.7,"aqi":167,"pm10":66.8,"pm2_5":45.8,"mosquito_risk":0,"arthritis_risk":5,"migraine_risk":7,"frizz_risk":1,"updated_at":"2026-04-15T20:38:11.038849+05:30"},{"city":"Pondicherry","state":"Puducherry","latitude":11.9139,"longitude":79.8145,"temp":27.8,"humidity":88,"rain":0.0,"pressure":1007.3,"uv_index":9.3,"wind_gusts":27.4,"aqi":58,"pm10":11.7,"pm2_5":8.6,"mosquito_risk":7,"arthritis_risk":5,"migraine_risk":4,"frizz_risk":1,"updated_at":"2026-04-15T20:38:11.038856+05:30"},{"city":"Port Blair","state":"Andaman and Nicobar Islands","latitude":11.6234,"longitude":92.7265,"temp":29.4,"humidity":69,"rain":0.0,"pressure":1007.2,"uv_index":9.2,"wind_gusts":20.9,"aqi":70,"pm10":20.7,"pm2_5":14.6,"mosquito_risk":7,"arthritis_risk":5,"migraine_risk":4,"frizz_risk":1,"updated_at":"2026-04-15T20:38:11.038864+05:30"},{"city":"Haridwar","state":"Uttarakhand","latitude":29.9457,"longitude":78.1642,"temp":25.6,"humidity":45,"rain":0.0,"pressure":970.8,"uv_index":7.05,"wind_gusts":32.0,"aqi":159,"pm10":24.9,"pm2_5":18.7,"mosquito_risk":4,"arthritis_risk":5,"migraine_risk":7,"frizz_risk":0,"updated_at":"2026-04-15T20:38:11.038871+05:30"},{"city":"Rishikesh","state":"Uttarakhand","latitude":30.0869,"longitude":78.2676,"temp":22.3,"humidity":65,"rain":0.0,"pressure":963.9,"uv_index":7.15,"wind_gusts":29.9,"aqi":160,"pm10":14.8,"pm2_5":12.8,"mosquito_risk":3,"arthritis_risk":5,"migraine_risk":7,"frizz_risk":0,"updated_at":"2026-04-15T20:38:11.038878+05:30"},{"city":"Nainital","state":"Uttarakhand","latitude":29.3919,"longitude":79.4542,"temp":21.8,"humidity":32,"rain":0.0,"pressure":805.6,"uv_index":8.05,"wind_gusts":45.7,"aqi":144,"pm10":15.8,"pm2_5":12.6,"mosquito_risk":0,"arthritis_risk":5,"migraine_risk":7,"frizz_risk":0,"updated_at":"2026-04-15T20:38:11.038885+05:30"},{"city":"Mussoorie","state":"Uttarakhand","latitude":30.4599,"longitude":78.0664,"temp":18.0,"humidity":44,"rain":0.0,"pressure":800.9,"uv_index":7.55,"wind_gusts":39.6,"aqi":163,"pm10":18.3,"pm2_5":17.2,"mosquito_risk":0,"arthritis_risk":5,"migraine_risk":7,"frizz_risk":0,"updated_at":"2026-04-15T20:38:11.038892+05:30"},{"city":"Dharamshala","state":"Himachal Pradesh","latitude":32.219,"longitude":76.3234,"temp":22.0,"humidity":46,"rain":0.0,"pressure":867.8,"uv_index":7.8,"wind_gusts":23.8,"aqi":140,"pm10":20.8,"pm2_5":15.8,"mosquito_risk":0,"arthritis_risk":5,"migraine_risk":7,"frizz_risk":0,"updated_at":"2026-04-15T20:38:11.038898+05:30"},{"city":"Dalhousie","state":"Himachal Pradesh","latitude":32.5387,"longitude":75.971,"temp":19.9,"humidity":47,"rain":0.0,"pressure":803.1,"uv_index":8.0,"wind_gusts":24.1,"aqi":162,"pm10":27.1,"pm2_5":23.3,"mosquito_risk":0,"arthritis_risk":5,"migraine_risk":7,"frizz_risk":0,"updated_at":"2026-04-15T20:38:11.038906+05:30"},{"city":"Patiala","state":"Punjab","latitude":30.3398,"longitude":76.3869,"temp":27.5,"humidity":34,"rain":0.0,"pressure":975.0,"uv_index":7.15,"wind_gusts":30.6,"aqi":162,"pm10":120.1,"pm2_5":35.7,"mosquito_risk":4,"arthritis_risk":5,"migraine_risk":7,"frizz_risk":0,"updated_at":"2026-04-15T20:38:11.038913+05:30"},{"city":"Bhatinda","state":"Punjab","latitude":30.211,"longitude":74.9455,"temp":30.1,"humidity":37,"rain":0.0,"pressure":980.7,"uv_index":7.85,"wind_gusts":36.4,"aqi":129,"pm10":27.4,"pm2_5":16.9,"mosquito_risk":0,"arthritis_risk":5,"migraine_risk":7,"frizz_risk":0,"updated_at":"2026-04-15T20:38:11.038919+05:30"},{"city":"Rohtak","state":"Haryana","latitude":28.8955,"longitude":76.6066,"temp":29.7,"humidity":32,"rain":0.0,"pressure":978.4,"uv_index":7.3,"wind_gusts":34.2,"aqi":369,"pm10":601.6,"pm2_5":93.1,"mosquito_risk":4,"arthritis_risk":5,"migraine_risk":7,"frizz_risk":0,"updated_at":"2026-04-15T20:38:11.038926+05:30"},{"city":"Panipat","state":"Haryana","latitude":29.3909,"longitude":76.9635,"temp":28.5,"humidity":32,"rain":0.0,"pressure":976.9,"uv_index":7.15,"wind_gusts":30.2,"aqi":751,"pm10":892.2,"pm2_5":118.7,"mosquito_risk":4,"arthritis_risk":5,"migraine_risk":7,"frizz_risk":0,"updated_at":"2026-04-15T20:38:11.038932+05:30"},{"city":"Mathura","state":"Uttar Pradesh","latitude":27.4924,"longitude":77.6737,"temp":29.7,"humidity":29,"rain":0.0,"pressure":983.3,"uv_index":7.6,"wind_gusts":25.2,"aqi":363,"pm10":659.4,"pm2_5":90.6,"mosquito_risk":4,"arthritis_risk":5,"migraine_risk":7,"frizz_risk":0,"updated_at":"2026-04-15T20:38:11.038939+05:30"},{"city":"Vrindavan","state":"Uttar Pradesh","latitude":27.5823,"longitude":77.7027,"temp":30.3,"humidity":29,"rain":0.0,"pressure":983.7,"uv_index":7.6,"wind_gusts":29.2,"aqi":363,"pm10":659.4,"pm2_5":90.6,"mosquito_risk":0,"arthritis_risk":5,"migraine_risk":7,"frizz_risk":0,"updated_at":"2026-04-15T20:38:11.038945+05:30"},{"city":"Ayodhya","state":"Uttar Pradesh","latitude":26.7922,"longitude":82.1998,"temp":29.9,"humidity":25,"rain":0.0,"pressure":991.3,"uv_index":7.95,"wind_gusts":31.0,"aqi":121,"pm10":63.3,"pm2_5":22.6,"mosquito_risk":4,"arthritis_risk":5,"migraine_risk":7,"frizz_risk":0,"updated_at":"2026-04-15T20:38:11.038952+05:30"},{"city":"Ratlam","state":"Madhya Pradesh","latitude":23.3315,"longitude":75.0367,"temp":27.3,"humidity":61,"rain":0.0,"pressure":952.1,"uv_index":8.4,"wind_gusts":25.2,"aqi":80,"pm10":60.3,"pm2_5":27.3,"mosquito_risk":7,"arthritis_risk":5,"migraine_risk":7,"frizz_risk":1,"updated_at":"2026-04-15T20:38:11.038959+05:30"},{"city":"Sagar","state":"Madhya Pradesh","latitude":23.8388,"longitude":78.7378,"temp":31.7,"humidity":31,"rain":0.0,"pressure":947.4,"uv_index":8.55,"wind_gusts":28.4,"aqi":80,"pm10":30.3,"pm2_5":16.0,"mosquito_risk":0,"arthritis_risk":5,"migraine_risk":7,"frizz_risk":0,"updated_at":"2026-04-15T20:38:11.038965+05:30"},{"city":"Satna","state":"Madhya Pradesh","latitude":24.6005,"longitude":80.8322,"temp":33.9,"humidity":21,"rain":0.0,"pressure":967.7,"uv_index":8.55,"wind_gusts":30.6,"aqi":105,"pm10":21.7,"pm2_5":12.3,"mosquito_risk":0,"arthritis_risk":5,"migraine_risk":7,"frizz_risk":0,"updated_at":"2026-04-15T20:38:11.038972+05:30"},{"city":"Akola","state":"Maharashtra","latitude":20.7002,"longitude":77.0082,"temp":32.3,"humidity":24,"rain":0.0,"pressure":972.0,"uv_index":8.75,"wind_gusts":37.4,"aqi":107,"pm10":19.4,"pm2_5":13.8,"mosquito_risk":0,"arthritis_risk":5,"migraine_risk":7,"frizz_risk":0,"updated_at":"2026-04-15T20:38:11.038979+05:30"},{"city":"Amravati","state":"Maharashtra","latitude":20.9374,"longitude":77.7796,"temp":30.4,"humidity":25,"rain":0.0,"pressure":964.3,"uv_index":8.8,"wind_gusts":34.9,"aqi":105,"pm10":16.0,"pm2_5":12.2,"mosquito_risk":0,"arthritis_risk":5,"migraine_risk":7,"frizz_risk":0,"updated_at":"2026-04-15T20:38:11.038987+05:30"},{"city":"Latur","state":"Maharashtra","latitude":18.4088,"longitude":76.5604,"temp":31.0,"humidity":35,"rain":0.0,"pressure":938.0,"uv_index":9.05,"wind_gusts":25.2,"aqi":134,"pm10":23.7,"pm2_5":20.3,"mosquito_risk":0,"arthritis_risk":5,"migraine_risk":7,"frizz_risk":0,"updated_at":"2026-04-15T20:38:11.038993+05:30"},{"city":"Nanded","state":"Maharashtra","latitude":19.1383,"longitude":77.3091,"temp":31.4,"humidity":42,"rain":0.0,"pressure":966.0,"uv_index":8.95,"wind_gusts":17.3,"aqi":120,"pm10":26.7,"pm2_5":22.7,"mosquito_risk":0,"arthritis_risk":5,"migraine_risk":7,"frizz_risk":1,"updated_at":"2026-04-15T20:38:11.038999+05:30"},{"city":"Gulbarga","state":"Karnataka","latitude":17.3297,"longitude":76.8343,"temp":35.6,"humidity":25,"rain":0.0,"pressure":956.4,"uv_index":9.1,"wind_gusts":24.1,"aqi":176,"pm10":37.6,"pm2_5":32.8,"mosquito_risk":0,"arthritis_risk":5,"migraine_risk":10,"frizz_risk":0,"updated_at":"2026-04-15T20:38:11.039005+05:30"},{"city":"Bidar","state":"Karnataka","latitude":17.9104,"longitude":77.5199,"temp":33.0,"humidity":29,"rain":0.0,"pressure":934.1,"uv_index":9.1,"wind_gusts":24.1,"aqi":170,"pm10":41.1,"pm2_5":36.1,"mosquito_risk":0,"arthritis_risk":5,"migraine_risk":7,"frizz_risk":0,"updated_at":"2026-04-15T20:38:11.039012+05:30"},{"city":"Hospet","state":"Karnataka","latitude":15.2689,"longitude":76.3909,"temp":33.1,"humidity":49,"rain":0.0,"pressure":954.2,"uv_index":9.25,"wind_gusts":28.4,"aqi":150,"pm10":50.3,"pm2_5":43.1,"mosquito_risk":0,"arthritis_risk":5,"migraine_risk":7,"frizz_risk":1,"updated_at":"2026-04-15T20:38:11.039018+05:30"},{"city":"Tirupur","state":"Tamil Nadu","latitude":11.1085,"longitude":77.3411,"temp":30.8,"humidity":65,"rain":0.0,"pressure":974.2,"uv_index":9.45,"wind_gusts":36.7,"aqi":142,"pm10":28.2,"pm2_5":22.8,"mosquito_risk":3,"arthritis_risk":5,"migraine_risk":7,"frizz_risk":1,"updated_at":"2026-04-15T20:38:11.039024+05:30"},{"city":"Alappuzha","state":"Kerala","latitude":9.4981,"longitude":76.3388,"temp":29.5,"humidity":81,"rain":0.0,"pressure":1008.3,"uv_index":9.15,"wind_gusts":31.3,"aqi":91,"pm10":40.2,"pm2_5":29.5,"mosquito_risk":7,"arthritis_risk":0,"migraine_risk":4,"frizz_risk":1,"updated_at":"2026-04-15T20:38:11.039030+05:30"},{"city":"Munnar","state":"Kerala","latitude":10.0889,"longitude":77.0595,"temp":22.6,"humidity":96,"rain":0.0,"pressure":857.2,"uv_index":9.75,"wind_gusts":34.6,"aqi":78,"pm10":35.9,"pm2_5":31.8,"mosquito_risk":3,"arthritis_risk":5,"migraine_risk":7,"frizz_risk":1,"updated_at":"2026-04-15T20:38:11.039037+05:30"},{"city":"Silchar","state":"Assam","latitude":24.8333,"longitude":92.7789,"temp":25.2,"humidity":86,"rain":0.0,"pressure":1005.0,"uv_index":8.7,"wind_gusts":29.9,"aqi":136,"pm10":48.9,"pm2_5":36.9,"mosquito_risk":7,"arthritis_risk":5,"migraine_risk":4,"frizz_risk":1,"updated_at":"2026-04-15T20:38:11.039043+05:30"},{"city":"Dibrugarh","state":"Assam","latitude":27.4728,"longitude":94.912,"temp":21.3,"humidity":85,"rain":0.0,"pressure":997.1,"uv_index":7.95,"wind_gusts":31.3,"aqi":119,"pm10":94.8,"pm2_5":64.3,"mosquito_risk":3,"arthritis_risk":5,"migraine_risk":7,"frizz_risk":1,"updated_at":"2026-04-15T20:38:11.039050+05:30"}]