[{"city":"Delhi","state":"Delhi","latitude":28.6139,"longitude":77.209,"temp":29.5,"humidity":44,"rain":0.0,"pressure":976.9,"uv_index":7.25,"wind_gusts":42.5,"aqi":548,"pm10":665.0,"pm2_5":140.2,"mosquito_risk":4,"arthritis_risk":5,"migraine_risk":7,"frizz_risk":0,"updated_at":"2026-04-28T04:26:08.400589+05:30"},{"city":"Mumbai","state":"Maharashtra","latitude":19.076,"longitude":72.8777,"temp":26.8,"humidity":94,"rain":0.0,"pressure":1005.5,"uv_index":8.05,"wind_gusts":38.9,"aqi":86,"pm10":61.5,"pm2_5":30.6,"mosquito_risk":7,"arthritis_risk":5,"migraine_risk":4,"frizz_risk":1,"updated_at":"2026-04-28T04:26:08.400630+05:30"},{"city":"Bangalore","state":"Karnataka","latitude":12.9716,"longitude":77.5946,"temp":23.5,"humidity":82,"rain":0.0,"pressure":909.6,"uv_index":9.05,"wind_gusts":40.3,"aqi":87,"pm10":37.4,"pm2_5":32.5,"mosquito_risk":3,"arthritis_risk":5,"migraine_risk":7,"frizz_risk":1,"updated_at":"2026-04-28T04:26:08.400647+05:30"},{"city":"Hyderabad","state":"Telangana","latitude":17.385,"longitude":78.4867,"temp":28.9,"humidity":59,"rain":0.0,"pressure":950.2,"uv_index":7.2,"wind_gusts":49.3,"aqi":98,"pm10":38.1,"pm2_5":32.2,"mosquito_risk":4,"arthritis_risk":5,"migraine_risk":7,"frizz_risk":1,"updated_at":"2026-04-28T04:26:08.400657+05:30"},{"city":"Chennai","state":"Tamil Nadu","latitude":13.0827,"longitude":80.2707,"temp":28.2,"humidity":86,"rain":0.0,"pressure":1005.0,"uv_index":7.55,"wind_gusts":56.5,"aqi":55,"pm10":15.4,"pm2_5":10.5,"mosquito_risk":7,"arthritis_risk":5,"migraine_risk":4,"frizz_risk":1,"updated_at":"2026-04-28T04:26:08.400666+05:30"},{"city":"Kolkata","state":"West Bengal","latitude":22.5726,"longitude":88.3639,"temp":27.6,"humidity":87,"rain":0.0,"pressure":1000.3,"uv_index":8.85,"wind_gusts":63.4,"aqi":56,"pm10":25.4,"pm2_5":20.3,"mosquito_risk":7,"arthritis_risk":5,"migraine_risk":4,"frizz_risk":1,"updated_at":"2026-04-28T04:26:08.400675+05:30"},{"city":"Pune","state":"Maharashtra","latitude":18.5204,"longitude":73.8567,"temp":25.0,"humidity":68,"rain":0.0,"pressure":945.2,"uv_index":8.6,"wind_gusts":41.0,"aqi":70,"pm10":37.4,"pm2_5":21.8,"mosquito_risk":7,"arthritis_risk":5,"migraine_risk":7,"frizz_risk":1,"updated_at":"2026-04-28T04:26:08.400687+05:30"},{"city":"Ahmedabad","state":"Gujarat","latitude":23.0225,"longitude":72.5714,"temp":29.2,"humidity":34,"rain":0.0,"pressure":998.3,"uv_index":8.2,"wind_gusts":47.9,"aqi":43,"pm10":18.4,"pm2_5":7.7,"mosquito_risk":4,"arthritis_risk":5,"migraine_risk":7,"frizz_risk":0,"updated_at":"2026-04-28T04:26:08.400694+05:30"},{"city":"Jaipur","state":"Rajasthan","latitude":26.9124,"longitude":75.7873,"temp":28.1,"humidity":34,"rain":0.0,"pressure":954.1,"uv_index":8.05,"wind_gusts":39.6,"aqi":153,"pm10":189.5,"pm2_5":40.3,"mosquito_risk":4,"arthritis_risk":5,"migraine_risk":7,"frizz_risk":0,"updated_at":"2026-04-28T04:26:08.400702+05:30"},{"city":"Lucknow","state":"Uttar Pradesh","latitude":26.8467,"longitude":80.9462,"temp":27.5,"humidity":59,"rain":0.0,"pressure":988.3,"uv_index":7.9,"wind_gusts":40.0,"aqi":138,"pm10":68.9,"pm2_5":45.8,"mosquito_risk":4,"arthritis_risk":5,"migraine_risk":7,"frizz_risk":1,"updated_at":"2026-04-28T04:26:08.400710+05:30"},{"city":"Kanpur","state":"Uttar Pradesh","latitude":26.4499,"longitude":80.3319,"temp":28.7,"humidity":28,"rain":0.0,"pressure":986.2,"uv_index":7.95,"wind_gusts":43.9,"aqi":187,"pm10":162.5,"pm2_5":46.3,"mosquito_risk":4,"arthritis_risk":5,"migraine_risk":7,"frizz_risk":0,"updated_at":"2026-04-28T04:26:08.400717+05:30"},{"city":"Chandigarh","state":"Chandigarh","latitude":30.7333,"longitude":76.7794,"temp":25.1,"humidity":33,"rain":0.0,"pressure":962.3,"uv_index":6.6,"wind_gusts":53.3,"aqi":46,"pm10":11.0,"pm2_5":10.5,"mosquito_risk":4,"arthritis_risk":5,"migraine_risk":7,"frizz_risk":0,"updated_at":"2026-04-28T04:26:08.400725+05:30"},{"city":"Srinagar","state":"Jammu and Kashmir","latitude":34.0837,"longitude":74.7973,"temp":9.1,"humidity":94,"rain":0.0,"pressure":835.9,"uv_index":6.25,"wind_gusts":31.7,"aqi":68,"pm10":44.9,"pm2_5":38.6,"mosquito_risk":3,"arthritis_risk":10,"migraine_risk":7,"frizz_risk":0,"updated_at":"2026-04-28T04:26:08.400733+05:30"},{"city":"Jammu","state":"Jammu and Kashmir","latitude":32.7266,"longitude":74.857,"temp":24.2,"humidity":36,"rain":0.0,"pressure":965.4,"uv_index":7.2,"wind_gusts":44.3,"aqi":57,"pm10":15.7,"pm2_5":13.9,"mosquito_risk":0,"arthritis_risk":5,"migraine_risk":7,"frizz_risk":0,"updated_at":"2026-04-28T04:26:08.400741+05:30"},{"city":"Amritsar","state":"Punjab","latitude":31.634,"longitude":74.8723,"temp":27.1,"humidity":43,"rain":0.0,"pressure":974.3,"uv_index":5.65,"wind_gusts":48.6,"aqi":74,"pm10":50.4,"pm2_5":38.8,"mosquito_risk":4,"arthritis_risk":5,"migraine_risk":3,"frizz_risk":0,"updated_at":"2026-04-28T04:26:08.400748+05:30"},{"city":"Ludhiana","state":"Punjab","latitude":30.901,"longitude":75.8573,"temp":26.9,"humidity":39,"rain":0.0,"pressure":972.1,"uv_index":6.45,"wind_gusts":32.4,"aqi":71,"pm10":24.5,"pm2_5":24.1,"mosquito_risk":4,"arthritis_risk":5,"migraine_risk":7,"frizz_risk":0,"updated_at":"2026-04-28T04:26:08.400756+05:30"},{"city":"Jalandhar","state":"Punjab","latitude":31.326,"longitude":75.5762,"temp":25.4,"humidity":45,"rain":0.0,"pressure":973.0,"uv_index":5.6,"wind_gusts":36.0,"aqi":79,"pm10":37.0,"pm2_5":28.8,"mosquito_risk":4,"arthritis_risk":5,"migraine_risk":3,"frizz_risk":0,"updated_at":"2026-04-28T04:26:08.400764+05:30"},{"city":"Dehradun","state":"Uttarakhand","latitude":30.6284,"longitude":78.0322,"temp":11.9,"humidity":58,"rain":0.0,"pressure":823.0,"uv_index":5.75,"wind_gusts":53.3,"aqi":44,"pm10":12.2,"pm2_5":12.1,"mosquito_risk":0,"arthritis_risk":5,"migraine_risk":3,"frizz_risk":0,"updated_at":"2026-04-28T04:26:08.400771+05:30"},{"city":"Shimla","state":"Himachal Pradesh","latitude":31.1048,"longitude":77.1734,"temp":12.4,"humidity":41,"rain":0.0,"pressure":778.8,"uv_index":7.45,"wind_gusts":47.9,"aqi":52,"pm10":11.6,"pm2_5":10.9,"mosquito_risk":0,"arthritis_risk":5,"migraine_risk":7,"frizz_risk":1,"updated_at":"2026-04-28T04:26:08.400778+05:30"},{"city":"Manali","state":"Himachal Pradesh","latitude":32.2396,"longitude":77.1887,"temp":9.4,"humidity":63,"rain":0.0,"pressure":811.7,"uv_index":8.7,"wind_gusts":40.0,"aqi":48,"pm10":40.2,"pm2_5":28.1,"mosquito_risk":3,"arthritis_risk":5,"migraine_risk":7,"frizz_risk":0,"updated_at":"2026-04-28T04:26:08.400785+05:30"},{"city":"Gurgaon","state":"Haryana","latitude":28.4595,"longitude":77.0266,"temp":26.9,"humidity":51,"rain":0.0,"pressure":975.3,"uv_index":7.25,"wind_gusts":48.6,"aqi":1200,"pm10":838.2,"pm2_5":126.2,"mosquito_risk":4,"arthritis_risk":5,"migraine_risk":7,"frizz_risk":0,"updated_at":"2026-04-28T04:26:08.400793+05:30"},{"city":"Noida","state":"Uttar Pradesh","latitude":28.5355,"longitude":77.391,"temp":29.4,"humidity":37,"rain":0.0,"pressure":978.2,"uv_index":7.4,"wind_gusts":42.1,"aqi":1200,"pm10":838.2,"pm2_5":126.2,"mosquito_risk":4,"arthritis_risk":5,"migraine_risk":7,"frizz_risk":0,"updated_at":"2026-04-28T04:26:08.400801+05:30"},{"city":"Ghaziabad","state":"Uttar Pradesh","latitude":28.6692,"longitude":77.4538,"temp":29.0,"humidity":36,"rain":0.0,"pressure":976.5,"uv_index":7.35,"wind_gusts":59.8,"aqi":418,"pm10":724.6,"pm2_5":151.3,"mosquito_risk":4,"arthritis_risk":5,"migraine_risk":7,"frizz_risk":0,"updated_at":"2026-04-28T04:26:08.400807+05:30"},{"city":"Faridabad","state":"Haryana","latitude":28.4089,"longitude":77.3178,"temp":30.8,"humidity":33,"rain":0.0,"pressure":977.5,"uv_index":7.4,"wind_gusts":47.5,"aqi":1200,"pm10":838.2,"pm2_5":126.2,"mosquito_risk":0,"arthritis_risk":5,"migraine_risk":7,"frizz_risk":0,"updated_at":"2026-04-28T04:26:08.400813+05:30"},{"city":"Meerut","state":"Uttar Pradesh","latitude":28.9845,"longitude":77.7064,"temp":28.5,"humidity":37,"rain":0.0,"pressure":975.4,"uv_index":7.15,"wind_gusts":52.6,"aqi":418,"pm10":724.6,"pm2_5":151.3,"mosquito_risk":4,"arthritis_risk":5,"migraine_risk":7,"frizz_risk":0,"updated_at":"2026-04-28T04:26:08.400820+05:30"},{"city":"Agra","state":"Uttar Pradesh","latitude":27.1767,"longitude":78.0081,"temp":31.9,"humidity":26,"rain":0.0,"pressure":981.1,"uv_index":7.8,"wind_gusts":41.0,"aqi":685,"pm10":532.7,"pm2_5":70.1,"mosquito_risk":0,"arthritis_risk":5,"migraine_risk":7,"frizz_risk":0,"updated_at":"2026-04-28T04:26:08.400826+05:30"},{"city":"Varanasi","state":"Uttar Pradesh","latitude":25.3176,"longitude":82.9739,"temp":26.7,"humidity":73,"rain":0.0,"pressure":991.8,"uv_index":8.5,"wind_gusts":40.7,"aqi":129,"pm10":56.5,"pm2_5":44.1,"mosquito_risk":7,"arthritis_risk":5,"migraine_risk":7,"frizz_risk":1,"updated_at":"2026-04-28T04:26:08.400835+05:30"},{"city":"Prayagraj","state":"Uttar Pradesh","latitude":25.4358,"longitude":81.8463,"temp":27.7,"humidity":66,"rain":0.0,"pressure":989.5,"uv_index":8.4,"wind_gusts":37.4,"aqi":130,"pm10":64.0,"pm2_5":48.5,"mosquito_risk":7,"arthritis_risk":5,"migraine_risk":7,"frizz_risk":1,"updated_at":"2026-04-28T04:26:08.400842+05:30"},{"city":"Gorakhpur","state":"Uttar Pradesh","latitude":26.7606,"longitude":83.3732,"temp":23.7,"humidity":80,"rain":0.0,"pressure":993.1,"uv_index":8.3,"wind_gusts":35.3,"aqi":136,"pm10":40.6,"pm2_5":36.6,"mosquito_risk":3,"arthritis_risk":5,"migraine_risk":7,"frizz_risk":1,"updated_at":"2026-04-28T04:26:08.400849+05:30"},{"city":"Bareilly","state":"Uttar Pradesh","latitude":28.367,"longitude":79.4304,"temp":26.4,"humidity":40,"rain":0.0,"pressure":981.5,"uv_index":7.65,"wind_gusts":50.4,"aqi":103,"pm10":82.4,"pm2_5":43.8,"mosquito_risk":4,"arthritis_risk":5,"migraine_risk":7,"frizz_risk":0,"updated_at":"2026-04-28T04:26:08.400855+05:30"},{"city":"Aligarh","state":"Uttar Pradesh","latitude":27.8974,"longitude":78.088,"temp":32.8,"humidity":25,"rain":0.0,"pressure":978.7,"uv_index":7.5,"wind_gusts":59.0,"aqi":689,"pm10":877.3,"pm2_5":154.6,"mosquito_risk":0,"arthritis_risk":5,"migraine_risk":7,"frizz_risk":0,"updated_at":"2026-04-28T04:26:08.400862+05:30"},{"city":"Moradabad","state":"Uttar Pradesh","latitude":28.8386,"longitude":78.7733,"temp":27.3,"humidity":37,"rain":0.0,"pressure":978.0,"uv_index":7.3,"wind_gusts":48.2,"aqi":123,"pm10":285.9,"pm2_5":75.4,"mosquito_risk":4,"arthritis_risk":5,"migraine_risk":7,"frizz_risk":0,"updated_at":"2026-04-28T04:26:08.400874+05:30"},{"city":"Saharanpur","state":"Uttar Pradesh","latitude":29.9637,"longitude":77.546,"temp":27.0,"humidity":36,"rain":0.0,"pressure":969.5,"uv_index":6.55,"wind_gusts":42.1,"aqi":77,"pm10":40.0,"pm2_5":24.8,"mosquito_risk":4,"arthritis_risk":5,"migraine_risk":7,"frizz_risk":0,"updated_at":"2026-04-28T04:26:08.400880+05:30"},{"city":"Jhansi","state":"Uttar Pradesh","latitude":25.4484,"longitude":78.5685,"temp":29.5,"humidity":28,"rain":0.0,"pressure":972.4,"uv_index":8.3,"wind_gusts":42.8,"aqi":58,"pm10":20.8,"pm2_5":15.1,"mosquito_risk":4,"arthritis_risk":5,"migraine_risk":7,"frizz_risk":0,"updated_at":"2026-04-28T04:26:11.649830+05:30"},{"city":"Surat","state":"Gujarat","latitude":21.1702,"longitude":72.8311,"temp":27.2,"humidity":82,"rain":0.0,"pressure":1003.0,"uv_index":7.9,"wind_gusts":44.3,"aqi":85,"pm10":40.4,"pm2_5":24.9,"mosquito_risk":7,"arthritis_risk":5,"migraine_risk":4,"frizz_risk":1,"updated_at":"2026-04-28T04:26:11.649863+05:30"},{"city":"Vadodara","state":"Gujarat","latitude":22.3072,"longitude":73.1812,"temp":27.8,"humidity":67,"rain":0.0,"pressure":1000.6,"uv_index":8.15,"wind_gusts":48.6,"aqi":66,"pm10":30.9,"pm2_5":20.8,"mosquito_risk":7,"arthritis_risk":5,"migraine_risk":4,"frizz_risk":1,"updated_at":"2026-04-28T04:26:11.649875+05:30"},{"city":"Rajkot","state":"Gujarat","latitude":22.3039,"longitude":70.8022,"temp":25.9,"humidity":56,"rain":0.0,"pressure":990.3,"uv_index":7.9,"wind_gusts":53.3,"aqi":47,"pm10":13.3,"pm2_5":7.2,"mosquito_risk":4,"arthritis_risk":5,"migraine_risk":7,"frizz_risk":1,"updated_at":"2026-04-28T04:26:11.649884+05:30"},{"city":"Thane","state":"Maharashtra","latitude":19.2183,"longitude":72.9781,"temp":26.4,"humidity":97,"rain":0.0,"pressure":1004.9,"uv_index":8.05,"wind_gusts":36.4,"aqi":86,"pm10":61.5,"pm2_5":30.6,"mosquito_risk":7,"arthritis_risk":5,"migraine_risk":4,"frizz_risk":1,"updated_at":"2026-04-28T04:26:11.649893+05:30"},{"city":"Nagpur","state":"Maharashtra","latitude":21.1458,"longitude":79.0882,"temp":33.2,"humidity":20,"rain":0.0,"pressure":968.6,"uv_index":8.85,"wind_gusts":50.8,"aqi":98,"pm10":45.5,"pm2_5":38.5,"mosquito_risk":0,"arthritis_risk":5,"migraine_risk":7,"frizz_risk":0,"updated_at":"2026-04-28T04:26:11.649902+05:30"},{"city":"Nashik","state":"Maharashtra","latitude":19.9975,"longitude":73.7898,"temp":25.8,"humidity":40,"rain":0.0,"pressure":942.5,"uv_index":8.3,"wind_gusts":43.6,"aqi":78,"pm10":47.4,"pm2_5":25.9,"mosquito_risk":4,"arthritis_risk":5,"migraine_risk":7,"frizz_risk":0,"updated_at":"2026-04-28T04:26:11.649910+05:30"},{"city":"Aurangabad","state":"Maharashtra","latitude":19.8762,"longitude":75.3433,"temp":29.1,"humidity":32,"rain":0.0,"pressure":940.8,"uv_index":9.0,"wind_gusts":43.6,"aqi":70,"pm10":38.2,"pm2_5":24.5,"mosquito_risk":4,"arthritis_risk":5,"migraine_risk":7,"frizz_risk":0,"updated_at":"2026-04-28T04:26:11.649918+05:30"},{"city":"Solapur","state":"Maharashtra","latitude":17.6599,"longitude":75.9064,"temp":28.8,"humidity":61,"rain":0.0,"pressure":953.9,"uv_index":9.1,"wind_gusts":40.7,"aqi":81,"pm10":24.3,"pm2_5":19.8,"mosquito_risk":7,"arthritis_risk":5,"migraine_risk":7,"frizz_risk":1,"updated_at":"2026-04-28T04:26:11.649926+05:30"},{"city":"Kolhapur","state":"Maharashtra","latitude":16.705,"longitude":74.2433,"temp":23.0,"humidity":94,"rain":0.0,"pressure":945.3,"uv_index":9.0,"wind_gusts":50.8,"aqi":72,"pm10":40.4,"pm2_5":21.9,"mosquito_risk":3,"arthritis_risk":5,"migraine_risk":7,"frizz_risk":1,"updated_at":"2026-04-28T04:26:11.649935+05:30"},{"city":"Goa","state":"Goa","latitude":15.2993,"longitude":74.124,"temp":27.4,"humidity":89,"rain":0.0,"pressure":995.2,"uv_index":9.0,"wind_gusts":35.3,"aqi":66,"pm10":44.8,"pm2_5":16.6,"mosquito_risk":7,"arthritis_risk":5,"migraine_risk":7,"frizz_risk":1,"updated_at":"2026-04-28T04:26:11.649943+05:30"},{"city":"Jodhpur","state":"Rajasthan","latitude":26.2389,"longitude":73.0243,"temp":29.4,"humidity":27,"rain":0.0,"pressure":977.6,"uv_index":8.3,"wind_gusts":46.8,"aqi":128,"pm10":199.3,"pm2_5":30.4,"mosquito_risk":4,"arthritis_risk":5,"migraine_risk":7,"frizz_risk":0,"updated_at":"2026-04-28T04:26:11.649951+05:30"},{"city":"Udaipur","state":"Rajasthan","latitude":24.5854,"longitude":73.7125,"temp":26.6,"humidity":33,"rain":0.0,"pressure":942.3,"uv_index":8.75,"wind_gusts":49.3,"aqi":42,"pm10":16.8,"pm2_5":8.1,"mosquito_risk":4,"arthritis_risk":5,"migraine_risk":7,"frizz_risk":0,"updated_at":"2026-04-28T04:26:11.649960+05:30"},{"city":"Kota","state":"Rajasthan","latitude":25.2138,"longitude":75.8648,"temp":28.5,"humidity":25,"rain":0.0,"pressure":973.6,"uv_index":8.3,"wind_gusts":38.5,"aqi":53,"pm10":12.2,"pm2_5":10.2,"mosquito_risk":4,"arthritis_risk":5,"migraine_risk":7,"frizz_risk":0,"updated_at":"2026-04-28T04:26:11.649968+05:30"},{"city":"Bikaner","state":"Rajasthan","latitude":28.0229,"longitude":73.3119,"temp":28.6,"humidity":37,"rain":0.0,"pressure":975.5,"uv_index":8.15,"wind_gusts":59.0,"aqi":57,"pm10":36.1,"pm2_5":13.7,"mosquito_risk":4,"arthritis_risk":5,"migraine_risk":7,"frizz_risk":0,"updated_at":"2026-04-28T04:26:11.649976+05:30"},{"city":"Ajmer","state":"Rajasthan","latitude":26.4499,"longitude":74.6399,"temp":27.5,"humidity":35,"rain":0.0,"pressure":949.6,"uv_index":8.25,"wind_gusts":43.6,"aqi":61,"pm10":13.2,"pm2_5":7.5,"mosquito_risk":4,"arthritis_risk":5,"migraine_risk":7,"frizz_risk":0,"updated_at":"2026-04-28T04:26:11.649983+05:30"},{"city":"Gwalior","state":"Madhya Pradesh","latitude":26.2183,"longitude":78.1828,"temp":29.9,"humidity":31,"rain":0.0,"pressure":977.2,"uv_index":8.05,"wind_gusts":43.9,"aqi":74,"pm10":25.1,"pm2_5":14.9,"mosquito_risk":4,"arthritis_risk":5,"migraine_risk":7,"frizz_risk":0,"updated_at":"2026-04-28T04:26:11.649991+05:30"},{"city":"Indore","state":"Madhya Pradesh","latitude":22.7196,"longitude":75.8577,"temp":28.7,"humidity":28,"rain":0.0,"pressure":944.8,"uv_index":8.6,"wind_gusts":54.7,"aqi":50,"pm10":24.9,"pm2_5":17.9,"mosquito_risk":4,"arthritis_risk":5,"migraine_risk":7,"frizz_risk":0,"updated_at":"2026-04-28T04:26:11.649999+05:30"},{"city":"Bhopal","state":"Madhya Pradesh","latitude":23.2599,"longitude":77.4126,"temp":30.4,"humidity":19,"rain":0.0,"pressure":949.8,"uv_index":8.6,"wind_gusts":46.4,"aqi":50,"pm10":13.9,"pm2_5":10.7,"mosquito_risk":0,"arthritis_risk":5,"migraine_risk":7,"frizz_risk":0,"updated_at":"2026-04-28T04:26:11.650006+05:30"},{"city":"Jabalpur","state":"Madhya Pradesh","latitude":23.1815,"longitude":79.9864,"temp":26.8,"humidity":46,"rain":0.0,"pressure":956.4,"uv_index":8.75,"wind_gusts":42.5,"aqi":64,"pm10":32.1,"pm2_5":22.9,"mosquito_risk":4,"arthritis_risk":5,"migraine_risk":7,"frizz_risk":0,"updated_at":"2026-04-28T04:26:11.650014+05:30"},{"city":"Ujjain","state":"Madhya Pradesh","latitude":23.1765,"longitude":75.7885,"temp":28.3,"humidity":29,"rain":0.0,"pressure":950.4,"uv_index":8.55,"wind_gusts":56.9,"aqi":50,"pm10":25.4,"pm2_5":18.6,"mosquito_risk":4,"arthritis_risk":5,"migraine_risk":7,"frizz_risk":0,"updated_at":"2026-04-28T04:26:11.650022+05:30"},{"city":"Visakhapatnam","state":"Andhra Pradesh","latitude":17.6868,"longitude":83.2185,"temp":27.2,"humidity":91,"rain":0.0,"pressure":1000.8,"uv_index":9.2,"wind_gusts":58.3,"aqi":67,"pm10":31.2,"pm2_5":23.3,"mosquito_risk":7,"arthritis_risk":5,"migraine_risk":4,"frizz_risk":1,"updated_at":"2026-04-28T04:26:11.650030+05:30"},{"city":"Vijayawada","state":"Andhra Pradesh","latitude":16.5062,"longitude":80.648,"temp":28.0,"humidity":89,"rain":0.0,"pressure":999.7,"uv_index":8.75,"wind_gusts":41.4,"aqi":66,"pm10":20.2,"pm2_5":15.4,"mosquito_risk":7,"arthritis_risk":5,"migraine_risk":7,"frizz_risk":1,"updated_at":"2026-04-28T04:26:11.650037+05:30"},{"city":"Guntur","state":"Andhra Pradesh","latitude":16.3067,"longitude":80.4365,"temp":28.0,"humidity":89,"rain":0.0,"pressure":1000.8,"uv_index":9.25,"wind_gusts":45.4,"aqi":68,"pm10":19.6,"pm2_5":15.0,"mosquito_risk":7,"arthritis_risk":5,"migraine_risk":4,"frizz_risk":1,"updated_at":"2026-04-28T04:26:11.650044+05:30"},{"city":"Nellore","state":"Andhra Pradesh","latitude":14.4426,"longitude":79.9865,"temp":27.0,"humidity":85,"rain":0.0,"pressure":1002.9,"uv_index":9.25,"wind_gusts":48.2,"aqi":62,"pm10":13.3,"pm2_5":10.4,"mosquito_risk":7,"arthritis_risk":5,"migraine_risk":4,"frizz_risk":1,"updated_at":"2026-04-28T04:26:11.650051+05:30"},{"city":"Kurnool","state":"Andhra Pradesh","latitude":15.8281,"longitude":78.0373,"temp":32.0,"humidity":42,"rain":0.0,"pressure":973.0,"uv_index":9.2,"wind_gusts":40.7,"aqi":94,"pm10":31.8,"pm2_5":28.6,"mosquito_risk":0,"arthritis_risk":5,"migraine_risk":7,"frizz_risk":1,"updated_at":"2026-04-28T04:26:11.650058+05:30"},{"city":"Kakinada","state":"Andhra Pradesh","latitude":16.9891,"longitude":82.2475,"temp":27.5,"humidity":90,"rain":0.0,"pressure":1005.0,"uv_index":9.2,"wind_gusts":45.7,"aqi":62,"pm10":30.0,"pm2_5":18.9,"mosquito_risk":7,"arthritis_risk":5,"migraine_risk":4,"frizz_risk":1,"updated_at":"2026-04-28T04:26:11.650064+05:30"},{"city":"Tirupati","state":"Andhra Pradesh","latitude":13.6288,"longitude":79.4192,"temp":26.4,"humidity":83,"rain":0.0,"pressure":989.4,"uv_index":9.2,"wind_gusts":38.2,"aqi":70,"pm10":13.3,"pm2_5":11.0,"mosquito_risk":7,"arthritis_risk":5,"migraine_risk":7,"frizz_risk":1,"updated_at":"2026-04-28T04:26:11.650070+05:30"},{"city":"Warangal","state":"Telangana","latitude":17.9689,"longitude":79.5941,"temp":27.2,"humidity":76,"rain":0.0,"pressure":975.3,"uv_index":8.75,"wind_gusts":38.2,"aqi":81,"pm10":28.6,"pm2_5":26.5,"mosquito_risk":7,"arthritis_risk":5,"migraine_risk":7,"frizz_risk":1,"updated_at":"2026-04-28T04:26:11.650076+05:30"},{"city":"Nizamabad","state":"Telangana","latitude":18.6725,"longitude":78.0941,"temp":29.5,"humidity":41,"rain":0.0,"pressure":961.2,"uv_index":9.1,"wind_gusts":36.0,"aqi":96,"pm10":53.4,"pm2_5":46.4,"mosquito_risk":4,"arthritis_risk":5,"migraine_risk":7,"frizz_risk":0,"updated_at":"2026-04-28T04:26:11.650083+05:30"},{"city":"Mysore","state":"Karnataka","latitude":12.2958,"longitude":76.6396,"temp":22.9,"humidity":97,"rain":0.0,"pressure":926.1,"uv_index":8.8,"wind_gusts":40.7,"aqi":100,"pm10":38.4,"pm2_5":35.7,"mosquito_risk":3,"arthritis_risk":5,"migraine_risk":7,"frizz_risk":1,"updated_at":"2026-04-28T04:26:11.650090+05:30"},{"city":"Mangalore","state":"Karnataka","latitude":12.9141,"longitude":74.856,"temp":28.6,"humidity":81,"rain":0.0,"pressure":1004.0,"uv_index":8.0,"wind_gusts":37.4,"aqi":76,"pm10":31.9,"pm2_5":26.8,"mosquito_risk":7,"arthritis_risk":5,"migraine_risk":4,"frizz_risk":1,"updated_at":"2026-04-28T04:26:11.650095+05:30"},{"city":"Hubli-Dharwad","state":"Karnataka","latitude":15.3647,"longitude":75.124,"temp":24.0,"humidity":90,"rain":0.0,"pressure":938.4,"uv_index":9.2,"wind_gusts":40.3,"aqi":81,"pm10":14.5,"pm2_5":11.9,"mosquito_risk":3,"arthritis_risk":5,"migraine_risk":7,"frizz_risk":1,"updated_at":"2026-04-28T04:26:11.650102+05:30"},{"city":"Belgaum","state":"Karnataka","latitude":15.8497,"longitude":74.4977,"temp":22.4,"humidity":97,"rain":0.0,"pressure":923.0,"uv_index":9.2,"wind_gusts":47.9,"aqi":78,"pm10":30.4,"pm2_5":18.7,"mosquito_risk":3,"arthritis_risk":5,"migraine_risk":7,"frizz_risk":1,"updated_at":"2026-04-28T04:26:14.894105+05:30"},{"city":"Coimbatore","state":"Tamil Nadu","latitude":11.0168,"longitude":76.9558,"temp":25.3,"humidity":91,"rain":0.0,"pressure":959.6,"uv_index":8.2,"wind_gusts":49.0,"aqi":74,"pm10":23.6,"pm2_5":21.7,"mosquito_risk":7,"arthritis_risk":5,"migraine_risk":7,"frizz_risk":1,"updated_at":"2026-04-28T04:26:14.894139+05:30"},{"city":"Madurai","state":"Tamil Nadu","latitude":9.9252,"longitude":78.1198,"temp":27.4,"humidity":74,"rain":0.0,"pressure":991.1,"uv_index":8.7,"wind_gusts":50.8,"aqi":52,"pm10":17.8,"pm2_5":17.1,"mosquito_risk":7,"arthritis_risk":5,"migraine_risk":7,"frizz_risk":1,"updated_at":"2026-04-28T04:26:14.894151+05:30"},{"city":"Trichy","state":"Tamil Nadu","latitude":10.7905,"longitude":78.7047,"temp":27.4,"humidity":83,"rain":0.0,"pressure":998.0,"uv_index":8.75,"wind_gusts":45.7,"aqi":52,"pm10":10.4,"pm2_5":9.7,"mosquito_risk":7,"arthritis_risk":5,"migraine_risk":7,"frizz_risk":1,"updated_at":"2026-04-28T04:26:14.894161+05:30"},{"city":"Salem","state":"Tamil Nadu","latitude":11.6643,"longitude":78.146,"temp":27.0,"humidity":70,"rain":0.0,"pressure":975.5,"uv_index":7.35,"wind_gusts":31.7,"aqi":63,"pm10":12.4,"pm2_5":11.8,"mosquito_risk":7,"arthritis_risk":5,"migraine_risk":7,"frizz_risk":1,"updated_at":"2026-04-28T04:26:14.894170+05:30"},{"city":"Tirunelveli","state":"Tamil Nadu","latitude":8.7139,"longitude":77.7567,"temp":26.6,"humidity":82,"rain":0.0,"pressure":1001.1,"uv_index":9.15,"wind_gusts":45.0,"aqi":64,"pm10":25.1,"pm2_5":22.8,"mosquito_risk":7,"arthritis_risk":5,"migraine_risk":4,"frizz_risk":1,"updated_at":"2026-04-28T04:26:14.894179+05:30"},{"city":"Vellore","state":"Tamil Nadu","latitude":12.9165,"longitude":79.1325,"temp":25.9,"humidity":85,"rain":0.0,"pressure":982.8,"uv_index":8.8,"wind_gusts":38.9,"aqi":83,"pm10":21.2,"pm2_5":19.9,"mosquito_risk":7,"arthritis_risk":5,"migraine_risk":7,"frizz_risk":1,"updated_at":"2026-04-28T04:26:14.894188+05:30"},{"city":"Erode","state":"Tamil Nadu","latitude":11.341,"longitude":77.7172,"temp":28.4,"humidity":70,"rain":0.0,"pressure":986.9,"uv_index":8.4,"wind_gusts":50.0,"aqi":65,"pm10":19.2,"pm2_5":18.3,"mosquito_risk":7,"arthritis_risk":5,"migraine_risk":7,"frizz_risk":1,"updated_at":"2026-04-28T04:26:14.894196+05:30"},{"city":"Kochi","state":"Kerala","latitude":9.9312,"longitude":76.2673,"temp":26.1,"humidity":90,"rain":0.1,"pressure":1007.0,"uv_index":7.1,"wind_gusts":36.4,"aqi":80,"pm10":25.2,"pm2_5":21.5,"mosquito_risk":10,"arthritis_risk":5,"migraine_risk":4,"frizz_risk":1,"updated_at":"2026-04-28T04:26:14.894203+05:30"},{"city":"Thiruvananthapuram","state":"Kerala","latitude":8.5241,"longitude":76.9366,"temp":24.4,"humidity":96,"rain":0.0,"pressure":1006.2,"uv_index":8.15,"wind_gusts":36.4,"aqi":60,"pm10":23.1,"pm2_5":18.9,"mosquito_risk":3,"arthritis_risk":5,"migraine_risk":4,"frizz_risk":1,"updated_at":"2026-04-28T04:26:14.894210+05:30"},{"city":"Kozhikode","state":"Kerala","latitude":11.2588,"longitude":75.7804,"temp":25.6,"humidity":96,"rain":0.0,"pressure":1005.9,"uv_index":7.5,"wind_gusts":36.0,"aqi":65,"pm10":25.9,"pm2_5":19.2,"mosquito_risk":7,"arthritis_risk":5,"migraine_risk":4,"frizz_risk":1,"updated_at":"2026-04-28T04:26:14.894216+05:30"},{"city":"Thrissur","state":"Kerala","latitude":10.5276,"longitude":76.2144,"temp":25.1,"humidity":96,"rain":0.0,"pressure":1005.4,"uv_index":7.9,"wind_gusts":36.7,"aqi":75,"pm10":23.6,"pm2_5":20.7,"mosquito_risk":7,"arthritis_risk":5,"migraine_risk":4,"frizz_risk":1,"updated_at":"2026-04-28T04:26:14.894224+05:30"},{"city":"Kannur","state":"Kerala","latitude":11.8745,"longitude":75.3704,"temp":27.2,"humidity":90,"rain":0.0,"pressure":1004.6,"uv_index":7.7,"wind_gusts":37.8,"aqi":74,"pm10":29.7,"pm2_5":24.5,"mosquito_risk":7,"arthritis_risk":5,"migraine_risk":4,"frizz_risk":1,"updated_at":"2026-04-28T04:26:14.894231+05:30"},{"city":"Patna","state":"Bihar","latitude":25.5941,"longitude":85.1376,"temp":22.1,"humidity":91,"rain":0.0,"pressure":996.3,"uv_index":8.6,"wind_gusts":33.8,"aqi":111,"pm10":28.5,"pm2_5":23.7,"mosquito_risk":3,"arthritis_risk":5,"migraine_risk":7,"frizz_risk":1,"updated_at":"2026-04-28T04:26:14.894242+05:30"},{"city":"Gaya","state":"Bihar","latitude":24.7914,"longitude":85.0002,"temp":23.9,"humidity":84,"rain":0.0,"pressure":989.0,"uv_index":8.7,"wind_gusts":35.3,"aqi":116,"pm10":29.3,"pm2_5":27.2,"mosquito_risk":3,"arthritis_risk":5,"migraine_risk":7,"frizz_risk":1,"updated_at":"2026-04-28T04:26:14.894249+05:30"},{"city":"Muzaffarpur","state":"Bihar","latitude":26.1209,"longitude":85.3647,"temp":22.0,"humidity":87,"rain":0.0,"pressure":996.4,"uv_index":8.1,"wind_gusts":36.7,"aqi":110,"pm10":25.1,"pm2_5":22.4,"mosquito_risk":3,"arthritis_risk":5,"migraine_risk":7,"frizz_risk":1,"updated_at":"2026-04-28T04:26:14.894255+05:30"},{"city":"Bhagalpur","state":"Bihar","latitude":25.2425,"longitude":87.0117,"temp":22.0,"humidity":92,"rain":0.0,"pressure":997.2,"uv_index":8.6,"wind_gusts":31.7,"aqi":94,"pm10":28.6,"pm2_5":24.1,"mosquito_risk":3,"arthritis_risk":5,"migraine_risk":7,"frizz_risk":1,"updated_at":"2026-04-28T04:26:14.894261+05:30"},{"city":"Ranchi","state":"Jharkhand","latitude":23.3441,"longitude":85.3096,"temp":23.5,"humidity":69,"rain":0.0,"pressure":931.8,"uv_index":8.95,"wind_gusts":47.2,"aqi":92,"pm10":76.1,"pm2_5":48.0,"mosquito_risk":3,"arthritis_risk":5,"migraine_risk":7,"frizz_risk":1,"updated_at":"2026-04-28T04:26:14.894267+05:30"},{"city":"Jamshedpur","state":"Jharkhand","latitude":22.8046,"longitude":86.2029,"temp":26.6,"humidity":73,"rain":0.0,"pressure":985.2,"uv_index":8.85,"wind_gusts":55.4,"aqi":98,"pm10":49.7,"pm2_5":40.7,"mosquito_risk":7,"arthritis_risk":5,"migraine_risk":7,"frizz_risk":1,"updated_at":"2026-04-28T04:26:14.894273+05:30"},{"city":"Dhanbad","state":"Jharkhand","latitude":23.7957,"longitude":86.4304,"temp":24.0,"humidity":87,"rain":0.0,"pressure":974.8,"uv_index":8.95,"wind_gusts":37.8,"aqi":127,"pm10":53.4,"pm2_5":47.8,"mosquito_risk":3,"arthritis_risk":5,"migraine_risk":7,"frizz_risk":1,"updated_at":"2026-04-28T04:26:14.894280+05:30"},{"city":"Bokaro","state":"Jharkhand","latitude":23.6693,"longitude":86.1511,"temp":24.6,"humidity":87,"rain":0.0,"pressure":978.8,"uv_index":8.95,"wind_gusts":36.4,"aqi":124,"pm10":52.7,"pm2_5":48.1,"mosquito_risk":3,"arthritis_risk":5,"migraine_risk":7,"frizz_risk":1,"updated_at":"2026-04-28T04:26:14.894286+05:30"},{"city":"Bhubaneswar","state":"Odisha","latitude":20.2961,"longitude":85.8245,"temp":27.2,"humidity":87,"rain":0.0,"pressure":997.4,"uv_index":9.1,"wind_gusts":48.6,"aqi":57,"pm10":24.5,"pm2_5":19.8,"mosquito_risk":7,"arthritis_risk":5,"migraine_risk":7,"frizz_risk":1,"updated_at":"2026-04-28T04:26:14.894293+05:30"},{"city":"Cuttack","state":"Odisha","latitude":20.4625,"longitude":85.8828,"temp":27.0,"humidity":88,"rain":0.0,"pressure":999.3,"uv_index":9.15,"wind_gusts":42.8,"aqi":57,"pm10":24.5,"pm2_5":19.8,"mosquito_risk":7,"arthritis_risk":5,"migraine_risk":7,"frizz_risk":1,"updated_at":"2026-04-28T04:26:14.894299+05:30"},{"city":"Rourkela","state":"Odisha","latitude":22.2604,"longitude":84.8536,"temp":26.9,"humidity":79,"rain":0.0,"pressure":979.3,"uv_index":8.9,"wind_gusts":64.1,"aqi":92,"pm10":52.4,"pm2_5":34.6,"mosquito_risk":7,"arthritis_risk":5,"migraine_risk":7,"frizz_risk":1,"updated_at":"2026-04-28T04:26:14.894305+05:30"},{"city":"Raipur","state":"Chhattisgarh","latitude":21.2514,"longitude":81.6296,"temp":30.0,"humidity":40,"rain":0.0,"pressure":969.8,"uv_index":8.9,"wind_gusts":46.8,"aqi":90,"pm10":41.2,"pm2_5":33.5,"mosquito_risk":4,"arthritis_risk":5,"migraine_risk":7,"frizz_risk":0,"updated_at":"2026-04-28T04:26:14.894312+05:30"},{"city":"Bhilai","state":"Chhattisgarh","latitude":21.1938,"longitude":81.3509,"temp":29.7,"humidity":43,"rain":0.0,"pressure":970.4,"uv_index":8.95,"wind_gusts":46.1,"aqi":90,"pm10":47.3,"pm2_5":37.0,"mosquito_risk":4,"arthritis_risk":5,"migraine_risk":7,"frizz_risk":0,"updated_at":"2026-04-28T04:26:14.894317+05:30"},{"city":"Guwahati","state":"Assam","latitude":26.1158,"longitude":91.7086,"temp":20.4,"humidity":93,"rain":0.0,"pressure":999.1,"uv_index":7.9,"wind_gusts":32.8,"aqi":98,"pm10":29.6,"pm2_5":24.2,"mosquito_risk":3,"arthritis_risk":5,"migraine_risk":7,"frizz_risk":1,"updated_at":"2026-04-28T04:26:14.894323+05:30"},{"city":"Agartala","state":"Tripura","latitude":23.8315,"longitude":91.2868,"temp":26.4,"humidity":88,"rain":0.0,"pressure":1001.4,"uv_index":7.1,"wind_gusts":44.6,"aqi":67,"pm10":21.1,"pm2_5":12.4,"mosquito_risk":7,"arthritis_risk":5,"migraine_risk":4,"frizz_risk":1,"updated_at":"2026-04-28T04:26:14.894329+05:30"},{"city":"Shillong","state":"Meghalaya","latitude":25.5788,"longitude":91.8933,"temp":15.6,"humidity":99,"rain":0.0,"pressure":852.5,"uv_index":8.7,"wind_gusts":28.4,"aqi":69,"pm10":0.5,"pm2_5":0.4,"mosquito_risk":3,"arthritis_risk":10,"migraine_risk":7,"frizz_risk":0,"updated_at":"2026-04-28T04:26:14.894336+05:30"},{"city":"Imphal","state":"Manipur","latitude":24.817,"longitude":93.9368,"temp":18.1,"humidity":97,"rain":0.0,"pressure":919.8,"uv_index":8.9,"wind_gusts":20.9,"aqi":120,"pm10":57.5,"pm2_5":35.9,"mosquito_risk":3,"arthritis_risk":10,"migraine_risk":7,"frizz_risk":1,"updated_at":"2026-04-28T04:26:14.894343+05:30"},{"city":"Aizawl","state":"Mizoram","latitude":23.7271,"longitude":92.7176,"temp":19.1,"humidity":77,"rain":0.0,"pressure":888.4,"uv_index":7.75,"wind_gusts":74.5,"aqi":82,"pm10":56.9,"pm2_5":27.1,"mosquito_risk":3,"arthritis_risk":5,"migraine_risk":7,"frizz_risk":0,"updated_at":"2026-04-28T04:26:14.894349+05:30"},{"city":"Kohima","state":"Nagaland","latitude":25.6701,"longitude":94.1077,"temp":15.5,"humidity":98,"rain":0.1,"pressure":851.5,"uv_index":6.65,"wind_gusts":29.9,"aqi":103,"pm10":7.5,"pm2_5":5.6,"mosquito_risk":6,"arthritis_risk":10,"migraine_risk":7,"frizz_risk":0,"updated_at":"2026-04-28T04:26:14.894356+05:30"},{"city":"Gangtok","state":"Sikkim","latitude":27.3314,"longitude":88.6138,"temp":11.8,"humidity":90,"rain":0.0,"pressure":831.2,"uv_index":8.2,"wind_gusts":42.5,"aqi":77,"pm10":43.9,"pm2_5":31.2,"mosquito_risk":3,"arthritis_risk":10,"migraine_risk":7,"frizz_risk":0,"updated_at":"2026-04-28T04:26:14.894362+05:30"},{"city":"Siliguri","state":"West Bengal","latitude":26.7271,"longitude":88.3953,"temp":20.6,"humidity":87,"rain":0.0,"pressure":989.8,"uv_index":7.6,"wind_gusts":28.4,"aqi":100,"pm10":58.2,"pm2_5":40.0,"mosquito_risk":3,"arthritis_risk":5,"migraine_risk":7,"frizz_risk":1,"updated_at":"2026-04-28T04:26:18.138402+05:30"},{"city":"Durgapur","state":"West Bengal","latitude":23.5204,"longitude":87.3119,"temp":25.9,"humidity":88,"rain":0.0,"pressure":989.6,"uv_index":8.85,"wind_gusts":37.1,"aqi":115,"pm10":60.1,"pm2_5":51.7,"mosquito_risk":7,"arthritis_risk":5,"migraine_risk":7,"frizz_risk":1,"updated_at":"2026-04-28T04:26:18.138431+05:30"},{"city":"Asansol","state":"West Bengal","latitude":23.6739,"longitude":86.9524,"temp":25.0,"humidity":87,"rain":0.0,"pressure":988.4,"uv_index":8.9,"wind_gusts":32.8,"aqi":107,"pm10":48.3,"pm2_5":41.7,"mosquito_risk":7,"arthritis_risk":5,"migraine_risk":7,"frizz_risk":1,"updated_at":"2026-04-28T04:26:18.138440+05:30"},{"city":"Pondicherry","state":"Puducherry","latitude":11.9139,"longitude":79.8145,"temp":28.0,"humidity":86,"rain":0.0,"pressure":1006.4,"uv_index":8.8,"wind_gusts":46.8,"aqi":49,"pm10":13.0,"pm2_5":8.7,"mosquito_risk":7,"arthritis_risk":5,"migraine_risk":4,"frizz_risk":1,"updated_at":"2026-04-28T04:26:18.138483+05:30"},{"city":"Port Blair","state":"Andaman and Nicobar Islands","latitude":11.6234,"longitude":92.7265,"temp":26.2,"humidity":85,"rain":0.0,"pressure":1005.6,"uv_index":9.05,"wind_gusts":27.0,"aqi":48,"pm10":18.5,"pm2_5":14.0,"mosquito_risk":7,"arthritis_risk":5,"migraine_risk":4,"frizz_risk":1,"updated_at":"2026-04-28T04:26:18.138504+05:30"},{"city":"Haridwar","state":"Uttarakhand","latitude":29.9457,"longitude":78.1642,"temp":21.0,"humidity":56,"rain":0.0,"pressure":967.5,"uv_index":6.6,"wind_gusts":28.1,"aqi":56,"pm10":22.4,"pm2_5":22.1,"mosquito_risk":0,"arthritis_risk":5,"migraine_risk":7,"frizz_risk":0,"updated_at":"2026-04-28T04:26:18.138514+05:30"},{"city":"Rishikesh","state":"Uttarakhand","latitude":30.0869,"longitude":78.2676,"temp":18.6,"humidity":62,"rain":0.0,"pressure":959.9,"uv_index":6.3,"wind_gusts":29.5,"aqi":71,"pm10":24.6,"pm2_5":21.4,"mosquito_risk":3,"arthritis_risk":5,"migraine_risk":7,"frizz_risk":0,"updated_at":"2026-04-28T04:26:18.138522+05:30"},{"city":"Nainital","state":"Uttarakhand","latitude":29.3919,"longitude":79.4542,"temp":14.3,"humidity":48,"rain":0.0,"pressure":800.9,"uv_index":7.45,"wind_gusts":54.4,"aqi":64,"pm10":39.8,"pm2_5":17.8,"mosquito_risk":0,"arthritis_risk":5,"migraine_risk":7,"frizz_risk":0,"updated_at":"2026-04-28T04:26:18.138529+05:30"},{"city":"Mussoorie","state":"Uttarakhand","latitude":30.4599,"longitude":78.0664,"temp":16.6,"humidity":36,"rain":0.0,"pressure":798.9,"uv_index":5.25,"wind_gusts":51.8,"aqi":47,"pm10":18.1,"pm2_5":17.9,"mosquito_risk":0,"arthritis_risk":5,"migraine_risk":3,"frizz_risk":0,"updated_at":"2026-04-28T04:26:18.138536+05:30"},{"city":"Dharamshala","state":"Himachal Pradesh","latitude":32.219,"longitude":76.3234,"temp":22.0,"humidity":29,"rain":0.0,"pressure":864.9,"uv_index":7.5,"wind_gusts":53.3,"aqi":35,"pm10":12.5,"pm2_5":7.4,"mosquito_risk":0,"arthritis_risk":5,"migraine_risk":7,"frizz_risk":0,"updated_at":"2026-04-28T04:26:18.138542+05:30"},{"city":"Dalhousie","state":"Himachal Pradesh","latitude":32.5387,"longitude":75.971,"temp":11.4,"humidity":60,"rain":0.0,"pressure":797.5,"uv_index":6.15,"wind_gusts":36.7,"aqi":41,"pm10":14.4,"pm2_5":12.4,"mosquito_risk":0,"arthritis_risk":5,"migraine_risk":7,"frizz_risk":0,"updated_at":"2026-04-28T04:26:18.138550+05:30"},{"city":"Patiala","state":"Punjab","latitude":30.3398,"longitude":76.3869,"temp":28.2,"humidity":35,"rain":0.0,"pressure":971.7,"uv_index":6.15,"wind_gusts":49.3,"aqi":389,"pm10":258.9,"pm2_5":49.4,"mosquito_risk":4,"arthritis_risk":5,"migraine_risk":7,"frizz_risk":0,"updated_at":"2026-04-28T04:26:18.138557+05:30"},{"city":"Bhatinda","state":"Punjab","latitude":30.211,"longitude":74.9455,"temp":28.6,"humidity":39,"rain":0.0,"pressure":977.0,"uv_index":7.45,"wind_gusts":44.6,"aqi":79,"pm10":66.1,"pm2_5":49.1,"mosquito_risk":4,"arthritis_risk":5,"migraine_risk":7,"frizz_risk":0,"updated_at":"2026-04-28T04:26:18.138566+05:30"},{"city":"Rohtak","state":"Haryana","latitude":28.8955,"longitude":76.6066,"temp":27.0,"humidity":46,"rain":0.0,"pressure":975.4,"uv_index":7.25,"wind_gusts":53.3,"aqi":673,"pm10":540.2,"pm2_5":107.6,"mosquito_risk":4,"arthritis_risk":5,"migraine_risk":7,"frizz_risk":0,"updated_at":"2026-04-28T04:26:18.138572+05:30"},{"city":"Panipat","state":"Haryana","latitude":29.3909,"longitude":76.9635,"temp":27.9,"humidity":38,"rain":0.0,"pressure":973.9,"uv_index":6.95,"wind_gusts":56.2,"aqi":1135,"pm10":780.4,"pm2_5":149.9,"mosquito_risk":4,"arthritis_risk":5,"migraine_risk":7,"frizz_risk":0,"updated_at":"2026-04-28T04:26:18.138579+05:30"},{"city":"Mathura","state":"Uttar Pradesh","latitude":27.4924,"longitude":77.6737,"temp":30.8,"humidity":28,"rain":0.0,"pressure":980.3,"uv_index":7.75,"wind_gusts":63.7,"aqi":689,"pm10":488.0,"pm2_5":74.5,"mosquito_risk":0,"arthritis_risk":5,"migraine_risk":7,"frizz_risk":0,"updated_at":"2026-04-28T04:26:18.138585+05:30"},{"city":"Vrindavan","state":"Uttar Pradesh","latitude":27.5823,"longitude":77.7027,"temp":30.4,"humidity":29,"rain":0.0,"pressure":980.5,"uv_index":7.75,"wind_gusts":67.3,"aqi":689,"pm10":488.0,"pm2_5":74.5,"mosquito_risk":0,"arthritis_risk":5,"migraine_risk":7,"frizz_risk":0,"updated_at":"2026-04-28T04:26:18.138592+05:30"},{"city":"Ayodhya","state":"Uttar Pradesh","latitude":26.7922,"longitude":82.1998,"temp":25.4,"humidity":73,"rain":0.0,"pressure":990.5,"uv_index":8.1,"wind_gusts":52.2,"aqi":126,"pm10":62.4,"pm2_5":53.7,"mosquito_risk":7,"arthritis_risk":5,"migraine_risk":7,"frizz_risk":1,"updated_at":"2026-04-28T04:26:18.138598+05:30"},{"city":"Ratlam","state":"Madhya Pradesh","latitude":23.3315,"longitude":75.0367,"temp":26.5,"humidity":37,"rain":0.0,"pressure":951.2,"uv_index":8.45,"wind_gusts":51.1,"aqi":50,"pm10":26.9,"pm2_5":18.6,"mosquito_risk":4,"arthritis_risk":5,"migraine_risk":7,"frizz_risk":0,"updated_at":"2026-04-28T04:26:18.138605+05:30"},{"city":"Sagar","state":"Madhya Pradesh","latitude":23.8388,"longitude":78.7378,"temp":28.3,"humidity":24,"rain":0.0,"pressure":945.4,"uv_index":8.6,"wind_gusts":45.4,"aqi":53,"pm10":11.3,"pm2_5":10.0,"mosquito_risk":4,"arthritis_risk":5,"migraine_risk":7,"frizz_risk":0,"updated_at":"2026-04-28T04:26:18.138611+05:30"},{"city":"Satna","state":"Madhya Pradesh","latitude":24.6005,"longitude":80.8322,"temp":30.5,"humidity":30,"rain":0.0,"pressure":965.1,"uv_index":8.2,"wind_gusts":46.8,"aqi":56,"pm10":39.0,"pm2_5":14.6,"mosquito_risk":0,"arthritis_risk":5,"migraine_risk":7,"frizz_risk":0,"updated_at":"2026-04-28T04:26:18.138617+05:30"},{"city":"Akola","state":"Maharashtra","latitude":20.7002,"longitude":77.0082,"temp":30.5,"humidity":24,"rain":0.0,"pressure":970.8,"uv_index":8.4,"wind_gusts":42.8,"aqi":63,"pm10":23.7,"pm2_5":19.8,"mosquito_risk":0,"arthritis_risk":5,"migraine_risk":7,"frizz_risk":0,"updated_at":"2026-04-28T04:26:18.138624+05:30"},{"city":"Amravati","state":"Maharashtra","latitude":20.9374,"longitude":77.7796,"temp":32.1,"humidity":19,"rain":0.0,"pressure":962.8,"uv_index":8.2,"wind_gusts":46.8,"aqi":63,"pm10":21.5,"pm2_5":18.3,"mosquito_risk":0,"arthritis_risk":5,"migraine_risk":7,"frizz_risk":0,"updated_at":"2026-04-28T04:26:18.138631+05:30"},{"city":"Latur","state":"Maharashtra","latitude":18.4088,"longitude":76.5604,"temp":28.0,"humidity":35,"rain":0.0,"pressure":936.1,"uv_index":9.1,"wind_gusts":36.4,"aqi":81,"pm10":44.1,"pm2_5":31.7,"mosquito_risk":4,"arthritis_risk":5,"migraine_risk":7,"frizz_risk":0,"updated_at":"2026-04-28T04:26:18.138638+05:30"},{"city":"Nanded","state":"Maharashtra","latitude":19.1383,"longitude":77.3091,"temp":29.5,"humidity":27,"rain":0.0,"pressure":964.7,"uv_index":8.95,"wind_gusts":31.0,"aqi":78,"pm10":25.4,"pm2_5":23.2,"mosquito_risk":4,"arthritis_risk":5,"migraine_risk":7,"frizz_risk":0,"updated_at":"2026-04-28T04:26:18.138644+05:30"},{"city":"Gulbarga","state":"Karnataka","latitude":17.3297,"longitude":76.8343,"temp":29.0,"humidity":53,"rain":0.0,"pressure":955.2,"uv_index":9.0,"wind_gusts":35.6,"aqi":97,"pm10":23.5,"pm2_5":18.8,"mosquito_risk":4,"arthritis_risk":5,"migraine_risk":7,"frizz_risk":1,"updated_at":"2026-04-28T04:26:18.138650+05:30"},{"city":"Bidar","state":"Karnataka","latitude":17.9104,"longitude":77.5199,"temp":28.1,"humidity":43,"rain":0.0,"pressure":932.0,"uv_index":8.1,"wind_gusts":34.6,"aqi":94,"pm10":46.4,"pm2_5":41.3,"mosquito_risk":4,"arthritis_risk":5,"migraine_risk":7,"frizz_risk":0,"updated_at":"2026-04-28T04:26:18.138656+05:30"},{"city":"Hospet","state":"Karnataka","latitude":15.2689,"longitude":76.3909,"temp":26.5,"humidity":82,"rain":0.0,"pressure":952.9,"uv_index":9.25,"wind_gusts":34.2,"aqi":94,"pm10":26.4,"pm2_5":25.4,"mosquito_risk":7,"arthritis_risk":5,"migraine_risk":7,"frizz_risk":1,"updated_at":"2026-04-28T04:26:18.138662+05:30"},{"city":"Tirupur","state":"Tamil Nadu","latitude":11.1085,"longitude":77.3411,"temp":26.3,"humidity":88,"rain":0.0,"pressure":973.0,"uv_index":8.3,"wind_gusts":33.8,"aqi":78,"pm10":32.8,"pm2_5":31.0,"mosquito_risk":7,"arthritis_risk":5,"migraine_risk":7,"frizz_risk":1,"updated_at":"2026-04-28T04:26:18.138668+05:30"},{"city":"Alappuzha","state":"Kerala","latitude":9.4981,"longitude":76.3388,"temp":25.8,"humidity":95,"rain":0.0,"pressure":1007.0,"uv_index":7.5,"wind_gusts":36.0,"aqi":77,"pm10":27.4,"pm2_5":23.1,"mosquito_risk":7,"arthritis_risk":5,"migraine_risk":4,"frizz_risk":1,"updated_at":"2026-04-28T04:26:18.138674+05:30"},{"city":"Munnar","state":"Kerala","latitude":10.0889,"longitude":77.0595,"temp":18.4,"humidity":80,"rain":0.0,"pressure":855.2,"uv_index":8.65,"wind_gusts":26.6,"aqi":78,"pm10":34.2,"pm2_5":31.8,"mosquito_risk":3,"arthritis_risk":5,"migraine_risk":7,"frizz_risk":0,"updated_at":"2026-04-28T04:26:18.138681+05:30"},{"city":"Silchar","state":"Assam","latitude":24.8333,"longitude":92.7789,"temp":22.0,"humidity":92,"rain":0.1,"pressure":1001.6,"uv_index":7.95,"wind_gusts":34.2,"aqi":142,"pm10":29.1,"pm2_5":21.2,"mosquito_risk":6,"arthritis_risk":5,"migraine_risk":4,"frizz_risk":1,"updated_at":"2026-04-28T04:26:18.138687+05:30"},{"city":"Dibrugarh","state":"Assam","latitude":27.4728,"longitude":94.912,"temp":20.5,"humidity":97,"rain":0.1,"pressure":994.1,"uv_index":8.25,"wind_gusts":18.0,"aqi":108,"pm10":43.8,"pm2_5":34.1,"mosquito_risk":6,"arthritis_risk":5,"migraine_risk":7,"frizz_risk":1,"updated_at":"2026-04-28T04:26:18.138693+05:30"}]