[{"city":"Delhi","state":"Delhi","latitude":28.6139,"longitude":77.209,"temp":29.6,"humidity":44,"rain":0.0,"pressure":983.3,"uv_index":7.55,"wind_gusts":38.2,"aqi":292,"pm10":388.4,"pm2_5":65.4,"no2":16.0,"co":441.0,"o3":163.0,"so2":19.9,"mosquito_risk":4,"arthritis_risk":5,"migraine_risk":7,"frizz_risk":0,"updated_at":"2026-05-08T19:26:30.098495+05:30"},{"city":"Mumbai","state":"Maharashtra","latitude":19.076,"longitude":72.8777,"temp":30.0,"humidity":80,"rain":0.0,"pressure":1005.4,"uv_index":7.85,"wind_gusts":48.2,"aqi":137,"pm10":44.9,"pm2_5":20.0,"no2":10.6,"co":273.0,"o3":82.0,"so2":7.7,"mosquito_risk":7,"arthritis_risk":5,"migraine_risk":4,"frizz_risk":1,"updated_at":"2026-05-08T19:26:30.098539+05:30"},{"city":"Bangalore","state":"Karnataka","latitude":12.9716,"longitude":77.5946,"temp":26.4,"humidity":64,"rain":0.0,"pressure":910.9,"uv_index":9.45,"wind_gusts":45.4,"aqi":51,"pm10":13.3,"pm2_5":11.9,"no2":15.6,"co":331.0,"o3":79.0,"so2":5.6,"mosquito_risk":7,"arthritis_risk":5,"migraine_risk":7,"frizz_risk":1,"updated_at":"2026-05-08T19:26:30.098555+05:30"},{"city":"Hyderabad","state":"Telangana","latitude":17.385,"longitude":78.4867,"temp":32.2,"humidity":39,"rain":0.0,"pressure":952.9,"uv_index":9.25,"wind_gusts":39.2,"aqi":72,"pm10":18.2,"pm2_5":14.8,"no2":6.4,"co":319.0,"o3":121.0,"so2":4.9,"mosquito_risk":0,"arthritis_risk":5,"migraine_risk":7,"frizz_risk":1,"updated_at":"2026-05-08T19:26:30.098570+05:30"},{"city":"Chennai","state":"Tamil Nadu","latitude":13.0827,"longitude":80.2707,"temp":28.9,"humidity":74,"rain":0.0,"pressure":1006.1,"uv_index":8.05,"wind_gusts":44.3,"aqi":23,"pm10":3.9,"pm2_5":2.8,"no2":5.1,"co":148.0,"o3":39.0,"so2":4.2,"mosquito_risk":7,"arthritis_risk":5,"migraine_risk":4,"frizz_risk":1,"updated_at":"2026-05-08T19:26:30.098579+05:30"},{"city":"Kolkata","state":"West Bengal","latitude":22.5726,"longitude":88.3639,"temp":24.8,"humidity":89,"rain":0.0,"pressure":1008.8,"uv_index":8.9,"wind_gusts":29.2,"aqi":135,"pm10":73.1,"pm2_5":69.8,"no2":22.2,"co":719.0,"o3":152.0,"so2":20.1,"mosquito_risk":3,"arthritis_risk":0,"migraine_risk":4,"frizz_risk":1,"updated_at":"2026-05-08T19:26:30.098588+05:30"},{"city":"Pune","state":"Maharashtra","latitude":18.5204,"longitude":73.8567,"temp":34.2,"humidity":23,"rain":0.0,"pressure":946.4,"uv_index":8.45,"wind_gusts":40.7,"aqi":134,"pm10":60.5,"pm2_5":30.4,"no2":6.6,"co":340.0,"o3":144.0,"so2":6.7,"mosquito_risk":0,"arthritis_risk":5,"migraine_risk":7,"frizz_risk":0,"updated_at":"2026-05-08T19:26:30.098596+05:30"},{"city":"Ahmedabad","state":"Gujarat","latitude":23.0225,"longitude":72.5714,"temp":40.4,"humidity":12,"rain":0.0,"pressure":998.9,"uv_index":8.1,"wind_gusts":27.7,"aqi":105,"pm10":40.3,"pm2_5":16.0,"no2":14.8,"co":313.0,"o3":117.0,"so2":6.9,"mosquito_risk":0,"arthritis_risk":5,"migraine_risk":10,"frizz_risk":0,"updated_at":"2026-05-08T19:26:30.098607+05:30"},{"city":"Jaipur","state":"Rajasthan","latitude":26.9124,"longitude":75.7873,"temp":33.3,"humidity":26,"rain":0.0,"pressure":958.1,"uv_index":8.1,"wind_gusts":36.4,"aqi":155,"pm10":311.1,"pm2_5":49.0,"no2":5.3,"co":241.0,"o3":142.0,"so2":4.8,"mosquito_risk":0,"arthritis_risk":5,"migraine_risk":7,"frizz_risk":0,"updated_at":"2026-05-08T19:26:30.098615+05:30"},{"city":"Lucknow","state":"Uttar Pradesh","latitude":26.8467,"longitude":80.9462,"temp":28.2,"humidity":55,"rain":0.0,"pressure":994.4,"uv_index":8.05,"wind_gusts":27.0,"aqi":166,"pm10":54.8,"pm2_5":31.9,"no2":7.0,"co":352.0,"o3":149.0,"so2":8.6,"mosquito_risk":4,"arthritis_risk":5,"migraine_risk":7,"frizz_risk":1,"updated_at":"2026-05-08T19:26:30.098624+05:30"},{"city":"Kanpur","state":"Uttar Pradesh","latitude":26.4499,"longitude":80.3319,"temp":29.5,"humidity":50,"rain":0.0,"pressure":992.2,"uv_index":8.05,"wind_gusts":27.7,"aqi":176,"pm10":186.7,"pm2_5":39.6,"no2":5.4,"co":261.0,"o3":159.0,"so2":8.2,"mosquito_risk":4,"arthritis_risk":5,"migraine_risk":7,"frizz_risk":1,"updated_at":"2026-05-08T19:26:30.098632+05:30"},{"city":"Chandigarh","state":"Chandigarh","latitude":30.7333,"longitude":76.7794,"temp":26.4,"humidity":50,"rain":0.0,"pressure":970.1,"uv_index":7.55,"wind_gusts":37.8,"aqi":169,"pm10":90.8,"pm2_5":29.7,"no2":12.5,"co":476.0,"o3":144.0,"so2":5.6,"mosquito_risk":4,"arthritis_risk":5,"migraine_risk":7,"frizz_risk":0,"updated_at":"2026-05-08T19:26:30.098639+05:30"},{"city":"Srinagar","state":"Jammu and Kashmir","latitude":34.0837,"longitude":74.7973,"temp":20.2,"humidity":59,"rain":0.0,"pressure":840.2,"uv_index":8.8,"wind_gusts":28.1,"aqi":100,"pm10":54.0,"pm2_5":15.4,"no2":12.6,"co":730.0,"o3":114.0,"so2":2.8,"mosquito_risk":0,"arthritis_risk":5,"migraine_risk":7,"frizz_risk":0,"updated_at":"2026-05-08T19:26:30.098647+05:30"},{"city":"Jammu","state":"Jammu and Kashmir","latitude":32.7266,"longitude":74.857,"temp":28.5,"humidity":46,"rain":0.0,"pressure":973.5,"uv_index":8.35,"wind_gusts":34.9,"aqi":169,"pm10":105.7,"pm2_5":32.8,"no2":10.1,"co":418.0,"o3":159.0,"so2":7.0,"mosquito_risk":4,"arthritis_risk":5,"migraine_risk":7,"frizz_risk":0,"updated_at":"2026-05-08T19:26:30.098656+05:30"},{"city":"Amritsar","state":"Punjab","latitude":31.634,"longitude":74.8723,"temp":29.5,"humidity":45,"rain":0.0,"pressure":981.3,"uv_index":8.2,"wind_gusts":31.3,"aqi":160,"pm10":226.8,"pm2_5":51.9,"no2":2.7,"co":380.0,"o3":165.0,"so2":8.1,"mosquito_risk":4,"arthritis_risk":5,"migraine_risk":7,"frizz_risk":1,"updated_at":"2026-05-08T19:26:30.098663+05:30"},{"city":"Ludhiana","state":"Punjab","latitude":30.901,"longitude":75.8573,"temp":29.1,"humidity":46,"rain":0.0,"pressure":979.5,"uv_index":7.8,"wind_gusts":30.6,"aqi":183,"pm10":207.7,"pm2_5":51.2,"no2":6.3,"co":335.0,"o3":160.0,"so2":11.2,"mosquito_risk":4,"arthritis_risk":5,"migraine_risk":7,"frizz_risk":1,"updated_at":"2026-05-08T19:26:30.098670+05:30"},{"city":"Jalandhar","state":"Punjab","latitude":31.326,"longitude":75.5762,"temp":27.6,"humidity":48,"rain":0.0,"pressure":980.3,"uv_index":8.0,"wind_gusts":31.7,"aqi":171,"pm10":289.6,"pm2_5":63.8,"no2":5.0,"co":352.0,"o3":165.0,"so2":12.2,"mosquito_risk":4,"arthritis_risk":5,"migraine_risk":7,"frizz_risk":0,"updated_at":"2026-05-08T19:26:30.098677+05:30"},{"city":"Dehradun","state":"Uttarakhand","latitude":30.6284,"longitude":78.0322,"temp":14.8,"humidity":79,"rain":0.0,"pressure":830.9,"uv_index":5.65,"wind_gusts":22.7,"aqi":120,"pm10":25.6,"pm2_5":9.6,"no2":9.4,"co":204.0,"o3":129.0,"so2":0.8,"mosquito_risk":3,"arthritis_risk":5,"migraine_risk":3,"frizz_risk":0,"updated_at":"2026-05-08T19:26:30.098686+05:30"},{"city":"Shimla","state":"Himachal Pradesh","latitude":31.1048,"longitude":77.1734,"temp":11.9,"humidity":78,"rain":0.0,"pressure":784.3,"uv_index":7.3,"wind_gusts":24.5,"aqi":135,"pm10":33.1,"pm2_5":13.6,"no2":6.8,"co":289.0,"o3":128.0,"so2":0.4,"mosquito_risk":3,"arthritis_risk":5,"migraine_risk":7,"frizz_risk":0,"updated_at":"2026-05-08T19:26:30.098694+05:30"},{"city":"Manali","state":"Himachal Pradesh","latitude":32.2396,"longitude":77.1887,"temp":11.8,"humidity":85,"rain":0.0,"pressure":817.5,"uv_index":9.9,"wind_gusts":33.1,"aqi":139,"pm10":29.4,"pm2_5":7.6,"no2":9.6,"co":241.0,"o3":152.0,"so2":0.6,"mosquito_risk":3,"arthritis_risk":10,"migraine_risk":7,"frizz_risk":0,"updated_at":"2026-05-08T19:26:30.098703+05:30"},{"city":"Gurgaon","state":"Haryana","latitude":28.4595,"longitude":77.0266,"temp":28.9,"humidity":44,"rain":0.0,"pressure":981.4,"uv_index":7.65,"wind_gusts":40.3,"aqi":1837,"pm10":1873.8,"pm2_5":204.4,"no2":15.0,"co":466.0,"o3":162.0,"so2":18.4,"mosquito_risk":4,"arthritis_risk":5,"migraine_risk":7,"frizz_risk":0,"updated_at":"2026-05-08T19:26:30.098710+05:30"},{"city":"Noida","state":"Uttar Pradesh","latitude":28.5355,"longitude":77.391,"temp":27.8,"humidity":53,"rain":0.0,"pressure":984.7,"uv_index":7.6,"wind_gusts":36.7,"aqi":1837,"pm10":1873.8,"pm2_5":204.4,"no2":15.0,"co":469.0,"o3":162.0,"so2":18.4,"mosquito_risk":4,"arthritis_risk":5,"migraine_risk":7,"frizz_risk":1,"updated_at":"2026-05-08T19:26:30.098717+05:30"},{"city":"Ghaziabad","state":"Uttar Pradesh","latitude":28.6692,"longitude":77.4538,"temp":27.5,"humidity":54,"rain":0.0,"pressure":983.1,"uv_index":7.55,"wind_gusts":40.0,"aqi":170,"pm10":253.3,"pm2_5":51.0,"no2":6.7,"co":308.0,"o3":161.0,"so2":10.4,"mosquito_risk":4,"arthritis_risk":5,"migraine_risk":7,"frizz_risk":1,"updated_at":"2026-05-08T19:26:30.098724+05:30"},{"city":"Faridabad","state":"Haryana","latitude":28.4089,"longitude":77.3178,"temp":28.8,"humidity":49,"rain":0.0,"pressure":984.0,"uv_index":7.6,"wind_gusts":38.9,"aqi":1837,"pm10":1873.8,"pm2_5":204.4,"no2":15.0,"co":419.0,"o3":162.0,"so2":18.4,"mosquito_risk":4,"arthritis_risk":5,"migraine_risk":7,"frizz_risk":1,"updated_at":"2026-05-08T19:26:30.098730+05:30"},{"city":"Meerut","state":"Uttar Pradesh","latitude":28.9845,"longitude":77.7064,"temp":26.6,"humidity":58,"rain":0.0,"pressure":982.3,"uv_index":7.5,"wind_gusts":40.7,"aqi":170,"pm10":253.3,"pm2_5":51.0,"no2":6.7,"co":343.0,"o3":161.0,"so2":10.4,"mosquito_risk":4,"arthritis_risk":5,"migraine_risk":7,"frizz_risk":1,"updated_at":"2026-05-08T19:26:30.098737+05:30"},{"city":"Agra","state":"Uttar Pradesh","latitude":27.1767,"longitude":78.0081,"temp":29.0,"humidity":47,"rain":0.0,"pressure":986.9,"uv_index":7.9,"wind_gusts":33.5,"aqi":1108,"pm10":1192.1,"pm2_5":127.1,"no2":7.1,"co":307.0,"o3":155.0,"so2":11.6,"mosquito_risk":4,"arthritis_risk":5,"migraine_risk":7,"frizz_risk":1,"updated_at":"2026-05-08T19:26:30.098744+05:30"},{"city":"Varanasi","state":"Uttar Pradesh","latitude":25.3176,"longitude":82.9739,"temp":29.2,"humidity":49,"rain":0.0,"pressure":998.4,"uv_index":8.55,"wind_gusts":32.8,"aqi":200,"pm10":63.8,"pm2_5":43.1,"no2":11.3,"co":450.0,"o3":164.0,"so2":14.7,"mosquito_risk":4,"arthritis_risk":5,"migraine_risk":7,"frizz_risk":1,"updated_at":"2026-05-08T19:26:30.098752+05:30"},{"city":"Prayagraj","state":"Uttar Pradesh","latitude":25.4358,"longitude":81.8463,"temp":31.0,"humidity":43,"rain":0.0,"pressure":996.0,"uv_index":8.45,"wind_gusts":33.5,"aqi":197,"pm10":67.3,"pm2_5":41.3,"no2":11.0,"co":309.0,"o3":161.0,"so2":11.6,"mosquito_risk":0,"arthritis_risk":5,"migraine_risk":7,"frizz_risk":1,"updated_at":"2026-05-08T19:26:30.098761+05:30"},{"city":"Gorakhpur","state":"Uttar Pradesh","latitude":26.7606,"longitude":83.3732,"temp":26.7,"humidity":58,"rain":0.0,"pressure":999.1,"uv_index":8.4,"wind_gusts":29.5,"aqi":171,"pm10":60.8,"pm2_5":31.4,"no2":5.6,"co":394.0,"o3":165.0,"so2":6.6,"mosquito_risk":4,"arthritis_risk":5,"migraine_risk":7,"frizz_risk":1,"updated_at":"2026-05-08T19:26:30.098768+05:30"},{"city":"Bareilly","state":"Uttar Pradesh","latitude":28.367,"longitude":79.4304,"temp":27.1,"humidity":54,"rain":0.0,"pressure":987.7,"uv_index":7.85,"wind_gusts":34.9,"aqi":169,"pm10":102.9,"pm2_5":34.3,"no2":8.8,"co":318.0,"o3":146.0,"so2":8.8,"mosquito_risk":4,"arthritis_risk":5,"migraine_risk":7,"frizz_risk":1,"updated_at":"2026-05-08T19:26:30.098774+05:30"},{"city":"Aligarh","state":"Uttar Pradesh","latitude":27.8974,"longitude":78.088,"temp":29.0,"humidity":45,"rain":0.0,"pressure":985.4,"uv_index":7.7,"wind_gusts":38.9,"aqi":695,"pm10":651.9,"pm2_5":85.2,"no2":5.0,"co":292.0,"o3":159.0,"so2":11.2,"mosquito_risk":4,"arthritis_risk":5,"migraine_risk":7,"frizz_risk":0,"updated_at":"2026-05-08T19:26:30.098781+05:30"},{"city":"Moradabad","state":"Uttar Pradesh","latitude":28.8386,"longitude":78.7733,"temp":26.8,"humidity":61,"rain":0.0,"pressure":984.6,"uv_index":7.65,"wind_gusts":37.1,"aqi":177,"pm10":86.4,"pm2_5":37.3,"no2":10.3,"co":386.0,"o3":148.0,"so2":10.9,"mosquito_risk":7,"arthritis_risk":5,"migraine_risk":7,"frizz_risk":1,"updated_at":"2026-05-08T19:26:30.098787+05:30"},{"city":"Saharanpur","state":"Uttar Pradesh","latitude":29.9637,"longitude":77.546,"temp":25.5,"humidity":63,"rain":0.0,"pressure":977.1,"uv_index":7.25,"wind_gusts":36.4,"aqi":154,"pm10":78.0,"pm2_5":31.8,"no2":12.4,"co":440.0,"o3":132.0,"so2":7.5,"mosquito_risk":7,"arthritis_risk":5,"migraine_risk":7,"frizz_risk":1,"updated_at":"2026-05-08T19:26:30.098816+05:30"},{"city":"Jhansi","state":"Uttar Pradesh","latitude":25.4484,"longitude":78.5685,"temp":30.2,"humidity":39,"rain":0.0,"pressure":976.8,"uv_index":8.35,"wind_gusts":27.7,"aqi":139,"pm10":50.5,"pm2_5":16.9,"no2":4.0,"co":225.0,"o3":117.0,"so2":8.6,"mosquito_risk":0,"arthritis_risk":5,"migraine_risk":7,"frizz_risk":0,"updated_at":"2026-05-08T19:26:33.398299+05:30"},{"city":"Surat","state":"Gujarat","latitude":21.1702,"longitude":72.8311,"temp":32.0,"humidity":54,"rain":0.0,"pressure":1004.1,"uv_index":7.7,"wind_gusts":33.5,"aqi":111,"pm10":60.8,"pm2_5":41.1,"no2":57.6,"co":833.0,"o3":65.0,"so2":79.7,"mosquito_risk":0,"arthritis_risk":5,"migraine_risk":4,"frizz_risk":1,"updated_at":"2026-05-08T19:26:33.398335+05:30"},{"city":"Vadodara","state":"Gujarat","latitude":22.3072,"longitude":73.1812,"temp":38.2,"humidity":16,"rain":0.0,"pressure":1001.0,"uv_index":8.05,"wind_gusts":27.0,"aqi":148,"pm10":48.9,"pm2_5":20.8,"no2":13.9,"co":250.0,"o3":129.0,"so2":6.9,"mosquito_risk":0,"arthritis_risk":5,"migraine_risk":7,"frizz_risk":0,"updated_at":"2026-05-08T19:26:33.398346+05:30"},{"city":"Rajkot","state":"Gujarat","latitude":22.3039,"longitude":70.8022,"temp":33.3,"humidity":51,"rain":0.0,"pressure":992.2,"uv_index":7.7,"wind_gusts":46.8,"aqi":100,"pm10":40.0,"pm2_5":14.4,"no2":2.8,"co":160.0,"o3":131.0,"so2":5.2,"mosquito_risk":0,"arthritis_risk":5,"migraine_risk":7,"frizz_risk":1,"updated_at":"2026-05-08T19:26:33.398355+05:30"},{"city":"Thane","state":"Maharashtra","latitude":19.2183,"longitude":72.9781,"temp":31.4,"humidity":67,"rain":0.0,"pressure":1004.7,"uv_index":7.85,"wind_gusts":45.4,"aqi":137,"pm10":44.9,"pm2_5":20.0,"no2":10.6,"co":225.0,"o3":82.0,"so2":7.7,"mosquito_risk":3,"arthritis_risk":5,"migraine_risk":4,"frizz_risk":1,"updated_at":"2026-05-08T19:26:33.398363+05:30"},{"city":"Nagpur","state":"Maharashtra","latitude":21.1458,"longitude":79.0882,"temp":35.7,"humidity":21,"rain":0.0,"pressure":972.3,"uv_index":8.9,"wind_gusts":32.0,"aqi":195,"pm10":51.2,"pm2_5":35.5,"no2":13.7,"co":252.0,"o3":183.0,"so2":28.9,"mosquito_risk":0,"arthritis_risk":5,"migraine_risk":10,"frizz_risk":0,"updated_at":"2026-05-08T19:26:33.398371+05:30"},{"city":"Nashik","state":"Maharashtra","latitude":19.9975,"longitude":73.7898,"temp":32.3,"humidity":36,"rain":0.0,"pressure":944.0,"uv_index":8.15,"wind_gusts":40.3,"aqi":109,"pm10":45.3,"pm2_5":18.5,"no2":3.0,"co":203.0,"o3":133.0,"so2":4.1,"mosquito_risk":0,"arthritis_risk":5,"migraine_risk":7,"frizz_risk":0,"updated_at":"2026-05-08T19:26:33.398379+05:30"},{"city":"Aurangabad","state":"Maharashtra","latitude":19.8762,"longitude":75.3433,"temp":34.2,"humidity":20,"rain":0.0,"pressure":942.8,"uv_index":9.05,"wind_gusts":34.9,"aqi":148,"pm10":56.5,"pm2_5":27.5,"no2":5.9,"co":286.0,"o3":153.0,"so2":9.2,"mosquito_risk":0,"arthritis_risk":5,"migraine_risk":7,"frizz_risk":0,"updated_at":"2026-05-08T19:26:33.398386+05:30"},{"city":"Solapur","state":"Maharashtra","latitude":17.6599,"longitude":75.9064,"temp":35.3,"humidity":26,"rain":0.0,"pressure":955.3,"uv_index":9.05,"wind_gusts":32.4,"aqi":119,"pm10":34.2,"pm2_5":22.3,"no2":4.1,"co":225.0,"o3":140.0,"so2":3.7,"mosquito_risk":0,"arthritis_risk":5,"migraine_risk":10,"frizz_risk":0,"updated_at":"2026-05-08T19:26:33.398394+05:30"},{"city":"Kolhapur","state":"Maharashtra","latitude":16.705,"longitude":74.2433,"temp":30.1,"humidity":50,"rain":0.0,"pressure":946.0,"uv_index":8.9,"wind_gusts":38.9,"aqi":146,"pm10":67.3,"pm2_5":50.9,"no2":16.4,"co":276.0,"o3":131.0,"so2":6.1,"mosquito_risk":0,"arthritis_risk":5,"migraine_risk":7,"frizz_risk":1,"updated_at":"2026-05-08T19:26:33.398402+05:30"},{"city":"Goa","state":"Goa","latitude":15.2993,"longitude":74.124,"temp":32.2,"humidity":64,"rain":0.0,"pressure":994.9,"uv_index":8.8,"wind_gusts":41.4,"aqi":109,"pm10":57.7,"pm2_5":29.5,"no2":3.6,"co":209.0,"o3":100.0,"so2":3.1,"mosquito_risk":3,"arthritis_risk":5,"migraine_risk":7,"frizz_risk":1,"updated_at":"2026-05-08T19:26:33.398409+05:30"},{"city":"Jodhpur","state":"Rajasthan","latitude":26.2389,"longitude":73.0243,"temp":37.8,"humidity":15,"rain":0.0,"pressure":980.4,"uv_index":8.3,"wind_gusts":40.0,"aqi":119,"pm10":130.4,"pm2_5":21.4,"no2":4.9,"co":183.0,"o3":115.0,"so2":2.5,"mosquito_risk":0,"arthritis_risk":5,"migraine_risk":10,"frizz_risk":0,"updated_at":"2026-05-08T19:26:33.398416+05:30"},{"city":"Udaipur","state":"Rajasthan","latitude":24.5854,"longitude":73.7125,"temp":33.0,"humidity":20,"rain":0.0,"pressure":944.8,"uv_index":8.75,"wind_gusts":33.8,"aqi":98,"pm10":28.0,"pm2_5":9.8,"no2":1.3,"co":241.0,"o3":127.0,"so2":2.0,"mosquito_risk":0,"arthritis_risk":5,"migraine_risk":7,"frizz_risk":0,"updated_at":"2026-05-08T19:26:33.398423+05:30"},{"city":"Kota","state":"Rajasthan","latitude":25.2138,"longitude":75.8648,"temp":33.2,"humidity":24,"rain":0.0,"pressure":976.7,"uv_index":8.35,"wind_gusts":42.8,"aqi":109,"pm10":86.8,"pm2_5":20.5,"no2":5.9,"co":235.0,"o3":117.0,"so2":3.3,"mosquito_risk":0,"arthritis_risk":5,"migraine_risk":7,"frizz_risk":0,"updated_at":"2026-05-08T19:26:33.398430+05:30"},{"city":"Bikaner","state":"Rajasthan","latitude":28.0229,"longitude":73.3119,"temp":37.2,"humidity":16,"rain":0.0,"pressure":979.4,"uv_index":8.2,"wind_gusts":32.8,"aqi":137,"pm10":92.7,"pm2_5":26.7,"no2":1.3,"co":269.0,"o3":154.0,"so2":7.3,"mosquito_risk":0,"arthritis_risk":5,"migraine_risk":10,"frizz_risk":0,"updated_at":"2026-05-08T19:26:33.398437+05:30"},{"city":"Ajmer","state":"Rajasthan","latitude":26.4499,"longitude":74.6399,"temp":32.5,"humidity":23,"rain":0.0,"pressure":953.3,"uv_index":8.25,"wind_gusts":55.4,"aqi":88,"pm10":46.6,"pm2_5":16.1,"no2":4.3,"co":192.0,"o3":121.0,"so2":3.9,"mosquito_risk":0,"arthritis_risk":5,"migraine_risk":7,"frizz_risk":0,"updated_at":"2026-05-08T19:26:33.398443+05:30"},{"city":"Gwalior","state":"Madhya Pradesh","latitude":26.2183,"longitude":78.1828,"temp":28.2,"humidity":60,"rain":0.0,"pressure":981.8,"uv_index":8.15,"wind_gusts":34.6,"aqi":136,"pm10":34.1,"pm2_5":17.0,"no2":3.7,"co":247.0,"o3":126.0,"so2":5.4,"mosquito_risk":4,"arthritis_risk":5,"migraine_risk":7,"frizz_risk":1,"updated_at":"2026-05-08T19:26:33.398450+05:30"},{"city":"Indore","state":"Madhya Pradesh","latitude":22.7196,"longitude":75.8577,"temp":35.8,"humidity":14,"rain":0.0,"pressure":946.9,"uv_index":8.65,"wind_gusts":31.0,"aqi":137,"pm10":46.3,"pm2_5":18.7,"no2":7.2,"co":357.0,"o3":138.0,"so2":4.6,"mosquito_risk":0,"arthritis_risk":5,"migraine_risk":10,"frizz_risk":0,"updated_at":"2026-05-08T19:26:33.398457+05:30"},{"city":"Bhopal","state":"Madhya Pradesh","latitude":23.2599,"longitude":77.4126,"temp":35.5,"humidity":17,"rain":0.0,"pressure":952.4,"uv_index":8.65,"wind_gusts":38.9,"aqi":140,"pm10":44.2,"pm2_5":21.5,"no2":4.5,"co":267.0,"o3":136.0,"so2":5.0,"mosquito_risk":0,"arthritis_risk":5,"migraine_risk":10,"frizz_risk":0,"updated_at":"2026-05-08T19:26:33.398464+05:30"},{"city":"Jabalpur","state":"Madhya Pradesh","latitude":23.1815,"longitude":79.9864,"temp":32.4,"humidity":27,"rain":0.0,"pressure":960.9,"uv_index":8.75,"wind_gusts":35.6,"aqi":151,"pm10":48.0,"pm2_5":20.7,"no2":7.9,"co":249.0,"o3":137.0,"so2":4.3,"mosquito_risk":0,"arthritis_risk":5,"migraine_risk":7,"frizz_risk":0,"updated_at":"2026-05-08T19:26:33.398471+05:30"},{"city":"Ujjain","state":"Madhya Pradesh","latitude":23.1765,"longitude":75.7885,"temp":35.2,"humidity":15,"rain":0.0,"pressure":952.2,"uv_index":8.55,"wind_gusts":27.4,"aqi":115,"pm10":47.5,"pm2_5":23.6,"no2":6.1,"co":311.0,"o3":125.0,"so2":4.4,"mosquito_risk":0,"arthritis_risk":5,"migraine_risk":10,"frizz_risk":0,"updated_at":"2026-05-08T19:26:33.398478+05:30"},{"city":"Visakhapatnam","state":"Andhra Pradesh","latitude":17.6868,"longitude":83.2185,"temp":28.3,"humidity":73,"rain":0.0,"pressure":1004.4,"uv_index":9.15,"wind_gusts":37.4,"aqi":59,"pm10":16.4,"pm2_5":14.1,"no2":21.3,"co":422.0,"o3":30.0,"so2":16.1,"mosquito_risk":7,"arthritis_risk":5,"migraine_risk":4,"frizz_risk":1,"updated_at":"2026-05-08T19:26:33.398485+05:30"},{"city":"Vijayawada","state":"Andhra Pradesh","latitude":16.5062,"longitude":80.648,"temp":30.0,"humidity":67,"rain":0.0,"pressure":1002.7,"uv_index":9.2,"wind_gusts":43.9,"aqi":38,"pm10":10.1,"pm2_5":7.9,"no2":4.8,"co":146.0,"o3":61.0,"so2":5.1,"mosquito_risk":7,"arthritis_risk":5,"migraine_risk":4,"frizz_risk":1,"updated_at":"2026-05-08T19:26:33.398492+05:30"},{"city":"Guntur","state":"Andhra Pradesh","latitude":16.3067,"longitude":80.4365,"temp":30.1,"humidity":66,"rain":0.0,"pressure":1003.8,"uv_index":9.2,"wind_gusts":45.4,"aqi":42,"pm10":10.6,"pm2_5":8.4,"no2":4.5,"co":214.0,"o3":77.0,"so2":5.0,"mosquito_risk":3,"arthritis_risk":5,"migraine_risk":4,"frizz_risk":1,"updated_at":"2026-05-08T19:26:33.398499+05:30"},{"city":"Nellore","state":"Andhra Pradesh","latitude":14.4426,"longitude":79.9865,"temp":28.7,"humidity":76,"rain":0.0,"pressure":1005.4,"uv_index":8.95,"wind_gusts":40.0,"aqi":28,"pm10":4.6,"pm2_5":3.2,"no2":2.0,"co":134.0,"o3":43.0,"so2":1.7,"mosquito_risk":7,"arthritis_risk":5,"migraine_risk":4,"frizz_risk":1,"updated_at":"2026-05-08T19:26:33.398506+05:30"},{"city":"Kurnool","state":"Andhra Pradesh","latitude":15.8281,"longitude":78.0373,"temp":32.8,"humidity":41,"rain":0.0,"pressure":975.7,"uv_index":9.15,"wind_gusts":43.9,"aqi":46,"pm10":12.2,"pm2_5":9.3,"no2":2.4,"co":179.0,"o3":107.0,"so2":1.3,"mosquito_risk":0,"arthritis_risk":5,"migraine_risk":7,"frizz_risk":1,"updated_at":"2026-05-08T19:26:33.398513+05:30"},{"city":"Kakinada","state":"Andhra Pradesh","latitude":16.9891,"longitude":82.2475,"temp":27.2,"humidity":86,"rain":0.0,"pressure":1007.8,"uv_index":9.1,"wind_gusts":47.9,"aqi":24,"pm10":6.5,"pm2_5":4.3,"no2":1.2,"co":148.0,"o3":48.0,"so2":0.5,"mosquito_risk":7,"arthritis_risk":5,"migraine_risk":4,"frizz_risk":1,"updated_at":"2026-05-08T19:26:33.398520+05:30"},{"city":"Tirupati","state":"Andhra Pradesh","latitude":13.6288,"longitude":79.4192,"temp":29.0,"humidity":65,"rain":0.0,"pressure":990.4,"uv_index":8.4,"wind_gusts":44.6,"aqi":27,"pm10":3.8,"pm2_5":3.1,"no2":3.9,"co":141.0,"o3":42.0,"so2":0.9,"mosquito_risk":7,"arthritis_risk":5,"migraine_risk":7,"frizz_risk":1,"updated_at":"2026-05-08T19:26:33.398527+05:30"},{"city":"Warangal","state":"Telangana","latitude":17.9689,"longitude":79.5941,"temp":30.5,"humidity":53,"rain":0.0,"pressure":978.8,"uv_index":9.15,"wind_gusts":35.3,"aqi":83,"pm10":24.0,"pm2_5":18.5,"no2":4.3,"co":268.0,"o3":126.0,"so2":4.2,"mosquito_risk":0,"arthritis_risk":5,"migraine_risk":7,"frizz_risk":1,"updated_at":"2026-05-08T19:26:33.398533+05:30"},{"city":"Nizamabad","state":"Telangana","latitude":18.6725,"longitude":78.0941,"temp":32.5,"humidity":38,"rain":0.0,"pressure":963.7,"uv_index":9.1,"wind_gusts":31.0,"aqi":119,"pm10":29.1,"pm2_5":20.7,"no2":5.5,"co":258.0,"o3":140.0,"so2":5.7,"mosquito_risk":0,"arthritis_risk":5,"migraine_risk":7,"frizz_risk":1,"updated_at":"2026-05-08T19:26:33.398539+05:30"},{"city":"Mysore","state":"Karnataka","latitude":12.2958,"longitude":76.6396,"temp":24.0,"humidity":81,"rain":0.1,"pressure":926.4,"uv_index":8.9,"wind_gusts":38.5,"aqi":79,"pm10":17.4,"pm2_5":15.1,"no2":11.1,"co":305.0,"o3":109.0,"so2":5.0,"mosquito_risk":6,"arthritis_risk":5,"migraine_risk":7,"frizz_risk":1,"updated_at":"2026-05-08T19:26:33.398546+05:30"},{"city":"Mangalore","state":"Karnataka","latitude":12.9141,"longitude":74.856,"temp":29.9,"humidity":81,"rain":0.0,"pressure":1003.9,"uv_index":9.0,"wind_gusts":41.4,"aqi":101,"pm10":47.0,"pm2_5":28.2,"no2":3.0,"co":311.0,"o3":116.0,"so2":2.5,"mosquito_risk":7,"arthritis_risk":5,"migraine_risk":4,"frizz_risk":1,"updated_at":"2026-05-08T19:26:33.398553+05:30"},{"city":"Hubli-Dharwad","state":"Karnataka","latitude":15.3647,"longitude":75.124,"temp":32.3,"humidity":28,"rain":0.0,"pressure":939.0,"uv_index":9.05,"wind_gusts":37.4,"aqi":101,"pm10":20.9,"pm2_5":15.2,"no2":9.5,"co":210.0,"o3":126.0,"so2":3.8,"mosquito_risk":0,"arthritis_risk":5,"migraine_risk":7,"frizz_risk":0,"updated_at":"2026-05-08T19:26:33.398560+05:30"},{"city":"Belgaum","state":"Karnataka","latitude":15.8497,"longitude":74.4977,"temp":26.5,"humidity":67,"rain":0.0,"pressure":924.2,"uv_index":9.15,"wind_gusts":36.0,"aqi":139,"pm10":41.2,"pm2_5":32.2,"no2":8.8,"co":232.0,"o3":129.0,"so2":4.4,"mosquito_risk":7,"arthritis_risk":5,"migraine_risk":7,"frizz_risk":1,"updated_at":"2026-05-08T19:26:36.693628+05:30"},{"city":"Coimbatore","state":"Tamil Nadu","latitude":11.0168,"longitude":76.9558,"temp":25.8,"humidity":82,"rain":0.1,"pressure":960.1,"uv_index":9.05,"wind_gusts":44.3,"aqi":72,"pm10":17.0,"pm2_5":16.0,"no2":8.0,"co":316.0,"o3":103.0,"so2":5.6,"mosquito_risk":10,"arthritis_risk":5,"migraine_risk":7,"frizz_risk":1,"updated_at":"2026-05-08T19:26:36.693659+05:30"},{"city":"Madurai","state":"Tamil Nadu","latitude":9.9252,"longitude":78.1198,"temp":29.3,"humidity":71,"rain":0.0,"pressure":991.2,"uv_index":8.1,"wind_gusts":35.3,"aqi":53,"pm10":16.4,"pm2_5":16.2,"no2":23.3,"co":319.0,"o3":72.0,"so2":11.5,"mosquito_risk":7,"arthritis_risk":5,"migraine_risk":7,"frizz_risk":1,"updated_at":"2026-05-08T19:26:36.693670+05:30"},{"city":"Trichy","state":"Tamil Nadu","latitude":10.7905,"longitude":78.7047,"temp":30.4,"humidity":65,"rain":0.0,"pressure":997.9,"uv_index":8.55,"wind_gusts":39.6,"aqi":45,"pm10":9.9,"pm2_5":9.7,"no2":13.3,"co":220.0,"o3":51.0,"so2":16.4,"mosquito_risk":3,"arthritis_risk":5,"migraine_risk":7,"frizz_risk":1,"updated_at":"2026-05-08T19:26:36.693679+05:30"},{"city":"Salem","state":"Tamil Nadu","latitude":11.6643,"longitude":78.146,"temp":28.7,"humidity":69,"rain":0.0,"pressure":975.5,"uv_index":7.6,"wind_gusts":34.6,"aqi":60,"pm10":7.3,"pm2_5":6.9,"no2":6.5,"co":286.0,"o3":78.0,"so2":7.2,"mosquito_risk":7,"arthritis_risk":5,"migraine_risk":7,"frizz_risk":1,"updated_at":"2026-05-08T19:26:36.693687+05:30"},{"city":"Tirunelveli","state":"Tamil Nadu","latitude":8.7139,"longitude":77.7567,"temp":26.0,"humidity":93,"rain":0.3,"pressure":1001.9,"uv_index":8.7,"wind_gusts":36.0,"aqi":52,"pm10":10.2,"pm2_5":9.9,"no2":7.4,"co":225.0,"o3":81.0,"so2":3.4,"mosquito_risk":10,"arthritis_risk":5,"migraine_risk":4,"frizz_risk":1,"updated_at":"2026-05-08T19:26:36.693696+05:30"},{"city":"Vellore","state":"Tamil Nadu","latitude":12.9165,"longitude":79.1325,"temp":30.2,"humidity":59,"rain":0.0,"pressure":983.2,"uv_index":7.05,"wind_gusts":54.0,"aqi":43,"pm10":11.1,"pm2_5":10.8,"no2":8.2,"co":197.0,"o3":84.0,"so2":9.3,"mosquito_risk":0,"arthritis_risk":5,"migraine_risk":7,"frizz_risk":1,"updated_at":"2026-05-08T19:26:36.693704+05:30"},{"city":"Erode","state":"Tamil Nadu","latitude":11.341,"longitude":77.7172,"temp":26.1,"humidity":87,"rain":0.0,"pressure":987.4,"uv_index":8.2,"wind_gusts":35.6,"aqi":76,"pm10":15.5,"pm2_5":15.1,"no2":9.3,"co":393.0,"o3":98.0,"so2":6.7,"mosquito_risk":7,"arthritis_risk":5,"migraine_risk":7,"frizz_risk":1,"updated_at":"2026-05-08T19:26:36.693711+05:30"},{"city":"Kochi","state":"Kerala","latitude":9.9312,"longitude":76.2673,"temp":29.2,"humidity":84,"rain":0.0,"pressure":1005.8,"uv_index":4.45,"wind_gusts":25.2,"aqi":129,"pm10":30.3,"pm2_5":27.2,"no2":13.1,"co":369.0,"o3":111.0,"so2":4.5,"mosquito_risk":7,"arthritis_risk":5,"migraine_risk":0,"frizz_risk":1,"updated_at":"2026-05-08T19:26:36.693719+05:30"},{"city":"Thiruvananthapuram","state":"Kerala","latitude":8.5241,"longitude":76.9366,"temp":26.1,"humidity":91,"rain":0.0,"pressure":1006.1,"uv_index":8.3,"wind_gusts":24.1,"aqi":118,"pm10":14.4,"pm2_5":12.2,"no2":4.5,"co":368.0,"o3":136.0,"so2":3.0,"mosquito_risk":7,"arthritis_risk":5,"migraine_risk":4,"frizz_risk":1,"updated_at":"2026-05-08T19:26:36.693726+05:30"},{"city":"Kozhikode","state":"Kerala","latitude":11.2588,"longitude":75.7804,"temp":28.5,"humidity":87,"rain":0.0,"pressure":1004.9,"uv_index":9.0,"wind_gusts":31.7,"aqi":89,"pm10":33.4,"pm2_5":19.2,"no2":1.6,"co":288.0,"o3":103.0,"so2":0.9,"mosquito_risk":7,"arthritis_risk":5,"migraine_risk":4,"frizz_risk":1,"updated_at":"2026-05-08T19:26:36.693733+05:30"},{"city":"Thrissur","state":"Kerala","latitude":10.5276,"longitude":76.2144,"temp":28.2,"humidity":94,"rain":0.0,"pressure":1004.2,"uv_index":8.95,"wind_gusts":27.4,"aqi":101,"pm10":29.5,"pm2_5":26.0,"no2":10.1,"co":496.0,"o3":106.0,"so2":4.0,"mosquito_risk":7,"arthritis_risk":5,"migraine_risk":4,"frizz_risk":1,"updated_at":"2026-05-08T19:26:36.693742+05:30"},{"city":"Kannur","state":"Kerala","latitude":11.8745,"longitude":75.3704,"temp":28.8,"humidity":85,"rain":0.0,"pressure":1004.5,"uv_index":8.85,"wind_gusts":40.0,"aqi":77,"pm10":42.3,"pm2_5":25.3,"no2":4.1,"co":284.0,"o3":106.0,"so2":1.7,"mosquito_risk":7,"arthritis_risk":5,"migraine_risk":4,"frizz_risk":1,"updated_at":"2026-05-08T19:26:36.693750+05:30"},{"city":"Patna","state":"Bihar","latitude":25.5941,"longitude":85.1376,"temp":26.8,"humidity":68,"rain":0.0,"pressure":1002.2,"uv_index":8.65,"wind_gusts":29.9,"aqi":194,"pm10":77.8,"pm2_5":53.0,"no2":12.5,"co":469.0,"o3":164.0,"so2":13.9,"mosquito_risk":7,"arthritis_risk":5,"migraine_risk":4,"frizz_risk":1,"updated_at":"2026-05-08T19:26:36.693757+05:30"},{"city":"Gaya","state":"Bihar","latitude":24.7914,"longitude":85.0002,"temp":28.0,"humidity":55,"rain":0.0,"pressure":995.1,"uv_index":8.75,"wind_gusts":33.8,"aqi":201,"pm10":77.1,"pm2_5":53.2,"no2":8.2,"co":404.0,"o3":173.0,"so2":16.3,"mosquito_risk":4,"arthritis_risk":5,"migraine_risk":7,"frizz_risk":1,"updated_at":"2026-05-08T19:26:36.693764+05:30"},{"city":"Muzaffarpur","state":"Bihar","latitude":26.1209,"longitude":85.3647,"temp":26.0,"humidity":70,"rain":0.0,"pressure":1002.6,"uv_index":8.65,"wind_gusts":28.8,"aqi":201,"pm10":70.8,"pm2_5":52.4,"no2":12.8,"co":442.0,"o3":164.0,"so2":14.3,"mosquito_risk":7,"arthritis_risk":5,"migraine_risk":4,"frizz_risk":1,"updated_at":"2026-05-08T19:26:36.693771+05:30"},{"city":"Bhagalpur","state":"Bihar","latitude":25.2425,"longitude":87.0117,"temp":27.0,"humidity":63,"rain":0.0,"pressure":1003.3,"uv_index":8.6,"wind_gusts":31.0,"aqi":213,"pm10":62.2,"pm2_5":50.9,"no2":11.1,"co":370.0,"o3":187.0,"so2":14.0,"mosquito_risk":7,"arthritis_risk":5,"migraine_risk":4,"frizz_risk":1,"updated_at":"2026-05-08T19:26:36.693778+05:30"},{"city":"Ranchi","state":"Jharkhand","latitude":23.3441,"longitude":85.3096,"temp":24.1,"humidity":69,"rain":0.0,"pressure":939.2,"uv_index":9.2,"wind_gusts":50.4,"aqi":178,"pm10":43.9,"pm2_5":36.1,"no2":7.8,"co":324.0,"o3":161.0,"so2":15.2,"mosquito_risk":3,"arthritis_risk":5,"migraine_risk":7,"frizz_risk":1,"updated_at":"2026-05-08T19:26:36.693786+05:30"},{"city":"Jamshedpur","state":"Jharkhand","latitude":22.8046,"longitude":86.2029,"temp":27.5,"humidity":66,"rain":0.0,"pressure":993.5,"uv_index":9.0,"wind_gusts":49.7,"aqi":162,"pm10":42.3,"pm2_5":31.8,"no2":8.8,"co":352.0,"o3":151.0,"so2":16.0,"mosquito_risk":7,"arthritis_risk":5,"migraine_risk":7,"frizz_risk":1,"updated_at":"2026-05-08T19:26:36.693814+05:30"},{"city":"Dhanbad","state":"Jharkhand","latitude":23.7957,"longitude":86.4304,"temp":24.0,"humidity":85,"rain":0.0,"pressure":981.8,"uv_index":8.95,"wind_gusts":32.4,"aqi":181,"pm10":64.3,"pm2_5":56.5,"no2":27.6,"co":890.0,"o3":162.0,"so2":51.1,"mosquito_risk":3,"arthritis_risk":5,"migraine_risk":7,"frizz_risk":1,"updated_at":"2026-05-08T19:26:36.693823+05:30"},{"city":"Bokaro","state":"Jharkhand","latitude":23.6693,"longitude":86.1511,"temp":24.4,"humidity":78,"rain":0.0,"pressure":985.9,"uv_index":8.95,"wind_gusts":44.3,"aqi":167,"pm10":84.8,"pm2_5":63.6,"no2":26.1,"co":563.0,"o3":149.0,"so2":49.1,"mosquito_risk":3,"arthritis_risk":5,"migraine_risk":7,"frizz_risk":1,"updated_at":"2026-05-08T19:26:36.693831+05:30"},{"city":"Bhubaneswar","state":"Odisha","latitude":20.2961,"longitude":85.8245,"temp":26.5,"humidity":85,"rain":0.0,"pressure":1004.4,"uv_index":9.1,"wind_gusts":36.0,"aqi":44,"pm10":14.8,"pm2_5":12.6,"no2":7.6,"co":212.0,"o3":74.0,"so2":4.2,"mosquito_risk":7,"arthritis_risk":5,"migraine_risk":4,"frizz_risk":1,"updated_at":"2026-05-08T19:26:36.693838+05:30"},{"city":"Cuttack","state":"Odisha","latitude":20.4625,"longitude":85.8828,"temp":25.8,"humidity":82,"rain":0.0,"pressure":1006.2,"uv_index":9.15,"wind_gusts":36.0,"aqi":44,"pm10":14.8,"pm2_5":12.6,"no2":7.6,"co":237.0,"o3":74.0,"so2":4.2,"mosquito_risk":7,"arthritis_risk":5,"migraine_risk":4,"frizz_risk":1,"updated_at":"2026-05-08T19:26:36.693845+05:30"},{"city":"Rourkela","state":"Odisha","latitude":22.2604,"longitude":84.8536,"temp":24.5,"humidity":83,"rain":0.0,"pressure":986.7,"uv_index":8.85,"wind_gusts":34.6,"aqi":177,"pm10":40.2,"pm2_5":32.5,"no2":10.5,"co":472.0,"o3":163.0,"so2":28.5,"mosquito_risk":3,"arthritis_risk":5,"migraine_risk":7,"frizz_risk":1,"updated_at":"2026-05-08T19:26:36.693853+05:30"},{"city":"Raipur","state":"Chhattisgarh","latitude":21.2514,"longitude":81.6296,"temp":33.8,"humidity":26,"rain":0.0,"pressure":974.2,"uv_index":8.95,"wind_gusts":33.5,"aqi":208,"pm10":50.9,"pm2_5":38.3,"no2":22.1,"co":352.0,"o3":175.0,"so2":9.3,"mosquito_risk":0,"arthritis_risk":5,"migraine_risk":7,"frizz_risk":0,"updated_at":"2026-05-08T19:26:36.693860+05:30"},{"city":"Bhilai","state":"Chhattisgarh","latitude":21.1938,"longitude":81.3509,"temp":33.2,"humidity":27,"rain":0.0,"pressure":974.4,"uv_index":8.95,"wind_gusts":32.0,"aqi":185,"pm10":45.8,"pm2_5":31.7,"no2":22.0,"co":707.0,"o3":155.0,"so2":6.8,"mosquito_risk":0,"arthritis_risk":5,"migraine_risk":7,"frizz_risk":0,"updated_at":"2026-05-08T19:26:36.693867+05:30"},{"city":"Guwahati","state":"Assam","latitude":26.1158,"longitude":91.7086,"temp":24.6,"humidity":80,"rain":0.0,"pressure":1003.8,"uv_index":8.65,"wind_gusts":23.8,"aqi":124,"pm10":47.4,"pm2_5":39.5,"no2":7.5,"co":522.0,"o3":99.0,"so2":2.2,"mosquito_risk":3,"arthritis_risk":5,"migraine_risk":4,"frizz_risk":1,"updated_at":"2026-05-08T19:26:36.693874+05:30"},{"city":"Agartala","state":"Tripura","latitude":23.8315,"longitude":91.2868,"temp":26.1,"humidity":83,"rain":0.0,"pressure":1008.1,"uv_index":8.85,"wind_gusts":28.1,"aqi":202,"pm10":69.2,"pm2_5":62.6,"no2":26.0,"co":558.0,"o3":141.0,"so2":5.1,"mosquito_risk":7,"arthritis_risk":0,"migraine_risk":4,"frizz_risk":1,"updated_at":"2026-05-08T19:26:36.693882+05:30"},{"city":"Shillong","state":"Meghalaya","latitude":25.5788,"longitude":91.8933,"temp":16.4,"humidity":92,"rain":0.0,"pressure":858.8,"uv_index":8.0,"wind_gusts":25.6,"aqi":125,"pm10":35.9,"pm2_5":29.1,"no2":8.8,"co":408.0,"o3":112.0,"so2":2.6,"mosquito_risk":3,"arthritis_risk":10,"migraine_risk":7,"frizz_risk":0,"updated_at":"2026-05-08T19:26:36.693890+05:30"},{"city":"Imphal","state":"Manipur","latitude":24.817,"longitude":93.9368,"temp":21.4,"humidity":70,"rain":0.0,"pressure":923.7,"uv_index":9.2,"wind_gusts":31.7,"aqi":105,"pm10":33.3,"pm2_5":27.1,"no2":15.2,"co":503.0,"o3":100.0,"so2":4.4,"mosquito_risk":3,"arthritis_risk":5,"migraine_risk":7,"frizz_risk":0,"updated_at":"2026-05-08T19:26:36.693897+05:30"},{"city":"Aizawl","state":"Mizoram","latitude":23.7271,"longitude":92.7176,"temp":19.9,"humidity":71,"rain":0.0,"pressure":893.5,"uv_index":8.5,"wind_gusts":25.2,"aqi":80,"pm10":34.6,"pm2_5":27.5,"no2":7.7,"co":293.0,"o3":95.0,"so2":1.8,"mosquito_risk":3,"arthritis_risk":5,"migraine_risk":7,"frizz_risk":0,"updated_at":"2026-05-08T19:26:36.693904+05:30"},{"city":"Kohima","state":"Nagaland","latitude":25.6701,"longitude":94.1077,"temp":15.1,"humidity":96,"rain":0.0,"pressure":855.8,"uv_index":9.15,"wind_gusts":31.7,"aqi":88,"pm10":33.2,"pm2_5":25.0,"no2":8.6,"co":307.0,"o3":100.0,"so2":1.6,"mosquito_risk":3,"arthritis_risk":10,"migraine_risk":7,"frizz_risk":0,"updated_at":"2026-05-08T19:26:36.693912+05:30"},{"city":"Gangtok","state":"Sikkim","latitude":27.3314,"longitude":88.6138,"temp":13.6,"humidity":87,"rain":0.0,"pressure":838.3,"uv_index":8.95,"wind_gusts":36.4,"aqi":94,"pm10":32.5,"pm2_5":23.3,"no2":9.9,"co":373.0,"o3":115.0,"so2":1.5,"mosquito_risk":3,"arthritis_risk":10,"migraine_risk":7,"frizz_risk":0,"updated_at":"2026-05-08T19:26:36.693919+05:30"},{"city":"Siliguri","state":"West Bengal","latitude":26.7271,"longitude":88.3953,"temp":25.2,"humidity":66,"rain":0.0,"pressure":995.5,"uv_index":8.55,"wind_gusts":25.2,"aqi":118,"pm10":48.8,"pm2_5":38.9,"no2":16.2,"co":922.0,"o3":110.0,"so2":4.0,"mosquito_risk":7,"arthritis_risk":5,"migraine_risk":7,"frizz_risk":1,"updated_at":"2026-05-08T19:26:39.991240+05:30"},{"city":"Durgapur","state":"West Bengal","latitude":23.5204,"longitude":87.3119,"temp":24.0,"humidity":88,"rain":0.0,"pressure":997.2,"uv_index":8.9,"wind_gusts":25.6,"aqi":159,"pm10":62.2,"pm2_5":57.2,"no2":28.3,"co":558.0,"o3":140.0,"so2":47.8,"mosquito_risk":3,"arthritis_risk":5,"migraine_risk":7,"frizz_risk":1,"updated_at":"2026-05-08T19:26:39.991272+05:30"},{"city":"Asansol","state":"West Bengal","latitude":23.6739,"longitude":86.9524,"temp":23.2,"humidity":92,"rain":0.0,"pressure":995.7,"uv_index":8.95,"wind_gusts":30.2,"aqi":162,"pm10":58.7,"pm2_5":53.3,"no2":26.5,"co":491.0,"o3":151.0,"so2":47.2,"mosquito_risk":3,"arthritis_risk":5,"migraine_risk":7,"frizz_risk":1,"updated_at":"2026-05-08T19:26:39.991283+05:30"},{"city":"Pondicherry","state":"Puducherry","latitude":11.9139,"longitude":79.8145,"temp":28.8,"humidity":76,"rain":0.0,"pressure":1007.0,"uv_index":7.4,"wind_gusts":46.8,"aqi":23,"pm10":3.4,"pm2_5":2.3,"no2":2.1,"co":150.0,"o3":41.0,"so2":0.2,"mosquito_risk":7,"arthritis_risk":5,"migraine_risk":4,"frizz_risk":1,"updated_at":"2026-05-08T19:26:39.991292+05:30"},{"city":"Port Blair","state":"Andaman and Nicobar Islands","latitude":11.6234,"longitude":92.7265,"temp":26.6,"humidity":87,"rain":0.0,"pressure":1007.4,"uv_index":9.1,"wind_gusts":36.4,"aqi":31,"pm10":4.9,"pm2_5":3.7,"no2":0.6,"co":153.0,"o3":62.0,"so2":0.0,"mosquito_risk":7,"arthritis_risk":5,"migraine_risk":4,"frizz_risk":1,"updated_at":"2026-05-08T19:26:39.991300+05:30"},{"city":"Haridwar","state":"Uttarakhand","latitude":29.9457,"longitude":78.1642,"temp":24.9,"humidity":64,"rain":0.0,"pressure":975.4,"uv_index":7.4,"wind_gusts":32.8,"aqi":161,"pm10":68.7,"pm2_5":26.8,"no2":8.6,"co":363.0,"o3":144.0,"so2":5.0,"mosquito_risk":3,"arthritis_risk":5,"migraine_risk":7,"frizz_risk":1,"updated_at":"2026-05-08T19:26:39.991308+05:30"},{"city":"Rishikesh","state":"Uttarakhand","latitude":30.0869,"longitude":78.2676,"temp":23.0,"humidity":67,"rain":0.0,"pressure":967.9,"uv_index":7.45,"wind_gusts":22.0,"aqi":155,"pm10":48.5,"pm2_5":18.5,"no2":4.3,"co":324.0,"o3":149.0,"so2":2.6,"mosquito_risk":3,"arthritis_risk":5,"migraine_risk":7,"frizz_risk":1,"updated_at":"2026-05-08T19:26:39.991316+05:30"},{"city":"Nainital","state":"Uttarakhand","latitude":29.3919,"longitude":79.4542,"temp":12.8,"humidity":81,"rain":0.0,"pressure":805.4,"uv_index":8.2,"wind_gusts":31.7,"aqi":131,"pm10":43.2,"pm2_5":20.0,"no2":5.2,"co":292.0,"o3":144.0,"so2":3.1,"mosquito_risk":3,"arthritis_risk":10,"migraine_risk":7,"frizz_risk":0,"updated_at":"2026-05-08T19:26:39.991324+05:30"},{"city":"Mussoorie","state":"Uttarakhand","latitude":30.4599,"longitude":78.0664,"temp":12.0,"humidity":90,"rain":0.0,"pressure":802.3,"uv_index":6.3,"wind_gusts":28.8,"aqi":152,"pm10":49.2,"pm2_5":21.0,"no2":10.8,"co":268.0,"o3":145.0,"so2":5.5,"mosquito_risk":3,"arthritis_risk":10,"migraine_risk":7,"frizz_risk":0,"updated_at":"2026-05-08T19:26:39.991332+05:30"},{"city":"Dharamshala","state":"Himachal Pradesh","latitude":32.219,"longitude":76.3234,"temp":18.0,"humidity":73,"rain":0.0,"pressure":870.0,"uv_index":8.2,"wind_gusts":33.8,"aqi":110,"pm10":51.2,"pm2_5":22.5,"no2":4.7,"co":279.0,"o3":131.0,"so2":1.6,"mosquito_risk":3,"arthritis_risk":5,"migraine_risk":7,"frizz_risk":0,"updated_at":"2026-05-08T19:26:39.991339+05:30"},{"city":"Dalhousie","state":"Himachal Pradesh","latitude":32.5387,"longitude":75.971,"temp":13.6,"humidity":85,"rain":0.0,"pressure":804.9,"uv_index":8.45,"wind_gusts":37.8,"aqi":161,"pm10":85.9,"pm2_5":34.5,"no2":8.6,"co":349.0,"o3":159.0,"so2":5.4,"mosquito_risk":3,"arthritis_risk":10,"migraine_risk":7,"frizz_risk":0,"updated_at":"2026-05-08T19:26:39.991347+05:30"},{"city":"Patiala","state":"Punjab","latitude":30.3398,"longitude":76.3869,"temp":27.2,"humidity":55,"rain":0.0,"pressure":979.2,"uv_index":7.5,"wind_gusts":38.5,"aqi":632,"pm10":366.0,"pm2_5":56.5,"no2":5.6,"co":268.0,"o3":158.0,"so2":7.8,"mosquito_risk":4,"arthritis_risk":5,"migraine_risk":7,"frizz_risk":1,"updated_at":"2026-05-08T19:26:39.991355+05:30"},{"city":"Bhatinda","state":"Punjab","latitude":30.211,"longitude":74.9455,"temp":32.0,"humidity":37,"rain":0.0,"pressure":983.3,"uv_index":8.1,"wind_gusts":35.3,"aqi":780,"pm10":624.0,"pm2_5":95.0,"no2":5.1,"co":361.0,"o3":177.0,"so2":15.7,"mosquito_risk":0,"arthritis_risk":5,"migraine_risk":7,"frizz_risk":0,"updated_at":"2026-05-08T19:26:39.991362+05:30"},{"city":"Rohtak","state":"Haryana","latitude":28.8955,"longitude":76.6066,"temp":28.6,"humidity":47,"rain":0.0,"pressure":982.1,"uv_index":7.6,"wind_gusts":37.8,"aqi":762,"pm10":784.2,"pm2_5":103.6,"no2":11.4,"co":334.0,"o3":182.0,"so2":21.0,"mosquito_risk":4,"arthritis_risk":5,"migraine_risk":7,"frizz_risk":1,"updated_at":"2026-05-08T19:26:39.991369+05:30"},{"city":"Panipat","state":"Haryana","latitude":29.3909,"longitude":76.9635,"temp":27.0,"humidity":58,"rain":0.0,"pressure":981.2,"uv_index":7.45,"wind_gusts":40.3,"aqi":1381,"pm10":793.5,"pm2_5":98.7,"no2":9.3,"co":314.0,"o3":164.0,"so2":15.8,"mosquito_risk":4,"arthritis_risk":5,"migraine_risk":7,"frizz_risk":1,"updated_at":"2026-05-08T19:26:39.991377+05:30"},{"city":"Mathura","state":"Uttar Pradesh","latitude":27.4924,"longitude":77.6737,"temp":29.7,"humidity":41,"rain":0.0,"pressure":986.0,"uv_index":7.85,"wind_gusts":36.4,"aqi":1179,"pm10":1307.6,"pm2_5":138.8,"no2":7.1,"co":292.0,"o3":155.0,"so2":10.3,"mosquito_risk":4,"arthritis_risk":5,"migraine_risk":7,"frizz_risk":0,"updated_at":"2026-05-08T19:26:39.991384+05:30"},{"city":"Vrindavan","state":"Uttar Pradesh","latitude":27.5823,"longitude":77.7027,"temp":29.9,"humidity":40,"rain":0.0,"pressure":986.6,"uv_index":7.85,"wind_gusts":37.8,"aqi":1179,"pm10":1307.6,"pm2_5":138.8,"no2":7.1,"co":271.0,"o3":155.0,"so2":10.3,"mosquito_risk":4,"arthritis_risk":5,"migraine_risk":7,"frizz_risk":0,"updated_at":"2026-05-08T19:26:39.991391+05:30"},{"city":"Ayodhya","state":"Uttar Pradesh","latitude":26.7922,"longitude":82.1998,"temp":27.0,"humidity":53,"rain":0.0,"pressure":996.5,"uv_index":8.2,"wind_gusts":28.8,"aqi":155,"pm10":57.5,"pm2_5":29.8,"no2":6.7,"co":346.0,"o3":146.0,"so2":6.3,"mosquito_risk":4,"arthritis_risk":5,"migraine_risk":7,"frizz_risk":1,"updated_at":"2026-05-08T19:26:39.991398+05:30"},{"city":"Ratlam","state":"Madhya Pradesh","latitude":23.3315,"longitude":75.0367,"temp":33.8,"humidity":20,"rain":0.0,"pressure":953.1,"uv_index":8.5,"wind_gusts":27.4,"aqi":117,"pm10":42.3,"pm2_5":17.5,"no2":3.4,"co":194.0,"o3":131.0,"so2":4.1,"mosquito_risk":0,"arthritis_risk":5,"migraine_risk":7,"frizz_risk":0,"updated_at":"2026-05-08T19:26:39.991406+05:30"},{"city":"Sagar","state":"Madhya Pradesh","latitude":23.8388,"longitude":78.7378,"temp":30.8,"humidity":27,"rain":0.0,"pressure":949.6,"uv_index":8.65,"wind_gusts":38.5,"aqi":126,"pm10":61.9,"pm2_5":19.5,"no2":3.3,"co":206.0,"o3":132.0,"so2":3.8,"mosquito_risk":0,"arthritis_risk":5,"migraine_risk":7,"frizz_risk":0,"updated_at":"2026-05-08T19:26:39.991412+05:30"},{"city":"Satna","state":"Madhya Pradesh","latitude":24.6005,"longitude":80.8322,"temp":29.8,"humidity":38,"rain":0.0,"pressure":970.8,"uv_index":8.7,"wind_gusts":30.2,"aqi":152,"pm10":51.6,"pm2_5":18.7,"no2":3.7,"co":203.0,"o3":147.0,"so2":5.8,"mosquito_risk":4,"arthritis_risk":5,"migraine_risk":7,"frizz_risk":0,"updated_at":"2026-05-08T19:26:39.991419+05:30"},{"city":"Akola","state":"Maharashtra","latitude":20.7002,"longitude":77.0082,"temp":35.0,"humidity":26,"rain":0.0,"pressure":973.3,"uv_index":8.85,"wind_gusts":26.3,"aqi":155,"pm10":37.3,"pm2_5":22.9,"no2":5.7,"co":213.0,"o3":157.0,"so2":8.1,"mosquito_risk":0,"arthritis_risk":5,"migraine_risk":7,"frizz_risk":0,"updated_at":"2026-05-08T19:26:39.991427+05:30"},{"city":"Amravati","state":"Maharashtra","latitude":20.9374,"longitude":77.7796,"temp":34.3,"humidity":25,"rain":0.0,"pressure":966.2,"uv_index":8.85,"wind_gusts":27.0,"aqi":164,"pm10":38.1,"pm2_5":23.5,"no2":6.7,"co":227.0,"o3":162.0,"so2":5.5,"mosquito_risk":0,"arthritis_risk":5,"migraine_risk":7,"frizz_risk":0,"updated_at":"2026-05-08T19:26:39.991434+05:30"},{"city":"Latur","state":"Maharashtra","latitude":18.4088,"longitude":76.5604,"temp":33.0,"humidity":28,"rain":0.0,"pressure":939.1,"uv_index":9.05,"wind_gusts":27.4,"aqi":133,"pm10":35.5,"pm2_5":23.2,"no2":4.4,"co":213.0,"o3":146.0,"so2":6.0,"mosquito_risk":0,"arthritis_risk":5,"migraine_risk":7,"frizz_risk":0,"updated_at":"2026-05-08T19:26:39.991442+05:30"},{"city":"Nanded","state":"Maharashtra","latitude":19.1383,"longitude":77.3091,"temp":34.0,"humidity":29,"rain":0.0,"pressure":967.2,"uv_index":8.95,"wind_gusts":25.9,"aqi":132,"pm10":37.7,"pm2_5":24.1,"no2":6.0,"co":233.0,"o3":138.0,"so2":4.0,"mosquito_risk":0,"arthritis_risk":5,"migraine_risk":7,"frizz_risk":0,"updated_at":"2026-05-08T19:26:39.991449+05:30"},{"city":"Gulbarga","state":"Karnataka","latitude":17.3297,"longitude":76.8343,"temp":33.6,"humidity":33,"rain":0.0,"pressure":957.2,"uv_index":9.05,"wind_gusts":32.8,"aqi":91,"pm10":26.4,"pm2_5":18.3,"no2":5.1,"co":271.0,"o3":136.0,"so2":3.9,"mosquito_risk":0,"arthritis_risk":5,"migraine_risk":7,"frizz_risk":0,"updated_at":"2026-05-08T19:26:39.991455+05:30"},{"city":"Bidar","state":"Karnataka","latitude":17.9104,"longitude":77.5199,"temp":30.8,"humidity":38,"rain":0.0,"pressure":934.8,"uv_index":9.1,"wind_gusts":28.1,"aqi":109,"pm10":25.0,"pm2_5":18.1,"no2":5.2,"co":224.0,"o3":132.0,"so2":3.4,"mosquito_risk":0,"arthritis_risk":5,"migraine_risk":7,"frizz_risk":0,"updated_at":"2026-05-08T19:26:39.991462+05:30"},{"city":"Hospet","state":"Karnataka","latitude":15.2689,"longitude":76.3909,"temp":30.8,"humidity":38,"rain":0.0,"pressure":953.7,"uv_index":9.2,"wind_gusts":36.4,"aqi":81,"pm10":16.4,"pm2_5":12.6,"no2":7.1,"co":202.0,"o3":119.0,"so2":5.7,"mosquito_risk":0,"arthritis_risk":5,"migraine_risk":7,"frizz_risk":0,"updated_at":"2026-05-08T19:26:39.991469+05:30"},{"city":"Tirupur","state":"Tamil Nadu","latitude":11.1085,"longitude":77.3411,"temp":25.9,"humidity":90,"rain":0.1,"pressure":973.9,"uv_index":8.8,"wind_gusts":34.2,"aqi":96,"pm10":21.9,"pm2_5":21.4,"no2":8.5,"co":318.0,"o3":123.0,"so2":8.1,"mosquito_risk":10,"arthritis_risk":5,"migraine_risk":7,"frizz_risk":1,"updated_at":"2026-05-08T19:26:39.991477+05:30"},{"city":"Alappuzha","state":"Kerala","latitude":9.4981,"longitude":76.3388,"temp":29.4,"humidity":82,"rain":0.0,"pressure":1005.9,"uv_index":8.65,"wind_gusts":31.0,"aqi":159,"pm10":28.3,"pm2_5":24.3,"no2":11.0,"co":214.0,"o3":135.0,"so2":5.4,"mosquito_risk":7,"arthritis_risk":5,"migraine_risk":4,"frizz_risk":1,"updated_at":"2026-05-08T19:26:39.991483+05:30"},{"city":"Munnar","state":"Kerala","latitude":10.0889,"longitude":77.0595,"temp":18.9,"humidity":97,"rain":0.0,"pressure":855.4,"uv_index":9.5,"wind_gusts":23.0,"aqi":44,"pm10":13.9,"pm2_5":13.5,"no2":6.1,"co":239.0,"o3":75.0,"so2":1.9,"mosquito_risk":3,"arthritis_risk":10,"migraine_risk":7,"frizz_risk":1,"updated_at":"2026-05-08T19:26:39.991491+05:30"},{"city":"Silchar","state":"Assam","latitude":24.8333,"longitude":92.7789,"temp":26.3,"humidity":73,"rain":0.0,"pressure":1006.2,"uv_index":6.75,"wind_gusts":22.7,"aqi":142,"pm10":54.7,"pm2_5":45.8,"no2":11.7,"co":503.0,"o3":118.0,"so2":8.7,"mosquito_risk":7,"arthritis_risk":5,"migraine_risk":4,"frizz_risk":1,"updated_at":"2026-05-08T19:26:39.991497+05:30"},{"city":"Dibrugarh","state":"Assam","latitude":27.4728,"longitude":94.912,"temp":26.0,"humidity":75,"rain":0.0,"pressure":997.4,"uv_index":8.8,"wind_gusts":50.0,"aqi":77,"pm10":32.8,"pm2_5":28.1,"no2":13.8,"co":413.0,"o3":83.0,"so2":2.9,"mosquito_risk":7,"arthritis_risk":5,"migraine_risk":7,"frizz_risk":1,"updated_at":"2026-05-08T19:26:39.991504+05:30"}]