[{"city":"Delhi","state":"Delhi","latitude":28.6139,"longitude":77.209,"temp":22.1,"humidity":68,"rain":0.0,"pressure":983.9,"uv_index":5.9,"wind_gusts":18.0,"aqi":461,"pm10":427.5,"pm2_5":102.0,"mosquito_risk":3,"arthritis_risk":5,"migraine_risk":3,"frizz_risk":0,"updated_at":"2026-03-06T01:23:52.262534+05:30"},{"city":"Mumbai","state":"Maharashtra","latitude":19.076,"longitude":72.8777,"temp":27.6,"humidity":73,"rain":0.0,"pressure":1009.1,"uv_index":7.45,"wind_gusts":25.2,"aqi":118,"pm10":29.5,"pm2_5":28.0,"mosquito_risk":7,"arthritis_risk":0,"migraine_risk":4,"frizz_risk":1,"updated_at":"2026-03-06T01:23:52.262590+05:30"},{"city":"Bangalore","state":"Karnataka","latitude":12.9716,"longitude":77.5946,"temp":21.1,"humidity":56,"rain":0.0,"pressure":911.3,"uv_index":9.15,"wind_gusts":20.5,"aqi":86,"pm10":36.0,"pm2_5":33.1,"mosquito_risk":0,"arthritis_risk":5,"migraine_risk":7,"frizz_risk":0,"updated_at":"2026-03-06T01:23:52.262607+05:30"},{"city":"Hyderabad","state":"Telangana","latitude":17.385,"longitude":78.4867,"temp":24.7,"humidity":49,"rain":0.0,"pressure":953.5,"uv_index":8.45,"wind_gusts":23.8,"aqi":92,"pm10":53.8,"pm2_5":51.8,"mosquito_risk":0,"arthritis_risk":5,"migraine_risk":7,"frizz_risk":0,"updated_at":"2026-03-06T01:23:52.262617+05:30"},{"city":"Chennai","state":"Tamil Nadu","latitude":13.0827,"longitude":80.2707,"temp":24.5,"humidity":94,"rain":0.0,"pressure":1007.7,"uv_index":8.9,"wind_gusts":32.8,"aqi":92,"pm10":25.6,"pm2_5":22.0,"mosquito_risk":3,"arthritis_risk":5,"migraine_risk":4,"frizz_risk":1,"updated_at":"2026-03-06T01:23:52.262626+05:30"},{"city":"Kolkata","state":"West Bengal","latitude":22.5726,"longitude":88.3639,"temp":22.1,"humidity":90,"rain":0.0,"pressure":1006.9,"uv_index":7.8,"wind_gusts":15.5,"aqi":168,"pm10":128.5,"pm2_5":114.6,"mosquito_risk":3,"arthritis_risk":5,"migraine_risk":4,"frizz_risk":1,"updated_at":"2026-03-06T01:23:52.262635+05:30"},{"city":"Pune","state":"Maharashtra","latitude":18.5204,"longitude":73.8567,"temp":21.8,"humidity":60,"rain":0.0,"pressure":948.9,"uv_index":8.0,"wind_gusts":27.4,"aqi":81,"pm10":38.1,"pm2_5":36.6,"mosquito_risk":0,"arthritis_risk":5,"migraine_risk":7,"frizz_risk":0,"updated_at":"2026-03-06T01:23:52.262646+05:30"},{"city":"Ahmedabad","state":"Gujarat","latitude":23.0225,"longitude":72.5714,"temp":22.7,"humidity":55,"rain":0.0,"pressure":1004.5,"uv_index":7.25,"wind_gusts":19.8,"aqi":69,"pm10":51.1,"pm2_5":49.7,"mosquito_risk":0,"arthritis_risk":5,"migraine_risk":4,"frizz_risk":0,"updated_at":"2026-03-06T01:23:52.262654+05:30"},{"city":"Jaipur","state":"Rajasthan","latitude":26.9124,"longitude":75.7873,"temp":25.4,"humidity":35,"rain":0.0,"pressure":961.2,"uv_index":6.7,"wind_gusts":21.6,"aqi":100,"pm10":115.0,"pm2_5":29.6,"mosquito_risk":4,"arthritis_risk":5,"migraine_risk":7,"frizz_risk":0,"updated_at":"2026-03-06T01:23:52.262661+05:30"},{"city":"Lucknow","state":"Uttar Pradesh","latitude":26.8467,"longitude":80.9462,"temp":21.9,"humidity":79,"rain":0.0,"pressure":994.8,"uv_index":6.4,"wind_gusts":21.6,"aqi":169,"pm10":185.8,"pm2_5":109.4,"mosquito_risk":3,"arthritis_risk":5,"migraine_risk":7,"frizz_risk":1,"updated_at":"2026-03-06T01:23:52.262669+05:30"},{"city":"Kanpur","state":"Uttar Pradesh","latitude":26.4499,"longitude":80.3319,"temp":21.4,"humidity":79,"rain":0.0,"pressure":993.1,"uv_index":6.4,"wind_gusts":13.0,"aqi":178,"pm10":284.1,"pm2_5":94.8,"mosquito_risk":3,"arthritis_risk":5,"migraine_risk":7,"frizz_risk":1,"updated_at":"2026-03-06T01:23:52.262675+05:30"},{"city":"Chandigarh","state":"Chandigarh","latitude":30.7333,"longitude":76.7794,"temp":20.7,"humidity":75,"rain":0.0,"pressure":968.9,"uv_index":5.8,"wind_gusts":23.4,"aqi":97,"pm10":46.9,"pm2_5":41.0,"mosquito_risk":3,"arthritis_risk":5,"migraine_risk":3,"frizz_risk":1,"updated_at":"2026-03-06T01:23:52.262683+05:30"},{"city":"Srinagar","state":"Jammu and Kashmir","latitude":34.0837,"longitude":74.7973,"temp":8.2,"humidity":81,"rain":0.0,"pressure":839.3,"uv_index":6.5,"wind_gusts":16.2,"aqi":149,"pm10":95.0,"pm2_5":78.2,"mosquito_risk":3,"arthritis_risk":10,"migraine_risk":7,"frizz_risk":0,"updated_at":"2026-03-06T01:23:52.262691+05:30"},{"city":"Jammu","state":"Jammu and Kashmir","latitude":32.7266,"longitude":74.857,"temp":18.2,"humidity":92,"rain":0.0,"pressure":973.1,"uv_index":5.9,"wind_gusts":20.2,"aqi":111,"pm10":67.3,"pm2_5":54.9,"mosquito_risk":3,"arthritis_risk":10,"migraine_risk":3,"frizz_risk":1,"updated_at":"2026-03-06T01:23:52.262698+05:30"},{"city":"Amritsar","state":"Punjab","latitude":31.634,"longitude":74.8723,"temp":19.4,"humidity":74,"rain":0.0,"pressure":981.3,"uv_index":6.15,"wind_gusts":14.4,"aqi":144,"pm10":85.9,"pm2_5":74.0,"mosquito_risk":3,"arthritis_risk":5,"migraine_risk":7,"frizz_risk":0,"updated_at":"2026-03-06T01:23:52.262705+05:30"},{"city":"Ludhiana","state":"Punjab","latitude":30.901,"longitude":75.8573,"temp":22.2,"humidity":68,"rain":0.0,"pressure":979.3,"uv_index":6.05,"wind_gusts":14.4,"aqi":156,"pm10":112.7,"pm2_5":82.7,"mosquito_risk":3,"arthritis_risk":5,"migraine_risk":7,"frizz_risk":0,"updated_at":"2026-03-06T01:23:52.262711+05:30"},{"city":"Jalandhar","state":"Punjab","latitude":31.326,"longitude":75.5762,"temp":19.7,"humidity":82,"rain":0.0,"pressure":980.4,"uv_index":6.2,"wind_gusts":14.8,"aqi":156,"pm10":104.8,"pm2_5":91.5,"mosquito_risk":3,"arthritis_risk":10,"migraine_risk":7,"frizz_risk":1,"updated_at":"2026-03-06T01:23:52.262720+05:30"},{"city":"Dehradun","state":"Uttarakhand","latitude":30.6284,"longitude":78.0322,"temp":13.5,"humidity":54,"rain":0.0,"pressure":828.5,"uv_index":6.15,"wind_gusts":25.9,"aqi":67,"pm10":37.1,"pm2_5":31.3,"mosquito_risk":0,"arthritis_risk":5,"migraine_risk":7,"frizz_risk":0,"updated_at":"2026-03-06T01:23:52.262726+05:30"},{"city":"Shimla","state":"Himachal Pradesh","latitude":31.1048,"longitude":77.1734,"temp":13.4,"humidity":50,"rain":0.0,"pressure":783.9,"uv_index":6.25,"wind_gusts":29.9,"aqi":66,"pm10":45.4,"pm2_5":27.4,"mosquito_risk":0,"arthritis_risk":5,"migraine_risk":7,"frizz_risk":0,"updated_at":"2026-03-06T01:23:52.262733+05:30"},{"city":"Manali","state":"Himachal Pradesh","latitude":32.2396,"longitude":77.1887,"temp":18.7,"humidity":26,"rain":0.0,"pressure":822.2,"uv_index":7.0,"wind_gusts":36.4,"aqi":56,"pm10":29.9,"pm2_5":20.7,"mosquito_risk":0,"arthritis_risk":5,"migraine_risk":7,"frizz_risk":1,"updated_at":"2026-03-06T01:23:52.262740+05:30"},{"city":"Gurgaon","state":"Haryana","latitude":28.4595,"longitude":77.0266,"temp":19.7,"humidity":72,"rain":0.0,"pressure":982.1,"uv_index":6.05,"wind_gusts":15.8,"aqi":1524,"pm10":856.8,"pm2_5":141.6,"mosquito_risk":3,"arthritis_risk":5,"migraine_risk":7,"frizz_risk":0,"updated_at":"2026-03-06T01:23:52.262747+05:30"},{"city":"Noida","state":"Uttar Pradesh","latitude":28.5355,"longitude":77.391,"temp":22.1,"humidity":69,"rain":0.0,"pressure":985.4,"uv_index":5.95,"wind_gusts":16.9,"aqi":1524,"pm10":856.8,"pm2_5":141.6,"mosquito_risk":3,"arthritis_risk":5,"migraine_risk":3,"frizz_risk":1,"updated_at":"2026-03-06T01:23:52.262754+05:30"},{"city":"Ghaziabad","state":"Uttar Pradesh","latitude":28.6692,"longitude":77.4538,"temp":22.0,"humidity":72,"rain":0.0,"pressure":983.6,"uv_index":5.9,"wind_gusts":13.7,"aqi":325,"pm10":461.9,"pm2_5":117.1,"mosquito_risk":3,"arthritis_risk":5,"migraine_risk":3,"frizz_risk":1,"updated_at":"2026-03-06T01:23:52.262760+05:30"},{"city":"Faridabad","state":"Haryana","latitude":28.4089,"longitude":77.3178,"temp":23.2,"humidity":55,"rain":0.0,"pressure":984.6,"uv_index":5.95,"wind_gusts":16.6,"aqi":1524,"pm10":856.8,"pm2_5":141.6,"mosquito_risk":0,"arthritis_risk":5,"migraine_risk":3,"frizz_risk":0,"updated_at":"2026-03-06T01:23:52.262767+05:30"},{"city":"Meerut","state":"Uttar Pradesh","latitude":28.9845,"longitude":77.7064,"temp":20.2,"humidity":84,"rain":0.0,"pressure":982.1,"uv_index":5.75,"wind_gusts":13.3,"aqi":325,"pm10":461.9,"pm2_5":117.1,"mosquito_risk":3,"arthritis_risk":5,"migraine_risk":3,"frizz_risk":1,"updated_at":"2026-03-06T01:23:52.262773+05:30"},{"city":"Agra","state":"Uttar Pradesh","latitude":27.1767,"longitude":78.0081,"temp":20.2,"humidity":64,"rain":0.0,"pressure":988.7,"uv_index":6.3,"wind_gusts":18.0,"aqi":530,"pm10":642.6,"pm2_5":109.7,"mosquito_risk":3,"arthritis_risk":5,"migraine_risk":7,"frizz_risk":0,"updated_at":"2026-03-06T01:23:52.262779+05:30"},{"city":"Varanasi","state":"Uttar Pradesh","latitude":25.3176,"longitude":82.9739,"temp":21.6,"humidity":74,"rain":0.0,"pressure":998.9,"uv_index":7.1,"wind_gusts":18.0,"aqi":159,"pm10":164.4,"pm2_5":100.8,"mosquito_risk":3,"arthritis_risk":5,"migraine_risk":7,"frizz_risk":1,"updated_at":"2026-03-06T01:23:52.262788+05:30"},{"city":"Prayagraj","state":"Uttar Pradesh","latitude":25.4358,"longitude":81.8463,"temp":21.3,"humidity":80,"rain":0.0,"pressure":997.4,"uv_index":6.95,"wind_gusts":15.5,"aqi":161,"pm10":173.7,"pm2_5":106.2,"mosquito_risk":3,"arthritis_risk":5,"migraine_risk":7,"frizz_risk":1,"updated_at":"2026-03-06T01:23:52.262795+05:30"},{"city":"Gorakhpur","state":"Uttar Pradesh","latitude":26.7606,"longitude":83.3732,"temp":20.1,"humidity":76,"rain":0.0,"pressure":998.9,"uv_index":6.75,"wind_gusts":17.6,"aqi":173,"pm10":141.6,"pm2_5":114.3,"mosquito_risk":3,"arthritis_risk":5,"migraine_risk":7,"frizz_risk":0,"updated_at":"2026-03-06T01:23:52.262801+05:30"},{"city":"Bareilly","state":"Uttar Pradesh","latitude":28.367,"longitude":79.4304,"temp":19.7,"humidity":88,"rain":0.0,"pressure":988.0,"uv_index":6.1,"wind_gusts":20.9,"aqi":170,"pm10":107.6,"pm2_5":82.2,"mosquito_risk":3,"arthritis_risk":10,"migraine_risk":7,"frizz_risk":1,"updated_at":"2026-03-06T01:23:52.262807+05:30"},{"city":"Aligarh","state":"Uttar Pradesh","latitude":27.8974,"longitude":78.088,"temp":20.0,"humidity":73,"rain":0.0,"pressure":986.6,"uv_index":6.0,"wind_gusts":18.7,"aqi":748,"pm10":754.4,"pm2_5":152.7,"mosquito_risk":3,"arthritis_risk":5,"migraine_risk":3,"frizz_risk":0,"updated_at":"2026-03-06T01:23:52.262816+05:30"},{"city":"Moradabad","state":"Uttar Pradesh","latitude":28.8386,"longitude":78.7733,"temp":19.6,"humidity":89,"rain":0.0,"pressure":984.7,"uv_index":5.9,"wind_gusts":24.8,"aqi":174,"pm10":99.4,"pm2_5":80.1,"mosquito_risk":3,"arthritis_risk":10,"migraine_risk":3,"frizz_risk":1,"updated_at":"2026-03-06T01:23:52.262822+05:30"},{"city":"Saharanpur","state":"Uttar Pradesh","latitude":29.9637,"longitude":77.546,"temp":18.4,"humidity":91,"rain":0.0,"pressure":976.2,"uv_index":5.55,"wind_gusts":25.6,"aqi":161,"pm10":229.6,"pm2_5":103.6,"mosquito_risk":3,"arthritis_risk":10,"migraine_risk":3,"frizz_risk":1,"updated_at":"2026-03-06T01:23:52.262830+05:30"},{"city":"Jhansi","state":"Uttar Pradesh","latitude":25.4484,"longitude":78.5685,"temp":21.0,"humidity":62,"rain":0.0,"pressure":979.0,"uv_index":6.9,"wind_gusts":24.8,"aqi":59,"pm10":33.1,"pm2_5":21.9,"mosquito_risk":3,"arthritis_risk":5,"migraine_risk":7,"frizz_risk":0,"updated_at":"2026-03-06T01:23:55.483238+05:30"},{"city":"Surat","state":"Gujarat","latitude":21.1702,"longitude":72.8311,"temp":24.5,"humidity":69,"rain":0.0,"pressure":1008.3,"uv_index":7.15,"wind_gusts":22.7,"aqi":111,"pm10":53.9,"pm2_5":52.3,"mosquito_risk":3,"arthritis_risk":0,"migraine_risk":4,"frizz_risk":1,"updated_at":"2026-03-06T01:23:55.483270+05:30"},{"city":"Vadodara","state":"Gujarat","latitude":22.3072,"longitude":73.1812,"temp":24.9,"humidity":47,"rain":0.0,"pressure":1006.2,"uv_index":7.25,"wind_gusts":18.7,"aqi":82,"pm10":42.7,"pm2_5":42.0,"mosquito_risk":0,"arthritis_risk":5,"migraine_risk":4,"frizz_risk":0,"updated_at":"2026-03-06T01:23:55.483280+05:30"},{"city":"Rajkot","state":"Gujarat","latitude":22.3039,"longitude":70.8022,"temp":21.9,"humidity":77,"rain":0.0,"pressure":997.1,"uv_index":7.1,"wind_gusts":23.0,"aqi":57,"pm10":14.9,"pm2_5":13.4,"mosquito_risk":3,"arthritis_risk":5,"migraine_risk":7,"frizz_risk":1,"updated_at":"2026-03-06T01:23:55.483288+05:30"},{"city":"Thane","state":"Maharashtra","latitude":19.2183,"longitude":72.9781,"temp":26.4,"humidity":60,"rain":0.0,"pressure":1008.6,"uv_index":7.4,"wind_gusts":35.6,"aqi":118,"pm10":29.5,"pm2_5":28.0,"mosquito_risk":4,"arthritis_risk":0,"migraine_risk":4,"frizz_risk":1,"updated_at":"2026-03-06T01:23:55.483295+05:30"},{"city":"Nagpur","state":"Maharashtra","latitude":21.1458,"longitude":79.0882,"temp":22.6,"humidity":48,"rain":0.0,"pressure":973.7,"uv_index":7.8,"wind_gusts":26.3,"aqi":55,"pm10":22.5,"pm2_5":16.2,"mosquito_risk":0,"arthritis_risk":5,"migraine_risk":7,"frizz_risk":0,"updated_at":"2026-03-06T01:23:55.483303+05:30"},{"city":"Nashik","state":"Maharashtra","latitude":19.9975,"longitude":73.7898,"temp":22.8,"humidity":49,"rain":0.0,"pressure":946.8,"uv_index":7.6,"wind_gusts":33.1,"aqi":78,"pm10":24.2,"pm2_5":22.4,"mosquito_risk":0,"arthritis_risk":5,"migraine_risk":7,"frizz_risk":0,"updated_at":"2026-03-06T01:23:55.483310+05:30"},{"city":"Aurangabad","state":"Maharashtra","latitude":19.8762,"longitude":75.3433,"temp":23.4,"humidity":47,"rain":0.0,"pressure":944.9,"uv_index":8.15,"wind_gusts":24.1,"aqi":71,"pm10":32.0,"pm2_5":27.9,"mosquito_risk":0,"arthritis_risk":5,"migraine_risk":7,"frizz_risk":0,"updated_at":"2026-03-06T01:23:55.483316+05:30"},{"city":"Solapur","state":"Maharashtra","latitude":17.6599,"longitude":75.9064,"temp":24.7,"humidity":50,"rain":0.0,"pressure":957.1,"uv_index":8.4,"wind_gusts":18.0,"aqi":94,"pm10":23.8,"pm2_5":22.4,"mosquito_risk":0,"arthritis_risk":5,"migraine_risk":7,"frizz_risk":0,"updated_at":"2026-03-06T01:23:55.483323+05:30"},{"city":"Kolhapur","state":"Maharashtra","latitude":16.705,"longitude":74.2433,"temp":18.5,"humidity":69,"rain":0.0,"pressure":947.6,"uv_index":8.55,"wind_gusts":30.2,"aqi":151,"pm10":79.9,"pm2_5":78.9,"mosquito_risk":3,"arthritis_risk":5,"migraine_risk":7,"frizz_risk":0,"updated_at":"2026-03-06T01:23:55.483330+05:30"},{"city":"Goa","state":"Goa","latitude":15.2993,"longitude":74.124,"temp":25.6,"humidity":92,"rain":0.0,"pressure":998.3,"uv_index":8.6,"wind_gusts":31.3,"aqi":152,"pm10":75.0,"pm2_5":72.4,"mosquito_risk":7,"arthritis_risk":5,"migraine_risk":7,"frizz_risk":1,"updated_at":"2026-03-06T01:23:55.483337+05:30"},{"city":"Jodhpur","state":"Rajasthan","latitude":26.2389,"longitude":73.0243,"temp":22.1,"humidity":33,"rain":0.0,"pressure":984.8,"uv_index":6.95,"wind_gusts":21.2,"aqi":76,"pm10":95.0,"pm2_5":21.1,"mosquito_risk":0,"arthritis_risk":5,"migraine_risk":7,"frizz_risk":0,"updated_at":"2026-03-06T01:23:55.483344+05:30"},{"city":"Udaipur","state":"Rajasthan","latitude":24.5854,"longitude":73.7125,"temp":18.6,"humidity":35,"rain":0.0,"pressure":948.2,"uv_index":7.6,"wind_gusts":22.7,"aqi":55,"pm10":16.6,"pm2_5":16.0,"mosquito_risk":0,"arthritis_risk":5,"migraine_risk":7,"frizz_risk":0,"updated_at":"2026-03-06T01:23:55.483351+05:30"},{"city":"Kota","state":"Rajasthan","latitude":25.2138,"longitude":75.8648,"temp":20.7,"humidity":60,"rain":0.0,"pressure":980.1,"uv_index":7.0,"wind_gusts":16.6,"aqi":78,"pm10":52.5,"pm2_5":33.3,"mosquito_risk":0,"arthritis_risk":5,"migraine_risk":7,"frizz_risk":0,"updated_at":"2026-03-06T01:23:55.483358+05:30"},{"city":"Bikaner","state":"Rajasthan","latitude":28.0229,"longitude":73.3119,"temp":23.4,"humidity":39,"rain":0.0,"pressure":983.1,"uv_index":6.65,"wind_gusts":22.7,"aqi":62,"pm10":17.7,"pm2_5":10.8,"mosquito_risk":0,"arthritis_risk":5,"migraine_risk":7,"frizz_risk":0,"updated_at":"2026-03-06T01:23:55.483365+05:30"},{"city":"Ajmer","state":"Rajasthan","latitude":26.4499,"longitude":74.6399,"temp":22.8,"humidity":42,"rain":0.0,"pressure":956.3,"uv_index":6.95,"wind_gusts":22.3,"aqi":69,"pm10":33.4,"pm2_5":15.9,"mosquito_risk":0,"arthritis_risk":5,"migraine_risk":7,"frizz_risk":0,"updated_at":"2026-03-06T01:23:55.483371+05:30"},{"city":"Gwalior","state":"Madhya Pradesh","latitude":26.2183,"longitude":78.1828,"temp":22.2,"humidity":62,"rain":0.0,"pressure":984.4,"uv_index":6.6,"wind_gusts":22.0,"aqi":75,"pm10":153.7,"pm2_5":41.9,"mosquito_risk":3,"arthritis_risk":5,"migraine_risk":7,"frizz_risk":0,"updated_at":"2026-03-06T01:23:55.483378+05:30"},{"city":"Indore","state":"Madhya Pradesh","latitude":22.7196,"longitude":75.8577,"temp":19.8,"humidity":57,"rain":0.0,"pressure":949.3,"uv_index":7.55,"wind_gusts":22.0,"aqi":78,"pm10":41.4,"pm2_5":30.9,"mosquito_risk":0,"arthritis_risk":5,"migraine_risk":7,"frizz_risk":0,"updated_at":"2026-03-06T01:23:55.483384+05:30"},{"city":"Bhopal","state":"Madhya Pradesh","latitude":23.2599,"longitude":77.4126,"temp":20.6,"humidity":52,"rain":0.0,"pressure":954.8,"uv_index":7.4,"wind_gusts":24.8,"aqi":64,"pm10":35.4,"pm2_5":26.2,"mosquito_risk":0,"arthritis_risk":5,"migraine_risk":7,"frizz_risk":0,"updated_at":"2026-03-06T01:23:55.483391+05:30"},{"city":"Jabalpur","state":"Madhya Pradesh","latitude":23.1815,"longitude":79.9864,"temp":23.2,"humidity":47,"rain":0.0,"pressure":962.2,"uv_index":7.5,"wind_gusts":26.6,"aqi":61,"pm10":43.8,"pm2_5":26.8,"mosquito_risk":0,"arthritis_risk":5,"migraine_risk":7,"frizz_risk":0,"updated_at":"2026-03-06T01:23:55.483397+05:30"},{"city":"Ujjain","state":"Madhya Pradesh","latitude":23.1765,"longitude":75.7885,"temp":19.7,"humidity":58,"rain":0.0,"pressure":954.9,"uv_index":7.45,"wind_gusts":18.0,"aqi":107,"pm10":61.5,"pm2_5":53.0,"mosquito_risk":0,"arthritis_risk":5,"migraine_risk":7,"frizz_risk":0,"updated_at":"2026-03-06T01:23:55.483404+05:30"},{"city":"Visakhapatnam","state":"Andhra Pradesh","latitude":17.6868,"longitude":83.2185,"temp":24.6,"humidity":89,"rain":0.0,"pressure":1002.7,"uv_index":8.45,"wind_gusts":34.6,"aqi":114,"pm10":45.3,"pm2_5":42.4,"mosquito_risk":3,"arthritis_risk":5,"migraine_risk":4,"frizz_risk":1,"updated_at":"2026-03-06T01:23:55.483410+05:30"},{"city":"Vijayawada","state":"Andhra Pradesh","latitude":16.5062,"longitude":80.648,"temp":24.8,"humidity":74,"rain":0.0,"pressure":1002.1,"uv_index":8.55,"wind_gusts":17.3,"aqi":113,"pm10":49.0,"pm2_5":47.6,"mosquito_risk":3,"arthritis_risk":5,"migraine_risk":4,"frizz_risk":1,"updated_at":"2026-03-06T01:23:55.483417+05:30"},{"city":"Guntur","state":"Andhra Pradesh","latitude":16.3067,"longitude":80.4365,"temp":24.0,"humidity":78,"rain":0.0,"pressure":1003.2,"uv_index":8.55,"wind_gusts":17.3,"aqi":106,"pm10":48.2,"pm2_5":46.6,"mosquito_risk":3,"arthritis_risk":5,"migraine_risk":4,"frizz_risk":1,"updated_at":"2026-03-06T01:23:55.483423+05:30"},{"city":"Nellore","state":"Andhra Pradesh","latitude":14.4426,"longitude":79.9865,"temp":24.4,"humidity":81,"rain":0.0,"pressure":1005.9,"uv_index":8.75,"wind_gusts":29.2,"aqi":95,"pm10":31.0,"pm2_5":29.3,"mosquito_risk":3,"arthritis_risk":5,"migraine_risk":4,"frizz_risk":1,"updated_at":"2026-03-06T01:23:55.483431+05:30"},{"city":"Kurnool","state":"Andhra Pradesh","latitude":15.8281,"longitude":78.0373,"temp":27.6,"humidity":39,"rain":0.0,"pressure":976.6,"uv_index":8.55,"wind_gusts":20.5,"aqi":75,"pm10":17.9,"pm2_5":16.5,"mosquito_risk":4,"arthritis_risk":5,"migraine_risk":7,"frizz_risk":0,"updated_at":"2026-03-06T01:23:55.483438+05:30"},{"city":"Kakinada","state":"Andhra Pradesh","latitude":16.9891,"longitude":82.2475,"temp":23.0,"humidity":92,"rain":0.0,"pressure":1006.7,"uv_index":8.5,"wind_gusts":34.9,"aqi":102,"pm10":38.6,"pm2_5":34.8,"mosquito_risk":3,"arthritis_risk":5,"migraine_risk":4,"frizz_risk":1,"updated_at":"2026-03-06T01:23:55.483445+05:30"},{"city":"Tirupati","state":"Andhra Pradesh","latitude":13.6288,"longitude":79.4192,"temp":23.5,"humidity":68,"rain":0.0,"pressure":992.3,"uv_index":8.85,"wind_gusts":28.8,"aqi":123,"pm10":54.9,"pm2_5":53.0,"mosquito_risk":3,"arthritis_risk":5,"migraine_risk":7,"frizz_risk":1,"updated_at":"2026-03-06T01:23:55.483451+05:30"},{"city":"Warangal","state":"Telangana","latitude":17.9689,"longitude":79.5941,"temp":25.2,"humidity":47,"rain":0.0,"pressure":978.0,"uv_index":8.3,"wind_gusts":25.9,"aqi":86,"pm10":28.5,"pm2_5":26.9,"mosquito_risk":4,"arthritis_risk":5,"migraine_risk":7,"frizz_risk":0,"updated_at":"2026-03-06T01:23:55.483457+05:30"},{"city":"Nizamabad","state":"Telangana","latitude":18.6725,"longitude":78.0941,"temp":21.7,"humidity":58,"rain":0.0,"pressure":964.8,"uv_index":8.2,"wind_gusts":29.5,"aqi":84,"pm10":32.5,"pm2_5":30.9,"mosquito_risk":0,"arthritis_risk":5,"migraine_risk":7,"frizz_risk":0,"updated_at":"2026-03-06T01:23:55.483465+05:30"},{"city":"Mysore","state":"Karnataka","latitude":12.2958,"longitude":76.6396,"temp":21.8,"humidity":91,"rain":0.0,"pressure":928.4,"uv_index":9.2,"wind_gusts":37.4,"aqi":110,"pm10":60.3,"pm2_5":59.0,"mosquito_risk":3,"arthritis_risk":5,"migraine_risk":7,"frizz_risk":1,"updated_at":"2026-03-06T01:23:55.483472+05:30"},{"city":"Mangalore","state":"Karnataka","latitude":12.9141,"longitude":74.856,"temp":28.7,"humidity":78,"rain":0.0,"pressure":1007.3,"uv_index":8.8,"wind_gusts":25.6,"aqi":132,"pm10":52.6,"pm2_5":48.7,"mosquito_risk":7,"arthritis_risk":5,"migraine_risk":4,"frizz_risk":1,"updated_at":"2026-03-06T01:23:55.483478+05:30"},{"city":"Hubli-Dharwad","state":"Karnataka","latitude":15.3647,"longitude":75.124,"temp":21.0,"humidity":94,"rain":0.0,"pressure":940.7,"uv_index":8.75,"wind_gusts":25.9,"aqi":90,"pm10":31.7,"pm2_5":30.6,"mosquito_risk":3,"arthritis_risk":5,"migraine_risk":7,"frizz_risk":1,"updated_at":"2026-03-06T01:23:55.483485+05:30"},{"city":"Belgaum","state":"Karnataka","latitude":15.8497,"longitude":74.4977,"temp":21.6,"humidity":73,"rain":0.0,"pressure":925.6,"uv_index":8.8,"wind_gusts":33.1,"aqi":119,"pm10":57.3,"pm2_5":55.8,"mosquito_risk":3,"arthritis_risk":5,"migraine_risk":7,"frizz_risk":1,"updated_at":"2026-03-06T01:23:58.704538+05:30"},{"city":"Coimbatore","state":"Tamil Nadu","latitude":11.0168,"longitude":76.9558,"temp":22.6,"humidity":94,"rain":0.0,"pressure":962.3,"uv_index":9.15,"wind_gusts":41.8,"aqi":106,"pm10":54.9,"pm2_5":53.7,"mosquito_risk":3,"arthritis_risk":5,"migraine_risk":7,"frizz_risk":1,"updated_at":"2026-03-06T01:23:58.704568+05:30"},{"city":"Madurai","state":"Tamil Nadu","latitude":9.9252,"longitude":78.1198,"temp":24.7,"humidity":87,"rain":0.0,"pressure":993.9,"uv_index":9.15,"wind_gusts":29.9,"aqi":86,"pm10":39.1,"pm2_5":37.7,"mosquito_risk":3,"arthritis_risk":5,"migraine_risk":7,"frizz_risk":1,"updated_at":"2026-03-06T01:23:58.704622+05:30"},{"city":"Trichy","state":"Tamil Nadu","latitude":10.7905,"longitude":78.7047,"temp":23.5,"humidity":96,"rain":0.0,"pressure":1000.4,"uv_index":9.05,"wind_gusts":25.9,"aqi":96,"pm10":28.1,"pm2_5":26.8,"mosquito_risk":3,"arthritis_risk":5,"migraine_risk":4,"frizz_risk":1,"updated_at":"2026-03-06T01:23:58.704631+05:30"},{"city":"Salem","state":"Tamil Nadu","latitude":11.6643,"longitude":78.146,"temp":23.6,"humidity":75,"rain":0.0,"pressure":977.6,"uv_index":9.05,"wind_gusts":14.8,"aqi":97,"pm10":46.0,"pm2_5":43.3,"mosquito_risk":3,"arthritis_risk":5,"migraine_risk":7,"frizz_risk":1,"updated_at":"2026-03-06T01:23:58.704639+05:30"},{"city":"Tirunelveli","state":"Tamil Nadu","latitude":8.7139,"longitude":77.7567,"temp":24.9,"humidity":78,"rain":0.0,"pressure":1004.0,"uv_index":9.15,"wind_gusts":46.4,"aqi":74,"pm10":37.1,"pm2_5":36.2,"mosquito_risk":3,"arthritis_risk":5,"migraine_risk":4,"frizz_risk":1,"updated_at":"2026-03-06T01:23:58.704646+05:30"},{"city":"Vellore","state":"Tamil Nadu","latitude":12.9165,"longitude":79.1325,"temp":22.9,"humidity":77,"rain":0.0,"pressure":985.4,"uv_index":8.95,"wind_gusts":31.3,"aqi":122,"pm10":51.5,"pm2_5":49.2,"mosquito_risk":3,"arthritis_risk":5,"migraine_risk":7,"frizz_risk":1,"updated_at":"2026-03-06T01:23:58.704654+05:30"},{"city":"Erode","state":"Tamil Nadu","latitude":11.341,"longitude":77.7172,"temp":25.1,"humidity":69,"rain":0.0,"pressure":989.9,"uv_index":9.05,"wind_gusts":21.6,"aqi":102,"pm10":31.2,"pm2_5":29.4,"mosquito_risk":7,"arthritis_risk":5,"migraine_risk":7,"frizz_risk":1,"updated_at":"2026-03-06T01:23:58.704661+05:30"},{"city":"Kochi","state":"Kerala","latitude":9.9312,"longitude":76.2673,"temp":27.8,"humidity":81,"rain":0.0,"pressure":1009.2,"uv_index":9.0,"wind_gusts":37.8,"aqi":143,"pm10":64.0,"pm2_5":63.1,"mosquito_risk":7,"arthritis_risk":0,"migraine_risk":4,"frizz_risk":1,"updated_at":"2026-03-06T01:23:58.704668+05:30"},{"city":"Thiruvananthapuram","state":"Kerala","latitude":8.5241,"longitude":76.9366,"temp":27.6,"humidity":80,"rain":0.0,"pressure":1008.6,"uv_index":9.05,"wind_gusts":33.1,"aqi":91,"pm10":32.6,"pm2_5":29.5,"mosquito_risk":7,"arthritis_risk":0,"migraine_risk":4,"frizz_risk":1,"updated_at":"2026-03-06T01:23:58.704675+05:30"},{"city":"Kozhikode","state":"Kerala","latitude":11.2588,"longitude":75.7804,"temp":28.3,"humidity":82,"rain":0.0,"pressure":1008.2,"uv_index":8.85,"wind_gusts":28.8,"aqi":125,"pm10":48.1,"pm2_5":43.4,"mosquito_risk":7,"arthritis_risk":0,"migraine_risk":4,"frizz_risk":1,"updated_at":"2026-03-06T01:23:58.704681+05:30"},{"city":"Thrissur","state":"Kerala","latitude":10.5276,"longitude":76.2144,"temp":26.8,"humidity":89,"rain":0.0,"pressure":1007.5,"uv_index":8.95,"wind_gusts":38.9,"aqi":143,"pm10":78.2,"pm2_5":75.9,"mosquito_risk":7,"arthritis_risk":5,"migraine_risk":4,"frizz_risk":1,"updated_at":"2026-03-06T01:23:58.704689+05:30"},{"city":"Kannur","state":"Kerala","latitude":11.8745,"longitude":75.3704,"temp":28.0,"humidity":80,"rain":0.0,"pressure":1007.6,"uv_index":8.85,"wind_gusts":30.6,"aqi":130,"pm10":46.4,"pm2_5":43.3,"mosquito_risk":7,"arthritis_risk":5,"migraine_risk":4,"frizz_risk":1,"updated_at":"2026-03-06T01:23:58.704697+05:30"},{"city":"Patna","state":"Bihar","latitude":25.5941,"longitude":85.1376,"temp":23.1,"humidity":68,"rain":0.0,"pressure":1001.9,"uv_index":7.25,"wind_gusts":23.4,"aqi":165,"pm10":115.5,"pm2_5":89.9,"mosquito_risk":3,"arthritis_risk":5,"migraine_risk":4,"frizz_risk":1,"updated_at":"2026-03-06T01:23:58.704704+05:30"},{"city":"Gaya","state":"Bihar","latitude":24.7914,"longitude":85.0002,"temp":20.9,"humidity":73,"rain":0.0,"pressure":995.0,"uv_index":7.35,"wind_gusts":19.4,"aqi":151,"pm10":85.2,"pm2_5":68.7,"mosquito_risk":3,"arthritis_risk":5,"migraine_risk":7,"frizz_risk":0,"updated_at":"2026-03-06T01:23:58.704710+05:30"},{"city":"Muzaffarpur","state":"Bihar","latitude":26.1209,"longitude":85.3647,"temp":20.6,"humidity":74,"rain":0.0,"pressure":1002.1,"uv_index":7.2,"wind_gusts":23.4,"aqi":169,"pm10":134.1,"pm2_5":106.9,"mosquito_risk":3,"arthritis_risk":5,"migraine_risk":4,"frizz_risk":0,"updated_at":"2026-03-06T01:23:58.704717+05:30"},{"city":"Bhagalpur","state":"Bihar","latitude":25.2425,"longitude":87.0117,"temp":22.7,"humidity":62,"rain":0.0,"pressure":1002.7,"uv_index":7.3,"wind_gusts":18.4,"aqi":163,"pm10":96.9,"pm2_5":82.2,"mosquito_risk":3,"arthritis_risk":5,"migraine_risk":4,"frizz_risk":0,"updated_at":"2026-03-06T01:23:58.704723+05:30"},{"city":"Ranchi","state":"Jharkhand","latitude":23.3441,"longitude":85.3096,"temp":19.1,"humidity":66,"rain":0.0,"pressure":937.6,"uv_index":8.0,"wind_gusts":27.7,"aqi":127,"pm10":133.2,"pm2_5":69.8,"mosquito_risk":3,"arthritis_risk":5,"migraine_risk":7,"frizz_risk":0,"updated_at":"2026-03-06T01:23:58.704729+05:30"},{"city":"Jamshedpur","state":"Jharkhand","latitude":22.8046,"longitude":86.2029,"temp":23.5,"humidity":64,"rain":0.0,"pressure":991.5,"uv_index":7.9,"wind_gusts":21.6,"aqi":158,"pm10":96.9,"pm2_5":65.4,"mosquito_risk":3,"arthritis_risk":5,"migraine_risk":7,"frizz_risk":1,"updated_at":"2026-03-06T01:23:58.704735+05:30"},{"city":"Dhanbad","state":"Jharkhand","latitude":23.7957,"longitude":86.4304,"temp":23.6,"humidity":54,"rain":0.0,"pressure":980.7,"uv_index":7.75,"wind_gusts":28.4,"aqi":167,"pm10":113.6,"pm2_5":92.7,"mosquito_risk":0,"arthritis_risk":5,"migraine_risk":7,"frizz_risk":0,"updated_at":"2026-03-06T01:23:58.704741+05:30"},{"city":"Bokaro","state":"Jharkhand","latitude":23.6693,"longitude":86.1511,"temp":23.1,"humidity":60,"rain":0.0,"pressure":985.0,"uv_index":7.75,"wind_gusts":30.6,"aqi":170,"pm10":163.0,"pm2_5":123.9,"mosquito_risk":0,"arthritis_risk":5,"migraine_risk":7,"frizz_risk":0,"updated_at":"2026-03-06T01:23:58.704748+05:30"},{"city":"Bhubaneswar","state":"Odisha","latitude":20.2961,"longitude":85.8245,"temp":24.6,"humidity":91,"rain":0.0,"pressure":1002.7,"uv_index":8.2,"wind_gusts":31.0,"aqi":146,"pm10":36.0,"pm2_5":30.0,"mosquito_risk":3,"arthritis_risk":5,"migraine_risk":4,"frizz_risk":1,"updated_at":"2026-03-06T01:23:58.704755+05:30"},{"city":"Cuttack","state":"Odisha","latitude":20.4625,"longitude":85.8828,"temp":24.7,"humidity":91,"rain":0.0,"pressure":1004.8,"uv_index":8.25,"wind_gusts":33.8,"aqi":146,"pm10":36.0,"pm2_5":30.0,"mosquito_risk":3,"arthritis_risk":5,"migraine_risk":4,"frizz_risk":1,"updated_at":"2026-03-06T01:23:58.704761+05:30"},{"city":"Rourkela","state":"Odisha","latitude":22.2604,"longitude":84.8536,"temp":25.2,"humidity":56,"rain":0.0,"pressure":985.0,"uv_index":7.8,"wind_gusts":13.7,"aqi":123,"pm10":77.5,"pm2_5":48.5,"mosquito_risk":4,"arthritis_risk":5,"migraine_risk":7,"frizz_risk":0,"updated_at":"2026-03-06T01:23:58.704767+05:30"},{"city":"Raipur","state":"Chhattisgarh","latitude":21.2514,"longitude":81.6296,"temp":25.2,"humidity":40,"rain":0.0,"pressure":974.5,"uv_index":7.9,"wind_gusts":25.2,"aqi":116,"pm10":42.5,"pm2_5":34.1,"mosquito_risk":4,"arthritis_risk":5,"migraine_risk":7,"frizz_risk":0,"updated_at":"2026-03-06T01:23:58.704774+05:30"},{"city":"Bhilai","state":"Chhattisgarh","latitude":21.1938,"longitude":81.3509,"temp":24.1,"humidity":43,"rain":0.0,"pressure":974.7,"uv_index":7.9,"wind_gusts":25.9,"aqi":90,"pm10":34.0,"pm2_5":24.3,"mosquito_risk":0,"arthritis_risk":5,"migraine_risk":7,"frizz_risk":0,"updated_at":"2026-03-06T01:23:58.704780+05:30"},{"city":"Guwahati","state":"Assam","latitude":26.1158,"longitude":91.7086,"temp":23.9,"humidity":75,"rain":0.0,"pressure":1002.9,"uv_index":7.25,"wind_gusts":23.4,"aqi":132,"pm10":57.4,"pm2_5":54.1,"mosquito_risk":3,"arthritis_risk":5,"migraine_risk":4,"frizz_risk":1,"updated_at":"2026-03-06T01:23:58.704787+05:30"},{"city":"Agartala","state":"Tripura","latitude":23.8315,"longitude":91.2868,"temp":20.9,"humidity":75,"rain":0.0,"pressure":1007.4,"uv_index":7.6,"wind_gusts":20.9,"aqi":159,"pm10":117.8,"pm2_5":105.7,"mosquito_risk":3,"arthritis_risk":5,"migraine_risk":4,"frizz_risk":1,"updated_at":"2026-03-06T01:23:58.704793+05:30"},{"city":"Shillong","state":"Meghalaya","latitude":25.5788,"longitude":91.8933,"temp":10.4,"humidity":83,"rain":0.0,"pressure":854.7,"uv_index":7.6,"wind_gusts":36.0,"aqi":110,"pm10":40.9,"pm2_5":38.0,"mosquito_risk":3,"arthritis_risk":10,"migraine_risk":7,"frizz_risk":0,"updated_at":"2026-03-06T01:23:58.704799+05:30"},{"city":"Imphal","state":"Manipur","latitude":24.817,"longitude":93.9368,"temp":14.8,"humidity":72,"rain":0.0,"pressure":923.6,"uv_index":7.8,"wind_gusts":30.6,"aqi":141,"pm10":62.9,"pm2_5":58.6,"mosquito_risk":3,"arthritis_risk":5,"migraine_risk":7,"frizz_risk":0,"updated_at":"2026-03-06T01:23:58.704807+05:30"},{"city":"Aizawl","state":"Mizoram","latitude":23.7271,"longitude":92.7176,"temp":17.0,"humidity":68,"rain":0.0,"pressure":892.4,"uv_index":7.7,"wind_gusts":30.6,"aqi":154,"pm10":79.9,"pm2_5":71.2,"mosquito_risk":3,"arthritis_risk":5,"migraine_risk":7,"frizz_risk":0,"updated_at":"2026-03-06T01:23:58.704813+05:30"},{"city":"Kohima","state":"Nagaland","latitude":25.6701,"longitude":94.1077,"temp":14.8,"humidity":69,"rain":0.0,"pressure":855.3,"uv_index":7.65,"wind_gusts":43.2,"aqi":120,"pm10":45.4,"pm2_5":41.9,"mosquito_risk":3,"arthritis_risk":5,"migraine_risk":7,"frizz_risk":0,"updated_at":"2026-03-06T01:23:58.704819+05:30"},{"city":"Gangtok","state":"Sikkim","latitude":27.3314,"longitude":88.6138,"temp":13.7,"humidity":96,"rain":0.0,"pressure":838.1,"uv_index":7.55,"wind_gusts":20.2,"aqi":96,"pm10":40.7,"pm2_5":37.1,"mosquito_risk":3,"arthritis_risk":10,"migraine_risk":7,"frizz_risk":0,"updated_at":"2026-03-06T01:23:58.704825+05:30"},{"city":"Siliguri","state":"West Bengal","latitude":26.7271,"longitude":88.3953,"temp":21.6,"humidity":65,"rain":0.0,"pressure":995.8,"uv_index":7.2,"wind_gusts":24.8,"aqi":131,"pm10":58.0,"pm2_5":54.4,"mosquito_risk":3,"arthritis_risk":5,"migraine_risk":7,"frizz_risk":0,"updated_at":"2026-03-06T01:24:01.927800+05:30"},{"city":"Durgapur","state":"West Bengal","latitude":23.5204,"longitude":87.3119,"temp":23.4,"humidity":57,"rain":0.0,"pressure":996.2,"uv_index":7.75,"wind_gusts":25.6,"aqi":160,"pm10":95.5,"pm2_5":77.5,"mosquito_risk":0,"arthritis_risk":5,"migraine_risk":7,"frizz_risk":0,"updated_at":"2026-03-06T01:24:01.927831+05:30"},{"city":"Asansol","state":"West Bengal","latitude":23.6739,"longitude":86.9524,"temp":24.2,"humidity":55,"rain":0.0,"pressure":994.8,"uv_index":7.75,"wind_gusts":23.4,"aqi":157,"pm10":88.2,"pm2_5":73.1,"mosquito_risk":0,"arthritis_risk":5,"migraine_risk":7,"frizz_risk":0,"updated_at":"2026-03-06T01:24:01.927841+05:30"},{"city":"Pondicherry","state":"Puducherry","latitude":11.9139,"longitude":79.8145,"temp":23.1,"humidity":93,"rain":0.0,"pressure":1009.2,"uv_index":8.9,"wind_gusts":23.8,"aqi":75,"pm10":20.0,"pm2_5":17.0,"mosquito_risk":3,"arthritis_risk":0,"migraine_risk":4,"frizz_risk":1,"updated_at":"2026-03-06T01:24:01.927849+05:30"},{"city":"Port Blair","state":"Andaman and Nicobar Islands","latitude":11.6234,"longitude":92.7265,"temp":26.9,"humidity":72,"rain":0.0,"pressure":1007.0,"uv_index":8.85,"wind_gusts":14.8,"aqi":57,"pm10":20.4,"pm2_5":12.7,"mosquito_risk":7,"arthritis_risk":5,"migraine_risk":4,"frizz_risk":1,"updated_at":"2026-03-06T01:24:01.927856+05:30"},{"city":"Haridwar","state":"Uttarakhand","latitude":29.9457,"longitude":78.1642,"temp":19.4,"humidity":90,"rain":0.0,"pressure":975.2,"uv_index":5.65,"wind_gusts":27.0,"aqi":147,"pm10":77.1,"pm2_5":60.3,"mosquito_risk":3,"arthritis_risk":10,"migraine_risk":3,"frizz_risk":1,"updated_at":"2026-03-06T01:24:01.927864+05:30"},{"city":"Rishikesh","state":"Uttarakhand","latitude":30.0869,"longitude":78.2676,"temp":19.2,"humidity":83,"rain":0.0,"pressure":967.8,"uv_index":5.7,"wind_gusts":23.0,"aqi":136,"pm10":90.1,"pm2_5":62.9,"mosquito_risk":3,"arthritis_risk":10,"migraine_risk":3,"frizz_risk":1,"updated_at":"2026-03-06T01:24:01.927872+05:30"},{"city":"Nainital","state":"Uttarakhand","latitude":29.3919,"longitude":79.4542,"temp":16.1,"humidity":70,"rain":0.0,"pressure":805.5,"uv_index":6.5,"wind_gusts":43.6,"aqi":153,"pm10":91.0,"pm2_5":66.6,"mosquito_risk":3,"arthritis_risk":5,"migraine_risk":7,"frizz_risk":0,"updated_at":"2026-03-06T01:24:01.927879+05:30"},{"city":"Mussoorie","state":"Uttarakhand","latitude":30.4599,"longitude":78.0664,"temp":15.3,"humidity":77,"rain":0.0,"pressure":802.0,"uv_index":6.05,"wind_gusts":33.1,"aqi":155,"pm10":86.6,"pm2_5":59.0,"mosquito_risk":3,"arthritis_risk":5,"migraine_risk":7,"frizz_risk":0,"updated_at":"2026-03-06T01:24:01.927886+05:30"},{"city":"Dharamshala","state":"Himachal Pradesh","latitude":32.219,"longitude":76.3234,"temp":21.6,"humidity":32,"rain":0.0,"pressure":870.0,"uv_index":5.75,"wind_gusts":25.2,"aqi":60,"pm10":21.8,"pm2_5":14.0,"mosquito_risk":0,"arthritis_risk":5,"migraine_risk":3,"frizz_risk":0,"updated_at":"2026-03-06T01:24:01.927893+05:30"},{"city":"Dalhousie","state":"Himachal Pradesh","latitude":32.5387,"longitude":75.971,"temp":17.6,"humidity":42,"rain":0.0,"pressure":804.2,"uv_index":5.85,"wind_gusts":22.3,"aqi":84,"pm10":48.4,"pm2_5":41.9,"mosquito_risk":0,"arthritis_risk":5,"migraine_risk":3,"frizz_risk":0,"updated_at":"2026-03-06T01:24:01.927901+05:30"},{"city":"Patiala","state":"Punjab","latitude":30.3398,"longitude":76.3869,"temp":20.5,"humidity":81,"rain":0.0,"pressure":978.6,"uv_index":5.75,"wind_gusts":15.1,"aqi":330,"pm10":295.2,"pm2_5":82.0,"mosquito_risk":3,"arthritis_risk":5,"migraine_risk":3,"frizz_risk":1,"updated_at":"2026-03-06T01:24:01.927908+05:30"},{"city":"Bhatinda","state":"Punjab","latitude":30.211,"longitude":74.9455,"temp":19.8,"humidity":77,"rain":0.0,"pressure":984.4,"uv_index":6.4,"wind_gusts":16.6,"aqi":138,"pm10":59.6,"pm2_5":46.7,"mosquito_risk":3,"arthritis_risk":5,"migraine_risk":7,"frizz_risk":0,"updated_at":"2026-03-06T01:24:01.927915+05:30"},{"city":"Rohtak","state":"Haryana","latitude":28.8955,"longitude":76.6066,"temp":20.1,"humidity":74,"rain":0.0,"pressure":982.4,"uv_index":5.9,"wind_gusts":16.2,"aqi":599,"pm10":458.2,"pm2_5":94.1,"mosquito_risk":3,"arthritis_risk":5,"migraine_risk":3,"frizz_risk":0,"updated_at":"2026-03-06T01:24:01.927922+05:30"},{"city":"Panipat","state":"Haryana","latitude":29.3909,"longitude":76.9635,"temp":20.1,"humidity":84,"rain":0.0,"pressure":981.0,"uv_index":5.7,"wind_gusts":11.5,"aqi":1233,"pm10":853.1,"pm2_5":131.3,"mosquito_risk":3,"arthritis_risk":5,"migraine_risk":3,"frizz_risk":1,"updated_at":"2026-03-06T01:24:01.927929+05:30"},{"city":"Mathura","state":"Uttar Pradesh","latitude":27.4924,"longitude":77.6737,"temp":22.8,"humidity":48,"rain":0.0,"pressure":987.6,"uv_index":6.2,"wind_gusts":19.4,"aqi":695,"pm10":597.9,"pm2_5":111.3,"mosquito_risk":0,"arthritis_risk":5,"migraine_risk":7,"frizz_risk":0,"updated_at":"2026-03-06T01:24:01.927935+05:30"},{"city":"Vrindavan","state":"Uttar Pradesh","latitude":27.5823,"longitude":77.7027,"temp":20.1,"humidity":64,"rain":0.0,"pressure":988.0,"uv_index":6.15,"wind_gusts":20.2,"aqi":695,"pm10":597.9,"pm2_5":111.3,"mosquito_risk":3,"arthritis_risk":5,"migraine_risk":7,"frizz_risk":0,"updated_at":"2026-03-06T01:24:01.927942+05:30"},{"city":"Ayodhya","state":"Uttar Pradesh","latitude":26.7922,"longitude":82.1998,"temp":20.5,"humidity":78,"rain":0.0,"pressure":996.8,"uv_index":6.55,"wind_gusts":20.2,"aqi":174,"pm10":123.4,"pm2_5":97.8,"mosquito_risk":3,"arthritis_risk":5,"migraine_risk":7,"frizz_risk":1,"updated_at":"2026-03-06T01:24:01.927948+05:30"},{"city":"Ratlam","state":"Madhya Pradesh","latitude":23.3315,"longitude":75.0367,"temp":23.0,"humidity":49,"rain":0.0,"pressure":956.1,"uv_index":7.4,"wind_gusts":18.0,"aqi":96,"pm10":43.5,"pm2_5":39.6,"mosquito_risk":0,"arthritis_risk":5,"migraine_risk":7,"frizz_risk":0,"updated_at":"2026-03-06T01:24:01.927955+05:30"},{"city":"Sagar","state":"Madhya Pradesh","latitude":23.8388,"longitude":78.7378,"temp":20.8,"humidity":54,"rain":0.0,"pressure":951.1,"uv_index":7.35,"wind_gusts":23.8,"aqi":54,"pm10":26.7,"pm2_5":18.2,"mosquito_risk":0,"arthritis_risk":5,"migraine_risk":7,"frizz_risk":0,"updated_at":"2026-03-06T01:24:01.927961+05:30"},{"city":"Satna","state":"Madhya Pradesh","latitude":24.6005,"longitude":80.8322,"temp":22.0,"humidity":52,"rain":0.0,"pressure":972.1,"uv_index":7.3,"wind_gusts":29.9,"aqi":72,"pm10":36.9,"pm2_5":25.3,"mosquito_risk":0,"arthritis_risk":5,"migraine_risk":7,"frizz_risk":0,"updated_at":"2026-03-06T01:24:01.927967+05:30"},{"city":"Akola","state":"Maharashtra","latitude":20.7002,"longitude":77.0082,"temp":23.1,"humidity":44,"rain":0.0,"pressure":976.1,"uv_index":7.85,"wind_gusts":19.8,"aqi":75,"pm10":42.8,"pm2_5":36.4,"mosquito_risk":0,"arthritis_risk":5,"migraine_risk":7,"frizz_risk":0,"updated_at":"2026-03-06T01:24:01.927975+05:30"},{"city":"Amravati","state":"Maharashtra","latitude":20.9374,"longitude":77.7796,"temp":22.8,"humidity":49,"rain":0.0,"pressure":968.0,"uv_index":7.8,"wind_gusts":16.6,"aqi":74,"pm10":46.8,"pm2_5":39.3,"mosquito_risk":0,"arthritis_risk":5,"migraine_risk":7,"frizz_risk":0,"updated_at":"2026-03-06T01:24:01.927981+05:30"},{"city":"Latur","state":"Maharashtra","latitude":18.4088,"longitude":76.5604,"temp":23.6,"humidity":42,"rain":0.0,"pressure":940.1,"uv_index":8.3,"wind_gusts":28.8,"aqi":91,"pm10":38.0,"pm2_5":34.6,"mosquito_risk":0,"arthritis_risk":5,"migraine_risk":7,"frizz_risk":0,"updated_at":"2026-03-06T01:24:01.927988+05:30"},{"city":"Nanded","state":"Maharashtra","latitude":19.1383,"longitude":77.3091,"temp":23.8,"humidity":46,"rain":0.0,"pressure":969.2,"uv_index":8.1,"wind_gusts":19.8,"aqi":91,"pm10":48.2,"pm2_5":46.3,"mosquito_risk":0,"arthritis_risk":5,"migraine_risk":7,"frizz_risk":0,"updated_at":"2026-03-06T01:24:01.927994+05:30"},{"city":"Gulbarga","state":"Karnataka","latitude":17.3297,"longitude":76.8343,"temp":25.2,"humidity":40,"rain":0.0,"pressure":958.8,"uv_index":8.4,"wind_gusts":27.0,"aqi":71,"pm10":18.9,"pm2_5":17.9,"mosquito_risk":4,"arthritis_risk":5,"migraine_risk":7,"frizz_risk":0,"updated_at":"2026-03-06T01:24:01.928000+05:30"},{"city":"Bidar","state":"Karnataka","latitude":17.9104,"longitude":77.5199,"temp":24.8,"humidity":47,"rain":0.0,"pressure":935.8,"uv_index":8.35,"wind_gusts":26.3,"aqi":85,"pm10":22.9,"pm2_5":20.9,"mosquito_risk":0,"arthritis_risk":5,"migraine_risk":7,"frizz_risk":0,"updated_at":"2026-03-06T01:24:01.928006+05:30"},{"city":"Hospet","state":"Karnataka","latitude":15.2689,"longitude":76.3909,"temp":23.8,"humidity":56,"rain":0.0,"pressure":955.6,"uv_index":8.75,"wind_gusts":15.1,"aqi":113,"pm10":36.9,"pm2_5":34.8,"mosquito_risk":0,"arthritis_risk":5,"migraine_risk":7,"frizz_risk":0,"updated_at":"2026-03-06T01:24:01.928012+05:30"},{"city":"Tirupur","state":"Tamil Nadu","latitude":11.1085,"longitude":77.3411,"temp":24.4,"humidity":92,"rain":0.0,"pressure":975.9,"uv_index":9.2,"wind_gusts":29.9,"aqi":103,"pm10":48.1,"pm2_5":46.4,"mosquito_risk":3,"arthritis_risk":5,"migraine_risk":7,"frizz_risk":1,"updated_at":"2026-03-06T01:24:01.928018+05:30"},{"city":"Alappuzha","state":"Kerala","latitude":9.4981,"longitude":76.3388,"temp":27.7,"humidity":79,"rain":0.0,"pressure":1009.3,"uv_index":9.0,"wind_gusts":34.2,"aqi":120,"pm10":59.5,"pm2_5":57.0,"mosquito_risk":7,"arthritis_risk":0,"migraine_risk":4,"frizz_risk":1,"updated_at":"2026-03-06T01:24:01.928024+05:30"},{"city":"Munnar","state":"Kerala","latitude":10.0889,"longitude":77.0595,"temp":17.3,"humidity":85,"rain":0.0,"pressure":855.5,"uv_index":9.5,"wind_gusts":28.8,"aqi":81,"pm10":41.3,"pm2_5":40.2,"mosquito_risk":3,"arthritis_risk":10,"migraine_risk":7,"frizz_risk":0,"updated_at":"2026-03-06T01:24:01.928031+05:30"},{"city":"Silchar","state":"Assam","latitude":24.8333,"longitude":92.7789,"temp":21.4,"humidity":72,"rain":0.0,"pressure":1006.1,"uv_index":7.55,"wind_gusts":13.7,"aqi":148,"pm10":74.7,"pm2_5":66.8,"mosquito_risk":3,"arthritis_risk":5,"migraine_risk":4,"frizz_risk":1,"updated_at":"2026-03-06T01:24:01.928038+05:30"},{"city":"Dibrugarh","state":"Assam","latitude":27.4728,"longitude":94.912,"temp":22.2,"humidity":80,"rain":0.0,"pressure":997.0,"uv_index":7.25,"wind_gusts":14.8,"aqi":102,"pm10":31.4,"pm2_5":29.8,"mosquito_risk":3,"arthritis_risk":5,"migraine_risk":7,"frizz_risk":1,"updated_at":"2026-03-06T01:24:01.928044+05:30"}]