[{"city":"Delhi","state":"Delhi","latitude":28.6139,"longitude":77.209,"temp":24.3,"humidity":56,"rain":0.0,"pressure":986.5,"uv_index":6.45,"wind_gusts":28.4,"aqi":160,"pm10":478.7,"pm2_5":90.6,"mosquito_risk":0,"arthritis_risk":5,"migraine_risk":7,"frizz_risk":0,"updated_at":"2026-03-22T20:01:23.469747+05:30"},{"city":"Mumbai","state":"Maharashtra","latitude":19.076,"longitude":72.8777,"temp":29.4,"humidity":57,"rain":0.0,"pressure":1009.7,"uv_index":7.9,"wind_gusts":28.4,"aqi":187,"pm10":57.0,"pm2_5":40.3,"mosquito_risk":4,"arthritis_risk":0,"migraine_risk":4,"frizz_risk":1,"updated_at":"2026-03-22T20:01:23.469790+05:30"},{"city":"Bangalore","state":"Karnataka","latitude":12.9716,"longitude":77.5946,"temp":25.4,"humidity":60,"rain":0.0,"pressure":913.0,"uv_index":9.45,"wind_gusts":25.2,"aqi":135,"pm10":58.3,"pm2_5":48.3,"mosquito_risk":4,"arthritis_risk":5,"migraine_risk":7,"frizz_risk":1,"updated_at":"2026-03-22T20:01:23.469806+05:30"},{"city":"Hyderabad","state":"Telangana","latitude":17.385,"longitude":78.4867,"temp":27.5,"humidity":59,"rain":0.0,"pressure":955.2,"uv_index":8.9,"wind_gusts":26.6,"aqi":147,"pm10":55.4,"pm2_5":41.6,"mosquito_risk":4,"arthritis_risk":5,"migraine_risk":7,"frizz_risk":1,"updated_at":"2026-03-22T20:01:23.469816+05:30"},{"city":"Chennai","state":"Tamil Nadu","latitude":13.0827,"longitude":80.2707,"temp":28.0,"humidity":73,"rain":0.0,"pressure":1009.6,"uv_index":9.15,"wind_gusts":32.4,"aqi":38,"pm10":12.5,"pm2_5":7.7,"mosquito_risk":7,"arthritis_risk":0,"migraine_risk":4,"frizz_risk":1,"updated_at":"2026-03-22T20:01:23.469830+05:30"},{"city":"Kolkata","state":"West Bengal","latitude":22.5726,"longitude":88.3639,"temp":24.3,"humidity":65,"rain":0.0,"pressure":1010.2,"uv_index":8.25,"wind_gusts":16.6,"aqi":146,"pm10":72.9,"pm2_5":70.3,"mosquito_risk":3,"arthritis_risk":0,"migraine_risk":4,"frizz_risk":1,"updated_at":"2026-03-22T20:01:23.469840+05:30"},{"city":"Pune","state":"Maharashtra","latitude":18.5204,"longitude":73.8567,"temp":29.0,"humidity":40,"rain":0.0,"pressure":950.1,"uv_index":8.45,"wind_gusts":29.5,"aqi":123,"pm10":21.6,"pm2_5":15.6,"mosquito_risk":4,"arthritis_risk":5,"migraine_risk":7,"frizz_risk":0,"updated_at":"2026-03-22T20:01:23.469853+05:30"},{"city":"Ahmedabad","state":"Gujarat","latitude":23.0225,"longitude":72.5714,"temp":29.8,"humidity":35,"rain":0.0,"pressure":1005.1,"uv_index":7.65,"wind_gusts":22.7,"aqi":96,"pm10":51.5,"pm2_5":26.7,"mosquito_risk":4,"arthritis_risk":5,"migraine_risk":4,"frizz_risk":0,"updated_at":"2026-03-22T20:01:23.469862+05:30"},{"city":"Jaipur","state":"Rajasthan","latitude":26.9124,"longitude":75.7873,"temp":26.9,"humidity":41,"rain":0.0,"pressure":962.8,"uv_index":7.25,"wind_gusts":29.9,"aqi":98,"pm10":103.4,"pm2_5":32.9,"mosquito_risk":4,"arthritis_risk":5,"migraine_risk":7,"frizz_risk":0,"updated_at":"2026-03-22T20:01:23.469870+05:30"},{"city":"Lucknow","state":"Uttar Pradesh","latitude":26.8467,"longitude":80.9462,"temp":24.6,"humidity":50,"rain":0.0,"pressure":997.3,"uv_index":6.95,"wind_gusts":26.6,"aqi":117,"pm10":211.9,"pm2_5":47.4,"mosquito_risk":0,"arthritis_risk":5,"migraine_risk":7,"frizz_risk":0,"updated_at":"2026-03-22T20:01:23.469879+05:30"},{"city":"Kanpur","state":"Uttar Pradesh","latitude":26.4499,"longitude":80.3319,"temp":23.4,"humidity":65,"rain":0.0,"pressure":995.6,"uv_index":7.0,"wind_gusts":27.7,"aqi":139,"pm10":432.1,"pm2_5":69.8,"mosquito_risk":3,"arthritis_risk":5,"migraine_risk":7,"frizz_risk":1,"updated_at":"2026-03-22T20:01:23.469887+05:30"},{"city":"Chandigarh","state":"Chandigarh","latitude":30.7333,"longitude":76.7794,"temp":19.4,"humidity":74,"rain":0.0,"pressure":972.1,"uv_index":6.4,"wind_gusts":33.1,"aqi":132,"pm10":41.3,"pm2_5":38.2,"mosquito_risk":3,"arthritis_risk":5,"migraine_risk":7,"frizz_risk":0,"updated_at":"2026-03-22T20:01:23.469896+05:30"},{"city":"Srinagar","state":"Jammu and Kashmir","latitude":34.0837,"longitude":74.7973,"temp":12.8,"humidity":59,"rain":0.0,"pressure":840.3,"uv_index":7.5,"wind_gusts":14.0,"aqi":146,"pm10":53.7,"pm2_5":43.1,"mosquito_risk":0,"arthritis_risk":5,"migraine_risk":7,"frizz_risk":0,"updated_at":"2026-03-22T20:01:23.469903+05:30"},{"city":"Jammu","state":"Jammu and Kashmir","latitude":32.7266,"longitude":74.857,"temp":21.9,"humidity":65,"rain":0.0,"pressure":975.8,"uv_index":6.85,"wind_gusts":22.0,"aqi":109,"pm10":51.1,"pm2_5":45.9,"mosquito_risk":3,"arthritis_risk":5,"migraine_risk":7,"frizz_risk":0,"updated_at":"2026-03-22T20:01:23.469911+05:30"},{"city":"Amritsar","state":"Punjab","latitude":31.634,"longitude":74.8723,"temp":21.3,"humidity":66,"rain":0.0,"pressure":984.4,"uv_index":7.05,"wind_gusts":20.5,"aqi":157,"pm10":71.5,"pm2_5":49.8,"mosquito_risk":3,"arthritis_risk":5,"migraine_risk":7,"frizz_risk":0,"updated_at":"2026-03-22T20:01:23.469919+05:30"},{"city":"Ludhiana","state":"Punjab","latitude":30.901,"longitude":75.8573,"temp":21.6,"humidity":65,"rain":0.0,"pressure":982.7,"uv_index":6.6,"wind_gusts":26.6,"aqi":133,"pm10":90.8,"pm2_5":54.5,"mosquito_risk":3,"arthritis_risk":5,"migraine_risk":7,"frizz_risk":0,"updated_at":"2026-03-22T20:01:23.469927+05:30"},{"city":"Jalandhar","state":"Punjab","latitude":31.326,"longitude":75.5762,"temp":22.0,"humidity":65,"rain":0.0,"pressure":983.7,"uv_index":6.85,"wind_gusts":21.6,"aqi":151,"pm10":86.8,"pm2_5":54.2,"mosquito_risk":3,"arthritis_risk":5,"migraine_risk":7,"frizz_risk":0,"updated_at":"2026-03-22T20:01:23.469937+05:30"},{"city":"Dehradun","state":"Uttarakhand","latitude":30.6284,"longitude":78.0322,"temp":12.4,"humidity":77,"rain":0.0,"pressure":830.1,"uv_index":6.8,"wind_gusts":24.1,"aqi":127,"pm10":34.1,"pm2_5":29.5,"mosquito_risk":3,"arthritis_risk":5,"migraine_risk":7,"frizz_risk":0,"updated_at":"2026-03-22T20:01:23.469944+05:30"},{"city":"Shimla","state":"Himachal Pradesh","latitude":31.1048,"longitude":77.1734,"temp":9.9,"humidity":88,"rain":0.0,"pressure":783.5,"uv_index":6.85,"wind_gusts":41.0,"aqi":114,"pm10":32.9,"pm2_5":28.8,"mosquito_risk":3,"arthritis_risk":10,"migraine_risk":7,"frizz_risk":0,"updated_at":"2026-03-22T20:01:23.469952+05:30"},{"city":"Manali","state":"Himachal Pradesh","latitude":32.2396,"longitude":77.1887,"temp":13.2,"humidity":55,"rain":0.0,"pressure":818.5,"uv_index":8.9,"wind_gusts":33.8,"aqi":146,"pm10":20.8,"pm2_5":12.1,"mosquito_risk":0,"arthritis_risk":5,"migraine_risk":7,"frizz_risk":0,"updated_at":"2026-03-22T20:01:23.469961+05:30"},{"city":"Gurgaon","state":"Haryana","latitude":28.4595,"longitude":77.0266,"temp":22.8,"humidity":63,"rain":0.0,"pressure":984.9,"uv_index":6.55,"wind_gusts":23.8,"aqi":456,"pm10":564.4,"pm2_5":101.0,"mosquito_risk":3,"arthritis_risk":5,"migraine_risk":7,"frizz_risk":0,"updated_at":"2026-03-22T20:01:23.469969+05:30"},{"city":"Noida","state":"Uttar Pradesh","latitude":28.5355,"longitude":77.391,"temp":24.1,"humidity":55,"rain":0.0,"pressure":988.1,"uv_index":6.45,"wind_gusts":27.7,"aqi":456,"pm10":564.4,"pm2_5":101.0,"mosquito_risk":0,"arthritis_risk":5,"migraine_risk":7,"frizz_risk":0,"updated_at":"2026-03-22T20:01:23.469978+05:30"},{"city":"Ghaziabad","state":"Uttar Pradesh","latitude":28.6692,"longitude":77.4538,"temp":23.0,"humidity":61,"rain":0.0,"pressure":986.2,"uv_index":6.45,"wind_gusts":28.1,"aqi":152,"pm10":436.8,"pm2_5":82.2,"mosquito_risk":3,"arthritis_risk":5,"migraine_risk":7,"frizz_risk":0,"updated_at":"2026-03-22T20:01:23.469985+05:30"},{"city":"Faridabad","state":"Haryana","latitude":28.4089,"longitude":77.3178,"temp":23.0,"humidity":59,"rain":0.0,"pressure":987.3,"uv_index":6.5,"wind_gusts":24.8,"aqi":456,"pm10":564.4,"pm2_5":101.0,"mosquito_risk":0,"arthritis_risk":5,"migraine_risk":7,"frizz_risk":0,"updated_at":"2026-03-22T20:01:23.469992+05:30"},{"city":"Meerut","state":"Uttar Pradesh","latitude":28.9845,"longitude":77.7064,"temp":21.2,"humidity":66,"rain":0.0,"pressure":984.8,"uv_index":6.3,"wind_gusts":31.7,"aqi":152,"pm10":436.8,"pm2_5":82.2,"mosquito_risk":3,"arthritis_risk":5,"migraine_risk":7,"frizz_risk":0,"updated_at":"2026-03-22T20:01:23.470000+05:30"},{"city":"Agra","state":"Uttar Pradesh","latitude":27.1767,"longitude":78.0081,"temp":24.0,"humidity":53,"rain":0.0,"pressure":991.4,"uv_index":6.45,"wind_gusts":29.9,"aqi":537,"pm10":409.8,"pm2_5":71.0,"mosquito_risk":0,"arthritis_risk":5,"migraine_risk":7,"frizz_risk":0,"updated_at":"2026-03-22T20:01:23.470007+05:30"},{"city":"Varanasi","state":"Uttar Pradesh","latitude":25.3176,"longitude":82.9739,"temp":23.2,"humidity":62,"rain":0.0,"pressure":1002.0,"uv_index":7.1,"wind_gusts":28.4,"aqi":113,"pm10":44.7,"pm2_5":39.5,"mosquito_risk":3,"arthritis_risk":5,"migraine_risk":4,"frizz_risk":0,"updated_at":"2026-03-22T20:01:23.470017+05:30"},{"city":"Prayagraj","state":"Uttar Pradesh","latitude":25.4358,"longitude":81.8463,"temp":24.1,"humidity":55,"rain":0.0,"pressure":1000.4,"uv_index":7.5,"wind_gusts":24.8,"aqi":118,"pm10":57.9,"pm2_5":34.2,"mosquito_risk":0,"arthritis_risk":5,"migraine_risk":4,"frizz_risk":0,"updated_at":"2026-03-22T20:01:23.470024+05:30"},{"city":"Gorakhpur","state":"Uttar Pradesh","latitude":26.7606,"longitude":83.3732,"temp":21.1,"humidity":74,"rain":0.0,"pressure":1001.6,"uv_index":7.25,"wind_gusts":11.2,"aqi":159,"pm10":31.4,"pm2_5":29.1,"mosquito_risk":3,"arthritis_risk":5,"migraine_risk":4,"frizz_risk":1,"updated_at":"2026-03-22T20:01:23.470032+05:30"},{"city":"Bareilly","state":"Uttar Pradesh","latitude":28.367,"longitude":79.4304,"temp":21.3,"humidity":68,"rain":0.0,"pressure":990.0,"uv_index":6.65,"wind_gusts":29.5,"aqi":126,"pm10":85.2,"pm2_5":38.4,"mosquito_risk":3,"arthritis_risk":5,"migraine_risk":7,"frizz_risk":0,"updated_at":"2026-03-22T20:01:23.470039+05:30"},{"city":"Aligarh","state":"Uttar Pradesh","latitude":27.8974,"longitude":78.088,"temp":22.5,"humidity":61,"rain":0.0,"pressure":989.1,"uv_index":6.6,"wind_gusts":27.7,"aqi":323,"pm10":700.4,"pm2_5":108.3,"mosquito_risk":3,"arthritis_risk":5,"migraine_risk":7,"frizz_risk":0,"updated_at":"2026-03-22T20:01:23.470047+05:30"},{"city":"Moradabad","state":"Uttar Pradesh","latitude":28.8386,"longitude":78.7733,"temp":21.1,"humidity":66,"rain":0.0,"pressure":986.9,"uv_index":6.5,"wind_gusts":30.6,"aqi":137,"pm10":95.5,"pm2_5":41.0,"mosquito_risk":3,"arthritis_risk":5,"migraine_risk":7,"frizz_risk":0,"updated_at":"2026-03-22T20:01:23.470053+05:30"},{"city":"Saharanpur","state":"Uttar Pradesh","latitude":29.9637,"longitude":77.546,"temp":20.0,"humidity":67,"rain":0.0,"pressure":978.9,"uv_index":6.15,"wind_gusts":34.2,"aqi":150,"pm10":277.5,"pm2_5":65.2,"mosquito_risk":3,"arthritis_risk":5,"migraine_risk":7,"frizz_risk":0,"updated_at":"2026-03-22T20:01:23.470060+05:30"},{"city":"Jhansi","state":"Uttar Pradesh","latitude":25.4484,"longitude":78.5685,"temp":25.5,"humidity":44,"rain":0.0,"pressure":981.7,"uv_index":7.45,"wind_gusts":32.4,"aqi":89,"pm10":50.9,"pm2_5":20.9,"mosquito_risk":4,"arthritis_risk":5,"migraine_risk":7,"frizz_risk":0,"updated_at":"2026-03-22T20:01:26.699155+05:30"},{"city":"Surat","state":"Gujarat","latitude":21.1702,"longitude":72.8311,"temp":28.4,"humidity":50,"rain":0.0,"pressure":1009.3,"uv_index":7.65,"wind_gusts":24.5,"aqi":106,"pm10":67.3,"pm2_5":50.3,"mosquito_risk":4,"arthritis_risk":0,"migraine_risk":4,"frizz_risk":1,"updated_at":"2026-03-22T20:01:26.699195+05:30"},{"city":"Vadodara","state":"Gujarat","latitude":22.3072,"longitude":73.1812,"temp":29.4,"humidity":42,"rain":0.0,"pressure":1006.8,"uv_index":7.8,"wind_gusts":20.2,"aqi":139,"pm10":46.2,"pm2_5":31.4,"mosquito_risk":4,"arthritis_risk":5,"migraine_risk":4,"frizz_risk":0,"updated_at":"2026-03-22T20:01:26.699209+05:30"},{"city":"Rajkot","state":"Gujarat","latitude":22.3039,"longitude":70.8022,"temp":29.3,"humidity":38,"rain":0.0,"pressure":997.8,"uv_index":7.6,"wind_gusts":28.8,"aqi":65,"pm10":44.5,"pm2_5":18.3,"mosquito_risk":4,"arthritis_risk":5,"migraine_risk":7,"frizz_risk":0,"updated_at":"2026-03-22T20:01:26.699221+05:30"},{"city":"Thane","state":"Maharashtra","latitude":19.2183,"longitude":72.9781,"temp":29.6,"humidity":42,"rain":0.0,"pressure":1009.1,"uv_index":7.85,"wind_gusts":41.0,"aqi":187,"pm10":57.0,"pm2_5":40.3,"mosquito_risk":4,"arthritis_risk":0,"migraine_risk":4,"frizz_risk":0,"updated_at":"2026-03-22T20:01:26.699232+05:30"},{"city":"Nagpur","state":"Maharashtra","latitude":21.1458,"longitude":79.0882,"temp":29.1,"humidity":31,"rain":0.0,"pressure":975.8,"uv_index":8.35,"wind_gusts":19.4,"aqi":114,"pm10":35.9,"pm2_5":25.0,"mosquito_risk":4,"arthritis_risk":5,"migraine_risk":7,"frizz_risk":0,"updated_at":"2026-03-22T20:01:26.699243+05:30"},{"city":"Nashik","state":"Maharashtra","latitude":19.9975,"longitude":73.7898,"temp":26.7,"humidity":35,"rain":0.0,"pressure":947.8,"uv_index":8.1,"wind_gusts":28.8,"aqi":91,"pm10":28.8,"pm2_5":19.6,"mosquito_risk":4,"arthritis_risk":5,"migraine_risk":7,"frizz_risk":0,"updated_at":"2026-03-22T20:01:26.699253+05:30"},{"city":"Aurangabad","state":"Maharashtra","latitude":19.8762,"longitude":75.3433,"temp":28.0,"humidity":33,"rain":0.0,"pressure":946.4,"uv_index":8.6,"wind_gusts":28.4,"aqi":115,"pm10":24.2,"pm2_5":17.6,"mosquito_risk":4,"arthritis_risk":5,"migraine_risk":7,"frizz_risk":0,"updated_at":"2026-03-22T20:01:26.699264+05:30"},{"city":"Solapur","state":"Maharashtra","latitude":17.6599,"longitude":75.9064,"temp":29.6,"humidity":30,"rain":0.0,"pressure":958.3,"uv_index":8.75,"wind_gusts":24.5,"aqi":114,"pm10":26.7,"pm2_5":17.8,"mosquito_risk":4,"arthritis_risk":5,"migraine_risk":7,"frizz_risk":0,"updated_at":"2026-03-22T20:01:26.699274+05:30"},{"city":"Kolhapur","state":"Maharashtra","latitude":16.705,"longitude":74.2433,"temp":26.0,"humidity":51,"rain":0.0,"pressure":949.2,"uv_index":8.85,"wind_gusts":33.1,"aqi":109,"pm10":40.6,"pm2_5":33.3,"mosquito_risk":4,"arthritis_risk":5,"migraine_risk":7,"frizz_risk":0,"updated_at":"2026-03-22T20:01:26.699284+05:30"},{"city":"Goa","state":"Goa","latitude":15.2993,"longitude":74.124,"temp":28.5,"humidity":78,"rain":0.0,"pressure":999.4,"uv_index":8.85,"wind_gusts":35.3,"aqi":129,"pm10":40.7,"pm2_5":29.5,"mosquito_risk":7,"arthritis_risk":5,"migraine_risk":7,"frizz_risk":1,"updated_at":"2026-03-22T20:01:26.699295+05:30"},{"city":"Jodhpur","state":"Rajasthan","latitude":26.2389,"longitude":73.0243,"temp":24.6,"humidity":71,"rain":0.0,"pressure":986.9,"uv_index":7.55,"wind_gusts":39.2,"aqi":75,"pm10":95.9,"pm2_5":21.7,"mosquito_risk":3,"arthritis_risk":5,"migraine_risk":7,"frizz_risk":1,"updated_at":"2026-03-22T20:01:26.699305+05:30"},{"city":"Udaipur","state":"Rajasthan","latitude":24.5854,"longitude":73.7125,"temp":25.9,"humidity":40,"rain":0.0,"pressure":949.8,"uv_index":8.15,"wind_gusts":26.6,"aqi":71,"pm10":33.4,"pm2_5":13.0,"mosquito_risk":4,"arthritis_risk":5,"migraine_risk":7,"frizz_risk":0,"updated_at":"2026-03-22T20:01:26.699315+05:30"},{"city":"Kota","state":"Rajasthan","latitude":25.2138,"longitude":75.8648,"temp":27.3,"humidity":36,"rain":0.0,"pressure":981.5,"uv_index":7.4,"wind_gusts":12.6,"aqi":118,"pm10":41.9,"pm2_5":28.1,"mosquito_risk":4,"arthritis_risk":5,"migraine_risk":7,"frizz_risk":0,"updated_at":"2026-03-22T20:01:26.699325+05:30"},{"city":"Bikaner","state":"Rajasthan","latitude":28.0229,"longitude":73.3119,"temp":26.1,"humidity":54,"rain":0.0,"pressure":985.6,"uv_index":7.1,"wind_gusts":22.3,"aqi":70,"pm10":57.5,"pm2_5":17.8,"mosquito_risk":4,"arthritis_risk":5,"migraine_risk":7,"frizz_risk":1,"updated_at":"2026-03-22T20:01:26.699335+05:30"},{"city":"Ajmer","state":"Rajasthan","latitude":26.4499,"longitude":74.6399,"temp":26.4,"humidity":41,"rain":0.0,"pressure":957.8,"uv_index":7.35,"wind_gusts":25.9,"aqi":86,"pm10":37.6,"pm2_5":16.0,"mosquito_risk":4,"arthritis_risk":5,"migraine_risk":7,"frizz_risk":0,"updated_at":"2026-03-22T20:01:26.699344+05:30"},{"city":"Gwalior","state":"Madhya Pradesh","latitude":26.2183,"longitude":78.1828,"temp":26.5,"humidity":51,"rain":0.0,"pressure":986.9,"uv_index":7.15,"wind_gusts":29.9,"aqi":135,"pm10":75.0,"pm2_5":24.7,"mosquito_risk":4,"arthritis_risk":5,"migraine_risk":7,"frizz_risk":0,"updated_at":"2026-03-22T20:01:26.699354+05:30"},{"city":"Indore","state":"Madhya Pradesh","latitude":22.7196,"longitude":75.8577,"temp":25.2,"humidity":45,"rain":0.0,"pressure":950.6,"uv_index":8.05,"wind_gusts":17.6,"aqi":89,"pm10":31.5,"pm2_5":21.1,"mosquito_risk":4,"arthritis_risk":5,"migraine_risk":7,"frizz_risk":0,"updated_at":"2026-03-22T20:01:26.699362+05:30"},{"city":"Bhopal","state":"Madhya Pradesh","latitude":23.2599,"longitude":77.4126,"temp":25.1,"humidity":36,"rain":0.0,"pressure":956.6,"uv_index":7.9,"wind_gusts":25.9,"aqi":99,"pm10":29.0,"pm2_5":18.3,"mosquito_risk":4,"arthritis_risk":5,"migraine_risk":7,"frizz_risk":0,"updated_at":"2026-03-22T20:01:26.699371+05:30"},{"city":"Jabalpur","state":"Madhya Pradesh","latitude":23.1815,"longitude":79.9864,"temp":25.2,"humidity":48,"rain":0.0,"pressure":964.9,"uv_index":8.05,"wind_gusts":29.9,"aqi":86,"pm10":45.1,"pm2_5":20.0,"mosquito_risk":4,"arthritis_risk":5,"migraine_risk":7,"frizz_risk":0,"updated_at":"2026-03-22T20:01:26.699381+05:30"},{"city":"Ujjain","state":"Madhya Pradesh","latitude":23.1765,"longitude":75.7885,"temp":25.7,"humidity":50,"rain":0.0,"pressure":956.3,"uv_index":8.0,"wind_gusts":13.3,"aqi":78,"pm10":38.4,"pm2_5":26.8,"mosquito_risk":4,"arthritis_risk":5,"migraine_risk":7,"frizz_risk":0,"updated_at":"2026-03-22T20:01:26.699390+05:30"},{"city":"Visakhapatnam","state":"Andhra Pradesh","latitude":17.6868,"longitude":83.2185,"temp":26.5,"humidity":82,"rain":0.0,"pressure":1006.7,"uv_index":8.85,"wind_gusts":36.7,"aqi":81,"pm10":23.7,"pm2_5":18.7,"mosquito_risk":7,"arthritis_risk":5,"migraine_risk":4,"frizz_risk":1,"updated_at":"2026-03-22T20:01:26.699399+05:30"},{"city":"Vijayawada","state":"Andhra Pradesh","latitude":16.5062,"longitude":80.648,"temp":27.8,"humidity":72,"rain":0.0,"pressure":1005.3,"uv_index":8.9,"wind_gusts":18.7,"aqi":65,"pm10":31.9,"pm2_5":26.9,"mosquito_risk":7,"arthritis_risk":5,"migraine_risk":4,"frizz_risk":1,"updated_at":"2026-03-22T20:01:26.699409+05:30"},{"city":"Guntur","state":"Andhra Pradesh","latitude":16.3067,"longitude":80.4365,"temp":27.2,"humidity":77,"rain":0.0,"pressure":1006.5,"uv_index":8.9,"wind_gusts":19.4,"aqi":69,"pm10":34.0,"pm2_5":28.5,"mosquito_risk":7,"arthritis_risk":5,"migraine_risk":4,"frizz_risk":1,"updated_at":"2026-03-22T20:01:26.699418+05:30"},{"city":"Nellore","state":"Andhra Pradesh","latitude":14.4426,"longitude":79.9865,"temp":27.2,"humidity":78,"rain":0.0,"pressure":1008.5,"uv_index":9.05,"wind_gusts":27.7,"aqi":49,"pm10":12.2,"pm2_5":7.7,"mosquito_risk":7,"arthritis_risk":0,"migraine_risk":4,"frizz_risk":1,"updated_at":"2026-03-22T20:01:26.699427+05:30"},{"city":"Kurnool","state":"Andhra Pradesh","latitude":15.8281,"longitude":78.0373,"temp":32.0,"humidity":41,"rain":0.0,"pressure":977.9,"uv_index":8.9,"wind_gusts":20.2,"aqi":112,"pm10":48.2,"pm2_5":32.5,"mosquito_risk":0,"arthritis_risk":5,"migraine_risk":7,"frizz_risk":1,"updated_at":"2026-03-22T20:01:26.699437+05:30"},{"city":"Kakinada","state":"Andhra Pradesh","latitude":16.9891,"longitude":82.2475,"temp":26.4,"humidity":78,"rain":0.0,"pressure":1010.2,"uv_index":8.8,"wind_gusts":28.8,"aqi":41,"pm10":16.8,"pm2_5":11.0,"mosquito_risk":7,"arthritis_risk":0,"migraine_risk":4,"frizz_risk":1,"updated_at":"2026-03-22T20:01:26.699446+05:30"},{"city":"Tirupati","state":"Andhra Pradesh","latitude":13.6288,"longitude":79.4192,"temp":28.0,"humidity":63,"rain":0.0,"pressure":993.9,"uv_index":9.2,"wind_gusts":28.4,"aqi":79,"pm10":22.8,"pm2_5":18.8,"mosquito_risk":7,"arthritis_risk":5,"migraine_risk":7,"frizz_risk":1,"updated_at":"2026-03-22T20:01:26.699455+05:30"},{"city":"Warangal","state":"Telangana","latitude":17.9689,"longitude":79.5941,"temp":27.8,"humidity":62,"rain":0.0,"pressure":981.1,"uv_index":8.75,"wind_gusts":21.2,"aqi":140,"pm10":69.8,"pm2_5":54.9,"mosquito_risk":7,"arthritis_risk":5,"migraine_risk":7,"frizz_risk":1,"updated_at":"2026-03-22T20:01:26.699464+05:30"},{"city":"Nizamabad","state":"Telangana","latitude":18.6725,"longitude":78.0941,"temp":28.6,"humidity":44,"rain":0.0,"pressure":966.6,"uv_index":8.65,"wind_gusts":27.4,"aqi":123,"pm10":41.2,"pm2_5":34.6,"mosquito_risk":4,"arthritis_risk":5,"migraine_risk":7,"frizz_risk":0,"updated_at":"2026-03-22T20:01:26.699473+05:30"},{"city":"Mysore","state":"Karnataka","latitude":12.2958,"longitude":76.6396,"temp":24.8,"humidity":74,"rain":0.0,"pressure":929.7,"uv_index":9.4,"wind_gusts":37.4,"aqi":129,"pm10":48.2,"pm2_5":36.8,"mosquito_risk":3,"arthritis_risk":5,"migraine_risk":7,"frizz_risk":1,"updated_at":"2026-03-22T20:01:26.699481+05:30"},{"city":"Mangalore","state":"Karnataka","latitude":12.9141,"longitude":74.856,"temp":29.3,"humidity":75,"rain":0.0,"pressure":1007.9,"uv_index":9.05,"wind_gusts":28.4,"aqi":97,"pm10":33.5,"pm2_5":19.7,"mosquito_risk":7,"arthritis_risk":5,"migraine_risk":4,"frizz_risk":1,"updated_at":"2026-03-22T20:01:26.699490+05:30"},{"city":"Hubli-Dharwad","state":"Karnataka","latitude":15.3647,"longitude":75.124,"temp":27.3,"humidity":56,"rain":0.0,"pressure":941.8,"uv_index":9.05,"wind_gusts":26.3,"aqi":160,"pm10":37.1,"pm2_5":29.0,"mosquito_risk":4,"arthritis_risk":5,"migraine_risk":7,"frizz_risk":1,"updated_at":"2026-03-22T20:01:26.699499+05:30"},{"city":"Belgaum","state":"Karnataka","latitude":15.8497,"longitude":74.4977,"temp":25.5,"humidity":57,"rain":0.0,"pressure":927.1,"uv_index":9.1,"wind_gusts":35.3,"aqi":141,"pm10":31.5,"pm2_5":25.0,"mosquito_risk":4,"arthritis_risk":5,"migraine_risk":7,"frizz_risk":1,"updated_at":"2026-03-22T20:01:29.921830+05:30"},{"city":"Coimbatore","state":"Tamil Nadu","latitude":11.0168,"longitude":76.9558,"temp":28.2,"humidity":61,"rain":0.0,"pressure":963.0,"uv_index":9.3,"wind_gusts":33.5,"aqi":111,"pm10":38.3,"pm2_5":30.5,"mosquito_risk":7,"arthritis_risk":5,"migraine_risk":7,"frizz_risk":1,"updated_at":"2026-03-22T20:01:29.921871+05:30"},{"city":"Madurai","state":"Tamil Nadu","latitude":9.9252,"longitude":78.1198,"temp":30.3,"humidity":49,"rain":0.0,"pressure":994.1,"uv_index":9.35,"wind_gusts":29.5,"aqi":70,"pm10":22.7,"pm2_5":17.5,"mosquito_risk":0,"arthritis_risk":5,"migraine_risk":7,"frizz_risk":1,"updated_at":"2026-03-22T20:01:29.921886+05:30"},{"city":"Trichy","state":"Tamil Nadu","latitude":10.7905,"longitude":78.7047,"temp":29.5,"humidity":64,"rain":0.0,"pressure":1000.9,"uv_index":9.25,"wind_gusts":23.8,"aqi":68,"pm10":23.6,"pm2_5":20.0,"mosquito_risk":7,"arthritis_risk":5,"migraine_risk":4,"frizz_risk":1,"updated_at":"2026-03-22T20:01:29.921899+05:30"},{"city":"Salem","state":"Tamil Nadu","latitude":11.6643,"longitude":78.146,"temp":29.9,"humidity":51,"rain":0.0,"pressure":978.1,"uv_index":9.3,"wind_gusts":21.2,"aqi":111,"pm10":34.3,"pm2_5":26.5,"mosquito_risk":4,"arthritis_risk":5,"migraine_risk":7,"frizz_risk":1,"updated_at":"2026-03-22T20:01:29.921910+05:30"},{"city":"Tirunelveli","state":"Tamil Nadu","latitude":8.7139,"longitude":77.7567,"temp":29.1,"humidity":58,"rain":0.0,"pressure":1004.4,"uv_index":9.3,"wind_gusts":33.1,"aqi":85,"pm10":17.8,"pm2_5":14.3,"mosquito_risk":4,"arthritis_risk":5,"migraine_risk":4,"frizz_risk":1,"updated_at":"2026-03-22T20:01:29.921921+05:30"},{"city":"Vellore","state":"Tamil Nadu","latitude":12.9165,"longitude":79.1325,"temp":27.9,"humidity":62,"rain":0.0,"pressure":986.6,"uv_index":9.25,"wind_gusts":34.9,"aqi":92,"pm10":22.1,"pm2_5":17.9,"mosquito_risk":7,"arthritis_risk":5,"migraine_risk":7,"frizz_risk":1,"updated_at":"2026-03-22T20:01:29.921932+05:30"},{"city":"Erode","state":"Tamil Nadu","latitude":11.341,"longitude":77.7172,"temp":31.1,"humidity":47,"rain":0.0,"pressure":989.6,"uv_index":9.3,"wind_gusts":32.8,"aqi":91,"pm10":29.7,"pm2_5":23.7,"mosquito_risk":0,"arthritis_risk":5,"migraine_risk":7,"frizz_risk":1,"updated_at":"2026-03-22T20:01:29.921942+05:30"},{"city":"Kochi","state":"Kerala","latitude":9.9312,"longitude":76.2673,"temp":29.6,"humidity":75,"rain":0.0,"pressure":1009.6,"uv_index":9.15,"wind_gusts":34.9,"aqi":108,"pm10":38.3,"pm2_5":31.8,"mosquito_risk":7,"arthritis_risk":0,"migraine_risk":4,"frizz_risk":1,"updated_at":"2026-03-22T20:01:29.921953+05:30"},{"city":"Thiruvananthapuram","state":"Kerala","latitude":8.5241,"longitude":76.9366,"temp":28.4,"humidity":81,"rain":0.0,"pressure":1009.3,"uv_index":9.15,"wind_gusts":26.3,"aqi":114,"pm10":18.0,"pm2_5":13.2,"mosquito_risk":7,"arthritis_risk":0,"migraine_risk":4,"frizz_risk":1,"updated_at":"2026-03-22T20:01:29.921964+05:30"},{"city":"Kozhikode","state":"Kerala","latitude":11.2588,"longitude":75.7804,"temp":29.5,"humidity":77,"rain":0.0,"pressure":1008.7,"uv_index":9.1,"wind_gusts":31.0,"aqi":63,"pm10":31.9,"pm2_5":17.1,"mosquito_risk":7,"arthritis_risk":0,"migraine_risk":4,"frizz_risk":1,"updated_at":"2026-03-22T20:01:29.921974+05:30"},{"city":"Thrissur","state":"Kerala","latitude":10.5276,"longitude":76.2144,"temp":28.9,"humidity":77,"rain":0.0,"pressure":1007.8,"uv_index":9.1,"wind_gusts":38.2,"aqi":86,"pm10":37.3,"pm2_5":29.2,"mosquito_risk":7,"arthritis_risk":5,"migraine_risk":4,"frizz_risk":1,"updated_at":"2026-03-22T20:01:29.921985+05:30"},{"city":"Kannur","state":"Kerala","latitude":11.8745,"longitude":75.3704,"temp":29.3,"humidity":76,"rain":0.0,"pressure":1008.2,"uv_index":9.05,"wind_gusts":34.9,"aqi":68,"pm10":36.8,"pm2_5":19.0,"mosquito_risk":7,"arthritis_risk":0,"migraine_risk":4,"frizz_risk":1,"updated_at":"2026-03-22T20:01:29.921995+05:30"},{"city":"Patna","state":"Bihar","latitude":25.5941,"longitude":85.1376,"temp":23.4,"humidity":62,"rain":0.0,"pressure":1005.1,"uv_index":7.55,"wind_gusts":19.1,"aqi":160,"pm10":62.4,"pm2_5":58.6,"mosquito_risk":3,"arthritis_risk":5,"migraine_risk":4,"frizz_risk":0,"updated_at":"2026-03-22T20:01:29.922005+05:30"},{"city":"Gaya","state":"Bihar","latitude":24.7914,"longitude":85.0002,"temp":22.3,"humidity":70,"rain":0.0,"pressure":998.6,"uv_index":7.5,"wind_gusts":21.6,"aqi":140,"pm10":47.7,"pm2_5":41.4,"mosquito_risk":3,"arthritis_risk":5,"migraine_risk":7,"frizz_risk":1,"updated_at":"2026-03-22T20:01:29.922016+05:30"},{"city":"Muzaffarpur","state":"Bihar","latitude":26.1209,"longitude":85.3647,"temp":21.9,"humidity":68,"rain":0.0,"pressure":1005.1,"uv_index":6.15,"wind_gusts":11.5,"aqi":162,"pm10":72.6,"pm2_5":67.8,"mosquito_risk":3,"arthritis_risk":5,"migraine_risk":4,"frizz_risk":0,"updated_at":"2026-03-22T20:01:29.922026+05:30"},{"city":"Bhagalpur","state":"Bihar","latitude":25.2425,"longitude":87.0117,"temp":22.2,"humidity":70,"rain":0.0,"pressure":1005.9,"uv_index":7.05,"wind_gusts":17.3,"aqi":155,"pm10":65.4,"pm2_5":59.4,"mosquito_risk":3,"arthritis_risk":5,"migraine_risk":4,"frizz_risk":1,"updated_at":"2026-03-22T20:01:29.922036+05:30"},{"city":"Ranchi","state":"Jharkhand","latitude":23.3441,"longitude":85.3096,"temp":21.2,"humidity":51,"rain":0.0,"pressure":940.8,"uv_index":8.45,"wind_gusts":29.5,"aqi":120,"pm10":49.7,"pm2_5":25.2,"mosquito_risk":0,"arthritis_risk":5,"migraine_risk":7,"frizz_risk":0,"updated_at":"2026-03-22T20:01:29.922047+05:30"},{"city":"Jamshedpur","state":"Jharkhand","latitude":22.8046,"longitude":86.2029,"temp":26.5,"humidity":41,"rain":0.0,"pressure":994.6,"uv_index":8.35,"wind_gusts":19.1,"aqi":118,"pm10":55.1,"pm2_5":32.4,"mosquito_risk":4,"arthritis_risk":5,"migraine_risk":7,"frizz_risk":0,"updated_at":"2026-03-22T20:01:29.922057+05:30"},{"city":"Dhanbad","state":"Jharkhand","latitude":23.7957,"longitude":86.4304,"temp":23.8,"humidity":52,"rain":0.0,"pressure":983.9,"uv_index":8.2,"wind_gusts":23.8,"aqi":135,"pm10":50.2,"pm2_5":40.4,"mosquito_risk":0,"arthritis_risk":5,"migraine_risk":7,"frizz_risk":0,"updated_at":"2026-03-22T20:01:29.922067+05:30"},{"city":"Bokaro","state":"Jharkhand","latitude":23.6693,"longitude":86.1511,"temp":23.4,"humidity":56,"rain":0.0,"pressure":988.1,"uv_index":8.2,"wind_gusts":24.5,"aqi":134,"pm10":57.0,"pm2_5":39.6,"mosquito_risk":0,"arthritis_risk":5,"migraine_risk":7,"frizz_risk":0,"updated_at":"2026-03-22T20:01:29.922078+05:30"},{"city":"Bhubaneswar","state":"Odisha","latitude":20.2961,"longitude":85.8245,"temp":25.9,"humidity":78,"rain":0.0,"pressure":1006.0,"uv_index":8.65,"wind_gusts":28.4,"aqi":148,"pm10":33.8,"pm2_5":29.9,"mosquito_risk":7,"arthritis_risk":5,"migraine_risk":4,"frizz_risk":1,"updated_at":"2026-03-22T20:01:29.922089+05:30"},{"city":"Cuttack","state":"Odisha","latitude":20.4625,"longitude":85.8828,"temp":26.6,"humidity":65,"rain":0.0,"pressure":1007.8,"uv_index":8.65,"wind_gusts":20.9,"aqi":148,"pm10":33.8,"pm2_5":29.9,"mosquito_risk":7,"arthritis_risk":5,"migraine_risk":4,"frizz_risk":1,"updated_at":"2026-03-22T20:01:29.922100+05:30"},{"city":"Rourkela","state":"Odisha","latitude":22.2604,"longitude":84.8536,"temp":25.1,"humidity":49,"rain":0.0,"pressure":988.6,"uv_index":8.2,"wind_gusts":20.5,"aqi":125,"pm10":33.8,"pm2_5":22.9,"mosquito_risk":4,"arthritis_risk":5,"migraine_risk":7,"frizz_risk":0,"updated_at":"2026-03-22T20:01:29.922110+05:30"},{"city":"Raipur","state":"Chhattisgarh","latitude":21.2514,"longitude":81.6296,"temp":27.9,"humidity":28,"rain":0.0,"pressure":977.7,"uv_index":8.4,"wind_gusts":23.0,"aqi":105,"pm10":47.3,"pm2_5":38.9,"mosquito_risk":4,"arthritis_risk":5,"migraine_risk":7,"frizz_risk":0,"updated_at":"2026-03-22T20:01:29.922121+05:30"},{"city":"Bhilai","state":"Chhattisgarh","latitude":21.1938,"longitude":81.3509,"temp":26.3,"humidity":32,"rain":0.0,"pressure":978.0,"uv_index":8.4,"wind_gusts":16.9,"aqi":91,"pm10":54.7,"pm2_5":43.2,"mosquito_risk":4,"arthritis_risk":5,"migraine_risk":7,"frizz_risk":0,"updated_at":"2026-03-22T20:01:29.922131+05:30"},{"city":"Guwahati","state":"Assam","latitude":26.1158,"longitude":91.7086,"temp":22.1,"humidity":83,"rain":0.0,"pressure":1005.5,"uv_index":7.6,"wind_gusts":20.5,"aqi":84,"pm10":28.2,"pm2_5":26.0,"mosquito_risk":3,"arthritis_risk":5,"migraine_risk":4,"frizz_risk":1,"updated_at":"2026-03-22T20:01:29.922142+05:30"},{"city":"Agartala","state":"Tripura","latitude":23.8315,"longitude":91.2868,"temp":23.1,"humidity":68,"rain":0.0,"pressure":1010.3,"uv_index":7.85,"wind_gusts":22.0,"aqi":133,"pm10":71.5,"pm2_5":66.8,"mosquito_risk":3,"arthritis_risk":0,"migraine_risk":4,"frizz_risk":1,"updated_at":"2026-03-22T20:01:29.922152+05:30"},{"city":"Shillong","state":"Meghalaya","latitude":25.5788,"longitude":91.8933,"temp":11.1,"humidity":90,"rain":0.0,"pressure":856.4,"uv_index":6.7,"wind_gusts":24.8,"aqi":67,"pm10":21.8,"pm2_5":19.8,"mosquito_risk":3,"arthritis_risk":10,"migraine_risk":7,"frizz_risk":0,"updated_at":"2026-03-22T20:01:29.922163+05:30"},{"city":"Imphal","state":"Manipur","latitude":24.817,"longitude":93.9368,"temp":14.7,"humidity":91,"rain":0.0,"pressure":925.5,"uv_index":8.15,"wind_gusts":51.5,"aqi":65,"pm10":18.5,"pm2_5":17.4,"mosquito_risk":3,"arthritis_risk":10,"migraine_risk":7,"frizz_risk":0,"updated_at":"2026-03-22T20:01:29.922174+05:30"},{"city":"Aizawl","state":"Mizoram","latitude":23.7271,"longitude":92.7176,"temp":15.7,"humidity":85,"rain":0.0,"pressure":894.5,"uv_index":8.2,"wind_gusts":44.6,"aqi":56,"pm10":16.5,"pm2_5":15.1,"mosquito_risk":3,"arthritis_risk":10,"migraine_risk":7,"frizz_risk":0,"updated_at":"2026-03-22T20:01:29.922184+05:30"},{"city":"Kohima","state":"Nagaland","latitude":25.6701,"longitude":94.1077,"temp":11.8,"humidity":99,"rain":0.0,"pressure":855.1,"uv_index":7.8,"wind_gusts":56.9,"aqi":58,"pm10":15.1,"pm2_5":13.9,"mosquito_risk":3,"arthritis_risk":10,"migraine_risk":7,"frizz_risk":0,"updated_at":"2026-03-22T20:01:29.922194+05:30"},{"city":"Gangtok","state":"Sikkim","latitude":27.3314,"longitude":88.6138,"temp":12.4,"humidity":84,"rain":0.0,"pressure":837.4,"uv_index":7.85,"wind_gusts":19.4,"aqi":85,"pm10":19.2,"pm2_5":18.4,"mosquito_risk":3,"arthritis_risk":10,"migraine_risk":7,"frizz_risk":0,"updated_at":"2026-03-22T20:01:29.922204+05:30"},{"city":"Siliguri","state":"West Bengal","latitude":26.7271,"longitude":88.3953,"temp":18.3,"humidity":74,"rain":0.0,"pressure":997.6,"uv_index":7.45,"wind_gusts":17.3,"aqi":101,"pm10":37.4,"pm2_5":36.1,"mosquito_risk":3,"arthritis_risk":5,"migraine_risk":7,"frizz_risk":0,"updated_at":"2026-03-22T20:01:33.142211+05:30"},{"city":"Durgapur","state":"West Bengal","latitude":23.5204,"longitude":87.3119,"temp":24.4,"humidity":54,"rain":0.0,"pressure":999.3,"uv_index":8.1,"wind_gusts":18.4,"aqi":122,"pm10":53.7,"pm2_5":49.7,"mosquito_risk":0,"arthritis_risk":5,"migraine_risk":7,"frizz_risk":0,"updated_at":"2026-03-22T20:01:33.142249+05:30"},{"city":"Asansol","state":"West Bengal","latitude":23.6739,"longitude":86.9524,"temp":24.5,"humidity":53,"rain":0.0,"pressure":997.8,"uv_index":8.2,"wind_gusts":20.5,"aqi":116,"pm10":40.9,"pm2_5":35.3,"mosquito_risk":0,"arthritis_risk":5,"migraine_risk":7,"frizz_risk":0,"updated_at":"2026-03-22T20:01:33.142263+05:30"},{"city":"Pondicherry","state":"Puducherry","latitude":11.9139,"longitude":79.8145,"temp":26.3,"humidity":84,"rain":0.0,"pressure":1010.5,"uv_index":9.15,"wind_gusts":28.8,"aqi":36,"pm10":13.6,"pm2_5":7.8,"mosquito_risk":7,"arthritis_risk":0,"migraine_risk":4,"frizz_risk":1,"updated_at":"2026-03-22T20:01:33.142275+05:30"},{"city":"Port Blair","state":"Andaman and Nicobar Islands","latitude":11.6234,"longitude":92.7265,"temp":28.9,"humidity":76,"rain":0.0,"pressure":1009.1,"uv_index":9.1,"wind_gusts":20.9,"aqi":44,"pm10":11.8,"pm2_5":8.8,"mosquito_risk":7,"arthritis_risk":0,"migraine_risk":4,"frizz_risk":1,"updated_at":"2026-03-22T20:01:33.142287+05:30"},{"city":"Haridwar","state":"Uttarakhand","latitude":29.9457,"longitude":78.1642,"temp":20.2,"humidity":67,"rain":0.0,"pressure":977.5,"uv_index":6.25,"wind_gusts":25.9,"aqi":132,"pm10":164.8,"pm2_5":49.1,"mosquito_risk":3,"arthritis_risk":5,"migraine_risk":7,"frizz_risk":0,"updated_at":"2026-03-22T20:01:33.142298+05:30"},{"city":"Rishikesh","state":"Uttarakhand","latitude":30.0869,"longitude":78.2676,"temp":20.4,"humidity":65,"rain":0.0,"pressure":970.1,"uv_index":6.3,"wind_gusts":25.6,"aqi":133,"pm10":75.9,"pm2_5":36.9,"mosquito_risk":3,"arthritis_risk":5,"migraine_risk":7,"frizz_risk":0,"updated_at":"2026-03-22T20:01:33.142309+05:30"},{"city":"Nainital","state":"Uttarakhand","latitude":29.3919,"longitude":79.4542,"temp":14.5,"humidity":67,"rain":0.0,"pressure":806.0,"uv_index":7.15,"wind_gusts":37.8,"aqi":133,"pm10":35.3,"pm2_5":31.9,"mosquito_risk":3,"arthritis_risk":5,"migraine_risk":7,"frizz_risk":0,"updated_at":"2026-03-22T20:01:33.142320+05:30"},{"city":"Mussoorie","state":"Uttarakhand","latitude":30.4599,"longitude":78.0664,"temp":12.9,"humidity":74,"rain":0.0,"pressure":802.4,"uv_index":6.65,"wind_gusts":25.9,"aqi":139,"pm10":73.3,"pm2_5":42.5,"mosquito_risk":3,"arthritis_risk":5,"migraine_risk":7,"frizz_risk":0,"updated_at":"2026-03-22T20:01:33.142331+05:30"},{"city":"Dharamshala","state":"Himachal Pradesh","latitude":32.219,"longitude":76.3234,"temp":15.9,"humidity":77,"rain":0.0,"pressure":870.0,"uv_index":6.75,"wind_gusts":20.9,"aqi":132,"pm10":32.2,"pm2_5":26.3,"mosquito_risk":3,"arthritis_risk":5,"migraine_risk":7,"frizz_risk":0,"updated_at":"2026-03-22T20:01:33.142341+05:30"},{"city":"Dalhousie","state":"Himachal Pradesh","latitude":32.5387,"longitude":75.971,"temp":13.3,"humidity":80,"rain":0.0,"pressure":803.7,"uv_index":7.0,"wind_gusts":19.1,"aqi":123,"pm10":46.9,"pm2_5":42.4,"mosquito_risk":3,"arthritis_risk":5,"migraine_risk":7,"frizz_risk":0,"updated_at":"2026-03-22T20:01:33.142351+05:30"},{"city":"Patiala","state":"Punjab","latitude":30.3398,"longitude":76.3869,"temp":20.1,"humidity":70,"rain":0.0,"pressure":981.8,"uv_index":6.3,"wind_gusts":31.3,"aqi":160,"pm10":380.9,"pm2_5":76.8,"mosquito_risk":3,"arthritis_risk":5,"migraine_risk":7,"frizz_risk":0,"updated_at":"2026-03-22T20:01:33.142361+05:30"},{"city":"Bhatinda","state":"Punjab","latitude":30.211,"longitude":74.9455,"temp":22.2,"humidity":67,"rain":0.0,"pressure":987.5,"uv_index":6.9,"wind_gusts":19.4,"aqi":151,"pm10":109.7,"pm2_5":52.7,"mosquito_risk":3,"arthritis_risk":5,"migraine_risk":7,"frizz_risk":0,"updated_at":"2026-03-22T20:01:33.142371+05:30"},{"city":"Rohtak","state":"Haryana","latitude":28.8955,"longitude":76.6066,"temp":22.3,"humidity":66,"rain":0.0,"pressure":985.3,"uv_index":6.45,"wind_gusts":24.8,"aqi":189,"pm10":482.4,"pm2_5":88.5,"mosquito_risk":3,"arthritis_risk":5,"migraine_risk":7,"frizz_risk":0,"updated_at":"2026-03-22T20:01:33.142381+05:30"},{"city":"Panipat","state":"Haryana","latitude":29.3909,"longitude":76.9635,"temp":20.9,"humidity":68,"rain":0.0,"pressure":983.8,"uv_index":6.25,"wind_gusts":29.5,"aqi":445,"pm10":892.2,"pm2_5":127.6,"mosquito_risk":3,"arthritis_risk":5,"migraine_risk":7,"frizz_risk":0,"updated_at":"2026-03-22T20:01:33.142391+05:30"},{"city":"Mathura","state":"Uttar Pradesh","latitude":27.4924,"longitude":77.6737,"temp":23.7,"humidity":58,"rain":0.0,"pressure":990.4,"uv_index":6.6,"wind_gusts":28.1,"aqi":391,"pm10":365.1,"pm2_5":65.9,"mosquito_risk":0,"arthritis_risk":5,"migraine_risk":7,"frizz_risk":0,"updated_at":"2026-03-22T20:01:33.142401+05:30"},{"city":"Vrindavan","state":"Uttar Pradesh","latitude":27.5823,"longitude":77.7027,"temp":23.2,"humidity":61,"rain":0.0,"pressure":990.9,"uv_index":6.45,"wind_gusts":28.1,"aqi":391,"pm10":365.1,"pm2_5":65.9,"mosquito_risk":3,"arthritis_risk":5,"migraine_risk":7,"frizz_risk":0,"updated_at":"2026-03-22T20:01:33.142411+05:30"},{"city":"Ayodhya","state":"Uttar Pradesh","latitude":26.7922,"longitude":82.1998,"temp":23.9,"humidity":60,"rain":0.0,"pressure":999.5,"uv_index":7.0,"wind_gusts":18.7,"aqi":101,"pm10":36.3,"pm2_5":32.5,"mosquito_risk":0,"arthritis_risk":5,"migraine_risk":7,"frizz_risk":0,"updated_at":"2026-03-22T20:01:33.142421+05:30"},{"city":"Ratlam","state":"Madhya Pradesh","latitude":23.3315,"longitude":75.0367,"temp":27.0,"humidity":45,"rain":0.0,"pressure":957.3,"uv_index":7.95,"wind_gusts":14.4,"aqi":82,"pm10":33.8,"pm2_5":22.2,"mosquito_risk":4,"arthritis_risk":5,"migraine_risk":7,"frizz_risk":0,"updated_at":"2026-03-22T20:01:33.142432+05:30"},{"city":"Sagar","state":"Madhya Pradesh","latitude":23.8388,"longitude":78.7378,"temp":24.9,"humidity":47,"rain":0.0,"pressure":953.4,"uv_index":7.95,"wind_gusts":29.9,"aqi":101,"pm10":35.7,"pm2_5":18.1,"mosquito_risk":0,"arthritis_risk":5,"migraine_risk":7,"frizz_risk":0,"updated_at":"2026-03-22T20:01:33.142443+05:30"},{"city":"Satna","state":"Madhya Pradesh","latitude":24.6005,"longitude":80.8322,"temp":24.4,"humidity":49,"rain":0.0,"pressure":975.3,"uv_index":7.9,"wind_gusts":32.4,"aqi":104,"pm10":48.9,"pm2_5":19.0,"mosquito_risk":0,"arthritis_risk":5,"migraine_risk":7,"frizz_risk":0,"updated_at":"2026-03-22T20:01:33.142453+05:30"},{"city":"Akola","state":"Maharashtra","latitude":20.7002,"longitude":77.0082,"temp":27.4,"humidity":39,"rain":0.0,"pressure":977.8,"uv_index":8.3,"wind_gusts":21.2,"aqi":126,"pm10":22.2,"pm2_5":17.9,"mosquito_risk":4,"arthritis_risk":5,"migraine_risk":7,"frizz_risk":0,"updated_at":"2026-03-22T20:01:33.142465+05:30"},{"city":"Amravati","state":"Maharashtra","latitude":20.9374,"longitude":77.7796,"temp":28.0,"humidity":38,"rain":0.0,"pressure":969.5,"uv_index":8.3,"wind_gusts":22.3,"aqi":123,"pm10":20.7,"pm2_5":15.8,"mosquito_risk":4,"arthritis_risk":5,"migraine_risk":7,"frizz_risk":0,"updated_at":"2026-03-22T20:01:33.142476+05:30"},{"city":"Latur","state":"Maharashtra","latitude":18.4088,"longitude":76.5604,"temp":27.0,"humidity":39,"rain":0.0,"pressure":941.5,"uv_index":8.7,"wind_gusts":28.8,"aqi":118,"pm10":21.7,"pm2_5":17.5,"mosquito_risk":4,"arthritis_risk":5,"migraine_risk":7,"frizz_risk":0,"updated_at":"2026-03-22T20:01:33.142487+05:30"},{"city":"Nanded","state":"Maharashtra","latitude":19.1383,"longitude":77.3091,"temp":29.0,"humidity":33,"rain":0.0,"pressure":970.5,"uv_index":8.5,"wind_gusts":28.4,"aqi":121,"pm10":27.7,"pm2_5":22.4,"mosquito_risk":4,"arthritis_risk":5,"migraine_risk":7,"frizz_risk":0,"updated_at":"2026-03-22T20:01:33.142497+05:30"},{"city":"Gulbarga","state":"Karnataka","latitude":17.3297,"longitude":76.8343,"temp":31.9,"humidity":26,"rain":0.0,"pressure":959.8,"uv_index":8.75,"wind_gusts":18.4,"aqi":129,"pm10":39.7,"pm2_5":27.5,"mosquito_risk":0,"arthritis_risk":5,"migraine_risk":7,"frizz_risk":0,"updated_at":"2026-03-22T20:01:33.142507+05:30"},{"city":"Bidar","state":"Karnataka","latitude":17.9104,"longitude":77.5199,"temp":29.3,"humidity":34,"rain":0.0,"pressure":937.0,"uv_index":8.75,"wind_gusts":20.5,"aqi":123,"pm10":28.3,"pm2_5":22.5,"mosquito_risk":4,"arthritis_risk":5,"migraine_risk":7,"frizz_risk":0,"updated_at":"2026-03-22T20:01:33.142518+05:30"},{"city":"Hospet","state":"Karnataka","latitude":15.2689,"longitude":76.3909,"temp":31.2,"humidity":42,"rain":0.0,"pressure":956.5,"uv_index":9.0,"wind_gusts":15.1,"aqi":193,"pm10":34.5,"pm2_5":29.4,"mosquito_risk":0,"arthritis_risk":5,"migraine_risk":7,"frizz_risk":1,"updated_at":"2026-03-22T20:01:33.142527+05:30"},{"city":"Tirupur","state":"Tamil Nadu","latitude":11.1085,"longitude":77.3411,"temp":31.3,"humidity":38,"rain":0.0,"pressure":976.0,"uv_index":9.4,"wind_gusts":31.0,"aqi":110,"pm10":41.2,"pm2_5":32.0,"mosquito_risk":0,"arthritis_risk":5,"migraine_risk":7,"frizz_risk":0,"updated_at":"2026-03-22T20:01:33.142537+05:30"},{"city":"Alappuzha","state":"Kerala","latitude":9.4981,"longitude":76.3388,"temp":29.3,"humidity":76,"rain":0.0,"pressure":1009.9,"uv_index":9.15,"wind_gusts":33.5,"aqi":114,"pm10":28.7,"pm2_5":21.4,"mosquito_risk":7,"arthritis_risk":0,"migraine_risk":4,"frizz_risk":1,"updated_at":"2026-03-22T20:01:33.142546+05:30"},{"city":"Munnar","state":"Kerala","latitude":10.0889,"longitude":77.0595,"temp":23.5,"humidity":72,"rain":0.0,"pressure":858.4,"uv_index":8.65,"wind_gusts":26.6,"aqi":81,"pm10":35.4,"pm2_5":26.5,"mosquito_risk":3,"arthritis_risk":5,"migraine_risk":7,"frizz_risk":1,"updated_at":"2026-03-22T20:01:33.142557+05:30"},{"city":"Silchar","state":"Assam","latitude":24.8333,"longitude":92.7789,"temp":21.4,"humidity":87,"rain":0.0,"pressure":1009.7,"uv_index":7.95,"wind_gusts":22.7,"aqi":82,"pm10":51.3,"pm2_5":47.1,"mosquito_risk":3,"arthritis_risk":0,"migraine_risk":4,"frizz_risk":1,"updated_at":"2026-03-22T20:01:33.142567+05:30"},{"city":"Dibrugarh","state":"Assam","latitude":27.4728,"longitude":94.912,"temp":21.1,"humidity":88,"rain":0.0,"pressure":999.9,"uv_index":4.5,"wind_gusts":28.4,"aqi":127,"pm10":32.2,"pm2_5":29.8,"mosquito_risk":3,"arthritis_risk":5,"migraine_risk":3,"frizz_risk":1,"updated_at":"2026-03-22T20:01:33.142594+05:30"}]