[{"city":"Delhi","state":"Delhi","latitude":28.6139,"longitude":77.209,"temp":33.6,"humidity":43,"rain":0.0,"pressure":982.9,"uv_index":7.65,"wind_gusts":38.2,"aqi":405,"pm10":581.1,"pm2_5":96.9,"no2":6.2,"co":370.0,"o3":191.0,"so2":22.0,"mosquito_risk":0,"arthritis_risk":5,"migraine_risk":7,"frizz_risk":1,"updated_at":"2026-05-30T12:18:36.237885+05:30"},{"city":"Mumbai","state":"Maharashtra","latitude":19.076,"longitude":72.8777,"temp":34.0,"humidity":57,"rain":0.0,"pressure":1008.7,"uv_index":7.6,"wind_gusts":41.8,"aqi":67,"pm10":29.5,"pm2_5":19.1,"no2":3.9,"co":153.0,"o3":89.0,"so2":5.7,"mosquito_risk":0,"arthritis_risk":0,"migraine_risk":4,"frizz_risk":1,"updated_at":"2026-05-30T12:18:36.237939+05:30"},{"city":"Bangalore","state":"Karnataka","latitude":12.9716,"longitude":77.5946,"temp":30.4,"humidity":52,"rain":0.0,"pressure":913.8,"uv_index":8.95,"wind_gusts":30.2,"aqi":58,"pm10":16.6,"pm2_5":11.3,"no2":3.4,"co":265.0,"o3":112.0,"so2":3.2,"mosquito_risk":0,"arthritis_risk":5,"migraine_risk":7,"frizz_risk":1,"updated_at":"2026-05-30T12:18:36.237955+05:30"},{"city":"Hyderabad","state":"Telangana","latitude":17.385,"longitude":78.4867,"temp":36.2,"humidity":28,"rain":0.0,"pressure":953.4,"uv_index":8.95,"wind_gusts":45.0,"aqi":56,"pm10":32.0,"pm2_5":18.3,"no2":2.1,"co":207.0,"o3":119.0,"so2":4.0,"mosquito_risk":0,"arthritis_risk":5,"migraine_risk":10,"frizz_risk":0,"updated_at":"2026-05-30T12:18:36.237966+05:30"},{"city":"Chennai","state":"Tamil Nadu","latitude":13.0827,"longitude":80.2707,"temp":35.2,"humidity":49,"rain":0.0,"pressure":1006.6,"uv_index":9.0,"wind_gusts":35.3,"aqi":75,"pm10":31.1,"pm2_5":25.6,"no2":6.0,"co":274.0,"o3":180.0,"so2":11.2,"mosquito_risk":0,"arthritis_risk":5,"migraine_risk":7,"frizz_risk":1,"updated_at":"2026-05-30T12:18:36.237991+05:30"},{"city":"Kolkata","state":"West Bengal","latitude":22.5726,"longitude":88.3639,"temp":33.0,"humidity":60,"rain":0.0,"pressure":1005.0,"uv_index":8.9,"wind_gusts":26.6,"aqi":151,"pm10":53.7,"pm2_5":29.7,"no2":2.5,"co":339.0,"o3":155.0,"so2":10.2,"mosquito_risk":0,"arthritis_risk":5,"migraine_risk":4,"frizz_risk":1,"updated_at":"2026-05-30T12:18:36.237999+05:30"},{"city":"Pune","state":"Maharashtra","latitude":18.5204,"longitude":73.8567,"temp":34.5,"humidity":40,"rain":0.0,"pressure":949.4,"uv_index":8.35,"wind_gusts":46.4,"aqi":47,"pm10":20.3,"pm2_5":11.7,"no2":1.6,"co":133.0,"o3":92.0,"so2":3.9,"mosquito_risk":0,"arthritis_risk":5,"migraine_risk":7,"frizz_risk":1,"updated_at":"2026-05-30T12:18:36.238006+05:30"},{"city":"Ahmedabad","state":"Gujarat","latitude":23.0225,"longitude":72.5714,"temp":37.2,"humidity":37,"rain":0.0,"pressure":999.6,"uv_index":8.1,"wind_gusts":63.4,"aqi":72,"pm10":45.4,"pm2_5":19.7,"no2":1.6,"co":133.0,"o3":81.0,"so2":4.0,"mosquito_risk":0,"arthritis_risk":5,"migraine_risk":10,"frizz_risk":1,"updated_at":"2026-05-30T12:18:36.238014+05:30"},{"city":"Jaipur","state":"Rajasthan","latitude":26.9124,"longitude":75.7873,"temp":33.3,"humidity":44,"rain":0.0,"pressure":958.6,"uv_index":8.15,"wind_gusts":39.6,"aqi":115,"pm10":179.3,"pm2_5":42.0,"no2":1.6,"co":181.0,"o3":129.0,"so2":7.4,"mosquito_risk":0,"arthritis_risk":5,"migraine_risk":7,"frizz_risk":1,"updated_at":"2026-05-30T12:18:36.238025+05:30"},{"city":"Lucknow","state":"Uttar Pradesh","latitude":26.8467,"longitude":80.9462,"temp":32.7,"humidity":45,"rain":0.0,"pressure":993.4,"uv_index":8.15,"wind_gusts":33.5,"aqi":80,"pm10":30.9,"pm2_5":21.0,"no2":1.8,"co":306.0,"o3":167.0,"so2":5.7,"mosquito_risk":0,"arthritis_risk":5,"migraine_risk":7,"frizz_risk":1,"updated_at":"2026-05-30T12:18:36.238032+05:30"},{"city":"Kanpur","state":"Uttar Pradesh","latitude":26.4499,"longitude":80.3319,"temp":33.2,"humidity":40,"rain":0.0,"pressure":991.5,"uv_index":8.1,"wind_gusts":41.8,"aqi":112,"pm10":140.6,"pm2_5":31.1,"no2":2.0,"co":311.0,"o3":179.0,"so2":7.0,"mosquito_risk":0,"arthritis_risk":5,"migraine_risk":7,"frizz_risk":1,"updated_at":"2026-05-30T12:18:36.238039+05:30"},{"city":"Chandigarh","state":"Chandigarh","latitude":30.7333,"longitude":76.7794,"temp":32.6,"humidity":26,"rain":0.0,"pressure":969.7,"uv_index":7.2,"wind_gusts":45.0,"aqi":93,"pm10":71.0,"pm2_5":25.1,"no2":2.1,"co":365.0,"o3":175.0,"so2":7.7,"mosquito_risk":0,"arthritis_risk":5,"migraine_risk":7,"frizz_risk":0,"updated_at":"2026-05-30T12:18:36.238045+05:30"},{"city":"Srinagar","state":"Jammu and Kashmir","latitude":34.0837,"longitude":74.7973,"temp":25.0,"humidity":36,"rain":0.0,"pressure":844.5,"uv_index":8.95,"wind_gusts":32.0,"aqi":89,"pm10":28.4,"pm2_5":19.0,"no2":1.5,"co":347.0,"o3":180.0,"so2":4.7,"mosquito_risk":4,"arthritis_risk":5,"migraine_risk":7,"frizz_risk":0,"updated_at":"2026-05-30T12:18:36.238053+05:30"},{"city":"Jammu","state":"Jammu and Kashmir","latitude":32.7266,"longitude":74.857,"temp":33.4,"humidity":26,"rain":0.0,"pressure":974.0,"uv_index":8.5,"wind_gusts":58.0,"aqi":152,"pm10":262.6,"pm2_5":58.0,"no2":2.1,"co":250.0,"o3":183.0,"so2":11.8,"mosquito_risk":0,"arthritis_risk":5,"migraine_risk":7,"frizz_risk":0,"updated_at":"2026-05-30T12:18:36.238060+05:30"},{"city":"Amritsar","state":"Punjab","latitude":31.634,"longitude":74.8723,"temp":32.5,"humidity":39,"rain":0.0,"pressure":981.6,"uv_index":8.35,"wind_gusts":57.6,"aqi":324,"pm10":493.6,"pm2_5":106.6,"no2":1.8,"co":305.0,"o3":162.0,"so2":11.7,"mosquito_risk":0,"arthritis_risk":5,"migraine_risk":7,"frizz_risk":1,"updated_at":"2026-05-30T12:18:36.238067+05:30"},{"city":"Ludhiana","state":"Punjab","latitude":30.901,"longitude":75.8573,"temp":30.4,"humidity":49,"rain":0.0,"pressure":979.3,"uv_index":7.95,"wind_gusts":46.4,"aqi":527,"pm10":633.3,"pm2_5":99.2,"no2":2.0,"co":327.0,"o3":170.0,"so2":11.1,"mosquito_risk":0,"arthritis_risk":5,"migraine_risk":7,"frizz_risk":1,"updated_at":"2026-05-30T12:18:36.238074+05:30"},{"city":"Jalandhar","state":"Punjab","latitude":31.326,"longitude":75.5762,"temp":31.9,"humidity":35,"rain":0.0,"pressure":980.5,"uv_index":7.85,"wind_gusts":49.3,"aqi":360,"pm10":365.1,"pm2_5":70.3,"no2":2.1,"co":365.0,"o3":174.0,"so2":12.3,"mosquito_risk":0,"arthritis_risk":5,"migraine_risk":7,"frizz_risk":0,"updated_at":"2026-05-30T12:18:36.238080+05:30"},{"city":"Dehradun","state":"Uttarakhand","latitude":30.6284,"longitude":78.0322,"temp":19.2,"humidity":65,"rain":0.2,"pressure":833.4,"uv_index":7.9,"wind_gusts":38.9,"aqi":79,"pm10":33.2,"pm2_5":16.4,"no2":1.0,"co":273.0,"o3":166.0,"so2":3.1,"mosquito_risk":6,"arthritis_risk":5,"migraine_risk":7,"frizz_risk":0,"updated_at":"2026-05-30T12:18:36.238087+05:30"},{"city":"Shimla","state":"Himachal Pradesh","latitude":31.1048,"longitude":77.1734,"temp":19.4,"humidity":33,"rain":0.0,"pressure":788.1,"uv_index":5.6,"wind_gusts":29.2,"aqi":86,"pm10":51.0,"pm2_5":21.0,"no2":1.5,"co":296.0,"o3":168.0,"so2":4.1,"mosquito_risk":0,"arthritis_risk":5,"migraine_risk":3,"frizz_risk":0,"updated_at":"2026-05-30T12:18:36.238097+05:30"},{"city":"Manali","state":"Himachal Pradesh","latitude":32.2396,"longitude":77.1887,"temp":19.4,"humidity":50,"rain":0.0,"pressure":820.6,"uv_index":8.1,"wind_gusts":31.7,"aqi":96,"pm10":15.0,"pm2_5":6.5,"no2":1.2,"co":162.0,"o3":159.0,"so2":0.5,"mosquito_risk":0,"arthritis_risk":5,"migraine_risk":7,"frizz_risk":0,"updated_at":"2026-05-30T12:18:36.238103+05:30"},{"city":"Gurgaon","state":"Haryana","latitude":28.4595,"longitude":77.0266,"temp":33.5,"humidity":42,"rain":0.0,"pressure":981.2,"uv_index":7.75,"wind_gusts":41.4,"aqi":1282,"pm10":1780.7,"pm2_5":218.4,"no2":4.2,"co":324.0,"o3":171.0,"so2":12.4,"mosquito_risk":0,"arthritis_risk":5,"migraine_risk":7,"frizz_risk":1,"updated_at":"2026-05-30T12:18:36.238115+05:30"},{"city":"Noida","state":"Uttar Pradesh","latitude":28.5355,"longitude":77.391,"temp":33.7,"humidity":47,"rain":0.0,"pressure":984.4,"uv_index":7.65,"wind_gusts":40.7,"aqi":1282,"pm10":1780.7,"pm2_5":218.4,"no2":4.2,"co":331.0,"o3":171.0,"so2":12.4,"mosquito_risk":0,"arthritis_risk":5,"migraine_risk":7,"frizz_risk":1,"updated_at":"2026-05-30T12:18:36.238121+05:30"},{"city":"Ghaziabad","state":"Uttar Pradesh","latitude":28.6692,"longitude":77.4538,"temp":33.7,"humidity":48,"rain":0.0,"pressure":982.6,"uv_index":7.65,"wind_gusts":41.4,"aqi":176,"pm10":379.0,"pm2_5":62.9,"no2":2.7,"co":313.0,"o3":177.0,"so2":12.1,"mosquito_risk":0,"arthritis_risk":5,"migraine_risk":7,"frizz_risk":1,"updated_at":"2026-05-30T12:18:36.238128+05:30"},{"city":"Faridabad","state":"Haryana","latitude":28.4089,"longitude":77.3178,"temp":33.5,"humidity":44,"rain":0.0,"pressure":983.7,"uv_index":7.7,"wind_gusts":46.1,"aqi":1282,"pm10":1780.7,"pm2_5":218.4,"no2":4.2,"co":311.0,"o3":171.0,"so2":12.4,"mosquito_risk":0,"arthritis_risk":5,"migraine_risk":7,"frizz_risk":1,"updated_at":"2026-05-30T12:18:36.238135+05:30"},{"city":"Meerut","state":"Uttar Pradesh","latitude":28.9845,"longitude":77.7064,"temp":27.0,"humidity":69,"rain":0.1,"pressure":982.0,"uv_index":7.55,"wind_gusts":38.9,"aqi":176,"pm10":379.0,"pm2_5":62.9,"no2":2.7,"co":306.0,"o3":177.0,"so2":12.1,"mosquito_risk":10,"arthritis_risk":5,"migraine_risk":7,"frizz_risk":1,"updated_at":"2026-05-30T12:18:36.238142+05:30"},{"city":"Agra","state":"Uttar Pradesh","latitude":27.1767,"longitude":78.0081,"temp":33.2,"humidity":42,"rain":0.0,"pressure":986.9,"uv_index":8.0,"wind_gusts":64.1,"aqi":261,"pm10":666.8,"pm2_5":81.0,"no2":1.7,"co":275.0,"o3":157.0,"so2":5.8,"mosquito_risk":0,"arthritis_risk":5,"migraine_risk":7,"frizz_risk":1,"updated_at":"2026-05-30T12:18:36.238148+05:30"},{"city":"Varanasi","state":"Uttar Pradesh","latitude":25.3176,"longitude":82.9739,"temp":31.8,"humidity":51,"rain":0.0,"pressure":996.9,"uv_index":8.55,"wind_gusts":30.6,"aqi":90,"pm10":47.8,"pm2_5":29.9,"no2":2.3,"co":365.0,"o3":205.0,"so2":12.5,"mosquito_risk":0,"arthritis_risk":5,"migraine_risk":7,"frizz_risk":1,"updated_at":"2026-05-30T12:18:36.238155+05:30"},{"city":"Prayagraj","state":"Uttar Pradesh","latitude":25.4358,"longitude":81.8463,"temp":33.2,"humidity":45,"rain":0.0,"pressure":995.3,"uv_index":8.3,"wind_gusts":28.1,"aqi":80,"pm10":42.6,"pm2_5":24.1,"no2":2.1,"co":366.0,"o3":195.0,"so2":8.4,"mosquito_risk":0,"arthritis_risk":5,"migraine_risk":7,"frizz_risk":1,"updated_at":"2026-05-30T12:18:36.238161+05:30"},{"city":"Gorakhpur","state":"Uttar Pradesh","latitude":26.7606,"longitude":83.3732,"temp":32.0,"humidity":51,"rain":0.0,"pressure":996.7,"uv_index":8.5,"wind_gusts":41.8,"aqi":82,"pm10":35.3,"pm2_5":26.7,"no2":2.0,"co":355.0,"o3":180.0,"so2":12.8,"mosquito_risk":0,"arthritis_risk":5,"migraine_risk":7,"frizz_risk":1,"updated_at":"2026-05-30T12:18:36.238170+05:30"},{"city":"Bareilly","state":"Uttar Pradesh","latitude":28.367,"longitude":79.4304,"temp":33.0,"humidity":44,"rain":0.0,"pressure":986.5,"uv_index":7.95,"wind_gusts":45.0,"aqi":93,"pm10":195.6,"pm2_5":43.7,"no2":2.2,"co":283.0,"o3":170.0,"so2":9.6,"mosquito_risk":0,"arthritis_risk":5,"migraine_risk":7,"frizz_risk":1,"updated_at":"2026-05-30T12:18:36.238177+05:30"},{"city":"Aligarh","state":"Uttar Pradesh","latitude":27.8974,"longitude":78.088,"temp":33.7,"humidity":47,"rain":0.0,"pressure":984.9,"uv_index":7.8,"wind_gusts":47.5,"aqi":354,"pm10":560.7,"pm2_5":76.8,"no2":2.0,"co":286.0,"o3":163.0,"so2":8.0,"mosquito_risk":0,"arthritis_risk":5,"migraine_risk":7,"frizz_risk":1,"updated_at":"2026-05-30T12:18:36.238183+05:30"},{"city":"Moradabad","state":"Uttar Pradesh","latitude":28.8386,"longitude":78.7733,"temp":34.2,"humidity":41,"rain":0.0,"pressure":983.9,"uv_index":7.75,"wind_gusts":46.4,"aqi":95,"pm10":54.1,"pm2_5":27.0,"no2":2.6,"co":288.0,"o3":175.0,"so2":10.6,"mosquito_risk":0,"arthritis_risk":5,"migraine_risk":7,"frizz_risk":1,"updated_at":"2026-05-30T12:18:36.238189+05:30"},{"city":"Saharanpur","state":"Uttar Pradesh","latitude":29.9637,"longitude":77.546,"temp":30.4,"humidity":50,"rain":0.0,"pressure":976.9,"uv_index":7.4,"wind_gusts":44.3,"aqi":83,"pm10":43.2,"pm2_5":24.6,"no2":1.8,"co":268.0,"o3":176.0,"so2":5.6,"mosquito_risk":0,"arthritis_risk":5,"migraine_risk":7,"frizz_risk":1,"updated_at":"2026-05-30T12:18:36.238195+05:30"},{"city":"Jhansi","state":"Uttar Pradesh","latitude":25.4484,"longitude":78.5685,"temp":33.1,"humidity":45,"rain":0.0,"pressure":977.5,"uv_index":8.35,"wind_gusts":49.3,"aqi":81,"pm10":44.1,"pm2_5":19.7,"no2":1.7,"co":236.0,"o3":164.0,"so2":11.4,"mosquito_risk":0,"arthritis_risk":5,"migraine_risk":7,"frizz_risk":1,"updated_at":"2026-05-30T12:18:39.460183+05:30"},{"city":"Surat","state":"Gujarat","latitude":21.1702,"longitude":72.8311,"temp":34.9,"humidity":50,"rain":0.0,"pressure":1006.1,"uv_index":7.65,"wind_gusts":57.6,"aqi":86,"pm10":51.2,"pm2_5":26.0,"no2":6.3,"co":198.0,"o3":67.0,"so2":21.3,"mosquito_risk":0,"arthritis_risk":5,"migraine_risk":4,"frizz_risk":1,"updated_at":"2026-05-30T12:18:39.460220+05:30"},{"city":"Vadodara","state":"Gujarat","latitude":22.3072,"longitude":73.1812,"temp":37.1,"humidity":37,"rain":0.0,"pressure":1002.1,"uv_index":8.0,"wind_gusts":51.1,"aqi":80,"pm10":53.2,"pm2_5":23.3,"no2":1.4,"co":131.0,"o3":83.0,"so2":3.0,"mosquito_risk":0,"arthritis_risk":5,"migraine_risk":7,"frizz_risk":1,"updated_at":"2026-05-30T12:18:39.460230+05:30"},{"city":"Rajkot","state":"Gujarat","latitude":22.3039,"longitude":70.8022,"temp":37.9,"humidity":35,"rain":0.0,"pressure":992.0,"uv_index":7.7,"wind_gusts":54.4,"aqi":68,"pm10":42.8,"pm2_5":20.1,"no2":0.9,"co":111.0,"o3":74.0,"so2":2.5,"mosquito_risk":0,"arthritis_risk":5,"migraine_risk":10,"frizz_risk":1,"updated_at":"2026-05-30T12:18:39.460238+05:30"},{"city":"Thane","state":"Maharashtra","latitude":19.2183,"longitude":72.9781,"temp":36.7,"humidity":43,"rain":0.0,"pressure":1007.6,"uv_index":7.8,"wind_gusts":39.6,"aqi":67,"pm10":29.5,"pm2_5":19.1,"no2":3.9,"co":148.0,"o3":89.0,"so2":5.7,"mosquito_risk":0,"arthritis_risk":5,"migraine_risk":7,"frizz_risk":1,"updated_at":"2026-05-30T12:18:39.460247+05:30"},{"city":"Nagpur","state":"Maharashtra","latitude":21.1458,"longitude":79.0882,"temp":39.2,"humidity":23,"rain":0.0,"pressure":971.0,"uv_index":8.85,"wind_gusts":46.4,"aqi":69,"pm10":47.1,"pm2_5":27.2,"no2":4.6,"co":177.0,"o3":143.0,"so2":21.7,"mosquito_risk":0,"arthritis_risk":5,"migraine_risk":10,"frizz_risk":0,"updated_at":"2026-05-30T12:18:39.460254+05:30"},{"city":"Nashik","state":"Maharashtra","latitude":19.9975,"longitude":73.7898,"temp":34.0,"humidity":41,"rain":0.0,"pressure":946.8,"uv_index":8.1,"wind_gusts":54.4,"aqi":62,"pm10":36.2,"pm2_5":17.9,"no2":1.0,"co":120.0,"o3":78.0,"so2":1.5,"mosquito_risk":0,"arthritis_risk":5,"migraine_risk":7,"frizz_risk":1,"updated_at":"2026-05-30T12:18:39.460262+05:30"},{"city":"Aurangabad","state":"Maharashtra","latitude":19.8762,"longitude":75.3433,"temp":35.2,"humidity":33,"rain":0.0,"pressure":945.2,"uv_index":8.95,"wind_gusts":53.6,"aqi":63,"pm10":43.4,"pm2_5":19.7,"no2":1.3,"co":124.0,"o3":97.0,"so2":4.6,"mosquito_risk":0,"arthritis_risk":5,"migraine_risk":10,"frizz_risk":1,"updated_at":"2026-05-30T12:18:39.460269+05:30"},{"city":"Solapur","state":"Maharashtra","latitude":17.6599,"longitude":75.9064,"temp":36.3,"humidity":33,"rain":0.0,"pressure":958.0,"uv_index":8.95,"wind_gusts":37.8,"aqi":48,"pm10":17.6,"pm2_5":10.4,"no2":1.2,"co":131.0,"o3":98.0,"so2":2.1,"mosquito_risk":0,"arthritis_risk":5,"migraine_risk":10,"frizz_risk":1,"updated_at":"2026-05-30T12:18:39.460277+05:30"},{"city":"Kolhapur","state":"Maharashtra","latitude":16.705,"longitude":74.2433,"temp":34.2,"humidity":44,"rain":0.0,"pressure":949.3,"uv_index":8.75,"wind_gusts":45.7,"aqi":37,"pm10":12.0,"pm2_5":8.1,"no2":1.3,"co":138.0,"o3":86.0,"so2":1.5,"mosquito_risk":0,"arthritis_risk":5,"migraine_risk":7,"frizz_risk":1,"updated_at":"2026-05-30T12:18:39.460285+05:30"},{"city":"Goa","state":"Goa","latitude":15.2993,"longitude":74.124,"temp":34.8,"humidity":55,"rain":0.0,"pressure":998.6,"uv_index":6.85,"wind_gusts":32.4,"aqi":56,"pm10":15.0,"pm2_5":9.9,"no2":0.7,"co":133.0,"o3":69.0,"so2":1.1,"mosquito_risk":0,"arthritis_risk":5,"migraine_risk":7,"frizz_risk":1,"updated_at":"2026-05-30T12:18:39.460292+05:30"},{"city":"Jodhpur","state":"Rajasthan","latitude":26.2389,"longitude":73.0243,"temp":37.7,"humidity":37,"rain":0.0,"pressure":978.8,"uv_index":8.35,"wind_gusts":72.7,"aqi":175,"pm10":205.8,"pm2_5":42.6,"no2":0.9,"co":117.0,"o3":85.0,"so2":2.3,"mosquito_risk":0,"arthritis_risk":5,"migraine_risk":10,"frizz_risk":1,"updated_at":"2026-05-30T12:18:39.460300+05:30"},{"city":"Udaipur","state":"Rajasthan","latitude":24.5854,"longitude":73.7125,"temp":35.2,"humidity":39,"rain":0.0,"pressure":944.5,"uv_index":8.75,"wind_gusts":70.6,"aqi":70,"pm10":61.9,"pm2_5":25.3,"no2":0.9,"co":124.0,"o3":86.0,"so2":4.6,"mosquito_risk":0,"arthritis_risk":5,"migraine_risk":10,"frizz_risk":1,"updated_at":"2026-05-30T12:18:39.460308+05:30"},{"city":"Kota","state":"Rajasthan","latitude":25.2138,"longitude":75.8648,"temp":37.5,"humidity":34,"rain":0.0,"pressure":976.3,"uv_index":8.3,"wind_gusts":53.3,"aqi":73,"pm10":65.2,"pm2_5":30.0,"no2":1.7,"co":153.0,"o3":108.0,"so2":9.0,"mosquito_risk":0,"arthritis_risk":5,"migraine_risk":10,"frizz_risk":1,"updated_at":"2026-05-30T12:18:39.460315+05:30"},{"city":"Bikaner","state":"Rajasthan","latitude":28.0229,"longitude":73.3119,"temp":30.9,"humidity":50,"rain":0.1,"pressure":981.3,"uv_index":8.35,"wind_gusts":65.2,"aqi":121,"pm10":173.7,"pm2_5":53.6,"no2":0.9,"co":128.0,"o3":96.0,"so2":4.4,"mosquito_risk":3,"arthritis_risk":5,"migraine_risk":7,"frizz_risk":1,"updated_at":"2026-05-30T12:18:39.460322+05:30"},{"city":"Ajmer","state":"Rajasthan","latitude":26.4499,"longitude":74.6399,"temp":36.5,"humidity":30,"rain":0.0,"pressure":952.3,"uv_index":8.3,"wind_gusts":47.9,"aqi":76,"pm10":60.8,"pm2_5":24.6,"no2":1.1,"co":141.0,"o3":106.0,"so2":3.6,"mosquito_risk":0,"arthritis_risk":5,"migraine_risk":10,"frizz_risk":1,"updated_at":"2026-05-30T12:18:39.460329+05:30"},{"city":"Gwalior","state":"Madhya Pradesh","latitude":26.2183,"longitude":78.1828,"temp":32.3,"humidity":50,"rain":0.0,"pressure":982.7,"uv_index":8.15,"wind_gusts":52.6,"aqi":94,"pm10":55.1,"pm2_5":21.6,"no2":1.0,"co":242.0,"o3":157.0,"so2":7.5,"mosquito_risk":0,"arthritis_risk":5,"migraine_risk":7,"frizz_risk":1,"updated_at":"2026-05-30T12:18:39.460337+05:30"},{"city":"Indore","state":"Madhya Pradesh","latitude":22.7196,"longitude":75.8577,"temp":35.2,"humidity":32,"rain":0.1,"pressure":947.1,"uv_index":8.6,"wind_gusts":42.8,"aqi":78,"pm10":62.4,"pm2_5":27.8,"no2":1.2,"co":156.0,"o3":88.0,"so2":5.2,"mosquito_risk":3,"arthritis_risk":5,"migraine_risk":10,"frizz_risk":0,"updated_at":"2026-05-30T12:18:39.460345+05:30"},{"city":"Bhopal","state":"Madhya Pradesh","latitude":23.2599,"longitude":77.4126,"temp":35.6,"humidity":29,"rain":0.0,"pressure":952.7,"uv_index":8.65,"wind_gusts":52.9,"aqi":71,"pm10":50.2,"pm2_5":26.8,"no2":1.0,"co":157.0,"o3":106.0,"so2":6.2,"mosquito_risk":0,"arthritis_risk":5,"migraine_risk":10,"frizz_risk":0,"updated_at":"2026-05-30T12:18:39.460352+05:30"},{"city":"Jabalpur","state":"Madhya Pradesh","latitude":23.1815,"longitude":79.9864,"temp":37.3,"humidity":27,"rain":0.0,"pressure":959.8,"uv_index":8.8,"wind_gusts":36.4,"aqi":64,"pm10":32.9,"pm2_5":17.2,"no2":1.4,"co":216.0,"o3":151.0,"so2":8.9,"mosquito_risk":0,"arthritis_risk":5,"migraine_risk":10,"frizz_risk":0,"updated_at":"2026-05-30T12:18:39.460359+05:30"},{"city":"Ujjain","state":"Madhya Pradesh","latitude":23.1765,"longitude":75.7885,"temp":36.4,"humidity":33,"rain":0.0,"pressure":952.4,"uv_index":8.55,"wind_gusts":46.8,"aqi":77,"pm10":70.5,"pm2_5":28.6,"no2":0.9,"co":132.0,"o3":83.0,"so2":4.1,"mosquito_risk":0,"arthritis_risk":5,"migraine_risk":10,"frizz_risk":1,"updated_at":"2026-05-30T12:18:39.460366+05:30"},{"city":"Visakhapatnam","state":"Andhra Pradesh","latitude":17.6868,"longitude":83.2185,"temp":35.3,"humidity":61,"rain":0.0,"pressure":1000.6,"uv_index":8.65,"wind_gusts":39.6,"aqi":125,"pm10":46.3,"pm2_5":38.9,"no2":16.5,"co":434.0,"o3":172.0,"so2":46.4,"mosquito_risk":3,"arthritis_risk":5,"migraine_risk":7,"frizz_risk":1,"updated_at":"2026-05-30T12:18:39.460373+05:30"},{"city":"Vijayawada","state":"Andhra Pradesh","latitude":16.5062,"longitude":80.648,"temp":39.0,"humidity":37,"rain":0.0,"pressure":1000.0,"uv_index":8.85,"wind_gusts":44.6,"aqi":78,"pm10":25.0,"pm2_5":20.1,"no2":2.6,"co":212.0,"o3":140.0,"so2":6.2,"mosquito_risk":0,"arthritis_risk":5,"migraine_risk":7,"frizz_risk":1,"updated_at":"2026-05-30T12:18:39.460379+05:30"},{"city":"Guntur","state":"Andhra Pradesh","latitude":16.3067,"longitude":80.4365,"temp":37.8,"humidity":40,"rain":0.0,"pressure":1001.4,"uv_index":8.65,"wind_gusts":46.4,"aqi":69,"pm10":25.5,"pm2_5":19.3,"no2":2.6,"co":204.0,"o3":128.0,"so2":5.7,"mosquito_risk":0,"arthritis_risk":5,"migraine_risk":7,"frizz_risk":1,"updated_at":"2026-05-30T12:18:39.460386+05:30"},{"city":"Nellore","state":"Andhra Pradesh","latitude":14.4426,"longitude":79.9865,"temp":37.6,"humidity":44,"rain":0.0,"pressure":1004.4,"uv_index":8.35,"wind_gusts":49.0,"aqi":71,"pm10":19.2,"pm2_5":15.1,"no2":2.2,"co":159.0,"o3":131.0,"so2":6.7,"mosquito_risk":0,"arthritis_risk":5,"migraine_risk":7,"frizz_risk":1,"updated_at":"2026-05-30T12:18:39.460394+05:30"},{"city":"Kurnool","state":"Andhra Pradesh","latitude":15.8281,"longitude":78.0373,"temp":36.2,"humidity":42,"rain":0.0,"pressure":976.9,"uv_index":9.0,"wind_gusts":70.9,"aqi":57,"pm10":16.8,"pm2_5":12.3,"no2":2.0,"co":150.0,"o3":108.0,"so2":8.0,"mosquito_risk":0,"arthritis_risk":5,"migraine_risk":10,"frizz_risk":1,"updated_at":"2026-05-30T12:18:39.460402+05:30"},{"city":"Kakinada","state":"Andhra Pradesh","latitude":16.9891,"longitude":82.2475,"temp":39.0,"humidity":40,"rain":0.0,"pressure":1004.1,"uv_index":7.55,"wind_gusts":43.6,"aqi":112,"pm10":31.0,"pm2_5":25.6,"no2":2.9,"co":257.0,"o3":174.0,"so2":6.0,"mosquito_risk":0,"arthritis_risk":5,"migraine_risk":7,"frizz_risk":1,"updated_at":"2026-05-30T12:18:39.460409+05:30"},{"city":"Tirupati","state":"Andhra Pradesh","latitude":13.6288,"longitude":79.4192,"temp":38.8,"humidity":34,"rain":0.0,"pressure":989.8,"uv_index":9.05,"wind_gusts":31.0,"aqi":75,"pm10":19.8,"pm2_5":13.4,"no2":1.6,"co":174.0,"o3":126.0,"so2":1.9,"mosquito_risk":0,"arthritis_risk":5,"migraine_risk":10,"frizz_risk":1,"updated_at":"2026-05-30T12:18:39.460416+05:30"},{"city":"Warangal","state":"Telangana","latitude":17.9689,"longitude":79.5941,"temp":37.5,"humidity":31,"rain":0.0,"pressure":977.4,"uv_index":9.05,"wind_gusts":45.4,"aqi":76,"pm10":55.1,"pm2_5":30.2,"no2":2.0,"co":175.0,"o3":135.0,"so2":6.4,"mosquito_risk":0,"arthritis_risk":5,"migraine_risk":10,"frizz_risk":1,"updated_at":"2026-05-30T12:18:39.460424+05:30"},{"city":"Nizamabad","state":"Telangana","latitude":18.6725,"longitude":78.0941,"temp":36.6,"humidity":33,"rain":0.0,"pressure":964.6,"uv_index":8.95,"wind_gusts":38.2,"aqi":70,"pm10":61.0,"pm2_5":29.0,"no2":1.3,"co":159.0,"o3":114.0,"so2":5.7,"mosquito_risk":0,"arthritis_risk":5,"migraine_risk":10,"frizz_risk":1,"updated_at":"2026-05-30T12:18:39.460432+05:30"},{"city":"Mysore","state":"Karnataka","latitude":12.2958,"longitude":76.6396,"temp":31.8,"humidity":52,"rain":0.0,"pressure":930.4,"uv_index":9.0,"wind_gusts":42.1,"aqi":35,"pm10":10.6,"pm2_5":7.0,"no2":1.8,"co":146.0,"o3":101.0,"so2":1.6,"mosquito_risk":0,"arthritis_risk":5,"migraine_risk":7,"frizz_risk":1,"updated_at":"2026-05-30T12:18:39.460438+05:30"},{"city":"Mangalore","state":"Karnataka","latitude":12.9141,"longitude":74.856,"temp":30.8,"humidity":74,"rain":0.0,"pressure":1008.1,"uv_index":7.95,"wind_gusts":34.9,"aqi":38,"pm10":8.2,"pm2_5":5.5,"no2":1.2,"co":126.0,"o3":74.0,"so2":1.5,"mosquito_risk":3,"arthritis_risk":0,"migraine_risk":4,"frizz_risk":1,"updated_at":"2026-05-30T12:18:39.460445+05:30"},{"city":"Hubli-Dharwad","state":"Karnataka","latitude":15.3647,"longitude":75.124,"temp":34.2,"humidity":42,"rain":0.0,"pressure":942.5,"uv_index":8.9,"wind_gusts":43.9,"aqi":40,"pm10":12.2,"pm2_5":7.7,"no2":1.2,"co":132.0,"o3":82.0,"so2":0.9,"mosquito_risk":0,"arthritis_risk":5,"migraine_risk":7,"frizz_risk":1,"updated_at":"2026-05-30T12:18:39.460452+05:30"},{"city":"Belgaum","state":"Karnataka","latitude":15.8497,"longitude":74.4977,"temp":32.7,"humidity":45,"rain":0.0,"pressure":927.5,"uv_index":8.65,"wind_gusts":41.4,"aqi":31,"pm10":10.7,"pm2_5":7.1,"no2":1.2,"co":129.0,"o3":78.0,"so2":1.3,"mosquito_risk":0,"arthritis_risk":5,"migraine_risk":7,"frizz_risk":1,"updated_at":"2026-05-30T12:18:42.685927+05:30"},{"city":"Coimbatore","state":"Tamil Nadu","latitude":11.0168,"longitude":76.9558,"temp":33.8,"humidity":45,"rain":0.0,"pressure":962.7,"uv_index":9.0,"wind_gusts":49.0,"aqi":26,"pm10":6.9,"pm2_5":4.9,"no2":1.2,"co":136.0,"o3":86.0,"so2":1.7,"mosquito_risk":0,"arthritis_risk":5,"migraine_risk":7,"frizz_risk":1,"updated_at":"2026-05-30T12:18:42.685963+05:30"},{"city":"Madurai","state":"Tamil Nadu","latitude":9.9252,"longitude":78.1198,"temp":37.7,"humidity":35,"rain":0.0,"pressure":992.6,"uv_index":8.65,"wind_gusts":37.4,"aqi":66,"pm10":11.7,"pm2_5":8.4,"no2":2.5,"co":152.0,"o3":117.0,"so2":2.9,"mosquito_risk":0,"arthritis_risk":5,"migraine_risk":10,"frizz_risk":1,"updated_at":"2026-05-30T12:18:42.685993+05:30"},{"city":"Trichy","state":"Tamil Nadu","latitude":10.7905,"longitude":78.7047,"temp":36.2,"humidity":45,"rain":0.0,"pressure":999.2,"uv_index":8.4,"wind_gusts":41.4,"aqi":39,"pm10":7.1,"pm2_5":5.2,"no2":1.7,"co":151.0,"o3":94.0,"so2":2.3,"mosquito_risk":0,"arthritis_risk":5,"migraine_risk":10,"frizz_risk":1,"updated_at":"2026-05-30T12:18:42.686003+05:30"},{"city":"Salem","state":"Tamil Nadu","latitude":11.6643,"longitude":78.146,"temp":36.5,"humidity":37,"rain":0.0,"pressure":977.9,"uv_index":8.7,"wind_gusts":30.6,"aqi":58,"pm10":17.1,"pm2_5":13.0,"no2":3.2,"co":176.0,"o3":136.0,"so2":11.1,"mosquito_risk":0,"arthritis_risk":5,"migraine_risk":10,"frizz_risk":1,"updated_at":"2026-05-30T12:18:42.686011+05:30"},{"city":"Tirunelveli","state":"Tamil Nadu","latitude":8.7139,"longitude":77.7567,"temp":38.0,"humidity":37,"rain":0.0,"pressure":1003.0,"uv_index":8.5,"wind_gusts":37.1,"aqi":19,"pm10":3.4,"pm2_5":2.7,"no2":1.1,"co":119.0,"o3":68.0,"so2":0.8,"mosquito_risk":0,"arthritis_risk":5,"migraine_risk":7,"frizz_risk":1,"updated_at":"2026-05-30T12:18:42.686019+05:30"},{"city":"Vellore","state":"Tamil Nadu","latitude":12.9165,"longitude":79.1325,"temp":37.2,"humidity":40,"rain":0.0,"pressure":983.6,"uv_index":8.95,"wind_gusts":38.9,"aqi":68,"pm10":20.3,"pm2_5":14.5,"no2":2.0,"co":205.0,"o3":141.0,"so2":3.1,"mosquito_risk":0,"arthritis_risk":5,"migraine_risk":10,"frizz_risk":1,"updated_at":"2026-05-30T12:18:42.686027+05:30"},{"city":"Erode","state":"Tamil Nadu","latitude":11.341,"longitude":77.7172,"temp":36.3,"humidity":38,"rain":0.0,"pressure":989.3,"uv_index":8.9,"wind_gusts":31.7,"aqi":34,"pm10":9.8,"pm2_5":6.9,"no2":1.9,"co":171.0,"o3":106.0,"so2":2.0,"mosquito_risk":0,"arthritis_risk":5,"migraine_risk":10,"frizz_risk":1,"updated_at":"2026-05-30T12:18:42.686034+05:30"},{"city":"Kochi","state":"Kerala","latitude":9.9312,"longitude":76.2673,"temp":29.0,"humidity":77,"rain":0.1,"pressure":1010.8,"uv_index":8.15,"wind_gusts":33.8,"aqi":38,"pm10":7.5,"pm2_5":5.8,"no2":2.4,"co":115.0,"o3":84.0,"so2":3.3,"mosquito_risk":10,"arthritis_risk":0,"migraine_risk":4,"frizz_risk":1,"updated_at":"2026-05-30T12:18:42.686043+05:30"},{"city":"Thiruvananthapuram","state":"Kerala","latitude":8.5241,"longitude":76.9366,"temp":29.0,"humidity":76,"rain":0.1,"pressure":1010.5,"uv_index":7.7,"wind_gusts":38.5,"aqi":25,"pm10":8.7,"pm2_5":5.4,"no2":1.0,"co":115.0,"o3":71.0,"so2":0.9,"mosquito_risk":10,"arthritis_risk":0,"migraine_risk":4,"frizz_risk":1,"updated_at":"2026-05-30T12:18:42.686051+05:30"},{"city":"Kozhikode","state":"Kerala","latitude":11.2588,"longitude":75.7804,"temp":30.0,"humidity":73,"rain":0.0,"pressure":1009.5,"uv_index":8.2,"wind_gusts":31.0,"aqi":30,"pm10":7.5,"pm2_5":4.4,"no2":0.5,"co":141.0,"o3":74.0,"so2":0.6,"mosquito_risk":7,"arthritis_risk":0,"migraine_risk":4,"frizz_risk":1,"updated_at":"2026-05-30T12:18:42.686058+05:30"},{"city":"Thrissur","state":"Kerala","latitude":10.5276,"longitude":76.2144,"temp":28.9,"humidity":79,"rain":0.1,"pressure":1009.0,"uv_index":8.1,"wind_gusts":34.2,"aqi":38,"pm10":7.8,"pm2_5":6.1,"no2":1.9,"co":125.0,"o3":80.0,"so2":2.6,"mosquito_risk":10,"arthritis_risk":0,"migraine_risk":4,"frizz_risk":1,"updated_at":"2026-05-30T12:18:42.686066+05:30"},{"city":"Kannur","state":"Kerala","latitude":11.8745,"longitude":75.3704,"temp":30.5,"humidity":71,"rain":0.0,"pressure":1008.7,"uv_index":8.35,"wind_gusts":36.0,"aqi":28,"pm10":6.8,"pm2_5":4.6,"no2":1.1,"co":128.0,"o3":76.0,"so2":1.1,"mosquito_risk":3,"arthritis_risk":0,"migraine_risk":4,"frizz_risk":1,"updated_at":"2026-05-30T12:18:42.686073+05:30"},{"city":"Patna","state":"Bihar","latitude":25.5941,"longitude":85.1376,"temp":31.7,"humidity":54,"rain":0.0,"pressure":999.8,"uv_index":8.7,"wind_gusts":32.4,"aqi":111,"pm10":68.7,"pm2_5":50.3,"no2":2.5,"co":293.0,"o3":184.0,"so2":20.1,"mosquito_risk":0,"arthritis_risk":5,"migraine_risk":7,"frizz_risk":1,"updated_at":"2026-05-30T12:18:42.686080+05:30"},{"city":"Gaya","state":"Bihar","latitude":24.7914,"longitude":85.0002,"temp":32.8,"humidity":49,"rain":0.0,"pressure":992.9,"uv_index":8.8,"wind_gusts":26.6,"aqi":109,"pm10":61.2,"pm2_5":48.4,"no2":2.6,"co":400.0,"o3":186.0,"so2":21.5,"mosquito_risk":0,"arthritis_risk":5,"migraine_risk":7,"frizz_risk":1,"updated_at":"2026-05-30T12:18:42.686086+05:30"},{"city":"Muzaffarpur","state":"Bihar","latitude":26.1209,"longitude":85.3647,"temp":31.2,"humidity":56,"rain":0.0,"pressure":999.9,"uv_index":8.2,"wind_gusts":42.8,"aqi":113,"pm10":76.1,"pm2_5":55.9,"no2":2.8,"co":282.0,"o3":197.0,"so2":24.7,"mosquito_risk":0,"arthritis_risk":5,"migraine_risk":7,"frizz_risk":1,"updated_at":"2026-05-30T12:18:42.686093+05:30"},{"city":"Bhagalpur","state":"Bihar","latitude":25.2425,"longitude":87.0117,"temp":31.8,"humidity":58,"rain":0.0,"pressure":1001.1,"uv_index":8.7,"wind_gusts":29.9,"aqi":141,"pm10":107.8,"pm2_5":60.8,"no2":3.9,"co":258.0,"o3":222.0,"so2":36.8,"mosquito_risk":0,"arthritis_risk":5,"migraine_risk":4,"frizz_risk":1,"updated_at":"2026-05-30T12:18:42.686100+05:30"},{"city":"Ranchi","state":"Jharkhand","latitude":23.3441,"longitude":85.3096,"temp":30.1,"humidity":60,"rain":0.0,"pressure":937.5,"uv_index":9.25,"wind_gusts":31.7,"aqi":135,"pm10":47.5,"pm2_5":31.8,"no2":1.5,"co":259.0,"o3":151.0,"so2":10.6,"mosquito_risk":0,"arthritis_risk":5,"migraine_risk":7,"frizz_risk":1,"updated_at":"2026-05-30T12:18:42.686107+05:30"},{"city":"Jamshedpur","state":"Jharkhand","latitude":22.8046,"longitude":86.2029,"temp":32.0,"humidity":59,"rain":0.0,"pressure":990.3,"uv_index":9.0,"wind_gusts":37.1,"aqi":117,"pm10":45.6,"pm2_5":28.5,"no2":3.3,"co":296.0,"o3":146.0,"so2":16.9,"mosquito_risk":0,"arthritis_risk":5,"migraine_risk":7,"frizz_risk":1,"updated_at":"2026-05-30T12:18:42.686115+05:30"},{"city":"Dhanbad","state":"Jharkhand","latitude":23.7957,"longitude":86.4304,"temp":31.5,"humidity":59,"rain":0.0,"pressure":979.5,"uv_index":9.05,"wind_gusts":29.2,"aqi":156,"pm10":77.3,"pm2_5":54.1,"no2":25.1,"co":402.0,"o3":141.0,"so2":73.4,"mosquito_risk":0,"arthritis_risk":5,"migraine_risk":7,"frizz_risk":1,"updated_at":"2026-05-30T12:18:42.686123+05:30"},{"city":"Bokaro","state":"Jharkhand","latitude":23.6693,"longitude":86.1511,"temp":31.6,"humidity":60,"rain":0.0,"pressure":983.1,"uv_index":9.05,"wind_gusts":31.3,"aqi":156,"pm10":61.0,"pm2_5":47.5,"no2":25.3,"co":981.0,"o3":136.0,"so2":79.2,"mosquito_risk":0,"arthritis_risk":5,"migraine_risk":7,"frizz_risk":1,"updated_at":"2026-05-30T12:18:42.686129+05:30"},{"city":"Bhubaneswar","state":"Odisha","latitude":20.2961,"longitude":85.8245,"temp":34.2,"humidity":62,"rain":0.0,"pressure":1000.2,"uv_index":9.05,"wind_gusts":40.3,"aqi":110,"pm10":48.0,"pm2_5":29.1,"no2":1.5,"co":239.0,"o3":140.0,"so2":5.1,"mosquito_risk":3,"arthritis_risk":5,"migraine_risk":4,"frizz_risk":1,"updated_at":"2026-05-30T12:18:42.686136+05:30"},{"city":"Cuttack","state":"Odisha","latitude":20.4625,"longitude":85.8828,"temp":34.7,"humidity":60,"rain":0.0,"pressure":1002.1,"uv_index":9.1,"wind_gusts":38.5,"aqi":110,"pm10":48.0,"pm2_5":29.1,"no2":1.5,"co":246.0,"o3":140.0,"so2":5.1,"mosquito_risk":0,"arthritis_risk":5,"migraine_risk":4,"frizz_risk":1,"updated_at":"2026-05-30T12:18:42.686143+05:30"},{"city":"Rourkela","state":"Odisha","latitude":22.2604,"longitude":84.8536,"temp":29.5,"humidity":71,"rain":0.0,"pressure":983.5,"uv_index":8.95,"wind_gusts":30.6,"aqi":146,"pm10":60.1,"pm2_5":36.8,"no2":2.2,"co":568.0,"o3":170.0,"so2":15.7,"mosquito_risk":7,"arthritis_risk":5,"migraine_risk":7,"frizz_risk":1,"updated_at":"2026-05-30T12:18:42.686150+05:30"},{"city":"Raipur","state":"Chhattisgarh","latitude":21.2514,"longitude":81.6296,"temp":37.8,"humidity":39,"rain":0.0,"pressure":972.2,"uv_index":8.95,"wind_gusts":50.0,"aqi":142,"pm10":56.6,"pm2_5":45.5,"no2":11.1,"co":292.0,"o3":195.0,"so2":38.8,"mosquito_risk":0,"arthritis_risk":5,"migraine_risk":10,"frizz_risk":1,"updated_at":"2026-05-30T12:18:42.686156+05:30"},{"city":"Bhilai","state":"Chhattisgarh","latitude":21.1938,"longitude":81.3509,"temp":37.2,"humidity":39,"rain":0.0,"pressure":972.6,"uv_index":8.95,"wind_gusts":41.0,"aqi":127,"pm10":52.4,"pm2_5":40.2,"no2":12.8,"co":270.0,"o3":168.0,"so2":40.9,"mosquito_risk":0,"arthritis_risk":5,"migraine_risk":10,"frizz_risk":1,"updated_at":"2026-05-30T12:18:42.686163+05:30"},{"city":"Guwahati","state":"Assam","latitude":26.1158,"longitude":91.7086,"temp":33.7,"humidity":55,"rain":0.0,"pressure":999.8,"uv_index":8.7,"wind_gusts":20.9,"aqi":93,"pm10":47.0,"pm2_5":25.0,"no2":1.1,"co":290.0,"o3":140.0,"so2":3.5,"mosquito_risk":0,"arthritis_risk":5,"migraine_risk":7,"frizz_risk":1,"updated_at":"2026-05-30T12:18:42.686170+05:30"},{"city":"Agartala","state":"Tripura","latitude":23.8315,"longitude":91.2868,"temp":33.0,"humidity":56,"rain":0.0,"pressure":1004.7,"uv_index":8.85,"wind_gusts":19.4,"aqi":154,"pm10":83.4,"pm2_5":48.5,"no2":4.1,"co":267.0,"o3":221.0,"so2":12.3,"mosquito_risk":0,"arthritis_risk":5,"migraine_risk":4,"frizz_risk":1,"updated_at":"2026-05-30T12:18:42.686178+05:30"},{"city":"Shillong","state":"Meghalaya","latitude":25.5788,"longitude":91.8933,"temp":27.1,"humidity":41,"rain":0.0,"pressure":859.5,"uv_index":8.05,"wind_gusts":29.5,"aqi":80,"pm10":79.9,"pm2_5":27.4,"no2":0.8,"co":210.0,"o3":136.0,"so2":3.9,"mosquito_risk":4,"arthritis_risk":5,"migraine_risk":7,"frizz_risk":0,"updated_at":"2026-05-30T12:18:42.686186+05:30"},{"city":"Imphal","state":"Manipur","latitude":24.817,"longitude":93.9368,"temp":28.4,"humidity":66,"rain":0.1,"pressure":923.2,"uv_index":8.9,"wind_gusts":23.4,"aqi":124,"pm10":69.4,"pm2_5":27.5,"no2":1.6,"co":232.0,"o3":99.0,"so2":2.4,"mosquito_risk":10,"arthritis_risk":5,"migraine_risk":7,"frizz_risk":1,"updated_at":"2026-05-30T12:18:42.686194+05:30"},{"city":"Aizawl","state":"Mizoram","latitude":23.7271,"longitude":92.7176,"temp":26.6,"humidity":63,"rain":0.1,"pressure":892.7,"uv_index":9.1,"wind_gusts":21.6,"aqi":73,"pm10":41.3,"pm2_5":20.0,"no2":1.0,"co":229.0,"o3":122.0,"so2":3.2,"mosquito_risk":10,"arthritis_risk":5,"migraine_risk":7,"frizz_risk":1,"updated_at":"2026-05-30T12:18:42.686201+05:30"},{"city":"Kohima","state":"Nagaland","latitude":25.6701,"longitude":94.1077,"temp":24.0,"humidity":69,"rain":0.0,"pressure":857.0,"uv_index":8.0,"wind_gusts":28.1,"aqi":90,"pm10":43.4,"pm2_5":22.9,"no2":1.1,"co":209.0,"o3":111.0,"so2":1.9,"mosquito_risk":3,"arthritis_risk":5,"migraine_risk":7,"frizz_risk":1,"updated_at":"2026-05-30T12:18:42.686208+05:30"},{"city":"Gangtok","state":"Sikkim","latitude":27.3314,"longitude":88.6138,"temp":23.0,"humidity":52,"rain":0.1,"pressure":841.2,"uv_index":9.15,"wind_gusts":31.7,"aqi":64,"pm10":24.3,"pm2_5":13.5,"no2":0.7,"co":190.0,"o3":123.0,"so2":1.5,"mosquito_risk":3,"arthritis_risk":5,"migraine_risk":7,"frizz_risk":0,"updated_at":"2026-05-30T12:18:42.686215+05:30"},{"city":"Siliguri","state":"West Bengal","latitude":26.7271,"longitude":88.3953,"temp":30.7,"humidity":68,"rain":0.1,"pressure":993.2,"uv_index":8.65,"wind_gusts":50.4,"aqi":108,"pm10":48.1,"pm2_5":23.3,"no2":1.6,"co":386.0,"o3":157.0,"so2":3.3,"mosquito_risk":6,"arthritis_risk":5,"migraine_risk":7,"frizz_risk":1,"updated_at":"2026-05-30T12:18:45.911940+05:30"},{"city":"Durgapur","state":"West Bengal","latitude":23.5204,"longitude":87.3119,"temp":31.3,"humidity":66,"rain":0.0,"pressure":994.8,"uv_index":8.95,"wind_gusts":37.1,"aqi":162,"pm10":87.3,"pm2_5":57.2,"no2":10.8,"co":274.0,"o3":185.0,"so2":40.2,"mosquito_risk":3,"arthritis_risk":5,"migraine_risk":7,"frizz_risk":1,"updated_at":"2026-05-30T12:18:45.911993+05:30"},{"city":"Asansol","state":"West Bengal","latitude":23.6739,"longitude":86.9524,"temp":30.5,"humidity":66,"rain":0.0,"pressure":993.5,"uv_index":9.0,"wind_gusts":34.9,"aqi":157,"pm10":85.2,"pm2_5":54.4,"no2":12.3,"co":491.0,"o3":166.0,"so2":42.0,"mosquito_risk":3,"arthritis_risk":5,"migraine_risk":7,"frizz_risk":1,"updated_at":"2026-05-30T12:18:45.912005+05:30"},{"city":"Pondicherry","state":"Puducherry","latitude":11.9139,"longitude":79.8145,"temp":34.8,"humidity":54,"rain":0.0,"pressure":1007.6,"uv_index":8.9,"wind_gusts":40.0,"aqi":65,"pm10":30.3,"pm2_5":24.7,"no2":5.5,"co":197.0,"o3":157.0,"so2":12.0,"mosquito_risk":0,"arthritis_risk":5,"migraine_risk":4,"frizz_risk":1,"updated_at":"2026-05-30T12:18:45.912014+05:30"},{"city":"Port Blair","state":"Andaman and Nicobar Islands","latitude":11.6234,"longitude":92.7265,"temp":28.6,"humidity":83,"rain":0.1,"pressure":1006.3,"uv_index":8.7,"wind_gusts":35.3,"aqi":35,"pm10":9.4,"pm2_5":5.6,"no2":0.3,"co":115.0,"o3":80.0,"so2":0.5,"mosquito_risk":10,"arthritis_risk":5,"migraine_risk":4,"frizz_risk":1,"updated_at":"2026-05-30T12:18:45.912023+05:30"},{"city":"Haridwar","state":"Uttarakhand","latitude":29.9457,"longitude":78.1642,"temp":27.2,"humidity":66,"rain":0.1,"pressure":975.8,"uv_index":7.45,"wind_gusts":50.0,"aqi":80,"pm10":36.9,"pm2_5":20.8,"no2":1.4,"co":250.0,"o3":174.0,"so2":5.1,"mosquito_risk":10,"arthritis_risk":5,"migraine_risk":7,"frizz_risk":1,"updated_at":"2026-05-30T12:18:45.912031+05:30"},{"city":"Rishikesh","state":"Uttarakhand","latitude":30.0869,"longitude":78.2676,"temp":27.7,"humidity":54,"rain":0.0,"pressure":968.8,"uv_index":7.6,"wind_gusts":43.2,"aqi":84,"pm10":37.8,"pm2_5":18.5,"no2":0.9,"co":250.0,"o3":169.0,"so2":4.0,"mosquito_risk":4,"arthritis_risk":5,"migraine_risk":7,"frizz_risk":1,"updated_at":"2026-05-30T12:18:45.912039+05:30"},{"city":"Nainital","state":"Uttarakhand","latitude":29.3919,"longitude":79.4542,"temp":20.7,"humidity":57,"rain":0.0,"pressure":808.7,"uv_index":7.75,"wind_gusts":26.6,"aqi":63,"pm10":35.6,"pm2_5":17.5,"no2":1.0,"co":227.0,"o3":162.0,"so2":3.0,"mosquito_risk":0,"arthritis_risk":5,"migraine_risk":7,"frizz_risk":0,"updated_at":"2026-05-30T12:18:45.912046+05:30"},{"city":"Mussoorie","state":"Uttarakhand","latitude":30.4599,"longitude":78.0664,"temp":17.7,"humidity":64,"rain":0.1,"pressure":805.7,"uv_index":7.9,"wind_gusts":43.6,"aqi":83,"pm10":44.9,"pm2_5":18.7,"no2":1.1,"co":278.0,"o3":173.0,"so2":4.3,"mosquito_risk":6,"arthritis_risk":5,"migraine_risk":7,"frizz_risk":0,"updated_at":"2026-05-30T12:18:45.912054+05:30"},{"city":"Dharamshala","state":"Himachal Pradesh","latitude":32.219,"longitude":76.3234,"temp":23.3,"humidity":47,"rain":0.0,"pressure":871.0,"uv_index":6.6,"wind_gusts":41.0,"aqi":64,"pm10":42.8,"pm2_5":16.2,"no2":0.7,"co":236.0,"o3":156.0,"so2":2.9,"mosquito_risk":0,"arthritis_risk":5,"migraine_risk":7,"frizz_risk":0,"updated_at":"2026-05-30T12:18:45.912062+05:30"},{"city":"Dalhousie","state":"Himachal Pradesh","latitude":32.5387,"longitude":75.971,"temp":17.1,"humidity":67,"rain":0.0,"pressure":806.5,"uv_index":8.0,"wind_gusts":33.8,"aqi":102,"pm10":83.8,"pm2_5":29.2,"no2":1.5,"co":263.0,"o3":184.0,"so2":8.9,"mosquito_risk":3,"arthritis_risk":5,"migraine_risk":7,"frizz_risk":0,"updated_at":"2026-05-30T12:18:45.912070+05:30"},{"city":"Patiala","state":"Punjab","latitude":30.3398,"longitude":76.3869,"temp":31.0,"humidity":52,"rain":0.0,"pressure":979.0,"uv_index":7.55,"wind_gusts":41.0,"aqi":1281,"pm10":1534.8,"pm2_5":181.1,"no2":1.9,"co":265.0,"o3":173.0,"so2":11.6,"mosquito_risk":0,"arthritis_risk":5,"migraine_risk":7,"frizz_risk":1,"updated_at":"2026-05-30T12:18:45.912077+05:30"},{"city":"Bhatinda","state":"Punjab","latitude":30.211,"longitude":74.9455,"temp":34.2,"humidity":37,"rain":0.0,"pressure":983.4,"uv_index":8.2,"wind_gusts":49.0,"aqi":1010,"pm10":1460.3,"pm2_5":256.1,"no2":2.9,"co":285.0,"o3":161.0,"so2":14.5,"mosquito_risk":0,"arthritis_risk":5,"migraine_risk":7,"frizz_risk":1,"updated_at":"2026-05-30T12:18:45.912085+05:30"},{"city":"Rohtak","state":"Haryana","latitude":28.8955,"longitude":76.6066,"temp":32.3,"humidity":44,"rain":0.1,"pressure":982.3,"uv_index":7.65,"wind_gusts":38.5,"aqi":749,"pm10":1005.8,"pm2_5":143.0,"no2":4.0,"co":353.0,"o3":186.0,"so2":16.3,"mosquito_risk":3,"arthritis_risk":5,"migraine_risk":7,"frizz_risk":1,"updated_at":"2026-05-30T12:18:45.912093+05:30"},{"city":"Panipat","state":"Haryana","latitude":29.3909,"longitude":76.9635,"temp":30.9,"humidity":53,"rain":0.0,"pressure":981.9,"uv_index":7.5,"wind_gusts":37.4,"aqi":1522,"pm10":1832.8,"pm2_5":207.2,"no2":4.0,"co":286.0,"o3":188.0,"so2":20.0,"mosquito_risk":0,"arthritis_risk":5,"migraine_risk":7,"frizz_risk":1,"updated_at":"2026-05-30T12:18:45.912100+05:30"},{"city":"Mathura","state":"Uttar Pradesh","latitude":27.4924,"longitude":77.6737,"temp":33.2,"humidity":45,"rain":0.0,"pressure":986.0,"uv_index":7.9,"wind_gusts":46.4,"aqi":305,"pm10":849.4,"pm2_5":101.0,"no2":1.7,"co":287.0,"o3":158.0,"so2":5.1,"mosquito_risk":0,"arthritis_risk":5,"migraine_risk":7,"frizz_risk":1,"updated_at":"2026-05-30T12:18:45.912107+05:30"},{"city":"Vrindavan","state":"Uttar Pradesh","latitude":27.5823,"longitude":77.7027,"temp":33.3,"humidity":46,"rain":0.0,"pressure":986.4,"uv_index":7.9,"wind_gusts":45.4,"aqi":305,"pm10":849.4,"pm2_5":101.0,"no2":1.7,"co":288.0,"o3":158.0,"so2":5.1,"mosquito_risk":0,"arthritis_risk":5,"migraine_risk":7,"frizz_risk":1,"updated_at":"2026-05-30T12:18:45.912114+05:30"},{"city":"Ayodhya","state":"Uttar Pradesh","latitude":26.7922,"longitude":82.1998,"temp":31.0,"humidity":56,"rain":0.1,"pressure":995.3,"uv_index":8.25,"wind_gusts":36.7,"aqi":81,"pm10":31.0,"pm2_5":22.4,"no2":1.7,"co":331.0,"o3":168.0,"so2":6.7,"mosquito_risk":3,"arthritis_risk":5,"migraine_risk":7,"frizz_risk":1,"updated_at":"2026-05-30T12:18:45.912121+05:30"},{"city":"Ratlam","state":"Madhya Pradesh","latitude":23.3315,"longitude":75.0367,"temp":35.8,"humidity":38,"rain":0.0,"pressure":953.5,"uv_index":8.45,"wind_gusts":58.7,"aqi":76,"pm10":72.9,"pm2_5":28.2,"no2":0.7,"co":119.0,"o3":81.0,"so2":3.7,"mosquito_risk":0,"arthritis_risk":5,"migraine_risk":10,"frizz_risk":1,"updated_at":"2026-05-30T12:18:45.912130+05:30"},{"city":"Sagar","state":"Madhya Pradesh","latitude":23.8388,"longitude":78.7378,"temp":35.1,"humidity":32,"rain":0.0,"pressure":949.4,"uv_index":8.7,"wind_gusts":33.8,"aqi":74,"pm10":34.0,"pm2_5":15.3,"no2":0.8,"co":187.0,"o3":141.0,"so2":4.6,"mosquito_risk":0,"arthritis_risk":5,"migraine_risk":10,"frizz_risk":1,"updated_at":"2026-05-30T12:18:45.912137+05:30"},{"city":"Satna","state":"Madhya Pradesh","latitude":24.6005,"longitude":80.8322,"temp":34.5,"humidity":38,"rain":0.0,"pressure":970.3,"uv_index":8.75,"wind_gusts":34.9,"aqi":84,"pm10":49.9,"pm2_5":19.2,"no2":1.0,"co":244.0,"o3":152.0,"so2":4.2,"mosquito_risk":0,"arthritis_risk":5,"migraine_risk":7,"frizz_risk":1,"updated_at":"2026-05-30T12:18:45.912144+05:30"},{"city":"Akola","state":"Maharashtra","latitude":20.7002,"longitude":77.0082,"temp":36.5,"humidity":37,"rain":0.0,"pressure":974.3,"uv_index":8.8,"wind_gusts":48.2,"aqi":66,"pm10":54.6,"pm2_5":26.0,"no2":1.5,"co":121.0,"o3":93.0,"so2":5.9,"mosquito_risk":0,"arthritis_risk":5,"migraine_risk":10,"frizz_risk":1,"updated_at":"2026-05-30T12:18:45.912152+05:30"},{"city":"Amravati","state":"Maharashtra","latitude":20.9374,"longitude":77.7796,"temp":36.0,"humidity":40,"rain":0.0,"pressure":966.4,"uv_index":8.8,"wind_gusts":49.3,"aqi":65,"pm10":52.9,"pm2_5":26.7,"no2":1.7,"co":134.0,"o3":96.0,"so2":7.3,"mosquito_risk":0,"arthritis_risk":5,"migraine_risk":10,"frizz_risk":1,"updated_at":"2026-05-30T12:18:45.912160+05:30"},{"city":"Latur","state":"Maharashtra","latitude":18.4088,"longitude":76.5604,"temp":35.2,"humidity":37,"rain":0.0,"pressure":941.0,"uv_index":8.95,"wind_gusts":38.9,"aqi":52,"pm10":27.4,"pm2_5":14.0,"no2":1.0,"co":131.0,"o3":94.0,"so2":2.1,"mosquito_risk":0,"arthritis_risk":5,"migraine_risk":10,"frizz_risk":1,"updated_at":"2026-05-30T12:18:45.912166+05:30"},{"city":"Nanded","state":"Maharashtra","latitude":19.1383,"longitude":77.3091,"temp":37.6,"humidity":27,"rain":0.0,"pressure":968.6,"uv_index":8.85,"wind_gusts":39.6,"aqi":68,"pm10":59.0,"pm2_5":27.1,"no2":1.4,"co":163.0,"o3":109.0,"so2":5.2,"mosquito_risk":0,"arthritis_risk":5,"migraine_risk":10,"frizz_risk":0,"updated_at":"2026-05-30T12:18:45.912173+05:30"},{"city":"Gulbarga","state":"Karnataka","latitude":17.3297,"longitude":76.8343,"temp":37.2,"humidity":29,"rain":0.0,"pressure":959.4,"uv_index":8.75,"wind_gusts":40.3,"aqi":50,"pm10":19.8,"pm2_5":11.7,"no2":1.5,"co":145.0,"o3":102.0,"so2":2.4,"mosquito_risk":0,"arthritis_risk":5,"migraine_risk":10,"frizz_risk":1,"updated_at":"2026-05-30T12:18:45.912179+05:30"},{"city":"Bidar","state":"Karnataka","latitude":17.9104,"longitude":77.5199,"temp":35.1,"humidity":32,"rain":0.0,"pressure":936.5,"uv_index":8.9,"wind_gusts":40.0,"aqi":59,"pm10":41.1,"pm2_5":20.8,"no2":1.6,"co":147.0,"o3":109.0,"so2":4.5,"mosquito_risk":0,"arthritis_risk":5,"migraine_risk":10,"frizz_risk":1,"updated_at":"2026-05-30T12:18:45.912186+05:30"},{"city":"Hospet","state":"Karnataka","latitude":15.2689,"longitude":76.3909,"temp":33.5,"humidity":53,"rain":0.0,"pressure":956.8,"uv_index":8.95,"wind_gusts":44.3,"aqi":48,"pm10":13.2,"pm2_5":8.6,"no2":1.4,"co":137.0,"o3":89.0,"so2":2.1,"mosquito_risk":0,"arthritis_risk":5,"migraine_risk":7,"frizz_risk":1,"updated_at":"2026-05-30T12:18:45.912193+05:30"},{"city":"Tirupur","state":"Tamil Nadu","latitude":11.1085,"longitude":77.3411,"temp":37.5,"humidity":36,"rain":0.0,"pressure":975.6,"uv_index":9.0,"wind_gusts":52.6,"aqi":36,"pm10":9.3,"pm2_5":6.7,"no2":1.8,"co":144.0,"o3":103.0,"so2":2.3,"mosquito_risk":0,"arthritis_risk":5,"migraine_risk":10,"frizz_risk":1,"updated_at":"2026-05-30T12:18:45.912200+05:30"},{"city":"Alappuzha","state":"Kerala","latitude":9.4981,"longitude":76.3388,"temp":28.1,"humidity":79,"rain":0.0,"pressure":1011.0,"uv_index":8.0,"wind_gusts":33.5,"aqi":28,"pm10":7.2,"pm2_5":5.2,"no2":1.7,"co":104.0,"o3":79.0,"so2":1.7,"mosquito_risk":7,"arthritis_risk":0,"migraine_risk":4,"frizz_risk":1,"updated_at":"2026-05-30T12:18:45.912206+05:30"},{"city":"Munnar","state":"Kerala","latitude":10.0889,"longitude":77.0595,"temp":21.0,"humidity":82,"rain":0.1,"pressure":859.6,"uv_index":7.0,"wind_gusts":28.4,"aqi":19,"pm10":5.7,"pm2_5":3.9,"no2":1.0,"co":114.0,"o3":72.0,"so2":1.0,"mosquito_risk":6,"arthritis_risk":5,"migraine_risk":7,"frizz_risk":1,"updated_at":"2026-05-30T12:18:45.912213+05:30"},{"city":"Silchar","state":"Assam","latitude":24.8333,"longitude":92.7789,"temp":32.2,"humidity":67,"rain":0.0,"pressure":1003.3,"uv_index":7.8,"wind_gusts":20.9,"aqi":134,"pm10":68.2,"pm2_5":36.3,"no2":1.7,"co":373.0,"o3":178.0,"so2":8.6,"mosquito_risk":3,"arthritis_risk":5,"migraine_risk":4,"frizz_risk":1,"updated_at":"2026-05-30T12:18:45.912220+05:30"},{"city":"Dibrugarh","state":"Assam","latitude":27.4728,"longitude":94.912,"temp":32.2,"humidity":61,"rain":0.0,"pressure":993.9,"uv_index":2.1,"wind_gusts":20.2,"aqi":114,"pm10":43.5,"pm2_5":27.7,"no2":1.4,"co":315.0,"o3":155.0,"so2":3.4,"mosquito_risk":3,"arthritis_risk":5,"migraine_risk":3,"frizz_risk":1,"updated_at":"2026-05-30T12:18:45.912226+05:30"}]