[{"city":"Delhi","state":"Delhi","latitude":28.6139,"longitude":77.209,"temp":31.2,"humidity":68,"rain":0.0,"pressure":975.2,"uv_index":7.7,"wind_gusts":28.4,"aqi":164,"pm10":211.9,"pm2_5":83.1,"no2":42.5,"co":878.0,"o3":106.0,"so2":37.4,"mosquito_risk":3,"arthritis_risk":5,"migraine_risk":7,"frizz_risk":1,"updated_at":"2026-07-11T09:04:04.559451+05:30"},{"city":"Mumbai","state":"Maharashtra","latitude":19.076,"longitude":72.8777,"temp":28.2,"humidity":81,"rain":0.0,"pressure":1008.5,"uv_index":5.7,"wind_gusts":52.9,"aqi":58,"pm10":33.1,"pm2_5":13.7,"no2":6.5,"co":163.0,"o3":44.0,"so2":4.8,"mosquito_risk":7,"arthritis_risk":0,"migraine_risk":0,"frizz_risk":1,"updated_at":"2026-07-11T09:04:04.559490+05:30"},{"city":"Bangalore","state":"Karnataka","latitude":12.9716,"longitude":77.5946,"temp":24.1,"humidity":70,"rain":0.0,"pressure":913.4,"uv_index":7.9,"wind_gusts":46.8,"aqi":39,"pm10":17.9,"pm2_5":8.6,"no2":9.3,"co":322.0,"o3":32.0,"so2":3.9,"mosquito_risk":3,"arthritis_risk":5,"migraine_risk":7,"frizz_risk":1,"updated_at":"2026-07-11T09:04:04.559504+05:30"},{"city":"Hyderabad","state":"Telangana","latitude":17.385,"longitude":78.4867,"temp":27.9,"humidity":62,"rain":0.0,"pressure":953.1,"uv_index":8.7,"wind_gusts":47.2,"aqi":66,"pm10":24.7,"pm2_5":11.7,"no2":5.3,"co":233.0,"o3":40.0,"so2":4.3,"mosquito_risk":7,"arthritis_risk":5,"migraine_risk":7,"frizz_risk":1,"updated_at":"2026-07-11T09:04:04.559514+05:30"},{"city":"Chennai","state":"Tamil Nadu","latitude":13.0827,"longitude":80.2707,"temp":31.7,"humidity":60,"rain":0.0,"pressure":1007.1,"uv_index":8.05,"wind_gusts":33.8,"aqi":67,"pm10":24.8,"pm2_5":17.9,"no2":16.2,"co":377.0,"o3":53.0,"so2":11.5,"mosquito_risk":0,"arthritis_risk":5,"migraine_risk":4,"frizz_risk":1,"updated_at":"2026-07-11T09:04:04.559522+05:30"},{"city":"Kolkata","state":"West Bengal","latitude":22.5726,"longitude":88.3639,"temp":30.0,"humidity":80,"rain":0.0,"pressure":1000.4,"uv_index":8.4,"wind_gusts":33.8,"aqi":92,"pm10":49.0,"pm2_5":38.3,"no2":10.6,"co":503.0,"o3":87.0,"so2":15.3,"mosquito_risk":7,"arthritis_risk":5,"migraine_risk":4,"frizz_risk":1,"updated_at":"2026-07-11T09:04:04.559529+05:30"},{"city":"Pune","state":"Maharashtra","latitude":18.5204,"longitude":73.8567,"temp":25.4,"humidity":81,"rain":0.0,"pressure":947.8,"uv_index":7.3,"wind_gusts":57.2,"aqi":34,"pm10":17.9,"pm2_5":7.3,"no2":4.6,"co":145.0,"o3":43.0,"so2":4.4,"mosquito_risk":7,"arthritis_risk":5,"migraine_risk":7,"frizz_risk":1,"updated_at":"2026-07-11T09:04:04.559536+05:30"},{"city":"Ahmedabad","state":"Gujarat","latitude":23.0225,"longitude":72.5714,"temp":29.2,"humidity":74,"rain":0.0,"pressure":998.2,"uv_index":5.95,"wind_gusts":50.8,"aqi":71,"pm10":28.6,"pm2_5":13.1,"no2":4.8,"co":136.0,"o3":41.0,"so2":4.2,"mosquito_risk":7,"arthritis_risk":5,"migraine_risk":3,"frizz_risk":1,"updated_at":"2026-07-11T09:04:04.559542+05:30"},{"city":"Jaipur","state":"Rajasthan","latitude":26.9124,"longitude":75.7873,"temp":28.6,"humidity":68,"rain":0.0,"pressure":953.7,"uv_index":8.15,"wind_gusts":36.0,"aqi":476,"pm10":618.4,"pm2_5":103.4,"no2":3.6,"co":148.0,"o3":60.0,"so2":4.2,"mosquito_risk":7,"arthritis_risk":5,"migraine_risk":7,"frizz_risk":1,"updated_at":"2026-07-11T09:04:04.559553+05:30"},{"city":"Lucknow","state":"Uttar Pradesh","latitude":26.8467,"longitude":80.9462,"temp":30.6,"humidity":74,"rain":0.0,"pressure":985.6,"uv_index":7.7,"wind_gusts":52.2,"aqi":135,"pm10":85.9,"pm2_5":47.7,"no2":12.0,"co":230.0,"o3":75.0,"so2":9.8,"mosquito_risk":3,"arthritis_risk":5,"migraine_risk":7,"frizz_risk":1,"updated_at":"2026-07-11T09:04:04.559566+05:30"},{"city":"Kanpur","state":"Uttar Pradesh","latitude":26.4499,"longitude":80.3319,"temp":31.8,"humidity":63,"rain":0.0,"pressure":984.3,"uv_index":7.1,"wind_gusts":46.8,"aqi":117,"pm10":93.6,"pm2_5":38.5,"no2":8.1,"co":171.0,"o3":76.0,"so2":8.2,"mosquito_risk":3,"arthritis_risk":5,"migraine_risk":7,"frizz_risk":1,"updated_at":"2026-07-11T09:04:04.559573+05:30"},{"city":"Chandigarh","state":"Chandigarh","latitude":30.7333,"longitude":76.7794,"temp":27.8,"humidity":84,"rain":0.0,"pressure":961.2,"uv_index":7.7,"wind_gusts":25.2,"aqi":123,"pm10":40.7,"pm2_5":31.3,"no2":12.7,"co":464.0,"o3":101.0,"so2":12.9,"mosquito_risk":7,"arthritis_risk":5,"migraine_risk":7,"frizz_risk":1,"updated_at":"2026-07-11T09:04:04.559580+05:30"},{"city":"Srinagar","state":"Jammu and Kashmir","latitude":34.0837,"longitude":74.7973,"temp":26.0,"humidity":54,"rain":0.0,"pressure":837.3,"uv_index":9.05,"wind_gusts":32.0,"aqi":89,"pm10":40.9,"pm2_5":33.3,"no2":6.8,"co":629.0,"o3":134.0,"so2":5.4,"mosquito_risk":4,"arthritis_risk":5,"migraine_risk":7,"frizz_risk":0,"updated_at":"2026-07-11T09:04:04.559586+05:30"},{"city":"Jammu","state":"Jammu and Kashmir","latitude":32.7266,"longitude":74.857,"temp":28.3,"humidity":79,"rain":0.0,"pressure":964.8,"uv_index":8.55,"wind_gusts":22.7,"aqi":158,"pm10":55.5,"pm2_5":46.4,"no2":11.6,"co":392.0,"o3":126.0,"so2":4.1,"mosquito_risk":7,"arthritis_risk":5,"migraine_risk":7,"frizz_risk":1,"updated_at":"2026-07-11T09:04:04.559592+05:30"},{"city":"Amritsar","state":"Punjab","latitude":31.634,"longitude":74.8723,"temp":27.9,"humidity":84,"rain":0.0,"pressure":972.4,"uv_index":8.45,"wind_gusts":28.4,"aqi":156,"pm10":114.3,"pm2_5":49.2,"no2":7.9,"co":446.0,"o3":109.0,"so2":3.2,"mosquito_risk":7,"arthritis_risk":5,"migraine_risk":7,"frizz_risk":1,"updated_at":"2026-07-11T09:04:04.559598+05:30"},{"city":"Ludhiana","state":"Punjab","latitude":30.901,"longitude":75.8573,"temp":28.1,"humidity":84,"rain":0.1,"pressure":970.9,"uv_index":7.65,"wind_gusts":31.0,"aqi":147,"pm10":97.3,"pm2_5":43.8,"no2":11.8,"co":514.0,"o3":93.0,"so2":8.3,"mosquito_risk":10,"arthritis_risk":5,"migraine_risk":7,"frizz_risk":1,"updated_at":"2026-07-11T09:04:04.559605+05:30"},{"city":"Jalandhar","state":"Punjab","latitude":31.326,"longitude":75.5762,"temp":26.7,"humidity":94,"rain":0.6,"pressure":971.7,"uv_index":8.15,"wind_gusts":23.8,"aqi":156,"pm10":95.7,"pm2_5":40.4,"no2":7.6,"co":498.0,"o3":105.0,"so2":3.0,"mosquito_risk":10,"arthritis_risk":5,"migraine_risk":7,"frizz_risk":1,"updated_at":"2026-07-11T09:04:04.559611+05:30"},{"city":"Dehradun","state":"Uttarakhand","latitude":30.6284,"longitude":78.0322,"temp":21.6,"humidity":81,"rain":0.0,"pressure":826.5,"uv_index":7.35,"wind_gusts":24.8,"aqi":35,"pm10":8.9,"pm2_5":8.5,"no2":6.6,"co":234.0,"o3":83.0,"so2":1.0,"mosquito_risk":3,"arthritis_risk":5,"migraine_risk":7,"frizz_risk":1,"updated_at":"2026-07-11T09:04:04.559617+05:30"},{"city":"Shimla","state":"Himachal Pradesh","latitude":31.1048,"longitude":77.1734,"temp":18.8,"humidity":77,"rain":0.0,"pressure":781.3,"uv_index":8.2,"wind_gusts":33.8,"aqi":56,"pm10":26.1,"pm2_5":22.6,"no2":5.6,"co":282.0,"o3":128.0,"so2":12.1,"mosquito_risk":3,"arthritis_risk":5,"migraine_risk":7,"frizz_risk":0,"updated_at":"2026-07-11T09:04:04.559623+05:30"},{"city":"Manali","state":"Himachal Pradesh","latitude":32.2396,"longitude":77.1887,"temp":21.3,"humidity":91,"rain":0.0,"pressure":815.3,"uv_index":7.35,"wind_gusts":28.1,"aqi":57,"pm10":17.3,"pm2_5":16.6,"no2":24.6,"co":266.0,"o3":45.0,"so2":0.6,"mosquito_risk":3,"arthritis_risk":5,"migraine_risk":7,"frizz_risk":1,"updated_at":"2026-07-11T09:04:04.559631+05:30"},{"city":"Gurgaon","state":"Haryana","latitude":28.4595,"longitude":77.0266,"temp":31.5,"humidity":62,"rain":0.0,"pressure":973.7,"uv_index":7.7,"wind_gusts":30.6,"aqi":193,"pm10":315.7,"pm2_5":110.6,"no2":37.8,"co":422.0,"o3":82.0,"so2":28.0,"mosquito_risk":3,"arthritis_risk":5,"migraine_risk":7,"frizz_risk":1,"updated_at":"2026-07-11T09:04:04.559637+05:30"},{"city":"Noida","state":"Uttar Pradesh","latitude":28.5355,"longitude":77.391,"temp":31.8,"humidity":67,"rain":0.0,"pressure":976.7,"uv_index":7.7,"wind_gusts":28.1,"aqi":193,"pm10":315.7,"pm2_5":110.6,"no2":37.8,"co":624.0,"o3":82.0,"so2":28.0,"mosquito_risk":3,"arthritis_risk":5,"migraine_risk":7,"frizz_risk":1,"updated_at":"2026-07-11T09:04:04.559643+05:30"},{"city":"Ghaziabad","state":"Uttar Pradesh","latitude":28.6692,"longitude":77.4538,"temp":31.1,"humidity":74,"rain":0.0,"pressure":975.0,"uv_index":7.7,"wind_gusts":30.6,"aqi":125,"pm10":138.3,"pm2_5":54.8,"no2":19.8,"co":383.0,"o3":118.0,"so2":22.4,"mosquito_risk":3,"arthritis_risk":5,"migraine_risk":7,"frizz_risk":1,"updated_at":"2026-07-11T09:04:04.559651+05:30"},{"city":"Faridabad","state":"Haryana","latitude":28.4089,"longitude":77.3178,"temp":31.5,"humidity":66,"rain":0.0,"pressure":976.0,"uv_index":7.75,"wind_gusts":29.2,"aqi":193,"pm10":315.7,"pm2_5":110.6,"no2":37.8,"co":605.0,"o3":82.0,"so2":28.0,"mosquito_risk":3,"arthritis_risk":5,"migraine_risk":7,"frizz_risk":1,"updated_at":"2026-07-11T09:04:04.559657+05:30"},{"city":"Meerut","state":"Uttar Pradesh","latitude":28.9845,"longitude":77.7064,"temp":29.7,"humidity":76,"rain":0.0,"pressure":974.0,"uv_index":7.6,"wind_gusts":31.3,"aqi":125,"pm10":138.3,"pm2_5":54.8,"no2":19.8,"co":433.0,"o3":118.0,"so2":22.4,"mosquito_risk":7,"arthritis_risk":5,"migraine_risk":7,"frizz_risk":1,"updated_at":"2026-07-11T09:04:04.559663+05:30"},{"city":"Agra","state":"Uttar Pradesh","latitude":27.1767,"longitude":78.0081,"temp":31.4,"humidity":63,"rain":0.0,"pressure":980.7,"uv_index":7.95,"wind_gusts":35.6,"aqi":160,"pm10":344.6,"pm2_5":72.4,"no2":7.2,"co":194.0,"o3":73.0,"so2":6.1,"mosquito_risk":3,"arthritis_risk":5,"migraine_risk":7,"frizz_risk":1,"updated_at":"2026-07-11T09:04:04.559670+05:30"},{"city":"Varanasi","state":"Uttar Pradesh","latitude":25.3176,"longitude":82.9739,"temp":29.2,"humidity":79,"rain":0.0,"pressure":990.8,"uv_index":8.0,"wind_gusts":47.5,"aqi":105,"pm10":69.2,"pm2_5":42.0,"no2":9.6,"co":311.0,"o3":69.0,"so2":9.0,"mosquito_risk":7,"arthritis_risk":5,"migraine_risk":7,"frizz_risk":1,"updated_at":"2026-07-11T09:04:04.559676+05:30"},{"city":"Prayagraj","state":"Uttar Pradesh","latitude":25.4358,"longitude":81.8463,"temp":31.9,"humidity":64,"rain":0.0,"pressure":989.2,"uv_index":8.1,"wind_gusts":45.7,"aqi":109,"pm10":59.1,"pm2_5":37.4,"no2":7.0,"co":203.0,"o3":77.0,"so2":8.1,"mosquito_risk":3,"arthritis_risk":5,"migraine_risk":7,"frizz_risk":1,"updated_at":"2026-07-11T09:04:04.559683+05:30"},{"city":"Gorakhpur","state":"Uttar Pradesh","latitude":26.7606,"longitude":83.3732,"temp":29.0,"humidity":84,"rain":0.0,"pressure":990.1,"uv_index":7.5,"wind_gusts":35.6,"aqi":86,"pm10":97.1,"pm2_5":48.0,"no2":8.1,"co":235.0,"o3":89.0,"so2":8.0,"mosquito_risk":7,"arthritis_risk":5,"migraine_risk":7,"frizz_risk":1,"updated_at":"2026-07-11T09:04:04.559689+05:30"},{"city":"Bareilly","state":"Uttar Pradesh","latitude":28.367,"longitude":79.4304,"temp":28.7,"humidity":84,"rain":0.0,"pressure":979.1,"uv_index":6.8,"wind_gusts":29.2,"aqi":99,"pm10":39.2,"pm2_5":31.0,"no2":9.6,"co":347.0,"o3":110.0,"so2":13.0,"mosquito_risk":7,"arthritis_risk":5,"migraine_risk":7,"frizz_risk":1,"updated_at":"2026-07-11T09:04:04.559697+05:30"},{"city":"Aligarh","state":"Uttar Pradesh","latitude":27.8974,"longitude":78.088,"temp":31.2,"humidity":67,"rain":0.0,"pressure":978.1,"uv_index":7.25,"wind_gusts":33.5,"aqi":160,"pm10":229.1,"pm2_5":82.4,"no2":16.8,"co":361.0,"o3":94.0,"so2":13.2,"mosquito_risk":3,"arthritis_risk":5,"migraine_risk":7,"frizz_risk":1,"updated_at":"2026-07-11T09:04:04.559703+05:30"},{"city":"Moradabad","state":"Uttar Pradesh","latitude":28.8386,"longitude":78.7733,"temp":29.6,"humidity":79,"rain":0.0,"pressure":976.3,"uv_index":7.8,"wind_gusts":32.4,"aqi":97,"pm10":42.8,"pm2_5":34.5,"no2":13.3,"co":328.0,"o3":117.0,"so2":26.9,"mosquito_risk":7,"arthritis_risk":5,"migraine_risk":7,"frizz_risk":1,"updated_at":"2026-07-11T09:04:04.559709+05:30"},{"city":"Saharanpur","state":"Uttar Pradesh","latitude":29.9637,"longitude":77.546,"temp":28.5,"humidity":81,"rain":0.0,"pressure":968.3,"uv_index":7.35,"wind_gusts":52.2,"aqi":79,"pm10":27.5,"pm2_5":25.4,"no2":11.4,"co":364.0,"o3":105.0,"so2":7.1,"mosquito_risk":7,"arthritis_risk":5,"migraine_risk":7,"frizz_risk":1,"updated_at":"2026-07-11T09:04:04.559715+05:30"},{"city":"Jhansi","state":"Uttar Pradesh","latitude":25.4484,"longitude":78.5685,"temp":30.7,"humidity":65,"rain":0.0,"pressure":972.4,"uv_index":8.4,"wind_gusts":43.9,"aqi":98,"pm10":49.8,"pm2_5":30.9,"no2":5.6,"co":149.0,"o3":74.0,"so2":11.0,"mosquito_risk":3,"arthritis_risk":5,"migraine_risk":7,"frizz_risk":1,"updated_at":"2026-07-11T09:04:07.787073+05:30"},{"city":"Surat","state":"Gujarat","latitude":21.1702,"longitude":72.8311,"temp":29.3,"humidity":79,"rain":0.0,"pressure":1004.6,"uv_index":5.1,"wind_gusts":65.9,"aqi":64,"pm10":31.0,"pm2_5":16.1,"no2":11.6,"co":259.0,"o3":34.0,"so2":27.2,"mosquito_risk":7,"arthritis_risk":5,"migraine_risk":0,"frizz_risk":1,"updated_at":"2026-07-11T09:04:07.787107+05:30"},{"city":"Vadodara","state":"Gujarat","latitude":22.3072,"longitude":73.1812,"temp":29.0,"humidity":77,"rain":0.0,"pressure":1001.2,"uv_index":7.95,"wind_gusts":55.1,"aqi":65,"pm10":27.7,"pm2_5":13.1,"no2":5.2,"co":151.0,"o3":38.0,"so2":3.7,"mosquito_risk":7,"arthritis_risk":5,"migraine_risk":4,"frizz_risk":1,"updated_at":"2026-07-11T09:04:07.787120+05:30"},{"city":"Rajkot","state":"Gujarat","latitude":22.3039,"longitude":70.8022,"temp":29.5,"humidity":71,"rain":0.0,"pressure":990.7,"uv_index":7.3,"wind_gusts":59.8,"aqi":62,"pm10":28.9,"pm2_5":12.3,"no2":2.7,"co":102.0,"o3":45.0,"so2":3.2,"mosquito_risk":7,"arthritis_risk":5,"migraine_risk":7,"frizz_risk":1,"updated_at":"2026-07-11T09:04:07.787131+05:30"},{"city":"Thane","state":"Maharashtra","latitude":19.2183,"longitude":72.9781,"temp":28.6,"humidity":81,"rain":0.1,"pressure":1007.7,"uv_index":5.8,"wind_gusts":46.4,"aqi":58,"pm10":33.1,"pm2_5":13.7,"no2":6.5,"co":200.0,"o3":44.0,"so2":4.8,"mosquito_risk":10,"arthritis_risk":5,"migraine_risk":0,"frizz_risk":1,"updated_at":"2026-07-11T09:04:07.787140+05:30"},{"city":"Nagpur","state":"Maharashtra","latitude":21.1458,"longitude":79.0882,"temp":28.7,"humidity":68,"rain":0.0,"pressure":971.2,"uv_index":7.5,"wind_gusts":52.2,"aqi":91,"pm10":43.8,"pm2_5":18.6,"no2":7.5,"co":159.0,"o3":46.0,"so2":15.5,"mosquito_risk":7,"arthritis_risk":5,"migraine_risk":7,"frizz_risk":1,"updated_at":"2026-07-11T09:04:07.787151+05:30"},{"city":"Nashik","state":"Maharashtra","latitude":19.9975,"longitude":73.7898,"temp":25.8,"humidity":76,"rain":0.0,"pressure":944.3,"uv_index":7.9,"wind_gusts":63.7,"aqi":40,"pm10":17.1,"pm2_5":7.6,"no2":4.3,"co":122.0,"o3":39.0,"so2":2.6,"mosquito_risk":7,"arthritis_risk":5,"migraine_risk":7,"frizz_risk":1,"updated_at":"2026-07-11T09:04:07.787160+05:30"},{"city":"Aurangabad","state":"Maharashtra","latitude":19.8762,"longitude":75.3433,"temp":25.8,"humidity":75,"rain":0.1,"pressure":942.9,"uv_index":8.9,"wind_gusts":60.1,"aqi":51,"pm10":20.0,"pm2_5":8.1,"no2":4.1,"co":116.0,"o3":43.0,"so2":6.3,"mosquito_risk":10,"arthritis_risk":5,"migraine_risk":7,"frizz_risk":1,"updated_at":"2026-07-11T09:04:07.787169+05:30"},{"city":"Solapur","state":"Maharashtra","latitude":17.6599,"longitude":75.9064,"temp":27.3,"humidity":69,"rain":0.0,"pressure":957.4,"uv_index":8.1,"wind_gusts":50.0,"aqi":48,"pm10":14.9,"pm2_5":6.2,"no2":2.6,"co":112.0,"o3":45.0,"so2":2.1,"mosquito_risk":7,"arthritis_risk":5,"migraine_risk":7,"frizz_risk":1,"updated_at":"2026-07-11T09:04:07.787177+05:30"},{"city":"Kolhapur","state":"Maharashtra","latitude":16.705,"longitude":74.2433,"temp":25.0,"humidity":80,"rain":0.0,"pressure":948.8,"uv_index":7.65,"wind_gusts":53.6,"aqi":35,"pm10":22.1,"pm2_5":8.8,"no2":3.5,"co":136.0,"o3":42.0,"so2":2.2,"mosquito_risk":7,"arthritis_risk":5,"migraine_risk":7,"frizz_risk":1,"updated_at":"2026-07-11T09:04:07.787184+05:30"},{"city":"Goa","state":"Goa","latitude":15.2993,"longitude":74.124,"temp":27.0,"humidity":91,"rain":0.0,"pressure":1000.1,"uv_index":7.6,"wind_gusts":36.4,"aqi":57,"pm10":33.8,"pm2_5":13.4,"no2":1.9,"co":187.0,"o3":44.0,"so2":1.5,"mosquito_risk":7,"arthritis_risk":5,"migraine_risk":4,"frizz_risk":1,"updated_at":"2026-07-11T09:04:07.787192+05:30"},{"city":"Jodhpur","state":"Rajasthan","latitude":26.2389,"longitude":73.0243,"temp":29.0,"humidity":64,"rain":0.0,"pressure":976.5,"uv_index":8.45,"wind_gusts":57.2,"aqi":208,"pm10":222.6,"pm2_5":63.1,"no2":2.2,"co":107.0,"o3":53.0,"so2":2.9,"mosquito_risk":7,"arthritis_risk":5,"migraine_risk":7,"frizz_risk":1,"updated_at":"2026-07-11T09:04:07.787199+05:30"},{"city":"Udaipur","state":"Rajasthan","latitude":24.5854,"longitude":73.7125,"temp":26.2,"humidity":73,"rain":0.0,"pressure":941.5,"uv_index":8.8,"wind_gusts":56.9,"aqi":77,"pm10":35.4,"pm2_5":15.8,"no2":2.6,"co":105.0,"o3":46.0,"so2":3.6,"mosquito_risk":7,"arthritis_risk":5,"migraine_risk":7,"frizz_risk":1,"updated_at":"2026-07-11T09:04:07.787206+05:30"},{"city":"Kota","state":"Rajasthan","latitude":25.2138,"longitude":75.8648,"temp":29.5,"humidity":63,"rain":0.0,"pressure":973.8,"uv_index":8.3,"wind_gusts":41.4,"aqi":92,"pm10":58.6,"pm2_5":26.4,"no2":3.8,"co":127.0,"o3":59.0,"so2":6.4,"mosquito_risk":7,"arthritis_risk":5,"migraine_risk":7,"frizz_risk":1,"updated_at":"2026-07-11T09:04:07.787213+05:30"},{"city":"Bikaner","state":"Rajasthan","latitude":28.0229,"longitude":73.3119,"temp":29.6,"humidity":65,"rain":0.0,"pressure":973.7,"uv_index":8.45,"wind_gusts":41.0,"aqi":158,"pm10":265.4,"pm2_5":86.8,"no2":1.5,"co":108.0,"o3":57.0,"so2":4.8,"mosquito_risk":7,"arthritis_risk":5,"migraine_risk":7,"frizz_risk":1,"updated_at":"2026-07-11T09:04:07.787221+05:30"},{"city":"Ajmer","state":"Rajasthan","latitude":26.4499,"longitude":74.6399,"temp":27.0,"humidity":70,"rain":0.0,"pressure":948.7,"uv_index":8.4,"wind_gusts":52.2,"aqi":88,"pm10":76.6,"pm2_5":30.7,"no2":2.5,"co":114.0,"o3":57.0,"so2":3.4,"mosquito_risk":7,"arthritis_risk":5,"migraine_risk":7,"frizz_risk":1,"updated_at":"2026-07-11T09:04:07.787228+05:30"},{"city":"Gwalior","state":"Madhya Pradesh","latitude":26.2183,"longitude":78.1828,"temp":30.2,"humidity":63,"rain":0.0,"pressure":976.9,"uv_index":8.15,"wind_gusts":42.1,"aqi":95,"pm10":41.4,"pm2_5":27.9,"no2":4.1,"co":147.0,"o3":73.0,"so2":5.1,"mosquito_risk":3,"arthritis_risk":5,"migraine_risk":7,"frizz_risk":1,"updated_at":"2026-07-11T09:04:07.787234+05:30"},{"city":"Indore","state":"Madhya Pradesh","latitude":22.7196,"longitude":75.8577,"temp":26.3,"humidity":74,"rain":0.0,"pressure":944.9,"uv_index":7.9,"wind_gusts":57.6,"aqi":74,"pm10":39.0,"pm2_5":16.9,"no2":5.0,"co":184.0,"o3":43.0,"so2":6.1,"mosquito_risk":7,"arthritis_risk":5,"migraine_risk":7,"frizz_risk":1,"updated_at":"2026-07-11T09:04:07.787241+05:30"},{"city":"Bhopal","state":"Madhya Pradesh","latitude":23.2599,"longitude":77.4126,"temp":27.2,"humidity":73,"rain":0.0,"pressure":950.3,"uv_index":8.6,"wind_gusts":47.2,"aqi":82,"pm10":29.7,"pm2_5":14.6,"no2":4.2,"co":189.0,"o3":47.0,"so2":6.9,"mosquito_risk":7,"arthritis_risk":5,"migraine_risk":7,"frizz_risk":1,"updated_at":"2026-07-11T09:04:07.787248+05:30"},{"city":"Jabalpur","state":"Madhya Pradesh","latitude":23.1815,"longitude":79.9864,"temp":27.3,"humidity":77,"rain":0.0,"pressure":957.9,"uv_index":7.65,"wind_gusts":38.9,"aqi":90,"pm10":45.4,"pm2_5":27.7,"no2":4.7,"co":184.0,"o3":66.0,"so2":6.9,"mosquito_risk":7,"arthritis_risk":5,"migraine_risk":7,"frizz_risk":1,"updated_at":"2026-07-11T09:04:07.787255+05:30"},{"city":"Ujjain","state":"Madhya Pradesh","latitude":23.1765,"longitude":75.7885,"temp":26.5,"humidity":77,"rain":0.0,"pressure":950.2,"uv_index":8.45,"wind_gusts":56.9,"aqi":74,"pm10":35.6,"pm2_5":15.7,"no2":3.6,"co":151.0,"o3":43.0,"so2":4.7,"mosquito_risk":7,"arthritis_risk":5,"migraine_risk":7,"frizz_risk":1,"updated_at":"2026-07-11T09:04:07.787262+05:30"},{"city":"Visakhapatnam","state":"Andhra Pradesh","latitude":17.6868,"longitude":83.2185,"temp":31.2,"humidity":69,"rain":0.0,"pressure":1001.0,"uv_index":7.9,"wind_gusts":38.5,"aqi":89,"pm10":47.3,"pm2_5":33.6,"no2":18.5,"co":379.0,"o3":74.0,"so2":40.3,"mosquito_risk":3,"arthritis_risk":5,"migraine_risk":4,"frizz_risk":1,"updated_at":"2026-07-11T09:04:07.787269+05:30"},{"city":"Vijayawada","state":"Andhra Pradesh","latitude":16.5062,"longitude":80.648,"temp":32.6,"humidity":56,"rain":0.0,"pressure":1001.3,"uv_index":5.5,"wind_gusts":42.5,"aqi":92,"pm10":41.7,"pm2_5":26.4,"no2":8.5,"co":152.0,"o3":62.0,"so2":9.7,"mosquito_risk":0,"arthritis_risk":5,"migraine_risk":0,"frizz_risk":1,"updated_at":"2026-07-11T09:04:07.787277+05:30"},{"city":"Guntur","state":"Andhra Pradesh","latitude":16.3067,"longitude":80.4365,"temp":32.9,"humidity":53,"rain":0.0,"pressure":1002.6,"uv_index":6.5,"wind_gusts":45.4,"aqi":89,"pm10":28.5,"pm2_5":18.6,"no2":7.2,"co":155.0,"o3":52.0,"so2":8.4,"mosquito_risk":0,"arthritis_risk":5,"migraine_risk":4,"frizz_risk":1,"updated_at":"2026-07-11T09:04:07.787283+05:30"},{"city":"Nellore","state":"Andhra Pradesh","latitude":14.4426,"longitude":79.9865,"temp":31.6,"humidity":58,"rain":0.0,"pressure":1005.5,"uv_index":8.2,"wind_gusts":41.4,"aqi":64,"pm10":26.2,"pm2_5":11.8,"no2":4.5,"co":119.0,"o3":44.0,"so2":6.1,"mosquito_risk":0,"arthritis_risk":5,"migraine_risk":4,"frizz_risk":1,"updated_at":"2026-07-11T09:04:07.787291+05:30"},{"city":"Kurnool","state":"Andhra Pradesh","latitude":15.8281,"longitude":78.0373,"temp":29.6,"humidity":60,"rain":0.0,"pressure":977.4,"uv_index":7.85,"wind_gusts":48.6,"aqi":61,"pm10":20.9,"pm2_5":9.5,"no2":4.7,"co":119.0,"o3":38.0,"so2":4.6,"mosquito_risk":4,"arthritis_risk":5,"migraine_risk":7,"frizz_risk":1,"updated_at":"2026-07-11T09:04:07.787298+05:30"},{"city":"Kakinada","state":"Andhra Pradesh","latitude":16.9891,"longitude":82.2475,"temp":32.0,"humidity":66,"rain":0.0,"pressure":1005.2,"uv_index":4.55,"wind_gusts":41.0,"aqi":78,"pm10":32.8,"pm2_5":22.4,"no2":4.7,"co":242.0,"o3":104.0,"so2":6.3,"mosquito_risk":3,"arthritis_risk":5,"migraine_risk":0,"frizz_risk":1,"updated_at":"2026-07-11T09:04:07.787306+05:30"},{"city":"Tirupati","state":"Andhra Pradesh","latitude":13.6288,"longitude":79.4192,"temp":31.7,"humidity":52,"rain":0.0,"pressure":991.3,"uv_index":8.8,"wind_gusts":36.4,"aqi":60,"pm10":29.5,"pm2_5":11.8,"no2":3.0,"co":120.0,"o3":52.0,"so2":1.6,"mosquito_risk":0,"arthritis_risk":5,"migraine_risk":7,"frizz_risk":1,"updated_at":"2026-07-11T09:04:07.787312+05:30"},{"city":"Warangal","state":"Telangana","latitude":17.9689,"longitude":79.5941,"temp":29.4,"humidity":64,"rain":0.0,"pressure":978.1,"uv_index":8.35,"wind_gusts":37.4,"aqi":81,"pm10":25.3,"pm2_5":13.8,"no2":4.1,"co":148.0,"o3":51.0,"so2":3.5,"mosquito_risk":7,"arthritis_risk":5,"migraine_risk":7,"frizz_risk":1,"updated_at":"2026-07-11T09:04:07.787319+05:30"},{"city":"Nizamabad","state":"Telangana","latitude":18.6725,"longitude":78.0941,"temp":27.5,"humidity":69,"rain":0.0,"pressure":964.5,"uv_index":8.7,"wind_gusts":46.1,"aqi":72,"pm10":23.2,"pm2_5":10.7,"no2":4.5,"co":144.0,"o3":41.0,"so2":6.4,"mosquito_risk":7,"arthritis_risk":5,"migraine_risk":7,"frizz_risk":1,"updated_at":"2026-07-11T09:04:07.787325+05:30"},{"city":"Mysore","state":"Karnataka","latitude":12.2958,"longitude":76.6396,"temp":25.4,"humidity":72,"rain":0.0,"pressure":930.7,"uv_index":6.6,"wind_gusts":47.2,"aqi":29,"pm10":8.6,"pm2_5":4.5,"no2":5.3,"co":135.0,"o3":39.0,"so2":2.5,"mosquito_risk":7,"arthritis_risk":5,"migraine_risk":7,"frizz_risk":1,"updated_at":"2026-07-11T09:04:07.787332+05:30"},{"city":"Mangalore","state":"Karnataka","latitude":12.9141,"longitude":74.856,"temp":26.9,"humidity":87,"rain":0.0,"pressure":1009.6,"uv_index":8.35,"wind_gusts":46.1,"aqi":52,"pm10":30.9,"pm2_5":13.5,"no2":4.0,"co":162.0,"o3":40.0,"so2":2.4,"mosquito_risk":7,"arthritis_risk":0,"migraine_risk":4,"frizz_risk":1,"updated_at":"2026-07-11T09:04:07.787339+05:30"},{"city":"Hubli-Dharwad","state":"Karnataka","latitude":15.3647,"longitude":75.124,"temp":25.6,"humidity":75,"rain":0.0,"pressure":942.1,"uv_index":8.15,"wind_gusts":53.3,"aqi":32,"pm10":18.6,"pm2_5":7.4,"no2":3.3,"co":116.0,"o3":41.0,"so2":1.5,"mosquito_risk":7,"arthritis_risk":5,"migraine_risk":7,"frizz_risk":1,"updated_at":"2026-07-11T09:04:07.787345+05:30"},{"city":"Belgaum","state":"Karnataka","latitude":15.8497,"longitude":74.4977,"temp":24.6,"humidity":77,"rain":0.0,"pressure":926.9,"uv_index":8.7,"wind_gusts":52.9,"aqi":29,"pm10":21.5,"pm2_5":8.3,"no2":3.2,"co":108.0,"o3":41.0,"so2":1.5,"mosquito_risk":3,"arthritis_risk":5,"migraine_risk":7,"frizz_risk":1,"updated_at":"2026-07-11T09:04:11.014765+05:30"},{"city":"Coimbatore","state":"Tamil Nadu","latitude":11.0168,"longitude":76.9558,"temp":26.8,"humidity":76,"rain":0.0,"pressure":963.8,"uv_index":8.2,"wind_gusts":48.6,"aqi":30,"pm10":15.0,"pm2_5":7.3,"no2":3.8,"co":190.0,"o3":47.0,"so2":3.1,"mosquito_risk":7,"arthritis_risk":5,"migraine_risk":7,"frizz_risk":1,"updated_at":"2026-07-11T09:04:11.014797+05:30"},{"city":"Madurai","state":"Tamil Nadu","latitude":9.9252,"longitude":78.1198,"temp":31.0,"humidity":55,"rain":0.0,"pressure":994.7,"uv_index":8.1,"wind_gusts":26.6,"aqi":55,"pm10":23.1,"pm2_5":13.4,"no2":9.7,"co":157.0,"o3":57.0,"so2":5.9,"mosquito_risk":0,"arthritis_risk":5,"migraine_risk":7,"frizz_risk":1,"updated_at":"2026-07-11T09:04:11.014808+05:30"},{"city":"Trichy","state":"Tamil Nadu","latitude":10.7905,"longitude":78.7047,"temp":31.5,"humidity":57,"rain":0.0,"pressure":1001.4,"uv_index":7.6,"wind_gusts":49.0,"aqi":42,"pm10":22.8,"pm2_5":10.5,"no2":3.8,"co":118.0,"o3":46.0,"so2":3.2,"mosquito_risk":0,"arthritis_risk":5,"migraine_risk":4,"frizz_risk":1,"updated_at":"2026-07-11T09:04:11.014817+05:30"},{"city":"Salem","state":"Tamil Nadu","latitude":11.6643,"longitude":78.146,"temp":27.5,"humidity":76,"rain":0.0,"pressure":979.6,"uv_index":8.25,"wind_gusts":32.8,"aqi":57,"pm10":24.2,"pm2_5":14.8,"no2":11.0,"co":238.0,"o3":49.0,"so2":13.0,"mosquito_risk":7,"arthritis_risk":5,"migraine_risk":7,"frizz_risk":1,"updated_at":"2026-07-11T09:04:11.014825+05:30"},{"city":"Tirunelveli","state":"Tamil Nadu","latitude":8.7139,"longitude":77.7567,"temp":32.5,"humidity":53,"rain":0.0,"pressure":1005.1,"uv_index":8.4,"wind_gusts":48.2,"aqi":28,"pm10":6.4,"pm2_5":4.3,"no2":3.7,"co":137.0,"o3":47.0,"so2":2.3,"mosquito_risk":0,"arthritis_risk":5,"migraine_risk":4,"frizz_risk":1,"updated_at":"2026-07-11T09:04:11.014833+05:30"},{"city":"Vellore","state":"Tamil Nadu","latitude":12.9165,"longitude":79.1325,"temp":31.0,"humidity":53,"rain":0.0,"pressure":985.1,"uv_index":8.15,"wind_gusts":41.4,"aqi":52,"pm10":24.9,"pm2_5":11.6,"no2":4.9,"co":145.0,"o3":52.0,"so2":3.9,"mosquito_risk":0,"arthritis_risk":5,"migraine_risk":7,"frizz_risk":1,"updated_at":"2026-07-11T09:04:11.014841+05:30"},{"city":"Erode","state":"Tamil Nadu","latitude":11.341,"longitude":77.7172,"temp":30.0,"humidity":61,"rain":0.0,"pressure":991.4,"uv_index":8.15,"wind_gusts":38.2,"aqi":45,"pm10":15.8,"pm2_5":10.0,"no2":7.6,"co":188.0,"o3":46.0,"so2":4.4,"mosquito_risk":7,"arthritis_risk":5,"migraine_risk":7,"frizz_risk":1,"updated_at":"2026-07-11T09:04:11.014849+05:30"},{"city":"Kochi","state":"Kerala","latitude":9.9312,"longitude":76.2673,"temp":26.4,"humidity":88,"rain":0.1,"pressure":1012.3,"uv_index":7.8,"wind_gusts":38.2,"aqi":51,"pm10":15.0,"pm2_5":8.5,"no2":6.8,"co":140.0,"o3":41.0,"so2":3.5,"mosquito_risk":10,"arthritis_risk":0,"migraine_risk":4,"frizz_risk":1,"updated_at":"2026-07-11T09:04:11.014857+05:30"},{"city":"Thiruvananthapuram","state":"Kerala","latitude":8.5241,"longitude":76.9366,"temp":27.0,"humidity":83,"rain":0.1,"pressure":1011.4,"uv_index":8.05,"wind_gusts":49.3,"aqi":38,"pm10":11.7,"pm2_5":6.5,"no2":3.4,"co":139.0,"o3":51.0,"so2":1.4,"mosquito_risk":10,"arthritis_risk":0,"migraine_risk":4,"frizz_risk":1,"updated_at":"2026-07-11T09:04:11.014864+05:30"},{"city":"Kozhikode","state":"Kerala","latitude":11.2588,"longitude":75.7804,"temp":26.1,"humidity":93,"rain":0.1,"pressure":1011.2,"uv_index":7.55,"wind_gusts":40.3,"aqi":38,"pm10":21.5,"pm2_5":8.5,"no2":1.1,"co":154.0,"o3":49.0,"so2":1.0,"mosquito_risk":10,"arthritis_risk":0,"migraine_risk":4,"frizz_risk":1,"updated_at":"2026-07-11T09:04:11.014871+05:30"},{"city":"Thrissur","state":"Kerala","latitude":10.5276,"longitude":76.2144,"temp":26.3,"humidity":92,"rain":0.1,"pressure":1010.6,"uv_index":7.8,"wind_gusts":39.6,"aqi":53,"pm10":14.4,"pm2_5":9.1,"no2":5.2,"co":163.0,"o3":42.0,"so2":2.6,"mosquito_risk":10,"arthritis_risk":0,"migraine_risk":4,"frizz_risk":1,"updated_at":"2026-07-11T09:04:11.014878+05:30"},{"city":"Kannur","state":"Kerala","latitude":11.8745,"longitude":75.3704,"temp":26.1,"humidity":93,"rain":0.0,"pressure":1010.3,"uv_index":7.75,"wind_gusts":45.0,"aqi":48,"pm10":24.1,"pm2_5":11.6,"no2":5.1,"co":160.0,"o3":39.0,"so2":1.8,"mosquito_risk":7,"arthritis_risk":0,"migraine_risk":4,"frizz_risk":1,"updated_at":"2026-07-11T09:04:11.014886+05:30"},{"city":"Patna","state":"Bihar","latitude":25.5941,"longitude":85.1376,"temp":26.6,"humidity":96,"rain":0.9,"pressure":993.8,"uv_index":5.55,"wind_gusts":34.6,"aqi":90,"pm10":50.9,"pm2_5":34.1,"no2":11.6,"co":293.0,"o3":71.0,"so2":7.3,"mosquito_risk":10,"arthritis_risk":5,"migraine_risk":3,"frizz_risk":1,"updated_at":"2026-07-11T09:04:11.014893+05:30"},{"city":"Gaya","state":"Bihar","latitude":24.7914,"longitude":85.0002,"temp":28.8,"humidity":84,"rain":0.1,"pressure":987.6,"uv_index":7.45,"wind_gusts":45.4,"aqi":92,"pm10":61.0,"pm2_5":36.6,"no2":9.6,"co":213.0,"o3":74.0,"so2":15.7,"mosquito_risk":10,"arthritis_risk":5,"migraine_risk":7,"frizz_risk":1,"updated_at":"2026-07-11T09:04:11.014900+05:30"},{"city":"Muzaffarpur","state":"Bihar","latitude":26.1209,"longitude":85.3647,"temp":29.1,"humidity":82,"rain":0.0,"pressure":993.3,"uv_index":5.3,"wind_gusts":35.3,"aqi":97,"pm10":53.3,"pm2_5":34.2,"no2":11.3,"co":291.0,"o3":80.0,"so2":8.1,"mosquito_risk":7,"arthritis_risk":5,"migraine_risk":3,"frizz_risk":1,"updated_at":"2026-07-11T09:04:11.014907+05:30"},{"city":"Bhagalpur","state":"Bihar","latitude":25.2425,"longitude":87.0117,"temp":29.8,"humidity":83,"rain":0.0,"pressure":994.3,"uv_index":5.75,"wind_gusts":34.6,"aqi":77,"pm10":39.1,"pm2_5":29.9,"no2":10.5,"co":243.0,"o3":80.0,"so2":7.6,"mosquito_risk":7,"arthritis_risk":5,"migraine_risk":3,"frizz_risk":1,"updated_at":"2026-07-11T09:04:11.014913+05:30"},{"city":"Ranchi","state":"Jharkhand","latitude":23.3441,"longitude":85.3096,"temp":26.1,"humidity":82,"rain":0.0,"pressure":933.0,"uv_index":6.5,"wind_gusts":39.6,"aqi":87,"pm10":61.0,"pm2_5":30.9,"no2":4.2,"co":194.0,"o3":84.0,"so2":7.0,"mosquito_risk":7,"arthritis_risk":5,"migraine_risk":7,"frizz_risk":1,"updated_at":"2026-07-11T09:04:11.014920+05:30"},{"city":"Jamshedpur","state":"Jharkhand","latitude":22.8046,"longitude":86.2029,"temp":28.3,"humidity":84,"rain":0.0,"pressure":985.8,"uv_index":8.3,"wind_gusts":34.2,"aqi":93,"pm10":79.2,"pm2_5":46.6,"no2":12.4,"co":302.0,"o3":81.0,"so2":34.1,"mosquito_risk":7,"arthritis_risk":5,"migraine_risk":7,"frizz_risk":1,"updated_at":"2026-07-11T09:04:11.014949+05:30"},{"city":"Dhanbad","state":"Jharkhand","latitude":23.7957,"longitude":86.4304,"temp":29.0,"humidity":77,"rain":0.0,"pressure":974.1,"uv_index":5.35,"wind_gusts":36.4,"aqi":125,"pm10":72.9,"pm2_5":50.6,"no2":26.6,"co":236.0,"o3":64.0,"so2":65.6,"mosquito_risk":7,"arthritis_risk":5,"migraine_risk":3,"frizz_risk":1,"updated_at":"2026-07-11T09:04:11.014957+05:30"},{"city":"Bokaro","state":"Jharkhand","latitude":23.6693,"longitude":86.1511,"temp":29.0,"humidity":73,"rain":0.0,"pressure":978.1,"uv_index":4.0,"wind_gusts":38.5,"aqi":116,"pm10":69.8,"pm2_5":42.6,"no2":18.8,"co":225.0,"o3":73.0,"so2":55.9,"mosquito_risk":7,"arthritis_risk":5,"migraine_risk":3,"frizz_risk":1,"updated_at":"2026-07-11T09:04:11.014965+05:30"},{"city":"Bhubaneswar","state":"Odisha","latitude":20.2961,"longitude":85.8245,"temp":31.2,"humidity":73,"rain":0.0,"pressure":998.7,"uv_index":7.7,"wind_gusts":36.4,"aqi":77,"pm10":39.5,"pm2_5":26.4,"no2":8.4,"co":279.0,"o3":74.0,"so2":7.3,"mosquito_risk":3,"arthritis_risk":5,"migraine_risk":7,"frizz_risk":1,"updated_at":"2026-07-11T09:04:11.014972+05:30"},{"city":"Cuttack","state":"Odisha","latitude":20.4625,"longitude":85.8828,"temp":31.2,"humidity":73,"rain":0.0,"pressure":1000.5,"uv_index":8.15,"wind_gusts":36.0,"aqi":77,"pm10":39.5,"pm2_5":26.4,"no2":8.4,"co":253.0,"o3":74.0,"so2":7.3,"mosquito_risk":3,"arthritis_risk":5,"migraine_risk":4,"frizz_risk":1,"updated_at":"2026-07-11T09:04:11.014979+05:30"},{"city":"Rourkela","state":"Odisha","latitude":22.2604,"longitude":84.8536,"temp":28.2,"humidity":86,"rain":0.0,"pressure":980.6,"uv_index":2.95,"wind_gusts":33.5,"aqi":124,"pm10":80.6,"pm2_5":45.4,"no2":10.0,"co":383.0,"o3":78.0,"so2":19.1,"mosquito_risk":7,"arthritis_risk":5,"migraine_risk":3,"frizz_risk":1,"updated_at":"2026-07-11T09:04:11.014986+05:30"},{"city":"Raipur","state":"Chhattisgarh","latitude":21.2514,"longitude":81.6296,"temp":29.2,"humidity":68,"rain":0.0,"pressure":971.8,"uv_index":8.15,"wind_gusts":40.3,"aqi":119,"pm10":67.8,"pm2_5":43.3,"no2":20.3,"co":414.0,"o3":56.0,"so2":51.2,"mosquito_risk":7,"arthritis_risk":5,"migraine_risk":7,"frizz_risk":1,"updated_at":"2026-07-11T09:04:11.014993+05:30"},{"city":"Bhilai","state":"Chhattisgarh","latitude":21.1938,"longitude":81.3509,"temp":29.3,"humidity":65,"rain":0.0,"pressure":972.3,"uv_index":7.85,"wind_gusts":42.8,"aqi":113,"pm10":64.7,"pm2_5":39.5,"no2":15.4,"co":590.0,"o3":63.0,"so2":39.3,"mosquito_risk":7,"arthritis_risk":5,"migraine_risk":7,"frizz_risk":1,"updated_at":"2026-07-11T09:04:11.014999+05:30"},{"city":"Guwahati","state":"Assam","latitude":26.1158,"longitude":91.7086,"temp":27.4,"humidity":93,"rain":0.4,"pressure":994.5,"uv_index":7.9,"wind_gusts":25.2,"aqi":43,"pm10":8.8,"pm2_5":8.8,"no2":5.0,"co":317.0,"o3":83.0,"so2":2.4,"mosquito_risk":10,"arthritis_risk":5,"migraine_risk":7,"frizz_risk":1,"updated_at":"2026-07-11T09:04:11.015007+05:30"},{"city":"Agartala","state":"Tripura","latitude":23.8315,"longitude":91.2868,"temp":26.7,"humidity":96,"rain":0.0,"pressure":1000.0,"uv_index":7.9,"wind_gusts":36.4,"aqi":58,"pm10":13.8,"pm2_5":12.6,"no2":7.0,"co":266.0,"o3":83.0,"so2":4.2,"mosquito_risk":7,"arthritis_risk":5,"migraine_risk":4,"frizz_risk":1,"updated_at":"2026-07-11T09:04:11.015014+05:30"},{"city":"Shillong","state":"Meghalaya","latitude":25.5788,"longitude":91.8933,"temp":21.8,"humidity":92,"rain":0.0,"pressure":852.9,"uv_index":3.95,"wind_gusts":24.5,"aqi":27,"pm10":3.7,"pm2_5":3.6,"no2":4.7,"co":219.0,"o3":82.0,"so2":5.2,"mosquito_risk":3,"arthritis_risk":5,"migraine_risk":3,"frizz_risk":1,"updated_at":"2026-07-11T09:04:11.015021+05:30"},{"city":"Imphal","state":"Manipur","latitude":24.817,"longitude":93.9368,"temp":25.9,"humidity":82,"rain":0.1,"pressure":918.6,"uv_index":7.75,"wind_gusts":29.5,"aqi":34,"pm10":3.1,"pm2_5":3.0,"no2":1.9,"co":280.0,"o3":89.0,"so2":2.5,"mosquito_risk":10,"arthritis_risk":5,"migraine_risk":7,"frizz_risk":1,"updated_at":"2026-07-11T09:04:11.015028+05:30"},{"city":"Aizawl","state":"Mizoram","latitude":23.7271,"longitude":92.7176,"temp":22.3,"humidity":89,"rain":0.1,"pressure":888.3,"uv_index":8.3,"wind_gusts":43.6,"aqi":27,"pm10":1.5,"pm2_5":1.2,"no2":1.3,"co":144.0,"o3":86.0,"so2":2.0,"mosquito_risk":6,"arthritis_risk":5,"migraine_risk":7,"frizz_risk":1,"updated_at":"2026-07-11T09:04:11.015034+05:30"},{"city":"Kohima","state":"Nagaland","latitude":25.6701,"longitude":94.1077,"temp":24.8,"humidity":84,"rain":0.0,"pressure":852.2,"uv_index":4.8,"wind_gusts":26.6,"aqi":25,"pm10":2.1,"pm2_5":2.0,"no2":1.2,"co":176.0,"o3":91.0,"so2":2.0,"mosquito_risk":3,"arthritis_risk":5,"migraine_risk":3,"frizz_risk":1,"updated_at":"2026-07-11T09:04:11.015041+05:30"},{"city":"Gangtok","state":"Sikkim","latitude":27.3314,"longitude":88.6138,"temp":20.4,"humidity":96,"rain":0.1,"pressure":833.8,"uv_index":6.7,"wind_gusts":28.4,"aqi":45,"pm10":11.9,"pm2_5":11.6,"no2":4.4,"co":292.0,"o3":90.0,"so2":1.8,"mosquito_risk":6,"arthritis_risk":5,"migraine_risk":7,"frizz_risk":1,"updated_at":"2026-07-11T09:04:11.015048+05:30"},{"city":"Siliguri","state":"West Bengal","latitude":26.7271,"longitude":88.3953,"temp":27.4,"humidity":93,"rain":0.0,"pressure":985.9,"uv_index":6.55,"wind_gusts":19.4,"aqi":95,"pm10":31.9,"pm2_5":31.0,"no2":6.6,"co":442.0,"o3":95.0,"so2":4.6,"mosquito_risk":7,"arthritis_risk":5,"migraine_risk":7,"frizz_risk":1,"updated_at":"2026-07-11T09:04:14.250176+05:30"},{"city":"Durgapur","state":"West Bengal","latitude":23.5204,"longitude":87.3119,"temp":28.4,"humidity":91,"rain":0.0,"pressure":989.1,"uv_index":1.1,"wind_gusts":39.6,"aqi":122,"pm10":77.8,"pm2_5":60.5,"no2":39.5,"co":373.0,"o3":39.0,"so2":72.5,"mosquito_risk":7,"arthritis_risk":5,"migraine_risk":3,"frizz_risk":1,"updated_at":"2026-07-11T09:04:14.250211+05:30"},{"city":"Asansol","state":"West Bengal","latitude":23.6739,"longitude":86.9524,"temp":30.4,"humidity":73,"rain":0.0,"pressure":987.7,"uv_index":2.95,"wind_gusts":38.9,"aqi":111,"pm10":72.2,"pm2_5":53.4,"no2":32.3,"co":1282.0,"o3":52.0,"so2":63.4,"mosquito_risk":3,"arthritis_risk":5,"migraine_risk":3,"frizz_risk":1,"updated_at":"2026-07-11T09:04:14.250224+05:30"},{"city":"Pondicherry","state":"Puducherry","latitude":11.9139,"longitude":79.8145,"temp":31.4,"humidity":61,"rain":0.0,"pressure":1009.2,"uv_index":8.0,"wind_gusts":41.4,"aqi":65,"pm10":24.1,"pm2_5":17.6,"no2":12.7,"co":220.0,"o3":51.0,"so2":9.3,"mosquito_risk":3,"arthritis_risk":0,"migraine_risk":4,"frizz_risk":1,"updated_at":"2026-07-11T09:04:14.250235+05:30"},{"city":"Port Blair","state":"Andaman and Nicobar Islands","latitude":11.6234,"longitude":92.7265,"temp":29.3,"humidity":78,"rain":0.1,"pressure":1007.7,"uv_index":8.8,"wind_gusts":57.6,"aqi":38,"pm10":13.7,"pm2_5":7.2,"no2":0.3,"co":87.0,"o3":43.0,"so2":0.4,"mosquito_risk":10,"arthritis_risk":5,"migraine_risk":4,"frizz_risk":1,"updated_at":"2026-07-11T09:04:14.250245+05:30"},{"city":"Haridwar","state":"Uttarakhand","latitude":29.9457,"longitude":78.1642,"temp":28.1,"humidity":85,"rain":0.0,"pressure":966.8,"uv_index":6.8,"wind_gusts":28.4,"aqi":64,"pm10":13.1,"pm2_5":12.2,"no2":4.9,"co":307.0,"o3":119.0,"so2":4.9,"mosquito_risk":7,"arthritis_risk":5,"migraine_risk":7,"frizz_risk":1,"updated_at":"2026-07-11T09:04:14.250254+05:30"},{"city":"Rishikesh","state":"Uttarakhand","latitude":30.0869,"longitude":78.2676,"temp":27.1,"humidity":86,"rain":0.0,"pressure":959.5,"uv_index":6.05,"wind_gusts":23.4,"aqi":42,"pm10":5.2,"pm2_5":4.7,"no2":3.2,"co":280.0,"o3":109.0,"so2":3.1,"mosquito_risk":7,"arthritis_risk":5,"migraine_risk":7,"frizz_risk":1,"updated_at":"2026-07-11T09:04:14.250262+05:30"},{"city":"Nainital","state":"Uttarakhand","latitude":29.3919,"longitude":79.4542,"temp":18.3,"humidity":99,"rain":0.0,"pressure":801.3,"uv_index":1.05,"wind_gusts":23.4,"aqi":37,"pm10":11.3,"pm2_5":8.4,"no2":4.8,"co":253.0,"o3":106.0,"so2":2.6,"mosquito_risk":3,"arthritis_risk":10,"migraine_risk":3,"frizz_risk":1,"updated_at":"2026-07-11T09:04:14.250272+05:30"},{"city":"Mussoorie","state":"Uttarakhand","latitude":30.4599,"longitude":78.0664,"temp":19.7,"humidity":82,"rain":0.0,"pressure":799.4,"uv_index":6.4,"wind_gusts":29.5,"aqi":52,"pm10":9.5,"pm2_5":8.7,"no2":4.7,"co":251.0,"o3":116.0,"so2":3.6,"mosquito_risk":3,"arthritis_risk":10,"migraine_risk":7,"frizz_risk":1,"updated_at":"2026-07-11T09:04:14.250281+05:30"},{"city":"Dharamshala","state":"Himachal Pradesh","latitude":32.219,"longitude":76.3234,"temp":23.7,"humidity":76,"rain":0.0,"pressure":864.1,"uv_index":8.45,"wind_gusts":34.9,"aqi":51,"pm10":6.9,"pm2_5":6.0,"no2":2.9,"co":299.0,"o3":110.0,"so2":1.0,"mosquito_risk":3,"arthritis_risk":5,"migraine_risk":7,"frizz_risk":1,"updated_at":"2026-07-11T09:04:14.250290+05:30"},{"city":"Dalhousie","state":"Himachal Pradesh","latitude":32.5387,"longitude":75.971,"temp":21.2,"humidity":77,"rain":0.0,"pressure":801.4,"uv_index":8.7,"wind_gusts":25.9,"aqi":102,"pm10":26.1,"pm2_5":21.1,"no2":8.2,"co":415.0,"o3":125.0,"so2":2.1,"mosquito_risk":3,"arthritis_risk":5,"migraine_risk":7,"frizz_risk":1,"updated_at":"2026-07-11T09:04:14.250299+05:30"},{"city":"Patiala","state":"Punjab","latitude":30.3398,"longitude":76.3869,"temp":27.0,"humidity":90,"rain":0.0,"pressure":970.2,"uv_index":7.55,"wind_gusts":30.6,"aqi":120,"pm10":89.4,"pm2_5":42.4,"no2":15.8,"co":407.0,"o3":70.0,"so2":10.9,"mosquito_risk":7,"arthritis_risk":5,"migraine_risk":7,"frizz_risk":1,"updated_at":"2026-07-11T09:04:14.250308+05:30"},{"city":"Bhatinda","state":"Punjab","latitude":30.211,"longitude":74.9455,"temp":32.3,"humidity":66,"rain":0.0,"pressure":974.9,"uv_index":8.3,"wind_gusts":24.8,"aqi":165,"pm10":129.5,"pm2_5":57.2,"no2":11.0,"co":234.0,"o3":84.0,"so2":4.6,"mosquito_risk":3,"arthritis_risk":5,"migraine_risk":7,"frizz_risk":1,"updated_at":"2026-07-11T09:04:14.250317+05:30"},{"city":"Rohtak","state":"Haryana","latitude":28.8955,"longitude":76.6066,"temp":31.7,"humidity":64,"rain":0.0,"pressure":974.0,"uv_index":7.6,"wind_gusts":28.4,"aqi":417,"pm10":327.8,"pm2_5":101.0,"no2":22.2,"co":588.0,"o3":98.0,"so2":14.5,"mosquito_risk":3,"arthritis_risk":5,"migraine_risk":7,"frizz_risk":1,"updated_at":"2026-07-11T09:04:14.250326+05:30"},{"city":"Panipat","state":"Haryana","latitude":29.3909,"longitude":76.9635,"temp":30.1,"humidity":78,"rain":0.0,"pressure":972.6,"uv_index":7.45,"wind_gusts":23.0,"aqi":499,"pm10":204.0,"pm2_5":67.5,"no2":18.0,"co":319.0,"o3":93.0,"so2":20.4,"mosquito_risk":3,"arthritis_risk":5,"migraine_risk":7,"frizz_risk":1,"updated_at":"2026-07-11T09:04:14.250335+05:30"},{"city":"Mathura","state":"Uttar Pradesh","latitude":27.4924,"longitude":77.6737,"temp":31.4,"humidity":64,"rain":0.0,"pressure":979.6,"uv_index":7.9,"wind_gusts":30.6,"aqi":203,"pm10":284.1,"pm2_5":69.8,"no2":10.7,"co":212.0,"o3":57.0,"so2":4.8,"mosquito_risk":3,"arthritis_risk":5,"migraine_risk":7,"frizz_risk":1,"updated_at":"2026-07-11T09:04:14.250342+05:30"},{"city":"Vrindavan","state":"Uttar Pradesh","latitude":27.5823,"longitude":77.7027,"temp":31.6,"humidity":63,"rain":0.0,"pressure":979.9,"uv_index":7.85,"wind_gusts":30.6,"aqi":203,"pm10":284.1,"pm2_5":69.8,"no2":10.7,"co":208.0,"o3":57.0,"so2":4.8,"mosquito_risk":3,"arthritis_risk":5,"migraine_risk":7,"frizz_risk":1,"updated_at":"2026-07-11T09:04:14.250349+05:30"},{"city":"Ayodhya","state":"Uttar Pradesh","latitude":26.7922,"longitude":82.1998,"temp":28.9,"humidity":85,"rain":0.1,"pressure":987.9,"uv_index":7.7,"wind_gusts":35.6,"aqi":114,"pm10":125.3,"pm2_5":51.0,"no2":6.2,"co":230.0,"o3":96.0,"so2":6.0,"mosquito_risk":10,"arthritis_risk":5,"migraine_risk":7,"frizz_risk":1,"updated_at":"2026-07-11T09:04:14.250356+05:30"},{"city":"Ratlam","state":"Madhya Pradesh","latitude":23.3315,"longitude":75.0367,"temp":26.5,"humidity":77,"rain":0.0,"pressure":951.0,"uv_index":8.4,"wind_gusts":55.4,"aqi":72,"pm10":34.5,"pm2_5":15.3,"no2":3.5,"co":115.0,"o3":43.0,"so2":4.7,"mosquito_risk":7,"arthritis_risk":5,"migraine_risk":7,"frizz_risk":1,"updated_at":"2026-07-11T09:04:14.250363+05:30"},{"city":"Sagar","state":"Madhya Pradesh","latitude":23.8388,"longitude":78.7378,"temp":27.6,"humidity":74,"rain":0.1,"pressure":946.2,"uv_index":8.65,"wind_gusts":47.9,"aqi":90,"pm10":38.9,"pm2_5":22.9,"no2":4.0,"co":148.0,"o3":58.0,"so2":8.1,"mosquito_risk":10,"arthritis_risk":5,"migraine_risk":7,"frizz_risk":1,"updated_at":"2026-07-11T09:04:14.250369+05:30"},{"city":"Satna","state":"Madhya Pradesh","latitude":24.6005,"longitude":80.8322,"temp":30.3,"humidity":63,"rain":0.0,"pressure":966.1,"uv_index":8.7,"wind_gusts":45.4,"aqi":101,"pm10":61.0,"pm2_5":34.8,"no2":3.2,"co":162.0,"o3":87.0,"so2":5.4,"mosquito_risk":3,"arthritis_risk":5,"migraine_risk":7,"frizz_risk":1,"updated_at":"2026-07-11T09:04:14.250376+05:30"},{"city":"Akola","state":"Maharashtra","latitude":20.7002,"longitude":77.0082,"temp":28.5,"humidity":67,"rain":0.0,"pressure":973.7,"uv_index":8.75,"wind_gusts":51.8,"aqi":68,"pm10":33.1,"pm2_5":13.8,"no2":5.4,"co":116.0,"o3":38.0,"so2":7.8,"mosquito_risk":7,"arthritis_risk":5,"migraine_risk":7,"frizz_risk":1,"updated_at":"2026-07-11T09:04:14.250384+05:30"},{"city":"Amravati","state":"Maharashtra","latitude":20.9374,"longitude":77.7796,"temp":27.8,"humidity":70,"rain":0.0,"pressure":965.9,"uv_index":8.5,"wind_gusts":52.2,"aqi":70,"pm10":35.6,"pm2_5":14.1,"no2":5.6,"co":125.0,"o3":38.0,"so2":8.9,"mosquito_risk":7,"arthritis_risk":5,"migraine_risk":7,"frizz_risk":1,"updated_at":"2026-07-11T09:04:14.250391+05:30"},{"city":"Latur","state":"Maharashtra","latitude":18.4088,"longitude":76.5604,"temp":26.2,"humidity":70,"rain":0.0,"pressure":939.5,"uv_index":8.4,"wind_gusts":45.4,"aqi":52,"pm10":17.9,"pm2_5":7.3,"no2":2.7,"co":113.0,"o3":42.0,"so2":2.8,"mosquito_risk":7,"arthritis_risk":5,"migraine_risk":7,"frizz_risk":1,"updated_at":"2026-07-11T09:04:14.250398+05:30"},{"city":"Nanded","state":"Maharashtra","latitude":19.1383,"longitude":77.3091,"temp":27.8,"humidity":69,"rain":0.0,"pressure":968.2,"uv_index":8.8,"wind_gusts":46.1,"aqi":62,"pm10":24.6,"pm2_5":11.1,"no2":4.3,"co":131.0,"o3":43.0,"so2":4.9,"mosquito_risk":7,"arthritis_risk":5,"migraine_risk":7,"frizz_risk":1,"updated_at":"2026-07-11T09:04:14.250404+05:30"},{"city":"Gulbarga","state":"Karnataka","latitude":17.3297,"longitude":76.8343,"temp":26.8,"humidity":70,"rain":0.0,"pressure":958.9,"uv_index":7.7,"wind_gusts":50.8,"aqi":54,"pm10":14.3,"pm2_5":6.6,"no2":4.0,"co":123.0,"o3":40.0,"so2":2.9,"mosquito_risk":7,"arthritis_risk":5,"migraine_risk":7,"frizz_risk":1,"updated_at":"2026-07-11T09:04:14.250411+05:30"},{"city":"Bidar","state":"Karnataka","latitude":17.9104,"longitude":77.5199,"temp":26.4,"humidity":69,"rain":0.0,"pressure":935.4,"uv_index":5.0,"wind_gusts":46.4,"aqi":61,"pm10":16.2,"pm2_5":8.0,"no2":4.1,"co":132.0,"o3":40.0,"so2":2.3,"mosquito_risk":7,"arthritis_risk":5,"migraine_risk":3,"frizz_risk":1,"updated_at":"2026-07-11T09:04:14.250417+05:30"},{"city":"Hospet","state":"Karnataka","latitude":15.2689,"longitude":76.3909,"temp":27.0,"humidity":67,"rain":0.0,"pressure":957.0,"uv_index":7.65,"wind_gusts":51.8,"aqi":40,"pm10":20.0,"pm2_5":7.8,"no2":3.3,"co":112.0,"o3":40.0,"so2":2.1,"mosquito_risk":7,"arthritis_risk":5,"migraine_risk":7,"frizz_risk":1,"updated_at":"2026-07-11T09:04:14.250424+05:30"},{"city":"Tirupur","state":"Tamil Nadu","latitude":11.1085,"longitude":77.3411,"temp":28.5,"humidity":67,"rain":0.0,"pressure":977.6,"uv_index":8.15,"wind_gusts":54.0,"aqi":49,"pm10":19.7,"pm2_5":11.8,"no2":8.1,"co":157.0,"o3":47.0,"so2":5.1,"mosquito_risk":7,"arthritis_risk":5,"migraine_risk":7,"frizz_risk":1,"updated_at":"2026-07-11T09:04:14.250430+05:30"},{"city":"Alappuzha","state":"Kerala","latitude":9.4981,"longitude":76.3388,"temp":25.9,"humidity":92,"rain":0.1,"pressure":1012.5,"uv_index":7.9,"wind_gusts":39.6,"aqi":46,"pm10":16.5,"pm2_5":9.3,"no2":5.9,"co":88.0,"o3":49.0,"so2":3.0,"mosquito_risk":10,"arthritis_risk":0,"migraine_risk":4,"frizz_risk":1,"updated_at":"2026-07-11T09:04:14.250437+05:30"},{"city":"Munnar","state":"Kerala","latitude":10.0889,"longitude":77.0595,"temp":17.8,"humidity":98,"rain":0.0,"pressure":858.9,"uv_index":8.2,"wind_gusts":38.2,"aqi":20,"pm10":7.0,"pm2_5":4.1,"no2":4.4,"co":96.0,"o3":42.0,"so2":1.6,"mosquito_risk":3,"arthritis_risk":10,"migraine_risk":7,"frizz_risk":1,"updated_at":"2026-07-11T09:04:14.250444+05:30"},{"city":"Silchar","state":"Assam","latitude":24.8333,"longitude":92.7789,"temp":28.9,"humidity":84,"rain":0.0,"pressure":998.9,"uv_index":7.05,"wind_gusts":30.2,"aqi":33,"pm10":6.4,"pm2_5":5.5,"no2":2.4,"co":236.0,"o3":86.0,"so2":4.9,"mosquito_risk":7,"arthritis_risk":5,"migraine_risk":7,"frizz_risk":1,"updated_at":"2026-07-11T09:04:14.250451+05:30"},{"city":"Dibrugarh","state":"Assam","latitude":27.4728,"longitude":94.912,"temp":30.3,"humidity":78,"rain":0.0,"pressure":988.6,"uv_index":4.0,"wind_gusts":30.2,"aqi":53,"pm10":9.7,"pm2_5":8.7,"no2":2.0,"co":174.0,"o3":89.0,"so2":1.5,"mosquito_risk":3,"arthritis_risk":5,"migraine_risk":3,"frizz_risk":1,"updated_at":"2026-07-11T09:04:14.250457+05:30"}]