[{"city":"Delhi","state":"Delhi","latitude":28.6139,"longitude":77.209,"temp":32.7,"humidity":35,"rain":0.0,"pressure":983.5,"uv_index":5.9,"wind_gusts":18.7,"aqi":313,"pm10":176.0,"pm2_5":46.6,"mosquito_risk":0,"arthritis_risk":5,"migraine_risk":3,"frizz_risk":0,"updated_at":"2026-03-06T16:09:43.356615+05:30"},{"city":"Mumbai","state":"Maharashtra","latitude":19.076,"longitude":72.8777,"temp":28.0,"humidity":66,"rain":0.0,"pressure":1007.6,"uv_index":7.4,"wind_gusts":25.6,"aqi":114,"pm10":47.1,"pm2_5":44.8,"mosquito_risk":7,"arthritis_risk":5,"migraine_risk":4,"frizz_risk":1,"updated_at":"2026-03-06T16:09:43.356688+05:30"},{"city":"Bangalore","state":"Karnataka","latitude":12.9716,"longitude":77.5946,"temp":32.8,"humidity":21,"rain":0.0,"pressure":910.8,"uv_index":9.15,"wind_gusts":24.5,"aqi":135,"pm10":31.7,"pm2_5":29.0,"mosquito_risk":0,"arthritis_risk":5,"migraine_risk":7,"frizz_risk":0,"updated_at":"2026-03-06T16:09:43.356707+05:30"},{"city":"Hyderabad","state":"Telangana","latitude":17.385,"longitude":78.4867,"temp":36.5,"humidity":15,"rain":0.0,"pressure":952.1,"uv_index":8.45,"wind_gusts":24.1,"aqi":106,"pm10":21.2,"pm2_5":14.7,"mosquito_risk":0,"arthritis_risk":5,"migraine_risk":10,"frizz_risk":0,"updated_at":"2026-03-06T16:09:43.356717+05:30"},{"city":"Chennai","state":"Tamil Nadu","latitude":13.0827,"longitude":80.2707,"temp":33.0,"humidity":45,"rain":0.0,"pressure":1005.8,"uv_index":8.9,"wind_gusts":33.8,"aqi":72,"pm10":33.3,"pm2_5":29.2,"mosquito_risk":0,"arthritis_risk":5,"migraine_risk":4,"frizz_risk":1,"updated_at":"2026-03-06T16:09:43.356726+05:30"},{"city":"Kolkata","state":"West Bengal","latitude":22.5726,"longitude":88.3639,"temp":30.2,"humidity":50,"rain":0.0,"pressure":1006.5,"uv_index":7.8,"wind_gusts":13.0,"aqi":163,"pm10":62.9,"pm2_5":44.4,"mosquito_risk":0,"arthritis_risk":5,"migraine_risk":4,"frizz_risk":1,"updated_at":"2026-03-06T16:09:43.356735+05:30"},{"city":"Pune","state":"Maharashtra","latitude":18.5204,"longitude":73.8567,"temp":36.9,"humidity":16,"rain":0.0,"pressure":947.8,"uv_index":8.0,"wind_gusts":27.7,"aqi":93,"pm10":17.3,"pm2_5":14.8,"mosquito_risk":0,"arthritis_risk":5,"migraine_risk":10,"frizz_risk":0,"updated_at":"2026-03-06T16:09:43.356749+05:30"},{"city":"Ahmedabad","state":"Gujarat","latitude":23.0225,"longitude":72.5714,"temp":36.0,"humidity":23,"rain":0.0,"pressure":1002.4,"uv_index":7.25,"wind_gusts":20.5,"aqi":74,"pm10":19.0,"pm2_5":16.1,"mosquito_risk":0,"arthritis_risk":5,"migraine_risk":7,"frizz_risk":0,"updated_at":"2026-03-06T16:09:43.356757+05:30"},{"city":"Jaipur","state":"Rajasthan","latitude":26.9124,"longitude":75.7873,"temp":36.4,"humidity":12,"rain":0.0,"pressure":960.6,"uv_index":6.7,"wind_gusts":24.5,"aqi":93,"pm10":136.9,"pm2_5":22.7,"mosquito_risk":0,"arthritis_risk":5,"migraine_risk":10,"frizz_risk":0,"updated_at":"2026-03-06T16:09:43.356765+05:30"},{"city":"Lucknow","state":"Uttar Pradesh","latitude":26.8467,"longitude":80.9462,"temp":31.8,"humidity":38,"rain":0.0,"pressure":994.7,"uv_index":6.4,"wind_gusts":22.3,"aqi":167,"pm10":128.1,"pm2_5":68.9,"mosquito_risk":0,"arthritis_risk":5,"migraine_risk":7,"frizz_risk":0,"updated_at":"2026-03-06T16:09:43.356773+05:30"},{"city":"Kanpur","state":"Uttar Pradesh","latitude":26.4499,"longitude":80.3319,"temp":31.3,"humidity":48,"rain":0.0,"pressure":992.8,"uv_index":6.4,"wind_gusts":13.3,"aqi":166,"pm10":197.4,"pm2_5":72.2,"mosquito_risk":0,"arthritis_risk":5,"migraine_risk":7,"frizz_risk":1,"updated_at":"2026-03-06T16:09:43.356780+05:30"},{"city":"Chandigarh","state":"Chandigarh","latitude":30.7333,"longitude":76.7794,"temp":31.3,"humidity":45,"rain":0.0,"pressure":969.2,"uv_index":5.8,"wind_gusts":15.8,"aqi":121,"pm10":62.9,"pm2_5":42.1,"mosquito_risk":0,"arthritis_risk":5,"migraine_risk":3,"frizz_risk":1,"updated_at":"2026-03-06T16:09:43.356788+05:30"},{"city":"Srinagar","state":"Jammu and Kashmir","latitude":34.0837,"longitude":74.7973,"temp":22.3,"humidity":36,"rain":0.0,"pressure":844.1,"uv_index":6.75,"wind_gusts":16.6,"aqi":136,"pm10":37.7,"pm2_5":20.0,"mosquito_risk":0,"arthritis_risk":5,"migraine_risk":7,"frizz_risk":0,"updated_at":"2026-03-06T16:09:43.356795+05:30"},{"city":"Jammu","state":"Jammu and Kashmir","latitude":32.7266,"longitude":74.857,"temp":31.2,"humidity":46,"rain":0.0,"pressure":972.7,"uv_index":6.4,"wind_gusts":18.7,"aqi":123,"pm10":57.6,"pm2_5":35.9,"mosquito_risk":0,"arthritis_risk":5,"migraine_risk":7,"frizz_risk":1,"updated_at":"2026-03-06T16:09:43.356802+05:30"},{"city":"Amritsar","state":"Punjab","latitude":31.634,"longitude":74.8723,"temp":32.4,"humidity":44,"rain":0.0,"pressure":980.9,"uv_index":6.05,"wind_gusts":12.2,"aqi":158,"pm10":61.5,"pm2_5":47.6,"mosquito_risk":0,"arthritis_risk":5,"migraine_risk":7,"frizz_risk":1,"updated_at":"2026-03-06T16:09:43.356809+05:30"},{"city":"Ludhiana","state":"Punjab","latitude":30.901,"longitude":75.8573,"temp":32.5,"humidity":40,"rain":0.0,"pressure":979.0,"uv_index":6.05,"wind_gusts":15.1,"aqi":163,"pm10":72.4,"pm2_5":52.2,"mosquito_risk":0,"arthritis_risk":5,"migraine_risk":7,"frizz_risk":1,"updated_at":"2026-03-06T16:09:43.356816+05:30"},{"city":"Jalandhar","state":"Punjab","latitude":31.326,"longitude":75.5762,"temp":32.2,"humidity":44,"rain":0.0,"pressure":980.1,"uv_index":6.2,"wind_gusts":13.7,"aqi":164,"pm10":73.8,"pm2_5":48.0,"mosquito_risk":0,"arthritis_risk":5,"migraine_risk":7,"frizz_risk":1,"updated_at":"2026-03-06T16:09:43.356825+05:30"},{"city":"Dehradun","state":"Uttarakhand","latitude":30.6284,"longitude":78.0322,"temp":20.6,"humidity":69,"rain":0.0,"pressure":832.3,"uv_index":6.15,"wind_gusts":28.1,"aqi":82,"pm10":51.0,"pm2_5":31.3,"mosquito_risk":3,"arthritis_risk":5,"migraine_risk":7,"frizz_risk":0,"updated_at":"2026-03-06T16:09:43.356833+05:30"},{"city":"Shimla","state":"Himachal Pradesh","latitude":31.1048,"longitude":77.1734,"temp":20.7,"humidity":52,"rain":0.0,"pressure":788.3,"uv_index":6.25,"wind_gusts":34.9,"aqi":77,"pm10":27.5,"pm2_5":16.4,"mosquito_risk":0,"arthritis_risk":5,"migraine_risk":7,"frizz_risk":0,"updated_at":"2026-03-06T16:09:43.356840+05:30"},{"city":"Manali","state":"Himachal Pradesh","latitude":32.2396,"longitude":77.1887,"temp":25.1,"humidity":15,"rain":0.0,"pressure":823.9,"uv_index":7.95,"wind_gusts":39.2,"aqi":86,"pm10":14.3,"pm2_5":8.2,"mosquito_risk":4,"arthritis_risk":5,"migraine_risk":7,"frizz_risk":1,"updated_at":"2026-03-06T16:09:43.356847+05:30"},{"city":"Gurgaon","state":"Haryana","latitude":28.4595,"longitude":77.0266,"temp":33.1,"humidity":30,"rain":0.0,"pressure":982.1,"uv_index":6.0,"wind_gusts":16.9,"aqi":819,"pm10":586.7,"pm2_5":80.1,"mosquito_risk":0,"arthritis_risk":5,"migraine_risk":3,"frizz_risk":0,"updated_at":"2026-03-06T16:09:43.356855+05:30"},{"city":"Noida","state":"Uttar Pradesh","latitude":28.5355,"longitude":77.391,"temp":33.3,"humidity":32,"rain":0.0,"pressure":985.1,"uv_index":5.9,"wind_gusts":17.3,"aqi":819,"pm10":586.7,"pm2_5":80.1,"mosquito_risk":0,"arthritis_risk":5,"migraine_risk":3,"frizz_risk":0,"updated_at":"2026-03-06T16:09:43.356862+05:30"},{"city":"Ghaziabad","state":"Uttar Pradesh","latitude":28.6692,"longitude":77.4538,"temp":32.1,"humidity":43,"rain":0.0,"pressure":983.2,"uv_index":5.9,"wind_gusts":14.4,"aqi":237,"pm10":141.1,"pm2_5":56.9,"mosquito_risk":0,"arthritis_risk":5,"migraine_risk":3,"frizz_risk":1,"updated_at":"2026-03-06T16:09:43.356869+05:30"},{"city":"Faridabad","state":"Haryana","latitude":28.4089,"longitude":77.3178,"temp":32.5,"humidity":34,"rain":0.0,"pressure":984.3,"uv_index":5.95,"wind_gusts":16.6,"aqi":819,"pm10":586.7,"pm2_5":80.1,"mosquito_risk":0,"arthritis_risk":5,"migraine_risk":3,"frizz_risk":0,"updated_at":"2026-03-06T16:09:43.356876+05:30"},{"city":"Meerut","state":"Uttar Pradesh","latitude":28.9845,"longitude":77.7064,"temp":31.7,"humidity":44,"rain":0.0,"pressure":982.2,"uv_index":5.75,"wind_gusts":14.0,"aqi":237,"pm10":141.1,"pm2_5":56.9,"mosquito_risk":0,"arthritis_risk":5,"migraine_risk":3,"frizz_risk":1,"updated_at":"2026-03-06T16:09:43.356883+05:30"},{"city":"Agra","state":"Uttar Pradesh","latitude":27.1767,"longitude":78.0081,"temp":34.8,"humidity":23,"rain":0.0,"pressure":988.3,"uv_index":6.25,"wind_gusts":18.7,"aqi":473,"pm10":280.3,"pm2_5":55.8,"mosquito_risk":0,"arthritis_risk":5,"migraine_risk":7,"frizz_risk":0,"updated_at":"2026-03-06T16:09:43.356890+05:30"},{"city":"Varanasi","state":"Uttar Pradesh","latitude":25.3176,"longitude":82.9739,"temp":30.8,"humidity":46,"rain":0.0,"pressure":998.7,"uv_index":7.1,"wind_gusts":17.6,"aqi":165,"pm10":119.2,"pm2_5":63.3,"mosquito_risk":0,"arthritis_risk":5,"migraine_risk":7,"frizz_risk":1,"updated_at":"2026-03-06T16:09:43.356900+05:30"},{"city":"Prayagraj","state":"Uttar Pradesh","latitude":25.4358,"longitude":81.8463,"temp":30.3,"humidity":47,"rain":0.0,"pressure":997.1,"uv_index":6.95,"wind_gusts":16.2,"aqi":169,"pm10":134.1,"pm2_5":65.9,"mosquito_risk":0,"arthritis_risk":5,"migraine_risk":7,"frizz_risk":1,"updated_at":"2026-03-06T16:09:43.356907+05:30"},{"city":"Gorakhpur","state":"Uttar Pradesh","latitude":26.7606,"longitude":83.3732,"temp":30.8,"humidity":43,"rain":0.0,"pressure":998.8,"uv_index":6.8,"wind_gusts":17.3,"aqi":171,"pm10":90.8,"pm2_5":60.5,"mosquito_risk":0,"arthritis_risk":5,"migraine_risk":7,"frizz_risk":1,"updated_at":"2026-03-06T16:09:43.356914+05:30"},{"city":"Bareilly","state":"Uttar Pradesh","latitude":28.367,"longitude":79.4304,"temp":30.5,"humidity":53,"rain":0.0,"pressure":987.9,"uv_index":6.1,"wind_gusts":14.4,"aqi":165,"pm10":151.3,"pm2_5":84.1,"mosquito_risk":0,"arthritis_risk":5,"migraine_risk":7,"frizz_risk":1,"updated_at":"2026-03-06T16:09:43.356921+05:30"},{"city":"Aligarh","state":"Uttar Pradesh","latitude":27.8974,"longitude":78.088,"temp":33.3,"humidity":34,"rain":0.0,"pressure":986.0,"uv_index":6.05,"wind_gusts":16.6,"aqi":511,"pm10":225.8,"pm2_5":60.8,"mosquito_risk":0,"arthritis_risk":5,"migraine_risk":7,"frizz_risk":0,"updated_at":"2026-03-06T16:09:43.356928+05:30"},{"city":"Moradabad","state":"Uttar Pradesh","latitude":28.8386,"longitude":78.7733,"temp":31.0,"humidity":47,"rain":0.0,"pressure":984.5,"uv_index":5.9,"wind_gusts":18.4,"aqi":169,"pm10":114.3,"pm2_5":76.6,"mosquito_risk":0,"arthritis_risk":5,"migraine_risk":3,"frizz_risk":1,"updated_at":"2026-03-06T16:09:43.356935+05:30"},{"city":"Saharanpur","state":"Uttar Pradesh","latitude":29.9637,"longitude":77.546,"temp":30.2,"humidity":52,"rain":0.0,"pressure":976.4,"uv_index":5.55,"wind_gusts":19.8,"aqi":162,"pm10":103.8,"pm2_5":58.6,"mosquito_risk":0,"arthritis_risk":5,"migraine_risk":3,"frizz_risk":1,"updated_at":"2026-03-06T16:09:43.356945+05:30"},{"city":"Jhansi","state":"Uttar Pradesh","latitude":25.4484,"longitude":78.5685,"temp":35.2,"humidity":18,"rain":0.0,"pressure":978.7,"uv_index":6.85,"wind_gusts":24.1,"aqi":71,"pm10":75.2,"pm2_5":20.5,"mosquito_risk":0,"arthritis_risk":5,"migraine_risk":10,"frizz_risk":0,"updated_at":"2026-03-06T16:09:46.628447+05:30"},{"city":"Surat","state":"Gujarat","latitude":21.1702,"longitude":72.8311,"temp":32.5,"humidity":42,"rain":0.0,"pressure":1006.9,"uv_index":7.15,"wind_gusts":24.1,"aqi":130,"pm10":38.5,"pm2_5":37.3,"mosquito_risk":0,"arthritis_risk":5,"migraine_risk":4,"frizz_risk":1,"updated_at":"2026-03-06T16:09:46.628478+05:30"},{"city":"Vadodara","state":"Gujarat","latitude":22.3072,"longitude":73.1812,"temp":36.2,"humidity":25,"rain":0.0,"pressure":1004.4,"uv_index":7.25,"wind_gusts":20.2,"aqi":105,"pm10":26.8,"pm2_5":24.6,"mosquito_risk":0,"arthritis_risk":5,"migraine_risk":7,"frizz_risk":0,"updated_at":"2026-03-06T16:09:46.628488+05:30"},{"city":"Rajkot","state":"Gujarat","latitude":22.3039,"longitude":70.8022,"temp":34.1,"humidity":28,"rain":0.0,"pressure":995.1,"uv_index":7.1,"wind_gusts":24.1,"aqi":57,"pm10":22.3,"pm2_5":14.3,"mosquito_risk":0,"arthritis_risk":5,"migraine_risk":7,"frizz_risk":0,"updated_at":"2026-03-06T16:09:46.628496+05:30"},{"city":"Thane","state":"Maharashtra","latitude":19.2183,"longitude":72.9781,"temp":32.2,"humidity":46,"rain":0.0,"pressure":1007.3,"uv_index":7.4,"wind_gusts":37.8,"aqi":114,"pm10":47.1,"pm2_5":44.8,"mosquito_risk":0,"arthritis_risk":5,"migraine_risk":4,"frizz_risk":1,"updated_at":"2026-03-06T16:09:46.628503+05:30"},{"city":"Nagpur","state":"Maharashtra","latitude":21.1458,"longitude":79.0882,"temp":36.9,"humidity":14,"rain":0.0,"pressure":972.3,"uv_index":7.8,"wind_gusts":25.9,"aqi":72,"pm10":26.0,"pm2_5":14.3,"mosquito_risk":0,"arthritis_risk":5,"migraine_risk":10,"frizz_risk":0,"updated_at":"2026-03-06T16:09:46.628510+05:30"},{"city":"Nashik","state":"Maharashtra","latitude":19.9975,"longitude":73.7898,"temp":35.3,"humidity":17,"rain":0.0,"pressure":945.6,"uv_index":7.6,"wind_gusts":34.9,"aqi":87,"pm10":25.6,"pm2_5":22.1,"mosquito_risk":0,"arthritis_risk":5,"migraine_risk":10,"frizz_risk":0,"updated_at":"2026-03-06T16:09:46.628517+05:30"},{"city":"Aurangabad","state":"Maharashtra","latitude":19.8762,"longitude":75.3433,"temp":36.1,"humidity":16,"rain":0.0,"pressure":943.8,"uv_index":8.15,"wind_gusts":23.8,"aqi":99,"pm10":18.9,"pm2_5":15.3,"mosquito_risk":0,"arthritis_risk":5,"migraine_risk":10,"frizz_risk":0,"updated_at":"2026-03-06T16:09:46.628523+05:30"},{"city":"Solapur","state":"Maharashtra","latitude":17.6599,"longitude":75.9064,"temp":36.2,"humidity":16,"rain":0.0,"pressure":956.1,"uv_index":8.4,"wind_gusts":18.0,"aqi":95,"pm10":18.3,"pm2_5":14.2,"mosquito_risk":0,"arthritis_risk":5,"migraine_risk":10,"frizz_risk":0,"updated_at":"2026-03-06T16:09:46.628531+05:30"},{"city":"Kolhapur","state":"Maharashtra","latitude":16.705,"longitude":74.2433,"temp":35.4,"humidity":18,"rain":0.0,"pressure":947.0,"uv_index":8.55,"wind_gusts":31.7,"aqi":150,"pm10":17.6,"pm2_5":15.6,"mosquito_risk":0,"arthritis_risk":5,"migraine_risk":10,"frizz_risk":0,"updated_at":"2026-03-06T16:09:46.628537+05:30"},{"city":"Goa","state":"Goa","latitude":15.2993,"longitude":74.124,"temp":30.2,"humidity":66,"rain":0.0,"pressure":996.1,"uv_index":8.55,"wind_gusts":32.0,"aqi":157,"pm10":53.4,"pm2_5":50.9,"mosquito_risk":3,"arthritis_risk":5,"migraine_risk":7,"frizz_risk":1,"updated_at":"2026-03-06T16:09:46.628544+05:30"},{"city":"Jodhpur","state":"Rajasthan","latitude":26.2389,"longitude":73.0243,"temp":35.3,"humidity":20,"rain":0.0,"pressure":984.0,"uv_index":6.95,"wind_gusts":22.7,"aqi":61,"pm10":37.7,"pm2_5":13.7,"mosquito_risk":0,"arthritis_risk":5,"migraine_risk":10,"frizz_risk":0,"updated_at":"2026-03-06T16:09:46.628551+05:30"},{"city":"Udaipur","state":"Rajasthan","latitude":24.5854,"longitude":73.7125,"temp":35.2,"humidity":16,"rain":0.0,"pressure":947.9,"uv_index":7.6,"wind_gusts":22.3,"aqi":56,"pm10":10.2,"pm2_5":7.7,"mosquito_risk":0,"arthritis_risk":5,"migraine_risk":10,"frizz_risk":0,"updated_at":"2026-03-06T16:09:46.628558+05:30"},{"city":"Kota","state":"Rajasthan","latitude":25.2138,"longitude":75.8648,"temp":36.6,"humidity":16,"rain":0.0,"pressure":979.1,"uv_index":7.0,"wind_gusts":17.3,"aqi":73,"pm10":24.4,"pm2_5":10.5,"mosquito_risk":0,"arthritis_risk":5,"migraine_risk":10,"frizz_risk":0,"updated_at":"2026-03-06T16:09:46.628564+05:30"},{"city":"Bikaner","state":"Rajasthan","latitude":28.0229,"longitude":73.3119,"temp":36.0,"humidity":10,"rain":0.0,"pressure":982.4,"uv_index":6.65,"wind_gusts":23.8,"aqi":57,"pm10":34.5,"pm2_5":9.8,"mosquito_risk":0,"arthritis_risk":5,"migraine_risk":10,"frizz_risk":1,"updated_at":"2026-03-06T16:09:46.628571+05:30"},{"city":"Ajmer","state":"Rajasthan","latitude":26.4499,"longitude":74.6399,"temp":35.0,"humidity":16,"rain":0.0,"pressure":955.8,"uv_index":6.95,"wind_gusts":26.3,"aqi":65,"pm10":15.0,"pm2_5":8.6,"mosquito_risk":0,"arthritis_risk":5,"migraine_risk":7,"frizz_risk":0,"updated_at":"2026-03-06T16:09:46.628578+05:30"},{"city":"Gwalior","state":"Madhya Pradesh","latitude":26.2183,"longitude":78.1828,"temp":32.9,"humidity":29,"rain":0.0,"pressure":984.0,"uv_index":6.6,"wind_gusts":20.9,"aqi":101,"pm10":74.5,"pm2_5":20.9,"mosquito_risk":0,"arthritis_risk":5,"migraine_risk":7,"frizz_risk":0,"updated_at":"2026-03-06T16:09:46.628584+05:30"},{"city":"Indore","state":"Madhya Pradesh","latitude":22.7196,"longitude":75.8577,"temp":34.1,"humidity":19,"rain":0.0,"pressure":948.9,"uv_index":7.55,"wind_gusts":22.3,"aqi":69,"pm10":11.9,"pm2_5":10.1,"mosquito_risk":0,"arthritis_risk":5,"migraine_risk":7,"frizz_risk":0,"updated_at":"2026-03-06T16:09:46.628591+05:30"},{"city":"Bhopal","state":"Madhya Pradesh","latitude":23.2599,"longitude":77.4126,"temp":34.3,"humidity":21,"rain":0.0,"pressure":954.3,"uv_index":7.4,"wind_gusts":24.8,"aqi":72,"pm10":27.1,"pm2_5":14.3,"mosquito_risk":0,"arthritis_risk":5,"migraine_risk":7,"frizz_risk":0,"updated_at":"2026-03-06T16:09:46.628598+05:30"},{"city":"Jabalpur","state":"Madhya Pradesh","latitude":23.1815,"longitude":79.9864,"temp":34.3,"humidity":20,"rain":0.0,"pressure":961.7,"uv_index":7.5,"wind_gusts":26.6,"aqi":66,"pm10":43.9,"pm2_5":15.9,"mosquito_risk":0,"arthritis_risk":5,"migraine_risk":7,"frizz_risk":0,"updated_at":"2026-03-06T16:09:46.628604+05:30"},{"city":"Ujjain","state":"Madhya Pradesh","latitude":23.1765,"longitude":75.7885,"temp":33.7,"humidity":23,"rain":0.0,"pressure":954.6,"uv_index":7.45,"wind_gusts":19.1,"aqi":75,"pm10":12.4,"pm2_5":10.6,"mosquito_risk":0,"arthritis_risk":5,"migraine_risk":7,"frizz_risk":0,"updated_at":"2026-03-06T16:09:46.628611+05:30"},{"city":"Visakhapatnam","state":"Andhra Pradesh","latitude":17.6868,"longitude":83.2185,"temp":30.8,"humidity":62,"rain":0.0,"pressure":1001.7,"uv_index":8.45,"wind_gusts":35.3,"aqi":147,"pm10":40.2,"pm2_5":35.3,"mosquito_risk":3,"arthritis_risk":5,"migraine_risk":4,"frizz_risk":1,"updated_at":"2026-03-06T16:09:46.628618+05:30"},{"city":"Vijayawada","state":"Andhra Pradesh","latitude":16.5062,"longitude":80.648,"temp":36.8,"humidity":26,"rain":0.0,"pressure":999.9,"uv_index":8.55,"wind_gusts":14.8,"aqi":127,"pm10":23.6,"pm2_5":16.6,"mosquito_risk":0,"arthritis_risk":5,"migraine_risk":10,"frizz_risk":0,"updated_at":"2026-03-06T16:09:46.628625+05:30"},{"city":"Guntur","state":"Andhra Pradesh","latitude":16.3067,"longitude":80.4365,"temp":36.8,"humidity":21,"rain":0.0,"pressure":1001.3,"uv_index":8.55,"wind_gusts":18.0,"aqi":109,"pm10":20.8,"pm2_5":14.1,"mosquito_risk":0,"arthritis_risk":5,"migraine_risk":7,"frizz_risk":0,"updated_at":"2026-03-06T16:09:46.628632+05:30"},{"city":"Nellore","state":"Andhra Pradesh","latitude":14.4426,"longitude":79.9865,"temp":37.3,"humidity":22,"rain":0.0,"pressure":1003.3,"uv_index":8.75,"wind_gusts":28.8,"aqi":113,"pm10":26.1,"pm2_5":22.9,"mosquito_risk":0,"arthritis_risk":5,"migraine_risk":7,"frizz_risk":0,"updated_at":"2026-03-06T16:09:46.628639+05:30"},{"city":"Kurnool","state":"Andhra Pradesh","latitude":15.8281,"longitude":78.0373,"temp":38.0,"humidity":14,"rain":0.0,"pressure":974.8,"uv_index":8.55,"wind_gusts":23.4,"aqi":91,"pm10":14.5,"pm2_5":12.2,"mosquito_risk":0,"arthritis_risk":5,"migraine_risk":10,"frizz_risk":0,"updated_at":"2026-03-06T16:09:46.628647+05:30"},{"city":"Kakinada","state":"Andhra Pradesh","latitude":16.9891,"longitude":82.2475,"temp":35.4,"humidity":42,"rain":0.0,"pressure":1004.4,"uv_index":8.5,"wind_gusts":31.0,"aqi":111,"pm10":27.9,"pm2_5":22.0,"mosquito_risk":0,"arthritis_risk":5,"migraine_risk":7,"frizz_risk":1,"updated_at":"2026-03-06T16:09:46.628654+05:30"},{"city":"Tirupati","state":"Andhra Pradesh","latitude":13.6288,"longitude":79.4192,"temp":36.5,"humidity":17,"rain":0.0,"pressure":989.1,"uv_index":8.85,"wind_gusts":30.6,"aqi":106,"pm10":23.9,"pm2_5":21.6,"mosquito_risk":0,"arthritis_risk":5,"migraine_risk":10,"frizz_risk":0,"updated_at":"2026-03-06T16:09:46.628678+05:30"},{"city":"Warangal","state":"Telangana","latitude":17.9689,"longitude":79.5941,"temp":35.8,"humidity":21,"rain":0.0,"pressure":977.3,"uv_index":8.3,"wind_gusts":24.5,"aqi":89,"pm10":27.8,"pm2_5":16.1,"mosquito_risk":0,"arthritis_risk":5,"migraine_risk":10,"frizz_risk":0,"updated_at":"2026-03-06T16:09:46.628686+05:30"},{"city":"Nizamabad","state":"Telangana","latitude":18.6725,"longitude":78.0941,"temp":35.9,"humidity":19,"rain":0.0,"pressure":963.9,"uv_index":8.2,"wind_gusts":28.8,"aqi":88,"pm10":26.0,"pm2_5":14.8,"mosquito_risk":0,"arthritis_risk":5,"migraine_risk":10,"frizz_risk":0,"updated_at":"2026-03-06T16:09:46.628692+05:30"},{"city":"Mysore","state":"Karnataka","latitude":12.2958,"longitude":76.6396,"temp":33.7,"humidity":24,"rain":0.0,"pressure":927.1,"uv_index":9.2,"wind_gusts":36.4,"aqi":132,"pm10":29.2,"pm2_5":27.2,"mosquito_risk":0,"arthritis_risk":5,"migraine_risk":7,"frizz_risk":0,"updated_at":"2026-03-06T16:09:46.628699+05:30"},{"city":"Mangalore","state":"Karnataka","latitude":12.9141,"longitude":74.856,"temp":29.2,"humidity":76,"rain":0.0,"pressure":1004.7,"uv_index":8.8,"wind_gusts":23.8,"aqi":122,"pm10":43.1,"pm2_5":39.9,"mosquito_risk":7,"arthritis_risk":5,"migraine_risk":4,"frizz_risk":1,"updated_at":"2026-03-06T16:09:46.628705+05:30"},{"city":"Hubli-Dharwad","state":"Karnataka","latitude":15.3647,"longitude":75.124,"temp":36.0,"humidity":17,"rain":0.0,"pressure":939.4,"uv_index":8.75,"wind_gusts":36.7,"aqi":113,"pm10":25.4,"pm2_5":23.1,"mosquito_risk":0,"arthritis_risk":5,"migraine_risk":10,"frizz_risk":0,"updated_at":"2026-03-06T16:09:46.628712+05:30"},{"city":"Belgaum","state":"Karnataka","latitude":15.8497,"longitude":74.4977,"temp":34.8,"humidity":17,"rain":0.0,"pressure":925.1,"uv_index":8.8,"wind_gusts":40.0,"aqi":117,"pm10":19.2,"pm2_5":17.5,"mosquito_risk":0,"arthritis_risk":5,"migraine_risk":7,"frizz_risk":0,"updated_at":"2026-03-06T16:09:49.908489+05:30"},{"city":"Coimbatore","state":"Tamil Nadu","latitude":11.0168,"longitude":76.9558,"temp":34.0,"humidity":33,"rain":0.0,"pressure":959.8,"uv_index":9.15,"wind_gusts":47.9,"aqi":143,"pm10":31.8,"pm2_5":29.5,"mosquito_risk":0,"arthritis_risk":5,"migraine_risk":7,"frizz_risk":0,"updated_at":"2026-03-06T16:09:49.908520+05:30"},{"city":"Madurai","state":"Tamil Nadu","latitude":9.9252,"longitude":78.1198,"temp":35.7,"humidity":32,"rain":0.0,"pressure":990.3,"uv_index":9.15,"wind_gusts":33.5,"aqi":94,"pm10":30.4,"pm2_5":26.5,"mosquito_risk":0,"arthritis_risk":5,"migraine_risk":10,"frizz_risk":1,"updated_at":"2026-03-06T16:09:49.908530+05:30"},{"city":"Trichy","state":"Tamil Nadu","latitude":10.7905,"longitude":78.7047,"temp":37.1,"humidity":24,"rain":0.0,"pressure":996.9,"uv_index":9.05,"wind_gusts":26.6,"aqi":83,"pm10":28.1,"pm2_5":25.4,"mosquito_risk":0,"arthritis_risk":5,"migraine_risk":10,"frizz_risk":0,"updated_at":"2026-03-06T16:09:49.908539+05:30"},{"city":"Salem","state":"Tamil Nadu","latitude":11.6643,"longitude":78.146,"temp":36.4,"humidity":27,"rain":0.0,"pressure":974.5,"uv_index":9.05,"wind_gusts":18.0,"aqi":125,"pm10":37.8,"pm2_5":33.8,"mosquito_risk":0,"arthritis_risk":5,"migraine_risk":10,"frizz_risk":0,"updated_at":"2026-03-06T16:09:49.908546+05:30"},{"city":"Tirunelveli","state":"Tamil Nadu","latitude":8.7139,"longitude":77.7567,"temp":37.8,"humidity":24,"rain":0.0,"pressure":1000.3,"uv_index":9.15,"wind_gusts":48.6,"aqi":113,"pm10":29.4,"pm2_5":24.7,"mosquito_risk":0,"arthritis_risk":5,"migraine_risk":7,"frizz_risk":0,"updated_at":"2026-03-06T16:09:49.908554+05:30"},{"city":"Vellore","state":"Tamil Nadu","latitude":12.9165,"longitude":79.1325,"temp":35.8,"humidity":22,"rain":0.0,"pressure":982.3,"uv_index":8.95,"wind_gusts":31.3,"aqi":115,"pm10":31.9,"pm2_5":29.6,"mosquito_risk":0,"arthritis_risk":5,"migraine_risk":10,"frizz_risk":0,"updated_at":"2026-03-06T16:09:49.908561+05:30"},{"city":"Erode","state":"Tamil Nadu","latitude":11.341,"longitude":77.7172,"temp":37.2,"humidity":27,"rain":0.0,"pressure":986.0,"uv_index":9.05,"wind_gusts":20.2,"aqi":126,"pm10":34.1,"pm2_5":30.5,"mosquito_risk":0,"arthritis_risk":5,"migraine_risk":10,"frizz_risk":0,"updated_at":"2026-03-06T16:09:49.908568+05:30"},{"city":"Kochi","state":"Kerala","latitude":9.9312,"longitude":76.2673,"temp":28.1,"humidity":82,"rain":0.0,"pressure":1006.7,"uv_index":9.0,"wind_gusts":34.6,"aqi":135,"pm10":43.2,"pm2_5":39.9,"mosquito_risk":7,"arthritis_risk":5,"migraine_risk":4,"frizz_risk":1,"updated_at":"2026-03-06T16:09:49.908576+05:30"},{"city":"Thiruvananthapuram","state":"Kerala","latitude":8.5241,"longitude":76.9366,"temp":28.2,"humidity":79,"rain":0.0,"pressure":1006.2,"uv_index":9.0,"wind_gusts":35.3,"aqi":82,"pm10":30.6,"pm2_5":27.2,"mosquito_risk":7,"arthritis_risk":5,"migraine_risk":4,"frizz_risk":1,"updated_at":"2026-03-06T16:09:49.908584+05:30"},{"city":"Kozhikode","state":"Kerala","latitude":11.2588,"longitude":75.7804,"temp":29.6,"humidity":74,"rain":0.0,"pressure":1006.0,"uv_index":8.85,"wind_gusts":27.0,"aqi":105,"pm10":38.1,"pm2_5":34.6,"mosquito_risk":7,"arthritis_risk":5,"migraine_risk":4,"frizz_risk":1,"updated_at":"2026-03-06T16:09:49.908590+05:30"},{"city":"Thrissur","state":"Kerala","latitude":10.5276,"longitude":76.2144,"temp":31.0,"humidity":68,"rain":0.0,"pressure":1005.1,"uv_index":8.95,"wind_gusts":33.5,"aqi":127,"pm10":36.3,"pm2_5":33.8,"mosquito_risk":3,"arthritis_risk":5,"migraine_risk":4,"frizz_risk":1,"updated_at":"2026-03-06T16:09:49.908598+05:30"},{"city":"Kannur","state":"Kerala","latitude":11.8745,"longitude":75.3704,"temp":30.7,"humidity":69,"rain":0.0,"pressure":1005.3,"uv_index":8.85,"wind_gusts":32.0,"aqi":110,"pm10":39.3,"pm2_5":36.3,"mosquito_risk":3,"arthritis_risk":5,"migraine_risk":4,"frizz_risk":1,"updated_at":"2026-03-06T16:09:49.908606+05:30"},{"city":"Patna","state":"Bihar","latitude":25.5941,"longitude":85.1376,"temp":31.4,"humidity":38,"rain":0.0,"pressure":1001.8,"uv_index":7.25,"wind_gusts":21.6,"aqi":165,"pm10":83.6,"pm2_5":65.7,"mosquito_risk":0,"arthritis_risk":5,"migraine_risk":4,"frizz_risk":0,"updated_at":"2026-03-06T16:09:49.908612+05:30"},{"city":"Gaya","state":"Bihar","latitude":24.7914,"longitude":85.0002,"temp":30.2,"humidity":51,"rain":0.0,"pressure":994.4,"uv_index":7.35,"wind_gusts":20.5,"aqi":169,"pm10":86.6,"pm2_5":62.4,"mosquito_risk":0,"arthritis_risk":5,"migraine_risk":7,"frizz_risk":1,"updated_at":"2026-03-06T16:09:49.908619+05:30"},{"city":"Muzaffarpur","state":"Bihar","latitude":26.1209,"longitude":85.3647,"temp":31.5,"humidity":37,"rain":0.0,"pressure":1001.9,"uv_index":7.2,"wind_gusts":20.5,"aqi":169,"pm10":82.9,"pm2_5":65.7,"mosquito_risk":0,"arthritis_risk":5,"migraine_risk":4,"frizz_risk":0,"updated_at":"2026-03-06T16:09:49.908625+05:30"},{"city":"Bhagalpur","state":"Bihar","latitude":25.2425,"longitude":87.0117,"temp":30.3,"humidity":47,"rain":0.0,"pressure":1002.6,"uv_index":7.3,"wind_gusts":17.3,"aqi":161,"pm10":66.8,"pm2_5":54.7,"mosquito_risk":0,"arthritis_risk":5,"migraine_risk":4,"frizz_risk":1,"updated_at":"2026-03-06T16:09:49.908631+05:30"},{"city":"Ranchi","state":"Jharkhand","latitude":23.3441,"longitude":85.3096,"temp":29.4,"humidity":35,"rain":0.0,"pressure":938.2,"uv_index":8.0,"wind_gusts":31.0,"aqi":174,"pm10":88.2,"pm2_5":55.1,"mosquito_risk":4,"arthritis_risk":5,"migraine_risk":7,"frizz_risk":0,"updated_at":"2026-03-06T16:09:49.908638+05:30"},{"city":"Jamshedpur","state":"Jharkhand","latitude":22.8046,"longitude":86.2029,"temp":32.0,"humidity":37,"rain":0.0,"pressure":990.8,"uv_index":7.9,"wind_gusts":21.2,"aqi":152,"pm10":85.4,"pm2_5":51.6,"mosquito_risk":0,"arthritis_risk":5,"migraine_risk":7,"frizz_risk":0,"updated_at":"2026-03-06T16:09:49.908644+05:30"},{"city":"Dhanbad","state":"Jharkhand","latitude":23.7957,"longitude":86.4304,"temp":32.4,"humidity":28,"rain":0.0,"pressure":980.2,"uv_index":7.75,"wind_gusts":27.4,"aqi":170,"pm10":92.4,"pm2_5":68.5,"mosquito_risk":0,"arthritis_risk":5,"migraine_risk":7,"frizz_risk":0,"updated_at":"2026-03-06T16:09:49.908650+05:30"},{"city":"Bokaro","state":"Jharkhand","latitude":23.6693,"longitude":86.1511,"temp":32.0,"humidity":29,"rain":0.0,"pressure":984.1,"uv_index":7.75,"wind_gusts":29.5,"aqi":174,"pm10":101.3,"pm2_5":72.2,"mosquito_risk":0,"arthritis_risk":5,"migraine_risk":7,"frizz_risk":0,"updated_at":"2026-03-06T16:09:49.908657+05:30"},{"city":"Bhubaneswar","state":"Odisha","latitude":20.2961,"longitude":85.8245,"temp":31.2,"humidity":53,"rain":0.0,"pressure":1001.8,"uv_index":8.2,"wind_gusts":29.9,"aqi":162,"pm10":57.0,"pm2_5":44.5,"mosquito_risk":0,"arthritis_risk":5,"migraine_risk":4,"frizz_risk":1,"updated_at":"2026-03-06T16:09:49.908681+05:30"},{"city":"Cuttack","state":"Odisha","latitude":20.4625,"longitude":85.8828,"temp":33.6,"humidity":39,"rain":0.0,"pressure":1003.3,"uv_index":8.2,"wind_gusts":32.4,"aqi":162,"pm10":57.0,"pm2_5":44.5,"mosquito_risk":0,"arthritis_risk":5,"migraine_risk":4,"frizz_risk":1,"updated_at":"2026-03-06T16:09:49.908689+05:30"},{"city":"Rourkela","state":"Odisha","latitude":22.2604,"longitude":84.8536,"temp":34.3,"humidity":30,"rain":0.0,"pressure":983.8,"uv_index":7.8,"wind_gusts":10.4,"aqi":170,"pm10":105.5,"pm2_5":58.3,"mosquito_risk":0,"arthritis_risk":5,"migraine_risk":7,"frizz_risk":0,"updated_at":"2026-03-06T16:09:49.908695+05:30"},{"city":"Raipur","state":"Chhattisgarh","latitude":21.2514,"longitude":81.6296,"temp":36.6,"humidity":21,"rain":0.0,"pressure":973.3,"uv_index":7.9,"wind_gusts":22.7,"aqi":88,"pm10":45.1,"pm2_5":19.2,"mosquito_risk":0,"arthritis_risk":5,"migraine_risk":10,"frizz_risk":0,"updated_at":"2026-03-06T16:09:49.908702+05:30"},{"city":"Bhilai","state":"Chhattisgarh","latitude":21.1938,"longitude":81.3509,"temp":37.4,"humidity":17,"rain":0.0,"pressure":973.6,"uv_index":7.95,"wind_gusts":23.8,"aqi":77,"pm10":31.8,"pm2_5":16.7,"mosquito_risk":0,"arthritis_risk":5,"migraine_risk":10,"frizz_risk":0,"updated_at":"2026-03-06T16:09:49.908708+05:30"},{"city":"Guwahati","state":"Assam","latitude":26.1158,"longitude":91.7086,"temp":30.6,"humidity":52,"rain":0.0,"pressure":1002.0,"uv_index":7.25,"wind_gusts":20.5,"aqi":153,"pm10":56.7,"pm2_5":48.8,"mosquito_risk":0,"arthritis_risk":5,"migraine_risk":4,"frizz_risk":1,"updated_at":"2026-03-06T16:09:49.908714+05:30"},{"city":"Agartala","state":"Tripura","latitude":23.8315,"longitude":91.2868,"temp":31.6,"humidity":48,"rain":0.0,"pressure":1006.3,"uv_index":7.55,"wind_gusts":16.9,"aqi":170,"pm10":60.8,"pm2_5":50.1,"mosquito_risk":0,"arthritis_risk":5,"migraine_risk":4,"frizz_risk":1,"updated_at":"2026-03-06T16:09:49.908721+05:30"},{"city":"Shillong","state":"Meghalaya","latitude":25.5788,"longitude":91.8933,"temp":19.7,"humidity":45,"rain":0.0,"pressure":858.4,"uv_index":7.6,"wind_gusts":33.1,"aqi":135,"pm10":39.6,"pm2_5":34.6,"mosquito_risk":0,"arthritis_risk":5,"migraine_risk":7,"frizz_risk":0,"updated_at":"2026-03-06T16:09:49.908727+05:30"},{"city":"Imphal","state":"Manipur","latitude":24.817,"longitude":93.9368,"temp":24.7,"humidity":41,"rain":0.0,"pressure":924.2,"uv_index":7.8,"wind_gusts":34.9,"aqi":154,"pm10":53.3,"pm2_5":47.3,"mosquito_risk":0,"arthritis_risk":5,"migraine_risk":7,"frizz_risk":0,"updated_at":"2026-03-06T16:09:49.908734+05:30"},{"city":"Aizawl","state":"Mizoram","latitude":23.7271,"longitude":92.7176,"temp":26.5,"humidity":35,"rain":0.0,"pressure":894.3,"uv_index":7.75,"wind_gusts":34.6,"aqi":184,"pm10":81.3,"pm2_5":73.1,"mosquito_risk":4,"arthritis_risk":5,"migraine_risk":7,"frizz_risk":0,"updated_at":"2026-03-06T16:09:49.908740+05:30"},{"city":"Kohima","state":"Nagaland","latitude":25.6701,"longitude":94.1077,"temp":18.7,"humidity":65,"rain":0.0,"pressure":856.6,"uv_index":7.65,"wind_gusts":43.9,"aqi":155,"pm10":72.9,"pm2_5":65.7,"mosquito_risk":3,"arthritis_risk":5,"migraine_risk":7,"frizz_risk":0,"updated_at":"2026-03-06T16:09:49.908747+05:30"},{"city":"Gangtok","state":"Sikkim","latitude":27.3314,"longitude":88.6138,"temp":17.1,"humidity":78,"rain":0.0,"pressure":840.0,"uv_index":7.55,"wind_gusts":18.0,"aqi":116,"pm10":47.4,"pm2_5":41.3,"mosquito_risk":3,"arthritis_risk":5,"migraine_risk":7,"frizz_risk":0,"updated_at":"2026-03-06T16:09:49.908753+05:30"},{"city":"Siliguri","state":"West Bengal","latitude":26.7271,"longitude":88.3953,"temp":26.5,"humidity":46,"rain":0.0,"pressure":995.6,"uv_index":7.2,"wind_gusts":14.8,"aqi":142,"pm10":53.7,"pm2_5":44.6,"mosquito_risk":4,"arthritis_risk":5,"migraine_risk":7,"frizz_risk":0,"updated_at":"2026-03-06T16:09:53.187558+05:30"},{"city":"Durgapur","state":"West Bengal","latitude":23.5204,"longitude":87.3119,"temp":32.0,"humidity":32,"rain":0.0,"pressure":995.5,"uv_index":7.75,"wind_gusts":24.1,"aqi":162,"pm10":75.0,"pm2_5":57.3,"mosquito_risk":0,"arthritis_risk":5,"migraine_risk":7,"frizz_risk":0,"updated_at":"2026-03-06T16:09:53.187592+05:30"},{"city":"Asansol","state":"West Bengal","latitude":23.6739,"longitude":86.9524,"temp":32.4,"humidity":30,"rain":0.0,"pressure":993.9,"uv_index":7.75,"wind_gusts":21.6,"aqi":171,"pm10":84.8,"pm2_5":64.7,"mosquito_risk":0,"arthritis_risk":5,"migraine_risk":7,"frizz_risk":0,"updated_at":"2026-03-06T16:09:53.187604+05:30"},{"city":"Pondicherry","state":"Puducherry","latitude":11.9139,"longitude":79.8145,"temp":34.0,"humidity":45,"rain":0.0,"pressure":1006.4,"uv_index":8.9,"wind_gusts":32.4,"aqi":68,"pm10":29.2,"pm2_5":25.6,"mosquito_risk":0,"arthritis_risk":5,"migraine_risk":4,"frizz_risk":1,"updated_at":"2026-03-06T16:09:53.187613+05:30"},{"city":"Port Blair","state":"Andaman and Nicobar Islands","latitude":11.6234,"longitude":92.7265,"temp":27.8,"humidity":66,"rain":0.0,"pressure":1006.9,"uv_index":8.85,"wind_gusts":14.4,"aqi":57,"pm10":43.0,"pm2_5":25.7,"mosquito_risk":7,"arthritis_risk":5,"migraine_risk":4,"frizz_risk":1,"updated_at":"2026-03-06T16:09:53.187622+05:30"},{"city":"Haridwar","state":"Uttarakhand","latitude":29.9457,"longitude":78.1642,"temp":30.2,"humidity":49,"rain":0.0,"pressure":975.3,"uv_index":5.65,"wind_gusts":23.4,"aqi":154,"pm10":110.6,"pm2_5":63.1,"mosquito_risk":0,"arthritis_risk":5,"migraine_risk":3,"frizz_risk":1,"updated_at":"2026-03-06T16:09:53.187630+05:30"},{"city":"Rishikesh","state":"Uttarakhand","latitude":30.0869,"longitude":78.2676,"temp":29.4,"humidity":49,"rain":0.0,"pressure":968.2,"uv_index":5.7,"wind_gusts":21.6,"aqi":150,"pm10":102.2,"pm2_5":63.3,"mosquito_risk":4,"arthritis_risk":5,"migraine_risk":3,"frizz_risk":1,"updated_at":"2026-03-06T16:09:53.187638+05:30"},{"city":"Nainital","state":"Uttarakhand","latitude":29.3919,"longitude":79.4542,"temp":21.9,"humidity":54,"rain":0.0,"pressure":808.7,"uv_index":6.5,"wind_gusts":46.4,"aqi":160,"pm10":102.7,"pm2_5":65.7,"mosquito_risk":0,"arthritis_risk":5,"migraine_risk":7,"frizz_risk":0,"updated_at":"2026-03-06T16:09:53.187647+05:30"},{"city":"Mussoorie","state":"Uttarakhand","latitude":30.4599,"longitude":78.0664,"temp":20.5,"humidity":67,"rain":0.0,"pressure":805.2,"uv_index":6.05,"wind_gusts":40.7,"aqi":144,"pm10":105.2,"pm2_5":60.5,"mosquito_risk":3,"arthritis_risk":5,"migraine_risk":7,"frizz_risk":0,"updated_at":"2026-03-06T16:09:53.187656+05:30"},{"city":"Dharamshala","state":"Himachal Pradesh","latitude":32.219,"longitude":76.3234,"temp":26.6,"humidity":52,"rain":0.0,"pressure":871.5,"uv_index":5.6,"wind_gusts":21.2,"aqi":57,"pm10":19.9,"pm2_5":9.7,"mosquito_risk":4,"arthritis_risk":5,"migraine_risk":3,"frizz_risk":0,"updated_at":"2026-03-06T16:09:53.187687+05:30"},{"city":"Dalhousie","state":"Himachal Pradesh","latitude":32.5387,"longitude":75.971,"temp":25.3,"humidity":40,"rain":0.0,"pressure":807.4,"uv_index":5.75,"wind_gusts":20.9,"aqi":95,"pm10":39.9,"pm2_5":22.8,"mosquito_risk":4,"arthritis_risk":5,"migraine_risk":3,"frizz_risk":0,"updated_at":"2026-03-06T16:09:53.187697+05:30"},{"city":"Patiala","state":"Punjab","latitude":30.3398,"longitude":76.3869,"temp":32.3,"humidity":42,"rain":0.0,"pressure":978.5,"uv_index":5.7,"wind_gusts":13.0,"aqi":163,"pm10":224.0,"pm2_5":62.4,"mosquito_risk":0,"arthritis_risk":5,"migraine_risk":3,"frizz_risk":1,"updated_at":"2026-03-06T16:09:53.187706+05:30"},{"city":"Bhatinda","state":"Punjab","latitude":30.211,"longitude":74.9455,"temp":33.7,"humidity":30,"rain":0.0,"pressure":984.0,"uv_index":6.4,"wind_gusts":16.9,"aqi":145,"pm10":33.3,"pm2_5":22.2,"mosquito_risk":0,"arthritis_risk":5,"migraine_risk":7,"frizz_risk":0,"updated_at":"2026-03-06T16:09:53.187714+05:30"},{"city":"Rohtak","state":"Haryana","latitude":28.8955,"longitude":76.6066,"temp":33.0,"humidity":28,"rain":0.0,"pressure":982.3,"uv_index":5.9,"wind_gusts":19.4,"aqi":354,"pm10":238.4,"pm2_5":46.0,"mosquito_risk":0,"arthritis_risk":5,"migraine_risk":3,"frizz_risk":0,"updated_at":"2026-03-06T16:09:53.187722+05:30"},{"city":"Panipat","state":"Haryana","latitude":29.3909,"longitude":76.9635,"temp":32.7,"humidity":40,"rain":0.0,"pressure":980.8,"uv_index":5.7,"wind_gusts":14.0,"aqi":712,"pm10":344.6,"pm2_5":61.5,"mosquito_risk":0,"arthritis_risk":5,"migraine_risk":3,"frizz_risk":1,"updated_at":"2026-03-06T16:09:53.187730+05:30"},{"city":"Mathura","state":"Uttar Pradesh","latitude":27.4924,"longitude":77.6737,"temp":34.2,"humidity":22,"rain":0.0,"pressure":987.4,"uv_index":6.2,"wind_gusts":19.1,"aqi":481,"pm10":232.8,"pm2_5":50.5,"mosquito_risk":0,"arthritis_risk":5,"migraine_risk":7,"frizz_risk":0,"updated_at":"2026-03-06T16:09:53.187738+05:30"},{"city":"Vrindavan","state":"Uttar Pradesh","latitude":27.5823,"longitude":77.7027,"temp":33.8,"humidity":28,"rain":0.0,"pressure":987.8,"uv_index":6.15,"wind_gusts":17.6,"aqi":481,"pm10":232.8,"pm2_5":50.5,"mosquito_risk":0,"arthritis_risk":5,"migraine_risk":7,"frizz_risk":0,"updated_at":"2026-03-06T16:09:53.187747+05:30"},{"city":"Ayodhya","state":"Uttar Pradesh","latitude":26.7922,"longitude":82.1998,"temp":30.8,"humidity":43,"rain":0.0,"pressure":996.9,"uv_index":6.55,"wind_gusts":19.4,"aqi":167,"pm10":92.7,"pm2_5":61.5,"mosquito_risk":0,"arthritis_risk":5,"migraine_risk":7,"frizz_risk":1,"updated_at":"2026-03-06T16:09:53.187754+05:30"},{"city":"Ratlam","state":"Madhya Pradesh","latitude":23.3315,"longitude":75.0367,"temp":33.3,"humidity":24,"rain":0.0,"pressure":955.6,"uv_index":7.4,"wind_gusts":20.9,"aqi":66,"pm10":12.1,"pm2_5":10.2,"mosquito_risk":0,"arthritis_risk":5,"migraine_risk":7,"frizz_risk":0,"updated_at":"2026-03-06T16:09:53.187762+05:30"},{"city":"Sagar","state":"Madhya Pradesh","latitude":23.8388,"longitude":78.7378,"temp":33.6,"humidity":24,"rain":0.0,"pressure":950.9,"uv_index":7.35,"wind_gusts":21.6,"aqi":60,"pm10":43.4,"pm2_5":13.6,"mosquito_risk":0,"arthritis_risk":5,"migraine_risk":7,"frizz_risk":0,"updated_at":"2026-03-06T16:09:53.187769+05:30"},{"city":"Satna","state":"Madhya Pradesh","latitude":24.6005,"longitude":80.8322,"temp":34.4,"humidity":23,"rain":0.0,"pressure":971.6,"uv_index":7.3,"wind_gusts":31.3,"aqi":95,"pm10":149.5,"pm2_5":43.1,"mosquito_risk":0,"arthritis_risk":5,"migraine_risk":7,"frizz_risk":0,"updated_at":"2026-03-06T16:09:53.187777+05:30"},{"city":"Akola","state":"Maharashtra","latitude":20.7002,"longitude":77.0082,"temp":37.9,"humidity":15,"rain":0.0,"pressure":974.1,"uv_index":7.85,"wind_gusts":19.8,"aqi":78,"pm10":24.0,"pm2_5":14.3,"mosquito_risk":0,"arthritis_risk":5,"migraine_risk":10,"frizz_risk":0,"updated_at":"2026-03-06T16:09:53.187786+05:30"},{"city":"Amravati","state":"Maharashtra","latitude":20.9374,"longitude":77.7796,"temp":37.8,"humidity":15,"rain":0.0,"pressure":966.4,"uv_index":7.8,"wind_gusts":15.1,"aqi":76,"pm10":23.6,"pm2_5":13.0,"mosquito_risk":0,"arthritis_risk":5,"migraine_risk":10,"frizz_risk":0,"updated_at":"2026-03-06T16:09:53.187795+05:30"},{"city":"Latur","state":"Maharashtra","latitude":18.4088,"longitude":76.5604,"temp":34.9,"humidity":18,"rain":0.0,"pressure":939.5,"uv_index":8.3,"wind_gusts":31.7,"aqi":92,"pm10":22.7,"pm2_5":16.8,"mosquito_risk":0,"arthritis_risk":5,"migraine_risk":7,"frizz_risk":0,"updated_at":"2026-03-06T16:09:53.187803+05:30"},{"city":"Nanded","state":"Maharashtra","latitude":19.1383,"longitude":77.3091,"temp":37.7,"humidity":16,"rain":0.0,"pressure":967.5,"uv_index":8.1,"wind_gusts":20.9,"aqi":92,"pm10":20.1,"pm2_5":11.8,"mosquito_risk":0,"arthritis_risk":5,"migraine_risk":10,"frizz_risk":0,"updated_at":"2026-03-06T16:09:53.187811+05:30"},{"city":"Gulbarga","state":"Karnataka","latitude":17.3297,"longitude":76.8343,"temp":37.5,"humidity":14,"rain":0.0,"pressure":957.4,"uv_index":8.4,"wind_gusts":33.1,"aqi":78,"pm10":15.8,"pm2_5":10.4,"mosquito_risk":0,"arthritis_risk":5,"migraine_risk":10,"frizz_risk":0,"updated_at":"2026-03-06T16:09:53.187820+05:30"},{"city":"Bidar","state":"Karnataka","latitude":17.9104,"longitude":77.5199,"temp":35.5,"humidity":16,"rain":0.0,"pressure":935.0,"uv_index":8.35,"wind_gusts":32.8,"aqi":82,"pm10":22.1,"pm2_5":13.4,"mosquito_risk":0,"arthritis_risk":5,"migraine_risk":10,"frizz_risk":0,"updated_at":"2026-03-06T16:09:53.187827+05:30"},{"city":"Hospet","state":"Karnataka","latitude":15.2689,"longitude":76.3909,"temp":36.2,"humidity":18,"rain":0.0,"pressure":954.2,"uv_index":8.75,"wind_gusts":20.2,"aqi":115,"pm10":19.7,"pm2_5":17.7,"mosquito_risk":0,"arthritis_risk":5,"migraine_risk":10,"frizz_risk":0,"updated_at":"2026-03-06T16:09:53.187834+05:30"},{"city":"Tirupur","state":"Tamil Nadu","latitude":11.1085,"longitude":77.3411,"temp":36.9,"humidity":21,"rain":0.0,"pressure":972.7,"uv_index":9.2,"wind_gusts":31.7,"aqi":138,"pm10":36.6,"pm2_5":33.8,"mosquito_risk":0,"arthritis_risk":5,"migraine_risk":10,"frizz_risk":0,"updated_at":"2026-03-06T16:09:53.187842+05:30"},{"city":"Alappuzha","state":"Kerala","latitude":9.4981,"longitude":76.3388,"temp":28.2,"humidity":80,"rain":0.0,"pressure":1006.9,"uv_index":8.95,"wind_gusts":31.0,"aqi":113,"pm10":30.9,"pm2_5":28.2,"mosquito_risk":7,"arthritis_risk":5,"migraine_risk":4,"frizz_risk":1,"updated_at":"2026-03-06T16:09:53.187850+05:30"},{"city":"Munnar","state":"Kerala","latitude":10.0889,"longitude":77.0595,"temp":28.1,"humidity":49,"rain":0.0,"pressure":857.1,"uv_index":9.5,"wind_gusts":29.9,"aqi":99,"pm10":30.9,"pm2_5":27.8,"mosquito_risk":4,"arthritis_risk":5,"migraine_risk":7,"frizz_risk":1,"updated_at":"2026-03-06T16:09:53.187858+05:30"},{"city":"Silchar","state":"Assam","latitude":24.8333,"longitude":92.7789,"temp":32.5,"humidity":38,"rain":0.0,"pressure":1004.6,"uv_index":7.55,"wind_gusts":12.6,"aqi":168,"pm10":67.5,"pm2_5":61.2,"mosquito_risk":0,"arthritis_risk":5,"migraine_risk":4,"frizz_risk":1,"updated_at":"2026-03-06T16:09:53.187866+05:30"},{"city":"Dibrugarh","state":"Assam","latitude":27.4728,"longitude":94.912,"temp":29.5,"humidity":48,"rain":0.0,"pressure":995.9,"uv_index":7.25,"wind_gusts":16.6,"aqi":101,"pm10":32.1,"pm2_5":27.5,"mosquito_risk":4,"arthritis_risk":5,"migraine_risk":7,"frizz_risk":1,"updated_at":"2026-03-06T16:09:53.187873+05:30"}]