[{"city":"Delhi","state":"Delhi","latitude":28.6139,"longitude":77.209,"temp":35.8,"humidity":21,"rain":0.0,"pressure":982.4,"uv_index":7.1,"wind_gusts":45.7,"aqi":492,"pm10":1017.0,"pm2_5":142.0,"mosquito_risk":0,"arthritis_risk":5,"migraine_risk":10,"frizz_risk":0,"updated_at":"2026-04-25T20:15:03.746885+05:30"},{"city":"Mumbai","state":"Maharashtra","latitude":19.076,"longitude":72.8777,"temp":30.8,"humidity":64,"rain":0.0,"pressure":1007.1,"uv_index":8.0,"wind_gusts":42.8,"aqi":146,"pm10":43.5,"pm2_5":27.9,"mosquito_risk":3,"arthritis_risk":5,"migraine_risk":4,"frizz_risk":1,"updated_at":"2026-04-25T20:15:03.746931+05:30"},{"city":"Bangalore","state":"Karnataka","latitude":12.9716,"longitude":77.5946,"temp":29.6,"humidity":36,"rain":0.0,"pressure":913.2,"uv_index":9.3,"wind_gusts":36.4,"aqi":123,"pm10":32.5,"pm2_5":28.3,"mosquito_risk":4,"arthritis_risk":5,"migraine_risk":7,"frizz_risk":0,"updated_at":"2026-04-25T20:15:03.746946+05:30"},{"city":"Hyderabad","state":"Telangana","latitude":17.385,"longitude":78.4867,"temp":34.2,"humidity":27,"rain":0.0,"pressure":954.6,"uv_index":9.3,"wind_gusts":29.2,"aqi":175,"pm10":50.3,"pm2_5":45.4,"mosquito_risk":0,"arthritis_risk":5,"migraine_risk":7,"frizz_risk":0,"updated_at":"2026-04-25T20:15:03.746956+05:30"},{"city":"Chennai","state":"Tamil Nadu","latitude":13.0827,"longitude":80.2707,"temp":29.6,"humidity":78,"rain":0.0,"pressure":1008.1,"uv_index":9.3,"wind_gusts":50.0,"aqi":32,"pm10":11.4,"pm2_5":7.7,"mosquito_risk":7,"arthritis_risk":0,"migraine_risk":4,"frizz_risk":1,"updated_at":"2026-04-25T20:15:03.746964+05:30"},{"city":"Kolkata","state":"West Bengal","latitude":22.5726,"longitude":88.3639,"temp":29.0,"humidity":78,"rain":0.0,"pressure":1005.9,"uv_index":8.55,"wind_gusts":38.9,"aqi":76,"pm10":23.9,"pm2_5":19.2,"mosquito_risk":7,"arthritis_risk":5,"migraine_risk":4,"frizz_risk":1,"updated_at":"2026-04-25T20:15:03.746975+05:30"},{"city":"Pune","state":"Maharashtra","latitude":18.5204,"longitude":73.8567,"temp":32.8,"humidity":29,"rain":0.0,"pressure":948.8,"uv_index":8.35,"wind_gusts":36.4,"aqi":157,"pm10":48.1,"pm2_5":40.3,"mosquito_risk":0,"arthritis_risk":5,"migraine_risk":7,"frizz_risk":0,"updated_at":"2026-04-25T20:15:03.746982+05:30"},{"city":"Ahmedabad","state":"Gujarat","latitude":23.0225,"longitude":72.5714,"temp":40.0,"humidity":12,"rain":0.0,"pressure":1000.7,"uv_index":8.2,"wind_gusts":24.1,"aqi":87,"pm10":46.2,"pm2_5":26.1,"mosquito_risk":0,"arthritis_risk":5,"migraine_risk":7,"frizz_risk":0,"updated_at":"2026-04-25T20:15:03.746989+05:30"},{"city":"Jaipur","state":"Rajasthan","latitude":26.9124,"longitude":75.7873,"temp":35.1,"humidity":19,"rain":0.0,"pressure":961.0,"uv_index":8.05,"wind_gusts":38.2,"aqi":126,"pm10":160.2,"pm2_5":36.0,"mosquito_risk":0,"arthritis_risk":5,"migraine_risk":10,"frizz_risk":0,"updated_at":"2026-04-25T20:15:03.746996+05:30"},{"city":"Lucknow","state":"Uttar Pradesh","latitude":26.8467,"longitude":80.9462,"temp":37.6,"humidity":17,"rain":0.0,"pressure":991.3,"uv_index":7.9,"wind_gusts":42.1,"aqi":149,"pm10":111.3,"pm2_5":38.4,"mosquito_risk":0,"arthritis_risk":5,"migraine_risk":10,"frizz_risk":0,"updated_at":"2026-04-25T20:15:03.747002+05:30"},{"city":"Kanpur","state":"Uttar Pradesh","latitude":26.4499,"longitude":80.3319,"temp":37.8,"humidity":16,"rain":0.0,"pressure":989.9,"uv_index":7.9,"wind_gusts":39.6,"aqi":169,"pm10":425.6,"pm2_5":65.9,"mosquito_risk":0,"arthritis_risk":5,"migraine_risk":10,"frizz_risk":0,"updated_at":"2026-04-25T20:15:03.747008+05:30"},{"city":"Chandigarh","state":"Chandigarh","latitude":30.7333,"longitude":76.7794,"temp":29.4,"humidity":38,"rain":0.0,"pressure":968.8,"uv_index":7.25,"wind_gusts":59.4,"aqi":71,"pm10":43.8,"pm2_5":20.0,"mosquito_risk":4,"arthritis_risk":5,"migraine_risk":7,"frizz_risk":0,"updated_at":"2026-04-25T20:15:03.747015+05:30"},{"city":"Srinagar","state":"Jammu and Kashmir","latitude":34.0837,"longitude":74.7973,"temp":14.4,"humidity":84,"rain":0.0,"pressure":844.4,"uv_index":8.6,"wind_gusts":31.3,"aqi":73,"pm10":39.8,"pm2_5":21.0,"mosquito_risk":3,"arthritis_risk":10,"migraine_risk":7,"frizz_risk":0,"updated_at":"2026-04-25T20:15:03.747022+05:30"},{"city":"Jammu","state":"Jammu and Kashmir","latitude":32.7266,"longitude":74.857,"temp":30.0,"humidity":44,"rain":0.0,"pressure":972.9,"uv_index":8.2,"wind_gusts":43.6,"aqi":79,"pm10":115.9,"pm2_5":38.0,"mosquito_risk":4,"arthritis_risk":5,"migraine_risk":7,"frizz_risk":1,"updated_at":"2026-04-25T20:15:03.747028+05:30"},{"city":"Amritsar","state":"Punjab","latitude":31.634,"longitude":74.8723,"temp":32.5,"humidity":28,"rain":0.0,"pressure":980.8,"uv_index":8.1,"wind_gusts":38.2,"aqi":87,"pm10":134.6,"pm2_5":43.8,"mosquito_risk":0,"arthritis_risk":5,"migraine_risk":7,"frizz_risk":0,"updated_at":"2026-04-25T20:15:03.747035+05:30"},{"city":"Ludhiana","state":"Punjab","latitude":30.901,"longitude":75.8573,"temp":31.6,"humidity":31,"rain":0.0,"pressure":978.6,"uv_index":7.7,"wind_gusts":54.4,"aqi":82,"pm10":86.1,"pm2_5":27.7,"mosquito_risk":0,"arthritis_risk":5,"migraine_risk":7,"frizz_risk":0,"updated_at":"2026-04-25T20:15:03.747043+05:30"},{"city":"Jalandhar","state":"Punjab","latitude":31.326,"longitude":75.5762,"temp":30.2,"humidity":38,"rain":0.0,"pressure":979.5,"uv_index":7.9,"wind_gusts":37.4,"aqi":91,"pm10":117.8,"pm2_5":34.6,"mosquito_risk":0,"arthritis_risk":5,"migraine_risk":7,"frizz_risk":0,"updated_at":"2026-04-25T20:15:03.747048+05:30"},{"city":"Dehradun","state":"Uttarakhand","latitude":30.6284,"longitude":78.0322,"temp":16.7,"humidity":60,"rain":0.0,"pressure":829.4,"uv_index":7.85,"wind_gusts":50.0,"aqi":75,"pm10":41.8,"pm2_5":15.7,"mosquito_risk":0,"arthritis_risk":5,"migraine_risk":7,"frizz_risk":0,"updated_at":"2026-04-25T20:15:03.747054+05:30"},{"city":"Shimla","state":"Himachal Pradesh","latitude":31.1048,"longitude":77.1734,"temp":14.6,"humidity":56,"rain":0.0,"pressure":785.5,"uv_index":7.6,"wind_gusts":55.1,"aqi":56,"pm10":61.9,"pm2_5":18.1,"mosquito_risk":0,"arthritis_risk":5,"migraine_risk":7,"frizz_risk":0,"updated_at":"2026-04-25T20:15:03.747059+05:30"},{"city":"Manali","state":"Himachal Pradesh","latitude":32.2396,"longitude":77.1887,"temp":9.3,"humidity":89,"rain":0.0,"pressure":818.9,"uv_index":9.85,"wind_gusts":43.9,"aqi":103,"pm10":38.2,"pm2_5":11.6,"mosquito_risk":3,"arthritis_risk":10,"migraine_risk":7,"frizz_risk":0,"updated_at":"2026-04-25T20:15:03.747065+05:30"},{"city":"Gurgaon","state":"Haryana","latitude":28.4595,"longitude":77.0266,"temp":33.3,"humidity":24,"rain":0.0,"pressure":980.9,"uv_index":7.5,"wind_gusts":47.2,"aqi":1228,"pm10":2406.5,"pm2_5":267.3,"mosquito_risk":0,"arthritis_risk":5,"migraine_risk":7,"frizz_risk":0,"updated_at":"2026-04-25T20:15:03.747070+05:30"},{"city":"Noida","state":"Uttar Pradesh","latitude":28.5355,"longitude":77.391,"temp":34.4,"humidity":22,"rain":0.0,"pressure":983.5,"uv_index":7.4,"wind_gusts":33.8,"aqi":1228,"pm10":2406.5,"pm2_5":267.3,"mosquito_risk":0,"arthritis_risk":5,"migraine_risk":7,"frizz_risk":0,"updated_at":"2026-04-25T20:15:03.747075+05:30"},{"city":"Ghaziabad","state":"Uttar Pradesh","latitude":28.6692,"longitude":77.4538,"temp":35.5,"humidity":19,"rain":0.0,"pressure":981.8,"uv_index":7.4,"wind_gusts":46.8,"aqi":290,"pm10":812.1,"pm2_5":118.0,"mosquito_risk":0,"arthritis_risk":5,"migraine_risk":10,"frizz_risk":0,"updated_at":"2026-04-25T20:15:03.747081+05:30"},{"city":"Faridabad","state":"Haryana","latitude":28.4089,"longitude":77.3178,"temp":35.9,"humidity":20,"rain":0.0,"pressure":983.0,"uv_index":7.5,"wind_gusts":48.6,"aqi":1228,"pm10":2406.5,"pm2_5":267.3,"mosquito_risk":0,"arthritis_risk":5,"migraine_risk":10,"frizz_risk":0,"updated_at":"2026-04-25T20:15:03.747086+05:30"},{"city":"Meerut","state":"Uttar Pradesh","latitude":28.9845,"longitude":77.7064,"temp":32.4,"humidity":29,"rain":0.0,"pressure":980.6,"uv_index":7.35,"wind_gusts":47.2,"aqi":290,"pm10":812.1,"pm2_5":118.0,"mosquito_risk":0,"arthritis_risk":5,"migraine_risk":7,"frizz_risk":0,"updated_at":"2026-04-25T20:15:03.747092+05:30"},{"city":"Agra","state":"Uttar Pradesh","latitude":27.1767,"longitude":78.0081,"temp":36.2,"humidity":20,"rain":0.0,"pressure":987.0,"uv_index":7.8,"wind_gusts":45.0,"aqi":409,"pm10":1184.6,"pm2_5":141.1,"mosquito_risk":0,"arthritis_risk":5,"migraine_risk":10,"frizz_risk":0,"updated_at":"2026-04-25T20:15:03.747099+05:30"},{"city":"Varanasi","state":"Uttar Pradesh","latitude":25.3176,"longitude":82.9739,"temp":37.5,"humidity":16,"rain":0.0,"pressure":994.9,"uv_index":8.5,"wind_gusts":38.9,"aqi":146,"pm10":168.1,"pm2_5":61.0,"mosquito_risk":0,"arthritis_risk":5,"migraine_risk":10,"frizz_risk":0,"updated_at":"2026-04-25T20:15:03.747105+05:30"},{"city":"Prayagraj","state":"Uttar Pradesh","latitude":25.4358,"longitude":81.8463,"temp":34.0,"humidity":26,"rain":0.0,"pressure":993.5,"uv_index":8.4,"wind_gusts":31.7,"aqi":135,"pm10":174.6,"pm2_5":48.0,"mosquito_risk":0,"arthritis_risk":5,"migraine_risk":7,"frizz_risk":0,"updated_at":"2026-04-25T20:15:03.747111+05:30"},{"city":"Gorakhpur","state":"Uttar Pradesh","latitude":26.7606,"longitude":83.3732,"temp":30.4,"humidity":58,"rain":0.0,"pressure":996.5,"uv_index":8.3,"wind_gusts":43.2,"aqi":188,"pm10":107.8,"pm2_5":54.4,"mosquito_risk":0,"arthritis_risk":5,"migraine_risk":7,"frizz_risk":1,"updated_at":"2026-04-25T20:15:03.747117+05:30"},{"city":"Bareilly","state":"Uttar Pradesh","latitude":28.367,"longitude":79.4304,"temp":32.9,"humidity":28,"rain":0.0,"pressure":984.8,"uv_index":7.7,"wind_gusts":48.6,"aqi":161,"pm10":47.5,"pm2_5":31.0,"mosquito_risk":0,"arthritis_risk":5,"migraine_risk":7,"frizz_risk":0,"updated_at":"2026-04-25T20:15:03.747124+05:30"},{"city":"Aligarh","state":"Uttar Pradesh","latitude":27.8974,"longitude":78.088,"temp":35.7,"humidity":20,"rain":0.0,"pressure":984.5,"uv_index":7.6,"wind_gusts":40.3,"aqi":449,"pm10":1482.7,"pm2_5":177.4,"mosquito_risk":0,"arthritis_risk":5,"migraine_risk":10,"frizz_risk":0,"updated_at":"2026-04-25T20:15:03.747130+05:30"},{"city":"Moradabad","state":"Uttar Pradesh","latitude":28.8386,"longitude":78.7733,"temp":33.8,"humidity":29,"rain":0.0,"pressure":982.1,"uv_index":7.55,"wind_gusts":57.2,"aqi":165,"pm10":169.0,"pm2_5":41.6,"mosquito_risk":0,"arthritis_risk":5,"migraine_risk":7,"frizz_risk":0,"updated_at":"2026-04-25T20:15:03.747136+05:30"},{"city":"Saharanpur","state":"Uttar Pradesh","latitude":29.9637,"longitude":77.546,"temp":32.0,"humidity":29,"rain":0.0,"pressure":974.9,"uv_index":7.15,"wind_gusts":54.0,"aqi":114,"pm10":167.2,"pm2_5":41.8,"mosquito_risk":0,"arthritis_risk":5,"migraine_risk":7,"frizz_risk":0,"updated_at":"2026-04-25T20:15:03.747141+05:30"},{"city":"Jhansi","state":"Uttar Pradesh","latitude":25.4484,"longitude":78.5685,"temp":35.7,"humidity":17,"rain":0.0,"pressure":977.0,"uv_index":8.3,"wind_gusts":32.0,"aqi":103,"pm10":109.0,"pm2_5":31.9,"mosquito_risk":0,"arthritis_risk":5,"migraine_risk":10,"frizz_risk":0,"updated_at":"2026-04-25T20:15:07.011691+05:30"},{"city":"Surat","state":"Gujarat","latitude":21.1702,"longitude":72.8311,"temp":31.5,"humidity":58,"rain":0.0,"pressure":1005.6,"uv_index":7.85,"wind_gusts":36.0,"aqi":106,"pm10":64.7,"pm2_5":49.4,"mosquito_risk":0,"arthritis_risk":5,"migraine_risk":4,"frizz_risk":1,"updated_at":"2026-04-25T20:15:07.011722+05:30"},{"city":"Vadodara","state":"Gujarat","latitude":22.3072,"longitude":73.1812,"temp":38.2,"humidity":14,"rain":0.0,"pressure":1002.7,"uv_index":8.15,"wind_gusts":30.6,"aqi":128,"pm10":47.5,"pm2_5":30.2,"mosquito_risk":0,"arthritis_risk":5,"migraine_risk":7,"frizz_risk":0,"updated_at":"2026-04-25T20:15:07.011730+05:30"},{"city":"Rajkot","state":"Gujarat","latitude":22.3039,"longitude":70.8022,"temp":32.6,"humidity":29,"rain":0.0,"pressure":994.2,"uv_index":7.9,"wind_gusts":36.0,"aqi":79,"pm10":54.2,"pm2_5":21.2,"mosquito_risk":0,"arthritis_risk":5,"migraine_risk":7,"frizz_risk":0,"updated_at":"2026-04-25T20:15:07.011736+05:30"},{"city":"Thane","state":"Maharashtra","latitude":19.2183,"longitude":72.9781,"temp":32.4,"humidity":45,"rain":0.0,"pressure":1006.4,"uv_index":8.0,"wind_gusts":41.0,"aqi":146,"pm10":43.5,"pm2_5":27.9,"mosquito_risk":0,"arthritis_risk":5,"migraine_risk":4,"frizz_risk":1,"updated_at":"2026-04-25T20:15:07.011742+05:30"},{"city":"Nagpur","state":"Maharashtra","latitude":21.1458,"longitude":79.0882,"temp":37.2,"humidity":14,"rain":0.0,"pressure":972.1,"uv_index":8.9,"wind_gusts":37.1,"aqi":182,"pm10":44.5,"pm2_5":36.0,"mosquito_risk":0,"arthritis_risk":5,"migraine_risk":10,"frizz_risk":0,"updated_at":"2026-04-25T20:15:07.011748+05:30"},{"city":"Nashik","state":"Maharashtra","latitude":19.9975,"longitude":73.7898,"temp":32.8,"humidity":23,"rain":0.0,"pressure":946.2,"uv_index":8.3,"wind_gusts":31.0,"aqi":132,"pm10":31.4,"pm2_5":24.1,"mosquito_risk":0,"arthritis_risk":5,"migraine_risk":7,"frizz_risk":0,"updated_at":"2026-04-25T20:15:07.011754+05:30"},{"city":"Aurangabad","state":"Maharashtra","latitude":19.8762,"longitude":75.3433,"temp":35.5,"humidity":17,"rain":0.0,"pressure":944.7,"uv_index":8.75,"wind_gusts":29.5,"aqi":141,"pm10":37.6,"pm2_5":29.3,"mosquito_risk":0,"arthritis_risk":5,"migraine_risk":10,"frizz_risk":0,"updated_at":"2026-04-25T20:15:07.011760+05:30"},{"city":"Solapur","state":"Maharashtra","latitude":17.6599,"longitude":75.9064,"temp":34.7,"humidity":24,"rain":0.0,"pressure":956.9,"uv_index":8.6,"wind_gusts":25.6,"aqi":176,"pm10":47.8,"pm2_5":42.5,"mosquito_risk":0,"arthritis_risk":5,"migraine_risk":7,"frizz_risk":0,"updated_at":"2026-04-25T20:15:07.011766+05:30"},{"city":"Kolhapur","state":"Maharashtra","latitude":16.705,"longitude":74.2433,"temp":31.4,"humidity":34,"rain":0.0,"pressure":947.8,"uv_index":9.05,"wind_gusts":37.8,"aqi":154,"pm10":72.2,"pm2_5":65.4,"mosquito_risk":0,"arthritis_risk":5,"migraine_risk":7,"frizz_risk":0,"updated_at":"2026-04-25T20:15:07.011772+05:30"},{"city":"Goa","state":"Goa","latitude":15.2993,"longitude":74.124,"temp":30.7,"humidity":76,"rain":0.0,"pressure":997.4,"uv_index":8.9,"wind_gusts":29.5,"aqi":75,"pm10":28.3,"pm2_5":20.5,"mosquito_risk":3,"arthritis_risk":5,"migraine_risk":7,"frizz_risk":1,"updated_at":"2026-04-25T20:15:07.011778+05:30"},{"city":"Jodhpur","state":"Rajasthan","latitude":26.2389,"longitude":73.0243,"temp":36.9,"humidity":18,"rain":0.0,"pressure":982.7,"uv_index":8.3,"wind_gusts":32.8,"aqi":86,"pm10":107.3,"pm2_5":25.0,"mosquito_risk":0,"arthritis_risk":5,"migraine_risk":10,"frizz_risk":0,"updated_at":"2026-04-25T20:15:07.011784+05:30"},{"city":"Udaipur","state":"Rajasthan","latitude":24.5854,"longitude":73.7125,"temp":33.5,"humidity":22,"rain":0.0,"pressure":947.3,"uv_index":8.8,"wind_gusts":41.0,"aqi":81,"pm10":65.4,"pm2_5":20.4,"mosquito_risk":0,"arthritis_risk":5,"migraine_risk":7,"frizz_risk":0,"updated_at":"2026-04-25T20:15:07.011790+05:30"},{"city":"Kota","state":"Rajasthan","latitude":25.2138,"longitude":75.8648,"temp":36.5,"humidity":17,"rain":0.0,"pressure":978.4,"uv_index":8.3,"wind_gusts":31.3,"aqi":113,"pm10":81.0,"pm2_5":32.4,"mosquito_risk":0,"arthritis_risk":5,"migraine_risk":10,"frizz_risk":0,"updated_at":"2026-04-25T20:15:07.011795+05:30"},{"city":"Bikaner","state":"Rajasthan","latitude":28.0229,"longitude":73.3119,"temp":36.8,"humidity":19,"rain":0.0,"pressure":981.7,"uv_index":8.15,"wind_gusts":38.5,"aqi":73,"pm10":93.1,"pm2_5":24.4,"mosquito_risk":0,"arthritis_risk":5,"migraine_risk":10,"frizz_risk":0,"updated_at":"2026-04-25T20:15:07.011801+05:30"},{"city":"Ajmer","state":"Rajasthan","latitude":26.4499,"longitude":74.6399,"temp":34.1,"humidity":21,"rain":0.0,"pressure":956.4,"uv_index":8.25,"wind_gusts":35.6,"aqi":90,"pm10":102.0,"pm2_5":28.3,"mosquito_risk":0,"arthritis_risk":5,"migraine_risk":7,"frizz_risk":0,"updated_at":"2026-04-25T20:15:07.011806+05:30"},{"city":"Gwalior","state":"Madhya Pradesh","latitude":26.2183,"longitude":78.1828,"temp":36.4,"humidity":18,"rain":0.0,"pressure":982.7,"uv_index":8.0,"wind_gusts":41.0,"aqi":104,"pm10":125.7,"pm2_5":32.9,"mosquito_risk":0,"arthritis_risk":5,"migraine_risk":10,"frizz_risk":0,"updated_at":"2026-04-25T20:15:07.011811+05:30"},{"city":"Indore","state":"Madhya Pradesh","latitude":22.7196,"longitude":75.8577,"temp":36.9,"humidity":14,"rain":0.0,"pressure":948.1,"uv_index":8.65,"wind_gusts":32.0,"aqi":89,"pm10":39.8,"pm2_5":20.0,"mosquito_risk":0,"arthritis_risk":5,"migraine_risk":10,"frizz_risk":0,"updated_at":"2026-04-25T20:15:07.011817+05:30"},{"city":"Bhopal","state":"Madhya Pradesh","latitude":23.2599,"longitude":77.4126,"temp":36.0,"humidity":14,"rain":0.0,"pressure":953.3,"uv_index":8.65,"wind_gusts":30.6,"aqi":110,"pm10":31.2,"pm2_5":18.0,"mosquito_risk":0,"arthritis_risk":5,"migraine_risk":10,"frizz_risk":0,"updated_at":"2026-04-25T20:15:07.011822+05:30"},{"city":"Jabalpur","state":"Madhya Pradesh","latitude":23.1815,"longitude":79.9864,"temp":35.5,"humidity":14,"rain":0.0,"pressure":960.3,"uv_index":8.75,"wind_gusts":34.9,"aqi":122,"pm10":31.0,"pm2_5":19.1,"mosquito_risk":0,"arthritis_risk":5,"migraine_risk":10,"frizz_risk":0,"updated_at":"2026-04-25T20:15:07.011827+05:30"},{"city":"Ujjain","state":"Madhya Pradesh","latitude":23.1765,"longitude":75.7885,"temp":35.0,"humidity":19,"rain":0.0,"pressure":953.5,"uv_index":8.55,"wind_gusts":29.2,"aqi":79,"pm10":51.7,"pm2_5":26.6,"mosquito_risk":0,"arthritis_risk":5,"migraine_risk":7,"frizz_risk":0,"updated_at":"2026-04-25T20:15:07.011834+05:30"},{"city":"Visakhapatnam","state":"Andhra Pradesh","latitude":17.6868,"longitude":83.2185,"temp":28.8,"humidity":86,"rain":0.0,"pressure":1004.5,"uv_index":8.7,"wind_gusts":42.8,"aqi":59,"pm10":17.6,"pm2_5":12.9,"mosquito_risk":7,"arthritis_risk":5,"migraine_risk":4,"frizz_risk":1,"updated_at":"2026-04-25T20:15:07.011840+05:30"},{"city":"Vijayawada","state":"Andhra Pradesh","latitude":16.5062,"longitude":80.648,"temp":31.1,"humidity":65,"rain":0.0,"pressure":1003.3,"uv_index":8.85,"wind_gusts":31.0,"aqi":52,"pm10":15.0,"pm2_5":11.8,"mosquito_risk":3,"arthritis_risk":5,"migraine_risk":4,"frizz_risk":1,"updated_at":"2026-04-25T20:15:07.011845+05:30"},{"city":"Guntur","state":"Andhra Pradesh","latitude":16.3067,"longitude":80.4365,"temp":29.5,"humidity":76,"rain":0.0,"pressure":1004.8,"uv_index":8.6,"wind_gusts":36.7,"aqi":70,"pm10":17.8,"pm2_5":14.4,"mosquito_risk":7,"arthritis_risk":5,"migraine_risk":4,"frizz_risk":1,"updated_at":"2026-04-25T20:15:07.011850+05:30"},{"city":"Nellore","state":"Andhra Pradesh","latitude":14.4426,"longitude":79.9865,"temp":29.1,"humidity":82,"rain":0.0,"pressure":1006.5,"uv_index":9.25,"wind_gusts":42.1,"aqi":50,"pm10":13.0,"pm2_5":9.3,"mosquito_risk":7,"arthritis_risk":5,"migraine_risk":4,"frizz_risk":1,"updated_at":"2026-04-25T20:15:07.011857+05:30"},{"city":"Kurnool","state":"Andhra Pradesh","latitude":15.8281,"longitude":78.0373,"temp":36.1,"humidity":24,"rain":0.0,"pressure":976.6,"uv_index":8.9,"wind_gusts":34.2,"aqi":134,"pm10":45.8,"pm2_5":37.6,"mosquito_risk":0,"arthritis_risk":5,"migraine_risk":10,"frizz_risk":0,"updated_at":"2026-04-25T20:15:07.011864+05:30"},{"city":"Kakinada","state":"Andhra Pradesh","latitude":16.9891,"longitude":82.2475,"temp":29.7,"humidity":75,"rain":0.0,"pressure":1008.0,"uv_index":8.45,"wind_gusts":37.1,"aqi":40,"pm10":13.9,"pm2_5":8.8,"mosquito_risk":7,"arthritis_risk":0,"migraine_risk":4,"frizz_risk":1,"updated_at":"2026-04-25T20:15:07.011869+05:30"},{"city":"Tirupati","state":"Andhra Pradesh","latitude":13.6288,"longitude":79.4192,"temp":32.5,"humidity":45,"rain":0.0,"pressure":991.9,"uv_index":9.35,"wind_gusts":34.9,"aqi":82,"pm10":22.9,"pm2_5":19.7,"mosquito_risk":0,"arthritis_risk":5,"migraine_risk":7,"frizz_risk":1,"updated_at":"2026-04-25T20:15:07.011874+05:30"},{"city":"Warangal","state":"Telangana","latitude":17.9689,"longitude":79.5941,"temp":33.7,"humidity":36,"rain":0.0,"pressure":979.1,"uv_index":9.0,"wind_gusts":29.5,"aqi":136,"pm10":45.9,"pm2_5":41.7,"mosquito_risk":0,"arthritis_risk":5,"migraine_risk":7,"frizz_risk":1,"updated_at":"2026-04-25T20:15:07.011879+05:30"},{"city":"Nizamabad","state":"Telangana","latitude":18.6725,"longitude":78.0941,"temp":33.2,"humidity":27,"rain":0.0,"pressure":964.8,"uv_index":8.75,"wind_gusts":27.7,"aqi":169,"pm10":65.4,"pm2_5":57.5,"mosquito_risk":0,"arthritis_risk":5,"migraine_risk":7,"frizz_risk":0,"updated_at":"2026-04-25T20:15:07.011885+05:30"},{"city":"Mysore","state":"Karnataka","latitude":12.2958,"longitude":76.6396,"temp":30.2,"humidity":34,"rain":0.0,"pressure":929.0,"uv_index":8.9,"wind_gusts":45.0,"aqi":119,"pm10":31.4,"pm2_5":27.7,"mosquito_risk":0,"arthritis_risk":5,"migraine_risk":7,"frizz_risk":0,"updated_at":"2026-04-25T20:15:07.011890+05:30"},{"city":"Mangalore","state":"Karnataka","latitude":12.9141,"longitude":74.856,"temp":30.1,"humidity":78,"rain":0.0,"pressure":1006.4,"uv_index":9.1,"wind_gusts":40.7,"aqi":91,"pm10":21.5,"pm2_5":16.1,"mosquito_risk":3,"arthritis_risk":5,"migraine_risk":4,"frizz_risk":1,"updated_at":"2026-04-25T20:15:07.011896+05:30"},{"city":"Hubli-Dharwad","state":"Karnataka","latitude":15.3647,"longitude":75.124,"temp":28.2,"humidity":53,"rain":0.0,"pressure":941.0,"uv_index":9.0,"wind_gusts":47.5,"aqi":167,"pm10":52.0,"pm2_5":46.2,"mosquito_risk":4,"arthritis_risk":5,"migraine_risk":7,"frizz_risk":1,"updated_at":"2026-04-25T20:15:07.011902+05:30"},{"city":"Belgaum","state":"Karnataka","latitude":15.8497,"longitude":74.4977,"temp":27.2,"humidity":64,"rain":0.0,"pressure":926.4,"uv_index":9.2,"wind_gusts":34.9,"aqi":157,"pm10":55.8,"pm2_5":49.9,"mosquito_risk":7,"arthritis_risk":5,"migraine_risk":7,"frizz_risk":1,"updated_at":"2026-04-25T20:15:10.278236+05:30"},{"city":"Coimbatore","state":"Tamil Nadu","latitude":11.0168,"longitude":76.9558,"temp":33.4,"humidity":31,"rain":0.0,"pressure":962.2,"uv_index":8.95,"wind_gusts":46.1,"aqi":97,"pm10":29.5,"pm2_5":26.3,"mosquito_risk":0,"arthritis_risk":5,"migraine_risk":7,"frizz_risk":0,"updated_at":"2026-04-25T20:15:10.278267+05:30"},{"city":"Madurai","state":"Tamil Nadu","latitude":9.9252,"longitude":78.1198,"temp":32.7,"humidity":40,"rain":0.0,"pressure":993.5,"uv_index":9.25,"wind_gusts":39.2,"aqi":67,"pm10":19.3,"pm2_5":17.2,"mosquito_risk":0,"arthritis_risk":5,"migraine_risk":7,"frizz_risk":1,"updated_at":"2026-04-25T20:15:10.278276+05:30"},{"city":"Trichy","state":"Tamil Nadu","latitude":10.7905,"longitude":78.7047,"temp":31.6,"humidity":55,"rain":0.0,"pressure":1000.1,"uv_index":9.3,"wind_gusts":33.8,"aqi":67,"pm10":20.7,"pm2_5":18.6,"mosquito_risk":0,"arthritis_risk":5,"migraine_risk":4,"frizz_risk":1,"updated_at":"2026-04-25T20:15:10.278285+05:30"},{"city":"Salem","state":"Tamil Nadu","latitude":11.6643,"longitude":78.146,"temp":33.1,"humidity":37,"rain":0.0,"pressure":977.9,"uv_index":9.0,"wind_gusts":38.9,"aqi":97,"pm10":28.1,"pm2_5":24.3,"mosquito_risk":0,"arthritis_risk":5,"migraine_risk":7,"frizz_risk":1,"updated_at":"2026-04-25T20:15:10.278293+05:30"},{"city":"Tirunelveli","state":"Tamil Nadu","latitude":8.7139,"longitude":77.7567,"temp":30.0,"humidity":64,"rain":0.0,"pressure":1003.7,"uv_index":9.2,"wind_gusts":40.0,"aqi":62,"pm10":11.3,"pm2_5":10.5,"mosquito_risk":7,"arthritis_risk":5,"migraine_risk":4,"frizz_risk":1,"updated_at":"2026-04-25T20:15:10.278300+05:30"},{"city":"Vellore","state":"Tamil Nadu","latitude":12.9165,"longitude":79.1325,"temp":31.8,"humidity":49,"rain":0.0,"pressure":985.4,"uv_index":9.35,"wind_gusts":35.6,"aqi":95,"pm10":28.7,"pm2_5":25.6,"mosquito_risk":0,"arthritis_risk":5,"migraine_risk":7,"frizz_risk":1,"updated_at":"2026-04-25T20:15:10.278307+05:30"},{"city":"Erode","state":"Tamil Nadu","latitude":11.341,"longitude":77.7172,"temp":34.3,"humidity":33,"rain":0.0,"pressure":989.0,"uv_index":9.3,"wind_gusts":41.8,"aqi":79,"pm10":24.4,"pm2_5":21.7,"mosquito_risk":0,"arthritis_risk":5,"migraine_risk":7,"frizz_risk":0,"updated_at":"2026-04-25T20:15:10.278315+05:30"},{"city":"Kochi","state":"Kerala","latitude":9.9312,"longitude":76.2673,"temp":30.0,"humidity":76,"rain":0.0,"pressure":1008.8,"uv_index":8.4,"wind_gusts":42.1,"aqi":131,"pm10":22.3,"pm2_5":20.4,"mosquito_risk":7,"arthritis_risk":0,"migraine_risk":4,"frizz_risk":1,"updated_at":"2026-04-25T20:15:10.278322+05:30"},{"city":"Thiruvananthapuram","state":"Kerala","latitude":8.5241,"longitude":76.9366,"temp":27.6,"humidity":85,"rain":0.0,"pressure":1008.4,"uv_index":8.6,"wind_gusts":33.8,"aqi":76,"pm10":15.0,"pm2_5":11.9,"mosquito_risk":7,"arthritis_risk":0,"migraine_risk":4,"frizz_risk":1,"updated_at":"2026-04-25T20:15:10.278330+05:30"},{"city":"Kozhikode","state":"Kerala","latitude":11.2588,"longitude":75.7804,"temp":29.6,"humidity":79,"rain":0.0,"pressure":1007.7,"uv_index":8.7,"wind_gusts":36.7,"aqi":85,"pm10":17.2,"pm2_5":12.0,"mosquito_risk":7,"arthritis_risk":5,"migraine_risk":4,"frizz_risk":1,"updated_at":"2026-04-25T20:15:10.278337+05:30"},{"city":"Thrissur","state":"Kerala","latitude":10.5276,"longitude":76.2144,"temp":29.5,"humidity":80,"rain":0.0,"pressure":1007.1,"uv_index":8.1,"wind_gusts":44.6,"aqi":104,"pm10":19.6,"pm2_5":17.9,"mosquito_risk":7,"arthritis_risk":5,"migraine_risk":4,"frizz_risk":1,"updated_at":"2026-04-25T20:15:10.278345+05:30"},{"city":"Kannur","state":"Kerala","latitude":11.8745,"longitude":75.3704,"temp":30.3,"humidity":79,"rain":0.0,"pressure":1007.1,"uv_index":8.6,"wind_gusts":40.0,"aqi":82,"pm10":21.0,"pm2_5":15.3,"mosquito_risk":3,"arthritis_risk":5,"migraine_risk":4,"frizz_risk":1,"updated_at":"2026-04-25T20:15:10.278353+05:30"},{"city":"Patna","state":"Bihar","latitude":25.5941,"longitude":85.1376,"temp":28.9,"humidity":72,"rain":0.0,"pressure":999.5,"uv_index":8.65,"wind_gusts":60.1,"aqi":189,"pm10":99.2,"pm2_5":57.7,"mosquito_risk":7,"arthritis_risk":5,"migraine_risk":7,"frizz_risk":1,"updated_at":"2026-04-25T20:15:10.278360+05:30"},{"city":"Gaya","state":"Bihar","latitude":24.7914,"longitude":85.0002,"temp":30.1,"humidity":61,"rain":0.0,"pressure":992.7,"uv_index":8.7,"wind_gusts":50.8,"aqi":168,"pm10":79.2,"pm2_5":38.5,"mosquito_risk":3,"arthritis_risk":5,"migraine_risk":7,"frizz_risk":1,"updated_at":"2026-04-25T20:15:10.278366+05:30"},{"city":"Muzaffarpur","state":"Bihar","latitude":26.1209,"longitude":85.3647,"temp":27.2,"humidity":76,"rain":0.0,"pressure":999.9,"uv_index":8.6,"wind_gusts":50.4,"aqi":192,"pm10":95.9,"pm2_5":57.9,"mosquito_risk":7,"arthritis_risk":5,"migraine_risk":7,"frizz_risk":1,"updated_at":"2026-04-25T20:15:10.278373+05:30"},{"city":"Bhagalpur","state":"Bihar","latitude":25.2425,"longitude":87.0117,"temp":28.4,"humidity":77,"rain":0.0,"pressure":1001.1,"uv_index":8.6,"wind_gusts":55.1,"aqi":207,"pm10":73.6,"pm2_5":55.8,"mosquito_risk":7,"arthritis_risk":5,"migraine_risk":4,"frizz_risk":1,"updated_at":"2026-04-25T20:15:10.278380+05:30"},{"city":"Ranchi","state":"Jharkhand","latitude":23.3441,"longitude":85.3096,"temp":29.8,"humidity":29,"rain":0.0,"pressure":937.1,"uv_index":9.2,"wind_gusts":28.8,"aqi":180,"pm10":45.1,"pm2_5":33.2,"mosquito_risk":4,"arthritis_risk":5,"migraine_risk":7,"frizz_risk":0,"updated_at":"2026-04-25T20:15:10.278386+05:30"},{"city":"Jamshedpur","state":"Jharkhand","latitude":22.8046,"longitude":86.2029,"temp":31.9,"humidity":65,"rain":0.0,"pressure":989.8,"uv_index":8.9,"wind_gusts":33.5,"aqi":197,"pm10":36.9,"pm2_5":31.9,"mosquito_risk":3,"arthritis_risk":5,"migraine_risk":7,"frizz_risk":1,"updated_at":"2026-04-25T20:15:10.278393+05:30"},{"city":"Dhanbad","state":"Jharkhand","latitude":23.7957,"longitude":86.4304,"temp":33.0,"humidity":57,"rain":0.0,"pressure":979.0,"uv_index":8.95,"wind_gusts":48.6,"aqi":202,"pm10":51.8,"pm2_5":46.6,"mosquito_risk":0,"arthritis_risk":5,"migraine_risk":7,"frizz_risk":1,"updated_at":"2026-04-25T20:15:10.278400+05:30"},{"city":"Bokaro","state":"Jharkhand","latitude":23.6693,"longitude":86.1511,"temp":32.6,"humidity":47,"rain":0.0,"pressure":982.5,"uv_index":8.95,"wind_gusts":33.1,"aqi":198,"pm10":56.1,"pm2_5":43.5,"mosquito_risk":0,"arthritis_risk":5,"migraine_risk":7,"frizz_risk":1,"updated_at":"2026-04-25T20:15:10.278407+05:30"},{"city":"Bhubaneswar","state":"Odisha","latitude":20.2961,"longitude":85.8245,"temp":27.3,"humidity":90,"rain":0.0,"pressure":1003.0,"uv_index":9.1,"wind_gusts":41.0,"aqi":63,"pm10":18.5,"pm2_5":15.1,"mosquito_risk":7,"arthritis_risk":5,"migraine_risk":4,"frizz_risk":1,"updated_at":"2026-04-25T20:15:10.278413+05:30"},{"city":"Cuttack","state":"Odisha","latitude":20.4625,"longitude":85.8828,"temp":27.8,"humidity":87,"rain":0.0,"pressure":1004.6,"uv_index":9.15,"wind_gusts":38.2,"aqi":63,"pm10":18.5,"pm2_5":15.1,"mosquito_risk":7,"arthritis_risk":5,"migraine_risk":4,"frizz_risk":1,"updated_at":"2026-04-25T20:15:10.278420+05:30"},{"city":"Rourkela","state":"Odisha","latitude":22.2604,"longitude":84.8536,"temp":33.7,"humidity":28,"rain":0.0,"pressure":983.3,"uv_index":8.6,"wind_gusts":45.0,"aqi":206,"pm10":43.1,"pm2_5":38.5,"mosquito_risk":0,"arthritis_risk":5,"migraine_risk":7,"frizz_risk":0,"updated_at":"2026-04-25T20:15:10.278427+05:30"},{"city":"Raipur","state":"Chhattisgarh","latitude":21.2514,"longitude":81.6296,"temp":35.8,"humidity":17,"rain":0.0,"pressure":973.0,"uv_index":8.95,"wind_gusts":31.0,"aqi":197,"pm10":40.3,"pm2_5":33.8,"mosquito_risk":0,"arthritis_risk":5,"migraine_risk":10,"frizz_risk":0,"updated_at":"2026-04-25T20:15:10.278451+05:30"},{"city":"Bhilai","state":"Chhattisgarh","latitude":21.1938,"longitude":81.3509,"temp":35.6,"humidity":19,"rain":0.0,"pressure":973.6,"uv_index":9.0,"wind_gusts":35.6,"aqi":162,"pm10":41.6,"pm2_5":34.7,"mosquito_risk":0,"arthritis_risk":5,"migraine_risk":10,"frizz_risk":0,"updated_at":"2026-04-25T20:15:10.278458+05:30"},{"city":"Guwahati","state":"Assam","latitude":26.1158,"longitude":91.7086,"temp":25.4,"humidity":85,"rain":0.0,"pressure":1003.7,"uv_index":8.55,"wind_gusts":42.1,"aqi":161,"pm10":92.0,"pm2_5":68.7,"mosquito_risk":7,"arthritis_risk":5,"migraine_risk":4,"frizz_risk":1,"updated_at":"2026-04-25T20:15:10.278465+05:30"},{"city":"Agartala","state":"Tripura","latitude":23.8315,"longitude":91.2868,"temp":30.2,"humidity":61,"rain":0.0,"pressure":1006.7,"uv_index":8.75,"wind_gusts":35.6,"aqi":152,"pm10":92.7,"pm2_5":72.4,"mosquito_risk":3,"arthritis_risk":5,"migraine_risk":4,"frizz_risk":1,"updated_at":"2026-04-25T20:15:10.278472+05:30"},{"city":"Shillong","state":"Meghalaya","latitude":25.5788,"longitude":91.8933,"temp":18.1,"humidity":81,"rain":0.0,"pressure":859.2,"uv_index":8.2,"wind_gusts":29.5,"aqi":149,"pm10":75.0,"pm2_5":52.4,"mosquito_risk":3,"arthritis_risk":10,"migraine_risk":7,"frizz_risk":0,"updated_at":"2026-04-25T20:15:10.278479+05:30"},{"city":"Imphal","state":"Manipur","latitude":24.817,"longitude":93.9368,"temp":22.1,"humidity":73,"rain":0.0,"pressure":924.0,"uv_index":9.1,"wind_gusts":38.5,"aqi":154,"pm10":92.7,"pm2_5":58.8,"mosquito_risk":3,"arthritis_risk":5,"migraine_risk":7,"frizz_risk":1,"updated_at":"2026-04-25T20:15:10.278487+05:30"},{"city":"Aizawl","state":"Mizoram","latitude":23.7271,"longitude":92.7176,"temp":23.5,"humidity":53,"rain":0.0,"pressure":894.2,"uv_index":8.95,"wind_gusts":39.6,"aqi":119,"pm10":96.4,"pm2_5":41.3,"mosquito_risk":0,"arthritis_risk":5,"migraine_risk":7,"frizz_risk":0,"updated_at":"2026-04-25T20:15:10.278494+05:30"},{"city":"Kohima","state":"Nagaland","latitude":25.6701,"longitude":94.1077,"temp":17.9,"humidity":92,"rain":0.0,"pressure":857.4,"uv_index":8.8,"wind_gusts":38.2,"aqi":156,"pm10":116.6,"pm2_5":76.8,"mosquito_risk":3,"arthritis_risk":10,"migraine_risk":7,"frizz_risk":1,"updated_at":"2026-04-25T20:15:10.278501+05:30"},{"city":"Gangtok","state":"Sikkim","latitude":27.3314,"longitude":88.6138,"temp":14.6,"humidity":86,"rain":0.0,"pressure":838.0,"uv_index":8.8,"wind_gusts":41.4,"aqi":120,"pm10":50.8,"pm2_5":33.5,"mosquito_risk":3,"arthritis_risk":10,"migraine_risk":7,"frizz_risk":0,"updated_at":"2026-04-25T20:15:10.278508+05:30"},{"city":"Siliguri","state":"West Bengal","latitude":26.7271,"longitude":88.3953,"temp":24.8,"humidity":85,"rain":0.0,"pressure":993.9,"uv_index":8.45,"wind_gusts":33.8,"aqi":150,"pm10":87.1,"pm2_5":60.1,"mosquito_risk":3,"arthritis_risk":5,"migraine_risk":7,"frizz_risk":1,"updated_at":"2026-04-25T20:15:13.546731+05:30"},{"city":"Durgapur","state":"West Bengal","latitude":23.5204,"longitude":87.3119,"temp":30.1,"humidity":76,"rain":0.0,"pressure":994.0,"uv_index":8.9,"wind_gusts":38.5,"aqi":160,"pm10":45.1,"pm2_5":39.5,"mosquito_risk":3,"arthritis_risk":5,"migraine_risk":7,"frizz_risk":1,"updated_at":"2026-04-25T20:15:13.546761+05:30"},{"city":"Asansol","state":"West Bengal","latitude":23.6739,"longitude":86.9524,"temp":31.3,"humidity":71,"rain":0.0,"pressure":992.5,"uv_index":8.95,"wind_gusts":41.0,"aqi":175,"pm10":44.9,"pm2_5":39.3,"mosquito_risk":3,"arthritis_risk":5,"migraine_risk":7,"frizz_risk":1,"updated_at":"2026-04-25T20:15:13.546771+05:30"},{"city":"Pondicherry","state":"Puducherry","latitude":11.9139,"longitude":79.8145,"temp":29.5,"humidity":77,"rain":0.0,"pressure":1009.3,"uv_index":9.2,"wind_gusts":43.6,"aqi":28,"pm10":10.5,"pm2_5":6.7,"mosquito_risk":7,"arthritis_risk":0,"migraine_risk":4,"frizz_risk":1,"updated_at":"2026-04-25T20:15:13.546779+05:30"},{"city":"Port Blair","state":"Andaman and Nicobar Islands","latitude":11.6234,"longitude":92.7265,"temp":28.4,"humidity":79,"rain":0.0,"pressure":1008.6,"uv_index":9.15,"wind_gusts":33.1,"aqi":40,"pm10":22.2,"pm2_5":14.8,"mosquito_risk":7,"arthritis_risk":0,"migraine_risk":4,"frizz_risk":1,"updated_at":"2026-04-25T20:15:13.546787+05:30"},{"city":"Haridwar","state":"Uttarakhand","latitude":29.9457,"longitude":78.1642,"temp":28.1,"humidity":42,"rain":0.0,"pressure":972.5,"uv_index":7.25,"wind_gusts":35.6,"aqi":114,"pm10":108.7,"pm2_5":33.6,"mosquito_risk":4,"arthritis_risk":5,"migraine_risk":7,"frizz_risk":0,"updated_at":"2026-04-25T20:15:13.546795+05:30"},{"city":"Rishikesh","state":"Uttarakhand","latitude":30.0869,"longitude":78.2676,"temp":27.5,"humidity":41,"rain":0.0,"pressure":965.2,"uv_index":7.35,"wind_gusts":28.4,"aqi":109,"pm10":128.1,"pm2_5":31.1,"mosquito_risk":4,"arthritis_risk":5,"migraine_risk":7,"frizz_risk":0,"updated_at":"2026-04-25T20:15:13.546803+05:30"},{"city":"Nainital","state":"Uttarakhand","latitude":29.3919,"longitude":79.4542,"temp":17.2,"humidity":54,"rain":0.0,"pressure":806.3,"uv_index":8.2,"wind_gusts":40.3,"aqi":155,"pm10":41.7,"pm2_5":21.4,"mosquito_risk":0,"arthritis_risk":5,"migraine_risk":7,"frizz_risk":0,"updated_at":"2026-04-25T20:15:13.546810+05:30"},{"city":"Mussoorie","state":"Uttarakhand","latitude":30.4599,"longitude":78.0664,"temp":16.1,"humidity":58,"rain":0.0,"pressure":802.7,"uv_index":7.75,"wind_gusts":59.4,"aqi":111,"pm10":71.7,"pm2_5":25.4,"mosquito_risk":0,"arthritis_risk":5,"migraine_risk":7,"frizz_risk":0,"updated_at":"2026-04-25T20:15:13.546817+05:30"},{"city":"Dharamshala","state":"Himachal Pradesh","latitude":32.219,"longitude":76.3234,"temp":21.3,"humidity":41,"rain":0.0,"pressure":870.7,"uv_index":7.65,"wind_gusts":59.8,"aqi":60,"pm10":59.6,"pm2_5":16.6,"mosquito_risk":0,"arthritis_risk":5,"migraine_risk":7,"frizz_risk":0,"updated_at":"2026-04-25T20:15:13.546825+05:30"},{"city":"Dalhousie","state":"Himachal Pradesh","latitude":32.5387,"longitude":75.971,"temp":12.9,"humidity":73,"rain":0.0,"pressure":804.1,"uv_index":8.1,"wind_gusts":45.7,"aqi":59,"pm10":99.9,"pm2_5":28.9,"mosquito_risk":3,"arthritis_risk":5,"migraine_risk":7,"frizz_risk":0,"updated_at":"2026-04-25T20:15:13.546833+05:30"},{"city":"Patiala","state":"Punjab","latitude":30.3398,"longitude":76.3869,"temp":32.1,"humidity":31,"rain":0.0,"pressure":978.1,"uv_index":7.35,"wind_gusts":56.2,"aqi":598,"pm10":786.0,"pm2_5":91.3,"mosquito_risk":0,"arthritis_risk":5,"migraine_risk":7,"frizz_risk":0,"updated_at":"2026-04-25T20:15:13.546840+05:30"},{"city":"Bhatinda","state":"Punjab","latitude":30.211,"longitude":74.9455,"temp":34.0,"humidity":23,"rain":0.0,"pressure":983.5,"uv_index":8.05,"wind_gusts":52.9,"aqi":89,"pm10":103.6,"pm2_5":32.5,"mosquito_risk":0,"arthritis_risk":5,"migraine_risk":7,"frizz_risk":0,"updated_at":"2026-04-25T20:15:13.546847+05:30"},{"city":"Rohtak","state":"Haryana","latitude":28.8955,"longitude":76.6066,"temp":33.2,"humidity":24,"rain":0.0,"pressure":981.5,"uv_index":7.35,"wind_gusts":51.1,"aqi":777,"pm10":1285.2,"pm2_5":166.2,"mosquito_risk":0,"arthritis_risk":5,"migraine_risk":7,"frizz_risk":0,"updated_at":"2026-04-25T20:15:13.546854+05:30"},{"city":"Panipat","state":"Haryana","latitude":29.3909,"longitude":76.9635,"temp":34.3,"humidity":23,"rain":0.0,"pressure":980.0,"uv_index":7.15,"wind_gusts":54.0,"aqi":1440,"pm10":1952.1,"pm2_5":224.9,"mosquito_risk":0,"arthritis_risk":5,"migraine_risk":7,"frizz_risk":0,"updated_at":"2026-04-25T20:15:13.546861+05:30"},{"city":"Mathura","state":"Uttar Pradesh","latitude":27.4924,"longitude":77.6737,"temp":35.2,"humidity":21,"rain":0.0,"pressure":986.1,"uv_index":7.75,"wind_gusts":45.0,"aqi":487,"pm10":1743.4,"pm2_5":195.1,"mosquito_risk":0,"arthritis_risk":5,"migraine_risk":10,"frizz_risk":0,"updated_at":"2026-04-25T20:15:13.546869+05:30"},{"city":"Vrindavan","state":"Uttar Pradesh","latitude":27.5823,"longitude":77.7027,"temp":35.0,"humidity":21,"rain":0.0,"pressure":986.5,"uv_index":7.65,"wind_gusts":44.6,"aqi":487,"pm10":1743.4,"pm2_5":195.1,"mosquito_risk":0,"arthritis_risk":5,"migraine_risk":7,"frizz_risk":0,"updated_at":"2026-04-25T20:15:13.546876+05:30"},{"city":"Ayodhya","state":"Uttar Pradesh","latitude":26.7922,"longitude":82.1998,"temp":32.5,"humidity":47,"rain":0.0,"pressure":993.7,"uv_index":8.05,"wind_gusts":35.3,"aqi":169,"pm10":166.7,"pm2_5":56.0,"mosquito_risk":0,"arthritis_risk":5,"migraine_risk":7,"frizz_risk":1,"updated_at":"2026-04-25T20:15:13.546883+05:30"},{"city":"Ratlam","state":"Madhya Pradesh","latitude":23.3315,"longitude":75.0367,"temp":35.4,"humidity":17,"rain":0.0,"pressure":954.5,"uv_index":8.45,"wind_gusts":29.9,"aqi":78,"pm10":54.0,"pm2_5":24.7,"mosquito_risk":0,"arthritis_risk":5,"migraine_risk":10,"frizz_risk":0,"updated_at":"2026-04-25T20:15:13.546890+05:30"},{"city":"Sagar","state":"Madhya Pradesh","latitude":23.8388,"longitude":78.7378,"temp":33.6,"humidity":21,"rain":0.0,"pressure":949.9,"uv_index":8.65,"wind_gusts":29.9,"aqi":105,"pm10":41.8,"pm2_5":16.4,"mosquito_risk":0,"arthritis_risk":5,"migraine_risk":7,"frizz_risk":0,"updated_at":"2026-04-25T20:15:13.546896+05:30"},{"city":"Satna","state":"Madhya Pradesh","latitude":24.6005,"longitude":80.8322,"temp":34.4,"humidity":20,"rain":0.0,"pressure":970.2,"uv_index":8.65,"wind_gusts":41.0,"aqi":129,"pm10":125.3,"pm2_5":32.1,"mosquito_risk":0,"arthritis_risk":5,"migraine_risk":7,"frizz_risk":0,"updated_at":"2026-04-25T20:15:13.546903+05:30"},{"city":"Akola","state":"Maharashtra","latitude":20.7002,"longitude":77.0082,"temp":35.6,"humidity":18,"rain":0.0,"pressure":974.1,"uv_index":8.7,"wind_gusts":23.4,"aqi":131,"pm10":32.2,"pm2_5":22.8,"mosquito_risk":0,"arthritis_risk":5,"migraine_risk":10,"frizz_risk":0,"updated_at":"2026-04-25T20:15:13.546911+05:30"},{"city":"Amravati","state":"Maharashtra","latitude":20.9374,"longitude":77.7796,"temp":36.3,"humidity":18,"rain":0.0,"pressure":966.5,"uv_index":8.35,"wind_gusts":27.7,"aqi":138,"pm10":37.5,"pm2_5":26.6,"mosquito_risk":0,"arthritis_risk":5,"migraine_risk":10,"frizz_risk":0,"updated_at":"2026-04-25T20:15:13.546918+05:30"},{"city":"Latur","state":"Maharashtra","latitude":18.4088,"longitude":76.5604,"temp":33.0,"humidity":21,"rain":0.0,"pressure":940.0,"uv_index":8.6,"wind_gusts":32.0,"aqi":166,"pm10":40.7,"pm2_5":35.4,"mosquito_risk":0,"arthritis_risk":5,"migraine_risk":7,"frizz_risk":0,"updated_at":"2026-04-25T20:15:13.546925+05:30"},{"city":"Nanded","state":"Maharashtra","latitude":19.1383,"longitude":77.3091,"temp":34.5,"humidity":22,"rain":0.0,"pressure":967.9,"uv_index":8.6,"wind_gusts":28.8,"aqi":149,"pm10":48.7,"pm2_5":39.7,"mosquito_risk":0,"arthritis_risk":5,"migraine_risk":7,"frizz_risk":0,"updated_at":"2026-04-25T20:15:13.546932+05:30"},{"city":"Gulbarga","state":"Karnataka","latitude":17.3297,"longitude":76.8343,"temp":34.8,"humidity":24,"rain":0.0,"pressure":958.7,"uv_index":9.05,"wind_gusts":27.7,"aqi":185,"pm10":47.8,"pm2_5":42.8,"mosquito_risk":0,"arthritis_risk":5,"migraine_risk":7,"frizz_risk":0,"updated_at":"2026-04-25T20:15:13.546939+05:30"},{"city":"Bidar","state":"Karnataka","latitude":17.9104,"longitude":77.5199,"temp":30.2,"humidity":33,"rain":0.0,"pressure":935.9,"uv_index":8.85,"wind_gusts":27.7,"aqi":171,"pm10":56.9,"pm2_5":50.1,"mosquito_risk":0,"arthritis_risk":5,"migraine_risk":7,"frizz_risk":0,"updated_at":"2026-04-25T20:15:13.546946+05:30"},{"city":"Hospet","state":"Karnataka","latitude":15.2689,"longitude":76.3909,"temp":33.7,"humidity":23,"rain":0.0,"pressure":955.5,"uv_index":9.3,"wind_gusts":27.4,"aqi":189,"pm10":39.3,"pm2_5":34.9,"mosquito_risk":0,"arthritis_risk":5,"migraine_risk":7,"frizz_risk":0,"updated_at":"2026-04-25T20:15:13.546953+05:30"},{"city":"Tirupur","state":"Tamil Nadu","latitude":11.1085,"longitude":77.3411,"temp":34.3,"humidity":32,"rain":0.0,"pressure":975.2,"uv_index":9.4,"wind_gusts":41.8,"aqi":87,"pm10":27.1,"pm2_5":23.9,"mosquito_risk":0,"arthritis_risk":5,"migraine_risk":7,"frizz_risk":0,"updated_at":"2026-04-25T20:15:13.546960+05:30"},{"city":"Alappuzha","state":"Kerala","latitude":9.4981,"longitude":76.3388,"temp":28.6,"humidity":85,"rain":0.0,"pressure":1008.9,"uv_index":8.55,"wind_gusts":39.2,"aqi":114,"pm10":17.9,"pm2_5":14.2,"mosquito_risk":7,"arthritis_risk":0,"migraine_risk":4,"frizz_risk":1,"updated_at":"2026-04-25T20:15:13.546966+05:30"},{"city":"Munnar","state":"Kerala","latitude":10.0889,"longitude":77.0595,"temp":19.4,"humidity":66,"rain":0.0,"pressure":857.5,"uv_index":9.15,"wind_gusts":31.3,"aqi":61,"pm10":23.7,"pm2_5":22.6,"mosquito_risk":3,"arthritis_risk":5,"migraine_risk":7,"frizz_risk":0,"updated_at":"2026-04-25T20:15:13.546973+05:30"},{"city":"Silchar","state":"Assam","latitude":24.8333,"longitude":92.7789,"temp":27.2,"humidity":76,"rain":0.0,"pressure":1005.4,"uv_index":8.75,"wind_gusts":28.8,"aqi":161,"pm10":142.5,"pm2_5":86.4,"mosquito_risk":7,"arthritis_risk":5,"migraine_risk":4,"frizz_risk":1,"updated_at":"2026-04-25T20:15:13.546980+05:30"},{"city":"Dibrugarh","state":"Assam","latitude":27.4728,"longitude":94.912,"temp":24.3,"humidity":88,"rain":0.0,"pressure":998.0,"uv_index":8.6,"wind_gusts":31.7,"aqi":104,"pm10":53.3,"pm2_5":39.2,"mosquito_risk":3,"arthritis_risk":5,"migraine_risk":7,"frizz_risk":1,"updated_at":"2026-04-25T20:15:13.546986+05:30"}]