[{"city":"Delhi","state":"Delhi","latitude":28.6139,"longitude":77.209,"temp":36.2,"humidity":25,"rain":0.0,"pressure":977.3,"uv_index":7.7,"wind_gusts":49.0,"aqi":642,"pm10":968.6,"pm2_5":187.7,"no2":22.9,"co":333.0,"o3":72.0,"so2":16.0,"mosquito_risk":0,"arthritis_risk":5,"migraine_risk":10,"frizz_risk":0,"updated_at":"2026-05-17T21:34:58.052157+05:30"},{"city":"Mumbai","state":"Maharashtra","latitude":19.076,"longitude":72.8777,"temp":29.8,"humidity":83,"rain":0.0,"pressure":1005.4,"uv_index":7.55,"wind_gusts":46.1,"aqi":63,"pm10":42.0,"pm2_5":18.7,"no2":8.4,"co":230.0,"o3":65.0,"so2":5.4,"mosquito_risk":7,"arthritis_risk":5,"migraine_risk":4,"frizz_risk":1,"updated_at":"2026-05-17T21:34:58.052199+05:30"},{"city":"Bangalore","state":"Karnataka","latitude":12.9716,"longitude":77.5946,"temp":26.3,"humidity":64,"rain":0.0,"pressure":910.9,"uv_index":9.45,"wind_gusts":30.2,"aqi":95,"pm10":35.5,"pm2_5":29.3,"no2":34.0,"co":387.0,"o3":78.0,"so2":10.8,"mosquito_risk":7,"arthritis_risk":5,"migraine_risk":7,"frizz_risk":1,"updated_at":"2026-05-17T21:34:58.052214+05:30"},{"city":"Hyderabad","state":"Telangana","latitude":17.385,"longitude":78.4867,"temp":32.2,"humidity":47,"rain":0.0,"pressure":951.5,"uv_index":9.3,"wind_gusts":29.9,"aqi":88,"pm10":34.8,"pm2_5":25.7,"no2":13.7,"co":299.0,"o3":84.0,"so2":6.8,"mosquito_risk":0,"arthritis_risk":5,"migraine_risk":7,"frizz_risk":1,"updated_at":"2026-05-17T21:34:58.052224+05:30"},{"city":"Chennai","state":"Tamil Nadu","latitude":13.0827,"longitude":80.2707,"temp":30.1,"humidity":80,"rain":0.0,"pressure":1005.2,"uv_index":9.15,"wind_gusts":41.8,"aqi":108,"pm10":29.6,"pm2_5":19.4,"no2":4.1,"co":169.0,"o3":103.0,"so2":5.4,"mosquito_risk":3,"arthritis_risk":5,"migraine_risk":4,"frizz_risk":1,"updated_at":"2026-05-17T21:34:58.052231+05:30"},{"city":"Kolkata","state":"West Bengal","latitude":22.5726,"longitude":88.3639,"temp":28.8,"humidity":89,"rain":0.0,"pressure":1002.1,"uv_index":8.95,"wind_gusts":35.3,"aqi":62,"pm10":23.9,"pm2_5":18.4,"no2":8.8,"co":244.0,"o3":54.0,"so2":7.2,"mosquito_risk":7,"arthritis_risk":5,"migraine_risk":4,"frizz_risk":1,"updated_at":"2026-05-17T21:34:58.052239+05:30"},{"city":"Pune","state":"Maharashtra","latitude":18.5204,"longitude":73.8567,"temp":29.3,"humidity":69,"rain":0.0,"pressure":945.8,"uv_index":8.45,"wind_gusts":39.6,"aqi":112,"pm10":32.9,"pm2_5":23.3,"no2":10.2,"co":241.0,"o3":122.0,"so2":18.9,"mosquito_risk":7,"arthritis_risk":5,"migraine_risk":7,"frizz_risk":1,"updated_at":"2026-05-17T21:34:58.052246+05:30"},{"city":"Ahmedabad","state":"Gujarat","latitude":23.0225,"longitude":72.5714,"temp":38.5,"humidity":23,"rain":0.0,"pressure":997.4,"uv_index":8.15,"wind_gusts":29.9,"aqi":63,"pm10":37.5,"pm2_5":20.0,"no2":8.9,"co":243.0,"o3":68.0,"so2":4.9,"mosquito_risk":0,"arthritis_risk":5,"migraine_risk":10,"frizz_risk":0,"updated_at":"2026-05-17T21:34:58.052253+05:30"},{"city":"Jaipur","state":"Rajasthan","latitude":26.9124,"longitude":75.7873,"temp":36.3,"humidity":19,"rain":0.0,"pressure":955.8,"uv_index":8.25,"wind_gusts":41.8,"aqi":127,"pm10":151.8,"pm2_5":41.7,"no2":14.2,"co":276.0,"o3":59.0,"so2":7.2,"mosquito_risk":0,"arthritis_risk":5,"migraine_risk":10,"frizz_risk":0,"updated_at":"2026-05-17T21:34:58.052265+05:30"},{"city":"Lucknow","state":"Uttar Pradesh","latitude":26.8467,"longitude":80.9462,"temp":34.7,"humidity":33,"rain":0.0,"pressure":987.3,"uv_index":8.2,"wind_gusts":47.5,"aqi":155,"pm10":421.0,"pm2_5":107.3,"no2":13.8,"co":281.0,"o3":85.0,"so2":11.7,"mosquito_risk":0,"arthritis_risk":5,"migraine_risk":7,"frizz_risk":0,"updated_at":"2026-05-17T21:34:58.052272+05:30"},{"city":"Kanpur","state":"Uttar Pradesh","latitude":26.4499,"longitude":80.3319,"temp":35.5,"humidity":27,"rain":0.0,"pressure":985.8,"uv_index":8.2,"wind_gusts":46.1,"aqi":280,"pm10":571.8,"pm2_5":120.1,"no2":11.1,"co":281.0,"o3":83.0,"so2":10.5,"mosquito_risk":0,"arthritis_risk":5,"migraine_risk":10,"frizz_risk":0,"updated_at":"2026-05-17T21:34:58.052278+05:30"},{"city":"Chandigarh","state":"Chandigarh","latitude":30.7333,"longitude":76.7794,"temp":30.0,"humidity":38,"rain":0.0,"pressure":963.0,"uv_index":7.7,"wind_gusts":43.2,"aqi":121,"pm10":27.4,"pm2_5":23.9,"no2":13.8,"co":487.0,"o3":101.0,"so2":10.5,"mosquito_risk":4,"arthritis_risk":5,"migraine_risk":7,"frizz_risk":0,"updated_at":"2026-05-17T21:34:58.052285+05:30"},{"city":"Srinagar","state":"Jammu and Kashmir","latitude":34.0837,"longitude":74.7973,"temp":17.8,"humidity":74,"rain":0.0,"pressure":839.3,"uv_index":8.9,"wind_gusts":18.0,"aqi":80,"pm10":39.6,"pm2_5":34.8,"no2":28.4,"co":884.0,"o3":73.0,"so2":4.7,"mosquito_risk":3,"arthritis_risk":5,"migraine_risk":7,"frizz_risk":0,"updated_at":"2026-05-17T21:34:58.052292+05:30"},{"city":"Jammu","state":"Jammu and Kashmir","latitude":32.7266,"longitude":74.857,"temp":31.0,"humidity":39,"rain":0.0,"pressure":967.1,"uv_index":8.5,"wind_gusts":40.0,"aqi":90,"pm10":36.6,"pm2_5":32.5,"no2":30.7,"co":388.0,"o3":53.0,"so2":6.1,"mosquito_risk":0,"arthritis_risk":5,"migraine_risk":7,"frizz_risk":0,"updated_at":"2026-05-17T21:34:58.052298+05:30"},{"city":"Amritsar","state":"Punjab","latitude":31.634,"longitude":74.8723,"temp":31.5,"humidity":37,"rain":0.0,"pressure":974.8,"uv_index":8.4,"wind_gusts":33.1,"aqi":103,"pm10":42.4,"pm2_5":32.2,"no2":22.0,"co":429.0,"o3":76.0,"so2":9.2,"mosquito_risk":0,"arthritis_risk":5,"migraine_risk":7,"frizz_risk":0,"updated_at":"2026-05-17T21:34:58.052305+05:30"},{"city":"Ludhiana","state":"Punjab","latitude":30.901,"longitude":75.8573,"temp":31.6,"humidity":37,"rain":0.0,"pressure":973.0,"uv_index":7.95,"wind_gusts":42.8,"aqi":94,"pm10":93.8,"pm2_5":40.5,"no2":11.7,"co":491.0,"o3":91.0,"so2":7.9,"mosquito_risk":0,"arthritis_risk":5,"migraine_risk":7,"frizz_risk":0,"updated_at":"2026-05-17T21:34:58.052311+05:30"},{"city":"Jalandhar","state":"Punjab","latitude":31.326,"longitude":75.5762,"temp":31.0,"humidity":41,"rain":0.0,"pressure":973.7,"uv_index":8.15,"wind_gusts":36.7,"aqi":102,"pm10":88.9,"pm2_5":41.3,"no2":15.4,"co":643.0,"o3":85.0,"so2":8.5,"mosquito_risk":0,"arthritis_risk":5,"migraine_risk":7,"frizz_risk":1,"updated_at":"2026-05-17T21:34:58.052318+05:30"},{"city":"Dehradun","state":"Uttarakhand","latitude":30.6284,"longitude":78.0322,"temp":17.1,"humidity":67,"rain":0.0,"pressure":825.5,"uv_index":8.15,"wind_gusts":43.9,"aqi":110,"pm10":18.8,"pm2_5":15.9,"no2":20.9,"co":243.0,"o3":98.0,"so2":4.0,"mosquito_risk":3,"arthritis_risk":5,"migraine_risk":7,"frizz_risk":0,"updated_at":"2026-05-17T21:34:58.052324+05:30"},{"city":"Shimla","state":"Himachal Pradesh","latitude":31.1048,"longitude":77.1734,"temp":16.4,"humidity":49,"rain":0.0,"pressure":782.2,"uv_index":8.25,"wind_gusts":49.0,"aqi":113,"pm10":24.7,"pm2_5":16.2,"no2":10.4,"co":217.0,"o3":117.0,"so2":4.0,"mosquito_risk":0,"arthritis_risk":5,"migraine_risk":7,"frizz_risk":0,"updated_at":"2026-05-17T21:34:58.052333+05:30"},{"city":"Manali","state":"Himachal Pradesh","latitude":32.2396,"longitude":77.1887,"temp":11.5,"humidity":70,"rain":0.0,"pressure":813.4,"uv_index":9.85,"wind_gusts":40.0,"aqi":104,"pm10":6.8,"pm2_5":5.6,"no2":19.1,"co":276.0,"o3":116.0,"so2":0.2,"mosquito_risk":3,"arthritis_risk":5,"migraine_risk":7,"frizz_risk":0,"updated_at":"2026-05-17T21:34:58.052339+05:30"},{"city":"Gurgaon","state":"Haryana","latitude":28.4595,"longitude":77.0266,"temp":33.7,"humidity":30,"rain":0.0,"pressure":975.7,"uv_index":7.8,"wind_gusts":47.2,"aqi":1041,"pm10":1043.1,"pm2_5":184.4,"no2":24.9,"co":460.0,"o3":68.0,"so2":16.6,"mosquito_risk":0,"arthritis_risk":5,"migraine_risk":7,"frizz_risk":0,"updated_at":"2026-05-17T21:34:58.052350+05:30"},{"city":"Noida","state":"Uttar Pradesh","latitude":28.5355,"longitude":77.391,"temp":33.5,"humidity":34,"rain":0.0,"pressure":978.4,"uv_index":7.75,"wind_gusts":43.2,"aqi":1041,"pm10":1043.1,"pm2_5":184.4,"no2":24.9,"co":364.0,"o3":68.0,"so2":16.6,"mosquito_risk":0,"arthritis_risk":5,"migraine_risk":7,"frizz_risk":0,"updated_at":"2026-05-17T21:34:58.052356+05:30"},{"city":"Ghaziabad","state":"Uttar Pradesh","latitude":28.6692,"longitude":77.4538,"temp":32.5,"humidity":36,"rain":0.0,"pressure":976.7,"uv_index":7.7,"wind_gusts":50.4,"aqi":497,"pm10":871.7,"pm2_5":181.1,"no2":19.1,"co":332.0,"o3":74.0,"so2":17.1,"mosquito_risk":0,"arthritis_risk":5,"migraine_risk":7,"frizz_risk":0,"updated_at":"2026-05-17T21:34:58.052362+05:30"},{"city":"Faridabad","state":"Haryana","latitude":28.4089,"longitude":77.3178,"temp":36.5,"humidity":24,"rain":0.0,"pressure":978.0,"uv_index":7.75,"wind_gusts":50.0,"aqi":1041,"pm10":1043.1,"pm2_5":184.4,"no2":24.9,"co":393.0,"o3":68.0,"so2":16.6,"mosquito_risk":0,"arthritis_risk":5,"migraine_risk":10,"frizz_risk":0,"updated_at":"2026-05-17T21:34:58.052368+05:30"},{"city":"Meerut","state":"Uttar Pradesh","latitude":28.9845,"longitude":77.7064,"temp":33.3,"humidity":28,"rain":0.0,"pressure":975.4,"uv_index":7.65,"wind_gusts":50.8,"aqi":497,"pm10":871.7,"pm2_5":181.1,"no2":19.1,"co":337.0,"o3":74.0,"so2":17.1,"mosquito_risk":0,"arthritis_risk":5,"migraine_risk":7,"frizz_risk":0,"updated_at":"2026-05-17T21:34:58.052374+05:30"},{"city":"Agra","state":"Uttar Pradesh","latitude":27.1767,"longitude":78.0081,"temp":34.9,"humidity":27,"rain":0.0,"pressure":981.8,"uv_index":8.05,"wind_gusts":38.9,"aqi":681,"pm10":517.8,"pm2_5":101.7,"no2":22.2,"co":314.0,"o3":51.0,"so2":11.9,"mosquito_risk":0,"arthritis_risk":5,"migraine_risk":7,"frizz_risk":0,"updated_at":"2026-05-17T21:34:58.052381+05:30"},{"city":"Varanasi","state":"Uttar Pradesh","latitude":25.3176,"longitude":82.9739,"temp":35.3,"humidity":25,"rain":0.0,"pressure":991.4,"uv_index":8.7,"wind_gusts":45.7,"aqi":150,"pm10":116.6,"pm2_5":53.6,"no2":25.1,"co":471.0,"o3":66.0,"so2":13.8,"mosquito_risk":0,"arthritis_risk":5,"migraine_risk":10,"frizz_risk":0,"updated_at":"2026-05-17T21:34:58.052387+05:30"},{"city":"Prayagraj","state":"Uttar Pradesh","latitude":25.4358,"longitude":81.8463,"temp":34.2,"humidity":29,"rain":0.0,"pressure":990.0,"uv_index":8.6,"wind_gusts":39.6,"aqi":148,"pm10":134.6,"pm2_5":52.9,"no2":20.6,"co":312.0,"o3":64.0,"so2":11.9,"mosquito_risk":0,"arthritis_risk":5,"migraine_risk":7,"frizz_risk":0,"updated_at":"2026-05-17T21:34:58.052394+05:30"},{"city":"Gorakhpur","state":"Uttar Pradesh","latitude":26.7606,"longitude":83.3732,"temp":30.5,"humidity":52,"rain":0.0,"pressure":990.5,"uv_index":8.6,"wind_gusts":35.6,"aqi":146,"pm10":64.7,"pm2_5":42.7,"no2":15.7,"co":436.0,"o3":91.0,"so2":11.8,"mosquito_risk":0,"arthritis_risk":5,"migraine_risk":7,"frizz_risk":1,"updated_at":"2026-05-17T21:34:58.052402+05:30"},{"city":"Bareilly","state":"Uttar Pradesh","latitude":28.367,"longitude":79.4304,"temp":30.2,"humidity":50,"rain":0.0,"pressure":979.8,"uv_index":8.0,"wind_gusts":37.1,"aqi":119,"pm10":144.8,"pm2_5":53.7,"no2":16.2,"co":380.0,"o3":86.0,"so2":11.8,"mosquito_risk":0,"arthritis_risk":5,"migraine_risk":7,"frizz_risk":1,"updated_at":"2026-05-17T21:34:58.052408+05:30"},{"city":"Aligarh","state":"Uttar Pradesh","latitude":27.8974,"longitude":78.088,"temp":32.5,"humidity":37,"rain":0.0,"pressure":979.2,"uv_index":7.85,"wind_gusts":49.7,"aqi":640,"pm10":1013.3,"pm2_5":186.3,"no2":15.2,"co":306.0,"o3":76.0,"so2":11.5,"mosquito_risk":0,"arthritis_risk":5,"migraine_risk":7,"frizz_risk":0,"updated_at":"2026-05-17T21:34:58.052414+05:30"},{"city":"Moradabad","state":"Uttar Pradesh","latitude":28.8386,"longitude":78.7733,"temp":31.5,"humidity":43,"rain":0.0,"pressure":976.9,"uv_index":7.85,"wind_gusts":45.7,"aqi":152,"pm10":267.3,"pm2_5":84.5,"no2":21.4,"co":432.0,"o3":64.0,"so2":10.3,"mosquito_risk":0,"arthritis_risk":5,"migraine_risk":7,"frizz_risk":1,"updated_at":"2026-05-17T21:34:58.052420+05:30"},{"city":"Saharanpur","state":"Uttar Pradesh","latitude":29.9637,"longitude":77.546,"temp":31.6,"humidity":33,"rain":0.0,"pressure":969.2,"uv_index":7.35,"wind_gusts":42.8,"aqi":106,"pm10":66.1,"pm2_5":28.9,"no2":9.3,"co":305.0,"o3":108.0,"so2":9.3,"mosquito_risk":0,"arthritis_risk":5,"migraine_risk":7,"frizz_risk":0,"updated_at":"2026-05-17T21:34:58.052426+05:30"},{"city":"Jhansi","state":"Uttar Pradesh","latitude":25.4484,"longitude":78.5685,"temp":34.2,"humidity":24,"rain":0.0,"pressure":972.9,"uv_index":8.45,"wind_gusts":34.6,"aqi":121,"pm10":111.1,"pm2_5":37.5,"no2":7.6,"co":281.0,"o3":73.0,"so2":5.4,"mosquito_risk":0,"arthritis_risk":5,"migraine_risk":7,"frizz_risk":0,"updated_at":"2026-05-17T21:35:01.843433+05:30"},{"city":"Surat","state":"Gujarat","latitude":21.1702,"longitude":72.8311,"temp":31.5,"humidity":73,"rain":0.0,"pressure":1002.2,"uv_index":7.75,"wind_gusts":41.4,"aqi":87,"pm10":37.0,"pm2_5":24.0,"no2":25.8,"co":408.0,"o3":46.0,"so2":39.9,"mosquito_risk":3,"arthritis_risk":5,"migraine_risk":4,"frizz_risk":1,"updated_at":"2026-05-17T21:35:01.843466+05:30"},{"city":"Vadodara","state":"Gujarat","latitude":22.3072,"longitude":73.1812,"temp":38.2,"humidity":24,"rain":0.0,"pressure":998.9,"uv_index":8.1,"wind_gusts":31.0,"aqi":85,"pm10":50.9,"pm2_5":31.2,"no2":18.8,"co":296.0,"o3":79.0,"so2":12.9,"mosquito_risk":0,"arthritis_risk":5,"migraine_risk":10,"frizz_risk":0,"updated_at":"2026-05-17T21:35:01.843477+05:30"},{"city":"Rajkot","state":"Gujarat","latitude":22.3039,"longitude":70.8022,"temp":31.0,"humidity":48,"rain":0.0,"pressure":991.5,"uv_index":7.2,"wind_gusts":38.5,"aqi":58,"pm10":37.1,"pm2_5":17.3,"no2":6.4,"co":149.0,"o3":69.0,"so2":6.6,"mosquito_risk":0,"arthritis_risk":5,"migraine_risk":7,"frizz_risk":1,"updated_at":"2026-05-17T21:35:01.843487+05:30"},{"city":"Thane","state":"Maharashtra","latitude":19.2183,"longitude":72.9781,"temp":29.8,"humidity":81,"rain":0.0,"pressure":1004.7,"uv_index":7.6,"wind_gusts":39.2,"aqi":63,"pm10":42.0,"pm2_5":18.7,"no2":8.4,"co":231.0,"o3":65.0,"so2":5.4,"mosquito_risk":7,"arthritis_risk":5,"migraine_risk":4,"frizz_risk":1,"updated_at":"2026-05-17T21:35:01.843496+05:30"},{"city":"Nagpur","state":"Maharashtra","latitude":21.1458,"longitude":79.0882,"temp":36.8,"humidity":26,"rain":0.0,"pressure":969.0,"uv_index":8.95,"wind_gusts":31.7,"aqi":102,"pm10":25.7,"pm2_5":21.5,"no2":21.0,"co":367.0,"o3":67.0,"so2":13.1,"mosquito_risk":0,"arthritis_risk":5,"migraine_risk":10,"frizz_risk":0,"updated_at":"2026-05-17T21:35:01.843504+05:30"},{"city":"Nashik","state":"Maharashtra","latitude":19.9975,"longitude":73.7898,"temp":30.6,"humidity":33,"rain":0.0,"pressure":943.1,"uv_index":8.2,"wind_gusts":42.5,"aqi":90,"pm10":34.2,"pm2_5":20.8,"no2":10.3,"co":209.0,"o3":97.0,"so2":7.2,"mosquito_risk":0,"arthritis_risk":5,"migraine_risk":7,"frizz_risk":0,"updated_at":"2026-05-17T21:35:01.843512+05:30"},{"city":"Aurangabad","state":"Maharashtra","latitude":19.8762,"longitude":75.3433,"temp":33.5,"humidity":23,"rain":0.0,"pressure":941.3,"uv_index":9.05,"wind_gusts":40.7,"aqi":80,"pm10":17.5,"pm2_5":12.1,"no2":6.3,"co":184.0,"o3":101.0,"so2":4.6,"mosquito_risk":0,"arthritis_risk":5,"migraine_risk":7,"frizz_risk":0,"updated_at":"2026-05-17T21:35:01.843520+05:30"},{"city":"Solapur","state":"Maharashtra","latitude":17.6599,"longitude":75.9064,"temp":34.8,"humidity":27,"rain":0.0,"pressure":953.6,"uv_index":9.1,"wind_gusts":33.5,"aqi":102,"pm10":27.3,"pm2_5":24.0,"no2":18.4,"co":297.0,"o3":77.0,"so2":7.4,"mosquito_risk":0,"arthritis_risk":5,"migraine_risk":7,"frizz_risk":0,"updated_at":"2026-05-17T21:35:01.843528+05:30"},{"city":"Kolhapur","state":"Maharashtra","latitude":16.705,"longitude":74.2433,"temp":27.0,"humidity":81,"rain":0.0,"pressure":945.2,"uv_index":8.8,"wind_gusts":45.0,"aqi":85,"pm10":24.4,"pm2_5":16.5,"no2":5.9,"co":185.0,"o3":72.0,"so2":5.4,"mosquito_risk":7,"arthritis_risk":5,"migraine_risk":7,"frizz_risk":1,"updated_at":"2026-05-17T21:35:01.843535+05:30"},{"city":"Goa","state":"Goa","latitude":15.2993,"longitude":74.124,"temp":29.0,"humidity":84,"rain":0.0,"pressure":996.2,"uv_index":8.9,"wind_gusts":34.9,"aqi":56,"pm10":38.3,"pm2_5":16.8,"no2":2.5,"co":241.0,"o3":58.0,"so2":1.5,"mosquito_risk":7,"arthritis_risk":5,"migraine_risk":7,"frizz_risk":1,"updated_at":"2026-05-17T21:35:01.843543+05:30"},{"city":"Jodhpur","state":"Rajasthan","latitude":26.2389,"longitude":73.0243,"temp":37.2,"humidity":21,"rain":0.0,"pressure":978.7,"uv_index":8.45,"wind_gusts":33.5,"aqi":77,"pm10":126.2,"pm2_5":30.6,"no2":7.8,"co":220.0,"o3":71.0,"so2":4.2,"mosquito_risk":0,"arthritis_risk":5,"migraine_risk":10,"frizz_risk":0,"updated_at":"2026-05-17T21:35:01.843551+05:30"},{"city":"Udaipur","state":"Rajasthan","latitude":24.5854,"longitude":73.7125,"temp":33.5,"humidity":26,"rain":0.0,"pressure":943.9,"uv_index":8.85,"wind_gusts":33.5,"aqi":53,"pm10":52.7,"pm2_5":21.7,"no2":7.1,"co":186.0,"o3":70.0,"so2":4.7,"mosquito_risk":0,"arthritis_risk":5,"migraine_risk":7,"frizz_risk":0,"updated_at":"2026-05-17T21:35:01.843558+05:30"},{"city":"Kota","state":"Rajasthan","latitude":25.2138,"longitude":75.8648,"temp":37.2,"humidity":17,"rain":0.0,"pressure":974.1,"uv_index":8.4,"wind_gusts":31.0,"aqi":100,"pm10":156.9,"pm2_5":44.0,"no2":12.5,"co":224.0,"o3":81.0,"so2":5.9,"mosquito_risk":0,"arthritis_risk":5,"migraine_risk":10,"frizz_risk":0,"updated_at":"2026-05-17T21:35:01.843565+05:30"},{"city":"Bikaner","state":"Rajasthan","latitude":28.0229,"longitude":73.3119,"temp":37.0,"humidity":20,"rain":0.0,"pressure":977.1,"uv_index":8.4,"wind_gusts":37.8,"aqi":76,"pm10":61.2,"pm2_5":22.2,"no2":2.3,"co":194.0,"o3":78.0,"so2":2.2,"mosquito_risk":0,"arthritis_risk":5,"migraine_risk":10,"frizz_risk":0,"updated_at":"2026-05-17T21:35:01.843573+05:30"},{"city":"Ajmer","state":"Rajasthan","latitude":26.4499,"longitude":74.6399,"temp":34.8,"humidity":23,"rain":0.0,"pressure":951.5,"uv_index":8.4,"wind_gusts":46.8,"aqi":83,"pm10":79.2,"pm2_5":27.7,"no2":7.1,"co":226.0,"o3":70.0,"so2":3.7,"mosquito_risk":0,"arthritis_risk":5,"migraine_risk":7,"frizz_risk":0,"updated_at":"2026-05-17T21:35:01.843580+05:30"},{"city":"Gwalior","state":"Madhya Pradesh","latitude":26.2183,"longitude":78.1828,"temp":36.1,"humidity":21,"rain":0.0,"pressure":977.9,"uv_index":8.25,"wind_gusts":40.7,"aqi":270,"pm10":73.8,"pm2_5":30.6,"no2":7.6,"co":274.0,"o3":71.0,"so2":5.5,"mosquito_risk":0,"arthritis_risk":5,"migraine_risk":10,"frizz_risk":0,"updated_at":"2026-05-17T21:35:01.843588+05:30"},{"city":"Indore","state":"Madhya Pradesh","latitude":22.7196,"longitude":75.8577,"temp":36.5,"humidity":20,"rain":0.0,"pressure":944.6,"uv_index":8.7,"wind_gusts":43.6,"aqi":72,"pm10":55.4,"pm2_5":33.2,"no2":15.4,"co":454.0,"o3":85.0,"so2":10.4,"mosquito_risk":0,"arthritis_risk":5,"migraine_risk":10,"frizz_risk":0,"updated_at":"2026-05-17T21:35:01.843594+05:30"},{"city":"Bhopal","state":"Madhya Pradesh","latitude":23.2599,"longitude":77.4126,"temp":35.4,"humidity":22,"rain":0.0,"pressure":949.9,"uv_index":8.7,"wind_gusts":38.9,"aqi":65,"pm10":32.7,"pm2_5":23.5,"no2":12.9,"co":531.0,"o3":73.0,"so2":6.8,"mosquito_risk":0,"arthritis_risk":5,"migraine_risk":10,"frizz_risk":0,"updated_at":"2026-05-17T21:35:01.843602+05:30"},{"city":"Jabalpur","state":"Madhya Pradesh","latitude":23.1815,"longitude":79.9864,"temp":33.0,"humidity":29,"rain":0.0,"pressure":957.4,"uv_index":8.9,"wind_gusts":39.2,"aqi":87,"pm10":51.2,"pm2_5":28.5,"no2":15.9,"co":317.0,"o3":77.0,"so2":6.3,"mosquito_risk":0,"arthritis_risk":5,"migraine_risk":7,"frizz_risk":0,"updated_at":"2026-05-17T21:35:01.843609+05:30"},{"city":"Ujjain","state":"Madhya Pradesh","latitude":23.1765,"longitude":75.7885,"temp":35.8,"humidity":18,"rain":0.0,"pressure":949.8,"uv_index":8.65,"wind_gusts":39.6,"aqi":77,"pm10":59.8,"pm2_5":29.5,"no2":5.0,"co":274.0,"o3":93.0,"so2":6.3,"mosquito_risk":0,"arthritis_risk":5,"migraine_risk":10,"frizz_risk":0,"updated_at":"2026-05-17T21:35:01.843616+05:30"},{"city":"Visakhapatnam","state":"Andhra Pradesh","latitude":17.6868,"longitude":83.2185,"temp":29.9,"humidity":81,"rain":0.0,"pressure":1001.8,"uv_index":8.75,"wind_gusts":43.2,"aqi":60,"pm10":24.5,"pm2_5":17.6,"no2":15.5,"co":270.0,"o3":64.0,"so2":27.9,"mosquito_risk":7,"arthritis_risk":5,"migraine_risk":4,"frizz_risk":1,"updated_at":"2026-05-17T21:35:01.843624+05:30"},{"city":"Vijayawada","state":"Andhra Pradesh","latitude":16.5062,"longitude":80.648,"temp":30.6,"humidity":72,"rain":0.0,"pressure":1000.4,"uv_index":9.2,"wind_gusts":32.8,"aqi":51,"pm10":21.5,"pm2_5":16.4,"no2":6.4,"co":218.0,"o3":68.0,"so2":7.0,"mosquito_risk":3,"arthritis_risk":5,"migraine_risk":4,"frizz_risk":1,"updated_at":"2026-05-17T21:35:01.843632+05:30"},{"city":"Guntur","state":"Andhra Pradesh","latitude":16.3067,"longitude":80.4365,"temp":30.4,"humidity":75,"rain":0.0,"pressure":1001.7,"uv_index":9.2,"wind_gusts":33.5,"aqi":48,"pm10":20.4,"pm2_5":16.4,"no2":5.7,"co":214.0,"o3":72.0,"so2":5.2,"mosquito_risk":3,"arthritis_risk":5,"migraine_risk":4,"frizz_risk":1,"updated_at":"2026-05-17T21:35:01.843639+05:30"},{"city":"Nellore","state":"Andhra Pradesh","latitude":14.4426,"longitude":79.9865,"temp":30.4,"humidity":74,"rain":0.0,"pressure":1003.8,"uv_index":9.15,"wind_gusts":37.1,"aqi":98,"pm10":33.1,"pm2_5":24.5,"no2":3.6,"co":200.0,"o3":123.0,"so2":8.2,"mosquito_risk":3,"arthritis_risk":5,"migraine_risk":4,"frizz_risk":1,"updated_at":"2026-05-17T21:35:01.843647+05:30"},{"city":"Kurnool","state":"Andhra Pradesh","latitude":15.8281,"longitude":78.0373,"temp":34.5,"humidity":39,"rain":0.0,"pressure":974.2,"uv_index":9.15,"wind_gusts":32.4,"aqi":58,"pm10":40.2,"pm2_5":25.5,"no2":9.9,"co":248.0,"o3":72.0,"so2":3.4,"mosquito_risk":0,"arthritis_risk":5,"migraine_risk":7,"frizz_risk":1,"updated_at":"2026-05-17T21:35:01.843655+05:30"},{"city":"Kakinada","state":"Andhra Pradesh","latitude":16.9891,"longitude":82.2475,"temp":30.3,"humidity":76,"rain":0.0,"pressure":1005.3,"uv_index":8.7,"wind_gusts":36.0,"aqi":45,"pm10":25.3,"pm2_5":15.9,"no2":1.8,"co":215.0,"o3":77.0,"so2":1.5,"mosquito_risk":3,"arthritis_risk":5,"migraine_risk":4,"frizz_risk":1,"updated_at":"2026-05-17T21:35:01.843662+05:30"},{"city":"Tirupati","state":"Andhra Pradesh","latitude":13.6288,"longitude":79.4192,"temp":28.0,"humidity":80,"rain":0.0,"pressure":989.5,"uv_index":9.25,"wind_gusts":29.5,"aqi":101,"pm10":32.8,"pm2_5":28.4,"no2":10.0,"co":317.0,"o3":115.0,"so2":13.7,"mosquito_risk":7,"arthritis_risk":5,"migraine_risk":7,"frizz_risk":1,"updated_at":"2026-05-17T21:35:01.843669+05:30"},{"city":"Warangal","state":"Telangana","latitude":17.9689,"longitude":79.5941,"temp":31.9,"humidity":57,"rain":0.0,"pressure":976.3,"uv_index":8.8,"wind_gusts":31.0,"aqi":66,"pm10":36.2,"pm2_5":30.9,"no2":13.3,"co":380.0,"o3":88.0,"so2":7.8,"mosquito_risk":0,"arthritis_risk":5,"migraine_risk":7,"frizz_risk":1,"updated_at":"2026-05-17T21:35:01.843676+05:30"},{"city":"Nizamabad","state":"Telangana","latitude":18.6725,"longitude":78.0941,"temp":32.2,"humidity":49,"rain":0.0,"pressure":961.5,"uv_index":9.15,"wind_gusts":31.7,"aqi":99,"pm10":41.3,"pm2_5":34.8,"no2":14.7,"co":293.0,"o3":84.0,"so2":6.3,"mosquito_risk":0,"arthritis_risk":5,"migraine_risk":7,"frizz_risk":1,"updated_at":"2026-05-17T21:35:01.843682+05:30"},{"city":"Mysore","state":"Karnataka","latitude":12.2958,"longitude":76.6396,"temp":24.5,"humidity":89,"rain":0.1,"pressure":927.3,"uv_index":9.1,"wind_gusts":36.4,"aqi":71,"pm10":24.7,"pm2_5":19.9,"no2":15.4,"co":252.0,"o3":70.0,"so2":4.4,"mosquito_risk":6,"arthritis_risk":5,"migraine_risk":7,"frizz_risk":1,"updated_at":"2026-05-17T21:35:01.843690+05:30"},{"city":"Mangalore","state":"Karnataka","latitude":12.9141,"longitude":74.856,"temp":26.5,"humidity":93,"rain":0.0,"pressure":1005.5,"uv_index":8.75,"wind_gusts":36.7,"aqi":62,"pm10":23.5,"pm2_5":15.9,"no2":9.1,"co":347.0,"o3":44.0,"so2":2.8,"mosquito_risk":7,"arthritis_risk":5,"migraine_risk":4,"frizz_risk":1,"updated_at":"2026-05-17T21:35:01.843696+05:30"},{"city":"Hubli-Dharwad","state":"Karnataka","latitude":15.3647,"longitude":75.124,"temp":24.8,"humidity":98,"rain":0.3,"pressure":939.7,"uv_index":9.15,"wind_gusts":52.9,"aqi":68,"pm10":15.5,"pm2_5":10.3,"no2":5.8,"co":178.0,"o3":50.0,"so2":1.6,"mosquito_risk":6,"arthritis_risk":5,"migraine_risk":7,"frizz_risk":1,"updated_at":"2026-05-17T21:35:01.843704+05:30"},{"city":"Belgaum","state":"Karnataka","latitude":15.8497,"longitude":74.4977,"temp":24.5,"humidity":93,"rain":0.0,"pressure":924.5,"uv_index":9.15,"wind_gusts":44.6,"aqi":54,"pm10":22.8,"pm2_5":13.9,"no2":5.6,"co":148.0,"o3":57.0,"so2":2.7,"mosquito_risk":3,"arthritis_risk":5,"migraine_risk":7,"frizz_risk":1,"updated_at":"2026-05-17T21:35:05.126236+05:30"},{"city":"Coimbatore","state":"Tamil Nadu","latitude":11.0168,"longitude":76.9558,"temp":24.6,"humidity":91,"rain":0.0,"pressure":960.3,"uv_index":8.7,"wind_gusts":48.2,"aqi":53,"pm10":4.9,"pm2_5":4.4,"no2":7.1,"co":203.0,"o3":62.0,"so2":3.2,"mosquito_risk":3,"arthritis_risk":5,"migraine_risk":7,"frizz_risk":1,"updated_at":"2026-05-17T21:35:05.126266+05:30"},{"city":"Madurai","state":"Tamil Nadu","latitude":9.9252,"longitude":78.1198,"temp":27.1,"humidity":94,"rain":0.0,"pressure":991.3,"uv_index":8.5,"wind_gusts":32.4,"aqi":90,"pm10":33.3,"pm2_5":27.5,"no2":33.7,"co":279.0,"o3":38.0,"so2":8.5,"mosquito_risk":7,"arthritis_risk":5,"migraine_risk":7,"frizz_risk":1,"updated_at":"2026-05-17T21:35:05.126278+05:30"},{"city":"Trichy","state":"Tamil Nadu","latitude":10.7905,"longitude":78.7047,"temp":28.0,"humidity":92,"rain":0.0,"pressure":998.0,"uv_index":8.45,"wind_gusts":40.0,"aqi":80,"pm10":22.9,"pm2_5":20.6,"no2":14.0,"co":302.0,"o3":75.0,"so2":5.1,"mosquito_risk":7,"arthritis_risk":5,"migraine_risk":7,"frizz_risk":1,"updated_at":"2026-05-17T21:35:05.126286+05:30"},{"city":"Salem","state":"Tamil Nadu","latitude":11.6643,"longitude":78.146,"temp":27.1,"humidity":80,"rain":0.0,"pressure":975.9,"uv_index":8.5,"wind_gusts":43.2,"aqi":121,"pm10":32.2,"pm2_5":25.4,"no2":12.1,"co":342.0,"o3":101.0,"so2":5.9,"mosquito_risk":7,"arthritis_risk":5,"migraine_risk":7,"frizz_risk":1,"updated_at":"2026-05-17T21:35:05.126295+05:30"},{"city":"Tirunelveli","state":"Tamil Nadu","latitude":8.7139,"longitude":77.7567,"temp":29.1,"humidity":70,"rain":0.0,"pressure":1001.8,"uv_index":8.95,"wind_gusts":28.8,"aqi":38,"pm10":7.3,"pm2_5":6.4,"no2":5.4,"co":231.0,"o3":63.0,"so2":1.5,"mosquito_risk":7,"arthritis_risk":5,"migraine_risk":4,"frizz_risk":1,"updated_at":"2026-05-17T21:35:05.126303+05:30"},{"city":"Vellore","state":"Tamil Nadu","latitude":12.9165,"longitude":79.1325,"temp":26.9,"humidity":98,"rain":0.0,"pressure":982.7,"uv_index":9.2,"wind_gusts":23.4,"aqi":97,"pm10":35.3,"pm2_5":29.5,"no2":10.1,"co":332.0,"o3":93.0,"so2":9.0,"mosquito_risk":7,"arthritis_risk":5,"migraine_risk":7,"frizz_risk":1,"updated_at":"2026-05-17T21:35:05.126310+05:30"},{"city":"Erode","state":"Tamil Nadu","latitude":11.341,"longitude":77.7172,"temp":27.5,"humidity":78,"rain":0.0,"pressure":987.5,"uv_index":8.55,"wind_gusts":34.6,"aqi":75,"pm10":17.6,"pm2_5":14.3,"no2":13.0,"co":217.0,"o3":63.0,"so2":3.1,"mosquito_risk":7,"arthritis_risk":5,"migraine_risk":7,"frizz_risk":1,"updated_at":"2026-05-17T21:35:05.126317+05:30"},{"city":"Kochi","state":"Kerala","latitude":9.9312,"longitude":76.2673,"temp":25.8,"humidity":92,"rain":0.1,"pressure":1008.4,"uv_index":8.7,"wind_gusts":28.4,"aqi":51,"pm10":19.2,"pm2_5":16.4,"no2":17.0,"co":222.0,"o3":41.0,"so2":5.6,"mosquito_risk":10,"arthritis_risk":0,"migraine_risk":4,"frizz_risk":1,"updated_at":"2026-05-17T21:35:05.126325+05:30"},{"city":"Thiruvananthapuram","state":"Kerala","latitude":8.5241,"longitude":76.9366,"temp":25.3,"humidity":99,"rain":0.0,"pressure":1007.8,"uv_index":8.3,"wind_gusts":33.5,"aqi":40,"pm10":12.4,"pm2_5":7.8,"no2":1.8,"co":242.0,"o3":76.0,"so2":0.7,"mosquito_risk":7,"arthritis_risk":5,"migraine_risk":4,"frizz_risk":1,"updated_at":"2026-05-17T21:35:05.126333+05:30"},{"city":"Kozhikode","state":"Kerala","latitude":11.2588,"longitude":75.7804,"temp":25.9,"humidity":99,"rain":0.0,"pressure":1006.4,"uv_index":8.65,"wind_gusts":40.7,"aqi":51,"pm10":17.3,"pm2_5":10.1,"no2":1.4,"co":349.0,"o3":77.0,"so2":1.0,"mosquito_risk":7,"arthritis_risk":5,"migraine_risk":4,"frizz_risk":1,"updated_at":"2026-05-17T21:35:05.126341+05:30"},{"city":"Thrissur","state":"Kerala","latitude":10.5276,"longitude":76.2144,"temp":24.9,"humidity":99,"rain":0.3,"pressure":1006.5,"uv_index":8.75,"wind_gusts":30.2,"aqi":53,"pm10":18.9,"pm2_5":16.3,"no2":13.3,"co":276.0,"o3":44.0,"so2":4.2,"mosquito_risk":6,"arthritis_risk":5,"migraine_risk":4,"frizz_risk":1,"updated_at":"2026-05-17T21:35:05.126349+05:30"},{"city":"Kannur","state":"Kerala","latitude":11.8745,"longitude":75.3704,"temp":27.1,"humidity":95,"rain":0.0,"pressure":1005.4,"uv_index":8.9,"wind_gusts":37.1,"aqi":58,"pm10":23.6,"pm2_5":17.2,"no2":13.2,"co":346.0,"o3":45.0,"so2":3.2,"mosquito_risk":7,"arthritis_risk":5,"migraine_risk":4,"frizz_risk":1,"updated_at":"2026-05-17T21:35:05.126356+05:30"},{"city":"Patna","state":"Bihar","latitude":25.5941,"longitude":85.1376,"temp":30.1,"humidity":75,"rain":0.0,"pressure":994.5,"uv_index":8.8,"wind_gusts":39.2,"aqi":149,"pm10":112.2,"pm2_5":67.1,"no2":48.1,"co":482.0,"o3":45.0,"so2":21.5,"mosquito_risk":3,"arthritis_risk":5,"migraine_risk":7,"frizz_risk":1,"updated_at":"2026-05-17T21:35:05.126363+05:30"},{"city":"Gaya","state":"Bihar","latitude":24.7914,"longitude":85.0002,"temp":31.6,"humidity":32,"rain":0.0,"pressure":987.9,"uv_index":8.85,"wind_gusts":40.0,"aqi":151,"pm10":108.0,"pm2_5":47.6,"no2":18.5,"co":429.0,"o3":75.0,"so2":10.0,"mosquito_risk":0,"arthritis_risk":5,"migraine_risk":7,"frizz_risk":0,"updated_at":"2026-05-17T21:35:05.126370+05:30"},{"city":"Muzaffarpur","state":"Bihar","latitude":26.1209,"longitude":85.3647,"temp":29.2,"humidity":75,"rain":0.0,"pressure":994.7,"uv_index":8.8,"wind_gusts":24.8,"aqi":151,"pm10":139.7,"pm2_5":93.8,"no2":55.9,"co":466.0,"o3":48.0,"so2":25.5,"mosquito_risk":7,"arthritis_risk":5,"migraine_risk":7,"frizz_risk":1,"updated_at":"2026-05-17T21:35:05.126377+05:30"},{"city":"Bhagalpur","state":"Bihar","latitude":25.2425,"longitude":87.0117,"temp":29.1,"humidity":83,"rain":0.0,"pressure":995.7,"uv_index":8.8,"wind_gusts":25.6,"aqi":151,"pm10":55.4,"pm2_5":49.2,"no2":11.4,"co":457.0,"o3":118.0,"so2":12.7,"mosquito_risk":7,"arthritis_risk":5,"migraine_risk":7,"frizz_risk":1,"updated_at":"2026-05-17T21:35:05.126383+05:30"},{"city":"Ranchi","state":"Jharkhand","latitude":23.3441,"longitude":85.3096,"temp":25.9,"humidity":64,"rain":0.0,"pressure":934.0,"uv_index":9.3,"wind_gusts":41.8,"aqi":129,"pm10":72.2,"pm2_5":54.8,"no2":15.6,"co":335.0,"o3":85.0,"so2":9.8,"mosquito_risk":7,"arthritis_risk":5,"migraine_risk":7,"frizz_risk":1,"updated_at":"2026-05-17T21:35:05.126390+05:30"},{"city":"Jamshedpur","state":"Jharkhand","latitude":22.8046,"longitude":86.2029,"temp":29.7,"humidity":66,"rain":0.0,"pressure":986.7,"uv_index":9.1,"wind_gusts":34.6,"aqi":114,"pm10":82.0,"pm2_5":64.7,"no2":21.1,"co":739.0,"o3":99.0,"so2":23.8,"mosquito_risk":7,"arthritis_risk":5,"migraine_risk":7,"frizz_risk":1,"updated_at":"2026-05-17T21:35:05.126397+05:30"},{"city":"Dhanbad","state":"Jharkhand","latitude":23.7957,"longitude":86.4304,"temp":29.5,"humidity":59,"rain":0.0,"pressure":974.9,"uv_index":9.05,"wind_gusts":38.9,"aqi":145,"pm10":90.3,"pm2_5":75.4,"no2":52.1,"co":642.0,"o3":57.0,"so2":121.9,"mosquito_risk":4,"arthritis_risk":5,"migraine_risk":7,"frizz_risk":1,"updated_at":"2026-05-17T21:35:05.126404+05:30"},{"city":"Bokaro","state":"Jharkhand","latitude":23.6693,"longitude":86.1511,"temp":30.4,"humidity":53,"rain":0.0,"pressure":978.7,"uv_index":9.05,"wind_gusts":48.6,"aqi":150,"pm10":83.6,"pm2_5":64.0,"no2":39.3,"co":349.0,"o3":63.0,"so2":85.9,"mosquito_risk":0,"arthritis_risk":5,"migraine_risk":7,"frizz_risk":1,"updated_at":"2026-05-17T21:35:05.126411+05:30"},{"city":"Bhubaneswar","state":"Odisha","latitude":20.2961,"longitude":85.8245,"temp":29.6,"humidity":83,"rain":0.0,"pressure":1000.1,"uv_index":8.8,"wind_gusts":45.4,"aqi":55,"pm10":15.9,"pm2_5":12.3,"no2":5.0,"co":202.0,"o3":71.0,"so2":4.5,"mosquito_risk":7,"arthritis_risk":5,"migraine_risk":4,"frizz_risk":1,"updated_at":"2026-05-17T21:35:05.126418+05:30"},{"city":"Cuttack","state":"Odisha","latitude":20.4625,"longitude":85.8828,"temp":30.0,"humidity":80,"rain":0.0,"pressure":1001.6,"uv_index":8.95,"wind_gusts":45.4,"aqi":55,"pm10":15.9,"pm2_5":12.3,"no2":5.0,"co":226.0,"o3":71.0,"so2":4.5,"mosquito_risk":7,"arthritis_risk":5,"migraine_risk":4,"frizz_risk":1,"updated_at":"2026-05-17T21:35:05.126425+05:30"},{"city":"Rourkela","state":"Odisha","latitude":22.2604,"longitude":84.8536,"temp":30.4,"humidity":69,"rain":0.0,"pressure":981.2,"uv_index":9.0,"wind_gusts":33.5,"aqi":149,"pm10":108.7,"pm2_5":84.1,"no2":22.9,"co":419.0,"o3":119.0,"so2":17.6,"mosquito_risk":3,"arthritis_risk":5,"migraine_risk":7,"frizz_risk":1,"updated_at":"2026-05-17T21:35:05.126431+05:30"},{"city":"Raipur","state":"Chhattisgarh","latitude":21.2514,"longitude":81.6296,"temp":32.7,"humidity":48,"rain":0.0,"pressure":970.7,"uv_index":9.0,"wind_gusts":32.4,"aqi":113,"pm10":55.6,"pm2_5":48.9,"no2":34.3,"co":433.0,"o3":70.0,"so2":37.8,"mosquito_risk":0,"arthritis_risk":5,"migraine_risk":7,"frizz_risk":1,"updated_at":"2026-05-17T21:35:05.126438+05:30"},{"city":"Bhilai","state":"Chhattisgarh","latitude":21.1938,"longitude":81.3509,"temp":32.5,"humidity":50,"rain":0.0,"pressure":970.9,"uv_index":9.0,"wind_gusts":31.7,"aqi":101,"pm10":49.6,"pm2_5":44.9,"no2":40.1,"co":388.0,"o3":56.0,"so2":42.8,"mosquito_risk":0,"arthritis_risk":5,"migraine_risk":7,"frizz_risk":1,"updated_at":"2026-05-17T21:35:05.126444+05:30"},{"city":"Guwahati","state":"Assam","latitude":26.1158,"longitude":91.7086,"temp":22.8,"humidity":99,"rain":0.1,"pressure":999.5,"uv_index":8.75,"wind_gusts":25.2,"aqi":79,"pm10":23.3,"pm2_5":18.6,"no2":6.7,"co":389.0,"o3":78.0,"so2":3.4,"mosquito_risk":6,"arthritis_risk":5,"migraine_risk":7,"frizz_risk":1,"updated_at":"2026-05-17T21:35:05.126452+05:30"},{"city":"Agartala","state":"Tripura","latitude":23.8315,"longitude":91.2868,"temp":27.6,"humidity":84,"rain":0.0,"pressure":1003.0,"uv_index":8.9,"wind_gusts":28.8,"aqi":69,"pm10":33.2,"pm2_5":29.3,"no2":22.5,"co":256.0,"o3":30.0,"so2":4.0,"mosquito_risk":7,"arthritis_risk":5,"migraine_risk":4,"frizz_risk":1,"updated_at":"2026-05-17T21:35:05.126459+05:30"},{"city":"Shillong","state":"Meghalaya","latitude":25.5788,"longitude":91.8933,"temp":17.4,"humidity":97,"rain":0.0,"pressure":854.5,"uv_index":9.15,"wind_gusts":45.4,"aqi":59,"pm10":14.9,"pm2_5":12.0,"no2":6.6,"co":268.0,"o3":81.0,"so2":4.0,"mosquito_risk":3,"arthritis_risk":10,"migraine_risk":7,"frizz_risk":1,"updated_at":"2026-05-17T21:35:05.126467+05:30"},{"city":"Imphal","state":"Manipur","latitude":24.817,"longitude":93.9368,"temp":21.6,"humidity":97,"rain":0.0,"pressure":920.8,"uv_index":9.0,"wind_gusts":31.0,"aqi":71,"pm10":52.9,"pm2_5":42.1,"no2":21.7,"co":709.0,"o3":44.0,"so2":6.9,"mosquito_risk":3,"arthritis_risk":5,"migraine_risk":7,"frizz_risk":1,"updated_at":"2026-05-17T21:35:05.126473+05:30"},{"city":"Aizawl","state":"Mizoram","latitude":23.7271,"longitude":92.7176,"temp":20.5,"humidity":88,"rain":0.0,"pressure":890.4,"uv_index":9.05,"wind_gusts":28.8,"aqi":53,"pm10":28.6,"pm2_5":17.9,"no2":5.2,"co":219.0,"o3":72.0,"so2":3.1,"mosquito_risk":3,"arthritis_risk":5,"migraine_risk":7,"frizz_risk":1,"updated_at":"2026-05-17T21:35:05.126480+05:30"},{"city":"Kohima","state":"Nagaland","latitude":25.6701,"longitude":94.1077,"temp":17.3,"humidity":93,"rain":0.0,"pressure":852.6,"uv_index":8.7,"wind_gusts":29.9,"aqi":61,"pm10":32.0,"pm2_5":20.8,"no2":12.2,"co":336.0,"o3":43.0,"so2":2.6,"mosquito_risk":3,"arthritis_risk":10,"migraine_risk":7,"frizz_risk":1,"updated_at":"2026-05-17T21:35:05.126488+05:30"},{"city":"Gangtok","state":"Sikkim","latitude":27.3314,"longitude":88.6138,"temp":15.4,"humidity":98,"rain":0.2,"pressure":834.1,"uv_index":9.1,"wind_gusts":38.2,"aqi":70,"pm10":27.2,"pm2_5":23.0,"no2":15.2,"co":403.0,"o3":80.0,"so2":2.3,"mosquito_risk":6,"arthritis_risk":10,"migraine_risk":7,"frizz_risk":0,"updated_at":"2026-05-17T21:35:05.126494+05:30"},{"city":"Siliguri","state":"West Bengal","latitude":26.7271,"longitude":88.3953,"temp":23.9,"humidity":96,"rain":0.0,"pressure":989.4,"uv_index":8.7,"wind_gusts":31.0,"aqi":92,"pm10":37.1,"pm2_5":31.7,"no2":14.7,"co":502.0,"o3":98.0,"so2":5.5,"mosquito_risk":3,"arthritis_risk":5,"migraine_risk":7,"frizz_risk":1,"updated_at":"2026-05-17T21:35:08.406235+05:30"},{"city":"Durgapur","state":"West Bengal","latitude":23.5204,"longitude":87.3119,"temp":29.2,"humidity":81,"rain":0.0,"pressure":990.3,"uv_index":8.95,"wind_gusts":35.6,"aqi":125,"pm10":68.7,"pm2_5":60.5,"no2":22.2,"co":452.0,"o3":120.0,"so2":44.7,"mosquito_risk":7,"arthritis_risk":5,"migraine_risk":7,"frizz_risk":1,"updated_at":"2026-05-17T21:35:08.406266+05:30"},{"city":"Asansol","state":"West Bengal","latitude":23.6739,"longitude":86.9524,"temp":29.8,"humidity":67,"rain":0.0,"pressure":988.5,"uv_index":9.0,"wind_gusts":38.2,"aqi":126,"pm10":65.0,"pm2_5":56.5,"no2":27.8,"co":376.0,"o3":91.0,"so2":48.8,"mosquito_risk":7,"arthritis_risk":5,"migraine_risk":7,"frizz_risk":1,"updated_at":"2026-05-17T21:35:08.406277+05:30"},{"city":"Pondicherry","state":"Puducherry","latitude":11.9139,"longitude":79.8145,"temp":29.2,"humidity":82,"rain":0.0,"pressure":1006.4,"uv_index":9.05,"wind_gusts":43.2,"aqi":92,"pm10":21.1,"pm2_5":15.4,"no2":7.0,"co":268.0,"o3":98.0,"so2":7.0,"mosquito_risk":7,"arthritis_risk":5,"migraine_risk":4,"frizz_risk":1,"updated_at":"2026-05-17T21:35:08.406286+05:30"},{"city":"Port Blair","state":"Andaman and Nicobar Islands","latitude":11.6234,"longitude":92.7265,"temp":26.5,"humidity":95,"rain":0.0,"pressure":1006.7,"uv_index":2.0,"wind_gusts":41.0,"aqi":26,"pm10":4.4,"pm2_5":2.6,"no2":0.3,"co":103.0,"o3":46.0,"so2":0.2,"mosquito_risk":7,"arthritis_risk":5,"migraine_risk":0,"frizz_risk":1,"updated_at":"2026-05-17T21:35:08.406294+05:30"},{"city":"Haridwar","state":"Uttarakhand","latitude":29.9457,"longitude":78.1642,"temp":29.2,"humidity":42,"rain":0.0,"pressure":967.1,"uv_index":7.5,"wind_gusts":34.6,"aqi":122,"pm10":21.4,"pm2_5":19.8,"no2":10.4,"co":352.0,"o3":106.0,"so2":9.4,"mosquito_risk":4,"arthritis_risk":5,"migraine_risk":7,"frizz_risk":0,"updated_at":"2026-05-17T21:35:08.406303+05:30"},{"city":"Rishikesh","state":"Uttarakhand","latitude":30.0869,"longitude":78.2676,"temp":27.5,"humidity":49,"rain":0.0,"pressure":959.9,"uv_index":7.65,"wind_gusts":32.4,"aqi":137,"pm10":34.1,"pm2_5":18.6,"no2":9.2,"co":332.0,"o3":126.0,"so2":8.2,"mosquito_risk":4,"arthritis_risk":5,"migraine_risk":7,"frizz_risk":0,"updated_at":"2026-05-17T21:35:08.406311+05:30"},{"city":"Nainital","state":"Uttarakhand","latitude":29.3919,"longitude":79.4542,"temp":16.2,"humidity":66,"rain":0.0,"pressure":801.7,"uv_index":8.5,"wind_gusts":38.9,"aqi":136,"pm10":73.6,"pm2_5":23.5,"no2":6.4,"co":275.0,"o3":129.0,"so2":6.3,"mosquito_risk":3,"arthritis_risk":5,"migraine_risk":7,"frizz_risk":0,"updated_at":"2026-05-17T21:35:08.406319+05:30"},{"city":"Mussoorie","state":"Uttarakhand","latitude":30.4599,"longitude":78.0664,"temp":16.2,"humidity":64,"rain":0.0,"pressure":798.8,"uv_index":8.05,"wind_gusts":55.1,"aqi":129,"pm10":23.7,"pm2_5":20.0,"no2":16.9,"co":341.0,"o3":110.0,"so2":9.0,"mosquito_risk":3,"arthritis_risk":5,"migraine_risk":7,"frizz_risk":0,"updated_at":"2026-05-17T21:35:08.406327+05:30"},{"city":"Dharamshala","state":"Himachal Pradesh","latitude":32.219,"longitude":76.3234,"temp":21.8,"humidity":50,"rain":0.0,"pressure":865.7,"uv_index":8.4,"wind_gusts":44.3,"aqi":81,"pm10":19.0,"pm2_5":15.8,"no2":11.6,"co":269.0,"o3":61.0,"so2":1.4,"mosquito_risk":0,"arthritis_risk":5,"migraine_risk":7,"frizz_risk":0,"updated_at":"2026-05-17T21:35:08.406334+05:30"},{"city":"Dalhousie","state":"Himachal Pradesh","latitude":32.5387,"longitude":75.971,"temp":16.4,"humidity":62,"rain":0.0,"pressure":801.9,"uv_index":8.65,"wind_gusts":38.5,"aqi":118,"pm10":33.3,"pm2_5":26.3,"no2":24.1,"co":417.0,"o3":87.0,"so2":3.5,"mosquito_risk":3,"arthritis_risk":5,"migraine_risk":7,"frizz_risk":0,"updated_at":"2026-05-17T21:35:08.406342+05:30"},{"city":"Patiala","state":"Punjab","latitude":30.3398,"longitude":76.3869,"temp":31.9,"humidity":33,"rain":0.0,"pressure":972.5,"uv_index":7.6,"wind_gusts":45.7,"aqi":585,"pm10":735.7,"pm2_5":124.8,"no2":8.1,"co":360.0,"o3":94.0,"so2":7.2,"mosquito_risk":0,"arthritis_risk":5,"migraine_risk":7,"frizz_risk":0,"updated_at":"2026-05-17T21:35:08.406349+05:30"},{"city":"Bhatinda","state":"Punjab","latitude":30.211,"longitude":74.9455,"temp":32.2,"humidity":43,"rain":0.0,"pressure":978.4,"uv_index":8.25,"wind_gusts":38.2,"aqi":85,"pm10":49.1,"pm2_5":30.9,"no2":9.6,"co":361.0,"o3":85.0,"so2":7.4,"mosquito_risk":0,"arthritis_risk":5,"migraine_risk":7,"frizz_risk":1,"updated_at":"2026-05-17T21:35:08.406356+05:30"},{"city":"Rohtak","state":"Haryana","latitude":28.8955,"longitude":76.6066,"temp":32.5,"humidity":33,"rain":0.0,"pressure":975.8,"uv_index":7.75,"wind_gusts":46.8,"aqi":811,"pm10":888.5,"pm2_5":165.8,"no2":17.9,"co":408.0,"o3":73.0,"so2":8.3,"mosquito_risk":0,"arthritis_risk":5,"migraine_risk":7,"frizz_risk":0,"updated_at":"2026-05-17T21:35:08.406364+05:30"},{"city":"Panipat","state":"Haryana","latitude":29.3909,"longitude":76.9635,"temp":32.5,"humidity":31,"rain":0.0,"pressure":974.4,"uv_index":7.6,"wind_gusts":50.0,"aqi":1746,"pm10":1791.9,"pm2_5":291.5,"no2":11.4,"co":335.0,"o3":84.0,"so2":8.3,"mosquito_risk":0,"arthritis_risk":5,"migraine_risk":7,"frizz_risk":0,"updated_at":"2026-05-17T21:35:08.406371+05:30"},{"city":"Mathura","state":"Uttar Pradesh","latitude":27.4924,"longitude":77.6737,"temp":34.0,"humidity":30,"rain":0.0,"pressure":980.7,"uv_index":8.0,"wind_gusts":43.6,"aqi":662,"pm10":750.6,"pm2_5":136.0,"no2":13.5,"co":344.0,"o3":69.0,"so2":6.4,"mosquito_risk":0,"arthritis_risk":5,"migraine_risk":7,"frizz_risk":0,"updated_at":"2026-05-17T21:35:08.406378+05:30"},{"city":"Vrindavan","state":"Uttar Pradesh","latitude":27.5823,"longitude":77.7027,"temp":32.7,"humidity":34,"rain":0.0,"pressure":981.1,"uv_index":7.95,"wind_gusts":41.4,"aqi":662,"pm10":750.6,"pm2_5":136.0,"no2":13.5,"co":357.0,"o3":69.0,"so2":6.4,"mosquito_risk":0,"arthritis_risk":5,"migraine_risk":7,"frizz_risk":0,"updated_at":"2026-05-17T21:35:08.406385+05:30"},{"city":"Ayodhya","state":"Uttar Pradesh","latitude":26.7922,"longitude":82.1998,"temp":30.5,"humidity":56,"rain":0.0,"pressure":988.7,"uv_index":8.35,"wind_gusts":39.2,"aqi":145,"pm10":151.3,"pm2_5":57.5,"no2":13.0,"co":420.0,"o3":89.0,"so2":10.3,"mosquito_risk":0,"arthritis_risk":5,"migraine_risk":7,"frizz_risk":1,"updated_at":"2026-05-17T21:35:08.406391+05:30"},{"city":"Ratlam","state":"Madhya Pradesh","latitude":23.3315,"longitude":75.0367,"temp":33.7,"humidity":23,"rain":0.0,"pressure":950.8,"uv_index":8.55,"wind_gusts":36.4,"aqi":67,"pm10":48.9,"pm2_5":24.4,"no2":3.8,"co":188.0,"o3":85.0,"so2":4.6,"mosquito_risk":0,"arthritis_risk":5,"migraine_risk":7,"frizz_risk":0,"updated_at":"2026-05-17T21:35:08.406398+05:30"},{"city":"Sagar","state":"Madhya Pradesh","latitude":23.8388,"longitude":78.7378,"temp":34.0,"humidity":24,"rain":0.0,"pressure":946.5,"uv_index":8.75,"wind_gusts":44.6,"aqi":80,"pm10":100.1,"pm2_5":29.7,"no2":7.5,"co":239.0,"o3":91.0,"so2":4.1,"mosquito_risk":0,"arthritis_risk":5,"migraine_risk":7,"frizz_risk":0,"updated_at":"2026-05-17T21:35:08.406406+05:30"},{"city":"Satna","state":"Madhya Pradesh","latitude":24.6005,"longitude":80.8322,"temp":33.4,"humidity":26,"rain":0.0,"pressure":966.8,"uv_index":8.75,"wind_gusts":47.9,"aqi":103,"pm10":117.3,"pm2_5":33.8,"no2":13.4,"co":282.0,"o3":77.0,"so2":3.6,"mosquito_risk":0,"arthritis_risk":5,"migraine_risk":7,"frizz_risk":0,"updated_at":"2026-05-17T21:35:08.406413+05:30"},{"city":"Akola","state":"Maharashtra","latitude":20.7002,"longitude":77.0082,"temp":36.8,"humidity":17,"rain":0.0,"pressure":970.7,"uv_index":8.9,"wind_gusts":33.8,"aqi":84,"pm10":20.3,"pm2_5":15.9,"no2":11.8,"co":236.0,"o3":84.0,"so2":6.2,"mosquito_risk":0,"arthritis_risk":5,"migraine_risk":10,"frizz_risk":0,"updated_at":"2026-05-17T21:35:08.406421+05:30"},{"city":"Amravati","state":"Maharashtra","latitude":20.9374,"longitude":77.7796,"temp":36.9,"humidity":19,"rain":0.0,"pressure":963.3,"uv_index":8.95,"wind_gusts":28.1,"aqi":86,"pm10":30.3,"pm2_5":25.1,"no2":25.2,"co":288.0,"o3":67.0,"so2":8.0,"mosquito_risk":0,"arthritis_risk":5,"migraine_risk":10,"frizz_risk":0,"updated_at":"2026-05-17T21:35:08.406430+05:30"},{"city":"Latur","state":"Maharashtra","latitude":18.4088,"longitude":76.5604,"temp":33.5,"humidity":25,"rain":0.0,"pressure":936.6,"uv_index":9.1,"wind_gusts":37.8,"aqi":98,"pm10":28.4,"pm2_5":23.2,"no2":15.4,"co":320.0,"o3":84.0,"so2":8.4,"mosquito_risk":0,"arthritis_risk":5,"migraine_risk":7,"frizz_risk":0,"updated_at":"2026-05-17T21:35:08.406437+05:30"},{"city":"Nanded","state":"Maharashtra","latitude":19.1383,"longitude":77.3091,"temp":34.7,"humidity":29,"rain":0.0,"pressure":964.6,"uv_index":8.95,"wind_gusts":32.8,"aqi":90,"pm10":36.3,"pm2_5":32.6,"no2":23.7,"co":286.0,"o3":77.0,"so2":7.9,"mosquito_risk":0,"arthritis_risk":5,"migraine_risk":7,"frizz_risk":0,"updated_at":"2026-05-17T21:35:08.406445+05:30"},{"city":"Gulbarga","state":"Karnataka","latitude":17.3297,"longitude":76.8343,"temp":32.3,"humidity":48,"rain":0.0,"pressure":956.0,"uv_index":9.1,"wind_gusts":42.5,"aqi":118,"pm10":39.8,"pm2_5":31.5,"no2":13.8,"co":271.0,"o3":99.0,"so2":9.7,"mosquito_risk":0,"arthritis_risk":5,"migraine_risk":7,"frizz_risk":1,"updated_at":"2026-05-17T21:35:08.406452+05:30"},{"city":"Bidar","state":"Karnataka","latitude":17.9104,"longitude":77.5199,"temp":31.4,"humidity":46,"rain":0.0,"pressure":933.3,"uv_index":9.15,"wind_gusts":33.1,"aqi":106,"pm10":45.3,"pm2_5":37.3,"no2":15.1,"co":316.0,"o3":91.0,"so2":7.0,"mosquito_risk":0,"arthritis_risk":5,"migraine_risk":7,"frizz_risk":1,"updated_at":"2026-05-17T21:35:08.406459+05:30"},{"city":"Hospet","state":"Karnataka","latitude":15.2689,"longitude":76.3909,"temp":24.5,"humidity":94,"rain":0.5,"pressure":955.4,"uv_index":9.2,"wind_gusts":62.6,"aqi":104,"pm10":32.2,"pm2_5":26.1,"no2":17.9,"co":232.0,"o3":80.0,"so2":10.1,"mosquito_risk":6,"arthritis_risk":5,"migraine_risk":7,"frizz_risk":1,"updated_at":"2026-05-17T21:35:08.406466+05:30"},{"city":"Tirupur","state":"Tamil Nadu","latitude":11.1085,"longitude":77.3411,"temp":25.2,"humidity":93,"rain":0.0,"pressure":973.5,"uv_index":8.6,"wind_gusts":52.9,"aqi":72,"pm10":17.2,"pm2_5":13.9,"no2":11.9,"co":196.0,"o3":65.0,"so2":4.5,"mosquito_risk":7,"arthritis_risk":5,"migraine_risk":7,"frizz_risk":1,"updated_at":"2026-05-17T21:35:08.406473+05:30"},{"city":"Alappuzha","state":"Kerala","latitude":9.4981,"longitude":76.3388,"temp":25.8,"humidity":98,"rain":0.1,"pressure":1008.2,"uv_index":8.5,"wind_gusts":24.5,"aqi":51,"pm10":15.3,"pm2_5":11.8,"no2":9.2,"co":127.0,"o3":61.0,"so2":2.6,"mosquito_risk":10,"arthritis_risk":0,"migraine_risk":4,"frizz_risk":1,"updated_at":"2026-05-17T21:35:08.406480+05:30"},{"city":"Munnar","state":"Kerala","latitude":10.0889,"longitude":77.0595,"temp":18.1,"humidity":99,"rain":0.0,"pressure":855.9,"uv_index":7.8,"wind_gusts":25.6,"aqi":38,"pm10":6.2,"pm2_5":6.1,"no2":7.4,"co":159.0,"o3":54.0,"so2":1.9,"mosquito_risk":3,"arthritis_risk":10,"migraine_risk":7,"frizz_risk":1,"updated_at":"2026-05-17T21:35:08.406487+05:30"},{"city":"Silchar","state":"Assam","latitude":24.8333,"longitude":92.7789,"temp":25.0,"humidity":100,"rain":0.1,"pressure":1002.8,"uv_index":8.9,"wind_gusts":27.7,"aqi":65,"pm10":13.2,"pm2_5":9.9,"no2":6.9,"co":401.0,"o3":77.0,"so2":3.9,"mosquito_risk":10,"arthritis_risk":5,"migraine_risk":4,"frizz_risk":1,"updated_at":"2026-05-17T21:35:08.406494+05:30"},{"city":"Dibrugarh","state":"Assam","latitude":27.4728,"longitude":94.912,"temp":22.5,"humidity":94,"rain":0.0,"pressure":993.7,"uv_index":5.7,"wind_gusts":30.2,"aqi":72,"pm10":31.4,"pm2_5":29.4,"no2":18.2,"co":264.0,"o3":37.0,"so2":2.4,"mosquito_risk":3,"arthritis_risk":5,"migraine_risk":3,"frizz_risk":1,"updated_at":"2026-05-17T21:35:08.406501+05:30"}]