[{"city":"Delhi","state":"Delhi","latitude":28.6139,"longitude":77.209,"temp":24.2,"humidity":50,"rain":0.0,"pressure":983.7,"uv_index":5.4,"aqi":162,"mosquito_risk":0,"arthritis_risk":5,"migraine_risk":3,"frizz_risk":0,"updated_at":"2026-02-22T18:53:35.234546+05:30"},{"city":"Mumbai","state":"Maharashtra","latitude":19.076,"longitude":72.8777,"temp":27.3,"humidity":70,"rain":0.0,"pressure":1005.0,"uv_index":7.2,"aqi":223,"mosquito_risk":7,"arthritis_risk":5,"migraine_risk":4,"frizz_risk":1,"updated_at":"2026-02-22T18:53:35.234597+05:30"},{"city":"Bangalore","state":"Karnataka","latitude":12.9716,"longitude":77.5946,"temp":27.6,"humidity":33,"rain":0.0,"pressure":909.4,"uv_index":8.4,"aqi":54,"mosquito_risk":4,"arthritis_risk":5,"migraine_risk":7,"frizz_risk":0,"updated_at":"2026-02-22T18:53:35.234613+05:30"},{"city":"Hyderabad","state":"Telangana","latitude":17.385,"longitude":78.4867,"temp":28.2,"humidity":46,"rain":0.0,"pressure":951.8,"uv_index":8.05,"aqi":98,"mosquito_risk":4,"arthritis_risk":5,"migraine_risk":7,"frizz_risk":0,"updated_at":"2026-02-22T18:53:35.234624+05:30"},{"city":"Chennai","state":"Tamil Nadu","latitude":13.0827,"longitude":80.2707,"temp":27.2,"humidity":76,"rain":0.0,"pressure":1006.4,"uv_index":6.2,"aqi":61,"mosquito_risk":7,"arthritis_risk":5,"migraine_risk":4,"frizz_risk":1,"updated_at":"2026-02-22T18:53:35.234633+05:30"},{"city":"Kolkata","state":"West Bengal","latitude":22.5726,"longitude":88.3639,"temp":26.5,"humidity":60,"rain":0.0,"pressure":1005.8,"uv_index":7.25,"aqi":213,"mosquito_risk":4,"arthritis_risk":5,"migraine_risk":4,"frizz_risk":1,"updated_at":"2026-02-22T18:53:35.234646+05:30"},{"city":"Pune","state":"Maharashtra","latitude":18.5204,"longitude":73.8567,"temp":31.0,"humidity":23,"rain":0.0,"pressure":945.6,"uv_index":7.7,"aqi":153,"mosquito_risk":0,"arthritis_risk":5,"migraine_risk":7,"frizz_risk":0,"updated_at":"2026-02-22T18:53:35.234654+05:30"},{"city":"Ahmedabad","state":"Gujarat","latitude":23.0225,"longitude":72.5714,"temp":30.3,"humidity":26,"rain":0.0,"pressure":999.9,"uv_index":6.95,"aqi":136,"mosquito_risk":0,"arthritis_risk":5,"migraine_risk":7,"frizz_risk":0,"updated_at":"2026-02-22T18:53:35.234662+05:30"},{"city":"Jaipur","state":"Rajasthan","latitude":26.9124,"longitude":75.7873,"temp":25.5,"humidity":43,"rain":0.0,"pressure":959.2,"uv_index":6.2,"aqi":155,"mosquito_risk":4,"arthritis_risk":5,"migraine_risk":7,"frizz_risk":0,"updated_at":"2026-02-22T18:53:35.234670+05:30"},{"city":"Lucknow","state":"Uttar Pradesh","latitude":26.8467,"longitude":80.9462,"temp":24.3,"humidity":52,"rain":0.0,"pressure":994.5,"uv_index":5.85,"aqi":151,"mosquito_risk":0,"arthritis_risk":5,"migraine_risk":3,"frizz_risk":0,"updated_at":"2026-02-22T18:53:35.234679+05:30"},{"city":"Kanpur","state":"Uttar Pradesh","latitude":26.4499,"longitude":80.3319,"temp":24.2,"humidity":58,"rain":0.0,"pressure":992.5,"uv_index":5.85,"aqi":146,"mosquito_risk":0,"arthritis_risk":5,"migraine_risk":3,"frizz_risk":0,"updated_at":"2026-02-22T18:53:35.234687+05:30"},{"city":"Chandigarh","state":"Chandigarh","latitude":30.7333,"longitude":76.7794,"temp":21.2,"humidity":63,"rain":0.0,"pressure":969.2,"uv_index":5.2,"aqi":153,"mosquito_risk":3,"arthritis_risk":5,"migraine_risk":3,"frizz_risk":0,"updated_at":"2026-02-22T18:53:35.234694+05:30"},{"city":"Srinagar","state":"Jammu and Kashmir","latitude":34.0837,"longitude":74.7973,"temp":13.7,"humidity":34,"rain":0.0,"pressure":837.8,"uv_index":6.05,"aqi":192,"mosquito_risk":0,"arthritis_risk":5,"migraine_risk":7,"frizz_risk":1,"updated_at":"2026-02-22T18:53:35.234702+05:30"},{"city":"Jammu","state":"Jammu and Kashmir","latitude":32.7266,"longitude":74.857,"temp":22.7,"humidity":66,"rain":0.0,"pressure":972.9,"uv_index":5.75,"aqi":151,"mosquito_risk":3,"arthritis_risk":5,"migraine_risk":3,"frizz_risk":0,"updated_at":"2026-02-22T18:53:35.234709+05:30"},{"city":"Amritsar","state":"Punjab","latitude":31.634,"longitude":74.8723,"temp":22.4,"humidity":66,"rain":0.0,"pressure":981.2,"uv_index":5.7,"aqi":176,"mosquito_risk":3,"arthritis_risk":5,"migraine_risk":3,"frizz_risk":0,"updated_at":"2026-02-22T18:53:35.234716+05:30"},{"city":"Ludhiana","state":"Punjab","latitude":30.901,"longitude":75.8573,"temp":22.3,"humidity":60,"rain":0.0,"pressure":979.3,"uv_index":5.45,"aqi":178,"mosquito_risk":0,"arthritis_risk":5,"migraine_risk":3,"frizz_risk":0,"updated_at":"2026-02-22T18:53:35.234723+05:30"},{"city":"Jalandhar","state":"Punjab","latitude":31.326,"longitude":75.5762,"temp":22.0,"humidity":68,"rain":0.0,"pressure":980.5,"uv_index":5.6,"aqi":181,"mosquito_risk":3,"arthritis_risk":5,"migraine_risk":3,"frizz_risk":0,"updated_at":"2026-02-22T18:53:35.234731+05:30"},{"city":"Dehradun","state":"Uttarakhand","latitude":30.6284,"longitude":78.0322,"temp":12.1,"humidity":80,"rain":0.0,"pressure":827.9,"uv_index":5.55,"aqi":136,"mosquito_risk":3,"arthritis_risk":5,"migraine_risk":3,"frizz_risk":0,"updated_at":"2026-02-22T18:53:35.234738+05:30"},{"city":"Shimla","state":"Himachal Pradesh","latitude":31.1048,"longitude":77.1734,"temp":9.7,"humidity":86,"rain":0.0,"pressure":781.5,"uv_index":5.6,"aqi":143,"mosquito_risk":3,"arthritis_risk":10,"migraine_risk":3,"frizz_risk":0,"updated_at":"2026-02-22T18:53:35.234747+05:30"},{"city":"Manali","state":"Himachal Pradesh","latitude":32.2396,"longitude":77.1887,"temp":12.5,"humidity":89,"rain":0.0,"pressure":815.7,"uv_index":7.1,"aqi":108,"mosquito_risk":3,"arthritis_risk":10,"migraine_risk":7,"frizz_risk":0,"updated_at":"2026-02-22T18:53:35.234756+05:30"},{"city":"Gurgaon","state":"Haryana","latitude":28.4595,"longitude":77.0266,"temp":22.3,"humidity":65,"rain":0.0,"pressure":981.8,"uv_index":5.5,"aqi":165,"mosquito_risk":3,"arthritis_risk":5,"migraine_risk":3,"frizz_risk":0,"updated_at":"2026-02-22T18:53:35.234763+05:30"},{"city":"Noida","state":"Uttar Pradesh","latitude":28.5355,"longitude":77.391,"temp":24.2,"humidity":50,"rain":0.0,"pressure":985.1,"uv_index":5.4,"aqi":165,"mosquito_risk":0,"arthritis_risk":5,"migraine_risk":3,"frizz_risk":0,"updated_at":"2026-02-22T18:53:35.234770+05:30"},{"city":"Ghaziabad","state":"Uttar Pradesh","latitude":28.6692,"longitude":77.4538,"temp":22.9,"humidity":58,"rain":0.0,"pressure":983.3,"uv_index":5.35,"aqi":171,"mosquito_risk":0,"arthritis_risk":5,"migraine_risk":3,"frizz_risk":0,"updated_at":"2026-02-22T18:53:35.234777+05:30"},{"city":"Faridabad","state":"Haryana","latitude":28.4089,"longitude":77.3178,"temp":23.1,"humidity":57,"rain":0.0,"pressure":984.3,"uv_index":5.4,"aqi":165,"mosquito_risk":0,"arthritis_risk":5,"migraine_risk":3,"frizz_risk":0,"updated_at":"2026-02-22T18:53:35.234784+05:30"},{"city":"Meerut","state":"Uttar Pradesh","latitude":28.9845,"longitude":77.7064,"temp":21.8,"humidity":66,"rain":0.0,"pressure":982.2,"uv_index":5.25,"aqi":171,"mosquito_risk":3,"arthritis_risk":5,"migraine_risk":3,"frizz_risk":0,"updated_at":"2026-02-22T18:53:35.234792+05:30"},{"city":"Agra","state":"Uttar Pradesh","latitude":27.1767,"longitude":78.0081,"temp":23.1,"humidity":64,"rain":0.0,"pressure":988.2,"uv_index":5.7,"aqi":160,"mosquito_risk":3,"arthritis_risk":5,"migraine_risk":3,"frizz_risk":0,"updated_at":"2026-02-22T18:53:35.234799+05:30"},{"city":"Varanasi","state":"Uttar Pradesh","latitude":25.3176,"longitude":82.9739,"temp":22.9,"humidity":63,"rain":0.0,"pressure":998.4,"uv_index":6.5,"aqi":153,"mosquito_risk":3,"arthritis_risk":5,"migraine_risk":7,"frizz_risk":0,"updated_at":"2026-02-22T18:53:35.234807+05:30"},{"city":"Prayagraj","state":"Uttar Pradesh","latitude":25.4358,"longitude":81.8463,"temp":23.8,"humidity":62,"rain":0.0,"pressure":996.7,"uv_index":6.35,"aqi":153,"mosquito_risk":3,"arthritis_risk":5,"migraine_risk":7,"frizz_risk":1,"updated_at":"2026-02-22T18:53:35.234814+05:30"},{"city":"Gorakhpur","state":"Uttar Pradesh","latitude":26.7606,"longitude":83.3732,"temp":21.6,"humidity":58,"rain":0.0,"pressure":998.2,"uv_index":6.2,"aqi":167,"mosquito_risk":0,"arthritis_risk":5,"migraine_risk":7,"frizz_risk":0,"updated_at":"2026-02-22T18:53:35.234820+05:30"},{"city":"Bareilly","state":"Uttar Pradesh","latitude":28.367,"longitude":79.4304,"temp":22.1,"humidity":60,"rain":0.0,"pressure":987.5,"uv_index":5.5,"aqi":154,"mosquito_risk":0,"arthritis_risk":5,"migraine_risk":3,"frizz_risk":0,"updated_at":"2026-02-22T18:53:35.234829+05:30"},{"city":"Aligarh","state":"Uttar Pradesh","latitude":27.8974,"longitude":78.088,"temp":22.2,"humidity":62,"rain":0.0,"pressure":986.1,"uv_index":5.5,"aqi":163,"mosquito_risk":3,"arthritis_risk":5,"migraine_risk":3,"frizz_risk":0,"updated_at":"2026-02-22T18:53:35.234835+05:30"},{"city":"Moradabad","state":"Uttar Pradesh","latitude":28.8386,"longitude":78.7733,"temp":22.7,"humidity":61,"rain":0.0,"pressure":984.5,"uv_index":5.35,"aqi":154,"mosquito_risk":3,"arthritis_risk":5,"migraine_risk":3,"frizz_risk":0,"updated_at":"2026-02-22T18:53:35.234842+05:30"},{"city":"Saharanpur","state":"Uttar Pradesh","latitude":29.9637,"longitude":77.546,"temp":21.6,"humidity":66,"rain":0.0,"pressure":976.4,"uv_index":5.0,"aqi":164,"mosquito_risk":3,"arthritis_risk":5,"migraine_risk":3,"frizz_risk":0,"updated_at":"2026-02-22T18:53:35.234849+05:30"},{"city":"Jhansi","state":"Uttar Pradesh","latitude":25.4484,"longitude":78.5685,"temp":24.4,"humidity":53,"rain":0.0,"pressure":977.8,"uv_index":6.35,"aqi":138,"mosquito_risk":0,"arthritis_risk":5,"migraine_risk":7,"frizz_risk":0,"updated_at":"2026-02-22T18:53:38.460341+05:30"},{"city":"Surat","state":"Gujarat","latitude":21.1702,"longitude":72.8311,"temp":29.5,"humidity":55,"rain":0.0,"pressure":1004.2,"uv_index":6.95,"aqi":174,"mosquito_risk":4,"arthritis_risk":5,"migraine_risk":4,"frizz_risk":1,"updated_at":"2026-02-22T18:53:38.460373+05:30"},{"city":"Vadodara","state":"Gujarat","latitude":22.3072,"longitude":73.1812,"temp":31.0,"humidity":31,"rain":0.0,"pressure":1001.8,"uv_index":7.0,"aqi":161,"mosquito_risk":0,"arthritis_risk":5,"migraine_risk":4,"frizz_risk":0,"updated_at":"2026-02-22T18:53:38.460383+05:30"},{"city":"Rajkot","state":"Gujarat","latitude":22.3039,"longitude":70.8022,"temp":30.1,"humidity":22,"rain":0.0,"pressure":992.2,"uv_index":6.9,"aqi":105,"mosquito_risk":0,"arthritis_risk":5,"migraine_risk":7,"frizz_risk":0,"updated_at":"2026-02-22T18:53:38.460391+05:30"},{"city":"Thane","state":"Maharashtra","latitude":19.2183,"longitude":72.9781,"temp":29.5,"humidity":51,"rain":0.0,"pressure":1004.6,"uv_index":7.2,"aqi":223,"mosquito_risk":4,"arthritis_risk":5,"migraine_risk":4,"frizz_risk":1,"updated_at":"2026-02-22T18:53:38.460398+05:30"},{"city":"Nagpur","state":"Maharashtra","latitude":21.1458,"longitude":79.0882,"temp":28.3,"humidity":47,"rain":0.0,"pressure":971.8,"uv_index":7.3,"aqi":171,"mosquito_risk":4,"arthritis_risk":5,"migraine_risk":7,"frizz_risk":0,"updated_at":"2026-02-22T18:53:38.460405+05:30"},{"city":"Nashik","state":"Maharashtra","latitude":19.9975,"longitude":73.7898,"temp":28.2,"humidity":30,"rain":0.0,"pressure":943.3,"uv_index":7.35,"aqi":132,"mosquito_risk":4,"arthritis_risk":5,"migraine_risk":7,"frizz_risk":0,"updated_at":"2026-02-22T18:53:38.460411+05:30"},{"city":"Aurangabad","state":"Maharashtra","latitude":19.8762,"longitude":75.3433,"temp":28.2,"humidity":37,"rain":0.0,"pressure":941.8,"uv_index":7.65,"aqi":135,"mosquito_risk":4,"arthritis_risk":5,"migraine_risk":7,"frizz_risk":0,"updated_at":"2026-02-22T18:53:38.460418+05:30"},{"city":"Solapur","state":"Maharashtra","latitude":17.6599,"longitude":75.9064,"temp":28.5,"humidity":50,"rain":0.0,"pressure":954.6,"uv_index":8.0,"aqi":98,"mosquito_risk":4,"arthritis_risk":5,"migraine_risk":7,"frizz_risk":1,"updated_at":"2026-02-22T18:53:38.460425+05:30"},{"city":"Kolhapur","state":"Maharashtra","latitude":16.705,"longitude":74.2433,"temp":27.1,"humidity":51,"rain":0.0,"pressure":945.0,"uv_index":7.95,"aqi":137,"mosquito_risk":4,"arthritis_risk":5,"migraine_risk":7,"frizz_risk":1,"updated_at":"2026-02-22T18:53:38.460432+05:30"},{"city":"Goa","state":"Goa","latitude":15.2993,"longitude":74.124,"temp":27.8,"humidity":79,"rain":0.0,"pressure":994.8,"uv_index":8.3,"aqi":141,"mosquito_risk":7,"arthritis_risk":5,"migraine_risk":7,"frizz_risk":1,"updated_at":"2026-02-22T18:53:38.460438+05:30"},{"city":"Jodhpur","state":"Rajasthan","latitude":26.2389,"longitude":73.0243,"temp":27.4,"humidity":30,"rain":0.0,"pressure":981.7,"uv_index":6.45,"aqi":132,"mosquito_risk":4,"arthritis_risk":5,"migraine_risk":7,"frizz_risk":0,"updated_at":"2026-02-22T18:53:38.460445+05:30"},{"city":"Udaipur","state":"Rajasthan","latitude":24.5854,"longitude":73.7125,"temp":25.0,"humidity":32,"rain":0.0,"pressure":945.1,"uv_index":7.15,"aqi":99,"mosquito_risk":4,"arthritis_risk":5,"migraine_risk":7,"frizz_risk":0,"updated_at":"2026-02-22T18:53:38.460451+05:30"},{"city":"Kota","state":"Rajasthan","latitude":25.2138,"longitude":75.8648,"temp":26.0,"humidity":53,"rain":0.0,"pressure":977.9,"uv_index":6.5,"aqi":155,"mosquito_risk":4,"arthritis_risk":5,"migraine_risk":7,"frizz_risk":0,"updated_at":"2026-02-22T18:53:38.460458+05:30"},{"city":"Bikaner","state":"Rajasthan","latitude":28.0229,"longitude":73.3119,"temp":27.8,"humidity":31,"rain":0.0,"pressure":980.7,"uv_index":6.1,"aqi":134,"mosquito_risk":4,"arthritis_risk":5,"migraine_risk":7,"frizz_risk":0,"updated_at":"2026-02-22T18:53:38.460465+05:30"},{"city":"Ajmer","state":"Rajasthan","latitude":26.4499,"longitude":74.6399,"temp":26.2,"humidity":45,"rain":0.0,"pressure":953.4,"uv_index":6.45,"aqi":150,"mosquito_risk":4,"arthritis_risk":5,"migraine_risk":7,"frizz_risk":0,"updated_at":"2026-02-22T18:53:38.460471+05:30"},{"city":"Gwalior","state":"Madhya Pradesh","latitude":26.2183,"longitude":78.1828,"temp":24.7,"humidity":56,"rain":0.0,"pressure":983.3,"uv_index":6.05,"aqi":123,"mosquito_risk":0,"arthritis_risk":5,"migraine_risk":7,"frizz_risk":0,"updated_at":"2026-02-22T18:53:38.460477+05:30"},{"city":"Indore","state":"Madhya Pradesh","latitude":22.7196,"longitude":75.8577,"temp":23.9,"humidity":52,"rain":0.0,"pressure":946.6,"uv_index":7.1,"aqi":160,"mosquito_risk":0,"arthritis_risk":5,"migraine_risk":7,"frizz_risk":0,"updated_at":"2026-02-22T18:53:38.460484+05:30"},{"city":"Bhopal","state":"Madhya Pradesh","latitude":23.2599,"longitude":77.4126,"temp":24.0,"humidity":65,"rain":0.0,"pressure":952.7,"uv_index":6.95,"aqi":162,"mosquito_risk":3,"arthritis_risk":5,"migraine_risk":7,"frizz_risk":1,"updated_at":"2026-02-22T18:53:38.460510+05:30"},{"city":"Jabalpur","state":"Madhya Pradesh","latitude":23.1815,"longitude":79.9864,"temp":25.9,"humidity":48,"rain":0.0,"pressure":961.1,"uv_index":7.0,"aqi":159,"mosquito_risk":4,"arthritis_risk":5,"migraine_risk":7,"frizz_risk":0,"updated_at":"2026-02-22T18:53:38.460517+05:30"},{"city":"Ujjain","state":"Madhya Pradesh","latitude":23.1765,"longitude":75.7885,"temp":24.2,"humidity":49,"rain":0.0,"pressure":952.5,"uv_index":7.0,"aqi":163,"mosquito_risk":0,"arthritis_risk":5,"migraine_risk":7,"frizz_risk":0,"updated_at":"2026-02-22T18:53:38.460525+05:30"},{"city":"Visakhapatnam","state":"Andhra Pradesh","latitude":17.6868,"longitude":83.2185,"temp":26.0,"humidity":77,"rain":0.0,"pressure":1003.7,"uv_index":8.05,"aqi":144,"mosquito_risk":7,"arthritis_risk":5,"migraine_risk":4,"frizz_risk":1,"updated_at":"2026-02-22T18:53:38.460532+05:30"},{"city":"Vijayawada","state":"Andhra Pradesh","latitude":16.5062,"longitude":80.648,"temp":31.1,"humidity":43,"rain":0.0,"pressure":1000.6,"uv_index":8.15,"aqi":99,"mosquito_risk":0,"arthritis_risk":5,"migraine_risk":4,"frizz_risk":1,"updated_at":"2026-02-22T18:53:38.460539+05:30"},{"city":"Guntur","state":"Andhra Pradesh","latitude":16.3067,"longitude":80.4365,"temp":27.6,"humidity":66,"rain":0.0,"pressure":1002.3,"uv_index":8.15,"aqi":92,"mosquito_risk":7,"arthritis_risk":5,"migraine_risk":4,"frizz_risk":1,"updated_at":"2026-02-22T18:53:38.460545+05:30"},{"city":"Nellore","state":"Andhra Pradesh","latitude":14.4426,"longitude":79.9865,"temp":27.0,"humidity":75,"rain":0.0,"pressure":1005.3,"uv_index":8.4,"aqi":70,"mosquito_risk":7,"arthritis_risk":5,"migraine_risk":4,"frizz_risk":1,"updated_at":"2026-02-22T18:53:38.460553+05:30"},{"city":"Kurnool","state":"Andhra Pradesh","latitude":15.8281,"longitude":78.0373,"temp":31.4,"humidity":30,"rain":0.0,"pressure":974.3,"uv_index":8.2,"aqi":53,"mosquito_risk":0,"arthritis_risk":5,"migraine_risk":7,"frizz_risk":0,"updated_at":"2026-02-22T18:53:38.460560+05:30"},{"city":"Kakinada","state":"Andhra Pradesh","latitude":16.9891,"longitude":82.2475,"temp":26.0,"humidity":80,"rain":0.0,"pressure":1006.9,"uv_index":8.1,"aqi":97,"mosquito_risk":7,"arthritis_risk":5,"migraine_risk":4,"frizz_risk":1,"updated_at":"2026-02-22T18:53:38.460567+05:30"},{"city":"Tirupati","state":"Andhra Pradesh","latitude":13.6288,"longitude":79.4192,"temp":27.2,"humidity":60,"rain":0.0,"pressure":990.6,"uv_index":8.5,"aqi":70,"mosquito_risk":4,"arthritis_risk":5,"migraine_risk":7,"frizz_risk":1,"updated_at":"2026-02-22T18:53:38.460573+05:30"},{"city":"Warangal","state":"Telangana","latitude":17.9689,"longitude":79.5941,"temp":29.8,"humidity":51,"rain":0.0,"pressure":977.1,"uv_index":7.85,"aqi":91,"mosquito_risk":4,"arthritis_risk":5,"migraine_risk":7,"frizz_risk":1,"updated_at":"2026-02-22T18:53:38.460579+05:30"},{"city":"Nizamabad","state":"Telangana","latitude":18.6725,"longitude":78.0941,"temp":29.1,"humidity":50,"rain":0.0,"pressure":962.8,"uv_index":7.7,"aqi":108,"mosquito_risk":4,"arthritis_risk":5,"migraine_risk":7,"frizz_risk":1,"updated_at":"2026-02-22T18:53:38.460586+05:30"},{"city":"Mysore","state":"Karnataka","latitude":12.2958,"longitude":76.6396,"temp":28.9,"humidity":37,"rain":0.0,"pressure":925.6,"uv_index":8.25,"aqi":59,"mosquito_risk":4,"arthritis_risk":5,"migraine_risk":7,"frizz_risk":0,"updated_at":"2026-02-22T18:53:38.460592+05:30"},{"city":"Mangalore","state":"Karnataka","latitude":12.9141,"longitude":74.856,"temp":28.6,"humidity":80,"rain":0.0,"pressure":1003.5,"uv_index":8.5,"aqi":153,"mosquito_risk":7,"arthritis_risk":5,"migraine_risk":4,"frizz_risk":1,"updated_at":"2026-02-22T18:53:38.460599+05:30"},{"city":"Hubli-Dharwad","state":"Karnataka","latitude":15.3647,"longitude":75.124,"temp":29.2,"humidity":41,"rain":0.0,"pressure":937.9,"uv_index":8.4,"aqi":80,"mosquito_risk":4,"arthritis_risk":5,"migraine_risk":7,"frizz_risk":0,"updated_at":"2026-02-22T18:53:38.460605+05:30"},{"city":"Belgaum","state":"Karnataka","latitude":15.8497,"longitude":74.4977,"temp":26.3,"humidity":62,"rain":0.0,"pressure":923.1,"uv_index":8.25,"aqi":112,"mosquito_risk":7,"arthritis_risk":5,"migraine_risk":7,"frizz_risk":1,"updated_at":"2026-02-22T18:53:41.677056+05:30"},{"city":"Coimbatore","state":"Tamil Nadu","latitude":11.0168,"longitude":76.9558,"temp":25.3,"humidity":76,"rain":0.1,"pressure":959.0,"uv_index":8.6,"aqi":85,"mosquito_risk":10,"arthritis_risk":5,"migraine_risk":7,"frizz_risk":1,"updated_at":"2026-02-22T18:53:41.677087+05:30"},{"city":"Madurai","state":"Tamil Nadu","latitude":9.9252,"longitude":78.1198,"temp":30.1,"humidity":57,"rain":0.0,"pressure":990.4,"uv_index":8.45,"aqi":73,"mosquito_risk":0,"arthritis_risk":5,"migraine_risk":7,"frizz_risk":1,"updated_at":"2026-02-22T18:53:41.677097+05:30"},{"city":"Trichy","state":"Tamil Nadu","latitude":10.7905,"longitude":78.7047,"temp":29.6,"humidity":60,"rain":0.0,"pressure":997.2,"uv_index":7.5,"aqi":61,"mosquito_risk":4,"arthritis_risk":5,"migraine_risk":7,"frizz_risk":1,"updated_at":"2026-02-22T18:53:41.677106+05:30"},{"city":"Salem","state":"Tamil Nadu","latitude":11.6643,"longitude":78.146,"temp":32.0,"humidity":39,"rain":0.0,"pressure":974.0,"uv_index":8.55,"aqi":66,"mosquito_risk":0,"arthritis_risk":5,"migraine_risk":7,"frizz_risk":1,"updated_at":"2026-02-22T18:53:41.677113+05:30"},{"city":"Tirunelveli","state":"Tamil Nadu","latitude":8.7139,"longitude":77.7567,"temp":28.5,"humidity":72,"rain":0.0,"pressure":1001.0,"uv_index":8.15,"aqi":72,"mosquito_risk":7,"arthritis_risk":5,"migraine_risk":4,"frizz_risk":1,"updated_at":"2026-02-22T18:53:41.677120+05:30"},{"city":"Vellore","state":"Tamil Nadu","latitude":12.9165,"longitude":79.1325,"temp":28.8,"humidity":51,"rain":0.0,"pressure":982.9,"uv_index":8.15,"aqi":66,"mosquito_risk":4,"arthritis_risk":5,"migraine_risk":7,"frizz_risk":1,"updated_at":"2026-02-22T18:53:41.677127+05:30"},{"city":"Erode","state":"Tamil Nadu","latitude":11.341,"longitude":77.7172,"temp":32.9,"humidity":41,"rain":0.0,"pressure":985.3,"uv_index":8.8,"aqi":66,"mosquito_risk":0,"arthritis_risk":5,"migraine_risk":7,"frizz_risk":1,"updated_at":"2026-02-22T18:53:41.677134+05:30"},{"city":"Kochi","state":"Kerala","latitude":9.9312,"longitude":76.2673,"temp":28.0,"humidity":79,"rain":0.0,"pressure":1006.2,"uv_index":8.2,"aqi":94,"mosquito_risk":7,"arthritis_risk":5,"migraine_risk":4,"frizz_risk":1,"updated_at":"2026-02-22T18:53:41.677141+05:30"},{"city":"Thiruvananthapuram","state":"Kerala","latitude":8.5241,"longitude":76.9366,"temp":28.0,"humidity":78,"rain":0.0,"pressure":1005.7,"uv_index":7.55,"aqi":65,"mosquito_risk":7,"arthritis_risk":5,"migraine_risk":4,"frizz_risk":1,"updated_at":"2026-02-22T18:53:41.677148+05:30"},{"city":"Kozhikode","state":"Kerala","latitude":11.2588,"longitude":75.7804,"temp":28.6,"humidity":80,"rain":0.0,"pressure":1005.2,"uv_index":7.85,"aqi":104,"mosquito_risk":7,"arthritis_risk":5,"migraine_risk":4,"frizz_risk":1,"updated_at":"2026-02-22T18:53:41.677154+05:30"},{"city":"Thrissur","state":"Kerala","latitude":10.5276,"longitude":76.2144,"temp":28.3,"humidity":77,"rain":0.0,"pressure":1004.4,"uv_index":8.45,"aqi":89,"mosquito_risk":7,"arthritis_risk":5,"migraine_risk":4,"frizz_risk":1,"updated_at":"2026-02-22T18:53:41.677161+05:30"},{"city":"Kannur","state":"Kerala","latitude":11.8745,"longitude":75.3704,"temp":28.9,"humidity":75,"rain":0.0,"pressure":1004.5,"uv_index":7.8,"aqi":139,"mosquito_risk":7,"arthritis_risk":5,"migraine_risk":4,"frizz_risk":1,"updated_at":"2026-02-22T18:53:41.677168+05:30"},{"city":"Patna","state":"Bihar","latitude":25.5941,"longitude":85.1376,"temp":23.7,"humidity":59,"rain":0.0,"pressure":1001.2,"uv_index":6.65,"aqi":153,"mosquito_risk":0,"arthritis_risk":5,"migraine_risk":4,"frizz_risk":0,"updated_at":"2026-02-22T18:53:41.677175+05:30"},{"city":"Gaya","state":"Bihar","latitude":24.7914,"longitude":85.0002,"temp":23.8,"humidity":60,"rain":0.0,"pressure":994.8,"uv_index":6.75,"aqi":152,"mosquito_risk":0,"arthritis_risk":5,"migraine_risk":7,"frizz_risk":0,"updated_at":"2026-02-22T18:53:41.677181+05:30"},{"city":"Muzaffarpur","state":"Bihar","latitude":26.1209,"longitude":85.3647,"temp":21.9,"humidity":58,"rain":0.0,"pressure":1001.1,"uv_index":6.6,"aqi":153,"mosquito_risk":0,"arthritis_risk":5,"migraine_risk":4,"frizz_risk":0,"updated_at":"2026-02-22T18:53:41.677188+05:30"},{"city":"Bhagalpur","state":"Bihar","latitude":25.2425,"longitude":87.0117,"temp":22.3,"humidity":63,"rain":0.0,"pressure":1001.6,"uv_index":6.7,"aqi":153,"mosquito_risk":3,"arthritis_risk":5,"migraine_risk":4,"frizz_risk":0,"updated_at":"2026-02-22T18:53:41.677194+05:30"},{"city":"Ranchi","state":"Jharkhand","latitude":23.3441,"longitude":85.3096,"temp":22.6,"humidity":38,"rain":0.0,"pressure":937.1,"uv_index":7.4,"aqi":130,"mosquito_risk":0,"arthritis_risk":5,"migraine_risk":7,"frizz_risk":0,"updated_at":"2026-02-22T18:53:41.677200+05:30"},{"city":"Jamshedpur","state":"Jharkhand","latitude":22.8046,"longitude":86.2029,"temp":28.1,"humidity":44,"rain":0.0,"pressure":990.1,"uv_index":7.3,"aqi":156,"mosquito_risk":4,"arthritis_risk":5,"migraine_risk":7,"frizz_risk":0,"updated_at":"2026-02-22T18:53:41.677206+05:30"},{"city":"Dhanbad","state":"Jharkhand","latitude":23.7957,"longitude":86.4304,"temp":26.8,"humidity":35,"rain":0.0,"pressure":979.7,"uv_index":7.2,"aqi":154,"mosquito_risk":4,"arthritis_risk":5,"migraine_risk":7,"frizz_risk":0,"updated_at":"2026-02-22T18:53:41.677214+05:30"},{"city":"Bokaro","state":"Jharkhand","latitude":23.6693,"longitude":86.1511,"temp":25.5,"humidity":41,"rain":0.0,"pressure":983.8,"uv_index":7.2,"aqi":156,"mosquito_risk":4,"arthritis_risk":5,"migraine_risk":7,"frizz_risk":0,"updated_at":"2026-02-22T18:53:41.677220+05:30"},{"city":"Bhubaneswar","state":"Odisha","latitude":20.2961,"longitude":85.8245,"temp":26.5,"humidity":67,"rain":0.0,"pressure":1002.3,"uv_index":7.65,"aqi":159,"mosquito_risk":7,"arthritis_risk":5,"migraine_risk":4,"frizz_risk":1,"updated_at":"2026-02-22T18:53:41.677227+05:30"},{"city":"Cuttack","state":"Odisha","latitude":20.4625,"longitude":85.8828,"temp":29.2,"humidity":48,"rain":0.0,"pressure":1003.8,"uv_index":7.7,"aqi":159,"mosquito_risk":4,"arthritis_risk":5,"migraine_risk":4,"frizz_risk":1,"updated_at":"2026-02-22T18:53:41.677233+05:30"},{"city":"Rourkela","state":"Odisha","latitude":22.2604,"longitude":84.8536,"temp":28.1,"humidity":39,"rain":0.0,"pressure":984.2,"uv_index":7.2,"aqi":141,"mosquito_risk":4,"arthritis_risk":5,"migraine_risk":7,"frizz_risk":0,"updated_at":"2026-02-22T18:53:41.677240+05:30"},{"city":"Raipur","state":"Chhattisgarh","latitude":21.2514,"longitude":81.6296,"temp":29.5,"humidity":41,"rain":0.0,"pressure":973.6,"uv_index":7.35,"aqi":172,"mosquito_risk":4,"arthritis_risk":5,"migraine_risk":7,"frizz_risk":0,"updated_at":"2026-02-22T18:53:41.677246+05:30"},{"city":"Bhilai","state":"Chhattisgarh","latitude":21.1938,"longitude":81.3509,"temp":28.7,"humidity":50,"rain":0.0,"pressure":973.9,"uv_index":7.35,"aqi":171,"mosquito_risk":4,"arthritis_risk":5,"migraine_risk":7,"frizz_risk":1,"updated_at":"2026-02-22T18:53:41.677253+05:30"},{"city":"Guwahati","state":"Assam","latitude":26.1158,"longitude":91.7086,"temp":23.4,"humidity":64,"rain":0.0,"pressure":1001.0,"uv_index":6.65,"aqi":117,"mosquito_risk":3,"arthritis_risk":5,"migraine_risk":4,"frizz_risk":1,"updated_at":"2026-02-22T18:53:41.677259+05:30"},{"city":"Agartala","state":"Tripura","latitude":23.8315,"longitude":91.2868,"temp":23.3,"humidity":59,"rain":0.0,"pressure":1006.1,"uv_index":7.0,"aqi":155,"mosquito_risk":0,"arthritis_risk":5,"migraine_risk":4,"frizz_risk":0,"updated_at":"2026-02-22T18:53:41.677265+05:30"},{"city":"Shillong","state":"Meghalaya","latitude":25.5788,"longitude":91.8933,"temp":9.9,"humidity":76,"rain":0.0,"pressure":852.7,"uv_index":5.9,"aqi":112,"mosquito_risk":3,"arthritis_risk":5,"migraine_risk":3,"frizz_risk":0,"updated_at":"2026-02-22T18:53:41.677272+05:30"},{"city":"Imphal","state":"Manipur","latitude":24.817,"longitude":93.9368,"temp":16.3,"humidity":50,"rain":0.0,"pressure":921.8,"uv_index":7.2,"aqi":156,"mosquito_risk":0,"arthritis_risk":5,"migraine_risk":7,"frizz_risk":0,"updated_at":"2026-02-22T18:53:41.677278+05:30"},{"city":"Aizawl","state":"Mizoram","latitude":23.7271,"longitude":92.7176,"temp":17.0,"humidity":52,"rain":0.0,"pressure":891.2,"uv_index":7.15,"aqi":148,"mosquito_risk":0,"arthritis_risk":5,"migraine_risk":7,"frizz_risk":0,"updated_at":"2026-02-22T18:53:41.677285+05:30"},{"city":"Kohima","state":"Nagaland","latitude":25.6701,"longitude":94.1077,"temp":12.4,"humidity":59,"rain":0.0,"pressure":852.1,"uv_index":6.45,"aqi":121,"mosquito_risk":0,"arthritis_risk":5,"migraine_risk":7,"frizz_risk":0,"updated_at":"2026-02-22T18:53:41.677291+05:30"},{"city":"Gangtok","state":"Sikkim","latitude":27.3314,"longitude":88.6138,"temp":12.4,"humidity":77,"rain":0.1,"pressure":834.5,"uv_index":6.8,"aqi":104,"mosquito_risk":6,"arthritis_risk":5,"migraine_risk":7,"frizz_risk":0,"updated_at":"2026-02-22T18:53:41.677298+05:30"},{"city":"Siliguri","state":"West Bengal","latitude":26.7271,"longitude":88.3953,"temp":19.9,"humidity":53,"rain":0.0,"pressure":993.2,"uv_index":6.6,"aqi":151,"mosquito_risk":0,"arthritis_risk":5,"migraine_risk":7,"frizz_risk":0,"updated_at":"2026-02-22T18:53:44.895087+05:30"},{"city":"Durgapur","state":"West Bengal","latitude":23.5204,"longitude":87.3119,"temp":26.7,"humidity":37,"rain":0.0,"pressure":994.7,"uv_index":7.2,"aqi":152,"mosquito_risk":4,"arthritis_risk":5,"migraine_risk":7,"frizz_risk":0,"updated_at":"2026-02-22T18:53:44.895116+05:30"},{"city":"Asansol","state":"West Bengal","latitude":23.6739,"longitude":86.9524,"temp":27.0,"humidity":41,"rain":0.0,"pressure":993.3,"uv_index":7.2,"aqi":147,"mosquito_risk":4,"arthritis_risk":5,"migraine_risk":7,"frizz_risk":0,"updated_at":"2026-02-22T18:53:44.895125+05:30"},{"city":"Pondicherry","state":"Puducherry","latitude":11.9139,"longitude":79.8145,"temp":27.4,"humidity":75,"rain":0.0,"pressure":1006.9,"uv_index":8.35,"aqi":58,"mosquito_risk":7,"arthritis_risk":5,"migraine_risk":4,"frizz_risk":1,"updated_at":"2026-02-22T18:53:44.895133+05:30"},{"city":"Port Blair","state":"Andaman and Nicobar Islands","latitude":11.6234,"longitude":92.7265,"temp":26.1,"humidity":84,"rain":0.0,"pressure":1007.8,"uv_index":8.55,"aqi":67,"mosquito_risk":7,"arthritis_risk":5,"migraine_risk":4,"frizz_risk":1,"updated_at":"2026-02-22T18:53:44.895140+05:30"},{"city":"Haridwar","state":"Uttarakhand","latitude":29.9457,"longitude":78.1642,"temp":21.0,"humidity":70,"rain":0.0,"pressure":975.3,"uv_index":5.1,"aqi":159,"mosquito_risk":3,"arthritis_risk":5,"migraine_risk":3,"frizz_risk":0,"updated_at":"2026-02-22T18:53:44.895146+05:30"},{"city":"Rishikesh","state":"Uttarakhand","latitude":30.0869,"longitude":78.2676,"temp":19.4,"humidity":75,"rain":0.0,"pressure":967.9,"uv_index":5.15,"aqi":155,"mosquito_risk":3,"arthritis_risk":5,"migraine_risk":3,"frizz_risk":0,"updated_at":"2026-02-22T18:53:44.895153+05:30"},{"city":"Nainital","state":"Uttarakhand","latitude":29.3919,"longitude":79.4542,"temp":14.1,"humidity":72,"rain":0.0,"pressure":804.0,"uv_index":5.95,"aqi":164,"mosquito_risk":3,"arthritis_risk":5,"migraine_risk":3,"frizz_risk":0,"updated_at":"2026-02-22T18:53:44.895160+05:30"},{"city":"Mussoorie","state":"Uttarakhand","latitude":30.4599,"longitude":78.0664,"temp":12.0,"humidity":87,"rain":0.0,"pressure":800.0,"uv_index":5.45,"aqi":159,"mosquito_risk":3,"arthritis_risk":10,"migraine_risk":3,"frizz_risk":0,"updated_at":"2026-02-22T18:53:44.895166+05:30"},{"city":"Dharamshala","state":"Himachal Pradesh","latitude":32.219,"longitude":76.3234,"temp":16.6,"humidity":73,"rain":0.0,"pressure":867.4,"uv_index":5.65,"aqi":129,"mosquito_risk":3,"arthritis_risk":5,"migraine_risk":3,"frizz_risk":0,"updated_at":"2026-02-22T18:53:44.895172+05:30"},{"city":"Dalhousie","state":"Himachal Pradesh","latitude":32.5387,"longitude":75.971,"temp":14.1,"humidity":65,"rain":0.0,"pressure":801.5,"uv_index":5.85,"aqi":144,"mosquito_risk":3,"arthritis_risk":5,"migraine_risk":3,"frizz_risk":0,"updated_at":"2026-02-22T18:53:44.895179+05:30"},{"city":"Patiala","state":"Punjab","latitude":30.3398,"longitude":76.3869,"temp":21.7,"humidity":66,"rain":0.0,"pressure":978.7,"uv_index":5.15,"aqi":170,"mosquito_risk":3,"arthritis_risk":5,"migraine_risk":3,"frizz_risk":0,"updated_at":"2026-02-22T18:53:44.895185+05:30"},{"city":"Bhatinda","state":"Punjab","latitude":30.211,"longitude":74.9455,"temp":24.5,"humidity":59,"rain":0.0,"pressure":983.8,"uv_index":5.8,"aqi":171,"mosquito_risk":0,"arthritis_risk":5,"migraine_risk":3,"frizz_risk":0,"updated_at":"2026-02-22T18:53:44.895191+05:30"},{"city":"Rohtak","state":"Haryana","latitude":28.8955,"longitude":76.6066,"temp":23.1,"humidity":66,"rain":0.0,"pressure":982.2,"uv_index":5.4,"aqi":165,"mosquito_risk":3,"arthritis_risk":5,"migraine_risk":3,"frizz_risk":1,"updated_at":"2026-02-22T18:53:44.895197+05:30"},{"city":"Panipat","state":"Haryana","latitude":29.3909,"longitude":76.9635,"temp":22.2,"humidity":66,"rain":0.0,"pressure":981.0,"uv_index":5.2,"aqi":162,"mosquito_risk":3,"arthritis_risk":5,"migraine_risk":3,"frizz_risk":0,"updated_at":"2026-02-22T18:53:44.895203+05:30"},{"city":"Mathura","state":"Uttar Pradesh","latitude":27.4924,"longitude":77.6737,"temp":22.4,"humidity":61,"rain":0.0,"pressure":987.2,"uv_index":5.65,"aqi":158,"mosquito_risk":3,"arthritis_risk":5,"migraine_risk":3,"frizz_risk":0,"updated_at":"2026-02-22T18:53:44.895209+05:30"},{"city":"Vrindavan","state":"Uttar Pradesh","latitude":27.5823,"longitude":77.7027,"temp":22.6,"humidity":60,"rain":0.0,"pressure":987.8,"uv_index":5.6,"aqi":158,"mosquito_risk":0,"arthritis_risk":5,"migraine_risk":3,"frizz_risk":0,"updated_at":"2026-02-22T18:53:44.895215+05:30"},{"city":"Ayodhya","state":"Uttar Pradesh","latitude":26.7922,"longitude":82.1998,"temp":22.3,"humidity":54,"rain":0.0,"pressure":996.2,"uv_index":6.0,"aqi":151,"mosquito_risk":0,"arthritis_risk":5,"migraine_risk":3,"frizz_risk":0,"updated_at":"2026-02-22T18:53:44.895221+05:30"},{"city":"Ratlam","state":"Madhya Pradesh","latitude":23.3315,"longitude":75.0367,"temp":25.3,"humidity":44,"rain":0.0,"pressure":953.3,"uv_index":6.95,"aqi":159,"mosquito_risk":4,"arthritis_risk":5,"migraine_risk":7,"frizz_risk":0,"updated_at":"2026-02-22T18:53:44.895228+05:30"},{"city":"Sagar","state":"Madhya Pradesh","latitude":23.8388,"longitude":78.7378,"temp":24.3,"humidity":62,"rain":0.0,"pressure":949.4,"uv_index":6.85,"aqi":124,"mosquito_risk":3,"arthritis_risk":5,"migraine_risk":7,"frizz_risk":1,"updated_at":"2026-02-22T18:53:44.895234+05:30"},{"city":"Satna","state":"Madhya Pradesh","latitude":24.6005,"longitude":80.8322,"temp":25.1,"humidity":46,"rain":0.0,"pressure":971.1,"uv_index":6.75,"aqi":128,"mosquito_risk":4,"arthritis_risk":5,"migraine_risk":7,"frizz_risk":0,"updated_at":"2026-02-22T18:53:44.895240+05:30"},{"city":"Akola","state":"Maharashtra","latitude":20.7002,"longitude":77.0082,"temp":29.9,"humidity":36,"rain":0.0,"pressure":973.1,"uv_index":7.35,"aqi":159,"mosquito_risk":4,"arthritis_risk":5,"migraine_risk":7,"frizz_risk":0,"updated_at":"2026-02-22T18:53:44.895246+05:30"},{"city":"Amravati","state":"Maharashtra","latitude":20.9374,"longitude":77.7796,"temp":29.0,"humidity":44,"rain":0.0,"pressure":965.5,"uv_index":7.3,"aqi":163,"mosquito_risk":4,"arthritis_risk":5,"migraine_risk":7,"frizz_risk":0,"updated_at":"2026-02-22T18:53:44.895253+05:30"},{"city":"Latur","state":"Maharashtra","latitude":18.4088,"longitude":76.5604,"temp":28.3,"humidity":44,"rain":0.0,"pressure":937.7,"uv_index":7.75,"aqi":96,"mosquito_risk":4,"arthritis_risk":5,"migraine_risk":7,"frizz_risk":0,"updated_at":"2026-02-22T18:53:44.895259+05:30"},{"city":"Nanded","state":"Maharashtra","latitude":19.1383,"longitude":77.3091,"temp":30.5,"humidity":40,"rain":0.0,"pressure":966.3,"uv_index":7.6,"aqi":121,"mosquito_risk":0,"arthritis_risk":5,"migraine_risk":7,"frizz_risk":0,"updated_at":"2026-02-22T18:53:44.895265+05:30"},{"city":"Gulbarga","state":"Karnataka","latitude":17.3297,"longitude":76.8343,"temp":29.6,"humidity":43,"rain":0.0,"pressure":956.6,"uv_index":8.05,"aqi":104,"mosquito_risk":4,"arthritis_risk":5,"migraine_risk":7,"frizz_risk":0,"updated_at":"2026-02-22T18:53:44.895271+05:30"},{"city":"Bidar","state":"Karnataka","latitude":17.9104,"longitude":77.5199,"temp":26.9,"humidity":53,"rain":0.0,"pressure":933.9,"uv_index":7.9,"aqi":98,"mosquito_risk":4,"arthritis_risk":5,"migraine_risk":7,"frizz_risk":1,"updated_at":"2026-02-22T18:53:44.895277+05:30"},{"city":"Hospet","state":"Karnataka","latitude":15.2689,"longitude":76.3909,"temp":32.0,"humidity":28,"rain":0.0,"pressure":953.0,"uv_index":8.35,"aqi":73,"mosquito_risk":0,"arthritis_risk":5,"migraine_risk":7,"frizz_risk":0,"updated_at":"2026-02-22T18:53:44.895282+05:30"},{"city":"Tirupur","state":"Tamil Nadu","latitude":11.1085,"longitude":77.3411,"temp":29.9,"humidity":53,"rain":0.0,"pressure":972.2,"uv_index":8.7,"aqi":80,"mosquito_risk":4,"arthritis_risk":5,"migraine_risk":7,"frizz_risk":1,"updated_at":"2026-02-22T18:53:44.895288+05:30"},{"city":"Alappuzha","state":"Kerala","latitude":9.4981,"longitude":76.3388,"temp":27.8,"humidity":81,"rain":0.0,"pressure":1006.4,"uv_index":8.1,"aqi":92,"mosquito_risk":7,"arthritis_risk":5,"migraine_risk":4,"frizz_risk":1,"updated_at":"2026-02-22T18:53:44.895294+05:30"},{"city":"Munnar","state":"Kerala","latitude":10.0889,"longitude":77.0595,"temp":21.0,"humidity":95,"rain":0.0,"pressure":854.6,"uv_index":7.9,"aqi":60,"mosquito_risk":3,"arthritis_risk":5,"migraine_risk":7,"frizz_risk":1,"updated_at":"2026-02-22T18:53:44.895300+05:30"},{"city":"Silchar","state":"Assam","latitude":24.8333,"longitude":92.7789,"temp":23.8,"humidity":51,"rain":0.0,"pressure":1004.4,"uv_index":6.95,"aqi":138,"mosquito_risk":0,"arthritis_risk":5,"migraine_risk":4,"frizz_risk":0,"updated_at":"2026-02-22T18:53:44.895306+05:30"},{"city":"Dibrugarh","state":"Assam","latitude":27.4728,"longitude":94.912,"temp":22.3,"humidity":76,"rain":0.0,"pressure":995.9,"uv_index":6.55,"aqi":114,"mosquito_risk":3,"arthritis_risk":5,"migraine_risk":7,"frizz_risk":1,"updated_at":"2026-02-22T18:53:44.895312+05:30"}]