[{"city":"Delhi","state":"Delhi","latitude":28.6139,"longitude":77.209,"temp":32.3,"humidity":41,"rain":0.0,"pressure":984.8,"uv_index":5.85,"wind_gusts":32.0,"aqi":383,"pm10":489.9,"pm2_5":93.1,"mosquito_risk":0,"arthritis_risk":5,"migraine_risk":3,"frizz_risk":1,"updated_at":"2026-03-05T14:19:56.289065+05:30"},{"city":"Mumbai","state":"Maharashtra","latitude":19.076,"longitude":72.8777,"temp":28.9,"humidity":66,"rain":0.0,"pressure":1009.0,"uv_index":7.4,"wind_gusts":27.7,"aqi":118,"pm10":42.7,"pm2_5":40.2,"mosquito_risk":7,"arthritis_risk":0,"migraine_risk":4,"frizz_risk":1,"updated_at":"2026-03-05T14:19:56.289112+05:30"},{"city":"Bangalore","state":"Karnataka","latitude":12.9716,"longitude":77.5946,"temp":31.6,"humidity":29,"rain":0.0,"pressure":912.9,"uv_index":9.1,"wind_gusts":29.5,"aqi":87,"pm10":26.4,"pm2_5":25.0,"mosquito_risk":0,"arthritis_risk":5,"migraine_risk":7,"frizz_risk":0,"updated_at":"2026-03-05T14:19:56.289128+05:30"},{"city":"Hyderabad","state":"Telangana","latitude":17.385,"longitude":78.4867,"temp":35.5,"humidity":20,"rain":0.0,"pressure":954.4,"uv_index":8.45,"wind_gusts":28.1,"aqi":88,"pm10":15.8,"pm2_5":14.1,"mosquito_risk":0,"arthritis_risk":5,"migraine_risk":10,"frizz_risk":0,"updated_at":"2026-03-05T14:19:56.289138+05:30"},{"city":"Chennai","state":"Tamil Nadu","latitude":13.0827,"longitude":80.2707,"temp":35.6,"humidity":33,"rain":0.0,"pressure":1007.6,"uv_index":8.85,"wind_gusts":31.3,"aqi":96,"pm10":36.6,"pm2_5":32.9,"mosquito_risk":0,"arthritis_risk":5,"migraine_risk":7,"frizz_risk":1,"updated_at":"2026-03-05T14:19:56.289147+05:30"},{"city":"Kolkata","state":"West Bengal","latitude":22.5726,"longitude":88.3639,"temp":31.9,"humidity":37,"rain":0.0,"pressure":1005.8,"uv_index":7.8,"wind_gusts":13.0,"aqi":165,"pm10":101.3,"pm2_5":58.7,"mosquito_risk":0,"arthritis_risk":5,"migraine_risk":4,"frizz_risk":0,"updated_at":"2026-03-05T14:19:56.289156+05:30"},{"city":"Pune","state":"Maharashtra","latitude":18.5204,"longitude":73.8567,"temp":37.2,"humidity":19,"rain":0.0,"pressure":950.2,"uv_index":7.95,"wind_gusts":31.3,"aqi":85,"pm10":17.3,"pm2_5":15.8,"mosquito_risk":0,"arthritis_risk":5,"migraine_risk":10,"frizz_risk":0,"updated_at":"2026-03-05T14:19:56.289169+05:30"},{"city":"Ahmedabad","state":"Gujarat","latitude":23.0225,"longitude":72.5714,"temp":37.4,"humidity":15,"rain":0.0,"pressure":1005.1,"uv_index":7.2,"wind_gusts":27.0,"aqi":66,"pm10":13.0,"pm2_5":10.7,"mosquito_risk":0,"arthritis_risk":5,"migraine_risk":7,"frizz_risk":0,"updated_at":"2026-03-05T14:19:56.289178+05:30"},{"city":"Jaipur","state":"Rajasthan","latitude":26.9124,"longitude":75.7873,"temp":35.9,"humidity":17,"rain":0.0,"pressure":962.8,"uv_index":6.65,"wind_gusts":37.8,"aqi":87,"pm10":169.0,"pm2_5":28.5,"mosquito_risk":0,"arthritis_risk":5,"migraine_risk":10,"frizz_risk":0,"updated_at":"2026-03-05T14:19:56.289187+05:30"},{"city":"Lucknow","state":"Uttar Pradesh","latitude":26.8467,"longitude":80.9462,"temp":31.2,"humidity":46,"rain":0.0,"pressure":994.6,"uv_index":6.4,"wind_gusts":13.7,"aqi":164,"pm10":320.4,"pm2_5":88.2,"mosquito_risk":0,"arthritis_risk":5,"migraine_risk":7,"frizz_risk":1,"updated_at":"2026-03-05T14:19:56.289195+05:30"},{"city":"Kanpur","state":"Uttar Pradesh","latitude":26.4499,"longitude":80.3319,"temp":32.1,"humidity":41,"rain":0.0,"pressure":992.8,"uv_index":6.4,"wind_gusts":29.5,"aqi":177,"pm10":312.9,"pm2_5":78.0,"mosquito_risk":0,"arthritis_risk":5,"migraine_risk":7,"frizz_risk":1,"updated_at":"2026-03-05T14:19:56.289203+05:30"},{"city":"Chandigarh","state":"Chandigarh","latitude":30.7333,"longitude":76.7794,"temp":32.5,"humidity":34,"rain":0.0,"pressure":970.3,"uv_index":5.75,"wind_gusts":30.6,"aqi":91,"pm10":44.7,"pm2_5":26.4,"mosquito_risk":0,"arthritis_risk":5,"migraine_risk":3,"frizz_risk":0,"updated_at":"2026-03-05T14:19:56.289211+05:30"},{"city":"Srinagar","state":"Jammu and Kashmir","latitude":34.0837,"longitude":74.7973,"temp":22.2,"humidity":34,"rain":0.0,"pressure":847.2,"uv_index":6.55,"wind_gusts":15.5,"aqi":152,"pm10":43.3,"pm2_5":22.9,"mosquito_risk":0,"arthritis_risk":5,"migraine_risk":7,"frizz_risk":0,"updated_at":"2026-03-05T14:19:56.289219+05:30"},{"city":"Jammu","state":"Jammu and Kashmir","latitude":32.7266,"longitude":74.857,"temp":32.5,"humidity":37,"rain":0.0,"pressure":974.3,"uv_index":6.4,"wind_gusts":25.2,"aqi":104,"pm10":55.6,"pm2_5":28.3,"mosquito_risk":0,"arthritis_risk":5,"migraine_risk":7,"frizz_risk":0,"updated_at":"2026-03-05T14:19:56.289226+05:30"},{"city":"Amritsar","state":"Punjab","latitude":31.634,"longitude":74.8723,"temp":32.4,"humidity":36,"rain":0.0,"pressure":982.9,"uv_index":6.35,"wind_gusts":21.6,"aqi":152,"pm10":58.3,"pm2_5":38.0,"mosquito_risk":0,"arthritis_risk":5,"migraine_risk":7,"frizz_risk":0,"updated_at":"2026-03-05T14:19:56.289233+05:30"},{"city":"Ludhiana","state":"Punjab","latitude":30.901,"longitude":75.8573,"temp":31.9,"humidity":37,"rain":0.0,"pressure":980.7,"uv_index":6.0,"wind_gusts":24.1,"aqi":156,"pm10":75.7,"pm2_5":53.2,"mosquito_risk":0,"arthritis_risk":5,"migraine_risk":3,"frizz_risk":0,"updated_at":"2026-03-05T14:19:56.289241+05:30"},{"city":"Jalandhar","state":"Punjab","latitude":31.326,"longitude":75.5762,"temp":31.8,"humidity":38,"rain":0.0,"pressure":981.8,"uv_index":6.2,"wind_gusts":23.0,"aqi":159,"pm10":84.3,"pm2_5":47.3,"mosquito_risk":0,"arthritis_risk":5,"migraine_risk":7,"frizz_risk":0,"updated_at":"2026-03-05T14:19:56.289250+05:30"},{"city":"Dehradun","state":"Uttarakhand","latitude":30.6284,"longitude":78.0322,"temp":22.7,"humidity":56,"rain":0.0,"pressure":833.5,"uv_index":6.15,"wind_gusts":32.8,"aqi":65,"pm10":24.7,"pm2_5":12.6,"mosquito_risk":0,"arthritis_risk":5,"migraine_risk":7,"frizz_risk":0,"updated_at":"2026-03-05T14:19:56.289257+05:30"},{"city":"Shimla","state":"Himachal Pradesh","latitude":31.1048,"longitude":77.1734,"temp":23.9,"humidity":28,"rain":0.0,"pressure":790.4,"uv_index":6.2,"wind_gusts":50.4,"aqi":65,"pm10":23.5,"pm2_5":9.3,"mosquito_risk":0,"arthritis_risk":5,"migraine_risk":7,"frizz_risk":0,"updated_at":"2026-03-05T14:19:56.289264+05:30"},{"city":"Manali","state":"Himachal Pradesh","latitude":32.2396,"longitude":77.1887,"temp":28.2,"humidity":23,"rain":0.0,"pressure":826.2,"uv_index":7.8,"wind_gusts":36.7,"aqi":54,"pm10":22.2,"pm2_5":9.6,"mosquito_risk":4,"arthritis_risk":5,"migraine_risk":7,"frizz_risk":0,"updated_at":"2026-03-05T14:19:56.289272+05:30"},{"city":"Gurgaon","state":"Haryana","latitude":28.4595,"longitude":77.0266,"temp":32.7,"humidity":37,"rain":0.0,"pressure":983.4,"uv_index":5.95,"wind_gusts":30.2,"aqi":1373,"pm10":1519.9,"pm2_5":173.7,"mosquito_risk":0,"arthritis_risk":5,"migraine_risk":3,"frizz_risk":1,"updated_at":"2026-03-05T14:19:56.289279+05:30"},{"city":"Noida","state":"Uttar Pradesh","latitude":28.5355,"longitude":77.391,"temp":32.7,"humidity":39,"rain":0.0,"pressure":986.3,"uv_index":5.85,"wind_gusts":31.7,"aqi":1373,"pm10":1519.9,"pm2_5":173.7,"mosquito_risk":0,"arthritis_risk":5,"migraine_risk":3,"frizz_risk":1,"updated_at":"2026-03-05T14:19:56.289286+05:30"},{"city":"Ghaziabad","state":"Uttar Pradesh","latitude":28.6692,"longitude":77.4538,"temp":32.0,"humidity":45,"rain":0.0,"pressure":984.3,"uv_index":5.85,"wind_gusts":28.8,"aqi":254,"pm10":305.5,"pm2_5":79.2,"mosquito_risk":0,"arthritis_risk":5,"migraine_risk":3,"frizz_risk":1,"updated_at":"2026-03-05T14:19:56.289294+05:30"},{"city":"Faridabad","state":"Haryana","latitude":28.4089,"longitude":77.3178,"temp":32.2,"humidity":40,"rain":0.0,"pressure":985.7,"uv_index":5.9,"wind_gusts":31.0,"aqi":1373,"pm10":1519.9,"pm2_5":173.7,"mosquito_risk":0,"arthritis_risk":5,"migraine_risk":3,"frizz_risk":1,"updated_at":"2026-03-05T14:19:56.289302+05:30"},{"city":"Meerut","state":"Uttar Pradesh","latitude":28.9845,"longitude":77.7064,"temp":31.7,"humidity":43,"rain":0.0,"pressure":983.0,"uv_index":5.75,"wind_gusts":28.1,"aqi":254,"pm10":305.5,"pm2_5":79.2,"mosquito_risk":0,"arthritis_risk":5,"migraine_risk":3,"frizz_risk":1,"updated_at":"2026-03-05T14:19:56.289311+05:30"},{"city":"Agra","state":"Uttar Pradesh","latitude":27.1767,"longitude":78.0081,"temp":34.5,"humidity":28,"rain":0.0,"pressure":989.7,"uv_index":6.25,"wind_gusts":36.0,"aqi":439,"pm10":489.9,"pm2_5":70.1,"mosquito_risk":0,"arthritis_risk":5,"migraine_risk":7,"frizz_risk":0,"updated_at":"2026-03-05T14:19:56.289319+05:30"},{"city":"Varanasi","state":"Uttar Pradesh","latitude":25.3176,"longitude":82.9739,"temp":30.6,"humidity":46,"rain":0.0,"pressure":998.9,"uv_index":7.05,"wind_gusts":16.9,"aqi":155,"pm10":221.7,"pm2_5":65.7,"mosquito_risk":0,"arthritis_risk":5,"migraine_risk":7,"frizz_risk":1,"updated_at":"2026-03-05T14:19:56.289330+05:30"},{"city":"Prayagraj","state":"Uttar Pradesh","latitude":25.4358,"longitude":81.8463,"temp":31.3,"humidity":46,"rain":0.0,"pressure":997.2,"uv_index":6.9,"wind_gusts":20.9,"aqi":155,"pm10":278.5,"pm2_5":73.3,"mosquito_risk":0,"arthritis_risk":5,"migraine_risk":7,"frizz_risk":1,"updated_at":"2026-03-05T14:19:56.289337+05:30"},{"city":"Gorakhpur","state":"Uttar Pradesh","latitude":26.7606,"longitude":83.3732,"temp":30.2,"humidity":47,"rain":0.0,"pressure":998.6,"uv_index":6.75,"wind_gusts":13.0,"aqi":173,"pm10":90.8,"pm2_5":65.9,"mosquito_risk":0,"arthritis_risk":5,"migraine_risk":7,"frizz_risk":1,"updated_at":"2026-03-05T14:19:56.289345+05:30"},{"city":"Bareilly","state":"Uttar Pradesh","latitude":28.367,"longitude":79.4304,"temp":29.5,"humidity":55,"rain":0.0,"pressure":988.2,"uv_index":6.05,"wind_gusts":13.3,"aqi":167,"pm10":159.3,"pm2_5":73.6,"mosquito_risk":4,"arthritis_risk":5,"migraine_risk":7,"frizz_risk":1,"updated_at":"2026-03-05T14:19:56.289352+05:30"},{"city":"Aligarh","state":"Uttar Pradesh","latitude":27.8974,"longitude":78.088,"temp":32.7,"humidity":39,"rain":0.0,"pressure":987.3,"uv_index":5.95,"wind_gusts":32.0,"aqi":680,"pm10":651.9,"pm2_5":120.6,"mosquito_risk":0,"arthritis_risk":5,"migraine_risk":3,"frizz_risk":1,"updated_at":"2026-03-05T14:19:56.289359+05:30"},{"city":"Moradabad","state":"Uttar Pradesh","latitude":28.8386,"longitude":78.7733,"temp":29.6,"humidity":54,"rain":0.0,"pressure":985.2,"uv_index":5.9,"wind_gusts":14.4,"aqi":168,"pm10":144.4,"pm2_5":74.0,"mosquito_risk":4,"arthritis_risk":5,"migraine_risk":3,"frizz_risk":1,"updated_at":"2026-03-05T14:19:56.289366+05:30"},{"city":"Saharanpur","state":"Uttar Pradesh","latitude":29.9637,"longitude":77.546,"temp":30.0,"humidity":53,"rain":0.0,"pressure":977.1,"uv_index":5.5,"wind_gusts":16.6,"aqi":153,"pm10":92.2,"pm2_5":48.5,"mosquito_risk":4,"arthritis_risk":5,"migraine_risk":3,"frizz_risk":1,"updated_at":"2026-03-05T14:19:56.289372+05:30"},{"city":"Jhansi","state":"Uttar Pradesh","latitude":25.4484,"longitude":78.5685,"temp":35.5,"humidity":23,"rain":0.0,"pressure":980.1,"uv_index":6.85,"wind_gusts":36.7,"aqi":56,"pm10":40.3,"pm2_5":15.7,"mosquito_risk":0,"arthritis_risk":5,"migraine_risk":10,"frizz_risk":0,"updated_at":"2026-03-05T14:19:59.608164+05:30"},{"city":"Surat","state":"Gujarat","latitude":21.1702,"longitude":72.8311,"temp":35.3,"humidity":29,"rain":0.0,"pressure":1009.1,"uv_index":7.1,"wind_gusts":28.1,"aqi":115,"pm10":32.8,"pm2_5":30.6,"mosquito_risk":0,"arthritis_risk":0,"migraine_risk":7,"frizz_risk":0,"updated_at":"2026-03-05T14:19:59.608195+05:30"},{"city":"Vadodara","state":"Gujarat","latitude":22.3072,"longitude":73.1812,"temp":38.6,"humidity":18,"rain":0.0,"pressure":1006.7,"uv_index":7.2,"wind_gusts":23.4,"aqi":84,"pm10":22.6,"pm2_5":18.8,"mosquito_risk":0,"arthritis_risk":5,"migraine_risk":7,"frizz_risk":0,"updated_at":"2026-03-05T14:19:59.608205+05:30"},{"city":"Rajkot","state":"Gujarat","latitude":22.3039,"longitude":70.8022,"temp":35.3,"humidity":18,"rain":0.0,"pressure":998.2,"uv_index":7.05,"wind_gusts":33.5,"aqi":57,"pm10":19.3,"pm2_5":18.2,"mosquito_risk":0,"arthritis_risk":5,"migraine_risk":10,"frizz_risk":0,"updated_at":"2026-03-05T14:19:59.608213+05:30"},{"city":"Thane","state":"Maharashtra","latitude":19.2183,"longitude":72.9781,"temp":37.7,"humidity":24,"rain":0.0,"pressure":1008.4,"uv_index":7.4,"wind_gusts":40.7,"aqi":118,"pm10":42.7,"pm2_5":40.2,"mosquito_risk":0,"arthritis_risk":0,"migraine_risk":7,"frizz_risk":0,"updated_at":"2026-03-05T14:19:59.608220+05:30"},{"city":"Nagpur","state":"Maharashtra","latitude":21.1458,"longitude":79.0882,"temp":36.2,"humidity":15,"rain":0.0,"pressure":974.6,"uv_index":7.8,"wind_gusts":27.0,"aqi":64,"pm10":14.1,"pm2_5":11.4,"mosquito_risk":0,"arthritis_risk":5,"migraine_risk":10,"frizz_risk":0,"updated_at":"2026-03-05T14:19:59.608227+05:30"},{"city":"Nashik","state":"Maharashtra","latitude":19.9975,"longitude":73.7898,"temp":35.6,"humidity":18,"rain":0.0,"pressure":948.0,"uv_index":7.6,"wind_gusts":31.3,"aqi":75,"pm10":18.2,"pm2_5":14.6,"mosquito_risk":0,"arthritis_risk":5,"migraine_risk":10,"frizz_risk":0,"updated_at":"2026-03-05T14:19:59.608234+05:30"},{"city":"Aurangabad","state":"Maharashtra","latitude":19.8762,"longitude":75.3433,"temp":35.4,"humidity":19,"rain":0.0,"pressure":946.3,"uv_index":8.1,"wind_gusts":28.1,"aqi":73,"pm10":18.8,"pm2_5":15.4,"mosquito_risk":0,"arthritis_risk":5,"migraine_risk":10,"frizz_risk":0,"updated_at":"2026-03-05T14:19:59.608242+05:30"},{"city":"Solapur","state":"Maharashtra","latitude":17.6599,"longitude":75.9064,"temp":35.2,"humidity":24,"rain":0.0,"pressure":958.5,"uv_index":8.35,"wind_gusts":17.3,"aqi":77,"pm10":23.5,"pm2_5":20.8,"mosquito_risk":0,"arthritis_risk":5,"migraine_risk":10,"frizz_risk":0,"updated_at":"2026-03-05T14:19:59.608250+05:30"},{"city":"Kolhapur","state":"Maharashtra","latitude":16.705,"longitude":74.2433,"temp":35.3,"humidity":22,"rain":0.0,"pressure":949.1,"uv_index":8.5,"wind_gusts":34.6,"aqi":154,"pm10":24.3,"pm2_5":22.2,"mosquito_risk":0,"arthritis_risk":5,"migraine_risk":10,"frizz_risk":0,"updated_at":"2026-03-05T14:19:59.608257+05:30"},{"city":"Goa","state":"Goa","latitude":15.2993,"longitude":74.124,"temp":31.3,"humidity":63,"rain":0.0,"pressure":998.5,"uv_index":8.55,"wind_gusts":33.8,"aqi":153,"pm10":52.0,"pm2_5":49.2,"mosquito_risk":3,"arthritis_risk":5,"migraine_risk":7,"frizz_risk":1,"updated_at":"2026-03-05T14:19:59.608264+05:30"},{"city":"Jodhpur","state":"Rajasthan","latitude":26.2389,"longitude":73.0243,"temp":35.5,"humidity":18,"rain":0.0,"pressure":986.6,"uv_index":6.9,"wind_gusts":25.9,"aqi":85,"pm10":41.0,"pm2_5":16.5,"mosquito_risk":0,"arthritis_risk":5,"migraine_risk":10,"frizz_risk":0,"updated_at":"2026-03-05T14:19:59.608272+05:30"},{"city":"Udaipur","state":"Rajasthan","latitude":24.5854,"longitude":73.7125,"temp":34.1,"humidity":17,"rain":0.0,"pressure":950.5,"uv_index":7.55,"wind_gusts":25.9,"aqi":60,"pm10":13.5,"pm2_5":10.6,"mosquito_risk":0,"arthritis_risk":5,"migraine_risk":7,"frizz_risk":0,"updated_at":"2026-03-05T14:19:59.608279+05:30"},{"city":"Kota","state":"Rajasthan","latitude":25.2138,"longitude":75.8648,"temp":36.3,"humidity":20,"rain":0.0,"pressure":981.5,"uv_index":6.95,"wind_gusts":29.2,"aqi":73,"pm10":52.7,"pm2_5":17.9,"mosquito_risk":0,"arthritis_risk":5,"migraine_risk":10,"frizz_risk":0,"updated_at":"2026-03-05T14:19:59.608285+05:30"},{"city":"Bikaner","state":"Rajasthan","latitude":28.0229,"longitude":73.3119,"temp":34.8,"humidity":24,"rain":0.0,"pressure":985.1,"uv_index":6.6,"wind_gusts":22.0,"aqi":61,"pm10":144.4,"pm2_5":25.6,"mosquito_risk":0,"arthritis_risk":5,"migraine_risk":7,"frizz_risk":0,"updated_at":"2026-03-05T14:19:59.608293+05:30"},{"city":"Ajmer","state":"Rajasthan","latitude":26.4499,"longitude":74.6399,"temp":34.2,"humidity":22,"rain":0.0,"pressure":958.1,"uv_index":6.9,"wind_gusts":25.6,"aqi":68,"pm10":120.1,"pm2_5":26.3,"mosquito_risk":0,"arthritis_risk":5,"migraine_risk":7,"frizz_risk":0,"updated_at":"2026-03-05T14:19:59.608300+05:30"},{"city":"Gwalior","state":"Madhya Pradesh","latitude":26.2183,"longitude":78.1828,"temp":33.2,"humidity":33,"rain":0.0,"pressure":985.5,"uv_index":6.55,"wind_gusts":32.8,"aqi":66,"pm10":42.1,"pm2_5":19.2,"mosquito_risk":0,"arthritis_risk":5,"migraine_risk":7,"frizz_risk":0,"updated_at":"2026-03-05T14:19:59.608307+05:30"},{"city":"Indore","state":"Madhya Pradesh","latitude":22.7196,"longitude":75.8577,"temp":33.8,"humidity":22,"rain":0.0,"pressure":951.3,"uv_index":7.5,"wind_gusts":25.6,"aqi":78,"pm10":24.4,"pm2_5":12.1,"mosquito_risk":0,"arthritis_risk":5,"migraine_risk":7,"frizz_risk":0,"updated_at":"2026-03-05T14:19:59.608314+05:30"},{"city":"Bhopal","state":"Madhya Pradesh","latitude":23.2599,"longitude":77.4126,"temp":34.1,"humidity":21,"rain":0.0,"pressure":956.6,"uv_index":7.35,"wind_gusts":31.3,"aqi":58,"pm10":25.4,"pm2_5":12.9,"mosquito_risk":0,"arthritis_risk":5,"migraine_risk":7,"frizz_risk":0,"updated_at":"2026-03-05T14:19:59.608321+05:30"},{"city":"Jabalpur","state":"Madhya Pradesh","latitude":23.1815,"longitude":79.9864,"temp":34.1,"humidity":21,"rain":0.0,"pressure":963.3,"uv_index":7.5,"wind_gusts":30.6,"aqi":55,"pm10":27.0,"pm2_5":11.6,"mosquito_risk":0,"arthritis_risk":5,"migraine_risk":7,"frizz_risk":0,"updated_at":"2026-03-05T14:19:59.608328+05:30"},{"city":"Ujjain","state":"Madhya Pradesh","latitude":23.1765,"longitude":75.7885,"temp":33.9,"humidity":21,"rain":0.0,"pressure":957.1,"uv_index":7.4,"wind_gusts":24.1,"aqi":107,"pm10":30.7,"pm2_5":14.9,"mosquito_risk":0,"arthritis_risk":5,"migraine_risk":7,"frizz_risk":0,"updated_at":"2026-03-05T14:19:59.608336+05:30"},{"city":"Visakhapatnam","state":"Andhra Pradesh","latitude":17.6868,"longitude":83.2185,"temp":34.8,"humidity":36,"rain":0.0,"pressure":1002.7,"uv_index":8.45,"wind_gusts":32.4,"aqi":104,"pm10":42.6,"pm2_5":38.5,"mosquito_risk":0,"arthritis_risk":5,"migraine_risk":4,"frizz_risk":1,"updated_at":"2026-03-05T14:19:59.608342+05:30"},{"city":"Vijayawada","state":"Andhra Pradesh","latitude":16.5062,"longitude":80.648,"temp":36.0,"humidity":30,"rain":0.0,"pressure":1002.3,"uv_index":8.5,"wind_gusts":17.6,"aqi":115,"pm10":34.8,"pm2_5":32.6,"mosquito_risk":0,"arthritis_risk":5,"migraine_risk":7,"frizz_risk":0,"updated_at":"2026-03-05T14:19:59.608349+05:30"},{"city":"Guntur","state":"Andhra Pradesh","latitude":16.3067,"longitude":80.4365,"temp":36.8,"humidity":26,"rain":0.0,"pressure":1003.4,"uv_index":8.5,"wind_gusts":20.9,"aqi":112,"pm10":30.9,"pm2_5":28.4,"mosquito_risk":0,"arthritis_risk":5,"migraine_risk":7,"frizz_risk":0,"updated_at":"2026-03-05T14:19:59.608356+05:30"},{"city":"Nellore","state":"Andhra Pradesh","latitude":14.4426,"longitude":79.9865,"temp":37.8,"humidity":22,"rain":0.0,"pressure":1005.3,"uv_index":8.7,"wind_gusts":30.6,"aqi":99,"pm10":33.4,"pm2_5":30.5,"mosquito_risk":0,"arthritis_risk":5,"migraine_risk":7,"frizz_risk":0,"updated_at":"2026-03-05T14:19:59.608364+05:30"},{"city":"Kurnool","state":"Andhra Pradesh","latitude":15.8281,"longitude":78.0373,"temp":37.4,"humidity":16,"rain":0.0,"pressure":977.5,"uv_index":8.5,"wind_gusts":27.0,"aqi":78,"pm10":24.7,"pm2_5":22.2,"mosquito_risk":0,"arthritis_risk":5,"migraine_risk":10,"frizz_risk":0,"updated_at":"2026-03-05T14:19:59.608371+05:30"},{"city":"Kakinada","state":"Andhra Pradesh","latitude":16.9891,"longitude":82.2475,"temp":37.3,"humidity":27,"rain":0.0,"pressure":1006.0,"uv_index":8.45,"wind_gusts":27.7,"aqi":95,"pm10":37.7,"pm2_5":34.5,"mosquito_risk":0,"arthritis_risk":5,"migraine_risk":7,"frizz_risk":0,"updated_at":"2026-03-05T14:19:59.608378+05:30"},{"city":"Tirupati","state":"Andhra Pradesh","latitude":13.6288,"longitude":79.4192,"temp":36.0,"humidity":21,"rain":0.0,"pressure":991.6,"uv_index":8.8,"wind_gusts":28.8,"aqi":132,"pm10":30.2,"pm2_5":26.3,"mosquito_risk":0,"arthritis_risk":5,"migraine_risk":10,"frizz_risk":0,"updated_at":"2026-03-05T14:19:59.608384+05:30"},{"city":"Warangal","state":"Telangana","latitude":17.9689,"longitude":79.5941,"temp":36.0,"humidity":19,"rain":0.0,"pressure":979.5,"uv_index":8.3,"wind_gusts":30.2,"aqi":82,"pm10":16.6,"pm2_5":12.6,"mosquito_risk":0,"arthritis_risk":5,"migraine_risk":10,"frizz_risk":0,"updated_at":"2026-03-05T14:19:59.608391+05:30"},{"city":"Nizamabad","state":"Telangana","latitude":18.6725,"longitude":78.0941,"temp":35.5,"humidity":23,"rain":0.0,"pressure":966.3,"uv_index":8.15,"wind_gusts":22.7,"aqi":88,"pm10":14.4,"pm2_5":11.5,"mosquito_risk":0,"arthritis_risk":5,"migraine_risk":10,"frizz_risk":0,"updated_at":"2026-03-05T14:19:59.608397+05:30"},{"city":"Mysore","state":"Karnataka","latitude":12.2958,"longitude":76.6396,"temp":32.4,"humidity":31,"rain":0.0,"pressure":929.5,"uv_index":9.15,"wind_gusts":23.8,"aqi":95,"pm10":32.4,"pm2_5":31.2,"mosquito_risk":0,"arthritis_risk":5,"migraine_risk":7,"frizz_risk":0,"updated_at":"2026-03-05T14:19:59.608404+05:30"},{"city":"Mangalore","state":"Karnataka","latitude":12.9141,"longitude":74.856,"temp":28.5,"humidity":80,"rain":0.0,"pressure":1006.8,"uv_index":8.75,"wind_gusts":28.4,"aqi":130,"pm10":50.3,"pm2_5":46.8,"mosquito_risk":7,"arthritis_risk":5,"migraine_risk":4,"frizz_risk":1,"updated_at":"2026-03-05T14:19:59.608410+05:30"},{"city":"Hubli-Dharwad","state":"Karnataka","latitude":15.3647,"longitude":75.124,"temp":35.3,"humidity":21,"rain":0.0,"pressure":941.9,"uv_index":8.75,"wind_gusts":26.3,"aqi":80,"pm10":23.9,"pm2_5":22.4,"mosquito_risk":0,"arthritis_risk":5,"migraine_risk":10,"frizz_risk":0,"updated_at":"2026-03-05T14:19:59.608417+05:30"},{"city":"Belgaum","state":"Karnataka","latitude":15.8497,"longitude":74.4977,"temp":34.3,"humidity":23,"rain":0.0,"pressure":927.2,"uv_index":8.75,"wind_gusts":37.1,"aqi":126,"pm10":21.9,"pm2_5":20.1,"mosquito_risk":0,"arthritis_risk":5,"migraine_risk":7,"frizz_risk":0,"updated_at":"2026-03-05T14:20:14.406359+05:30"},{"city":"Coimbatore","state":"Tamil Nadu","latitude":11.0168,"longitude":76.9558,"temp":34.4,"humidity":26,"rain":0.0,"pressure":962.0,"uv_index":9.15,"wind_gusts":34.2,"aqi":100,"pm10":23.9,"pm2_5":23.2,"mosquito_risk":0,"arthritis_risk":5,"migraine_risk":7,"frizz_risk":0,"updated_at":"2026-03-05T14:20:14.406389+05:30"},{"city":"Madurai","state":"Tamil Nadu","latitude":9.9252,"longitude":78.1198,"temp":36.9,"humidity":21,"rain":0.0,"pressure":992.3,"uv_index":9.1,"wind_gusts":31.0,"aqi":75,"pm10":23.7,"pm2_5":21.8,"mosquito_risk":0,"arthritis_risk":5,"migraine_risk":10,"frizz_risk":0,"updated_at":"2026-03-05T14:20:14.406400+05:30"},{"city":"Trichy","state":"Tamil Nadu","latitude":10.7905,"longitude":78.7047,"temp":36.1,"humidity":21,"rain":0.0,"pressure":999.6,"uv_index":9.0,"wind_gusts":34.2,"aqi":87,"pm10":37.5,"pm2_5":34.2,"mosquito_risk":0,"arthritis_risk":5,"migraine_risk":10,"frizz_risk":0,"updated_at":"2026-03-05T14:20:14.406409+05:30"},{"city":"Salem","state":"Tamil Nadu","latitude":11.6643,"longitude":78.146,"temp":36.0,"humidity":28,"rain":0.0,"pressure":977.0,"uv_index":9.05,"wind_gusts":23.0,"aqi":90,"pm10":31.4,"pm2_5":29.8,"mosquito_risk":0,"arthritis_risk":5,"migraine_risk":10,"frizz_risk":0,"updated_at":"2026-03-05T14:20:14.406416+05:30"},{"city":"Tirunelveli","state":"Tamil Nadu","latitude":8.7139,"longitude":77.7567,"temp":37.2,"humidity":23,"rain":0.0,"pressure":1002.8,"uv_index":9.15,"wind_gusts":47.5,"aqi":71,"pm10":15.6,"pm2_5":14.7,"mosquito_risk":0,"arthritis_risk":5,"migraine_risk":7,"frizz_risk":0,"updated_at":"2026-03-05T14:20:14.406424+05:30"},{"city":"Vellore","state":"Tamil Nadu","latitude":12.9165,"longitude":79.1325,"temp":35.2,"humidity":24,"rain":0.0,"pressure":984.8,"uv_index":8.9,"wind_gusts":28.4,"aqi":120,"pm10":29.9,"pm2_5":25.7,"mosquito_risk":0,"arthritis_risk":5,"migraine_risk":10,"frizz_risk":0,"updated_at":"2026-03-05T14:20:14.406432+05:30"},{"city":"Erode","state":"Tamil Nadu","latitude":11.341,"longitude":77.7172,"temp":36.0,"humidity":29,"rain":0.0,"pressure":988.7,"uv_index":9.05,"wind_gusts":23.4,"aqi":80,"pm10":29.8,"pm2_5":28.5,"mosquito_risk":0,"arthritis_risk":5,"migraine_risk":10,"frizz_risk":0,"updated_at":"2026-03-05T14:20:14.406439+05:30"},{"city":"Kochi","state":"Kerala","latitude":9.9312,"longitude":76.2673,"temp":28.0,"humidity":78,"rain":0.0,"pressure":1008.7,"uv_index":8.95,"wind_gusts":37.4,"aqi":141,"pm10":48.0,"pm2_5":45.5,"mosquito_risk":7,"arthritis_risk":0,"migraine_risk":4,"frizz_risk":1,"updated_at":"2026-03-05T14:20:14.406447+05:30"},{"city":"Thiruvananthapuram","state":"Kerala","latitude":8.5241,"longitude":76.9366,"temp":28.0,"humidity":74,"rain":0.0,"pressure":1007.7,"uv_index":9.0,"wind_gusts":28.1,"aqi":103,"pm10":38.5,"pm2_5":36.1,"mosquito_risk":7,"arthritis_risk":5,"migraine_risk":4,"frizz_risk":1,"updated_at":"2026-03-05T14:20:14.406454+05:30"},{"city":"Kozhikode","state":"Kerala","latitude":11.2588,"longitude":75.7804,"temp":29.3,"humidity":74,"rain":0.0,"pressure":1007.9,"uv_index":8.85,"wind_gusts":30.2,"aqi":126,"pm10":51.0,"pm2_5":47.1,"mosquito_risk":7,"arthritis_risk":5,"migraine_risk":4,"frizz_risk":1,"updated_at":"2026-03-05T14:20:14.406461+05:30"},{"city":"Thrissur","state":"Kerala","latitude":10.5276,"longitude":76.2144,"temp":31.7,"humidity":61,"rain":0.0,"pressure":1006.9,"uv_index":8.95,"wind_gusts":37.1,"aqi":144,"pm10":37.3,"pm2_5":35.4,"mosquito_risk":3,"arthritis_risk":5,"migraine_risk":4,"frizz_risk":1,"updated_at":"2026-03-05T14:20:14.406469+05:30"},{"city":"Kannur","state":"Kerala","latitude":11.8745,"longitude":75.3704,"temp":30.4,"humidity":67,"rain":0.0,"pressure":1007.3,"uv_index":8.85,"wind_gusts":33.8,"aqi":130,"pm10":46.4,"pm2_5":42.7,"mosquito_risk":3,"arthritis_risk":5,"migraine_risk":4,"frizz_risk":1,"updated_at":"2026-03-05T14:20:14.406476+05:30"},{"city":"Patna","state":"Bihar","latitude":25.5941,"longitude":85.1376,"temp":30.9,"humidity":40,"rain":0.0,"pressure":1001.6,"uv_index":7.2,"wind_gusts":15.8,"aqi":169,"pm10":84.8,"pm2_5":58.1,"mosquito_risk":0,"arthritis_risk":5,"migraine_risk":4,"frizz_risk":0,"updated_at":"2026-03-05T14:20:14.406482+05:30"},{"city":"Gaya","state":"Bihar","latitude":24.7914,"longitude":85.0002,"temp":29.7,"humidity":49,"rain":0.0,"pressure":994.9,"uv_index":7.3,"wind_gusts":13.3,"aqi":153,"pm10":90.1,"pm2_5":53.4,"mosquito_risk":4,"arthritis_risk":5,"migraine_risk":7,"frizz_risk":1,"updated_at":"2026-03-05T14:20:14.406489+05:30"},{"city":"Muzaffarpur","state":"Bihar","latitude":26.1209,"longitude":85.3647,"temp":31.2,"humidity":39,"rain":0.0,"pressure":1001.6,"uv_index":7.15,"wind_gusts":16.6,"aqi":175,"pm10":81.5,"pm2_5":58.0,"mosquito_risk":0,"arthritis_risk":5,"migraine_risk":4,"frizz_risk":0,"updated_at":"2026-03-05T14:20:14.406495+05:30"},{"city":"Bhagalpur","state":"Bihar","latitude":25.2425,"longitude":87.0117,"temp":30.3,"humidity":41,"rain":0.0,"pressure":1002.3,"uv_index":7.25,"wind_gusts":14.0,"aqi":164,"pm10":75.0,"pm2_5":56.1,"mosquito_risk":0,"arthritis_risk":5,"migraine_risk":4,"frizz_risk":0,"updated_at":"2026-03-05T14:20:14.406502+05:30"},{"city":"Ranchi","state":"Jharkhand","latitude":23.3441,"longitude":85.3096,"temp":29.5,"humidity":33,"rain":0.0,"pressure":938.3,"uv_index":7.95,"wind_gusts":18.7,"aqi":113,"pm10":138.8,"pm2_5":47.0,"mosquito_risk":4,"arthritis_risk":5,"migraine_risk":7,"frizz_risk":0,"updated_at":"2026-03-05T14:20:14.406509+05:30"},{"city":"Jamshedpur","state":"Jharkhand","latitude":22.8046,"longitude":86.2029,"temp":33.0,"humidity":27,"rain":0.0,"pressure":990.6,"uv_index":7.85,"wind_gusts":10.8,"aqi":155,"pm10":118.7,"pm2_5":58.8,"mosquito_risk":0,"arthritis_risk":5,"migraine_risk":7,"frizz_risk":0,"updated_at":"2026-03-05T14:20:14.406516+05:30"},{"city":"Dhanbad","state":"Jharkhand","latitude":23.7957,"longitude":86.4304,"temp":33.1,"humidity":25,"rain":0.0,"pressure":979.9,"uv_index":7.75,"wind_gusts":16.2,"aqi":156,"pm10":132.2,"pm2_5":68.5,"mosquito_risk":0,"arthritis_risk":5,"migraine_risk":7,"frizz_risk":0,"updated_at":"2026-03-05T14:20:14.406523+05:30"},{"city":"Bokaro","state":"Jharkhand","latitude":23.6693,"longitude":86.1511,"temp":32.6,"humidity":28,"rain":0.0,"pressure":983.9,"uv_index":7.75,"wind_gusts":13.3,"aqi":158,"pm10":139.2,"pm2_5":70.3,"mosquito_risk":0,"arthritis_risk":5,"migraine_risk":7,"frizz_risk":0,"updated_at":"2026-03-05T14:20:14.406530+05:30"},{"city":"Bhubaneswar","state":"Odisha","latitude":20.2961,"longitude":85.8245,"temp":36.2,"humidity":20,"rain":0.0,"pressure":1001.2,"uv_index":8.15,"wind_gusts":29.9,"aqi":153,"pm10":80.8,"pm2_5":51.9,"mosquito_risk":0,"arthritis_risk":5,"migraine_risk":7,"frizz_risk":0,"updated_at":"2026-03-05T14:20:14.406536+05:30"},{"city":"Cuttack","state":"Odisha","latitude":20.4625,"longitude":85.8828,"temp":35.9,"humidity":21,"rain":0.0,"pressure":1003.3,"uv_index":8.2,"wind_gusts":24.8,"aqi":153,"pm10":80.8,"pm2_5":51.9,"mosquito_risk":0,"arthritis_risk":5,"migraine_risk":7,"frizz_risk":0,"updated_at":"2026-03-05T14:20:14.406543+05:30"},{"city":"Rourkela","state":"Odisha","latitude":22.2604,"longitude":84.8536,"temp":33.9,"humidity":27,"rain":0.0,"pressure":984.8,"uv_index":7.8,"wind_gusts":23.4,"aqi":105,"pm10":131.3,"pm2_5":43.1,"mosquito_risk":0,"arthritis_risk":5,"migraine_risk":7,"frizz_risk":0,"updated_at":"2026-03-05T14:20:14.406550+05:30"},{"city":"Raipur","state":"Chhattisgarh","latitude":21.2514,"longitude":81.6296,"temp":36.7,"humidity":16,"rain":0.0,"pressure":975.2,"uv_index":7.85,"wind_gusts":26.3,"aqi":120,"pm10":23.0,"pm2_5":15.4,"mosquito_risk":0,"arthritis_risk":5,"migraine_risk":10,"frizz_risk":0,"updated_at":"2026-03-05T14:20:14.406556+05:30"},{"city":"Bhilai","state":"Chhattisgarh","latitude":21.1938,"longitude":81.3509,"temp":37.3,"humidity":15,"rain":0.0,"pressure":975.5,"uv_index":7.85,"wind_gusts":25.9,"aqi":99,"pm10":22.1,"pm2_5":13.0,"mosquito_risk":0,"arthritis_risk":5,"migraine_risk":10,"frizz_risk":0,"updated_at":"2026-03-05T14:20:14.406564+05:30"},{"city":"Guwahati","state":"Assam","latitude":26.1158,"longitude":91.7086,"temp":30.8,"humidity":42,"rain":0.0,"pressure":1001.4,"uv_index":7.15,"wind_gusts":16.2,"aqi":147,"pm10":46.4,"pm2_5":38.8,"mosquito_risk":0,"arthritis_risk":5,"migraine_risk":4,"frizz_risk":1,"updated_at":"2026-03-05T14:20:14.406571+05:30"},{"city":"Agartala","state":"Tripura","latitude":23.8315,"longitude":91.2868,"temp":30.9,"humidity":44,"rain":0.0,"pressure":1005.8,"uv_index":7.55,"wind_gusts":18.0,"aqi":152,"pm10":67.8,"pm2_5":47.7,"mosquito_risk":0,"arthritis_risk":5,"migraine_risk":4,"frizz_risk":1,"updated_at":"2026-03-05T14:20:14.406578+05:30"},{"city":"Shillong","state":"Meghalaya","latitude":25.5788,"longitude":91.8933,"temp":20.9,"humidity":41,"rain":0.0,"pressure":857.4,"uv_index":7.55,"wind_gusts":14.8,"aqi":113,"pm10":41.1,"pm2_5":34.3,"mosquito_risk":0,"arthritis_risk":5,"migraine_risk":7,"frizz_risk":0,"updated_at":"2026-03-05T14:20:14.406585+05:30"},{"city":"Imphal","state":"Manipur","latitude":24.817,"longitude":93.9368,"temp":25.2,"humidity":36,"rain":0.0,"pressure":923.4,"uv_index":7.75,"wind_gusts":21.2,"aqi":150,"pm10":38.1,"pm2_5":32.2,"mosquito_risk":4,"arthritis_risk":5,"migraine_risk":7,"frizz_risk":0,"updated_at":"2026-03-05T14:20:14.406592+05:30"},{"city":"Aizawl","state":"Mizoram","latitude":23.7271,"longitude":92.7176,"temp":26.4,"humidity":35,"rain":0.0,"pressure":893.4,"uv_index":7.75,"wind_gusts":22.7,"aqi":159,"pm10":57.4,"pm2_5":48.4,"mosquito_risk":4,"arthritis_risk":5,"migraine_risk":7,"frizz_risk":0,"updated_at":"2026-03-05T14:20:14.406599+05:30"},{"city":"Kohima","state":"Nagaland","latitude":25.6701,"longitude":94.1077,"temp":18.9,"humidity":67,"rain":0.0,"pressure":855.6,"uv_index":7.6,"wind_gusts":38.9,"aqi":150,"pm10":42.3,"pm2_5":35.7,"mosquito_risk":3,"arthritis_risk":5,"migraine_risk":7,"frizz_risk":0,"updated_at":"2026-03-05T14:20:14.406605+05:30"},{"city":"Gangtok","state":"Sikkim","latitude":27.3314,"longitude":88.6138,"temp":21.1,"humidity":53,"rain":0.0,"pressure":839.3,"uv_index":7.5,"wind_gusts":23.0,"aqi":110,"pm10":28.3,"pm2_5":25.1,"mosquito_risk":0,"arthritis_risk":5,"migraine_risk":7,"frizz_risk":0,"updated_at":"2026-03-05T14:20:14.406612+05:30"},{"city":"Siliguri","state":"West Bengal","latitude":26.7271,"longitude":88.3953,"temp":26.1,"humidity":55,"rain":0.0,"pressure":994.7,"uv_index":7.15,"wind_gusts":23.8,"aqi":143,"pm10":35.9,"pm2_5":28.8,"mosquito_risk":4,"arthritis_risk":5,"migraine_risk":7,"frizz_risk":1,"updated_at":"2026-03-05T14:20:17.731121+05:30"},{"city":"Durgapur","state":"West Bengal","latitude":23.5204,"longitude":87.3119,"temp":33.8,"humidity":26,"rain":0.0,"pressure":994.9,"uv_index":7.7,"wind_gusts":16.9,"aqi":158,"pm10":114.6,"pm2_5":64.7,"mosquito_risk":0,"arthritis_risk":5,"migraine_risk":7,"frizz_risk":0,"updated_at":"2026-03-05T14:20:17.731151+05:30"},{"city":"Asansol","state":"West Bengal","latitude":23.6739,"longitude":86.9524,"temp":33.8,"humidity":26,"rain":0.0,"pressure":993.4,"uv_index":7.7,"wind_gusts":19.8,"aqi":151,"pm10":126.7,"pm2_5":65.4,"mosquito_risk":0,"arthritis_risk":5,"migraine_risk":7,"frizz_risk":0,"updated_at":"2026-03-05T14:20:17.731162+05:30"},{"city":"Pondicherry","state":"Puducherry","latitude":11.9139,"longitude":79.8145,"temp":35.3,"humidity":34,"rain":0.0,"pressure":1008.3,"uv_index":8.85,"wind_gusts":25.6,"aqi":78,"pm10":24.9,"pm2_5":21.4,"mosquito_risk":0,"arthritis_risk":0,"migraine_risk":7,"frizz_risk":1,"updated_at":"2026-03-05T14:20:17.731172+05:30"},{"city":"Port Blair","state":"Andaman and Nicobar Islands","latitude":11.6234,"longitude":92.7265,"temp":27.0,"humidity":71,"rain":0.0,"pressure":1006.0,"uv_index":8.8,"wind_gusts":23.4,"aqi":77,"pm10":23.2,"pm2_5":19.0,"mosquito_risk":7,"arthritis_risk":5,"migraine_risk":4,"frizz_risk":1,"updated_at":"2026-03-05T14:20:17.731180+05:30"},{"city":"Haridwar","state":"Uttarakhand","latitude":29.9457,"longitude":78.1642,"temp":29.1,"humidity":55,"rain":0.0,"pressure":975.9,"uv_index":5.65,"wind_gusts":22.3,"aqi":136,"pm10":81.3,"pm2_5":47.4,"mosquito_risk":4,"arthritis_risk":5,"migraine_risk":3,"frizz_risk":1,"updated_at":"2026-03-05T14:20:17.731189+05:30"},{"city":"Rishikesh","state":"Uttarakhand","latitude":30.0869,"longitude":78.2676,"temp":28.8,"humidity":52,"rain":0.0,"pressure":968.7,"uv_index":5.7,"wind_gusts":21.6,"aqi":110,"pm10":95.2,"pm2_5":49.5,"mosquito_risk":4,"arthritis_risk":5,"migraine_risk":3,"frizz_risk":1,"updated_at":"2026-03-05T14:20:17.731197+05:30"},{"city":"Nainital","state":"Uttarakhand","latitude":29.3919,"longitude":79.4542,"temp":21.0,"humidity":67,"rain":0.0,"pressure":808.4,"uv_index":6.5,"wind_gusts":53.6,"aqi":152,"pm10":96.4,"pm2_5":54.1,"mosquito_risk":3,"arthritis_risk":5,"migraine_risk":7,"frizz_risk":0,"updated_at":"2026-03-05T14:20:17.731204+05:30"},{"city":"Mussoorie","state":"Uttarakhand","latitude":30.4599,"longitude":78.0664,"temp":21.6,"humidity":61,"rain":0.0,"pressure":805.9,"uv_index":6.05,"wind_gusts":37.4,"aqi":103,"pm10":53.4,"pm2_5":35.5,"mosquito_risk":3,"arthritis_risk":5,"migraine_risk":7,"frizz_risk":0,"updated_at":"2026-03-05T14:20:17.731212+05:30"},{"city":"Dharamshala","state":"Himachal Pradesh","latitude":32.219,"longitude":76.3234,"temp":28.0,"humidity":37,"rain":0.0,"pressure":873.0,"uv_index":6.3,"wind_gusts":24.8,"aqi":51,"pm10":19.2,"pm2_5":7.6,"mosquito_risk":4,"arthritis_risk":5,"migraine_risk":7,"frizz_risk":0,"updated_at":"2026-03-05T14:20:17.731220+05:30"},{"city":"Dalhousie","state":"Himachal Pradesh","latitude":32.5387,"longitude":75.971,"temp":27.8,"humidity":23,"rain":0.0,"pressure":809.5,"uv_index":6.45,"wind_gusts":22.3,"aqi":83,"pm10":33.3,"pm2_5":16.5,"mosquito_risk":4,"arthritis_risk":5,"migraine_risk":7,"frizz_risk":0,"updated_at":"2026-03-05T14:20:17.731228+05:30"},{"city":"Patiala","state":"Punjab","latitude":30.3398,"longitude":76.3869,"temp":32.3,"humidity":34,"rain":0.0,"pressure":980.0,"uv_index":5.7,"wind_gusts":26.6,"aqi":324,"pm10":431.2,"pm2_5":83.4,"mosquito_risk":0,"arthritis_risk":5,"migraine_risk":3,"frizz_risk":0,"updated_at":"2026-03-05T14:20:17.731235+05:30"},{"city":"Bhatinda","state":"Punjab","latitude":30.211,"longitude":74.9455,"temp":33.6,"humidity":38,"rain":0.0,"pressure":985.9,"uv_index":6.35,"wind_gusts":26.6,"aqi":136,"pm10":79.2,"pm2_5":47.6,"mosquito_risk":0,"arthritis_risk":5,"migraine_risk":7,"frizz_risk":1,"updated_at":"2026-03-05T14:20:17.731242+05:30"},{"city":"Rohtak","state":"Haryana","latitude":28.8955,"longitude":76.6066,"temp":32.6,"humidity":38,"rain":0.0,"pressure":983.8,"uv_index":5.85,"wind_gusts":30.2,"aqi":533,"pm10":732.0,"pm2_5":105.7,"mosquito_risk":0,"arthritis_risk":5,"migraine_risk":3,"frizz_risk":1,"updated_at":"2026-03-05T14:20:17.731249+05:30"},{"city":"Panipat","state":"Haryana","latitude":29.3909,"longitude":76.9635,"temp":32.6,"humidity":38,"rain":0.0,"pressure":982.1,"uv_index":5.65,"wind_gusts":29.9,"aqi":1191,"pm10":1218.2,"pm2_5":150.9,"mosquito_risk":0,"arthritis_risk":5,"migraine_risk":3,"frizz_risk":1,"updated_at":"2026-03-05T14:20:17.731255+05:30"},{"city":"Mathura","state":"Uttar Pradesh","latitude":27.4924,"longitude":77.6737,"temp":33.8,"humidity":33,"rain":0.0,"pressure":988.8,"uv_index":6.15,"wind_gusts":32.4,"aqi":560,"pm10":665.0,"pm2_5":91.0,"mosquito_risk":0,"arthritis_risk":5,"migraine_risk":7,"frizz_risk":0,"updated_at":"2026-03-05T14:20:17.731262+05:30"},{"city":"Vrindavan","state":"Uttar Pradesh","latitude":27.5823,"longitude":77.7027,"temp":33.3,"humidity":35,"rain":0.0,"pressure":989.2,"uv_index":6.1,"wind_gusts":34.2,"aqi":560,"pm10":665.0,"pm2_5":91.0,"mosquito_risk":0,"arthritis_risk":5,"migraine_risk":7,"frizz_risk":0,"updated_at":"2026-03-05T14:20:17.731269+05:30"},{"city":"Ayodhya","state":"Uttar Pradesh","latitude":26.7922,"longitude":82.1998,"temp":30.5,"humidity":45,"rain":0.0,"pressure":996.6,"uv_index":6.55,"wind_gusts":10.4,"aqi":176,"pm10":143.9,"pm2_5":69.4,"mosquito_risk":0,"arthritis_risk":5,"migraine_risk":7,"frizz_risk":1,"updated_at":"2026-03-05T14:20:17.731275+05:30"},{"city":"Ratlam","state":"Madhya Pradesh","latitude":23.3315,"longitude":75.0367,"temp":34.3,"humidity":22,"rain":0.0,"pressure":958.0,"uv_index":7.35,"wind_gusts":22.3,"aqi":94,"pm10":29.5,"pm2_5":14.7,"mosquito_risk":0,"arthritis_risk":5,"migraine_risk":7,"frizz_risk":0,"updated_at":"2026-03-05T14:20:17.731282+05:30"},{"city":"Sagar","state":"Madhya Pradesh","latitude":23.8388,"longitude":78.7378,"temp":34.1,"humidity":22,"rain":0.0,"pressure":952.7,"uv_index":7.3,"wind_gusts":33.8,"aqi":48,"pm10":32.2,"pm2_5":12.5,"mosquito_risk":0,"arthritis_risk":5,"migraine_risk":7,"frizz_risk":0,"updated_at":"2026-03-05T14:20:17.731288+05:30"},{"city":"Satna","state":"Madhya Pradesh","latitude":24.6005,"longitude":80.8322,"temp":35.1,"humidity":18,"rain":0.0,"pressure":972.7,"uv_index":7.3,"wind_gusts":41.0,"aqi":65,"pm10":48.1,"pm2_5":21.2,"mosquito_risk":0,"arthritis_risk":5,"migraine_risk":10,"frizz_risk":0,"updated_at":"2026-03-05T14:20:17.731295+05:30"},{"city":"Akola","state":"Maharashtra","latitude":20.7002,"longitude":77.0082,"temp":37.4,"humidity":13,"rain":0.0,"pressure":976.8,"uv_index":7.8,"wind_gusts":23.4,"aqi":78,"pm10":16.1,"pm2_5":11.8,"mosquito_risk":0,"arthritis_risk":5,"migraine_risk":10,"frizz_risk":0,"updated_at":"2026-03-05T14:20:17.731303+05:30"},{"city":"Amravati","state":"Maharashtra","latitude":20.9374,"longitude":77.7796,"temp":37.3,"humidity":13,"rain":0.0,"pressure":969.0,"uv_index":7.8,"wind_gusts":16.9,"aqi":76,"pm10":14.4,"pm2_5":11.2,"mosquito_risk":0,"arthritis_risk":5,"migraine_risk":10,"frizz_risk":0,"updated_at":"2026-03-05T14:20:17.731310+05:30"},{"city":"Latur","state":"Maharashtra","latitude":18.4088,"longitude":76.5604,"temp":34.4,"humidity":19,"rain":0.0,"pressure":941.9,"uv_index":8.3,"wind_gusts":32.0,"aqi":98,"pm10":23.1,"pm2_5":20.1,"mosquito_risk":0,"arthritis_risk":5,"migraine_risk":7,"frizz_risk":0,"updated_at":"2026-03-05T14:20:17.731317+05:30"},{"city":"Nanded","state":"Maharashtra","latitude":19.1383,"longitude":77.3091,"temp":36.8,"humidity":17,"rain":0.0,"pressure":970.2,"uv_index":8.05,"wind_gusts":25.2,"aqi":96,"pm10":13.8,"pm2_5":11.1,"mosquito_risk":0,"arthritis_risk":5,"migraine_risk":10,"frizz_risk":0,"updated_at":"2026-03-05T14:20:17.731325+05:30"},{"city":"Gulbarga","state":"Karnataka","latitude":17.3297,"longitude":76.8343,"temp":36.8,"humidity":19,"rain":0.0,"pressure":960.0,"uv_index":8.35,"wind_gusts":21.6,"aqi":77,"pm10":17.9,"pm2_5":15.5,"mosquito_risk":0,"arthritis_risk":5,"migraine_risk":10,"frizz_risk":0,"updated_at":"2026-03-05T14:20:17.731332+05:30"},{"city":"Bidar","state":"Karnataka","latitude":17.9104,"longitude":77.5199,"temp":35.0,"humidity":21,"rain":0.0,"pressure":937.1,"uv_index":8.3,"wind_gusts":24.1,"aqi":94,"pm10":14.7,"pm2_5":12.5,"mosquito_risk":0,"arthritis_risk":5,"migraine_risk":7,"frizz_risk":0,"updated_at":"2026-03-05T14:20:17.731339+05:30"},{"city":"Hospet","state":"Karnataka","latitude":15.2689,"longitude":76.3909,"temp":35.3,"humidity":21,"rain":0.0,"pressure":956.7,"uv_index":8.7,"wind_gusts":23.8,"aqi":83,"pm10":22.2,"pm2_5":20.3,"mosquito_risk":0,"arthritis_risk":5,"migraine_risk":10,"frizz_risk":0,"updated_at":"2026-03-05T14:20:17.731346+05:30"},{"city":"Tirupur","state":"Tamil Nadu","latitude":11.1085,"longitude":77.3411,"temp":35.6,"humidity":26,"rain":0.0,"pressure":975.3,"uv_index":9.15,"wind_gusts":28.8,"aqi":99,"pm10":27.5,"pm2_5":26.5,"mosquito_risk":0,"arthritis_risk":5,"migraine_risk":10,"frizz_risk":0,"updated_at":"2026-03-05T14:20:17.731353+05:30"},{"city":"Alappuzha","state":"Kerala","latitude":9.4981,"longitude":76.3388,"temp":27.8,"humidity":79,"rain":0.0,"pressure":1008.9,"uv_index":8.95,"wind_gusts":36.4,"aqi":118,"pm10":39.1,"pm2_5":37.0,"mosquito_risk":7,"arthritis_risk":0,"migraine_risk":4,"frizz_risk":1,"updated_at":"2026-03-05T14:20:17.731360+05:30"},{"city":"Munnar","state":"Kerala","latitude":10.0889,"longitude":77.0595,"temp":29.8,"humidity":38,"rain":0.0,"pressure":859.1,"uv_index":9.45,"wind_gusts":24.5,"aqi":73,"pm10":18.6,"pm2_5":17.8,"mosquito_risk":4,"arthritis_risk":5,"migraine_risk":7,"frizz_risk":0,"updated_at":"2026-03-05T14:20:17.731367+05:30"},{"city":"Silchar","state":"Assam","latitude":24.8333,"longitude":92.7789,"temp":32.4,"humidity":34,"rain":0.0,"pressure":1004.3,"uv_index":7.5,"wind_gusts":15.1,"aqi":152,"pm10":55.8,"pm2_5":46.0,"mosquito_risk":0,"arthritis_risk":5,"migraine_risk":4,"frizz_risk":0,"updated_at":"2026-03-05T14:20:17.731374+05:30"},{"city":"Dibrugarh","state":"Assam","latitude":27.4728,"longitude":94.912,"temp":29.2,"humidity":46,"rain":0.0,"pressure":995.1,"uv_index":7.2,"wind_gusts":11.5,"aqi":129,"pm10":52.2,"pm2_5":42.7,"mosquito_risk":4,"arthritis_risk":5,"migraine_risk":7,"frizz_risk":1,"updated_at":"2026-03-05T14:20:17.731381+05:30"}]