[{"city":"Delhi","state":"Delhi","latitude":28.6139,"longitude":77.209,"temp":29.7,"humidity":69,"rain":0.0,"pressure":975.5,"uv_index":7.65,"wind_gusts":28.8,"aqi":567,"pm10":315.7,"pm2_5":78.5,"no2":25.3,"co":442.0,"o3":51.0,"so2":19.7,"mosquito_risk":7,"arthritis_risk":5,"migraine_risk":7,"frizz_risk":1,"updated_at":"2026-07-01T03:46:29.424680+05:30"},{"city":"Mumbai","state":"Maharashtra","latitude":19.076,"longitude":72.8777,"temp":26.4,"humidity":90,"rain":0.8,"pressure":1003.0,"uv_index":0.45,"wind_gusts":47.2,"aqi":39,"pm10":17.6,"pm2_5":8.4,"no2":2.8,"co":107.0,"o3":50.0,"so2":2.2,"mosquito_risk":10,"arthritis_risk":5,"migraine_risk":0,"frizz_risk":1,"updated_at":"2026-07-01T03:46:29.424720+05:30"},{"city":"Bangalore","state":"Karnataka","latitude":12.9716,"longitude":77.5946,"temp":20.9,"humidity":89,"rain":0.0,"pressure":909.9,"uv_index":6.75,"wind_gusts":59.8,"aqi":17,"pm10":2.6,"pm2_5":2.2,"no2":5.5,"co":137.0,"o3":37.0,"so2":3.1,"mosquito_risk":3,"arthritis_risk":5,"migraine_risk":7,"frizz_risk":1,"updated_at":"2026-07-01T03:46:29.424735+05:30"},{"city":"Hyderabad","state":"Telangana","latitude":17.385,"longitude":78.4867,"temp":24.8,"humidity":79,"rain":0.0,"pressure":948.8,"uv_index":6.95,"wind_gusts":51.5,"aqi":24,"pm10":5.2,"pm2_5":4.5,"no2":8.0,"co":138.0,"o3":39.0,"so2":4.2,"mosquito_risk":3,"arthritis_risk":5,"migraine_risk":7,"frizz_risk":1,"updated_at":"2026-07-01T03:46:29.424745+05:30"},{"city":"Chennai","state":"Tamil Nadu","latitude":13.0827,"longitude":80.2707,"temp":29.2,"humidity":61,"rain":0.0,"pressure":1003.9,"uv_index":4.9,"wind_gusts":48.6,"aqi":40,"pm10":9.0,"pm2_5":8.0,"no2":17.7,"co":201.0,"o3":30.0,"so2":6.6,"mosquito_risk":7,"arthritis_risk":5,"migraine_risk":0,"frizz_risk":1,"updated_at":"2026-07-01T03:46:29.424753+05:30"},{"city":"Kolkata","state":"West Bengal","latitude":22.5726,"longitude":88.3639,"temp":26.3,"humidity":94,"rain":0.0,"pressure":999.2,"uv_index":8.65,"wind_gusts":27.0,"aqi":113,"pm10":37.3,"pm2_5":36.0,"no2":17.1,"co":556.0,"o3":50.0,"so2":8.5,"mosquito_risk":7,"arthritis_risk":5,"migraine_risk":7,"frizz_risk":1,"updated_at":"2026-07-01T03:46:29.424761+05:30"},{"city":"Pune","state":"Maharashtra","latitude":18.5204,"longitude":73.8567,"temp":23.2,"humidity":92,"rain":0.0,"pressure":942.8,"uv_index":1.6,"wind_gusts":50.4,"aqi":19,"pm10":1.5,"pm2_5":1.3,"no2":3.9,"co":104.0,"o3":45.0,"so2":2.5,"mosquito_risk":3,"arthritis_risk":5,"migraine_risk":3,"frizz_risk":1,"updated_at":"2026-07-01T03:46:29.424768+05:30"},{"city":"Ahmedabad","state":"Gujarat","latitude":23.0225,"longitude":72.5714,"temp":29.8,"humidity":74,"rain":0.0,"pressure":995.0,"uv_index":7.65,"wind_gusts":46.4,"aqi":52,"pm10":22.4,"pm2_5":13.9,"no2":10.7,"co":142.0,"o3":33.0,"so2":6.2,"mosquito_risk":7,"arthritis_risk":5,"migraine_risk":7,"frizz_risk":1,"updated_at":"2026-07-01T03:46:29.424775+05:30"},{"city":"Jaipur","state":"Rajasthan","latitude":26.9124,"longitude":75.7873,"temp":30.6,"humidity":59,"rain":0.0,"pressure":952.1,"uv_index":8.2,"wind_gusts":31.7,"aqi":189,"pm10":351.1,"pm2_5":69.2,"no2":8.6,"co":224.0,"o3":58.0,"so2":3.9,"mosquito_risk":0,"arthritis_risk":5,"migraine_risk":7,"frizz_risk":1,"updated_at":"2026-07-01T03:46:29.424781+05:30"},{"city":"Lucknow","state":"Uttar Pradesh","latitude":26.8467,"longitude":80.9462,"temp":28.0,"humidity":90,"rain":0.1,"pressure":986.5,"uv_index":5.55,"wind_gusts":22.0,"aqi":112,"pm10":63.8,"pm2_5":45.6,"no2":16.7,"co":411.0,"o3":65.0,"so2":7.4,"mosquito_risk":10,"arthritis_risk":5,"migraine_risk":3,"frizz_risk":1,"updated_at":"2026-07-01T03:46:29.424792+05:30"},{"city":"Kanpur","state":"Uttar Pradesh","latitude":26.4499,"longitude":80.3319,"temp":29.7,"humidity":72,"rain":0.0,"pressure":984.6,"uv_index":6.25,"wind_gusts":29.5,"aqi":113,"pm10":58.3,"pm2_5":37.8,"no2":15.1,"co":217.0,"o3":64.0,"so2":4.7,"mosquito_risk":7,"arthritis_risk":5,"migraine_risk":7,"frizz_risk":1,"updated_at":"2026-07-01T03:46:29.424799+05:30"},{"city":"Chandigarh","state":"Chandigarh","latitude":30.7333,"longitude":76.7794,"temp":27.8,"humidity":78,"rain":0.1,"pressure":962.1,"uv_index":6.6,"wind_gusts":38.2,"aqi":114,"pm10":42.0,"pm2_5":26.9,"no2":13.9,"co":293.0,"o3":60.0,"so2":6.5,"mosquito_risk":10,"arthritis_risk":5,"migraine_risk":7,"frizz_risk":1,"updated_at":"2026-07-01T03:46:29.424806+05:30"},{"city":"Srinagar","state":"Jammu and Kashmir","latitude":34.0837,"longitude":74.7973,"temp":21.3,"humidity":81,"rain":0.0,"pressure":835.2,"uv_index":9.1,"wind_gusts":30.6,"aqi":102,"pm10":38.8,"pm2_5":36.4,"no2":27.6,"co":573.0,"o3":12.0,"so2":1.4,"mosquito_risk":3,"arthritis_risk":5,"migraine_risk":7,"frizz_risk":1,"updated_at":"2026-07-01T03:46:29.424813+05:30"},{"city":"Jammu","state":"Jammu and Kashmir","latitude":32.7266,"longitude":74.857,"temp":25.1,"humidity":93,"rain":0.2,"pressure":966.2,"uv_index":8.65,"wind_gusts":28.4,"aqi":142,"pm10":40.7,"pm2_5":29.9,"no2":12.6,"co":270.0,"o3":86.0,"so2":2.9,"mosquito_risk":10,"arthritis_risk":5,"migraine_risk":7,"frizz_risk":1,"updated_at":"2026-07-01T03:46:29.424819+05:30"},{"city":"Amritsar","state":"Punjab","latitude":31.634,"longitude":74.8723,"temp":26.3,"humidity":95,"rain":0.1,"pressure":972.9,"uv_index":8.15,"wind_gusts":42.8,"aqi":154,"pm10":265.4,"pm2_5":85.4,"no2":13.0,"co":493.0,"o3":87.0,"so2":13.5,"mosquito_risk":10,"arthritis_risk":5,"migraine_risk":7,"frizz_risk":1,"updated_at":"2026-07-01T03:46:29.424827+05:30"},{"city":"Ludhiana","state":"Punjab","latitude":30.901,"longitude":75.8573,"temp":28.8,"humidity":76,"rain":0.0,"pressure":971.3,"uv_index":3.1,"wind_gusts":42.5,"aqi":179,"pm10":430.3,"pm2_5":89.2,"no2":13.1,"co":438.0,"o3":76.0,"so2":13.9,"mosquito_risk":7,"arthritis_risk":5,"migraine_risk":3,"frizz_risk":1,"updated_at":"2026-07-01T03:46:29.424833+05:30"},{"city":"Jalandhar","state":"Punjab","latitude":31.326,"longitude":75.5762,"temp":27.8,"humidity":93,"rain":0.1,"pressure":972.1,"uv_index":4.3,"wind_gusts":37.4,"aqi":156,"pm10":197.9,"pm2_5":64.7,"no2":14.7,"co":456.0,"o3":77.0,"so2":13.7,"mosquito_risk":10,"arthritis_risk":5,"migraine_risk":3,"frizz_risk":1,"updated_at":"2026-07-01T03:46:29.424839+05:30"},{"city":"Dehradun","state":"Uttarakhand","latitude":30.6284,"longitude":78.0322,"temp":18.3,"humidity":97,"rain":0.5,"pressure":826.7,"uv_index":7.7,"wind_gusts":18.4,"aqi":47,"pm10":22.5,"pm2_5":11.3,"no2":6.0,"co":196.0,"o3":86.0,"so2":1.1,"mosquito_risk":6,"arthritis_risk":10,"migraine_risk":7,"frizz_risk":1,"updated_at":"2026-07-01T03:46:29.424846+05:30"},{"city":"Shimla","state":"Himachal Pradesh","latitude":31.1048,"longitude":77.1734,"temp":15.2,"humidity":99,"rain":0.1,"pressure":780.4,"uv_index":6.75,"wind_gusts":19.4,"aqi":73,"pm10":23.5,"pm2_5":10.8,"no2":12.3,"co":270.0,"o3":68.0,"so2":0.5,"mosquito_risk":6,"arthritis_risk":10,"migraine_risk":7,"frizz_risk":0,"updated_at":"2026-07-01T03:46:29.424853+05:30"},{"city":"Manali","state":"Himachal Pradesh","latitude":32.2396,"longitude":77.1887,"temp":18.0,"humidity":82,"rain":0.0,"pressure":814.4,"uv_index":4.85,"wind_gusts":34.6,"aqi":63,"pm10":7.4,"pm2_5":6.1,"no2":70.5,"co":235.0,"o3":45.0,"so2":0.0,"mosquito_risk":3,"arthritis_risk":10,"migraine_risk":3,"frizz_risk":0,"updated_at":"2026-07-01T03:46:29.424861+05:30"},{"city":"Gurgaon","state":"Haryana","latitude":28.4595,"longitude":77.0266,"temp":29.6,"humidity":68,"rain":0.0,"pressure":973.6,"uv_index":7.3,"wind_gusts":34.6,"aqi":1152,"pm10":1024.5,"pm2_5":187.2,"no2":18.5,"co":439.0,"o3":56.0,"so2":11.3,"mosquito_risk":7,"arthritis_risk":5,"migraine_risk":7,"frizz_risk":1,"updated_at":"2026-07-01T03:46:29.424867+05:30"},{"city":"Noida","state":"Uttar Pradesh","latitude":28.5355,"longitude":77.391,"temp":28.7,"humidity":77,"rain":0.0,"pressure":977.1,"uv_index":7.55,"wind_gusts":25.6,"aqi":1152,"pm10":1024.5,"pm2_5":187.2,"no2":18.5,"co":445.0,"o3":56.0,"so2":11.3,"mosquito_risk":7,"arthritis_risk":5,"migraine_risk":7,"frizz_risk":1,"updated_at":"2026-07-01T03:46:29.424876+05:30"},{"city":"Ghaziabad","state":"Uttar Pradesh","latitude":28.6692,"longitude":77.4538,"temp":28.8,"humidity":79,"rain":0.0,"pressure":975.4,"uv_index":5.65,"wind_gusts":24.8,"aqi":159,"pm10":116.2,"pm2_5":44.1,"no2":18.6,"co":412.0,"o3":56.0,"so2":10.1,"mosquito_risk":7,"arthritis_risk":5,"migraine_risk":3,"frizz_risk":1,"updated_at":"2026-07-01T03:46:29.424882+05:30"},{"city":"Faridabad","state":"Haryana","latitude":28.4089,"longitude":77.3178,"temp":29.1,"humidity":72,"rain":0.0,"pressure":976.2,"uv_index":6.9,"wind_gusts":30.6,"aqi":1152,"pm10":1024.5,"pm2_5":187.2,"no2":18.5,"co":433.0,"o3":56.0,"so2":11.3,"mosquito_risk":7,"arthritis_risk":5,"migraine_risk":7,"frizz_risk":1,"updated_at":"2026-07-01T03:46:29.424888+05:30"},{"city":"Meerut","state":"Uttar Pradesh","latitude":28.9845,"longitude":77.7064,"temp":27.9,"humidity":85,"rain":0.0,"pressure":974.7,"uv_index":7.5,"wind_gusts":32.0,"aqi":159,"pm10":116.2,"pm2_5":44.1,"no2":18.6,"co":421.0,"o3":56.0,"so2":10.1,"mosquito_risk":7,"arthritis_risk":5,"migraine_risk":7,"frizz_risk":1,"updated_at":"2026-07-01T03:46:29.424894+05:30"},{"city":"Agra","state":"Uttar Pradesh","latitude":27.1767,"longitude":78.0081,"temp":27.7,"humidity":79,"rain":0.0,"pressure":980.1,"uv_index":3.7,"wind_gusts":33.1,"aqi":436,"pm10":74.5,"pm2_5":31.8,"no2":14.1,"co":164.0,"o3":54.0,"so2":4.2,"mosquito_risk":7,"arthritis_risk":5,"migraine_risk":3,"frizz_risk":1,"updated_at":"2026-07-01T03:46:29.424901+05:30"},{"city":"Varanasi","state":"Uttar Pradesh","latitude":25.3176,"longitude":82.9739,"temp":28.6,"humidity":89,"rain":0.0,"pressure":990.3,"uv_index":7.95,"wind_gusts":20.9,"aqi":79,"pm10":28.2,"pm2_5":23.5,"no2":30.4,"co":364.0,"o3":46.0,"so2":17.1,"mosquito_risk":7,"arthritis_risk":5,"migraine_risk":7,"frizz_risk":1,"updated_at":"2026-07-01T03:46:29.424908+05:30"},{"city":"Prayagraj","state":"Uttar Pradesh","latitude":25.4358,"longitude":81.8463,"temp":28.9,"humidity":87,"rain":0.1,"pressure":988.7,"uv_index":7.35,"wind_gusts":25.6,"aqi":97,"pm10":42.5,"pm2_5":33.4,"no2":14.0,"co":224.0,"o3":77.0,"so2":6.2,"mosquito_risk":10,"arthritis_risk":5,"migraine_risk":7,"frizz_risk":1,"updated_at":"2026-07-01T03:46:29.424914+05:30"},{"city":"Gorakhpur","state":"Uttar Pradesh","latitude":26.7606,"longitude":83.3732,"temp":26.9,"humidity":93,"rain":0.0,"pressure":990.9,"uv_index":7.35,"wind_gusts":26.6,"aqi":92,"pm10":66.4,"pm2_5":60.8,"no2":17.7,"co":376.0,"o3":71.0,"so2":11.0,"mosquito_risk":7,"arthritis_risk":5,"migraine_risk":7,"frizz_risk":1,"updated_at":"2026-07-01T03:46:29.424920+05:30"},{"city":"Bareilly","state":"Uttar Pradesh","latitude":28.367,"longitude":79.4304,"temp":26.0,"humidity":95,"rain":0.2,"pressure":980.4,"uv_index":7.95,"wind_gusts":23.0,"aqi":86,"pm10":62.6,"pm2_5":37.1,"no2":14.8,"co":266.0,"o3":67.0,"so2":6.7,"mosquito_risk":10,"arthritis_risk":5,"migraine_risk":7,"frizz_risk":1,"updated_at":"2026-07-01T03:46:29.424960+05:30"},{"city":"Aligarh","state":"Uttar Pradesh","latitude":27.8974,"longitude":78.088,"temp":26.9,"humidity":86,"rain":0.0,"pressure":978.2,"uv_index":4.35,"wind_gusts":29.9,"aqi":315,"pm10":144.4,"pm2_5":57.2,"no2":16.6,"co":259.0,"o3":59.0,"so2":7.1,"mosquito_risk":7,"arthritis_risk":5,"migraine_risk":3,"frizz_risk":1,"updated_at":"2026-07-01T03:46:29.424969+05:30"},{"city":"Moradabad","state":"Uttar Pradesh","latitude":28.8386,"longitude":78.7733,"temp":27.1,"humidity":88,"rain":0.0,"pressure":977.5,"uv_index":7.25,"wind_gusts":25.2,"aqi":76,"pm10":61.5,"pm2_5":38.2,"no2":17.1,"co":251.0,"o3":61.0,"so2":12.2,"mosquito_risk":7,"arthritis_risk":5,"migraine_risk":7,"frizz_risk":1,"updated_at":"2026-07-01T03:46:29.424976+05:30"},{"city":"Saharanpur","state":"Uttar Pradesh","latitude":29.9637,"longitude":77.546,"temp":26.4,"humidity":87,"rain":0.0,"pressure":969.3,"uv_index":6.55,"wind_gusts":33.5,"aqi":84,"pm10":34.5,"pm2_5":21.8,"no2":15.9,"co":329.0,"o3":58.0,"so2":11.8,"mosquito_risk":7,"arthritis_risk":5,"migraine_risk":7,"frizz_risk":1,"updated_at":"2026-07-01T03:46:29.424982+05:30"},{"city":"Jhansi","state":"Uttar Pradesh","latitude":25.4484,"longitude":78.5685,"temp":29.6,"humidity":70,"rain":0.0,"pressure":970.7,"uv_index":6.95,"wind_gusts":32.0,"aqi":61,"pm10":26.5,"pm2_5":20.7,"no2":6.7,"co":158.0,"o3":71.0,"so2":4.6,"mosquito_risk":7,"arthritis_risk":5,"migraine_risk":7,"frizz_risk":1,"updated_at":"2026-07-01T03:46:32.796202+05:30"},{"city":"Surat","state":"Gujarat","latitude":21.1702,"longitude":72.8311,"temp":26.3,"humidity":99,"rain":0.1,"pressure":1000.4,"uv_index":4.3,"wind_gusts":37.4,"aqi":60,"pm10":20.8,"pm2_5":17.5,"no2":31.1,"co":267.0,"o3":17.0,"so2":42.4,"mosquito_risk":10,"arthritis_risk":5,"migraine_risk":0,"frizz_risk":1,"updated_at":"2026-07-01T03:46:32.796233+05:30"},{"city":"Vadodara","state":"Gujarat","latitude":22.3072,"longitude":73.1812,"temp":27.5,"humidity":88,"rain":0.0,"pressure":997.4,"uv_index":5.5,"wind_gusts":43.2,"aqi":53,"pm10":15.4,"pm2_5":13.4,"no2":23.4,"co":124.0,"o3":18.0,"so2":18.6,"mosquito_risk":7,"arthritis_risk":5,"migraine_risk":3,"frizz_risk":1,"updated_at":"2026-07-01T03:46:32.796243+05:30"},{"city":"Rajkot","state":"Gujarat","latitude":22.3039,"longitude":70.8022,"temp":28.5,"humidity":77,"rain":0.0,"pressure":987.3,"uv_index":4.35,"wind_gusts":43.6,"aqi":52,"pm10":22.1,"pm2_5":11.7,"no2":5.3,"co":93.0,"o3":43.0,"so2":5.2,"mosquito_risk":7,"arthritis_risk":5,"migraine_risk":3,"frizz_risk":1,"updated_at":"2026-07-01T03:46:32.796251+05:30"},{"city":"Thane","state":"Maharashtra","latitude":19.2183,"longitude":72.9781,"temp":25.5,"humidity":97,"rain":0.5,"pressure":1002.2,"uv_index":0.35,"wind_gusts":39.2,"aqi":39,"pm10":17.6,"pm2_5":8.4,"no2":2.8,"co":118.0,"o3":50.0,"so2":2.2,"mosquito_risk":10,"arthritis_risk":5,"migraine_risk":0,"frizz_risk":1,"updated_at":"2026-07-01T03:46:32.796259+05:30"},{"city":"Nagpur","state":"Maharashtra","latitude":21.1458,"longitude":79.0882,"temp":25.5,"humidity":94,"rain":0.0,"pressure":967.4,"uv_index":5.85,"wind_gusts":27.7,"aqi":61,"pm10":19.5,"pm2_5":16.2,"no2":16.5,"co":257.0,"o3":46.0,"so2":14.3,"mosquito_risk":7,"arthritis_risk":5,"migraine_risk":3,"frizz_risk":1,"updated_at":"2026-07-01T03:46:32.796266+05:30"},{"city":"Nashik","state":"Maharashtra","latitude":19.9975,"longitude":73.7898,"temp":23.0,"humidity":97,"rain":0.2,"pressure":939.5,"uv_index":4.35,"wind_gusts":45.4,"aqi":17,"pm10":3.1,"pm2_5":2.5,"no2":7.8,"co":112.0,"o3":36.0,"so2":4.1,"mosquito_risk":6,"arthritis_risk":5,"migraine_risk":3,"frizz_risk":1,"updated_at":"2026-07-01T03:46:32.796273+05:30"},{"city":"Aurangabad","state":"Maharashtra","latitude":19.8762,"longitude":75.3433,"temp":23.4,"humidity":95,"rain":0.0,"pressure":938.8,"uv_index":3.05,"wind_gusts":37.4,"aqi":34,"pm10":4.3,"pm2_5":3.9,"no2":10.8,"co":155.0,"o3":30.0,"so2":8.3,"mosquito_risk":3,"arthritis_risk":5,"migraine_risk":3,"frizz_risk":1,"updated_at":"2026-07-01T03:46:32.796279+05:30"},{"city":"Solapur","state":"Maharashtra","latitude":17.6599,"longitude":75.9064,"temp":23.9,"humidity":94,"rain":0.3,"pressure":953.1,"uv_index":1.95,"wind_gusts":47.2,"aqi":19,"pm10":2.3,"pm2_5":2.2,"no2":5.8,"co":127.0,"o3":38.0,"so2":1.7,"mosquito_risk":6,"arthritis_risk":5,"migraine_risk":3,"frizz_risk":1,"updated_at":"2026-07-01T03:46:32.796287+05:30"},{"city":"Kolhapur","state":"Maharashtra","latitude":16.705,"longitude":74.2433,"temp":22.6,"humidity":96,"rain":0.1,"pressure":944.2,"uv_index":0.95,"wind_gusts":47.5,"aqi":19,"pm10":1.7,"pm2_5":1.5,"no2":2.6,"co":103.0,"o3":45.0,"so2":1.3,"mosquito_risk":6,"arthritis_risk":5,"migraine_risk":3,"frizz_risk":1,"updated_at":"2026-07-01T03:46:32.796294+05:30"},{"city":"Goa","state":"Goa","latitude":15.2993,"longitude":74.124,"temp":24.6,"humidity":99,"rain":0.2,"pressure":996.2,"uv_index":2.2,"wind_gusts":32.0,"aqi":27,"pm10":9.6,"pm2_5":6.4,"no2":2.3,"co":164.0,"o3":48.0,"so2":0.5,"mosquito_risk":6,"arthritis_risk":5,"migraine_risk":3,"frizz_risk":1,"updated_at":"2026-07-01T03:46:32.796302+05:30"},{"city":"Jodhpur","state":"Rajasthan","latitude":26.2389,"longitude":73.0243,"temp":31.9,"humidity":50,"rain":0.0,"pressure":974.7,"uv_index":8.45,"wind_gusts":36.4,"aqi":162,"pm10":255.2,"pm2_5":62.4,"no2":4.7,"co":131.0,"o3":49.0,"so2":2.5,"mosquito_risk":0,"arthritis_risk":5,"migraine_risk":7,"frizz_risk":1,"updated_at":"2026-07-01T03:46:32.796309+05:30"},{"city":"Udaipur","state":"Rajasthan","latitude":24.5854,"longitude":73.7125,"temp":25.6,"humidity":86,"rain":0.0,"pressure":939.6,"uv_index":8.7,"wind_gusts":32.4,"aqi":57,"pm10":13.0,"pm2_5":10.4,"no2":14.7,"co":144.0,"o3":35.0,"so2":17.0,"mosquito_risk":7,"arthritis_risk":5,"migraine_risk":7,"frizz_risk":1,"updated_at":"2026-07-01T03:46:32.796316+05:30"},{"city":"Kota","state":"Rajasthan","latitude":25.2138,"longitude":75.8648,"temp":29.1,"humidity":69,"rain":0.0,"pressure":971.1,"uv_index":5.65,"wind_gusts":29.5,"aqi":70,"pm10":28.2,"pm2_5":22.1,"no2":12.1,"co":179.0,"o3":45.0,"so2":4.4,"mosquito_risk":7,"arthritis_risk":5,"migraine_risk":3,"frizz_risk":1,"updated_at":"2026-07-01T03:46:32.796324+05:30"},{"city":"Bikaner","state":"Rajasthan","latitude":28.0229,"longitude":73.3119,"temp":33.3,"humidity":47,"rain":0.0,"pressure":972.7,"uv_index":8.45,"wind_gusts":32.4,"aqi":162,"pm10":234.2,"pm2_5":76.1,"no2":2.5,"co":110.0,"o3":54.0,"so2":3.1,"mosquito_risk":0,"arthritis_risk":5,"migraine_risk":7,"frizz_risk":1,"updated_at":"2026-07-01T03:46:32.796330+05:30"},{"city":"Ajmer","state":"Rajasthan","latitude":26.4499,"longitude":74.6399,"temp":29.4,"humidity":58,"rain":0.0,"pressure":947.2,"uv_index":8.2,"wind_gusts":46.8,"aqi":67,"pm10":20.6,"pm2_5":14.3,"no2":8.7,"co":156.0,"o3":48.0,"so2":3.4,"mosquito_risk":4,"arthritis_risk":5,"migraine_risk":7,"frizz_risk":1,"updated_at":"2026-07-01T03:46:32.796338+05:30"},{"city":"Gwalior","state":"Madhya Pradesh","latitude":26.2183,"longitude":78.1828,"temp":30.7,"humidity":63,"rain":0.0,"pressure":975.7,"uv_index":8.2,"wind_gusts":33.1,"aqi":81,"pm10":29.0,"pm2_5":16.2,"no2":8.4,"co":146.0,"o3":57.0,"so2":2.8,"mosquito_risk":3,"arthritis_risk":5,"migraine_risk":7,"frizz_risk":1,"updated_at":"2026-07-01T03:46:32.796345+05:30"},{"city":"Indore","state":"Madhya Pradesh","latitude":22.7196,"longitude":75.8577,"temp":24.7,"humidity":87,"rain":0.0,"pressure":941.7,"uv_index":7.45,"wind_gusts":34.2,"aqi":62,"pm10":13.2,"pm2_5":11.0,"no2":11.7,"co":167.0,"o3":36.0,"so2":7.2,"mosquito_risk":3,"arthritis_risk":5,"migraine_risk":7,"frizz_risk":1,"updated_at":"2026-07-01T03:46:32.796351+05:30"},{"city":"Bhopal","state":"Madhya Pradesh","latitude":23.2599,"longitude":77.4126,"temp":25.3,"humidity":90,"rain":0.0,"pressure":947.3,"uv_index":7.3,"wind_gusts":33.5,"aqi":69,"pm10":21.7,"pm2_5":19.0,"no2":8.7,"co":234.0,"o3":55.0,"so2":3.7,"mosquito_risk":7,"arthritis_risk":5,"migraine_risk":7,"frizz_risk":1,"updated_at":"2026-07-01T03:46:32.796358+05:30"},{"city":"Jabalpur","state":"Madhya Pradesh","latitude":23.1815,"longitude":79.9864,"temp":24.8,"humidity":98,"rain":0.0,"pressure":955.3,"uv_index":8.15,"wind_gusts":36.0,"aqi":57,"pm10":29.4,"pm2_5":21.6,"no2":7.1,"co":203.0,"o3":69.0,"so2":3.1,"mosquito_risk":3,"arthritis_risk":5,"migraine_risk":7,"frizz_risk":1,"updated_at":"2026-07-01T03:46:32.796364+05:30"},{"city":"Ujjain","state":"Madhya Pradesh","latitude":23.1765,"longitude":75.7885,"temp":25.3,"humidity":85,"rain":0.0,"pressure":947.5,"uv_index":8.1,"wind_gusts":36.0,"aqi":61,"pm10":12.2,"pm2_5":9.6,"no2":8.5,"co":186.0,"o3":39.0,"so2":6.8,"mosquito_risk":7,"arthritis_risk":5,"migraine_risk":7,"frizz_risk":1,"updated_at":"2026-07-01T03:46:32.796371+05:30"},{"city":"Visakhapatnam","state":"Andhra Pradesh","latitude":17.6868,"longitude":83.2185,"temp":28.0,"humidity":85,"rain":0.0,"pressure":996.9,"uv_index":5.8,"wind_gusts":39.6,"aqi":78,"pm10":17.3,"pm2_5":16.2,"no2":26.7,"co":356.0,"o3":44.0,"so2":35.9,"mosquito_risk":7,"arthritis_risk":5,"migraine_risk":3,"frizz_risk":1,"updated_at":"2026-07-01T03:46:32.796378+05:30"},{"city":"Vijayawada","state":"Andhra Pradesh","latitude":16.5062,"longitude":80.648,"temp":29.5,"humidity":62,"rain":0.0,"pressure":997.5,"uv_index":6.45,"wind_gusts":52.6,"aqi":46,"pm10":17.7,"pm2_5":15.3,"no2":12.0,"co":163.0,"o3":42.0,"so2":6.7,"mosquito_risk":7,"arthritis_risk":5,"migraine_risk":7,"frizz_risk":1,"updated_at":"2026-07-01T03:46:32.796385+05:30"},{"city":"Guntur","state":"Andhra Pradesh","latitude":16.3067,"longitude":80.4365,"temp":29.9,"humidity":58,"rain":0.0,"pressure":998.9,"uv_index":6.5,"wind_gusts":45.0,"aqi":37,"pm10":12.9,"pm2_5":10.2,"no2":9.2,"co":163.0,"o3":47.0,"so2":7.7,"mosquito_risk":4,"arthritis_risk":5,"migraine_risk":7,"frizz_risk":1,"updated_at":"2026-07-01T03:46:32.796392+05:30"},{"city":"Nellore","state":"Andhra Pradesh","latitude":14.4426,"longitude":79.9865,"temp":29.7,"humidity":60,"rain":0.0,"pressure":1002.2,"uv_index":4.85,"wind_gusts":47.2,"aqi":25,"pm10":4.0,"pm2_5":3.3,"no2":6.1,"co":175.0,"o3":41.0,"so2":3.5,"mosquito_risk":4,"arthritis_risk":5,"migraine_risk":0,"frizz_risk":1,"updated_at":"2026-07-01T03:46:32.796400+05:30"},{"city":"Kurnool","state":"Andhra Pradesh","latitude":15.8281,"longitude":78.0373,"temp":26.4,"humidity":75,"rain":0.0,"pressure":973.9,"uv_index":3.15,"wind_gusts":61.6,"aqi":22,"pm10":2.4,"pm2_5":2.2,"no2":6.3,"co":114.0,"o3":37.0,"so2":2.9,"mosquito_risk":7,"arthritis_risk":5,"migraine_risk":3,"frizz_risk":1,"updated_at":"2026-07-01T03:46:32.796408+05:30"},{"city":"Kakinada","state":"Andhra Pradesh","latitude":16.9891,"longitude":82.2475,"temp":28.8,"humidity":76,"rain":0.0,"pressure":1001.3,"uv_index":6.4,"wind_gusts":49.0,"aqi":47,"pm10":15.9,"pm2_5":14.2,"no2":9.6,"co":143.0,"o3":57.0,"so2":4.9,"mosquito_risk":7,"arthritis_risk":5,"migraine_risk":4,"frizz_risk":1,"updated_at":"2026-07-01T03:46:32.796415+05:30"},{"city":"Tirupati","state":"Andhra Pradesh","latitude":13.6288,"longitude":79.4192,"temp":28.5,"humidity":60,"rain":0.0,"pressure":988.0,"uv_index":6.8,"wind_gusts":46.4,"aqi":21,"pm10":4.2,"pm2_5":3.7,"no2":7.7,"co":114.0,"o3":35.0,"so2":2.3,"mosquito_risk":4,"arthritis_risk":5,"migraine_risk":7,"frizz_risk":1,"updated_at":"2026-07-01T03:46:32.796421+05:30"},{"city":"Warangal","state":"Telangana","latitude":17.9689,"longitude":79.5941,"temp":26.6,"humidity":81,"rain":0.0,"pressure":973.7,"uv_index":2.45,"wind_gusts":49.0,"aqi":40,"pm10":8.1,"pm2_5":7.6,"no2":7.6,"co":137.0,"o3":43.0,"so2":1.8,"mosquito_risk":7,"arthritis_risk":5,"migraine_risk":3,"frizz_risk":1,"updated_at":"2026-07-01T03:46:32.796428+05:30"},{"city":"Nizamabad","state":"Telangana","latitude":18.6725,"longitude":78.0941,"temp":24.3,"humidity":96,"rain":0.1,"pressure":959.9,"uv_index":1.1,"wind_gusts":36.7,"aqi":47,"pm10":5.7,"pm2_5":5.1,"no2":8.3,"co":166.0,"o3":38.0,"so2":3.8,"mosquito_risk":6,"arthritis_risk":5,"migraine_risk":3,"frizz_risk":1,"updated_at":"2026-07-01T03:46:32.796435+05:30"},{"city":"Mysore","state":"Karnataka","latitude":12.2958,"longitude":76.6396,"temp":21.2,"humidity":92,"rain":0.0,"pressure":927.2,"uv_index":2.05,"wind_gusts":54.7,"aqi":17,"pm10":1.9,"pm2_5":1.7,"no2":3.8,"co":102.0,"o3":38.0,"so2":1.4,"mosquito_risk":3,"arthritis_risk":5,"migraine_risk":3,"frizz_risk":1,"updated_at":"2026-07-01T03:46:32.796441+05:30"},{"city":"Mangalore","state":"Karnataka","latitude":12.9141,"longitude":74.856,"temp":24.9,"humidity":94,"rain":0.2,"pressure":1006.9,"uv_index":3.75,"wind_gusts":36.0,"aqi":30,"pm10":8.0,"pm2_5":4.5,"no2":1.2,"co":92.0,"o3":46.0,"so2":0.6,"mosquito_risk":6,"arthritis_risk":5,"migraine_risk":0,"frizz_risk":1,"updated_at":"2026-07-01T03:46:32.796447+05:30"},{"city":"Hubli-Dharwad","state":"Karnataka","latitude":15.3647,"longitude":75.124,"temp":22.0,"humidity":98,"rain":0.0,"pressure":938.2,"uv_index":4.9,"wind_gusts":51.8,"aqi":19,"pm10":0.8,"pm2_5":0.8,"no2":2.1,"co":97.0,"o3":45.0,"so2":0.7,"mosquito_risk":3,"arthritis_risk":5,"migraine_risk":3,"frizz_risk":1,"updated_at":"2026-07-01T03:46:32.796454+05:30"},{"city":"Belgaum","state":"Karnataka","latitude":15.8497,"longitude":74.4977,"temp":21.5,"humidity":98,"rain":0.1,"pressure":922.6,"uv_index":1.85,"wind_gusts":48.6,"aqi":19,"pm10":1.3,"pm2_5":1.3,"no2":2.7,"co":96.0,"o3":45.0,"so2":0.8,"mosquito_risk":6,"arthritis_risk":5,"migraine_risk":3,"frizz_risk":1,"updated_at":"2026-07-01T03:46:36.185309+05:30"},{"city":"Coimbatore","state":"Tamil Nadu","latitude":11.0168,"longitude":76.9558,"temp":22.1,"humidity":99,"rain":0.0,"pressure":960.6,"uv_index":1.8,"wind_gusts":58.7,"aqi":21,"pm10":4.9,"pm2_5":3.4,"no2":4.7,"co":142.0,"o3":31.0,"so2":2.1,"mosquito_risk":3,"arthritis_risk":5,"migraine_risk":3,"frizz_risk":1,"updated_at":"2026-07-01T03:46:36.185342+05:30"},{"city":"Madurai","state":"Tamil Nadu","latitude":9.9252,"longitude":78.1198,"temp":24.9,"humidity":89,"rain":0.0,"pressure":992.0,"uv_index":7.2,"wind_gusts":51.1,"aqi":54,"pm10":17.6,"pm2_5":13.2,"no2":20.2,"co":114.0,"o3":10.0,"so2":4.4,"mosquito_risk":3,"arthritis_risk":5,"migraine_risk":7,"frizz_risk":1,"updated_at":"2026-07-01T03:46:36.185353+05:30"},{"city":"Trichy","state":"Tamil Nadu","latitude":10.7905,"longitude":78.7047,"temp":27.4,"humidity":66,"rain":0.0,"pressure":998.5,"uv_index":4.0,"wind_gusts":60.1,"aqi":26,"pm10":10.8,"pm2_5":6.6,"no2":5.0,"co":97.0,"o3":34.0,"so2":2.4,"mosquito_risk":7,"arthritis_risk":5,"migraine_risk":3,"frizz_risk":1,"updated_at":"2026-07-01T03:46:36.185362+05:30"},{"city":"Salem","state":"Tamil Nadu","latitude":11.6643,"longitude":78.146,"temp":23.7,"humidity":94,"rain":0.1,"pressure":976.5,"uv_index":2.2,"wind_gusts":35.6,"aqi":45,"pm10":15.6,"pm2_5":12.6,"no2":18.8,"co":259.0,"o3":20.0,"so2":7.8,"mosquito_risk":6,"arthritis_risk":5,"migraine_risk":3,"frizz_risk":1,"updated_at":"2026-07-01T03:46:36.185371+05:30"},{"city":"Tirunelveli","state":"Tamil Nadu","latitude":8.7139,"longitude":77.7567,"temp":28.0,"humidity":66,"rain":0.0,"pressure":1002.7,"uv_index":6.35,"wind_gusts":46.8,"aqi":30,"pm10":13.6,"pm2_5":7.9,"no2":4.6,"co":156.0,"o3":31.0,"so2":1.6,"mosquito_risk":7,"arthritis_risk":5,"migraine_risk":4,"frizz_risk":1,"updated_at":"2026-07-01T03:46:36.185379+05:30"},{"city":"Vellore","state":"Tamil Nadu","latitude":12.9165,"longitude":79.1325,"temp":27.4,"humidity":65,"rain":0.0,"pressure":982.0,"uv_index":3.85,"wind_gusts":49.7,"aqi":21,"pm10":4.5,"pm2_5":3.8,"no2":7.3,"co":130.0,"o3":36.0,"so2":3.0,"mosquito_risk":7,"arthritis_risk":5,"migraine_risk":3,"frizz_risk":1,"updated_at":"2026-07-01T03:46:36.185387+05:30"},{"city":"Erode","state":"Tamil Nadu","latitude":11.341,"longitude":77.7172,"temp":24.6,"humidity":83,"rain":0.0,"pressure":988.3,"uv_index":2.25,"wind_gusts":41.8,"aqi":42,"pm10":12.7,"pm2_5":10.8,"no2":12.9,"co":131.0,"o3":24.0,"so2":3.3,"mosquito_risk":3,"arthritis_risk":5,"migraine_risk":3,"frizz_risk":1,"updated_at":"2026-07-01T03:46:36.185396+05:30"},{"city":"Kochi","state":"Kerala","latitude":9.9312,"longitude":76.2673,"temp":24.8,"humidity":95,"rain":0.1,"pressure":1010.0,"uv_index":4.7,"wind_gusts":38.2,"aqi":51,"pm10":17.8,"pm2_5":11.8,"no2":12.4,"co":168.0,"o3":21.0,"so2":3.8,"mosquito_risk":6,"arthritis_risk":0,"migraine_risk":0,"frizz_risk":1,"updated_at":"2026-07-01T03:46:36.185403+05:30"},{"city":"Thiruvananthapuram","state":"Kerala","latitude":8.5241,"longitude":76.9366,"temp":23.8,"humidity":97,"rain":0.0,"pressure":1009.1,"uv_index":7.85,"wind_gusts":45.4,"aqi":39,"pm10":18.7,"pm2_5":11.1,"no2":6.8,"co":185.0,"o3":32.0,"so2":3.1,"mosquito_risk":3,"arthritis_risk":0,"migraine_risk":4,"frizz_risk":1,"updated_at":"2026-07-01T03:46:36.185411+05:30"},{"city":"Kozhikode","state":"Kerala","latitude":11.2588,"longitude":75.7804,"temp":23.4,"humidity":99,"rain":0.2,"pressure":1009.1,"uv_index":7.3,"wind_gusts":29.5,"aqi":29,"pm10":10.0,"pm2_5":5.2,"no2":0.5,"co":164.0,"o3":48.0,"so2":0.3,"mosquito_risk":6,"arthritis_risk":0,"migraine_risk":4,"frizz_risk":1,"updated_at":"2026-07-01T03:46:36.185418+05:30"},{"city":"Thrissur","state":"Kerala","latitude":10.5276,"longitude":76.2144,"temp":23.5,"humidity":99,"rain":0.1,"pressure":1008.1,"uv_index":3.05,"wind_gusts":38.2,"aqi":52,"pm10":15.6,"pm2_5":11.6,"no2":9.9,"co":200.0,"o3":24.0,"so2":2.7,"mosquito_risk":6,"arthritis_risk":0,"migraine_risk":0,"frizz_risk":1,"updated_at":"2026-07-01T03:46:36.185426+05:30"},{"city":"Kannur","state":"Kerala","latitude":11.8745,"longitude":75.3704,"temp":24.4,"humidity":94,"rain":0.3,"pressure":1007.8,"uv_index":8.25,"wind_gusts":29.9,"aqi":33,"pm10":9.6,"pm2_5":5.7,"no2":2.5,"co":107.0,"o3":39.0,"so2":1.0,"mosquito_risk":6,"arthritis_risk":5,"migraine_risk":4,"frizz_risk":1,"updated_at":"2026-07-01T03:46:36.185433+05:30"},{"city":"Patna","state":"Bihar","latitude":25.5941,"longitude":85.1376,"temp":27.7,"humidity":90,"rain":0.0,"pressure":993.7,"uv_index":8.25,"wind_gusts":24.1,"aqi":115,"pm10":59.0,"pm2_5":57.6,"no2":20.6,"co":332.0,"o3":60.0,"so2":14.4,"mosquito_risk":7,"arthritis_risk":5,"migraine_risk":7,"frizz_risk":1,"updated_at":"2026-07-01T03:46:36.185439+05:30"},{"city":"Gaya","state":"Bihar","latitude":24.7914,"longitude":85.0002,"temp":27.0,"humidity":98,"rain":0.0,"pressure":987.1,"uv_index":8.3,"wind_gusts":22.7,"aqi":100,"pm10":57.4,"pm2_5":55.8,"no2":22.1,"co":452.0,"o3":55.0,"so2":10.2,"mosquito_risk":7,"arthritis_risk":5,"migraine_risk":7,"frizz_risk":1,"updated_at":"2026-07-01T03:46:36.185446+05:30"},{"city":"Muzaffarpur","state":"Bihar","latitude":26.1209,"longitude":85.3647,"temp":26.8,"humidity":90,"rain":0.0,"pressure":994.2,"uv_index":8.2,"wind_gusts":29.5,"aqi":115,"pm10":62.9,"pm2_5":61.7,"no2":19.6,"co":312.0,"o3":63.0,"so2":15.2,"mosquito_risk":7,"arthritis_risk":5,"migraine_risk":7,"frizz_risk":1,"updated_at":"2026-07-01T03:46:36.185453+05:30"},{"city":"Bhagalpur","state":"Bihar","latitude":25.2425,"longitude":87.0117,"temp":26.4,"humidity":97,"rain":0.0,"pressure":995.0,"uv_index":7.65,"wind_gusts":26.6,"aqi":133,"pm10":66.4,"pm2_5":65.9,"no2":14.4,"co":308.0,"o3":76.0,"so2":16.2,"mosquito_risk":7,"arthritis_risk":5,"migraine_risk":7,"frizz_risk":1,"updated_at":"2026-07-01T03:46:36.185459+05:30"},{"city":"Ranchi","state":"Jharkhand","latitude":23.3441,"longitude":85.3096,"temp":22.8,"humidity":96,"rain":0.0,"pressure":931.1,"uv_index":8.9,"wind_gusts":29.5,"aqi":86,"pm10":19.8,"pm2_5":19.7,"no2":10.3,"co":341.0,"o3":58.0,"so2":5.6,"mosquito_risk":3,"arthritis_risk":5,"migraine_risk":7,"frizz_risk":1,"updated_at":"2026-07-01T03:46:36.185466+05:30"},{"city":"Jamshedpur","state":"Jharkhand","latitude":22.8046,"longitude":86.2029,"temp":26.5,"humidity":97,"rain":0.1,"pressure":984.2,"uv_index":5.1,"wind_gusts":19.1,"aqi":120,"pm10":44.1,"pm2_5":43.9,"no2":32.8,"co":461.0,"o3":38.0,"so2":27.6,"mosquito_risk":10,"arthritis_risk":5,"migraine_risk":3,"frizz_risk":1,"updated_at":"2026-07-01T03:46:36.185473+05:30"},{"city":"Dhanbad","state":"Jharkhand","latitude":23.7957,"longitude":86.4304,"temp":26.1,"humidity":98,"rain":0.2,"pressure":973.4,"uv_index":6.3,"wind_gusts":23.4,"aqi":162,"pm10":116.9,"pm2_5":115.9,"no2":66.7,"co":410.0,"o3":15.0,"so2":200.4,"mosquito_risk":10,"arthritis_risk":5,"migraine_risk":7,"frizz_risk":1,"updated_at":"2026-07-01T03:46:36.185480+05:30"},{"city":"Bokaro","state":"Jharkhand","latitude":23.6693,"longitude":86.1511,"temp":27.1,"humidity":92,"rain":0.1,"pressure":977.2,"uv_index":7.3,"wind_gusts":22.7,"aqi":154,"pm10":100.1,"pm2_5":99.2,"no2":52.1,"co":3986.0,"o3":36.0,"so2":179.6,"mosquito_risk":10,"arthritis_risk":5,"migraine_risk":7,"frizz_risk":1,"updated_at":"2026-07-01T03:46:36.185487+05:30"},{"city":"Bhubaneswar","state":"Odisha","latitude":20.2961,"longitude":85.8245,"temp":25.7,"humidity":97,"rain":0.2,"pressure":996.2,"uv_index":7.15,"wind_gusts":32.4,"aqi":69,"pm10":24.2,"pm2_5":24.0,"no2":14.2,"co":372.0,"o3":52.0,"so2":4.5,"mosquito_risk":10,"arthritis_risk":5,"migraine_risk":7,"frizz_risk":1,"updated_at":"2026-07-01T03:46:36.185494+05:30"},{"city":"Cuttack","state":"Odisha","latitude":20.4625,"longitude":85.8828,"temp":25.6,"humidity":96,"rain":0.2,"pressure":997.9,"uv_index":5.45,"wind_gusts":30.6,"aqi":69,"pm10":24.2,"pm2_5":24.0,"no2":14.2,"co":359.0,"o3":52.0,"so2":4.5,"mosquito_risk":10,"arthritis_risk":5,"migraine_risk":3,"frizz_risk":1,"updated_at":"2026-07-01T03:46:36.185501+05:30"},{"city":"Rourkela","state":"Odisha","latitude":22.2604,"longitude":84.8536,"temp":25.4,"humidity":98,"rain":0.0,"pressure":978.6,"uv_index":8.6,"wind_gusts":29.2,"aqi":67,"pm10":16.8,"pm2_5":16.8,"no2":13.2,"co":477.0,"o3":60.0,"so2":4.8,"mosquito_risk":7,"arthritis_risk":5,"migraine_risk":7,"frizz_risk":1,"updated_at":"2026-07-01T03:46:36.185507+05:30"},{"city":"Raipur","state":"Chhattisgarh","latitude":21.2514,"longitude":81.6296,"temp":25.0,"humidity":96,"rain":0.1,"pressure":968.5,"uv_index":5.9,"wind_gusts":22.7,"aqi":79,"pm10":33.3,"pm2_5":31.4,"no2":34.7,"co":359.0,"o3":33.0,"so2":49.7,"mosquito_risk":10,"arthritis_risk":5,"migraine_risk":3,"frizz_risk":1,"updated_at":"2026-07-01T03:46:36.185514+05:30"},{"city":"Bhilai","state":"Chhattisgarh","latitude":21.1938,"longitude":81.3509,"temp":24.9,"humidity":95,"rain":0.2,"pressure":969.0,"uv_index":7.5,"wind_gusts":28.4,"aqi":72,"pm10":33.1,"pm2_5":30.7,"no2":27.2,"co":601.0,"o3":35.0,"so2":40.5,"mosquito_risk":6,"arthritis_risk":5,"migraine_risk":7,"frizz_risk":1,"updated_at":"2026-07-01T03:46:36.185521+05:30"},{"city":"Guwahati","state":"Assam","latitude":26.1158,"longitude":91.7086,"temp":25.4,"humidity":99,"rain":0.0,"pressure":996.5,"uv_index":8.25,"wind_gusts":22.0,"aqi":60,"pm10":8.9,"pm2_5":8.8,"no2":8.0,"co":373.0,"o3":42.0,"so2":1.0,"mosquito_risk":7,"arthritis_risk":5,"migraine_risk":7,"frizz_risk":1,"updated_at":"2026-07-01T03:46:36.185528+05:30"},{"city":"Agartala","state":"Tripura","latitude":23.8315,"longitude":91.2868,"temp":25.3,"humidity":99,"rain":0.0,"pressure":1000.4,"uv_index":8.05,"wind_gusts":32.8,"aqi":58,"pm10":24.0,"pm2_5":23.3,"no2":13.7,"co":205.0,"o3":43.0,"so2":2.7,"mosquito_risk":7,"arthritis_risk":5,"migraine_risk":4,"frizz_risk":1,"updated_at":"2026-07-01T03:46:36.185534+05:30"},{"city":"Shillong","state":"Meghalaya","latitude":25.5788,"longitude":91.8933,"temp":19.8,"humidity":97,"rain":0.1,"pressure":853.3,"uv_index":5.1,"wind_gusts":19.4,"aqi":33,"pm10":5.5,"pm2_5":5.4,"no2":4.2,"co":178.0,"o3":66.0,"so2":2.5,"mosquito_risk":6,"arthritis_risk":10,"migraine_risk":3,"frizz_risk":1,"updated_at":"2026-07-01T03:46:36.185541+05:30"},{"city":"Imphal","state":"Manipur","latitude":24.817,"longitude":93.9368,"temp":23.1,"humidity":96,"rain":0.1,"pressure":919.0,"uv_index":5.0,"wind_gusts":22.7,"aqi":39,"pm10":9.8,"pm2_5":9.7,"no2":7.7,"co":367.0,"o3":32.0,"so2":2.1,"mosquito_risk":6,"arthritis_risk":5,"migraine_risk":3,"frizz_risk":1,"updated_at":"2026-07-01T03:46:36.185548+05:30"},{"city":"Aizawl","state":"Mizoram","latitude":23.7271,"longitude":92.7176,"temp":19.9,"humidity":98,"rain":0.0,"pressure":887.8,"uv_index":6.2,"wind_gusts":25.6,"aqi":26,"pm10":5.5,"pm2_5":5.4,"no2":3.9,"co":158.0,"o3":40.0,"so2":0.5,"mosquito_risk":3,"arthritis_risk":10,"migraine_risk":7,"frizz_risk":1,"updated_at":"2026-07-01T03:46:36.185554+05:30"},{"city":"Kohima","state":"Nagaland","latitude":25.6701,"longitude":94.1077,"temp":20.1,"humidity":91,"rain":0.0,"pressure":851.9,"uv_index":5.25,"wind_gusts":22.3,"aqi":27,"pm10":4.9,"pm2_5":4.9,"no2":7.2,"co":216.0,"o3":28.0,"so2":0.9,"mosquito_risk":3,"arthritis_risk":5,"migraine_risk":3,"frizz_risk":1,"updated_at":"2026-07-01T03:46:36.185561+05:30"},{"city":"Gangtok","state":"Sikkim","latitude":27.3314,"longitude":88.6138,"temp":18.0,"humidity":98,"rain":0.1,"pressure":834.5,"uv_index":6.85,"wind_gusts":29.2,"aqi":47,"pm10":21.7,"pm2_5":20.4,"no2":10.5,"co":434.0,"o3":84.0,"so2":2.3,"mosquito_risk":6,"arthritis_risk":10,"migraine_risk":7,"frizz_risk":1,"updated_at":"2026-07-01T03:46:36.185568+05:30"},{"city":"Siliguri","state":"West Bengal","latitude":26.7271,"longitude":88.3953,"temp":25.2,"humidity":93,"rain":0.2,"pressure":987.7,"uv_index":8.3,"wind_gusts":25.2,"aqi":89,"pm10":51.3,"pm2_5":48.3,"no2":15.1,"co":275.0,"o3":84.0,"so2":5.7,"mosquito_risk":10,"arthritis_risk":5,"migraine_risk":7,"frizz_risk":1,"updated_at":"2026-07-01T03:46:39.551844+05:30"},{"city":"Durgapur","state":"West Bengal","latitude":23.5204,"longitude":87.3119,"temp":25.7,"humidity":98,"rain":0.1,"pressure":988.7,"uv_index":8.75,"wind_gusts":25.6,"aqi":159,"pm10":44.8,"pm2_5":44.5,"no2":29.4,"co":623.0,"o3":52.0,"so2":32.7,"mosquito_risk":10,"arthritis_risk":5,"migraine_risk":7,"frizz_risk":1,"updated_at":"2026-07-01T03:46:39.551878+05:30"},{"city":"Asansol","state":"West Bengal","latitude":23.6739,"longitude":86.9524,"temp":25.2,"humidity":99,"rain":0.1,"pressure":987.3,"uv_index":7.0,"wind_gusts":26.3,"aqi":157,"pm10":51.7,"pm2_5":51.5,"no2":37.5,"co":374.0,"o3":32.0,"so2":39.8,"mosquito_risk":10,"arthritis_risk":5,"migraine_risk":7,"frizz_risk":1,"updated_at":"2026-07-01T03:46:39.551889+05:30"},{"city":"Pondicherry","state":"Puducherry","latitude":11.9139,"longitude":79.8145,"temp":28.3,"humidity":67,"rain":0.0,"pressure":1006.0,"uv_index":2.3,"wind_gusts":43.9,"aqi":44,"pm10":15.5,"pm2_5":12.6,"no2":14.9,"co":307.0,"o3":41.0,"so2":9.0,"mosquito_risk":7,"arthritis_risk":5,"migraine_risk":0,"frizz_risk":1,"updated_at":"2026-07-01T03:46:39.551898+05:30"},{"city":"Port Blair","state":"Andaman and Nicobar Islands","latitude":11.6234,"longitude":92.7265,"temp":26.9,"humidity":88,"rain":0.1,"pressure":1004.2,"uv_index":3.25,"wind_gusts":49.3,"aqi":28,"pm10":9.3,"pm2_5":5.8,"no2":0.2,"co":85.0,"o3":68.0,"so2":0.5,"mosquito_risk":10,"arthritis_risk":5,"migraine_risk":0,"frizz_risk":1,"updated_at":"2026-07-01T03:46:39.551907+05:30"},{"city":"Haridwar","state":"Uttarakhand","latitude":29.9457,"longitude":78.1642,"temp":25.6,"humidity":96,"rain":0.3,"pressure":968.0,"uv_index":6.15,"wind_gusts":24.5,"aqi":73,"pm10":23.4,"pm2_5":19.1,"no2":14.4,"co":300.0,"o3":60.0,"so2":9.1,"mosquito_risk":10,"arthritis_risk":5,"migraine_risk":7,"frizz_risk":1,"updated_at":"2026-07-01T03:46:39.551915+05:30"},{"city":"Rishikesh","state":"Uttarakhand","latitude":30.0869,"longitude":78.2676,"temp":26.2,"humidity":96,"rain":0.3,"pressure":960.8,"uv_index":6.85,"wind_gusts":14.4,"aqi":60,"pm10":23.5,"pm2_5":15.9,"no2":11.3,"co":312.0,"o3":69.0,"so2":5.4,"mosquito_risk":10,"arthritis_risk":5,"migraine_risk":7,"frizz_risk":1,"updated_at":"2026-07-01T03:46:39.551922+05:30"},{"city":"Nainital","state":"Uttarakhand","latitude":29.3919,"longitude":79.4542,"temp":16.4,"humidity":100,"rain":0.0,"pressure":801.6,"uv_index":4.65,"wind_gusts":22.3,"aqi":42,"pm10":16.6,"pm2_5":10.1,"no2":6.0,"co":201.0,"o3":93.0,"so2":2.1,"mosquito_risk":3,"arthritis_risk":10,"migraine_risk":3,"frizz_risk":1,"updated_at":"2026-07-01T03:46:39.551952+05:30"},{"city":"Mussoorie","state":"Uttarakhand","latitude":30.4599,"longitude":78.0664,"temp":16.6,"humidity":100,"rain":0.4,"pressure":799.1,"uv_index":4.9,"wind_gusts":19.4,"aqi":67,"pm10":18.2,"pm2_5":14.0,"no2":9.8,"co":252.0,"o3":88.0,"so2":7.3,"mosquito_risk":6,"arthritis_risk":10,"migraine_risk":3,"frizz_risk":1,"updated_at":"2026-07-01T03:46:39.551963+05:30"},{"city":"Dharamshala","state":"Himachal Pradesh","latitude":32.219,"longitude":76.3234,"temp":21.5,"humidity":94,"rain":0.3,"pressure":864.0,"uv_index":6.5,"wind_gusts":31.3,"aqi":40,"pm10":21.1,"pm2_5":14.7,"no2":10.1,"co":224.0,"o3":69.0,"so2":0.1,"mosquito_risk":6,"arthritis_risk":5,"migraine_risk":7,"frizz_risk":1,"updated_at":"2026-07-01T03:46:39.551977+05:30"},{"city":"Dalhousie","state":"Himachal Pradesh","latitude":32.5387,"longitude":75.971,"temp":16.9,"humidity":97,"rain":0.0,"pressure":800.1,"uv_index":7.9,"wind_gusts":23.0,"aqi":83,"pm10":36.4,"pm2_5":21.7,"no2":7.9,"co":343.0,"o3":103.0,"so2":1.2,"mosquito_risk":3,"arthritis_risk":10,"migraine_risk":7,"frizz_risk":1,"updated_at":"2026-07-01T03:46:39.551992+05:30"},{"city":"Patiala","state":"Punjab","latitude":30.3398,"longitude":76.3869,"temp":28.4,"humidity":76,"rain":0.0,"pressure":970.9,"uv_index":5.25,"wind_gusts":40.7,"aqi":387,"pm10":1218.2,"pm2_5":165.3,"no2":14.3,"co":453.0,"o3":68.0,"so2":14.1,"mosquito_risk":7,"arthritis_risk":5,"migraine_risk":3,"frizz_risk":1,"updated_at":"2026-07-01T03:46:39.552007+05:30"},{"city":"Bhatinda","state":"Punjab","latitude":30.211,"longitude":74.9455,"temp":32.0,"humidity":63,"rain":0.0,"pressure":974.3,"uv_index":5.15,"wind_gusts":31.0,"aqi":272,"pm10":1575.8,"pm2_5":381.8,"no2":13.6,"co":378.0,"o3":74.0,"so2":18.4,"mosquito_risk":3,"arthritis_risk":5,"migraine_risk":3,"frizz_risk":1,"updated_at":"2026-07-01T03:46:39.552019+05:30"},{"city":"Rohtak","state":"Haryana","latitude":28.8955,"longitude":76.6066,"temp":30.9,"humidity":70,"rain":0.0,"pressure":973.7,"uv_index":6.7,"wind_gusts":29.5,"aqi":1520,"pm10":1348.6,"pm2_5":228.2,"no2":23.8,"co":547.0,"o3":51.0,"so2":19.2,"mosquito_risk":3,"arthritis_risk":5,"migraine_risk":7,"frizz_risk":1,"updated_at":"2026-07-01T03:46:39.552026+05:30"},{"city":"Panipat","state":"Haryana","latitude":29.3909,"longitude":76.9635,"temp":28.8,"humidity":79,"rain":0.0,"pressure":973.0,"uv_index":5.65,"wind_gusts":31.7,"aqi":2011,"pm10":840.1,"pm2_5":149.9,"no2":24.4,"co":457.0,"o3":47.0,"so2":17.4,"mosquito_risk":7,"arthritis_risk":5,"migraine_risk":3,"frizz_risk":1,"updated_at":"2026-07-01T03:46:39.552033+05:30"},{"city":"Mathura","state":"Uttar Pradesh","latitude":27.4924,"longitude":77.6737,"temp":28.0,"humidity":76,"rain":0.0,"pressure":979.1,"uv_index":7.95,"wind_gusts":29.2,"aqi":656,"pm10":150.9,"pm2_5":39.9,"no2":12.9,"co":172.0,"o3":59.0,"so2":2.7,"mosquito_risk":7,"arthritis_risk":5,"migraine_risk":7,"frizz_risk":1,"updated_at":"2026-07-01T03:46:39.552040+05:30"},{"city":"Vrindavan","state":"Uttar Pradesh","latitude":27.5823,"longitude":77.7027,"temp":28.0,"humidity":75,"rain":0.0,"pressure":979.5,"uv_index":7.9,"wind_gusts":30.2,"aqi":656,"pm10":150.9,"pm2_5":39.9,"no2":12.9,"co":170.0,"o3":59.0,"so2":2.7,"mosquito_risk":7,"arthritis_risk":5,"migraine_risk":7,"frizz_risk":1,"updated_at":"2026-07-01T03:46:39.552046+05:30"},{"city":"Ayodhya","state":"Uttar Pradesh","latitude":26.7922,"longitude":82.1998,"temp":27.7,"humidity":88,"rain":0.1,"pressure":988.8,"uv_index":5.8,"wind_gusts":24.8,"aqi":98,"pm10":46.3,"pm2_5":38.0,"no2":12.3,"co":393.0,"o3":85.0,"so2":6.8,"mosquito_risk":10,"arthritis_risk":5,"migraine_risk":3,"frizz_risk":1,"updated_at":"2026-07-01T03:46:39.552053+05:30"},{"city":"Ratlam","state":"Madhya Pradesh","latitude":23.3315,"longitude":75.0367,"temp":25.3,"humidity":86,"rain":0.0,"pressure":948.4,"uv_index":6.45,"wind_gusts":34.9,"aqi":58,"pm10":11.6,"pm2_5":8.8,"no2":8.1,"co":163.0,"o3":36.0,"so2":8.0,"mosquito_risk":7,"arthritis_risk":5,"migraine_risk":7,"frizz_risk":1,"updated_at":"2026-07-01T03:46:39.552060+05:30"},{"city":"Sagar","state":"Madhya Pradesh","latitude":23.8388,"longitude":78.7378,"temp":25.4,"humidity":86,"rain":0.0,"pressure":943.7,"uv_index":8.7,"wind_gusts":31.3,"aqi":65,"pm10":31.1,"pm2_5":26.5,"no2":8.0,"co":222.0,"o3":60.0,"so2":4.0,"mosquito_risk":7,"arthritis_risk":5,"migraine_risk":7,"frizz_risk":1,"updated_at":"2026-07-01T03:46:39.552067+05:30"},{"city":"Satna","state":"Madhya Pradesh","latitude":24.6005,"longitude":80.8322,"temp":27.1,"humidity":88,"rain":0.0,"pressure":964.4,"uv_index":8.3,"wind_gusts":22.7,"aqi":70,"pm10":23.5,"pm2_5":18.9,"no2":10.2,"co":217.0,"o3":61.0,"so2":4.7,"mosquito_risk":7,"arthritis_risk":5,"migraine_risk":7,"frizz_risk":1,"updated_at":"2026-07-01T03:46:39.552074+05:30"},{"city":"Akola","state":"Maharashtra","latitude":20.7002,"longitude":77.0082,"temp":25.9,"humidity":95,"rain":0.3,"pressure":969.6,"uv_index":1.3,"wind_gusts":39.2,"aqi":56,"pm10":10.2,"pm2_5":8.9,"no2":13.0,"co":163.0,"o3":36.0,"so2":8.0,"mosquito_risk":10,"arthritis_risk":5,"migraine_risk":3,"frizz_risk":1,"updated_at":"2026-07-01T03:46:39.552082+05:30"},{"city":"Amravati","state":"Maharashtra","latitude":20.9374,"longitude":77.7796,"temp":25.1,"humidity":93,"rain":0.1,"pressure":961.8,"uv_index":1.4,"wind_gusts":33.5,"aqi":57,"pm10":10.0,"pm2_5":8.7,"no2":12.7,"co":165.0,"o3":40.0,"so2":8.5,"mosquito_risk":10,"arthritis_risk":5,"migraine_risk":3,"frizz_risk":1,"updated_at":"2026-07-01T03:46:39.552090+05:30"},{"city":"Latur","state":"Maharashtra","latitude":18.4088,"longitude":76.5604,"temp":23.5,"humidity":91,"rain":0.1,"pressure":935.1,"uv_index":4.0,"wind_gusts":46.8,"aqi":21,"pm10":3.2,"pm2_5":3.0,"no2":6.0,"co":145.0,"o3":38.0,"so2":1.4,"mosquito_risk":6,"arthritis_risk":5,"migraine_risk":3,"frizz_risk":1,"updated_at":"2026-07-01T03:46:39.552097+05:30"},{"city":"Nanded","state":"Maharashtra","latitude":19.1383,"longitude":77.3091,"temp":25.1,"humidity":94,"rain":0.2,"pressure":963.7,"uv_index":0.9,"wind_gusts":39.2,"aqi":47,"pm10":5.7,"pm2_5":5.1,"no2":8.8,"co":156.0,"o3":34.0,"so2":3.3,"mosquito_risk":10,"arthritis_risk":5,"migraine_risk":3,"frizz_risk":1,"updated_at":"2026-07-01T03:46:39.552104+05:30"},{"city":"Gulbarga","state":"Karnataka","latitude":17.3297,"longitude":76.8343,"temp":24.2,"humidity":88,"rain":0.2,"pressure":955.0,"uv_index":2.05,"wind_gusts":52.6,"aqi":20,"pm10":2.6,"pm2_5":2.4,"no2":7.0,"co":125.0,"o3":37.0,"so2":2.5,"mosquito_risk":6,"arthritis_risk":5,"migraine_risk":3,"frizz_risk":1,"updated_at":"2026-07-01T03:46:39.552110+05:30"},{"city":"Bidar","state":"Karnataka","latitude":17.9104,"longitude":77.5199,"temp":23.2,"humidity":90,"rain":0.1,"pressure":931.1,"uv_index":3.5,"wind_gusts":55.4,"aqi":21,"pm10":4.0,"pm2_5":3.6,"no2":6.9,"co":134.0,"o3":37.0,"so2":1.9,"mosquito_risk":6,"arthritis_risk":5,"migraine_risk":3,"frizz_risk":1,"updated_at":"2026-07-01T03:46:39.552117+05:30"},{"city":"Hospet","state":"Karnataka","latitude":15.2689,"longitude":76.3909,"temp":23.6,"humidity":88,"rain":0.0,"pressure":953.5,"uv_index":6.1,"wind_gusts":60.1,"aqi":19,"pm10":1.3,"pm2_5":1.2,"no2":3.2,"co":106.0,"o3":42.0,"so2":1.1,"mosquito_risk":3,"arthritis_risk":5,"migraine_risk":7,"frizz_risk":1,"updated_at":"2026-07-01T03:46:39.552124+05:30"},{"city":"Tirupur","state":"Tamil Nadu","latitude":11.1085,"longitude":77.3411,"temp":23.3,"humidity":91,"rain":0.0,"pressure":974.3,"uv_index":2.5,"wind_gusts":59.4,"aqi":48,"pm10":15.5,"pm2_5":13.4,"no2":16.1,"co":124.0,"o3":19.0,"so2":4.1,"mosquito_risk":3,"arthritis_risk":5,"migraine_risk":3,"frizz_risk":1,"updated_at":"2026-07-01T03:46:39.552130+05:30"},{"city":"Alappuzha","state":"Kerala","latitude":9.4981,"longitude":76.3388,"temp":25.1,"humidity":94,"rain":0.1,"pressure":1010.0,"uv_index":7.55,"wind_gusts":40.3,"aqi":45,"pm10":16.8,"pm2_5":10.2,"no2":8.2,"co":83.0,"o3":32.0,"so2":3.0,"mosquito_risk":10,"arthritis_risk":0,"migraine_risk":4,"frizz_risk":1,"updated_at":"2026-07-01T03:46:39.552136+05:30"},{"city":"Munnar","state":"Kerala","latitude":10.0889,"longitude":77.0595,"temp":16.2,"humidity":99,"rain":0.0,"pressure":856.1,"uv_index":5.95,"wind_gusts":45.4,"aqi":20,"pm10":6.8,"pm2_5":3.9,"no2":4.6,"co":86.0,"o3":23.0,"so2":0.9,"mosquito_risk":3,"arthritis_risk":10,"migraine_risk":3,"frizz_risk":1,"updated_at":"2026-07-01T03:46:39.552144+05:30"},{"city":"Silchar","state":"Assam","latitude":24.8333,"longitude":92.7789,"temp":26.0,"humidity":98,"rain":0.1,"pressure":1000.1,"uv_index":7.55,"wind_gusts":17.6,"aqi":58,"pm10":18.2,"pm2_5":17.6,"no2":9.1,"co":210.0,"o3":52.0,"so2":5.8,"mosquito_risk":10,"arthritis_risk":5,"migraine_risk":4,"frizz_risk":1,"updated_at":"2026-07-01T03:46:39.552150+05:30"},{"city":"Dibrugarh","state":"Assam","latitude":27.4728,"longitude":94.912,"temp":26.0,"humidity":95,"rain":0.0,"pressure":990.0,"uv_index":8.4,"wind_gusts":22.7,"aqi":77,"pm10":25.4,"pm2_5":24.8,"no2":17.5,"co":360.0,"o3":31.0,"so2":2.2,"mosquito_risk":7,"arthritis_risk":5,"migraine_risk":7,"frizz_risk":1,"updated_at":"2026-07-01T03:46:39.552157+05:30"}]