[{"city":"Delhi","state":"Delhi","latitude":28.6139,"longitude":77.209,"temp":33.7,"humidity":30,"rain":0.0,"pressure":985.6,"uv_index":5.95,"wind_gusts":20.2,"aqi":169,"pm10":182.1,"pm2_5":48.2,"mosquito_risk":0,"arthritis_risk":5,"migraine_risk":3,"frizz_risk":0,"updated_at":"2026-03-07T15:57:45.319459+05:30"},{"city":"Mumbai","state":"Maharashtra","latitude":19.076,"longitude":72.8777,"temp":26.9,"humidity":82,"rain":0.0,"pressure":1007.9,"uv_index":7.5,"wind_gusts":24.8,"aqi":137,"pm10":45.5,"pm2_5":42.4,"mosquito_risk":7,"arthritis_risk":5,"migraine_risk":4,"frizz_risk":1,"updated_at":"2026-03-07T15:57:45.319499+05:30"},{"city":"Bangalore","state":"Karnataka","latitude":12.9716,"longitude":77.5946,"temp":32.4,"humidity":25,"rain":0.0,"pressure":911.2,"uv_index":9.2,"wind_gusts":24.8,"aqi":127,"pm10":35.3,"pm2_5":29.5,"mosquito_risk":0,"arthritis_risk":5,"migraine_risk":7,"frizz_risk":0,"updated_at":"2026-03-07T15:57:45.319514+05:30"},{"city":"Hyderabad","state":"Telangana","latitude":17.385,"longitude":78.4867,"temp":36.7,"humidity":17,"rain":0.0,"pressure":952.7,"uv_index":8.5,"wind_gusts":27.0,"aqi":113,"pm10":21.7,"pm2_5":15.7,"mosquito_risk":0,"arthritis_risk":5,"migraine_risk":10,"frizz_risk":0,"updated_at":"2026-03-07T15:57:45.319524+05:30"},{"city":"Chennai","state":"Tamil Nadu","latitude":13.0827,"longitude":80.2707,"temp":32.5,"humidity":52,"rain":0.0,"pressure":1006.6,"uv_index":8.9,"wind_gusts":34.6,"aqi":96,"pm10":36.4,"pm2_5":28.8,"mosquito_risk":0,"arthritis_risk":5,"migraine_risk":4,"frizz_risk":1,"updated_at":"2026-03-07T15:57:45.319533+05:30"},{"city":"Kolkata","state":"West Bengal","latitude":22.5726,"longitude":88.3639,"temp":28.8,"humidity":61,"rain":0.0,"pressure":1008.1,"uv_index":7.85,"wind_gusts":18.0,"aqi":141,"pm10":72.2,"pm2_5":56.7,"mosquito_risk":7,"arthritis_risk":0,"migraine_risk":4,"frizz_risk":1,"updated_at":"2026-03-07T15:57:45.319541+05:30"},{"city":"Pune","state":"Maharashtra","latitude":18.5204,"longitude":73.8567,"temp":37.7,"humidity":16,"rain":0.0,"pressure":948.3,"uv_index":8.05,"wind_gusts":24.8,"aqi":108,"pm10":17.3,"pm2_5":14.8,"mosquito_risk":0,"arthritis_risk":5,"migraine_risk":10,"frizz_risk":0,"updated_at":"2026-03-07T15:57:45.319553+05:30"},{"city":"Ahmedabad","state":"Gujarat","latitude":23.0225,"longitude":72.5714,"temp":37.2,"humidity":21,"rain":0.0,"pressure":1002.9,"uv_index":7.3,"wind_gusts":13.7,"aqi":107,"pm10":21.8,"pm2_5":16.4,"mosquito_risk":0,"arthritis_risk":5,"migraine_risk":7,"frizz_risk":0,"updated_at":"2026-03-07T15:57:45.319561+05:30"},{"city":"Jaipur","state":"Rajasthan","latitude":26.9124,"longitude":75.7873,"temp":37.2,"humidity":13,"rain":0.0,"pressure":962.5,"uv_index":6.75,"wind_gusts":20.2,"aqi":86,"pm10":53.1,"pm2_5":14.8,"mosquito_risk":0,"arthritis_risk":5,"migraine_risk":10,"frizz_risk":0,"updated_at":"2026-03-07T15:57:45.319568+05:30"},{"city":"Lucknow","state":"Uttar Pradesh","latitude":26.8467,"longitude":80.9462,"temp":32.1,"humidity":40,"rain":0.0,"pressure":996.2,"uv_index":6.5,"wind_gusts":16.9,"aqi":162,"pm10":94.1,"pm2_5":68.0,"mosquito_risk":0,"arthritis_risk":5,"migraine_risk":7,"frizz_risk":1,"updated_at":"2026-03-07T15:57:45.319576+05:30"},{"city":"Kanpur","state":"Uttar Pradesh","latitude":26.4499,"longitude":80.3319,"temp":31.6,"humidity":45,"rain":0.0,"pressure":994.4,"uv_index":6.5,"wind_gusts":14.4,"aqi":160,"pm10":113.9,"pm2_5":67.8,"mosquito_risk":0,"arthritis_risk":5,"migraine_risk":7,"frizz_risk":1,"updated_at":"2026-03-07T15:57:45.319582+05:30"},{"city":"Chandigarh","state":"Chandigarh","latitude":30.7333,"longitude":76.7794,"temp":31.6,"humidity":40,"rain":0.0,"pressure":971.7,"uv_index":5.9,"wind_gusts":19.1,"aqi":159,"pm10":77.3,"pm2_5":50.8,"mosquito_risk":0,"arthritis_risk":5,"migraine_risk":3,"frizz_risk":1,"updated_at":"2026-03-07T15:57:45.319589+05:30"},{"city":"Srinagar","state":"Jammu and Kashmir","latitude":34.0837,"longitude":74.7973,"temp":19.2,"humidity":47,"rain":0.0,"pressure":845.8,"uv_index":5.6,"wind_gusts":16.9,"aqi":117,"pm10":42.7,"pm2_5":25.4,"mosquito_risk":0,"arthritis_risk":5,"migraine_risk":3,"frizz_risk":0,"updated_at":"2026-03-07T15:57:45.319596+05:30"},{"city":"Jammu","state":"Jammu and Kashmir","latitude":32.7266,"longitude":74.857,"temp":28.8,"humidity":59,"rain":0.0,"pressure":976.1,"uv_index":5.35,"wind_gusts":11.5,"aqi":133,"pm10":48.1,"pm2_5":36.2,"mosquito_risk":4,"arthritis_risk":5,"migraine_risk":3,"frizz_risk":1,"updated_at":"2026-03-07T15:57:45.319603+05:30"},{"city":"Amritsar","state":"Punjab","latitude":31.634,"longitude":74.8723,"temp":31.8,"humidity":40,"rain":0.0,"pressure":983.6,"uv_index":6.3,"wind_gusts":18.7,"aqi":152,"pm10":74.3,"pm2_5":34.8,"mosquito_risk":0,"arthritis_risk":5,"migraine_risk":7,"frizz_risk":1,"updated_at":"2026-03-07T15:57:45.319609+05:30"},{"city":"Ludhiana","state":"Punjab","latitude":30.901,"longitude":75.8573,"temp":32.4,"humidity":38,"rain":0.0,"pressure":981.6,"uv_index":6.1,"wind_gusts":16.2,"aqi":169,"pm10":99.0,"pm2_5":52.2,"mosquito_risk":0,"arthritis_risk":5,"migraine_risk":7,"frizz_risk":1,"updated_at":"2026-03-07T15:57:45.319616+05:30"},{"city":"Jalandhar","state":"Punjab","latitude":31.326,"longitude":75.5762,"temp":32.2,"humidity":38,"rain":0.0,"pressure":982.9,"uv_index":6.3,"wind_gusts":18.4,"aqi":164,"pm10":90.3,"pm2_5":46.8,"mosquito_risk":0,"arthritis_risk":5,"migraine_risk":7,"frizz_risk":1,"updated_at":"2026-03-07T15:57:45.319625+05:30"},{"city":"Dehradun","state":"Uttarakhand","latitude":30.6284,"longitude":78.0322,"temp":21.4,"humidity":64,"rain":0.0,"pressure":834.6,"uv_index":6.2,"wind_gusts":27.0,"aqi":107,"pm10":55.5,"pm2_5":40.4,"mosquito_risk":3,"arthritis_risk":5,"migraine_risk":7,"frizz_risk":0,"updated_at":"2026-03-07T15:57:45.319632+05:30"},{"city":"Shimla","state":"Himachal Pradesh","latitude":31.1048,"longitude":77.1734,"temp":20.5,"humidity":62,"rain":0.0,"pressure":790.2,"uv_index":6.3,"wind_gusts":35.6,"aqi":125,"pm10":43.3,"pm2_5":32.0,"mosquito_risk":3,"arthritis_risk":5,"migraine_risk":7,"frizz_risk":0,"updated_at":"2026-03-07T15:57:45.319638+05:30"},{"city":"Manali","state":"Himachal Pradesh","latitude":32.2396,"longitude":77.1887,"temp":22.7,"humidity":32,"rain":0.0,"pressure":825.5,"uv_index":7.2,"wind_gusts":40.3,"aqi":87,"pm10":19.7,"pm2_5":9.1,"mosquito_risk":0,"arthritis_risk":5,"migraine_risk":7,"frizz_risk":0,"updated_at":"2026-03-07T15:57:45.319645+05:30"},{"city":"Gurgaon","state":"Haryana","latitude":28.4595,"longitude":77.0266,"temp":34.0,"humidity":28,"rain":0.0,"pressure":984.1,"uv_index":6.05,"wind_gusts":13.7,"aqi":231,"pm10":521.5,"pm2_5":66.8,"mosquito_risk":0,"arthritis_risk":5,"migraine_risk":7,"frizz_risk":0,"updated_at":"2026-03-07T15:57:45.319651+05:30"},{"city":"Noida","state":"Uttar Pradesh","latitude":28.5355,"longitude":77.391,"temp":34.3,"humidity":28,"rain":0.0,"pressure":987.1,"uv_index":5.95,"wind_gusts":19.1,"aqi":231,"pm10":521.5,"pm2_5":66.8,"mosquito_risk":0,"arthritis_risk":5,"migraine_risk":3,"frizz_risk":0,"updated_at":"2026-03-07T15:57:45.319658+05:30"},{"city":"Ghaziabad","state":"Uttar Pradesh","latitude":28.6692,"longitude":77.4538,"temp":33.2,"humidity":33,"rain":0.0,"pressure":985.3,"uv_index":5.95,"wind_gusts":17.6,"aqi":169,"pm10":185.3,"pm2_5":58.0,"mosquito_risk":0,"arthritis_risk":5,"migraine_risk":3,"frizz_risk":0,"updated_at":"2026-03-07T15:57:45.319665+05:30"},{"city":"Faridabad","state":"Haryana","latitude":28.4089,"longitude":77.3178,"temp":33.5,"humidity":32,"rain":0.0,"pressure":986.4,"uv_index":6.0,"wind_gusts":14.4,"aqi":231,"pm10":521.5,"pm2_5":66.8,"mosquito_risk":0,"arthritis_risk":5,"migraine_risk":3,"frizz_risk":0,"updated_at":"2026-03-07T15:57:45.319672+05:30"},{"city":"Meerut","state":"Uttar Pradesh","latitude":28.9845,"longitude":77.7064,"temp":32.8,"humidity":36,"rain":0.0,"pressure":984.1,"uv_index":5.8,"wind_gusts":20.2,"aqi":169,"pm10":185.3,"pm2_5":58.0,"mosquito_risk":0,"arthritis_risk":5,"migraine_risk":3,"frizz_risk":0,"updated_at":"2026-03-07T15:57:45.319681+05:30"},{"city":"Agra","state":"Uttar Pradesh","latitude":27.1767,"longitude":78.0081,"temp":35.7,"humidity":24,"rain":0.0,"pressure":990.1,"uv_index":6.3,"wind_gusts":15.8,"aqi":168,"pm10":273.8,"pm2_5":46.0,"mosquito_risk":0,"arthritis_risk":5,"migraine_risk":10,"frizz_risk":0,"updated_at":"2026-03-07T15:57:45.319687+05:30"},{"city":"Varanasi","state":"Uttar Pradesh","latitude":25.3176,"longitude":82.9739,"temp":31.8,"humidity":44,"rain":0.0,"pressure":999.6,"uv_index":7.15,"wind_gusts":16.9,"aqi":177,"pm10":90.3,"pm2_5":75.0,"mosquito_risk":0,"arthritis_risk":5,"migraine_risk":7,"frizz_risk":1,"updated_at":"2026-03-07T15:57:45.319696+05:30"},{"city":"Prayagraj","state":"Uttar Pradesh","latitude":25.4358,"longitude":81.8463,"temp":30.8,"humidity":48,"rain":0.0,"pressure":998.2,"uv_index":7.0,"wind_gusts":14.0,"aqi":171,"pm10":85.2,"pm2_5":66.1,"mosquito_risk":0,"arthritis_risk":5,"migraine_risk":7,"frizz_risk":1,"updated_at":"2026-03-07T15:57:45.319703+05:30"},{"city":"Gorakhpur","state":"Uttar Pradesh","latitude":26.7606,"longitude":83.3732,"temp":31.5,"humidity":44,"rain":0.0,"pressure":999.8,"uv_index":6.85,"wind_gusts":9.4,"aqi":170,"pm10":77.5,"pm2_5":64.0,"mosquito_risk":0,"arthritis_risk":5,"migraine_risk":7,"frizz_risk":1,"updated_at":"2026-03-07T15:57:45.319709+05:30"},{"city":"Bareilly","state":"Uttar Pradesh","latitude":28.367,"longitude":79.4304,"temp":31.5,"humidity":46,"rain":0.0,"pressure":989.7,"uv_index":6.15,"wind_gusts":10.1,"aqi":165,"pm10":120.1,"pm2_5":75.9,"mosquito_risk":0,"arthritis_risk":5,"migraine_risk":7,"frizz_risk":1,"updated_at":"2026-03-07T15:57:45.319715+05:30"},{"city":"Aligarh","state":"Uttar Pradesh","latitude":27.8974,"longitude":78.088,"temp":34.0,"humidity":32,"rain":0.0,"pressure":988.0,"uv_index":6.1,"wind_gusts":17.6,"aqi":179,"pm10":271.0,"pm2_5":59.5,"mosquito_risk":0,"arthritis_risk":5,"migraine_risk":7,"frizz_risk":0,"updated_at":"2026-03-07T15:57:45.319724+05:30"},{"city":"Moradabad","state":"Uttar Pradesh","latitude":28.8386,"longitude":78.7733,"temp":31.8,"humidity":44,"rain":0.0,"pressure":986.4,"uv_index":5.95,"wind_gusts":12.2,"aqi":167,"pm10":119.7,"pm2_5":72.4,"mosquito_risk":0,"arthritis_risk":5,"migraine_risk":3,"frizz_risk":1,"updated_at":"2026-03-07T15:57:45.319730+05:30"},{"city":"Saharanpur","state":"Uttar Pradesh","latitude":29.9637,"longitude":77.546,"temp":31.8,"humidity":42,"rain":0.0,"pressure":978.4,"uv_index":5.6,"wind_gusts":23.0,"aqi":170,"pm10":95.7,"pm2_5":60.8,"mosquito_risk":0,"arthritis_risk":5,"migraine_risk":3,"frizz_risk":1,"updated_at":"2026-03-07T15:57:45.319737+05:30"},{"city":"Jhansi","state":"Uttar Pradesh","latitude":25.4484,"longitude":78.5685,"temp":35.6,"humidity":18,"rain":0.0,"pressure":980.1,"uv_index":6.95,"wind_gusts":25.6,"aqi":100,"pm10":93.4,"pm2_5":31.9,"mosquito_risk":0,"arthritis_risk":5,"migraine_risk":10,"frizz_risk":0,"updated_at":"2026-03-07T15:57:48.627457+05:30"},{"city":"Surat","state":"Gujarat","latitude":21.1702,"longitude":72.8311,"temp":31.9,"humidity":53,"rain":0.0,"pressure":1007.2,"uv_index":7.2,"wind_gusts":24.5,"aqi":153,"pm10":60.5,"pm2_5":59.4,"mosquito_risk":0,"arthritis_risk":5,"migraine_risk":4,"frizz_risk":1,"updated_at":"2026-03-07T15:57:48.627486+05:30"},{"city":"Vadodara","state":"Gujarat","latitude":22.3072,"longitude":73.1812,"temp":37.0,"humidity":26,"rain":0.0,"pressure":1004.9,"uv_index":7.35,"wind_gusts":18.4,"aqi":147,"pm10":24.2,"pm2_5":22.9,"mosquito_risk":0,"arthritis_risk":5,"migraine_risk":7,"frizz_risk":0,"updated_at":"2026-03-07T15:57:48.627496+05:30"},{"city":"Rajkot","state":"Gujarat","latitude":22.3039,"longitude":70.8022,"temp":36.3,"humidity":26,"rain":0.0,"pressure":995.2,"uv_index":7.15,"wind_gusts":23.4,"aqi":67,"pm10":27.6,"pm2_5":15.3,"mosquito_risk":0,"arthritis_risk":5,"migraine_risk":10,"frizz_risk":0,"updated_at":"2026-03-07T15:57:48.627503+05:30"},{"city":"Thane","state":"Maharashtra","latitude":19.2183,"longitude":72.9781,"temp":30.2,"humidity":60,"rain":0.0,"pressure":1007.7,"uv_index":7.5,"wind_gusts":33.8,"aqi":137,"pm10":45.5,"pm2_5":42.4,"mosquito_risk":0,"arthritis_risk":5,"migraine_risk":4,"frizz_risk":1,"updated_at":"2026-03-07T15:57:48.627510+05:30"},{"city":"Nagpur","state":"Maharashtra","latitude":21.1458,"longitude":79.0882,"temp":36.9,"humidity":20,"rain":0.0,"pressure":973.0,"uv_index":7.85,"wind_gusts":21.2,"aqi":81,"pm10":39.5,"pm2_5":19.6,"mosquito_risk":0,"arthritis_risk":5,"migraine_risk":10,"frizz_risk":0,"updated_at":"2026-03-07T15:57:48.627518+05:30"},{"city":"Nashik","state":"Maharashtra","latitude":19.9975,"longitude":73.7898,"temp":36.3,"humidity":17,"rain":0.0,"pressure":945.9,"uv_index":7.65,"wind_gusts":34.2,"aqi":100,"pm10":19.8,"pm2_5":18.6,"mosquito_risk":0,"arthritis_risk":5,"migraine_risk":10,"frizz_risk":0,"updated_at":"2026-03-07T15:57:48.627525+05:30"},{"city":"Aurangabad","state":"Maharashtra","latitude":19.8762,"longitude":75.3433,"temp":37.0,"humidity":18,"rain":0.0,"pressure":944.3,"uv_index":8.2,"wind_gusts":22.7,"aqi":103,"pm10":17.6,"pm2_5":16.0,"mosquito_risk":0,"arthritis_risk":5,"migraine_risk":10,"frizz_risk":0,"updated_at":"2026-03-07T15:57:48.627532+05:30"},{"city":"Solapur","state":"Maharashtra","latitude":17.6599,"longitude":75.9064,"temp":36.8,"humidity":17,"rain":0.0,"pressure":956.4,"uv_index":8.4,"wind_gusts":19.8,"aqi":97,"pm10":17.5,"pm2_5":12.5,"mosquito_risk":0,"arthritis_risk":5,"migraine_risk":10,"frizz_risk":0,"updated_at":"2026-03-07T15:57:48.627541+05:30"},{"city":"Kolhapur","state":"Maharashtra","latitude":16.705,"longitude":74.2433,"temp":36.0,"humidity":19,"rain":0.0,"pressure":947.2,"uv_index":8.55,"wind_gusts":29.2,"aqi":151,"pm10":19.6,"pm2_5":16.3,"mosquito_risk":0,"arthritis_risk":5,"migraine_risk":10,"frizz_risk":0,"updated_at":"2026-03-07T15:57:48.627547+05:30"},{"city":"Goa","state":"Goa","latitude":15.2993,"longitude":74.124,"temp":30.5,"humidity":65,"rain":0.0,"pressure":996.8,"uv_index":8.6,"wind_gusts":31.7,"aqi":154,"pm10":49.7,"pm2_5":46.1,"mosquito_risk":3,"arthritis_risk":5,"migraine_risk":7,"frizz_risk":1,"updated_at":"2026-03-07T15:57:48.627555+05:30"},{"city":"Jodhpur","state":"Rajasthan","latitude":26.2389,"longitude":73.0243,"temp":36.7,"humidity":18,"rain":0.0,"pressure":985.1,"uv_index":7.0,"wind_gusts":20.2,"aqi":66,"pm10":39.5,"pm2_5":10.0,"mosquito_risk":0,"arthritis_risk":5,"migraine_risk":10,"frizz_risk":0,"updated_at":"2026-03-07T15:57:48.627561+05:30"},{"city":"Udaipur","state":"Rajasthan","latitude":24.5854,"longitude":73.7125,"temp":36.6,"humidity":18,"rain":0.0,"pressure":948.9,"uv_index":7.65,"wind_gusts":19.4,"aqi":52,"pm10":9.6,"pm2_5":8.2,"mosquito_risk":0,"arthritis_risk":5,"migraine_risk":10,"frizz_risk":0,"updated_at":"2026-03-07T15:57:48.627568+05:30"},{"city":"Kota","state":"Rajasthan","latitude":25.2138,"longitude":75.8648,"temp":37.1,"humidity":18,"rain":0.0,"pressure":980.7,"uv_index":7.05,"wind_gusts":14.8,"aqi":83,"pm10":27.2,"pm2_5":21.7,"mosquito_risk":0,"arthritis_risk":5,"migraine_risk":10,"frizz_risk":0,"updated_at":"2026-03-07T15:57:48.627574+05:30"},{"city":"Bikaner","state":"Rajasthan","latitude":28.0229,"longitude":73.3119,"temp":36.6,"humidity":18,"rain":0.0,"pressure":983.8,"uv_index":6.75,"wind_gusts":19.4,"aqi":52,"pm10":60.5,"pm2_5":16.8,"mosquito_risk":0,"arthritis_risk":5,"migraine_risk":10,"frizz_risk":0,"updated_at":"2026-03-07T15:57:48.627581+05:30"},{"city":"Ajmer","state":"Rajasthan","latitude":26.4499,"longitude":74.6399,"temp":35.9,"humidity":18,"rain":0.0,"pressure":957.4,"uv_index":7.0,"wind_gusts":16.9,"aqi":64,"pm10":13.9,"pm2_5":10.4,"mosquito_risk":0,"arthritis_risk":5,"migraine_risk":10,"frizz_risk":0,"updated_at":"2026-03-07T15:57:48.627588+05:30"},{"city":"Gwalior","state":"Madhya Pradesh","latitude":26.2183,"longitude":78.1828,"temp":33.8,"humidity":28,"rain":0.0,"pressure":985.6,"uv_index":6.65,"wind_gusts":20.5,"aqi":115,"pm10":90.1,"pm2_5":24.5,"mosquito_risk":0,"arthritis_risk":5,"migraine_risk":7,"frizz_risk":0,"updated_at":"2026-03-07T15:57:48.627594+05:30"},{"city":"Indore","state":"Madhya Pradesh","latitude":22.7196,"longitude":75.8577,"temp":35.6,"humidity":19,"rain":0.0,"pressure":949.7,"uv_index":7.6,"wind_gusts":18.0,"aqi":85,"pm10":19.5,"pm2_5":15.8,"mosquito_risk":0,"arthritis_risk":5,"migraine_risk":10,"frizz_risk":0,"updated_at":"2026-03-07T15:57:48.627601+05:30"},{"city":"Bhopal","state":"Madhya Pradesh","latitude":23.2599,"longitude":77.4126,"temp":35.1,"humidity":21,"rain":0.0,"pressure":955.4,"uv_index":7.5,"wind_gusts":20.9,"aqi":72,"pm10":34.5,"pm2_5":14.0,"mosquito_risk":0,"arthritis_risk":5,"migraine_risk":10,"frizz_risk":0,"updated_at":"2026-03-07T15:57:48.627607+05:30"},{"city":"Jabalpur","state":"Madhya Pradesh","latitude":23.1815,"longitude":79.9864,"temp":34.1,"humidity":26,"rain":0.0,"pressure":962.6,"uv_index":7.55,"wind_gusts":26.3,"aqi":87,"pm10":70.8,"pm2_5":30.2,"mosquito_risk":0,"arthritis_risk":5,"migraine_risk":7,"frizz_risk":0,"updated_at":"2026-03-07T15:57:48.627614+05:30"},{"city":"Ujjain","state":"Madhya Pradesh","latitude":23.1765,"longitude":75.7885,"temp":35.0,"humidity":22,"rain":0.0,"pressure":955.7,"uv_index":7.5,"wind_gusts":13.7,"aqi":93,"pm10":19.0,"pm2_5":17.0,"mosquito_risk":0,"arthritis_risk":5,"migraine_risk":7,"frizz_risk":0,"updated_at":"2026-03-07T15:57:48.627621+05:30"},{"city":"Visakhapatnam","state":"Andhra Pradesh","latitude":17.6868,"longitude":83.2185,"temp":30.1,"humidity":62,"rain":0.0,"pressure":1004.0,"uv_index":8.45,"wind_gusts":38.9,"aqi":136,"pm10":44.1,"pm2_5":37.3,"mosquito_risk":3,"arthritis_risk":5,"migraine_risk":4,"frizz_risk":1,"updated_at":"2026-03-07T15:57:48.627627+05:30"},{"city":"Vijayawada","state":"Andhra Pradesh","latitude":16.5062,"longitude":80.648,"temp":35.1,"humidity":43,"rain":0.0,"pressure":1001.3,"uv_index":8.6,"wind_gusts":30.6,"aqi":140,"pm10":47.3,"pm2_5":39.0,"mosquito_risk":0,"arthritis_risk":5,"migraine_risk":7,"frizz_risk":1,"updated_at":"2026-03-07T15:57:48.627634+05:30"},{"city":"Guntur","state":"Andhra Pradesh","latitude":16.3067,"longitude":80.4365,"temp":34.6,"humidity":45,"rain":0.0,"pressure":1002.6,"uv_index":8.6,"wind_gusts":32.4,"aqi":138,"pm10":46.9,"pm2_5":37.6,"mosquito_risk":0,"arthritis_risk":5,"migraine_risk":4,"frizz_risk":1,"updated_at":"2026-03-07T15:57:48.627641+05:30"},{"city":"Nellore","state":"Andhra Pradesh","latitude":14.4426,"longitude":79.9865,"temp":34.0,"humidity":45,"rain":0.0,"pressure":1004.7,"uv_index":8.75,"wind_gusts":33.8,"aqi":116,"pm10":48.1,"pm2_5":40.3,"mosquito_risk":0,"arthritis_risk":5,"migraine_risk":4,"frizz_risk":1,"updated_at":"2026-03-07T15:57:48.627648+05:30"},{"city":"Kurnool","state":"Andhra Pradesh","latitude":15.8281,"longitude":78.0373,"temp":38.5,"humidity":14,"rain":0.0,"pressure":975.3,"uv_index":8.6,"wind_gusts":24.8,"aqi":90,"pm10":32.7,"pm2_5":21.4,"mosquito_risk":0,"arthritis_risk":5,"migraine_risk":10,"frizz_risk":0,"updated_at":"2026-03-07T15:57:48.627655+05:30"},{"city":"Kakinada","state":"Andhra Pradesh","latitude":16.9891,"longitude":82.2475,"temp":32.3,"humidity":54,"rain":0.0,"pressure":1007.0,"uv_index":8.5,"wind_gusts":32.0,"aqi":105,"pm10":40.5,"pm2_5":32.0,"mosquito_risk":0,"arthritis_risk":5,"migraine_risk":4,"frizz_risk":1,"updated_at":"2026-03-07T15:57:48.627661+05:30"},{"city":"Tirupati","state":"Andhra Pradesh","latitude":13.6288,"longitude":79.4192,"temp":36.1,"humidity":25,"rain":0.0,"pressure":989.7,"uv_index":8.9,"wind_gusts":32.8,"aqi":147,"pm10":47.6,"pm2_5":39.6,"mosquito_risk":0,"arthritis_risk":5,"migraine_risk":10,"frizz_risk":0,"updated_at":"2026-03-07T15:57:48.627668+05:30"},{"city":"Warangal","state":"Telangana","latitude":17.9689,"longitude":79.5941,"temp":36.6,"humidity":20,"rain":0.0,"pressure":977.8,"uv_index":8.35,"wind_gusts":22.0,"aqi":107,"pm10":29.3,"pm2_5":18.5,"mosquito_risk":0,"arthritis_risk":5,"migraine_risk":10,"frizz_risk":0,"updated_at":"2026-03-07T15:57:48.627675+05:30"},{"city":"Nizamabad","state":"Telangana","latitude":18.6725,"longitude":78.0941,"temp":36.7,"humidity":18,"rain":0.0,"pressure":964.5,"uv_index":8.2,"wind_gusts":22.3,"aqi":104,"pm10":28.1,"pm2_5":17.0,"mosquito_risk":0,"arthritis_risk":5,"migraine_risk":10,"frizz_risk":0,"updated_at":"2026-03-07T15:57:48.627681+05:30"},{"city":"Mysore","state":"Karnataka","latitude":12.2958,"longitude":76.6396,"temp":33.2,"humidity":27,"rain":0.0,"pressure":927.6,"uv_index":9.2,"wind_gusts":34.6,"aqi":121,"pm10":33.6,"pm2_5":30.5,"mosquito_risk":0,"arthritis_risk":5,"migraine_risk":7,"frizz_risk":0,"updated_at":"2026-03-07T15:57:48.627688+05:30"},{"city":"Mangalore","state":"Karnataka","latitude":12.9141,"longitude":74.856,"temp":28.8,"humidity":77,"rain":0.0,"pressure":1004.8,"uv_index":8.8,"wind_gusts":26.6,"aqi":153,"pm10":52.0,"pm2_5":48.2,"mosquito_risk":7,"arthritis_risk":5,"migraine_risk":4,"frizz_risk":1,"updated_at":"2026-03-07T15:57:48.627695+05:30"},{"city":"Hubli-Dharwad","state":"Karnataka","latitude":15.3647,"longitude":75.124,"temp":36.2,"humidity":16,"rain":0.0,"pressure":939.9,"uv_index":8.8,"wind_gusts":26.3,"aqi":148,"pm10":25.8,"pm2_5":22.8,"mosquito_risk":0,"arthritis_risk":5,"migraine_risk":10,"frizz_risk":0,"updated_at":"2026-03-07T15:57:48.627702+05:30"},{"city":"Belgaum","state":"Karnataka","latitude":15.8497,"longitude":74.4977,"temp":35.1,"humidity":18,"rain":0.0,"pressure":925.3,"uv_index":8.8,"wind_gusts":41.0,"aqi":149,"pm10":19.6,"pm2_5":16.8,"mosquito_risk":0,"arthritis_risk":5,"migraine_risk":10,"frizz_risk":0,"updated_at":"2026-03-07T15:57:51.937345+05:30"},{"city":"Coimbatore","state":"Tamil Nadu","latitude":11.0168,"longitude":76.9558,"temp":34.4,"humidity":32,"rain":0.0,"pressure":960.1,"uv_index":9.2,"wind_gusts":37.8,"aqi":117,"pm10":31.9,"pm2_5":29.1,"mosquito_risk":0,"arthritis_risk":5,"migraine_risk":7,"frizz_risk":0,"updated_at":"2026-03-07T15:57:51.937377+05:30"},{"city":"Madurai","state":"Tamil Nadu","latitude":9.9252,"longitude":78.1198,"temp":36.8,"humidity":26,"rain":0.0,"pressure":990.6,"uv_index":9.15,"wind_gusts":31.7,"aqi":101,"pm10":35.3,"pm2_5":29.9,"mosquito_risk":0,"arthritis_risk":5,"migraine_risk":10,"frizz_risk":0,"updated_at":"2026-03-07T15:57:51.937390+05:30"},{"city":"Trichy","state":"Tamil Nadu","latitude":10.7905,"longitude":78.7047,"temp":37.0,"humidity":26,"rain":0.0,"pressure":997.6,"uv_index":9.05,"wind_gusts":27.0,"aqi":93,"pm10":36.8,"pm2_5":31.0,"mosquito_risk":0,"arthritis_risk":5,"migraine_risk":10,"frizz_risk":0,"updated_at":"2026-03-07T15:57:51.937400+05:30"},{"city":"Salem","state":"Tamil Nadu","latitude":11.6643,"longitude":78.146,"temp":36.2,"humidity":30,"rain":0.0,"pressure":975.2,"uv_index":9.1,"wind_gusts":20.2,"aqi":107,"pm10":37.1,"pm2_5":31.7,"mosquito_risk":0,"arthritis_risk":5,"migraine_risk":10,"frizz_risk":0,"updated_at":"2026-03-07T15:57:51.937408+05:30"},{"city":"Tirunelveli","state":"Tamil Nadu","latitude":8.7139,"longitude":77.7567,"temp":37.0,"humidity":28,"rain":0.0,"pressure":1000.7,"uv_index":9.15,"wind_gusts":50.0,"aqi":98,"pm10":34.2,"pm2_5":29.3,"mosquito_risk":0,"arthritis_risk":5,"migraine_risk":7,"frizz_risk":0,"updated_at":"2026-03-07T15:57:51.937416+05:30"},{"city":"Vellore","state":"Tamil Nadu","latitude":12.9165,"longitude":79.1325,"temp":35.9,"humidity":23,"rain":0.0,"pressure":983.0,"uv_index":9.0,"wind_gusts":35.3,"aqi":151,"pm10":44.7,"pm2_5":35.9,"mosquito_risk":0,"arthritis_risk":5,"migraine_risk":10,"frizz_risk":0,"updated_at":"2026-03-07T15:57:51.937425+05:30"},{"city":"Erode","state":"Tamil Nadu","latitude":11.341,"longitude":77.7172,"temp":37.1,"humidity":30,"rain":0.0,"pressure":986.5,"uv_index":9.1,"wind_gusts":24.5,"aqi":114,"pm10":35.5,"pm2_5":31.8,"mosquito_risk":0,"arthritis_risk":5,"migraine_risk":10,"frizz_risk":1,"updated_at":"2026-03-07T15:57:51.937434+05:30"},{"city":"Kochi","state":"Kerala","latitude":9.9312,"longitude":76.2673,"temp":27.9,"humidity":83,"rain":0.0,"pressure":1007.1,"uv_index":8.6,"wind_gusts":30.6,"aqi":122,"pm10":26.9,"pm2_5":25.2,"mosquito_risk":7,"arthritis_risk":5,"migraine_risk":4,"frizz_risk":1,"updated_at":"2026-03-07T15:57:51.937443+05:30"},{"city":"Thiruvananthapuram","state":"Kerala","latitude":8.5241,"longitude":76.9366,"temp":28.1,"humidity":80,"rain":0.0,"pressure":1006.3,"uv_index":9.0,"wind_gusts":33.8,"aqi":100,"pm10":29.6,"pm2_5":27.1,"mosquito_risk":7,"arthritis_risk":5,"migraine_risk":4,"frizz_risk":1,"updated_at":"2026-03-07T15:57:51.937452+05:30"},{"city":"Kozhikode","state":"Kerala","latitude":11.2588,"longitude":75.7804,"temp":29.4,"humidity":77,"rain":0.0,"pressure":1006.3,"uv_index":8.9,"wind_gusts":27.4,"aqi":125,"pm10":23.4,"pm2_5":21.7,"mosquito_risk":7,"arthritis_risk":5,"migraine_risk":4,"frizz_risk":1,"updated_at":"2026-03-07T15:57:51.937459+05:30"},{"city":"Thrissur","state":"Kerala","latitude":10.5276,"longitude":76.2144,"temp":31.2,"humidity":67,"rain":0.0,"pressure":1005.4,"uv_index":8.95,"wind_gusts":31.3,"aqi":118,"pm10":27.3,"pm2_5":25.8,"mosquito_risk":3,"arthritis_risk":5,"migraine_risk":4,"frizz_risk":1,"updated_at":"2026-03-07T15:57:51.937468+05:30"},{"city":"Kannur","state":"Kerala","latitude":11.8745,"longitude":75.3704,"temp":30.3,"humidity":68,"rain":0.0,"pressure":1005.7,"uv_index":8.9,"wind_gusts":32.0,"aqi":150,"pm10":44.6,"pm2_5":41.2,"mosquito_risk":3,"arthritis_risk":5,"migraine_risk":4,"frizz_risk":1,"updated_at":"2026-03-07T15:57:51.937476+05:30"},{"city":"Patna","state":"Bihar","latitude":25.5941,"longitude":85.1376,"temp":32.0,"humidity":40,"rain":0.0,"pressure":1002.6,"uv_index":7.3,"wind_gusts":20.2,"aqi":160,"pm10":80.6,"pm2_5":67.5,"mosquito_risk":0,"arthritis_risk":5,"migraine_risk":4,"frizz_risk":1,"updated_at":"2026-03-07T15:57:51.937484+05:30"},{"city":"Gaya","state":"Bihar","latitude":24.7914,"longitude":85.0002,"temp":30.0,"humidity":51,"rain":0.0,"pressure":995.7,"uv_index":7.4,"wind_gusts":25.2,"aqi":153,"pm10":85.4,"pm2_5":67.1,"mosquito_risk":4,"arthritis_risk":5,"migraine_risk":7,"frizz_risk":1,"updated_at":"2026-03-07T15:57:51.937491+05:30"},{"city":"Muzaffarpur","state":"Bihar","latitude":26.1209,"longitude":85.3647,"temp":32.0,"humidity":39,"rain":0.0,"pressure":1002.6,"uv_index":7.25,"wind_gusts":17.6,"aqi":169,"pm10":79.6,"pm2_5":68.0,"mosquito_risk":0,"arthritis_risk":5,"migraine_risk":4,"frizz_risk":1,"updated_at":"2026-03-07T15:57:51.937499+05:30"},{"city":"Bhagalpur","state":"Bihar","latitude":25.2425,"longitude":87.0117,"temp":30.2,"humidity":50,"rain":0.0,"pressure":1003.6,"uv_index":7.3,"wind_gusts":14.8,"aqi":164,"pm10":79.4,"pm2_5":63.8,"mosquito_risk":0,"arthritis_risk":5,"migraine_risk":4,"frizz_risk":1,"updated_at":"2026-03-07T15:57:51.937507+05:30"},{"city":"Ranchi","state":"Jharkhand","latitude":23.3441,"longitude":85.3096,"temp":29.6,"humidity":34,"rain":0.0,"pressure":939.2,"uv_index":8.05,"wind_gusts":28.8,"aqi":152,"pm10":103.8,"pm2_5":65.2,"mosquito_risk":4,"arthritis_risk":5,"migraine_risk":7,"frizz_risk":0,"updated_at":"2026-03-07T15:57:51.937514+05:30"},{"city":"Jamshedpur","state":"Jharkhand","latitude":22.8046,"longitude":86.2029,"temp":33.0,"humidity":36,"rain":0.0,"pressure":991.5,"uv_index":7.95,"wind_gusts":27.4,"aqi":144,"pm10":103.1,"pm2_5":68.9,"mosquito_risk":0,"arthritis_risk":5,"migraine_risk":7,"frizz_risk":0,"updated_at":"2026-03-07T15:57:51.937521+05:30"},{"city":"Dhanbad","state":"Jharkhand","latitude":23.7957,"longitude":86.4304,"temp":32.9,"humidity":30,"rain":0.0,"pressure":981.3,"uv_index":7.8,"wind_gusts":26.3,"aqi":164,"pm10":105.5,"pm2_5":77.8,"mosquito_risk":0,"arthritis_risk":5,"migraine_risk":7,"frizz_risk":0,"updated_at":"2026-03-07T15:57:51.937529+05:30"},{"city":"Bokaro","state":"Jharkhand","latitude":23.6693,"longitude":86.1511,"temp":31.9,"humidity":32,"rain":0.0,"pressure":985.1,"uv_index":7.8,"wind_gusts":25.9,"aqi":167,"pm10":109.0,"pm2_5":77.1,"mosquito_risk":0,"arthritis_risk":5,"migraine_risk":7,"frizz_risk":0,"updated_at":"2026-03-07T15:57:51.937537+05:30"},{"city":"Bhubaneswar","state":"Odisha","latitude":20.2961,"longitude":85.8245,"temp":31.5,"humidity":56,"rain":0.0,"pressure":1003.0,"uv_index":8.25,"wind_gusts":32.4,"aqi":151,"pm10":54.7,"pm2_5":45.9,"mosquito_risk":0,"arthritis_risk":5,"migraine_risk":4,"frizz_risk":1,"updated_at":"2026-03-07T15:57:51.937545+05:30"},{"city":"Cuttack","state":"Odisha","latitude":20.4625,"longitude":85.8828,"temp":33.5,"humidity":43,"rain":0.0,"pressure":1004.6,"uv_index":8.25,"wind_gusts":29.9,"aqi":151,"pm10":54.7,"pm2_5":45.9,"mosquito_risk":0,"arthritis_risk":5,"migraine_risk":4,"frizz_risk":1,"updated_at":"2026-03-07T15:57:51.937553+05:30"},{"city":"Rourkela","state":"Odisha","latitude":22.2604,"longitude":84.8536,"temp":34.2,"humidity":28,"rain":0.0,"pressure":985.3,"uv_index":7.85,"wind_gusts":20.2,"aqi":159,"pm10":101.7,"pm2_5":63.8,"mosquito_risk":0,"arthritis_risk":5,"migraine_risk":7,"frizz_risk":0,"updated_at":"2026-03-07T15:57:51.937561+05:30"},{"city":"Raipur","state":"Chhattisgarh","latitude":21.2514,"longitude":81.6296,"temp":35.5,"humidity":27,"rain":0.0,"pressure":974.4,"uv_index":7.95,"wind_gusts":22.3,"aqi":147,"pm10":80.3,"pm2_5":35.5,"mosquito_risk":0,"arthritis_risk":5,"migraine_risk":10,"frizz_risk":0,"updated_at":"2026-03-07T15:57:51.937568+05:30"},{"city":"Bhilai","state":"Chhattisgarh","latitude":21.1938,"longitude":81.3509,"temp":36.6,"humidity":25,"rain":0.0,"pressure":974.6,"uv_index":7.95,"wind_gusts":18.4,"aqi":123,"pm10":74.3,"pm2_5":33.1,"mosquito_risk":0,"arthritis_risk":5,"migraine_risk":10,"frizz_risk":0,"updated_at":"2026-03-07T15:57:51.937576+05:30"},{"city":"Guwahati","state":"Assam","latitude":26.1158,"longitude":91.7086,"temp":31.4,"humidity":45,"rain":0.0,"pressure":1002.5,"uv_index":7.3,"wind_gusts":20.2,"aqi":147,"pm10":68.2,"pm2_5":58.1,"mosquito_risk":0,"arthritis_risk":5,"migraine_risk":4,"frizz_risk":1,"updated_at":"2026-03-07T15:57:51.937583+05:30"},{"city":"Agartala","state":"Tripura","latitude":23.8315,"longitude":91.2868,"temp":31.1,"humidity":46,"rain":0.0,"pressure":1007.7,"uv_index":7.6,"wind_gusts":19.1,"aqi":152,"pm10":59.0,"pm2_5":45.5,"mosquito_risk":0,"arthritis_risk":5,"migraine_risk":4,"frizz_risk":1,"updated_at":"2026-03-07T15:57:51.937591+05:30"},{"city":"Shillong","state":"Meghalaya","latitude":25.5788,"longitude":91.8933,"temp":19.5,"humidity":47,"rain":0.0,"pressure":859.0,"uv_index":7.45,"wind_gusts":42.1,"aqi":115,"pm10":52.7,"pm2_5":44.4,"mosquito_risk":0,"arthritis_risk":5,"migraine_risk":7,"frizz_risk":0,"updated_at":"2026-03-07T15:57:51.937599+05:30"},{"city":"Imphal","state":"Manipur","latitude":24.817,"longitude":93.9368,"temp":24.8,"humidity":46,"rain":0.0,"pressure":925.1,"uv_index":7.85,"wind_gusts":40.3,"aqi":176,"pm10":58.2,"pm2_5":52.0,"mosquito_risk":0,"arthritis_risk":5,"migraine_risk":7,"frizz_risk":0,"updated_at":"2026-03-07T15:57:51.937607+05:30"},{"city":"Aizawl","state":"Mizoram","latitude":23.7271,"longitude":92.7176,"temp":26.2,"humidity":39,"rain":0.0,"pressure":895.2,"uv_index":7.8,"wind_gusts":31.0,"aqi":174,"pm10":78.2,"pm2_5":71.2,"mosquito_risk":4,"arthritis_risk":5,"migraine_risk":7,"frizz_risk":0,"updated_at":"2026-03-07T15:57:51.937615+05:30"},{"city":"Kohima","state":"Nagaland","latitude":25.6701,"longitude":94.1077,"temp":17.9,"humidity":78,"rain":0.0,"pressure":857.0,"uv_index":7.7,"wind_gusts":51.1,"aqi":158,"pm10":60.5,"pm2_5":52.5,"mosquito_risk":3,"arthritis_risk":5,"migraine_risk":7,"frizz_risk":0,"updated_at":"2026-03-07T15:57:51.937621+05:30"},{"city":"Gangtok","state":"Sikkim","latitude":27.3314,"longitude":88.6138,"temp":15.8,"humidity":79,"rain":0.0,"pressure":840.5,"uv_index":7.25,"wind_gusts":17.6,"aqi":155,"pm10":60.5,"pm2_5":52.7,"mosquito_risk":3,"arthritis_risk":5,"migraine_risk":7,"frizz_risk":0,"updated_at":"2026-03-07T15:57:51.937628+05:30"},{"city":"Siliguri","state":"West Bengal","latitude":26.7271,"longitude":88.3953,"temp":25.2,"humidity":60,"rain":0.0,"pressure":996.8,"uv_index":7.25,"wind_gusts":15.8,"aqi":154,"pm10":63.6,"pm2_5":51.9,"mosquito_risk":4,"arthritis_risk":5,"migraine_risk":7,"frizz_risk":1,"updated_at":"2026-03-07T15:57:55.249616+05:30"},{"city":"Durgapur","state":"West Bengal","latitude":23.5204,"longitude":87.3119,"temp":32.4,"humidity":37,"rain":0.0,"pressure":996.6,"uv_index":7.8,"wind_gusts":22.7,"aqi":159,"pm10":99.0,"pm2_5":78.5,"mosquito_risk":0,"arthritis_risk":5,"migraine_risk":7,"frizz_risk":0,"updated_at":"2026-03-07T15:57:55.249651+05:30"},{"city":"Asansol","state":"West Bengal","latitude":23.6739,"longitude":86.9524,"temp":32.5,"humidity":37,"rain":0.0,"pressure":995.2,"uv_index":7.8,"wind_gusts":19.1,"aqi":158,"pm10":100.6,"pm2_5":77.5,"mosquito_risk":0,"arthritis_risk":5,"migraine_risk":7,"frizz_risk":0,"updated_at":"2026-03-07T15:57:55.249664+05:30"},{"city":"Pondicherry","state":"Puducherry","latitude":11.9139,"longitude":79.8145,"temp":33.9,"humidity":51,"rain":0.0,"pressure":1007.2,"uv_index":8.9,"wind_gusts":33.1,"aqi":88,"pm10":30.3,"pm2_5":22.6,"mosquito_risk":0,"arthritis_risk":5,"migraine_risk":4,"frizz_risk":1,"updated_at":"2026-03-07T15:57:55.249674+05:30"},{"city":"Port Blair","state":"Andaman and Nicobar Islands","latitude":11.6234,"longitude":92.7265,"temp":28.4,"humidity":67,"rain":0.0,"pressure":1007.7,"uv_index":8.85,"wind_gusts":16.6,"aqi":94,"pm10":56.6,"pm2_5":37.3,"mosquito_risk":7,"arthritis_risk":5,"migraine_risk":4,"frizz_risk":1,"updated_at":"2026-03-07T15:57:55.249684+05:30"},{"city":"Haridwar","state":"Uttarakhand","latitude":29.9457,"longitude":78.1642,"temp":31.3,"humidity":49,"rain":0.0,"pressure":977.2,"uv_index":5.75,"wind_gusts":21.6,"aqi":162,"pm10":94.3,"pm2_5":63.3,"mosquito_risk":0,"arthritis_risk":5,"migraine_risk":3,"frizz_risk":1,"updated_at":"2026-03-07T15:57:55.249693+05:30"},{"city":"Rishikesh","state":"Uttarakhand","latitude":30.0869,"longitude":78.2676,"temp":30.3,"humidity":50,"rain":0.0,"pressure":970.1,"uv_index":5.8,"wind_gusts":23.8,"aqi":160,"pm10":94.8,"pm2_5":64.5,"mosquito_risk":0,"arthritis_risk":5,"migraine_risk":3,"frizz_risk":1,"updated_at":"2026-03-07T15:57:55.249702+05:30"},{"city":"Nainital","state":"Uttarakhand","latitude":29.3919,"longitude":79.4542,"temp":22.6,"humidity":56,"rain":0.0,"pressure":810.6,"uv_index":6.6,"wind_gusts":54.4,"aqi":158,"pm10":97.1,"pm2_5":65.9,"mosquito_risk":0,"arthritis_risk":5,"migraine_risk":7,"frizz_risk":0,"updated_at":"2026-03-07T15:57:55.249710+05:30"},{"city":"Mussoorie","state":"Uttarakhand","latitude":30.4599,"longitude":78.0664,"temp":21.4,"humidity":63,"rain":0.0,"pressure":807.3,"uv_index":6.1,"wind_gusts":41.8,"aqi":160,"pm10":99.9,"pm2_5":68.0,"mosquito_risk":3,"arthritis_risk":5,"migraine_risk":7,"frizz_risk":0,"updated_at":"2026-03-07T15:57:55.249720+05:30"},{"city":"Dharamshala","state":"Himachal Pradesh","latitude":32.219,"longitude":76.3234,"temp":25.9,"humidity":58,"rain":0.0,"pressure":873.8,"uv_index":6.1,"wind_gusts":21.6,"aqi":57,"pm10":25.3,"pm2_5":11.5,"mosquito_risk":4,"arthritis_risk":5,"migraine_risk":7,"frizz_risk":1,"updated_at":"2026-03-07T15:57:55.249729+05:30"},{"city":"Dalhousie","state":"Himachal Pradesh","latitude":32.5387,"longitude":75.971,"temp":23.0,"humidity":52,"rain":0.0,"pressure":808.8,"uv_index":6.55,"wind_gusts":17.3,"aqi":101,"pm10":37.4,"pm2_5":23.0,"mosquito_risk":0,"arthritis_risk":5,"migraine_risk":7,"frizz_risk":0,"updated_at":"2026-03-07T15:57:55.249739+05:30"},{"city":"Patiala","state":"Punjab","latitude":30.3398,"longitude":76.3869,"temp":32.4,"humidity":38,"rain":0.0,"pressure":981.1,"uv_index":5.8,"wind_gusts":16.9,"aqi":171,"pm10":138.3,"pm2_5":55.9,"mosquito_risk":0,"arthritis_risk":5,"migraine_risk":3,"frizz_risk":1,"updated_at":"2026-03-07T15:57:55.249748+05:30"},{"city":"Bhatinda","state":"Punjab","latitude":30.211,"longitude":74.9455,"temp":34.2,"humidity":28,"rain":0.0,"pressure":986.2,"uv_index":6.45,"wind_gusts":20.5,"aqi":134,"pm10":64.7,"pm2_5":30.0,"mosquito_risk":0,"arthritis_risk":5,"migraine_risk":7,"frizz_risk":0,"updated_at":"2026-03-07T15:57:55.249757+05:30"},{"city":"Rohtak","state":"Haryana","latitude":28.8955,"longitude":76.6066,"temp":33.6,"humidity":29,"rain":0.0,"pressure":984.5,"uv_index":5.95,"wind_gusts":13.3,"aqi":176,"pm10":189.1,"pm2_5":34.7,"mosquito_risk":0,"arthritis_risk":5,"migraine_risk":3,"frizz_risk":0,"updated_at":"2026-03-07T15:57:55.249765+05:30"},{"city":"Panipat","state":"Haryana","latitude":29.3909,"longitude":76.9635,"temp":33.2,"humidity":34,"rain":0.0,"pressure":983.0,"uv_index":5.75,"wind_gusts":18.7,"aqi":203,"pm10":240.3,"pm2_5":51.1,"mosquito_risk":0,"arthritis_risk":5,"migraine_risk":3,"frizz_risk":0,"updated_at":"2026-03-07T15:57:55.249774+05:30"},{"city":"Mathura","state":"Uttar Pradesh","latitude":27.4924,"longitude":77.6737,"temp":35.4,"humidity":22,"rain":0.0,"pressure":989.2,"uv_index":6.2,"wind_gusts":17.3,"aqi":168,"pm10":214.2,"pm2_5":39.3,"mosquito_risk":0,"arthritis_risk":5,"migraine_risk":10,"frizz_risk":0,"updated_at":"2026-03-07T15:57:55.249783+05:30"},{"city":"Vrindavan","state":"Uttar Pradesh","latitude":27.5823,"longitude":77.7027,"temp":34.7,"humidity":25,"rain":0.0,"pressure":989.7,"uv_index":6.2,"wind_gusts":18.0,"aqi":168,"pm10":214.2,"pm2_5":39.3,"mosquito_risk":0,"arthritis_risk":5,"migraine_risk":7,"frizz_risk":0,"updated_at":"2026-03-07T15:57:55.249791+05:30"},{"city":"Ayodhya","state":"Uttar Pradesh","latitude":26.7922,"longitude":82.1998,"temp":31.3,"humidity":46,"rain":0.0,"pressure":998.0,"uv_index":6.65,"wind_gusts":18.4,"aqi":172,"pm10":82.4,"pm2_5":63.6,"mosquito_risk":0,"arthritis_risk":5,"migraine_risk":7,"frizz_risk":1,"updated_at":"2026-03-07T15:57:55.249800+05:30"},{"city":"Ratlam","state":"Madhya Pradesh","latitude":23.3315,"longitude":75.0367,"temp":35.0,"humidity":22,"rain":0.0,"pressure":956.4,"uv_index":7.45,"wind_gusts":13.7,"aqi":78,"pm10":15.8,"pm2_5":14.3,"mosquito_risk":0,"arthritis_risk":5,"migraine_risk":7,"frizz_risk":0,"updated_at":"2026-03-07T15:57:55.249809+05:30"},{"city":"Sagar","state":"Madhya Pradesh","latitude":23.8388,"longitude":78.7378,"temp":34.1,"humidity":25,"rain":0.0,"pressure":951.9,"uv_index":7.4,"wind_gusts":22.7,"aqi":77,"pm10":45.3,"pm2_5":16.0,"mosquito_risk":0,"arthritis_risk":5,"migraine_risk":7,"frizz_risk":0,"updated_at":"2026-03-07T15:57:55.249817+05:30"},{"city":"Satna","state":"Madhya Pradesh","latitude":24.6005,"longitude":80.8322,"temp":33.8,"humidity":32,"rain":0.0,"pressure":972.9,"uv_index":7.4,"wind_gusts":21.2,"aqi":152,"pm10":86.6,"pm2_5":55.6,"mosquito_risk":0,"arthritis_risk":5,"migraine_risk":7,"frizz_risk":0,"updated_at":"2026-03-07T15:57:55.249826+05:30"},{"city":"Akola","state":"Maharashtra","latitude":20.7002,"longitude":77.0082,"temp":38.1,"humidity":18,"rain":0.0,"pressure":974.8,"uv_index":7.9,"wind_gusts":18.0,"aqi":85,"pm10":28.6,"pm2_5":19.4,"mosquito_risk":0,"arthritis_risk":5,"migraine_risk":10,"frizz_risk":0,"updated_at":"2026-03-07T15:57:55.249835+05:30"},{"city":"Amravati","state":"Maharashtra","latitude":20.9374,"longitude":77.7796,"temp":38.0,"humidity":17,"rain":0.0,"pressure":967.2,"uv_index":7.85,"wind_gusts":13.3,"aqi":82,"pm10":28.1,"pm2_5":16.7,"mosquito_risk":0,"arthritis_risk":5,"migraine_risk":10,"frizz_risk":0,"updated_at":"2026-03-07T15:57:55.249845+05:30"},{"city":"Latur","state":"Maharashtra","latitude":18.4088,"longitude":76.5604,"temp":35.6,"humidity":17,"rain":0.0,"pressure":939.9,"uv_index":8.35,"wind_gusts":28.4,"aqi":107,"pm10":22.2,"pm2_5":17.9,"mosquito_risk":0,"arthritis_risk":5,"migraine_risk":10,"frizz_risk":0,"updated_at":"2026-03-07T15:57:55.249853+05:30"},{"city":"Nanded","state":"Maharashtra","latitude":19.1383,"longitude":77.3091,"temp":38.5,"humidity":17,"rain":0.0,"pressure":967.9,"uv_index":8.1,"wind_gusts":19.8,"aqi":96,"pm10":26.0,"pm2_5":16.5,"mosquito_risk":0,"arthritis_risk":5,"migraine_risk":10,"frizz_risk":0,"updated_at":"2026-03-07T15:57:55.249861+05:30"},{"city":"Gulbarga","state":"Karnataka","latitude":17.3297,"longitude":76.8343,"temp":38.3,"humidity":13,"rain":0.0,"pressure":957.7,"uv_index":8.45,"wind_gusts":21.2,"aqi":92,"pm10":19.2,"pm2_5":13.2,"mosquito_risk":0,"arthritis_risk":5,"migraine_risk":10,"frizz_risk":0,"updated_at":"2026-03-07T15:57:55.249869+05:30"},{"city":"Bidar","state":"Karnataka","latitude":17.9104,"longitude":77.5199,"temp":36.6,"humidity":18,"rain":0.0,"pressure":935.4,"uv_index":8.4,"wind_gusts":20.9,"aqi":99,"pm10":23.9,"pm2_5":16.1,"mosquito_risk":0,"arthritis_risk":5,"migraine_risk":10,"frizz_risk":0,"updated_at":"2026-03-07T15:57:55.249875+05:30"},{"city":"Hospet","state":"Karnataka","latitude":15.2689,"longitude":76.3909,"temp":36.1,"humidity":21,"rain":0.0,"pressure":954.7,"uv_index":8.75,"wind_gusts":19.4,"aqi":126,"pm10":27.3,"pm2_5":23.3,"mosquito_risk":0,"arthritis_risk":5,"migraine_risk":10,"frizz_risk":0,"updated_at":"2026-03-07T15:57:55.249881+05:30"},{"city":"Tirupur","state":"Tamil Nadu","latitude":11.1085,"longitude":77.3411,"temp":36.5,"humidity":25,"rain":0.0,"pressure":973.2,"uv_index":9.2,"wind_gusts":30.6,"aqi":120,"pm10":34.9,"pm2_5":31.7,"mosquito_risk":0,"arthritis_risk":5,"migraine_risk":10,"frizz_risk":0,"updated_at":"2026-03-07T15:57:55.249888+05:30"},{"city":"Alappuzha","state":"Kerala","latitude":9.4981,"longitude":76.3388,"temp":27.9,"humidity":82,"rain":0.0,"pressure":1007.3,"uv_index":9.0,"wind_gusts":28.1,"aqi":117,"pm10":29.0,"pm2_5":26.8,"mosquito_risk":7,"arthritis_risk":5,"migraine_risk":4,"frizz_risk":1,"updated_at":"2026-03-07T15:57:55.249899+05:30"},{"city":"Munnar","state":"Kerala","latitude":10.0889,"longitude":77.0595,"temp":26.5,"humidity":64,"rain":0.0,"pressure":857.3,"uv_index":9.5,"wind_gusts":37.4,"aqi":98,"pm10":28.6,"pm2_5":25.6,"mosquito_risk":7,"arthritis_risk":5,"migraine_risk":7,"frizz_risk":1,"updated_at":"2026-03-07T15:57:55.249906+05:30"},{"city":"Silchar","state":"Assam","latitude":24.8333,"longitude":92.7789,"temp":32.6,"humidity":41,"rain":0.0,"pressure":1005.6,"uv_index":7.55,"wind_gusts":21.2,"aqi":161,"pm10":58.6,"pm2_5":52.7,"mosquito_risk":0,"arthritis_risk":5,"migraine_risk":4,"frizz_risk":1,"updated_at":"2026-03-07T15:57:55.249913+05:30"},{"city":"Dibrugarh","state":"Assam","latitude":27.4728,"longitude":94.912,"temp":29.4,"humidity":54,"rain":0.0,"pressure":996.8,"uv_index":7.3,"wind_gusts":14.8,"aqi":147,"pm10":70.3,"pm2_5":57.6,"mosquito_risk":4,"arthritis_risk":5,"migraine_risk":7,"frizz_risk":1,"updated_at":"2026-03-07T15:57:55.249919+05:30"}]