[{"city":"Delhi","state":"Delhi","latitude":28.6139,"longitude":77.209,"temp":25.1,"humidity":72,"rain":0.0,"pressure":982.2,"uv_index":7.45,"wind_gusts":46.1,"aqi":519,"pm10":584.9,"pm2_5":95.2,"no2":15.1,"co":533.0,"o3":127.0,"so2":21.3,"mosquito_risk":7,"arthritis_risk":5,"migraine_risk":7,"frizz_risk":1,"updated_at":"2026-05-04T09:01:21.213653+05:30"},{"city":"Mumbai","state":"Maharashtra","latitude":19.076,"longitude":72.8777,"temp":30.7,"humidity":65,"rain":0.0,"pressure":1007.6,"uv_index":7.85,"wind_gusts":41.4,"aqi":66,"pm10":38.0,"pm2_5":17.2,"no2":10.5,"co":251.0,"o3":70.0,"so2":17.9,"mosquito_risk":3,"arthritis_risk":5,"migraine_risk":4,"frizz_risk":1,"updated_at":"2026-05-04T09:01:21.213700+05:30"},{"city":"Bangalore","state":"Karnataka","latitude":12.9716,"longitude":77.5946,"temp":27.1,"humidity":63,"rain":0.0,"pressure":913.2,"uv_index":9.45,"wind_gusts":30.6,"aqi":77,"pm10":51.7,"pm2_5":26.0,"no2":14.4,"co":576.0,"o3":73.0,"so2":10.0,"mosquito_risk":7,"arthritis_risk":5,"migraine_risk":7,"frizz_risk":1,"updated_at":"2026-05-04T09:01:21.213715+05:30"},{"city":"Hyderabad","state":"Telangana","latitude":17.385,"longitude":78.4867,"temp":31.5,"humidity":34,"rain":0.0,"pressure":953.6,"uv_index":9.25,"wind_gusts":30.2,"aqi":80,"pm10":37.7,"pm2_5":23.1,"no2":14.1,"co":377.0,"o3":88.0,"so2":10.3,"mosquito_risk":0,"arthritis_risk":5,"migraine_risk":7,"frizz_risk":0,"updated_at":"2026-05-04T09:01:21.213724+05:30"},{"city":"Chennai","state":"Tamil Nadu","latitude":13.0827,"longitude":80.2707,"temp":31.7,"humidity":71,"rain":0.0,"pressure":1006.2,"uv_index":9.25,"wind_gusts":47.9,"aqi":78,"pm10":24.9,"pm2_5":20.1,"no2":10.3,"co":312.0,"o3":96.0,"so2":11.3,"mosquito_risk":3,"arthritis_risk":5,"migraine_risk":4,"frizz_risk":1,"updated_at":"2026-05-04T09:01:21.213732+05:30"},{"city":"Kolkata","state":"West Bengal","latitude":22.5726,"longitude":88.3639,"temp":29.6,"humidity":72,"rain":0.0,"pressure":1008.6,"uv_index":7.0,"wind_gusts":25.6,"aqi":109,"pm10":35.6,"pm2_5":23.7,"no2":4.4,"co":378.0,"o3":104.0,"so2":7.8,"mosquito_risk":7,"arthritis_risk":0,"migraine_risk":4,"frizz_risk":1,"updated_at":"2026-05-04T09:01:21.213740+05:30"},{"city":"Pune","state":"Maharashtra","latitude":18.5204,"longitude":73.8567,"temp":27.6,"humidity":57,"rain":0.0,"pressure":947.9,"uv_index":8.45,"wind_gusts":49.0,"aqi":59,"pm10":46.1,"pm2_5":18.0,"no2":7.6,"co":265.0,"o3":75.0,"so2":8.7,"mosquito_risk":4,"arthritis_risk":5,"migraine_risk":7,"frizz_risk":1,"updated_at":"2026-05-04T09:01:21.213747+05:30"},{"city":"Ahmedabad","state":"Gujarat","latitude":23.0225,"longitude":72.5714,"temp":30.4,"humidity":63,"rain":0.0,"pressure":999.7,"uv_index":8.05,"wind_gusts":42.8,"aqi":53,"pm10":27.9,"pm2_5":12.0,"no2":5.0,"co":218.0,"o3":71.0,"so2":7.3,"mosquito_risk":3,"arthritis_risk":5,"migraine_risk":7,"frizz_risk":1,"updated_at":"2026-05-04T09:01:21.213756+05:30"},{"city":"Jaipur","state":"Rajasthan","latitude":26.9124,"longitude":75.7873,"temp":27.7,"humidity":53,"rain":0.0,"pressure":957.9,"uv_index":8.05,"wind_gusts":58.0,"aqi":156,"pm10":462.9,"pm2_5":72.4,"no2":4.2,"co":331.0,"o3":150.0,"so2":10.1,"mosquito_risk":4,"arthritis_risk":5,"migraine_risk":7,"frizz_risk":1,"updated_at":"2026-05-04T09:01:21.213763+05:30"},{"city":"Lucknow","state":"Uttar Pradesh","latitude":26.8467,"longitude":80.9462,"temp":24.2,"humidity":84,"rain":0.0,"pressure":996.7,"uv_index":8.05,"wind_gusts":48.2,"aqi":86,"pm10":43.9,"pm2_5":34.7,"no2":6.0,"co":432.0,"o3":134.0,"so2":10.6,"mosquito_risk":3,"arthritis_risk":5,"migraine_risk":7,"frizz_risk":1,"updated_at":"2026-05-04T09:01:21.213770+05:30"},{"city":"Kanpur","state":"Uttar Pradesh","latitude":26.4499,"longitude":80.3319,"temp":23.0,"humidity":90,"rain":0.0,"pressure":994.1,"uv_index":8.05,"wind_gusts":51.1,"aqi":201,"pm10":204.0,"pm2_5":54.6,"no2":6.8,"co":357.0,"o3":131.0,"so2":10.3,"mosquito_risk":3,"arthritis_risk":5,"migraine_risk":7,"frizz_risk":1,"updated_at":"2026-05-04T09:01:21.213776+05:30"},{"city":"Chandigarh","state":"Chandigarh","latitude":30.7333,"longitude":76.7794,"temp":27.1,"humidity":50,"rain":0.0,"pressure":968.6,"uv_index":7.5,"wind_gusts":50.4,"aqi":96,"pm10":75.0,"pm2_5":25.7,"no2":11.6,"co":368.0,"o3":114.0,"so2":7.4,"mosquito_risk":4,"arthritis_risk":5,"migraine_risk":7,"frizz_risk":0,"updated_at":"2026-05-04T09:01:21.213783+05:30"},{"city":"Srinagar","state":"Jammu and Kashmir","latitude":34.0837,"longitude":74.7973,"temp":12.8,"humidity":83,"rain":0.0,"pressure":842.3,"uv_index":6.8,"wind_gusts":33.5,"aqi":70,"pm10":21.2,"pm2_5":17.5,"no2":6.5,"co":324.0,"o3":109.0,"so2":2.3,"mosquito_risk":3,"arthritis_risk":10,"migraine_risk":7,"frizz_risk":0,"updated_at":"2026-05-04T09:01:21.213791+05:30"},{"city":"Jammu","state":"Jammu and Kashmir","latitude":32.7266,"longitude":74.857,"temp":27.6,"humidity":40,"rain":0.0,"pressure":972.6,"uv_index":7.65,"wind_gusts":47.9,"aqi":70,"pm10":26.5,"pm2_5":18.3,"no2":11.3,"co":302.0,"o3":94.0,"so2":3.1,"mosquito_risk":4,"arthritis_risk":5,"migraine_risk":7,"frizz_risk":0,"updated_at":"2026-05-04T09:01:21.213798+05:30"},{"city":"Amritsar","state":"Punjab","latitude":31.634,"longitude":74.8723,"temp":26.0,"humidity":59,"rain":0.0,"pressure":980.3,"uv_index":8.1,"wind_gusts":55.4,"aqi":126,"pm10":112.9,"pm2_5":29.8,"no2":4.5,"co":329.0,"o3":131.0,"so2":8.6,"mosquito_risk":4,"arthritis_risk":5,"migraine_risk":7,"frizz_risk":1,"updated_at":"2026-05-04T09:01:21.213804+05:30"},{"city":"Ludhiana","state":"Punjab","latitude":30.901,"longitude":75.8573,"temp":26.0,"humidity":55,"rain":0.0,"pressure":979.1,"uv_index":7.45,"wind_gusts":55.8,"aqi":196,"pm10":100.4,"pm2_5":36.1,"no2":9.0,"co":315.0,"o3":120.0,"so2":14.5,"mosquito_risk":4,"arthritis_risk":5,"migraine_risk":7,"frizz_risk":1,"updated_at":"2026-05-04T09:01:21.213811+05:30"},{"city":"Jalandhar","state":"Punjab","latitude":31.326,"longitude":75.5762,"temp":25.2,"humidity":60,"rain":0.0,"pressure":979.7,"uv_index":7.45,"wind_gusts":58.3,"aqi":133,"pm10":106.9,"pm2_5":32.6,"no2":8.1,"co":311.0,"o3":124.0,"so2":19.9,"mosquito_risk":4,"arthritis_risk":5,"migraine_risk":7,"frizz_risk":1,"updated_at":"2026-05-04T09:01:21.213817+05:30"},{"city":"Dehradun","state":"Uttarakhand","latitude":30.6284,"longitude":78.0322,"temp":17.9,"humidity":56,"rain":0.0,"pressure":831.6,"uv_index":7.15,"wind_gusts":35.3,"aqi":57,"pm10":20.1,"pm2_5":7.4,"no2":7.2,"co":210.0,"o3":97.0,"so2":0.5,"mosquito_risk":0,"arthritis_risk":5,"migraine_risk":7,"frizz_risk":0,"updated_at":"2026-05-04T09:01:21.213824+05:30"},{"city":"Shimla","state":"Himachal Pradesh","latitude":31.1048,"longitude":77.1734,"temp":16.4,"humidity":45,"rain":0.0,"pressure":784.9,"uv_index":7.8,"wind_gusts":35.6,"aqi":57,"pm10":49.4,"pm2_5":12.4,"no2":5.9,"co":203.0,"o3":118.0,"so2":1.2,"mosquito_risk":0,"arthritis_risk":5,"migraine_risk":7,"frizz_risk":0,"updated_at":"2026-05-04T09:01:21.213830+05:30"},{"city":"Manali","state":"Himachal Pradesh","latitude":32.2396,"longitude":77.1887,"temp":14.8,"humidity":45,"rain":0.0,"pressure":817.0,"uv_index":5.9,"wind_gusts":34.2,"aqi":91,"pm10":27.7,"pm2_5":5.2,"no2":7.1,"co":209.0,"o3":132.0,"so2":0.9,"mosquito_risk":0,"arthritis_risk":5,"migraine_risk":3,"frizz_risk":0,"updated_at":"2026-05-04T09:01:21.213836+05:30"},{"city":"Gurgaon","state":"Haryana","latitude":28.4595,"longitude":77.0266,"temp":26.5,"humidity":64,"rain":0.0,"pressure":980.1,"uv_index":7.6,"wind_gusts":54.4,"aqi":2037,"pm10":1732.3,"pm2_5":213.7,"no2":12.8,"co":459.0,"o3":135.0,"so2":17.5,"mosquito_risk":7,"arthritis_risk":5,"migraine_risk":7,"frizz_risk":1,"updated_at":"2026-05-04T09:01:21.213843+05:30"},{"city":"Noida","state":"Uttar Pradesh","latitude":28.5355,"longitude":77.391,"temp":26.2,"humidity":65,"rain":0.0,"pressure":983.9,"uv_index":7.5,"wind_gusts":47.5,"aqi":2037,"pm10":1732.3,"pm2_5":213.7,"no2":12.8,"co":404.0,"o3":135.0,"so2":17.5,"mosquito_risk":7,"arthritis_risk":5,"migraine_risk":7,"frizz_risk":1,"updated_at":"2026-05-04T09:01:21.213849+05:30"},{"city":"Ghaziabad","state":"Uttar Pradesh","latitude":28.6692,"longitude":77.4538,"temp":25.9,"humidity":67,"rain":0.0,"pressure":982.3,"uv_index":7.45,"wind_gusts":51.8,"aqi":289,"pm10":339.9,"pm2_5":59.4,"no2":5.8,"co":327.0,"o3":128.0,"so2":9.9,"mosquito_risk":7,"arthritis_risk":5,"migraine_risk":7,"frizz_risk":1,"updated_at":"2026-05-04T09:01:21.213855+05:30"},{"city":"Faridabad","state":"Haryana","latitude":28.4089,"longitude":77.3178,"temp":25.9,"humidity":67,"rain":0.0,"pressure":982.9,"uv_index":7.55,"wind_gusts":50.4,"aqi":2037,"pm10":1732.3,"pm2_5":213.7,"no2":12.8,"co":386.0,"o3":135.0,"so2":17.5,"mosquito_risk":7,"arthritis_risk":5,"migraine_risk":7,"frizz_risk":1,"updated_at":"2026-05-04T09:01:21.213863+05:30"},{"city":"Meerut","state":"Uttar Pradesh","latitude":28.9845,"longitude":77.7064,"temp":25.1,"humidity":69,"rain":0.0,"pressure":981.6,"uv_index":7.4,"wind_gusts":58.7,"aqi":289,"pm10":339.9,"pm2_5":59.4,"no2":5.8,"co":320.0,"o3":128.0,"so2":9.9,"mosquito_risk":7,"arthritis_risk":5,"migraine_risk":7,"frizz_risk":1,"updated_at":"2026-05-04T09:01:21.213869+05:30"},{"city":"Agra","state":"Uttar Pradesh","latitude":27.1767,"longitude":78.0081,"temp":27.2,"humidity":63,"rain":0.0,"pressure":987.4,"uv_index":7.9,"wind_gusts":56.2,"aqi":904,"pm10":2004.2,"pm2_5":201.2,"no2":5.5,"co":327.0,"o3":139.0,"so2":11.5,"mosquito_risk":7,"arthritis_risk":5,"migraine_risk":7,"frizz_risk":1,"updated_at":"2026-05-04T09:01:21.213875+05:30"},{"city":"Varanasi","state":"Uttar Pradesh","latitude":25.3176,"longitude":82.9739,"temp":29.8,"humidity":63,"rain":0.0,"pressure":998.5,"uv_index":8.6,"wind_gusts":44.3,"aqi":134,"pm10":53.4,"pm2_5":45.6,"no2":7.4,"co":461.0,"o3":137.0,"so2":19.9,"mosquito_risk":7,"arthritis_risk":5,"migraine_risk":7,"frizz_risk":1,"updated_at":"2026-05-04T09:01:21.213881+05:30"},{"city":"Prayagraj","state":"Uttar Pradesh","latitude":25.4358,"longitude":81.8463,"temp":30.4,"humidity":60,"rain":0.0,"pressure":996.0,"uv_index":8.5,"wind_gusts":45.0,"aqi":117,"pm10":53.6,"pm2_5":45.1,"no2":6.8,"co":415.0,"o3":142.0,"so2":15.0,"mosquito_risk":0,"arthritis_risk":5,"migraine_risk":7,"frizz_risk":1,"updated_at":"2026-05-04T09:01:21.213888+05:30"},{"city":"Gorakhpur","state":"Uttar Pradesh","latitude":26.7606,"longitude":83.3732,"temp":28.8,"humidity":61,"rain":0.0,"pressure":1000.4,"uv_index":8.45,"wind_gusts":43.6,"aqi":83,"pm10":36.7,"pm2_5":29.7,"no2":5.0,"co":329.0,"o3":132.0,"so2":7.9,"mosquito_risk":7,"arthritis_risk":5,"migraine_risk":4,"frizz_risk":1,"updated_at":"2026-05-04T09:01:21.213894+05:30"},{"city":"Bareilly","state":"Uttar Pradesh","latitude":28.367,"longitude":79.4304,"temp":23.7,"humidity":77,"rain":0.1,"pressure":989.5,"uv_index":7.8,"wind_gusts":52.2,"aqi":111,"pm10":195.6,"pm2_5":45.9,"no2":10.2,"co":343.0,"o3":95.0,"so2":8.4,"mosquito_risk":6,"arthritis_risk":5,"migraine_risk":7,"frizz_risk":1,"updated_at":"2026-05-04T09:01:21.213899+05:30"},{"city":"Aligarh","state":"Uttar Pradesh","latitude":27.8974,"longitude":78.088,"temp":27.1,"humidity":62,"rain":0.0,"pressure":985.3,"uv_index":7.7,"wind_gusts":53.3,"aqi":765,"pm10":419.1,"pm2_5":66.1,"no2":4.1,"co":331.0,"o3":139.0,"so2":10.5,"mosquito_risk":7,"arthritis_risk":5,"migraine_risk":7,"frizz_risk":1,"updated_at":"2026-05-04T09:01:21.213905+05:30"},{"city":"Moradabad","state":"Uttar Pradesh","latitude":28.8386,"longitude":78.7733,"temp":26.6,"humidity":59,"rain":0.0,"pressure":985.2,"uv_index":6.5,"wind_gusts":59.0,"aqi":106,"pm10":115.0,"pm2_5":39.6,"no2":9.6,"co":335.0,"o3":102.0,"so2":9.2,"mosquito_risk":4,"arthritis_risk":5,"migraine_risk":7,"frizz_risk":1,"updated_at":"2026-05-04T09:01:21.213911+05:30"},{"city":"Saharanpur","state":"Uttar Pradesh","latitude":29.9637,"longitude":77.546,"temp":25.0,"humidity":61,"rain":0.0,"pressure":976.0,"uv_index":7.05,"wind_gusts":56.9,"aqi":140,"pm10":60.5,"pm2_5":35.9,"no2":6.7,"co":306.0,"o3":125.0,"so2":11.0,"mosquito_risk":7,"arthritis_risk":5,"migraine_risk":7,"frizz_risk":1,"updated_at":"2026-05-04T09:01:21.213916+05:30"},{"city":"Jhansi","state":"Uttar Pradesh","latitude":25.4484,"longitude":78.5685,"temp":29.2,"humidity":55,"rain":0.0,"pressure":977.2,"uv_index":8.35,"wind_gusts":51.8,"aqi":96,"pm10":40.7,"pm2_5":31.3,"no2":3.4,"co":330.0,"o3":138.0,"so2":15.4,"mosquito_risk":4,"arthritis_risk":5,"migraine_risk":7,"frizz_risk":1,"updated_at":"2026-05-04T09:01:24.561285+05:30"},{"city":"Surat","state":"Gujarat","latitude":21.1702,"longitude":72.8311,"temp":31.5,"humidity":61,"rain":0.0,"pressure":1005.0,"uv_index":7.7,"wind_gusts":49.0,"aqi":59,"pm10":31.1,"pm2_5":16.3,"no2":14.8,"co":249.0,"o3":66.0,"so2":30.1,"mosquito_risk":3,"arthritis_risk":5,"migraine_risk":4,"frizz_risk":1,"updated_at":"2026-05-04T09:01:24.561317+05:30"},{"city":"Vadodara","state":"Gujarat","latitude":22.3072,"longitude":73.1812,"temp":31.2,"humidity":60,"rain":0.0,"pressure":1002.4,"uv_index":8.05,"wind_gusts":43.9,"aqi":52,"pm10":28.3,"pm2_5":13.5,"no2":7.8,"co":192.0,"o3":70.0,"so2":11.6,"mosquito_risk":0,"arthritis_risk":5,"migraine_risk":4,"frizz_risk":1,"updated_at":"2026-05-04T09:01:24.561327+05:30"},{"city":"Rajkot","state":"Gujarat","latitude":22.3039,"longitude":70.8022,"temp":30.1,"humidity":65,"rain":0.0,"pressure":991.4,"uv_index":7.7,"wind_gusts":43.2,"aqi":44,"pm10":39.0,"pm2_5":12.1,"no2":2.5,"co":164.0,"o3":77.0,"so2":4.1,"mosquito_risk":3,"arthritis_risk":5,"migraine_risk":7,"frizz_risk":1,"updated_at":"2026-05-04T09:01:24.561336+05:30"},{"city":"Thane","state":"Maharashtra","latitude":19.2183,"longitude":72.9781,"temp":31.4,"humidity":62,"rain":0.0,"pressure":1006.9,"uv_index":7.9,"wind_gusts":38.9,"aqi":66,"pm10":38.0,"pm2_5":17.2,"no2":10.5,"co":262.0,"o3":70.0,"so2":17.9,"mosquito_risk":3,"arthritis_risk":5,"migraine_risk":4,"frizz_risk":1,"updated_at":"2026-05-04T09:01:24.561345+05:30"},{"city":"Nagpur","state":"Maharashtra","latitude":21.1458,"longitude":79.0882,"temp":35.0,"humidity":22,"rain":0.0,"pressure":972.7,"uv_index":8.95,"wind_gusts":47.5,"aqi":67,"pm10":15.4,"pm2_5":14.3,"no2":8.5,"co":268.0,"o3":121.0,"so2":20.3,"mosquito_risk":0,"arthritis_risk":5,"migraine_risk":7,"frizz_risk":0,"updated_at":"2026-05-04T09:01:24.561353+05:30"},{"city":"Nashik","state":"Maharashtra","latitude":19.9975,"longitude":73.7898,"temp":27.4,"humidity":62,"rain":0.0,"pressure":944.9,"uv_index":8.2,"wind_gusts":44.3,"aqi":60,"pm10":31.3,"pm2_5":15.8,"no2":8.0,"co":197.0,"o3":64.0,"so2":7.4,"mosquito_risk":7,"arthritis_risk":5,"migraine_risk":7,"frizz_risk":1,"updated_at":"2026-05-04T09:01:24.561361+05:30"},{"city":"Aurangabad","state":"Maharashtra","latitude":19.8762,"longitude":75.3433,"temp":27.9,"humidity":50,"rain":0.0,"pressure":943.7,"uv_index":9.05,"wind_gusts":40.3,"aqi":53,"pm10":39.3,"pm2_5":16.1,"no2":6.7,"co":221.0,"o3":76.0,"so2":11.4,"mosquito_risk":4,"arthritis_risk":5,"migraine_risk":7,"frizz_risk":1,"updated_at":"2026-05-04T09:01:24.561368+05:30"},{"city":"Solapur","state":"Maharashtra","latitude":17.6599,"longitude":75.9064,"temp":30.5,"humidity":34,"rain":0.0,"pressure":957.6,"uv_index":9.1,"wind_gusts":32.0,"aqi":55,"pm10":39.5,"pm2_5":13.8,"no2":4.1,"co":222.0,"o3":79.0,"so2":4.6,"mosquito_risk":0,"arthritis_risk":5,"migraine_risk":7,"frizz_risk":0,"updated_at":"2026-05-04T09:01:24.561376+05:30"},{"city":"Kolhapur","state":"Maharashtra","latitude":16.705,"longitude":74.2433,"temp":27.6,"humidity":60,"rain":0.0,"pressure":948.5,"uv_index":8.95,"wind_gusts":46.1,"aqi":60,"pm10":40.6,"pm2_5":18.9,"no2":6.1,"co":202.0,"o3":68.0,"so2":2.0,"mosquito_risk":4,"arthritis_risk":5,"migraine_risk":7,"frizz_risk":1,"updated_at":"2026-05-04T09:01:24.561384+05:30"},{"city":"Goa","state":"Goa","latitude":15.2993,"longitude":74.124,"temp":31.1,"humidity":62,"rain":0.0,"pressure":998.7,"uv_index":8.9,"wind_gusts":37.1,"aqi":67,"pm10":50.9,"pm2_5":18.4,"no2":2.3,"co":166.0,"o3":70.0,"so2":1.6,"mosquito_risk":3,"arthritis_risk":5,"migraine_risk":7,"frizz_risk":1,"updated_at":"2026-05-04T09:01:24.561391+05:30"},{"city":"Jodhpur","state":"Rajasthan","latitude":26.2389,"longitude":73.0243,"temp":31.4,"humidity":53,"rain":0.0,"pressure":979.0,"uv_index":8.25,"wind_gusts":42.8,"aqi":105,"pm10":61.9,"pm2_5":17.3,"no2":4.1,"co":203.0,"o3":88.0,"so2":5.6,"mosquito_risk":0,"arthritis_risk":5,"migraine_risk":7,"frizz_risk":1,"updated_at":"2026-05-04T09:01:24.561398+05:30"},{"city":"Udaipur","state":"Rajasthan","latitude":24.5854,"longitude":73.7125,"temp":29.0,"humidity":56,"rain":0.0,"pressure":944.5,"uv_index":8.75,"wind_gusts":42.5,"aqi":48,"pm10":34.5,"pm2_5":13.9,"no2":4.2,"co":187.0,"o3":78.0,"so2":10.7,"mosquito_risk":4,"arthritis_risk":5,"migraine_risk":7,"frizz_risk":1,"updated_at":"2026-05-04T09:01:24.561406+05:30"},{"city":"Kota","state":"Rajasthan","latitude":25.2138,"longitude":75.8648,"temp":31.6,"humidity":51,"rain":0.0,"pressure":976.8,"uv_index":8.25,"wind_gusts":70.2,"aqi":65,"pm10":21.2,"pm2_5":13.5,"no2":4.3,"co":242.0,"o3":84.0,"so2":10.7,"mosquito_risk":0,"arthritis_risk":5,"migraine_risk":7,"frizz_risk":1,"updated_at":"2026-05-04T09:01:24.561413+05:30"},{"city":"Bikaner","state":"Rajasthan","latitude":28.0229,"longitude":73.3119,"temp":31.7,"humidity":29,"rain":0.0,"pressure":978.2,"uv_index":8.15,"wind_gusts":63.0,"aqi":83,"pm10":94.3,"pm2_5":30.4,"no2":2.5,"co":213.0,"o3":105.0,"so2":5.3,"mosquito_risk":0,"arthritis_risk":5,"migraine_risk":7,"frizz_risk":0,"updated_at":"2026-05-04T09:01:24.561420+05:30"},{"city":"Ajmer","state":"Rajasthan","latitude":26.4499,"longitude":74.6399,"temp":30.0,"humidity":32,"rain":0.0,"pressure":952.6,"uv_index":8.2,"wind_gusts":46.8,"aqi":68,"pm10":109.7,"pm2_5":36.8,"no2":3.7,"co":203.0,"o3":112.0,"so2":6.1,"mosquito_risk":4,"arthritis_risk":5,"migraine_risk":7,"frizz_risk":0,"updated_at":"2026-05-04T09:01:24.561428+05:30"},{"city":"Gwalior","state":"Madhya Pradesh","latitude":26.2183,"longitude":78.1828,"temp":26.7,"humidity":67,"rain":0.0,"pressure":982.5,"uv_index":8.1,"wind_gusts":54.7,"aqi":89,"pm10":92.7,"pm2_5":37.5,"no2":2.7,"co":316.0,"o3":136.0,"so2":8.7,"mosquito_risk":7,"arthritis_risk":5,"migraine_risk":7,"frizz_risk":1,"updated_at":"2026-05-04T09:01:24.561435+05:30"},{"city":"Indore","state":"Madhya Pradesh","latitude":22.7196,"longitude":75.8577,"temp":29.3,"humidity":55,"rain":0.0,"pressure":947.1,"uv_index":8.6,"wind_gusts":34.9,"aqi":48,"pm10":26.1,"pm2_5":13.2,"no2":4.2,"co":254.0,"o3":75.0,"so2":9.8,"mosquito_risk":4,"arthritis_risk":5,"migraine_risk":7,"frizz_risk":1,"updated_at":"2026-05-04T09:01:24.561442+05:30"},{"city":"Bhopal","state":"Madhya Pradesh","latitude":23.2599,"longitude":77.4126,"temp":31.5,"humidity":42,"rain":0.0,"pressure":952.8,"uv_index":8.65,"wind_gusts":49.0,"aqi":65,"pm10":16.4,"pm2_5":11.7,"no2":2.7,"co":231.0,"o3":101.0,"so2":7.9,"mosquito_risk":0,"arthritis_risk":5,"migraine_risk":7,"frizz_risk":1,"updated_at":"2026-05-04T09:01:24.561449+05:30"},{"city":"Jabalpur","state":"Madhya Pradesh","latitude":23.1815,"longitude":79.9864,"temp":32.8,"humidity":30,"rain":0.0,"pressure":961.0,"uv_index":7.95,"wind_gusts":39.2,"aqi":64,"pm10":41.9,"pm2_5":19.6,"no2":6.6,"co":265.0,"o3":127.0,"so2":9.9,"mosquito_risk":0,"arthritis_risk":5,"migraine_risk":7,"frizz_risk":0,"updated_at":"2026-05-04T09:01:24.561456+05:30"},{"city":"Ujjain","state":"Madhya Pradesh","latitude":23.1765,"longitude":75.7885,"temp":29.8,"humidity":58,"rain":0.0,"pressure":952.6,"uv_index":8.55,"wind_gusts":35.6,"aqi":46,"pm10":24.6,"pm2_5":12.6,"no2":3.1,"co":198.0,"o3":71.0,"so2":9.4,"mosquito_risk":4,"arthritis_risk":5,"migraine_risk":7,"frizz_risk":1,"updated_at":"2026-05-04T09:01:24.561464+05:30"},{"city":"Visakhapatnam","state":"Andhra Pradesh","latitude":17.6868,"longitude":83.2185,"temp":31.2,"humidity":68,"rain":0.0,"pressure":1004.2,"uv_index":9.1,"wind_gusts":33.1,"aqi":74,"pm10":29.9,"pm2_5":22.4,"no2":15.7,"co":361.0,"o3":81.0,"so2":9.1,"mosquito_risk":3,"arthritis_risk":5,"migraine_risk":4,"frizz_risk":1,"updated_at":"2026-05-04T09:01:24.561471+05:30"},{"city":"Vijayawada","state":"Andhra Pradesh","latitude":16.5062,"longitude":80.648,"temp":33.1,"humidity":64,"rain":0.0,"pressure":1002.2,"uv_index":9.15,"wind_gusts":56.9,"aqi":92,"pm10":29.9,"pm2_5":24.6,"no2":3.1,"co":225.0,"o3":139.0,"so2":6.9,"mosquito_risk":3,"arthritis_risk":5,"migraine_risk":4,"frizz_risk":1,"updated_at":"2026-05-04T09:01:24.561478+05:30"},{"city":"Guntur","state":"Andhra Pradesh","latitude":16.3067,"longitude":80.4365,"temp":33.6,"humidity":62,"rain":0.0,"pressure":1003.1,"uv_index":9.2,"wind_gusts":40.3,"aqi":91,"pm10":32.8,"pm2_5":27.1,"no2":2.9,"co":252.0,"o3":145.0,"so2":6.0,"mosquito_risk":3,"arthritis_risk":5,"migraine_risk":4,"frizz_risk":1,"updated_at":"2026-05-04T09:01:24.561486+05:30"},{"city":"Nellore","state":"Andhra Pradesh","latitude":14.4426,"longitude":79.9865,"temp":35.5,"humidity":40,"rain":0.0,"pressure":1004.5,"uv_index":9.2,"wind_gusts":42.5,"aqi":83,"pm10":31.4,"pm2_5":26.0,"no2":6.6,"co":290.0,"o3":120.0,"so2":15.0,"mosquito_risk":0,"arthritis_risk":5,"migraine_risk":7,"frizz_risk":1,"updated_at":"2026-05-04T09:01:24.561494+05:30"},{"city":"Kurnool","state":"Andhra Pradesh","latitude":15.8281,"longitude":78.0373,"temp":33.8,"humidity":34,"rain":0.0,"pressure":976.9,"uv_index":9.15,"wind_gusts":43.2,"aqi":66,"pm10":32.2,"pm2_5":14.5,"no2":5.5,"co":199.0,"o3":79.0,"so2":6.3,"mosquito_risk":0,"arthritis_risk":5,"migraine_risk":7,"frizz_risk":0,"updated_at":"2026-05-04T09:01:24.561502+05:30"},{"city":"Kakinada","state":"Andhra Pradesh","latitude":16.9891,"longitude":82.2475,"temp":31.5,"humidity":71,"rain":0.0,"pressure":1007.5,"uv_index":9.1,"wind_gusts":31.7,"aqi":66,"pm10":27.8,"pm2_5":19.3,"no2":1.4,"co":220.0,"o3":100.0,"so2":1.2,"mosquito_risk":3,"arthritis_risk":5,"migraine_risk":4,"frizz_risk":1,"updated_at":"2026-05-04T09:01:24.561509+05:30"},{"city":"Tirupati","state":"Andhra Pradesh","latitude":13.6288,"longitude":79.4192,"temp":35.5,"humidity":33,"rain":0.0,"pressure":990.3,"uv_index":9.3,"wind_gusts":60.8,"aqi":81,"pm10":35.0,"pm2_5":28.6,"no2":8.9,"co":277.0,"o3":104.0,"so2":14.3,"mosquito_risk":0,"arthritis_risk":5,"migraine_risk":10,"frizz_risk":1,"updated_at":"2026-05-04T09:01:24.561517+05:30"},{"city":"Warangal","state":"Telangana","latitude":17.9689,"longitude":79.5941,"temp":31.2,"humidity":55,"rain":0.0,"pressure":978.9,"uv_index":9.15,"wind_gusts":41.8,"aqi":97,"pm10":40.6,"pm2_5":32.7,"no2":5.5,"co":301.0,"o3":139.0,"so2":12.4,"mosquito_risk":0,"arthritis_risk":5,"migraine_risk":7,"frizz_risk":1,"updated_at":"2026-05-04T09:01:24.561540+05:30"},{"city":"Nizamabad","state":"Telangana","latitude":18.6725,"longitude":78.0941,"temp":33.2,"humidity":24,"rain":0.0,"pressure":965.1,"uv_index":9.15,"wind_gusts":31.3,"aqi":75,"pm10":29.8,"pm2_5":15.7,"no2":5.5,"co":229.0,"o3":98.0,"so2":8.2,"mosquito_risk":0,"arthritis_risk":5,"migraine_risk":7,"frizz_risk":0,"updated_at":"2026-05-04T09:01:24.561548+05:30"},{"city":"Mysore","state":"Karnataka","latitude":12.2958,"longitude":76.6396,"temp":27.0,"humidity":65,"rain":0.0,"pressure":930.1,"uv_index":9.4,"wind_gusts":35.3,"aqi":65,"pm10":43.4,"pm2_5":19.3,"no2":5.3,"co":202.0,"o3":74.0,"so2":1.6,"mosquito_risk":7,"arthritis_risk":5,"migraine_risk":7,"frizz_risk":1,"updated_at":"2026-05-04T09:01:24.561556+05:30"},{"city":"Mangalore","state":"Karnataka","latitude":12.9141,"longitude":74.856,"temp":30.8,"humidity":66,"rain":0.0,"pressure":1007.7,"uv_index":9.05,"wind_gusts":45.7,"aqi":69,"pm10":65.7,"pm2_5":21.3,"no2":3.4,"co":187.0,"o3":69.0,"so2":2.1,"mosquito_risk":3,"arthritis_risk":5,"migraine_risk":4,"frizz_risk":1,"updated_at":"2026-05-04T09:01:24.561563+05:30"},{"city":"Hubli-Dharwad","state":"Karnataka","latitude":15.3647,"longitude":75.124,"temp":27.5,"humidity":60,"rain":0.0,"pressure":942.0,"uv_index":9.15,"wind_gusts":49.0,"aqi":56,"pm10":41.6,"pm2_5":14.6,"no2":3.3,"co":192.0,"o3":72.0,"so2":1.4,"mosquito_risk":4,"arthritis_risk":5,"migraine_risk":7,"frizz_risk":1,"updated_at":"2026-05-04T09:01:24.561571+05:30"},{"city":"Belgaum","state":"Karnataka","latitude":15.8497,"longitude":74.4977,"temp":26.4,"humidity":57,"rain":0.0,"pressure":926.8,"uv_index":9.15,"wind_gusts":42.5,"aqi":57,"pm10":45.9,"pm2_5":16.3,"no2":3.9,"co":180.0,"o3":74.0,"so2":1.9,"mosquito_risk":4,"arthritis_risk":5,"migraine_risk":7,"frizz_risk":1,"updated_at":"2026-05-04T09:01:27.931328+05:30"},{"city":"Coimbatore","state":"Tamil Nadu","latitude":11.0168,"longitude":76.9558,"temp":30.2,"humidity":62,"rain":0.0,"pressure":962.5,"uv_index":9.35,"wind_gusts":46.1,"aqi":64,"pm10":50.2,"pm2_5":20.4,"no2":3.7,"co":253.0,"o3":85.0,"so2":2.8,"mosquito_risk":3,"arthritis_risk":5,"migraine_risk":7,"frizz_risk":1,"updated_at":"2026-05-04T09:01:27.931362+05:30"},{"city":"Madurai","state":"Tamil Nadu","latitude":9.9252,"longitude":78.1198,"temp":33.8,"humidity":46,"rain":0.0,"pressure":993.2,"uv_index":6.85,"wind_gusts":49.7,"aqi":89,"pm10":42.5,"pm2_5":31.3,"no2":13.0,"co":274.0,"o3":135.0,"so2":8.4,"mosquito_risk":0,"arthritis_risk":5,"migraine_risk":7,"frizz_risk":1,"updated_at":"2026-05-04T09:01:27.931374+05:30"},{"city":"Trichy","state":"Tamil Nadu","latitude":10.7905,"longitude":78.7047,"temp":33.3,"humidity":50,"rain":0.0,"pressure":999.6,"uv_index":9.0,"wind_gusts":41.8,"aqi":75,"pm10":41.1,"pm2_5":20.6,"no2":6.2,"co":184.0,"o3":73.0,"so2":5.5,"mosquito_risk":0,"arthritis_risk":5,"migraine_risk":7,"frizz_risk":1,"updated_at":"2026-05-04T09:01:27.931384+05:30"},{"city":"Salem","state":"Tamil Nadu","latitude":11.6643,"longitude":78.146,"temp":30.8,"humidity":60,"rain":0.0,"pressure":978.0,"uv_index":9.3,"wind_gusts":61.2,"aqi":77,"pm10":46.0,"pm2_5":25.7,"no2":11.1,"co":270.0,"o3":86.0,"so2":15.2,"mosquito_risk":0,"arthritis_risk":5,"migraine_risk":7,"frizz_risk":1,"updated_at":"2026-05-04T09:01:27.931394+05:30"},{"city":"Tirunelveli","state":"Tamil Nadu","latitude":8.7139,"longitude":77.7567,"temp":33.0,"humidity":49,"rain":0.0,"pressure":1003.5,"uv_index":8.65,"wind_gusts":34.2,"aqi":71,"pm10":46.2,"pm2_5":23.3,"no2":4.3,"co":217.0,"o3":81.0,"so2":1.8,"mosquito_risk":0,"arthritis_risk":5,"migraine_risk":4,"frizz_risk":1,"updated_at":"2026-05-04T09:01:27.931404+05:30"},{"city":"Vellore","state":"Tamil Nadu","latitude":12.9165,"longitude":79.1325,"temp":34.7,"humidity":38,"rain":0.0,"pressure":984.1,"uv_index":8.95,"wind_gusts":40.7,"aqi":83,"pm10":42.6,"pm2_5":27.8,"no2":8.4,"co":247.0,"o3":108.0,"so2":8.8,"mosquito_risk":0,"arthritis_risk":5,"migraine_risk":7,"frizz_risk":1,"updated_at":"2026-05-04T09:01:27.931412+05:30"},{"city":"Erode","state":"Tamil Nadu","latitude":11.341,"longitude":77.7172,"temp":32.8,"humidity":51,"rain":0.0,"pressure":989.4,"uv_index":9.3,"wind_gusts":56.9,"aqi":66,"pm10":46.1,"pm2_5":22.2,"no2":6.9,"co":253.0,"o3":81.0,"so2":2.8,"mosquito_risk":0,"arthritis_risk":5,"migraine_risk":7,"frizz_risk":1,"updated_at":"2026-05-04T09:01:27.931420+05:30"},{"city":"Kochi","state":"Kerala","latitude":9.9312,"longitude":76.2673,"temp":29.6,"humidity":75,"rain":0.0,"pressure":1009.5,"uv_index":9.0,"wind_gusts":28.8,"aqi":101,"pm10":70.3,"pm2_5":33.5,"no2":12.7,"co":255.0,"o3":67.0,"so2":4.4,"mosquito_risk":7,"arthritis_risk":0,"migraine_risk":4,"frizz_risk":1,"updated_at":"2026-05-04T09:01:27.931428+05:30"},{"city":"Thiruvananthapuram","state":"Kerala","latitude":8.5241,"longitude":76.9366,"temp":29.2,"humidity":77,"rain":0.0,"pressure":1008.9,"uv_index":8.9,"wind_gusts":37.8,"aqi":61,"pm10":52.0,"pm2_5":27.5,"no2":6.4,"co":234.0,"o3":74.0,"so2":4.4,"mosquito_risk":7,"arthritis_risk":0,"migraine_risk":4,"frizz_risk":1,"updated_at":"2026-05-04T09:01:27.931435+05:30"},{"city":"Kozhikode","state":"Kerala","latitude":11.2588,"longitude":75.7804,"temp":29.5,"humidity":80,"rain":0.0,"pressure":1008.5,"uv_index":9.0,"wind_gusts":41.4,"aqi":69,"pm10":69.8,"pm2_5":20.7,"no2":1.4,"co":289.0,"o3":70.0,"so2":1.5,"mosquito_risk":7,"arthritis_risk":0,"migraine_risk":4,"frizz_risk":1,"updated_at":"2026-05-04T09:01:27.931443+05:30"},{"city":"Thrissur","state":"Kerala","latitude":10.5276,"longitude":76.2144,"temp":30.0,"humidity":74,"rain":0.0,"pressure":1007.7,"uv_index":9.05,"wind_gusts":31.7,"aqi":89,"pm10":75.0,"pm2_5":31.4,"no2":7.2,"co":261.0,"o3":67.0,"so2":3.2,"mosquito_risk":7,"arthritis_risk":5,"migraine_risk":4,"frizz_risk":1,"updated_at":"2026-05-04T09:01:27.931451+05:30"},{"city":"Kannur","state":"Kerala","latitude":11.8745,"longitude":75.3704,"temp":31.0,"humidity":66,"rain":0.1,"pressure":1008.0,"uv_index":9.0,"wind_gusts":46.4,"aqi":69,"pm10":66.6,"pm2_5":22.1,"no2":3.9,"co":176.0,"o3":63.0,"so2":1.8,"mosquito_risk":6,"arthritis_risk":0,"migraine_risk":4,"frizz_risk":1,"updated_at":"2026-05-04T09:01:27.931459+05:30"},{"city":"Patna","state":"Bihar","latitude":25.5941,"longitude":85.1376,"temp":28.5,"humidity":67,"rain":0.0,"pressure":1003.2,"uv_index":8.7,"wind_gusts":47.9,"aqi":128,"pm10":54.4,"pm2_5":43.2,"no2":6.9,"co":327.0,"o3":135.0,"so2":12.9,"mosquito_risk":7,"arthritis_risk":5,"migraine_risk":4,"frizz_risk":1,"updated_at":"2026-05-04T09:01:27.931466+05:30"},{"city":"Gaya","state":"Bihar","latitude":24.7914,"longitude":85.0002,"temp":30.0,"humidity":63,"rain":0.0,"pressure":995.7,"uv_index":8.8,"wind_gusts":45.7,"aqi":145,"pm10":49.2,"pm2_5":41.2,"no2":4.3,"co":400.0,"o3":128.0,"so2":9.9,"mosquito_risk":7,"arthritis_risk":5,"migraine_risk":7,"frizz_risk":1,"updated_at":"2026-05-04T09:01:27.931473+05:30"},{"city":"Muzaffarpur","state":"Bihar","latitude":26.1209,"longitude":85.3647,"temp":27.5,"humidity":69,"rain":0.0,"pressure":1004.0,"uv_index":8.7,"wind_gusts":47.5,"aqi":108,"pm10":51.7,"pm2_5":41.3,"no2":6.4,"co":313.0,"o3":123.0,"so2":9.0,"mosquito_risk":7,"arthritis_risk":5,"migraine_risk":4,"frizz_risk":1,"updated_at":"2026-05-04T09:01:27.931481+05:30"},{"city":"Bhagalpur","state":"Bihar","latitude":25.2425,"longitude":87.0117,"temp":27.6,"humidity":68,"rain":0.0,"pressure":1005.2,"uv_index":8.7,"wind_gusts":36.7,"aqi":119,"pm10":29.3,"pm2_5":23.5,"no2":8.2,"co":254.0,"o3":112.0,"so2":7.0,"mosquito_risk":7,"arthritis_risk":5,"migraine_risk":4,"frizz_risk":1,"updated_at":"2026-05-04T09:01:27.931488+05:30"},{"city":"Ranchi","state":"Jharkhand","latitude":23.3441,"longitude":85.3096,"temp":27.9,"humidity":55,"rain":0.0,"pressure":940.2,"uv_index":8.25,"wind_gusts":37.8,"aqi":95,"pm10":55.9,"pm2_5":46.1,"no2":18.8,"co":471.0,"o3":133.0,"so2":45.9,"mosquito_risk":4,"arthritis_risk":5,"migraine_risk":7,"frizz_risk":1,"updated_at":"2026-05-04T09:01:27.931495+05:30"},{"city":"Jamshedpur","state":"Jharkhand","latitude":22.8046,"longitude":86.2029,"temp":31.1,"humidity":60,"rain":0.0,"pressure":992.9,"uv_index":9.05,"wind_gusts":40.3,"aqi":110,"pm10":43.2,"pm2_5":32.5,"no2":8.6,"co":347.0,"o3":121.0,"so2":21.6,"mosquito_risk":0,"arthritis_risk":5,"migraine_risk":7,"frizz_risk":1,"updated_at":"2026-05-04T09:01:27.931503+05:30"},{"city":"Dhanbad","state":"Jharkhand","latitude":23.7957,"longitude":86.4304,"temp":27.4,"humidity":79,"rain":0.0,"pressure":982.7,"uv_index":9.0,"wind_gusts":41.0,"aqi":151,"pm10":49.5,"pm2_5":43.7,"no2":22.7,"co":374.0,"o3":93.0,"so2":46.6,"mosquito_risk":7,"arthritis_risk":5,"migraine_risk":7,"frizz_risk":1,"updated_at":"2026-05-04T09:01:27.931510+05:30"},{"city":"Bokaro","state":"Jharkhand","latitude":23.6693,"longitude":86.1511,"temp":29.2,"humidity":69,"rain":0.0,"pressure":986.3,"uv_index":9.0,"wind_gusts":43.9,"aqi":153,"pm10":55.1,"pm2_5":49.4,"no2":29.4,"co":397.0,"o3":80.0,"so2":60.7,"mosquito_risk":7,"arthritis_risk":5,"migraine_risk":7,"frizz_risk":1,"updated_at":"2026-05-04T09:01:27.931534+05:30"},{"city":"Bhubaneswar","state":"Odisha","latitude":20.2961,"longitude":85.8245,"temp":31.1,"humidity":64,"rain":0.0,"pressure":1003.6,"uv_index":9.1,"wind_gusts":38.9,"aqi":71,"pm10":25.4,"pm2_5":19.4,"no2":2.7,"co":192.0,"o3":95.0,"so2":3.6,"mosquito_risk":3,"arthritis_risk":5,"migraine_risk":4,"frizz_risk":1,"updated_at":"2026-05-04T09:01:27.931543+05:30"},{"city":"Cuttack","state":"Odisha","latitude":20.4625,"longitude":85.8828,"temp":31.1,"humidity":64,"rain":0.0,"pressure":1005.5,"uv_index":9.15,"wind_gusts":37.1,"aqi":71,"pm10":25.4,"pm2_5":19.4,"no2":2.7,"co":200.0,"o3":95.0,"so2":3.6,"mosquito_risk":3,"arthritis_risk":5,"migraine_risk":4,"frizz_risk":1,"updated_at":"2026-05-04T09:01:27.931552+05:30"},{"city":"Rourkela","state":"Odisha","latitude":22.2604,"longitude":84.8536,"temp":30.4,"humidity":64,"rain":0.0,"pressure":986.6,"uv_index":8.7,"wind_gusts":36.0,"aqi":106,"pm10":53.7,"pm2_5":40.6,"no2":10.2,"co":314.0,"o3":151.0,"so2":60.5,"mosquito_risk":3,"arthritis_risk":5,"migraine_risk":7,"frizz_risk":1,"updated_at":"2026-05-04T09:01:27.931560+05:30"},{"city":"Raipur","state":"Chhattisgarh","latitude":21.2514,"longitude":81.6296,"temp":32.7,"humidity":43,"rain":0.0,"pressure":975.0,"uv_index":9.0,"wind_gusts":37.1,"aqi":99,"pm10":63.3,"pm2_5":47.7,"no2":25.7,"co":674.0,"o3":175.0,"so2":9.2,"mosquito_risk":0,"arthritis_risk":5,"migraine_risk":7,"frizz_risk":1,"updated_at":"2026-05-04T09:01:27.931567+05:30"},{"city":"Bhilai","state":"Chhattisgarh","latitude":21.1938,"longitude":81.3509,"temp":31.6,"humidity":51,"rain":0.0,"pressure":975.4,"uv_index":9.0,"wind_gusts":36.7,"aqi":108,"pm10":59.3,"pm2_5":45.6,"no2":22.7,"co":813.0,"o3":146.0,"so2":8.1,"mosquito_risk":0,"arthritis_risk":5,"migraine_risk":7,"frizz_risk":1,"updated_at":"2026-05-04T09:01:27.931575+05:30"},{"city":"Guwahati","state":"Assam","latitude":26.1158,"longitude":91.7086,"temp":26.0,"humidity":75,"rain":0.0,"pressure":1006.5,"uv_index":8.65,"wind_gusts":29.2,"aqi":74,"pm10":38.3,"pm2_5":27.3,"no2":2.7,"co":340.0,"o3":113.0,"so2":2.8,"mosquito_risk":7,"arthritis_risk":5,"migraine_risk":4,"frizz_risk":1,"updated_at":"2026-05-04T09:01:27.931583+05:30"},{"city":"Agartala","state":"Tripura","latitude":23.8315,"longitude":91.2868,"temp":24.9,"humidity":87,"rain":0.2,"pressure":1010.8,"uv_index":8.85,"wind_gusts":31.3,"aqi":51,"pm10":15.3,"pm2_5":11.6,"no2":7.8,"co":187.0,"o3":78.0,"so2":1.5,"mosquito_risk":6,"arthritis_risk":0,"migraine_risk":4,"frizz_risk":1,"updated_at":"2026-05-04T09:01:27.931591+05:30"},{"city":"Shillong","state":"Meghalaya","latitude":25.5788,"longitude":91.8933,"temp":20.5,"humidity":64,"rain":0.0,"pressure":861.2,"uv_index":9.05,"wind_gusts":27.0,"aqi":62,"pm10":42.5,"pm2_5":19.6,"no2":1.8,"co":236.0,"o3":113.0,"so2":1.7,"mosquito_risk":3,"arthritis_risk":5,"migraine_risk":7,"frizz_risk":0,"updated_at":"2026-05-04T09:01:27.931599+05:30"},{"city":"Imphal","state":"Manipur","latitude":24.817,"longitude":93.9368,"temp":23.2,"humidity":73,"rain":0.0,"pressure":927.9,"uv_index":9.15,"wind_gusts":23.4,"aqi":91,"pm10":32.9,"pm2_5":19.7,"no2":2.1,"co":287.0,"o3":92.0,"so2":1.6,"mosquito_risk":3,"arthritis_risk":5,"migraine_risk":7,"frizz_risk":1,"updated_at":"2026-05-04T09:01:27.931607+05:30"},{"city":"Aizawl","state":"Mizoram","latitude":23.7271,"longitude":92.7176,"temp":23.1,"humidity":65,"rain":0.0,"pressure":896.8,"uv_index":9.05,"wind_gusts":26.6,"aqi":32,"pm10":8.9,"pm2_5":4.7,"no2":1.4,"co":187.0,"o3":83.0,"so2":0.4,"mosquito_risk":3,"arthritis_risk":5,"migraine_risk":7,"frizz_risk":1,"updated_at":"2026-05-04T09:01:27.931615+05:30"},{"city":"Kohima","state":"Nagaland","latitude":25.6701,"longitude":94.1077,"temp":21.5,"humidity":68,"rain":0.1,"pressure":859.8,"uv_index":9.05,"wind_gusts":27.7,"aqi":64,"pm10":41.4,"pm2_5":17.2,"no2":1.0,"co":205.0,"o3":110.0,"so2":1.0,"mosquito_risk":6,"arthritis_risk":5,"migraine_risk":7,"frizz_risk":0,"updated_at":"2026-05-04T09:01:27.931622+05:30"},{"city":"Gangtok","state":"Sikkim","latitude":27.3314,"longitude":88.6138,"temp":16.4,"humidity":88,"rain":0.1,"pressure":840.9,"uv_index":8.85,"wind_gusts":31.7,"aqi":59,"pm10":17.0,"pm2_5":12.5,"no2":1.8,"co":277.0,"o3":123.0,"so2":0.8,"mosquito_risk":6,"arthritis_risk":10,"migraine_risk":7,"frizz_risk":0,"updated_at":"2026-05-04T09:01:27.931630+05:30"},{"city":"Siliguri","state":"West Bengal","latitude":26.7271,"longitude":88.3953,"temp":26.9,"humidity":65,"rain":0.0,"pressure":998.1,"uv_index":8.55,"wind_gusts":32.4,"aqi":80,"pm10":33.2,"pm2_5":24.5,"no2":2.9,"co":372.0,"o3":134.0,"so2":2.4,"mosquito_risk":7,"arthritis_risk":5,"migraine_risk":7,"frizz_risk":1,"updated_at":"2026-05-04T09:01:31.281144+05:30"},{"city":"Durgapur","state":"West Bengal","latitude":23.5204,"longitude":87.3119,"temp":24.1,"humidity":95,"rain":0.2,"pressure":998.6,"uv_index":8.95,"wind_gusts":43.9,"aqi":132,"pm10":38.5,"pm2_5":33.1,"no2":17.8,"co":350.0,"o3":104.0,"so2":30.1,"mosquito_risk":6,"arthritis_risk":5,"migraine_risk":7,"frizz_risk":1,"updated_at":"2026-05-04T09:01:31.281179+05:30"},{"city":"Asansol","state":"West Bengal","latitude":23.6739,"longitude":86.9524,"temp":26.5,"humidity":84,"rain":0.0,"pressure":996.7,"uv_index":9.0,"wind_gusts":42.8,"aqi":141,"pm10":39.2,"pm2_5":34.2,"no2":19.0,"co":345.0,"o3":97.0,"so2":32.3,"mosquito_risk":7,"arthritis_risk":5,"migraine_risk":7,"frizz_risk":1,"updated_at":"2026-05-04T09:01:31.281191+05:30"},{"city":"Pondicherry","state":"Puducherry","latitude":11.9139,"longitude":79.8145,"temp":31.1,"humidity":76,"rain":0.0,"pressure":1007.7,"uv_index":8.25,"wind_gusts":45.7,"aqi":75,"pm10":20.3,"pm2_5":16.7,"no2":7.9,"co":248.0,"o3":87.0,"so2":7.7,"mosquito_risk":3,"arthritis_risk":5,"migraine_risk":4,"frizz_risk":1,"updated_at":"2026-05-04T09:01:31.281202+05:30"},{"city":"Port Blair","state":"Andaman and Nicobar Islands","latitude":11.6234,"longitude":92.7265,"temp":33.5,"humidity":51,"rain":0.0,"pressure":1009.0,"uv_index":9.15,"wind_gusts":34.6,"aqi":26,"pm10":7.3,"pm2_5":5.3,"no2":0.5,"co":166.0,"o3":60.0,"so2":0.9,"mosquito_risk":0,"arthritis_risk":0,"migraine_risk":4,"frizz_risk":1,"updated_at":"2026-05-04T09:01:31.281212+05:30"},{"city":"Haridwar","state":"Uttarakhand","latitude":29.9457,"longitude":78.1642,"temp":26.7,"humidity":56,"rain":0.0,"pressure":975.0,"uv_index":7.1,"wind_gusts":43.9,"aqi":123,"pm10":58.0,"pm2_5":30.0,"no2":4.9,"co":287.0,"o3":120.0,"so2":7.4,"mosquito_risk":4,"arthritis_risk":5,"migraine_risk":7,"frizz_risk":1,"updated_at":"2026-05-04T09:01:31.281220+05:30"},{"city":"Rishikesh","state":"Uttarakhand","latitude":30.0869,"longitude":78.2676,"temp":25.9,"humidity":55,"rain":0.0,"pressure":967.6,"uv_index":7.2,"wind_gusts":41.0,"aqi":109,"pm10":51.7,"pm2_5":24.6,"no2":4.3,"co":269.0,"o3":120.0,"so2":4.2,"mosquito_risk":4,"arthritis_risk":5,"migraine_risk":7,"frizz_risk":1,"updated_at":"2026-05-04T09:01:31.281228+05:30"},{"city":"Nainital","state":"Uttarakhand","latitude":29.3919,"longitude":79.4542,"temp":12.5,"humidity":78,"rain":0.0,"pressure":805.7,"uv_index":5.15,"wind_gusts":37.4,"aqi":106,"pm10":86.8,"pm2_5":32.6,"no2":7.6,"co":291.0,"o3":110.0,"so2":3.3,"mosquito_risk":3,"arthritis_risk":5,"migraine_risk":3,"frizz_risk":0,"updated_at":"2026-05-04T09:01:31.281236+05:30"},{"city":"Mussoorie","state":"Uttarakhand","latitude":30.4599,"longitude":78.0664,"temp":15.8,"humidity":55,"rain":0.0,"pressure":803.8,"uv_index":7.2,"wind_gusts":45.4,"aqi":90,"pm10":42.8,"pm2_5":19.1,"no2":9.8,"co":237.0,"o3":104.0,"so2":5.3,"mosquito_risk":0,"arthritis_risk":5,"migraine_risk":7,"frizz_risk":0,"updated_at":"2026-05-04T09:01:31.281243+05:30"},{"city":"Dharamshala","state":"Himachal Pradesh","latitude":32.219,"longitude":76.3234,"temp":19.7,"humidity":48,"rain":0.0,"pressure":868.8,"uv_index":4.45,"wind_gusts":58.0,"aqi":69,"pm10":38.4,"pm2_5":9.7,"no2":4.2,"co":317.0,"o3":117.0,"so2":0.4,"mosquito_risk":0,"arthritis_risk":5,"migraine_risk":3,"frizz_risk":0,"updated_at":"2026-05-04T09:01:31.281251+05:30"},{"city":"Dalhousie","state":"Himachal Pradesh","latitude":32.5387,"longitude":75.971,"temp":15.2,"humidity":67,"rain":0.0,"pressure":803.9,"uv_index":5.2,"wind_gusts":41.0,"aqi":62,"pm10":65.4,"pm2_5":23.3,"no2":10.3,"co":413.0,"o3":109.0,"so2":0.6,"mosquito_risk":3,"arthritis_risk":5,"migraine_risk":3,"frizz_risk":0,"updated_at":"2026-05-04T09:01:31.281260+05:30"},{"city":"Patiala","state":"Punjab","latitude":30.3398,"longitude":76.3869,"temp":27.0,"humidity":53,"rain":0.0,"pressure":978.0,"uv_index":7.35,"wind_gusts":56.2,"aqi":700,"pm10":125.3,"pm2_5":37.6,"no2":5.4,"co":313.0,"o3":141.0,"so2":13.1,"mosquito_risk":4,"arthritis_risk":5,"migraine_risk":7,"frizz_risk":1,"updated_at":"2026-05-04T09:01:31.281267+05:30"},{"city":"Bhatinda","state":"Punjab","latitude":30.211,"longitude":74.9455,"temp":27.4,"humidity":53,"rain":0.0,"pressure":982.7,"uv_index":7.95,"wind_gusts":56.5,"aqi":630,"pm10":555.1,"pm2_5":99.0,"no2":5.5,"co":368.0,"o3":140.0,"so2":15.7,"mosquito_risk":4,"arthritis_risk":5,"migraine_risk":7,"frizz_risk":1,"updated_at":"2026-05-04T09:01:31.281274+05:30"},{"city":"Rohtak","state":"Haryana","latitude":28.8955,"longitude":76.6066,"temp":27.1,"humidity":58,"rain":0.0,"pressure":980.9,"uv_index":7.5,"wind_gusts":51.1,"aqi":896,"pm10":1546.0,"pm2_5":187.7,"no2":13.5,"co":343.0,"o3":130.0,"so2":22.0,"mosquito_risk":4,"arthritis_risk":5,"migraine_risk":7,"frizz_risk":1,"updated_at":"2026-05-04T09:01:31.281282+05:30"},{"city":"Panipat","state":"Haryana","latitude":29.3909,"longitude":76.9635,"temp":26.2,"humidity":62,"rain":0.0,"pressure":980.3,"uv_index":7.35,"wind_gusts":54.0,"aqi":1363,"pm10":95.9,"pm2_5":328.8,"no2":7.5,"co":318.0,"o3":128.0,"so2":15.0,"mosquito_risk":7,"arthritis_risk":5,"migraine_risk":7,"frizz_risk":1,"updated_at":"2026-05-04T09:01:31.281289+05:30"},{"city":"Mathura","state":"Uttar Pradesh","latitude":27.4924,"longitude":77.6737,"temp":27.9,"humidity":60,"rain":0.0,"pressure":986.2,"uv_index":7.8,"wind_gusts":54.7,"aqi":941,"pm10":1419.3,"pm2_5":152.7,"no2":6.0,"co":329.0,"o3":140.0,"so2":11.0,"mosquito_risk":4,"arthritis_risk":5,"migraine_risk":7,"frizz_risk":1,"updated_at":"2026-05-04T09:01:31.281296+05:30"},{"city":"Vrindavan","state":"Uttar Pradesh","latitude":27.5823,"longitude":77.7027,"temp":28.0,"humidity":59,"rain":0.0,"pressure":986.6,"uv_index":7.8,"wind_gusts":54.0,"aqi":941,"pm10":1419.3,"pm2_5":152.7,"no2":6.0,"co":334.0,"o3":140.0,"so2":11.0,"mosquito_risk":4,"arthritis_risk":5,"migraine_risk":7,"frizz_risk":1,"updated_at":"2026-05-04T09:01:31.281301+05:30"},{"city":"Ayodhya","state":"Uttar Pradesh","latitude":26.7922,"longitude":82.1998,"temp":28.5,"humidity":61,"rain":0.0,"pressure":997.5,"uv_index":8.2,"wind_gusts":43.6,"aqi":86,"pm10":32.8,"pm2_5":26.7,"no2":5.2,"co":418.0,"o3":131.0,"so2":8.6,"mosquito_risk":7,"arthritis_risk":5,"migraine_risk":7,"frizz_risk":1,"updated_at":"2026-05-04T09:01:31.281307+05:30"},{"city":"Ratlam","state":"Madhya Pradesh","latitude":23.3315,"longitude":75.0367,"temp":28.6,"humidity":63,"rain":0.0,"pressure":953.6,"uv_index":8.5,"wind_gusts":38.2,"aqi":41,"pm10":24.9,"pm2_5":12.4,"no2":2.9,"co":167.0,"o3":71.0,"so2":9.0,"mosquito_risk":7,"arthritis_risk":5,"migraine_risk":7,"frizz_risk":1,"updated_at":"2026-05-04T09:01:31.281313+05:30"},{"city":"Sagar","state":"Madhya Pradesh","latitude":23.8388,"longitude":78.7378,"temp":32.5,"humidity":31,"rain":0.0,"pressure":949.3,"uv_index":8.6,"wind_gusts":37.4,"aqi":64,"pm10":48.1,"pm2_5":19.6,"no2":4.3,"co":228.0,"o3":120.0,"so2":10.9,"mosquito_risk":0,"arthritis_risk":5,"migraine_risk":7,"frizz_risk":0,"updated_at":"2026-05-04T09:01:31.281319+05:30"},{"city":"Satna","state":"Madhya Pradesh","latitude":24.6005,"longitude":80.8322,"temp":31.3,"humidity":47,"rain":0.0,"pressure":970.2,"uv_index":8.25,"wind_gusts":50.0,"aqi":83,"pm10":58.9,"pm2_5":40.4,"no2":8.4,"co":312.0,"o3":138.0,"so2":21.8,"mosquito_risk":0,"arthritis_risk":5,"migraine_risk":7,"frizz_risk":1,"updated_at":"2026-05-04T09:01:31.281325+05:30"},{"city":"Akola","state":"Maharashtra","latitude":20.7002,"longitude":77.0082,"temp":31.5,"humidity":37,"rain":0.0,"pressure":974.5,"uv_index":8.85,"wind_gusts":33.5,"aqi":52,"pm10":29.3,"pm2_5":12.6,"no2":4.8,"co":199.0,"o3":82.0,"so2":14.4,"mosquito_risk":0,"arthritis_risk":5,"migraine_risk":7,"frizz_risk":0,"updated_at":"2026-05-04T09:01:31.281331+05:30"},{"city":"Amravati","state":"Maharashtra","latitude":20.9374,"longitude":77.7796,"temp":32.0,"humidity":28,"rain":0.0,"pressure":966.9,"uv_index":8.9,"wind_gusts":34.2,"aqi":54,"pm10":26.7,"pm2_5":11.6,"no2":4.8,"co":199.0,"o3":87.0,"so2":12.0,"mosquito_risk":0,"arthritis_risk":5,"migraine_risk":7,"frizz_risk":0,"updated_at":"2026-05-04T09:01:31.281338+05:30"},{"city":"Latur","state":"Maharashtra","latitude":18.4088,"longitude":76.5604,"temp":31.1,"humidity":24,"rain":0.0,"pressure":940.3,"uv_index":9.1,"wind_gusts":40.7,"aqi":60,"pm10":41.3,"pm2_5":13.4,"no2":4.2,"co":206.0,"o3":79.0,"so2":4.8,"mosquito_risk":0,"arthritis_risk":5,"migraine_risk":7,"frizz_risk":0,"updated_at":"2026-05-04T09:01:31.281344+05:30"},{"city":"Nanded","state":"Maharashtra","latitude":19.1383,"longitude":77.3091,"temp":32.9,"humidity":26,"rain":0.0,"pressure":968.7,"uv_index":9.0,"wind_gusts":29.9,"aqi":61,"pm10":36.4,"pm2_5":15.3,"no2":5.5,"co":224.0,"o3":92.0,"so2":8.1,"mosquito_risk":0,"arthritis_risk":5,"migraine_risk":7,"frizz_risk":0,"updated_at":"2026-05-04T09:01:31.281349+05:30"},{"city":"Gulbarga","state":"Karnataka","latitude":17.3297,"longitude":76.8343,"temp":32.2,"humidity":27,"rain":0.0,"pressure":959.3,"uv_index":9.1,"wind_gusts":40.0,"aqi":57,"pm10":34.0,"pm2_5":13.4,"no2":5.3,"co":215.0,"o3":78.0,"so2":5.1,"mosquito_risk":0,"arthritis_risk":5,"migraine_risk":7,"frizz_risk":0,"updated_at":"2026-05-04T09:01:31.281355+05:30"},{"city":"Bidar","state":"Karnataka","latitude":17.9104,"longitude":77.5199,"temp":32.8,"humidity":18,"rain":0.0,"pressure":936.4,"uv_index":9.15,"wind_gusts":30.6,"aqi":78,"pm10":39.2,"pm2_5":16.4,"no2":6.6,"co":231.0,"o3":92.0,"so2":8.6,"mosquito_risk":0,"arthritis_risk":5,"migraine_risk":7,"frizz_risk":0,"updated_at":"2026-05-04T09:01:31.281361+05:30"},{"city":"Hospet","state":"Karnataka","latitude":15.2689,"longitude":76.3909,"temp":28.0,"humidity":62,"rain":0.0,"pressure":957.1,"uv_index":9.2,"wind_gusts":36.7,"aqi":59,"pm10":34.7,"pm2_5":14.1,"no2":4.1,"co":193.0,"o3":68.0,"so2":2.4,"mosquito_risk":7,"arthritis_risk":5,"migraine_risk":7,"frizz_risk":1,"updated_at":"2026-05-04T09:01:31.281366+05:30"},{"city":"Tirupur","state":"Tamil Nadu","latitude":11.1085,"longitude":77.3411,"temp":31.3,"humidity":59,"rain":0.0,"pressure":975.7,"uv_index":9.4,"wind_gusts":49.7,"aqi":68,"pm10":50.4,"pm2_5":23.9,"no2":6.9,"co":240.0,"o3":90.0,"so2":3.5,"mosquito_risk":0,"arthritis_risk":5,"migraine_risk":7,"frizz_risk":1,"updated_at":"2026-05-04T09:01:31.281372+05:30"},{"city":"Alappuzha","state":"Kerala","latitude":9.4981,"longitude":76.3388,"temp":30.6,"humidity":69,"rain":0.0,"pressure":1009.4,"uv_index":8.55,"wind_gusts":32.0,"aqi":82,"pm10":68.2,"pm2_5":32.9,"no2":11.7,"co":443.0,"o3":72.0,"so2":5.8,"mosquito_risk":3,"arthritis_risk":0,"migraine_risk":4,"frizz_risk":1,"updated_at":"2026-05-04T09:01:31.281378+05:30"},{"city":"Munnar","state":"Kerala","latitude":10.0889,"longitude":77.0595,"temp":22.4,"humidity":67,"rain":0.0,"pressure":858.9,"uv_index":8.8,"wind_gusts":27.0,"aqi":75,"pm10":51.3,"pm2_5":20.4,"no2":2.7,"co":206.0,"o3":76.0,"so2":1.1,"mosquito_risk":3,"arthritis_risk":5,"migraine_risk":7,"frizz_risk":0,"updated_at":"2026-05-04T09:01:31.281383+05:30"},{"city":"Silchar","state":"Assam","latitude":24.8333,"longitude":92.7789,"temp":27.4,"humidity":74,"rain":0.0,"pressure":1009.8,"uv_index":8.85,"wind_gusts":30.2,"aqi":91,"pm10":38.4,"pm2_5":24.6,"no2":4.1,"co":274.0,"o3":90.0,"so2":4.7,"mosquito_risk":7,"arthritis_risk":0,"migraine_risk":4,"frizz_risk":1,"updated_at":"2026-05-04T09:01:31.281389+05:30"},{"city":"Dibrugarh","state":"Assam","latitude":27.4728,"longitude":94.912,"temp":25.0,"humidity":79,"rain":0.0,"pressure":1001.0,"uv_index":8.8,"wind_gusts":21.6,"aqi":84,"pm10":27.4,"pm2_5":22.2,"no2":1.6,"co":291.0,"o3":111.0,"so2":1.1,"mosquito_risk":7,"arthritis_risk":5,"migraine_risk":4,"frizz_risk":1,"updated_at":"2026-05-04T09:01:31.281394+05:30"}]