[{"city":"Delhi","state":"Delhi","latitude":28.6139,"longitude":77.209,"temp":31.2,"humidity":40,"rain":0.0,"pressure":985.6,"uv_index":7.55,"wind_gusts":34.9,"aqi":431,"pm10":486.2,"pm2_5":73.8,"no2":10.7,"co":478.0,"o3":186.0,"so2":24.6,"mosquito_risk":0,"arthritis_risk":5,"migraine_risk":7,"frizz_risk":1,"updated_at":"2026-05-08T11:28:58.880604+05:30"},{"city":"Mumbai","state":"Maharashtra","latitude":19.076,"longitude":72.8777,"temp":35.0,"humidity":48,"rain":0.0,"pressure":1008.5,"uv_index":7.85,"wind_gusts":45.0,"aqi":92,"pm10":101.5,"pm2_5":44.0,"no2":13.0,"co":370.0,"o3":165.0,"so2":40.4,"mosquito_risk":0,"arthritis_risk":0,"migraine_risk":4,"frizz_risk":1,"updated_at":"2026-05-08T11:28:58.880645+05:30"},{"city":"Bangalore","state":"Karnataka","latitude":12.9716,"longitude":77.5946,"temp":30.5,"humidity":44,"rain":0.0,"pressure":912.9,"uv_index":9.45,"wind_gusts":40.0,"aqi":57,"pm10":12.0,"pm2_5":10.4,"no2":5.2,"co":319.0,"o3":82.0,"so2":6.2,"mosquito_risk":0,"arthritis_risk":5,"migraine_risk":7,"frizz_risk":1,"updated_at":"2026-05-08T11:28:58.880661+05:30"},{"city":"Hyderabad","state":"Telangana","latitude":17.385,"longitude":78.4867,"temp":32.5,"humidity":44,"rain":0.0,"pressure":955.3,"uv_index":9.25,"wind_gusts":34.9,"aqi":54,"pm10":14.5,"pm2_5":10.0,"no2":3.0,"co":278.0,"o3":105.0,"so2":4.8,"mosquito_risk":0,"arthritis_risk":5,"migraine_risk":7,"frizz_risk":1,"updated_at":"2026-05-08T11:28:58.880671+05:30"},{"city":"Chennai","state":"Tamil Nadu","latitude":13.0827,"longitude":80.2707,"temp":30.6,"humidity":68,"rain":0.0,"pressure":1007.9,"uv_index":7.6,"wind_gusts":40.0,"aqi":21,"pm10":3.3,"pm2_5":2.4,"no2":3.0,"co":143.0,"o3":54.0,"so2":4.7,"mosquito_risk":3,"arthritis_risk":5,"migraine_risk":4,"frizz_risk":1,"updated_at":"2026-05-08T11:28:58.880680+05:30"},{"city":"Kolkata","state":"West Bengal","latitude":22.5726,"longitude":88.3639,"temp":31.0,"humidity":69,"rain":0.0,"pressure":1009.0,"uv_index":8.9,"wind_gusts":42.1,"aqi":143,"pm10":34.6,"pm2_5":30.3,"no2":4.4,"co":402.0,"o3":175.0,"so2":19.4,"mosquito_risk":3,"arthritis_risk":0,"migraine_risk":4,"frizz_risk":1,"updated_at":"2026-05-08T11:28:58.880689+05:30"},{"city":"Pune","state":"Maharashtra","latitude":18.5204,"longitude":73.8567,"temp":35.0,"humidity":26,"rain":0.0,"pressure":949.7,"uv_index":8.45,"wind_gusts":38.2,"aqi":113,"pm10":73.8,"pm2_5":33.8,"no2":6.2,"co":271.0,"o3":157.0,"so2":15.9,"mosquito_risk":0,"arthritis_risk":5,"migraine_risk":7,"frizz_risk":0,"updated_at":"2026-05-08T11:28:58.880696+05:30"},{"city":"Ahmedabad","state":"Gujarat","latitude":23.0225,"longitude":72.5714,"temp":38.1,"humidity":18,"rain":0.0,"pressure":1002.0,"uv_index":8.1,"wind_gusts":31.7,"aqi":89,"pm10":32.4,"pm2_5":13.7,"no2":4.0,"co":277.0,"o3":115.0,"so2":5.5,"mosquito_risk":0,"arthritis_risk":5,"migraine_risk":7,"frizz_risk":0,"updated_at":"2026-05-08T11:28:58.880706+05:30"},{"city":"Jaipur","state":"Rajasthan","latitude":26.9124,"longitude":75.7873,"temp":32.5,"humidity":29,"rain":0.0,"pressure":960.7,"uv_index":8.1,"wind_gusts":33.1,"aqi":153,"pm10":167.6,"pm2_5":34.6,"no2":3.4,"co":327.0,"o3":137.0,"so2":6.2,"mosquito_risk":0,"arthritis_risk":5,"migraine_risk":7,"frizz_risk":0,"updated_at":"2026-05-08T11:28:58.880713+05:30"},{"city":"Lucknow","state":"Uttar Pradesh","latitude":26.8467,"longitude":80.9462,"temp":30.6,"humidity":49,"rain":0.0,"pressure":997.0,"uv_index":8.05,"wind_gusts":26.3,"aqi":98,"pm10":61.9,"pm2_5":27.3,"no2":3.7,"co":366.0,"o3":166.0,"so2":9.6,"mosquito_risk":0,"arthritis_risk":5,"migraine_risk":7,"frizz_risk":1,"updated_at":"2026-05-08T11:28:58.880721+05:30"},{"city":"Kanpur","state":"Uttar Pradesh","latitude":26.4499,"longitude":80.3319,"temp":31.4,"humidity":43,"rain":0.0,"pressure":994.9,"uv_index":8.05,"wind_gusts":28.1,"aqi":137,"pm10":285.0,"pm2_5":44.5,"no2":3.1,"co":344.0,"o3":174.0,"so2":9.9,"mosquito_risk":0,"arthritis_risk":5,"migraine_risk":7,"frizz_risk":1,"updated_at":"2026-05-08T11:28:58.880728+05:30"},{"city":"Chandigarh","state":"Chandigarh","latitude":30.7333,"longitude":76.7794,"temp":30.8,"humidity":35,"rain":0.0,"pressure":972.0,"uv_index":7.6,"wind_gusts":35.3,"aqi":88,"pm10":108.7,"pm2_5":29.1,"no2":2.6,"co":320.0,"o3":194.0,"so2":8.4,"mosquito_risk":0,"arthritis_risk":5,"migraine_risk":7,"frizz_risk":0,"updated_at":"2026-05-08T11:28:58.880735+05:30"},{"city":"Srinagar","state":"Jammu and Kashmir","latitude":34.0837,"longitude":74.7973,"temp":20.6,"humidity":46,"rain":0.0,"pressure":844.5,"uv_index":8.8,"wind_gusts":19.4,"aqi":81,"pm10":59.1,"pm2_5":14.2,"no2":3.1,"co":369.0,"o3":125.0,"so2":3.2,"mosquito_risk":0,"arthritis_risk":5,"migraine_risk":7,"frizz_risk":0,"updated_at":"2026-05-08T11:28:58.880742+05:30"},{"city":"Jammu","state":"Jammu and Kashmir","latitude":32.7266,"longitude":74.857,"temp":30.7,"humidity":40,"rain":0.0,"pressure":975.4,"uv_index":8.35,"wind_gusts":32.8,"aqi":95,"pm10":166.2,"pm2_5":39.3,"no2":2.8,"co":286.0,"o3":185.0,"so2":9.5,"mosquito_risk":0,"arthritis_risk":5,"migraine_risk":7,"frizz_risk":0,"updated_at":"2026-05-08T11:28:58.880772+05:30"},{"city":"Amritsar","state":"Punjab","latitude":31.634,"longitude":74.8723,"temp":31.9,"humidity":38,"rain":0.0,"pressure":983.5,"uv_index":8.25,"wind_gusts":29.2,"aqi":138,"pm10":387.4,"pm2_5":67.8,"no2":2.3,"co":314.0,"o3":166.0,"so2":11.6,"mosquito_risk":0,"arthritis_risk":5,"migraine_risk":7,"frizz_risk":0,"updated_at":"2026-05-08T11:28:58.880779+05:30"},{"city":"Ludhiana","state":"Punjab","latitude":30.901,"longitude":75.8573,"temp":31.2,"humidity":41,"rain":0.0,"pressure":981.3,"uv_index":7.8,"wind_gusts":28.8,"aqi":200,"pm10":369.7,"pm2_5":59.4,"no2":3.4,"co":339.0,"o3":175.0,"so2":10.8,"mosquito_risk":0,"arthritis_risk":5,"migraine_risk":7,"frizz_risk":1,"updated_at":"2026-05-08T11:28:58.880785+05:30"},{"city":"Jalandhar","state":"Punjab","latitude":31.326,"longitude":75.5762,"temp":31.2,"humidity":40,"rain":0.0,"pressure":982.5,"uv_index":8.0,"wind_gusts":30.6,"aqi":139,"pm10":274.7,"pm2_5":54.1,"no2":3.2,"co":330.0,"o3":172.0,"so2":11.8,"mosquito_risk":0,"arthritis_risk":5,"migraine_risk":7,"frizz_risk":1,"updated_at":"2026-05-08T11:28:58.880792+05:30"},{"city":"Dehradun","state":"Uttarakhand","latitude":30.6284,"longitude":78.0322,"temp":19.0,"humidity":60,"rain":0.1,"pressure":834.3,"uv_index":5.7,"wind_gusts":23.4,"aqi":64,"pm10":26.8,"pm2_5":11.6,"no2":0.2,"co":190.0,"o3":168.0,"so2":1.1,"mosquito_risk":3,"arthritis_risk":5,"migraine_risk":3,"frizz_risk":0,"updated_at":"2026-05-08T11:28:58.880802+05:30"},{"city":"Shimla","state":"Himachal Pradesh","latitude":31.1048,"longitude":77.1734,"temp":16.2,"humidity":58,"rain":0.1,"pressure":787.7,"uv_index":7.45,"wind_gusts":22.7,"aqi":71,"pm10":69.4,"pm2_5":20.4,"no2":0.6,"co":198.0,"o3":177.0,"so2":3.2,"mosquito_risk":3,"arthritis_risk":5,"migraine_risk":7,"frizz_risk":0,"updated_at":"2026-05-08T11:28:58.880809+05:30"},{"city":"Manali","state":"Himachal Pradesh","latitude":32.2396,"longitude":77.1887,"temp":18.1,"humidity":58,"rain":0.0,"pressure":820.1,"uv_index":9.9,"wind_gusts":36.4,"aqi":54,"pm10":35.6,"pm2_5":6.5,"no2":3.6,"co":180.0,"o3":133.0,"so2":0.4,"mosquito_risk":0,"arthritis_risk":5,"migraine_risk":7,"frizz_risk":0,"updated_at":"2026-05-08T11:28:58.880816+05:30"},{"city":"Gurgaon","state":"Haryana","latitude":28.4595,"longitude":77.0266,"temp":31.1,"humidity":40,"rain":0.0,"pressure":983.8,"uv_index":7.65,"wind_gusts":38.9,"aqi":1899,"pm10":1922.2,"pm2_5":200.7,"no2":8.1,"co":385.0,"o3":174.0,"so2":22.1,"mosquito_risk":0,"arthritis_risk":5,"migraine_risk":7,"frizz_risk":0,"updated_at":"2026-05-08T11:28:58.880823+05:30"},{"city":"Noida","state":"Uttar Pradesh","latitude":28.5355,"longitude":77.391,"temp":31.1,"humidity":42,"rain":0.0,"pressure":987.2,"uv_index":7.6,"wind_gusts":33.8,"aqi":1899,"pm10":1922.2,"pm2_5":200.7,"no2":8.1,"co":382.0,"o3":174.0,"so2":22.1,"mosquito_risk":0,"arthritis_risk":5,"migraine_risk":7,"frizz_risk":1,"updated_at":"2026-05-08T11:28:58.880830+05:30"},{"city":"Ghaziabad","state":"Uttar Pradesh","latitude":28.6692,"longitude":77.4538,"temp":31.0,"humidity":43,"rain":0.0,"pressure":985.7,"uv_index":7.55,"wind_gusts":35.6,"aqi":171,"pm10":312.9,"pm2_5":47.7,"no2":3.8,"co":300.0,"o3":168.0,"so2":9.5,"mosquito_risk":0,"arthritis_risk":5,"migraine_risk":7,"frizz_risk":1,"updated_at":"2026-05-08T11:28:58.880836+05:30"},{"city":"Faridabad","state":"Haryana","latitude":28.4089,"longitude":77.3178,"temp":30.5,"humidity":43,"rain":0.0,"pressure":986.3,"uv_index":7.6,"wind_gusts":34.9,"aqi":1899,"pm10":1922.2,"pm2_5":200.7,"no2":8.1,"co":352.0,"o3":174.0,"so2":22.1,"mosquito_risk":0,"arthritis_risk":5,"migraine_risk":7,"frizz_risk":1,"updated_at":"2026-05-08T11:28:58.880843+05:30"},{"city":"Meerut","state":"Uttar Pradesh","latitude":28.9845,"longitude":77.7064,"temp":29.8,"humidity":50,"rain":0.0,"pressure":984.8,"uv_index":7.5,"wind_gusts":36.0,"aqi":171,"pm10":312.9,"pm2_5":47.7,"no2":3.8,"co":331.0,"o3":168.0,"so2":9.5,"mosquito_risk":4,"arthritis_risk":5,"migraine_risk":7,"frizz_risk":1,"updated_at":"2026-05-08T11:28:58.880849+05:30"},{"city":"Agra","state":"Uttar Pradesh","latitude":27.1767,"longitude":78.0081,"temp":30.9,"humidity":42,"rain":0.0,"pressure":989.9,"uv_index":7.9,"wind_gusts":33.8,"aqi":1236,"pm10":1251.7,"pm2_5":124.3,"no2":3.0,"co":327.0,"o3":167.0,"so2":10.8,"mosquito_risk":0,"arthritis_risk":5,"migraine_risk":7,"frizz_risk":1,"updated_at":"2026-05-08T11:28:58.880856+05:30"},{"city":"Varanasi","state":"Uttar Pradesh","latitude":25.3176,"longitude":82.9739,"temp":33.7,"humidity":40,"rain":0.0,"pressure":1000.1,"uv_index":8.55,"wind_gusts":52.6,"aqi":90,"pm10":49.8,"pm2_5":31.3,"no2":3.8,"co":550.0,"o3":184.0,"so2":14.0,"mosquito_risk":0,"arthritis_risk":5,"migraine_risk":4,"frizz_risk":1,"updated_at":"2026-05-08T11:28:58.880863+05:30"},{"city":"Prayagraj","state":"Uttar Pradesh","latitude":25.4358,"longitude":81.8463,"temp":33.7,"humidity":40,"rain":0.0,"pressure":998.7,"uv_index":8.45,"wind_gusts":28.1,"aqi":89,"pm10":51.0,"pm2_5":27.1,"no2":4.0,"co":376.0,"o3":177.0,"so2":10.8,"mosquito_risk":0,"arthritis_risk":5,"migraine_risk":7,"frizz_risk":1,"updated_at":"2026-05-08T11:28:58.880873+05:30"},{"city":"Gorakhpur","state":"Uttar Pradesh","latitude":26.7606,"longitude":83.3732,"temp":30.6,"humidity":48,"rain":0.0,"pressure":1001.2,"uv_index":8.4,"wind_gusts":36.4,"aqi":104,"pm10":42.1,"pm2_5":23.3,"no2":2.4,"co":415.0,"o3":170.0,"so2":6.3,"mosquito_risk":0,"arthritis_risk":5,"migraine_risk":4,"frizz_risk":1,"updated_at":"2026-05-08T11:28:58.880880+05:30"},{"city":"Bareilly","state":"Uttar Pradesh","latitude":28.367,"longitude":79.4304,"temp":30.3,"humidity":48,"rain":0.0,"pressure":990.7,"uv_index":7.85,"wind_gusts":27.4,"aqi":85,"pm10":114.3,"pm2_5":29.7,"no2":3.3,"co":318.0,"o3":170.0,"so2":10.1,"mosquito_risk":0,"arthritis_risk":5,"migraine_risk":7,"frizz_risk":1,"updated_at":"2026-05-08T11:28:58.880888+05:30"},{"city":"Aligarh","state":"Uttar Pradesh","latitude":27.8974,"longitude":78.088,"temp":31.4,"humidity":40,"rain":0.0,"pressure":988.5,"uv_index":7.75,"wind_gusts":35.6,"aqi":746,"pm10":797.2,"pm2_5":89.6,"no2":3.4,"co":290.0,"o3":165.0,"so2":14.0,"mosquito_risk":0,"arthritis_risk":5,"migraine_risk":7,"frizz_risk":1,"updated_at":"2026-05-08T11:28:58.880895+05:30"},{"city":"Moradabad","state":"Uttar Pradesh","latitude":28.8386,"longitude":78.7733,"temp":29.7,"humidity":51,"rain":0.0,"pressure":987.5,"uv_index":7.65,"wind_gusts":31.0,"aqi":90,"pm10":46.3,"pm2_5":21.9,"no2":3.6,"co":320.0,"o3":173.0,"so2":11.0,"mosquito_risk":4,"arthritis_risk":5,"migraine_risk":7,"frizz_risk":1,"updated_at":"2026-05-08T11:28:58.880902+05:30"},{"city":"Saharanpur","state":"Uttar Pradesh","latitude":29.9637,"longitude":77.546,"temp":28.9,"humidity":52,"rain":0.0,"pressure":979.3,"uv_index":7.25,"wind_gusts":31.7,"aqi":112,"pm10":51.3,"pm2_5":24.0,"no2":2.6,"co":319.0,"o3":176.0,"so2":7.9,"mosquito_risk":4,"arthritis_risk":5,"migraine_risk":7,"frizz_risk":1,"updated_at":"2026-05-08T11:28:58.880908+05:30"},{"city":"Jhansi","state":"Uttar Pradesh","latitude":25.4484,"longitude":78.5685,"temp":34.4,"humidity":29,"rain":0.0,"pressure":980.0,"uv_index":8.35,"wind_gusts":33.1,"aqi":64,"pm10":38.1,"pm2_5":24.2,"no2":2.9,"co":264.0,"o3":169.0,"so2":21.6,"mosquito_risk":0,"arthritis_risk":5,"migraine_risk":7,"frizz_risk":0,"updated_at":"2026-05-08T11:29:02.225798+05:30"},{"city":"Surat","state":"Gujarat","latitude":21.1702,"longitude":72.8311,"temp":36.2,"humidity":48,"rain":0.0,"pressure":1006.9,"uv_index":7.7,"wind_gusts":35.6,"aqi":130,"pm10":82.9,"pm2_5":56.5,"no2":48.7,"co":344.0,"o3":50.0,"so2":141.9,"mosquito_risk":0,"arthritis_risk":5,"migraine_risk":7,"frizz_risk":1,"updated_at":"2026-05-08T11:29:02.225828+05:30"},{"city":"Vadodara","state":"Gujarat","latitude":22.3072,"longitude":73.1812,"temp":37.8,"humidity":18,"rain":0.0,"pressure":1004.5,"uv_index":8.05,"wind_gusts":31.3,"aqi":96,"pm10":40.5,"pm2_5":21.4,"no2":7.0,"co":348.0,"o3":141.0,"so2":13.7,"mosquito_risk":0,"arthritis_risk":5,"migraine_risk":7,"frizz_risk":0,"updated_at":"2026-05-08T11:29:02.225838+05:30"},{"city":"Rajkot","state":"Gujarat","latitude":22.3039,"longitude":70.8022,"temp":37.4,"humidity":25,"rain":0.0,"pressure":994.5,"uv_index":7.7,"wind_gusts":46.8,"aqi":59,"pm10":41.8,"pm2_5":17.2,"no2":3.3,"co":173.0,"o3":110.0,"so2":9.3,"mosquito_risk":0,"arthritis_risk":5,"migraine_risk":10,"frizz_risk":0,"updated_at":"2026-05-08T11:29:02.225846+05:30"},{"city":"Thane","state":"Maharashtra","latitude":19.2183,"longitude":72.9781,"temp":37.2,"humidity":33,"rain":0.0,"pressure":1007.8,"uv_index":7.85,"wind_gusts":42.1,"aqi":92,"pm10":101.5,"pm2_5":44.0,"no2":13.0,"co":223.0,"o3":165.0,"so2":40.4,"mosquito_risk":0,"arthritis_risk":5,"migraine_risk":7,"frizz_risk":1,"updated_at":"2026-05-08T11:29:02.225853+05:30"},{"city":"Nagpur","state":"Maharashtra","latitude":21.1458,"longitude":79.0882,"temp":36.2,"humidity":29,"rain":0.0,"pressure":975.8,"uv_index":8.9,"wind_gusts":34.6,"aqi":139,"pm10":34.0,"pm2_5":26.5,"no2":7.3,"co":253.0,"o3":214.0,"so2":20.9,"mosquito_risk":0,"arthritis_risk":5,"migraine_risk":10,"frizz_risk":0,"updated_at":"2026-05-08T11:29:02.225859+05:30"},{"city":"Nashik","state":"Maharashtra","latitude":19.9975,"longitude":73.7898,"temp":35.7,"humidity":21,"rain":0.0,"pressure":947.5,"uv_index":8.15,"wind_gusts":41.0,"aqi":98,"pm10":82.4,"pm2_5":23.3,"no2":1.6,"co":219.0,"o3":136.0,"so2":3.6,"mosquito_risk":0,"arthritis_risk":5,"migraine_risk":10,"frizz_risk":0,"updated_at":"2026-05-08T11:29:02.225866+05:30"},{"city":"Aurangabad","state":"Maharashtra","latitude":19.8762,"longitude":75.3433,"temp":35.6,"humidity":23,"rain":0.0,"pressure":946.2,"uv_index":9.05,"wind_gusts":30.6,"aqi":84,"pm10":62.6,"pm2_5":27.1,"no2":2.0,"co":247.0,"o3":161.0,"so2":15.1,"mosquito_risk":0,"arthritis_risk":5,"migraine_risk":10,"frizz_risk":0,"updated_at":"2026-05-08T11:29:02.225873+05:30"},{"city":"Solapur","state":"Maharashtra","latitude":17.6599,"longitude":75.9064,"temp":35.4,"humidity":32,"rain":0.0,"pressure":958.6,"uv_index":9.05,"wind_gusts":32.4,"aqi":89,"pm10":21.9,"pm2_5":14.6,"no2":2.0,"co":210.0,"o3":134.0,"so2":5.6,"mosquito_risk":0,"arthritis_risk":5,"migraine_risk":10,"frizz_risk":1,"updated_at":"2026-05-08T11:29:02.225879+05:30"},{"city":"Kolhapur","state":"Maharashtra","latitude":16.705,"longitude":74.2433,"temp":32.0,"humidity":38,"rain":0.0,"pressure":949.2,"uv_index":8.95,"wind_gusts":46.8,"aqi":135,"pm10":44.8,"pm2_5":32.5,"no2":4.1,"co":283.0,"o3":155.0,"so2":6.2,"mosquito_risk":0,"arthritis_risk":5,"migraine_risk":7,"frizz_risk":0,"updated_at":"2026-05-08T11:29:02.225886+05:30"},{"city":"Goa","state":"Goa","latitude":15.2993,"longitude":74.124,"temp":31.6,"humidity":61,"rain":0.0,"pressure":997.5,"uv_index":8.85,"wind_gusts":41.0,"aqi":109,"pm10":57.2,"pm2_5":35.6,"no2":3.0,"co":246.0,"o3":148.0,"so2":6.3,"mosquito_risk":3,"arthritis_risk":5,"migraine_risk":7,"frizz_risk":1,"updated_at":"2026-05-08T11:29:02.225893+05:30"},{"city":"Jodhpur","state":"Rajasthan","latitude":26.2389,"longitude":73.0243,"temp":37.2,"humidity":22,"rain":0.0,"pressure":983.3,"uv_index":8.3,"wind_gusts":36.0,"aqi":127,"pm10":267.3,"pm2_5":49.8,"no2":1.7,"co":180.0,"o3":111.0,"so2":3.1,"mosquito_risk":0,"arthritis_risk":5,"migraine_risk":10,"frizz_risk":0,"updated_at":"2026-05-08T11:29:02.225900+05:30"},{"city":"Udaipur","state":"Rajasthan","latitude":24.5854,"longitude":73.7125,"temp":37.0,"humidity":13,"rain":0.0,"pressure":947.7,"uv_index":8.75,"wind_gusts":32.0,"aqi":66,"pm10":49.7,"pm2_5":13.1,"no2":1.2,"co":179.0,"o3":125.0,"so2":2.7,"mosquito_risk":0,"arthritis_risk":5,"migraine_risk":10,"frizz_risk":0,"updated_at":"2026-05-08T11:29:02.225907+05:30"},{"city":"Kota","state":"Rajasthan","latitude":25.2138,"longitude":75.8648,"temp":37.4,"humidity":20,"rain":0.0,"pressure":979.3,"uv_index":8.35,"wind_gusts":37.4,"aqi":72,"pm10":71.2,"pm2_5":24.2,"no2":2.6,"co":240.0,"o3":137.0,"so2":4.7,"mosquito_risk":0,"arthritis_risk":5,"migraine_risk":10,"frizz_risk":0,"updated_at":"2026-05-08T11:29:02.225913+05:30"},{"city":"Bikaner","state":"Rajasthan","latitude":28.0229,"longitude":73.3119,"temp":35.1,"humidity":25,"rain":0.0,"pressure":982.0,"uv_index":8.25,"wind_gusts":31.0,"aqi":62,"pm10":75.4,"pm2_5":30.2,"no2":1.6,"co":275.0,"o3":149.0,"so2":10.8,"mosquito_risk":0,"arthritis_risk":5,"migraine_risk":10,"frizz_risk":0,"updated_at":"2026-05-08T11:29:02.225919+05:30"},{"city":"Ajmer","state":"Rajasthan","latitude":26.4499,"longitude":74.6399,"temp":36.0,"humidity":18,"rain":0.0,"pressure":955.4,"uv_index":8.25,"wind_gusts":69.8,"aqi":63,"pm10":99.7,"pm2_5":25.6,"no2":1.5,"co":174.0,"o3":119.0,"so2":4.7,"mosquito_risk":0,"arthritis_risk":5,"migraine_risk":10,"frizz_risk":0,"updated_at":"2026-05-08T11:29:02.225925+05:30"},{"city":"Gwalior","state":"Madhya Pradesh","latitude":26.2183,"longitude":78.1828,"temp":31.1,"humidity":45,"rain":0.0,"pressure":985.1,"uv_index":8.15,"wind_gusts":36.0,"aqi":83,"pm10":37.0,"pm2_5":25.0,"no2":2.0,"co":256.0,"o3":162.0,"so2":11.7,"mosquito_risk":0,"arthritis_risk":5,"migraine_risk":7,"frizz_risk":1,"updated_at":"2026-05-08T11:29:02.225931+05:30"},{"city":"Indore","state":"Madhya Pradesh","latitude":22.7196,"longitude":75.8577,"temp":38.0,"humidity":15,"rain":0.0,"pressure":949.6,"uv_index":8.65,"wind_gusts":24.1,"aqi":74,"pm10":66.1,"pm2_5":20.6,"no2":2.5,"co":269.0,"o3":150.0,"so2":5.8,"mosquito_risk":0,"arthritis_risk":5,"migraine_risk":10,"frizz_risk":0,"updated_at":"2026-05-08T11:29:02.225938+05:30"},{"city":"Bhopal","state":"Madhya Pradesh","latitude":23.2599,"longitude":77.4126,"temp":36.8,"humidity":22,"rain":0.0,"pressure":955.5,"uv_index":8.65,"wind_gusts":40.7,"aqi":69,"pm10":44.8,"pm2_5":27.5,"no2":1.3,"co":275.0,"o3":160.0,"so2":8.5,"mosquito_risk":0,"arthritis_risk":5,"migraine_risk":10,"frizz_risk":0,"updated_at":"2026-05-08T11:29:02.225944+05:30"},{"city":"Jabalpur","state":"Madhya Pradesh","latitude":23.1815,"longitude":79.9864,"temp":36.4,"humidity":24,"rain":0.0,"pressure":963.7,"uv_index":8.8,"wind_gusts":44.6,"aqi":58,"pm10":34.8,"pm2_5":24.8,"no2":1.8,"co":227.0,"o3":179.0,"so2":7.5,"mosquito_risk":0,"arthritis_risk":5,"migraine_risk":10,"frizz_risk":0,"updated_at":"2026-05-08T11:29:02.225950+05:30"},{"city":"Ujjain","state":"Madhya Pradesh","latitude":23.1765,"longitude":75.7885,"temp":38.4,"humidity":15,"rain":0.0,"pressure":955.1,"uv_index":8.55,"wind_gusts":26.3,"aqi":73,"pm10":66.4,"pm2_5":22.1,"no2":1.9,"co":210.0,"o3":144.0,"so2":5.2,"mosquito_risk":0,"arthritis_risk":5,"migraine_risk":10,"frizz_risk":0,"updated_at":"2026-05-08T11:29:02.225957+05:30"},{"city":"Visakhapatnam","state":"Andhra Pradesh","latitude":17.6868,"longitude":83.2185,"temp":33.6,"humidity":54,"rain":0.0,"pressure":1005.8,"uv_index":9.15,"wind_gusts":35.3,"aqi":64,"pm10":19.8,"pm2_5":16.1,"no2":17.2,"co":936.0,"o3":40.0,"so2":21.9,"mosquito_risk":0,"arthritis_risk":5,"migraine_risk":4,"frizz_risk":1,"updated_at":"2026-05-08T11:29:02.225963+05:30"},{"city":"Vijayawada","state":"Andhra Pradesh","latitude":16.5062,"longitude":80.648,"temp":35.9,"humidity":44,"rain":0.0,"pressure":1003.7,"uv_index":9.2,"wind_gusts":43.2,"aqi":51,"pm10":11.9,"pm2_5":8.7,"no2":1.6,"co":154.0,"o3":65.0,"so2":5.3,"mosquito_risk":0,"arthritis_risk":5,"migraine_risk":7,"frizz_risk":1,"updated_at":"2026-05-08T11:29:02.225970+05:30"},{"city":"Guntur","state":"Andhra Pradesh","latitude":16.3067,"longitude":80.4365,"temp":36.3,"humidity":43,"rain":0.0,"pressure":1004.7,"uv_index":9.2,"wind_gusts":40.7,"aqi":51,"pm10":12.3,"pm2_5":9.4,"no2":1.7,"co":164.0,"o3":71.0,"so2":5.5,"mosquito_risk":0,"arthritis_risk":5,"migraine_risk":7,"frizz_risk":1,"updated_at":"2026-05-08T11:29:02.225976+05:30"},{"city":"Nellore","state":"Andhra Pradesh","latitude":14.4426,"longitude":79.9865,"temp":33.1,"humidity":58,"rain":0.1,"pressure":1006.8,"uv_index":9.1,"wind_gusts":40.7,"aqi":25,"pm10":6.6,"pm2_5":4.6,"no2":1.2,"co":125.0,"o3":58.0,"so2":2.2,"mosquito_risk":3,"arthritis_risk":5,"migraine_risk":4,"frizz_risk":1,"updated_at":"2026-05-08T11:29:02.225983+05:30"},{"city":"Kurnool","state":"Andhra Pradesh","latitude":15.8281,"longitude":78.0373,"temp":35.7,"humidity":37,"rain":0.0,"pressure":978.1,"uv_index":9.15,"wind_gusts":46.1,"aqi":39,"pm10":8.1,"pm2_5":5.0,"no2":1.0,"co":153.0,"o3":80.0,"so2":1.2,"mosquito_risk":0,"arthritis_risk":5,"migraine_risk":10,"frizz_risk":1,"updated_at":"2026-05-08T11:29:02.225990+05:30"},{"city":"Kakinada","state":"Andhra Pradesh","latitude":16.9891,"longitude":82.2475,"temp":31.4,"humidity":65,"rain":0.0,"pressure":1009.5,"uv_index":9.15,"wind_gusts":42.1,"aqi":27,"pm10":9.0,"pm2_5":6.2,"no2":0.7,"co":138.0,"o3":53.0,"so2":0.5,"mosquito_risk":3,"arthritis_risk":0,"migraine_risk":4,"frizz_risk":1,"updated_at":"2026-05-08T11:29:02.225996+05:30"},{"city":"Tirupati","state":"Andhra Pradesh","latitude":13.6288,"longitude":79.4192,"temp":32.6,"humidity":51,"rain":0.0,"pressure":992.0,"uv_index":8.4,"wind_gusts":41.8,"aqi":35,"pm10":3.8,"pm2_5":2.9,"no2":0.8,"co":139.0,"o3":56.0,"so2":0.5,"mosquito_risk":0,"arthritis_risk":5,"migraine_risk":7,"frizz_risk":1,"updated_at":"2026-05-08T11:29:02.226003+05:30"},{"city":"Warangal","state":"Telangana","latitude":17.9689,"longitude":79.5941,"temp":34.0,"humidity":47,"rain":0.0,"pressure":980.9,"uv_index":9.15,"wind_gusts":32.8,"aqi":64,"pm10":14.6,"pm2_5":11.6,"no2":2.8,"co":195.0,"o3":104.0,"so2":8.5,"mosquito_risk":0,"arthritis_risk":5,"migraine_risk":7,"frizz_risk":1,"updated_at":"2026-05-08T11:29:02.226009+05:30"},{"city":"Nizamabad","state":"Telangana","latitude":18.6725,"longitude":78.0941,"temp":35.5,"humidity":33,"rain":0.0,"pressure":966.8,"uv_index":9.1,"wind_gusts":32.8,"aqi":86,"pm10":24.0,"pm2_5":16.9,"no2":2.6,"co":223.0,"o3":135.0,"so2":6.3,"mosquito_risk":0,"arthritis_risk":5,"migraine_risk":10,"frizz_risk":1,"updated_at":"2026-05-08T11:29:02.226015+05:30"},{"city":"Mysore","state":"Karnataka","latitude":12.2958,"longitude":76.6396,"temp":30.2,"humidity":52,"rain":0.0,"pressure":929.1,"uv_index":8.9,"wind_gusts":33.8,"aqi":78,"pm10":15.8,"pm2_5":13.9,"no2":3.1,"co":253.0,"o3":109.0,"so2":6.2,"mosquito_risk":0,"arthritis_risk":5,"migraine_risk":7,"frizz_risk":1,"updated_at":"2026-05-08T11:29:02.226021+05:30"},{"city":"Mangalore","state":"Karnataka","latitude":12.9141,"longitude":74.856,"temp":31.0,"humidity":71,"rain":0.0,"pressure":1005.7,"uv_index":9.0,"wind_gusts":36.0,"aqi":75,"pm10":49.1,"pm2_5":29.1,"no2":2.6,"co":235.0,"o3":141.0,"so2":3.4,"mosquito_risk":3,"arthritis_risk":5,"migraine_risk":4,"frizz_risk":1,"updated_at":"2026-05-08T11:29:02.226027+05:30"},{"city":"Hubli-Dharwad","state":"Karnataka","latitude":15.3647,"longitude":75.124,"temp":32.9,"humidity":40,"rain":0.0,"pressure":941.9,"uv_index":9.1,"wind_gusts":38.2,"aqi":90,"pm10":16.2,"pm2_5":13.0,"no2":3.7,"co":220.0,"o3":126.0,"so2":5.1,"mosquito_risk":0,"arthritis_risk":5,"migraine_risk":7,"frizz_risk":1,"updated_at":"2026-05-08T11:29:02.226033+05:30"},{"city":"Belgaum","state":"Karnataka","latitude":15.8497,"longitude":74.4977,"temp":32.8,"humidity":36,"rain":0.0,"pressure":927.4,"uv_index":9.15,"wind_gusts":36.7,"aqi":99,"pm10":23.2,"pm2_5":18.0,"no2":3.8,"co":252.0,"o3":140.0,"so2":6.0,"mosquito_risk":0,"arthritis_risk":5,"migraine_risk":7,"frizz_risk":0,"updated_at":"2026-05-08T11:29:05.575549+05:30"},{"city":"Coimbatore","state":"Tamil Nadu","latitude":11.0168,"longitude":76.9558,"temp":29.8,"humidity":63,"rain":0.0,"pressure":962.0,"uv_index":9.15,"wind_gusts":34.6,"aqi":66,"pm10":14.4,"pm2_5":13.2,"no2":2.7,"co":247.0,"o3":114.0,"so2":8.2,"mosquito_risk":7,"arthritis_risk":5,"migraine_risk":7,"frizz_risk":1,"updated_at":"2026-05-08T11:29:05.575583+05:30"},{"city":"Madurai","state":"Tamil Nadu","latitude":9.9252,"longitude":78.1198,"temp":32.4,"humidity":55,"rain":0.0,"pressure":992.7,"uv_index":8.5,"wind_gusts":43.2,"aqi":54,"pm10":8.3,"pm2_5":8.0,"no2":4.4,"co":245.0,"o3":93.0,"so2":5.4,"mosquito_risk":0,"arthritis_risk":5,"migraine_risk":7,"frizz_risk":1,"updated_at":"2026-05-08T11:29:05.575596+05:30"},{"city":"Trichy","state":"Tamil Nadu","latitude":10.7905,"longitude":78.7047,"temp":31.0,"humidity":65,"rain":0.1,"pressure":999.8,"uv_index":8.55,"wind_gusts":35.6,"aqi":47,"pm10":8.1,"pm2_5":7.8,"no2":7.0,"co":205.0,"o3":55.0,"so2":18.0,"mosquito_risk":6,"arthritis_risk":5,"migraine_risk":7,"frizz_risk":1,"updated_at":"2026-05-08T11:29:05.575607+05:30"},{"city":"Salem","state":"Tamil Nadu","latitude":11.6643,"longitude":78.146,"temp":31.1,"humidity":60,"rain":0.1,"pressure":977.4,"uv_index":7.6,"wind_gusts":38.5,"aqi":67,"pm10":14.5,"pm2_5":13.9,"no2":6.3,"co":215.0,"o3":92.0,"so2":19.9,"mosquito_risk":3,"arthritis_risk":5,"migraine_risk":7,"frizz_risk":1,"updated_at":"2026-05-08T11:29:05.575615+05:30"},{"city":"Tirunelveli","state":"Tamil Nadu","latitude":8.7139,"longitude":77.7567,"temp":33.7,"humidity":50,"rain":0.0,"pressure":1002.5,"uv_index":8.55,"wind_gusts":35.3,"aqi":57,"pm10":6.5,"pm2_5":5.9,"no2":2.2,"co":214.0,"o3":94.0,"so2":1.9,"mosquito_risk":0,"arthritis_risk":5,"migraine_risk":4,"frizz_risk":1,"updated_at":"2026-05-08T11:29:05.575624+05:30"},{"city":"Vellore","state":"Tamil Nadu","latitude":12.9165,"longitude":79.1325,"temp":31.7,"humidity":55,"rain":0.0,"pressure":985.3,"uv_index":7.05,"wind_gusts":48.2,"aqi":42,"pm10":7.8,"pm2_5":7.3,"no2":3.9,"co":161.0,"o3":71.0,"so2":8.8,"mosquito_risk":0,"arthritis_risk":5,"migraine_risk":7,"frizz_risk":1,"updated_at":"2026-05-08T11:29:05.575632+05:30"},{"city":"Erode","state":"Tamil Nadu","latitude":11.341,"longitude":77.7172,"temp":31.0,"humidity":60,"rain":0.0,"pressure":989.4,"uv_index":9.0,"wind_gusts":36.7,"aqi":54,"pm10":17.9,"pm2_5":17.3,"no2":4.5,"co":267.0,"o3":109.0,"so2":12.2,"mosquito_risk":0,"arthritis_risk":5,"migraine_risk":7,"frizz_risk":1,"updated_at":"2026-05-08T11:29:05.575641+05:30"},{"city":"Kochi","state":"Kerala","latitude":9.9312,"longitude":76.2673,"temp":30.5,"humidity":71,"rain":0.0,"pressure":1007.6,"uv_index":7.4,"wind_gusts":28.4,"aqi":60,"pm10":18.7,"pm2_5":16.8,"no2":5.4,"co":330.0,"o3":139.0,"so2":4.7,"mosquito_risk":3,"arthritis_risk":5,"migraine_risk":4,"frizz_risk":1,"updated_at":"2026-05-08T11:29:05.575650+05:30"},{"city":"Thiruvananthapuram","state":"Kerala","latitude":8.5241,"longitude":76.9366,"temp":31.3,"humidity":66,"rain":0.0,"pressure":1006.9,"uv_index":8.3,"wind_gusts":25.6,"aqi":52,"pm10":13.8,"pm2_5":11.8,"no2":3.3,"co":299.0,"o3":127.0,"so2":4.2,"mosquito_risk":3,"arthritis_risk":5,"migraine_risk":4,"frizz_risk":1,"updated_at":"2026-05-08T11:29:05.575658+05:30"},{"city":"Kozhikode","state":"Kerala","latitude":11.2588,"longitude":75.7804,"temp":27.8,"humidity":84,"rain":0.0,"pressure":1007.6,"uv_index":9.0,"wind_gusts":30.2,"aqi":66,"pm10":33.3,"pm2_5":24.6,"no2":2.0,"co":317.0,"o3":146.0,"so2":4.7,"mosquito_risk":7,"arthritis_risk":5,"migraine_risk":4,"frizz_risk":1,"updated_at":"2026-05-08T11:29:05.575667+05:30"},{"city":"Thrissur","state":"Kerala","latitude":10.5276,"longitude":76.2144,"temp":32.6,"humidity":62,"rain":0.0,"pressure":1005.9,"uv_index":9.0,"wind_gusts":27.0,"aqi":69,"pm10":16.7,"pm2_5":16.2,"no2":4.0,"co":285.0,"o3":108.0,"so2":5.4,"mosquito_risk":3,"arthritis_risk":5,"migraine_risk":4,"frizz_risk":1,"updated_at":"2026-05-08T11:29:05.575676+05:30"},{"city":"Kannur","state":"Kerala","latitude":11.8745,"longitude":75.3704,"temp":30.6,"humidity":72,"rain":0.0,"pressure":1006.3,"uv_index":8.95,"wind_gusts":37.4,"aqi":74,"pm10":45.1,"pm2_5":27.6,"no2":2.7,"co":272.0,"o3":132.0,"so2":2.6,"mosquito_risk":3,"arthritis_risk":5,"migraine_risk":4,"frizz_risk":1,"updated_at":"2026-05-08T11:29:05.575685+05:30"},{"city":"Patna","state":"Bihar","latitude":25.5941,"longitude":85.1376,"temp":30.2,"humidity":57,"rain":0.0,"pressure":1003.8,"uv_index":8.45,"wind_gusts":34.9,"aqi":121,"pm10":55.6,"pm2_5":39.2,"no2":4.0,"co":393.0,"o3":198.0,"so2":15.3,"mosquito_risk":0,"arthritis_risk":5,"migraine_risk":4,"frizz_risk":1,"updated_at":"2026-05-08T11:29:05.575693+05:30"},{"city":"Gaya","state":"Bihar","latitude":24.7914,"longitude":85.0002,"temp":32.2,"humidity":46,"rain":0.0,"pressure":996.5,"uv_index":8.75,"wind_gusts":46.4,"aqi":118,"pm10":58.3,"pm2_5":47.6,"no2":3.5,"co":528.0,"o3":208.0,"so2":23.4,"mosquito_risk":0,"arthritis_risk":5,"migraine_risk":7,"frizz_risk":1,"updated_at":"2026-05-08T11:29:05.575702+05:30"},{"city":"Muzaffarpur","state":"Bihar","latitude":26.1209,"longitude":85.3647,"temp":29.9,"humidity":56,"rain":0.0,"pressure":1004.3,"uv_index":8.45,"wind_gusts":32.4,"aqi":123,"pm10":49.1,"pm2_5":37.0,"no2":4.0,"co":434.0,"o3":199.0,"so2":15.1,"mosquito_risk":4,"arthritis_risk":5,"migraine_risk":4,"frizz_risk":1,"updated_at":"2026-05-08T11:29:05.575711+05:30"},{"city":"Bhagalpur","state":"Bihar","latitude":25.2425,"longitude":87.0117,"temp":29.6,"humidity":59,"rain":0.0,"pressure":1005.5,"uv_index":8.6,"wind_gusts":28.4,"aqi":157,"pm10":55.2,"pm2_5":48.2,"no2":4.2,"co":337.0,"o3":207.0,"so2":15.7,"mosquito_risk":4,"arthritis_risk":5,"migraine_risk":4,"frizz_risk":1,"updated_at":"2026-05-08T11:29:05.575720+05:30"},{"city":"Ranchi","state":"Jharkhand","latitude":23.3441,"longitude":85.3096,"temp":30.4,"humidity":46,"rain":0.0,"pressure":941.3,"uv_index":9.2,"wind_gusts":53.6,"aqi":101,"pm10":38.4,"pm2_5":26.4,"no2":2.0,"co":255.0,"o3":172.0,"so2":19.4,"mosquito_risk":0,"arthritis_risk":5,"migraine_risk":7,"frizz_risk":1,"updated_at":"2026-05-08T11:29:05.575729+05:30"},{"city":"Jamshedpur","state":"Jharkhand","latitude":22.8046,"longitude":86.2029,"temp":34.2,"humidity":43,"rain":0.0,"pressure":993.7,"uv_index":9.0,"wind_gusts":44.3,"aqi":130,"pm10":36.4,"pm2_5":31.4,"no2":5.6,"co":627.0,"o3":161.0,"so2":28.2,"mosquito_risk":0,"arthritis_risk":5,"migraine_risk":7,"frizz_risk":1,"updated_at":"2026-05-08T11:29:05.575737+05:30"},{"city":"Dhanbad","state":"Jharkhand","latitude":23.7957,"longitude":86.4304,"temp":32.1,"humidity":53,"rain":0.0,"pressure":983.1,"uv_index":8.95,"wind_gusts":43.6,"aqi":169,"pm10":56.1,"pm2_5":51.2,"no2":30.1,"co":1122.0,"o3":153.0,"so2":82.4,"mosquito_risk":0,"arthritis_risk":5,"migraine_risk":7,"frizz_risk":1,"updated_at":"2026-05-08T11:29:05.575746+05:30"},{"city":"Bokaro","state":"Jharkhand","latitude":23.6693,"longitude":86.1511,"temp":33.7,"humidity":45,"rain":0.0,"pressure":986.6,"uv_index":8.95,"wind_gusts":42.5,"aqi":162,"pm10":50.8,"pm2_5":45.3,"no2":20.3,"co":2199.0,"o3":165.0,"so2":67.7,"mosquito_risk":0,"arthritis_risk":5,"migraine_risk":7,"frizz_risk":1,"updated_at":"2026-05-08T11:29:05.575778+05:30"},{"city":"Bhubaneswar","state":"Odisha","latitude":20.2961,"longitude":85.8245,"temp":33.3,"humidity":56,"rain":0.0,"pressure":1005.2,"uv_index":9.1,"wind_gusts":31.0,"aqi":48,"pm10":12.3,"pm2_5":8.6,"no2":1.5,"co":171.0,"o3":80.0,"so2":4.2,"mosquito_risk":0,"arthritis_risk":5,"migraine_risk":4,"frizz_risk":1,"updated_at":"2026-05-08T11:29:05.575785+05:30"},{"city":"Cuttack","state":"Odisha","latitude":20.4625,"longitude":85.8828,"temp":33.4,"humidity":56,"rain":0.0,"pressure":1006.9,"uv_index":9.15,"wind_gusts":30.2,"aqi":48,"pm10":12.3,"pm2_5":8.6,"no2":1.5,"co":186.0,"o3":80.0,"so2":4.2,"mosquito_risk":0,"arthritis_risk":5,"migraine_risk":4,"frizz_risk":1,"updated_at":"2026-05-08T11:29:05.575792+05:30"},{"city":"Rourkela","state":"Odisha","latitude":22.2604,"longitude":84.8536,"temp":32.8,"humidity":51,"rain":0.0,"pressure":988.0,"uv_index":8.9,"wind_gusts":45.4,"aqi":110,"pm10":45.6,"pm2_5":39.6,"no2":5.0,"co":372.0,"o3":201.0,"so2":53.3,"mosquito_risk":0,"arthritis_risk":5,"migraine_risk":7,"frizz_risk":1,"updated_at":"2026-05-08T11:29:05.575798+05:30"},{"city":"Raipur","state":"Chhattisgarh","latitude":21.2514,"longitude":81.6296,"temp":36.9,"humidity":23,"rain":0.0,"pressure":977.1,"uv_index":8.95,"wind_gusts":28.8,"aqi":117,"pm10":40.2,"pm2_5":33.5,"no2":17.4,"co":268.0,"o3":205.0,"so2":9.0,"mosquito_risk":0,"arthritis_risk":5,"migraine_risk":10,"frizz_risk":0,"updated_at":"2026-05-08T11:29:05.575805+05:30"},{"city":"Bhilai","state":"Chhattisgarh","latitude":21.1938,"longitude":81.3509,"temp":36.2,"humidity":23,"rain":0.0,"pressure":977.6,"uv_index":8.95,"wind_gusts":27.4,"aqi":98,"pm10":39.7,"pm2_5":32.5,"no2":28.9,"co":378.0,"o3":177.0,"so2":9.4,"mosquito_risk":0,"arthritis_risk":5,"migraine_risk":10,"frizz_risk":0,"updated_at":"2026-05-08T11:29:05.575812+05:30"},{"city":"Guwahati","state":"Assam","latitude":26.1158,"longitude":91.7086,"temp":28.8,"humidity":64,"rain":0.0,"pressure":1005.6,"uv_index":8.65,"wind_gusts":24.5,"aqi":102,"pm10":40.6,"pm2_5":28.6,"no2":0.8,"co":338.0,"o3":161.0,"so2":3.0,"mosquito_risk":7,"arthritis_risk":5,"migraine_risk":4,"frizz_risk":1,"updated_at":"2026-05-08T11:29:05.575818+05:30"},{"city":"Agartala","state":"Tripura","latitude":23.8315,"longitude":91.2868,"temp":30.9,"humidity":65,"rain":0.0,"pressure":1009.5,"uv_index":8.85,"wind_gusts":19.4,"aqi":155,"pm10":38.3,"pm2_5":31.2,"no2":2.5,"co":315.0,"o3":205.0,"so2":4.0,"mosquito_risk":3,"arthritis_risk":0,"migraine_risk":4,"frizz_risk":1,"updated_at":"2026-05-08T11:29:05.575825+05:30"},{"city":"Shillong","state":"Meghalaya","latitude":25.5788,"longitude":91.8933,"temp":21.3,"humidity":52,"rain":0.0,"pressure":861.4,"uv_index":7.7,"wind_gusts":19.1,"aqi":82,"pm10":31.8,"pm2_5":20.1,"no2":0.5,"co":255.0,"o3":155.0,"so2":2.1,"mosquito_risk":0,"arthritis_risk":5,"migraine_risk":7,"frizz_risk":0,"updated_at":"2026-05-08T11:29:05.575832+05:30"},{"city":"Imphal","state":"Manipur","latitude":24.817,"longitude":93.9368,"temp":28.0,"humidity":49,"rain":0.0,"pressure":926.9,"uv_index":9.2,"wind_gusts":29.5,"aqi":115,"pm10":21.7,"pm2_5":13.6,"no2":0.4,"co":242.0,"o3":150.0,"so2":2.2,"mosquito_risk":4,"arthritis_risk":5,"migraine_risk":7,"frizz_risk":1,"updated_at":"2026-05-08T11:29:05.575838+05:30"},{"city":"Aizawl","state":"Mizoram","latitude":23.7271,"longitude":92.7176,"temp":26.3,"humidity":44,"rain":0.1,"pressure":896.6,"uv_index":8.5,"wind_gusts":24.5,"aqi":78,"pm10":27.1,"pm2_5":17.1,"no2":0.1,"co":194.0,"o3":128.0,"so2":1.5,"mosquito_risk":7,"arthritis_risk":5,"migraine_risk":7,"frizz_risk":0,"updated_at":"2026-05-08T11:29:05.575845+05:30"},{"city":"Kohima","state":"Nagaland","latitude":25.6701,"longitude":94.1077,"temp":22.0,"humidity":71,"rain":0.1,"pressure":859.5,"uv_index":9.15,"wind_gusts":30.2,"aqi":88,"pm10":28.5,"pm2_5":18.7,"no2":0.4,"co":236.0,"o3":141.0,"so2":1.8,"mosquito_risk":6,"arthritis_risk":5,"migraine_risk":7,"frizz_risk":1,"updated_at":"2026-05-08T11:29:05.575851+05:30"},{"city":"Gangtok","state":"Sikkim","latitude":27.3314,"longitude":88.6138,"temp":20.0,"humidity":53,"rain":0.0,"pressure":841.7,"uv_index":8.95,"wind_gusts":38.9,"aqi":71,"pm10":27.6,"pm2_5":18.7,"no2":0.5,"co":259.0,"o3":136.0,"so2":1.1,"mosquito_risk":0,"arthritis_risk":5,"migraine_risk":7,"frizz_risk":0,"updated_at":"2026-05-08T11:29:05.575858+05:30"},{"city":"Siliguri","state":"West Bengal","latitude":26.7271,"longitude":88.3953,"temp":27.6,"humidity":60,"rain":0.0,"pressure":997.7,"uv_index":8.6,"wind_gusts":24.1,"aqi":114,"pm10":42.3,"pm2_5":27.6,"no2":1.0,"co":396.0,"o3":154.0,"so2":2.8,"mosquito_risk":4,"arthritis_risk":5,"migraine_risk":7,"frizz_risk":1,"updated_at":"2026-05-08T11:29:08.928891+05:30"},{"city":"Durgapur","state":"West Bengal","latitude":23.5204,"longitude":87.3119,"temp":30.6,"humidity":69,"rain":0.1,"pressure":998.4,"uv_index":8.85,"wind_gusts":49.0,"aqi":164,"pm10":55.5,"pm2_5":51.3,"no2":21.9,"co":356.0,"o3":168.0,"so2":72.5,"mosquito_risk":6,"arthritis_risk":5,"migraine_risk":7,"frizz_risk":1,"updated_at":"2026-05-08T11:29:08.928922+05:30"},{"city":"Asansol","state":"West Bengal","latitude":23.6739,"longitude":86.9524,"temp":31.8,"humidity":59,"rain":0.1,"pressure":996.9,"uv_index":8.85,"wind_gusts":47.5,"aqi":163,"pm10":54.1,"pm2_5":49.1,"no2":21.6,"co":528.0,"o3":156.0,"so2":70.4,"mosquito_risk":3,"arthritis_risk":5,"migraine_risk":7,"frizz_risk":1,"updated_at":"2026-05-08T11:29:08.928935+05:30"},{"city":"Pondicherry","state":"Puducherry","latitude":11.9139,"longitude":79.8145,"temp":29.2,"humidity":76,"rain":0.0,"pressure":1008.9,"uv_index":7.7,"wind_gusts":34.9,"aqi":21,"pm10":4.5,"pm2_5":3.2,"no2":2.0,"co":134.0,"o3":51.0,"so2":0.6,"mosquito_risk":7,"arthritis_risk":0,"migraine_risk":4,"frizz_risk":1,"updated_at":"2026-05-08T11:29:08.928944+05:30"},{"city":"Port Blair","state":"Andaman and Nicobar Islands","latitude":11.6234,"longitude":92.7265,"temp":30.1,"humidity":73,"rain":0.0,"pressure":1007.6,"uv_index":9.1,"wind_gusts":39.6,"aqi":33,"pm10":7.8,"pm2_5":6.2,"no2":0.5,"co":131.0,"o3":73.0,"so2":2.1,"mosquito_risk":3,"arthritis_risk":5,"migraine_risk":4,"frizz_risk":1,"updated_at":"2026-05-08T11:29:08.928952+05:30"},{"city":"Haridwar","state":"Uttarakhand","latitude":29.9457,"longitude":78.1642,"temp":29.9,"humidity":42,"rain":0.0,"pressure":977.7,"uv_index":7.4,"wind_gusts":29.2,"aqi":100,"pm10":44.5,"pm2_5":19.4,"no2":0.9,"co":242.0,"o3":179.0,"so2":4.9,"mosquito_risk":4,"arthritis_risk":5,"migraine_risk":7,"frizz_risk":0,"updated_at":"2026-05-08T11:29:08.928961+05:30"},{"city":"Rishikesh","state":"Uttarakhand","latitude":30.0869,"longitude":78.2676,"temp":29.0,"humidity":44,"rain":0.0,"pressure":970.4,"uv_index":7.45,"wind_gusts":24.1,"aqi":84,"pm10":36.2,"pm2_5":16.1,"no2":0.6,"co":227.0,"o3":174.0,"so2":2.8,"mosquito_risk":4,"arthritis_risk":5,"migraine_risk":7,"frizz_risk":0,"updated_at":"2026-05-08T11:29:08.928969+05:30"},{"city":"Nainital","state":"Uttarakhand","latitude":29.3919,"longitude":79.4542,"temp":17.7,"humidity":54,"rain":0.0,"pressure":809.5,"uv_index":8.2,"wind_gusts":25.6,"aqi":65,"pm10":33.3,"pm2_5":9.5,"no2":0.7,"co":209.0,"o3":153.0,"so2":1.1,"mosquito_risk":0,"arthritis_risk":5,"migraine_risk":7,"frizz_risk":0,"updated_at":"2026-05-08T11:29:08.928977+05:30"},{"city":"Mussoorie","state":"Uttarakhand","latitude":30.4599,"longitude":78.0664,"temp":17.5,"humidity":59,"rain":0.0,"pressure":806.6,"uv_index":6.15,"wind_gusts":26.6,"aqi":93,"pm10":34.7,"pm2_5":18.7,"no2":0.4,"co":224.0,"o3":173.0,"so2":4.3,"mosquito_risk":0,"arthritis_risk":5,"migraine_risk":7,"frizz_risk":0,"updated_at":"2026-05-08T11:29:08.928985+05:30"},{"city":"Dharamshala","state":"Himachal Pradesh","latitude":32.219,"longitude":76.3234,"temp":19.9,"humidity":68,"rain":0.0,"pressure":871.7,"uv_index":8.2,"wind_gusts":32.8,"aqi":55,"pm10":43.4,"pm2_5":13.7,"no2":0.5,"co":250.0,"o3":145.0,"so2":2.7,"mosquito_risk":3,"arthritis_risk":5,"migraine_risk":7,"frizz_risk":0,"updated_at":"2026-05-08T11:29:08.928992+05:30"},{"city":"Dalhousie","state":"Himachal Pradesh","latitude":32.5387,"longitude":75.971,"temp":16.9,"humidity":69,"rain":0.0,"pressure":807.0,"uv_index":8.45,"wind_gusts":34.2,"aqi":78,"pm10":54.5,"pm2_5":27.7,"no2":1.4,"co":240.0,"o3":189.0,"so2":9.9,"mosquito_risk":3,"arthritis_risk":5,"migraine_risk":7,"frizz_risk":0,"updated_at":"2026-05-08T11:29:08.929002+05:30"},{"city":"Patiala","state":"Punjab","latitude":30.3398,"longitude":76.3869,"temp":30.5,"humidity":43,"rain":0.0,"pressure":981.1,"uv_index":7.5,"wind_gusts":33.5,"aqi":821,"pm10":838.2,"pm2_5":92.4,"no2":3.4,"co":291.0,"o3":180.0,"so2":12.4,"mosquito_risk":0,"arthritis_risk":5,"migraine_risk":7,"frizz_risk":1,"updated_at":"2026-05-08T11:29:08.929010+05:30"},{"city":"Bhatinda","state":"Punjab","latitude":30.211,"longitude":74.9455,"temp":33.3,"humidity":35,"rain":0.0,"pressure":985.7,"uv_index":8.1,"wind_gusts":31.3,"aqi":850,"pm10":581.1,"pm2_5":104.5,"no2":3.9,"co":313.0,"o3":176.0,"so2":22.8,"mosquito_risk":0,"arthritis_risk":5,"migraine_risk":7,"frizz_risk":0,"updated_at":"2026-05-08T11:29:08.929018+05:30"},{"city":"Rohtak","state":"Haryana","latitude":28.8955,"longitude":76.6066,"temp":31.9,"humidity":38,"rain":0.0,"pressure":984.0,"uv_index":7.6,"wind_gusts":36.4,"aqi":863,"pm10":836.3,"pm2_5":109.2,"no2":8.4,"co":415.0,"o3":191.0,"so2":24.7,"mosquito_risk":0,"arthritis_risk":5,"migraine_risk":7,"frizz_risk":0,"updated_at":"2026-05-08T11:29:08.929024+05:30"},{"city":"Panipat","state":"Haryana","latitude":29.3909,"longitude":76.9635,"temp":30.7,"humidity":44,"rain":0.0,"pressure":983.4,"uv_index":7.45,"wind_gusts":36.4,"aqi":1483,"pm10":1348.6,"pm2_5":134.6,"no2":6.5,"co":324.0,"o3":185.0,"so2":20.5,"mosquito_risk":0,"arthritis_risk":5,"migraine_risk":7,"frizz_risk":1,"updated_at":"2026-05-08T11:29:08.929030+05:30"},{"city":"Mathura","state":"Uttar Pradesh","latitude":27.4924,"longitude":77.6737,"temp":31.7,"humidity":37,"rain":0.0,"pressure":989.2,"uv_index":7.85,"wind_gusts":38.2,"aqi":1311,"pm10":1281.5,"pm2_5":130.9,"no2":2.8,"co":306.0,"o3":165.0,"so2":9.7,"mosquito_risk":0,"arthritis_risk":5,"migraine_risk":7,"frizz_risk":0,"updated_at":"2026-05-08T11:29:08.929036+05:30"},{"city":"Vrindavan","state":"Uttar Pradesh","latitude":27.5823,"longitude":77.7027,"temp":31.9,"humidity":36,"rain":0.0,"pressure":989.7,"uv_index":7.85,"wind_gusts":38.2,"aqi":1311,"pm10":1281.5,"pm2_5":130.9,"no2":2.8,"co":298.0,"o3":165.0,"so2":9.7,"mosquito_risk":0,"arthritis_risk":5,"migraine_risk":7,"frizz_risk":0,"updated_at":"2026-05-08T11:29:08.929043+05:30"},{"city":"Ayodhya","state":"Uttar Pradesh","latitude":26.7922,"longitude":82.1998,"temp":30.8,"humidity":48,"rain":0.0,"pressure":999.1,"uv_index":8.2,"wind_gusts":25.2,"aqi":98,"pm10":59.6,"pm2_5":24.1,"no2":2.6,"co":327.0,"o3":162.0,"so2":6.5,"mosquito_risk":0,"arthritis_risk":5,"migraine_risk":7,"frizz_risk":1,"updated_at":"2026-05-08T11:29:08.929049+05:30"},{"city":"Ratlam","state":"Madhya Pradesh","latitude":23.3315,"longitude":75.0367,"temp":37.8,"humidity":16,"rain":0.0,"pressure":956.0,"uv_index":8.5,"wind_gusts":27.4,"aqi":64,"pm10":56.6,"pm2_5":20.3,"no2":1.3,"co":197.0,"o3":151.0,"so2":7.6,"mosquito_risk":0,"arthritis_risk":5,"migraine_risk":10,"frizz_risk":0,"updated_at":"2026-05-08T11:29:08.929055+05:30"},{"city":"Sagar","state":"Madhya Pradesh","latitude":23.8388,"longitude":78.7378,"temp":34.0,"humidity":27,"rain":0.0,"pressure":953.1,"uv_index":8.65,"wind_gusts":35.3,"aqi":51,"pm10":32.1,"pm2_5":19.5,"no2":1.6,"co":201.0,"o3":163.0,"so2":7.8,"mosquito_risk":0,"arthritis_risk":5,"migraine_risk":7,"frizz_risk":0,"updated_at":"2026-05-08T11:29:08.929061+05:30"},{"city":"Satna","state":"Madhya Pradesh","latitude":24.6005,"longitude":80.8322,"temp":34.8,"humidity":26,"rain":0.0,"pressure":974.2,"uv_index":8.7,"wind_gusts":40.0,"aqi":70,"pm10":43.1,"pm2_5":23.0,"no2":4.0,"co":267.0,"o3":176.0,"so2":17.3,"mosquito_risk":0,"arthritis_risk":5,"migraine_risk":7,"frizz_risk":0,"updated_at":"2026-05-08T11:29:08.929067+05:30"},{"city":"Akola","state":"Maharashtra","latitude":20.7002,"longitude":77.0082,"temp":37.6,"humidity":27,"rain":0.0,"pressure":976.8,"uv_index":8.85,"wind_gusts":26.3,"aqi":87,"pm10":36.8,"pm2_5":24.3,"no2":3.2,"co":242.0,"o3":151.0,"so2":9.3,"mosquito_risk":0,"arthritis_risk":5,"migraine_risk":10,"frizz_risk":0,"updated_at":"2026-05-08T11:29:08.929074+05:30"},{"city":"Amravati","state":"Maharashtra","latitude":20.9374,"longitude":77.7796,"temp":36.8,"humidity":28,"rain":0.0,"pressure":969.7,"uv_index":8.85,"wind_gusts":27.0,"aqi":90,"pm10":31.4,"pm2_5":22.2,"no2":3.6,"co":228.0,"o3":150.0,"so2":7.8,"mosquito_risk":0,"arthritis_risk":5,"migraine_risk":10,"frizz_risk":0,"updated_at":"2026-05-08T11:29:08.929082+05:30"},{"city":"Latur","state":"Maharashtra","latitude":18.4088,"longitude":76.5604,"temp":35.0,"humidity":29,"rain":0.0,"pressure":942.0,"uv_index":9.05,"wind_gusts":30.2,"aqi":89,"pm10":28.5,"pm2_5":18.0,"no2":1.5,"co":212.0,"o3":139.0,"so2":3.0,"mosquito_risk":0,"arthritis_risk":5,"migraine_risk":7,"frizz_risk":0,"updated_at":"2026-05-08T11:29:08.929088+05:30"},{"city":"Nanded","state":"Maharashtra","latitude":19.1383,"longitude":77.3091,"temp":36.6,"humidity":29,"rain":0.0,"pressure":970.7,"uv_index":8.95,"wind_gusts":25.2,"aqi":86,"pm10":25.5,"pm2_5":17.6,"no2":3.0,"co":244.0,"o3":142.0,"so2":4.7,"mosquito_risk":0,"arthritis_risk":5,"migraine_risk":10,"frizz_risk":0,"updated_at":"2026-05-08T11:29:08.929094+05:30"},{"city":"Gulbarga","state":"Karnataka","latitude":17.3297,"longitude":76.8343,"temp":35.0,"humidity":32,"rain":0.0,"pressure":960.3,"uv_index":9.05,"wind_gusts":32.8,"aqi":68,"pm10":17.5,"pm2_5":12.3,"no2":3.0,"co":197.0,"o3":114.0,"so2":5.8,"mosquito_risk":0,"arthritis_risk":5,"migraine_risk":7,"frizz_risk":0,"updated_at":"2026-05-08T11:29:08.929100+05:30"},{"city":"Bidar","state":"Karnataka","latitude":17.9104,"longitude":77.5199,"temp":34.2,"humidity":32,"rain":0.0,"pressure":937.8,"uv_index":9.1,"wind_gusts":33.1,"aqi":80,"pm10":22.0,"pm2_5":14.8,"no2":2.4,"co":201.0,"o3":126.0,"so2":4.7,"mosquito_risk":0,"arthritis_risk":5,"migraine_risk":7,"frizz_risk":0,"updated_at":"2026-05-08T11:29:08.929106+05:30"},{"city":"Hospet","state":"Karnataka","latitude":15.2689,"longitude":76.3909,"temp":32.2,"humidity":45,"rain":0.0,"pressure":956.9,"uv_index":9.2,"wind_gusts":40.3,"aqi":70,"pm10":11.1,"pm2_5":8.5,"no2":5.5,"co":183.0,"o3":93.0,"so2":10.6,"mosquito_risk":0,"arthritis_risk":5,"migraine_risk":7,"frizz_risk":1,"updated_at":"2026-05-08T11:29:08.929112+05:30"},{"city":"Tirupur","state":"Tamil Nadu","latitude":11.1085,"longitude":77.3411,"temp":30.3,"humidity":61,"rain":0.0,"pressure":975.6,"uv_index":9.05,"wind_gusts":32.4,"aqi":64,"pm10":16.6,"pm2_5":15.9,"no2":3.5,"co":241.0,"o3":115.0,"so2":10.1,"mosquito_risk":3,"arthritis_risk":5,"migraine_risk":7,"frizz_risk":1,"updated_at":"2026-05-08T11:29:08.929118+05:30"},{"city":"Alappuzha","state":"Kerala","latitude":9.4981,"longitude":76.3388,"temp":31.8,"humidity":61,"rain":0.0,"pressure":1007.7,"uv_index":8.95,"wind_gusts":33.1,"aqi":55,"pm10":19.6,"pm2_5":17.1,"no2":5.2,"co":239.0,"o3":148.0,"so2":7.5,"mosquito_risk":3,"arthritis_risk":5,"migraine_risk":4,"frizz_risk":1,"updated_at":"2026-05-08T11:29:08.929124+05:30"},{"city":"Munnar","state":"Kerala","latitude":10.0889,"longitude":77.0595,"temp":20.1,"humidity":87,"rain":0.1,"pressure":857.4,"uv_index":9.45,"wind_gusts":22.7,"aqi":48,"pm10":6.5,"pm2_5":6.2,"no2":1.6,"co":184.0,"o3":90.0,"so2":2.7,"mosquito_risk":6,"arthritis_risk":5,"migraine_risk":7,"frizz_risk":1,"updated_at":"2026-05-08T11:29:08.929131+05:30"},{"city":"Silchar","state":"Assam","latitude":24.8333,"longitude":92.7789,"temp":32.0,"humidity":54,"rain":0.0,"pressure":1007.7,"uv_index":6.75,"wind_gusts":22.3,"aqi":126,"pm10":30.7,"pm2_5":22.4,"no2":0.9,"co":262.0,"o3":154.0,"so2":3.8,"mosquito_risk":0,"arthritis_risk":5,"migraine_risk":4,"frizz_risk":1,"updated_at":"2026-05-08T11:29:08.929137+05:30"},{"city":"Dibrugarh","state":"Assam","latitude":27.4728,"longitude":94.912,"temp":29.2,"humidity":57,"rain":0.0,"pressure":999.2,"uv_index":8.8,"wind_gusts":50.0,"aqi":82,"pm10":34.3,"pm2_5":23.1,"no2":1.2,"co":253.0,"o3":144.0,"so2":1.4,"mosquito_risk":4,"arthritis_risk":5,"migraine_risk":7,"frizz_risk":1,"updated_at":"2026-05-08T11:29:08.929143+05:30"}]