[{"city":"Delhi","state":"Delhi","latitude":28.6139,"longitude":77.209,"temp":36.2,"humidity":35,"rain":0.0,"pressure":978.6,"uv_index":7.8,"wind_gusts":38.2,"aqi":528,"pm10":340.9,"pm2_5":68.7,"no2":3.9,"co":220.0,"o3":134.0,"so2":8.7,"mosquito_risk":0,"arthritis_risk":5,"migraine_risk":10,"frizz_risk":1,"updated_at":"2026-06-16T15:40:16.024881+05:30"},{"city":"Mumbai","state":"Maharashtra","latitude":19.076,"longitude":72.8777,"temp":32.9,"humidity":57,"rain":0.0,"pressure":1006.8,"uv_index":7.7,"wind_gusts":45.0,"aqi":62,"pm10":35.2,"pm2_5":18.1,"no2":5.8,"co":152.0,"o3":93.0,"so2":7.0,"mosquito_risk":0,"arthritis_risk":5,"migraine_risk":4,"frizz_risk":1,"updated_at":"2026-06-16T15:40:16.024943+05:30"},{"city":"Bangalore","state":"Karnataka","latitude":12.9716,"longitude":77.5946,"temp":30.6,"humidity":44,"rain":0.0,"pressure":910.5,"uv_index":8.65,"wind_gusts":33.8,"aqi":72,"pm10":43.0,"pm2_5":21.0,"no2":4.2,"co":217.0,"o3":108.0,"so2":2.9,"mosquito_risk":0,"arthritis_risk":5,"migraine_risk":7,"frizz_risk":1,"updated_at":"2026-06-16T15:40:16.024959+05:30"},{"city":"Hyderabad","state":"Telangana","latitude":17.385,"longitude":78.4867,"temp":35.7,"humidity":31,"rain":0.0,"pressure":950.8,"uv_index":9.05,"wind_gusts":39.2,"aqi":115,"pm10":48.7,"pm2_5":23.7,"no2":2.5,"co":197.0,"o3":125.0,"so2":4.8,"mosquito_risk":0,"arthritis_risk":5,"migraine_risk":10,"frizz_risk":0,"updated_at":"2026-06-16T15:40:16.024970+05:30"},{"city":"Chennai","state":"Tamil Nadu","latitude":13.0827,"longitude":80.2707,"temp":35.0,"humidity":51,"rain":0.0,"pressure":1002.6,"uv_index":8.05,"wind_gusts":34.2,"aqi":94,"pm10":49.9,"pm2_5":33.8,"no2":4.4,"co":291.0,"o3":186.0,"so2":6.7,"mosquito_risk":0,"arthritis_risk":5,"migraine_risk":4,"frizz_risk":1,"updated_at":"2026-06-16T15:40:16.024978+05:30"},{"city":"Kolkata","state":"West Bengal","latitude":22.5726,"longitude":88.3639,"temp":34.8,"humidity":56,"rain":0.0,"pressure":1000.4,"uv_index":9.0,"wind_gusts":31.7,"aqi":133,"pm10":51.3,"pm2_5":37.7,"no2":5.0,"co":468.0,"o3":141.0,"so2":8.7,"mosquito_risk":0,"arthritis_risk":5,"migraine_risk":4,"frizz_risk":1,"updated_at":"2026-06-16T15:40:16.024987+05:30"},{"city":"Pune","state":"Maharashtra","latitude":18.5204,"longitude":73.8567,"temp":33.2,"humidity":35,"rain":0.0,"pressure":946.9,"uv_index":8.3,"wind_gusts":46.1,"aqi":54,"pm10":37.1,"pm2_5":17.8,"no2":2.1,"co":136.0,"o3":104.0,"so2":4.2,"mosquito_risk":0,"arthritis_risk":5,"migraine_risk":7,"frizz_risk":0,"updated_at":"2026-06-16T15:40:16.024994+05:30"},{"city":"Ahmedabad","state":"Gujarat","latitude":23.0225,"longitude":72.5714,"temp":38.0,"humidity":33,"rain":0.0,"pressure":998.1,"uv_index":8.05,"wind_gusts":46.1,"aqi":65,"pm10":55.2,"pm2_5":19.8,"no2":1.7,"co":131.0,"o3":85.0,"so2":2.9,"mosquito_risk":0,"arthritis_risk":5,"migraine_risk":10,"frizz_risk":1,"updated_at":"2026-06-16T15:40:16.025001+05:30"},{"city":"Jaipur","state":"Rajasthan","latitude":26.9124,"longitude":75.7873,"temp":37.0,"humidity":31,"rain":0.0,"pressure":956.1,"uv_index":8.2,"wind_gusts":27.7,"aqi":117,"pm10":118.7,"pm2_5":34.0,"no2":0.4,"co":178.0,"o3":99.0,"so2":2.5,"mosquito_risk":0,"arthritis_risk":5,"migraine_risk":10,"frizz_risk":1,"updated_at":"2026-06-16T15:40:16.025013+05:30"},{"city":"Lucknow","state":"Uttar Pradesh","latitude":26.8467,"longitude":80.9462,"temp":38.6,"humidity":30,"rain":0.0,"pressure":988.8,"uv_index":8.35,"wind_gusts":34.9,"aqi":163,"pm10":323.2,"pm2_5":78.2,"no2":1.5,"co":197.0,"o3":134.0,"so2":5.9,"mosquito_risk":0,"arthritis_risk":5,"migraine_risk":10,"frizz_risk":1,"updated_at":"2026-06-16T15:40:16.025020+05:30"},{"city":"Kanpur","state":"Uttar Pradesh","latitude":26.4499,"longitude":80.3319,"temp":39.8,"humidity":23,"rain":0.0,"pressure":987.0,"uv_index":8.3,"wind_gusts":38.9,"aqi":173,"pm10":504.8,"pm2_5":98.3,"no2":1.4,"co":162.0,"o3":137.0,"so2":5.7,"mosquito_risk":0,"arthritis_risk":5,"migraine_risk":10,"frizz_risk":0,"updated_at":"2026-06-16T15:40:16.025027+05:30"},{"city":"Chandigarh","state":"Chandigarh","latitude":30.7333,"longitude":76.7794,"temp":35.2,"humidity":36,"rain":0.0,"pressure":964.7,"uv_index":7.8,"wind_gusts":24.8,"aqi":136,"pm10":68.2,"pm2_5":34.6,"no2":1.4,"co":233.0,"o3":175.0,"so2":7.0,"mosquito_risk":0,"arthritis_risk":5,"migraine_risk":10,"frizz_risk":1,"updated_at":"2026-06-16T15:40:16.025034+05:30"},{"city":"Srinagar","state":"Jammu and Kashmir","latitude":34.0837,"longitude":74.7973,"temp":25.3,"humidity":47,"rain":0.0,"pressure":842.5,"uv_index":6.8,"wind_gusts":31.0,"aqi":82,"pm10":36.4,"pm2_5":17.7,"no2":1.0,"co":296.0,"o3":147.0,"so2":2.1,"mosquito_risk":4,"arthritis_risk":5,"migraine_risk":7,"frizz_risk":0,"updated_at":"2026-06-16T15:40:16.025041+05:30"},{"city":"Jammu","state":"Jammu and Kashmir","latitude":32.7266,"longitude":74.857,"temp":33.7,"humidity":39,"rain":0.0,"pressure":969.8,"uv_index":8.15,"wind_gusts":31.0,"aqi":110,"pm10":63.1,"pm2_5":36.9,"no2":1.4,"co":241.0,"o3":165.0,"so2":3.6,"mosquito_risk":0,"arthritis_risk":5,"migraine_risk":7,"frizz_risk":1,"updated_at":"2026-06-16T15:40:16.025048+05:30"},{"city":"Amritsar","state":"Punjab","latitude":31.634,"longitude":74.8723,"temp":34.1,"humidity":46,"rain":0.0,"pressure":976.9,"uv_index":7.55,"wind_gusts":35.3,"aqi":123,"pm10":104.1,"pm2_5":47.4,"no2":0.5,"co":265.0,"o3":169.0,"so2":6.6,"mosquito_risk":0,"arthritis_risk":5,"migraine_risk":7,"frizz_risk":1,"updated_at":"2026-06-16T15:40:16.025055+05:30"},{"city":"Ludhiana","state":"Punjab","latitude":30.901,"longitude":75.8573,"temp":35.1,"humidity":39,"rain":0.0,"pressure":974.5,"uv_index":8.05,"wind_gusts":28.1,"aqi":162,"pm10":139.2,"pm2_5":52.2,"no2":0.2,"co":210.0,"o3":161.0,"so2":4.3,"mosquito_risk":0,"arthritis_risk":5,"migraine_risk":10,"frizz_risk":1,"updated_at":"2026-06-16T15:40:16.025062+05:30"},{"city":"Jalandhar","state":"Punjab","latitude":31.326,"longitude":75.5762,"temp":35.2,"humidity":38,"rain":0.1,"pressure":975.6,"uv_index":8.15,"wind_gusts":26.3,"aqi":152,"pm10":113.2,"pm2_5":47.7,"no2":0.3,"co":232.0,"o3":168.0,"so2":4.4,"mosquito_risk":3,"arthritis_risk":5,"migraine_risk":10,"frizz_risk":1,"updated_at":"2026-06-16T15:40:16.025069+05:30"},{"city":"Dehradun","state":"Uttarakhand","latitude":30.6284,"longitude":78.0322,"temp":25.7,"humidity":44,"rain":0.0,"pressure":831.3,"uv_index":7.7,"wind_gusts":29.5,"aqi":89,"pm10":24.0,"pm2_5":13.7,"no2":0.5,"co":180.0,"o3":143.0,"so2":2.3,"mosquito_risk":4,"arthritis_risk":5,"migraine_risk":7,"frizz_risk":0,"updated_at":"2026-06-16T15:40:16.025076+05:30"},{"city":"Shimla","state":"Himachal Pradesh","latitude":31.1048,"longitude":77.1734,"temp":23.1,"humidity":40,"rain":0.0,"pressure":786.5,"uv_index":7.7,"wind_gusts":33.1,"aqi":113,"pm10":31.0,"pm2_5":24.4,"no2":1.9,"co":204.0,"o3":168.0,"so2":6.9,"mosquito_risk":0,"arthritis_risk":5,"migraine_risk":7,"frizz_risk":0,"updated_at":"2026-06-16T15:40:16.025086+05:30"},{"city":"Manali","state":"Himachal Pradesh","latitude":32.2396,"longitude":77.1887,"temp":22.8,"humidity":52,"rain":0.1,"pressure":819.9,"uv_index":9.45,"wind_gusts":34.6,"aqi":79,"pm10":21.8,"pm2_5":14.7,"no2":3.5,"co":134.0,"o3":153.0,"so2":0.4,"mosquito_risk":3,"arthritis_risk":5,"migraine_risk":7,"frizz_risk":0,"updated_at":"2026-06-16T15:40:16.025092+05:30"},{"city":"Gurgaon","state":"Haryana","latitude":28.4595,"longitude":77.0266,"temp":36.3,"humidity":32,"rain":0.0,"pressure":977.1,"uv_index":7.85,"wind_gusts":50.4,"aqi":621,"pm10":672.4,"pm2_5":104.5,"no2":4.6,"co":159.0,"o3":136.0,"so2":8.2,"mosquito_risk":0,"arthritis_risk":5,"migraine_risk":10,"frizz_risk":1,"updated_at":"2026-06-16T15:40:16.025100+05:30"},{"city":"Noida","state":"Uttar Pradesh","latitude":28.5355,"longitude":77.391,"temp":36.1,"humidity":37,"rain":0.0,"pressure":980.0,"uv_index":7.85,"wind_gusts":33.1,"aqi":621,"pm10":672.4,"pm2_5":104.5,"no2":4.6,"co":223.0,"o3":136.0,"so2":8.2,"mosquito_risk":0,"arthritis_risk":5,"migraine_risk":10,"frizz_risk":1,"updated_at":"2026-06-16T15:40:16.025107+05:30"},{"city":"Ghaziabad","state":"Uttar Pradesh","latitude":28.6692,"longitude":77.4538,"temp":35.4,"humidity":42,"rain":0.0,"pressure":978.3,"uv_index":7.8,"wind_gusts":30.6,"aqi":472,"pm10":284.1,"pm2_5":72.6,"no2":3.8,"co":210.0,"o3":177.0,"so2":15.0,"mosquito_risk":0,"arthritis_risk":5,"migraine_risk":10,"frizz_risk":1,"updated_at":"2026-06-16T15:40:16.025112+05:30"},{"city":"Faridabad","state":"Haryana","latitude":28.4089,"longitude":77.3178,"temp":36.9,"humidity":32,"rain":0.0,"pressure":979.3,"uv_index":7.85,"wind_gusts":42.1,"aqi":621,"pm10":672.4,"pm2_5":104.5,"no2":4.6,"co":181.0,"o3":136.0,"so2":8.2,"mosquito_risk":0,"arthritis_risk":5,"migraine_risk":10,"frizz_risk":1,"updated_at":"2026-06-16T15:40:16.025118+05:30"},{"city":"Meerut","state":"Uttar Pradesh","latitude":28.9845,"longitude":77.7064,"temp":35.4,"humidity":44,"rain":0.0,"pressure":977.0,"uv_index":7.7,"wind_gusts":28.1,"aqi":472,"pm10":284.1,"pm2_5":72.6,"no2":3.8,"co":158.0,"o3":177.0,"so2":15.0,"mosquito_risk":0,"arthritis_risk":5,"migraine_risk":10,"frizz_risk":1,"updated_at":"2026-06-16T15:40:16.025124+05:30"},{"city":"Agra","state":"Uttar Pradesh","latitude":27.1767,"longitude":78.0081,"temp":38.7,"humidity":28,"rain":0.0,"pressure":983.2,"uv_index":8.15,"wind_gusts":36.4,"aqi":853,"pm10":472.2,"pm2_5":78.5,"no2":0.5,"co":166.0,"o3":133.0,"so2":4.0,"mosquito_risk":0,"arthritis_risk":5,"migraine_risk":10,"frizz_risk":1,"updated_at":"2026-06-16T15:40:16.025130+05:30"},{"city":"Varanasi","state":"Uttar Pradesh","latitude":25.3176,"longitude":82.9739,"temp":40.7,"humidity":24,"rain":0.0,"pressure":991.6,"uv_index":8.8,"wind_gusts":48.2,"aqi":152,"pm10":123.9,"pm2_5":43.7,"no2":1.8,"co":206.0,"o3":148.0,"so2":7.0,"mosquito_risk":0,"arthritis_risk":5,"migraine_risk":10,"frizz_risk":1,"updated_at":"2026-06-16T15:40:16.025137+05:30"},{"city":"Prayagraj","state":"Uttar Pradesh","latitude":25.4358,"longitude":81.8463,"temp":39.8,"humidity":24,"rain":0.0,"pressure":990.8,"uv_index":8.75,"wind_gusts":42.5,"aqi":153,"pm10":278.5,"pm2_5":71.9,"no2":1.7,"co":208.0,"o3":155.0,"so2":9.1,"mosquito_risk":0,"arthritis_risk":5,"migraine_risk":10,"frizz_risk":0,"updated_at":"2026-06-16T15:40:16.025143+05:30"},{"city":"Gorakhpur","state":"Uttar Pradesh","latitude":26.7606,"longitude":83.3732,"temp":37.4,"humidity":37,"rain":0.0,"pressure":991.5,"uv_index":8.7,"wind_gusts":29.2,"aqi":166,"pm10":209.1,"pm2_5":68.2,"no2":3.2,"co":264.0,"o3":167.0,"so2":8.6,"mosquito_risk":0,"arthritis_risk":5,"migraine_risk":10,"frizz_risk":1,"updated_at":"2026-06-16T15:40:16.025153+05:30"},{"city":"Bareilly","state":"Uttar Pradesh","latitude":28.367,"longitude":79.4304,"temp":36.0,"humidity":43,"rain":0.0,"pressure":982.0,"uv_index":8.15,"wind_gusts":34.6,"aqi":157,"pm10":141.6,"pm2_5":56.1,"no2":1.7,"co":249.0,"o3":161.0,"so2":9.7,"mosquito_risk":0,"arthritis_risk":5,"migraine_risk":10,"frizz_risk":1,"updated_at":"2026-06-16T15:40:16.025160+05:30"},{"city":"Aligarh","state":"Uttar Pradesh","latitude":27.8974,"longitude":78.088,"temp":36.2,"humidity":36,"rain":0.0,"pressure":981.3,"uv_index":8.0,"wind_gusts":38.5,"aqi":518,"pm10":523.4,"pm2_5":85.4,"no2":1.6,"co":156.0,"o3":133.0,"so2":6.8,"mosquito_risk":0,"arthritis_risk":5,"migraine_risk":10,"frizz_risk":1,"updated_at":"2026-06-16T15:40:16.025166+05:30"},{"city":"Moradabad","state":"Uttar Pradesh","latitude":28.8386,"longitude":78.7733,"temp":35.8,"humidity":39,"rain":0.0,"pressure":979.1,"uv_index":7.95,"wind_gusts":32.4,"aqi":173,"pm10":217.0,"pm2_5":75.0,"no2":2.7,"co":226.0,"o3":161.0,"so2":10.5,"mosquito_risk":0,"arthritis_risk":5,"migraine_risk":10,"frizz_risk":1,"updated_at":"2026-06-16T15:40:16.025172+05:30"},{"city":"Saharanpur","state":"Uttar Pradesh","latitude":29.9637,"longitude":77.546,"temp":34.5,"humidity":42,"rain":0.0,"pressure":971.3,"uv_index":7.55,"wind_gusts":20.9,"aqi":162,"pm10":157.4,"pm2_5":58.7,"no2":2.7,"co":177.0,"o3":163.0,"so2":15.5,"mosquito_risk":0,"arthritis_risk":5,"migraine_risk":7,"frizz_risk":1,"updated_at":"2026-06-16T15:40:16.025178+05:30"},{"city":"Jhansi","state":"Uttar Pradesh","latitude":25.4484,"longitude":78.5685,"temp":39.1,"humidity":27,"rain":0.0,"pressure":973.9,"uv_index":8.45,"wind_gusts":21.2,"aqi":82,"pm10":90.1,"pm2_5":30.6,"no2":0.7,"co":130.0,"o3":116.0,"so2":5.7,"mosquito_risk":0,"arthritis_risk":5,"migraine_risk":10,"frizz_risk":1,"updated_at":"2026-06-16T15:40:19.252252+05:30"},{"city":"Surat","state":"Gujarat","latitude":21.1702,"longitude":72.8311,"temp":34.2,"humidity":53,"rain":0.0,"pressure":1004.2,"uv_index":7.55,"wind_gusts":51.5,"aqi":70,"pm10":48.0,"pm2_5":21.4,"no2":9.7,"co":226.0,"o3":55.0,"so2":31.6,"mosquito_risk":0,"arthritis_risk":5,"migraine_risk":4,"frizz_risk":1,"updated_at":"2026-06-16T15:40:19.252286+05:30"},{"city":"Vadodara","state":"Gujarat","latitude":22.3072,"longitude":73.1812,"temp":38.2,"humidity":31,"rain":0.0,"pressure":1000.6,"uv_index":8.0,"wind_gusts":54.4,"aqi":66,"pm10":65.2,"pm2_5":21.6,"no2":1.5,"co":135.0,"o3":95.0,"so2":2.6,"mosquito_risk":0,"arthritis_risk":5,"migraine_risk":7,"frizz_risk":1,"updated_at":"2026-06-16T15:40:19.252297+05:30"},{"city":"Rajkot","state":"Gujarat","latitude":22.3039,"longitude":70.8022,"temp":37.9,"humidity":35,"rain":0.0,"pressure":990.4,"uv_index":7.55,"wind_gusts":46.1,"aqi":58,"pm10":65.0,"pm2_5":23.1,"no2":1.2,"co":107.0,"o3":81.0,"so2":3.1,"mosquito_risk":0,"arthritis_risk":5,"migraine_risk":10,"frizz_risk":1,"updated_at":"2026-06-16T15:40:19.252306+05:30"},{"city":"Thane","state":"Maharashtra","latitude":19.2183,"longitude":72.9781,"temp":34.2,"humidity":50,"rain":0.0,"pressure":1006.0,"uv_index":7.7,"wind_gusts":40.0,"aqi":62,"pm10":35.2,"pm2_5":18.1,"no2":5.8,"co":142.0,"o3":93.0,"so2":7.0,"mosquito_risk":0,"arthritis_risk":5,"migraine_risk":4,"frizz_risk":1,"updated_at":"2026-06-16T15:40:19.252314+05:30"},{"city":"Nagpur","state":"Maharashtra","latitude":21.1458,"longitude":79.0882,"temp":37.3,"humidity":30,"rain":0.0,"pressure":969.5,"uv_index":8.7,"wind_gusts":52.9,"aqi":108,"pm10":67.8,"pm2_5":32.6,"no2":4.8,"co":169.0,"o3":136.0,"so2":17.1,"mosquito_risk":0,"arthritis_risk":5,"migraine_risk":10,"frizz_risk":1,"updated_at":"2026-06-16T15:40:19.252321+05:30"},{"city":"Nashik","state":"Maharashtra","latitude":19.9975,"longitude":73.7898,"temp":33.1,"humidity":34,"rain":0.0,"pressure":944.4,"uv_index":8.05,"wind_gusts":45.0,"aqi":54,"pm10":39.3,"pm2_5":15.7,"no2":1.0,"co":115.0,"o3":82.0,"so2":1.0,"mosquito_risk":0,"arthritis_risk":5,"migraine_risk":7,"frizz_risk":0,"updated_at":"2026-06-16T15:40:19.252328+05:30"},{"city":"Aurangabad","state":"Maharashtra","latitude":19.8762,"longitude":75.3433,"temp":36.2,"humidity":20,"rain":0.0,"pressure":942.2,"uv_index":8.95,"wind_gusts":43.9,"aqi":57,"pm10":52.2,"pm2_5":20.2,"no2":1.0,"co":123.0,"o3":104.0,"so2":2.0,"mosquito_risk":0,"arthritis_risk":5,"migraine_risk":10,"frizz_risk":0,"updated_at":"2026-06-16T15:40:19.252336+05:30"},{"city":"Solapur","state":"Maharashtra","latitude":17.6599,"longitude":75.9064,"temp":37.6,"humidity":19,"rain":0.0,"pressure":954.7,"uv_index":8.9,"wind_gusts":43.2,"aqi":60,"pm10":51.7,"pm2_5":20.0,"no2":0.4,"co":116.0,"o3":114.0,"so2":2.1,"mosquito_risk":0,"arthritis_risk":5,"migraine_risk":10,"frizz_risk":0,"updated_at":"2026-06-16T15:40:19.252344+05:30"},{"city":"Kolhapur","state":"Maharashtra","latitude":16.705,"longitude":74.2433,"temp":32.8,"humidity":37,"rain":0.0,"pressure":946.9,"uv_index":8.75,"wind_gusts":44.3,"aqi":54,"pm10":33.2,"pm2_5":14.2,"no2":1.8,"co":127.0,"o3":93.0,"so2":1.6,"mosquito_risk":0,"arthritis_risk":5,"migraine_risk":7,"frizz_risk":1,"updated_at":"2026-06-16T15:40:19.252351+05:30"},{"city":"Goa","state":"Goa","latitude":15.2993,"longitude":74.124,"temp":31.9,"humidity":66,"rain":0.0,"pressure":996.6,"uv_index":8.4,"wind_gusts":31.7,"aqi":56,"pm10":29.3,"pm2_5":13.6,"no2":0.7,"co":106.0,"o3":62.0,"so2":1.2,"mosquito_risk":3,"arthritis_risk":5,"migraine_risk":7,"frizz_risk":1,"updated_at":"2026-06-16T15:40:19.252359+05:30"},{"city":"Jodhpur","state":"Rajasthan","latitude":26.2389,"longitude":73.0243,"temp":38.2,"humidity":32,"rain":0.0,"pressure":978.4,"uv_index":8.45,"wind_gusts":37.8,"aqi":132,"pm10":147.1,"pm2_5":32.0,"no2":0.6,"co":110.0,"o3":88.0,"so2":1.4,"mosquito_risk":0,"arthritis_risk":5,"migraine_risk":10,"frizz_risk":1,"updated_at":"2026-06-16T15:40:19.252366+05:30"},{"city":"Udaipur","state":"Rajasthan","latitude":24.5854,"longitude":73.7125,"temp":33.9,"humidity":39,"rain":0.0,"pressure":944.2,"uv_index":8.8,"wind_gusts":36.4,"aqi":68,"pm10":64.5,"pm2_5":23.2,"no2":0.6,"co":113.0,"o3":90.0,"so2":2.6,"mosquito_risk":0,"arthritis_risk":5,"migraine_risk":7,"frizz_risk":1,"updated_at":"2026-06-16T15:40:19.252373+05:30"},{"city":"Kota","state":"Rajasthan","latitude":25.2138,"longitude":75.8648,"temp":38.0,"humidity":37,"rain":0.0,"pressure":974.8,"uv_index":8.35,"wind_gusts":32.0,"aqi":84,"pm10":66.6,"pm2_5":28.5,"no2":0.6,"co":150.0,"o3":111.0,"so2":4.7,"mosquito_risk":0,"arthritis_risk":5,"migraine_risk":10,"frizz_risk":1,"updated_at":"2026-06-16T15:40:19.252381+05:30"},{"city":"Bikaner","state":"Rajasthan","latitude":28.0229,"longitude":73.3119,"temp":39.5,"humidity":29,"rain":0.0,"pressure":976.9,"uv_index":8.5,"wind_gusts":47.5,"aqi":141,"pm10":190.0,"pm2_5":46.6,"no2":0.2,"co":113.0,"o3":86.0,"so2":2.3,"mosquito_risk":0,"arthritis_risk":5,"migraine_risk":10,"frizz_risk":1,"updated_at":"2026-06-16T15:40:19.252388+05:30"},{"city":"Ajmer","state":"Rajasthan","latitude":26.4499,"longitude":74.6399,"temp":35.6,"humidity":34,"rain":0.0,"pressure":951.3,"uv_index":8.35,"wind_gusts":39.2,"aqi":83,"pm10":68.0,"pm2_5":24.7,"no2":0.5,"co":125.0,"o3":95.0,"so2":2.0,"mosquito_risk":0,"arthritis_risk":5,"migraine_risk":10,"frizz_risk":1,"updated_at":"2026-06-16T15:40:19.252395+05:30"},{"city":"Gwalior","state":"Madhya Pradesh","latitude":26.2183,"longitude":78.1828,"temp":39.4,"humidity":24,"rain":0.0,"pressure":978.8,"uv_index":8.3,"wind_gusts":27.0,"aqi":150,"pm10":77.5,"pm2_5":27.4,"no2":0.3,"co":154.0,"o3":106.0,"so2":3.1,"mosquito_risk":0,"arthritis_risk":5,"migraine_risk":10,"frizz_risk":0,"updated_at":"2026-06-16T15:40:19.252404+05:30"},{"city":"Indore","state":"Madhya Pradesh","latitude":22.7196,"longitude":75.8577,"temp":35.9,"humidity":33,"rain":0.0,"pressure":945.6,"uv_index":8.6,"wind_gusts":40.7,"aqi":84,"pm10":105.5,"pm2_5":46.1,"no2":1.3,"co":166.0,"o3":101.0,"so2":3.0,"mosquito_risk":0,"arthritis_risk":5,"migraine_risk":10,"frizz_risk":1,"updated_at":"2026-06-16T15:40:19.252411+05:30"},{"city":"Bhopal","state":"Madhya Pradesh","latitude":23.2599,"longitude":77.4126,"temp":35.0,"humidity":39,"rain":0.0,"pressure":950.9,"uv_index":8.55,"wind_gusts":32.0,"aqi":88,"pm10":65.9,"pm2_5":31.5,"no2":0.5,"co":156.0,"o3":103.0,"so2":3.4,"mosquito_risk":0,"arthritis_risk":5,"migraine_risk":7,"frizz_risk":1,"updated_at":"2026-06-16T15:40:19.252419+05:30"},{"city":"Jabalpur","state":"Madhya Pradesh","latitude":23.1815,"longitude":79.9864,"temp":35.5,"humidity":36,"rain":0.1,"pressure":957.9,"uv_index":8.85,"wind_gusts":27.4,"aqi":87,"pm10":62.6,"pm2_5":27.5,"no2":0.9,"co":150.0,"o3":117.0,"so2":2.4,"mosquito_risk":3,"arthritis_risk":5,"migraine_risk":10,"frizz_risk":1,"updated_at":"2026-06-16T15:40:19.252426+05:30"},{"city":"Ujjain","state":"Madhya Pradesh","latitude":23.1765,"longitude":75.7885,"temp":36.4,"humidity":34,"rain":0.0,"pressure":951.2,"uv_index":8.55,"wind_gusts":40.0,"aqi":80,"pm10":54.8,"pm2_5":24.1,"no2":0.7,"co":139.0,"o3":99.0,"so2":3.6,"mosquito_risk":0,"arthritis_risk":5,"migraine_risk":10,"frizz_risk":1,"updated_at":"2026-06-16T15:40:19.252435+05:30"},{"city":"Visakhapatnam","state":"Andhra Pradesh","latitude":17.6868,"longitude":83.2185,"temp":35.9,"humidity":50,"rain":0.0,"pressure":998.1,"uv_index":8.95,"wind_gusts":30.6,"aqi":159,"pm10":78.0,"pm2_5":54.7,"no2":17.6,"co":1063.0,"o3":174.0,"so2":54.2,"mosquito_risk":0,"arthritis_risk":5,"migraine_risk":10,"frizz_risk":1,"updated_at":"2026-06-16T15:40:19.252442+05:30"},{"city":"Vijayawada","state":"Andhra Pradesh","latitude":16.5062,"longitude":80.648,"temp":37.5,"humidity":38,"rain":0.0,"pressure":997.3,"uv_index":8.9,"wind_gusts":29.9,"aqi":155,"pm10":102.0,"pm2_5":47.6,"no2":2.0,"co":195.0,"o3":127.0,"so2":6.0,"mosquito_risk":0,"arthritis_risk":5,"migraine_risk":10,"frizz_risk":1,"updated_at":"2026-06-16T15:40:19.252448+05:30"},{"city":"Guntur","state":"Andhra Pradesh","latitude":16.3067,"longitude":80.4365,"temp":37.5,"humidity":38,"rain":0.0,"pressure":998.4,"uv_index":8.6,"wind_gusts":35.3,"aqi":159,"pm10":107.8,"pm2_5":50.9,"no2":1.7,"co":191.0,"o3":135.0,"so2":6.5,"mosquito_risk":0,"arthritis_risk":5,"migraine_risk":10,"frizz_risk":1,"updated_at":"2026-06-16T15:40:19.252455+05:30"},{"city":"Nellore","state":"Andhra Pradesh","latitude":14.4426,"longitude":79.9865,"temp":38.5,"humidity":35,"rain":0.0,"pressure":1000.8,"uv_index":8.25,"wind_gusts":41.0,"aqi":98,"pm10":53.6,"pm2_5":32.4,"no2":3.7,"co":162.0,"o3":143.0,"so2":7.0,"mosquito_risk":0,"arthritis_risk":5,"migraine_risk":7,"frizz_risk":1,"updated_at":"2026-06-16T15:40:19.252463+05:30"},{"city":"Kurnool","state":"Andhra Pradesh","latitude":15.8281,"longitude":78.0373,"temp":36.3,"humidity":36,"rain":0.0,"pressure":973.7,"uv_index":5.1,"wind_gusts":42.8,"aqi":82,"pm10":41.9,"pm2_5":22.6,"no2":0.6,"co":127.0,"o3":127.0,"so2":6.9,"mosquito_risk":0,"arthritis_risk":5,"migraine_risk":6,"frizz_risk":1,"updated_at":"2026-06-16T15:40:19.252470+05:30"},{"city":"Kakinada","state":"Andhra Pradesh","latitude":16.9891,"longitude":82.2475,"temp":36.4,"humidity":46,"rain":0.0,"pressure":1002.1,"uv_index":8.8,"wind_gusts":36.4,"aqi":129,"pm10":64.5,"pm2_5":37.4,"no2":2.8,"co":213.0,"o3":135.0,"so2":4.7,"mosquito_risk":0,"arthritis_risk":5,"migraine_risk":7,"frizz_risk":1,"updated_at":"2026-06-16T15:40:19.252477+05:30"},{"city":"Tirupati","state":"Andhra Pradesh","latitude":13.6288,"longitude":79.4192,"temp":37.9,"humidity":32,"rain":0.0,"pressure":986.6,"uv_index":8.75,"wind_gusts":29.9,"aqi":102,"pm10":52.4,"pm2_5":25.0,"no2":2.5,"co":167.0,"o3":121.0,"so2":5.5,"mosquito_risk":0,"arthritis_risk":5,"migraine_risk":10,"frizz_risk":1,"updated_at":"2026-06-16T15:40:19.252484+05:30"},{"city":"Warangal","state":"Telangana","latitude":17.9689,"longitude":79.5941,"temp":36.0,"humidity":40,"rain":0.0,"pressure":974.9,"uv_index":7.8,"wind_gusts":41.8,"aqi":158,"pm10":85.7,"pm2_5":44.0,"no2":1.7,"co":161.0,"o3":147.0,"so2":12.0,"mosquito_risk":0,"arthritis_risk":5,"migraine_risk":10,"frizz_risk":1,"updated_at":"2026-06-16T15:40:19.252490+05:30"},{"city":"Nizamabad","state":"Telangana","latitude":18.6725,"longitude":78.0941,"temp":36.9,"humidity":31,"rain":0.0,"pressure":961.8,"uv_index":8.95,"wind_gusts":36.0,"aqi":95,"pm10":62.2,"pm2_5":24.9,"no2":0.6,"co":133.0,"o3":107.0,"so2":2.5,"mosquito_risk":0,"arthritis_risk":5,"migraine_risk":10,"frizz_risk":1,"updated_at":"2026-06-16T15:40:19.252497+05:30"},{"city":"Mysore","state":"Karnataka","latitude":12.2958,"longitude":76.6396,"temp":31.7,"humidity":46,"rain":0.0,"pressure":926.9,"uv_index":8.5,"wind_gusts":34.2,"aqi":60,"pm10":41.3,"pm2_5":17.9,"no2":2.2,"co":162.0,"o3":107.0,"so2":1.7,"mosquito_risk":0,"arthritis_risk":5,"migraine_risk":7,"frizz_risk":1,"updated_at":"2026-06-16T15:40:19.252503+05:30"},{"city":"Mangalore","state":"Karnataka","latitude":12.9141,"longitude":74.856,"temp":30.7,"humidity":70,"rain":0.0,"pressure":1005.1,"uv_index":8.5,"wind_gusts":43.9,"aqi":60,"pm10":32.1,"pm2_5":14.5,"no2":0.9,"co":100.0,"o3":61.0,"so2":1.2,"mosquito_risk":3,"arthritis_risk":5,"migraine_risk":4,"frizz_risk":1,"updated_at":"2026-06-16T15:40:19.252510+05:30"},{"city":"Hubli-Dharwad","state":"Karnataka","latitude":15.3647,"longitude":75.124,"temp":31.1,"humidity":51,"rain":0.1,"pressure":939.2,"uv_index":8.9,"wind_gusts":45.0,"aqi":44,"pm10":27.9,"pm2_5":12.2,"no2":1.7,"co":128.0,"o3":93.0,"so2":1.1,"mosquito_risk":3,"arthritis_risk":5,"migraine_risk":7,"frizz_risk":1,"updated_at":"2026-06-16T15:40:19.252517+05:30"},{"city":"Belgaum","state":"Karnataka","latitude":15.8497,"longitude":74.4977,"temp":28.9,"humidity":58,"rain":0.1,"pressure":925.0,"uv_index":8.9,"wind_gusts":42.8,"aqi":50,"pm10":21.7,"pm2_5":10.7,"no2":1.8,"co":123.0,"o3":77.0,"so2":1.3,"mosquito_risk":7,"arthritis_risk":5,"migraine_risk":7,"frizz_risk":1,"updated_at":"2026-06-16T15:40:22.478464+05:30"},{"city":"Coimbatore","state":"Tamil Nadu","latitude":11.0168,"longitude":76.9558,"temp":32.8,"humidity":48,"rain":0.1,"pressure":959.2,"uv_index":8.0,"wind_gusts":39.2,"aqi":63,"pm10":31.4,"pm2_5":16.1,"no2":2.5,"co":187.0,"o3":104.0,"so2":2.7,"mosquito_risk":3,"arthritis_risk":5,"migraine_risk":7,"frizz_risk":1,"updated_at":"2026-06-16T15:40:22.478499+05:30"},{"city":"Madurai","state":"Tamil Nadu","latitude":9.9252,"longitude":78.1198,"temp":38.4,"humidity":28,"rain":0.0,"pressure":989.0,"uv_index":8.45,"wind_gusts":37.8,"aqi":80,"pm10":53.3,"pm2_5":21.3,"no2":2.3,"co":174.0,"o3":121.0,"so2":2.1,"mosquito_risk":0,"arthritis_risk":5,"migraine_risk":10,"frizz_risk":1,"updated_at":"2026-06-16T15:40:22.478511+05:30"},{"city":"Trichy","state":"Tamil Nadu","latitude":10.7905,"longitude":78.7047,"temp":38.0,"humidity":30,"rain":0.0,"pressure":995.6,"uv_index":8.05,"wind_gusts":41.0,"aqi":78,"pm10":52.0,"pm2_5":24.2,"no2":2.6,"co":166.0,"o3":125.0,"so2":3.5,"mosquito_risk":0,"arthritis_risk":5,"migraine_risk":10,"frizz_risk":1,"updated_at":"2026-06-16T15:40:22.478520+05:30"},{"city":"Salem","state":"Tamil Nadu","latitude":11.6643,"longitude":78.146,"temp":35.7,"humidity":33,"rain":0.0,"pressure":974.1,"uv_index":7.35,"wind_gusts":29.9,"aqi":80,"pm10":51.7,"pm2_5":23.2,"no2":2.7,"co":148.0,"o3":132.0,"so2":6.3,"mosquito_risk":0,"arthritis_risk":5,"migraine_risk":10,"frizz_risk":1,"updated_at":"2026-06-16T15:40:22.478528+05:30"},{"city":"Tirunelveli","state":"Tamil Nadu","latitude":8.7139,"longitude":77.7567,"temp":36.2,"humidity":40,"rain":0.1,"pressure":999.1,"uv_index":8.65,"wind_gusts":38.9,"aqi":53,"pm10":26.7,"pm2_5":11.9,"no2":1.9,"co":154.0,"o3":92.0,"so2":1.2,"mosquito_risk":3,"arthritis_risk":5,"migraine_risk":10,"frizz_risk":1,"updated_at":"2026-06-16T15:40:22.478537+05:30"},{"city":"Vellore","state":"Tamil Nadu","latitude":12.9165,"longitude":79.1325,"temp":33.7,"humidity":52,"rain":0.1,"pressure":980.6,"uv_index":8.75,"wind_gusts":38.9,"aqi":112,"pm10":54.1,"pm2_5":24.6,"no2":2.6,"co":180.0,"o3":110.0,"so2":3.5,"mosquito_risk":3,"arthritis_risk":5,"migraine_risk":7,"frizz_risk":1,"updated_at":"2026-06-16T15:40:22.478544+05:30"},{"city":"Erode","state":"Tamil Nadu","latitude":11.341,"longitude":77.7172,"temp":36.7,"humidity":32,"rain":0.0,"pressure":985.4,"uv_index":7.6,"wind_gusts":32.0,"aqi":70,"pm10":43.5,"pm2_5":20.3,"no2":3.7,"co":175.0,"o3":122.0,"so2":2.1,"mosquito_risk":0,"arthritis_risk":5,"migraine_risk":10,"frizz_risk":1,"updated_at":"2026-06-16T15:40:22.478552+05:30"},{"city":"Kochi","state":"Kerala","latitude":9.9312,"longitude":76.2673,"temp":29.5,"humidity":79,"rain":0.0,"pressure":1006.8,"uv_index":7.85,"wind_gusts":31.7,"aqi":59,"pm10":22.4,"pm2_5":12.7,"no2":3.0,"co":127.0,"o3":79.0,"so2":2.7,"mosquito_risk":7,"arthritis_risk":5,"migraine_risk":4,"frizz_risk":1,"updated_at":"2026-06-16T15:40:22.478559+05:30"},{"city":"Thiruvananthapuram","state":"Kerala","latitude":8.5241,"longitude":76.9366,"temp":28.6,"humidity":81,"rain":0.0,"pressure":1006.1,"uv_index":7.35,"wind_gusts":41.4,"aqi":56,"pm10":19.0,"pm2_5":10.4,"no2":1.9,"co":111.0,"o3":78.0,"so2":1.1,"mosquito_risk":7,"arthritis_risk":5,"migraine_risk":4,"frizz_risk":1,"updated_at":"2026-06-16T15:40:22.478567+05:30"},{"city":"Kozhikode","state":"Kerala","latitude":11.2588,"longitude":75.7804,"temp":30.6,"humidity":73,"rain":0.0,"pressure":1005.7,"uv_index":7.5,"wind_gusts":49.0,"aqi":54,"pm10":34.8,"pm2_5":15.2,"no2":0.5,"co":110.0,"o3":67.0,"so2":0.9,"mosquito_risk":3,"arthritis_risk":5,"migraine_risk":4,"frizz_risk":1,"updated_at":"2026-06-16T15:40:22.478574+05:30"},{"city":"Thrissur","state":"Kerala","latitude":10.5276,"longitude":76.2144,"temp":30.5,"humidity":72,"rain":0.0,"pressure":1004.7,"uv_index":6.35,"wind_gusts":39.6,"aqi":63,"pm10":22.6,"pm2_5":13.0,"no2":2.3,"co":114.0,"o3":75.0,"so2":2.1,"mosquito_risk":3,"arthritis_risk":5,"migraine_risk":4,"frizz_risk":1,"updated_at":"2026-06-16T15:40:22.478582+05:30"},{"city":"Kannur","state":"Kerala","latitude":11.8745,"longitude":75.3704,"temp":30.9,"humidity":69,"rain":0.1,"pressure":1005.1,"uv_index":8.6,"wind_gusts":47.5,"aqi":56,"pm10":33.9,"pm2_5":16.0,"no2":0.9,"co":104.0,"o3":68.0,"so2":1.2,"mosquito_risk":6,"arthritis_risk":5,"migraine_risk":4,"frizz_risk":1,"updated_at":"2026-06-16T15:40:22.478590+05:30"},{"city":"Patna","state":"Bihar","latitude":25.5941,"longitude":85.1376,"temp":37.5,"humidity":40,"rain":0.0,"pressure":994.5,"uv_index":8.85,"wind_gusts":25.9,"aqi":182,"pm10":149.9,"pm2_5":60.1,"no2":5.3,"co":290.0,"o3":176.0,"so2":9.6,"mosquito_risk":0,"arthritis_risk":5,"migraine_risk":10,"frizz_risk":1,"updated_at":"2026-06-16T15:40:22.478597+05:30"},{"city":"Gaya","state":"Bihar","latitude":24.7914,"longitude":85.0002,"temp":38.4,"humidity":34,"rain":0.0,"pressure":988.0,"uv_index":8.95,"wind_gusts":23.0,"aqi":151,"pm10":153.2,"pm2_5":54.4,"no2":2.9,"co":254.0,"o3":147.0,"so2":6.0,"mosquito_risk":0,"arthritis_risk":5,"migraine_risk":10,"frizz_risk":1,"updated_at":"2026-06-16T15:40:22.478604+05:30"},{"city":"Muzaffarpur","state":"Bihar","latitude":26.1209,"longitude":85.3647,"temp":35.7,"humidity":49,"rain":0.0,"pressure":994.5,"uv_index":8.85,"wind_gusts":26.3,"aqi":184,"pm10":134.6,"pm2_5":60.5,"no2":5.9,"co":348.0,"o3":191.0,"so2":13.8,"mosquito_risk":0,"arthritis_risk":5,"migraine_risk":10,"frizz_risk":1,"updated_at":"2026-06-16T15:40:22.478611+05:30"},{"city":"Bhagalpur","state":"Bihar","latitude":25.2425,"longitude":87.0117,"temp":37.0,"humidity":45,"rain":0.0,"pressure":994.6,"uv_index":8.85,"wind_gusts":26.3,"aqi":185,"pm10":124.3,"pm2_5":59.3,"no2":3.9,"co":283.0,"o3":201.0,"so2":18.6,"mosquito_risk":0,"arthritis_risk":5,"migraine_risk":10,"frizz_risk":1,"updated_at":"2026-06-16T15:40:22.478618+05:30"},{"city":"Ranchi","state":"Jharkhand","latitude":23.3441,"longitude":85.3096,"temp":33.3,"humidity":39,"rain":0.0,"pressure":934.2,"uv_index":9.25,"wind_gusts":23.4,"aqi":130,"pm10":100.1,"pm2_5":37.8,"no2":2.0,"co":226.0,"o3":144.0,"so2":6.7,"mosquito_risk":0,"arthritis_risk":5,"migraine_risk":7,"frizz_risk":1,"updated_at":"2026-06-16T15:40:22.478625+05:30"},{"city":"Jamshedpur","state":"Jharkhand","latitude":22.8046,"longitude":86.2029,"temp":38.1,"humidity":30,"rain":0.0,"pressure":985.0,"uv_index":9.1,"wind_gusts":22.3,"aqi":184,"pm10":104.5,"pm2_5":55.2,"no2":4.6,"co":264.0,"o3":200.0,"so2":22.9,"mosquito_risk":0,"arthritis_risk":5,"migraine_risk":10,"frizz_risk":1,"updated_at":"2026-06-16T15:40:22.478632+05:30"},{"city":"Dhanbad","state":"Jharkhand","latitude":23.7957,"longitude":86.4304,"temp":38.3,"humidity":30,"rain":0.0,"pressure":974.3,"uv_index":9.05,"wind_gusts":27.4,"aqi":168,"pm10":129.9,"pm2_5":60.3,"no2":10.0,"co":213.0,"o3":206.0,"so2":50.9,"mosquito_risk":0,"arthritis_risk":5,"migraine_risk":10,"frizz_risk":1,"updated_at":"2026-06-16T15:40:22.478640+05:30"},{"city":"Bokaro","state":"Jharkhand","latitude":23.6693,"longitude":86.1511,"temp":37.4,"humidity":31,"rain":0.0,"pressure":978.2,"uv_index":9.1,"wind_gusts":27.7,"aqi":164,"pm10":125.7,"pm2_5":53.4,"no2":10.7,"co":248.0,"o3":187.0,"so2":52.8,"mosquito_risk":0,"arthritis_risk":5,"migraine_risk":10,"frizz_risk":1,"updated_at":"2026-06-16T15:40:22.478646+05:30"},{"city":"Bhubaneswar","state":"Odisha","latitude":20.2961,"longitude":85.8245,"temp":32.6,"humidity":80,"rain":0.3,"pressure":997.3,"uv_index":9.05,"wind_gusts":30.2,"aqi":115,"pm10":47.0,"pm2_5":33.9,"no2":3.6,"co":304.0,"o3":133.0,"so2":7.4,"mosquito_risk":6,"arthritis_risk":5,"migraine_risk":7,"frizz_risk":1,"updated_at":"2026-06-16T15:40:22.478653+05:30"},{"city":"Cuttack","state":"Odisha","latitude":20.4625,"longitude":85.8828,"temp":30.9,"humidity":81,"rain":0.2,"pressure":999.6,"uv_index":9.1,"wind_gusts":45.4,"aqi":115,"pm10":47.0,"pm2_5":33.9,"no2":3.6,"co":286.0,"o3":133.0,"so2":7.4,"mosquito_risk":6,"arthritis_risk":5,"migraine_risk":7,"frizz_risk":1,"updated_at":"2026-06-16T15:40:22.478659+05:30"},{"city":"Rourkela","state":"Odisha","latitude":22.2604,"longitude":84.8536,"temp":38.8,"humidity":29,"rain":0.0,"pressure":979.2,"uv_index":9.05,"wind_gusts":32.8,"aqi":152,"pm10":87.8,"pm2_5":50.3,"no2":1.3,"co":269.0,"o3":176.0,"so2":18.5,"mosquito_risk":0,"arthritis_risk":5,"migraine_risk":10,"frizz_risk":1,"updated_at":"2026-06-16T15:40:22.478666+05:30"},{"city":"Raipur","state":"Chhattisgarh","latitude":21.2514,"longitude":81.6296,"temp":39.8,"humidity":26,"rain":0.0,"pressure":969.5,"uv_index":8.95,"wind_gusts":42.5,"aqi":151,"pm10":88.2,"pm2_5":52.6,"no2":10.2,"co":205.0,"o3":177.0,"so2":44.3,"mosquito_risk":0,"arthritis_risk":5,"migraine_risk":10,"frizz_risk":1,"updated_at":"2026-06-16T15:40:22.478672+05:30"},{"city":"Bhilai","state":"Chhattisgarh","latitude":21.1938,"longitude":81.3509,"temp":39.2,"humidity":27,"rain":0.0,"pressure":969.9,"uv_index":8.95,"wind_gusts":50.4,"aqi":155,"pm10":90.3,"pm2_5":52.5,"no2":17.6,"co":487.0,"o3":149.0,"so2":59.2,"mosquito_risk":0,"arthritis_risk":5,"migraine_risk":10,"frizz_risk":1,"updated_at":"2026-06-16T15:40:22.478679+05:30"},{"city":"Guwahati","state":"Assam","latitude":26.1158,"longitude":91.7086,"temp":30.9,"humidity":74,"rain":0.0,"pressure":995.7,"uv_index":8.35,"wind_gusts":25.6,"aqi":90,"pm10":32.6,"pm2_5":26.7,"no2":2.3,"co":292.0,"o3":120.0,"so2":4.0,"mosquito_risk":3,"arthritis_risk":5,"migraine_risk":7,"frizz_risk":1,"updated_at":"2026-06-16T15:40:22.478686+05:30"},{"city":"Agartala","state":"Tripura","latitude":23.8315,"longitude":91.2868,"temp":31.3,"humidity":72,"rain":0.0,"pressure":1000.7,"uv_index":8.85,"wind_gusts":29.9,"aqi":99,"pm10":44.6,"pm2_5":32.9,"no2":7.0,"co":199.0,"o3":150.0,"so2":6.8,"mosquito_risk":3,"arthritis_risk":5,"migraine_risk":4,"frizz_risk":1,"updated_at":"2026-06-16T15:40:22.478693+05:30"},{"city":"Shillong","state":"Meghalaya","latitude":25.5788,"longitude":91.8933,"temp":22.6,"humidity":90,"rain":0.0,"pressure":854.9,"uv_index":8.1,"wind_gusts":22.3,"aqi":87,"pm10":29.3,"pm2_5":22.3,"no2":2.4,"co":259.0,"o3":120.0,"so2":3.2,"mosquito_risk":3,"arthritis_risk":5,"migraine_risk":7,"frizz_risk":1,"updated_at":"2026-06-16T15:40:22.478699+05:30"},{"city":"Imphal","state":"Manipur","latitude":24.817,"longitude":93.9368,"temp":26.9,"humidity":79,"rain":0.1,"pressure":919.1,"uv_index":8.15,"wind_gusts":29.9,"aqi":74,"pm10":22.1,"pm2_5":17.4,"no2":3.0,"co":205.0,"o3":102.0,"so2":2.2,"mosquito_risk":10,"arthritis_risk":5,"migraine_risk":7,"frizz_risk":1,"updated_at":"2026-06-16T15:40:22.478707+05:30"},{"city":"Aizawl","state":"Mizoram","latitude":23.7271,"longitude":92.7176,"temp":21.5,"humidity":93,"rain":0.1,"pressure":888.9,"uv_index":7.45,"wind_gusts":24.8,"aqi":53,"pm10":15.0,"pm2_5":10.8,"no2":2.2,"co":164.0,"o3":79.0,"so2":1.0,"mosquito_risk":6,"arthritis_risk":5,"migraine_risk":7,"frizz_risk":1,"updated_at":"2026-06-16T15:40:22.478714+05:30"},{"city":"Kohima","state":"Nagaland","latitude":25.6701,"longitude":94.1077,"temp":22.2,"humidity":100,"rain":0.0,"pressure":852.7,"uv_index":7.95,"wind_gusts":24.1,"aqi":59,"pm10":24.6,"pm2_5":19.3,"no2":1.9,"co":202.0,"o3":106.0,"so2":1.7,"mosquito_risk":3,"arthritis_risk":5,"migraine_risk":7,"frizz_risk":1,"updated_at":"2026-06-16T15:40:22.478721+05:30"},{"city":"Gangtok","state":"Sikkim","latitude":27.3314,"longitude":88.6138,"temp":22.1,"humidity":85,"rain":0.1,"pressure":836.1,"uv_index":8.35,"wind_gusts":39.2,"aqi":106,"pm10":15.0,"pm2_5":12.8,"no2":2.3,"co":320.0,"o3":137.0,"so2":2.0,"mosquito_risk":6,"arthritis_risk":5,"migraine_risk":7,"frizz_risk":1,"updated_at":"2026-06-16T15:40:22.478727+05:30"},{"city":"Siliguri","state":"West Bengal","latitude":26.7271,"longitude":88.3953,"temp":32.1,"humidity":66,"rain":0.0,"pressure":987.3,"uv_index":8.35,"wind_gusts":21.2,"aqi":142,"pm10":45.4,"pm2_5":35.7,"no2":2.8,"co":504.0,"o3":163.0,"so2":5.9,"mosquito_risk":3,"arthritis_risk":5,"migraine_risk":7,"frizz_risk":1,"updated_at":"2026-06-16T15:40:25.708469+05:30"},{"city":"Durgapur","state":"West Bengal","latitude":23.5204,"longitude":87.3119,"temp":33.5,"humidity":57,"rain":0.0,"pressure":989.1,"uv_index":9.0,"wind_gusts":34.6,"aqi":194,"pm10":129.0,"pm2_5":91.5,"no2":12.5,"co":547.0,"o3":247.0,"so2":53.5,"mosquito_risk":0,"arthritis_risk":5,"migraine_risk":7,"frizz_risk":1,"updated_at":"2026-06-16T15:40:25.708504+05:30"},{"city":"Asansol","state":"West Bengal","latitude":23.6739,"longitude":86.9524,"temp":36.9,"humidity":41,"rain":0.0,"pressure":987.5,"uv_index":9.05,"wind_gusts":33.1,"aqi":188,"pm10":129.9,"pm2_5":74.7,"no2":9.7,"co":394.0,"o3":231.0,"so2":39.8,"mosquito_risk":0,"arthritis_risk":5,"migraine_risk":10,"frizz_risk":1,"updated_at":"2026-06-16T15:40:25.708515+05:30"},{"city":"Pondicherry","state":"Puducherry","latitude":11.9139,"longitude":79.8145,"temp":33.8,"humidity":64,"rain":0.0,"pressure":1003.9,"uv_index":7.95,"wind_gusts":34.2,"aqi":86,"pm10":52.2,"pm2_5":35.0,"no2":9.6,"co":228.0,"o3":174.0,"so2":8.6,"mosquito_risk":3,"arthritis_risk":5,"migraine_risk":4,"frizz_risk":1,"updated_at":"2026-06-16T15:40:25.708524+05:30"},{"city":"Port Blair","state":"Andaman and Nicobar Islands","latitude":11.6234,"longitude":92.7265,"temp":29.7,"humidity":73,"rain":0.0,"pressure":1006.0,"uv_index":8.55,"wind_gusts":42.8,"aqi":30,"pm10":7.8,"pm2_5":4.7,"no2":0.4,"co":96.0,"o3":38.0,"so2":0.5,"mosquito_risk":7,"arthritis_risk":5,"migraine_risk":4,"frizz_risk":1,"updated_at":"2026-06-16T15:40:25.708532+05:30"},{"city":"Haridwar","state":"Uttarakhand","latitude":29.9457,"longitude":78.1642,"temp":35.4,"humidity":37,"rain":0.0,"pressure":969.4,"uv_index":7.6,"wind_gusts":22.3,"aqi":141,"pm10":113.6,"pm2_5":47.1,"no2":1.0,"co":242.0,"o3":162.0,"so2":10.0,"mosquito_risk":0,"arthritis_risk":5,"migraine_risk":10,"frizz_risk":1,"updated_at":"2026-06-16T15:40:25.708539+05:30"},{"city":"Rishikesh","state":"Uttarakhand","latitude":30.0869,"longitude":78.2676,"temp":35.1,"humidity":32,"rain":0.0,"pressure":962.3,"uv_index":7.7,"wind_gusts":23.0,"aqi":123,"pm10":77.8,"pm2_5":33.1,"no2":0.6,"co":233.0,"o3":157.0,"so2":5.6,"mosquito_risk":0,"arthritis_risk":5,"migraine_risk":10,"frizz_risk":0,"updated_at":"2026-06-16T15:40:25.708547+05:30"},{"city":"Nainital","state":"Uttarakhand","latitude":29.3919,"longitude":79.4542,"temp":23.6,"humidity":51,"rain":0.0,"pressure":807.3,"uv_index":8.1,"wind_gusts":27.4,"aqi":137,"pm10":58.4,"pm2_5":26.8,"no2":1.1,"co":199.0,"o3":164.0,"so2":7.2,"mosquito_risk":0,"arthritis_risk":5,"migraine_risk":7,"frizz_risk":0,"updated_at":"2026-06-16T15:40:25.708554+05:30"},{"city":"Mussoorie","state":"Uttarakhand","latitude":30.4599,"longitude":78.0664,"temp":23.8,"humidity":44,"rain":0.1,"pressure":804.6,"uv_index":7.4,"wind_gusts":32.8,"aqi":120,"pm10":54.6,"pm2_5":26.7,"no2":0.8,"co":204.0,"o3":158.0,"so2":5.9,"mosquito_risk":3,"arthritis_risk":5,"migraine_risk":7,"frizz_risk":0,"updated_at":"2026-06-16T15:40:25.708562+05:30"},{"city":"Dharamshala","state":"Himachal Pradesh","latitude":32.219,"longitude":76.3234,"temp":25.7,"humidity":48,"rain":0.0,"pressure":868.7,"uv_index":8.55,"wind_gusts":47.5,"aqi":87,"pm10":13.9,"pm2_5":9.7,"no2":0.3,"co":170.0,"o3":140.0,"so2":0.7,"mosquito_risk":4,"arthritis_risk":5,"migraine_risk":7,"frizz_risk":0,"updated_at":"2026-06-16T15:40:25.708569+05:30"},{"city":"Dalhousie","state":"Himachal Pradesh","latitude":32.5387,"longitude":75.971,"temp":17.6,"humidity":84,"rain":0.1,"pressure":804.0,"uv_index":8.7,"wind_gusts":29.5,"aqi":112,"pm10":36.1,"pm2_5":22.4,"no2":0.7,"co":177.0,"o3":162.0,"so2":1.3,"mosquito_risk":6,"arthritis_risk":10,"migraine_risk":7,"frizz_risk":0,"updated_at":"2026-06-16T15:40:25.708577+05:30"},{"city":"Patiala","state":"Punjab","latitude":30.3398,"longitude":76.3869,"temp":34.1,"humidity":44,"rain":0.1,"pressure":974.0,"uv_index":7.65,"wind_gusts":33.8,"aqi":167,"pm10":381.8,"pm2_5":76.1,"no2":1.1,"co":149.0,"o3":146.0,"so2":4.9,"mosquito_risk":3,"arthritis_risk":5,"migraine_risk":7,"frizz_risk":1,"updated_at":"2026-06-16T15:40:25.708584+05:30"},{"city":"Bhatinda","state":"Punjab","latitude":30.211,"longitude":74.9455,"temp":38.0,"humidity":32,"rain":0.0,"pressure":979.0,"uv_index":8.3,"wind_gusts":29.5,"aqi":151,"pm10":255.2,"pm2_5":66.6,"no2":1.9,"co":147.0,"o3":147.0,"so2":11.9,"mosquito_risk":0,"arthritis_risk":5,"migraine_risk":10,"frizz_risk":1,"updated_at":"2026-06-16T15:40:25.708592+05:30"},{"city":"Rohtak","state":"Haryana","latitude":28.8955,"longitude":76.6066,"temp":36.2,"humidity":37,"rain":0.0,"pressure":977.5,"uv_index":7.8,"wind_gusts":42.5,"aqi":537,"pm10":384.6,"pm2_5":70.8,"no2":0.3,"co":156.0,"o3":114.0,"so2":3.4,"mosquito_risk":0,"arthritis_risk":5,"migraine_risk":10,"frizz_risk":1,"updated_at":"2026-06-16T15:40:25.708599+05:30"},{"city":"Panipat","state":"Haryana","latitude":29.3909,"longitude":76.9635,"temp":35.4,"humidity":42,"rain":0.0,"pressure":976.0,"uv_index":7.65,"wind_gusts":22.7,"aqi":793,"pm10":920.1,"pm2_5":125.3,"no2":2.2,"co":147.0,"o3":128.0,"so2":11.2,"mosquito_risk":0,"arthritis_risk":5,"migraine_risk":10,"frizz_risk":1,"updated_at":"2026-06-16T15:40:25.708605+05:30"},{"city":"Mathura","state":"Uttar Pradesh","latitude":27.4924,"longitude":77.6737,"temp":36.3,"humidity":39,"rain":0.0,"pressure":982.5,"uv_index":8.1,"wind_gusts":48.2,"aqi":606,"pm10":355.8,"pm2_5":64.3,"no2":0.6,"co":157.0,"o3":122.0,"so2":3.0,"mosquito_risk":0,"arthritis_risk":5,"migraine_risk":10,"frizz_risk":1,"updated_at":"2026-06-16T15:40:25.708612+05:30"},{"city":"Vrindavan","state":"Uttar Pradesh","latitude":27.5823,"longitude":77.7027,"temp":36.3,"humidity":39,"rain":0.0,"pressure":983.0,"uv_index":8.1,"wind_gusts":49.3,"aqi":606,"pm10":355.8,"pm2_5":64.3,"no2":0.6,"co":152.0,"o3":122.0,"so2":3.0,"mosquito_risk":0,"arthritis_risk":5,"migraine_risk":10,"frizz_risk":1,"updated_at":"2026-06-16T15:40:25.708620+05:30"},{"city":"Ayodhya","state":"Uttar Pradesh","latitude":26.7922,"longitude":82.1998,"temp":37.2,"humidity":40,"rain":0.0,"pressure":989.9,"uv_index":8.45,"wind_gusts":25.9,"aqi":159,"pm10":200.7,"pm2_5":60.8,"no2":2.1,"co":219.0,"o3":142.0,"so2":8.2,"mosquito_risk":0,"arthritis_risk":5,"migraine_risk":10,"frizz_risk":1,"updated_at":"2026-06-16T15:40:25.708627+05:30"},{"city":"Ratlam","state":"Madhya Pradesh","latitude":23.3315,"longitude":75.0367,"temp":35.7,"humidity":35,"rain":0.0,"pressure":952.4,"uv_index":8.5,"wind_gusts":39.2,"aqi":76,"pm10":48.3,"pm2_5":21.9,"no2":0.5,"co":115.0,"o3":95.0,"so2":3.2,"mosquito_risk":0,"arthritis_risk":5,"migraine_risk":10,"frizz_risk":1,"updated_at":"2026-06-16T15:40:25.708634+05:30"},{"city":"Sagar","state":"Madhya Pradesh","latitude":23.8388,"longitude":78.7378,"temp":35.5,"humidity":34,"rain":0.0,"pressure":947.2,"uv_index":8.15,"wind_gusts":36.7,"aqi":81,"pm10":78.0,"pm2_5":30.3,"no2":0.6,"co":151.0,"o3":112.0,"so2":2.2,"mosquito_risk":0,"arthritis_risk":5,"migraine_risk":10,"frizz_risk":1,"updated_at":"2026-06-16T15:40:25.708641+05:30"},{"city":"Satna","state":"Madhya Pradesh","latitude":24.6005,"longitude":80.8322,"temp":38.2,"humidity":30,"rain":0.0,"pressure":967.4,"uv_index":8.8,"wind_gusts":34.6,"aqi":89,"pm10":194.2,"pm2_5":46.7,"no2":0.4,"co":134.0,"o3":121.0,"so2":3.0,"mosquito_risk":0,"arthritis_risk":5,"migraine_risk":10,"frizz_risk":1,"updated_at":"2026-06-16T15:40:25.708647+05:30"},{"city":"Akola","state":"Maharashtra","latitude":20.7002,"longitude":77.0082,"temp":39.0,"humidity":27,"rain":0.0,"pressure":971.6,"uv_index":8.8,"wind_gusts":47.9,"aqi":77,"pm10":66.8,"pm2_5":26.4,"no2":1.2,"co":122.0,"o3":106.0,"so2":5.0,"mosquito_risk":0,"arthritis_risk":5,"migraine_risk":10,"frizz_risk":1,"updated_at":"2026-06-16T15:40:25.708655+05:30"},{"city":"Amravati","state":"Maharashtra","latitude":20.9374,"longitude":77.7796,"temp":33.1,"humidity":47,"rain":0.1,"pressure":964.5,"uv_index":8.85,"wind_gusts":40.7,"aqi":92,"pm10":68.2,"pm2_5":27.8,"no2":1.6,"co":132.0,"o3":108.0,"so2":5.6,"mosquito_risk":3,"arthritis_risk":5,"migraine_risk":7,"frizz_risk":1,"updated_at":"2026-06-16T15:40:25.708663+05:30"},{"city":"Latur","state":"Maharashtra","latitude":18.4088,"longitude":76.5604,"temp":35.9,"humidity":22,"rain":0.0,"pressure":937.9,"uv_index":8.9,"wind_gusts":36.4,"aqi":64,"pm10":54.7,"pm2_5":21.3,"no2":0.4,"co":122.0,"o3":106.0,"so2":2.4,"mosquito_risk":0,"arthritis_risk":5,"migraine_risk":10,"frizz_risk":0,"updated_at":"2026-06-16T15:40:25.708671+05:30"},{"city":"Nanded","state":"Maharashtra","latitude":19.1383,"longitude":77.3091,"temp":37.9,"humidity":27,"rain":0.0,"pressure":965.5,"uv_index":8.85,"wind_gusts":36.0,"aqi":71,"pm10":60.5,"pm2_5":23.7,"no2":0.6,"co":131.0,"o3":107.0,"so2":2.4,"mosquito_risk":0,"arthritis_risk":5,"migraine_risk":10,"frizz_risk":0,"updated_at":"2026-06-16T15:40:25.708678+05:30"},{"city":"Gulbarga","state":"Karnataka","latitude":17.3297,"longitude":76.8343,"temp":36.8,"humidity":24,"rain":0.0,"pressure":955.8,"uv_index":8.9,"wind_gusts":40.3,"aqi":70,"pm10":50.6,"pm2_5":20.3,"no2":0.7,"co":135.0,"o3":116.0,"so2":2.6,"mosquito_risk":0,"arthritis_risk":5,"migraine_risk":10,"frizz_risk":0,"updated_at":"2026-06-16T15:40:25.708685+05:30"},{"city":"Bidar","state":"Karnataka","latitude":17.9104,"longitude":77.5199,"temp":34.9,"humidity":30,"rain":0.0,"pressure":933.4,"uv_index":8.95,"wind_gusts":35.6,"aqi":86,"pm10":51.1,"pm2_5":22.2,"no2":0.7,"co":130.0,"o3":113.0,"so2":3.2,"mosquito_risk":0,"arthritis_risk":5,"migraine_risk":7,"frizz_risk":0,"updated_at":"2026-06-16T15:40:25.708693+05:30"},{"city":"Hospet","state":"Karnataka","latitude":15.2689,"longitude":76.3909,"temp":34.5,"humidity":32,"rain":0.0,"pressure":953.6,"uv_index":8.85,"wind_gusts":38.9,"aqi":58,"pm10":40.6,"pm2_5":18.8,"no2":1.4,"co":167.0,"o3":114.0,"so2":3.1,"mosquito_risk":0,"arthritis_risk":5,"migraine_risk":7,"frizz_risk":0,"updated_at":"2026-06-16T15:40:25.708700+05:30"},{"city":"Tirupur","state":"Tamil Nadu","latitude":11.1085,"longitude":77.3411,"temp":37.8,"humidity":29,"rain":0.0,"pressure":972.0,"uv_index":8.15,"wind_gusts":43.9,"aqi":72,"pm10":35.7,"pm2_5":17.8,"no2":2.9,"co":175.0,"o3":118.0,"so2":3.0,"mosquito_risk":0,"arthritis_risk":5,"migraine_risk":10,"frizz_risk":1,"updated_at":"2026-06-16T15:40:25.708707+05:30"},{"city":"Alappuzha","state":"Kerala","latitude":9.4981,"longitude":76.3388,"temp":29.3,"humidity":77,"rain":0.0,"pressure":1006.9,"uv_index":7.75,"wind_gusts":33.5,"aqi":59,"pm10":23.9,"pm2_5":13.1,"no2":2.8,"co":99.0,"o3":81.0,"so2":2.5,"mosquito_risk":7,"arthritis_risk":5,"migraine_risk":4,"frizz_risk":1,"updated_at":"2026-06-16T15:40:25.708714+05:30"},{"city":"Munnar","state":"Kerala","latitude":10.0889,"longitude":77.0595,"temp":21.4,"humidity":81,"rain":0.1,"pressure":856.4,"uv_index":9.05,"wind_gusts":30.6,"aqi":48,"pm10":24.0,"pm2_5":11.6,"no2":1.8,"co":122.0,"o3":83.0,"so2":1.4,"mosquito_risk":6,"arthritis_risk":5,"migraine_risk":7,"frizz_risk":1,"updated_at":"2026-06-16T15:40:25.708721+05:30"},{"city":"Silchar","state":"Assam","latitude":24.8333,"longitude":92.7789,"temp":32.4,"humidity":69,"rain":0.1,"pressure":998.8,"uv_index":8.95,"wind_gusts":22.0,"aqi":113,"pm10":21.6,"pm2_5":17.5,"no2":2.3,"co":212.0,"o3":126.0,"so2":4.2,"mosquito_risk":6,"arthritis_risk":5,"migraine_risk":7,"frizz_risk":1,"updated_at":"2026-06-16T15:40:25.708728+05:30"},{"city":"Dibrugarh","state":"Assam","latitude":27.4728,"longitude":94.912,"temp":30.2,"humidity":81,"rain":0.1,"pressure":988.8,"uv_index":7.75,"wind_gusts":28.1,"aqi":88,"pm10":18.2,"pm2_5":15.9,"no2":2.3,"co":300.0,"o3":124.0,"so2":1.6,"mosquito_risk":6,"arthritis_risk":5,"migraine_risk":7,"frizz_risk":1,"updated_at":"2026-06-16T15:40:25.708735+05:30"}]