[{"city":"Delhi","state":"Delhi","latitude":28.6139,"longitude":77.209,"temp":31.8,"humidity":64,"rain":0.0,"pressure":974.8,"uv_index":7.7,"wind_gusts":29.5,"aqi":720,"pm10":564.4,"pm2_5":125.7,"no2":18.1,"co":602.0,"o3":68.0,"so2":13.6,"mosquito_risk":3,"arthritis_risk":5,"migraine_risk":7,"frizz_risk":1,"updated_at":"2026-07-13T09:15:45.440941+05:30"},{"city":"Mumbai","state":"Maharashtra","latitude":19.076,"longitude":72.8777,"temp":28.8,"humidity":77,"rain":0.1,"pressure":1007.5,"uv_index":7.55,"wind_gusts":51.5,"aqi":52,"pm10":25.0,"pm2_5":13.1,"no2":6.6,"co":169.0,"o3":49.0,"so2":7.1,"mosquito_risk":10,"arthritis_risk":5,"migraine_risk":4,"frizz_risk":1,"updated_at":"2026-07-13T09:15:45.440979+05:30"},{"city":"Bangalore","state":"Karnataka","latitude":12.9716,"longitude":77.5946,"temp":25.0,"humidity":63,"rain":0.0,"pressure":912.5,"uv_index":9.0,"wind_gusts":47.9,"aqi":50,"pm10":15.3,"pm2_5":7.2,"no2":6.7,"co":296.0,"o3":39.0,"so2":3.6,"mosquito_risk":7,"arthritis_risk":5,"migraine_risk":7,"frizz_risk":1,"updated_at":"2026-07-13T09:15:45.440994+05:30"},{"city":"Hyderabad","state":"Telangana","latitude":17.385,"longitude":78.4867,"temp":28.2,"humidity":59,"rain":0.0,"pressure":951.9,"uv_index":8.9,"wind_gusts":47.2,"aqi":60,"pm10":24.6,"pm2_5":11.7,"no2":4.8,"co":224.0,"o3":43.0,"so2":4.5,"mosquito_risk":4,"arthritis_risk":5,"migraine_risk":7,"frizz_risk":1,"updated_at":"2026-07-13T09:15:45.441003+05:30"},{"city":"Chennai","state":"Tamil Nadu","latitude":13.0827,"longitude":80.2707,"temp":33.5,"humidity":45,"rain":0.0,"pressure":1005.3,"uv_index":8.35,"wind_gusts":42.1,"aqi":67,"pm10":30.3,"pm2_5":16.6,"no2":9.3,"co":188.0,"o3":50.0,"so2":9.1,"mosquito_risk":0,"arthritis_risk":5,"migraine_risk":4,"frizz_risk":1,"updated_at":"2026-07-13T09:15:45.441011+05:30"},{"city":"Kolkata","state":"West Bengal","latitude":22.5726,"longitude":88.3639,"temp":29.8,"humidity":83,"rain":0.0,"pressure":999.0,"uv_index":7.05,"wind_gusts":23.8,"aqi":146,"pm10":72.2,"pm2_5":56.2,"no2":15.2,"co":579.0,"o3":81.0,"so2":17.7,"mosquito_risk":7,"arthritis_risk":5,"migraine_risk":7,"frizz_risk":1,"updated_at":"2026-07-13T09:15:45.441019+05:30"},{"city":"Pune","state":"Maharashtra","latitude":18.5204,"longitude":73.8567,"temp":26.1,"humidity":73,"rain":0.0,"pressure":947.0,"uv_index":8.35,"wind_gusts":50.0,"aqi":34,"pm10":9.1,"pm2_5":6.0,"no2":4.7,"co":158.0,"o3":45.0,"so2":5.1,"mosquito_risk":7,"arthritis_risk":5,"migraine_risk":7,"frizz_risk":1,"updated_at":"2026-07-13T09:15:45.441025+05:30"},{"city":"Ahmedabad","state":"Gujarat","latitude":23.0225,"longitude":72.5714,"temp":30.3,"humidity":65,"rain":0.0,"pressure":997.4,"uv_index":8.15,"wind_gusts":50.4,"aqi":65,"pm10":27.0,"pm2_5":13.0,"no2":5.0,"co":139.0,"o3":44.0,"so2":4.8,"mosquito_risk":3,"arthritis_risk":5,"migraine_risk":7,"frizz_risk":1,"updated_at":"2026-07-13T09:15:45.441031+05:30"},{"city":"Jaipur","state":"Rajasthan","latitude":26.9124,"longitude":75.7873,"temp":30.2,"humidity":64,"rain":0.0,"pressure":953.4,"uv_index":8.2,"wind_gusts":36.4,"aqi":357,"pm10":516.0,"pm2_5":82.0,"no2":3.7,"co":148.0,"o3":58.0,"so2":4.7,"mosquito_risk":3,"arthritis_risk":5,"migraine_risk":7,"frizz_risk":1,"updated_at":"2026-07-13T09:15:45.441039+05:30"},{"city":"Lucknow","state":"Uttar Pradesh","latitude":26.8467,"longitude":80.9462,"temp":32.6,"humidity":66,"rain":0.0,"pressure":985.0,"uv_index":8.2,"wind_gusts":37.1,"aqi":118,"pm10":91.3,"pm2_5":44.5,"no2":8.5,"co":232.0,"o3":80.0,"so2":9.1,"mosquito_risk":3,"arthritis_risk":5,"migraine_risk":7,"frizz_risk":1,"updated_at":"2026-07-13T09:15:45.441050+05:30"},{"city":"Kanpur","state":"Uttar Pradesh","latitude":26.4499,"longitude":80.3319,"temp":32.7,"humidity":63,"rain":0.0,"pressure":983.9,"uv_index":8.2,"wind_gusts":40.0,"aqi":110,"pm10":103.4,"pm2_5":42.1,"no2":6.5,"co":170.0,"o3":80.0,"so2":9.1,"mosquito_risk":3,"arthritis_risk":5,"migraine_risk":7,"frizz_risk":1,"updated_at":"2026-07-13T09:15:45.441056+05:30"},{"city":"Chandigarh","state":"Chandigarh","latitude":30.7333,"longitude":76.7794,"temp":30.7,"humidity":65,"rain":0.0,"pressure":960.0,"uv_index":7.7,"wind_gusts":28.1,"aqi":158,"pm10":125.7,"pm2_5":66.8,"no2":14.4,"co":642.0,"o3":127.0,"so2":14.1,"mosquito_risk":3,"arthritis_risk":5,"migraine_risk":7,"frizz_risk":1,"updated_at":"2026-07-13T09:15:45.441065+05:30"},{"city":"Srinagar","state":"Jammu and Kashmir","latitude":34.0837,"longitude":74.7973,"temp":19.9,"humidity":73,"rain":0.0,"pressure":838.3,"uv_index":9.0,"wind_gusts":25.9,"aqi":70,"pm10":33.8,"pm2_5":28.6,"no2":6.8,"co":406.0,"o3":105.0,"so2":4.4,"mosquito_risk":3,"arthritis_risk":5,"migraine_risk":7,"frizz_risk":0,"updated_at":"2026-07-13T09:15:45.441072+05:30"},{"city":"Jammu","state":"Jammu and Kashmir","latitude":32.7266,"longitude":74.857,"temp":30.0,"humidity":65,"rain":0.0,"pressure":963.9,"uv_index":8.55,"wind_gusts":23.4,"aqi":140,"pm10":67.5,"pm2_5":48.3,"no2":22.3,"co":432.0,"o3":99.0,"so2":5.0,"mosquito_risk":7,"arthritis_risk":5,"migraine_risk":7,"frizz_risk":1,"updated_at":"2026-07-13T09:15:45.441079+05:30"},{"city":"Amritsar","state":"Punjab","latitude":31.634,"longitude":74.8723,"temp":29.4,"humidity":72,"rain":0.0,"pressure":971.8,"uv_index":8.4,"wind_gusts":19.8,"aqi":171,"pm10":150.4,"pm2_5":95.7,"no2":29.1,"co":317.0,"o3":51.0,"so2":7.6,"mosquito_risk":7,"arthritis_risk":5,"migraine_risk":7,"frizz_risk":1,"updated_at":"2026-07-13T09:15:45.441084+05:30"},{"city":"Ludhiana","state":"Punjab","latitude":30.901,"longitude":75.8573,"temp":29.8,"humidity":71,"rain":0.0,"pressure":969.9,"uv_index":7.9,"wind_gusts":24.5,"aqi":169,"pm10":131.8,"pm2_5":73.1,"no2":15.6,"co":536.0,"o3":88.0,"so2":6.9,"mosquito_risk":7,"arthritis_risk":5,"migraine_risk":7,"frizz_risk":1,"updated_at":"2026-07-13T09:15:45.441090+05:30"},{"city":"Jalandhar","state":"Punjab","latitude":31.326,"longitude":75.5762,"temp":28.3,"humidity":79,"rain":0.0,"pressure":970.9,"uv_index":8.15,"wind_gusts":19.8,"aqi":163,"pm10":120.6,"pm2_5":75.9,"no2":22.4,"co":398.0,"o3":65.0,"so2":5.2,"mosquito_risk":7,"arthritis_risk":5,"migraine_risk":7,"frizz_risk":1,"updated_at":"2026-07-13T09:15:45.441096+05:30"},{"city":"Dehradun","state":"Uttarakhand","latitude":30.6284,"longitude":78.0322,"temp":23.5,"humidity":71,"rain":0.0,"pressure":826.4,"uv_index":8.15,"wind_gusts":31.0,"aqi":86,"pm10":31.8,"pm2_5":18.5,"no2":2.7,"co":229.0,"o3":116.0,"so2":0.6,"mosquito_risk":3,"arthritis_risk":5,"migraine_risk":7,"frizz_risk":1,"updated_at":"2026-07-13T09:15:45.441102+05:30"},{"city":"Shimla","state":"Himachal Pradesh","latitude":31.1048,"longitude":77.1734,"temp":21.2,"humidity":60,"rain":0.0,"pressure":781.9,"uv_index":8.25,"wind_gusts":37.8,"aqi":92,"pm10":79.6,"pm2_5":28.5,"no2":2.3,"co":184.0,"o3":113.0,"so2":2.9,"mosquito_risk":0,"arthritis_risk":5,"migraine_risk":7,"frizz_risk":0,"updated_at":"2026-07-13T09:15:45.441108+05:30"},{"city":"Manali","state":"Himachal Pradesh","latitude":32.2396,"longitude":77.1887,"temp":24.0,"humidity":48,"rain":0.0,"pressure":815.7,"uv_index":9.4,"wind_gusts":36.4,"aqi":46,"pm10":2.9,"pm2_5":1.8,"no2":8.0,"co":175.0,"o3":91.0,"so2":0.1,"mosquito_risk":0,"arthritis_risk":5,"migraine_risk":7,"frizz_risk":0,"updated_at":"2026-07-13T09:15:45.441116+05:30"},{"city":"Gurgaon","state":"Haryana","latitude":28.4595,"longitude":77.0266,"temp":32.1,"humidity":60,"rain":0.0,"pressure":973.3,"uv_index":7.7,"wind_gusts":33.5,"aqi":707,"pm10":644.5,"pm2_5":134.6,"no2":16.2,"co":306.0,"o3":62.0,"so2":10.8,"mosquito_risk":0,"arthritis_risk":5,"migraine_risk":7,"frizz_risk":1,"updated_at":"2026-07-13T09:15:45.441123+05:30"},{"city":"Noida","state":"Uttar Pradesh","latitude":28.5355,"longitude":77.391,"temp":32.3,"humidity":63,"rain":0.0,"pressure":976.2,"uv_index":7.7,"wind_gusts":28.4,"aqi":707,"pm10":644.5,"pm2_5":134.6,"no2":16.2,"co":458.0,"o3":62.0,"so2":10.8,"mosquito_risk":3,"arthritis_risk":5,"migraine_risk":7,"frizz_risk":1,"updated_at":"2026-07-13T09:15:45.441129+05:30"},{"city":"Ghaziabad","state":"Uttar Pradesh","latitude":28.6692,"longitude":77.4538,"temp":32.0,"humidity":65,"rain":0.0,"pressure":974.3,"uv_index":7.7,"wind_gusts":23.4,"aqi":590,"pm10":448.0,"pm2_5":121.1,"no2":17.2,"co":462.0,"o3":87.0,"so2":16.9,"mosquito_risk":3,"arthritis_risk":5,"migraine_risk":7,"frizz_risk":1,"updated_at":"2026-07-13T09:15:45.441137+05:30"},{"city":"Faridabad","state":"Haryana","latitude":28.4089,"longitude":77.3178,"temp":32.2,"humidity":62,"rain":0.0,"pressure":975.5,"uv_index":7.75,"wind_gusts":32.0,"aqi":707,"pm10":644.5,"pm2_5":134.6,"no2":16.2,"co":358.0,"o3":62.0,"so2":10.8,"mosquito_risk":3,"arthritis_risk":5,"migraine_risk":7,"frizz_risk":1,"updated_at":"2026-07-13T09:15:45.441143+05:30"},{"city":"Meerut","state":"Uttar Pradesh","latitude":28.9845,"longitude":77.7064,"temp":31.4,"humidity":69,"rain":0.0,"pressure":973.0,"uv_index":7.65,"wind_gusts":31.0,"aqi":590,"pm10":448.0,"pm2_5":121.1,"no2":17.2,"co":412.0,"o3":87.0,"so2":16.9,"mosquito_risk":3,"arthritis_risk":5,"migraine_risk":7,"frizz_risk":1,"updated_at":"2026-07-13T09:15:45.441149+05:30"},{"city":"Agra","state":"Uttar Pradesh","latitude":27.1767,"longitude":78.0081,"temp":32.2,"humidity":63,"rain":0.0,"pressure":980.1,"uv_index":7.55,"wind_gusts":36.4,"aqi":136,"pm10":196.0,"pm2_5":55.4,"no2":8.1,"co":194.0,"o3":76.0,"so2":7.1,"mosquito_risk":3,"arthritis_risk":5,"migraine_risk":7,"frizz_risk":1,"updated_at":"2026-07-13T09:15:45.441155+05:30"},{"city":"Varanasi","state":"Uttar Pradesh","latitude":25.3176,"longitude":82.9739,"temp":31.8,"humidity":67,"rain":0.0,"pressure":989.7,"uv_index":8.55,"wind_gusts":35.6,"aqi":102,"pm10":55.5,"pm2_5":35.9,"no2":8.9,"co":304.0,"o3":67.0,"so2":9.6,"mosquito_risk":3,"arthritis_risk":5,"migraine_risk":7,"frizz_risk":1,"updated_at":"2026-07-13T09:15:45.441161+05:30"},{"city":"Prayagraj","state":"Uttar Pradesh","latitude":25.4358,"longitude":81.8463,"temp":32.2,"humidity":63,"rain":0.0,"pressure":988.3,"uv_index":8.6,"wind_gusts":40.3,"aqi":98,"pm10":53.2,"pm2_5":34.5,"no2":7.5,"co":205.0,"o3":70.0,"so2":9.3,"mosquito_risk":3,"arthritis_risk":5,"migraine_risk":7,"frizz_risk":1,"updated_at":"2026-07-13T09:15:45.441167+05:30"},{"city":"Gorakhpur","state":"Uttar Pradesh","latitude":26.7606,"longitude":83.3732,"temp":31.7,"humidity":69,"rain":0.0,"pressure":988.3,"uv_index":6.7,"wind_gusts":32.8,"aqi":132,"pm10":84.1,"pm2_5":50.2,"no2":14.1,"co":323.0,"o3":82.0,"so2":11.6,"mosquito_risk":3,"arthritis_risk":5,"migraine_risk":7,"frizz_risk":1,"updated_at":"2026-07-13T09:15:45.441174+05:30"},{"city":"Bareilly","state":"Uttar Pradesh","latitude":28.367,"longitude":79.4304,"temp":32.1,"humidity":67,"rain":0.0,"pressure":978.1,"uv_index":8.0,"wind_gusts":33.5,"aqi":175,"pm10":376.3,"pm2_5":121.5,"no2":13.4,"co":354.0,"o3":88.0,"so2":13.2,"mosquito_risk":3,"arthritis_risk":5,"migraine_risk":7,"frizz_risk":1,"updated_at":"2026-07-13T09:15:45.441185+05:30"},{"city":"Aligarh","state":"Uttar Pradesh","latitude":27.8974,"longitude":78.088,"temp":32.2,"humidity":62,"rain":0.0,"pressure":977.5,"uv_index":7.85,"wind_gusts":34.9,"aqi":580,"pm10":521.5,"pm2_5":126.2,"no2":10.3,"co":240.0,"o3":66.0,"so2":6.5,"mosquito_risk":3,"arthritis_risk":5,"migraine_risk":7,"frizz_risk":1,"updated_at":"2026-07-13T09:15:45.441191+05:30"},{"city":"Moradabad","state":"Uttar Pradesh","latitude":28.8386,"longitude":78.7733,"temp":31.8,"humidity":70,"rain":0.0,"pressure":975.0,"uv_index":7.85,"wind_gusts":32.4,"aqi":359,"pm10":495.5,"pm2_5":168.6,"no2":15.9,"co":308.0,"o3":104.0,"so2":19.3,"mosquito_risk":3,"arthritis_risk":5,"migraine_risk":7,"frizz_risk":1,"updated_at":"2026-07-13T09:15:45.441197+05:30"},{"city":"Saharanpur","state":"Uttar Pradesh","latitude":29.9637,"longitude":77.546,"temp":30.9,"humidity":76,"rain":0.0,"pressure":966.9,"uv_index":7.35,"wind_gusts":30.2,"aqi":182,"pm10":222.6,"pm2_5":109.4,"no2":11.9,"co":353.0,"o3":126.0,"so2":19.1,"mosquito_risk":3,"arthritis_risk":5,"migraine_risk":7,"frizz_risk":1,"updated_at":"2026-07-13T09:15:45.441203+05:30"},{"city":"Jhansi","state":"Uttar Pradesh","latitude":25.4484,"longitude":78.5685,"temp":31.2,"humidity":68,"rain":0.0,"pressure":971.8,"uv_index":8.4,"wind_gusts":43.6,"aqi":92,"pm10":38.4,"pm2_5":22.4,"no2":5.0,"co":136.0,"o3":55.0,"so2":10.7,"mosquito_risk":3,"arthritis_risk":5,"migraine_risk":7,"frizz_risk":1,"updated_at":"2026-07-13T09:15:48.798244+05:30"},{"city":"Surat","state":"Gujarat","latitude":21.1702,"longitude":72.8311,"temp":29.5,"humidity":74,"rain":0.0,"pressure":1003.8,"uv_index":6.8,"wind_gusts":63.7,"aqi":57,"pm10":29.3,"pm2_5":17.3,"no2":11.4,"co":238.0,"o3":39.0,"so2":26.9,"mosquito_risk":7,"arthritis_risk":5,"migraine_risk":4,"frizz_risk":1,"updated_at":"2026-07-13T09:15:48.798274+05:30"},{"city":"Vadodara","state":"Gujarat","latitude":22.3072,"longitude":73.1812,"temp":29.9,"humidity":70,"rain":0.0,"pressure":1000.5,"uv_index":7.95,"wind_gusts":57.6,"aqi":57,"pm10":22.5,"pm2_5":11.7,"no2":5.0,"co":144.0,"o3":44.0,"so2":5.4,"mosquito_risk":7,"arthritis_risk":5,"migraine_risk":4,"frizz_risk":1,"updated_at":"2026-07-13T09:15:48.798332+05:30"},{"city":"Rajkot","state":"Gujarat","latitude":22.3039,"longitude":70.8022,"temp":29.9,"humidity":67,"rain":0.0,"pressure":989.3,"uv_index":7.65,"wind_gusts":57.2,"aqi":56,"pm10":26.5,"pm2_5":12.5,"no2":2.3,"co":104.0,"o3":49.0,"so2":2.5,"mosquito_risk":7,"arthritis_risk":5,"migraine_risk":7,"frizz_risk":1,"updated_at":"2026-07-13T09:15:48.798354+05:30"},{"city":"Thane","state":"Maharashtra","latitude":19.2183,"longitude":72.9781,"temp":29.3,"humidity":74,"rain":0.0,"pressure":1006.6,"uv_index":7.8,"wind_gusts":45.0,"aqi":52,"pm10":25.0,"pm2_5":13.1,"no2":6.6,"co":189.0,"o3":49.0,"so2":7.1,"mosquito_risk":7,"arthritis_risk":5,"migraine_risk":4,"frizz_risk":1,"updated_at":"2026-07-13T09:15:48.798366+05:30"},{"city":"Nagpur","state":"Maharashtra","latitude":21.1458,"longitude":79.0882,"temp":29.3,"humidity":65,"rain":0.0,"pressure":969.9,"uv_index":7.5,"wind_gusts":40.3,"aqi":82,"pm10":34.8,"pm2_5":15.5,"no2":8.7,"co":152.0,"o3":40.0,"so2":14.8,"mosquito_risk":7,"arthritis_risk":5,"migraine_risk":7,"frizz_risk":1,"updated_at":"2026-07-13T09:15:48.798375+05:30"},{"city":"Nashik","state":"Maharashtra","latitude":19.9975,"longitude":73.7898,"temp":26.0,"humidity":76,"rain":0.0,"pressure":943.6,"uv_index":8.1,"wind_gusts":58.3,"aqi":35,"pm10":8.6,"pm2_5":5.9,"no2":5.8,"co":122.0,"o3":40.0,"so2":6.1,"mosquito_risk":7,"arthritis_risk":5,"migraine_risk":7,"frizz_risk":1,"updated_at":"2026-07-13T09:15:48.798383+05:30"},{"city":"Aurangabad","state":"Maharashtra","latitude":19.8762,"longitude":75.3433,"temp":26.6,"humidity":70,"rain":0.0,"pressure":942.1,"uv_index":8.9,"wind_gusts":51.1,"aqi":53,"pm10":13.6,"pm2_5":7.8,"no2":4.0,"co":132.0,"o3":46.0,"so2":7.8,"mosquito_risk":7,"arthritis_risk":5,"migraine_risk":7,"frizz_risk":1,"updated_at":"2026-07-13T09:15:48.798391+05:30"},{"city":"Solapur","state":"Maharashtra","latitude":17.6599,"longitude":75.9064,"temp":27.8,"humidity":64,"rain":0.0,"pressure":956.6,"uv_index":8.9,"wind_gusts":46.4,"aqi":50,"pm10":18.6,"pm2_5":8.4,"no2":2.2,"co":109.0,"o3":49.0,"so2":2.2,"mosquito_risk":7,"arthritis_risk":5,"migraine_risk":7,"frizz_risk":1,"updated_at":"2026-07-13T09:15:48.798400+05:30"},{"city":"Kolhapur","state":"Maharashtra","latitude":16.705,"longitude":74.2433,"temp":25.1,"humidity":78,"rain":0.0,"pressure":948.0,"uv_index":8.9,"wind_gusts":50.8,"aqi":34,"pm10":7.6,"pm2_5":5.3,"no2":3.6,"co":136.0,"o3":43.0,"so2":2.4,"mosquito_risk":7,"arthritis_risk":5,"migraine_risk":7,"frizz_risk":1,"updated_at":"2026-07-13T09:15:48.798408+05:30"},{"city":"Goa","state":"Goa","latitude":15.2993,"longitude":74.124,"temp":28.2,"humidity":82,"rain":0.0,"pressure":999.1,"uv_index":7.45,"wind_gusts":40.0,"aqi":51,"pm10":22.6,"pm2_5":12.8,"no2":1.9,"co":149.0,"o3":47.0,"so2":1.3,"mosquito_risk":7,"arthritis_risk":5,"migraine_risk":7,"frizz_risk":1,"updated_at":"2026-07-13T09:15:48.798416+05:30"},{"city":"Jodhpur","state":"Rajasthan","latitude":26.2389,"longitude":73.0243,"temp":30.1,"humidity":61,"rain":0.0,"pressure":976.1,"uv_index":8.3,"wind_gusts":49.0,"aqi":151,"pm10":230.5,"pm2_5":51.9,"no2":2.5,"co":105.0,"o3":53.0,"so2":2.8,"mosquito_risk":3,"arthritis_risk":5,"migraine_risk":7,"frizz_risk":1,"updated_at":"2026-07-13T09:15:48.798424+05:30"},{"city":"Udaipur","state":"Rajasthan","latitude":24.5854,"longitude":73.7125,"temp":26.7,"humidity":71,"rain":0.0,"pressure":941.0,"uv_index":8.45,"wind_gusts":50.4,"aqi":74,"pm10":22.2,"pm2_5":11.0,"no2":3.6,"co":108.0,"o3":42.0,"so2":4.1,"mosquito_risk":7,"arthritis_risk":5,"migraine_risk":7,"frizz_risk":1,"updated_at":"2026-07-13T09:15:48.798431+05:30"},{"city":"Kota","state":"Rajasthan","latitude":25.2138,"longitude":75.8648,"temp":30.5,"humidity":63,"rain":0.0,"pressure":972.9,"uv_index":8.3,"wind_gusts":40.7,"aqi":85,"pm10":46.6,"pm2_5":20.1,"no2":4.6,"co":132.0,"o3":48.0,"so2":7.9,"mosquito_risk":3,"arthritis_risk":5,"migraine_risk":7,"frizz_risk":1,"updated_at":"2026-07-13T09:15:48.798439+05:30"},{"city":"Bikaner","state":"Rajasthan","latitude":28.0229,"longitude":73.3119,"temp":32.3,"humidity":57,"rain":0.0,"pressure":973.8,"uv_index":8.2,"wind_gusts":35.3,"aqi":159,"pm10":251.5,"pm2_5":73.8,"no2":1.6,"co":111.0,"o3":55.0,"so2":5.1,"mosquito_risk":0,"arthritis_risk":5,"migraine_risk":7,"frizz_risk":1,"updated_at":"2026-07-13T09:15:48.798447+05:30"},{"city":"Ajmer","state":"Rajasthan","latitude":26.4499,"longitude":74.6399,"temp":27.4,"humidity":72,"rain":0.0,"pressure":948.5,"uv_index":8.35,"wind_gusts":46.4,"aqi":83,"pm10":93.6,"pm2_5":27.0,"no2":2.7,"co":112.0,"o3":55.0,"so2":3.6,"mosquito_risk":7,"arthritis_risk":5,"migraine_risk":7,"frizz_risk":1,"updated_at":"2026-07-13T09:15:48.798456+05:30"},{"city":"Gwalior","state":"Madhya Pradesh","latitude":26.2183,"longitude":78.1828,"temp":30.9,"humidity":72,"rain":0.0,"pressure":976.4,"uv_index":8.2,"wind_gusts":40.3,"aqi":90,"pm10":43.8,"pm2_5":28.5,"no2":4.3,"co":135.0,"o3":69.0,"so2":7.7,"mosquito_risk":3,"arthritis_risk":5,"migraine_risk":7,"frizz_risk":1,"updated_at":"2026-07-13T09:15:48.798463+05:30"},{"city":"Indore","state":"Madhya Pradesh","latitude":22.7196,"longitude":75.8577,"temp":26.7,"humidity":74,"rain":0.0,"pressure":944.4,"uv_index":8.55,"wind_gusts":57.2,"aqi":68,"pm10":19.4,"pm2_5":11.0,"no2":6.2,"co":199.0,"o3":39.0,"so2":8.3,"mosquito_risk":7,"arthritis_risk":5,"migraine_risk":7,"frizz_risk":1,"updated_at":"2026-07-13T09:15:48.798471+05:30"},{"city":"Bhopal","state":"Madhya Pradesh","latitude":23.2599,"longitude":77.4126,"temp":27.5,"humidity":72,"rain":0.0,"pressure":949.6,"uv_index":8.6,"wind_gusts":45.7,"aqi":77,"pm10":33.1,"pm2_5":13.4,"no2":4.1,"co":164.0,"o3":44.0,"so2":6.2,"mosquito_risk":7,"arthritis_risk":5,"migraine_risk":7,"frizz_risk":1,"updated_at":"2026-07-13T09:15:48.798479+05:30"},{"city":"Jabalpur","state":"Madhya Pradesh","latitude":23.1815,"longitude":79.9864,"temp":28.5,"humidity":74,"rain":0.0,"pressure":957.0,"uv_index":6.55,"wind_gusts":37.8,"aqi":83,"pm10":42.4,"pm2_5":23.3,"no2":4.0,"co":164.0,"o3":62.0,"so2":5.9,"mosquito_risk":7,"arthritis_risk":5,"migraine_risk":7,"frizz_risk":1,"updated_at":"2026-07-13T09:15:48.798486+05:30"},{"city":"Ujjain","state":"Madhya Pradesh","latitude":23.1765,"longitude":75.7885,"temp":27.2,"humidity":73,"rain":0.0,"pressure":949.8,"uv_index":8.45,"wind_gusts":53.6,"aqi":68,"pm10":18.5,"pm2_5":10.3,"no2":4.8,"co":138.0,"o3":40.0,"so2":6.4,"mosquito_risk":7,"arthritis_risk":5,"migraine_risk":7,"frizz_risk":1,"updated_at":"2026-07-13T09:15:48.798495+05:30"},{"city":"Visakhapatnam","state":"Andhra Pradesh","latitude":17.6868,"longitude":83.2185,"temp":32.7,"humidity":60,"rain":0.0,"pressure":998.6,"uv_index":8.55,"wind_gusts":32.8,"aqi":96,"pm10":58.3,"pm2_5":38.2,"no2":24.8,"co":432.0,"o3":62.0,"so2":49.1,"mosquito_risk":0,"arthritis_risk":5,"migraine_risk":7,"frizz_risk":1,"updated_at":"2026-07-13T09:15:48.798503+05:30"},{"city":"Vijayawada","state":"Andhra Pradesh","latitude":16.5062,"longitude":80.648,"temp":33.0,"humidity":49,"rain":0.0,"pressure":999.4,"uv_index":8.35,"wind_gusts":48.2,"aqi":82,"pm10":35.0,"pm2_5":19.6,"no2":5.5,"co":136.0,"o3":53.0,"so2":6.0,"mosquito_risk":0,"arthritis_risk":5,"migraine_risk":7,"frizz_risk":1,"updated_at":"2026-07-13T09:15:48.798511+05:30"},{"city":"Guntur","state":"Andhra Pradesh","latitude":16.3067,"longitude":80.4365,"temp":33.4,"humidity":47,"rain":0.0,"pressure":1000.8,"uv_index":8.8,"wind_gusts":47.5,"aqi":79,"pm10":35.5,"pm2_5":18.0,"no2":4.4,"co":144.0,"o3":54.0,"so2":5.6,"mosquito_risk":0,"arthritis_risk":5,"migraine_risk":4,"frizz_risk":1,"updated_at":"2026-07-13T09:15:48.798519+05:30"},{"city":"Nellore","state":"Andhra Pradesh","latitude":14.4426,"longitude":79.9865,"temp":32.5,"humidity":51,"rain":0.0,"pressure":1003.8,"uv_index":8.7,"wind_gusts":47.9,"aqi":65,"pm10":24.0,"pm2_5":10.5,"no2":3.5,"co":109.0,"o3":48.0,"so2":5.8,"mosquito_risk":0,"arthritis_risk":5,"migraine_risk":4,"frizz_risk":1,"updated_at":"2026-07-13T09:15:48.798528+05:30"},{"city":"Kurnool","state":"Andhra Pradesh","latitude":15.8281,"longitude":78.0373,"temp":29.6,"humidity":56,"rain":0.0,"pressure":976.7,"uv_index":8.65,"wind_gusts":46.1,"aqi":57,"pm10":21.2,"pm2_5":9.3,"no2":3.4,"co":113.0,"o3":44.0,"so2":4.2,"mosquito_risk":4,"arthritis_risk":5,"migraine_risk":7,"frizz_risk":1,"updated_at":"2026-07-13T09:15:48.798537+05:30"},{"city":"Kakinada","state":"Andhra Pradesh","latitude":16.9891,"longitude":82.2475,"temp":32.5,"humidity":57,"rain":0.0,"pressure":1002.8,"uv_index":6.8,"wind_gusts":40.3,"aqi":82,"pm10":34.1,"pm2_5":21.8,"no2":4.8,"co":281.0,"o3":102.0,"so2":6.0,"mosquito_risk":0,"arthritis_risk":5,"migraine_risk":4,"frizz_risk":1,"updated_at":"2026-07-13T09:15:48.798544+05:30"},{"city":"Tirupati","state":"Andhra Pradesh","latitude":13.6288,"longitude":79.4192,"temp":31.8,"humidity":49,"rain":0.0,"pressure":989.7,"uv_index":8.4,"wind_gusts":40.0,"aqi":78,"pm10":19.2,"pm2_5":9.4,"no2":2.8,"co":110.0,"o3":51.0,"so2":1.6,"mosquito_risk":0,"arthritis_risk":5,"migraine_risk":7,"frizz_risk":1,"updated_at":"2026-07-13T09:15:48.798552+05:30"},{"city":"Warangal","state":"Telangana","latitude":17.9689,"longitude":79.5941,"temp":29.5,"humidity":60,"rain":0.0,"pressure":976.3,"uv_index":8.7,"wind_gusts":43.9,"aqi":79,"pm10":31.4,"pm2_5":15.3,"no2":3.4,"co":138.0,"o3":51.0,"so2":3.9,"mosquito_risk":4,"arthritis_risk":5,"migraine_risk":7,"frizz_risk":1,"updated_at":"2026-07-13T09:15:48.798560+05:30"},{"city":"Nizamabad","state":"Telangana","latitude":18.6725,"longitude":78.0941,"temp":28.2,"humidity":64,"rain":0.0,"pressure":963.0,"uv_index":8.9,"wind_gusts":46.1,"aqi":66,"pm10":26.8,"pm2_5":12.3,"no2":4.0,"co":137.0,"o3":43.0,"so2":5.8,"mosquito_risk":7,"arthritis_risk":5,"migraine_risk":7,"frizz_risk":1,"updated_at":"2026-07-13T09:15:48.798568+05:30"},{"city":"Mysore","state":"Karnataka","latitude":12.2958,"longitude":76.6396,"temp":25.3,"humidity":69,"rain":0.0,"pressure":929.7,"uv_index":8.65,"wind_gusts":45.4,"aqi":41,"pm10":11.7,"pm2_5":5.3,"no2":4.2,"co":127.0,"o3":42.0,"so2":2.3,"mosquito_risk":7,"arthritis_risk":5,"migraine_risk":7,"frizz_risk":1,"updated_at":"2026-07-13T09:15:48.798576+05:30"},{"city":"Mangalore","state":"Karnataka","latitude":12.9141,"longitude":74.856,"temp":28.6,"humidity":74,"rain":0.0,"pressure":1008.8,"uv_index":8.35,"wind_gusts":45.0,"aqi":47,"pm10":26.9,"pm2_5":13.6,"no2":3.6,"co":113.0,"o3":43.0,"so2":2.5,"mosquito_risk":7,"arthritis_risk":0,"migraine_risk":4,"frizz_risk":1,"updated_at":"2026-07-13T09:15:48.798584+05:30"},{"city":"Hubli-Dharwad","state":"Karnataka","latitude":15.3647,"longitude":75.124,"temp":25.9,"humidity":70,"rain":0.0,"pressure":941.5,"uv_index":8.95,"wind_gusts":51.5,"aqi":31,"pm10":10.2,"pm2_5":5.5,"no2":2.9,"co":109.0,"o3":44.0,"so2":1.4,"mosquito_risk":7,"arthritis_risk":5,"migraine_risk":7,"frizz_risk":1,"updated_at":"2026-07-13T09:15:48.798592+05:30"},{"city":"Belgaum","state":"Karnataka","latitude":15.8497,"longitude":74.4977,"temp":24.3,"humidity":76,"rain":0.0,"pressure":926.2,"uv_index":8.85,"wind_gusts":50.4,"aqi":28,"pm10":9.0,"pm2_5":5.6,"no2":3.2,"co":107.0,"o3":42.0,"so2":1.8,"mosquito_risk":3,"arthritis_risk":5,"migraine_risk":7,"frizz_risk":1,"updated_at":"2026-07-13T09:15:52.145071+05:30"},{"city":"Coimbatore","state":"Tamil Nadu","latitude":11.0168,"longitude":76.9558,"temp":27.8,"humidity":70,"rain":0.0,"pressure":962.4,"uv_index":8.2,"wind_gusts":54.4,"aqi":43,"pm10":24.0,"pm2_5":10.6,"no2":3.9,"co":175.0,"o3":50.0,"so2":3.2,"mosquito_risk":7,"arthritis_risk":5,"migraine_risk":7,"frizz_risk":1,"updated_at":"2026-07-13T09:15:52.145102+05:30"},{"city":"Madurai","state":"Tamil Nadu","latitude":9.9252,"longitude":78.1198,"temp":32.4,"humidity":48,"rain":0.0,"pressure":992.7,"uv_index":8.3,"wind_gusts":43.2,"aqi":56,"pm10":15.6,"pm2_5":8.4,"no2":7.2,"co":146.0,"o3":51.0,"so2":5.1,"mosquito_risk":0,"arthritis_risk":5,"migraine_risk":7,"frizz_risk":1,"updated_at":"2026-07-13T09:15:52.145113+05:30"},{"city":"Trichy","state":"Tamil Nadu","latitude":10.7905,"longitude":78.7047,"temp":32.4,"humidity":51,"rain":0.0,"pressure":999.2,"uv_index":8.05,"wind_gusts":49.0,"aqi":58,"pm10":18.4,"pm2_5":9.7,"no2":4.2,"co":125.0,"o3":46.0,"so2":3.8,"mosquito_risk":0,"arthritis_risk":5,"migraine_risk":7,"frizz_risk":1,"updated_at":"2026-07-13T09:15:52.145122+05:30"},{"city":"Salem","state":"Tamil Nadu","latitude":11.6643,"longitude":78.146,"temp":28.1,"humidity":67,"rain":0.0,"pressure":977.9,"uv_index":8.2,"wind_gusts":33.5,"aqi":64,"pm10":31.3,"pm2_5":17.5,"no2":9.4,"co":128.0,"o3":50.0,"so2":10.5,"mosquito_risk":7,"arthritis_risk":5,"migraine_risk":7,"frizz_risk":1,"updated_at":"2026-07-13T09:15:52.145131+05:30"},{"city":"Tirunelveli","state":"Tamil Nadu","latitude":8.7139,"longitude":77.7567,"temp":33.1,"humidity":47,"rain":0.0,"pressure":1003.2,"uv_index":8.45,"wind_gusts":50.4,"aqi":33,"pm10":12.1,"pm2_5":6.5,"no2":3.0,"co":124.0,"o3":47.0,"so2":1.8,"mosquito_risk":0,"arthritis_risk":5,"migraine_risk":4,"frizz_risk":1,"updated_at":"2026-07-13T09:15:52.145139+05:30"},{"city":"Vellore","state":"Tamil Nadu","latitude":12.9165,"longitude":79.1325,"temp":31.7,"humidity":48,"rain":0.0,"pressure":983.3,"uv_index":8.65,"wind_gusts":42.5,"aqi":68,"pm10":18.1,"pm2_5":10.2,"no2":4.2,"co":138.0,"o3":53.0,"so2":3.5,"mosquito_risk":0,"arthritis_risk":5,"migraine_risk":7,"frizz_risk":1,"updated_at":"2026-07-13T09:15:52.145146+05:30"},{"city":"Erode","state":"Tamil Nadu","latitude":11.341,"longitude":77.7172,"temp":31.1,"humidity":52,"rain":0.0,"pressure":989.6,"uv_index":7.95,"wind_gusts":50.4,"aqi":54,"pm10":22.9,"pm2_5":11.7,"no2":6.2,"co":170.0,"o3":44.0,"so2":3.5,"mosquito_risk":0,"arthritis_risk":5,"migraine_risk":7,"frizz_risk":1,"updated_at":"2026-07-13T09:15:52.145153+05:30"},{"city":"Kochi","state":"Kerala","latitude":9.9312,"longitude":76.2673,"temp":28.3,"humidity":77,"rain":0.0,"pressure":1010.8,"uv_index":8.3,"wind_gusts":48.6,"aqi":46,"pm10":19.8,"pm2_5":11.2,"no2":5.8,"co":139.0,"o3":43.0,"so2":4.0,"mosquito_risk":7,"arthritis_risk":0,"migraine_risk":4,"frizz_risk":1,"updated_at":"2026-07-13T09:15:52.145160+05:30"},{"city":"Thiruvananthapuram","state":"Kerala","latitude":8.5241,"longitude":76.9366,"temp":27.5,"humidity":82,"rain":0.0,"pressure":1009.9,"uv_index":8.4,"wind_gusts":53.3,"aqi":42,"pm10":16.4,"pm2_5":9.6,"no2":4.3,"co":151.0,"o3":43.0,"so2":2.6,"mosquito_risk":7,"arthritis_risk":0,"migraine_risk":4,"frizz_risk":1,"updated_at":"2026-07-13T09:15:52.145167+05:30"},{"city":"Kozhikode","state":"Kerala","latitude":11.2588,"longitude":75.7804,"temp":27.4,"humidity":85,"rain":0.0,"pressure":1010.1,"uv_index":8.55,"wind_gusts":48.6,"aqi":41,"pm10":24.1,"pm2_5":10.3,"no2":1.3,"co":138.0,"o3":47.0,"so2":1.3,"mosquito_risk":7,"arthritis_risk":0,"migraine_risk":4,"frizz_risk":1,"updated_at":"2026-07-13T09:15:52.145173+05:30"},{"city":"Thrissur","state":"Kerala","latitude":10.5276,"longitude":76.2144,"temp":27.9,"humidity":81,"rain":0.1,"pressure":1009.1,"uv_index":8.15,"wind_gusts":45.0,"aqi":46,"pm10":22.2,"pm2_5":13.0,"no2":4.7,"co":144.0,"o3":48.0,"so2":3.6,"mosquito_risk":10,"arthritis_risk":0,"migraine_risk":4,"frizz_risk":1,"updated_at":"2026-07-13T09:15:52.145182+05:30"},{"city":"Kannur","state":"Kerala","latitude":11.8745,"longitude":75.3704,"temp":26.5,"humidity":89,"rain":0.0,"pressure":1009.6,"uv_index":8.6,"wind_gusts":47.9,"aqi":43,"pm10":23.8,"pm2_5":12.0,"no2":3.7,"co":134.0,"o3":42.0,"so2":2.3,"mosquito_risk":7,"arthritis_risk":0,"migraine_risk":4,"frizz_risk":1,"updated_at":"2026-07-13T09:15:52.145189+05:30"},{"city":"Patna","state":"Bihar","latitude":25.5941,"longitude":85.1376,"temp":31.8,"humidity":70,"rain":0.0,"pressure":992.5,"uv_index":7.5,"wind_gusts":30.2,"aqi":153,"pm10":88.9,"pm2_5":61.5,"no2":13.6,"co":349.0,"o3":89.0,"so2":12.5,"mosquito_risk":3,"arthritis_risk":5,"migraine_risk":7,"frizz_risk":1,"updated_at":"2026-07-13T09:15:52.145196+05:30"},{"city":"Gaya","state":"Bihar","latitude":24.7914,"longitude":85.0002,"temp":32.2,"humidity":64,"rain":0.0,"pressure":986.6,"uv_index":6.25,"wind_gusts":35.6,"aqi":128,"pm10":65.2,"pm2_5":42.5,"no2":10.7,"co":263.0,"o3":72.0,"so2":17.6,"mosquito_risk":3,"arthritis_risk":5,"migraine_risk":7,"frizz_risk":1,"updated_at":"2026-07-13T09:15:52.145202+05:30"},{"city":"Muzaffarpur","state":"Bihar","latitude":26.1209,"longitude":85.3647,"temp":29.6,"humidity":85,"rain":0.0,"pressure":992.4,"uv_index":7.95,"wind_gusts":26.3,"aqi":152,"pm10":99.7,"pm2_5":65.2,"no2":13.1,"co":280.0,"o3":95.0,"so2":13.2,"mosquito_risk":7,"arthritis_risk":5,"migraine_risk":7,"frizz_risk":1,"updated_at":"2026-07-13T09:15:52.145209+05:30"},{"city":"Bhagalpur","state":"Bihar","latitude":25.2425,"longitude":87.0117,"temp":29.4,"humidity":87,"rain":0.2,"pressure":994.3,"uv_index":8.0,"wind_gusts":26.3,"aqi":135,"pm10":74.3,"pm2_5":45.5,"no2":13.7,"co":260.0,"o3":75.0,"so2":14.0,"mosquito_risk":10,"arthritis_risk":5,"migraine_risk":7,"frizz_risk":1,"updated_at":"2026-07-13T09:15:52.145215+05:30"},{"city":"Ranchi","state":"Jharkhand","latitude":23.3441,"longitude":85.3096,"temp":27.6,"humidity":71,"rain":0.0,"pressure":932.6,"uv_index":8.1,"wind_gusts":28.1,"aqi":106,"pm10":76.4,"pm2_5":39.2,"no2":6.4,"co":186.0,"o3":81.0,"so2":15.7,"mosquito_risk":7,"arthritis_risk":5,"migraine_risk":7,"frizz_risk":1,"updated_at":"2026-07-13T09:15:52.145222+05:30"},{"city":"Jamshedpur","state":"Jharkhand","latitude":22.8046,"longitude":86.2029,"temp":30.5,"humidity":73,"rain":0.0,"pressure":984.6,"uv_index":8.65,"wind_gusts":21.6,"aqi":120,"pm10":75.0,"pm2_5":46.8,"no2":11.9,"co":257.0,"o3":97.0,"so2":33.8,"mosquito_risk":3,"arthritis_risk":5,"migraine_risk":7,"frizz_risk":1,"updated_at":"2026-07-13T09:15:52.145229+05:30"},{"city":"Dhanbad","state":"Jharkhand","latitude":23.7957,"longitude":86.4304,"temp":30.4,"humidity":73,"rain":0.0,"pressure":973.5,"uv_index":3.9,"wind_gusts":19.8,"aqi":158,"pm10":93.6,"pm2_5":57.2,"no2":21.7,"co":231.0,"o3":69.0,"so2":62.6,"mosquito_risk":3,"arthritis_risk":5,"migraine_risk":3,"frizz_risk":1,"updated_at":"2026-07-13T09:15:52.145236+05:30"},{"city":"Bokaro","state":"Jharkhand","latitude":23.6693,"longitude":86.1511,"temp":30.9,"humidity":70,"rain":0.0,"pressure":977.3,"uv_index":4.6,"wind_gusts":22.0,"aqi":154,"pm10":88.0,"pm2_5":52.7,"no2":22.4,"co":230.0,"o3":57.0,"so2":72.4,"mosquito_risk":3,"arthritis_risk":5,"migraine_risk":3,"frizz_risk":1,"updated_at":"2026-07-13T09:15:52.145243+05:30"},{"city":"Bhubaneswar","state":"Odisha","latitude":20.2961,"longitude":85.8245,"temp":31.2,"humidity":68,"rain":0.0,"pressure":996.3,"uv_index":4.0,"wind_gusts":27.0,"aqi":100,"pm10":58.1,"pm2_5":36.3,"no2":8.6,"co":296.0,"o3":78.0,"so2":10.1,"mosquito_risk":3,"arthritis_risk":5,"migraine_risk":3,"frizz_risk":1,"updated_at":"2026-07-13T09:15:52.145250+05:30"},{"city":"Cuttack","state":"Odisha","latitude":20.4625,"longitude":85.8828,"temp":31.3,"humidity":68,"rain":0.0,"pressure":997.9,"uv_index":4.9,"wind_gusts":27.4,"aqi":100,"pm10":58.1,"pm2_5":36.3,"no2":8.6,"co":320.0,"o3":78.0,"so2":10.1,"mosquito_risk":3,"arthritis_risk":5,"migraine_risk":3,"frizz_risk":1,"updated_at":"2026-07-13T09:15:52.145256+05:30"},{"city":"Rourkela","state":"Odisha","latitude":22.2604,"longitude":84.8536,"temp":30.9,"humidity":68,"rain":0.0,"pressure":979.3,"uv_index":8.45,"wind_gusts":25.6,"aqi":98,"pm10":59.0,"pm2_5":35.5,"no2":6.8,"co":298.0,"o3":84.0,"so2":9.8,"mosquito_risk":3,"arthritis_risk":5,"migraine_risk":7,"frizz_risk":1,"updated_at":"2026-07-13T09:15:52.145263+05:30"},{"city":"Raipur","state":"Chhattisgarh","latitude":21.2514,"longitude":81.6296,"temp":30.6,"humidity":66,"rain":0.0,"pressure":970.2,"uv_index":8.05,"wind_gusts":37.1,"aqi":102,"pm10":76.1,"pm2_5":47.6,"no2":24.1,"co":164.0,"o3":48.0,"so2":67.3,"mosquito_risk":3,"arthritis_risk":5,"migraine_risk":7,"frizz_risk":1,"updated_at":"2026-07-13T09:15:52.145269+05:30"},{"city":"Bhilai","state":"Chhattisgarh","latitude":21.1938,"longitude":81.3509,"temp":30.2,"humidity":66,"rain":0.0,"pressure":970.7,"uv_index":8.5,"wind_gusts":41.4,"aqi":97,"pm10":71.2,"pm2_5":42.7,"no2":17.7,"co":376.0,"o3":58.0,"so2":50.8,"mosquito_risk":3,"arthritis_risk":5,"migraine_risk":7,"frizz_risk":1,"updated_at":"2026-07-13T09:15:52.145275+05:30"},{"city":"Guwahati","state":"Assam","latitude":26.1158,"longitude":91.7086,"temp":27.9,"humidity":92,"rain":0.0,"pressure":995.2,"uv_index":2.7,"wind_gusts":22.0,"aqi":51,"pm10":13.0,"pm2_5":11.4,"no2":3.0,"co":301.0,"o3":91.0,"so2":3.3,"mosquito_risk":7,"arthritis_risk":5,"migraine_risk":3,"frizz_risk":1,"updated_at":"2026-07-13T09:15:52.145282+05:30"},{"city":"Agartala","state":"Tripura","latitude":23.8315,"longitude":91.2868,"temp":26.9,"humidity":96,"rain":0.2,"pressure":1000.6,"uv_index":2.85,"wind_gusts":31.3,"aqi":74,"pm10":11.4,"pm2_5":10.7,"no2":7.3,"co":225.0,"o3":80.0,"so2":1.9,"mosquito_risk":10,"arthritis_risk":5,"migraine_risk":0,"frizz_risk":1,"updated_at":"2026-07-13T09:15:52.145308+05:30"},{"city":"Shillong","state":"Meghalaya","latitude":25.5788,"longitude":91.8933,"temp":21.1,"humidity":93,"rain":0.1,"pressure":853.5,"uv_index":3.6,"wind_gusts":25.6,"aqi":34,"pm10":10.8,"pm2_5":6.8,"no2":2.0,"co":300.0,"o3":96.0,"so2":2.9,"mosquito_risk":6,"arthritis_risk":5,"migraine_risk":3,"frizz_risk":1,"updated_at":"2026-07-13T09:15:52.145317+05:30"},{"city":"Imphal","state":"Manipur","latitude":24.817,"longitude":93.9368,"temp":25.2,"humidity":88,"rain":0.1,"pressure":919.1,"uv_index":5.1,"wind_gusts":19.1,"aqi":52,"pm10":4.1,"pm2_5":3.6,"no2":1.8,"co":244.0,"o3":84.0,"so2":1.4,"mosquito_risk":10,"arthritis_risk":5,"migraine_risk":3,"frizz_risk":1,"updated_at":"2026-07-13T09:15:52.145325+05:30"},{"city":"Aizawl","state":"Mizoram","latitude":23.7271,"longitude":92.7176,"temp":22.6,"humidity":83,"rain":0.0,"pressure":888.7,"uv_index":3.65,"wind_gusts":21.6,"aqi":58,"pm10":14.7,"pm2_5":7.5,"no2":1.0,"co":165.0,"o3":88.0,"so2":2.7,"mosquito_risk":3,"arthritis_risk":5,"migraine_risk":3,"frizz_risk":1,"updated_at":"2026-07-13T09:15:52.145332+05:30"},{"city":"Kohima","state":"Nagaland","latitude":25.6701,"longitude":94.1077,"temp":22.3,"humidity":93,"rain":0.0,"pressure":852.5,"uv_index":7.6,"wind_gusts":21.6,"aqi":31,"pm10":4.9,"pm2_5":4.5,"no2":1.4,"co":199.0,"o3":90.0,"so2":1.3,"mosquito_risk":3,"arthritis_risk":5,"migraine_risk":7,"frizz_risk":1,"updated_at":"2026-07-13T09:15:52.145339+05:30"},{"city":"Gangtok","state":"Sikkim","latitude":27.3314,"longitude":88.6138,"temp":19.3,"humidity":100,"rain":0.8,"pressure":833.5,"uv_index":2.7,"wind_gusts":23.4,"aqi":48,"pm10":2.7,"pm2_5":2.6,"no2":3.5,"co":282.0,"o3":101.0,"so2":1.2,"mosquito_risk":6,"arthritis_risk":10,"migraine_risk":3,"frizz_risk":1,"updated_at":"2026-07-13T09:15:52.145346+05:30"},{"city":"Siliguri","state":"West Bengal","latitude":26.7271,"longitude":88.3953,"temp":26.2,"humidity":96,"rain":1.0,"pressure":986.4,"uv_index":1.25,"wind_gusts":38.9,"aqi":45,"pm10":9.1,"pm2_5":9.1,"no2":7.6,"co":444.0,"o3":88.0,"so2":2.3,"mosquito_risk":10,"arthritis_risk":5,"migraine_risk":3,"frizz_risk":1,"updated_at":"2026-07-13T09:15:55.499983+05:30"},{"city":"Durgapur","state":"West Bengal","latitude":23.5204,"longitude":87.3119,"temp":31.0,"humidity":80,"rain":0.0,"pressure":988.1,"uv_index":8.0,"wind_gusts":23.4,"aqi":151,"pm10":98.5,"pm2_5":75.0,"no2":38.2,"co":478.0,"o3":55.0,"so2":78.8,"mosquito_risk":3,"arthritis_risk":5,"migraine_risk":7,"frizz_risk":1,"updated_at":"2026-07-13T09:15:55.500014+05:30"},{"city":"Asansol","state":"West Bengal","latitude":23.6739,"longitude":86.9524,"temp":30.9,"humidity":75,"rain":0.0,"pressure":986.9,"uv_index":7.25,"wind_gusts":24.1,"aqi":148,"pm10":97.8,"pm2_5":64.5,"no2":27.6,"co":313.0,"o3":68.0,"so2":59.6,"mosquito_risk":3,"arthritis_risk":5,"migraine_risk":7,"frizz_risk":1,"updated_at":"2026-07-13T09:15:55.500026+05:30"},{"city":"Pondicherry","state":"Puducherry","latitude":11.9139,"longitude":79.8145,"temp":32.2,"humidity":53,"rain":0.0,"pressure":1006.9,"uv_index":8.15,"wind_gusts":46.1,"aqi":64,"pm10":27.8,"pm2_5":14.9,"no2":6.4,"co":163.0,"o3":51.0,"so2":3.2,"mosquito_risk":0,"arthritis_risk":5,"migraine_risk":4,"frizz_risk":1,"updated_at":"2026-07-13T09:15:55.500036+05:30"},{"city":"Port Blair","state":"Andaman and Nicobar Islands","latitude":11.6234,"longitude":92.7265,"temp":26.9,"humidity":85,"rain":0.0,"pressure":1006.2,"uv_index":8.75,"wind_gusts":55.8,"aqi":46,"pm10":19.0,"pm2_5":8.2,"no2":0.3,"co":98.0,"o3":48.0,"so2":0.4,"mosquito_risk":7,"arthritis_risk":5,"migraine_risk":4,"frizz_risk":1,"updated_at":"2026-07-13T09:15:55.500044+05:30"},{"city":"Haridwar","state":"Uttarakhand","latitude":29.9457,"longitude":78.1642,"temp":30.5,"humidity":73,"rain":0.0,"pressure":965.5,"uv_index":7.5,"wind_gusts":27.4,"aqi":179,"pm10":201.2,"pm2_5":92.0,"no2":4.9,"co":317.0,"o3":139.0,"so2":16.5,"mosquito_risk":3,"arthritis_risk":5,"migraine_risk":7,"frizz_risk":1,"updated_at":"2026-07-13T09:15:55.500052+05:30"},{"city":"Rishikesh","state":"Uttarakhand","latitude":30.0869,"longitude":78.2676,"temp":30.2,"humidity":71,"rain":0.0,"pressure":958.3,"uv_index":7.6,"wind_gusts":24.8,"aqi":162,"pm10":121.1,"pm2_5":53.9,"no2":2.2,"co":290.0,"o3":138.0,"so2":10.1,"mosquito_risk":3,"arthritis_risk":5,"migraine_risk":7,"frizz_risk":1,"updated_at":"2026-07-13T09:15:55.500061+05:30"},{"city":"Nainital","state":"Uttarakhand","latitude":29.3919,"longitude":79.4542,"temp":22.7,"humidity":61,"rain":0.0,"pressure":802.5,"uv_index":8.5,"wind_gusts":34.9,"aqi":161,"pm10":210.5,"pm2_5":71.5,"no2":3.2,"co":172.0,"o3":131.0,"so2":10.0,"mosquito_risk":3,"arthritis_risk":5,"migraine_risk":7,"frizz_risk":0,"updated_at":"2026-07-13T09:15:55.500069+05:30"},{"city":"Mussoorie","state":"Uttarakhand","latitude":30.4599,"longitude":78.0664,"temp":22.4,"humidity":63,"rain":0.0,"pressure":799.9,"uv_index":8.0,"wind_gusts":42.1,"aqi":159,"pm10":91.5,"pm2_5":47.8,"no2":3.6,"co":230.0,"o3":141.0,"so2":10.6,"mosquito_risk":3,"arthritis_risk":5,"migraine_risk":7,"frizz_risk":0,"updated_at":"2026-07-13T09:15:55.500077+05:30"},{"city":"Dharamshala","state":"Himachal Pradesh","latitude":32.219,"longitude":76.3234,"temp":24.6,"humidity":71,"rain":0.0,"pressure":863.6,"uv_index":8.25,"wind_gusts":33.5,"aqi":65,"pm10":31.8,"pm2_5":13.0,"no2":1.5,"co":246.0,"o3":108.0,"so2":1.1,"mosquito_risk":3,"arthritis_risk":5,"migraine_risk":7,"frizz_risk":1,"updated_at":"2026-07-13T09:15:55.500085+05:30"},{"city":"Dalhousie","state":"Himachal Pradesh","latitude":32.5387,"longitude":75.971,"temp":22.5,"humidity":63,"rain":0.0,"pressure":801.2,"uv_index":8.65,"wind_gusts":29.9,"aqi":96,"pm10":44.5,"pm2_5":23.5,"no2":5.7,"co":253.0,"o3":116.0,"so2":2.1,"mosquito_risk":3,"arthritis_risk":5,"migraine_risk":7,"frizz_risk":0,"updated_at":"2026-07-13T09:15:55.500102+05:30"},{"city":"Patiala","state":"Punjab","latitude":30.3398,"longitude":76.3869,"temp":30.9,"humidity":77,"rain":0.0,"pressure":969.4,"uv_index":7.55,"wind_gusts":23.8,"aqi":173,"pm10":151.3,"pm2_5":82.9,"no2":13.3,"co":364.0,"o3":98.0,"so2":7.8,"mosquito_risk":3,"arthritis_risk":5,"migraine_risk":7,"frizz_risk":1,"updated_at":"2026-07-13T09:15:55.500111+05:30"},{"city":"Bhatinda","state":"Punjab","latitude":30.211,"longitude":74.9455,"temp":31.3,"humidity":71,"rain":0.0,"pressure":974.7,"uv_index":8.25,"wind_gusts":25.9,"aqi":185,"pm10":135.0,"pm2_5":70.8,"no2":19.1,"co":391.0,"o3":73.0,"so2":9.8,"mosquito_risk":3,"arthritis_risk":5,"migraine_risk":7,"frizz_risk":1,"updated_at":"2026-07-13T09:15:55.500119+05:30"},{"city":"Rohtak","state":"Haryana","latitude":28.8955,"longitude":76.6066,"temp":32.6,"humidity":62,"rain":0.0,"pressure":973.4,"uv_index":7.65,"wind_gusts":26.3,"aqi":1081,"pm10":1274.0,"pm2_5":188.1,"no2":8.7,"co":232.0,"o3":66.0,"so2":3.9,"mosquito_risk":3,"arthritis_risk":5,"migraine_risk":7,"frizz_risk":1,"updated_at":"2026-07-13T09:15:55.500127+05:30"},{"city":"Panipat","state":"Haryana","latitude":29.3909,"longitude":76.9635,"temp":31.5,"humidity":68,"rain":0.0,"pressure":971.8,"uv_index":7.55,"wind_gusts":26.3,"aqi":1433,"pm10":1981.9,"pm2_5":270.1,"no2":14.1,"co":397.0,"o3":66.0,"so2":6.7,"mosquito_risk":3,"arthritis_risk":5,"migraine_risk":7,"frizz_risk":1,"updated_at":"2026-07-13T09:15:55.500135+05:30"},{"city":"Mathura","state":"Uttar Pradesh","latitude":27.4924,"longitude":77.6737,"temp":32.5,"humidity":62,"rain":0.0,"pressure":979.0,"uv_index":7.85,"wind_gusts":33.5,"aqi":838,"pm10":884.8,"pm2_5":129.0,"no2":10.3,"co":212.0,"o3":61.0,"so2":5.6,"mosquito_risk":3,"arthritis_risk":5,"migraine_risk":7,"frizz_risk":1,"updated_at":"2026-07-13T09:15:55.500144+05:30"},{"city":"Vrindavan","state":"Uttar Pradesh","latitude":27.5823,"longitude":77.7027,"temp":32.7,"humidity":61,"rain":0.0,"pressure":979.4,"uv_index":7.9,"wind_gusts":34.2,"aqi":838,"pm10":884.8,"pm2_5":129.0,"no2":10.3,"co":217.0,"o3":61.0,"so2":5.6,"mosquito_risk":3,"arthritis_risk":5,"migraine_risk":7,"frizz_risk":1,"updated_at":"2026-07-13T09:15:55.500152+05:30"},{"city":"Ayodhya","state":"Uttar Pradesh","latitude":26.7922,"longitude":82.1998,"temp":32.3,"humidity":68,"rain":0.0,"pressure":986.3,"uv_index":8.35,"wind_gusts":35.3,"aqi":125,"pm10":100.6,"pm2_5":50.5,"no2":8.5,"co":253.0,"o3":80.0,"so2":8.3,"mosquito_risk":3,"arthritis_risk":5,"migraine_risk":7,"frizz_risk":1,"updated_at":"2026-07-13T09:15:55.500159+05:30"},{"city":"Ratlam","state":"Madhya Pradesh","latitude":23.3315,"longitude":75.0367,"temp":27.1,"humidity":73,"rain":0.1,"pressure":950.6,"uv_index":8.45,"wind_gusts":53.6,"aqi":65,"pm10":17.9,"pm2_5":9.7,"no2":4.4,"co":109.0,"o3":41.0,"so2":6.0,"mosquito_risk":10,"arthritis_risk":5,"migraine_risk":7,"frizz_risk":1,"updated_at":"2026-07-13T09:15:55.500167+05:30"},{"city":"Sagar","state":"Madhya Pradesh","latitude":23.8388,"longitude":78.7378,"temp":28.1,"humidity":73,"rain":0.0,"pressure":945.6,"uv_index":8.6,"wind_gusts":47.5,"aqi":82,"pm10":34.9,"pm2_5":16.1,"no2":3.0,"co":137.0,"o3":53.0,"so2":5.3,"mosquito_risk":7,"arthritis_risk":5,"migraine_risk":7,"frizz_risk":1,"updated_at":"2026-07-13T09:15:55.500175+05:30"},{"city":"Satna","state":"Madhya Pradesh","latitude":24.6005,"longitude":80.8322,"temp":30.8,"humidity":65,"rain":0.0,"pressure":965.3,"uv_index":8.65,"wind_gusts":39.6,"aqi":88,"pm10":56.3,"pm2_5":33.4,"no2":3.4,"co":167.0,"o3":75.0,"so2":5.0,"mosquito_risk":3,"arthritis_risk":5,"migraine_risk":7,"frizz_risk":1,"updated_at":"2026-07-13T09:15:55.500182+05:30"},{"city":"Akola","state":"Maharashtra","latitude":20.7002,"longitude":77.0082,"temp":29.4,"humidity":64,"rain":0.0,"pressure":972.4,"uv_index":8.3,"wind_gusts":50.4,"aqi":65,"pm10":21.7,"pm2_5":10.4,"no2":4.8,"co":116.0,"o3":42.0,"so2":8.1,"mosquito_risk":7,"arthritis_risk":5,"migraine_risk":7,"frizz_risk":1,"updated_at":"2026-07-13T09:15:55.500191+05:30"},{"city":"Amravati","state":"Maharashtra","latitude":20.9374,"longitude":77.7796,"temp":28.5,"humidity":69,"rain":0.0,"pressure":964.3,"uv_index":8.05,"wind_gusts":52.9,"aqi":67,"pm10":23.8,"pm2_5":11.0,"no2":5.3,"co":122.0,"o3":42.0,"so2":9.4,"mosquito_risk":7,"arthritis_risk":5,"migraine_risk":7,"frizz_risk":1,"updated_at":"2026-07-13T09:15:55.500199+05:30"},{"city":"Latur","state":"Maharashtra","latitude":18.4088,"longitude":76.5604,"temp":26.9,"humidity":68,"rain":0.0,"pressure":938.3,"uv_index":8.85,"wind_gusts":46.4,"aqi":53,"pm10":16.8,"pm2_5":8.1,"no2":2.3,"co":116.0,"o3":46.0,"so2":2.8,"mosquito_risk":7,"arthritis_risk":5,"migraine_risk":7,"frizz_risk":1,"updated_at":"2026-07-13T09:15:55.500207+05:30"},{"city":"Nanded","state":"Maharashtra","latitude":19.1383,"longitude":77.3091,"temp":28.5,"humidity":66,"rain":0.0,"pressure":966.7,"uv_index":8.85,"wind_gusts":43.9,"aqi":61,"pm10":21.4,"pm2_5":10.9,"no2":3.5,"co":133.0,"o3":47.0,"so2":4.3,"mosquito_risk":7,"arthritis_risk":5,"migraine_risk":7,"frizz_risk":1,"updated_at":"2026-07-13T09:15:55.500214+05:30"},{"city":"Gulbarga","state":"Karnataka","latitude":17.3297,"longitude":76.8343,"temp":27.7,"humidity":62,"rain":0.0,"pressure":958.0,"uv_index":8.8,"wind_gusts":49.3,"aqi":51,"pm10":15.9,"pm2_5":7.3,"no2":3.3,"co":117.0,"o3":44.0,"so2":2.9,"mosquito_risk":7,"arthritis_risk":5,"migraine_risk":7,"frizz_risk":1,"updated_at":"2026-07-13T09:15:55.500222+05:30"},{"city":"Bidar","state":"Karnataka","latitude":17.9104,"longitude":77.5199,"temp":26.7,"humidity":68,"rain":0.0,"pressure":934.2,"uv_index":8.9,"wind_gusts":47.2,"aqi":57,"pm10":23.1,"pm2_5":10.8,"no2":3.5,"co":127.0,"o3":44.0,"so2":2.3,"mosquito_risk":7,"arthritis_risk":5,"migraine_risk":7,"frizz_risk":1,"updated_at":"2026-07-13T09:15:55.500229+05:30"},{"city":"Hospet","state":"Karnataka","latitude":15.2689,"longitude":76.3909,"temp":27.0,"humidity":67,"rain":0.0,"pressure":956.3,"uv_index":8.9,"wind_gusts":49.0,"aqi":40,"pm10":16.6,"pm2_5":7.5,"no2":2.7,"co":109.0,"o3":44.0,"so2":2.0,"mosquito_risk":7,"arthritis_risk":5,"migraine_risk":7,"frizz_risk":1,"updated_at":"2026-07-13T09:15:55.500237+05:30"},{"city":"Tirupur","state":"Tamil Nadu","latitude":11.1085,"longitude":77.3411,"temp":29.3,"humidity":62,"rain":0.0,"pressure":975.9,"uv_index":8.3,"wind_gusts":58.0,"aqi":57,"pm10":27.4,"pm2_5":13.4,"no2":6.2,"co":153.0,"o3":48.0,"so2":4.0,"mosquito_risk":7,"arthritis_risk":5,"migraine_risk":7,"frizz_risk":1,"updated_at":"2026-07-13T09:15:55.500244+05:30"},{"city":"Alappuzha","state":"Kerala","latitude":9.4981,"longitude":76.3388,"temp":28.2,"humidity":81,"rain":0.0,"pressure":1010.8,"uv_index":8.0,"wind_gusts":50.8,"aqi":46,"pm10":19.5,"pm2_5":10.2,"no2":4.9,"co":99.0,"o3":44.0,"so2":3.4,"mosquito_risk":7,"arthritis_risk":0,"migraine_risk":4,"frizz_risk":1,"updated_at":"2026-07-13T09:15:55.500251+05:30"},{"city":"Munnar","state":"Kerala","latitude":10.0889,"longitude":77.0595,"temp":19.7,"humidity":85,"rain":0.0,"pressure":858.6,"uv_index":8.6,"wind_gusts":36.4,"aqi":27,"pm10":9.1,"pm2_5":4.5,"no2":2.5,"co":102.0,"o3":45.0,"so2":1.5,"mosquito_risk":3,"arthritis_risk":10,"migraine_risk":7,"frizz_risk":1,"updated_at":"2026-07-13T09:15:55.500258+05:30"},{"city":"Silchar","state":"Assam","latitude":24.8333,"longitude":92.7789,"temp":29.3,"humidity":81,"rain":0.0,"pressure":999.6,"uv_index":0.9,"wind_gusts":18.7,"aqi":79,"pm10":36.6,"pm2_5":20.5,"no2":1.9,"co":300.0,"o3":97.0,"so2":5.7,"mosquito_risk":7,"arthritis_risk":5,"migraine_risk":3,"frizz_risk":1,"updated_at":"2026-07-13T09:15:55.500264+05:30"},{"city":"Dibrugarh","state":"Assam","latitude":27.4728,"longitude":94.912,"temp":28.9,"humidity":82,"rain":0.0,"pressure":990.2,"uv_index":8.9,"wind_gusts":20.2,"aqi":48,"pm10":5.7,"pm2_5":5.6,"no2":1.6,"co":206.0,"o3":88.0,"so2":0.8,"mosquito_risk":7,"arthritis_risk":5,"migraine_risk":7,"frizz_risk":1,"updated_at":"2026-07-13T09:15:55.500270+05:30"}]