[{"city":"Delhi","state":"Delhi","latitude":28.6139,"longitude":77.209,"temp":18.4,"humidity":84,"rain":0.0,"pressure":986.7,"uv_index":3.7,"wind_gusts":29.5,"aqi":127,"pm10":78.5,"pm2_5":41.3,"mosquito_risk":3,"arthritis_risk":10,"migraine_risk":3,"frizz_risk":0,"updated_at":"2026-03-20T00:33:10.222747+05:30"},{"city":"Mumbai","state":"Maharashtra","latitude":19.076,"longitude":72.8777,"temp":27.2,"humidity":70,"rain":0.0,"pressure":1011.9,"uv_index":7.8,"wind_gusts":22.0,"aqi":67,"pm10":57.7,"pm2_5":23.3,"mosquito_risk":7,"arthritis_risk":0,"migraine_risk":4,"frizz_risk":1,"updated_at":"2026-03-20T00:33:10.222783+05:30"},{"city":"Bangalore","state":"Karnataka","latitude":12.9716,"longitude":77.5946,"temp":21.6,"humidity":68,"rain":0.0,"pressure":912.8,"uv_index":9.4,"wind_gusts":17.6,"aqi":109,"pm10":37.5,"pm2_5":33.2,"mosquito_risk":3,"arthritis_risk":5,"migraine_risk":7,"frizz_risk":0,"updated_at":"2026-03-20T00:33:10.222798+05:30"},{"city":"Hyderabad","state":"Telangana","latitude":17.385,"longitude":78.4867,"temp":21.4,"humidity":83,"rain":0.0,"pressure":955.2,"uv_index":8.8,"wind_gusts":28.4,"aqi":74,"pm10":59.8,"pm2_5":51.0,"mosquito_risk":3,"arthritis_risk":5,"migraine_risk":7,"frizz_risk":1,"updated_at":"2026-03-20T00:33:10.222809+05:30"},{"city":"Chennai","state":"Tamil Nadu","latitude":13.0827,"longitude":80.2707,"temp":26.1,"humidity":84,"rain":0.0,"pressure":1009.7,"uv_index":9.15,"wind_gusts":33.8,"aqi":35,"pm10":6.9,"pm2_5":5.2,"mosquito_risk":7,"arthritis_risk":0,"migraine_risk":4,"frizz_risk":1,"updated_at":"2026-03-20T00:33:10.222817+05:30"},{"city":"Kolkata","state":"West Bengal","latitude":22.5726,"longitude":88.3639,"temp":23.7,"humidity":95,"rain":0.0,"pressure":1008.7,"uv_index":7.95,"wind_gusts":32.8,"aqi":72,"pm10":24.4,"pm2_5":21.7,"mosquito_risk":3,"arthritis_risk":0,"migraine_risk":4,"frizz_risk":1,"updated_at":"2026-03-20T00:33:10.222825+05:30"},{"city":"Pune","state":"Maharashtra","latitude":18.5204,"longitude":73.8567,"temp":20.9,"humidity":86,"rain":0.0,"pressure":950.5,"uv_index":8.35,"wind_gusts":35.6,"aqi":98,"pm10":25.5,"pm2_5":19.8,"mosquito_risk":3,"arthritis_risk":5,"migraine_risk":7,"frizz_risk":1,"updated_at":"2026-03-20T00:33:10.222836+05:30"},{"city":"Ahmedabad","state":"Gujarat","latitude":23.0225,"longitude":72.5714,"temp":23.4,"humidity":72,"rain":0.0,"pressure":1005.0,"uv_index":7.65,"wind_gusts":29.9,"aqi":62,"pm10":77.3,"pm2_5":36.6,"mosquito_risk":3,"arthritis_risk":5,"migraine_risk":4,"frizz_risk":1,"updated_at":"2026-03-20T00:33:10.222844+05:30"},{"city":"Jaipur","state":"Rajasthan","latitude":26.9124,"longitude":75.7873,"temp":18.7,"humidity":91,"rain":0.0,"pressure":962.0,"uv_index":6.05,"wind_gusts":33.1,"aqi":120,"pm10":57.4,"pm2_5":22.3,"mosquito_risk":3,"arthritis_risk":10,"migraine_risk":7,"frizz_risk":1,"updated_at":"2026-03-20T00:33:10.222851+05:30"},{"city":"Lucknow","state":"Uttar Pradesh","latitude":26.8467,"longitude":80.9462,"temp":23.1,"humidity":54,"rain":0.0,"pressure":995.5,"uv_index":6.0,"wind_gusts":34.6,"aqi":98,"pm10":42.4,"pm2_5":24.7,"mosquito_risk":0,"arthritis_risk":5,"migraine_risk":3,"frizz_risk":0,"updated_at":"2026-03-20T00:33:10.222859+05:30"},{"city":"Kanpur","state":"Uttar Pradesh","latitude":26.4499,"longitude":80.3319,"temp":22.5,"humidity":65,"rain":0.0,"pressure":993.9,"uv_index":5.55,"wind_gusts":40.7,"aqi":115,"pm10":161.1,"pm2_5":38.4,"mosquito_risk":3,"arthritis_risk":5,"migraine_risk":3,"frizz_risk":0,"updated_at":"2026-03-20T00:33:10.222866+05:30"},{"city":"Chandigarh","state":"Chandigarh","latitude":30.7333,"longitude":76.7794,"temp":16.3,"humidity":95,"rain":0.0,"pressure":972.1,"uv_index":0.4,"wind_gusts":23.8,"aqi":80,"pm10":62.2,"pm2_5":43.9,"mosquito_risk":3,"arthritis_risk":10,"migraine_risk":3,"frizz_risk":0,"updated_at":"2026-03-20T00:33:10.222874+05:30"},{"city":"Srinagar","state":"Jammu and Kashmir","latitude":34.0837,"longitude":74.7973,"temp":6.0,"humidity":94,"rain":0.0,"pressure":838.6,"uv_index":4.9,"wind_gusts":16.9,"aqi":71,"pm10":11.4,"pm2_5":11.4,"mosquito_risk":3,"arthritis_risk":10,"migraine_risk":3,"frizz_risk":0,"updated_at":"2026-03-20T00:33:10.222881+05:30"},{"city":"Jammu","state":"Jammu and Kashmir","latitude":32.7266,"longitude":74.857,"temp":16.3,"humidity":99,"rain":0.0,"pressure":976.6,"uv_index":4.2,"wind_gusts":19.8,"aqi":70,"pm10":46.8,"pm2_5":36.7,"mosquito_risk":3,"arthritis_risk":10,"migraine_risk":3,"frizz_risk":1,"updated_at":"2026-03-20T00:33:10.222888+05:30"},{"city":"Amritsar","state":"Punjab","latitude":31.634,"longitude":74.8723,"temp":14.7,"humidity":98,"rain":0.0,"pressure":984.9,"uv_index":4.15,"wind_gusts":20.2,"aqi":79,"pm10":37.4,"pm2_5":25.0,"mosquito_risk":3,"arthritis_risk":10,"migraine_risk":3,"frizz_risk":0,"updated_at":"2026-03-20T00:33:10.222894+05:30"},{"city":"Ludhiana","state":"Punjab","latitude":30.901,"longitude":75.8573,"temp":15.7,"humidity":95,"rain":0.0,"pressure":982.6,"uv_index":2.85,"wind_gusts":16.9,"aqi":94,"pm10":73.6,"pm2_5":43.7,"mosquito_risk":3,"arthritis_risk":10,"migraine_risk":3,"frizz_risk":0,"updated_at":"2026-03-20T00:33:10.222900+05:30"},{"city":"Jalandhar","state":"Punjab","latitude":31.326,"longitude":75.5762,"temp":15.3,"humidity":97,"rain":0.0,"pressure":983.9,"uv_index":2.3,"wind_gusts":20.2,"aqi":87,"pm10":48.8,"pm2_5":30.7,"mosquito_risk":3,"arthritis_risk":10,"migraine_risk":3,"frizz_risk":0,"updated_at":"2026-03-20T00:33:10.222910+05:30"},{"city":"Dehradun","state":"Uttarakhand","latitude":30.6284,"longitude":78.0322,"temp":10.5,"humidity":81,"rain":0.0,"pressure":830.1,"uv_index":0.35,"wind_gusts":38.9,"aqi":44,"pm10":12.7,"pm2_5":5.1,"mosquito_risk":3,"arthritis_risk":10,"migraine_risk":3,"frizz_risk":0,"updated_at":"2026-03-20T00:33:10.222917+05:30"},{"city":"Shimla","state":"Himachal Pradesh","latitude":31.1048,"longitude":77.1734,"temp":8.4,"humidity":79,"rain":0.0,"pressure":782.0,"uv_index":0.5,"wind_gusts":43.6,"aqi":43,"pm10":2.6,"pm2_5":2.2,"mosquito_risk":3,"arthritis_risk":5,"migraine_risk":3,"frizz_risk":0,"updated_at":"2026-03-20T00:33:10.222923+05:30"},{"city":"Manali","state":"Himachal Pradesh","latitude":32.2396,"longitude":77.1887,"temp":9.7,"humidity":98,"rain":1.0,"pressure":815.6,"uv_index":3.2,"wind_gusts":28.1,"aqi":45,"pm10":1.9,"pm2_5":1.8,"mosquito_risk":6,"arthritis_risk":10,"migraine_risk":3,"frizz_risk":0,"updated_at":"2026-03-20T00:33:10.222930+05:30"},{"city":"Gurgaon","state":"Haryana","latitude":28.4595,"longitude":77.0266,"temp":17.3,"humidity":93,"rain":0.0,"pressure":985.5,"uv_index":3.65,"wind_gusts":22.0,"aqi":140,"pm10":100.6,"pm2_5":53.9,"mosquito_risk":3,"arthritis_risk":10,"migraine_risk":3,"frizz_risk":1,"updated_at":"2026-03-20T00:33:10.222938+05:30"},{"city":"Noida","state":"Uttar Pradesh","latitude":28.5355,"longitude":77.391,"temp":18.5,"humidity":84,"rain":0.0,"pressure":988.1,"uv_index":4.05,"wind_gusts":27.7,"aqi":140,"pm10":100.6,"pm2_5":53.9,"mosquito_risk":3,"arthritis_risk":10,"migraine_risk":3,"frizz_risk":0,"updated_at":"2026-03-20T00:33:10.222944+05:30"},{"city":"Ghaziabad","state":"Uttar Pradesh","latitude":28.6692,"longitude":77.4538,"temp":18.0,"humidity":86,"rain":0.0,"pressure":986.6,"uv_index":4.45,"wind_gusts":30.6,"aqi":107,"pm10":50.4,"pm2_5":33.5,"mosquito_risk":3,"arthritis_risk":10,"migraine_risk":3,"frizz_risk":0,"updated_at":"2026-03-20T00:33:10.222950+05:30"},{"city":"Faridabad","state":"Haryana","latitude":28.4089,"longitude":77.3178,"temp":18.3,"humidity":84,"rain":0.0,"pressure":987.2,"uv_index":4.15,"wind_gusts":29.5,"aqi":140,"pm10":100.6,"pm2_5":53.9,"mosquito_risk":3,"arthritis_risk":10,"migraine_risk":3,"frizz_risk":0,"updated_at":"2026-03-20T00:33:10.222956+05:30"},{"city":"Meerut","state":"Uttar Pradesh","latitude":28.9845,"longitude":77.7064,"temp":17.2,"humidity":89,"rain":0.0,"pressure":985.2,"uv_index":3.6,"wind_gusts":27.0,"aqi":107,"pm10":50.4,"pm2_5":33.5,"mosquito_risk":3,"arthritis_risk":10,"migraine_risk":3,"frizz_risk":0,"updated_at":"2026-03-20T00:33:10.222962+05:30"},{"city":"Agra","state":"Uttar Pradesh","latitude":27.1767,"longitude":78.0081,"temp":20.1,"humidity":85,"rain":0.0,"pressure":991.0,"uv_index":5.6,"wind_gusts":29.9,"aqi":476,"pm10":810.3,"pm2_5":100.8,"mosquito_risk":3,"arthritis_risk":5,"migraine_risk":3,"frizz_risk":1,"updated_at":"2026-03-20T00:33:10.222969+05:30"},{"city":"Varanasi","state":"Uttar Pradesh","latitude":25.3176,"longitude":82.9739,"temp":23.4,"humidity":67,"rain":0.0,"pressure":998.3,"uv_index":7.5,"wind_gusts":42.1,"aqi":114,"pm10":52.0,"pm2_5":46.7,"mosquito_risk":3,"arthritis_risk":5,"migraine_risk":7,"frizz_risk":1,"updated_at":"2026-03-20T00:33:10.222977+05:30"},{"city":"Prayagraj","state":"Uttar Pradesh","latitude":25.4358,"longitude":81.8463,"temp":24.2,"humidity":61,"rain":0.0,"pressure":996.6,"uv_index":4.95,"wind_gusts":41.4,"aqi":113,"pm10":50.1,"pm2_5":43.0,"mosquito_risk":3,"arthritis_risk":5,"migraine_risk":3,"frizz_risk":1,"updated_at":"2026-03-20T00:33:10.222984+05:30"},{"city":"Gorakhpur","state":"Uttar Pradesh","latitude":26.7606,"longitude":83.3732,"temp":21.0,"humidity":55,"rain":0.0,"pressure":998.3,"uv_index":7.1,"wind_gusts":34.9,"aqi":118,"pm10":82.9,"pm2_5":60.5,"mosquito_risk":0,"arthritis_risk":5,"migraine_risk":7,"frizz_risk":0,"updated_at":"2026-03-20T00:33:10.222990+05:30"},{"city":"Bareilly","state":"Uttar Pradesh","latitude":28.367,"longitude":79.4304,"temp":19.3,"humidity":81,"rain":0.0,"pressure":988.8,"uv_index":3.6,"wind_gusts":31.0,"aqi":84,"pm10":41.4,"pm2_5":25.7,"mosquito_risk":3,"arthritis_risk":10,"migraine_risk":3,"frizz_risk":0,"updated_at":"2026-03-20T00:33:10.222996+05:30"},{"city":"Aligarh","state":"Uttar Pradesh","latitude":27.8974,"longitude":78.088,"temp":19.2,"humidity":87,"rain":0.0,"pressure":989.0,"uv_index":4.7,"wind_gusts":27.0,"aqi":165,"pm10":201.6,"pm2_5":49.2,"mosquito_risk":3,"arthritis_risk":10,"migraine_risk":3,"frizz_risk":1,"updated_at":"2026-03-20T00:33:10.223003+05:30"},{"city":"Moradabad","state":"Uttar Pradesh","latitude":28.8386,"longitude":78.7733,"temp":18.7,"humidity":84,"rain":0.0,"pressure":986.6,"uv_index":2.75,"wind_gusts":28.8,"aqi":89,"pm10":46.1,"pm2_5":27.1,"mosquito_risk":3,"arthritis_risk":10,"migraine_risk":3,"frizz_risk":0,"updated_at":"2026-03-20T00:33:10.223008+05:30"},{"city":"Saharanpur","state":"Uttar Pradesh","latitude":29.9637,"longitude":77.546,"temp":16.3,"humidity":88,"rain":0.0,"pressure":978.8,"uv_index":1.15,"wind_gusts":19.1,"aqi":86,"pm10":57.4,"pm2_5":40.9,"mosquito_risk":3,"arthritis_risk":10,"migraine_risk":3,"frizz_risk":0,"updated_at":"2026-03-20T00:33:10.223014+05:30"},{"city":"Jhansi","state":"Uttar Pradesh","latitude":25.4484,"longitude":78.5685,"temp":20.8,"humidity":76,"rain":0.0,"pressure":979.3,"uv_index":5.1,"wind_gusts":29.9,"aqi":82,"pm10":84.8,"pm2_5":30.0,"mosquito_risk":3,"arthritis_risk":5,"migraine_risk":3,"frizz_risk":1,"updated_at":"2026-03-20T00:33:13.502483+05:30"},{"city":"Surat","state":"Gujarat","latitude":21.1702,"longitude":72.8311,"temp":24.0,"humidity":83,"rain":0.0,"pressure":1009.4,"uv_index":7.5,"wind_gusts":27.0,"aqi":79,"pm10":35.2,"pm2_5":25.8,"mosquito_risk":3,"arthritis_risk":0,"migraine_risk":4,"frizz_risk":1,"updated_at":"2026-03-20T00:33:13.502515+05:30"},{"city":"Vadodara","state":"Gujarat","latitude":22.3072,"longitude":73.1812,"temp":24.2,"humidity":68,"rain":0.0,"pressure":1007.0,"uv_index":7.65,"wind_gusts":27.4,"aqi":54,"pm10":55.2,"pm2_5":24.6,"mosquito_risk":3,"arthritis_risk":5,"migraine_risk":4,"frizz_risk":1,"updated_at":"2026-03-20T00:33:13.502527+05:30"},{"city":"Rajkot","state":"Gujarat","latitude":22.3039,"longitude":70.8022,"temp":21.5,"humidity":88,"rain":0.0,"pressure":997.3,"uv_index":7.5,"wind_gusts":24.8,"aqi":56,"pm10":56.5,"pm2_5":28.9,"mosquito_risk":3,"arthritis_risk":5,"migraine_risk":7,"frizz_risk":1,"updated_at":"2026-03-20T00:33:13.502535+05:30"},{"city":"Thane","state":"Maharashtra","latitude":19.2183,"longitude":72.9781,"temp":25.7,"humidity":73,"rain":0.0,"pressure":1011.4,"uv_index":7.8,"wind_gusts":35.3,"aqi":67,"pm10":57.7,"pm2_5":23.3,"mosquito_risk":7,"arthritis_risk":0,"migraine_risk":4,"frizz_risk":1,"updated_at":"2026-03-20T00:33:13.502543+05:30"},{"city":"Nagpur","state":"Maharashtra","latitude":21.1458,"longitude":79.0882,"temp":21.8,"humidity":74,"rain":0.0,"pressure":975.7,"uv_index":7.55,"wind_gusts":39.2,"aqi":110,"pm10":48.7,"pm2_5":41.4,"mosquito_risk":3,"arthritis_risk":5,"migraine_risk":7,"frizz_risk":1,"updated_at":"2026-03-20T00:33:13.502550+05:30"},{"city":"Nashik","state":"Maharashtra","latitude":19.9975,"longitude":73.7898,"temp":20.6,"humidity":89,"rain":0.0,"pressure":947.9,"uv_index":8.0,"wind_gusts":34.2,"aqi":56,"pm10":21.9,"pm2_5":14.6,"mosquito_risk":3,"arthritis_risk":5,"migraine_risk":7,"frizz_risk":1,"updated_at":"2026-03-20T00:33:13.502558+05:30"},{"city":"Aurangabad","state":"Maharashtra","latitude":19.8762,"longitude":75.3433,"temp":22.6,"humidity":62,"rain":0.0,"pressure":946.0,"uv_index":8.5,"wind_gusts":34.9,"aqi":79,"pm10":65.4,"pm2_5":45.3,"mosquito_risk":3,"arthritis_risk":5,"migraine_risk":7,"frizz_risk":0,"updated_at":"2026-03-20T00:33:13.502565+05:30"},{"city":"Solapur","state":"Maharashtra","latitude":17.6599,"longitude":75.9064,"temp":22.6,"humidity":72,"rain":0.0,"pressure":958.7,"uv_index":8.7,"wind_gusts":21.6,"aqi":94,"pm10":40.2,"pm2_5":29.4,"mosquito_risk":3,"arthritis_risk":5,"migraine_risk":7,"frizz_risk":1,"updated_at":"2026-03-20T00:33:13.502573+05:30"},{"city":"Kolhapur","state":"Maharashtra","latitude":16.705,"longitude":74.2433,"temp":19.5,"humidity":91,"rain":0.0,"pressure":949.6,"uv_index":8.85,"wind_gusts":43.2,"aqi":96,"pm10":28.1,"pm2_5":24.9,"mosquito_risk":3,"arthritis_risk":10,"migraine_risk":7,"frizz_risk":1,"updated_at":"2026-03-20T00:33:13.502580+05:30"},{"city":"Goa","state":"Goa","latitude":15.2993,"longitude":74.124,"temp":26.7,"humidity":78,"rain":0.0,"pressure":1000.3,"uv_index":8.85,"wind_gusts":38.2,"aqi":70,"pm10":28.0,"pm2_5":20.0,"mosquito_risk":7,"arthritis_risk":5,"migraine_risk":4,"frizz_risk":1,"updated_at":"2026-03-20T00:33:13.502587+05:30"},{"city":"Jodhpur","state":"Rajasthan","latitude":26.2389,"longitude":73.0243,"temp":19.9,"humidity":87,"rain":0.0,"pressure":986.0,"uv_index":7.25,"wind_gusts":16.9,"aqi":72,"pm10":70.5,"pm2_5":23.6,"mosquito_risk":3,"arthritis_risk":10,"migraine_risk":7,"frizz_risk":1,"updated_at":"2026-03-20T00:33:13.502594+05:30"},{"city":"Udaipur","state":"Rajasthan","latitude":24.5854,"longitude":73.7125,"temp":19.7,"humidity":59,"rain":0.0,"pressure":947.7,"uv_index":7.95,"wind_gusts":27.7,"aqi":55,"pm10":55.6,"pm2_5":17.1,"mosquito_risk":0,"arthritis_risk":5,"migraine_risk":7,"frizz_risk":0,"updated_at":"2026-03-20T00:33:13.502601+05:30"},{"city":"Kota","state":"Rajasthan","latitude":25.2138,"longitude":75.8648,"temp":21.4,"humidity":77,"rain":0.0,"pressure":981.5,"uv_index":6.25,"wind_gusts":35.6,"aqi":83,"pm10":63.8,"pm2_5":27.0,"mosquito_risk":3,"arthritis_risk":5,"migraine_risk":7,"frizz_risk":1,"updated_at":"2026-03-20T00:33:13.502608+05:30"},{"city":"Bikaner","state":"Rajasthan","latitude":28.0229,"longitude":73.3119,"temp":19.2,"humidity":88,"rain":0.0,"pressure":985.8,"uv_index":6.9,"wind_gusts":20.5,"aqi":70,"pm10":49.0,"pm2_5":20.2,"mosquito_risk":3,"arthritis_risk":10,"migraine_risk":7,"frizz_risk":1,"updated_at":"2026-03-20T00:33:13.502615+05:30"},{"city":"Ajmer","state":"Rajasthan","latitude":26.4499,"longitude":74.6399,"temp":19.2,"humidity":90,"rain":0.0,"pressure":956.6,"uv_index":6.6,"wind_gusts":28.4,"aqi":74,"pm10":48.3,"pm2_5":17.6,"mosquito_risk":3,"arthritis_risk":10,"migraine_risk":7,"frizz_risk":1,"updated_at":"2026-03-20T00:33:13.502622+05:30"},{"city":"Gwalior","state":"Madhya Pradesh","latitude":26.2183,"longitude":78.1828,"temp":21.7,"humidity":74,"rain":0.0,"pressure":985.6,"uv_index":4.55,"wind_gusts":35.6,"aqi":140,"pm10":234.7,"pm2_5":57.7,"mosquito_risk":3,"arthritis_risk":5,"migraine_risk":3,"frizz_risk":1,"updated_at":"2026-03-20T00:33:13.502630+05:30"},{"city":"Indore","state":"Madhya Pradesh","latitude":22.7196,"longitude":75.8577,"temp":21.2,"humidity":63,"rain":0.0,"pressure":949.7,"uv_index":7.9,"wind_gusts":34.6,"aqi":58,"pm10":25.8,"pm2_5":15.1,"mosquito_risk":3,"arthritis_risk":5,"migraine_risk":7,"frizz_risk":0,"updated_at":"2026-03-20T00:33:13.502637+05:30"},{"city":"Bhopal","state":"Madhya Pradesh","latitude":23.2599,"longitude":77.4126,"temp":22.1,"humidity":54,"rain":0.0,"pressure":955.1,"uv_index":7.8,"wind_gusts":38.5,"aqi":88,"pm10":36.4,"pm2_5":29.2,"mosquito_risk":0,"arthritis_risk":5,"migraine_risk":7,"frizz_risk":0,"updated_at":"2026-03-20T00:33:13.502644+05:30"},{"city":"Jabalpur","state":"Madhya Pradesh","latitude":23.1815,"longitude":79.9864,"temp":23.0,"humidity":59,"rain":0.0,"pressure":962.1,"uv_index":5.1,"wind_gusts":24.1,"aqi":77,"pm10":29.9,"pm2_5":25.1,"mosquito_risk":0,"arthritis_risk":5,"migraine_risk":3,"frizz_risk":0,"updated_at":"2026-03-20T00:33:13.502651+05:30"},{"city":"Ujjain","state":"Madhya Pradesh","latitude":23.1765,"longitude":75.7885,"temp":20.4,"humidity":66,"rain":0.0,"pressure":955.3,"uv_index":7.8,"wind_gusts":36.4,"aqi":53,"pm10":34.9,"pm2_5":15.4,"mosquito_risk":3,"arthritis_risk":5,"migraine_risk":7,"frizz_risk":0,"updated_at":"2026-03-20T00:33:13.502658+05:30"},{"city":"Visakhapatnam","state":"Andhra Pradesh","latitude":17.6868,"longitude":83.2185,"temp":24.8,"humidity":86,"rain":0.0,"pressure":1006.8,"uv_index":8.75,"wind_gusts":34.9,"aqi":64,"pm10":22.6,"pm2_5":20.5,"mosquito_risk":3,"arthritis_risk":5,"migraine_risk":4,"frizz_risk":1,"updated_at":"2026-03-20T00:33:13.502665+05:30"},{"city":"Vijayawada","state":"Andhra Pradesh","latitude":16.5062,"longitude":80.648,"temp":23.8,"humidity":88,"rain":0.0,"pressure":1005.9,"uv_index":8.85,"wind_gusts":24.5,"aqi":58,"pm10":18.8,"pm2_5":16.9,"mosquito_risk":3,"arthritis_risk":5,"migraine_risk":4,"frizz_risk":1,"updated_at":"2026-03-20T00:33:13.502673+05:30"},{"city":"Guntur","state":"Andhra Pradesh","latitude":16.3067,"longitude":80.4365,"temp":24.3,"humidity":93,"rain":0.0,"pressure":1007.1,"uv_index":8.85,"wind_gusts":22.3,"aqi":57,"pm10":15.0,"pm2_5":13.4,"mosquito_risk":3,"arthritis_risk":5,"migraine_risk":4,"frizz_risk":1,"updated_at":"2026-03-20T00:33:13.502679+05:30"},{"city":"Nellore","state":"Andhra Pradesh","latitude":14.4426,"longitude":79.9865,"temp":25.3,"humidity":89,"rain":0.0,"pressure":1008.5,"uv_index":9.0,"wind_gusts":30.2,"aqi":33,"pm10":6.6,"pm2_5":4.8,"mosquito_risk":7,"arthritis_risk":0,"migraine_risk":4,"frizz_risk":1,"updated_at":"2026-03-20T00:33:13.502688+05:30"},{"city":"Kurnool","state":"Andhra Pradesh","latitude":15.8281,"longitude":78.0373,"temp":24.9,"humidity":64,"rain":0.0,"pressure":978.7,"uv_index":8.85,"wind_gusts":19.8,"aqi":58,"pm10":24.2,"pm2_5":19.0,"mosquito_risk":3,"arthritis_risk":5,"migraine_risk":7,"frizz_risk":1,"updated_at":"2026-03-20T00:33:13.502696+05:30"},{"city":"Kakinada","state":"Andhra Pradesh","latitude":16.9891,"longitude":82.2475,"temp":22.8,"humidity":92,"rain":0.0,"pressure":1010.8,"uv_index":8.8,"wind_gusts":23.4,"aqi":37,"pm10":11.5,"pm2_5":9.3,"mosquito_risk":3,"arthritis_risk":0,"migraine_risk":4,"frizz_risk":1,"updated_at":"2026-03-20T00:33:13.502703+05:30"},{"city":"Tirupati","state":"Andhra Pradesh","latitude":13.6288,"longitude":79.4192,"temp":23.2,"humidity":88,"rain":0.0,"pressure":994.5,"uv_index":9.15,"wind_gusts":24.1,"aqi":54,"pm10":11.5,"pm2_5":10.0,"mosquito_risk":3,"arthritis_risk":5,"migraine_risk":7,"frizz_risk":1,"updated_at":"2026-03-20T00:33:13.502710+05:30"},{"city":"Warangal","state":"Telangana","latitude":17.9689,"longitude":79.5941,"temp":23.3,"humidity":81,"rain":0.0,"pressure":981.3,"uv_index":8.65,"wind_gusts":22.7,"aqi":123,"pm10":33.6,"pm2_5":30.7,"mosquito_risk":3,"arthritis_risk":5,"migraine_risk":7,"frizz_risk":1,"updated_at":"2026-03-20T00:33:13.502717+05:30"},{"city":"Nizamabad","state":"Telangana","latitude":18.6725,"longitude":78.0941,"temp":23.3,"humidity":69,"rain":0.0,"pressure":967.1,"uv_index":8.55,"wind_gusts":27.0,"aqi":105,"pm10":63.1,"pm2_5":54.6,"mosquito_risk":3,"arthritis_risk":5,"migraine_risk":7,"frizz_risk":1,"updated_at":"2026-03-20T00:33:13.502723+05:30"},{"city":"Mysore","state":"Karnataka","latitude":12.2958,"longitude":76.6396,"temp":21.8,"humidity":84,"rain":0.0,"pressure":929.6,"uv_index":9.4,"wind_gusts":28.8,"aqi":91,"pm10":27.3,"pm2_5":25.9,"mosquito_risk":3,"arthritis_risk":5,"migraine_risk":7,"frizz_risk":1,"updated_at":"2026-03-20T00:33:13.502730+05:30"},{"city":"Mangalore","state":"Karnataka","latitude":12.9141,"longitude":74.856,"temp":29.0,"humidity":75,"rain":0.0,"pressure":1008.5,"uv_index":9.05,"wind_gusts":25.9,"aqi":72,"pm10":30.9,"pm2_5":23.2,"mosquito_risk":7,"arthritis_risk":0,"migraine_risk":4,"frizz_risk":1,"updated_at":"2026-03-20T00:33:13.502737+05:30"},{"city":"Hubli-Dharwad","state":"Karnataka","latitude":15.3647,"longitude":75.124,"temp":21.1,"humidity":89,"rain":0.0,"pressure":942.2,"uv_index":9.0,"wind_gusts":38.5,"aqi":88,"pm10":44.0,"pm2_5":37.4,"mosquito_risk":3,"arthritis_risk":5,"migraine_risk":7,"frizz_risk":1,"updated_at":"2026-03-20T00:33:13.502744+05:30"},{"city":"Belgaum","state":"Karnataka","latitude":15.8497,"longitude":74.4977,"temp":19.8,"humidity":94,"rain":0.0,"pressure":926.9,"uv_index":9.1,"wind_gusts":43.6,"aqi":87,"pm10":29.1,"pm2_5":23.2,"mosquito_risk":3,"arthritis_risk":10,"migraine_risk":7,"frizz_risk":1,"updated_at":"2026-03-20T00:33:16.778618+05:30"},{"city":"Coimbatore","state":"Tamil Nadu","latitude":11.0168,"longitude":76.9558,"temp":23.9,"humidity":81,"rain":0.0,"pressure":963.0,"uv_index":9.35,"wind_gusts":34.9,"aqi":66,"pm10":23.9,"pm2_5":22.8,"mosquito_risk":3,"arthritis_risk":5,"migraine_risk":7,"frizz_risk":1,"updated_at":"2026-03-20T00:33:16.778648+05:30"},{"city":"Madurai","state":"Tamil Nadu","latitude":9.9252,"longitude":78.1198,"temp":24.5,"humidity":84,"rain":0.0,"pressure":995.3,"uv_index":9.3,"wind_gusts":23.4,"aqi":58,"pm10":40.9,"pm2_5":38.1,"mosquito_risk":3,"arthritis_risk":5,"migraine_risk":7,"frizz_risk":1,"updated_at":"2026-03-20T00:33:16.778659+05:30"},{"city":"Trichy","state":"Tamil Nadu","latitude":10.7905,"longitude":78.7047,"temp":24.2,"humidity":86,"rain":0.0,"pressure":1002.7,"uv_index":9.25,"wind_gusts":22.3,"aqi":59,"pm10":23.7,"pm2_5":22.2,"mosquito_risk":3,"arthritis_risk":5,"migraine_risk":4,"frizz_risk":1,"updated_at":"2026-03-20T00:33:16.778667+05:30"},{"city":"Salem","state":"Tamil Nadu","latitude":11.6643,"longitude":78.146,"temp":24.0,"humidity":83,"rain":0.0,"pressure":979.9,"uv_index":9.3,"wind_gusts":17.6,"aqi":87,"pm10":29.3,"pm2_5":26.6,"mosquito_risk":3,"arthritis_risk":5,"migraine_risk":7,"frizz_risk":1,"updated_at":"2026-03-20T00:33:16.778675+05:30"},{"city":"Tirunelveli","state":"Tamil Nadu","latitude":8.7139,"longitude":77.7567,"temp":24.8,"humidity":90,"rain":0.0,"pressure":1004.8,"uv_index":9.25,"wind_gusts":43.6,"aqi":66,"pm10":38.3,"pm2_5":37.4,"mosquito_risk":3,"arthritis_risk":5,"migraine_risk":4,"frizz_risk":1,"updated_at":"2026-03-20T00:33:16.778683+05:30"},{"city":"Vellore","state":"Tamil Nadu","latitude":12.9165,"longitude":79.1325,"temp":23.6,"humidity":87,"rain":0.0,"pressure":987.3,"uv_index":9.2,"wind_gusts":27.7,"aqi":69,"pm10":21.0,"pm2_5":18.6,"mosquito_risk":3,"arthritis_risk":5,"migraine_risk":7,"frizz_risk":1,"updated_at":"2026-03-20T00:33:16.778691+05:30"},{"city":"Erode","state":"Tamil Nadu","latitude":11.341,"longitude":77.7172,"temp":24.6,"humidity":82,"rain":0.0,"pressure":991.6,"uv_index":9.3,"wind_gusts":25.9,"aqi":74,"pm10":25.3,"pm2_5":22.6,"mosquito_risk":3,"arthritis_risk":5,"migraine_risk":7,"frizz_risk":1,"updated_at":"2026-03-20T00:33:16.778698+05:30"},{"city":"Kochi","state":"Kerala","latitude":9.9312,"longitude":76.2673,"temp":28.6,"humidity":78,"rain":0.0,"pressure":1010.3,"uv_index":9.15,"wind_gusts":36.7,"aqi":64,"pm10":38.4,"pm2_5":36.3,"mosquito_risk":7,"arthritis_risk":0,"migraine_risk":4,"frizz_risk":1,"updated_at":"2026-03-20T00:33:16.778706+05:30"},{"city":"Thiruvananthapuram","state":"Kerala","latitude":8.5241,"longitude":76.9366,"temp":28.7,"humidity":76,"rain":0.0,"pressure":1009.5,"uv_index":9.15,"wind_gusts":27.7,"aqi":68,"pm10":17.1,"pm2_5":15.3,"mosquito_risk":7,"arthritis_risk":0,"migraine_risk":4,"frizz_risk":1,"updated_at":"2026-03-20T00:33:16.778714+05:30"},{"city":"Kozhikode","state":"Kerala","latitude":11.2588,"longitude":75.7804,"temp":28.4,"humidity":81,"rain":0.0,"pressure":1009.6,"uv_index":9.05,"wind_gusts":31.7,"aqi":51,"pm10":24.7,"pm2_5":15.2,"mosquito_risk":7,"arthritis_risk":0,"migraine_risk":4,"frizz_risk":1,"updated_at":"2026-03-20T00:33:16.778721+05:30"},{"city":"Thrissur","state":"Kerala","latitude":10.5276,"longitude":76.2144,"temp":26.6,"humidity":88,"rain":0.0,"pressure":1008.7,"uv_index":9.15,"wind_gusts":37.8,"aqi":59,"pm10":46.9,"pm2_5":44.7,"mosquito_risk":7,"arthritis_risk":0,"migraine_risk":4,"frizz_risk":1,"updated_at":"2026-03-20T00:33:16.778730+05:30"},{"city":"Kannur","state":"Kerala","latitude":11.8745,"longitude":75.3704,"temp":27.4,"humidity":82,"rain":0.0,"pressure":1009.1,"uv_index":9.05,"wind_gusts":38.2,"aqi":59,"pm10":27.6,"pm2_5":20.3,"mosquito_risk":7,"arthritis_risk":0,"migraine_risk":4,"frizz_risk":1,"updated_at":"2026-03-20T00:33:16.778738+05:30"},{"city":"Patna","state":"Bihar","latitude":25.5941,"longitude":85.1376,"temp":24.4,"humidity":77,"rain":0.0,"pressure":1002.4,"uv_index":7.7,"wind_gusts":36.0,"aqi":160,"pm10":109.2,"pm2_5":94.1,"mosquito_risk":3,"arthritis_risk":5,"migraine_risk":4,"frizz_risk":1,"updated_at":"2026-03-20T00:33:16.778746+05:30"},{"city":"Gaya","state":"Bihar","latitude":24.7914,"longitude":85.0002,"temp":23.1,"humidity":73,"rain":0.0,"pressure":995.6,"uv_index":7.8,"wind_gusts":34.9,"aqi":116,"pm10":75.0,"pm2_5":65.9,"mosquito_risk":3,"arthritis_risk":5,"migraine_risk":7,"frizz_risk":1,"updated_at":"2026-03-20T00:33:16.778754+05:30"},{"city":"Muzaffarpur","state":"Bihar","latitude":26.1209,"longitude":85.3647,"temp":22.2,"humidity":84,"rain":0.0,"pressure":1002.1,"uv_index":7.65,"wind_gusts":33.5,"aqi":163,"pm10":138.8,"pm2_5":120.6,"mosquito_risk":3,"arthritis_risk":5,"migraine_risk":4,"frizz_risk":1,"updated_at":"2026-03-20T00:33:16.778761+05:30"},{"city":"Bhagalpur","state":"Bihar","latitude":25.2425,"longitude":87.0117,"temp":23.2,"humidity":88,"rain":0.0,"pressure":1003.6,"uv_index":7.75,"wind_gusts":33.1,"aqi":138,"pm10":71.2,"pm2_5":66.4,"mosquito_risk":3,"arthritis_risk":5,"migraine_risk":4,"frizz_risk":1,"updated_at":"2026-03-20T00:33:16.778768+05:30"},{"city":"Ranchi","state":"Jharkhand","latitude":23.3441,"longitude":85.3096,"temp":20.4,"humidity":73,"rain":0.0,"pressure":939.7,"uv_index":6.9,"wind_gusts":28.8,"aqi":93,"pm10":44.8,"pm2_5":39.3,"mosquito_risk":3,"arthritis_risk":5,"migraine_risk":7,"frizz_risk":0,"updated_at":"2026-03-20T00:33:16.778775+05:30"},{"city":"Jamshedpur","state":"Jharkhand","latitude":22.8046,"longitude":86.2029,"temp":25.6,"humidity":64,"rain":0.0,"pressure":993.5,"uv_index":7.85,"wind_gusts":40.7,"aqi":122,"pm10":50.2,"pm2_5":42.5,"mosquito_risk":7,"arthritis_risk":5,"migraine_risk":7,"frizz_risk":1,"updated_at":"2026-03-20T00:33:16.778783+05:30"},{"city":"Dhanbad","state":"Jharkhand","latitude":23.7957,"longitude":86.4304,"temp":25.3,"humidity":61,"rain":0.0,"pressure":982.1,"uv_index":8.2,"wind_gusts":41.8,"aqi":155,"pm10":59.8,"pm2_5":53.1,"mosquito_risk":7,"arthritis_risk":5,"migraine_risk":7,"frizz_risk":1,"updated_at":"2026-03-20T00:33:16.778790+05:30"},{"city":"Bokaro","state":"Jharkhand","latitude":23.6693,"longitude":86.1511,"temp":24.2,"humidity":64,"rain":0.0,"pressure":986.2,"uv_index":8.2,"wind_gusts":37.4,"aqi":136,"pm10":54.6,"pm2_5":46.2,"mosquito_risk":3,"arthritis_risk":5,"migraine_risk":7,"frizz_risk":1,"updated_at":"2026-03-20T00:33:16.778797+05:30"},{"city":"Bhubaneswar","state":"Odisha","latitude":20.2961,"longitude":85.8245,"temp":25.0,"humidity":94,"rain":0.0,"pressure":1005.3,"uv_index":8.55,"wind_gusts":26.6,"aqi":75,"pm10":17.1,"pm2_5":15.2,"mosquito_risk":7,"arthritis_risk":5,"migraine_risk":4,"frizz_risk":1,"updated_at":"2026-03-20T00:33:16.778804+05:30"},{"city":"Cuttack","state":"Odisha","latitude":20.4625,"longitude":85.8828,"temp":24.3,"humidity":94,"rain":0.0,"pressure":1007.3,"uv_index":8.6,"wind_gusts":36.7,"aqi":75,"pm10":17.1,"pm2_5":15.2,"mosquito_risk":3,"arthritis_risk":5,"migraine_risk":4,"frizz_risk":1,"updated_at":"2026-03-20T00:33:16.778811+05:30"},{"city":"Rourkela","state":"Odisha","latitude":22.2604,"longitude":84.8536,"temp":24.2,"humidity":72,"rain":0.0,"pressure":988.0,"uv_index":8.2,"wind_gusts":27.0,"aqi":119,"pm10":48.1,"pm2_5":42.7,"mosquito_risk":3,"arthritis_risk":5,"migraine_risk":7,"frizz_risk":1,"updated_at":"2026-03-20T00:33:16.778819+05:30"},{"city":"Raipur","state":"Chhattisgarh","latitude":21.2514,"longitude":81.6296,"temp":23.6,"humidity":67,"rain":0.0,"pressure":977.5,"uv_index":7.3,"wind_gusts":37.1,"aqi":147,"pm10":58.0,"pm2_5":53.2,"mosquito_risk":3,"arthritis_risk":5,"migraine_risk":7,"frizz_risk":1,"updated_at":"2026-03-20T00:33:16.778826+05:30"},{"city":"Bhilai","state":"Chhattisgarh","latitude":21.1938,"longitude":81.3509,"temp":23.4,"humidity":70,"rain":0.0,"pressure":977.7,"uv_index":6.95,"wind_gusts":34.6,"aqi":150,"pm10":56.8,"pm2_5":52.2,"mosquito_risk":3,"arthritis_risk":5,"migraine_risk":7,"frizz_risk":1,"updated_at":"2026-03-20T00:33:16.778833+05:30"},{"city":"Guwahati","state":"Assam","latitude":26.1158,"longitude":91.7086,"temp":22.9,"humidity":84,"rain":0.0,"pressure":1005.8,"uv_index":7.6,"wind_gusts":29.5,"aqi":86,"pm10":44.6,"pm2_5":37.1,"mosquito_risk":3,"arthritis_risk":5,"migraine_risk":4,"frizz_risk":1,"updated_at":"2026-03-20T00:33:16.778841+05:30"},{"city":"Agartala","state":"Tripura","latitude":23.8315,"longitude":91.2868,"temp":23.1,"humidity":83,"rain":0.0,"pressure":1008.8,"uv_index":7.1,"wind_gusts":30.6,"aqi":92,"pm10":48.4,"pm2_5":46.8,"mosquito_risk":3,"arthritis_risk":0,"migraine_risk":4,"frizz_risk":1,"updated_at":"2026-03-20T00:33:16.778848+05:30"},{"city":"Shillong","state":"Meghalaya","latitude":25.5788,"longitude":91.8933,"temp":11.2,"humidity":87,"rain":0.0,"pressure":856.5,"uv_index":6.9,"wind_gusts":33.5,"aqi":74,"pm10":36.9,"pm2_5":32.0,"mosquito_risk":3,"arthritis_risk":10,"migraine_risk":7,"frizz_risk":0,"updated_at":"2026-03-20T00:33:16.778856+05:30"},{"city":"Imphal","state":"Manipur","latitude":24.817,"longitude":93.9368,"temp":16.4,"humidity":82,"rain":0.0,"pressure":925.7,"uv_index":7.75,"wind_gusts":42.5,"aqi":90,"pm10":57.0,"pm2_5":49.9,"mosquito_risk":3,"arthritis_risk":10,"migraine_risk":7,"frizz_risk":0,"updated_at":"2026-03-20T00:33:16.778863+05:30"},{"city":"Aizawl","state":"Mizoram","latitude":23.7271,"longitude":92.7176,"temp":16.8,"humidity":77,"rain":0.0,"pressure":894.0,"uv_index":7.2,"wind_gusts":25.2,"aqi":77,"pm10":45.3,"pm2_5":39.1,"mosquito_risk":3,"arthritis_risk":5,"migraine_risk":7,"frizz_risk":0,"updated_at":"2026-03-20T00:33:16.778870+05:30"},{"city":"Kohima","state":"Nagaland","latitude":25.6701,"longitude":94.1077,"temp":13.3,"humidity":74,"rain":0.0,"pressure":856.0,"uv_index":7.85,"wind_gusts":57.2,"aqi":78,"pm10":54.8,"pm2_5":36.8,"mosquito_risk":3,"arthritis_risk":5,"migraine_risk":7,"frizz_risk":0,"updated_at":"2026-03-20T00:33:16.778877+05:30"},{"city":"Gangtok","state":"Sikkim","latitude":27.3314,"longitude":88.6138,"temp":12.5,"humidity":95,"rain":0.0,"pressure":837.6,"uv_index":7.95,"wind_gusts":18.7,"aqi":95,"pm10":45.2,"pm2_5":35.4,"mosquito_risk":3,"arthritis_risk":10,"migraine_risk":7,"frizz_risk":0,"updated_at":"2026-03-20T00:33:16.778884+05:30"},{"city":"Siliguri","state":"West Bengal","latitude":26.7271,"longitude":88.3953,"temp":18.4,"humidity":84,"rain":0.0,"pressure":997.7,"uv_index":7.65,"wind_gusts":21.2,"aqi":140,"pm10":56.8,"pm2_5":44.1,"mosquito_risk":3,"arthritis_risk":10,"migraine_risk":7,"frizz_risk":0,"updated_at":"2026-03-20T00:33:20.057043+05:30"},{"city":"Durgapur","state":"West Bengal","latitude":23.5204,"longitude":87.3119,"temp":24.2,"humidity":79,"rain":0.0,"pressure":997.6,"uv_index":8.15,"wind_gusts":40.3,"aqi":130,"pm10":47.5,"pm2_5":41.4,"mosquito_risk":3,"arthritis_risk":5,"migraine_risk":7,"frizz_risk":1,"updated_at":"2026-03-20T00:33:20.057074+05:30"},{"city":"Asansol","state":"West Bengal","latitude":23.6739,"longitude":86.9524,"temp":24.8,"humidity":75,"rain":0.0,"pressure":996.0,"uv_index":8.15,"wind_gusts":46.8,"aqi":142,"pm10":51.5,"pm2_5":45.5,"mosquito_risk":3,"arthritis_risk":5,"migraine_risk":7,"frizz_risk":1,"updated_at":"2026-03-20T00:33:20.057086+05:30"},{"city":"Pondicherry","state":"Puducherry","latitude":11.9139,"longitude":79.8145,"temp":25.7,"humidity":92,"rain":0.0,"pressure":1010.7,"uv_index":9.1,"wind_gusts":24.8,"aqi":34,"pm10":5.5,"pm2_5":3.9,"mosquito_risk":7,"arthritis_risk":0,"migraine_risk":4,"frizz_risk":1,"updated_at":"2026-03-20T00:33:20.057096+05:30"},{"city":"Port Blair","state":"Andaman and Nicobar Islands","latitude":11.6234,"longitude":92.7265,"temp":27.7,"humidity":79,"rain":0.0,"pressure":1008.2,"uv_index":9.1,"wind_gusts":12.2,"aqi":48,"pm10":14.3,"pm2_5":10.8,"mosquito_risk":7,"arthritis_risk":0,"migraine_risk":4,"frizz_risk":1,"updated_at":"2026-03-20T00:33:20.057104+05:30"},{"city":"Haridwar","state":"Uttarakhand","latitude":29.9457,"longitude":78.1642,"temp":18.5,"humidity":74,"rain":0.0,"pressure":977.7,"uv_index":2.35,"wind_gusts":22.0,"aqi":73,"pm10":36.3,"pm2_5":26.7,"mosquito_risk":3,"arthritis_risk":5,"migraine_risk":3,"frizz_risk":0,"updated_at":"2026-03-20T00:33:20.057113+05:30"},{"city":"Rishikesh","state":"Uttarakhand","latitude":30.0869,"longitude":78.2676,"temp":18.5,"humidity":68,"rain":0.0,"pressure":970.5,"uv_index":2.45,"wind_gusts":23.4,"aqi":65,"pm10":28.6,"pm2_5":14.3,"mosquito_risk":3,"arthritis_risk":5,"migraine_risk":3,"frizz_risk":0,"updated_at":"2026-03-20T00:33:20.057121+05:30"},{"city":"Nainital","state":"Uttarakhand","latitude":29.3919,"longitude":79.4542,"temp":15.9,"humidity":53,"rain":0.0,"pressure":806.1,"uv_index":1.75,"wind_gusts":51.1,"aqi":68,"pm10":28.3,"pm2_5":17.1,"mosquito_risk":0,"arthritis_risk":5,"migraine_risk":3,"frizz_risk":0,"updated_at":"2026-03-20T00:33:20.057129+05:30"},{"city":"Mussoorie","state":"Uttarakhand","latitude":30.4599,"longitude":78.0664,"temp":12.0,"humidity":71,"rain":0.0,"pressure":802.6,"uv_index":0.6,"wind_gusts":50.0,"aqi":65,"pm10":27.1,"pm2_5":16.0,"mosquito_risk":3,"arthritis_risk":5,"migraine_risk":3,"frizz_risk":0,"updated_at":"2026-03-20T00:33:20.057137+05:30"},{"city":"Dharamshala","state":"Himachal Pradesh","latitude":32.219,"longitude":76.3234,"temp":13.2,"humidity":74,"rain":0.2,"pressure":868.3,"uv_index":1.45,"wind_gusts":22.0,"aqi":42,"pm10":3.4,"pm2_5":3.3,"mosquito_risk":6,"arthritis_risk":5,"migraine_risk":3,"frizz_risk":0,"updated_at":"2026-03-20T00:33:20.057145+05:30"},{"city":"Dalhousie","state":"Himachal Pradesh","latitude":32.5387,"longitude":75.971,"temp":10.4,"humidity":67,"rain":0.0,"pressure":801.6,"uv_index":2.15,"wind_gusts":25.2,"aqi":65,"pm10":24.2,"pm2_5":17.0,"mosquito_risk":3,"arthritis_risk":5,"migraine_risk":3,"frizz_risk":0,"updated_at":"2026-03-20T00:33:20.057154+05:30"},{"city":"Patiala","state":"Punjab","latitude":30.3398,"longitude":76.3869,"temp":15.9,"humidity":94,"rain":0.0,"pressure":981.8,"uv_index":1.1,"wind_gusts":17.3,"aqi":90,"pm10":66.1,"pm2_5":31.4,"mosquito_risk":3,"arthritis_risk":10,"migraine_risk":3,"frizz_risk":0,"updated_at":"2026-03-20T00:33:20.057162+05:30"},{"city":"Bhatinda","state":"Punjab","latitude":30.211,"longitude":74.9455,"temp":16.7,"humidity":98,"rain":0.0,"pressure":987.4,"uv_index":3.95,"wind_gusts":24.1,"aqi":90,"pm10":71.9,"pm2_5":48.3,"mosquito_risk":3,"arthritis_risk":10,"migraine_risk":3,"frizz_risk":1,"updated_at":"2026-03-20T00:33:20.057170+05:30"},{"city":"Rohtak","state":"Haryana","latitude":28.8955,"longitude":76.6066,"temp":16.7,"humidity":96,"rain":0.0,"pressure":985.7,"uv_index":2.1,"wind_gusts":23.0,"aqi":133,"pm10":84.8,"pm2_5":46.3,"mosquito_risk":3,"arthritis_risk":10,"migraine_risk":3,"frizz_risk":1,"updated_at":"2026-03-20T00:33:20.057178+05:30"},{"city":"Panipat","state":"Haryana","latitude":29.3909,"longitude":76.9635,"temp":16.2,"humidity":92,"rain":0.0,"pressure":983.9,"uv_index":1.85,"wind_gusts":14.0,"aqi":119,"pm10":83.1,"pm2_5":47.8,"mosquito_risk":3,"arthritis_risk":10,"migraine_risk":3,"frizz_risk":0,"updated_at":"2026-03-20T00:33:20.057186+05:30"},{"city":"Mathura","state":"Uttar Pradesh","latitude":27.4924,"longitude":77.6737,"temp":19.2,"humidity":93,"rain":0.0,"pressure":990.0,"uv_index":5.75,"wind_gusts":24.8,"aqi":122,"pm10":138.8,"pm2_5":45.8,"mosquito_risk":3,"arthritis_risk":10,"migraine_risk":3,"frizz_risk":1,"updated_at":"2026-03-20T00:33:20.057195+05:30"},{"city":"Vrindavan","state":"Uttar Pradesh","latitude":27.5823,"longitude":77.7027,"temp":19.1,"humidity":91,"rain":0.1,"pressure":990.5,"uv_index":5.65,"wind_gusts":25.9,"aqi":122,"pm10":138.8,"pm2_5":45.8,"mosquito_risk":6,"arthritis_risk":10,"migraine_risk":3,"frizz_risk":1,"updated_at":"2026-03-20T00:33:20.057203+05:30"},{"city":"Ayodhya","state":"Uttar Pradesh","latitude":26.7922,"longitude":82.1998,"temp":22.0,"humidity":52,"rain":0.0,"pressure":995.9,"uv_index":6.55,"wind_gusts":44.3,"aqi":110,"pm10":42.4,"pm2_5":29.7,"mosquito_risk":0,"arthritis_risk":5,"migraine_risk":7,"frizz_risk":0,"updated_at":"2026-03-20T00:33:20.057211+05:30"},{"city":"Ratlam","state":"Madhya Pradesh","latitude":23.3315,"longitude":75.0367,"temp":21.9,"humidity":72,"rain":0.0,"pressure":956.0,"uv_index":7.75,"wind_gusts":33.5,"aqi":49,"pm10":39.9,"pm2_5":15.9,"mosquito_risk":3,"arthritis_risk":5,"migraine_risk":7,"frizz_risk":1,"updated_at":"2026-03-20T00:33:20.057220+05:30"},{"city":"Sagar","state":"Madhya Pradesh","latitude":23.8388,"longitude":78.7378,"temp":22.9,"humidity":54,"rain":0.0,"pressure":951.3,"uv_index":6.9,"wind_gusts":28.8,"aqi":63,"pm10":34.2,"pm2_5":23.9,"mosquito_risk":0,"arthritis_risk":5,"migraine_risk":7,"frizz_risk":0,"updated_at":"2026-03-20T00:33:20.057228+05:30"},{"city":"Satna","state":"Madhya Pradesh","latitude":24.6005,"longitude":80.8322,"temp":24.6,"humidity":47,"rain":0.0,"pressure":972.0,"uv_index":6.05,"wind_gusts":40.7,"aqi":71,"pm10":32.8,"pm2_5":25.2,"mosquito_risk":0,"arthritis_risk":5,"migraine_risk":7,"frizz_risk":0,"updated_at":"2026-03-20T00:33:20.057233+05:30"},{"city":"Akola","state":"Maharashtra","latitude":20.7002,"longitude":77.0082,"temp":22.0,"humidity":77,"rain":0.0,"pressure":978.2,"uv_index":8.2,"wind_gusts":44.6,"aqi":96,"pm10":55.4,"pm2_5":43.2,"mosquito_risk":3,"arthritis_risk":5,"migraine_risk":7,"frizz_risk":1,"updated_at":"2026-03-20T00:33:20.057240+05:30"},{"city":"Amravati","state":"Maharashtra","latitude":20.9374,"longitude":77.7796,"temp":21.9,"humidity":78,"rain":0.0,"pressure":970.6,"uv_index":8.0,"wind_gusts":29.9,"aqi":100,"pm10":54.6,"pm2_5":41.2,"mosquito_risk":3,"arthritis_risk":5,"migraine_risk":7,"frizz_risk":1,"updated_at":"2026-03-20T00:33:20.057246+05:30"},{"city":"Latur","state":"Maharashtra","latitude":18.4088,"longitude":76.5604,"temp":20.2,"humidity":77,"rain":0.0,"pressure":940.9,"uv_index":8.6,"wind_gusts":27.0,"aqi":89,"pm10":58.0,"pm2_5":43.8,"mosquito_risk":3,"arthritis_risk":5,"migraine_risk":7,"frizz_risk":1,"updated_at":"2026-03-20T00:33:20.057252+05:30"},{"city":"Nanded","state":"Maharashtra","latitude":19.1383,"longitude":77.3091,"temp":22.7,"humidity":72,"rain":0.0,"pressure":970.8,"uv_index":8.4,"wind_gusts":23.4,"aqi":95,"pm10":47.5,"pm2_5":38.2,"mosquito_risk":3,"arthritis_risk":5,"migraine_risk":7,"frizz_risk":1,"updated_at":"2026-03-20T00:33:20.057258+05:30"},{"city":"Gulbarga","state":"Karnataka","latitude":17.3297,"longitude":76.8343,"temp":23.3,"humidity":63,"rain":0.0,"pressure":960.4,"uv_index":8.7,"wind_gusts":23.4,"aqi":86,"pm10":47.6,"pm2_5":34.3,"mosquito_risk":3,"arthritis_risk":5,"migraine_risk":7,"frizz_risk":0,"updated_at":"2026-03-20T00:33:20.057264+05:30"},{"city":"Bidar","state":"Karnataka","latitude":17.9104,"longitude":77.5199,"temp":22.4,"humidity":67,"rain":0.0,"pressure":937.2,"uv_index":8.65,"wind_gusts":22.3,"aqi":88,"pm10":62.9,"pm2_5":51.5,"mosquito_risk":3,"arthritis_risk":5,"migraine_risk":7,"frizz_risk":0,"updated_at":"2026-03-20T00:33:20.057270+05:30"},{"city":"Hospet","state":"Karnataka","latitude":15.2689,"longitude":76.3909,"temp":25.2,"humidity":64,"rain":0.0,"pressure":957.9,"uv_index":8.95,"wind_gusts":24.1,"aqi":88,"pm10":39.5,"pm2_5":31.3,"mosquito_risk":7,"arthritis_risk":5,"migraine_risk":7,"frizz_risk":1,"updated_at":"2026-03-20T00:33:20.057276+05:30"},{"city":"Tirupur","state":"Tamil Nadu","latitude":11.1085,"longitude":77.3411,"temp":25.6,"humidity":74,"rain":0.0,"pressure":977.0,"uv_index":9.4,"wind_gusts":30.6,"aqi":74,"pm10":27.2,"pm2_5":25.4,"mosquito_risk":7,"arthritis_risk":5,"migraine_risk":7,"frizz_risk":1,"updated_at":"2026-03-20T00:33:20.057282+05:30"},{"city":"Alappuzha","state":"Kerala","latitude":9.4981,"longitude":76.3388,"temp":28.5,"humidity":77,"rain":0.0,"pressure":1010.5,"uv_index":9.15,"wind_gusts":31.7,"aqi":59,"pm10":32.0,"pm2_5":28.2,"mosquito_risk":7,"arthritis_risk":0,"migraine_risk":4,"frizz_risk":1,"updated_at":"2026-03-20T00:33:20.057287+05:30"},{"city":"Munnar","state":"Kerala","latitude":10.0889,"longitude":77.0595,"temp":19.4,"humidity":99,"rain":0.0,"pressure":857.5,"uv_index":9.65,"wind_gusts":37.8,"aqi":56,"pm10":27.6,"pm2_5":26.3,"mosquito_risk":3,"arthritis_risk":10,"migraine_risk":7,"frizz_risk":1,"updated_at":"2026-03-20T00:33:20.057294+05:30"},{"city":"Silchar","state":"Assam","latitude":24.8333,"longitude":92.7789,"temp":22.5,"humidity":81,"rain":0.0,"pressure":1008.1,"uv_index":7.3,"wind_gusts":23.0,"aqi":98,"pm10":56.5,"pm2_5":52.3,"mosquito_risk":3,"arthritis_risk":0,"migraine_risk":4,"frizz_risk":1,"updated_at":"2026-03-20T00:33:20.057299+05:30"},{"city":"Dibrugarh","state":"Assam","latitude":27.4728,"longitude":94.912,"temp":19.8,"humidity":89,"rain":0.0,"pressure":1000.4,"uv_index":6.2,"wind_gusts":9.0,"aqi":87,"pm10":35.7,"pm2_5":30.5,"mosquito_risk":3,"arthritis_risk":10,"migraine_risk":4,"frizz_risk":1,"updated_at":"2026-03-20T00:33:20.057305+05:30"}]