[{"city":"Delhi","state":"Delhi","latitude":28.6139,"longitude":77.209,"temp":28.5,"humidity":62,"rain":0.0,"pressure":989.0,"uv_index":5.95,"wind_gusts":18.7,"aqi":168,"pm10":259.8,"pm2_5":114.8,"mosquito_risk":7,"arthritis_risk":5,"migraine_risk":3,"frizz_risk":1,"updated_at":"2026-03-07T11:09:37.279664+05:30"},{"city":"Mumbai","state":"Maharashtra","latitude":19.076,"longitude":72.8777,"temp":27.1,"humidity":73,"rain":0.0,"pressure":1012.2,"uv_index":7.5,"wind_gusts":24.8,"aqi":100,"pm10":43.4,"pm2_5":39.9,"mosquito_risk":7,"arthritis_risk":0,"migraine_risk":4,"frizz_risk":1,"updated_at":"2026-03-07T11:09:37.279722+05:30"},{"city":"Bangalore","state":"Karnataka","latitude":12.9716,"longitude":77.5946,"temp":27.3,"humidity":59,"rain":0.0,"pressure":915.3,"uv_index":9.2,"wind_gusts":24.8,"aqi":113,"pm10":41.9,"pm2_5":39.5,"mosquito_risk":4,"arthritis_risk":5,"migraine_risk":7,"frizz_risk":1,"updated_at":"2026-03-07T11:09:37.279739+05:30"},{"city":"Hyderabad","state":"Telangana","latitude":17.385,"longitude":78.4867,"temp":34.6,"humidity":19,"rain":0.0,"pressure":957.0,"uv_index":8.5,"wind_gusts":28.1,"aqi":97,"pm10":27.1,"pm2_5":19.0,"mosquito_risk":0,"arthritis_risk":5,"migraine_risk":7,"frizz_risk":0,"updated_at":"2026-03-07T11:09:37.279750+05:30"},{"city":"Chennai","state":"Tamil Nadu","latitude":13.0827,"longitude":80.2707,"temp":32.3,"humidity":55,"rain":0.0,"pressure":1010.5,"uv_index":8.9,"wind_gusts":34.9,"aqi":94,"pm10":40.9,"pm2_5":34.3,"mosquito_risk":0,"arthritis_risk":0,"migraine_risk":4,"frizz_risk":1,"updated_at":"2026-03-07T11:09:37.279765+05:30"},{"city":"Kolkata","state":"West Bengal","latitude":22.5726,"longitude":88.3639,"temp":29.6,"humidity":62,"rain":0.0,"pressure":1011.5,"uv_index":7.85,"wind_gusts":23.4,"aqi":139,"pm10":69.8,"pm2_5":53.0,"mosquito_risk":7,"arthritis_risk":0,"migraine_risk":4,"frizz_risk":1,"updated_at":"2026-03-07T11:09:37.279775+05:30"},{"city":"Pune","state":"Maharashtra","latitude":18.5204,"longitude":73.8567,"temp":33.0,"humidity":25,"rain":0.0,"pressure":952.8,"uv_index":8.05,"wind_gusts":25.2,"aqi":107,"pm10":26.4,"pm2_5":24.0,"mosquito_risk":0,"arthritis_risk":5,"migraine_risk":7,"frizz_risk":0,"updated_at":"2026-03-07T11:09:37.279784+05:30"},{"city":"Ahmedabad","state":"Gujarat","latitude":23.0225,"longitude":72.5714,"temp":28.8,"humidity":56,"rain":0.0,"pressure":1007.9,"uv_index":7.3,"wind_gusts":13.0,"aqi":105,"pm10":34.8,"pm2_5":24.3,"mosquito_risk":4,"arthritis_risk":5,"migraine_risk":4,"frizz_risk":1,"updated_at":"2026-03-07T11:09:37.279792+05:30"},{"city":"Jaipur","state":"Rajasthan","latitude":26.9124,"longitude":75.7873,"temp":32.2,"humidity":29,"rain":0.0,"pressure":966.0,"uv_index":6.75,"wind_gusts":18.4,"aqi":90,"pm10":70.5,"pm2_5":25.8,"mosquito_risk":0,"arthritis_risk":5,"migraine_risk":7,"frizz_risk":0,"updated_at":"2026-03-07T11:09:37.279801+05:30"},{"city":"Lucknow","state":"Uttar Pradesh","latitude":26.8467,"longitude":80.9462,"temp":29.6,"humidity":51,"rain":0.0,"pressure":999.6,"uv_index":6.5,"wind_gusts":16.9,"aqi":163,"pm10":109.0,"pm2_5":76.8,"mosquito_risk":4,"arthritis_risk":5,"migraine_risk":7,"frizz_risk":1,"updated_at":"2026-03-07T11:09:37.279810+05:30"},{"city":"Kanpur","state":"Uttar Pradesh","latitude":26.4499,"longitude":80.3319,"temp":29.1,"humidity":56,"rain":0.0,"pressure":997.9,"uv_index":6.5,"wind_gusts":13.7,"aqi":162,"pm10":126.2,"pm2_5":73.1,"mosquito_risk":4,"arthritis_risk":5,"migraine_risk":7,"frizz_risk":1,"updated_at":"2026-03-07T11:09:37.279818+05:30"},{"city":"Chandigarh","state":"Chandigarh","latitude":30.7333,"longitude":76.7794,"temp":27.7,"humidity":65,"rain":0.0,"pressure":974.6,"uv_index":5.9,"wind_gusts":21.2,"aqi":156,"pm10":113.6,"pm2_5":73.6,"mosquito_risk":7,"arthritis_risk":5,"migraine_risk":3,"frizz_risk":1,"updated_at":"2026-03-07T11:09:37.279827+05:30"},{"city":"Srinagar","state":"Jammu and Kashmir","latitude":34.0837,"longitude":74.7973,"temp":14.4,"humidity":70,"rain":0.0,"pressure":847.5,"uv_index":5.6,"wind_gusts":15.8,"aqi":119,"pm10":46.1,"pm2_5":28.6,"mosquito_risk":3,"arthritis_risk":5,"migraine_risk":3,"frizz_risk":0,"updated_at":"2026-03-07T11:09:37.279835+05:30"},{"city":"Jammu","state":"Jammu and Kashmir","latitude":32.7266,"longitude":74.857,"temp":26.3,"humidity":65,"rain":0.0,"pressure":978.3,"uv_index":5.35,"wind_gusts":14.4,"aqi":130,"pm10":48.1,"pm2_5":39.2,"mosquito_risk":7,"arthritis_risk":5,"migraine_risk":3,"frizz_risk":1,"updated_at":"2026-03-07T11:09:37.279843+05:30"},{"city":"Amritsar","state":"Punjab","latitude":31.634,"longitude":74.8723,"temp":27.2,"humidity":67,"rain":0.0,"pressure":986.4,"uv_index":6.3,"wind_gusts":18.7,"aqi":154,"pm10":78.7,"pm2_5":60.5,"mosquito_risk":7,"arthritis_risk":5,"migraine_risk":7,"frizz_risk":1,"updated_at":"2026-03-07T11:09:37.279853+05:30"},{"city":"Ludhiana","state":"Punjab","latitude":30.901,"longitude":75.8573,"temp":27.5,"humidity":68,"rain":0.0,"pressure":984.7,"uv_index":6.1,"wind_gusts":16.2,"aqi":168,"pm10":169.5,"pm2_5":100.1,"mosquito_risk":7,"arthritis_risk":5,"migraine_risk":7,"frizz_risk":1,"updated_at":"2026-03-07T11:09:37.279862+05:30"},{"city":"Jalandhar","state":"Punjab","latitude":31.326,"longitude":75.5762,"temp":27.3,"humidity":69,"rain":0.0,"pressure":985.8,"uv_index":6.3,"wind_gusts":18.4,"aqi":164,"pm10":143.4,"pm2_5":88.9,"mosquito_risk":7,"arthritis_risk":5,"migraine_risk":7,"frizz_risk":1,"updated_at":"2026-03-07T11:09:37.279869+05:30"},{"city":"Dehradun","state":"Uttarakhand","latitude":30.6284,"longitude":78.0322,"temp":21.0,"humidity":59,"rain":0.0,"pressure":836.2,"uv_index":6.2,"wind_gusts":28.8,"aqi":103,"pm10":28.1,"pm2_5":20.2,"mosquito_risk":0,"arthritis_risk":5,"migraine_risk":7,"frizz_risk":0,"updated_at":"2026-03-07T11:09:37.279879+05:30"},{"city":"Shimla","state":"Himachal Pradesh","latitude":31.1048,"longitude":77.1734,"temp":20.6,"humidity":51,"rain":0.0,"pressure":791.7,"uv_index":6.3,"wind_gusts":40.0,"aqi":119,"pm10":41.4,"pm2_5":25.0,"mosquito_risk":0,"arthritis_risk":5,"migraine_risk":7,"frizz_risk":0,"updated_at":"2026-03-07T11:09:37.279886+05:30"},{"city":"Manali","state":"Himachal Pradesh","latitude":32.2396,"longitude":77.1887,"temp":23.6,"humidity":17,"rain":0.0,"pressure":827.4,"uv_index":7.2,"wind_gusts":46.4,"aqi":56,"pm10":20.8,"pm2_5":12.3,"mosquito_risk":0,"arthritis_risk":5,"migraine_risk":7,"frizz_risk":1,"updated_at":"2026-03-07T11:09:37.279909+05:30"},{"city":"Gurgaon","state":"Haryana","latitude":28.4595,"longitude":77.0266,"temp":28.5,"humidity":66,"rain":0.0,"pressure":987.4,"uv_index":6.05,"wind_gusts":11.5,"aqi":199,"pm10":439.6,"pm2_5":113.6,"mosquito_risk":7,"arthritis_risk":5,"migraine_risk":7,"frizz_risk":1,"updated_at":"2026-03-07T11:09:37.279918+05:30"},{"city":"Noida","state":"Uttar Pradesh","latitude":28.5355,"longitude":77.391,"temp":28.6,"humidity":63,"rain":0.0,"pressure":990.7,"uv_index":5.95,"wind_gusts":17.6,"aqi":199,"pm10":439.6,"pm2_5":113.6,"mosquito_risk":7,"arthritis_risk":5,"migraine_risk":3,"frizz_risk":1,"updated_at":"2026-03-07T11:09:37.279925+05:30"},{"city":"Ghaziabad","state":"Uttar Pradesh","latitude":28.6692,"longitude":77.4538,"temp":27.3,"humidity":74,"rain":0.0,"pressure":988.9,"uv_index":5.95,"wind_gusts":16.9,"aqi":169,"pm10":176.5,"pm2_5":96.4,"mosquito_risk":7,"arthritis_risk":5,"migraine_risk":3,"frizz_risk":1,"updated_at":"2026-03-07T11:09:37.279932+05:30"},{"city":"Faridabad","state":"Haryana","latitude":28.4089,"longitude":77.3178,"temp":28.0,"humidity":69,"rain":0.0,"pressure":989.9,"uv_index":6.0,"wind_gusts":13.3,"aqi":199,"pm10":439.6,"pm2_5":113.6,"mosquito_risk":7,"arthritis_risk":5,"migraine_risk":3,"frizz_risk":1,"updated_at":"2026-03-07T11:09:37.279940+05:30"},{"city":"Meerut","state":"Uttar Pradesh","latitude":28.9845,"longitude":77.7064,"temp":28.1,"humidity":67,"rain":0.0,"pressure":987.5,"uv_index":5.8,"wind_gusts":20.2,"aqi":169,"pm10":176.5,"pm2_5":96.4,"mosquito_risk":7,"arthritis_risk":5,"migraine_risk":3,"frizz_risk":1,"updated_at":"2026-03-07T11:09:37.279950+05:30"},{"city":"Agra","state":"Uttar Pradesh","latitude":27.1767,"longitude":78.0081,"temp":29.8,"humidity":59,"rain":0.0,"pressure":994.0,"uv_index":6.3,"wind_gusts":15.5,"aqi":169,"pm10":230.0,"pm2_5":79.2,"mosquito_risk":4,"arthritis_risk":5,"migraine_risk":7,"frizz_risk":1,"updated_at":"2026-03-07T11:09:37.279958+05:30"},{"city":"Varanasi","state":"Uttar Pradesh","latitude":25.3176,"longitude":82.9739,"temp":29.9,"humidity":56,"rain":0.0,"pressure":1003.4,"uv_index":7.15,"wind_gusts":15.5,"aqi":176,"pm10":96.9,"pm2_5":87.3,"mosquito_risk":4,"arthritis_risk":5,"migraine_risk":4,"frizz_risk":1,"updated_at":"2026-03-07T11:09:37.279968+05:30"},{"city":"Prayagraj","state":"Uttar Pradesh","latitude":25.4358,"longitude":81.8463,"temp":28.6,"humidity":64,"rain":0.0,"pressure":1002.0,"uv_index":7.0,"wind_gusts":13.3,"aqi":170,"pm10":112.0,"pm2_5":95.2,"mosquito_risk":7,"arthritis_risk":5,"migraine_risk":4,"frizz_risk":1,"updated_at":"2026-03-07T11:09:37.279976+05:30"},{"city":"Gorakhpur","state":"Uttar Pradesh","latitude":26.7606,"longitude":83.3732,"temp":30.0,"humidity":54,"rain":0.0,"pressure":1003.6,"uv_index":6.85,"wind_gusts":11.2,"aqi":169,"pm10":90.8,"pm2_5":76.6,"mosquito_risk":4,"arthritis_risk":5,"migraine_risk":4,"frizz_risk":1,"updated_at":"2026-03-07T11:09:37.279983+05:30"},{"city":"Bareilly","state":"Uttar Pradesh","latitude":28.367,"longitude":79.4304,"temp":28.1,"humidity":60,"rain":0.0,"pressure":992.9,"uv_index":6.15,"wind_gusts":13.0,"aqi":165,"pm10":102.0,"pm2_5":80.6,"mosquito_risk":4,"arthritis_risk":5,"migraine_risk":7,"frizz_risk":1,"updated_at":"2026-03-07T11:09:37.279990+05:30"},{"city":"Aligarh","state":"Uttar Pradesh","latitude":27.8974,"longitude":78.088,"temp":28.8,"humidity":65,"rain":0.0,"pressure":991.6,"uv_index":6.1,"wind_gusts":16.6,"aqi":179,"pm10":182.5,"pm2_5":100.1,"mosquito_risk":7,"arthritis_risk":5,"migraine_risk":7,"frizz_risk":1,"updated_at":"2026-03-07T11:09:37.279997+05:30"},{"city":"Moradabad","state":"Uttar Pradesh","latitude":28.8386,"longitude":78.7733,"temp":28.2,"humidity":59,"rain":0.0,"pressure":989.7,"uv_index":5.95,"wind_gusts":14.8,"aqi":167,"pm10":97.6,"pm2_5":78.0,"mosquito_risk":4,"arthritis_risk":5,"migraine_risk":3,"frizz_risk":1,"updated_at":"2026-03-07T11:09:37.280005+05:30"},{"city":"Saharanpur","state":"Uttar Pradesh","latitude":29.9637,"longitude":77.546,"temp":27.6,"humidity":65,"rain":0.0,"pressure":981.7,"uv_index":5.6,"wind_gusts":24.5,"aqi":169,"pm10":115.7,"pm2_5":82.7,"mosquito_risk":7,"arthritis_risk":5,"migraine_risk":3,"frizz_risk":1,"updated_at":"2026-03-07T11:09:37.280011+05:30"},{"city":"Jhansi","state":"Uttar Pradesh","latitude":25.4484,"longitude":78.5685,"temp":31.2,"humidity":42,"rain":0.0,"pressure":983.8,"uv_index":6.95,"wind_gusts":26.6,"aqi":93,"pm10":170.0,"pm2_5":57.0,"mosquito_risk":0,"arthritis_risk":5,"migraine_risk":7,"frizz_risk":1,"updated_at":"2026-03-07T11:09:40.507690+05:30"},{"city":"Surat","state":"Gujarat","latitude":21.1702,"longitude":72.8311,"temp":29.1,"humidity":58,"rain":0.0,"pressure":1011.7,"uv_index":7.2,"wind_gusts":24.8,"aqi":151,"pm10":67.5,"pm2_5":66.1,"mosquito_risk":4,"arthritis_risk":0,"migraine_risk":4,"frizz_risk":1,"updated_at":"2026-03-07T11:09:40.507725+05:30"},{"city":"Vadodara","state":"Gujarat","latitude":22.3072,"longitude":73.1812,"temp":30.7,"humidity":44,"rain":0.0,"pressure":1009.9,"uv_index":7.35,"wind_gusts":16.9,"aqi":146,"pm10":39.2,"pm2_5":37.7,"mosquito_risk":0,"arthritis_risk":0,"migraine_risk":4,"frizz_risk":1,"updated_at":"2026-03-07T11:09:40.507734+05:30"},{"city":"Rajkot","state":"Gujarat","latitude":22.3039,"longitude":70.8022,"temp":27.3,"humidity":59,"rain":0.0,"pressure":999.8,"uv_index":7.15,"wind_gusts":17.6,"aqi":64,"pm10":59.0,"pm2_5":24.9,"mosquito_risk":4,"arthritis_risk":5,"migraine_risk":7,"frizz_risk":1,"updated_at":"2026-03-07T11:09:40.507743+05:30"},{"city":"Thane","state":"Maharashtra","latitude":19.2183,"longitude":72.9781,"temp":30.4,"humidity":50,"rain":0.0,"pressure":1011.7,"uv_index":7.5,"wind_gusts":33.5,"aqi":100,"pm10":43.4,"pm2_5":39.9,"mosquito_risk":0,"arthritis_risk":0,"migraine_risk":4,"frizz_risk":1,"updated_at":"2026-03-07T11:09:40.507750+05:30"},{"city":"Nagpur","state":"Maharashtra","latitude":21.1458,"longitude":79.0882,"temp":33.6,"humidity":29,"rain":0.0,"pressure":978.0,"uv_index":7.85,"wind_gusts":21.2,"aqi":66,"pm10":55.3,"pm2_5":23.6,"mosquito_risk":0,"arthritis_risk":5,"migraine_risk":7,"frizz_risk":0,"updated_at":"2026-03-07T11:09:40.507756+05:30"},{"city":"Nashik","state":"Maharashtra","latitude":19.9975,"longitude":73.7898,"temp":31.4,"humidity":28,"rain":0.0,"pressure":950.3,"uv_index":7.65,"wind_gusts":22.3,"aqi":101,"pm10":21.7,"pm2_5":20.5,"mosquito_risk":0,"arthritis_risk":5,"migraine_risk":7,"frizz_risk":0,"updated_at":"2026-03-07T11:09:40.507763+05:30"},{"city":"Aurangabad","state":"Maharashtra","latitude":19.8762,"longitude":75.3433,"temp":32.5,"humidity":28,"rain":0.0,"pressure":948.9,"uv_index":8.2,"wind_gusts":22.7,"aqi":76,"pm10":20.3,"pm2_5":19.2,"mosquito_risk":0,"arthritis_risk":5,"migraine_risk":7,"frizz_risk":0,"updated_at":"2026-03-07T11:09:40.507770+05:30"},{"city":"Solapur","state":"Maharashtra","latitude":17.6599,"longitude":75.9064,"temp":32.5,"humidity":31,"rain":0.0,"pressure":961.2,"uv_index":8.4,"wind_gusts":22.7,"aqi":71,"pm10":26.9,"pm2_5":19.5,"mosquito_risk":0,"arthritis_risk":5,"migraine_risk":7,"frizz_risk":0,"updated_at":"2026-03-07T11:09:40.507777+05:30"},{"city":"Kolhapur","state":"Maharashtra","latitude":16.705,"longitude":74.2433,"temp":31.3,"humidity":32,"rain":0.0,"pressure":951.7,"uv_index":8.55,"wind_gusts":28.8,"aqi":150,"pm10":46.3,"pm2_5":44.9,"mosquito_risk":0,"arthritis_risk":5,"migraine_risk":7,"frizz_risk":0,"updated_at":"2026-03-07T11:09:40.507784+05:30"},{"city":"Goa","state":"Goa","latitude":15.2993,"longitude":74.124,"temp":30.5,"humidity":62,"rain":0.0,"pressure":1000.9,"uv_index":8.6,"wind_gusts":31.3,"aqi":155,"pm10":57.0,"pm2_5":53.3,"mosquito_risk":3,"arthritis_risk":5,"migraine_risk":4,"frizz_risk":1,"updated_at":"2026-03-07T11:09:40.507791+05:30"},{"city":"Jodhpur","state":"Rajasthan","latitude":26.2389,"longitude":73.0243,"temp":29.3,"humidity":41,"rain":0.0,"pressure":989.0,"uv_index":7.0,"wind_gusts":20.2,"aqi":66,"pm10":34.5,"pm2_5":14.6,"mosquito_risk":4,"arthritis_risk":5,"migraine_risk":7,"frizz_risk":0,"updated_at":"2026-03-07T11:09:40.507798+05:30"},{"city":"Udaipur","state":"Rajasthan","latitude":24.5854,"longitude":73.7125,"temp":31.2,"humidity":30,"rain":0.0,"pressure":952.3,"uv_index":7.65,"wind_gusts":20.2,"aqi":51,"pm10":14.6,"pm2_5":11.8,"mosquito_risk":0,"arthritis_risk":5,"migraine_risk":7,"frizz_risk":0,"updated_at":"2026-03-07T11:09:40.507805+05:30"},{"city":"Kota","state":"Rajasthan","latitude":25.2138,"longitude":75.8648,"temp":31.2,"humidity":34,"rain":0.0,"pressure":984.8,"uv_index":7.05,"wind_gusts":14.4,"aqi":77,"pm10":40.9,"pm2_5":26.2,"mosquito_risk":0,"arthritis_risk":5,"migraine_risk":7,"frizz_risk":0,"updated_at":"2026-03-07T11:09:40.507811+05:30"},{"city":"Bikaner","state":"Rajasthan","latitude":28.0229,"longitude":73.3119,"temp":30.3,"humidity":34,"rain":0.0,"pressure":987.1,"uv_index":6.75,"wind_gusts":20.5,"aqi":51,"pm10":25.8,"pm2_5":14.0,"mosquito_risk":0,"arthritis_risk":5,"migraine_risk":7,"frizz_risk":0,"updated_at":"2026-03-07T11:09:40.507817+05:30"},{"city":"Ajmer","state":"Rajasthan","latitude":26.4499,"longitude":74.6399,"temp":30.0,"humidity":35,"rain":0.0,"pressure":960.7,"uv_index":7.0,"wind_gusts":18.0,"aqi":62,"pm10":36.3,"pm2_5":16.0,"mosquito_risk":4,"arthritis_risk":5,"migraine_risk":7,"frizz_risk":0,"updated_at":"2026-03-07T11:09:40.507823+05:30"},{"city":"Gwalior","state":"Madhya Pradesh","latitude":26.2183,"longitude":78.1828,"temp":30.4,"humidity":50,"rain":0.0,"pressure":989.1,"uv_index":6.65,"wind_gusts":20.9,"aqi":112,"pm10":172.8,"pm2_5":54.1,"mosquito_risk":0,"arthritis_risk":5,"migraine_risk":7,"frizz_risk":1,"updated_at":"2026-03-07T11:09:40.507830+05:30"},{"city":"Indore","state":"Madhya Pradesh","latitude":22.7196,"longitude":75.8577,"temp":30.9,"humidity":33,"rain":0.0,"pressure":953.8,"uv_index":7.6,"wind_gusts":16.2,"aqi":81,"pm10":25.1,"pm2_5":22.0,"mosquito_risk":0,"arthritis_risk":5,"migraine_risk":7,"frizz_risk":0,"updated_at":"2026-03-07T11:09:40.507836+05:30"},{"city":"Bhopal","state":"Madhya Pradesh","latitude":23.2599,"longitude":77.4126,"temp":31.7,"humidity":33,"rain":0.0,"pressure":959.5,"uv_index":7.5,"wind_gusts":18.7,"aqi":71,"pm10":51.7,"pm2_5":20.7,"mosquito_risk":0,"arthritis_risk":5,"migraine_risk":7,"frizz_risk":0,"updated_at":"2026-03-07T11:09:40.507842+05:30"},{"city":"Jabalpur","state":"Madhya Pradesh","latitude":23.1815,"longitude":79.9864,"temp":30.4,"humidity":45,"rain":0.0,"pressure":966.8,"uv_index":7.55,"wind_gusts":25.6,"aqi":79,"pm10":117.8,"pm2_5":44.9,"mosquito_risk":0,"arthritis_risk":5,"migraine_risk":7,"frizz_risk":1,"updated_at":"2026-03-07T11:09:40.507848+05:30"},{"city":"Ujjain","state":"Madhya Pradesh","latitude":23.1765,"longitude":75.7885,"temp":30.0,"humidity":42,"rain":0.0,"pressure":959.5,"uv_index":7.5,"wind_gusts":13.7,"aqi":90,"pm10":21.8,"pm2_5":20.0,"mosquito_risk":4,"arthritis_risk":5,"migraine_risk":7,"frizz_risk":0,"updated_at":"2026-03-07T11:09:40.507855+05:30"},{"city":"Visakhapatnam","state":"Andhra Pradesh","latitude":17.6868,"longitude":83.2185,"temp":30.9,"humidity":60,"rain":0.0,"pressure":1007.9,"uv_index":8.45,"wind_gusts":36.7,"aqi":137,"pm10":58.9,"pm2_5":49.9,"mosquito_risk":0,"arthritis_risk":5,"migraine_risk":4,"frizz_risk":1,"updated_at":"2026-03-07T11:09:40.507861+05:30"},{"city":"Vijayawada","state":"Andhra Pradesh","latitude":16.5062,"longitude":80.648,"temp":30.9,"humidity":63,"rain":0.0,"pressure":1006.3,"uv_index":8.6,"wind_gusts":27.0,"aqi":133,"pm10":45.8,"pm2_5":39.6,"mosquito_risk":3,"arthritis_risk":5,"migraine_risk":4,"frizz_risk":1,"updated_at":"2026-03-07T11:09:40.507868+05:30"},{"city":"Guntur","state":"Andhra Pradesh","latitude":16.3067,"longitude":80.4365,"temp":31.4,"humidity":64,"rain":0.0,"pressure":1007.4,"uv_index":8.6,"wind_gusts":30.6,"aqi":131,"pm10":49.7,"pm2_5":43.9,"mosquito_risk":3,"arthritis_risk":5,"migraine_risk":4,"frizz_risk":1,"updated_at":"2026-03-07T11:09:40.507874+05:30"},{"city":"Nellore","state":"Andhra Pradesh","latitude":14.4426,"longitude":79.9865,"temp":33.7,"humidity":44,"rain":0.0,"pressure":1008.7,"uv_index":8.75,"wind_gusts":34.9,"aqi":101,"pm10":48.9,"pm2_5":44.8,"mosquito_risk":0,"arthritis_risk":0,"migraine_risk":4,"frizz_risk":1,"updated_at":"2026-03-07T11:09:40.507881+05:30"},{"city":"Kurnool","state":"Andhra Pradesh","latitude":15.8281,"longitude":78.0373,"temp":35.7,"humidity":23,"rain":0.0,"pressure":980.1,"uv_index":8.6,"wind_gusts":27.0,"aqi":72,"pm10":38.6,"pm2_5":30.3,"mosquito_risk":0,"arthritis_risk":5,"migraine_risk":10,"frizz_risk":0,"updated_at":"2026-03-07T11:09:40.507888+05:30"},{"city":"Kakinada","state":"Andhra Pradesh","latitude":16.9891,"longitude":82.2475,"temp":31.4,"humidity":59,"rain":0.0,"pressure":1011.5,"uv_index":8.5,"wind_gusts":33.1,"aqi":102,"pm10":42.5,"pm2_5":33.9,"mosquito_risk":0,"arthritis_risk":0,"migraine_risk":4,"frizz_risk":1,"updated_at":"2026-03-07T11:09:40.507912+05:30"},{"city":"Tirupati","state":"Andhra Pradesh","latitude":13.6288,"longitude":79.4192,"temp":33.4,"humidity":35,"rain":0.0,"pressure":994.7,"uv_index":8.9,"wind_gusts":31.7,"aqi":137,"pm10":53.1,"pm2_5":49.6,"mosquito_risk":0,"arthritis_risk":5,"migraine_risk":7,"frizz_risk":0,"updated_at":"2026-03-07T11:09:40.507919+05:30"},{"city":"Warangal","state":"Telangana","latitude":17.9689,"longitude":79.5941,"temp":32.9,"humidity":35,"rain":0.0,"pressure":982.5,"uv_index":8.35,"wind_gusts":19.1,"aqi":84,"pm10":39.0,"pm2_5":31.4,"mosquito_risk":0,"arthritis_risk":5,"migraine_risk":7,"frizz_risk":0,"updated_at":"2026-03-07T11:09:40.507926+05:30"},{"city":"Nizamabad","state":"Telangana","latitude":18.6725,"longitude":78.0941,"temp":33.1,"humidity":28,"rain":0.0,"pressure":969.0,"uv_index":8.2,"wind_gusts":25.2,"aqi":103,"pm10":33.6,"pm2_5":25.5,"mosquito_risk":0,"arthritis_risk":5,"migraine_risk":7,"frizz_risk":0,"updated_at":"2026-03-07T11:09:40.507933+05:30"},{"city":"Mysore","state":"Karnataka","latitude":12.2958,"longitude":76.6396,"temp":28.7,"humidity":53,"rain":0.0,"pressure":931.8,"uv_index":9.2,"wind_gusts":38.2,"aqi":121,"pm10":36.9,"pm2_5":35.4,"mosquito_risk":4,"arthritis_risk":5,"migraine_risk":7,"frizz_risk":1,"updated_at":"2026-03-07T11:09:40.507939+05:30"},{"city":"Mangalore","state":"Karnataka","latitude":12.9141,"longitude":74.856,"temp":28.6,"humidity":76,"rain":0.0,"pressure":1009.5,"uv_index":8.8,"wind_gusts":25.6,"aqi":152,"pm10":69.4,"pm2_5":65.0,"mosquito_risk":7,"arthritis_risk":0,"migraine_risk":4,"frizz_risk":1,"updated_at":"2026-03-07T11:09:40.507946+05:30"},{"city":"Hubli-Dharwad","state":"Karnataka","latitude":15.3647,"longitude":75.124,"temp":31.0,"humidity":39,"rain":0.0,"pressure":944.3,"uv_index":8.8,"wind_gusts":25.2,"aqi":118,"pm10":61.7,"pm2_5":59.3,"mosquito_risk":0,"arthritis_risk":5,"migraine_risk":7,"frizz_risk":0,"updated_at":"2026-03-07T11:09:40.507953+05:30"},{"city":"Belgaum","state":"Karnataka","latitude":15.8497,"longitude":74.4977,"temp":32.2,"humidity":22,"rain":0.0,"pressure":929.5,"uv_index":8.8,"wind_gusts":41.4,"aqi":111,"pm10":24.5,"pm2_5":22.7,"mosquito_risk":0,"arthritis_risk":5,"migraine_risk":7,"frizz_risk":0,"updated_at":"2026-03-07T11:09:43.725461+05:30"},{"city":"Coimbatore","state":"Tamil Nadu","latitude":11.0168,"longitude":76.9558,"temp":30.8,"humidity":50,"rain":0.0,"pressure":965.0,"uv_index":9.2,"wind_gusts":38.2,"aqi":101,"pm10":34.5,"pm2_5":32.0,"mosquito_risk":0,"arthritis_risk":5,"migraine_risk":7,"frizz_risk":1,"updated_at":"2026-03-07T11:09:43.725497+05:30"},{"city":"Madurai","state":"Tamil Nadu","latitude":9.9252,"longitude":78.1198,"temp":32.0,"humidity":49,"rain":0.0,"pressure":996.3,"uv_index":9.15,"wind_gusts":27.7,"aqi":92,"pm10":39.5,"pm2_5":34.3,"mosquito_risk":0,"arthritis_risk":5,"migraine_risk":7,"frizz_risk":1,"updated_at":"2026-03-07T11:09:43.725509+05:30"},{"city":"Trichy","state":"Tamil Nadu","latitude":10.7905,"longitude":78.7047,"temp":32.7,"humidity":44,"rain":0.0,"pressure":1003.0,"uv_index":9.05,"wind_gusts":25.9,"aqi":90,"pm10":39.6,"pm2_5":33.6,"mosquito_risk":0,"arthritis_risk":5,"migraine_risk":4,"frizz_risk":1,"updated_at":"2026-03-07T11:09:43.725516+05:30"},{"city":"Salem","state":"Tamil Nadu","latitude":11.6643,"longitude":78.146,"temp":32.2,"humidity":51,"rain":0.0,"pressure":980.4,"uv_index":9.1,"wind_gusts":19.8,"aqi":103,"pm10":42.0,"pm2_5":39.1,"mosquito_risk":0,"arthritis_risk":5,"migraine_risk":7,"frizz_risk":1,"updated_at":"2026-03-07T11:09:43.725524+05:30"},{"city":"Tirunelveli","state":"Tamil Nadu","latitude":8.7139,"longitude":77.7567,"temp":34.8,"humidity":35,"rain":0.0,"pressure":1006.0,"uv_index":9.15,"wind_gusts":49.3,"aqi":96,"pm10":33.8,"pm2_5":31.0,"mosquito_risk":0,"arthritis_risk":5,"migraine_risk":4,"frizz_risk":1,"updated_at":"2026-03-07T11:09:43.725531+05:30"},{"city":"Vellore","state":"Tamil Nadu","latitude":12.9165,"longitude":79.1325,"temp":33.4,"humidity":33,"rain":0.0,"pressure":987.8,"uv_index":9.0,"wind_gusts":33.5,"aqi":147,"pm10":51.9,"pm2_5":48.1,"mosquito_risk":0,"arthritis_risk":5,"migraine_risk":7,"frizz_risk":0,"updated_at":"2026-03-07T11:09:43.725538+05:30"},{"city":"Erode","state":"Tamil Nadu","latitude":11.341,"longitude":77.7172,"temp":32.7,"humidity":53,"rain":0.0,"pressure":991.9,"uv_index":9.1,"wind_gusts":20.2,"aqi":112,"pm10":44.9,"pm2_5":42.7,"mosquito_risk":0,"arthritis_risk":5,"migraine_risk":7,"frizz_risk":1,"updated_at":"2026-03-07T11:09:43.725545+05:30"},{"city":"Kochi","state":"Kerala","latitude":9.9312,"longitude":76.2673,"temp":27.4,"humidity":82,"rain":0.0,"pressure":1011.7,"uv_index":8.6,"wind_gusts":26.6,"aqi":127,"pm10":27.9,"pm2_5":26.6,"mosquito_risk":7,"arthritis_risk":0,"migraine_risk":4,"frizz_risk":1,"updated_at":"2026-03-07T11:09:43.725553+05:30"},{"city":"Thiruvananthapuram","state":"Kerala","latitude":8.5241,"longitude":76.9366,"temp":27.3,"humidity":83,"rain":0.0,"pressure":1010.9,"uv_index":9.0,"wind_gusts":33.1,"aqi":98,"pm10":35.4,"pm2_5":32.8,"mosquito_risk":7,"arthritis_risk":0,"migraine_risk":4,"frizz_risk":1,"updated_at":"2026-03-07T11:09:43.725560+05:30"},{"city":"Kozhikode","state":"Kerala","latitude":11.2588,"longitude":75.7804,"temp":28.6,"humidity":75,"rain":0.0,"pressure":1010.8,"uv_index":8.9,"wind_gusts":27.0,"aqi":132,"pm10":32.6,"pm2_5":30.9,"mosquito_risk":7,"arthritis_risk":0,"migraine_risk":4,"frizz_risk":1,"updated_at":"2026-03-07T11:09:43.725566+05:30"},{"city":"Thrissur","state":"Kerala","latitude":10.5276,"longitude":76.2144,"temp":30.6,"humidity":68,"rain":0.0,"pressure":1010.0,"uv_index":8.95,"wind_gusts":32.8,"aqi":124,"pm10":27.2,"pm2_5":25.8,"mosquito_risk":3,"arthritis_risk":0,"migraine_risk":4,"frizz_risk":1,"updated_at":"2026-03-07T11:09:43.725573+05:30"},{"city":"Kannur","state":"Kerala","latitude":11.8745,"longitude":75.3704,"temp":30.4,"humidity":67,"rain":0.0,"pressure":1009.8,"uv_index":8.9,"wind_gusts":30.6,"aqi":147,"pm10":58.0,"pm2_5":53.9,"mosquito_risk":3,"arthritis_risk":0,"migraine_risk":4,"frizz_risk":1,"updated_at":"2026-03-07T11:09:43.725581+05:30"},{"city":"Patna","state":"Bihar","latitude":25.5941,"longitude":85.1376,"temp":30.5,"humidity":50,"rain":0.0,"pressure":1006.6,"uv_index":7.3,"wind_gusts":20.2,"aqi":160,"pm10":89.4,"pm2_5":75.9,"mosquito_risk":0,"arthritis_risk":5,"migraine_risk":4,"frizz_risk":1,"updated_at":"2026-03-07T11:09:43.725587+05:30"},{"city":"Gaya","state":"Bihar","latitude":24.7914,"longitude":85.0002,"temp":29.3,"humidity":64,"rain":0.0,"pressure":999.3,"uv_index":7.4,"wind_gusts":23.4,"aqi":153,"pm10":86.6,"pm2_5":63.8,"mosquito_risk":7,"arthritis_risk":5,"migraine_risk":7,"frizz_risk":1,"updated_at":"2026-03-07T11:09:43.725593+05:30"},{"city":"Muzaffarpur","state":"Bihar","latitude":26.1209,"longitude":85.3647,"temp":31.1,"humidity":47,"rain":0.0,"pressure":1006.8,"uv_index":7.25,"wind_gusts":17.6,"aqi":168,"pm10":94.5,"pm2_5":84.1,"mosquito_risk":0,"arthritis_risk":5,"migraine_risk":4,"frizz_risk":1,"updated_at":"2026-03-07T11:09:43.725599+05:30"},{"city":"Bhagalpur","state":"Bihar","latitude":25.2425,"longitude":87.0117,"temp":29.6,"humidity":60,"rain":0.0,"pressure":1007.6,"uv_index":7.3,"wind_gusts":14.4,"aqi":162,"pm10":88.2,"pm2_5":71.0,"mosquito_risk":4,"arthritis_risk":5,"migraine_risk":4,"frizz_risk":1,"updated_at":"2026-03-07T11:09:43.725605+05:30"},{"city":"Ranchi","state":"Jharkhand","latitude":23.3441,"longitude":85.3096,"temp":28.6,"humidity":50,"rain":0.0,"pressure":942.7,"uv_index":8.05,"wind_gusts":23.8,"aqi":151,"pm10":88.7,"pm2_5":61.2,"mosquito_risk":4,"arthritis_risk":5,"migraine_risk":7,"frizz_risk":1,"updated_at":"2026-03-07T11:09:43.725611+05:30"},{"city":"Jamshedpur","state":"Jharkhand","latitude":22.8046,"longitude":86.2029,"temp":30.1,"humidity":58,"rain":0.0,"pressure":995.8,"uv_index":7.95,"wind_gusts":22.7,"aqi":139,"pm10":91.7,"pm2_5":61.0,"mosquito_risk":0,"arthritis_risk":5,"migraine_risk":7,"frizz_risk":1,"updated_at":"2026-03-07T11:09:43.725617+05:30"},{"city":"Dhanbad","state":"Jharkhand","latitude":23.7957,"longitude":86.4304,"temp":31.9,"humidity":40,"rain":0.0,"pressure":985.2,"uv_index":7.8,"wind_gusts":24.8,"aqi":164,"pm10":100.6,"pm2_5":71.2,"mosquito_risk":0,"arthritis_risk":5,"migraine_risk":7,"frizz_risk":1,"updated_at":"2026-03-07T11:09:43.725623+05:30"},{"city":"Bokaro","state":"Jharkhand","latitude":23.6693,"longitude":86.1511,"temp":30.7,"humidity":44,"rain":0.0,"pressure":989.0,"uv_index":7.8,"wind_gusts":16.9,"aqi":166,"pm10":103.8,"pm2_5":71.0,"mosquito_risk":0,"arthritis_risk":5,"migraine_risk":7,"frizz_risk":1,"updated_at":"2026-03-07T11:09:43.725629+05:30"},{"city":"Bhubaneswar","state":"Odisha","latitude":20.2961,"longitude":85.8245,"temp":31.4,"humidity":56,"rain":0.0,"pressure":1007.0,"uv_index":8.25,"wind_gusts":31.0,"aqi":150,"pm10":64.3,"pm2_5":53.8,"mosquito_risk":0,"arthritis_risk":5,"migraine_risk":4,"frizz_risk":1,"updated_at":"2026-03-07T11:09:43.725635+05:30"},{"city":"Cuttack","state":"Odisha","latitude":20.4625,"longitude":85.8828,"temp":31.4,"humidity":57,"rain":0.0,"pressure":1009.0,"uv_index":8.25,"wind_gusts":29.9,"aqi":150,"pm10":64.3,"pm2_5":53.8,"mosquito_risk":0,"arthritis_risk":0,"migraine_risk":4,"frizz_risk":1,"updated_at":"2026-03-07T11:09:43.725641+05:30"},{"city":"Rourkela","state":"Odisha","latitude":22.2604,"longitude":84.8536,"temp":31.0,"humidity":53,"rain":0.0,"pressure":989.8,"uv_index":7.85,"wind_gusts":19.8,"aqi":158,"pm10":99.9,"pm2_5":78.5,"mosquito_risk":0,"arthritis_risk":5,"migraine_risk":7,"frizz_risk":1,"updated_at":"2026-03-07T11:09:43.725647+05:30"},{"city":"Raipur","state":"Chhattisgarh","latitude":21.2514,"longitude":81.6296,"temp":32.4,"humidity":34,"rain":0.0,"pressure":979.4,"uv_index":7.95,"wind_gusts":20.9,"aqi":135,"pm10":117.3,"pm2_5":58.2,"mosquito_risk":0,"arthritis_risk":5,"migraine_risk":7,"frizz_risk":0,"updated_at":"2026-03-07T11:09:43.725653+05:30"},{"city":"Bhilai","state":"Chhattisgarh","latitude":21.1938,"longitude":81.3509,"temp":32.9,"humidity":34,"rain":0.0,"pressure":979.8,"uv_index":7.95,"wind_gusts":18.4,"aqi":111,"pm10":127.6,"pm2_5":60.5,"mosquito_risk":0,"arthritis_risk":5,"migraine_risk":7,"frizz_risk":0,"updated_at":"2026-03-07T11:09:43.725659+05:30"},{"city":"Guwahati","state":"Assam","latitude":26.1158,"longitude":91.7086,"temp":30.3,"humidity":55,"rain":0.0,"pressure":1007.3,"uv_index":7.3,"wind_gusts":21.6,"aqi":145,"pm10":56.9,"pm2_5":49.5,"mosquito_risk":0,"arthritis_risk":5,"migraine_risk":4,"frizz_risk":1,"updated_at":"2026-03-07T11:09:43.725666+05:30"},{"city":"Agartala","state":"Tripura","latitude":23.8315,"longitude":91.2868,"temp":30.6,"humidity":57,"rain":0.0,"pressure":1011.8,"uv_index":7.6,"wind_gusts":18.7,"aqi":152,"pm10":69.8,"pm2_5":48.8,"mosquito_risk":0,"arthritis_risk":0,"migraine_risk":4,"frizz_risk":1,"updated_at":"2026-03-07T11:09:43.725673+05:30"},{"city":"Shillong","state":"Meghalaya","latitude":25.5788,"longitude":91.8933,"temp":20.2,"humidity":41,"rain":0.0,"pressure":862.4,"uv_index":7.45,"wind_gusts":42.1,"aqi":98,"pm10":47.3,"pm2_5":39.6,"mosquito_risk":0,"arthritis_risk":5,"migraine_risk":7,"frizz_risk":0,"updated_at":"2026-03-07T11:09:43.725679+05:30"},{"city":"Imphal","state":"Manipur","latitude":24.817,"longitude":93.9368,"temp":25.0,"humidity":48,"rain":0.0,"pressure":928.8,"uv_index":7.85,"wind_gusts":40.7,"aqi":157,"pm10":48.8,"pm2_5":42.8,"mosquito_risk":4,"arthritis_risk":5,"migraine_risk":7,"frizz_risk":0,"updated_at":"2026-03-07T11:09:43.725686+05:30"},{"city":"Aizawl","state":"Mizoram","latitude":23.7271,"longitude":92.7176,"temp":26.6,"humidity":37,"rain":0.0,"pressure":898.7,"uv_index":7.8,"wind_gusts":31.0,"aqi":175,"pm10":73.8,"pm2_5":65.0,"mosquito_risk":4,"arthritis_risk":5,"migraine_risk":7,"frizz_risk":0,"updated_at":"2026-03-07T11:09:43.725693+05:30"},{"city":"Kohima","state":"Nagaland","latitude":25.6701,"longitude":94.1077,"temp":19.8,"humidity":60,"rain":0.0,"pressure":860.7,"uv_index":7.7,"wind_gusts":56.5,"aqi":160,"pm10":44.6,"pm2_5":38.4,"mosquito_risk":0,"arthritis_risk":5,"migraine_risk":7,"frizz_risk":0,"updated_at":"2026-03-07T11:09:43.725699+05:30"},{"city":"Gangtok","state":"Sikkim","latitude":27.3314,"longitude":88.6138,"temp":15.8,"humidity":84,"rain":0.0,"pressure":843.0,"uv_index":7.25,"wind_gusts":15.1,"aqi":153,"pm10":81.3,"pm2_5":71.7,"mosquito_risk":3,"arthritis_risk":10,"migraine_risk":7,"frizz_risk":0,"updated_at":"2026-03-07T11:09:43.725706+05:30"},{"city":"Siliguri","state":"West Bengal","latitude":26.7271,"longitude":88.3953,"temp":23.0,"humidity":72,"rain":0.0,"pressure":1000.9,"uv_index":7.25,"wind_gusts":14.8,"aqi":153,"pm10":69.8,"pm2_5":58.4,"mosquito_risk":3,"arthritis_risk":5,"migraine_risk":4,"frizz_risk":1,"updated_at":"2026-03-07T11:09:46.941711+05:30"},{"city":"Durgapur","state":"West Bengal","latitude":23.5204,"longitude":87.3119,"temp":31.9,"humidity":46,"rain":0.0,"pressure":1000.6,"uv_index":7.8,"wind_gusts":23.0,"aqi":158,"pm10":87.1,"pm2_5":66.6,"mosquito_risk":0,"arthritis_risk":5,"migraine_risk":4,"frizz_risk":1,"updated_at":"2026-03-07T11:09:46.941746+05:30"},{"city":"Asansol","state":"West Bengal","latitude":23.6739,"longitude":86.9524,"temp":32.4,"humidity":42,"rain":0.0,"pressure":998.9,"uv_index":7.8,"wind_gusts":19.1,"aqi":158,"pm10":86.8,"pm2_5":64.0,"mosquito_risk":0,"arthritis_risk":5,"migraine_risk":7,"frizz_risk":1,"updated_at":"2026-03-07T11:09:46.941756+05:30"},{"city":"Pondicherry","state":"Puducherry","latitude":11.9139,"longitude":79.8145,"temp":32.2,"humidity":56,"rain":0.0,"pressure":1011.6,"uv_index":8.9,"wind_gusts":31.3,"aqi":88,"pm10":36.0,"pm2_5":29.4,"mosquito_risk":0,"arthritis_risk":0,"migraine_risk":4,"frizz_risk":1,"updated_at":"2026-03-07T11:09:46.941765+05:30"},{"city":"Port Blair","state":"Andaman and Nicobar Islands","latitude":11.6234,"longitude":92.7265,"temp":28.3,"humidity":60,"rain":0.0,"pressure":1010.7,"uv_index":8.85,"wind_gusts":16.2,"aqi":88,"pm10":54.8,"pm2_5":35.2,"mosquito_risk":4,"arthritis_risk":0,"migraine_risk":4,"frizz_risk":1,"updated_at":"2026-03-07T11:09:46.941772+05:30"},{"city":"Haridwar","state":"Uttarakhand","latitude":29.9457,"longitude":78.1642,"temp":28.4,"humidity":59,"rain":0.0,"pressure":980.1,"uv_index":5.75,"wind_gusts":23.8,"aqi":161,"pm10":118.5,"pm2_5":78.0,"mosquito_risk":4,"arthritis_risk":5,"migraine_risk":3,"frizz_risk":1,"updated_at":"2026-03-07T11:09:46.941780+05:30"},{"city":"Rishikesh","state":"Uttarakhand","latitude":30.0869,"longitude":78.2676,"temp":28.0,"humidity":58,"rain":0.0,"pressure":972.8,"uv_index":5.8,"wind_gusts":24.5,"aqi":159,"pm10":122.5,"pm2_5":74.0,"mosquito_risk":4,"arthritis_risk":5,"migraine_risk":3,"frizz_risk":1,"updated_at":"2026-03-07T11:09:46.941787+05:30"},{"city":"Nainital","state":"Uttarakhand","latitude":29.3919,"longitude":79.4542,"temp":21.4,"humidity":63,"rain":0.0,"pressure":811.9,"uv_index":6.6,"wind_gusts":54.7,"aqi":158,"pm10":90.8,"pm2_5":60.8,"mosquito_risk":3,"arthritis_risk":5,"migraine_risk":7,"frizz_risk":0,"updated_at":"2026-03-07T11:09:46.941795+05:30"},{"city":"Mussoorie","state":"Uttarakhand","latitude":30.4599,"longitude":78.0664,"temp":20.1,"humidity":72,"rain":0.0,"pressure":808.5,"uv_index":6.1,"wind_gusts":40.7,"aqi":159,"pm10":119.2,"pm2_5":69.4,"mosquito_risk":3,"arthritis_risk":5,"migraine_risk":7,"frizz_risk":0,"updated_at":"2026-03-07T11:09:46.941802+05:30"},{"city":"Dharamshala","state":"Himachal Pradesh","latitude":32.219,"longitude":76.3234,"temp":23.9,"humidity":54,"rain":0.0,"pressure":875.0,"uv_index":6.1,"wind_gusts":20.9,"aqi":53,"pm10":18.2,"pm2_5":6.6,"mosquito_risk":0,"arthritis_risk":5,"migraine_risk":7,"frizz_risk":0,"updated_at":"2026-03-07T11:09:46.941809+05:30"},{"city":"Dalhousie","state":"Himachal Pradesh","latitude":32.5387,"longitude":75.971,"temp":22.1,"humidity":33,"rain":0.0,"pressure":810.1,"uv_index":6.55,"wind_gusts":16.2,"aqi":102,"pm10":34.1,"pm2_5":18.9,"mosquito_risk":0,"arthritis_risk":5,"migraine_risk":7,"frizz_risk":0,"updated_at":"2026-03-07T11:09:46.941816+05:30"},{"city":"Patiala","state":"Punjab","latitude":30.3398,"longitude":76.3869,"temp":27.5,"humidity":68,"rain":0.0,"pressure":984.2,"uv_index":5.8,"wind_gusts":16.9,"aqi":170,"pm10":151.3,"pm2_5":95.9,"mosquito_risk":7,"arthritis_risk":5,"migraine_risk":3,"frizz_risk":1,"updated_at":"2026-03-07T11:09:46.941823+05:30"},{"city":"Bhatinda","state":"Punjab","latitude":30.211,"longitude":74.9455,"temp":28.2,"humidity":57,"rain":0.0,"pressure":989.3,"uv_index":6.45,"wind_gusts":20.2,"aqi":132,"pm10":154.1,"pm2_5":59.0,"mosquito_risk":4,"arthritis_risk":5,"migraine_risk":7,"frizz_risk":1,"updated_at":"2026-03-07T11:09:46.941829+05:30"},{"city":"Rohtak","state":"Haryana","latitude":28.8955,"longitude":76.6066,"temp":28.2,"humidity":65,"rain":0.0,"pressure":987.7,"uv_index":5.95,"wind_gusts":13.3,"aqi":171,"pm10":274.7,"pm2_5":102.7,"mosquito_risk":7,"arthritis_risk":5,"migraine_risk":3,"frizz_risk":1,"updated_at":"2026-03-07T11:09:46.941837+05:30"},{"city":"Panipat","state":"Haryana","latitude":29.3909,"longitude":76.9635,"temp":27.9,"humidity":69,"rain":0.0,"pressure":986.5,"uv_index":5.75,"wind_gusts":18.0,"aqi":218,"pm10":235.2,"pm2_5":110.1,"mosquito_risk":7,"arthritis_risk":5,"migraine_risk":3,"frizz_risk":1,"updated_at":"2026-03-07T11:09:46.941844+05:30"},{"city":"Mathura","state":"Uttar Pradesh","latitude":27.4924,"longitude":77.6737,"temp":29.3,"humidity":62,"rain":0.0,"pressure":993.1,"uv_index":6.2,"wind_gusts":15.8,"aqi":167,"pm10":204.9,"pm2_5":77.5,"mosquito_risk":7,"arthritis_risk":5,"migraine_risk":7,"frizz_risk":1,"updated_at":"2026-03-07T11:09:46.941851+05:30"},{"city":"Vrindavan","state":"Uttar Pradesh","latitude":27.5823,"longitude":77.7027,"temp":28.8,"humidity":65,"rain":0.0,"pressure":993.5,"uv_index":6.2,"wind_gusts":15.5,"aqi":167,"pm10":204.9,"pm2_5":77.5,"mosquito_risk":7,"arthritis_risk":5,"migraine_risk":7,"frizz_risk":1,"updated_at":"2026-03-07T11:09:46.941857+05:30"},{"city":"Ayodhya","state":"Uttar Pradesh","latitude":26.7922,"longitude":82.1998,"temp":29.7,"humidity":55,"rain":0.0,"pressure":1001.6,"uv_index":6.65,"wind_gusts":18.7,"aqi":172,"pm10":99.4,"pm2_5":81.7,"mosquito_risk":4,"arthritis_risk":5,"migraine_risk":4,"frizz_risk":1,"updated_at":"2026-03-07T11:09:46.941863+05:30"},{"city":"Ratlam","state":"Madhya Pradesh","latitude":23.3315,"longitude":75.0367,"temp":29.6,"humidity":44,"rain":0.0,"pressure":960.2,"uv_index":7.45,"wind_gusts":10.8,"aqi":76,"pm10":15.8,"pm2_5":14.3,"mosquito_risk":4,"arthritis_risk":5,"migraine_risk":7,"frizz_risk":1,"updated_at":"2026-03-07T11:09:46.941870+05:30"},{"city":"Sagar","state":"Madhya Pradesh","latitude":23.8388,"longitude":78.7378,"temp":31.6,"humidity":34,"rain":0.0,"pressure":955.8,"uv_index":7.4,"wind_gusts":22.3,"aqi":67,"pm10":85.9,"pm2_5":28.3,"mosquito_risk":0,"arthritis_risk":5,"migraine_risk":7,"frizz_risk":0,"updated_at":"2026-03-07T11:09:46.941877+05:30"},{"city":"Satna","state":"Madhya Pradesh","latitude":24.6005,"longitude":80.8322,"temp":30.7,"humidity":41,"rain":0.0,"pressure":976.8,"uv_index":7.4,"wind_gusts":20.2,"aqi":152,"pm10":125.3,"pm2_5":62.4,"mosquito_risk":0,"arthritis_risk":5,"migraine_risk":7,"frizz_risk":0,"updated_at":"2026-03-07T11:09:46.941883+05:30"},{"city":"Akola","state":"Maharashtra","latitude":20.7002,"longitude":77.0082,"temp":33.2,"humidity":30,"rain":0.0,"pressure":980.1,"uv_index":7.9,"wind_gusts":18.0,"aqi":77,"pm10":26.9,"pm2_5":21.1,"mosquito_risk":0,"arthritis_risk":5,"migraine_risk":7,"frizz_risk":0,"updated_at":"2026-03-07T11:09:46.941890+05:30"},{"city":"Amravati","state":"Maharashtra","latitude":20.9374,"longitude":77.7796,"temp":34.4,"humidity":24,"rain":0.0,"pressure":972.3,"uv_index":7.85,"wind_gusts":15.1,"aqi":80,"pm10":33.2,"pm2_5":21.5,"mosquito_risk":0,"arthritis_risk":5,"migraine_risk":7,"frizz_risk":0,"updated_at":"2026-03-07T11:09:46.941925+05:30"},{"city":"Latur","state":"Maharashtra","latitude":18.4088,"longitude":76.5604,"temp":32.7,"humidity":23,"rain":0.0,"pressure":944.4,"uv_index":8.35,"wind_gusts":28.4,"aqi":78,"pm10":25.0,"pm2_5":20.3,"mosquito_risk":0,"arthritis_risk":5,"migraine_risk":7,"frizz_risk":0,"updated_at":"2026-03-07T11:09:46.941932+05:30"},{"city":"Nanded","state":"Maharashtra","latitude":19.1383,"longitude":77.3091,"temp":34.6,"humidity":26,"rain":0.0,"pressure":973.1,"uv_index":8.1,"wind_gusts":20.5,"aqi":94,"pm10":29.1,"pm2_5":24.3,"mosquito_risk":0,"arthritis_risk":5,"migraine_risk":7,"frizz_risk":0,"updated_at":"2026-03-07T11:09:46.941939+05:30"},{"city":"Gulbarga","state":"Karnataka","latitude":17.3297,"longitude":76.8343,"temp":34.8,"humidity":20,"rain":0.0,"pressure":962.6,"uv_index":8.45,"wind_gusts":24.1,"aqi":68,"pm10":26.1,"pm2_5":17.0,"mosquito_risk":0,"arthritis_risk":5,"migraine_risk":7,"frizz_risk":0,"updated_at":"2026-03-07T11:09:46.941945+05:30"},{"city":"Bidar","state":"Karnataka","latitude":17.9104,"longitude":77.5199,"temp":33.9,"humidity":21,"rain":0.0,"pressure":939.8,"uv_index":8.4,"wind_gusts":22.3,"aqi":76,"pm10":24.0,"pm2_5":17.2,"mosquito_risk":0,"arthritis_risk":5,"migraine_risk":7,"frizz_risk":0,"updated_at":"2026-03-07T11:09:46.941951+05:30"},{"city":"Hospet","state":"Karnataka","latitude":15.2689,"longitude":76.3909,"temp":29.3,"humidity":55,"rain":0.0,"pressure":959.5,"uv_index":8.75,"wind_gusts":20.5,"aqi":85,"pm10":35.4,"pm2_5":33.8,"mosquito_risk":4,"arthritis_risk":5,"migraine_risk":7,"frizz_risk":1,"updated_at":"2026-03-07T11:09:46.941958+05:30"},{"city":"Tirupur","state":"Tamil Nadu","latitude":11.1085,"longitude":77.3411,"temp":32.1,"humidity":48,"rain":0.0,"pressure":978.3,"uv_index":9.2,"wind_gusts":30.2,"aqi":121,"pm10":42.0,"pm2_5":39.8,"mosquito_risk":0,"arthritis_risk":5,"migraine_risk":7,"frizz_risk":1,"updated_at":"2026-03-07T11:09:46.941964+05:30"},{"city":"Alappuzha","state":"Kerala","latitude":9.4981,"longitude":76.3388,"temp":27.4,"humidity":82,"rain":0.0,"pressure":1011.8,"uv_index":9.0,"wind_gusts":24.5,"aqi":117,"pm10":37.0,"pm2_5":34.6,"mosquito_risk":7,"arthritis_risk":0,"migraine_risk":4,"frizz_risk":1,"updated_at":"2026-03-07T11:09:46.941970+05:30"},{"city":"Munnar","state":"Kerala","latitude":10.0889,"longitude":77.0595,"temp":26.2,"humidity":56,"rain":0.0,"pressure":860.6,"uv_index":9.5,"wind_gusts":34.9,"aqi":99,"pm10":26.4,"pm2_5":23.2,"mosquito_risk":4,"arthritis_risk":5,"migraine_risk":7,"frizz_risk":1,"updated_at":"2026-03-07T11:09:46.941978+05:30"},{"city":"Silchar","state":"Assam","latitude":24.8333,"longitude":92.7789,"temp":31.7,"humidity":51,"rain":0.0,"pressure":1010.2,"uv_index":7.55,"wind_gusts":21.2,"aqi":162,"pm10":61.9,"pm2_5":55.2,"mosquito_risk":0,"arthritis_risk":0,"migraine_risk":4,"frizz_risk":1,"updated_at":"2026-03-07T11:09:46.941985+05:30"},{"city":"Dibrugarh","state":"Assam","latitude":27.4728,"longitude":94.912,"temp":28.3,"humidity":59,"rain":0.0,"pressure":1001.3,"uv_index":7.3,"wind_gusts":23.4,"aqi":131,"pm10":67.8,"pm2_5":56.5,"mosquito_risk":4,"arthritis_risk":5,"migraine_risk":4,"frizz_risk":1,"updated_at":"2026-03-07T11:09:46.941991+05:30"}]