[{"city":"Delhi","state":"Delhi","latitude":28.6139,"longitude":77.209,"temp":39.8,"humidity":23,"rain":0.0,"pressure":977.1,"uv_index":7.75,"wind_gusts":40.7,"aqi":165,"pm10":303.6,"pm2_5":74.3,"no2":4.1,"co":245.0,"o3":176.0,"so2":14.4,"mosquito_risk":0,"arthritis_risk":5,"migraine_risk":10,"frizz_risk":0,"updated_at":"2026-06-06T15:37:08.968568+05:30"},{"city":"Mumbai","state":"Maharashtra","latitude":19.076,"longitude":72.8777,"temp":33.6,"humidity":60,"rain":0.0,"pressure":1004.2,"uv_index":6.6,"wind_gusts":39.2,"aqi":75,"pm10":60.1,"pm2_5":27.7,"no2":5.3,"co":160.0,"o3":96.0,"so2":5.9,"mosquito_risk":0,"arthritis_risk":5,"migraine_risk":4,"frizz_risk":1,"updated_at":"2026-06-06T15:37:08.968614+05:30"},{"city":"Bangalore","state":"Karnataka","latitude":12.9716,"longitude":77.5946,"temp":28.3,"humidity":54,"rain":0.0,"pressure":909.4,"uv_index":8.4,"wind_gusts":43.9,"aqi":29,"pm10":2.7,"pm2_5":2.5,"no2":6.6,"co":401.0,"o3":72.0,"so2":2.2,"mosquito_risk":4,"arthritis_risk":5,"migraine_risk":7,"frizz_risk":1,"updated_at":"2026-06-06T15:37:08.968629+05:30"},{"city":"Hyderabad","state":"Telangana","latitude":17.385,"longitude":78.4867,"temp":36.1,"humidity":32,"rain":0.0,"pressure":948.8,"uv_index":9.0,"wind_gusts":37.8,"aqi":93,"pm10":48.5,"pm2_5":25.4,"no2":1.1,"co":260.0,"o3":133.0,"so2":4.5,"mosquito_risk":0,"arthritis_risk":5,"migraine_risk":10,"frizz_risk":1,"updated_at":"2026-06-06T15:37:08.968639+05:30"},{"city":"Chennai","state":"Tamil Nadu","latitude":13.0827,"longitude":80.2707,"temp":37.9,"humidity":38,"rain":0.0,"pressure":1001.3,"uv_index":8.7,"wind_gusts":45.7,"aqi":60,"pm10":24.2,"pm2_5":18.1,"no2":3.7,"co":250.0,"o3":135.0,"so2":5.4,"mosquito_risk":0,"arthritis_risk":5,"migraine_risk":7,"frizz_risk":1,"updated_at":"2026-06-06T15:37:08.968646+05:30"},{"city":"Kolkata","state":"West Bengal","latitude":22.5726,"longitude":88.3639,"temp":27.2,"humidity":97,"rain":0.0,"pressure":999.6,"uv_index":9.0,"wind_gusts":45.7,"aqi":122,"pm10":28.3,"pm2_5":27.4,"no2":7.4,"co":554.0,"o3":133.0,"so2":12.9,"mosquito_risk":7,"arthritis_risk":5,"migraine_risk":7,"frizz_risk":1,"updated_at":"2026-06-06T15:37:08.968658+05:30"},{"city":"Pune","state":"Maharashtra","latitude":18.5204,"longitude":73.8567,"temp":33.2,"humidity":50,"rain":0.1,"pressure":944.8,"uv_index":8.35,"wind_gusts":50.4,"aqi":53,"pm10":45.5,"pm2_5":19.4,"no2":2.2,"co":145.0,"o3":105.0,"so2":3.9,"mosquito_risk":3,"arthritis_risk":5,"migraine_risk":7,"frizz_risk":1,"updated_at":"2026-06-06T15:37:08.968665+05:30"},{"city":"Ahmedabad","state":"Gujarat","latitude":23.0225,"longitude":72.5714,"temp":41.0,"humidity":30,"rain":0.0,"pressure":995.8,"uv_index":8.1,"wind_gusts":36.4,"aqi":93,"pm10":79.4,"pm2_5":32.0,"no2":1.2,"co":146.0,"o3":102.0,"so2":4.9,"mosquito_risk":0,"arthritis_risk":5,"migraine_risk":10,"frizz_risk":1,"updated_at":"2026-06-06T15:37:08.968671+05:30"},{"city":"Jaipur","state":"Rajasthan","latitude":26.9124,"longitude":75.7873,"temp":39.5,"humidity":25,"rain":0.0,"pressure":954.8,"uv_index":8.25,"wind_gusts":34.2,"aqi":105,"pm10":157.4,"pm2_5":37.8,"no2":1.3,"co":149.0,"o3":107.0,"so2":2.6,"mosquito_risk":0,"arthritis_risk":5,"migraine_risk":10,"frizz_risk":0,"updated_at":"2026-06-06T15:37:08.968680+05:30"},{"city":"Lucknow","state":"Uttar Pradesh","latitude":26.8467,"longitude":80.9462,"temp":37.2,"humidity":36,"rain":0.0,"pressure":986.7,"uv_index":8.3,"wind_gusts":25.9,"aqi":154,"pm10":132.7,"pm2_5":42.1,"no2":0.9,"co":310.0,"o3":151.0,"so2":6.2,"mosquito_risk":0,"arthritis_risk":5,"migraine_risk":10,"frizz_risk":1,"updated_at":"2026-06-06T15:37:08.968687+05:30"},{"city":"Kanpur","state":"Uttar Pradesh","latitude":26.4499,"longitude":80.3319,"temp":38.4,"humidity":28,"rain":0.0,"pressure":985.0,"uv_index":8.3,"wind_gusts":37.1,"aqi":162,"pm10":267.3,"pm2_5":60.3,"no2":1.3,"co":264.0,"o3":158.0,"so2":6.6,"mosquito_risk":0,"arthritis_risk":5,"migraine_risk":10,"frizz_risk":1,"updated_at":"2026-06-06T15:37:08.968693+05:30"},{"city":"Chandigarh","state":"Chandigarh","latitude":30.7333,"longitude":76.7794,"temp":36.1,"humidity":27,"rain":0.0,"pressure":963.2,"uv_index":7.8,"wind_gusts":32.4,"aqi":163,"pm10":44.4,"pm2_5":23.1,"no2":2.0,"co":272.0,"o3":181.0,"so2":11.8,"mosquito_risk":0,"arthritis_risk":5,"migraine_risk":10,"frizz_risk":0,"updated_at":"2026-06-06T15:37:08.968700+05:30"},{"city":"Srinagar","state":"Jammu and Kashmir","latitude":34.0837,"longitude":74.7973,"temp":23.9,"humidity":45,"rain":0.1,"pressure":842.0,"uv_index":9.0,"wind_gusts":22.0,"aqi":76,"pm10":18.1,"pm2_5":10.5,"no2":0.8,"co":246.0,"o3":146.0,"so2":1.6,"mosquito_risk":3,"arthritis_risk":5,"migraine_risk":7,"frizz_risk":0,"updated_at":"2026-06-06T15:37:08.968707+05:30"},{"city":"Jammu","state":"Jammu and Kashmir","latitude":32.7266,"longitude":74.857,"temp":37.3,"humidity":22,"rain":0.0,"pressure":967.1,"uv_index":8.6,"wind_gusts":30.2,"aqi":84,"pm10":26.8,"pm2_5":15.0,"no2":0.9,"co":216.0,"o3":158.0,"so2":2.2,"mosquito_risk":0,"arthritis_risk":5,"migraine_risk":10,"frizz_risk":0,"updated_at":"2026-06-06T15:37:08.968713+05:30"},{"city":"Amritsar","state":"Punjab","latitude":31.634,"longitude":74.8723,"temp":38.7,"humidity":20,"rain":0.0,"pressure":975.0,"uv_index":8.45,"wind_gusts":25.2,"aqi":133,"pm10":39.1,"pm2_5":21.6,"no2":0.3,"co":283.0,"o3":179.0,"so2":5.5,"mosquito_risk":0,"arthritis_risk":5,"migraine_risk":10,"frizz_risk":0,"updated_at":"2026-06-06T15:37:08.968719+05:30"},{"city":"Ludhiana","state":"Punjab","latitude":30.901,"longitude":75.8573,"temp":38.4,"humidity":22,"rain":0.0,"pressure":973.0,"uv_index":8.05,"wind_gusts":28.4,"aqi":157,"pm10":79.4,"pm2_5":28.5,"no2":0.8,"co":239.0,"o3":159.0,"so2":4.9,"mosquito_risk":0,"arthritis_risk":5,"migraine_risk":10,"frizz_risk":0,"updated_at":"2026-06-06T15:37:08.968725+05:30"},{"city":"Jalandhar","state":"Punjab","latitude":31.326,"longitude":75.5762,"temp":38.6,"humidity":22,"rain":0.0,"pressure":973.8,"uv_index":8.25,"wind_gusts":21.2,"aqi":151,"pm10":58.2,"pm2_5":24.2,"no2":0.6,"co":266.0,"o3":172.0,"so2":4.9,"mosquito_risk":0,"arthritis_risk":5,"migraine_risk":10,"frizz_risk":0,"updated_at":"2026-06-06T15:37:08.968731+05:30"},{"city":"Dehradun","state":"Uttarakhand","latitude":30.6284,"longitude":78.0322,"temp":23.8,"humidity":49,"rain":0.1,"pressure":829.6,"uv_index":8.2,"wind_gusts":33.8,"aqi":113,"pm10":28.1,"pm2_5":16.3,"no2":0.4,"co":219.0,"o3":167.0,"so2":5.7,"mosquito_risk":3,"arthritis_risk":5,"migraine_risk":7,"frizz_risk":0,"updated_at":"2026-06-06T15:37:08.968738+05:30"},{"city":"Shimla","state":"Himachal Pradesh","latitude":31.1048,"longitude":77.1734,"temp":23.3,"humidity":27,"rain":0.0,"pressure":785.7,"uv_index":8.3,"wind_gusts":42.8,"aqi":123,"pm10":19.0,"pm2_5":10.9,"no2":0.7,"co":179.0,"o3":158.0,"so2":5.9,"mosquito_risk":0,"arthritis_risk":5,"migraine_risk":7,"frizz_risk":0,"updated_at":"2026-06-06T15:37:08.968748+05:30"},{"city":"Manali","state":"Himachal Pradesh","latitude":32.2396,"longitude":77.1887,"temp":23.1,"humidity":37,"rain":0.0,"pressure":819.0,"uv_index":9.9,"wind_gusts":36.7,"aqi":120,"pm10":14.5,"pm2_5":10.0,"no2":0.1,"co":143.0,"o3":184.0,"so2":0.5,"mosquito_risk":0,"arthritis_risk":5,"migraine_risk":7,"frizz_risk":0,"updated_at":"2026-06-06T15:37:08.968754+05:30"},{"city":"Gurgaon","state":"Haryana","latitude":28.4595,"longitude":77.0266,"temp":38.3,"humidity":26,"rain":0.0,"pressure":975.8,"uv_index":7.85,"wind_gusts":34.2,"aqi":331,"pm10":672.4,"pm2_5":106.9,"no2":3.7,"co":194.0,"o3":158.0,"so2":10.5,"mosquito_risk":0,"arthritis_risk":5,"migraine_risk":10,"frizz_risk":0,"updated_at":"2026-06-06T15:37:08.968760+05:30"},{"city":"Noida","state":"Uttar Pradesh","latitude":28.5355,"longitude":77.391,"temp":39.0,"humidity":31,"rain":0.0,"pressure":978.1,"uv_index":7.8,"wind_gusts":33.5,"aqi":331,"pm10":672.4,"pm2_5":106.9,"no2":3.7,"co":346.0,"o3":158.0,"so2":10.5,"mosquito_risk":0,"arthritis_risk":5,"migraine_risk":10,"frizz_risk":1,"updated_at":"2026-06-06T15:37:08.968767+05:30"},{"city":"Ghaziabad","state":"Uttar Pradesh","latitude":28.6692,"longitude":77.4538,"temp":37.3,"humidity":34,"rain":0.0,"pressure":976.8,"uv_index":7.75,"wind_gusts":29.2,"aqi":174,"pm10":269.2,"pm2_5":75.2,"no2":3.4,"co":249.0,"o3":208.0,"so2":21.0,"mosquito_risk":0,"arthritis_risk":5,"migraine_risk":10,"frizz_risk":1,"updated_at":"2026-06-06T15:37:08.968773+05:30"},{"city":"Faridabad","state":"Haryana","latitude":28.4089,"longitude":77.3178,"temp":39.5,"humidity":26,"rain":0.0,"pressure":977.4,"uv_index":7.8,"wind_gusts":27.4,"aqi":331,"pm10":672.4,"pm2_5":106.9,"no2":3.7,"co":259.0,"o3":158.0,"so2":10.5,"mosquito_risk":0,"arthritis_risk":5,"migraine_risk":10,"frizz_risk":1,"updated_at":"2026-06-06T15:37:08.968779+05:30"},{"city":"Meerut","state":"Uttar Pradesh","latitude":28.9845,"longitude":77.7064,"temp":36.3,"humidity":36,"rain":0.0,"pressure":975.6,"uv_index":7.7,"wind_gusts":27.7,"aqi":174,"pm10":269.2,"pm2_5":75.2,"no2":3.4,"co":272.0,"o3":208.0,"so2":21.0,"mosquito_risk":0,"arthritis_risk":5,"migraine_risk":10,"frizz_risk":1,"updated_at":"2026-06-06T15:37:08.968785+05:30"},{"city":"Agra","state":"Uttar Pradesh","latitude":27.1767,"longitude":78.0081,"temp":39.0,"humidity":29,"rain":0.0,"pressure":981.5,"uv_index":8.1,"wind_gusts":28.1,"aqi":496,"pm10":283.1,"pm2_5":59.0,"no2":1.6,"co":174.0,"o3":130.0,"so2":4.5,"mosquito_risk":0,"arthritis_risk":5,"migraine_risk":10,"frizz_risk":1,"updated_at":"2026-06-06T15:37:08.968791+05:30"},{"city":"Varanasi","state":"Uttar Pradesh","latitude":25.3176,"longitude":82.9739,"temp":38.7,"humidity":33,"rain":0.0,"pressure":989.9,"uv_index":8.8,"wind_gusts":32.0,"aqi":155,"pm10":88.5,"pm2_5":44.4,"no2":1.9,"co":302.0,"o3":151.0,"so2":6.1,"mosquito_risk":0,"arthritis_risk":5,"migraine_risk":10,"frizz_risk":1,"updated_at":"2026-06-06T15:37:08.968797+05:30"},{"city":"Prayagraj","state":"Uttar Pradesh","latitude":25.4358,"longitude":81.8463,"temp":37.7,"humidity":32,"rain":0.0,"pressure":989.1,"uv_index":8.7,"wind_gusts":36.7,"aqi":151,"pm10":76.8,"pm2_5":37.5,"no2":0.9,"co":246.0,"o3":153.0,"so2":5.9,"mosquito_risk":0,"arthritis_risk":5,"migraine_risk":10,"frizz_risk":1,"updated_at":"2026-06-06T15:37:08.968803+05:30"},{"city":"Gorakhpur","state":"Uttar Pradesh","latitude":26.7606,"longitude":83.3732,"temp":34.7,"humidity":50,"rain":0.1,"pressure":990.2,"uv_index":8.7,"wind_gusts":36.7,"aqi":164,"pm10":92.0,"pm2_5":61.0,"no2":2.6,"co":344.0,"o3":167.0,"so2":5.8,"mosquito_risk":3,"arthritis_risk":5,"migraine_risk":7,"frizz_risk":1,"updated_at":"2026-06-06T15:37:08.968812+05:30"},{"city":"Bareilly","state":"Uttar Pradesh","latitude":28.367,"longitude":79.4304,"temp":36.4,"humidity":38,"rain":0.0,"pressure":980.3,"uv_index":8.1,"wind_gusts":22.0,"aqi":152,"pm10":55.1,"pm2_5":34.6,"no2":1.9,"co":300.0,"o3":171.0,"so2":6.3,"mosquito_risk":0,"arthritis_risk":5,"migraine_risk":10,"frizz_risk":1,"updated_at":"2026-06-06T15:37:08.968818+05:30"},{"city":"Aligarh","state":"Uttar Pradesh","latitude":27.8974,"longitude":78.088,"temp":37.3,"humidity":33,"rain":0.0,"pressure":979.4,"uv_index":7.95,"wind_gusts":23.8,"aqi":183,"pm10":356.7,"pm2_5":76.6,"no2":1.3,"co":218.0,"o3":163.0,"so2":11.4,"mosquito_risk":0,"arthritis_risk":5,"migraine_risk":10,"frizz_risk":1,"updated_at":"2026-06-06T15:37:08.968823+05:30"},{"city":"Moradabad","state":"Uttar Pradesh","latitude":28.8386,"longitude":78.7733,"temp":36.6,"humidity":36,"rain":0.0,"pressure":977.6,"uv_index":7.9,"wind_gusts":25.9,"aqi":166,"pm10":110.1,"pm2_5":40.6,"no2":2.9,"co":308.0,"o3":185.0,"so2":10.5,"mosquito_risk":0,"arthritis_risk":5,"migraine_risk":10,"frizz_risk":1,"updated_at":"2026-06-06T15:37:08.968829+05:30"},{"city":"Saharanpur","state":"Uttar Pradesh","latitude":29.9637,"longitude":77.546,"temp":35.5,"humidity":36,"rain":0.0,"pressure":970.0,"uv_index":7.5,"wind_gusts":26.6,"aqi":168,"pm10":112.7,"pm2_5":36.6,"no2":3.2,"co":314.0,"o3":181.0,"so2":15.7,"mosquito_risk":0,"arthritis_risk":5,"migraine_risk":10,"frizz_risk":1,"updated_at":"2026-06-06T15:37:08.968834+05:30"},{"city":"Jhansi","state":"Uttar Pradesh","latitude":25.4484,"longitude":78.5685,"temp":37.6,"humidity":33,"rain":0.0,"pressure":972.4,"uv_index":8.45,"wind_gusts":32.4,"aqi":90,"pm10":111.5,"pm2_5":33.2,"no2":0.7,"co":141.0,"o3":119.0,"so2":4.5,"mosquito_risk":0,"arthritis_risk":5,"migraine_risk":10,"frizz_risk":1,"updated_at":"2026-06-06T15:37:12.215614+05:30"},{"city":"Surat","state":"Gujarat","latitude":21.1702,"longitude":72.8311,"temp":35.1,"humidity":55,"rain":0.0,"pressure":1001.9,"uv_index":7.6,"wind_gusts":45.0,"aqi":87,"pm10":62.4,"pm2_5":29.8,"no2":9.8,"co":238.0,"o3":60.0,"so2":31.5,"mosquito_risk":0,"arthritis_risk":5,"migraine_risk":7,"frizz_risk":1,"updated_at":"2026-06-06T15:37:12.215647+05:30"},{"city":"Vadodara","state":"Gujarat","latitude":22.3072,"longitude":73.1812,"temp":39.3,"humidity":35,"rain":0.0,"pressure":998.5,"uv_index":8.0,"wind_gusts":40.0,"aqi":84,"pm10":74.3,"pm2_5":32.4,"no2":1.6,"co":137.0,"o3":109.0,"so2":4.2,"mosquito_risk":0,"arthritis_risk":5,"migraine_risk":10,"frizz_risk":1,"updated_at":"2026-06-06T15:37:12.215658+05:30"},{"city":"Rajkot","state":"Gujarat","latitude":22.3039,"longitude":70.8022,"temp":40.9,"humidity":31,"rain":0.0,"pressure":988.3,"uv_index":7.55,"wind_gusts":43.2,"aqi":85,"pm10":90.1,"pm2_5":29.6,"no2":0.9,"co":112.0,"o3":95.0,"so2":3.0,"mosquito_risk":0,"arthritis_risk":5,"migraine_risk":10,"frizz_risk":1,"updated_at":"2026-06-06T15:37:12.215666+05:30"},{"city":"Thane","state":"Maharashtra","latitude":19.2183,"longitude":72.9781,"temp":36.0,"humidity":48,"rain":0.0,"pressure":1003.1,"uv_index":7.45,"wind_gusts":40.7,"aqi":75,"pm10":60.1,"pm2_5":27.7,"no2":5.3,"co":151.0,"o3":96.0,"so2":5.9,"mosquito_risk":0,"arthritis_risk":5,"migraine_risk":7,"frizz_risk":1,"updated_at":"2026-06-06T15:37:12.215674+05:30"},{"city":"Nagpur","state":"Maharashtra","latitude":21.1458,"longitude":79.0882,"temp":38.5,"humidity":29,"rain":0.0,"pressure":967.5,"uv_index":8.65,"wind_gusts":43.9,"aqi":74,"pm10":31.3,"pm2_5":14.4,"no2":3.4,"co":156.0,"o3":136.0,"so2":10.5,"mosquito_risk":0,"arthritis_risk":5,"migraine_risk":10,"frizz_risk":1,"updated_at":"2026-06-06T15:37:12.215681+05:30"},{"city":"Nashik","state":"Maharashtra","latitude":19.9975,"longitude":73.7898,"temp":35.8,"humidity":34,"rain":0.0,"pressure":942.1,"uv_index":8.05,"wind_gusts":42.1,"aqi":63,"pm10":51.8,"pm2_5":22.4,"no2":1.1,"co":126.0,"o3":94.0,"so2":1.9,"mosquito_risk":0,"arthritis_risk":5,"migraine_risk":10,"frizz_risk":1,"updated_at":"2026-06-06T15:37:12.215687+05:30"},{"city":"Aurangabad","state":"Maharashtra","latitude":19.8762,"longitude":75.3433,"temp":38.3,"humidity":21,"rain":0.0,"pressure":940.1,"uv_index":8.95,"wind_gusts":41.0,"aqi":64,"pm10":56.7,"pm2_5":23.0,"no2":0.8,"co":132.0,"o3":108.0,"so2":2.3,"mosquito_risk":0,"arthritis_risk":5,"migraine_risk":10,"frizz_risk":0,"updated_at":"2026-06-06T15:37:12.215694+05:30"},{"city":"Solapur","state":"Maharashtra","latitude":17.6599,"longitude":75.9064,"temp":35.7,"humidity":37,"rain":0.0,"pressure":953.0,"uv_index":8.95,"wind_gusts":57.2,"aqi":70,"pm10":34.8,"pm2_5":18.0,"no2":1.2,"co":124.0,"o3":117.0,"so2":3.4,"mosquito_risk":0,"arthritis_risk":5,"migraine_risk":10,"frizz_risk":1,"updated_at":"2026-06-06T15:37:12.215702+05:30"},{"city":"Kolhapur","state":"Maharashtra","latitude":16.705,"longitude":74.2433,"temp":28.3,"humidity":74,"rain":0.1,"pressure":945.3,"uv_index":8.05,"wind_gusts":41.8,"aqi":37,"pm10":44.9,"pm2_5":21.9,"no2":2.5,"co":144.0,"o3":89.0,"so2":1.6,"mosquito_risk":10,"arthritis_risk":5,"migraine_risk":7,"frizz_risk":1,"updated_at":"2026-06-06T15:37:12.215709+05:30"},{"city":"Goa","state":"Goa","latitude":15.2993,"longitude":74.124,"temp":29.5,"humidity":76,"rain":0.1,"pressure":995.6,"uv_index":6.75,"wind_gusts":29.5,"aqi":35,"pm10":8.5,"pm2_5":4.7,"no2":0.9,"co":118.0,"o3":64.0,"so2":0.8,"mosquito_risk":10,"arthritis_risk":5,"migraine_risk":7,"frizz_risk":1,"updated_at":"2026-06-06T15:37:12.215716+05:30"},{"city":"Jodhpur","state":"Rajasthan","latitude":26.2389,"longitude":73.0243,"temp":40.2,"humidity":31,"rain":0.0,"pressure":976.9,"uv_index":8.45,"wind_gusts":34.9,"aqi":127,"pm10":217.9,"pm2_5":45.5,"no2":0.5,"co":119.0,"o3":99.0,"so2":2.1,"mosquito_risk":0,"arthritis_risk":5,"migraine_risk":10,"frizz_risk":1,"updated_at":"2026-06-06T15:37:12.215723+05:30"},{"city":"Udaipur","state":"Rajasthan","latitude":24.5854,"longitude":73.7125,"temp":36.5,"humidity":33,"rain":0.0,"pressure":942.8,"uv_index":8.8,"wind_gusts":32.4,"aqi":95,"pm10":85.0,"pm2_5":29.9,"no2":0.5,"co":119.0,"o3":98.0,"so2":2.8,"mosquito_risk":0,"arthritis_risk":5,"migraine_risk":10,"frizz_risk":1,"updated_at":"2026-06-06T15:37:12.215730+05:30"},{"city":"Kota","state":"Rajasthan","latitude":25.2138,"longitude":75.8648,"temp":39.2,"humidity":30,"rain":0.0,"pressure":973.3,"uv_index":8.4,"wind_gusts":28.1,"aqi":74,"pm10":63.8,"pm2_5":26.1,"no2":0.2,"co":135.0,"o3":120.0,"so2":3.1,"mosquito_risk":0,"arthritis_risk":5,"migraine_risk":10,"frizz_risk":1,"updated_at":"2026-06-06T15:37:12.215737+05:30"},{"city":"Bikaner","state":"Rajasthan","latitude":28.0229,"longitude":73.3119,"temp":41.2,"humidity":24,"rain":0.0,"pressure":975.1,"uv_index":8.5,"wind_gusts":41.0,"aqi":109,"pm10":142.5,"pm2_5":41.7,"no2":0.2,"co":145.0,"o3":99.0,"so2":2.2,"mosquito_risk":0,"arthritis_risk":5,"migraine_risk":10,"frizz_risk":1,"updated_at":"2026-06-06T15:37:12.215744+05:30"},{"city":"Ajmer","state":"Rajasthan","latitude":26.4499,"longitude":74.6399,"temp":36.7,"humidity":36,"rain":0.0,"pressure":950.2,"uv_index":8.35,"wind_gusts":36.0,"aqi":94,"pm10":103.1,"pm2_5":31.3,"no2":0.3,"co":126.0,"o3":108.0,"so2":2.1,"mosquito_risk":0,"arthritis_risk":5,"migraine_risk":10,"frizz_risk":1,"updated_at":"2026-06-06T15:37:12.215751+05:30"},{"city":"Gwalior","state":"Madhya Pradesh","latitude":26.2183,"longitude":78.1828,"temp":38.6,"humidity":31,"rain":0.0,"pressure":977.4,"uv_index":8.25,"wind_gusts":32.4,"aqi":238,"pm10":88.9,"pm2_5":27.9,"no2":0.3,"co":142.0,"o3":117.0,"so2":2.9,"mosquito_risk":0,"arthritis_risk":5,"migraine_risk":10,"frizz_risk":1,"updated_at":"2026-06-06T15:37:12.215758+05:30"},{"city":"Indore","state":"Madhya Pradesh","latitude":22.7196,"longitude":75.8577,"temp":36.2,"humidity":39,"rain":0.0,"pressure":944.2,"uv_index":8.65,"wind_gusts":34.9,"aqi":90,"pm10":60.5,"pm2_5":27.9,"no2":0.5,"co":169.0,"o3":115.0,"so2":3.9,"mosquito_risk":0,"arthritis_risk":5,"migraine_risk":10,"frizz_risk":1,"updated_at":"2026-06-06T15:37:12.215765+05:30"},{"city":"Bhopal","state":"Madhya Pradesh","latitude":23.2599,"longitude":77.4126,"temp":37.0,"humidity":34,"rain":0.0,"pressure":949.1,"uv_index":8.7,"wind_gusts":38.2,"aqi":84,"pm10":52.7,"pm2_5":24.2,"no2":0.3,"co":155.0,"o3":114.0,"so2":3.9,"mosquito_risk":0,"arthritis_risk":5,"migraine_risk":10,"frizz_risk":1,"updated_at":"2026-06-06T15:37:12.215772+05:30"},{"city":"Jabalpur","state":"Madhya Pradesh","latitude":23.1815,"longitude":79.9864,"temp":36.6,"humidity":31,"rain":0.0,"pressure":956.0,"uv_index":8.35,"wind_gusts":36.4,"aqi":87,"pm10":135.5,"pm2_5":35.6,"no2":0.5,"co":159.0,"o3":125.0,"so2":3.4,"mosquito_risk":0,"arthritis_risk":5,"migraine_risk":10,"frizz_risk":1,"updated_at":"2026-06-06T15:37:12.215778+05:30"},{"city":"Ujjain","state":"Madhya Pradesh","latitude":23.1765,"longitude":75.7885,"temp":36.5,"humidity":38,"rain":0.0,"pressure":949.6,"uv_index":8.6,"wind_gusts":32.8,"aqi":89,"pm10":69.2,"pm2_5":31.1,"no2":0.6,"co":144.0,"o3":111.0,"so2":4.6,"mosquito_risk":0,"arthritis_risk":5,"migraine_risk":10,"frizz_risk":1,"updated_at":"2026-06-06T15:37:12.215784+05:30"},{"city":"Visakhapatnam","state":"Andhra Pradesh","latitude":17.6868,"longitude":83.2185,"temp":36.6,"humidity":51,"rain":0.0,"pressure":996.1,"uv_index":8.9,"wind_gusts":41.8,"aqi":111,"pm10":46.3,"pm2_5":34.8,"no2":9.9,"co":372.0,"o3":155.0,"so2":31.0,"mosquito_risk":0,"arthritis_risk":5,"migraine_risk":10,"frizz_risk":1,"updated_at":"2026-06-06T15:37:12.215791+05:30"},{"city":"Vijayawada","state":"Andhra Pradesh","latitude":16.5062,"longitude":80.648,"temp":39.0,"humidity":36,"rain":0.0,"pressure":995.5,"uv_index":8.8,"wind_gusts":47.2,"aqi":76,"pm10":63.6,"pm2_5":37.3,"no2":3.4,"co":200.0,"o3":138.0,"so2":5.9,"mosquito_risk":0,"arthritis_risk":5,"migraine_risk":10,"frizz_risk":1,"updated_at":"2026-06-06T15:37:12.215798+05:30"},{"city":"Guntur","state":"Andhra Pradesh","latitude":16.3067,"longitude":80.4365,"temp":38.7,"humidity":37,"rain":0.0,"pressure":996.8,"uv_index":9.05,"wind_gusts":44.3,"aqi":73,"pm10":63.8,"pm2_5":35.7,"no2":1.9,"co":196.0,"o3":136.0,"so2":4.8,"mosquito_risk":0,"arthritis_risk":5,"migraine_risk":10,"frizz_risk":1,"updated_at":"2026-06-06T15:37:12.215805+05:30"},{"city":"Nellore","state":"Andhra Pradesh","latitude":14.4426,"longitude":79.9865,"temp":36.3,"humidity":44,"rain":0.0,"pressure":999.9,"uv_index":8.95,"wind_gusts":41.4,"aqi":48,"pm10":31.1,"pm2_5":20.8,"no2":2.7,"co":162.0,"o3":133.0,"so2":5.4,"mosquito_risk":0,"arthritis_risk":5,"migraine_risk":10,"frizz_risk":1,"updated_at":"2026-06-06T15:37:12.215812+05:30"},{"city":"Kurnool","state":"Andhra Pradesh","latitude":15.8281,"longitude":78.0373,"temp":35.7,"humidity":45,"rain":0.0,"pressure":972.1,"uv_index":8.8,"wind_gusts":35.3,"aqi":47,"pm10":32.7,"pm2_5":20.7,"no2":1.0,"co":161.0,"o3":140.0,"so2":7.6,"mosquito_risk":0,"arthritis_risk":5,"migraine_risk":10,"frizz_risk":1,"updated_at":"2026-06-06T15:37:12.215820+05:30"},{"city":"Kakinada","state":"Andhra Pradesh","latitude":16.9891,"longitude":82.2475,"temp":37.2,"humidity":46,"rain":0.0,"pressure":999.9,"uv_index":9.0,"wind_gusts":52.9,"aqi":72,"pm10":35.4,"pm2_5":23.8,"no2":2.1,"co":256.0,"o3":129.0,"so2":3.5,"mosquito_risk":0,"arthritis_risk":5,"migraine_risk":10,"frizz_risk":1,"updated_at":"2026-06-06T15:37:12.215826+05:30"},{"city":"Tirupati","state":"Andhra Pradesh","latitude":13.6288,"longitude":79.4192,"temp":33.5,"humidity":58,"rain":0.2,"pressure":985.4,"uv_index":8.6,"wind_gusts":37.8,"aqi":47,"pm10":9.0,"pm2_5":6.1,"no2":5.5,"co":156.0,"o3":82.0,"so2":1.3,"mosquito_risk":3,"arthritis_risk":5,"migraine_risk":7,"frizz_risk":1,"updated_at":"2026-06-06T15:37:12.215833+05:30"},{"city":"Warangal","state":"Telangana","latitude":17.9689,"longitude":79.5941,"temp":37.2,"humidity":32,"rain":0.0,"pressure":973.0,"uv_index":9.05,"wind_gusts":44.6,"aqi":101,"pm10":47.1,"pm2_5":23.7,"no2":0.7,"co":169.0,"o3":129.0,"so2":5.5,"mosquito_risk":0,"arthritis_risk":5,"migraine_risk":10,"frizz_risk":1,"updated_at":"2026-06-06T15:37:12.215839+05:30"},{"city":"Nizamabad","state":"Telangana","latitude":18.6725,"longitude":78.0941,"temp":37.8,"humidity":29,"rain":0.0,"pressure":959.9,"uv_index":9.05,"wind_gusts":42.5,"aqi":94,"pm10":45.1,"pm2_5":23.0,"no2":0.4,"co":148.0,"o3":120.0,"so2":3.1,"mosquito_risk":0,"arthritis_risk":5,"migraine_risk":10,"frizz_risk":1,"updated_at":"2026-06-06T15:37:12.215845+05:30"},{"city":"Mysore","state":"Karnataka","latitude":12.2958,"longitude":76.6396,"temp":22.7,"humidity":93,"rain":0.3,"pressure":926.2,"uv_index":7.75,"wind_gusts":49.7,"aqi":27,"pm10":2.1,"pm2_5":2.0,"no2":4.9,"co":180.0,"o3":65.0,"so2":1.3,"mosquito_risk":6,"arthritis_risk":5,"migraine_risk":7,"frizz_risk":1,"updated_at":"2026-06-06T15:37:12.215852+05:30"},{"city":"Mangalore","state":"Karnataka","latitude":12.9141,"longitude":74.856,"temp":26.1,"humidity":91,"rain":0.1,"pressure":1005.6,"uv_index":1.45,"wind_gusts":27.7,"aqi":26,"pm10":5.1,"pm2_5":4.0,"no2":5.6,"co":191.0,"o3":52.0,"so2":1.4,"mosquito_risk":10,"arthritis_risk":5,"migraine_risk":0,"frizz_risk":1,"updated_at":"2026-06-06T15:37:12.215859+05:30"},{"city":"Hubli-Dharwad","state":"Karnataka","latitude":15.3647,"longitude":75.124,"temp":23.6,"humidity":95,"rain":0.3,"pressure":938.4,"uv_index":8.7,"wind_gusts":39.6,"aqi":28,"pm10":8.3,"pm2_5":4.7,"no2":3.0,"co":151.0,"o3":78.0,"so2":0.8,"mosquito_risk":6,"arthritis_risk":5,"migraine_risk":7,"frizz_risk":1,"updated_at":"2026-06-06T15:37:12.215866+05:30"},{"city":"Belgaum","state":"Karnataka","latitude":15.8497,"longitude":74.4977,"temp":27.1,"humidity":70,"rain":0.1,"pressure":923.8,"uv_index":8.95,"wind_gusts":38.9,"aqi":31,"pm10":8.7,"pm2_5":5.4,"no2":2.9,"co":135.0,"o3":76.0,"so2":1.6,"mosquito_risk":10,"arthritis_risk":5,"migraine_risk":7,"frizz_risk":1,"updated_at":"2026-06-06T15:37:15.601747+05:30"},{"city":"Coimbatore","state":"Tamil Nadu","latitude":11.0168,"longitude":76.9558,"temp":24.0,"humidity":97,"rain":0.3,"pressure":959.7,"uv_index":8.75,"wind_gusts":41.8,"aqi":21,"pm10":2.2,"pm2_5":2.1,"no2":4.5,"co":198.0,"o3":53.0,"so2":1.6,"mosquito_risk":6,"arthritis_risk":5,"migraine_risk":7,"frizz_risk":1,"updated_at":"2026-06-06T15:37:15.601781+05:30"},{"city":"Madurai","state":"Tamil Nadu","latitude":9.9252,"longitude":78.1198,"temp":35.5,"humidity":40,"rain":0.0,"pressure":989.6,"uv_index":8.7,"wind_gusts":67.0,"aqi":33,"pm10":11.8,"pm2_5":5.4,"no2":2.0,"co":115.0,"o3":76.0,"so2":1.2,"mosquito_risk":0,"arthritis_risk":5,"migraine_risk":10,"frizz_risk":1,"updated_at":"2026-06-06T15:37:15.601792+05:30"},{"city":"Trichy","state":"Tamil Nadu","latitude":10.7905,"longitude":78.7047,"temp":34.2,"humidity":47,"rain":0.0,"pressure":996.3,"uv_index":8.8,"wind_gusts":52.6,"aqi":34,"pm10":8.5,"pm2_5":4.8,"no2":2.6,"co":142.0,"o3":80.0,"so2":1.6,"mosquito_risk":0,"arthritis_risk":5,"migraine_risk":7,"frizz_risk":1,"updated_at":"2026-06-06T15:37:15.601802+05:30"},{"city":"Salem","state":"Tamil Nadu","latitude":11.6643,"longitude":78.146,"temp":32.4,"humidity":51,"rain":0.0,"pressure":974.7,"uv_index":8.8,"wind_gusts":57.2,"aqi":38,"pm10":5.7,"pm2_5":4.6,"no2":3.2,"co":157.0,"o3":89.0,"so2":4.5,"mosquito_risk":0,"arthritis_risk":5,"migraine_risk":7,"frizz_risk":1,"updated_at":"2026-06-06T15:37:15.601810+05:30"},{"city":"Tirunelveli","state":"Tamil Nadu","latitude":8.7139,"longitude":77.7567,"temp":34.7,"humidity":44,"rain":0.0,"pressure":1000.7,"uv_index":8.45,"wind_gusts":47.5,"aqi":23,"pm10":7.0,"pm2_5":4.0,"no2":1.5,"co":100.0,"o3":56.0,"so2":0.6,"mosquito_risk":0,"arthritis_risk":5,"migraine_risk":4,"frizz_risk":1,"updated_at":"2026-06-06T15:37:15.601819+05:30"},{"city":"Vellore","state":"Tamil Nadu","latitude":12.9165,"longitude":79.1325,"temp":36.7,"humidity":36,"rain":0.0,"pressure":979.2,"uv_index":9.0,"wind_gusts":47.2,"aqi":36,"pm10":5.2,"pm2_5":4.5,"no2":3.5,"co":178.0,"o3":83.0,"so2":1.7,"mosquito_risk":0,"arthritis_risk":5,"migraine_risk":10,"frizz_risk":1,"updated_at":"2026-06-06T15:37:15.601826+05:30"},{"city":"Erode","state":"Tamil Nadu","latitude":11.341,"longitude":77.7172,"temp":29.6,"humidity":62,"rain":0.0,"pressure":986.6,"uv_index":8.8,"wind_gusts":60.5,"aqi":29,"pm10":2.4,"pm2_5":2.2,"no2":2.4,"co":133.0,"o3":70.0,"so2":1.5,"mosquito_risk":7,"arthritis_risk":5,"migraine_risk":7,"frizz_risk":1,"updated_at":"2026-06-06T15:37:15.601834+05:30"},{"city":"Kochi","state":"Kerala","latitude":9.9312,"longitude":76.2673,"temp":26.5,"humidity":86,"rain":0.2,"pressure":1008.9,"uv_index":7.9,"wind_gusts":40.3,"aqi":49,"pm10":12.1,"pm2_5":6.5,"no2":4.4,"co":144.0,"o3":48.0,"so2":1.9,"mosquito_risk":10,"arthritis_risk":0,"migraine_risk":4,"frizz_risk":1,"updated_at":"2026-06-06T15:37:15.601842+05:30"},{"city":"Thiruvananthapuram","state":"Kerala","latitude":8.5241,"longitude":76.9366,"temp":26.9,"humidity":85,"rain":0.2,"pressure":1008.3,"uv_index":8.15,"wind_gusts":45.4,"aqi":27,"pm10":14.3,"pm2_5":6.7,"no2":1.1,"co":103.0,"o3":58.0,"so2":0.6,"mosquito_risk":10,"arthritis_risk":0,"migraine_risk":4,"frizz_risk":1,"updated_at":"2026-06-06T15:37:15.601850+05:30"},{"city":"Kozhikode","state":"Kerala","latitude":11.2588,"longitude":75.7804,"temp":25.0,"humidity":97,"rain":0.8,"pressure":1008.0,"uv_index":1.0,"wind_gusts":27.0,"aqi":27,"pm10":10.5,"pm2_5":4.8,"no2":0.9,"co":145.0,"o3":57.0,"so2":0.3,"mosquito_risk":10,"arthritis_risk":0,"migraine_risk":0,"frizz_risk":1,"updated_at":"2026-06-06T15:37:15.601857+05:30"},{"city":"Thrissur","state":"Kerala","latitude":10.5276,"longitude":76.2144,"temp":25.7,"humidity":91,"rain":0.1,"pressure":1007.2,"uv_index":6.8,"wind_gusts":25.2,"aqi":48,"pm10":10.2,"pm2_5":5.6,"no2":5.4,"co":168.0,"o3":41.0,"so2":1.5,"mosquito_risk":10,"arthritis_risk":5,"migraine_risk":4,"frizz_risk":1,"updated_at":"2026-06-06T15:37:15.601865+05:30"},{"city":"Kannur","state":"Kerala","latitude":11.8745,"longitude":75.3704,"temp":24.8,"humidity":99,"rain":0.2,"pressure":1006.6,"uv_index":0.45,"wind_gusts":27.4,"aqi":25,"pm10":7.2,"pm2_5":4.5,"no2":6.7,"co":164.0,"o3":44.0,"so2":0.7,"mosquito_risk":6,"arthritis_risk":5,"migraine_risk":0,"frizz_risk":1,"updated_at":"2026-06-06T15:37:15.601872+05:30"},{"city":"Patna","state":"Bihar","latitude":25.5941,"longitude":85.1376,"temp":35.1,"humidity":53,"rain":0.0,"pressure":992.7,"uv_index":8.9,"wind_gusts":27.4,"aqi":168,"pm10":82.4,"pm2_5":68.0,"no2":4.4,"co":322.0,"o3":212.0,"so2":16.4,"mosquito_risk":0,"arthritis_risk":5,"migraine_risk":10,"frizz_risk":1,"updated_at":"2026-06-06T15:37:15.601879+05:30"},{"city":"Gaya","state":"Bihar","latitude":24.7914,"longitude":85.0002,"temp":36.3,"humidity":45,"rain":0.0,"pressure":986.3,"uv_index":8.95,"wind_gusts":34.2,"aqi":155,"pm10":88.2,"pm2_5":66.4,"no2":3.1,"co":293.0,"o3":184.0,"so2":12.3,"mosquito_risk":0,"arthritis_risk":5,"migraine_risk":10,"frizz_risk":1,"updated_at":"2026-06-06T15:37:15.601885+05:30"},{"city":"Muzaffarpur","state":"Bihar","latitude":26.1209,"longitude":85.3647,"temp":34.6,"humidity":57,"rain":0.0,"pressure":992.8,"uv_index":8.9,"wind_gusts":39.6,"aqi":167,"pm10":78.7,"pm2_5":65.9,"no2":5.2,"co":347.0,"o3":208.0,"so2":16.7,"mosquito_risk":0,"arthritis_risk":5,"migraine_risk":7,"frizz_risk":1,"updated_at":"2026-06-06T15:37:15.601893+05:30"},{"city":"Bhagalpur","state":"Bihar","latitude":25.2425,"longitude":87.0117,"temp":35.6,"humidity":53,"rain":0.0,"pressure":993.4,"uv_index":8.9,"wind_gusts":31.7,"aqi":145,"pm10":58.8,"pm2_5":52.3,"no2":5.9,"co":330.0,"o3":220.0,"so2":27.9,"mosquito_risk":0,"arthritis_risk":5,"migraine_risk":10,"frizz_risk":1,"updated_at":"2026-06-06T15:37:15.601900+05:30"},{"city":"Ranchi","state":"Jharkhand","latitude":23.3441,"longitude":85.3096,"temp":30.1,"humidity":63,"rain":0.0,"pressure":932.5,"uv_index":9.3,"wind_gusts":33.1,"aqi":155,"pm10":87.8,"pm2_5":55.2,"no2":2.8,"co":237.0,"o3":166.0,"so2":10.0,"mosquito_risk":3,"arthritis_risk":5,"migraine_risk":7,"frizz_risk":1,"updated_at":"2026-06-06T15:37:15.601907+05:30"},{"city":"Jamshedpur","state":"Jharkhand","latitude":22.8046,"longitude":86.2029,"temp":33.8,"humidity":56,"rain":0.0,"pressure":983.6,"uv_index":9.1,"wind_gusts":34.9,"aqi":162,"pm10":89.6,"pm2_5":66.4,"no2":4.3,"co":321.0,"o3":213.0,"so2":24.0,"mosquito_risk":0,"arthritis_risk":5,"migraine_risk":7,"frizz_risk":1,"updated_at":"2026-06-06T15:37:15.601913+05:30"},{"city":"Dhanbad","state":"Jharkhand","latitude":23.7957,"longitude":86.4304,"temp":32.8,"humidity":65,"rain":0.0,"pressure":973.2,"uv_index":9.1,"wind_gusts":27.0,"aqi":168,"pm10":112.2,"pm2_5":93.1,"no2":19.4,"co":385.0,"o3":238.0,"so2":70.4,"mosquito_risk":3,"arthritis_risk":5,"migraine_risk":7,"frizz_risk":1,"updated_at":"2026-06-06T15:37:15.601920+05:30"},{"city":"Bokaro","state":"Jharkhand","latitude":23.6693,"longitude":86.1511,"temp":33.3,"humidity":58,"rain":0.0,"pressure":977.0,"uv_index":8.45,"wind_gusts":30.6,"aqi":159,"pm10":106.4,"pm2_5":80.8,"no2":16.3,"co":261.0,"o3":213.0,"so2":59.8,"mosquito_risk":0,"arthritis_risk":5,"migraine_risk":7,"frizz_risk":1,"updated_at":"2026-06-06T15:37:15.601927+05:30"},{"city":"Bhubaneswar","state":"Odisha","latitude":20.2961,"longitude":85.8245,"temp":32.3,"humidity":76,"rain":0.1,"pressure":995.6,"uv_index":9.05,"wind_gusts":19.4,"aqi":153,"pm10":41.6,"pm2_5":34.5,"no2":4.7,"co":334.0,"o3":151.0,"so2":6.9,"mosquito_risk":6,"arthritis_risk":5,"migraine_risk":7,"frizz_risk":1,"updated_at":"2026-06-06T15:37:15.601934+05:30"},{"city":"Cuttack","state":"Odisha","latitude":20.4625,"longitude":85.8828,"temp":31.9,"humidity":81,"rain":0.1,"pressure":997.3,"uv_index":9.15,"wind_gusts":30.2,"aqi":153,"pm10":41.6,"pm2_5":34.5,"no2":4.7,"co":302.0,"o3":151.0,"so2":6.9,"mosquito_risk":6,"arthritis_risk":5,"migraine_risk":7,"frizz_risk":1,"updated_at":"2026-06-06T15:37:15.601942+05:30"},{"city":"Rourkela","state":"Odisha","latitude":22.2604,"longitude":84.8536,"temp":36.1,"humidity":40,"rain":0.0,"pressure":977.7,"uv_index":7.4,"wind_gusts":24.5,"aqi":154,"pm10":92.4,"pm2_5":59.5,"no2":3.2,"co":251.0,"o3":178.0,"so2":14.1,"mosquito_risk":0,"arthritis_risk":5,"migraine_risk":10,"frizz_risk":1,"updated_at":"2026-06-06T15:37:15.601949+05:30"},{"city":"Raipur","state":"Chhattisgarh","latitude":21.2514,"longitude":81.6296,"temp":39.1,"humidity":26,"rain":0.0,"pressure":967.6,"uv_index":8.95,"wind_gusts":34.9,"aqi":130,"pm10":50.4,"pm2_5":25.6,"no2":4.4,"co":144.0,"o3":152.0,"so2":20.8,"mosquito_risk":0,"arthritis_risk":5,"migraine_risk":10,"frizz_risk":1,"updated_at":"2026-06-06T15:37:15.601956+05:30"},{"city":"Bhilai","state":"Chhattisgarh","latitude":21.1938,"longitude":81.3509,"temp":37.9,"humidity":29,"rain":0.0,"pressure":968.1,"uv_index":8.95,"wind_gusts":39.6,"aqi":119,"pm10":46.1,"pm2_5":21.4,"no2":4.4,"co":199.0,"o3":132.0,"so2":16.3,"mosquito_risk":0,"arthritis_risk":5,"migraine_risk":10,"frizz_risk":1,"updated_at":"2026-06-06T15:37:15.601964+05:30"},{"city":"Guwahati","state":"Assam","latitude":26.1158,"longitude":91.7086,"temp":31.3,"humidity":69,"rain":0.0,"pressure":993.9,"uv_index":8.7,"wind_gusts":25.9,"aqi":99,"pm10":27.1,"pm2_5":24.2,"no2":3.0,"co":346.0,"o3":124.0,"so2":2.3,"mosquito_risk":3,"arthritis_risk":5,"migraine_risk":7,"frizz_risk":1,"updated_at":"2026-06-06T15:37:15.601970+05:30"},{"city":"Agartala","state":"Tripura","latitude":23.8315,"longitude":91.2868,"temp":34.1,"humidity":57,"rain":0.0,"pressure":998.2,"uv_index":8.8,"wind_gusts":24.8,"aqi":157,"pm10":52.3,"pm2_5":43.3,"no2":7.0,"co":243.0,"o3":158.0,"so2":6.3,"mosquito_risk":0,"arthritis_risk":5,"migraine_risk":7,"frizz_risk":1,"updated_at":"2026-06-06T15:37:15.601977+05:30"},{"city":"Shillong","state":"Meghalaya","latitude":25.5788,"longitude":91.8933,"temp":24.9,"humidity":62,"rain":0.0,"pressure":854.0,"uv_index":8.95,"wind_gusts":22.0,"aqi":93,"pm10":28.6,"pm2_5":24.8,"no2":3.1,"co":257.0,"o3":121.0,"so2":2.6,"mosquito_risk":3,"arthritis_risk":5,"migraine_risk":7,"frizz_risk":1,"updated_at":"2026-06-06T15:37:15.601984+05:30"},{"city":"Imphal","state":"Manipur","latitude":24.817,"longitude":93.9368,"temp":30.2,"humidity":56,"rain":0.0,"pressure":917.3,"uv_index":9.05,"wind_gusts":32.4,"aqi":116,"pm10":30.2,"pm2_5":25.2,"no2":1.7,"co":235.0,"o3":116.0,"so2":2.4,"mosquito_risk":0,"arthritis_risk":5,"migraine_risk":7,"frizz_risk":1,"updated_at":"2026-06-06T15:37:15.601991+05:30"},{"city":"Aizawl","state":"Mizoram","latitude":23.7271,"longitude":92.7176,"temp":27.7,"humidity":56,"rain":0.0,"pressure":888.3,"uv_index":8.45,"wind_gusts":26.6,"aqi":115,"pm10":40.5,"pm2_5":32.8,"no2":1.6,"co":199.0,"o3":116.0,"so2":3.9,"mosquito_risk":4,"arthritis_risk":5,"migraine_risk":7,"frizz_risk":1,"updated_at":"2026-06-06T15:37:15.601998+05:30"},{"city":"Kohima","state":"Nagaland","latitude":25.6701,"longitude":94.1077,"temp":23.9,"humidity":83,"rain":0.1,"pressure":851.9,"uv_index":9.2,"wind_gusts":26.3,"aqi":74,"pm10":29.4,"pm2_5":23.7,"no2":2.0,"co":251.0,"o3":112.0,"so2":1.9,"mosquito_risk":6,"arthritis_risk":5,"migraine_risk":7,"frizz_risk":1,"updated_at":"2026-06-06T15:37:15.602005+05:30"},{"city":"Gangtok","state":"Sikkim","latitude":27.3314,"longitude":88.6138,"temp":20.7,"humidity":92,"rain":0.1,"pressure":834.2,"uv_index":9.1,"wind_gusts":36.0,"aqi":109,"pm10":13.9,"pm2_5":10.9,"no2":2.0,"co":315.0,"o3":138.0,"so2":2.0,"mosquito_risk":6,"arthritis_risk":5,"migraine_risk":7,"frizz_risk":1,"updated_at":"2026-06-06T15:37:15.602012+05:30"},{"city":"Siliguri","state":"West Bengal","latitude":26.7271,"longitude":88.3953,"temp":28.4,"humidity":81,"rain":0.1,"pressure":986.1,"uv_index":8.8,"wind_gusts":22.0,"aqi":140,"pm10":36.2,"pm2_5":29.5,"no2":3.4,"co":473.0,"o3":155.0,"so2":5.2,"mosquito_risk":10,"arthritis_risk":5,"migraine_risk":7,"frizz_risk":1,"updated_at":"2026-06-06T15:37:18.873734+05:30"},{"city":"Durgapur","state":"West Bengal","latitude":23.5204,"longitude":87.3119,"temp":31.2,"humidity":80,"rain":0.0,"pressure":987.7,"uv_index":9.05,"wind_gusts":36.7,"aqi":166,"pm10":81.3,"pm2_5":69.6,"no2":13.1,"co":336.0,"o3":213.0,"so2":47.8,"mosquito_risk":3,"arthritis_risk":5,"migraine_risk":7,"frizz_risk":1,"updated_at":"2026-06-06T15:37:18.873770+05:30"},{"city":"Asansol","state":"West Bengal","latitude":23.6739,"longitude":86.9524,"temp":31.8,"humidity":74,"rain":0.0,"pressure":986.5,"uv_index":9.05,"wind_gusts":29.9,"aqi":164,"pm10":101.0,"pm2_5":84.8,"no2":13.5,"co":413.0,"o3":224.0,"so2":49.6,"mosquito_risk":3,"arthritis_risk":5,"migraine_risk":7,"frizz_risk":1,"updated_at":"2026-06-06T15:37:18.873781+05:30"},{"city":"Pondicherry","state":"Puducherry","latitude":11.9139,"longitude":79.8145,"temp":33.7,"humidity":59,"rain":0.2,"pressure":1003.7,"uv_index":8.7,"wind_gusts":46.4,"aqi":62,"pm10":25.0,"pm2_5":18.1,"no2":4.7,"co":179.0,"o3":125.0,"so2":6.8,"mosquito_risk":3,"arthritis_risk":5,"migraine_risk":4,"frizz_risk":1,"updated_at":"2026-06-06T15:37:18.873789+05:30"},{"city":"Port Blair","state":"Andaman and Nicobar Islands","latitude":11.6234,"longitude":92.7265,"temp":26.7,"humidity":93,"rain":0.0,"pressure":1005.7,"uv_index":7.85,"wind_gusts":45.4,"aqi":27,"pm10":6.9,"pm2_5":4.4,"no2":0.5,"co":108.0,"o3":61.0,"so2":0.4,"mosquito_risk":7,"arthritis_risk":5,"migraine_risk":4,"frizz_risk":1,"updated_at":"2026-06-06T15:37:18.873797+05:30"},{"city":"Haridwar","state":"Uttarakhand","latitude":29.9457,"longitude":78.1642,"temp":35.3,"humidity":40,"rain":0.0,"pressure":968.2,"uv_index":7.6,"wind_gusts":22.7,"aqi":158,"pm10":51.7,"pm2_5":26.4,"no2":1.2,"co":300.0,"o3":186.0,"so2":11.6,"mosquito_risk":0,"arthritis_risk":5,"migraine_risk":10,"frizz_risk":1,"updated_at":"2026-06-06T15:37:18.873805+05:30"},{"city":"Rishikesh","state":"Uttarakhand","latitude":30.0869,"longitude":78.2676,"temp":34.5,"humidity":39,"rain":0.0,"pressure":961.1,"uv_index":7.65,"wind_gusts":28.4,"aqi":137,"pm10":43.0,"pm2_5":23.2,"no2":0.7,"co":266.0,"o3":180.0,"so2":7.7,"mosquito_risk":0,"arthritis_risk":5,"migraine_risk":7,"frizz_risk":1,"updated_at":"2026-06-06T15:37:18.873812+05:30"},{"city":"Nainital","state":"Uttarakhand","latitude":29.3919,"longitude":79.4542,"temp":17.8,"humidity":85,"rain":0.1,"pressure":804.2,"uv_index":8.3,"wind_gusts":24.1,"aqi":116,"pm10":48.9,"pm2_5":29.1,"no2":1.2,"co":234.0,"o3":174.0,"so2":6.4,"mosquito_risk":6,"arthritis_risk":10,"migraine_risk":7,"frizz_risk":0,"updated_at":"2026-06-06T15:37:18.873820+05:30"},{"city":"Mussoorie","state":"Uttarakhand","latitude":30.4599,"longitude":78.0664,"temp":22.9,"humidity":38,"rain":0.0,"pressure":802.9,"uv_index":8.1,"wind_gusts":45.0,"aqi":156,"pm10":56.2,"pm2_5":28.6,"no2":1.0,"co":216.0,"o3":191.0,"so2":11.3,"mosquito_risk":0,"arthritis_risk":5,"migraine_risk":7,"frizz_risk":0,"updated_at":"2026-06-06T15:37:18.873828+05:30"},{"city":"Dharamshala","state":"Himachal Pradesh","latitude":32.219,"longitude":76.3234,"temp":26.8,"humidity":32,"rain":0.0,"pressure":867.6,"uv_index":8.5,"wind_gusts":43.6,"aqi":102,"pm10":13.2,"pm2_5":8.3,"no2":0.1,"co":203.0,"o3":144.0,"so2":1.6,"mosquito_risk":4,"arthritis_risk":5,"migraine_risk":7,"frizz_risk":0,"updated_at":"2026-06-06T15:37:18.873835+05:30"},{"city":"Dalhousie","state":"Himachal Pradesh","latitude":32.5387,"longitude":75.971,"temp":23.6,"humidity":37,"rain":0.0,"pressure":805.2,"uv_index":8.75,"wind_gusts":35.3,"aqi":112,"pm10":20.0,"pm2_5":13.4,"no2":0.9,"co":176.0,"o3":156.0,"so2":2.7,"mosquito_risk":0,"arthritis_risk":5,"migraine_risk":7,"frizz_risk":0,"updated_at":"2026-06-06T15:37:18.873843+05:30"},{"city":"Patiala","state":"Punjab","latitude":30.3398,"longitude":76.3869,"temp":38.5,"humidity":25,"rain":0.0,"pressure":972.4,"uv_index":7.7,"wind_gusts":30.2,"aqi":205,"pm10":366.9,"pm2_5":62.9,"no2":0.8,"co":231.0,"o3":159.0,"so2":7.6,"mosquito_risk":0,"arthritis_risk":5,"migraine_risk":10,"frizz_risk":0,"updated_at":"2026-06-06T15:37:18.873850+05:30"},{"city":"Bhatinda","state":"Punjab","latitude":30.211,"longitude":74.9455,"temp":38.8,"humidity":26,"rain":0.0,"pressure":977.7,"uv_index":8.35,"wind_gusts":25.9,"aqi":157,"pm10":131.3,"pm2_5":48.5,"no2":1.5,"co":201.0,"o3":192.0,"so2":20.0,"mosquito_risk":0,"arthritis_risk":5,"migraine_risk":10,"frizz_risk":0,"updated_at":"2026-06-06T15:37:18.873857+05:30"},{"city":"Rohtak","state":"Haryana","latitude":28.8955,"longitude":76.6066,"temp":37.4,"humidity":32,"rain":0.0,"pressure":976.1,"uv_index":7.8,"wind_gusts":22.0,"aqi":273,"pm10":414.4,"pm2_5":72.9,"no2":0.0,"co":183.0,"o3":135.0,"so2":4.3,"mosquito_risk":0,"arthritis_risk":5,"migraine_risk":10,"frizz_risk":1,"updated_at":"2026-06-06T15:37:18.873863+05:30"},{"city":"Panipat","state":"Haryana","latitude":29.3909,"longitude":76.9635,"temp":37.7,"humidity":30,"rain":0.0,"pressure":974.5,"uv_index":7.65,"wind_gusts":27.0,"aqi":344,"pm10":780.4,"pm2_5":113.4,"no2":1.8,"co":228.0,"o3":165.0,"so2":14.5,"mosquito_risk":0,"arthritis_risk":5,"migraine_risk":10,"frizz_risk":1,"updated_at":"2026-06-06T15:37:18.873870+05:30"},{"city":"Mathura","state":"Uttar Pradesh","latitude":27.4924,"longitude":77.6737,"temp":38.1,"humidity":32,"rain":0.0,"pressure":980.7,"uv_index":8.05,"wind_gusts":23.8,"aqi":393,"pm10":216.5,"pm2_5":50.2,"no2":0.9,"co":185.0,"o3":125.0,"so2":3.1,"mosquito_risk":0,"arthritis_risk":5,"migraine_risk":10,"frizz_risk":1,"updated_at":"2026-06-06T15:37:18.873877+05:30"},{"city":"Vrindavan","state":"Uttar Pradesh","latitude":27.5823,"longitude":77.7027,"temp":38.1,"humidity":31,"rain":0.0,"pressure":981.1,"uv_index":8.05,"wind_gusts":26.3,"aqi":393,"pm10":216.5,"pm2_5":50.2,"no2":0.9,"co":167.0,"o3":125.0,"so2":3.1,"mosquito_risk":0,"arthritis_risk":5,"migraine_risk":10,"frizz_risk":1,"updated_at":"2026-06-06T15:37:18.873884+05:30"},{"city":"Ayodhya","state":"Uttar Pradesh","latitude":26.7922,"longitude":82.1998,"temp":31.7,"humidity":64,"rain":0.0,"pressure":989.2,"uv_index":8.0,"wind_gusts":25.9,"aqi":151,"pm10":108.5,"pm2_5":44.7,"no2":0.8,"co":334.0,"o3":153.0,"so2":4.4,"mosquito_risk":3,"arthritis_risk":5,"migraine_risk":7,"frizz_risk":1,"updated_at":"2026-06-06T15:37:18.873890+05:30"},{"city":"Ratlam","state":"Madhya Pradesh","latitude":23.3315,"longitude":75.0367,"temp":36.3,"humidity":40,"rain":0.0,"pressure":950.9,"uv_index":8.55,"wind_gusts":36.7,"aqi":87,"pm10":70.8,"pm2_5":32.1,"no2":0.5,"co":134.0,"o3":109.0,"so2":4.5,"mosquito_risk":0,"arthritis_risk":5,"migraine_risk":10,"frizz_risk":1,"updated_at":"2026-06-06T15:37:18.873897+05:30"},{"city":"Sagar","state":"Madhya Pradesh","latitude":23.8388,"longitude":78.7378,"temp":36.5,"humidity":27,"rain":0.0,"pressure":945.7,"uv_index":8.7,"wind_gusts":38.9,"aqi":76,"pm10":87.8,"pm2_5":26.7,"no2":0.3,"co":135.0,"o3":125.0,"so2":3.4,"mosquito_risk":0,"arthritis_risk":5,"migraine_risk":10,"frizz_risk":0,"updated_at":"2026-06-06T15:37:18.873904+05:30"},{"city":"Satna","state":"Madhya Pradesh","latitude":24.6005,"longitude":80.8322,"temp":36.2,"humidity":35,"rain":0.0,"pressure":965.7,"uv_index":8.35,"wind_gusts":37.1,"aqi":96,"pm10":178.8,"pm2_5":48.4,"no2":0.4,"co":177.0,"o3":130.0,"so2":3.9,"mosquito_risk":0,"arthritis_risk":5,"migraine_risk":10,"frizz_risk":1,"updated_at":"2026-06-06T15:37:18.873911+05:30"},{"city":"Akola","state":"Maharashtra","latitude":20.7002,"longitude":77.0082,"temp":39.4,"humidity":27,"rain":0.0,"pressure":969.6,"uv_index":8.8,"wind_gusts":41.4,"aqi":76,"pm10":49.7,"pm2_5":24.0,"no2":1.2,"co":132.0,"o3":118.0,"so2":5.0,"mosquito_risk":0,"arthritis_risk":5,"migraine_risk":10,"frizz_risk":1,"updated_at":"2026-06-06T15:37:18.873919+05:30"},{"city":"Amravati","state":"Maharashtra","latitude":20.9374,"longitude":77.7796,"temp":39.4,"humidity":24,"rain":0.0,"pressure":962.1,"uv_index":8.85,"wind_gusts":44.6,"aqi":78,"pm10":48.4,"pm2_5":23.7,"no2":1.5,"co":140.0,"o3":123.0,"so2":5.8,"mosquito_risk":0,"arthritis_risk":5,"migraine_risk":10,"frizz_risk":0,"updated_at":"2026-06-06T15:37:18.873927+05:30"},{"city":"Latur","state":"Maharashtra","latitude":18.4088,"longitude":76.5604,"temp":35.2,"humidity":31,"rain":0.0,"pressure":936.1,"uv_index":8.9,"wind_gusts":36.0,"aqi":75,"pm10":45.9,"pm2_5":20.6,"no2":0.1,"co":126.0,"o3":109.0,"so2":2.3,"mosquito_risk":0,"arthritis_risk":5,"migraine_risk":10,"frizz_risk":0,"updated_at":"2026-06-06T15:37:18.873935+05:30"},{"city":"Nanded","state":"Maharashtra","latitude":19.1383,"longitude":77.3091,"temp":38.9,"humidity":25,"rain":0.0,"pressure":963.3,"uv_index":8.9,"wind_gusts":32.8,"aqi":84,"pm10":51.6,"pm2_5":22.8,"no2":0.4,"co":136.0,"o3":112.0,"so2":2.1,"mosquito_risk":0,"arthritis_risk":5,"migraine_risk":10,"frizz_risk":0,"updated_at":"2026-06-06T15:37:18.873942+05:30"},{"city":"Gulbarga","state":"Karnataka","latitude":17.3297,"longitude":76.8343,"temp":35.6,"humidity":36,"rain":0.0,"pressure":954.2,"uv_index":8.95,"wind_gusts":40.7,"aqi":73,"pm10":34.8,"pm2_5":18.8,"no2":1.6,"co":168.0,"o3":122.0,"so2":3.3,"mosquito_risk":0,"arthritis_risk":5,"migraine_risk":10,"frizz_risk":1,"updated_at":"2026-06-06T15:37:18.873949+05:30"},{"city":"Bidar","state":"Karnataka","latitude":17.9104,"longitude":77.5199,"temp":34.9,"humidity":34,"rain":0.0,"pressure":931.8,"uv_index":9.0,"wind_gusts":35.3,"aqi":96,"pm10":47.0,"pm2_5":24.0,"no2":0.4,"co":150.0,"o3":126.0,"so2":4.6,"mosquito_risk":0,"arthritis_risk":5,"migraine_risk":7,"frizz_risk":1,"updated_at":"2026-06-06T15:37:18.873955+05:30"},{"city":"Hospet","state":"Karnataka","latitude":15.2689,"longitude":76.3909,"temp":27.7,"humidity":77,"rain":0.0,"pressure":952.9,"uv_index":8.95,"wind_gusts":41.4,"aqi":30,"pm10":16.6,"pm2_5":9.3,"no2":2.1,"co":150.0,"o3":87.0,"so2":1.8,"mosquito_risk":7,"arthritis_risk":5,"migraine_risk":7,"frizz_risk":1,"updated_at":"2026-06-06T15:37:18.873962+05:30"},{"city":"Tirupur","state":"Tamil Nadu","latitude":11.1085,"longitude":77.3411,"temp":25.7,"humidity":85,"rain":0.1,"pressure":973.0,"uv_index":8.95,"wind_gusts":52.9,"aqi":30,"pm10":2.8,"pm2_5":2.7,"no2":3.2,"co":127.0,"o3":69.0,"so2":2.0,"mosquito_risk":10,"arthritis_risk":5,"migraine_risk":7,"frizz_risk":1,"updated_at":"2026-06-06T15:37:18.873968+05:30"},{"city":"Alappuzha","state":"Kerala","latitude":9.4981,"longitude":76.3388,"temp":26.5,"humidity":88,"rain":0.2,"pressure":1009.1,"uv_index":8.3,"wind_gusts":36.4,"aqi":38,"pm10":13.6,"pm2_5":6.8,"no2":2.8,"co":89.0,"o3":58.0,"so2":1.2,"mosquito_risk":10,"arthritis_risk":0,"migraine_risk":4,"frizz_risk":1,"updated_at":"2026-06-06T15:37:18.873975+05:30"},{"city":"Munnar","state":"Kerala","latitude":10.0889,"longitude":77.0595,"temp":17.7,"humidity":94,"rain":0.1,"pressure":856.1,"uv_index":8.8,"wind_gusts":47.5,"aqi":23,"pm10":2.7,"pm2_5":2.0,"no2":2.3,"co":103.0,"o3":57.0,"so2":1.0,"mosquito_risk":6,"arthritis_risk":10,"migraine_risk":7,"frizz_risk":1,"updated_at":"2026-06-06T15:37:18.873982+05:30"},{"city":"Silchar","state":"Assam","latitude":24.8333,"longitude":92.7789,"temp":34.1,"humidity":58,"rain":0.0,"pressure":996.7,"uv_index":8.9,"wind_gusts":23.4,"aqi":138,"pm10":44.0,"pm2_5":36.1,"no2":2.2,"co":261.0,"o3":138.0,"so2":4.2,"mosquito_risk":0,"arthritis_risk":5,"migraine_risk":7,"frizz_risk":1,"updated_at":"2026-06-06T15:37:18.873988+05:30"},{"city":"Dibrugarh","state":"Assam","latitude":27.4728,"longitude":94.912,"temp":32.5,"humidity":61,"rain":0.0,"pressure":987.1,"uv_index":8.95,"wind_gusts":32.4,"aqi":123,"pm10":32.2,"pm2_5":27.6,"no2":2.8,"co":307.0,"o3":131.0,"so2":2.7,"mosquito_risk":3,"arthritis_risk":5,"migraine_risk":7,"frizz_risk":1,"updated_at":"2026-06-06T15:37:18.873994+05:30"}]