[{"city":"Delhi","state":"Delhi","latitude":28.6139,"longitude":77.209,"temp":19.0,"humidity":84,"rain":0.0,"pressure":984.0,"uv_index":6.9,"wind_gusts":40.7,"aqi":151,"pm10":204.0,"pm2_5":72.9,"mosquito_risk":3,"arthritis_risk":10,"migraine_risk":7,"frizz_risk":1,"updated_at":"2026-04-05T05:04:44.983707+05:30"},{"city":"Mumbai","state":"Maharashtra","latitude":19.076,"longitude":72.8777,"temp":27.7,"humidity":76,"rain":0.0,"pressure":1009.6,"uv_index":7.9,"wind_gusts":23.0,"aqi":72,"pm10":61.2,"pm2_5":21.9,"mosquito_risk":7,"arthritis_risk":0,"migraine_risk":4,"frizz_risk":1,"updated_at":"2026-04-05T05:04:44.983749+05:30"},{"city":"Bangalore","state":"Karnataka","latitude":12.9716,"longitude":77.5946,"temp":21.6,"humidity":92,"rain":0.0,"pressure":910.9,"uv_index":9.2,"wind_gusts":34.2,"aqi":104,"pm10":34.0,"pm2_5":32.0,"mosquito_risk":3,"arthritis_risk":5,"migraine_risk":7,"frizz_risk":1,"updated_at":"2026-04-05T05:04:44.983764+05:30"},{"city":"Hyderabad","state":"Telangana","latitude":17.385,"longitude":78.4867,"temp":25.9,"humidity":73,"rain":0.0,"pressure":952.5,"uv_index":9.0,"wind_gusts":29.9,"aqi":111,"pm10":75.7,"pm2_5":67.5,"mosquito_risk":7,"arthritis_risk":5,"migraine_risk":7,"frizz_risk":1,"updated_at":"2026-04-05T05:04:44.983774+05:30"},{"city":"Chennai","state":"Tamil Nadu","latitude":13.0827,"longitude":80.2707,"temp":27.6,"humidity":87,"rain":0.0,"pressure":1006.3,"uv_index":9.35,"wind_gusts":28.1,"aqi":54,"pm10":15.2,"pm2_5":11.7,"mosquito_risk":7,"arthritis_risk":5,"migraine_risk":4,"frizz_risk":1,"updated_at":"2026-04-05T05:04:44.983782+05:30"},{"city":"Kolkata","state":"West Bengal","latitude":22.5726,"longitude":88.3639,"temp":26.8,"humidity":96,"rain":0.0,"pressure":1003.4,"uv_index":6.3,"wind_gusts":28.8,"aqi":131,"pm10":36.8,"pm2_5":34.1,"mosquito_risk":7,"arthritis_risk":5,"migraine_risk":4,"frizz_risk":1,"updated_at":"2026-04-05T05:04:44.983791+05:30"},{"city":"Pune","state":"Maharashtra","latitude":18.5204,"longitude":73.8567,"temp":21.1,"humidity":76,"rain":0.0,"pressure":948.5,"uv_index":8.5,"wind_gusts":38.9,"aqi":77,"pm10":38.1,"pm2_5":25.6,"mosquito_risk":3,"arthritis_risk":5,"migraine_risk":7,"frizz_risk":1,"updated_at":"2026-04-05T05:04:44.983803+05:30"},{"city":"Ahmedabad","state":"Gujarat","latitude":23.0225,"longitude":72.5714,"temp":23.4,"humidity":55,"rain":0.0,"pressure":1003.6,"uv_index":7.9,"wind_gusts":23.0,"aqi":51,"pm10":28.2,"pm2_5":17.8,"mosquito_risk":0,"arthritis_risk":5,"migraine_risk":4,"frizz_risk":0,"updated_at":"2026-04-05T05:04:44.983811+05:30"},{"city":"Jaipur","state":"Rajasthan","latitude":26.9124,"longitude":75.7873,"temp":21.1,"humidity":74,"rain":0.0,"pressure":960.0,"uv_index":7.55,"wind_gusts":36.0,"aqi":81,"pm10":37.5,"pm2_5":18.5,"mosquito_risk":3,"arthritis_risk":5,"migraine_risk":7,"frizz_risk":1,"updated_at":"2026-04-05T05:04:44.983818+05:30"},{"city":"Lucknow","state":"Uttar Pradesh","latitude":26.8467,"longitude":80.9462,"temp":21.2,"humidity":84,"rain":0.0,"pressure":994.4,"uv_index":7.45,"wind_gusts":42.5,"aqi":153,"pm10":45.9,"pm2_5":23.6,"mosquito_risk":3,"arthritis_risk":5,"migraine_risk":7,"frizz_risk":1,"updated_at":"2026-04-05T05:04:44.983825+05:30"},{"city":"Kanpur","state":"Uttar Pradesh","latitude":26.4499,"longitude":80.3319,"temp":21.0,"humidity":87,"rain":0.0,"pressure":993.1,"uv_index":7.45,"wind_gusts":40.7,"aqi":203,"pm10":32.9,"pm2_5":18.6,"mosquito_risk":3,"arthritis_risk":5,"migraine_risk":7,"frizz_risk":1,"updated_at":"2026-04-05T05:04:44.983833+05:30"},{"city":"Chandigarh","state":"Chandigarh","latitude":30.7333,"longitude":76.7794,"temp":18.4,"humidity":75,"rain":0.0,"pressure":968.9,"uv_index":6.85,"wind_gusts":30.2,"aqi":82,"pm10":24.4,"pm2_5":18.9,"mosquito_risk":3,"arthritis_risk":5,"migraine_risk":7,"frizz_risk":0,"updated_at":"2026-04-05T05:04:44.983841+05:30"},{"city":"Srinagar","state":"Jammu and Kashmir","latitude":34.0837,"longitude":74.7973,"temp":5.8,"humidity":90,"rain":0.0,"pressure":838.9,"uv_index":7.8,"wind_gusts":17.3,"aqi":58,"pm10":22.4,"pm2_5":17.7,"mosquito_risk":3,"arthritis_risk":10,"migraine_risk":7,"frizz_risk":0,"updated_at":"2026-04-05T05:04:44.983848+05:30"},{"city":"Jammu","state":"Jammu and Kashmir","latitude":32.7266,"longitude":74.857,"temp":15.4,"humidity":73,"rain":0.0,"pressure":974.5,"uv_index":7.5,"wind_gusts":24.8,"aqi":70,"pm10":11.9,"pm2_5":9.9,"mosquito_risk":3,"arthritis_risk":5,"migraine_risk":7,"frizz_risk":0,"updated_at":"2026-04-05T05:04:44.983856+05:30"},{"city":"Amritsar","state":"Punjab","latitude":31.634,"longitude":74.8723,"temp":14.6,"humidity":97,"rain":0.0,"pressure":982.6,"uv_index":7.4,"wind_gusts":27.0,"aqi":93,"pm10":54.4,"pm2_5":31.9,"mosquito_risk":3,"arthritis_risk":10,"migraine_risk":7,"frizz_risk":0,"updated_at":"2026-04-05T05:04:44.983863+05:30"},{"city":"Ludhiana","state":"Punjab","latitude":30.901,"longitude":75.8573,"temp":16.5,"humidity":91,"rain":0.0,"pressure":979.9,"uv_index":7.05,"wind_gusts":30.6,"aqi":93,"pm10":44.9,"pm2_5":32.6,"mosquito_risk":3,"arthritis_risk":10,"migraine_risk":7,"frizz_risk":0,"updated_at":"2026-04-05T05:04:44.983869+05:30"},{"city":"Jalandhar","state":"Punjab","latitude":31.326,"longitude":75.5762,"temp":16.1,"humidity":93,"rain":0.0,"pressure":981.2,"uv_index":7.25,"wind_gusts":29.5,"aqi":90,"pm10":52.9,"pm2_5":26.0,"mosquito_risk":3,"arthritis_risk":10,"migraine_risk":7,"frizz_risk":0,"updated_at":"2026-04-05T05:04:44.983877+05:30"},{"city":"Dehradun","state":"Uttarakhand","latitude":30.6284,"longitude":78.0322,"temp":10.8,"humidity":85,"rain":0.0,"pressure":827.8,"uv_index":6.65,"wind_gusts":39.2,"aqi":31,"pm10":14.9,"pm2_5":6.1,"mosquito_risk":3,"arthritis_risk":10,"migraine_risk":7,"frizz_risk":0,"updated_at":"2026-04-05T05:04:44.983884+05:30"},{"city":"Shimla","state":"Himachal Pradesh","latitude":31.1048,"longitude":77.1734,"temp":8.7,"humidity":72,"rain":0.0,"pressure":780.9,"uv_index":6.6,"wind_gusts":34.9,"aqi":39,"pm10":15.3,"pm2_5":6.8,"mosquito_risk":3,"arthritis_risk":5,"migraine_risk":7,"frizz_risk":0,"updated_at":"2026-04-05T05:04:44.983890+05:30"},{"city":"Manali","state":"Himachal Pradesh","latitude":32.2396,"longitude":77.1887,"temp":12.0,"humidity":65,"rain":0.0,"pressure":816.5,"uv_index":9.5,"wind_gusts":31.3,"aqi":44,"pm10":6.5,"pm2_5":4.2,"mosquito_risk":3,"arthritis_risk":5,"migraine_risk":7,"frizz_risk":0,"updated_at":"2026-04-05T05:04:44.983897+05:30"},{"city":"Gurgaon","state":"Haryana","latitude":28.4595,"longitude":77.0266,"temp":17.8,"humidity":91,"rain":0.0,"pressure":982.4,"uv_index":7.0,"wind_gusts":36.7,"aqi":446,"pm10":231.0,"pm2_5":72.2,"mosquito_risk":3,"arthritis_risk":10,"migraine_risk":7,"frizz_risk":1,"updated_at":"2026-04-05T05:04:44.983904+05:30"},{"city":"Noida","state":"Uttar Pradesh","latitude":28.5355,"longitude":77.391,"temp":18.8,"humidity":84,"rain":0.0,"pressure":985.5,"uv_index":6.95,"wind_gusts":39.2,"aqi":446,"pm10":231.0,"pm2_5":72.2,"mosquito_risk":3,"arthritis_risk":10,"migraine_risk":7,"frizz_risk":0,"updated_at":"2026-04-05T05:04:44.983910+05:30"},{"city":"Ghaziabad","state":"Uttar Pradesh","latitude":28.6692,"longitude":77.4538,"temp":18.5,"humidity":89,"rain":0.0,"pressure":983.5,"uv_index":6.9,"wind_gusts":42.1,"aqi":145,"pm10":186.3,"pm2_5":71.5,"mosquito_risk":3,"arthritis_risk":10,"migraine_risk":7,"frizz_risk":1,"updated_at":"2026-04-05T05:04:44.983917+05:30"},{"city":"Faridabad","state":"Haryana","latitude":28.4089,"longitude":77.3178,"temp":18.9,"humidity":88,"rain":0.0,"pressure":984.8,"uv_index":6.95,"wind_gusts":36.4,"aqi":446,"pm10":231.0,"pm2_5":72.2,"mosquito_risk":3,"arthritis_risk":10,"migraine_risk":7,"frizz_risk":1,"updated_at":"2026-04-05T05:04:44.983923+05:30"},{"city":"Meerut","state":"Uttar Pradesh","latitude":28.9845,"longitude":77.7064,"temp":17.9,"humidity":93,"rain":0.0,"pressure":982.1,"uv_index":6.8,"wind_gusts":32.8,"aqi":145,"pm10":186.3,"pm2_5":71.5,"mosquito_risk":3,"arthritis_risk":10,"migraine_risk":7,"frizz_risk":1,"updated_at":"2026-04-05T05:04:44.983930+05:30"},{"city":"Agra","state":"Uttar Pradesh","latitude":27.1767,"longitude":78.0081,"temp":19.0,"humidity":89,"rain":0.0,"pressure":988.7,"uv_index":7.3,"wind_gusts":32.4,"aqi":426,"pm10":326.9,"pm2_5":46.9,"mosquito_risk":3,"arthritis_risk":10,"migraine_risk":7,"frizz_risk":1,"updated_at":"2026-04-05T05:04:44.983936+05:30"},{"city":"Varanasi","state":"Uttar Pradesh","latitude":25.3176,"longitude":82.9739,"temp":22.4,"humidity":89,"rain":0.0,"pressure":997.1,"uv_index":8.05,"wind_gusts":45.7,"aqi":84,"pm10":59.8,"pm2_5":27.1,"mosquito_risk":3,"arthritis_risk":5,"migraine_risk":7,"frizz_risk":1,"updated_at":"2026-04-05T05:04:44.983945+05:30"},{"city":"Prayagraj","state":"Uttar Pradesh","latitude":25.4358,"longitude":81.8463,"temp":22.8,"humidity":88,"rain":0.0,"pressure":995.7,"uv_index":7.95,"wind_gusts":34.2,"aqi":90,"pm10":35.2,"pm2_5":18.7,"mosquito_risk":3,"arthritis_risk":5,"migraine_risk":7,"frizz_risk":1,"updated_at":"2026-04-05T05:04:44.983952+05:30"},{"city":"Gorakhpur","state":"Uttar Pradesh","latitude":26.7606,"longitude":83.3732,"temp":24.5,"humidity":50,"rain":0.0,"pressure":995.5,"uv_index":7.85,"wind_gusts":45.4,"aqi":98,"pm10":114.6,"pm2_5":39.3,"mosquito_risk":0,"arthritis_risk":5,"migraine_risk":7,"frizz_risk":0,"updated_at":"2026-04-05T05:04:44.983959+05:30"},{"city":"Bareilly","state":"Uttar Pradesh","latitude":28.367,"longitude":79.4304,"temp":20.5,"humidity":80,"rain":0.0,"pressure":987.5,"uv_index":7.2,"wind_gusts":32.0,"aqi":85,"pm10":67.3,"pm2_5":38.6,"mosquito_risk":3,"arthritis_risk":5,"migraine_risk":7,"frizz_risk":1,"updated_at":"2026-04-05T05:04:44.983967+05:30"},{"city":"Aligarh","state":"Uttar Pradesh","latitude":27.8974,"longitude":78.088,"temp":18.5,"humidity":92,"rain":0.0,"pressure":986.4,"uv_index":7.1,"wind_gusts":33.1,"aqi":371,"pm10":297.1,"pm2_5":62.9,"mosquito_risk":3,"arthritis_risk":10,"migraine_risk":7,"frizz_risk":1,"updated_at":"2026-04-05T05:04:44.983974+05:30"},{"city":"Moradabad","state":"Uttar Pradesh","latitude":28.8386,"longitude":78.7733,"temp":19.6,"humidity":87,"rain":0.0,"pressure":983.9,"uv_index":7.0,"wind_gusts":32.8,"aqi":101,"pm10":66.8,"pm2_5":38.4,"mosquito_risk":3,"arthritis_risk":10,"migraine_risk":7,"frizz_risk":1,"updated_at":"2026-04-05T05:04:44.983980+05:30"},{"city":"Saharanpur","state":"Uttar Pradesh","latitude":29.9637,"longitude":77.546,"temp":18.1,"humidity":79,"rain":0.0,"pressure":975.8,"uv_index":6.6,"wind_gusts":34.9,"aqi":119,"pm10":30.0,"pm2_5":20.4,"mosquito_risk":3,"arthritis_risk":5,"migraine_risk":7,"frizz_risk":0,"updated_at":"2026-04-05T05:04:44.983986+05:30"},{"city":"Jhansi","state":"Uttar Pradesh","latitude":25.4484,"longitude":78.5685,"temp":20.3,"humidity":93,"rain":0.0,"pressure":978.7,"uv_index":7.85,"wind_gusts":30.6,"aqi":86,"pm10":22.1,"pm2_5":11.9,"mosquito_risk":3,"arthritis_risk":5,"migraine_risk":7,"frizz_risk":1,"updated_at":"2026-04-05T05:04:48.220896+05:30"},{"city":"Surat","state":"Gujarat","latitude":21.1702,"longitude":72.8311,"temp":26.1,"humidity":65,"rain":0.0,"pressure":1008.0,"uv_index":7.7,"wind_gusts":28.4,"aqi":76,"pm10":26.5,"pm2_5":19.5,"mosquito_risk":7,"arthritis_risk":0,"migraine_risk":4,"frizz_risk":1,"updated_at":"2026-04-05T05:04:48.220925+05:30"},{"city":"Vadodara","state":"Gujarat","latitude":22.3072,"longitude":73.1812,"temp":24.5,"humidity":91,"rain":0.0,"pressure":1005.7,"uv_index":7.9,"wind_gusts":21.2,"aqi":77,"pm10":39.1,"pm2_5":26.4,"mosquito_risk":3,"arthritis_risk":5,"migraine_risk":4,"frizz_risk":1,"updated_at":"2026-04-05T05:04:48.220935+05:30"},{"city":"Rajkot","state":"Gujarat","latitude":22.3039,"longitude":70.8022,"temp":21.2,"humidity":83,"rain":0.0,"pressure":996.0,"uv_index":7.65,"wind_gusts":33.5,"aqi":48,"pm10":24.7,"pm2_5":8.8,"mosquito_risk":3,"arthritis_risk":5,"migraine_risk":7,"frizz_risk":1,"updated_at":"2026-04-05T05:04:48.220944+05:30"},{"city":"Thane","state":"Maharashtra","latitude":19.2183,"longitude":72.9781,"temp":26.0,"humidity":81,"rain":0.0,"pressure":1009.1,"uv_index":7.9,"wind_gusts":33.8,"aqi":72,"pm10":61.2,"pm2_5":21.9,"mosquito_risk":7,"arthritis_risk":0,"migraine_risk":4,"frizz_risk":1,"updated_at":"2026-04-05T05:04:48.220951+05:30"},{"city":"Nagpur","state":"Maharashtra","latitude":21.1458,"longitude":79.0882,"temp":24.6,"humidity":66,"rain":0.0,"pressure":973.2,"uv_index":8.7,"wind_gusts":27.7,"aqi":101,"pm10":26.0,"pm2_5":23.1,"mosquito_risk":3,"arthritis_risk":5,"migraine_risk":7,"frizz_risk":1,"updated_at":"2026-04-05T05:04:48.220959+05:30"},{"city":"Nashik","state":"Maharashtra","latitude":19.9975,"longitude":73.7898,"temp":19.7,"humidity":86,"rain":0.0,"pressure":946.0,"uv_index":8.15,"wind_gusts":33.5,"aqi":54,"pm10":38.5,"pm2_5":16.1,"mosquito_risk":3,"arthritis_risk":10,"migraine_risk":7,"frizz_risk":1,"updated_at":"2026-04-05T05:04:48.220966+05:30"},{"city":"Aurangabad","state":"Maharashtra","latitude":19.8762,"longitude":75.3433,"temp":22.3,"humidity":66,"rain":0.0,"pressure":944.2,"uv_index":8.85,"wind_gusts":38.5,"aqi":59,"pm10":36.2,"pm2_5":18.9,"mosquito_risk":3,"arthritis_risk":5,"migraine_risk":7,"frizz_risk":0,"updated_at":"2026-04-05T05:04:48.220973+05:30"},{"city":"Solapur","state":"Maharashtra","latitude":17.6599,"longitude":75.9064,"temp":24.9,"humidity":67,"rain":0.0,"pressure":957.4,"uv_index":8.7,"wind_gusts":29.9,"aqi":92,"pm10":18.9,"pm2_5":16.6,"mosquito_risk":3,"arthritis_risk":5,"migraine_risk":7,"frizz_risk":1,"updated_at":"2026-04-05T05:04:48.220980+05:30"},{"city":"Kolhapur","state":"Maharashtra","latitude":16.705,"longitude":74.2433,"temp":18.8,"humidity":82,"rain":0.0,"pressure":947.5,"uv_index":8.4,"wind_gusts":42.8,"aqi":80,"pm10":29.9,"pm2_5":24.4,"mosquito_risk":3,"arthritis_risk":10,"migraine_risk":7,"frizz_risk":0,"updated_at":"2026-04-05T05:04:48.220987+05:30"},{"city":"Goa","state":"Goa","latitude":15.2993,"longitude":74.124,"temp":26.4,"humidity":77,"rain":0.0,"pressure":998.4,"uv_index":9.05,"wind_gusts":39.2,"aqi":64,"pm10":37.8,"pm2_5":23.7,"mosquito_risk":7,"arthritis_risk":5,"migraine_risk":7,"frizz_risk":1,"updated_at":"2026-04-05T05:04:48.220994+05:30"},{"city":"Jodhpur","state":"Rajasthan","latitude":26.2389,"longitude":73.0243,"temp":21.0,"humidity":52,"rain":0.0,"pressure":984.2,"uv_index":7.8,"wind_gusts":25.9,"aqi":79,"pm10":104.1,"pm2_5":18.9,"mosquito_risk":0,"arthritis_risk":5,"migraine_risk":7,"frizz_risk":0,"updated_at":"2026-04-05T05:04:48.221000+05:30"},{"city":"Udaipur","state":"Rajasthan","latitude":24.5854,"longitude":73.7125,"temp":18.6,"humidity":55,"rain":0.0,"pressure":946.7,"uv_index":8.4,"wind_gusts":33.5,"aqi":41,"pm10":13.1,"pm2_5":6.9,"mosquito_risk":0,"arthritis_risk":5,"migraine_risk":7,"frizz_risk":0,"updated_at":"2026-04-05T05:04:48.221007+05:30"},{"city":"Kota","state":"Rajasthan","latitude":25.2138,"longitude":75.8648,"temp":22.5,"humidity":55,"rain":0.0,"pressure":979.4,"uv_index":7.3,"wind_gusts":26.6,"aqi":70,"pm10":28.9,"pm2_5":15.3,"mosquito_risk":0,"arthritis_risk":5,"migraine_risk":7,"frizz_risk":0,"updated_at":"2026-04-05T05:04:48.221014+05:30"},{"city":"Bikaner","state":"Rajasthan","latitude":28.0229,"longitude":73.3119,"temp":20.3,"humidity":64,"rain":0.0,"pressure":983.4,"uv_index":7.6,"wind_gusts":27.0,"aqi":55,"pm10":51.2,"pm2_5":17.5,"mosquito_risk":3,"arthritis_risk":5,"migraine_risk":7,"frizz_risk":0,"updated_at":"2026-04-05T05:04:48.221020+05:30"},{"city":"Ajmer","state":"Rajasthan","latitude":26.4499,"longitude":74.6399,"temp":19.9,"humidity":59,"rain":0.0,"pressure":954.6,"uv_index":7.75,"wind_gusts":30.2,"aqi":63,"pm10":27.6,"pm2_5":10.8,"mosquito_risk":0,"arthritis_risk":5,"migraine_risk":7,"frizz_risk":0,"updated_at":"2026-04-05T05:04:48.221026+05:30"},{"city":"Gwalior","state":"Madhya Pradesh","latitude":26.2183,"longitude":78.1828,"temp":19.6,"humidity":93,"rain":0.0,"pressure":984.0,"uv_index":7.6,"wind_gusts":50.8,"aqi":93,"pm10":33.5,"pm2_5":17.8,"mosquito_risk":3,"arthritis_risk":10,"migraine_risk":7,"frizz_risk":1,"updated_at":"2026-04-05T05:04:48.221033+05:30"},{"city":"Indore","state":"Madhya Pradesh","latitude":22.7196,"longitude":75.8577,"temp":20.4,"humidity":75,"rain":0.0,"pressure":948.2,"uv_index":8.35,"wind_gusts":29.5,"aqi":68,"pm10":36.9,"pm2_5":24.3,"mosquito_risk":3,"arthritis_risk":5,"migraine_risk":7,"frizz_risk":0,"updated_at":"2026-04-05T05:04:48.221039+05:30"},{"city":"Bhopal","state":"Madhya Pradesh","latitude":23.2599,"longitude":77.4126,"temp":21.0,"humidity":70,"rain":0.0,"pressure":953.8,"uv_index":8.3,"wind_gusts":32.4,"aqi":63,"pm10":22.1,"pm2_5":14.0,"mosquito_risk":3,"arthritis_risk":5,"migraine_risk":7,"frizz_risk":0,"updated_at":"2026-04-05T05:04:48.221046+05:30"},{"city":"Jabalpur","state":"Madhya Pradesh","latitude":23.1815,"longitude":79.9864,"temp":23.0,"humidity":76,"rain":0.0,"pressure":961.8,"uv_index":8.3,"wind_gusts":35.6,"aqi":73,"pm10":42.4,"pm2_5":29.1,"mosquito_risk":3,"arthritis_risk":5,"migraine_risk":7,"frizz_risk":1,"updated_at":"2026-04-05T05:04:48.221052+05:30"},{"city":"Ujjain","state":"Madhya Pradesh","latitude":23.1765,"longitude":75.7885,"temp":21.0,"humidity":57,"rain":0.0,"pressure":954.1,"uv_index":8.25,"wind_gusts":31.3,"aqi":68,"pm10":26.6,"pm2_5":19.6,"mosquito_risk":0,"arthritis_risk":5,"migraine_risk":7,"frizz_risk":0,"updated_at":"2026-04-05T05:04:48.221059+05:30"},{"city":"Visakhapatnam","state":"Andhra Pradesh","latitude":17.6868,"longitude":83.2185,"temp":26.2,"humidity":92,"rain":0.0,"pressure":1003.3,"uv_index":9.05,"wind_gusts":34.9,"aqi":66,"pm10":27.5,"pm2_5":23.8,"mosquito_risk":7,"arthritis_risk":5,"migraine_risk":4,"frizz_risk":1,"updated_at":"2026-04-05T05:04:48.221066+05:30"},{"city":"Vijayawada","state":"Andhra Pradesh","latitude":16.5062,"longitude":80.648,"temp":26.3,"humidity":92,"rain":0.0,"pressure":1002.0,"uv_index":9.15,"wind_gusts":24.8,"aqi":62,"pm10":22.6,"pm2_5":20.7,"mosquito_risk":7,"arthritis_risk":5,"migraine_risk":4,"frizz_risk":1,"updated_at":"2026-04-05T05:04:48.221072+05:30"},{"city":"Guntur","state":"Andhra Pradesh","latitude":16.3067,"longitude":80.4365,"temp":26.6,"humidity":93,"rain":0.0,"pressure":1003.0,"uv_index":9.2,"wind_gusts":29.9,"aqi":62,"pm10":19.3,"pm2_5":17.6,"mosquito_risk":7,"arthritis_risk":5,"migraine_risk":4,"frizz_risk":1,"updated_at":"2026-04-05T05:04:48.221079+05:30"},{"city":"Nellore","state":"Andhra Pradesh","latitude":14.4426,"longitude":79.9865,"temp":27.2,"humidity":88,"rain":0.0,"pressure":1004.4,"uv_index":9.3,"wind_gusts":25.2,"aqi":57,"pm10":17.1,"pm2_5":15.7,"mosquito_risk":7,"arthritis_risk":5,"migraine_risk":4,"frizz_risk":1,"updated_at":"2026-04-05T05:04:48.221086+05:30"},{"city":"Kurnool","state":"Andhra Pradesh","latitude":15.8281,"longitude":78.0373,"temp":28.9,"humidity":58,"rain":0.0,"pressure":975.9,"uv_index":9.1,"wind_gusts":33.5,"aqi":75,"pm10":26.1,"pm2_5":23.6,"mosquito_risk":4,"arthritis_risk":5,"migraine_risk":7,"frizz_risk":1,"updated_at":"2026-04-05T05:04:48.221094+05:30"},{"city":"Kakinada","state":"Andhra Pradesh","latitude":16.9891,"longitude":82.2475,"temp":25.3,"humidity":93,"rain":0.0,"pressure":1007.0,"uv_index":9.1,"wind_gusts":26.3,"aqi":42,"pm10":21.6,"pm2_5":17.8,"mosquito_risk":7,"arthritis_risk":5,"migraine_risk":4,"frizz_risk":1,"updated_at":"2026-04-05T05:04:48.221100+05:30"},{"city":"Tirupati","state":"Andhra Pradesh","latitude":13.6288,"longitude":79.4192,"temp":26.1,"humidity":92,"rain":0.0,"pressure":991.0,"uv_index":8.7,"wind_gusts":36.7,"aqi":65,"pm10":29.3,"pm2_5":28.3,"mosquito_risk":7,"arthritis_risk":5,"migraine_risk":7,"frizz_risk":1,"updated_at":"2026-04-05T05:04:48.221106+05:30"},{"city":"Warangal","state":"Telangana","latitude":17.9689,"longitude":79.5941,"temp":24.6,"humidity":84,"rain":0.0,"pressure":978.4,"uv_index":6.0,"wind_gusts":36.0,"aqi":132,"pm10":66.1,"pm2_5":60.1,"mosquito_risk":3,"arthritis_risk":5,"migraine_risk":3,"frizz_risk":1,"updated_at":"2026-04-05T05:04:48.221112+05:30"},{"city":"Nizamabad","state":"Telangana","latitude":18.6725,"longitude":78.0941,"temp":24.2,"humidity":76,"rain":0.0,"pressure":965.2,"uv_index":7.75,"wind_gusts":55.1,"aqi":121,"pm10":69.8,"pm2_5":60.5,"mosquito_risk":3,"arthritis_risk":5,"migraine_risk":7,"frizz_risk":1,"updated_at":"2026-04-05T05:04:48.221118+05:30"},{"city":"Mysore","state":"Karnataka","latitude":12.2958,"longitude":76.6396,"temp":21.6,"humidity":94,"rain":0.0,"pressure":927.8,"uv_index":9.0,"wind_gusts":37.1,"aqi":76,"pm10":25.3,"pm2_5":23.8,"mosquito_risk":3,"arthritis_risk":5,"migraine_risk":7,"frizz_risk":1,"updated_at":"2026-04-05T05:04:48.221125+05:30"},{"city":"Mangalore","state":"Karnataka","latitude":12.9141,"longitude":74.856,"temp":29.1,"humidity":78,"rain":0.0,"pressure":1006.4,"uv_index":9.0,"wind_gusts":33.1,"aqi":65,"pm10":31.0,"pm2_5":23.8,"mosquito_risk":7,"arthritis_risk":5,"migraine_risk":4,"frizz_risk":1,"updated_at":"2026-04-05T05:04:48.221131+05:30"},{"city":"Hubli-Dharwad","state":"Karnataka","latitude":15.3647,"longitude":75.124,"temp":21.5,"humidity":86,"rain":0.0,"pressure":940.5,"uv_index":9.25,"wind_gusts":36.0,"aqi":67,"pm10":29.7,"pm2_5":17.3,"mosquito_risk":3,"arthritis_risk":5,"migraine_risk":7,"frizz_risk":1,"updated_at":"2026-04-05T05:04:48.221137+05:30"},{"city":"Belgaum","state":"Karnataka","latitude":15.8497,"longitude":74.4977,"temp":18.9,"humidity":88,"rain":0.0,"pressure":924.9,"uv_index":9.3,"wind_gusts":37.8,"aqi":67,"pm10":29.8,"pm2_5":18.7,"mosquito_risk":3,"arthritis_risk":10,"migraine_risk":7,"frizz_risk":1,"updated_at":"2026-04-05T05:04:51.443664+05:30"},{"city":"Coimbatore","state":"Tamil Nadu","latitude":11.0168,"longitude":76.9558,"temp":23.9,"humidity":85,"rain":0.0,"pressure":961.4,"uv_index":9.5,"wind_gusts":50.4,"aqi":63,"pm10":17.3,"pm2_5":16.1,"mosquito_risk":3,"arthritis_risk":5,"migraine_risk":7,"frizz_risk":1,"updated_at":"2026-04-05T05:04:51.443692+05:30"},{"city":"Madurai","state":"Tamil Nadu","latitude":9.9252,"longitude":78.1198,"temp":25.7,"humidity":86,"rain":0.0,"pressure":992.3,"uv_index":3.9,"wind_gusts":25.9,"aqi":73,"pm10":30.3,"pm2_5":29.5,"mosquito_risk":7,"arthritis_risk":5,"migraine_risk":3,"frizz_risk":1,"updated_at":"2026-04-05T05:04:51.443702+05:30"},{"city":"Trichy","state":"Tamil Nadu","latitude":10.7905,"longitude":78.7047,"temp":25.7,"humidity":87,"rain":0.0,"pressure":999.2,"uv_index":9.2,"wind_gusts":40.7,"aqi":76,"pm10":42.0,"pm2_5":39.6,"mosquito_risk":7,"arthritis_risk":5,"migraine_risk":7,"frizz_risk":1,"updated_at":"2026-04-05T05:04:51.443709+05:30"},{"city":"Salem","state":"Tamil Nadu","latitude":11.6643,"longitude":78.146,"temp":25.3,"humidity":82,"rain":0.0,"pressure":976.8,"uv_index":9.5,"wind_gusts":24.5,"aqi":86,"pm10":32.9,"pm2_5":30.6,"mosquito_risk":7,"arthritis_risk":5,"migraine_risk":7,"frizz_risk":1,"updated_at":"2026-04-05T05:04:51.443717+05:30"},{"city":"Tirunelveli","state":"Tamil Nadu","latitude":8.7139,"longitude":77.7567,"temp":26.3,"humidity":74,"rain":0.0,"pressure":1002.4,"uv_index":9.4,"wind_gusts":34.2,"aqi":63,"pm10":20.7,"pm2_5":20.0,"mosquito_risk":7,"arthritis_risk":5,"migraine_risk":4,"frizz_risk":1,"updated_at":"2026-04-05T05:04:51.443724+05:30"},{"city":"Vellore","state":"Tamil Nadu","latitude":12.9165,"longitude":79.1325,"temp":24.9,"humidity":88,"rain":0.0,"pressure":984.0,"uv_index":9.45,"wind_gusts":38.5,"aqi":85,"pm10":53.7,"pm2_5":51.3,"mosquito_risk":3,"arthritis_risk":5,"migraine_risk":7,"frizz_risk":1,"updated_at":"2026-04-05T05:04:51.443730+05:30"},{"city":"Erode","state":"Tamil Nadu","latitude":11.341,"longitude":77.7172,"temp":26.7,"humidity":81,"rain":0.0,"pressure":988.5,"uv_index":9.45,"wind_gusts":34.9,"aqi":75,"pm10":25.6,"pm2_5":24.4,"mosquito_risk":7,"arthritis_risk":5,"migraine_risk":7,"frizz_risk":1,"updated_at":"2026-04-05T05:04:51.443738+05:30"},{"city":"Kochi","state":"Kerala","latitude":9.9312,"longitude":76.2673,"temp":28.3,"humidity":83,"rain":0.0,"pressure":1008.3,"uv_index":8.8,"wind_gusts":28.1,"aqi":63,"pm10":25.4,"pm2_5":24.7,"mosquito_risk":7,"arthritis_risk":0,"migraine_risk":4,"frizz_risk":1,"updated_at":"2026-04-05T05:04:51.443744+05:30"},{"city":"Thiruvananthapuram","state":"Kerala","latitude":8.5241,"longitude":76.9366,"temp":28.4,"humidity":81,"rain":0.0,"pressure":1007.5,"uv_index":8.85,"wind_gusts":32.4,"aqi":56,"pm10":16.5,"pm2_5":12.8,"mosquito_risk":7,"arthritis_risk":5,"migraine_risk":4,"frizz_risk":1,"updated_at":"2026-04-05T05:04:51.443751+05:30"},{"city":"Kozhikode","state":"Kerala","latitude":11.2588,"longitude":75.7804,"temp":28.2,"humidity":84,"rain":0.0,"pressure":1007.5,"uv_index":9.2,"wind_gusts":34.2,"aqi":47,"pm10":21.3,"pm2_5":15.8,"mosquito_risk":7,"arthritis_risk":5,"migraine_risk":4,"frizz_risk":1,"updated_at":"2026-04-05T05:04:51.443757+05:30"},{"city":"Thrissur","state":"Kerala","latitude":10.5276,"longitude":76.2144,"temp":26.7,"humidity":91,"rain":0.0,"pressure":1006.7,"uv_index":9.2,"wind_gusts":35.6,"aqi":59,"pm10":20.6,"pm2_5":19.2,"mosquito_risk":7,"arthritis_risk":5,"migraine_risk":4,"frizz_risk":1,"updated_at":"2026-04-05T05:04:51.443764+05:30"},{"city":"Kannur","state":"Kerala","latitude":11.8745,"longitude":75.3704,"temp":27.3,"humidity":82,"rain":0.0,"pressure":1006.8,"uv_index":9.15,"wind_gusts":37.4,"aqi":66,"pm10":29.9,"pm2_5":27.6,"mosquito_risk":7,"arthritis_risk":5,"migraine_risk":4,"frizz_risk":1,"updated_at":"2026-04-05T05:04:51.443771+05:30"},{"city":"Patna","state":"Bihar","latitude":25.5941,"longitude":85.1376,"temp":25.9,"humidity":65,"rain":0.0,"pressure":1000.0,"uv_index":8.25,"wind_gusts":45.0,"aqi":81,"pm10":88.2,"pm2_5":39.9,"mosquito_risk":7,"arthritis_risk":5,"migraine_risk":4,"frizz_risk":1,"updated_at":"2026-04-05T05:04:51.443777+05:30"},{"city":"Gaya","state":"Bihar","latitude":24.7914,"longitude":85.0002,"temp":23.7,"humidity":79,"rain":0.0,"pressure":994.3,"uv_index":8.35,"wind_gusts":41.4,"aqi":72,"pm10":36.6,"pm2_5":25.1,"mosquito_risk":3,"arthritis_risk":5,"migraine_risk":7,"frizz_risk":1,"updated_at":"2026-04-05T05:04:51.443783+05:30"},{"city":"Muzaffarpur","state":"Bihar","latitude":26.1209,"longitude":85.3647,"temp":24.9,"humidity":70,"rain":0.0,"pressure":999.3,"uv_index":8.25,"wind_gusts":41.0,"aqi":84,"pm10":99.9,"pm2_5":44.0,"mosquito_risk":3,"arthritis_risk":5,"migraine_risk":7,"frizz_risk":1,"updated_at":"2026-04-05T05:04:51.443789+05:30"},{"city":"Bhagalpur","state":"Bihar","latitude":25.2425,"longitude":87.0117,"temp":25.2,"humidity":72,"rain":0.0,"pressure":999.8,"uv_index":8.3,"wind_gusts":33.1,"aqi":79,"pm10":42.1,"pm2_5":25.8,"mosquito_risk":7,"arthritis_risk":5,"migraine_risk":7,"frizz_risk":1,"updated_at":"2026-04-05T05:04:51.443796+05:30"},{"city":"Ranchi","state":"Jharkhand","latitude":23.3441,"longitude":85.3096,"temp":21.1,"humidity":79,"rain":0.0,"pressure":938.2,"uv_index":8.2,"wind_gusts":36.4,"aqi":67,"pm10":18.7,"pm2_5":16.5,"mosquito_risk":3,"arthritis_risk":5,"migraine_risk":7,"frizz_risk":1,"updated_at":"2026-04-05T05:04:51.443802+05:30"},{"city":"Jamshedpur","state":"Jharkhand","latitude":22.8046,"longitude":86.2029,"temp":25.7,"humidity":69,"rain":0.0,"pressure":990.3,"uv_index":8.2,"wind_gusts":23.4,"aqi":114,"pm10":46.3,"pm2_5":42.8,"mosquito_risk":7,"arthritis_risk":5,"migraine_risk":7,"frizz_risk":1,"updated_at":"2026-04-05T05:04:51.443807+05:30"},{"city":"Dhanbad","state":"Jharkhand","latitude":23.7957,"longitude":86.4304,"temp":25.9,"humidity":56,"rain":0.0,"pressure":979.8,"uv_index":8.1,"wind_gusts":37.4,"aqi":101,"pm10":45.6,"pm2_5":42.4,"mosquito_risk":4,"arthritis_risk":5,"migraine_risk":7,"frizz_risk":1,"updated_at":"2026-04-05T05:04:51.443814+05:30"},{"city":"Bokaro","state":"Jharkhand","latitude":23.6693,"longitude":86.1511,"temp":25.4,"humidity":60,"rain":0.0,"pressure":984.4,"uv_index":8.4,"wind_gusts":38.2,"aqi":102,"pm10":45.9,"pm2_5":42.7,"mosquito_risk":4,"arthritis_risk":5,"migraine_risk":7,"frizz_risk":1,"updated_at":"2026-04-05T05:04:51.443820+05:30"},{"city":"Bhubaneswar","state":"Odisha","latitude":20.2961,"longitude":85.8245,"temp":26.1,"humidity":96,"rain":0.0,"pressure":1001.5,"uv_index":8.5,"wind_gusts":30.2,"aqi":91,"pm10":33.3,"pm2_5":30.0,"mosquito_risk":7,"arthritis_risk":5,"migraine_risk":4,"frizz_risk":1,"updated_at":"2026-04-05T05:04:51.443826+05:30"},{"city":"Cuttack","state":"Odisha","latitude":20.4625,"longitude":85.8828,"temp":26.0,"humidity":94,"rain":0.0,"pressure":1003.2,"uv_index":8.7,"wind_gusts":25.2,"aqi":91,"pm10":33.3,"pm2_5":30.0,"mosquito_risk":7,"arthritis_risk":5,"migraine_risk":4,"frizz_risk":1,"updated_at":"2026-04-05T05:04:51.443832+05:30"},{"city":"Rourkela","state":"Odisha","latitude":22.2604,"longitude":84.8536,"temp":25.1,"humidity":77,"rain":0.0,"pressure":985.9,"uv_index":8.7,"wind_gusts":48.2,"aqi":97,"pm10":32.4,"pm2_5":29.9,"mosquito_risk":7,"arthritis_risk":5,"migraine_risk":7,"frizz_risk":1,"updated_at":"2026-04-05T05:04:51.443839+05:30"},{"city":"Raipur","state":"Chhattisgarh","latitude":21.2514,"longitude":81.6296,"temp":25.8,"humidity":71,"rain":0.0,"pressure":974.0,"uv_index":8.7,"wind_gusts":24.5,"aqi":130,"pm10":72.2,"pm2_5":68.2,"mosquito_risk":7,"arthritis_risk":5,"migraine_risk":7,"frizz_risk":1,"updated_at":"2026-04-05T05:04:51.443845+05:30"},{"city":"Bhilai","state":"Chhattisgarh","latitude":21.1938,"longitude":81.3509,"temp":25.2,"humidity":73,"rain":0.0,"pressure":974.3,"uv_index":8.7,"wind_gusts":23.0,"aqi":131,"pm10":57.7,"pm2_5":54.8,"mosquito_risk":7,"arthritis_risk":5,"migraine_risk":7,"frizz_risk":1,"updated_at":"2026-04-05T05:04:51.443851+05:30"},{"city":"Guwahati","state":"Assam","latitude":26.1158,"longitude":91.7086,"temp":24.6,"humidity":89,"rain":0.0,"pressure":998.5,"uv_index":7.5,"wind_gusts":46.8,"aqi":134,"pm10":64.5,"pm2_5":57.0,"mosquito_risk":3,"arthritis_risk":5,"migraine_risk":7,"frizz_risk":1,"updated_at":"2026-04-05T05:04:51.443857+05:30"},{"city":"Agartala","state":"Tripura","latitude":23.8315,"longitude":91.2868,"temp":26.1,"humidity":94,"rain":0.0,"pressure":1004.2,"uv_index":8.35,"wind_gusts":32.8,"aqi":94,"pm10":26.0,"pm2_5":23.6,"mosquito_risk":7,"arthritis_risk":5,"migraine_risk":4,"frizz_risk":1,"updated_at":"2026-04-05T05:04:51.443863+05:30"},{"city":"Shillong","state":"Meghalaya","latitude":25.5788,"longitude":91.8933,"temp":15.3,"humidity":84,"rain":0.0,"pressure":854.1,"uv_index":7.65,"wind_gusts":63.0,"aqi":95,"pm10":50.4,"pm2_5":40.9,"mosquito_risk":3,"arthritis_risk":10,"migraine_risk":7,"frizz_risk":0,"updated_at":"2026-04-05T05:04:51.443870+05:30"},{"city":"Imphal","state":"Manipur","latitude":24.817,"longitude":93.9368,"temp":19.2,"humidity":87,"rain":0.0,"pressure":921.8,"uv_index":8.85,"wind_gusts":74.5,"aqi":123,"pm10":71.5,"pm2_5":62.2,"mosquito_risk":3,"arthritis_risk":10,"migraine_risk":7,"frizz_risk":1,"updated_at":"2026-04-05T05:04:51.443876+05:30"},{"city":"Aizawl","state":"Mizoram","latitude":23.7271,"longitude":92.7176,"temp":18.5,"humidity":94,"rain":0.0,"pressure":890.9,"uv_index":8.65,"wind_gusts":47.5,"aqi":130,"pm10":74.0,"pm2_5":62.6,"mosquito_risk":3,"arthritis_risk":10,"migraine_risk":7,"frizz_risk":1,"updated_at":"2026-04-05T05:04:51.443883+05:30"},{"city":"Kohima","state":"Nagaland","latitude":25.6701,"longitude":94.1077,"temp":17.2,"humidity":67,"rain":0.0,"pressure":853.3,"uv_index":8.1,"wind_gusts":82.1,"aqi":95,"pm10":60.8,"pm2_5":51.6,"mosquito_risk":3,"arthritis_risk":5,"migraine_risk":7,"frizz_risk":0,"updated_at":"2026-04-05T05:04:51.443889+05:30"},{"city":"Gangtok","state":"Sikkim","latitude":27.3314,"longitude":88.6138,"temp":14.7,"humidity":89,"rain":0.0,"pressure":834.9,"uv_index":8.55,"wind_gusts":29.2,"aqi":125,"pm10":27.9,"pm2_5":23.7,"mosquito_risk":3,"arthritis_risk":10,"migraine_risk":7,"frizz_risk":0,"updated_at":"2026-04-05T05:04:51.443895+05:30"},{"city":"Siliguri","state":"West Bengal","latitude":26.7271,"longitude":88.3953,"temp":21.9,"humidity":74,"rain":0.0,"pressure":991.5,"uv_index":8.15,"wind_gusts":33.1,"aqi":161,"pm10":83.8,"pm2_5":71.9,"mosquito_risk":3,"arthritis_risk":5,"migraine_risk":7,"frizz_risk":1,"updated_at":"2026-04-05T05:04:54.672240+05:30"},{"city":"Durgapur","state":"West Bengal","latitude":23.5204,"longitude":87.3119,"temp":27.4,"humidity":58,"rain":0.0,"pressure":993.6,"uv_index":7.85,"wind_gusts":36.7,"aqi":113,"pm10":35.6,"pm2_5":29.9,"mosquito_risk":4,"arthritis_risk":5,"migraine_risk":7,"frizz_risk":1,"updated_at":"2026-04-05T05:04:54.672272+05:30"},{"city":"Asansol","state":"West Bengal","latitude":23.6739,"longitude":86.9524,"temp":27.3,"humidity":55,"rain":0.0,"pressure":992.5,"uv_index":7.9,"wind_gusts":37.4,"aqi":89,"pm10":28.3,"pm2_5":24.7,"mosquito_risk":4,"arthritis_risk":5,"migraine_risk":7,"frizz_risk":1,"updated_at":"2026-04-05T05:04:54.672283+05:30"},{"city":"Pondicherry","state":"Puducherry","latitude":11.9139,"longitude":79.8145,"temp":26.4,"humidity":93,"rain":0.0,"pressure":1007.5,"uv_index":9.35,"wind_gusts":26.6,"aqi":51,"pm10":14.7,"pm2_5":12.5,"mosquito_risk":7,"arthritis_risk":5,"migraine_risk":4,"frizz_risk":1,"updated_at":"2026-04-05T05:04:54.672293+05:30"},{"city":"Port Blair","state":"Andaman and Nicobar Islands","latitude":11.6234,"longitude":92.7265,"temp":29.1,"humidity":69,"rain":0.0,"pressure":1005.9,"uv_index":8.75,"wind_gusts":19.4,"aqi":46,"pm10":15.0,"pm2_5":10.0,"mosquito_risk":7,"arthritis_risk":5,"migraine_risk":4,"frizz_risk":1,"updated_at":"2026-04-05T05:04:54.672302+05:30"},{"city":"Haridwar","state":"Uttarakhand","latitude":29.9457,"longitude":78.1642,"temp":18.7,"humidity":79,"rain":0.0,"pressure":974.2,"uv_index":6.7,"wind_gusts":28.8,"aqi":76,"pm10":12.7,"pm2_5":7.6,"mosquito_risk":3,"arthritis_risk":5,"migraine_risk":7,"frizz_risk":0,"updated_at":"2026-04-05T05:04:54.672311+05:30"},{"city":"Rishikesh","state":"Uttarakhand","latitude":30.0869,"longitude":78.2676,"temp":19.3,"humidity":64,"rain":0.0,"pressure":966.9,"uv_index":6.6,"wind_gusts":24.5,"aqi":44,"pm10":13.3,"pm2_5":6.6,"mosquito_risk":3,"arthritis_risk":5,"migraine_risk":7,"frizz_risk":0,"updated_at":"2026-04-05T05:04:54.672320+05:30"},{"city":"Nainital","state":"Uttarakhand","latitude":29.3919,"longitude":79.4542,"temp":17.3,"humidity":52,"rain":0.0,"pressure":804.8,"uv_index":6.2,"wind_gusts":35.3,"aqi":52,"pm10":19.2,"pm2_5":11.4,"mosquito_risk":0,"arthritis_risk":5,"migraine_risk":7,"frizz_risk":0,"updated_at":"2026-04-05T05:04:54.672328+05:30"},{"city":"Mussoorie","state":"Uttarakhand","latitude":30.4599,"longitude":78.0664,"temp":12.6,"humidity":71,"rain":0.0,"pressure":800.5,"uv_index":6.55,"wind_gusts":45.7,"aqi":51,"pm10":14.7,"pm2_5":7.2,"mosquito_risk":3,"arthritis_risk":5,"migraine_risk":7,"frizz_risk":0,"updated_at":"2026-04-05T05:04:54.672336+05:30"},{"city":"Dharamshala","state":"Himachal Pradesh","latitude":32.219,"longitude":76.3234,"temp":15.5,"humidity":61,"rain":0.0,"pressure":867.5,"uv_index":7.05,"wind_gusts":32.8,"aqi":42,"pm10":11.5,"pm2_5":4.8,"mosquito_risk":3,"arthritis_risk":5,"migraine_risk":7,"frizz_risk":0,"updated_at":"2026-04-05T05:04:54.672343+05:30"},{"city":"Dalhousie","state":"Himachal Pradesh","latitude":32.5387,"longitude":75.971,"temp":11.8,"humidity":56,"rain":0.0,"pressure":801.0,"uv_index":6.8,"wind_gusts":25.2,"aqi":67,"pm10":14.7,"pm2_5":7.9,"mosquito_risk":0,"arthritis_risk":5,"migraine_risk":7,"frizz_risk":0,"updated_at":"2026-04-05T05:04:54.672351+05:30"},{"city":"Patiala","state":"Punjab","latitude":30.3398,"longitude":76.3869,"temp":16.7,"humidity":92,"rain":0.0,"pressure":979.2,"uv_index":6.6,"wind_gusts":32.8,"aqi":130,"pm10":148.1,"pm2_5":44.8,"mosquito_risk":3,"arthritis_risk":10,"migraine_risk":7,"frizz_risk":0,"updated_at":"2026-04-05T05:04:54.672359+05:30"},{"city":"Bhatinda","state":"Punjab","latitude":30.211,"longitude":74.9455,"temp":16.7,"humidity":95,"rain":0.0,"pressure":985.0,"uv_index":7.35,"wind_gusts":31.0,"aqi":87,"pm10":75.4,"pm2_5":34.5,"mosquito_risk":3,"arthritis_risk":10,"migraine_risk":7,"frizz_risk":0,"updated_at":"2026-04-05T05:04:54.672366+05:30"},{"city":"Rohtak","state":"Haryana","latitude":28.8955,"longitude":76.6066,"temp":16.6,"humidity":95,"rain":0.0,"pressure":982.6,"uv_index":6.15,"wind_gusts":36.7,"aqi":130,"pm10":304.5,"pm2_5":82.4,"mosquito_risk":3,"arthritis_risk":10,"migraine_risk":7,"frizz_risk":0,"updated_at":"2026-04-05T05:04:54.672373+05:30"},{"city":"Panipat","state":"Haryana","latitude":29.3909,"longitude":76.9635,"temp":16.3,"humidity":94,"rain":0.0,"pressure":981.0,"uv_index":6.5,"wind_gusts":32.0,"aqi":248,"pm10":642.6,"pm2_5":97.6,"mosquito_risk":3,"arthritis_risk":10,"migraine_risk":7,"frizz_risk":0,"updated_at":"2026-04-05T05:04:54.672381+05:30"},{"city":"Mathura","state":"Uttar Pradesh","latitude":27.4924,"longitude":77.6737,"temp":18.8,"humidity":95,"rain":0.0,"pressure":988.0,"uv_index":7.2,"wind_gusts":31.7,"aqi":432,"pm10":189.5,"pm2_5":34.8,"mosquito_risk":3,"arthritis_risk":10,"migraine_risk":7,"frizz_risk":1,"updated_at":"2026-04-05T05:04:54.672388+05:30"},{"city":"Vrindavan","state":"Uttar Pradesh","latitude":27.5823,"longitude":77.7027,"temp":18.6,"humidity":94,"rain":0.0,"pressure":988.3,"uv_index":7.2,"wind_gusts":35.3,"aqi":432,"pm10":189.5,"pm2_5":34.8,"mosquito_risk":3,"arthritis_risk":10,"migraine_risk":7,"frizz_risk":1,"updated_at":"2026-04-05T05:04:54.672395+05:30"},{"city":"Ayodhya","state":"Uttar Pradesh","latitude":26.7922,"longitude":82.1998,"temp":21.0,"humidity":82,"rain":0.0,"pressure":994.9,"uv_index":7.6,"wind_gusts":46.1,"aqi":126,"pm10":63.6,"pm2_5":26.3,"mosquito_risk":3,"arthritis_risk":5,"migraine_risk":7,"frizz_risk":1,"updated_at":"2026-04-05T05:04:54.672403+05:30"},{"city":"Ratlam","state":"Madhya Pradesh","latitude":23.3315,"longitude":75.0367,"temp":21.5,"humidity":53,"rain":0.0,"pressure":954.8,"uv_index":8.1,"wind_gusts":32.4,"aqi":63,"pm10":20.4,"pm2_5":15.9,"mosquito_risk":0,"arthritis_risk":5,"migraine_risk":7,"frizz_risk":0,"updated_at":"2026-04-05T05:04:54.672410+05:30"},{"city":"Sagar","state":"Madhya Pradesh","latitude":23.8388,"longitude":78.7378,"temp":21.0,"humidity":84,"rain":0.0,"pressure":950.4,"uv_index":8.05,"wind_gusts":31.0,"aqi":60,"pm10":31.8,"pm2_5":17.5,"mosquito_risk":3,"arthritis_risk":5,"migraine_risk":7,"frizz_risk":1,"updated_at":"2026-04-05T05:04:54.672418+05:30"},{"city":"Satna","state":"Madhya Pradesh","latitude":24.6005,"longitude":80.8322,"temp":22.6,"humidity":84,"rain":0.0,"pressure":971.6,"uv_index":8.15,"wind_gusts":27.4,"aqi":73,"pm10":40.4,"pm2_5":19.1,"mosquito_risk":3,"arthritis_risk":5,"migraine_risk":7,"frizz_risk":1,"updated_at":"2026-04-05T05:04:54.672425+05:30"},{"city":"Akola","state":"Maharashtra","latitude":20.7002,"longitude":77.0082,"temp":25.4,"humidity":63,"rain":0.0,"pressure":975.6,"uv_index":8.65,"wind_gusts":30.2,"aqi":80,"pm10":19.6,"pm2_5":13.8,"mosquito_risk":7,"arthritis_risk":5,"migraine_risk":7,"frizz_risk":1,"updated_at":"2026-04-05T05:04:54.672433+05:30"},{"city":"Amravati","state":"Maharashtra","latitude":20.9374,"longitude":77.7796,"temp":25.2,"humidity":62,"rain":0.0,"pressure":967.5,"uv_index":8.65,"wind_gusts":32.4,"aqi":88,"pm10":19.0,"pm2_5":15.0,"mosquito_risk":7,"arthritis_risk":5,"migraine_risk":7,"frizz_risk":1,"updated_at":"2026-04-05T05:04:54.672442+05:30"},{"city":"Latur","state":"Maharashtra","latitude":18.4088,"longitude":76.5604,"temp":23.2,"humidity":66,"rain":0.0,"pressure":939.6,"uv_index":8.55,"wind_gusts":30.2,"aqi":110,"pm10":31.1,"pm2_5":26.8,"mosquito_risk":3,"arthritis_risk":5,"migraine_risk":7,"frizz_risk":1,"updated_at":"2026-04-05T05:04:54.672449+05:30"},{"city":"Nanded","state":"Maharashtra","latitude":19.1383,"longitude":77.3091,"temp":25.0,"humidity":67,"rain":0.0,"pressure":968.9,"uv_index":8.75,"wind_gusts":28.4,"aqi":109,"pm10":40.7,"pm2_5":36.8,"mosquito_risk":7,"arthritis_risk":5,"migraine_risk":7,"frizz_risk":1,"updated_at":"2026-04-05T05:04:54.672457+05:30"},{"city":"Gulbarga","state":"Karnataka","latitude":17.3297,"longitude":76.8343,"temp":27.6,"humidity":47,"rain":0.0,"pressure":958.8,"uv_index":9.0,"wind_gusts":34.6,"aqi":115,"pm10":39.3,"pm2_5":36.1,"mosquito_risk":4,"arthritis_risk":5,"migraine_risk":7,"frizz_risk":0,"updated_at":"2026-04-05T05:04:54.672464+05:30"},{"city":"Bidar","state":"Karnataka","latitude":17.9104,"longitude":77.5199,"temp":25.7,"humidity":65,"rain":0.0,"pressure":935.4,"uv_index":8.85,"wind_gusts":34.6,"aqi":123,"pm10":70.5,"pm2_5":59.5,"mosquito_risk":7,"arthritis_risk":5,"migraine_risk":7,"frizz_risk":1,"updated_at":"2026-04-05T05:04:54.672471+05:30"},{"city":"Hospet","state":"Karnataka","latitude":15.2689,"longitude":76.3909,"temp":25.3,"humidity":76,"rain":0.0,"pressure":955.8,"uv_index":9.25,"wind_gusts":27.4,"aqi":85,"pm10":17.4,"pm2_5":12.6,"mosquito_risk":7,"arthritis_risk":5,"migraine_risk":7,"frizz_risk":1,"updated_at":"2026-04-05T05:04:54.672478+05:30"},{"city":"Tirupur","state":"Tamil Nadu","latitude":11.1085,"longitude":77.3411,"temp":25.3,"humidity":85,"rain":0.0,"pressure":974.8,"uv_index":9.55,"wind_gusts":33.1,"aqi":74,"pm10":26.8,"pm2_5":25.6,"mosquito_risk":7,"arthritis_risk":5,"migraine_risk":7,"frizz_risk":1,"updated_at":"2026-04-05T05:04:54.672484+05:30"},{"city":"Alappuzha","state":"Kerala","latitude":9.4981,"longitude":76.3388,"temp":28.1,"humidity":84,"rain":0.0,"pressure":1008.4,"uv_index":9.05,"wind_gusts":26.3,"aqi":64,"pm10":20.9,"pm2_5":19.0,"mosquito_risk":7,"arthritis_risk":0,"migraine_risk":4,"frizz_risk":1,"updated_at":"2026-04-05T05:04:54.672491+05:30"},{"city":"Munnar","state":"Kerala","latitude":10.0889,"longitude":77.0595,"temp":18.6,"humidity":94,"rain":0.0,"pressure":855.5,"uv_index":9.75,"wind_gusts":38.2,"aqi":59,"pm10":18.0,"pm2_5":17.5,"mosquito_risk":3,"arthritis_risk":10,"migraine_risk":7,"frizz_risk":1,"updated_at":"2026-04-05T05:04:54.672499+05:30"},{"city":"Silchar","state":"Assam","latitude":24.8333,"longitude":92.7789,"temp":23.0,"humidity":91,"rain":0.0,"pressure":1004.0,"uv_index":8.35,"wind_gusts":33.1,"aqi":151,"pm10":92.0,"pm2_5":76.8,"mosquito_risk":3,"arthritis_risk":5,"migraine_risk":4,"frizz_risk":1,"updated_at":"2026-04-05T05:04:54.672506+05:30"},{"city":"Dibrugarh","state":"Assam","latitude":27.4728,"longitude":94.912,"temp":22.8,"humidity":93,"rain":0.0,"pressure":993.4,"uv_index":7.45,"wind_gusts":52.9,"aqi":136,"pm10":87.3,"pm2_5":68.7,"mosquito_risk":3,"arthritis_risk":5,"migraine_risk":7,"frizz_risk":1,"updated_at":"2026-04-05T05:04:54.672513+05:30"}]