[{"city":"Delhi","state":"Delhi","latitude":28.6139,"longitude":77.209,"temp":16.1,"humidity":77,"rain":0.0,"pressure":986.7,"uv_index":5.8,"wind_gusts":35.6,"aqi":227,"pm10":376.3,"pm2_5":85.9,"mosquito_risk":3,"arthritis_risk":5,"migraine_risk":3,"frizz_risk":0,"updated_at":"2026-03-03T07:59:16.021940+05:30"},{"city":"Mumbai","state":"Maharashtra","latitude":19.076,"longitude":72.8777,"temp":26.1,"humidity":82,"rain":0.0,"pressure":1011.1,"uv_index":7.35,"wind_gusts":27.4,"aqi":92,"pm10":41.6,"pm2_5":32.9,"mosquito_risk":7,"arthritis_risk":0,"migraine_risk":4,"frizz_risk":1,"updated_at":"2026-03-03T07:59:16.021986+05:30"},{"city":"Bangalore","state":"Karnataka","latitude":12.9716,"longitude":77.5946,"temp":20.5,"humidity":57,"rain":0.0,"pressure":913.6,"uv_index":9.1,"wind_gusts":39.2,"aqi":122,"pm10":44.2,"pm2_5":43.2,"mosquito_risk":0,"arthritis_risk":5,"migraine_risk":7,"frizz_risk":0,"updated_at":"2026-03-03T07:59:16.022003+05:30"},{"city":"Hyderabad","state":"Telangana","latitude":17.385,"longitude":78.4867,"temp":22.7,"humidity":72,"rain":0.0,"pressure":956.3,"uv_index":8.35,"wind_gusts":23.8,"aqi":144,"pm10":74.0,"pm2_5":72.9,"mosquito_risk":3,"arthritis_risk":5,"migraine_risk":7,"frizz_risk":1,"updated_at":"2026-03-03T07:59:16.022014+05:30"},{"city":"Chennai","state":"Tamil Nadu","latitude":13.0827,"longitude":80.2707,"temp":23.6,"humidity":85,"rain":0.0,"pressure":1011.0,"uv_index":8.8,"wind_gusts":29.5,"aqi":121,"pm10":53.0,"pm2_5":49.0,"mosquito_risk":3,"arthritis_risk":0,"migraine_risk":4,"frizz_risk":1,"updated_at":"2026-03-03T07:59:16.022024+05:30"},{"city":"Kolkata","state":"West Bengal","latitude":22.5726,"longitude":88.3639,"temp":21.3,"humidity":85,"rain":0.0,"pressure":1010.7,"uv_index":7.7,"wind_gusts":18.0,"aqi":174,"pm10":180.2,"pm2_5":170.0,"mosquito_risk":3,"arthritis_risk":0,"migraine_risk":4,"frizz_risk":1,"updated_at":"2026-03-03T07:59:16.022034+05:30"},{"city":"Pune","state":"Maharashtra","latitude":18.5204,"longitude":73.8567,"temp":23.6,"humidity":62,"rain":0.0,"pressure":951.1,"uv_index":7.9,"wind_gusts":32.0,"aqi":87,"pm10":41.1,"pm2_5":38.4,"mosquito_risk":3,"arthritis_risk":5,"migraine_risk":7,"frizz_risk":0,"updated_at":"2026-03-03T07:59:16.022047+05:30"},{"city":"Ahmedabad","state":"Gujarat","latitude":23.0225,"longitude":72.5714,"temp":21.4,"humidity":68,"rain":0.0,"pressure":1006.5,"uv_index":7.15,"wind_gusts":20.2,"aqi":104,"pm10":46.1,"pm2_5":37.7,"mosquito_risk":3,"arthritis_risk":5,"migraine_risk":4,"frizz_risk":0,"updated_at":"2026-03-03T07:59:16.022056+05:30"},{"city":"Jaipur","state":"Rajasthan","latitude":26.9124,"longitude":75.7873,"temp":20.7,"humidity":55,"rain":0.0,"pressure":963.8,"uv_index":6.6,"wind_gusts":28.8,"aqi":97,"pm10":176.0,"pm2_5":54.7,"mosquito_risk":0,"arthritis_risk":5,"migraine_risk":7,"frizz_risk":0,"updated_at":"2026-03-03T07:59:16.022065+05:30"},{"city":"Lucknow","state":"Uttar Pradesh","latitude":26.8467,"longitude":80.9462,"temp":17.7,"humidity":72,"rain":0.0,"pressure":997.3,"uv_index":6.3,"wind_gusts":34.6,"aqi":153,"pm10":187.2,"pm2_5":68.2,"mosquito_risk":3,"arthritis_risk":5,"migraine_risk":7,"frizz_risk":0,"updated_at":"2026-03-03T07:59:16.022073+05:30"},{"city":"Kanpur","state":"Uttar Pradesh","latitude":26.4499,"longitude":80.3319,"temp":17.6,"humidity":83,"rain":0.0,"pressure":995.8,"uv_index":6.3,"wind_gusts":28.8,"aqi":181,"pm10":335.3,"pm2_5":78.5,"mosquito_risk":3,"arthritis_risk":10,"migraine_risk":7,"frizz_risk":0,"updated_at":"2026-03-03T07:59:16.022081+05:30"},{"city":"Chandigarh","state":"Chandigarh","latitude":30.7333,"longitude":76.7794,"temp":16.0,"humidity":76,"rain":0.0,"pressure":971.3,"uv_index":5.7,"wind_gusts":34.2,"aqi":80,"pm10":32.2,"pm2_5":29.8,"mosquito_risk":3,"arthritis_risk":5,"migraine_risk":3,"frizz_risk":0,"updated_at":"2026-03-03T07:59:16.022090+05:30"},{"city":"Srinagar","state":"Jammu and Kashmir","latitude":34.0837,"longitude":74.7973,"temp":2.7,"humidity":66,"rain":0.0,"pressure":841.0,"uv_index":6.6,"wind_gusts":15.8,"aqi":142,"pm10":66.1,"pm2_5":55.1,"mosquito_risk":3,"arthritis_risk":5,"migraine_risk":7,"frizz_risk":1,"updated_at":"2026-03-03T07:59:16.022097+05:30"},{"city":"Jammu","state":"Jammu and Kashmir","latitude":32.7266,"longitude":74.857,"temp":12.3,"humidity":72,"rain":0.0,"pressure":975.3,"uv_index":6.3,"wind_gusts":24.5,"aqi":103,"pm10":38.0,"pm2_5":35.5,"mosquito_risk":3,"arthritis_risk":5,"migraine_risk":7,"frizz_risk":0,"updated_at":"2026-03-03T07:59:16.022105+05:30"},{"city":"Amritsar","state":"Punjab","latitude":31.634,"longitude":74.8723,"temp":14.1,"humidity":84,"rain":0.0,"pressure":984.4,"uv_index":6.25,"wind_gusts":28.4,"aqi":104,"pm10":44.0,"pm2_5":39.2,"mosquito_risk":3,"arthritis_risk":10,"migraine_risk":7,"frizz_risk":0,"updated_at":"2026-03-03T07:59:16.022113+05:30"},{"city":"Ludhiana","state":"Punjab","latitude":30.901,"longitude":75.8573,"temp":15.3,"humidity":76,"rain":0.0,"pressure":982.2,"uv_index":5.9,"wind_gusts":30.6,"aqi":148,"pm10":67.5,"pm2_5":53.8,"mosquito_risk":3,"arthritis_risk":5,"migraine_risk":3,"frizz_risk":0,"updated_at":"2026-03-03T07:59:16.022121+05:30"},{"city":"Jalandhar","state":"Punjab","latitude":31.326,"longitude":75.5762,"temp":14.7,"humidity":79,"rain":0.0,"pressure":983.3,"uv_index":6.1,"wind_gusts":26.6,"aqi":149,"pm10":93.1,"pm2_5":67.8,"mosquito_risk":3,"arthritis_risk":5,"migraine_risk":7,"frizz_risk":0,"updated_at":"2026-03-03T07:59:16.022131+05:30"},{"city":"Dehradun","state":"Uttarakhand","latitude":30.6284,"longitude":78.0322,"temp":11.6,"humidity":57,"rain":0.0,"pressure":828.5,"uv_index":6.05,"wind_gusts":31.0,"aqi":58,"pm10":10.7,"pm2_5":9.9,"mosquito_risk":0,"arthritis_risk":5,"migraine_risk":7,"frizz_risk":0,"updated_at":"2026-03-03T07:59:16.022138+05:30"},{"city":"Shimla","state":"Himachal Pradesh","latitude":31.1048,"longitude":77.1734,"temp":9.3,"humidity":58,"rain":0.0,"pressure":782.4,"uv_index":6.1,"wind_gusts":43.6,"aqi":72,"pm10":33.1,"pm2_5":29.7,"mosquito_risk":0,"arthritis_risk":5,"migraine_risk":7,"frizz_risk":0,"updated_at":"2026-03-03T07:59:16.022145+05:30"},{"city":"Manali","state":"Himachal Pradesh","latitude":32.2396,"longitude":77.1887,"temp":16.2,"humidity":8,"rain":0.0,"pressure":820.0,"uv_index":7.45,"wind_gusts":35.3,"aqi":53,"pm10":18.8,"pm2_5":15.5,"mosquito_risk":0,"arthritis_risk":5,"migraine_risk":7,"frizz_risk":1,"updated_at":"2026-03-03T07:59:16.022153+05:30"},{"city":"Gurgaon","state":"Haryana","latitude":28.4595,"longitude":77.0266,"temp":14.2,"humidity":87,"rain":0.0,"pressure":985.3,"uv_index":5.9,"wind_gusts":32.4,"aqi":947,"pm10":1356.0,"pm2_5":181.1,"mosquito_risk":3,"arthritis_risk":10,"migraine_risk":3,"frizz_risk":0,"updated_at":"2026-03-03T07:59:16.022160+05:30"},{"city":"Noida","state":"Uttar Pradesh","latitude":28.5355,"longitude":77.391,"temp":16.5,"humidity":76,"rain":0.0,"pressure":988.3,"uv_index":5.85,"wind_gusts":34.9,"aqi":947,"pm10":1356.0,"pm2_5":181.1,"mosquito_risk":3,"arthritis_risk":5,"migraine_risk":3,"frizz_risk":0,"updated_at":"2026-03-03T07:59:16.022167+05:30"},{"city":"Ghaziabad","state":"Uttar Pradesh","latitude":28.6692,"longitude":77.4538,"temp":16.3,"humidity":78,"rain":0.0,"pressure":986.2,"uv_index":5.8,"wind_gusts":34.9,"aqi":184,"pm10":305.5,"pm2_5":74.3,"mosquito_risk":3,"arthritis_risk":5,"migraine_risk":3,"frizz_risk":0,"updated_at":"2026-03-03T07:59:16.022174+05:30"},{"city":"Faridabad","state":"Haryana","latitude":28.4089,"longitude":77.3178,"temp":16.6,"humidity":75,"rain":0.0,"pressure":987.6,"uv_index":5.85,"wind_gusts":31.7,"aqi":947,"pm10":1356.0,"pm2_5":181.1,"mosquito_risk":3,"arthritis_risk":5,"migraine_risk":3,"frizz_risk":0,"updated_at":"2026-03-03T07:59:16.022182+05:30"},{"city":"Meerut","state":"Uttar Pradesh","latitude":28.9845,"longitude":77.7064,"temp":16.0,"humidity":77,"rain":0.0,"pressure":984.4,"uv_index":5.65,"wind_gusts":41.0,"aqi":184,"pm10":305.5,"pm2_5":74.3,"mosquito_risk":3,"arthritis_risk":5,"migraine_risk":3,"frizz_risk":0,"updated_at":"2026-03-03T07:59:16.022189+05:30"},{"city":"Agra","state":"Uttar Pradesh","latitude":27.1767,"longitude":78.0081,"temp":17.0,"humidity":85,"rain":0.0,"pressure":992.0,"uv_index":6.15,"wind_gusts":29.5,"aqi":419,"pm10":502.9,"pm2_5":87.8,"mosquito_risk":3,"arthritis_risk":10,"migraine_risk":7,"frizz_risk":0,"updated_at":"2026-03-03T07:59:16.022196+05:30"},{"city":"Varanasi","state":"Uttar Pradesh","latitude":25.3176,"longitude":82.9739,"temp":18.8,"humidity":76,"rain":0.0,"pressure":1001.9,"uv_index":6.95,"wind_gusts":25.2,"aqi":92,"pm10":100.4,"pm2_5":37.6,"mosquito_risk":3,"arthritis_risk":5,"migraine_risk":4,"frizz_risk":0,"updated_at":"2026-03-03T07:59:16.022205+05:30"},{"city":"Prayagraj","state":"Uttar Pradesh","latitude":25.4358,"longitude":81.8463,"temp":18.4,"humidity":75,"rain":0.0,"pressure":1000.5,"uv_index":6.8,"wind_gusts":24.5,"aqi":109,"pm10":154.1,"pm2_5":51.5,"mosquito_risk":3,"arthritis_risk":5,"migraine_risk":4,"frizz_risk":0,"updated_at":"2026-03-03T07:59:16.022213+05:30"},{"city":"Gorakhpur","state":"Uttar Pradesh","latitude":26.7606,"longitude":83.3732,"temp":16.7,"humidity":79,"rain":0.0,"pressure":1001.0,"uv_index":6.7,"wind_gusts":21.6,"aqi":137,"pm10":183.5,"pm2_5":76.8,"mosquito_risk":3,"arthritis_risk":5,"migraine_risk":4,"frizz_risk":0,"updated_at":"2026-03-03T07:59:16.022220+05:30"},{"city":"Bareilly","state":"Uttar Pradesh","latitude":28.367,"longitude":79.4304,"temp":15.8,"humidity":82,"rain":0.0,"pressure":989.8,"uv_index":6.0,"wind_gusts":31.0,"aqi":126,"pm10":83.4,"pm2_5":59.3,"mosquito_risk":3,"arthritis_risk":10,"migraine_risk":3,"frizz_risk":0,"updated_at":"2026-03-03T07:59:16.022227+05:30"},{"city":"Aligarh","state":"Uttar Pradesh","latitude":27.8974,"longitude":78.088,"temp":16.0,"humidity":80,"rain":0.0,"pressure":989.3,"uv_index":5.95,"wind_gusts":34.9,"aqi":542,"pm10":711.5,"pm2_5":125.7,"mosquito_risk":3,"arthritis_risk":5,"migraine_risk":3,"frizz_risk":0,"updated_at":"2026-03-03T07:59:16.022235+05:30"},{"city":"Moradabad","state":"Uttar Pradesh","latitude":28.8386,"longitude":78.7733,"temp":15.6,"humidity":82,"rain":0.0,"pressure":986.4,"uv_index":5.85,"wind_gusts":30.2,"aqi":134,"pm10":89.2,"pm2_5":58.1,"mosquito_risk":3,"arthritis_risk":10,"migraine_risk":3,"frizz_risk":0,"updated_at":"2026-03-03T07:59:16.022244+05:30"},{"city":"Saharanpur","state":"Uttar Pradesh","latitude":29.9637,"longitude":77.546,"temp":15.1,"humidity":84,"rain":0.0,"pressure":977.9,"uv_index":5.45,"wind_gusts":44.3,"aqi":114,"pm10":98.3,"pm2_5":65.9,"mosquito_risk":3,"arthritis_risk":10,"migraine_risk":3,"frizz_risk":0,"updated_at":"2026-03-03T07:59:16.022251+05:30"},{"city":"Jhansi","state":"Uttar Pradesh","latitude":25.4484,"longitude":78.5685,"temp":18.1,"humidity":77,"rain":0.0,"pressure":982.2,"uv_index":6.75,"wind_gusts":25.2,"aqi":76,"pm10":154.6,"pm2_5":38.3,"mosquito_risk":3,"arthritis_risk":5,"migraine_risk":7,"frizz_risk":0,"updated_at":"2026-03-03T07:59:19.233793+05:30"},{"city":"Surat","state":"Gujarat","latitude":21.1702,"longitude":72.8311,"temp":22.5,"humidity":69,"rain":0.0,"pressure":1010.3,"uv_index":7.05,"wind_gusts":24.8,"aqi":157,"pm10":116.9,"pm2_5":109.0,"mosquito_risk":3,"arthritis_risk":0,"migraine_risk":4,"frizz_risk":1,"updated_at":"2026-03-03T07:59:19.233849+05:30"},{"city":"Vadodara","state":"Gujarat","latitude":22.3072,"longitude":73.1812,"temp":20.9,"humidity":72,"rain":0.0,"pressure":1008.5,"uv_index":7.15,"wind_gusts":15.8,"aqi":154,"pm10":105.9,"pm2_5":100.6,"mosquito_risk":3,"arthritis_risk":0,"migraine_risk":4,"frizz_risk":0,"updated_at":"2026-03-03T07:59:19.233868+05:30"},{"city":"Rajkot","state":"Gujarat","latitude":22.3039,"longitude":70.8022,"temp":20.3,"humidity":82,"rain":0.0,"pressure":998.2,"uv_index":7.0,"wind_gusts":21.2,"aqi":66,"pm10":32.0,"pm2_5":19.4,"mosquito_risk":3,"arthritis_risk":5,"migraine_risk":7,"frizz_risk":1,"updated_at":"2026-03-03T07:59:19.233884+05:30"},{"city":"Thane","state":"Maharashtra","latitude":19.2183,"longitude":72.9781,"temp":22.6,"humidity":87,"rain":0.0,"pressure":1010.7,"uv_index":7.35,"wind_gusts":38.2,"aqi":92,"pm10":41.6,"pm2_5":32.9,"mosquito_risk":3,"arthritis_risk":0,"migraine_risk":4,"frizz_risk":1,"updated_at":"2026-03-03T07:59:19.233898+05:30"},{"city":"Nagpur","state":"Maharashtra","latitude":21.1458,"longitude":79.0882,"temp":19.9,"humidity":64,"rain":0.0,"pressure":977.5,"uv_index":7.75,"wind_gusts":19.1,"aqi":69,"pm10":26.1,"pm2_5":22.1,"mosquito_risk":3,"arthritis_risk":5,"migraine_risk":7,"frizz_risk":0,"updated_at":"2026-03-03T07:59:19.233912+05:30"},{"city":"Nashik","state":"Maharashtra","latitude":19.9975,"longitude":73.7898,"temp":21.8,"humidity":57,"rain":0.0,"pressure":948.5,"uv_index":7.55,"wind_gusts":28.8,"aqi":86,"pm10":46.7,"pm2_5":45.1,"mosquito_risk":0,"arthritis_risk":5,"migraine_risk":7,"frizz_risk":0,"updated_at":"2026-03-03T07:59:19.233925+05:30"},{"city":"Aurangabad","state":"Maharashtra","latitude":19.8762,"longitude":75.3433,"temp":21.2,"humidity":64,"rain":0.0,"pressure":947.2,"uv_index":8.05,"wind_gusts":24.1,"aqi":76,"pm10":31.0,"pm2_5":29.1,"mosquito_risk":3,"arthritis_risk":5,"migraine_risk":7,"frizz_risk":0,"updated_at":"2026-03-03T07:59:19.233939+05:30"},{"city":"Solapur","state":"Maharashtra","latitude":17.6599,"longitude":75.9064,"temp":22.2,"humidity":75,"rain":0.0,"pressure":960.0,"uv_index":8.3,"wind_gusts":18.0,"aqi":123,"pm10":29.2,"pm2_5":28.9,"mosquito_risk":3,"arthritis_risk":5,"migraine_risk":7,"frizz_risk":1,"updated_at":"2026-03-03T07:59:19.233951+05:30"},{"city":"Kolhapur","state":"Maharashtra","latitude":16.705,"longitude":74.2433,"temp":20.5,"humidity":86,"rain":0.0,"pressure":949.9,"uv_index":8.4,"wind_gusts":40.0,"aqi":120,"pm10":64.5,"pm2_5":62.9,"mosquito_risk":3,"arthritis_risk":5,"migraine_risk":7,"frizz_risk":1,"updated_at":"2026-03-03T07:59:19.233962+05:30"},{"city":"Goa","state":"Goa","latitude":15.2993,"longitude":74.124,"temp":25.9,"humidity":81,"rain":0.0,"pressure":1000.1,"uv_index":8.4,"wind_gusts":36.0,"aqi":73,"pm10":36.8,"pm2_5":32.2,"mosquito_risk":7,"arthritis_risk":5,"migraine_risk":4,"frizz_risk":1,"updated_at":"2026-03-03T07:59:19.233972+05:30"},{"city":"Jodhpur","state":"Rajasthan","latitude":26.2389,"longitude":73.0243,"temp":18.2,"humidity":60,"rain":0.0,"pressure":987.6,"uv_index":6.85,"wind_gusts":12.2,"aqi":77,"pm10":41.9,"pm2_5":22.2,"mosquito_risk":0,"arthritis_risk":5,"migraine_risk":7,"frizz_risk":0,"updated_at":"2026-03-03T07:59:19.233983+05:30"},{"city":"Udaipur","state":"Rajasthan","latitude":24.5854,"longitude":73.7125,"temp":16.7,"humidity":61,"rain":0.0,"pressure":950.0,"uv_index":7.45,"wind_gusts":16.6,"aqi":67,"pm10":34.0,"pm2_5":19.3,"mosquito_risk":3,"arthritis_risk":5,"migraine_risk":7,"frizz_risk":0,"updated_at":"2026-03-03T07:59:19.233994+05:30"},{"city":"Kota","state":"Rajasthan","latitude":25.2138,"longitude":75.8648,"temp":17.9,"humidity":74,"rain":0.0,"pressure":983.0,"uv_index":6.85,"wind_gusts":19.8,"aqi":88,"pm10":48.9,"pm2_5":37.6,"mosquito_risk":3,"arthritis_risk":5,"migraine_risk":7,"frizz_risk":0,"updated_at":"2026-03-03T07:59:19.234004+05:30"},{"city":"Bikaner","state":"Rajasthan","latitude":28.0229,"longitude":73.3119,"temp":18.5,"humidity":70,"rain":0.0,"pressure":986.5,"uv_index":6.55,"wind_gusts":19.8,"aqi":68,"pm10":40.7,"pm2_5":23.3,"mosquito_risk":3,"arthritis_risk":5,"migraine_risk":7,"frizz_risk":0,"updated_at":"2026-03-03T07:59:19.234015+05:30"},{"city":"Ajmer","state":"Rajasthan","latitude":26.4499,"longitude":74.6399,"temp":18.8,"humidity":53,"rain":0.0,"pressure":958.3,"uv_index":6.8,"wind_gusts":24.1,"aqi":74,"pm10":74.3,"pm2_5":33.3,"mosquito_risk":0,"arthritis_risk":5,"migraine_risk":7,"frizz_risk":0,"updated_at":"2026-03-03T07:59:19.234025+05:30"},{"city":"Gwalior","state":"Madhya Pradesh","latitude":26.2183,"longitude":78.1828,"temp":19.3,"humidity":75,"rain":0.0,"pressure":987.6,"uv_index":6.45,"wind_gusts":27.4,"aqi":121,"pm10":285.9,"pm2_5":62.9,"mosquito_risk":3,"arthritis_risk":5,"migraine_risk":7,"frizz_risk":0,"updated_at":"2026-03-03T07:59:19.234035+05:30"},{"city":"Indore","state":"Madhya Pradesh","latitude":22.7196,"longitude":75.8577,"temp":17.4,"humidity":71,"rain":0.0,"pressure":951.3,"uv_index":7.45,"wind_gusts":15.1,"aqi":89,"pm10":55.3,"pm2_5":51.0,"mosquito_risk":3,"arthritis_risk":5,"migraine_risk":7,"frizz_risk":0,"updated_at":"2026-03-03T07:59:19.234046+05:30"},{"city":"Bhopal","state":"Madhya Pradesh","latitude":23.2599,"longitude":77.4126,"temp":19.4,"humidity":59,"rain":0.0,"pressure":957.3,"uv_index":7.3,"wind_gusts":23.0,"aqi":78,"pm10":50.5,"pm2_5":37.5,"mosquito_risk":0,"arthritis_risk":5,"migraine_risk":7,"frizz_risk":0,"updated_at":"2026-03-03T07:59:19.234056+05:30"},{"city":"Jabalpur","state":"Madhya Pradesh","latitude":23.1815,"longitude":79.9864,"temp":18.5,"humidity":62,"rain":0.0,"pressure":965.7,"uv_index":7.4,"wind_gusts":18.4,"aqi":71,"pm10":44.0,"pm2_5":33.6,"mosquito_risk":3,"arthritis_risk":5,"migraine_risk":7,"frizz_risk":0,"updated_at":"2026-03-03T07:59:19.234066+05:30"},{"city":"Ujjain","state":"Madhya Pradesh","latitude":23.1765,"longitude":75.7885,"temp":17.5,"humidity":73,"rain":0.0,"pressure":957.3,"uv_index":7.35,"wind_gusts":15.1,"aqi":105,"pm10":63.1,"pm2_5":59.8,"mosquito_risk":3,"arthritis_risk":5,"migraine_risk":7,"frizz_risk":0,"updated_at":"2026-03-03T07:59:19.234077+05:30"},{"city":"Visakhapatnam","state":"Andhra Pradesh","latitude":17.6868,"longitude":83.2185,"temp":25.8,"humidity":69,"rain":0.0,"pressure":1007.3,"uv_index":8.35,"wind_gusts":34.6,"aqi":132,"pm10":53.6,"pm2_5":52.3,"mosquito_risk":7,"arthritis_risk":5,"migraine_risk":4,"frizz_risk":1,"updated_at":"2026-03-03T07:59:19.234087+05:30"},{"city":"Vijayawada","state":"Andhra Pradesh","latitude":16.5062,"longitude":80.648,"temp":23.9,"humidity":86,"rain":0.0,"pressure":1006.6,"uv_index":8.4,"wind_gusts":24.5,"aqi":141,"pm10":71.5,"pm2_5":69.4,"mosquito_risk":3,"arthritis_risk":5,"migraine_risk":4,"frizz_risk":1,"updated_at":"2026-03-03T07:59:19.234098+05:30"},{"city":"Guntur","state":"Andhra Pradesh","latitude":16.3067,"longitude":80.4365,"temp":23.9,"humidity":82,"rain":0.0,"pressure":1007.8,"uv_index":8.4,"wind_gusts":27.4,"aqi":134,"pm10":62.6,"pm2_5":60.8,"mosquito_risk":3,"arthritis_risk":5,"migraine_risk":4,"frizz_risk":1,"updated_at":"2026-03-03T07:59:19.234108+05:30"},{"city":"Nellore","state":"Andhra Pradesh","latitude":14.4426,"longitude":79.9865,"temp":24.2,"humidity":77,"rain":0.0,"pressure":1009.6,"uv_index":8.65,"wind_gusts":29.5,"aqi":118,"pm10":48.4,"pm2_5":46.3,"mosquito_risk":3,"arthritis_risk":0,"migraine_risk":4,"frizz_risk":1,"updated_at":"2026-03-03T07:59:19.234120+05:30"},{"city":"Kurnool","state":"Andhra Pradesh","latitude":15.8281,"longitude":78.0373,"temp":25.7,"humidity":60,"rain":0.0,"pressure":980.0,"uv_index":8.45,"wind_gusts":29.2,"aqi":123,"pm10":55.1,"pm2_5":53.9,"mosquito_risk":4,"arthritis_risk":5,"migraine_risk":7,"frizz_risk":1,"updated_at":"2026-03-03T07:59:19.234132+05:30"},{"city":"Kakinada","state":"Andhra Pradesh","latitude":16.9891,"longitude":82.2475,"temp":24.8,"humidity":83,"rain":0.0,"pressure":1011.2,"uv_index":8.35,"wind_gusts":34.6,"aqi":129,"pm10":55.9,"pm2_5":53.4,"mosquito_risk":3,"arthritis_risk":0,"migraine_risk":4,"frizz_risk":1,"updated_at":"2026-03-03T07:59:19.234143+05:30"},{"city":"Tirupati","state":"Andhra Pradesh","latitude":13.6288,"longitude":79.4192,"temp":21.1,"humidity":75,"rain":0.0,"pressure":995.1,"uv_index":8.75,"wind_gusts":38.2,"aqi":152,"pm10":79.6,"pm2_5":77.8,"mosquito_risk":3,"arthritis_risk":5,"migraine_risk":7,"frizz_risk":1,"updated_at":"2026-03-03T07:59:19.234153+05:30"},{"city":"Warangal","state":"Telangana","latitude":17.9689,"longitude":79.5941,"temp":23.2,"humidity":80,"rain":0.0,"pressure":982.1,"uv_index":8.2,"wind_gusts":18.7,"aqi":151,"pm10":68.5,"pm2_5":67.8,"mosquito_risk":3,"arthritis_risk":5,"migraine_risk":7,"frizz_risk":1,"updated_at":"2026-03-03T07:59:19.234163+05:30"},{"city":"Nizamabad","state":"Telangana","latitude":18.6725,"longitude":78.0941,"temp":23.9,"humidity":59,"rain":0.0,"pressure":968.4,"uv_index":8.1,"wind_gusts":29.2,"aqi":92,"pm10":36.6,"pm2_5":35.6,"mosquito_risk":0,"arthritis_risk":5,"migraine_risk":7,"frizz_risk":0,"updated_at":"2026-03-03T07:59:19.234174+05:30"},{"city":"Mysore","state":"Karnataka","latitude":12.2958,"longitude":76.6396,"temp":20.4,"humidity":96,"rain":0.0,"pressure":930.5,"uv_index":9.15,"wind_gusts":33.8,"aqi":137,"pm10":62.4,"pm2_5":61.2,"mosquito_risk":3,"arthritis_risk":5,"migraine_risk":7,"frizz_risk":1,"updated_at":"2026-03-03T07:59:19.234184+05:30"},{"city":"Mangalore","state":"Karnataka","latitude":12.9141,"longitude":74.856,"temp":27.6,"humidity":81,"rain":0.0,"pressure":1009.1,"uv_index":8.75,"wind_gusts":29.5,"aqi":59,"pm10":28.8,"pm2_5":25.7,"mosquito_risk":7,"arthritis_risk":0,"migraine_risk":4,"frizz_risk":1,"updated_at":"2026-03-03T07:59:19.234195+05:30"},{"city":"Hubli-Dharwad","state":"Karnataka","latitude":15.3647,"longitude":75.124,"temp":20.2,"humidity":94,"rain":0.0,"pressure":942.6,"uv_index":8.6,"wind_gusts":28.4,"aqi":86,"pm10":36.8,"pm2_5":34.7,"mosquito_risk":3,"arthritis_risk":5,"migraine_risk":7,"frizz_risk":1,"updated_at":"2026-03-03T07:59:19.234205+05:30"},{"city":"Belgaum","state":"Karnataka","latitude":15.8497,"longitude":74.4977,"temp":20.4,"humidity":85,"rain":0.0,"pressure":927.0,"uv_index":8.65,"wind_gusts":33.1,"aqi":80,"pm10":41.3,"pm2_5":38.9,"mosquito_risk":3,"arthritis_risk":5,"migraine_risk":7,"frizz_risk":1,"updated_at":"2026-03-03T07:59:22.445197+05:30"},{"city":"Coimbatore","state":"Tamil Nadu","latitude":11.0168,"longitude":76.9558,"temp":23.1,"humidity":78,"rain":0.0,"pressure":964.7,"uv_index":9.15,"wind_gusts":43.2,"aqi":132,"pm10":59.8,"pm2_5":59.5,"mosquito_risk":3,"arthritis_risk":5,"migraine_risk":7,"frizz_risk":1,"updated_at":"2026-03-03T07:59:22.445228+05:30"},{"city":"Madurai","state":"Tamil Nadu","latitude":9.9252,"longitude":78.1198,"temp":22.8,"humidity":90,"rain":0.0,"pressure":996.7,"uv_index":9.1,"wind_gusts":34.9,"aqi":118,"pm10":65.2,"pm2_5":64.0,"mosquito_risk":3,"arthritis_risk":5,"migraine_risk":7,"frizz_risk":1,"updated_at":"2026-03-03T07:59:22.445241+05:30"},{"city":"Trichy","state":"Tamil Nadu","latitude":10.7905,"longitude":78.7047,"temp":21.8,"humidity":95,"rain":0.0,"pressure":1003.8,"uv_index":9.0,"wind_gusts":31.7,"aqi":124,"pm10":65.4,"pm2_5":62.4,"mosquito_risk":3,"arthritis_risk":5,"migraine_risk":4,"frizz_risk":1,"updated_at":"2026-03-03T07:59:22.445252+05:30"},{"city":"Salem","state":"Tamil Nadu","latitude":11.6643,"longitude":78.146,"temp":22.2,"humidity":84,"rain":0.0,"pressure":980.8,"uv_index":9.0,"wind_gusts":40.7,"aqi":137,"pm10":74.3,"pm2_5":73.1,"mosquito_risk":3,"arthritis_risk":5,"migraine_risk":7,"frizz_risk":1,"updated_at":"2026-03-03T07:59:22.445263+05:30"},{"city":"Tirunelveli","state":"Tamil Nadu","latitude":8.7139,"longitude":77.7567,"temp":21.7,"humidity":90,"rain":0.0,"pressure":1006.9,"uv_index":9.1,"wind_gusts":37.8,"aqi":116,"pm10":51.2,"pm2_5":50.1,"mosquito_risk":3,"arthritis_risk":5,"migraine_risk":4,"frizz_risk":1,"updated_at":"2026-03-03T07:59:22.445273+05:30"},{"city":"Vellore","state":"Tamil Nadu","latitude":12.9165,"longitude":79.1325,"temp":20.6,"humidity":76,"rain":0.0,"pressure":988.1,"uv_index":8.9,"wind_gusts":38.9,"aqi":152,"pm10":79.9,"pm2_5":78.5,"mosquito_risk":3,"arthritis_risk":5,"migraine_risk":7,"frizz_risk":1,"updated_at":"2026-03-03T07:59:22.445283+05:30"},{"city":"Erode","state":"Tamil Nadu","latitude":11.341,"longitude":77.7172,"temp":23.3,"humidity":87,"rain":0.0,"pressure":992.8,"uv_index":9.05,"wind_gusts":36.4,"aqi":119,"pm10":53.4,"pm2_5":52.3,"mosquito_risk":3,"arthritis_risk":5,"migraine_risk":7,"frizz_risk":1,"updated_at":"2026-03-03T07:59:22.445292+05:30"},{"city":"Kochi","state":"Kerala","latitude":9.9312,"longitude":76.2673,"temp":27.8,"humidity":79,"rain":0.0,"pressure":1011.0,"uv_index":8.95,"wind_gusts":33.8,"aqi":105,"pm10":47.7,"pm2_5":46.9,"mosquito_risk":7,"arthritis_risk":0,"migraine_risk":4,"frizz_risk":1,"updated_at":"2026-03-03T07:59:22.445302+05:30"},{"city":"Thiruvananthapuram","state":"Kerala","latitude":8.5241,"longitude":76.9366,"temp":26.9,"humidity":86,"rain":0.0,"pressure":1010.3,"uv_index":9.0,"wind_gusts":27.0,"aqi":78,"pm10":37.7,"pm2_5":36.2,"mosquito_risk":7,"arthritis_risk":0,"migraine_risk":4,"frizz_risk":1,"updated_at":"2026-03-03T07:59:22.445312+05:30"},{"city":"Kozhikode","state":"Kerala","latitude":11.2588,"longitude":75.7804,"temp":26.9,"humidity":84,"rain":0.0,"pressure":1010.3,"uv_index":8.85,"wind_gusts":36.0,"aqi":62,"pm10":26.0,"pm2_5":23.7,"mosquito_risk":7,"arthritis_risk":0,"migraine_risk":4,"frizz_risk":1,"updated_at":"2026-03-03T07:59:22.445322+05:30"},{"city":"Thrissur","state":"Kerala","latitude":10.5276,"longitude":76.2144,"temp":25.7,"humidity":91,"rain":0.0,"pressure":1009.4,"uv_index":8.95,"wind_gusts":38.9,"aqi":102,"pm10":46.4,"pm2_5":44.5,"mosquito_risk":7,"arthritis_risk":0,"migraine_risk":4,"frizz_risk":1,"updated_at":"2026-03-03T07:59:22.445332+05:30"},{"city":"Kannur","state":"Kerala","latitude":11.8745,"longitude":75.3704,"temp":26.7,"humidity":74,"rain":0.0,"pressure":1009.7,"uv_index":8.85,"wind_gusts":40.0,"aqi":60,"pm10":24.0,"pm2_5":22.5,"mosquito_risk":7,"arthritis_risk":0,"migraine_risk":4,"frizz_risk":1,"updated_at":"2026-03-03T07:59:22.445342+05:30"},{"city":"Patna","state":"Bihar","latitude":25.5941,"longitude":85.1376,"temp":18.5,"humidity":73,"rain":0.0,"pressure":1004.9,"uv_index":7.15,"wind_gusts":17.6,"aqi":127,"pm10":85.2,"pm2_5":67.3,"mosquito_risk":3,"arthritis_risk":5,"migraine_risk":4,"frizz_risk":0,"updated_at":"2026-03-03T07:59:22.445352+05:30"},{"city":"Gaya","state":"Bihar","latitude":24.7914,"longitude":85.0002,"temp":19.2,"humidity":60,"rain":0.0,"pressure":998.4,"uv_index":7.25,"wind_gusts":22.7,"aqi":92,"pm10":50.6,"pm2_5":31.3,"mosquito_risk":0,"arthritis_risk":5,"migraine_risk":7,"frizz_risk":0,"updated_at":"2026-03-03T07:59:22.445361+05:30"},{"city":"Muzaffarpur","state":"Bihar","latitude":26.1209,"longitude":85.3647,"temp":17.8,"humidity":72,"rain":0.0,"pressure":1004.9,"uv_index":7.1,"wind_gusts":14.0,"aqi":148,"pm10":106.6,"pm2_5":93.4,"mosquito_risk":3,"arthritis_risk":5,"migraine_risk":4,"frizz_risk":0,"updated_at":"2026-03-03T07:59:22.445370+05:30"},{"city":"Bhagalpur","state":"Bihar","latitude":25.2425,"longitude":87.0117,"temp":17.0,"humidity":89,"rain":0.0,"pressure":1006.1,"uv_index":7.15,"wind_gusts":11.5,"aqi":118,"pm10":83.4,"pm2_5":58.3,"mosquito_risk":3,"arthritis_risk":10,"migraine_risk":4,"frizz_risk":0,"updated_at":"2026-03-03T07:59:22.445380+05:30"},{"city":"Ranchi","state":"Jharkhand","latitude":23.3441,"longitude":85.3096,"temp":21.1,"humidity":37,"rain":0.0,"pressure":941.8,"uv_index":7.9,"wind_gusts":44.6,"aqi":63,"pm10":48.1,"pm2_5":22.8,"mosquito_risk":0,"arthritis_risk":5,"migraine_risk":7,"frizz_risk":0,"updated_at":"2026-03-03T07:59:22.445390+05:30"},{"city":"Jamshedpur","state":"Jharkhand","latitude":22.8046,"longitude":86.2029,"temp":18.2,"humidity":76,"rain":0.0,"pressure":996.0,"uv_index":7.75,"wind_gusts":13.7,"aqi":96,"pm10":69.8,"pm2_5":51.0,"mosquito_risk":3,"arthritis_risk":5,"migraine_risk":7,"frizz_risk":0,"updated_at":"2026-03-03T07:59:22.445399+05:30"},{"city":"Dhanbad","state":"Jharkhand","latitude":23.7957,"longitude":86.4304,"temp":19.8,"humidity":53,"rain":0.0,"pressure":984.5,"uv_index":7.65,"wind_gusts":28.8,"aqi":99,"pm10":67.5,"pm2_5":54.4,"mosquito_risk":0,"arthritis_risk":5,"migraine_risk":7,"frizz_risk":0,"updated_at":"2026-03-03T07:59:22.445409+05:30"},{"city":"Bokaro","state":"Jharkhand","latitude":23.6693,"longitude":86.1511,"temp":20.0,"humidity":52,"rain":0.0,"pressure":988.7,"uv_index":7.65,"wind_gusts":31.7,"aqi":101,"pm10":65.2,"pm2_5":54.4,"mosquito_risk":0,"arthritis_risk":5,"migraine_risk":7,"frizz_risk":0,"updated_at":"2026-03-03T07:59:22.445418+05:30"},{"city":"Bhubaneswar","state":"Odisha","latitude":20.2961,"longitude":85.8245,"temp":24.8,"humidity":89,"rain":0.0,"pressure":1006.9,"uv_index":8.1,"wind_gusts":24.5,"aqi":154,"pm10":77.1,"pm2_5":74.0,"mosquito_risk":3,"arthritis_risk":5,"migraine_risk":4,"frizz_risk":1,"updated_at":"2026-03-03T07:59:22.445427+05:30"},{"city":"Cuttack","state":"Odisha","latitude":20.4625,"longitude":85.8828,"temp":24.5,"humidity":85,"rain":0.0,"pressure":1009.0,"uv_index":8.1,"wind_gusts":24.8,"aqi":154,"pm10":77.1,"pm2_5":74.0,"mosquito_risk":3,"arthritis_risk":0,"migraine_risk":4,"frizz_risk":1,"updated_at":"2026-03-03T07:59:22.445437+05:30"},{"city":"Rourkela","state":"Odisha","latitude":22.2604,"longitude":84.8536,"temp":19.9,"humidity":64,"rain":0.0,"pressure":990.2,"uv_index":7.7,"wind_gusts":23.0,"aqi":77,"pm10":53.2,"pm2_5":39.1,"mosquito_risk":3,"arthritis_risk":5,"migraine_risk":7,"frizz_risk":0,"updated_at":"2026-03-03T07:59:22.445446+05:30"},{"city":"Raipur","state":"Chhattisgarh","latitude":21.2514,"longitude":81.6296,"temp":21.1,"humidity":57,"rain":0.0,"pressure":979.4,"uv_index":7.8,"wind_gusts":16.2,"aqi":110,"pm10":65.2,"pm2_5":58.1,"mosquito_risk":0,"arthritis_risk":5,"migraine_risk":7,"frizz_risk":0,"updated_at":"2026-03-03T07:59:22.445455+05:30"},{"city":"Bhilai","state":"Chhattisgarh","latitude":21.1938,"longitude":81.3509,"temp":21.2,"humidity":57,"rain":0.0,"pressure":979.7,"uv_index":7.8,"wind_gusts":14.8,"aqi":108,"pm10":57.5,"pm2_5":50.6,"mosquito_risk":0,"arthritis_risk":5,"migraine_risk":7,"frizz_risk":0,"updated_at":"2026-03-03T07:59:22.445464+05:30"},{"city":"Guwahati","state":"Assam","latitude":26.1158,"longitude":91.7086,"temp":21.4,"humidity":83,"rain":0.0,"pressure":1007.5,"uv_index":7.1,"wind_gusts":22.3,"aqi":153,"pm10":84.3,"pm2_5":71.9,"mosquito_risk":3,"arthritis_risk":5,"migraine_risk":4,"frizz_risk":1,"updated_at":"2026-03-03T07:59:22.445474+05:30"},{"city":"Agartala","state":"Tripura","latitude":23.8315,"longitude":91.2868,"temp":22.7,"humidity":89,"rain":0.0,"pressure":1011.2,"uv_index":7.45,"wind_gusts":19.8,"aqi":175,"pm10":122.9,"pm2_5":121.1,"mosquito_risk":3,"arthritis_risk":0,"migraine_risk":4,"frizz_risk":1,"updated_at":"2026-03-03T07:59:22.445483+05:30"},{"city":"Shillong","state":"Meghalaya","latitude":25.5788,"longitude":91.8933,"temp":12.5,"humidity":52,"rain":0.0,"pressure":857.8,"uv_index":7.45,"wind_gusts":28.1,"aqi":125,"pm10":73.8,"pm2_5":57.9,"mosquito_risk":0,"arthritis_risk":5,"migraine_risk":7,"frizz_risk":0,"updated_at":"2026-03-03T07:59:22.445492+05:30"},{"city":"Imphal","state":"Manipur","latitude":24.817,"longitude":93.9368,"temp":16.3,"humidity":70,"rain":0.0,"pressure":927.0,"uv_index":7.6,"wind_gusts":28.8,"aqi":156,"pm10":126.2,"pm2_5":112.9,"mosquito_risk":3,"arthritis_risk":5,"migraine_risk":7,"frizz_risk":0,"updated_at":"2026-03-03T07:59:22.445501+05:30"},{"city":"Aizawl","state":"Mizoram","latitude":23.7271,"longitude":92.7176,"temp":17.5,"humidity":82,"rain":0.0,"pressure":895.8,"uv_index":7.65,"wind_gusts":34.2,"aqi":161,"pm10":77.8,"pm2_5":75.0,"mosquito_risk":3,"arthritis_risk":10,"migraine_risk":7,"frizz_risk":0,"updated_at":"2026-03-03T07:59:22.445511+05:30"},{"city":"Kohima","state":"Nagaland","latitude":25.6701,"longitude":94.1077,"temp":13.7,"humidity":71,"rain":0.0,"pressure":857.2,"uv_index":6.5,"wind_gusts":45.0,"aqi":148,"pm10":69.2,"pm2_5":59.3,"mosquito_risk":3,"arthritis_risk":5,"migraine_risk":7,"frizz_risk":0,"updated_at":"2026-03-03T07:59:22.445520+05:30"},{"city":"Gangtok","state":"Sikkim","latitude":27.3314,"longitude":88.6138,"temp":11.6,"humidity":83,"rain":0.0,"pressure":838.2,"uv_index":7.4,"wind_gusts":19.1,"aqi":145,"pm10":62.2,"pm2_5":47.7,"mosquito_risk":3,"arthritis_risk":10,"migraine_risk":7,"frizz_risk":0,"updated_at":"2026-03-03T07:59:22.445529+05:30"},{"city":"Siliguri","state":"West Bengal","latitude":26.7271,"longitude":88.3953,"temp":19.2,"humidity":75,"rain":0.0,"pressure":999.0,"uv_index":7.1,"wind_gusts":18.4,"aqi":166,"pm10":137.4,"pm2_5":112.0,"mosquito_risk":3,"arthritis_risk":5,"migraine_risk":7,"frizz_risk":0,"updated_at":"2026-03-03T07:59:25.658779+05:30"},{"city":"Durgapur","state":"West Bengal","latitude":23.5204,"longitude":87.3119,"temp":22.3,"humidity":42,"rain":0.0,"pressure":1000.1,"uv_index":7.65,"wind_gusts":28.1,"aqi":87,"pm10":66.6,"pm2_5":46.8,"mosquito_risk":0,"arthritis_risk":5,"migraine_risk":4,"frizz_risk":0,"updated_at":"2026-03-03T07:59:25.658815+05:30"},{"city":"Asansol","state":"West Bengal","latitude":23.6739,"longitude":86.9524,"temp":23.2,"humidity":40,"rain":0.0,"pressure":998.5,"uv_index":7.65,"wind_gusts":23.4,"aqi":81,"pm10":55.1,"pm2_5":39.1,"mosquito_risk":0,"arthritis_risk":5,"migraine_risk":7,"frizz_risk":0,"updated_at":"2026-03-03T07:59:25.658848+05:30"},{"city":"Pondicherry","state":"Puducherry","latitude":11.9139,"longitude":79.8145,"temp":23.3,"humidity":91,"rain":0.0,"pressure":1012.2,"uv_index":8.85,"wind_gusts":27.7,"aqi":111,"pm10":51.6,"pm2_5":47.6,"mosquito_risk":3,"arthritis_risk":0,"migraine_risk":4,"frizz_risk":1,"updated_at":"2026-03-03T07:59:25.658860+05:30"},{"city":"Port Blair","state":"Andaman and Nicobar Islands","latitude":11.6234,"longitude":92.7265,"temp":26.9,"humidity":76,"rain":0.0,"pressure":1010.1,"uv_index":8.8,"wind_gusts":16.2,"aqi":84,"pm10":38.0,"pm2_5":27.2,"mosquito_risk":7,"arthritis_risk":0,"migraine_risk":4,"frizz_risk":1,"updated_at":"2026-03-03T07:59:25.658872+05:30"},{"city":"Haridwar","state":"Uttarakhand","latitude":29.9457,"longitude":78.1642,"temp":14.2,"humidity":88,"rain":0.0,"pressure":976.3,"uv_index":5.55,"wind_gusts":24.5,"aqi":96,"pm10":47.4,"pm2_5":45.6,"mosquito_risk":3,"arthritis_risk":10,"migraine_risk":3,"frizz_risk":0,"updated_at":"2026-03-03T07:59:25.658883+05:30"},{"city":"Rishikesh","state":"Uttarakhand","latitude":30.0869,"longitude":78.2676,"temp":16.1,"humidity":78,"rain":0.0,"pressure":968.6,"uv_index":5.6,"wind_gusts":23.4,"aqi":75,"pm10":29.9,"pm2_5":29.3,"mosquito_risk":3,"arthritis_risk":5,"migraine_risk":3,"frizz_risk":0,"updated_at":"2026-03-03T07:59:25.658893+05:30"},{"city":"Nainital","state":"Uttarakhand","latitude":29.3919,"longitude":79.4542,"temp":15.0,"humidity":60,"rain":0.0,"pressure":805.0,"uv_index":6.45,"wind_gusts":54.4,"aqi":80,"pm10":36.3,"pm2_5":34.6,"mosquito_risk":0,"arthritis_risk":5,"migraine_risk":7,"frizz_risk":0,"updated_at":"2026-03-03T07:59:25.658904+05:30"},{"city":"Mussoorie","state":"Uttarakhand","latitude":30.4599,"longitude":78.0664,"temp":13.6,"humidity":50,"rain":0.0,"pressure":801.5,"uv_index":5.95,"wind_gusts":40.7,"aqi":78,"pm10":25.7,"pm2_5":25.2,"mosquito_risk":0,"arthritis_risk":5,"migraine_risk":3,"frizz_risk":0,"updated_at":"2026-03-03T07:59:25.658914+05:30"},{"city":"Dharamshala","state":"Himachal Pradesh","latitude":32.219,"longitude":76.3234,"temp":18.0,"humidity":24,"rain":0.0,"pressure":869.7,"uv_index":6.2,"wind_gusts":22.7,"aqi":52,"pm10":10.8,"pm2_5":7.4,"mosquito_risk":0,"arthritis_risk":5,"migraine_risk":7,"frizz_risk":1,"updated_at":"2026-03-03T07:59:25.658924+05:30"},{"city":"Dalhousie","state":"Himachal Pradesh","latitude":32.5387,"longitude":75.971,"temp":14.2,"humidity":21,"rain":0.0,"pressure":803.6,"uv_index":6.4,"wind_gusts":20.9,"aqi":93,"pm10":24.9,"pm2_5":23.1,"mosquito_risk":0,"arthritis_risk":5,"migraine_risk":7,"frizz_risk":1,"updated_at":"2026-03-03T07:59:25.658936+05:30"},{"city":"Patiala","state":"Punjab","latitude":30.3398,"longitude":76.3869,"temp":15.4,"humidity":80,"rain":0.0,"pressure":981.5,"uv_index":5.6,"wind_gusts":35.3,"aqi":161,"pm10":370.7,"pm2_5":72.4,"mosquito_risk":3,"arthritis_risk":5,"migraine_risk":3,"frizz_risk":0,"updated_at":"2026-03-03T07:59:25.658947+05:30"},{"city":"Bhatinda","state":"Punjab","latitude":30.211,"longitude":74.9455,"temp":15.1,"humidity":82,"rain":0.0,"pressure":987.9,"uv_index":6.25,"wind_gusts":28.8,"aqi":150,"pm10":73.1,"pm2_5":60.3,"mosquito_risk":3,"arthritis_risk":10,"migraine_risk":7,"frizz_risk":0,"updated_at":"2026-03-03T07:59:25.658958+05:30"},{"city":"Rohtak","state":"Haryana","latitude":28.8955,"longitude":76.6066,"temp":14.9,"humidity":83,"rain":0.0,"pressure":985.7,"uv_index":5.8,"wind_gusts":33.5,"aqi":333,"pm10":506.6,"pm2_5":95.9,"mosquito_risk":3,"arthritis_risk":10,"migraine_risk":3,"frizz_risk":0,"updated_at":"2026-03-03T07:59:25.658968+05:30"},{"city":"Panipat","state":"Haryana","latitude":29.3909,"longitude":76.9635,"temp":15.1,"humidity":81,"rain":0.0,"pressure":983.8,"uv_index":5.6,"wind_gusts":37.1,"aqi":831,"pm10":1106.4,"pm2_5":152.7,"mosquito_risk":3,"arthritis_risk":10,"migraine_risk":3,"frizz_risk":0,"updated_at":"2026-03-03T07:59:25.658978+05:30"},{"city":"Mathura","state":"Uttar Pradesh","latitude":27.4924,"longitude":77.6737,"temp":16.9,"humidity":82,"rain":0.0,"pressure":991.0,"uv_index":6.1,"wind_gusts":28.8,"aqi":457,"pm10":529.0,"pm2_5":89.4,"mosquito_risk":3,"arthritis_risk":10,"migraine_risk":7,"frizz_risk":0,"updated_at":"2026-03-03T07:59:25.658988+05:30"},{"city":"Vrindavan","state":"Uttar Pradesh","latitude":27.5823,"longitude":77.7027,"temp":17.1,"humidity":79,"rain":0.0,"pressure":991.3,"uv_index":6.05,"wind_gusts":31.7,"aqi":457,"pm10":529.0,"pm2_5":89.4,"mosquito_risk":3,"arthritis_risk":5,"migraine_risk":7,"frizz_risk":0,"updated_at":"2026-03-03T07:59:25.658998+05:30"},{"city":"Ayodhya","state":"Uttar Pradesh","latitude":26.7922,"longitude":82.1998,"temp":17.5,"humidity":77,"rain":0.0,"pressure":998.9,"uv_index":6.45,"wind_gusts":30.6,"aqi":141,"pm10":156.0,"pm2_5":62.2,"mosquito_risk":3,"arthritis_risk":5,"migraine_risk":7,"frizz_risk":0,"updated_at":"2026-03-03T07:59:25.659009+05:30"},{"city":"Ratlam","state":"Madhya Pradesh","latitude":23.3315,"longitude":75.0367,"temp":19.8,"humidity":71,"rain":0.0,"pressure":958.1,"uv_index":7.3,"wind_gusts":10.1,"aqi":92,"pm10":53.3,"pm2_5":48.9,"mosquito_risk":3,"arthritis_risk":5,"migraine_risk":7,"frizz_risk":0,"updated_at":"2026-03-03T07:59:25.659021+05:30"},{"city":"Sagar","state":"Madhya Pradesh","latitude":23.8388,"longitude":78.7378,"temp":18.8,"humidity":65,"rain":0.0,"pressure":953.6,"uv_index":7.25,"wind_gusts":28.4,"aqi":64,"pm10":33.1,"pm2_5":25.4,"mosquito_risk":3,"arthritis_risk":5,"migraine_risk":7,"frizz_risk":0,"updated_at":"2026-03-03T07:59:25.659033+05:30"},{"city":"Satna","state":"Madhya Pradesh","latitude":24.6005,"longitude":80.8322,"temp":21.2,"humidity":47,"rain":0.0,"pressure":975.7,"uv_index":7.2,"wind_gusts":32.0,"aqi":65,"pm10":85.4,"pm2_5":28.1,"mosquito_risk":0,"arthritis_risk":5,"migraine_risk":7,"frizz_risk":0,"updated_at":"2026-03-03T07:59:25.659045+05:30"},{"city":"Akola","state":"Maharashtra","latitude":20.7002,"longitude":77.0082,"temp":21.5,"humidity":68,"rain":0.0,"pressure":979.3,"uv_index":7.8,"wind_gusts":21.2,"aqi":77,"pm10":34.3,"pm2_5":30.6,"mosquito_risk":3,"arthritis_risk":5,"migraine_risk":7,"frizz_risk":0,"updated_at":"2026-03-03T07:59:25.659054+05:30"},{"city":"Amravati","state":"Maharashtra","latitude":20.9374,"longitude":77.7796,"temp":21.1,"humidity":59,"rain":0.0,"pressure":971.3,"uv_index":7.75,"wind_gusts":17.3,"aqi":75,"pm10":34.6,"pm2_5":29.2,"mosquito_risk":0,"arthritis_risk":5,"migraine_risk":7,"frizz_risk":0,"updated_at":"2026-03-03T07:59:25.659064+05:30"},{"city":"Latur","state":"Maharashtra","latitude":18.4088,"longitude":76.5604,"temp":21.6,"humidity":62,"rain":0.0,"pressure":942.7,"uv_index":8.2,"wind_gusts":34.2,"aqi":82,"pm10":45.8,"pm2_5":45.3,"mosquito_risk":3,"arthritis_risk":5,"migraine_risk":7,"frizz_risk":0,"updated_at":"2026-03-03T07:59:25.659074+05:30"},{"city":"Nanded","state":"Maharashtra","latitude":19.1383,"longitude":77.3091,"temp":21.9,"humidity":64,"rain":0.0,"pressure":972.4,"uv_index":8.0,"wind_gusts":22.3,"aqi":96,"pm10":34.3,"pm2_5":33.4,"mosquito_risk":3,"arthritis_risk":5,"migraine_risk":7,"frizz_risk":0,"updated_at":"2026-03-03T07:59:25.659083+05:30"},{"city":"Gulbarga","state":"Karnataka","latitude":17.3297,"longitude":76.8343,"temp":24.2,"humidity":65,"rain":0.0,"pressure":961.7,"uv_index":8.3,"wind_gusts":22.3,"aqi":137,"pm10":48.1,"pm2_5":47.6,"mosquito_risk":3,"arthritis_risk":5,"migraine_risk":7,"frizz_risk":1,"updated_at":"2026-03-03T07:59:25.659091+05:30"},{"city":"Bidar","state":"Karnataka","latitude":17.9104,"longitude":77.5199,"temp":22.2,"humidity":74,"rain":0.0,"pressure":938.1,"uv_index":8.25,"wind_gusts":24.5,"aqi":115,"pm10":62.2,"pm2_5":61.2,"mosquito_risk":3,"arthritis_risk":5,"migraine_risk":7,"frizz_risk":1,"updated_at":"2026-03-03T07:59:25.659100+05:30"},{"city":"Hospet","state":"Karnataka","latitude":15.2689,"longitude":76.3909,"temp":24.0,"humidity":82,"rain":0.0,"pressure":958.8,"uv_index":8.6,"wind_gusts":27.4,"aqi":106,"pm10":44.7,"pm2_5":44.1,"mosquito_risk":3,"arthritis_risk":5,"migraine_risk":7,"frizz_risk":1,"updated_at":"2026-03-03T07:59:25.659109+05:30"},{"city":"Tirupur","state":"Tamil Nadu","latitude":11.1085,"longitude":77.3411,"temp":23.5,"humidity":76,"rain":0.0,"pressure":978.6,"uv_index":9.15,"wind_gusts":33.5,"aqi":133,"pm10":68.9,"pm2_5":68.2,"mosquito_risk":3,"arthritis_risk":5,"migraine_risk":7,"frizz_risk":1,"updated_at":"2026-03-03T07:59:25.659119+05:30"},{"city":"Alappuzha","state":"Kerala","latitude":9.4981,"longitude":76.3388,"temp":27.3,"humidity":80,"rain":0.0,"pressure":1011.1,"uv_index":8.95,"wind_gusts":30.2,"aqi":95,"pm10":41.4,"pm2_5":39.5,"mosquito_risk":7,"arthritis_risk":0,"migraine_risk":4,"frizz_risk":1,"updated_at":"2026-03-03T07:59:25.659128+05:30"},{"city":"Munnar","state":"Kerala","latitude":10.0889,"longitude":77.0595,"temp":17.9,"humidity":69,"rain":0.0,"pressure":857.1,"uv_index":9.45,"wind_gusts":22.7,"aqi":108,"pm10":40.4,"pm2_5":39.9,"mosquito_risk":3,"arthritis_risk":5,"migraine_risk":7,"frizz_risk":0,"updated_at":"2026-03-03T07:59:25.659137+05:30"},{"city":"Silchar","state":"Assam","latitude":24.8333,"longitude":92.7789,"temp":22.1,"humidity":82,"rain":0.0,"pressure":1010.2,"uv_index":7.4,"wind_gusts":20.2,"aqi":159,"pm10":81.5,"pm2_5":72.4,"mosquito_risk":3,"arthritis_risk":0,"migraine_risk":4,"frizz_risk":1,"updated_at":"2026-03-03T07:59:25.659146+05:30"},{"city":"Dibrugarh","state":"Assam","latitude":27.4728,"longitude":94.912,"temp":19.8,"humidity":88,"rain":0.0,"pressure":1002.2,"uv_index":7.1,"wind_gusts":9.0,"aqi":157,"pm10":52.9,"pm2_5":45.6,"mosquito_risk":3,"arthritis_risk":10,"migraine_risk":4,"frizz_risk":1,"updated_at":"2026-03-03T07:59:25.659156+05:30"}]