[{"city":"Delhi","state":"Delhi","latitude":28.6139,"longitude":77.209,"temp":29.9,"humidity":37,"rain":0.0,"pressure":984.5,"uv_index":6.3,"wind_gusts":27.4,"aqi":158,"pm10":386.5,"pm2_5":57.3,"mosquito_risk":4,"arthritis_risk":5,"migraine_risk":7,"frizz_risk":0,"updated_at":"2026-03-24T15:32:12.528484+05:30"},{"city":"Mumbai","state":"Maharashtra","latitude":19.076,"longitude":72.8777,"temp":28.8,"humidity":71,"rain":0.0,"pressure":1007.2,"uv_index":7.9,"wind_gusts":27.4,"aqi":168,"pm10":51.9,"pm2_5":39.3,"mosquito_risk":7,"arthritis_risk":5,"migraine_risk":4,"frizz_risk":1,"updated_at":"2026-03-24T15:32:12.528537+05:30"},{"city":"Bangalore","state":"Karnataka","latitude":12.9716,"longitude":77.5946,"temp":32.1,"humidity":29,"rain":0.0,"pressure":911.0,"uv_index":9.5,"wind_gusts":24.1,"aqi":93,"pm10":31.8,"pm2_5":22.2,"mosquito_risk":0,"arthritis_risk":5,"migraine_risk":7,"frizz_risk":0,"updated_at":"2026-03-24T15:32:12.528552+05:30"},{"city":"Hyderabad","state":"Telangana","latitude":17.385,"longitude":78.4867,"temp":34.1,"humidity":32,"rain":0.0,"pressure":952.4,"uv_index":8.95,"wind_gusts":37.1,"aqi":82,"pm10":38.6,"pm2_5":27.2,"mosquito_risk":0,"arthritis_risk":5,"migraine_risk":7,"frizz_risk":0,"updated_at":"2026-03-24T15:32:12.528562+05:30"},{"city":"Chennai","state":"Tamil Nadu","latitude":13.0827,"longitude":80.2707,"temp":31.9,"humidity":54,"rain":0.0,"pressure":1007.1,"uv_index":9.2,"wind_gusts":33.5,"aqi":37,"pm10":14.5,"pm2_5":8.8,"mosquito_risk":0,"arthritis_risk":5,"migraine_risk":4,"frizz_risk":1,"updated_at":"2026-03-24T15:32:12.528571+05:30"},{"city":"Kolkata","state":"West Bengal","latitude":22.5726,"longitude":88.3639,"temp":30.0,"humidity":60,"rain":0.0,"pressure":1005.9,"uv_index":8.3,"wind_gusts":21.6,"aqi":151,"pm10":53.0,"pm2_5":38.2,"mosquito_risk":4,"arthritis_risk":5,"migraine_risk":4,"frizz_risk":1,"updated_at":"2026-03-24T15:32:12.528604+05:30"},{"city":"Pune","state":"Maharashtra","latitude":18.5204,"longitude":73.8567,"temp":36.4,"humidity":21,"rain":0.0,"pressure":947.4,"uv_index":8.3,"wind_gusts":30.6,"aqi":95,"pm10":30.7,"pm2_5":18.4,"mosquito_risk":0,"arthritis_risk":5,"migraine_risk":10,"frizz_risk":0,"updated_at":"2026-03-24T15:32:12.528626+05:30"},{"city":"Ahmedabad","state":"Gujarat","latitude":23.0225,"longitude":72.5714,"temp":35.9,"humidity":27,"rain":0.0,"pressure":1001.4,"uv_index":7.2,"wind_gusts":17.6,"aqi":70,"pm10":21.4,"pm2_5":9.1,"mosquito_risk":0,"arthritis_risk":5,"migraine_risk":7,"frizz_risk":0,"updated_at":"2026-03-24T15:32:12.528634+05:30"},{"city":"Jaipur","state":"Rajasthan","latitude":26.9124,"longitude":75.7873,"temp":31.6,"humidity":24,"rain":0.0,"pressure":961.0,"uv_index":6.55,"wind_gusts":19.8,"aqi":124,"pm10":121.5,"pm2_5":21.5,"mosquito_risk":0,"arthritis_risk":5,"migraine_risk":7,"frizz_risk":0,"updated_at":"2026-03-24T15:32:12.528641+05:30"},{"city":"Lucknow","state":"Uttar Pradesh","latitude":26.8467,"longitude":80.9462,"temp":31.6,"humidity":34,"rain":0.0,"pressure":994.0,"uv_index":7.05,"wind_gusts":32.8,"aqi":114,"pm10":106.2,"pm2_5":27.0,"mosquito_risk":0,"arthritis_risk":5,"migraine_risk":7,"frizz_risk":0,"updated_at":"2026-03-24T15:32:12.528648+05:30"},{"city":"Kanpur","state":"Uttar Pradesh","latitude":26.4499,"longitude":80.3319,"temp":30.3,"humidity":42,"rain":0.0,"pressure":992.8,"uv_index":7.1,"wind_gusts":28.1,"aqi":131,"pm10":236.1,"pm2_5":36.9,"mosquito_risk":0,"arthritis_risk":5,"migraine_risk":7,"frizz_risk":0,"updated_at":"2026-03-24T15:32:12.528655+05:30"},{"city":"Chandigarh","state":"Chandigarh","latitude":30.7333,"longitude":76.7794,"temp":28.7,"humidity":35,"rain":0.0,"pressure":970.7,"uv_index":6.5,"wind_gusts":34.6,"aqi":103,"pm10":25.4,"pm2_5":19.2,"mosquito_risk":4,"arthritis_risk":5,"migraine_risk":7,"frizz_risk":0,"updated_at":"2026-03-24T15:32:12.528662+05:30"},{"city":"Srinagar","state":"Jammu and Kashmir","latitude":34.0837,"longitude":74.7973,"temp":17.5,"humidity":31,"rain":0.0,"pressure":843.3,"uv_index":7.6,"wind_gusts":16.2,"aqi":76,"pm10":14.5,"pm2_5":7.5,"mosquito_risk":0,"arthritis_risk":5,"migraine_risk":7,"frizz_risk":0,"updated_at":"2026-03-24T15:32:12.528669+05:30"},{"city":"Jammu","state":"Jammu and Kashmir","latitude":32.7266,"longitude":74.857,"temp":28.9,"humidity":37,"rain":0.0,"pressure":974.7,"uv_index":7.15,"wind_gusts":30.6,"aqi":72,"pm10":20.1,"pm2_5":13.6,"mosquito_risk":4,"arthritis_risk":5,"migraine_risk":7,"frizz_risk":0,"updated_at":"2026-03-24T15:32:12.528675+05:30"},{"city":"Amritsar","state":"Punjab","latitude":31.634,"longitude":74.8723,"temp":29.6,"humidity":33,"rain":0.0,"pressure":983.3,"uv_index":7.15,"wind_gusts":25.2,"aqi":132,"pm10":36.4,"pm2_5":21.4,"mosquito_risk":4,"arthritis_risk":5,"migraine_risk":7,"frizz_risk":0,"updated_at":"2026-03-24T15:32:12.528681+05:30"},{"city":"Ludhiana","state":"Punjab","latitude":30.901,"longitude":75.8573,"temp":29.2,"humidity":33,"rain":0.0,"pressure":980.9,"uv_index":6.75,"wind_gusts":29.9,"aqi":155,"pm10":47.4,"pm2_5":24.7,"mosquito_risk":4,"arthritis_risk":5,"migraine_risk":7,"frizz_risk":0,"updated_at":"2026-03-24T15:32:12.528687+05:30"},{"city":"Jalandhar","state":"Punjab","latitude":31.326,"longitude":75.5762,"temp":28.9,"humidity":36,"rain":0.0,"pressure":982.1,"uv_index":6.95,"wind_gusts":28.1,"aqi":147,"pm10":71.7,"pm2_5":26.8,"mosquito_risk":4,"arthritis_risk":5,"migraine_risk":7,"frizz_risk":0,"updated_at":"2026-03-24T15:32:12.528695+05:30"},{"city":"Dehradun","state":"Uttarakhand","latitude":30.6284,"longitude":78.0322,"temp":17.2,"humidity":68,"rain":0.0,"pressure":830.8,"uv_index":6.9,"wind_gusts":34.9,"aqi":70,"pm10":24.2,"pm2_5":16.3,"mosquito_risk":3,"arthritis_risk":5,"migraine_risk":7,"frizz_risk":0,"updated_at":"2026-03-24T15:32:12.528701+05:30"},{"city":"Shimla","state":"Himachal Pradesh","latitude":31.1048,"longitude":77.1734,"temp":15.4,"humidity":54,"rain":0.0,"pressure":785.6,"uv_index":7.0,"wind_gusts":53.3,"aqi":69,"pm10":21.2,"pm2_5":14.6,"mosquito_risk":0,"arthritis_risk":5,"migraine_risk":7,"frizz_risk":0,"updated_at":"2026-03-24T15:32:12.528707+05:30"},{"city":"Manali","state":"Himachal Pradesh","latitude":32.2396,"longitude":77.1887,"temp":17.8,"humidity":46,"rain":0.0,"pressure":820.3,"uv_index":9.15,"wind_gusts":29.5,"aqi":102,"pm10":10.6,"pm2_5":5.0,"mosquito_risk":0,"arthritis_risk":5,"migraine_risk":7,"frizz_risk":0,"updated_at":"2026-03-24T15:32:12.528713+05:30"},{"city":"Gurgaon","state":"Haryana","latitude":28.4595,"longitude":77.0266,"temp":30.2,"humidity":35,"rain":0.0,"pressure":983.0,"uv_index":6.5,"wind_gusts":25.2,"aqi":369,"pm10":1236.8,"pm2_5":126.7,"mosquito_risk":0,"arthritis_risk":5,"migraine_risk":7,"frizz_risk":0,"updated_at":"2026-03-24T15:32:12.528718+05:30"},{"city":"Noida","state":"Uttar Pradesh","latitude":28.5355,"longitude":77.391,"temp":30.0,"humidity":38,"rain":0.0,"pressure":986.0,"uv_index":6.35,"wind_gusts":26.6,"aqi":369,"pm10":1236.8,"pm2_5":126.7,"mosquito_risk":4,"arthritis_risk":5,"migraine_risk":7,"frizz_risk":0,"updated_at":"2026-03-24T15:32:12.528723+05:30"},{"city":"Ghaziabad","state":"Uttar Pradesh","latitude":28.6692,"longitude":77.4538,"temp":29.5,"humidity":41,"rain":0.0,"pressure":984.3,"uv_index":6.2,"wind_gusts":27.4,"aqi":156,"pm10":259.8,"pm2_5":49.2,"mosquito_risk":4,"arthritis_risk":5,"migraine_risk":7,"frizz_risk":0,"updated_at":"2026-03-24T15:32:12.528729+05:30"},{"city":"Faridabad","state":"Haryana","latitude":28.4089,"longitude":77.3178,"temp":29.8,"humidity":35,"rain":0.0,"pressure":985.3,"uv_index":6.3,"wind_gusts":25.6,"aqi":369,"pm10":1236.8,"pm2_5":126.7,"mosquito_risk":4,"arthritis_risk":5,"migraine_risk":7,"frizz_risk":0,"updated_at":"2026-03-24T15:32:12.528734+05:30"},{"city":"Meerut","state":"Uttar Pradesh","latitude":28.9845,"longitude":77.7064,"temp":29.2,"humidity":40,"rain":0.0,"pressure":982.9,"uv_index":6.4,"wind_gusts":30.6,"aqi":156,"pm10":259.8,"pm2_5":49.2,"mosquito_risk":4,"arthritis_risk":5,"migraine_risk":7,"frizz_risk":0,"updated_at":"2026-03-24T15:32:12.528739+05:30"},{"city":"Agra","state":"Uttar Pradesh","latitude":27.1767,"longitude":78.0081,"temp":33.1,"humidity":25,"rain":0.0,"pressure":988.7,"uv_index":6.6,"wind_gusts":28.8,"aqi":159,"pm10":631.4,"pm2_5":68.0,"mosquito_risk":0,"arthritis_risk":5,"migraine_risk":7,"frizz_risk":0,"updated_at":"2026-03-24T15:32:12.528745+05:30"},{"city":"Varanasi","state":"Uttar Pradesh","latitude":25.3176,"longitude":82.9739,"temp":33.2,"humidity":33,"rain":0.0,"pressure":997.3,"uv_index":7.75,"wind_gusts":27.7,"aqi":143,"pm10":76.4,"pm2_5":29.0,"mosquito_risk":0,"arthritis_risk":5,"migraine_risk":7,"frizz_risk":0,"updated_at":"2026-03-24T15:32:12.528752+05:30"},{"city":"Prayagraj","state":"Uttar Pradesh","latitude":25.4358,"longitude":81.8463,"temp":33.0,"humidity":35,"rain":0.0,"pressure":996.0,"uv_index":7.6,"wind_gusts":23.0,"aqi":111,"pm10":74.0,"pm2_5":27.6,"mosquito_risk":0,"arthritis_risk":5,"migraine_risk":7,"frizz_risk":0,"updated_at":"2026-03-24T15:32:12.528760+05:30"},{"city":"Gorakhpur","state":"Uttar Pradesh","latitude":26.7606,"longitude":83.3732,"temp":31.8,"humidity":33,"rain":0.0,"pressure":996.3,"uv_index":7.45,"wind_gusts":34.6,"aqi":149,"pm10":35.9,"pm2_5":18.3,"mosquito_risk":0,"arthritis_risk":5,"migraine_risk":7,"frizz_risk":0,"updated_at":"2026-03-24T15:32:12.528765+05:30"},{"city":"Bareilly","state":"Uttar Pradesh","latitude":28.367,"longitude":79.4304,"temp":28.9,"humidity":44,"rain":0.0,"pressure":988.0,"uv_index":6.75,"wind_gusts":31.0,"aqi":117,"pm10":82.4,"pm2_5":31.5,"mosquito_risk":4,"arthritis_risk":5,"migraine_risk":7,"frizz_risk":0,"updated_at":"2026-03-24T15:32:12.528772+05:30"},{"city":"Aligarh","state":"Uttar Pradesh","latitude":27.8974,"longitude":78.088,"temp":30.5,"humidity":37,"rain":0.0,"pressure":986.9,"uv_index":6.7,"wind_gusts":28.1,"aqi":160,"pm10":640.7,"pm2_5":80.3,"mosquito_risk":0,"arthritis_risk":5,"migraine_risk":7,"frizz_risk":0,"updated_at":"2026-03-24T15:32:12.528777+05:30"},{"city":"Moradabad","state":"Uttar Pradesh","latitude":28.8386,"longitude":78.7733,"temp":29.0,"humidity":42,"rain":0.0,"pressure":984.8,"uv_index":6.6,"wind_gusts":32.4,"aqi":147,"pm10":78.5,"pm2_5":32.5,"mosquito_risk":4,"arthritis_risk":5,"migraine_risk":7,"frizz_risk":0,"updated_at":"2026-03-24T15:32:12.528782+05:30"},{"city":"Saharanpur","state":"Uttar Pradesh","latitude":29.9637,"longitude":77.546,"temp":29.0,"humidity":32,"rain":0.0,"pressure":977.1,"uv_index":6.25,"wind_gusts":38.2,"aqi":161,"pm10":71.0,"pm2_5":28.2,"mosquito_risk":4,"arthritis_risk":5,"migraine_risk":7,"frizz_risk":0,"updated_at":"2026-03-24T15:32:12.528789+05:30"},{"city":"Jhansi","state":"Uttar Pradesh","latitude":25.4484,"longitude":78.5685,"temp":32.9,"humidity":24,"rain":0.0,"pressure":978.6,"uv_index":7.25,"wind_gusts":27.4,"aqi":132,"pm10":73.8,"pm2_5":22.6,"mosquito_risk":0,"arthritis_risk":5,"migraine_risk":7,"frizz_risk":0,"updated_at":"2026-03-24T15:32:15.841434+05:30"},{"city":"Surat","state":"Gujarat","latitude":21.1702,"longitude":72.8311,"temp":32.4,"humidity":58,"rain":0.0,"pressure":1006.4,"uv_index":7.35,"wind_gusts":24.8,"aqi":148,"pm10":40.7,"pm2_5":31.5,"mosquito_risk":0,"arthritis_risk":5,"migraine_risk":4,"frizz_risk":1,"updated_at":"2026-03-24T15:32:15.841463+05:30"},{"city":"Vadodara","state":"Gujarat","latitude":22.3072,"longitude":73.1812,"temp":36.1,"humidity":25,"rain":0.0,"pressure":1003.7,"uv_index":7.85,"wind_gusts":23.4,"aqi":88,"pm10":19.7,"pm2_5":10.7,"mosquito_risk":0,"arthritis_risk":5,"migraine_risk":7,"frizz_risk":0,"updated_at":"2026-03-24T15:32:15.841473+05:30"},{"city":"Rajkot","state":"Gujarat","latitude":22.3039,"longitude":70.8022,"temp":34.2,"humidity":36,"rain":0.0,"pressure":994.3,"uv_index":7.15,"wind_gusts":24.5,"aqi":39,"pm10":26.2,"pm2_5":9.3,"mosquito_risk":0,"arthritis_risk":5,"migraine_risk":7,"frizz_risk":1,"updated_at":"2026-03-24T15:32:15.841482+05:30"},{"city":"Thane","state":"Maharashtra","latitude":19.2183,"longitude":72.9781,"temp":33.1,"humidity":49,"rain":0.0,"pressure":1006.9,"uv_index":7.75,"wind_gusts":41.4,"aqi":168,"pm10":51.9,"pm2_5":39.3,"mosquito_risk":0,"arthritis_risk":5,"migraine_risk":4,"frizz_risk":1,"updated_at":"2026-03-24T15:32:15.841489+05:30"},{"city":"Nagpur","state":"Maharashtra","latitude":21.1458,"longitude":79.0882,"temp":36.2,"humidity":20,"rain":0.0,"pressure":971.7,"uv_index":8.45,"wind_gusts":26.6,"aqi":145,"pm10":40.3,"pm2_5":25.6,"mosquito_risk":0,"arthritis_risk":5,"migraine_risk":10,"frizz_risk":0,"updated_at":"2026-03-24T15:32:15.841497+05:30"},{"city":"Nashik","state":"Maharashtra","latitude":19.9975,"longitude":73.7898,"temp":34.3,"humidity":24,"rain":0.0,"pressure":945.2,"uv_index":8.1,"wind_gusts":36.0,"aqi":73,"pm10":28.7,"pm2_5":13.9,"mosquito_risk":0,"arthritis_risk":5,"migraine_risk":7,"frizz_risk":0,"updated_at":"2026-03-24T15:32:15.841505+05:30"},{"city":"Aurangabad","state":"Maharashtra","latitude":19.8762,"longitude":75.3433,"temp":35.3,"humidity":22,"rain":0.0,"pressure":943.8,"uv_index":8.6,"wind_gusts":29.5,"aqi":60,"pm10":26.4,"pm2_5":12.6,"mosquito_risk":0,"arthritis_risk":5,"migraine_risk":10,"frizz_risk":0,"updated_at":"2026-03-24T15:32:15.841512+05:30"},{"city":"Solapur","state":"Maharashtra","latitude":17.6599,"longitude":75.9064,"temp":37.2,"humidity":21,"rain":0.0,"pressure":955.6,"uv_index":8.8,"wind_gusts":23.8,"aqi":102,"pm10":40.6,"pm2_5":29.4,"mosquito_risk":0,"arthritis_risk":5,"migraine_risk":10,"frizz_risk":0,"updated_at":"2026-03-24T15:32:15.841519+05:30"},{"city":"Kolhapur","state":"Maharashtra","latitude":16.705,"longitude":74.2433,"temp":34.2,"humidity":27,"rain":0.0,"pressure":946.7,"uv_index":8.95,"wind_gusts":48.6,"aqi":113,"pm10":32.9,"pm2_5":24.4,"mosquito_risk":0,"arthritis_risk":5,"migraine_risk":7,"frizz_risk":0,"updated_at":"2026-03-24T15:32:15.841526+05:30"},{"city":"Goa","state":"Goa","latitude":15.2993,"longitude":74.124,"temp":31.6,"humidity":66,"rain":0.0,"pressure":997.1,"uv_index":8.9,"wind_gusts":29.9,"aqi":104,"pm10":41.6,"pm2_5":31.1,"mosquito_risk":3,"arthritis_risk":5,"migraine_risk":7,"frizz_risk":1,"updated_at":"2026-03-24T15:32:15.841533+05:30"},{"city":"Jodhpur","state":"Rajasthan","latitude":26.2389,"longitude":73.0243,"temp":34.7,"humidity":18,"rain":0.0,"pressure":983.2,"uv_index":7.65,"wind_gusts":18.0,"aqi":64,"pm10":29.9,"pm2_5":9.5,"mosquito_risk":0,"arthritis_risk":5,"migraine_risk":7,"frizz_risk":0,"updated_at":"2026-03-24T15:32:15.841540+05:30"},{"city":"Udaipur","state":"Rajasthan","latitude":24.5854,"longitude":73.7125,"temp":32.5,"humidity":22,"rain":0.0,"pressure":947.0,"uv_index":7.45,"wind_gusts":20.5,"aqi":55,"pm10":46.1,"pm2_5":12.9,"mosquito_risk":0,"arthritis_risk":5,"migraine_risk":7,"frizz_risk":0,"updated_at":"2026-03-24T15:32:15.841547+05:30"},{"city":"Kota","state":"Rajasthan","latitude":25.2138,"longitude":75.8648,"temp":35.1,"humidity":24,"rain":0.0,"pressure":979.0,"uv_index":7.65,"wind_gusts":14.0,"aqi":113,"pm10":44.6,"pm2_5":16.4,"mosquito_risk":0,"arthritis_risk":5,"migraine_risk":10,"frizz_risk":0,"updated_at":"2026-03-24T15:32:15.841553+05:30"},{"city":"Bikaner","state":"Rajasthan","latitude":28.0229,"longitude":73.3119,"temp":34.2,"humidity":16,"rain":0.0,"pressure":982.8,"uv_index":7.05,"wind_gusts":15.8,"aqi":62,"pm10":32.2,"pm2_5":13.4,"mosquito_risk":0,"arthritis_risk":5,"migraine_risk":7,"frizz_risk":0,"updated_at":"2026-03-24T15:32:15.841560+05:30"},{"city":"Ajmer","state":"Rajasthan","latitude":26.4499,"longitude":74.6399,"temp":31.9,"humidity":27,"rain":0.0,"pressure":955.6,"uv_index":7.55,"wind_gusts":15.5,"aqi":99,"pm10":32.2,"pm2_5":11.0,"mosquito_risk":0,"arthritis_risk":5,"migraine_risk":7,"frizz_risk":0,"updated_at":"2026-03-24T15:32:15.841567+05:30"},{"city":"Gwalior","state":"Madhya Pradesh","latitude":26.2183,"longitude":78.1828,"temp":32.4,"humidity":25,"rain":0.0,"pressure":984.3,"uv_index":7.25,"wind_gusts":28.4,"aqi":120,"pm10":65.4,"pm2_5":19.2,"mosquito_risk":0,"arthritis_risk":5,"migraine_risk":7,"frizz_risk":0,"updated_at":"2026-03-24T15:32:15.841574+05:30"},{"city":"Indore","state":"Madhya Pradesh","latitude":22.7196,"longitude":75.8577,"temp":33.5,"humidity":26,"rain":0.0,"pressure":947.9,"uv_index":8.15,"wind_gusts":23.0,"aqi":62,"pm10":32.6,"pm2_5":14.5,"mosquito_risk":0,"arthritis_risk":5,"migraine_risk":7,"frizz_risk":0,"updated_at":"2026-03-24T15:32:15.841581+05:30"},{"city":"Bhopal","state":"Madhya Pradesh","latitude":23.2599,"longitude":77.4126,"temp":34.4,"humidity":23,"rain":0.0,"pressure":953.6,"uv_index":8.05,"wind_gusts":31.0,"aqi":75,"pm10":46.4,"pm2_5":18.3,"mosquito_risk":0,"arthritis_risk":5,"migraine_risk":7,"frizz_risk":0,"updated_at":"2026-03-24T15:32:15.841588+05:30"},{"city":"Jabalpur","state":"Madhya Pradesh","latitude":23.1815,"longitude":79.9864,"temp":33.8,"humidity":26,"rain":0.0,"pressure":961.0,"uv_index":8.15,"wind_gusts":29.9,"aqi":81,"pm10":44.4,"pm2_5":18.5,"mosquito_risk":0,"arthritis_risk":5,"migraine_risk":7,"frizz_risk":0,"updated_at":"2026-03-24T15:32:15.841595+05:30"},{"city":"Ujjain","state":"Madhya Pradesh","latitude":23.1765,"longitude":75.7885,"temp":33.3,"humidity":28,"rain":0.0,"pressure":953.7,"uv_index":8.05,"wind_gusts":19.1,"aqi":66,"pm10":38.9,"pm2_5":17.8,"mosquito_risk":0,"arthritis_risk":5,"migraine_risk":7,"frizz_risk":0,"updated_at":"2026-03-24T15:32:15.841602+05:30"},{"city":"Visakhapatnam","state":"Andhra Pradesh","latitude":17.6868,"longitude":83.2185,"temp":30.7,"humidity":57,"rain":0.0,"pressure":1004.1,"uv_index":8.9,"wind_gusts":36.0,"aqi":85,"pm10":25.3,"pm2_5":17.1,"mosquito_risk":0,"arthritis_risk":5,"migraine_risk":4,"frizz_risk":1,"updated_at":"2026-03-24T15:32:15.841609+05:30"},{"city":"Vijayawada","state":"Andhra Pradesh","latitude":16.5062,"longitude":80.648,"temp":34.2,"humidity":43,"rain":0.0,"pressure":1001.8,"uv_index":9.0,"wind_gusts":25.9,"aqi":63,"pm10":24.8,"pm2_5":16.9,"mosquito_risk":0,"arthritis_risk":5,"migraine_risk":4,"frizz_risk":1,"updated_at":"2026-03-24T15:32:15.841637+05:30"},{"city":"Guntur","state":"Andhra Pradesh","latitude":16.3067,"longitude":80.4365,"temp":33.4,"humidity":48,"rain":0.0,"pressure":1003.3,"uv_index":9.0,"wind_gusts":31.7,"aqi":60,"pm10":27.1,"pm2_5":18.2,"mosquito_risk":0,"arthritis_risk":5,"migraine_risk":4,"frizz_risk":1,"updated_at":"2026-03-24T15:32:15.841644+05:30"},{"city":"Nellore","state":"Andhra Pradesh","latitude":14.4426,"longitude":79.9865,"temp":33.7,"humidity":50,"rain":0.0,"pressure":1005.5,"uv_index":9.1,"wind_gusts":31.3,"aqi":46,"pm10":20.5,"pm2_5":13.1,"mosquito_risk":0,"arthritis_risk":5,"migraine_risk":4,"frizz_risk":1,"updated_at":"2026-03-24T15:32:15.841652+05:30"},{"city":"Kurnool","state":"Andhra Pradesh","latitude":15.8281,"longitude":78.0373,"temp":36.0,"humidity":31,"rain":0.0,"pressure":975.6,"uv_index":9.0,"wind_gusts":30.6,"aqi":62,"pm10":33.5,"pm2_5":23.2,"mosquito_risk":0,"arthritis_risk":5,"migraine_risk":10,"frizz_risk":1,"updated_at":"2026-03-24T15:32:15.841661+05:30"},{"city":"Kakinada","state":"Andhra Pradesh","latitude":16.9891,"longitude":82.2475,"temp":33.0,"humidity":51,"rain":0.0,"pressure":1007.5,"uv_index":8.95,"wind_gusts":30.2,"aqi":51,"pm10":21.0,"pm2_5":10.7,"mosquito_risk":0,"arthritis_risk":5,"migraine_risk":4,"frizz_risk":1,"updated_at":"2026-03-24T15:32:15.841669+05:30"},{"city":"Tirupati","state":"Andhra Pradesh","latitude":13.6288,"longitude":79.4192,"temp":34.0,"humidity":37,"rain":0.0,"pressure":990.6,"uv_index":9.25,"wind_gusts":31.3,"aqi":64,"pm10":28.2,"pm2_5":20.7,"mosquito_risk":0,"arthritis_risk":5,"migraine_risk":7,"frizz_risk":1,"updated_at":"2026-03-24T15:32:15.841676+05:30"},{"city":"Warangal","state":"Telangana","latitude":17.9689,"longitude":79.5941,"temp":35.7,"humidity":32,"rain":0.0,"pressure":977.7,"uv_index":8.8,"wind_gusts":28.1,"aqi":89,"pm10":41.3,"pm2_5":29.7,"mosquito_risk":0,"arthritis_risk":5,"migraine_risk":10,"frizz_risk":1,"updated_at":"2026-03-24T15:32:15.841683+05:30"},{"city":"Nizamabad","state":"Telangana","latitude":18.6725,"longitude":78.0941,"temp":35.5,"humidity":28,"rain":0.0,"pressure":964.0,"uv_index":8.75,"wind_gusts":26.3,"aqi":96,"pm10":47.5,"pm2_5":35.0,"mosquito_risk":0,"arthritis_risk":5,"migraine_risk":10,"frizz_risk":0,"updated_at":"2026-03-24T15:32:15.841690+05:30"},{"city":"Mysore","state":"Karnataka","latitude":12.2958,"longitude":76.6396,"temp":34.6,"humidity":27,"rain":0.0,"pressure":927.2,"uv_index":9.45,"wind_gusts":39.2,"aqi":109,"pm10":32.5,"pm2_5":23.1,"mosquito_risk":0,"arthritis_risk":5,"migraine_risk":7,"frizz_risk":0,"updated_at":"2026-03-24T15:32:15.841697+05:30"},{"city":"Mangalore","state":"Karnataka","latitude":12.9141,"longitude":74.856,"temp":28.8,"humidity":80,"rain":0.0,"pressure":1005.2,"uv_index":9.1,"wind_gusts":24.8,"aqi":118,"pm10":46.6,"pm2_5":32.5,"mosquito_risk":7,"arthritis_risk":5,"migraine_risk":4,"frizz_risk":1,"updated_at":"2026-03-24T15:32:15.841704+05:30"},{"city":"Hubli-Dharwad","state":"Karnataka","latitude":15.3647,"longitude":75.124,"temp":25.8,"humidity":71,"rain":0.0,"pressure":940.5,"uv_index":9.1,"wind_gusts":39.6,"aqi":112,"pm10":46.0,"pm2_5":33.6,"mosquito_risk":7,"arthritis_risk":5,"migraine_risk":7,"frizz_risk":1,"updated_at":"2026-03-24T15:32:15.841711+05:30"},{"city":"Belgaum","state":"Karnataka","latitude":15.8497,"longitude":74.4977,"temp":28.7,"humidity":67,"rain":0.0,"pressure":925.8,"uv_index":9.15,"wind_gusts":41.8,"aqi":122,"pm10":37.6,"pm2_5":26.2,"mosquito_risk":7,"arthritis_risk":5,"migraine_risk":7,"frizz_risk":1,"updated_at":"2026-03-24T15:32:19.160891+05:30"},{"city":"Coimbatore","state":"Tamil Nadu","latitude":11.0168,"longitude":76.9558,"temp":35.4,"humidity":27,"rain":0.0,"pressure":960.0,"uv_index":9.4,"wind_gusts":32.8,"aqi":76,"pm10":23.0,"pm2_5":15.1,"mosquito_risk":0,"arthritis_risk":5,"migraine_risk":10,"frizz_risk":0,"updated_at":"2026-03-24T15:32:19.160920+05:30"},{"city":"Madurai","state":"Tamil Nadu","latitude":9.9252,"longitude":78.1198,"temp":36.3,"humidity":34,"rain":0.0,"pressure":991.1,"uv_index":9.35,"wind_gusts":30.2,"aqi":56,"pm10":14.0,"pm2_5":8.9,"mosquito_risk":0,"arthritis_risk":5,"migraine_risk":10,"frizz_risk":1,"updated_at":"2026-03-24T15:32:19.160927+05:30"},{"city":"Trichy","state":"Tamil Nadu","latitude":10.7905,"longitude":78.7047,"temp":34.8,"humidity":40,"rain":0.0,"pressure":998.1,"uv_index":9.3,"wind_gusts":23.4,"aqi":55,"pm10":17.5,"pm2_5":13.8,"mosquito_risk":0,"arthritis_risk":5,"migraine_risk":7,"frizz_risk":1,"updated_at":"2026-03-24T15:32:19.160934+05:30"},{"city":"Salem","state":"Tamil Nadu","latitude":11.6643,"longitude":78.146,"temp":35.8,"humidity":31,"rain":0.0,"pressure":975.7,"uv_index":9.35,"wind_gusts":25.2,"aqi":82,"pm10":42.0,"pm2_5":31.4,"mosquito_risk":0,"arthritis_risk":5,"migraine_risk":10,"frizz_risk":0,"updated_at":"2026-03-24T15:32:19.160941+05:30"},{"city":"Tirunelveli","state":"Tamil Nadu","latitude":8.7139,"longitude":77.7567,"temp":37.5,"humidity":31,"rain":0.0,"pressure":1000.9,"uv_index":9.35,"wind_gusts":37.8,"aqi":52,"pm10":10.0,"pm2_5":6.2,"mosquito_risk":0,"arthritis_risk":5,"migraine_risk":7,"frizz_risk":1,"updated_at":"2026-03-24T15:32:19.160947+05:30"},{"city":"Vellore","state":"Tamil Nadu","latitude":12.9165,"longitude":79.1325,"temp":34.4,"humidity":37,"rain":0.0,"pressure":983.5,"uv_index":9.3,"wind_gusts":35.6,"aqi":68,"pm10":21.3,"pm2_5":13.3,"mosquito_risk":0,"arthritis_risk":5,"migraine_risk":7,"frizz_risk":1,"updated_at":"2026-03-24T15:32:19.160954+05:30"},{"city":"Erode","state":"Tamil Nadu","latitude":11.341,"longitude":77.7172,"temp":36.3,"humidity":33,"rain":0.0,"pressure":987.1,"uv_index":9.3,"wind_gusts":21.6,"aqi":59,"pm10":27.5,"pm2_5":19.6,"mosquito_risk":0,"arthritis_risk":5,"migraine_risk":10,"frizz_risk":1,"updated_at":"2026-03-24T15:32:19.160960+05:30"},{"city":"Kochi","state":"Kerala","latitude":9.9312,"longitude":76.2673,"temp":28.9,"humidity":77,"rain":0.0,"pressure":1006.4,"uv_index":9.15,"wind_gusts":37.1,"aqi":100,"pm10":36.9,"pm2_5":26.7,"mosquito_risk":7,"arthritis_risk":5,"migraine_risk":4,"frizz_risk":1,"updated_at":"2026-03-24T15:32:19.160966+05:30"},{"city":"Thiruvananthapuram","state":"Kerala","latitude":8.5241,"longitude":76.9366,"temp":29.1,"humidity":77,"rain":0.0,"pressure":1005.8,"uv_index":9.2,"wind_gusts":30.2,"aqi":95,"pm10":27.7,"pm2_5":19.4,"mosquito_risk":7,"arthritis_risk":5,"migraine_risk":4,"frizz_risk":1,"updated_at":"2026-03-24T15:32:19.160971+05:30"},{"city":"Kozhikode","state":"Kerala","latitude":11.2588,"longitude":75.7804,"temp":30.1,"humidity":72,"rain":0.0,"pressure":1006.1,"uv_index":9.05,"wind_gusts":31.0,"aqi":77,"pm10":34.2,"pm2_5":23.3,"mosquito_risk":3,"arthritis_risk":5,"migraine_risk":4,"frizz_risk":1,"updated_at":"2026-03-24T15:32:19.160977+05:30"},{"city":"Thrissur","state":"Kerala","latitude":10.5276,"longitude":76.2144,"temp":32.6,"humidity":59,"rain":0.0,"pressure":1004.9,"uv_index":9.15,"wind_gusts":41.4,"aqi":92,"pm10":28.2,"pm2_5":18.9,"mosquito_risk":0,"arthritis_risk":5,"migraine_risk":4,"frizz_risk":1,"updated_at":"2026-03-24T15:32:19.160983+05:30"},{"city":"Kannur","state":"Kerala","latitude":11.8745,"longitude":75.3704,"temp":31.4,"humidity":67,"rain":0.0,"pressure":1005.7,"uv_index":9.05,"wind_gusts":28.4,"aqi":82,"pm10":42.0,"pm2_5":30.2,"mosquito_risk":3,"arthritis_risk":5,"migraine_risk":4,"frizz_risk":1,"updated_at":"2026-03-24T15:32:19.160989+05:30"},{"city":"Patna","state":"Bihar","latitude":25.5941,"longitude":85.1376,"temp":32.4,"humidity":34,"rain":0.0,"pressure":999.6,"uv_index":7.9,"wind_gusts":34.2,"aqi":158,"pm10":80.6,"pm2_5":33.8,"mosquito_risk":0,"arthritis_risk":5,"migraine_risk":7,"frizz_risk":0,"updated_at":"2026-03-24T15:32:19.160994+05:30"},{"city":"Gaya","state":"Bihar","latitude":24.7914,"longitude":85.0002,"temp":32.0,"humidity":37,"rain":0.0,"pressure":993.4,"uv_index":7.95,"wind_gusts":22.3,"aqi":118,"pm10":88.2,"pm2_5":31.9,"mosquito_risk":0,"arthritis_risk":5,"migraine_risk":7,"frizz_risk":0,"updated_at":"2026-03-24T15:32:19.161000+05:30"},{"city":"Muzaffarpur","state":"Bihar","latitude":26.1209,"longitude":85.3647,"temp":31.6,"humidity":35,"rain":0.0,"pressure":999.3,"uv_index":7.85,"wind_gusts":35.6,"aqi":159,"pm10":74.5,"pm2_5":35.3,"mosquito_risk":0,"arthritis_risk":5,"migraine_risk":7,"frizz_risk":0,"updated_at":"2026-03-24T15:32:19.161006+05:30"},{"city":"Bhagalpur","state":"Bihar","latitude":25.2425,"longitude":87.0117,"temp":30.6,"humidity":41,"rain":0.0,"pressure":1000.3,"uv_index":7.85,"wind_gusts":36.7,"aqi":147,"pm10":76.6,"pm2_5":32.0,"mosquito_risk":0,"arthritis_risk":5,"migraine_risk":4,"frizz_risk":0,"updated_at":"2026-03-24T15:32:19.161012+05:30"},{"city":"Ranchi","state":"Jharkhand","latitude":23.3441,"longitude":85.3096,"temp":28.1,"humidity":42,"rain":0.0,"pressure":938.0,"uv_index":8.6,"wind_gusts":36.7,"aqi":88,"pm10":44.2,"pm2_5":20.4,"mosquito_risk":4,"arthritis_risk":5,"migraine_risk":7,"frizz_risk":0,"updated_at":"2026-03-24T15:32:19.161018+05:30"},{"city":"Jamshedpur","state":"Jharkhand","latitude":22.8046,"longitude":86.2029,"temp":33.0,"humidity":31,"rain":0.0,"pressure":990.5,"uv_index":8.4,"wind_gusts":32.0,"aqi":149,"pm10":49.1,"pm2_5":29.5,"mosquito_risk":0,"arthritis_risk":5,"migraine_risk":7,"frizz_risk":0,"updated_at":"2026-03-24T15:32:19.161023+05:30"},{"city":"Dhanbad","state":"Jharkhand","latitude":23.7957,"longitude":86.4304,"temp":31.2,"humidity":35,"rain":0.0,"pressure":979.6,"uv_index":8.35,"wind_gusts":23.8,"aqi":164,"pm10":69.2,"pm2_5":38.4,"mosquito_risk":0,"arthritis_risk":5,"migraine_risk":7,"frizz_risk":0,"updated_at":"2026-03-24T15:32:19.161029+05:30"},{"city":"Bokaro","state":"Jharkhand","latitude":23.6693,"longitude":86.1511,"temp":30.7,"humidity":35,"rain":0.0,"pressure":983.6,"uv_index":8.25,"wind_gusts":24.8,"aqi":154,"pm10":57.3,"pm2_5":30.3,"mosquito_risk":0,"arthritis_risk":5,"migraine_risk":7,"frizz_risk":0,"updated_at":"2026-03-24T15:32:19.161035+05:30"},{"city":"Bhubaneswar","state":"Odisha","latitude":20.2961,"longitude":85.8245,"temp":32.4,"humidity":48,"rain":0.0,"pressure":1002.3,"uv_index":8.7,"wind_gusts":32.8,"aqi":86,"pm10":38.9,"pm2_5":26.0,"mosquito_risk":0,"arthritis_risk":5,"migraine_risk":4,"frizz_risk":1,"updated_at":"2026-03-24T15:32:19.161041+05:30"},{"city":"Cuttack","state":"Odisha","latitude":20.4625,"longitude":85.8828,"temp":34.1,"humidity":40,"rain":0.0,"pressure":1003.5,"uv_index":8.75,"wind_gusts":29.2,"aqi":86,"pm10":38.9,"pm2_5":26.0,"mosquito_risk":0,"arthritis_risk":5,"migraine_risk":4,"frizz_risk":1,"updated_at":"2026-03-24T15:32:19.161046+05:30"},{"city":"Rourkela","state":"Odisha","latitude":22.2604,"longitude":84.8536,"temp":32.3,"humidity":34,"rain":0.0,"pressure":984.7,"uv_index":8.4,"wind_gusts":25.9,"aqi":173,"pm10":61.7,"pm2_5":40.7,"mosquito_risk":0,"arthritis_risk":5,"migraine_risk":7,"frizz_risk":0,"updated_at":"2026-03-24T15:32:19.161052+05:30"},{"city":"Raipur","state":"Chhattisgarh","latitude":21.2514,"longitude":81.6296,"temp":36.9,"humidity":22,"rain":0.0,"pressure":973.3,"uv_index":8.5,"wind_gusts":28.1,"aqi":129,"pm10":47.7,"pm2_5":35.2,"mosquito_risk":0,"arthritis_risk":5,"migraine_risk":10,"frizz_risk":0,"updated_at":"2026-03-24T15:32:19.161058+05:30"},{"city":"Bhilai","state":"Chhattisgarh","latitude":21.1938,"longitude":81.3509,"temp":37.1,"humidity":24,"rain":0.0,"pressure":973.6,"uv_index":8.5,"wind_gusts":32.8,"aqi":123,"pm10":44.0,"pm2_5":31.9,"mosquito_risk":0,"arthritis_risk":5,"migraine_risk":10,"frizz_risk":0,"updated_at":"2026-03-24T15:32:19.161063+05:30"},{"city":"Guwahati","state":"Assam","latitude":26.1158,"longitude":91.7086,"temp":25.9,"humidity":76,"rain":0.0,"pressure":1001.7,"uv_index":7.75,"wind_gusts":28.4,"aqi":109,"pm10":38.5,"pm2_5":34.1,"mosquito_risk":7,"arthritis_risk":5,"migraine_risk":4,"frizz_risk":1,"updated_at":"2026-03-24T15:32:19.161068+05:30"},{"city":"Agartala","state":"Tripura","latitude":23.8315,"longitude":91.2868,"temp":29.0,"humidity":50,"rain":0.0,"pressure":1005.8,"uv_index":8.1,"wind_gusts":15.5,"aqi":162,"pm10":65.9,"pm2_5":53.8,"mosquito_risk":4,"arthritis_risk":5,"migraine_risk":4,"frizz_risk":1,"updated_at":"2026-03-24T15:32:19.161074+05:30"},{"city":"Shillong","state":"Meghalaya","latitude":25.5788,"longitude":91.8933,"temp":14.9,"humidity":72,"rain":0.0,"pressure":854.6,"uv_index":7.0,"wind_gusts":37.8,"aqi":106,"pm10":26.2,"pm2_5":23.8,"mosquito_risk":3,"arthritis_risk":5,"migraine_risk":7,"frizz_risk":0,"updated_at":"2026-03-24T15:32:19.161080+05:30"},{"city":"Imphal","state":"Manipur","latitude":24.817,"longitude":93.9368,"temp":20.5,"humidity":58,"rain":0.0,"pressure":922.0,"uv_index":7.85,"wind_gusts":40.3,"aqi":116,"pm10":31.7,"pm2_5":25.3,"mosquito_risk":0,"arthritis_risk":5,"migraine_risk":7,"frizz_risk":0,"updated_at":"2026-03-24T15:32:19.161085+05:30"},{"city":"Aizawl","state":"Mizoram","latitude":23.7271,"longitude":92.7176,"temp":23.0,"humidity":44,"rain":0.0,"pressure":892.6,"uv_index":8.35,"wind_gusts":29.9,"aqi":105,"pm10":41.6,"pm2_5":33.2,"mosquito_risk":0,"arthritis_risk":5,"migraine_risk":7,"frizz_risk":0,"updated_at":"2026-03-24T15:32:19.161091+05:30"},{"city":"Kohima","state":"Nagaland","latitude":25.6701,"longitude":94.1077,"temp":15.2,"humidity":89,"rain":0.0,"pressure":853.2,"uv_index":8.05,"wind_gusts":54.0,"aqi":88,"pm10":24.5,"pm2_5":20.3,"mosquito_risk":3,"arthritis_risk":10,"migraine_risk":7,"frizz_risk":0,"updated_at":"2026-03-24T15:32:19.161096+05:30"},{"city":"Gangtok","state":"Sikkim","latitude":27.3314,"longitude":88.6138,"temp":13.8,"humidity":90,"rain":0.1,"pressure":834.6,"uv_index":4.2,"wind_gusts":16.2,"aqi":99,"pm10":27.8,"pm2_5":22.2,"mosquito_risk":6,"arthritis_risk":10,"migraine_risk":3,"frizz_risk":0,"updated_at":"2026-03-24T15:32:19.161102+05:30"},{"city":"Siliguri","state":"West Bengal","latitude":26.7271,"longitude":88.3953,"temp":20.9,"humidity":80,"rain":0.0,"pressure":993.2,"uv_index":4.3,"wind_gusts":35.3,"aqi":120,"pm10":70.3,"pm2_5":57.3,"mosquito_risk":3,"arthritis_risk":5,"migraine_risk":3,"frizz_risk":1,"updated_at":"2026-03-24T15:32:22.480304+05:30"},{"city":"Durgapur","state":"West Bengal","latitude":23.5204,"longitude":87.3119,"temp":31.1,"humidity":42,"rain":0.0,"pressure":994.7,"uv_index":8.05,"wind_gusts":24.1,"aqi":158,"pm10":83.1,"pm2_5":52.3,"mosquito_risk":0,"arthritis_risk":5,"migraine_risk":7,"frizz_risk":1,"updated_at":"2026-03-24T15:32:22.480334+05:30"},{"city":"Asansol","state":"West Bengal","latitude":23.6739,"longitude":86.9524,"temp":31.6,"humidity":39,"rain":0.0,"pressure":993.3,"uv_index":8.05,"wind_gusts":24.8,"aqi":155,"pm10":73.8,"pm2_5":43.5,"mosquito_risk":0,"arthritis_risk":5,"migraine_risk":7,"frizz_risk":0,"updated_at":"2026-03-24T15:32:22.480342+05:30"},{"city":"Pondicherry","state":"Puducherry","latitude":11.9139,"longitude":79.8145,"temp":32.7,"humidity":54,"rain":0.0,"pressure":1007.6,"uv_index":9.2,"wind_gusts":30.2,"aqi":36,"pm10":9.6,"pm2_5":5.9,"mosquito_risk":0,"arthritis_risk":5,"migraine_risk":4,"frizz_risk":1,"updated_at":"2026-03-24T15:32:22.480349+05:30"},{"city":"Port Blair","state":"Andaman and Nicobar Islands","latitude":11.6234,"longitude":92.7265,"temp":28.5,"humidity":72,"rain":0.0,"pressure":1005.4,"uv_index":9.15,"wind_gusts":22.7,"aqi":75,"pm10":33.9,"pm2_5":21.0,"mosquito_risk":7,"arthritis_risk":5,"migraine_risk":4,"frizz_risk":1,"updated_at":"2026-03-24T15:32:22.480356+05:30"},{"city":"Haridwar","state":"Uttarakhand","latitude":29.9457,"longitude":78.1642,"temp":29.0,"humidity":38,"rain":0.0,"pressure":975.4,"uv_index":6.4,"wind_gusts":34.9,"aqi":113,"pm10":34.9,"pm2_5":27.0,"mosquito_risk":4,"arthritis_risk":5,"migraine_risk":7,"frizz_risk":0,"updated_at":"2026-03-24T15:32:22.480362+05:30"},{"city":"Rishikesh","state":"Uttarakhand","latitude":30.0869,"longitude":78.2676,"temp":27.3,"humidity":43,"rain":0.0,"pressure":968.2,"uv_index":6.45,"wind_gusts":32.4,"aqi":92,"pm10":32.9,"pm2_5":23.7,"mosquito_risk":4,"arthritis_risk":5,"migraine_risk":7,"frizz_risk":0,"updated_at":"2026-03-24T15:32:22.480369+05:30"},{"city":"Nainital","state":"Uttarakhand","latitude":29.3919,"longitude":79.4542,"temp":19.7,"humidity":55,"rain":0.0,"pressure":806.8,"uv_index":7.3,"wind_gusts":55.4,"aqi":107,"pm10":38.9,"pm2_5":24.0,"mosquito_risk":0,"arthritis_risk":5,"migraine_risk":7,"frizz_risk":0,"updated_at":"2026-03-24T15:32:22.480375+05:30"},{"city":"Mussoorie","state":"Uttarakhand","latitude":30.4599,"longitude":78.0664,"temp":17.5,"humidity":65,"rain":0.0,"pressure":803.4,"uv_index":6.8,"wind_gusts":40.0,"aqi":81,"pm10":33.1,"pm2_5":25.3,"mosquito_risk":3,"arthritis_risk":5,"migraine_risk":7,"frizz_risk":0,"updated_at":"2026-03-24T15:32:22.480382+05:30"},{"city":"Dharamshala","state":"Himachal Pradesh","latitude":32.219,"longitude":76.3234,"temp":21.0,"humidity":53,"rain":0.0,"pressure":870.5,"uv_index":7.05,"wind_gusts":27.0,"aqi":83,"pm10":19.7,"pm2_5":10.6,"mosquito_risk":0,"arthritis_risk":5,"migraine_risk":7,"frizz_risk":0,"updated_at":"2026-03-24T15:32:22.480388+05:30"},{"city":"Dalhousie","state":"Himachal Pradesh","latitude":32.5387,"longitude":75.971,"temp":19.0,"humidity":48,"rain":0.0,"pressure":805.5,"uv_index":7.3,"wind_gusts":23.8,"aqi":71,"pm10":18.9,"pm2_5":12.6,"mosquito_risk":0,"arthritis_risk":5,"migraine_risk":7,"frizz_risk":0,"updated_at":"2026-03-24T15:32:22.480394+05:30"},{"city":"Patiala","state":"Punjab","latitude":30.3398,"longitude":76.3869,"temp":29.1,"humidity":35,"rain":0.0,"pressure":980.2,"uv_index":6.4,"wind_gusts":33.1,"aqi":160,"pm10":637.0,"pm2_5":71.2,"mosquito_risk":4,"arthritis_risk":5,"migraine_risk":7,"frizz_risk":0,"updated_at":"2026-03-24T15:32:22.480400+05:30"},{"city":"Bhatinda","state":"Punjab","latitude":30.211,"longitude":74.9455,"temp":31.2,"humidity":29,"rain":0.0,"pressure":985.9,"uv_index":7.0,"wind_gusts":22.7,"aqi":133,"pm10":49.4,"pm2_5":25.4,"mosquito_risk":0,"arthritis_risk":5,"migraine_risk":7,"frizz_risk":0,"updated_at":"2026-03-24T15:32:22.480405+05:30"},{"city":"Rohtak","state":"Haryana","latitude":28.8955,"longitude":76.6066,"temp":30.2,"humidity":35,"rain":0.0,"pressure":983.4,"uv_index":6.25,"wind_gusts":24.8,"aqi":158,"pm10":562.5,"pm2_5":64.3,"mosquito_risk":0,"arthritis_risk":5,"migraine_risk":7,"frizz_risk":0,"updated_at":"2026-03-24T15:32:22.480411+05:30"},{"city":"Panipat","state":"Haryana","latitude":29.3909,"longitude":76.9635,"temp":29.7,"humidity":36,"rain":0.0,"pressure":982.1,"uv_index":5.95,"wind_gusts":29.5,"aqi":175,"pm10":1199.5,"pm2_5":113.6,"mosquito_risk":4,"arthritis_risk":5,"migraine_risk":3,"frizz_risk":0,"updated_at":"2026-03-24T15:32:22.480416+05:30"},{"city":"Mathura","state":"Uttar Pradesh","latitude":27.4924,"longitude":77.6737,"temp":31.4,"humidity":33,"rain":0.0,"pressure":988.1,"uv_index":6.45,"wind_gusts":25.6,"aqi":152,"pm10":612.8,"pm2_5":66.4,"mosquito_risk":0,"arthritis_risk":5,"migraine_risk":7,"frizz_risk":0,"updated_at":"2026-03-24T15:32:22.480422+05:30"},{"city":"Vrindavan","state":"Uttar Pradesh","latitude":27.5823,"longitude":77.7027,"temp":31.0,"humidity":35,"rain":0.0,"pressure":988.5,"uv_index":6.45,"wind_gusts":28.1,"aqi":152,"pm10":612.8,"pm2_5":66.4,"mosquito_risk":0,"arthritis_risk":5,"migraine_risk":7,"frizz_risk":0,"updated_at":"2026-03-24T15:32:22.480427+05:30"},{"city":"Ayodhya","state":"Uttar Pradesh","latitude":26.7922,"longitude":82.1998,"temp":32.2,"humidity":33,"rain":0.0,"pressure":995.1,"uv_index":7.2,"wind_gusts":35.6,"aqi":113,"pm10":54.2,"pm2_5":26.2,"mosquito_risk":0,"arthritis_risk":5,"migraine_risk":7,"frizz_risk":0,"updated_at":"2026-03-24T15:32:22.480433+05:30"},{"city":"Ratlam","state":"Madhya Pradesh","latitude":23.3315,"longitude":75.0367,"temp":33.5,"humidity":29,"rain":0.0,"pressure":954.5,"uv_index":8.05,"wind_gusts":22.3,"aqi":57,"pm10":34.2,"pm2_5":14.3,"mosquito_risk":0,"arthritis_risk":5,"migraine_risk":7,"frizz_risk":0,"updated_at":"2026-03-24T15:32:22.480438+05:30"},{"city":"Sagar","state":"Madhya Pradesh","latitude":23.8388,"longitude":78.7378,"temp":33.6,"humidity":23,"rain":0.0,"pressure":950.5,"uv_index":8.05,"wind_gusts":26.3,"aqi":77,"pm10":50.2,"pm2_5":17.9,"mosquito_risk":0,"arthritis_risk":5,"migraine_risk":7,"frizz_risk":0,"updated_at":"2026-03-24T15:32:22.480444+05:30"},{"city":"Satna","state":"Madhya Pradesh","latitude":24.6005,"longitude":80.8322,"temp":33.5,"humidity":26,"rain":0.0,"pressure":971.2,"uv_index":7.5,"wind_gusts":29.9,"aqi":87,"pm10":55.3,"pm2_5":18.6,"mosquito_risk":0,"arthritis_risk":5,"migraine_risk":7,"frizz_risk":0,"updated_at":"2026-03-24T15:32:22.480449+05:30"},{"city":"Akola","state":"Maharashtra","latitude":20.7002,"longitude":77.0082,"temp":36.8,"humidity":23,"rain":0.0,"pressure":974.3,"uv_index":8.45,"wind_gusts":27.7,"aqi":77,"pm10":27.5,"pm2_5":12.9,"mosquito_risk":0,"arthritis_risk":5,"migraine_risk":10,"frizz_risk":0,"updated_at":"2026-03-24T15:32:22.480455+05:30"},{"city":"Amravati","state":"Maharashtra","latitude":20.9374,"longitude":77.7796,"temp":36.5,"humidity":22,"rain":0.0,"pressure":966.5,"uv_index":8.45,"wind_gusts":29.2,"aqi":87,"pm10":30.3,"pm2_5":14.1,"mosquito_risk":0,"arthritis_risk":5,"migraine_risk":10,"frizz_risk":0,"updated_at":"2026-03-24T15:32:22.480462+05:30"},{"city":"Latur","state":"Maharashtra","latitude":18.4088,"longitude":76.5604,"temp":34.7,"humidity":25,"rain":0.0,"pressure":939.1,"uv_index":8.75,"wind_gusts":19.8,"aqi":98,"pm10":43.1,"pm2_5":31.3,"mosquito_risk":0,"arthritis_risk":5,"migraine_risk":7,"frizz_risk":0,"updated_at":"2026-03-24T15:32:22.480468+05:30"},{"city":"Nanded","state":"Maharashtra","latitude":19.1383,"longitude":77.3091,"temp":37.5,"humidity":20,"rain":0.0,"pressure":967.5,"uv_index":8.6,"wind_gusts":22.7,"aqi":98,"pm10":27.2,"pm2_5":17.1,"mosquito_risk":0,"arthritis_risk":5,"migraine_risk":10,"frizz_risk":0,"updated_at":"2026-03-24T15:32:22.480473+05:30"},{"city":"Gulbarga","state":"Karnataka","latitude":17.3297,"longitude":76.8343,"temp":36.2,"humidity":26,"rain":0.0,"pressure":957.2,"uv_index":8.8,"wind_gusts":30.6,"aqi":84,"pm10":37.8,"pm2_5":27.4,"mosquito_risk":0,"arthritis_risk":5,"migraine_risk":10,"frizz_risk":0,"updated_at":"2026-03-24T15:32:22.480478+05:30"},{"city":"Bidar","state":"Karnataka","latitude":17.9104,"longitude":77.5199,"temp":34.3,"humidity":30,"rain":0.0,"pressure":935.0,"uv_index":8.85,"wind_gusts":34.2,"aqi":92,"pm10":41.2,"pm2_5":29.9,"mosquito_risk":0,"arthritis_risk":5,"migraine_risk":7,"frizz_risk":0,"updated_at":"2026-03-24T15:32:22.480484+05:30"},{"city":"Hospet","state":"Karnataka","latitude":15.2689,"longitude":76.3909,"temp":33.8,"humidity":37,"rain":0.0,"pressure":954.7,"uv_index":9.05,"wind_gusts":23.0,"aqi":98,"pm10":34.5,"pm2_5":26.5,"mosquito_risk":0,"arthritis_risk":5,"migraine_risk":7,"frizz_risk":1,"updated_at":"2026-03-24T15:32:22.480489+05:30"},{"city":"Tirupur","state":"Tamil Nadu","latitude":11.1085,"longitude":77.3411,"temp":36.5,"humidity":28,"rain":0.0,"pressure":973.3,"uv_index":9.4,"wind_gusts":28.1,"aqi":66,"pm10":27.9,"pm2_5":20.0,"mosquito_risk":0,"arthritis_risk":5,"migraine_risk":10,"frizz_risk":0,"updated_at":"2026-03-24T15:32:22.480494+05:30"},{"city":"Alappuzha","state":"Kerala","latitude":9.4981,"longitude":76.3388,"temp":29.0,"humidity":78,"rain":0.0,"pressure":1006.6,"uv_index":9.15,"wind_gusts":31.7,"aqi":125,"pm10":39.8,"pm2_5":27.7,"mosquito_risk":7,"arthritis_risk":5,"migraine_risk":4,"frizz_risk":1,"updated_at":"2026-03-24T15:32:22.480500+05:30"},{"city":"Munnar","state":"Kerala","latitude":10.0889,"longitude":77.0595,"temp":31.1,"humidity":42,"rain":0.0,"pressure":858.5,"uv_index":9.65,"wind_gusts":28.8,"aqi":65,"pm10":21.1,"pm2_5":12.7,"mosquito_risk":0,"arthritis_risk":5,"migraine_risk":7,"frizz_risk":1,"updated_at":"2026-03-24T15:32:22.480506+05:30"},{"city":"Silchar","state":"Assam","latitude":24.8333,"longitude":92.7789,"temp":28.2,"humidity":53,"rain":0.0,"pressure":1004.6,"uv_index":8.05,"wind_gusts":19.8,"aqi":127,"pm10":43.9,"pm2_5":38.4,"mosquito_risk":4,"arthritis_risk":5,"migraine_risk":4,"frizz_risk":1,"updated_at":"2026-03-24T15:32:22.480511+05:30"},{"city":"Dibrugarh","state":"Assam","latitude":27.4728,"longitude":94.912,"temp":22.6,"humidity":80,"rain":0.0,"pressure":995.8,"uv_index":7.2,"wind_gusts":15.5,"aqi":78,"pm10":17.6,"pm2_5":13.8,"mosquito_risk":3,"arthritis_risk":5,"migraine_risk":7,"frizz_risk":1,"updated_at":"2026-03-24T15:32:22.480517+05:30"}]