[{"city":"Delhi","state":"Delhi","latitude":28.6139,"longitude":77.209,"temp":27.8,"humidity":53,"rain":0.0,"pressure":987.8,"uv_index":6.5,"wind_gusts":27.4,"aqi":158,"pm10":286.8,"pm2_5":64.0,"mosquito_risk":4,"arthritis_risk":5,"migraine_risk":7,"frizz_risk":1,"updated_at":"2026-03-24T11:34:01.422855+05:30"},{"city":"Mumbai","state":"Maharashtra","latitude":19.076,"longitude":72.8777,"temp":29.7,"humidity":64,"rain":0.0,"pressure":1009.9,"uv_index":7.8,"wind_gusts":27.4,"aqi":105,"pm10":79.6,"pm2_5":58.3,"mosquito_risk":7,"arthritis_risk":0,"migraine_risk":4,"frizz_risk":1,"updated_at":"2026-03-24T11:34:01.422892+05:30"},{"city":"Bangalore","state":"Karnataka","latitude":12.9716,"longitude":77.5946,"temp":29.5,"humidity":43,"rain":0.0,"pressure":914.6,"uv_index":9.5,"wind_gusts":24.1,"aqi":79,"pm10":31.3,"pm2_5":23.1,"mosquito_risk":4,"arthritis_risk":5,"migraine_risk":7,"frizz_risk":0,"updated_at":"2026-03-24T11:34:01.422907+05:30"},{"city":"Hyderabad","state":"Telangana","latitude":17.385,"longitude":78.4867,"temp":33.4,"humidity":37,"rain":0.0,"pressure":956.0,"uv_index":8.95,"wind_gusts":37.1,"aqi":83,"pm10":32.2,"pm2_5":22.1,"mosquito_risk":0,"arthritis_risk":5,"migraine_risk":7,"frizz_risk":1,"updated_at":"2026-03-24T11:34:01.422917+05:30"},{"city":"Chennai","state":"Tamil Nadu","latitude":13.0827,"longitude":80.2707,"temp":32.5,"humidity":53,"rain":0.0,"pressure":1010.2,"uv_index":9.2,"wind_gusts":33.5,"aqi":35,"pm10":15.4,"pm2_5":9.2,"mosquito_risk":0,"arthritis_risk":0,"migraine_risk":4,"frizz_risk":1,"updated_at":"2026-03-24T11:34:01.422926+05:30"},{"city":"Kolkata","state":"West Bengal","latitude":22.5726,"longitude":88.3639,"temp":29.8,"humidity":61,"rain":0.0,"pressure":1009.7,"uv_index":8.3,"wind_gusts":21.6,"aqi":151,"pm10":49.8,"pm2_5":38.4,"mosquito_risk":7,"arthritis_risk":0,"migraine_risk":4,"frizz_risk":1,"updated_at":"2026-03-24T11:34:01.422935+05:30"},{"city":"Pune","state":"Maharashtra","latitude":18.5204,"longitude":73.8567,"temp":34.7,"humidity":28,"rain":0.0,"pressure":951.0,"uv_index":8.5,"wind_gusts":30.6,"aqi":93,"pm10":31.1,"pm2_5":16.5,"mosquito_risk":0,"arthritis_risk":5,"migraine_risk":7,"frizz_risk":0,"updated_at":"2026-03-24T11:34:01.422947+05:30"},{"city":"Ahmedabad","state":"Gujarat","latitude":23.0225,"longitude":72.5714,"temp":32.9,"humidity":41,"rain":0.0,"pressure":1005.5,"uv_index":7.35,"wind_gusts":17.6,"aqi":75,"pm10":28.5,"pm2_5":12.9,"mosquito_risk":0,"arthritis_risk":5,"migraine_risk":4,"frizz_risk":1,"updated_at":"2026-03-24T11:34:01.422954+05:30"},{"city":"Jaipur","state":"Rajasthan","latitude":26.9124,"longitude":75.7873,"temp":28.9,"humidity":46,"rain":0.0,"pressure":964.4,"uv_index":7.25,"wind_gusts":19.8,"aqi":136,"pm10":98.5,"pm2_5":26.3,"mosquito_risk":4,"arthritis_risk":5,"migraine_risk":7,"frizz_risk":1,"updated_at":"2026-03-24T11:34:01.422962+05:30"},{"city":"Lucknow","state":"Uttar Pradesh","latitude":26.8467,"longitude":80.9462,"temp":29.6,"humidity":45,"rain":0.0,"pressure":997.8,"uv_index":7.05,"wind_gusts":32.8,"aqi":122,"pm10":58.6,"pm2_5":27.2,"mosquito_risk":4,"arthritis_risk":5,"migraine_risk":7,"frizz_risk":1,"updated_at":"2026-03-24T11:34:01.422969+05:30"},{"city":"Kanpur","state":"Uttar Pradesh","latitude":26.4499,"longitude":80.3319,"temp":28.5,"humidity":50,"rain":0.0,"pressure":996.4,"uv_index":7.05,"wind_gusts":28.1,"aqi":141,"pm10":112.7,"pm2_5":28.4,"mosquito_risk":4,"arthritis_risk":5,"migraine_risk":7,"frizz_risk":1,"updated_at":"2026-03-24T11:34:01.422977+05:30"},{"city":"Chandigarh","state":"Chandigarh","latitude":30.7333,"longitude":76.7794,"temp":26.7,"humidity":48,"rain":0.0,"pressure":973.6,"uv_index":6.5,"wind_gusts":34.6,"aqi":105,"pm10":40.2,"pm2_5":28.5,"mosquito_risk":4,"arthritis_risk":5,"migraine_risk":7,"frizz_risk":0,"updated_at":"2026-03-24T11:34:01.422984+05:30"},{"city":"Srinagar","state":"Jammu and Kashmir","latitude":34.0837,"longitude":74.7973,"temp":13.2,"humidity":62,"rain":0.0,"pressure":845.3,"uv_index":7.55,"wind_gusts":16.2,"aqi":72,"pm10":16.5,"pm2_5":12.4,"mosquito_risk":3,"arthritis_risk":5,"migraine_risk":7,"frizz_risk":0,"updated_at":"2026-03-24T11:34:01.422992+05:30"},{"city":"Jammu","state":"Jammu and Kashmir","latitude":32.7266,"longitude":74.857,"temp":26.8,"humidity":43,"rain":0.0,"pressure":977.8,"uv_index":7.15,"wind_gusts":30.6,"aqi":73,"pm10":14.8,"pm2_5":10.0,"mosquito_risk":4,"arthritis_risk":5,"migraine_risk":7,"frizz_risk":0,"updated_at":"2026-03-24T11:34:01.422999+05:30"},{"city":"Amritsar","state":"Punjab","latitude":31.634,"longitude":74.8723,"temp":27.1,"humidity":55,"rain":0.0,"pressure":986.1,"uv_index":7.15,"wind_gusts":25.2,"aqi":130,"pm10":64.7,"pm2_5":39.6,"mosquito_risk":4,"arthritis_risk":5,"migraine_risk":7,"frizz_risk":1,"updated_at":"2026-03-24T11:34:01.423006+05:30"},{"city":"Ludhiana","state":"Punjab","latitude":30.901,"longitude":75.8573,"temp":27.3,"humidity":50,"rain":0.0,"pressure":983.8,"uv_index":6.75,"wind_gusts":29.9,"aqi":156,"pm10":54.8,"pm2_5":39.9,"mosquito_risk":4,"arthritis_risk":5,"migraine_risk":7,"frizz_risk":0,"updated_at":"2026-03-24T11:34:01.423013+05:30"},{"city":"Jalandhar","state":"Punjab","latitude":31.326,"longitude":75.5762,"temp":26.9,"humidity":54,"rain":0.0,"pressure":985.1,"uv_index":6.95,"wind_gusts":28.1,"aqi":147,"pm10":51.9,"pm2_5":30.7,"mosquito_risk":4,"arthritis_risk":5,"migraine_risk":7,"frizz_risk":1,"updated_at":"2026-03-24T11:34:01.423022+05:30"},{"city":"Dehradun","state":"Uttarakhand","latitude":30.6284,"longitude":78.0322,"temp":16.7,"humidity":59,"rain":0.0,"pressure":832.3,"uv_index":6.9,"wind_gusts":34.9,"aqi":46,"pm10":9.7,"pm2_5":4.6,"mosquito_risk":0,"arthritis_risk":5,"migraine_risk":7,"frizz_risk":0,"updated_at":"2026-03-24T11:34:01.423029+05:30"},{"city":"Shimla","state":"Himachal Pradesh","latitude":31.1048,"longitude":77.1734,"temp":15.3,"humidity":57,"rain":0.0,"pressure":787.2,"uv_index":7.0,"wind_gusts":53.3,"aqi":58,"pm10":17.6,"pm2_5":8.6,"mosquito_risk":0,"arthritis_risk":5,"migraine_risk":7,"frizz_risk":0,"updated_at":"2026-03-24T11:34:01.423036+05:30"},{"city":"Manali","state":"Himachal Pradesh","latitude":32.2396,"longitude":77.1887,"temp":18.0,"humidity":24,"rain":0.0,"pressure":821.0,"uv_index":9.15,"wind_gusts":29.5,"aqi":89,"pm10":7.6,"pm2_5":3.9,"mosquito_risk":0,"arthritis_risk":5,"migraine_risk":7,"frizz_risk":1,"updated_at":"2026-03-24T11:34:01.423045+05:30"},{"city":"Gurgaon","state":"Haryana","latitude":28.4595,"longitude":77.0266,"temp":28.1,"humidity":54,"rain":0.0,"pressure":986.2,"uv_index":6.65,"wind_gusts":25.2,"aqi":249,"pm10":540.2,"pm2_5":78.0,"mosquito_risk":4,"arthritis_risk":5,"migraine_risk":7,"frizz_risk":1,"updated_at":"2026-03-24T11:34:01.423052+05:30"},{"city":"Noida","state":"Uttar Pradesh","latitude":28.5355,"longitude":77.391,"temp":28.0,"humidity":54,"rain":0.0,"pressure":989.3,"uv_index":6.5,"wind_gusts":26.6,"aqi":249,"pm10":540.2,"pm2_5":78.0,"mosquito_risk":4,"arthritis_risk":5,"migraine_risk":7,"frizz_risk":1,"updated_at":"2026-03-24T11:34:01.423059+05:30"},{"city":"Ghaziabad","state":"Uttar Pradesh","latitude":28.6692,"longitude":77.4538,"temp":27.4,"humidity":60,"rain":0.0,"pressure":987.5,"uv_index":6.35,"wind_gusts":27.4,"aqi":154,"pm10":281.3,"pm2_5":64.7,"mosquito_risk":4,"arthritis_risk":5,"migraine_risk":7,"frizz_risk":1,"updated_at":"2026-03-24T11:34:01.423066+05:30"},{"city":"Faridabad","state":"Haryana","latitude":28.4089,"longitude":77.3178,"temp":28.0,"humidity":54,"rain":0.0,"pressure":988.6,"uv_index":6.6,"wind_gusts":25.6,"aqi":249,"pm10":540.2,"pm2_5":78.0,"mosquito_risk":4,"arthritis_risk":5,"migraine_risk":7,"frizz_risk":1,"updated_at":"2026-03-24T11:34:01.423073+05:30"},{"city":"Meerut","state":"Uttar Pradesh","latitude":28.9845,"longitude":77.7064,"temp":27.4,"humidity":56,"rain":0.0,"pressure":986.2,"uv_index":6.3,"wind_gusts":30.6,"aqi":154,"pm10":281.3,"pm2_5":64.7,"mosquito_risk":4,"arthritis_risk":5,"migraine_risk":7,"frizz_risk":1,"updated_at":"2026-03-24T11:34:01.423079+05:30"},{"city":"Agra","state":"Uttar Pradesh","latitude":27.1767,"longitude":78.0081,"temp":30.7,"humidity":41,"rain":0.0,"pressure":992.6,"uv_index":6.55,"wind_gusts":28.8,"aqi":155,"pm10":319.4,"pm2_5":59.4,"mosquito_risk":0,"arthritis_risk":5,"migraine_risk":7,"frizz_risk":0,"updated_at":"2026-03-24T11:34:01.423086+05:30"},{"city":"Varanasi","state":"Uttar Pradesh","latitude":25.3176,"longitude":82.9739,"temp":30.8,"humidity":41,"rain":0.0,"pressure":1001.6,"uv_index":7.75,"wind_gusts":27.7,"aqi":142,"pm10":119.7,"pm2_5":39.7,"mosquito_risk":0,"arthritis_risk":5,"migraine_risk":4,"frizz_risk":0,"updated_at":"2026-03-24T11:34:01.423095+05:30"},{"city":"Prayagraj","state":"Uttar Pradesh","latitude":25.4358,"longitude":81.8463,"temp":29.3,"humidity":47,"rain":0.0,"pressure":1000.5,"uv_index":7.6,"wind_gusts":23.0,"aqi":114,"pm10":104.3,"pm2_5":33.8,"mosquito_risk":4,"arthritis_risk":5,"migraine_risk":4,"frizz_risk":1,"updated_at":"2026-03-24T11:34:01.423102+05:30"},{"city":"Gorakhpur","state":"Uttar Pradesh","latitude":26.7606,"longitude":83.3732,"temp":29.3,"humidity":48,"rain":0.0,"pressure":1001.1,"uv_index":7.45,"wind_gusts":34.6,"aqi":152,"pm10":52.7,"pm2_5":26.4,"mosquito_risk":4,"arthritis_risk":5,"migraine_risk":4,"frizz_risk":1,"updated_at":"2026-03-24T11:34:01.423109+05:30"},{"city":"Bareilly","state":"Uttar Pradesh","latitude":28.367,"longitude":79.4304,"temp":27.3,"humidity":61,"rain":0.0,"pressure":991.4,"uv_index":6.8,"wind_gusts":31.0,"aqi":113,"pm10":102.9,"pm2_5":38.0,"mosquito_risk":7,"arthritis_risk":5,"migraine_risk":7,"frizz_risk":1,"updated_at":"2026-03-24T11:34:01.423117+05:30"},{"city":"Aligarh","state":"Uttar Pradesh","latitude":27.8974,"longitude":78.088,"temp":28.2,"humidity":57,"rain":0.0,"pressure":990.5,"uv_index":6.55,"wind_gusts":28.1,"aqi":157,"pm10":254.3,"pm2_5":57.6,"mosquito_risk":4,"arthritis_risk":5,"migraine_risk":7,"frizz_risk":1,"updated_at":"2026-03-24T11:34:01.423124+05:30"},{"city":"Moradabad","state":"Uttar Pradesh","latitude":28.8386,"longitude":78.7733,"temp":27.1,"humidity":59,"rain":0.0,"pressure":988.2,"uv_index":6.6,"wind_gusts":32.4,"aqi":141,"pm10":124.8,"pm2_5":42.4,"mosquito_risk":4,"arthritis_risk":5,"migraine_risk":7,"frizz_risk":1,"updated_at":"2026-03-24T11:34:01.423130+05:30"},{"city":"Saharanpur","state":"Uttar Pradesh","latitude":29.9637,"longitude":77.546,"temp":26.8,"humidity":55,"rain":0.0,"pressure":980.2,"uv_index":6.25,"wind_gusts":38.2,"aqi":161,"pm10":69.8,"pm2_5":51.3,"mosquito_risk":4,"arthritis_risk":5,"migraine_risk":7,"frizz_risk":1,"updated_at":"2026-03-24T11:34:01.423136+05:30"},{"city":"Jhansi","state":"Uttar Pradesh","latitude":25.4484,"longitude":78.5685,"temp":30.9,"humidity":38,"rain":0.0,"pressure":982.3,"uv_index":7.3,"wind_gusts":27.4,"aqi":132,"pm10":128.5,"pm2_5":33.9,"mosquito_risk":0,"arthritis_risk":5,"migraine_risk":7,"frizz_risk":0,"updated_at":"2026-03-24T11:34:04.724947+05:30"},{"city":"Surat","state":"Gujarat","latitude":21.1702,"longitude":72.8311,"temp":31.7,"humidity":45,"rain":0.0,"pressure":1009.4,"uv_index":7.15,"wind_gusts":24.8,"aqi":143,"pm10":65.9,"pm2_5":54.9,"mosquito_risk":0,"arthritis_risk":0,"migraine_risk":4,"frizz_risk":1,"updated_at":"2026-03-24T11:34:04.724974+05:30"},{"city":"Vadodara","state":"Gujarat","latitude":22.3072,"longitude":73.1812,"temp":34.1,"humidity":37,"rain":0.0,"pressure":1007.5,"uv_index":7.85,"wind_gusts":23.4,"aqi":91,"pm10":21.0,"pm2_5":16.5,"mosquito_risk":0,"arthritis_risk":5,"migraine_risk":4,"frizz_risk":1,"updated_at":"2026-03-24T11:34:04.724984+05:30"},{"city":"Rajkot","state":"Gujarat","latitude":22.3039,"longitude":70.8022,"temp":29.8,"humidity":57,"rain":0.0,"pressure":998.2,"uv_index":7.1,"wind_gusts":24.5,"aqi":44,"pm10":19.4,"pm2_5":7.9,"mosquito_risk":4,"arthritis_risk":5,"migraine_risk":7,"frizz_risk":1,"updated_at":"2026-03-24T11:34:04.724991+05:30"},{"city":"Thane","state":"Maharashtra","latitude":19.2183,"longitude":72.9781,"temp":35.5,"humidity":29,"rain":0.0,"pressure":1009.4,"uv_index":7.85,"wind_gusts":41.4,"aqi":105,"pm10":79.6,"pm2_5":58.3,"mosquito_risk":0,"arthritis_risk":0,"migraine_risk":7,"frizz_risk":0,"updated_at":"2026-03-24T11:34:04.724998+05:30"},{"city":"Nagpur","state":"Maharashtra","latitude":21.1458,"longitude":79.0882,"temp":33.7,"humidity":29,"rain":0.0,"pressure":976.2,"uv_index":8.45,"wind_gusts":26.6,"aqi":92,"pm10":48.5,"pm2_5":38.9,"mosquito_risk":0,"arthritis_risk":5,"migraine_risk":7,"frizz_risk":0,"updated_at":"2026-03-24T11:34:04.725005+05:30"},{"city":"Nashik","state":"Maharashtra","latitude":19.9975,"longitude":73.7898,"temp":30.7,"humidity":35,"rain":0.0,"pressure":948.5,"uv_index":8.0,"wind_gusts":36.0,"aqi":70,"pm10":38.6,"pm2_5":17.9,"mosquito_risk":0,"arthritis_risk":5,"migraine_risk":7,"frizz_risk":0,"updated_at":"2026-03-24T11:34:04.725011+05:30"},{"city":"Aurangabad","state":"Maharashtra","latitude":19.8762,"longitude":75.3433,"temp":33.5,"humidity":29,"rain":0.0,"pressure":947.1,"uv_index":8.6,"wind_gusts":29.5,"aqi":57,"pm10":31.5,"pm2_5":14.5,"mosquito_risk":0,"arthritis_risk":5,"migraine_risk":7,"frizz_risk":0,"updated_at":"2026-03-24T11:34:04.725017+05:30"},{"city":"Solapur","state":"Maharashtra","latitude":17.6599,"longitude":75.9064,"temp":35.0,"humidity":29,"rain":0.0,"pressure":959.6,"uv_index":8.8,"wind_gusts":23.8,"aqi":91,"pm10":42.4,"pm2_5":31.5,"mosquito_risk":0,"arthritis_risk":5,"migraine_risk":7,"frizz_risk":0,"updated_at":"2026-03-24T11:34:04.725024+05:30"},{"city":"Kolhapur","state":"Maharashtra","latitude":16.705,"longitude":74.2433,"temp":32.1,"humidity":37,"rain":0.0,"pressure":950.6,"uv_index":8.95,"wind_gusts":48.6,"aqi":115,"pm10":40.6,"pm2_5":29.3,"mosquito_risk":0,"arthritis_risk":5,"migraine_risk":7,"frizz_risk":0,"updated_at":"2026-03-24T11:34:04.725030+05:30"},{"city":"Goa","state":"Goa","latitude":15.2993,"longitude":74.124,"temp":32.1,"humidity":61,"rain":0.0,"pressure":1000.1,"uv_index":8.9,"wind_gusts":29.9,"aqi":101,"pm10":41.6,"pm2_5":29.8,"mosquito_risk":3,"arthritis_risk":5,"migraine_risk":4,"frizz_risk":1,"updated_at":"2026-03-24T11:34:04.725037+05:30"},{"city":"Jodhpur","state":"Rajasthan","latitude":26.2389,"longitude":73.0243,"temp":33.6,"humidity":24,"rain":0.0,"pressure":986.9,"uv_index":7.55,"wind_gusts":18.0,"aqi":70,"pm10":38.2,"pm2_5":11.9,"mosquito_risk":0,"arthritis_risk":5,"migraine_risk":7,"frizz_risk":0,"updated_at":"2026-03-24T11:34:04.725043+05:30"},{"city":"Udaipur","state":"Rajasthan","latitude":24.5854,"longitude":73.7125,"temp":30.9,"humidity":29,"rain":0.0,"pressure":950.4,"uv_index":7.6,"wind_gusts":20.5,"aqi":57,"pm10":63.8,"pm2_5":15.0,"mosquito_risk":0,"arthritis_risk":5,"migraine_risk":7,"frizz_risk":0,"updated_at":"2026-03-24T11:34:04.725049+05:30"},{"city":"Kota","state":"Rajasthan","latitude":25.2138,"longitude":75.8648,"temp":32.9,"humidity":35,"rain":0.0,"pressure":982.8,"uv_index":7.65,"wind_gusts":14.0,"aqi":114,"pm10":95.0,"pm2_5":32.9,"mosquito_risk":0,"arthritis_risk":5,"migraine_risk":7,"frizz_risk":0,"updated_at":"2026-03-24T11:34:04.725055+05:30"},{"city":"Bikaner","state":"Rajasthan","latitude":28.0229,"longitude":73.3119,"temp":32.4,"humidity":26,"rain":0.0,"pressure":986.0,"uv_index":7.2,"wind_gusts":15.8,"aqi":64,"pm10":52.5,"pm2_5":18.8,"mosquito_risk":0,"arthritis_risk":5,"migraine_risk":7,"frizz_risk":0,"updated_at":"2026-03-24T11:34:04.725061+05:30"},{"city":"Ajmer","state":"Rajasthan","latitude":26.4499,"longitude":74.6399,"temp":30.0,"humidity":39,"rain":0.0,"pressure":958.7,"uv_index":7.55,"wind_gusts":15.5,"aqi":103,"pm10":57.3,"pm2_5":17.9,"mosquito_risk":4,"arthritis_risk":5,"migraine_risk":7,"frizz_risk":0,"updated_at":"2026-03-24T11:34:04.725067+05:30"},{"city":"Gwalior","state":"Madhya Pradesh","latitude":26.2183,"longitude":78.1828,"temp":30.9,"humidity":40,"rain":0.0,"pressure":987.8,"uv_index":7.3,"wind_gusts":28.4,"aqi":129,"pm10":145.8,"pm2_5":36.2,"mosquito_risk":0,"arthritis_risk":5,"migraine_risk":7,"frizz_risk":0,"updated_at":"2026-03-24T11:34:04.725074+05:30"},{"city":"Indore","state":"Madhya Pradesh","latitude":22.7196,"longitude":75.8577,"temp":31.6,"humidity":34,"rain":0.0,"pressure":951.6,"uv_index":8.15,"wind_gusts":23.0,"aqi":60,"pm10":40.6,"pm2_5":16.9,"mosquito_risk":0,"arthritis_risk":5,"migraine_risk":7,"frizz_risk":0,"updated_at":"2026-03-24T11:34:04.725080+05:30"},{"city":"Bhopal","state":"Madhya Pradesh","latitude":23.2599,"longitude":77.4126,"temp":33.3,"humidity":31,"rain":0.0,"pressure":957.1,"uv_index":8.05,"wind_gusts":31.0,"aqi":71,"pm10":52.6,"pm2_5":19.8,"mosquito_risk":0,"arthritis_risk":5,"migraine_risk":7,"frizz_risk":0,"updated_at":"2026-03-24T11:34:04.725086+05:30"},{"city":"Jabalpur","state":"Madhya Pradesh","latitude":23.1815,"longitude":79.9864,"temp":33.0,"humidity":31,"rain":0.0,"pressure":964.5,"uv_index":8.15,"wind_gusts":29.9,"aqi":77,"pm10":52.2,"pm2_5":24.0,"mosquito_risk":0,"arthritis_risk":5,"migraine_risk":7,"frizz_risk":0,"updated_at":"2026-03-24T11:34:04.725091+05:30"},{"city":"Ujjain","state":"Madhya Pradesh","latitude":23.1765,"longitude":75.7885,"temp":31.0,"humidity":41,"rain":0.0,"pressure":957.4,"uv_index":8.05,"wind_gusts":19.1,"aqi":63,"pm10":46.1,"pm2_5":20.3,"mosquito_risk":0,"arthritis_risk":5,"migraine_risk":7,"frizz_risk":1,"updated_at":"2026-03-24T11:34:04.725098+05:30"},{"city":"Visakhapatnam","state":"Andhra Pradesh","latitude":17.6868,"longitude":83.2185,"temp":31.6,"humidity":57,"rain":0.0,"pressure":1007.1,"uv_index":8.95,"wind_gusts":36.0,"aqi":87,"pm10":33.3,"pm2_5":24.6,"mosquito_risk":0,"arthritis_risk":5,"migraine_risk":4,"frizz_risk":1,"updated_at":"2026-03-24T11:34:04.725103+05:30"},{"city":"Vijayawada","state":"Andhra Pradesh","latitude":16.5062,"longitude":80.648,"temp":31.7,"humidity":58,"rain":0.0,"pressure":1005.9,"uv_index":9.0,"wind_gusts":25.9,"aqi":63,"pm10":22.0,"pm2_5":15.0,"mosquito_risk":0,"arthritis_risk":5,"migraine_risk":4,"frizz_risk":1,"updated_at":"2026-03-24T11:34:04.725109+05:30"},{"city":"Guntur","state":"Andhra Pradesh","latitude":16.3067,"longitude":80.4365,"temp":32.3,"humidity":55,"rain":0.0,"pressure":1006.8,"uv_index":9.0,"wind_gusts":31.7,"aqi":60,"pm10":21.2,"pm2_5":13.8,"mosquito_risk":0,"arthritis_risk":5,"migraine_risk":4,"frizz_risk":1,"updated_at":"2026-03-24T11:34:04.725115+05:30"},{"city":"Nellore","state":"Andhra Pradesh","latitude":14.4426,"longitude":79.9865,"temp":33.1,"humidity":53,"rain":0.0,"pressure":1008.6,"uv_index":9.1,"wind_gusts":31.3,"aqi":41,"pm10":22.4,"pm2_5":14.6,"mosquito_risk":0,"arthritis_risk":0,"migraine_risk":4,"frizz_risk":1,"updated_at":"2026-03-24T11:34:04.725121+05:30"},{"city":"Kurnool","state":"Andhra Pradesh","latitude":15.8281,"longitude":78.0373,"temp":34.2,"humidity":37,"rain":0.0,"pressure":979.5,"uv_index":9.0,"wind_gusts":30.6,"aqi":61,"pm10":25.0,"pm2_5":17.9,"mosquito_risk":0,"arthritis_risk":5,"migraine_risk":7,"frizz_risk":1,"updated_at":"2026-03-24T11:34:04.725128+05:30"},{"city":"Kakinada","state":"Andhra Pradesh","latitude":16.9891,"longitude":82.2475,"temp":33.3,"humidity":49,"rain":0.0,"pressure":1010.6,"uv_index":8.95,"wind_gusts":30.2,"aqi":51,"pm10":21.8,"pm2_5":12.5,"mosquito_risk":0,"arthritis_risk":0,"migraine_risk":4,"frizz_risk":1,"updated_at":"2026-03-24T11:34:04.725134+05:30"},{"city":"Tirupati","state":"Andhra Pradesh","latitude":13.6288,"longitude":79.4192,"temp":31.6,"humidity":55,"rain":0.0,"pressure":994.8,"uv_index":9.25,"wind_gusts":31.3,"aqi":63,"pm10":23.9,"pm2_5":17.6,"mosquito_risk":0,"arthritis_risk":5,"migraine_risk":7,"frizz_risk":1,"updated_at":"2026-03-24T11:34:04.725140+05:30"},{"city":"Warangal","state":"Telangana","latitude":17.9689,"longitude":79.5941,"temp":33.0,"humidity":50,"rain":0.0,"pressure":981.8,"uv_index":8.8,"wind_gusts":28.1,"aqi":91,"pm10":25.6,"pm2_5":19.5,"mosquito_risk":0,"arthritis_risk":5,"migraine_risk":7,"frizz_risk":1,"updated_at":"2026-03-24T11:34:04.725145+05:30"},{"city":"Nizamabad","state":"Telangana","latitude":18.6725,"longitude":78.0941,"temp":34.9,"humidity":33,"rain":0.0,"pressure":967.5,"uv_index":8.75,"wind_gusts":26.3,"aqi":93,"pm10":44.4,"pm2_5":32.6,"mosquito_risk":0,"arthritis_risk":5,"migraine_risk":7,"frizz_risk":1,"updated_at":"2026-03-24T11:34:04.725151+05:30"},{"city":"Mysore","state":"Karnataka","latitude":12.2958,"longitude":76.6396,"temp":30.9,"humidity":44,"rain":0.0,"pressure":931.1,"uv_index":9.4,"wind_gusts":39.2,"aqi":92,"pm10":33.4,"pm2_5":24.8,"mosquito_risk":0,"arthritis_risk":5,"migraine_risk":7,"frizz_risk":1,"updated_at":"2026-03-24T11:34:04.725157+05:30"},{"city":"Mangalore","state":"Karnataka","latitude":12.9141,"longitude":74.856,"temp":28.4,"humidity":82,"rain":0.0,"pressure":1008.9,"uv_index":9.1,"wind_gusts":24.8,"aqi":80,"pm10":49.2,"pm2_5":34.9,"mosquito_risk":7,"arthritis_risk":0,"migraine_risk":4,"frizz_risk":1,"updated_at":"2026-03-24T11:34:04.725163+05:30"},{"city":"Hubli-Dharwad","state":"Karnataka","latitude":15.3647,"longitude":75.124,"temp":30.8,"humidity":52,"rain":0.0,"pressure":943.5,"uv_index":9.1,"wind_gusts":39.6,"aqi":95,"pm10":42.5,"pm2_5":31.4,"mosquito_risk":0,"arthritis_risk":5,"migraine_risk":7,"frizz_risk":1,"updated_at":"2026-03-24T11:34:04.725169+05:30"},{"city":"Belgaum","state":"Karnataka","latitude":15.8497,"longitude":74.4977,"temp":32.3,"humidity":30,"rain":0.0,"pressure":928.4,"uv_index":9.05,"wind_gusts":41.8,"aqi":96,"pm10":34.6,"pm2_5":21.9,"mosquito_risk":0,"arthritis_risk":5,"migraine_risk":7,"frizz_risk":0,"updated_at":"2026-03-24T11:34:07.974906+05:30"},{"city":"Coimbatore","state":"Tamil Nadu","latitude":11.0168,"longitude":76.9558,"temp":31.9,"humidity":44,"rain":0.0,"pressure":964.6,"uv_index":9.4,"wind_gusts":32.8,"aqi":64,"pm10":17.7,"pm2_5":13.0,"mosquito_risk":0,"arthritis_risk":5,"migraine_risk":7,"frizz_risk":1,"updated_at":"2026-03-24T11:34:07.974932+05:30"},{"city":"Madurai","state":"Tamil Nadu","latitude":9.9252,"longitude":78.1198,"temp":32.4,"humidity":49,"rain":0.0,"pressure":995.7,"uv_index":9.35,"wind_gusts":30.2,"aqi":56,"pm10":12.4,"pm2_5":8.1,"mosquito_risk":0,"arthritis_risk":5,"migraine_risk":7,"frizz_risk":1,"updated_at":"2026-03-24T11:34:07.974948+05:30"},{"city":"Trichy","state":"Tamil Nadu","latitude":10.7905,"longitude":78.7047,"temp":31.3,"humidity":57,"rain":0.0,"pressure":1002.8,"uv_index":9.3,"wind_gusts":23.4,"aqi":55,"pm10":13.6,"pm2_5":11.3,"mosquito_risk":0,"arthritis_risk":5,"migraine_risk":4,"frizz_risk":1,"updated_at":"2026-03-24T11:34:07.974956+05:30"},{"city":"Salem","state":"Tamil Nadu","latitude":11.6643,"longitude":78.146,"temp":32.2,"humidity":50,"rain":0.0,"pressure":980.1,"uv_index":9.35,"wind_gusts":25.2,"aqi":77,"pm10":36.0,"pm2_5":29.3,"mosquito_risk":0,"arthritis_risk":5,"migraine_risk":7,"frizz_risk":1,"updated_at":"2026-03-24T11:34:07.974963+05:30"},{"city":"Tirunelveli","state":"Tamil Nadu","latitude":8.7139,"longitude":77.7567,"temp":33.8,"humidity":45,"rain":0.0,"pressure":1005.6,"uv_index":9.35,"wind_gusts":37.8,"aqi":53,"pm10":8.3,"pm2_5":5.4,"mosquito_risk":0,"arthritis_risk":5,"migraine_risk":4,"frizz_risk":1,"updated_at":"2026-03-24T11:34:07.974970+05:30"},{"city":"Vellore","state":"Tamil Nadu","latitude":12.9165,"longitude":79.1325,"temp":31.9,"humidity":49,"rain":0.0,"pressure":987.6,"uv_index":9.3,"wind_gusts":35.6,"aqi":69,"pm10":18.7,"pm2_5":11.7,"mosquito_risk":0,"arthritis_risk":5,"migraine_risk":7,"frizz_risk":1,"updated_at":"2026-03-24T11:34:07.974977+05:30"},{"city":"Erode","state":"Tamil Nadu","latitude":11.341,"longitude":77.7172,"temp":32.2,"humidity":51,"rain":0.0,"pressure":991.9,"uv_index":9.35,"wind_gusts":21.6,"aqi":56,"pm10":21.0,"pm2_5":15.2,"mosquito_risk":0,"arthritis_risk":5,"migraine_risk":7,"frizz_risk":1,"updated_at":"2026-03-24T11:34:07.974983+05:30"},{"city":"Kochi","state":"Kerala","latitude":9.9312,"longitude":76.2673,"temp":28.3,"humidity":81,"rain":0.0,"pressure":1010.7,"uv_index":9.15,"wind_gusts":37.1,"aqi":91,"pm10":41.8,"pm2_5":28.7,"mosquito_risk":7,"arthritis_risk":0,"migraine_risk":4,"frizz_risk":1,"updated_at":"2026-03-24T11:34:07.974990+05:30"},{"city":"Thiruvananthapuram","state":"Kerala","latitude":8.5241,"longitude":76.9366,"temp":29.0,"humidity":77,"rain":0.0,"pressure":1009.6,"uv_index":9.2,"wind_gusts":30.2,"aqi":63,"pm10":26.0,"pm2_5":18.9,"mosquito_risk":7,"arthritis_risk":0,"migraine_risk":4,"frizz_risk":1,"updated_at":"2026-03-24T11:34:07.974996+05:30"},{"city":"Kozhikode","state":"Kerala","latitude":11.2588,"longitude":75.7804,"temp":30.0,"humidity":71,"rain":0.0,"pressure":1010.1,"uv_index":9.05,"wind_gusts":31.0,"aqi":73,"pm10":38.3,"pm2_5":26.3,"mosquito_risk":7,"arthritis_risk":0,"migraine_risk":4,"frizz_risk":1,"updated_at":"2026-03-24T11:34:07.975003+05:30"},{"city":"Thrissur","state":"Kerala","latitude":10.5276,"longitude":76.2144,"temp":33.3,"humidity":54,"rain":0.0,"pressure":1008.8,"uv_index":9.15,"wind_gusts":41.4,"aqi":91,"pm10":34.5,"pm2_5":24.5,"mosquito_risk":0,"arthritis_risk":0,"migraine_risk":4,"frizz_risk":1,"updated_at":"2026-03-24T11:34:07.975009+05:30"},{"city":"Kannur","state":"Kerala","latitude":11.8745,"longitude":75.3704,"temp":31.7,"humidity":60,"rain":0.0,"pressure":1009.4,"uv_index":9.1,"wind_gusts":28.4,"aqi":72,"pm10":44.4,"pm2_5":30.6,"mosquito_risk":0,"arthritis_risk":0,"migraine_risk":4,"frizz_risk":1,"updated_at":"2026-03-24T11:34:07.975016+05:30"},{"city":"Patna","state":"Bihar","latitude":25.5941,"longitude":85.1376,"temp":30.7,"humidity":40,"rain":0.0,"pressure":1003.9,"uv_index":7.9,"wind_gusts":34.2,"aqi":157,"pm10":116.6,"pm2_5":42.4,"mosquito_risk":0,"arthritis_risk":5,"migraine_risk":4,"frizz_risk":0,"updated_at":"2026-03-24T11:34:07.975022+05:30"},{"city":"Gaya","state":"Bihar","latitude":24.7914,"longitude":85.0002,"temp":30.2,"humidity":45,"rain":0.0,"pressure":997.7,"uv_index":7.85,"wind_gusts":22.3,"aqi":113,"pm10":134.1,"pm2_5":38.6,"mosquito_risk":0,"arthritis_risk":5,"migraine_risk":7,"frizz_risk":1,"updated_at":"2026-03-24T11:34:07.975028+05:30"},{"city":"Muzaffarpur","state":"Bihar","latitude":26.1209,"longitude":85.3647,"temp":29.7,"humidity":49,"rain":0.0,"pressure":1003.9,"uv_index":7.85,"wind_gusts":35.6,"aqi":158,"pm10":102.9,"pm2_5":47.6,"mosquito_risk":4,"arthritis_risk":5,"migraine_risk":4,"frizz_risk":1,"updated_at":"2026-03-24T11:34:07.975035+05:30"},{"city":"Bhagalpur","state":"Bihar","latitude":25.2425,"longitude":87.0117,"temp":29.6,"humidity":54,"rain":0.0,"pressure":1004.6,"uv_index":7.85,"wind_gusts":36.7,"aqi":143,"pm10":80.3,"pm2_5":43.3,"mosquito_risk":4,"arthritis_risk":5,"migraine_risk":4,"frizz_risk":1,"updated_at":"2026-03-24T11:34:07.975041+05:30"},{"city":"Ranchi","state":"Jharkhand","latitude":23.3441,"longitude":85.3096,"temp":27.9,"humidity":43,"rain":0.0,"pressure":941.5,"uv_index":8.6,"wind_gusts":36.7,"aqi":68,"pm10":51.8,"pm2_5":21.8,"mosquito_risk":4,"arthritis_risk":5,"migraine_risk":7,"frizz_risk":0,"updated_at":"2026-03-24T11:34:07.975047+05:30"},{"city":"Jamshedpur","state":"Jharkhand","latitude":22.8046,"longitude":86.2029,"temp":31.4,"humidity":50,"rain":0.0,"pressure":994.2,"uv_index":8.45,"wind_gusts":32.0,"aqi":129,"pm10":56.9,"pm2_5":38.6,"mosquito_risk":0,"arthritis_risk":5,"migraine_risk":7,"frizz_risk":1,"updated_at":"2026-03-24T11:34:07.975053+05:30"},{"city":"Dhanbad","state":"Jharkhand","latitude":23.7957,"longitude":86.4304,"temp":31.0,"humidity":39,"rain":0.0,"pressure":983.4,"uv_index":8.35,"wind_gusts":23.8,"aqi":164,"pm10":79.9,"pm2_5":48.1,"mosquito_risk":0,"arthritis_risk":5,"migraine_risk":7,"frizz_risk":0,"updated_at":"2026-03-24T11:34:07.975059+05:30"},{"city":"Bokaro","state":"Jharkhand","latitude":23.6693,"longitude":86.1511,"temp":30.7,"humidity":41,"rain":0.0,"pressure":987.4,"uv_index":8.35,"wind_gusts":24.8,"aqi":154,"pm10":73.3,"pm2_5":37.5,"mosquito_risk":0,"arthritis_risk":5,"migraine_risk":7,"frizz_risk":0,"updated_at":"2026-03-24T11:34:07.975065+05:30"},{"city":"Bhubaneswar","state":"Odisha","latitude":20.2961,"longitude":85.8245,"temp":32.3,"humidity":56,"rain":0.0,"pressure":1005.7,"uv_index":8.7,"wind_gusts":32.8,"aqi":88,"pm10":40.0,"pm2_5":27.0,"mosquito_risk":0,"arthritis_risk":5,"migraine_risk":4,"frizz_risk":1,"updated_at":"2026-03-24T11:34:07.975071+05:30"},{"city":"Cuttack","state":"Odisha","latitude":20.4625,"longitude":85.8828,"temp":32.7,"humidity":55,"rain":0.0,"pressure":1007.6,"uv_index":8.75,"wind_gusts":29.2,"aqi":88,"pm10":40.0,"pm2_5":27.0,"mosquito_risk":0,"arthritis_risk":5,"migraine_risk":4,"frizz_risk":1,"updated_at":"2026-03-24T11:34:07.975078+05:30"},{"city":"Rourkela","state":"Odisha","latitude":22.2604,"longitude":84.8536,"temp":32.8,"humidity":38,"rain":0.0,"pressure":988.4,"uv_index":8.4,"wind_gusts":25.9,"aqi":89,"pm10":58.1,"pm2_5":42.4,"mosquito_risk":0,"arthritis_risk":5,"migraine_risk":7,"frizz_risk":1,"updated_at":"2026-03-24T11:34:07.975084+05:30"},{"city":"Raipur","state":"Chhattisgarh","latitude":21.2514,"longitude":81.6296,"temp":34.2,"humidity":30,"rain":0.0,"pressure":977.8,"uv_index":8.45,"wind_gusts":28.1,"aqi":109,"pm10":56.1,"pm2_5":46.0,"mosquito_risk":0,"arthritis_risk":5,"migraine_risk":7,"frizz_risk":0,"updated_at":"2026-03-24T11:34:07.975090+05:30"},{"city":"Bhilai","state":"Chhattisgarh","latitude":21.1938,"longitude":81.3509,"temp":34.0,"humidity":33,"rain":0.0,"pressure":978.2,"uv_index":8.5,"wind_gusts":32.8,"aqi":118,"pm10":52.6,"pm2_5":43.4,"mosquito_risk":0,"arthritis_risk":5,"migraine_risk":7,"frizz_risk":0,"updated_at":"2026-03-24T11:34:07.975096+05:30"},{"city":"Guwahati","state":"Assam","latitude":26.1158,"longitude":91.7086,"temp":26.5,"humidity":66,"rain":0.0,"pressure":1005.4,"uv_index":7.7,"wind_gusts":28.4,"aqi":93,"pm10":30.9,"pm2_5":27.9,"mosquito_risk":7,"arthritis_risk":5,"migraine_risk":4,"frizz_risk":1,"updated_at":"2026-03-24T11:34:07.975102+05:30"},{"city":"Agartala","state":"Tripura","latitude":23.8315,"longitude":91.2868,"temp":28.5,"humidity":57,"rain":0.0,"pressure":1009.9,"uv_index":8.05,"wind_gusts":15.5,"aqi":157,"pm10":67.3,"pm2_5":58.3,"mosquito_risk":4,"arthritis_risk":0,"migraine_risk":4,"frizz_risk":1,"updated_at":"2026-03-24T11:34:07.975108+05:30"},{"city":"Shillong","state":"Meghalaya","latitude":25.5788,"longitude":91.8933,"temp":17.5,"humidity":47,"rain":0.0,"pressure":858.2,"uv_index":7.8,"wind_gusts":37.8,"aqi":80,"pm10":18.4,"pm2_5":16.4,"mosquito_risk":0,"arthritis_risk":5,"migraine_risk":7,"frizz_risk":0,"updated_at":"2026-03-24T11:34:07.975114+05:30"},{"city":"Imphal","state":"Manipur","latitude":24.817,"longitude":93.9368,"temp":20.9,"humidity":56,"rain":0.0,"pressure":925.5,"uv_index":7.8,"wind_gusts":40.3,"aqi":88,"pm10":30.9,"pm2_5":24.3,"mosquito_risk":0,"arthritis_risk":5,"migraine_risk":7,"frizz_risk":0,"updated_at":"2026-03-24T11:34:07.975120+05:30"},{"city":"Aizawl","state":"Mizoram","latitude":23.7271,"longitude":92.7176,"temp":22.9,"humidity":45,"rain":0.0,"pressure":896.0,"uv_index":8.35,"wind_gusts":29.9,"aqi":98,"pm10":43.1,"pm2_5":34.7,"mosquito_risk":0,"arthritis_risk":5,"migraine_risk":7,"frizz_risk":0,"updated_at":"2026-03-24T11:34:07.975126+05:30"},{"city":"Kohima","state":"Nagaland","latitude":25.6701,"longitude":94.1077,"temp":16.8,"humidity":68,"rain":0.0,"pressure":856.6,"uv_index":7.55,"wind_gusts":54.0,"aqi":69,"pm10":19.7,"pm2_5":16.2,"mosquito_risk":3,"arthritis_risk":5,"migraine_risk":7,"frizz_risk":0,"updated_at":"2026-03-24T11:34:07.975132+05:30"},{"city":"Gangtok","state":"Sikkim","latitude":27.3314,"longitude":88.6138,"temp":14.1,"humidity":85,"rain":0.0,"pressure":837.9,"uv_index":2.05,"wind_gusts":16.2,"aqi":88,"pm10":15.0,"pm2_5":12.3,"mosquito_risk":3,"arthritis_risk":10,"migraine_risk":3,"frizz_risk":0,"updated_at":"2026-03-24T11:34:07.975138+05:30"},{"city":"Siliguri","state":"West Bengal","latitude":26.7271,"longitude":88.3953,"temp":19.6,"humidity":91,"rain":0.0,"pressure":997.6,"uv_index":4.65,"wind_gusts":35.3,"aqi":108,"pm10":57.9,"pm2_5":44.6,"mosquito_risk":3,"arthritis_risk":10,"migraine_risk":3,"frizz_risk":1,"updated_at":"2026-03-24T11:34:11.232657+05:30"},{"city":"Durgapur","state":"West Bengal","latitude":23.5204,"longitude":87.3119,"temp":30.7,"humidity":55,"rain":0.0,"pressure":998.6,"uv_index":8.05,"wind_gusts":24.1,"aqi":156,"pm10":68.9,"pm2_5":56.2,"mosquito_risk":0,"arthritis_risk":5,"migraine_risk":7,"frizz_risk":1,"updated_at":"2026-03-24T11:34:11.232690+05:30"},{"city":"Asansol","state":"West Bengal","latitude":23.6739,"longitude":86.9524,"temp":30.9,"humidity":51,"rain":0.0,"pressure":997.1,"uv_index":7.75,"wind_gusts":24.8,"aqi":154,"pm10":73.6,"pm2_5":52.3,"mosquito_risk":0,"arthritis_risk":5,"migraine_risk":7,"frizz_risk":1,"updated_at":"2026-03-24T11:34:11.232703+05:30"},{"city":"Pondicherry","state":"Puducherry","latitude":11.9139,"longitude":79.8145,"temp":32.1,"humidity":57,"rain":0.0,"pressure":1011.3,"uv_index":9.2,"wind_gusts":30.2,"aqi":30,"pm10":11.7,"pm2_5":7.6,"mosquito_risk":0,"arthritis_risk":0,"migraine_risk":4,"frizz_risk":1,"updated_at":"2026-03-24T11:34:11.232713+05:30"},{"city":"Port Blair","state":"Andaman and Nicobar Islands","latitude":11.6234,"longitude":92.7265,"temp":28.4,"humidity":68,"rain":0.0,"pressure":1008.3,"uv_index":9.15,"wind_gusts":22.7,"aqi":59,"pm10":26.9,"pm2_5":16.8,"mosquito_risk":7,"arthritis_risk":0,"migraine_risk":4,"frizz_risk":1,"updated_at":"2026-03-24T11:34:11.232722+05:30"},{"city":"Haridwar","state":"Uttarakhand","latitude":29.9457,"longitude":78.1642,"temp":26.6,"humidity":57,"rain":0.0,"pressure":978.8,"uv_index":6.4,"wind_gusts":34.9,"aqi":111,"pm10":47.0,"pm2_5":32.1,"mosquito_risk":4,"arthritis_risk":5,"migraine_risk":7,"frizz_risk":1,"updated_at":"2026-03-24T11:34:11.232730+05:30"},{"city":"Rishikesh","state":"Uttarakhand","latitude":30.0869,"longitude":78.2676,"temp":25.5,"humidity":57,"rain":0.0,"pressure":971.2,"uv_index":6.45,"wind_gusts":32.4,"aqi":88,"pm10":31.7,"pm2_5":20.6,"mosquito_risk":4,"arthritis_risk":5,"migraine_risk":7,"frizz_risk":1,"updated_at":"2026-03-24T11:34:11.232738+05:30"},{"city":"Nainital","state":"Uttarakhand","latitude":29.3919,"longitude":79.4542,"temp":18.4,"humidity":62,"rain":0.0,"pressure":808.6,"uv_index":7.3,"wind_gusts":55.4,"aqi":98,"pm10":39.1,"pm2_5":24.4,"mosquito_risk":3,"arthritis_risk":5,"migraine_risk":7,"frizz_risk":0,"updated_at":"2026-03-24T11:34:11.232747+05:30"},{"city":"Mussoorie","state":"Uttarakhand","latitude":30.4599,"longitude":78.0664,"temp":16.9,"humidity":67,"rain":0.0,"pressure":805.1,"uv_index":6.8,"wind_gusts":40.0,"aqi":80,"pm10":32.5,"pm2_5":20.2,"mosquito_risk":3,"arthritis_risk":5,"migraine_risk":7,"frizz_risk":0,"updated_at":"2026-03-24T11:34:11.232755+05:30"},{"city":"Dharamshala","state":"Himachal Pradesh","latitude":32.219,"longitude":76.3234,"temp":20.1,"humidity":57,"rain":0.0,"pressure":872.3,"uv_index":7.05,"wind_gusts":27.0,"aqi":67,"pm10":16.6,"pm2_5":6.1,"mosquito_risk":0,"arthritis_risk":5,"migraine_risk":7,"frizz_risk":0,"updated_at":"2026-03-24T11:34:11.232763+05:30"},{"city":"Dalhousie","state":"Himachal Pradesh","latitude":32.5387,"longitude":75.971,"temp":18.4,"humidity":47,"rain":0.0,"pressure":806.9,"uv_index":7.3,"wind_gusts":23.8,"aqi":72,"pm10":23.6,"pm2_5":11.7,"mosquito_risk":0,"arthritis_risk":5,"migraine_risk":7,"frizz_risk":0,"updated_at":"2026-03-24T11:34:11.232772+05:30"},{"city":"Patiala","state":"Punjab","latitude":30.3398,"longitude":76.3869,"temp":27.4,"humidity":50,"rain":0.0,"pressure":983.1,"uv_index":6.4,"wind_gusts":33.1,"aqi":158,"pm10":62.6,"pm2_5":46.8,"mosquito_risk":4,"arthritis_risk":5,"migraine_risk":7,"frizz_risk":1,"updated_at":"2026-03-24T11:34:11.232780+05:30"},{"city":"Bhatinda","state":"Punjab","latitude":30.211,"longitude":74.9455,"temp":29.0,"humidity":45,"rain":0.0,"pressure":988.6,"uv_index":7.1,"wind_gusts":22.7,"aqi":136,"pm10":88.7,"pm2_5":37.8,"mosquito_risk":4,"arthritis_risk":5,"migraine_risk":7,"frizz_risk":0,"updated_at":"2026-03-24T11:34:11.232788+05:30"},{"city":"Rohtak","state":"Haryana","latitude":28.8955,"longitude":76.6066,"temp":28.2,"humidity":51,"rain":0.0,"pressure":986.6,"uv_index":6.55,"wind_gusts":24.8,"aqi":156,"pm10":300.8,"pm2_5":57.2,"mosquito_risk":4,"arthritis_risk":5,"migraine_risk":7,"frizz_risk":1,"updated_at":"2026-03-24T11:34:11.232796+05:30"},{"city":"Panipat","state":"Haryana","latitude":29.3909,"longitude":76.9635,"temp":27.9,"humidity":50,"rain":0.0,"pressure":985.2,"uv_index":6.35,"wind_gusts":29.5,"aqi":153,"pm10":368.8,"pm2_5":62.4,"mosquito_risk":4,"arthritis_risk":5,"migraine_risk":7,"frizz_risk":1,"updated_at":"2026-03-24T11:34:11.232806+05:30"},{"city":"Mathura","state":"Uttar Pradesh","latitude":27.4924,"longitude":77.6737,"temp":29.1,"humidity":51,"rain":0.0,"pressure":991.7,"uv_index":6.4,"wind_gusts":25.6,"aqi":150,"pm10":279.4,"pm2_5":55.1,"mosquito_risk":4,"arthritis_risk":5,"migraine_risk":7,"frizz_risk":1,"updated_at":"2026-03-24T11:34:11.232816+05:30"},{"city":"Vrindavan","state":"Uttar Pradesh","latitude":27.5823,"longitude":77.7027,"temp":28.8,"humidity":53,"rain":0.0,"pressure":992.1,"uv_index":6.45,"wind_gusts":28.1,"aqi":150,"pm10":279.4,"pm2_5":55.1,"mosquito_risk":4,"arthritis_risk":5,"migraine_risk":7,"frizz_risk":1,"updated_at":"2026-03-24T11:34:11.232823+05:30"},{"city":"Ayodhya","state":"Uttar Pradesh","latitude":26.7922,"longitude":82.1998,"temp":30.4,"humidity":42,"rain":0.0,"pressure":999.3,"uv_index":7.25,"wind_gusts":35.6,"aqi":126,"pm10":37.1,"pm2_5":24.6,"mosquito_risk":0,"arthritis_risk":5,"migraine_risk":7,"frizz_risk":1,"updated_at":"2026-03-24T11:34:11.232831+05:30"},{"city":"Ratlam","state":"Madhya Pradesh","latitude":23.3315,"longitude":75.0367,"temp":31.6,"humidity":38,"rain":0.0,"pressure":958.1,"uv_index":8.0,"wind_gusts":22.3,"aqi":56,"pm10":37.0,"pm2_5":15.7,"mosquito_risk":0,"arthritis_risk":5,"migraine_risk":7,"frizz_risk":0,"updated_at":"2026-03-24T11:34:11.232839+05:30"},{"city":"Sagar","state":"Madhya Pradesh","latitude":23.8388,"longitude":78.7378,"temp":32.2,"humidity":33,"rain":0.0,"pressure":953.8,"uv_index":8.05,"wind_gusts":26.3,"aqi":72,"pm10":73.1,"pm2_5":26.0,"mosquito_risk":0,"arthritis_risk":5,"migraine_risk":7,"frizz_risk":0,"updated_at":"2026-03-24T11:34:11.232846+05:30"},{"city":"Satna","state":"Madhya Pradesh","latitude":24.6005,"longitude":80.8322,"temp":30.4,"humidity":41,"rain":0.0,"pressure":975.3,"uv_index":7.6,"wind_gusts":29.9,"aqi":83,"pm10":92.4,"pm2_5":30.9,"mosquito_risk":0,"arthritis_risk":5,"migraine_risk":7,"frizz_risk":0,"updated_at":"2026-03-24T11:34:11.232853+05:30"},{"city":"Akola","state":"Maharashtra","latitude":20.7002,"longitude":77.0082,"temp":34.5,"humidity":31,"rain":0.0,"pressure":978.1,"uv_index":8.4,"wind_gusts":27.7,"aqi":77,"pm10":36.6,"pm2_5":15.3,"mosquito_risk":0,"arthritis_risk":5,"migraine_risk":7,"frizz_risk":0,"updated_at":"2026-03-24T11:34:11.232862+05:30"},{"city":"Amravati","state":"Maharashtra","latitude":20.9374,"longitude":77.7796,"temp":34.5,"humidity":26,"rain":0.0,"pressure":970.3,"uv_index":8.4,"wind_gusts":29.2,"aqi":86,"pm10":35.2,"pm2_5":16.5,"mosquito_risk":0,"arthritis_risk":5,"migraine_risk":7,"frizz_risk":0,"updated_at":"2026-03-24T11:34:11.232871+05:30"},{"city":"Latur","state":"Maharashtra","latitude":18.4088,"longitude":76.5604,"temp":32.4,"humidity":34,"rain":0.0,"pressure":942.7,"uv_index":8.75,"wind_gusts":19.8,"aqi":95,"pm10":47.5,"pm2_5":33.5,"mosquito_risk":0,"arthritis_risk":5,"migraine_risk":7,"frizz_risk":0,"updated_at":"2026-03-24T11:34:11.232879+05:30"},{"city":"Nanded","state":"Maharashtra","latitude":19.1383,"longitude":77.3091,"temp":35.0,"humidity":32,"rain":0.0,"pressure":971.3,"uv_index":8.6,"wind_gusts":22.7,"aqi":100,"pm10":36.2,"pm2_5":24.0,"mosquito_risk":0,"arthritis_risk":5,"migraine_risk":7,"frizz_risk":0,"updated_at":"2026-03-24T11:34:11.232887+05:30"},{"city":"Gulbarga","state":"Karnataka","latitude":17.3297,"longitude":76.8343,"temp":34.7,"humidity":34,"rain":0.0,"pressure":961.3,"uv_index":8.8,"wind_gusts":30.6,"aqi":85,"pm10":30.6,"pm2_5":22.5,"mosquito_risk":0,"arthritis_risk":5,"migraine_risk":7,"frizz_risk":1,"updated_at":"2026-03-24T11:34:11.232895+05:30"},{"city":"Bidar","state":"Karnataka","latitude":17.9104,"longitude":77.5199,"temp":32.8,"humidity":36,"rain":0.0,"pressure":938.4,"uv_index":8.85,"wind_gusts":34.2,"aqi":91,"pm10":37.7,"pm2_5":26.8,"mosquito_risk":0,"arthritis_risk":5,"migraine_risk":7,"frizz_risk":0,"updated_at":"2026-03-24T11:34:11.232903+05:30"},{"city":"Hospet","state":"Karnataka","latitude":15.2689,"longitude":76.3909,"temp":30.3,"humidity":60,"rain":0.0,"pressure":958.4,"uv_index":9.05,"wind_gusts":23.0,"aqi":98,"pm10":31.0,"pm2_5":25.2,"mosquito_risk":0,"arthritis_risk":5,"migraine_risk":7,"frizz_risk":1,"updated_at":"2026-03-24T11:34:11.232911+05:30"},{"city":"Tirupur","state":"Tamil Nadu","latitude":11.1085,"longitude":77.3411,"temp":32.5,"humidity":47,"rain":0.0,"pressure":978.1,"uv_index":9.4,"wind_gusts":28.1,"aqi":64,"pm10":22.5,"pm2_5":16.8,"mosquito_risk":0,"arthritis_risk":5,"migraine_risk":7,"frizz_risk":1,"updated_at":"2026-03-24T11:34:11.232919+05:30"},{"city":"Alappuzha","state":"Kerala","latitude":9.4981,"longitude":76.3388,"temp":28.6,"humidity":78,"rain":0.0,"pressure":1010.7,"uv_index":9.15,"wind_gusts":31.7,"aqi":83,"pm10":44.7,"pm2_5":31.5,"mosquito_risk":7,"arthritis_risk":0,"migraine_risk":4,"frizz_risk":1,"updated_at":"2026-03-24T11:34:11.232927+05:30"},{"city":"Munnar","state":"Kerala","latitude":10.0889,"longitude":77.0595,"temp":30.1,"humidity":38,"rain":0.0,"pressure":861.3,"uv_index":9.65,"wind_gusts":28.8,"aqi":65,"pm10":17.6,"pm2_5":11.6,"mosquito_risk":0,"arthritis_risk":5,"migraine_risk":7,"frizz_risk":0,"updated_at":"2026-03-24T11:34:11.232935+05:30"},{"city":"Silchar","state":"Assam","latitude":24.8333,"longitude":92.7789,"temp":27.8,"humidity":57,"rain":0.0,"pressure":1008.8,"uv_index":8.1,"wind_gusts":19.8,"aqi":123,"pm10":38.0,"pm2_5":32.5,"mosquito_risk":4,"arthritis_risk":0,"migraine_risk":4,"frizz_risk":1,"updated_at":"2026-03-24T11:34:11.232942+05:30"},{"city":"Dibrugarh","state":"Assam","latitude":27.4728,"longitude":94.912,"temp":21.9,"humidity":83,"rain":0.0,"pressure":999.7,"uv_index":6.95,"wind_gusts":15.5,"aqi":77,"pm10":17.7,"pm2_5":15.2,"mosquito_risk":3,"arthritis_risk":5,"migraine_risk":7,"frizz_risk":1,"updated_at":"2026-03-24T11:34:11.232948+05:30"}]