[{"city":"Delhi","state":"Delhi","latitude":28.6139,"longitude":77.209,"temp":32.4,"humidity":42,"rain":0.0,"pressure":986.6,"uv_index":5.95,"wind_gusts":18.7,"aqi":169,"pm10":211.4,"pm2_5":63.6,"mosquito_risk":0,"arthritis_risk":5,"migraine_risk":3,"frizz_risk":1,"updated_at":"2026-03-07T14:06:00.167029+05:30"},{"city":"Mumbai","state":"Maharashtra","latitude":19.076,"longitude":72.8777,"temp":26.9,"humidity":81,"rain":0.0,"pressure":1009.1,"uv_index":7.5,"wind_gusts":24.8,"aqi":99,"pm10":52.9,"pm2_5":49.8,"mosquito_risk":7,"arthritis_risk":0,"migraine_risk":4,"frizz_risk":1,"updated_at":"2026-03-07T14:06:00.167077+05:30"},{"city":"Bangalore","state":"Karnataka","latitude":12.9716,"longitude":77.5946,"temp":31.8,"humidity":30,"rain":0.0,"pressure":912.5,"uv_index":9.2,"wind_gusts":24.8,"aqi":114,"pm10":35.5,"pm2_5":30.9,"mosquito_risk":0,"arthritis_risk":5,"migraine_risk":7,"frizz_risk":0,"updated_at":"2026-03-07T14:06:00.167092+05:30"},{"city":"Hyderabad","state":"Telangana","latitude":17.385,"longitude":78.4867,"temp":36.6,"humidity":17,"rain":0.0,"pressure":954.1,"uv_index":8.5,"wind_gusts":28.1,"aqi":98,"pm10":22.6,"pm2_5":15.9,"mosquito_risk":0,"arthritis_risk":5,"migraine_risk":10,"frizz_risk":0,"updated_at":"2026-03-07T14:06:00.167102+05:30"},{"city":"Chennai","state":"Tamil Nadu","latitude":13.0827,"longitude":80.2707,"temp":33.5,"humidity":49,"rain":0.0,"pressure":1007.8,"uv_index":8.9,"wind_gusts":34.9,"aqi":95,"pm10":40.0,"pm2_5":32.7,"mosquito_risk":0,"arthritis_risk":5,"migraine_risk":4,"frizz_risk":1,"updated_at":"2026-03-07T14:06:00.167110+05:30"},{"city":"Kolkata","state":"West Bengal","latitude":22.5726,"longitude":88.3639,"temp":31.5,"humidity":49,"rain":0.0,"pressure":1008.1,"uv_index":7.85,"wind_gusts":23.4,"aqi":139,"pm10":71.7,"pm2_5":54.6,"mosquito_risk":0,"arthritis_risk":0,"migraine_risk":4,"frizz_risk":1,"updated_at":"2026-03-07T14:06:00.167118+05:30"},{"city":"Pune","state":"Maharashtra","latitude":18.5204,"longitude":73.8567,"temp":37.2,"humidity":16,"rain":0.0,"pressure":949.6,"uv_index":8.05,"wind_gusts":25.2,"aqi":108,"pm10":18.5,"pm2_5":15.6,"mosquito_risk":0,"arthritis_risk":5,"migraine_risk":10,"frizz_risk":0,"updated_at":"2026-03-07T14:06:00.167128+05:30"},{"city":"Ahmedabad","state":"Gujarat","latitude":23.0225,"longitude":72.5714,"temp":35.1,"humidity":28,"rain":0.0,"pressure":1004.5,"uv_index":7.3,"wind_gusts":13.0,"aqi":107,"pm10":24.7,"pm2_5":18.3,"mosquito_risk":0,"arthritis_risk":5,"migraine_risk":7,"frizz_risk":0,"updated_at":"2026-03-07T14:06:00.167135+05:30"},{"city":"Jaipur","state":"Rajasthan","latitude":26.9124,"longitude":75.7873,"temp":36.1,"humidity":18,"rain":0.0,"pressure":963.3,"uv_index":6.75,"wind_gusts":18.4,"aqi":88,"pm10":46.4,"pm2_5":14.7,"mosquito_risk":0,"arthritis_risk":5,"migraine_risk":10,"frizz_risk":0,"updated_at":"2026-03-07T14:06:00.167141+05:30"},{"city":"Lucknow","state":"Uttar Pradesh","latitude":26.8467,"longitude":80.9462,"temp":32.0,"humidity":41,"rain":0.0,"pressure":997.0,"uv_index":6.5,"wind_gusts":16.9,"aqi":162,"pm10":95.7,"pm2_5":68.5,"mosquito_risk":0,"arthritis_risk":5,"migraine_risk":7,"frizz_risk":1,"updated_at":"2026-03-07T14:06:00.167147+05:30"},{"city":"Kanpur","state":"Uttar Pradesh","latitude":26.4499,"longitude":80.3319,"temp":31.6,"humidity":46,"rain":0.0,"pressure":995.3,"uv_index":6.5,"wind_gusts":13.7,"aqi":161,"pm10":114.8,"pm2_5":68.7,"mosquito_risk":0,"arthritis_risk":5,"migraine_risk":7,"frizz_risk":1,"updated_at":"2026-03-07T14:06:00.167152+05:30"},{"city":"Chandigarh","state":"Chandigarh","latitude":30.7333,"longitude":76.7794,"temp":31.1,"humidity":49,"rain":0.0,"pressure":972.5,"uv_index":5.9,"wind_gusts":21.2,"aqi":158,"pm10":93.1,"pm2_5":61.5,"mosquito_risk":0,"arthritis_risk":5,"migraine_risk":3,"frizz_risk":1,"updated_at":"2026-03-07T14:06:00.167159+05:30"},{"city":"Srinagar","state":"Jammu and Kashmir","latitude":34.0837,"longitude":74.7973,"temp":16.4,"humidity":63,"rain":0.0,"pressure":846.7,"uv_index":5.6,"wind_gusts":15.8,"aqi":117,"pm10":41.9,"pm2_5":22.8,"mosquito_risk":3,"arthritis_risk":5,"migraine_risk":3,"frizz_risk":0,"updated_at":"2026-03-07T14:06:00.167165+05:30"},{"city":"Jammu","state":"Jammu and Kashmir","latitude":32.7266,"longitude":74.857,"temp":29.0,"humidity":61,"rain":0.0,"pressure":976.6,"uv_index":5.35,"wind_gusts":14.4,"aqi":132,"pm10":52.5,"pm2_5":38.9,"mosquito_risk":7,"arthritis_risk":5,"migraine_risk":3,"frizz_risk":1,"updated_at":"2026-03-07T14:06:00.167171+05:30"},{"city":"Amritsar","state":"Punjab","latitude":31.634,"longitude":74.8723,"temp":31.5,"humidity":44,"rain":0.0,"pressure":984.4,"uv_index":6.3,"wind_gusts":18.7,"aqi":153,"pm10":72.6,"pm2_5":37.0,"mosquito_risk":0,"arthritis_risk":5,"migraine_risk":7,"frizz_risk":1,"updated_at":"2026-03-07T14:06:00.167176+05:30"},{"city":"Ludhiana","state":"Punjab","latitude":30.901,"longitude":75.8573,"temp":31.8,"humidity":43,"rain":0.0,"pressure":982.4,"uv_index":6.1,"wind_gusts":16.2,"aqi":169,"pm10":116.4,"pm2_5":65.7,"mosquito_risk":0,"arthritis_risk":5,"migraine_risk":7,"frizz_risk":1,"updated_at":"2026-03-07T14:06:00.167181+05:30"},{"city":"Jalandhar","state":"Punjab","latitude":31.326,"longitude":75.5762,"temp":31.7,"humidity":44,"rain":0.0,"pressure":983.6,"uv_index":6.3,"wind_gusts":18.4,"aqi":165,"pm10":97.1,"pm2_5":54.2,"mosquito_risk":0,"arthritis_risk":5,"migraine_risk":7,"frizz_risk":1,"updated_at":"2026-03-07T14:06:00.167187+05:30"},{"city":"Dehradun","state":"Uttarakhand","latitude":30.6284,"longitude":78.0322,"temp":22.5,"humidity":60,"rain":0.0,"pressure":835.2,"uv_index":6.2,"wind_gusts":28.8,"aqi":105,"pm10":46.1,"pm2_5":33.1,"mosquito_risk":0,"arthritis_risk":5,"migraine_risk":7,"frizz_risk":0,"updated_at":"2026-03-07T14:06:00.167193+05:30"},{"city":"Shimla","state":"Himachal Pradesh","latitude":31.1048,"longitude":77.1734,"temp":21.3,"humidity":60,"rain":0.0,"pressure":790.8,"uv_index":6.3,"wind_gusts":40.0,"aqi":122,"pm10":40.2,"pm2_5":28.2,"mosquito_risk":0,"arthritis_risk":5,"migraine_risk":7,"frizz_risk":0,"updated_at":"2026-03-07T14:06:00.167198+05:30"},{"city":"Manali","state":"Himachal Pradesh","latitude":32.2396,"longitude":77.1887,"temp":23.7,"humidity":23,"rain":0.0,"pressure":826.0,"uv_index":7.2,"wind_gusts":46.4,"aqi":68,"pm10":18.2,"pm2_5":8.9,"mosquito_risk":0,"arthritis_risk":5,"migraine_risk":7,"frizz_risk":0,"updated_at":"2026-03-07T14:06:00.167204+05:30"},{"city":"Gurgaon","state":"Haryana","latitude":28.4595,"longitude":77.0266,"temp":32.8,"humidity":38,"rain":0.0,"pressure":985.1,"uv_index":6.05,"wind_gusts":11.5,"aqi":225,"pm10":573.7,"pm2_5":79.2,"mosquito_risk":0,"arthritis_risk":5,"migraine_risk":7,"frizz_risk":1,"updated_at":"2026-03-07T14:06:00.167209+05:30"},{"city":"Noida","state":"Uttar Pradesh","latitude":28.5355,"longitude":77.391,"temp":32.8,"humidity":41,"rain":0.0,"pressure":988.1,"uv_index":5.95,"wind_gusts":17.6,"aqi":225,"pm10":573.7,"pm2_5":79.2,"mosquito_risk":0,"arthritis_risk":5,"migraine_risk":3,"frizz_risk":1,"updated_at":"2026-03-07T14:06:00.167215+05:30"},{"city":"Ghaziabad","state":"Uttar Pradesh","latitude":28.6692,"longitude":77.4538,"temp":31.6,"humidity":48,"rain":0.0,"pressure":986.4,"uv_index":5.95,"wind_gusts":16.9,"aqi":169,"pm10":210.0,"pm2_5":68.0,"mosquito_risk":0,"arthritis_risk":5,"migraine_risk":3,"frizz_risk":1,"updated_at":"2026-03-07T14:06:00.167220+05:30"},{"city":"Faridabad","state":"Haryana","latitude":28.4089,"longitude":77.3178,"temp":32.2,"humidity":44,"rain":0.0,"pressure":987.4,"uv_index":6.0,"wind_gusts":13.3,"aqi":225,"pm10":573.7,"pm2_5":79.2,"mosquito_risk":0,"arthritis_risk":5,"migraine_risk":3,"frizz_risk":1,"updated_at":"2026-03-07T14:06:00.167227+05:30"},{"city":"Meerut","state":"Uttar Pradesh","latitude":28.9845,"longitude":77.7064,"temp":31.8,"humidity":48,"rain":0.0,"pressure":985.1,"uv_index":5.8,"wind_gusts":20.2,"aqi":169,"pm10":210.0,"pm2_5":68.0,"mosquito_risk":0,"arthritis_risk":5,"migraine_risk":3,"frizz_risk":1,"updated_at":"2026-03-07T14:06:00.167233+05:30"},{"city":"Agra","state":"Uttar Pradesh","latitude":27.1767,"longitude":78.0081,"temp":34.3,"humidity":34,"rain":0.0,"pressure":991.1,"uv_index":6.3,"wind_gusts":15.5,"aqi":169,"pm10":272.9,"pm2_5":58.0,"mosquito_risk":0,"arthritis_risk":5,"migraine_risk":7,"frizz_risk":1,"updated_at":"2026-03-07T14:06:00.167238+05:30"},{"city":"Varanasi","state":"Uttar Pradesh","latitude":25.3176,"longitude":82.9739,"temp":32.3,"humidity":45,"rain":0.0,"pressure":1000.4,"uv_index":7.15,"wind_gusts":15.5,"aqi":177,"pm10":88.0,"pm2_5":75.0,"mosquito_risk":0,"arthritis_risk":5,"migraine_risk":4,"frizz_risk":1,"updated_at":"2026-03-07T14:06:00.167245+05:30"},{"city":"Prayagraj","state":"Uttar Pradesh","latitude":25.4358,"longitude":81.8463,"temp":31.0,"humidity":50,"rain":0.0,"pressure":999.2,"uv_index":7.0,"wind_gusts":13.3,"aqi":171,"pm10":85.0,"pm2_5":66.6,"mosquito_risk":0,"arthritis_risk":5,"migraine_risk":7,"frizz_risk":1,"updated_at":"2026-03-07T14:06:00.167251+05:30"},{"city":"Gorakhpur","state":"Uttar Pradesh","latitude":26.7606,"longitude":83.3732,"temp":31.8,"humidity":44,"rain":0.0,"pressure":1000.6,"uv_index":6.85,"wind_gusts":11.2,"aqi":169,"pm10":77.8,"pm2_5":64.7,"mosquito_risk":0,"arthritis_risk":5,"migraine_risk":4,"frizz_risk":1,"updated_at":"2026-03-07T14:06:00.167257+05:30"},{"city":"Bareilly","state":"Uttar Pradesh","latitude":28.367,"longitude":79.4304,"temp":31.0,"humidity":49,"rain":0.0,"pressure":990.4,"uv_index":6.15,"wind_gusts":13.0,"aqi":165,"pm10":126.7,"pm2_5":79.2,"mosquito_risk":0,"arthritis_risk":5,"migraine_risk":7,"frizz_risk":1,"updated_at":"2026-03-07T14:06:00.167262+05:30"},{"city":"Aligarh","state":"Uttar Pradesh","latitude":27.8974,"longitude":78.088,"temp":32.6,"humidity":44,"rain":0.0,"pressure":989.1,"uv_index":6.1,"wind_gusts":16.6,"aqi":179,"pm10":271.9,"pm2_5":67.8,"mosquito_risk":0,"arthritis_risk":5,"migraine_risk":7,"frizz_risk":1,"updated_at":"2026-03-07T14:06:00.167269+05:30"},{"city":"Moradabad","state":"Uttar Pradesh","latitude":28.8386,"longitude":78.7733,"temp":31.1,"humidity":49,"rain":0.0,"pressure":987.2,"uv_index":5.95,"wind_gusts":14.8,"aqi":167,"pm10":125.3,"pm2_5":80.1,"mosquito_risk":0,"arthritis_risk":5,"migraine_risk":3,"frizz_risk":1,"updated_at":"2026-03-07T14:06:00.167274+05:30"},{"city":"Saharanpur","state":"Uttar Pradesh","latitude":29.9637,"longitude":77.546,"temp":30.8,"humidity":53,"rain":0.0,"pressure":979.3,"uv_index":5.6,"wind_gusts":24.5,"aqi":170,"pm10":114.1,"pm2_5":72.2,"mosquito_risk":0,"arthritis_risk":5,"migraine_risk":3,"frizz_risk":1,"updated_at":"2026-03-07T14:06:00.167279+05:30"},{"city":"Jhansi","state":"Uttar Pradesh","latitude":25.4484,"longitude":78.5685,"temp":35.4,"humidity":24,"rain":0.0,"pressure":981.0,"uv_index":6.95,"wind_gusts":26.6,"aqi":98,"pm10":112.2,"pm2_5":38.4,"mosquito_risk":0,"arthritis_risk":5,"migraine_risk":10,"frizz_risk":0,"updated_at":"2026-03-07T14:06:03.480154+05:30"},{"city":"Surat","state":"Gujarat","latitude":21.1702,"longitude":72.8311,"temp":33.6,"humidity":43,"rain":0.0,"pressure":1008.3,"uv_index":7.2,"wind_gusts":24.8,"aqi":152,"pm10":61.9,"pm2_5":61.0,"mosquito_risk":0,"arthritis_risk":0,"migraine_risk":4,"frizz_risk":1,"updated_at":"2026-03-07T14:06:03.480183+05:30"},{"city":"Vadodara","state":"Gujarat","latitude":22.3072,"longitude":73.1812,"temp":36.3,"humidity":27,"rain":0.0,"pressure":1006.3,"uv_index":7.35,"wind_gusts":16.9,"aqi":147,"pm10":27.1,"pm2_5":25.3,"mosquito_risk":0,"arthritis_risk":5,"migraine_risk":7,"frizz_risk":0,"updated_at":"2026-03-07T14:06:03.480193+05:30"},{"city":"Rajkot","state":"Gujarat","latitude":22.3039,"longitude":70.8022,"temp":34.1,"humidity":33,"rain":0.0,"pressure":996.5,"uv_index":7.15,"wind_gusts":17.6,"aqi":67,"pm10":33.8,"pm2_5":17.2,"mosquito_risk":0,"arthritis_risk":5,"migraine_risk":7,"frizz_risk":0,"updated_at":"2026-03-07T14:06:03.480202+05:30"},{"city":"Thane","state":"Maharashtra","latitude":19.2183,"longitude":72.9781,"temp":31.9,"humidity":56,"rain":0.0,"pressure":1008.7,"uv_index":7.5,"wind_gusts":33.5,"aqi":99,"pm10":52.9,"pm2_5":49.8,"mosquito_risk":0,"arthritis_risk":0,"migraine_risk":4,"frizz_risk":1,"updated_at":"2026-03-07T14:06:03.480210+05:30"},{"city":"Nagpur","state":"Maharashtra","latitude":21.1458,"longitude":79.0882,"temp":36.6,"humidity":21,"rain":0.0,"pressure":974.6,"uv_index":7.85,"wind_gusts":21.2,"aqi":68,"pm10":43.3,"pm2_5":19.9,"mosquito_risk":0,"arthritis_risk":5,"migraine_risk":10,"frizz_risk":0,"updated_at":"2026-03-07T14:06:03.480218+05:30"},{"city":"Nashik","state":"Maharashtra","latitude":19.9975,"longitude":73.7898,"temp":35.4,"humidity":18,"rain":0.0,"pressure":947.3,"uv_index":7.65,"wind_gusts":22.3,"aqi":101,"pm10":20.0,"pm2_5":18.6,"mosquito_risk":0,"arthritis_risk":5,"migraine_risk":10,"frizz_risk":0,"updated_at":"2026-03-07T14:06:03.480225+05:30"},{"city":"Aurangabad","state":"Maharashtra","latitude":19.8762,"longitude":75.3433,"temp":35.9,"humidity":19,"rain":0.0,"pressure":945.8,"uv_index":8.2,"wind_gusts":22.7,"aqi":76,"pm10":17.9,"pm2_5":16.3,"mosquito_risk":0,"arthritis_risk":5,"migraine_risk":10,"frizz_risk":0,"updated_at":"2026-03-07T14:06:03.480233+05:30"},{"city":"Solapur","state":"Maharashtra","latitude":17.6599,"longitude":75.9064,"temp":36.7,"humidity":18,"rain":0.0,"pressure":957.8,"uv_index":8.4,"wind_gusts":22.7,"aqi":71,"pm10":18.8,"pm2_5":13.2,"mosquito_risk":0,"arthritis_risk":5,"migraine_risk":10,"frizz_risk":0,"updated_at":"2026-03-07T14:06:03.480240+05:30"},{"city":"Kolhapur","state":"Maharashtra","latitude":16.705,"longitude":74.2433,"temp":35.3,"humidity":21,"rain":0.0,"pressure":948.5,"uv_index":8.55,"wind_gusts":28.8,"aqi":151,"pm10":20.5,"pm2_5":17.3,"mosquito_risk":0,"arthritis_risk":5,"migraine_risk":10,"frizz_risk":0,"updated_at":"2026-03-07T14:06:03.480247+05:30"},{"city":"Goa","state":"Goa","latitude":15.2993,"longitude":74.124,"temp":31.5,"humidity":61,"rain":0.0,"pressure":998.0,"uv_index":8.6,"wind_gusts":31.3,"aqi":154,"pm10":51.8,"pm2_5":48.2,"mosquito_risk":3,"arthritis_risk":5,"migraine_risk":7,"frizz_risk":1,"updated_at":"2026-03-07T14:06:03.480254+05:30"},{"city":"Jodhpur","state":"Rajasthan","latitude":26.2389,"longitude":73.0243,"temp":34.8,"humidity":24,"rain":0.0,"pressure":986.3,"uv_index":7.0,"wind_gusts":20.2,"aqi":66,"pm10":36.9,"pm2_5":11.1,"mosquito_risk":0,"arthritis_risk":5,"migraine_risk":7,"frizz_risk":0,"updated_at":"2026-03-07T14:06:03.480261+05:30"},{"city":"Udaipur","state":"Rajasthan","latitude":24.5854,"longitude":73.7125,"temp":34.9,"humidity":22,"rain":0.0,"pressure":950.1,"uv_index":7.65,"wind_gusts":20.2,"aqi":51,"pm10":11.7,"pm2_5":10.0,"mosquito_risk":0,"arthritis_risk":5,"migraine_risk":7,"frizz_risk":0,"updated_at":"2026-03-07T14:06:03.480268+05:30"},{"city":"Kota","state":"Rajasthan","latitude":25.2138,"longitude":75.8648,"temp":36.2,"humidity":21,"rain":0.0,"pressure":981.8,"uv_index":7.05,"wind_gusts":14.4,"aqi":81,"pm10":36.9,"pm2_5":26.1,"mosquito_risk":0,"arthritis_risk":5,"migraine_risk":10,"frizz_risk":0,"updated_at":"2026-03-07T14:06:03.480275+05:30"},{"city":"Bikaner","state":"Rajasthan","latitude":28.0229,"longitude":73.3119,"temp":35.1,"humidity":23,"rain":0.0,"pressure":984.8,"uv_index":6.75,"wind_gusts":20.5,"aqi":51,"pm10":89.4,"pm2_5":21.4,"mosquito_risk":0,"arthritis_risk":5,"migraine_risk":10,"frizz_risk":0,"updated_at":"2026-03-07T14:06:03.480281+05:30"},{"city":"Ajmer","state":"Rajasthan","latitude":26.4499,"longitude":74.6399,"temp":34.6,"humidity":22,"rain":0.0,"pressure":958.3,"uv_index":7.0,"wind_gusts":18.0,"aqi":63,"pm10":18.3,"pm2_5":12.4,"mosquito_risk":0,"arthritis_risk":5,"migraine_risk":7,"frizz_risk":0,"updated_at":"2026-03-07T14:06:03.480289+05:30"},{"city":"Gwalior","state":"Madhya Pradesh","latitude":26.2183,"longitude":78.1828,"temp":33.4,"humidity":36,"rain":0.0,"pressure":986.6,"uv_index":6.65,"wind_gusts":20.9,"aqi":114,"pm10":117.6,"pm2_5":32.0,"mosquito_risk":0,"arthritis_risk":5,"migraine_risk":7,"frizz_risk":1,"updated_at":"2026-03-07T14:06:03.480296+05:30"},{"city":"Indore","state":"Madhya Pradesh","latitude":22.7196,"longitude":75.8577,"temp":35.0,"humidity":21,"rain":0.0,"pressure":950.9,"uv_index":7.6,"wind_gusts":16.2,"aqi":84,"pm10":22.2,"pm2_5":17.8,"mosquito_risk":0,"arthritis_risk":5,"migraine_risk":7,"frizz_risk":0,"updated_at":"2026-03-07T14:06:03.480303+05:30"},{"city":"Bhopal","state":"Madhya Pradesh","latitude":23.2599,"longitude":77.4126,"temp":35.1,"humidity":23,"rain":0.0,"pressure":956.6,"uv_index":7.5,"wind_gusts":18.7,"aqi":71,"pm10":38.9,"pm2_5":15.0,"mosquito_risk":0,"arthritis_risk":5,"migraine_risk":10,"frizz_risk":0,"updated_at":"2026-03-07T14:06:03.480310+05:30"},{"city":"Jabalpur","state":"Madhya Pradesh","latitude":23.1815,"longitude":79.9864,"temp":33.2,"humidity":36,"rain":0.0,"pressure":964.0,"uv_index":7.55,"wind_gusts":25.6,"aqi":84,"pm10":76.8,"pm2_5":30.5,"mosquito_risk":0,"arthritis_risk":5,"migraine_risk":7,"frizz_risk":1,"updated_at":"2026-03-07T14:06:03.480317+05:30"},{"city":"Ujjain","state":"Madhya Pradesh","latitude":23.1765,"longitude":75.7885,"temp":34.4,"humidity":23,"rain":0.0,"pressure":956.7,"uv_index":7.5,"wind_gusts":13.7,"aqi":92,"pm10":20.4,"pm2_5":17.9,"mosquito_risk":0,"arthritis_risk":5,"migraine_risk":7,"frizz_risk":0,"updated_at":"2026-03-07T14:06:03.480325+05:30"},{"city":"Visakhapatnam","state":"Andhra Pradesh","latitude":17.6868,"longitude":83.2185,"temp":31.1,"humidity":59,"rain":0.0,"pressure":1005.0,"uv_index":8.45,"wind_gusts":36.7,"aqi":136,"pm10":51.3,"pm2_5":43.0,"mosquito_risk":0,"arthritis_risk":5,"migraine_risk":4,"frizz_risk":1,"updated_at":"2026-03-07T14:06:03.480331+05:30"},{"city":"Vijayawada","state":"Andhra Pradesh","latitude":16.5062,"longitude":80.648,"temp":34.5,"humidity":47,"rain":0.0,"pressure":1002.8,"uv_index":8.6,"wind_gusts":27.0,"aqi":136,"pm10":48.3,"pm2_5":39.7,"mosquito_risk":0,"arthritis_risk":5,"migraine_risk":4,"frizz_risk":1,"updated_at":"2026-03-07T14:06:03.480338+05:30"},{"city":"Guntur","state":"Andhra Pradesh","latitude":16.3067,"longitude":80.4365,"temp":34.5,"humidity":45,"rain":0.0,"pressure":1004.0,"uv_index":8.6,"wind_gusts":30.6,"aqi":134,"pm10":48.9,"pm2_5":39.6,"mosquito_risk":0,"arthritis_risk":5,"migraine_risk":4,"frizz_risk":1,"updated_at":"2026-03-07T14:06:03.480344+05:30"},{"city":"Nellore","state":"Andhra Pradesh","latitude":14.4426,"longitude":79.9865,"temp":36.1,"humidity":39,"rain":0.0,"pressure":1005.9,"uv_index":8.75,"wind_gusts":34.9,"aqi":107,"pm10":50.5,"pm2_5":43.3,"mosquito_risk":0,"arthritis_risk":5,"migraine_risk":7,"frizz_risk":1,"updated_at":"2026-03-07T14:06:03.480352+05:30"},{"city":"Kurnool","state":"Andhra Pradesh","latitude":15.8281,"longitude":78.0373,"temp":38.7,"humidity":14,"rain":0.0,"pressure":976.8,"uv_index":8.6,"wind_gusts":27.0,"aqi":73,"pm10":35.6,"pm2_5":21.9,"mosquito_risk":0,"arthritis_risk":5,"migraine_risk":10,"frizz_risk":0,"updated_at":"2026-03-07T14:06:03.480359+05:30"},{"city":"Kakinada","state":"Andhra Pradesh","latitude":16.9891,"longitude":82.2475,"temp":32.4,"humidity":54,"rain":0.0,"pressure":1008.5,"uv_index":8.5,"wind_gusts":33.1,"aqi":103,"pm10":41.3,"pm2_5":32.6,"mosquito_risk":0,"arthritis_risk":0,"migraine_risk":4,"frizz_risk":1,"updated_at":"2026-03-07T14:06:03.480366+05:30"},{"city":"Tirupati","state":"Andhra Pradesh","latitude":13.6288,"longitude":79.4192,"temp":36.3,"humidity":25,"rain":0.0,"pressure":991.1,"uv_index":8.9,"wind_gusts":31.7,"aqi":144,"pm10":49.2,"pm2_5":42.4,"mosquito_risk":0,"arthritis_risk":5,"migraine_risk":10,"frizz_risk":0,"updated_at":"2026-03-07T14:06:03.480373+05:30"},{"city":"Warangal","state":"Telangana","latitude":17.9689,"longitude":79.5941,"temp":36.7,"humidity":23,"rain":0.0,"pressure":979.1,"uv_index":8.35,"wind_gusts":19.1,"aqi":86,"pm10":31.1,"pm2_5":21.3,"mosquito_risk":0,"arthritis_risk":5,"migraine_risk":10,"frizz_risk":0,"updated_at":"2026-03-07T14:06:03.480380+05:30"},{"city":"Nizamabad","state":"Telangana","latitude":18.6725,"longitude":78.0941,"temp":36.6,"humidity":19,"rain":0.0,"pressure":965.9,"uv_index":8.2,"wind_gusts":25.2,"aqi":104,"pm10":28.6,"pm2_5":16.8,"mosquito_risk":0,"arthritis_risk":5,"migraine_risk":10,"frizz_risk":0,"updated_at":"2026-03-07T14:06:03.480386+05:30"},{"city":"Mysore","state":"Karnataka","latitude":12.2958,"longitude":76.6396,"temp":32.9,"humidity":31,"rain":0.0,"pressure":929.1,"uv_index":9.2,"wind_gusts":38.2,"aqi":120,"pm10":34.8,"pm2_5":32.0,"mosquito_risk":0,"arthritis_risk":5,"migraine_risk":7,"frizz_risk":0,"updated_at":"2026-03-07T14:06:03.480393+05:30"},{"city":"Mangalore","state":"Karnataka","latitude":12.9141,"longitude":74.856,"temp":28.8,"humidity":77,"rain":0.0,"pressure":1006.5,"uv_index":8.8,"wind_gusts":25.6,"aqi":153,"pm10":58.0,"pm2_5":54.1,"mosquito_risk":7,"arthritis_risk":5,"migraine_risk":4,"frizz_risk":1,"updated_at":"2026-03-07T14:06:03.480400+05:30"},{"city":"Hubli-Dharwad","state":"Karnataka","latitude":15.3647,"longitude":75.124,"temp":36.0,"humidity":17,"rain":0.0,"pressure":941.3,"uv_index":8.8,"wind_gusts":25.2,"aqi":124,"pm10":27.6,"pm2_5":25.1,"mosquito_risk":0,"arthritis_risk":5,"migraine_risk":10,"frizz_risk":0,"updated_at":"2026-03-07T14:06:03.480408+05:30"},{"city":"Belgaum","state":"Karnataka","latitude":15.8497,"longitude":74.4977,"temp":34.7,"humidity":19,"rain":0.0,"pressure":926.7,"uv_index":8.8,"wind_gusts":41.4,"aqi":111,"pm10":18.9,"pm2_5":16.0,"mosquito_risk":0,"arthritis_risk":5,"migraine_risk":7,"frizz_risk":0,"updated_at":"2026-03-07T14:06:06.791747+05:30"},{"city":"Coimbatore","state":"Tamil Nadu","latitude":11.0168,"longitude":76.9558,"temp":33.6,"humidity":37,"rain":0.0,"pressure":962.0,"uv_index":9.2,"wind_gusts":38.2,"aqi":101,"pm10":33.8,"pm2_5":31.0,"mosquito_risk":0,"arthritis_risk":5,"migraine_risk":7,"frizz_risk":1,"updated_at":"2026-03-07T14:06:06.791775+05:30"},{"city":"Madurai","state":"Tamil Nadu","latitude":9.9252,"longitude":78.1198,"temp":35.6,"humidity":31,"rain":0.0,"pressure":992.9,"uv_index":9.15,"wind_gusts":27.7,"aqi":94,"pm10":36.9,"pm2_5":31.3,"mosquito_risk":0,"arthritis_risk":5,"migraine_risk":10,"frizz_risk":0,"updated_at":"2026-03-07T14:06:06.791785+05:30"},{"city":"Trichy","state":"Tamil Nadu","latitude":10.7905,"longitude":78.7047,"temp":36.4,"humidity":30,"rain":0.0,"pressure":999.4,"uv_index":9.05,"wind_gusts":25.9,"aqi":92,"pm10":37.8,"pm2_5":32.1,"mosquito_risk":0,"arthritis_risk":5,"migraine_risk":10,"frizz_risk":0,"updated_at":"2026-03-07T14:06:06.791793+05:30"},{"city":"Salem","state":"Tamil Nadu","latitude":11.6643,"longitude":78.146,"temp":35.5,"humidity":33,"rain":0.0,"pressure":976.9,"uv_index":9.1,"wind_gusts":19.8,"aqi":105,"pm10":38.9,"pm2_5":34.5,"mosquito_risk":0,"arthritis_risk":5,"migraine_risk":10,"frizz_risk":1,"updated_at":"2026-03-07T14:06:06.791800+05:30"},{"city":"Tirunelveli","state":"Tamil Nadu","latitude":8.7139,"longitude":77.7567,"temp":38.2,"humidity":22,"rain":0.0,"pressure":1002.5,"uv_index":9.15,"wind_gusts":49.3,"aqi":97,"pm10":33.3,"pm2_5":28.1,"mosquito_risk":0,"arthritis_risk":5,"migraine_risk":7,"frizz_risk":0,"updated_at":"2026-03-07T14:06:06.791808+05:30"},{"city":"Vellore","state":"Tamil Nadu","latitude":12.9165,"longitude":79.1325,"temp":36.3,"humidity":23,"rain":0.0,"pressure":984.4,"uv_index":9.0,"wind_gusts":33.5,"aqi":150,"pm10":44.6,"pm2_5":37.3,"mosquito_risk":0,"arthritis_risk":5,"migraine_risk":10,"frizz_risk":0,"updated_at":"2026-03-07T14:06:06.791815+05:30"},{"city":"Erode","state":"Tamil Nadu","latitude":11.341,"longitude":77.7172,"temp":36.4,"humidity":32,"rain":0.0,"pressure":988.4,"uv_index":9.1,"wind_gusts":20.2,"aqi":113,"pm10":36.8,"pm2_5":33.3,"mosquito_risk":0,"arthritis_risk":5,"migraine_risk":10,"frizz_risk":1,"updated_at":"2026-03-07T14:06:06.791822+05:30"},{"city":"Kochi","state":"Kerala","latitude":9.9312,"longitude":76.2673,"temp":27.8,"humidity":82,"rain":0.0,"pressure":1008.9,"uv_index":8.6,"wind_gusts":26.6,"aqi":124,"pm10":27.4,"pm2_5":25.8,"mosquito_risk":7,"arthritis_risk":0,"migraine_risk":4,"frizz_risk":1,"updated_at":"2026-03-07T14:06:06.791830+05:30"},{"city":"Thiruvananthapuram","state":"Kerala","latitude":8.5241,"longitude":76.9366,"temp":27.9,"humidity":79,"rain":0.0,"pressure":1008.1,"uv_index":9.0,"wind_gusts":33.1,"aqi":99,"pm10":32.0,"pm2_5":29.5,"mosquito_risk":7,"arthritis_risk":0,"migraine_risk":4,"frizz_risk":1,"updated_at":"2026-03-07T14:06:06.791837+05:30"},{"city":"Kozhikode","state":"Kerala","latitude":11.2588,"longitude":75.7804,"temp":29.1,"humidity":76,"rain":0.0,"pressure":1008.1,"uv_index":8.9,"wind_gusts":27.0,"aqi":128,"pm10":24.8,"pm2_5":23.3,"mosquito_risk":7,"arthritis_risk":0,"migraine_risk":4,"frizz_risk":1,"updated_at":"2026-03-07T14:06:06.791844+05:30"},{"city":"Thrissur","state":"Kerala","latitude":10.5276,"longitude":76.2144,"temp":31.7,"humidity":64,"rain":0.0,"pressure":1007.2,"uv_index":8.95,"wind_gusts":32.8,"aqi":120,"pm10":28.2,"pm2_5":26.7,"mosquito_risk":3,"arthritis_risk":5,"migraine_risk":4,"frizz_risk":1,"updated_at":"2026-03-07T14:06:06.791852+05:30"},{"city":"Kannur","state":"Kerala","latitude":11.8745,"longitude":75.3704,"temp":30.4,"humidity":68,"rain":0.0,"pressure":1007.3,"uv_index":8.9,"wind_gusts":30.6,"aqi":150,"pm10":47.4,"pm2_5":44.1,"mosquito_risk":3,"arthritis_risk":5,"migraine_risk":4,"frizz_risk":1,"updated_at":"2026-03-07T14:06:06.791858+05:30"},{"city":"Patna","state":"Bihar","latitude":25.5941,"longitude":85.1376,"temp":32.4,"humidity":41,"rain":0.0,"pressure":1003.4,"uv_index":7.3,"wind_gusts":20.2,"aqi":160,"pm10":84.1,"pm2_5":68.7,"mosquito_risk":0,"arthritis_risk":5,"migraine_risk":4,"frizz_risk":1,"updated_at":"2026-03-07T14:06:06.791865+05:30"},{"city":"Gaya","state":"Bihar","latitude":24.7914,"longitude":85.0002,"temp":30.6,"humidity":58,"rain":0.0,"pressure":996.2,"uv_index":7.4,"wind_gusts":23.4,"aqi":153,"pm10":88.5,"pm2_5":67.5,"mosquito_risk":0,"arthritis_risk":5,"migraine_risk":7,"frizz_risk":1,"updated_at":"2026-03-07T14:06:06.791872+05:30"},{"city":"Muzaffarpur","state":"Bihar","latitude":26.1209,"longitude":85.3647,"temp":32.8,"humidity":37,"rain":0.0,"pressure":1003.4,"uv_index":7.25,"wind_gusts":17.6,"aqi":169,"pm10":82.4,"pm2_5":69.2,"mosquito_risk":0,"arthritis_risk":5,"migraine_risk":4,"frizz_risk":1,"updated_at":"2026-03-07T14:06:06.791879+05:30"},{"city":"Bhagalpur","state":"Bihar","latitude":25.2425,"longitude":87.0117,"temp":31.3,"humidity":46,"rain":0.0,"pressure":1004.4,"uv_index":7.3,"wind_gusts":14.4,"aqi":163,"pm10":82.2,"pm2_5":65.7,"mosquito_risk":0,"arthritis_risk":5,"migraine_risk":4,"frizz_risk":1,"updated_at":"2026-03-07T14:06:06.791885+05:30"},{"city":"Ranchi","state":"Jharkhand","latitude":23.3441,"longitude":85.3096,"temp":30.7,"humidity":32,"rain":0.0,"pressure":940.0,"uv_index":8.05,"wind_gusts":23.8,"aqi":152,"pm10":95.7,"pm2_5":60.3,"mosquito_risk":0,"arthritis_risk":5,"migraine_risk":7,"frizz_risk":0,"updated_at":"2026-03-07T14:06:06.791892+05:30"},{"city":"Jamshedpur","state":"Jharkhand","latitude":22.8046,"longitude":86.2029,"temp":33.9,"humidity":34,"rain":0.0,"pressure":992.4,"uv_index":7.95,"wind_gusts":22.7,"aqi":141,"pm10":97.8,"pm2_5":63.1,"mosquito_risk":0,"arthritis_risk":5,"migraine_risk":7,"frizz_risk":0,"updated_at":"2026-03-07T14:06:06.791914+05:30"},{"city":"Dhanbad","state":"Jharkhand","latitude":23.7957,"longitude":86.4304,"temp":33.9,"humidity":30,"rain":0.0,"pressure":981.9,"uv_index":7.8,"wind_gusts":24.8,"aqi":164,"pm10":98.7,"pm2_5":72.4,"mosquito_risk":0,"arthritis_risk":5,"migraine_risk":7,"frizz_risk":0,"updated_at":"2026-03-07T14:06:06.791922+05:30"},{"city":"Bokaro","state":"Jharkhand","latitude":23.6693,"longitude":86.1511,"temp":32.6,"humidity":34,"rain":0.0,"pressure":985.9,"uv_index":7.8,"wind_gusts":16.9,"aqi":166,"pm10":104.8,"pm2_5":73.3,"mosquito_risk":0,"arthritis_risk":5,"migraine_risk":7,"frizz_risk":0,"updated_at":"2026-03-07T14:06:06.791929+05:30"},{"city":"Bhubaneswar","state":"Odisha","latitude":20.2961,"longitude":85.8245,"temp":32.5,"humidity":49,"rain":0.0,"pressure":1004.0,"uv_index":8.25,"wind_gusts":31.0,"aqi":150,"pm10":62.2,"pm2_5":50.4,"mosquito_risk":0,"arthritis_risk":5,"migraine_risk":4,"frizz_risk":1,"updated_at":"2026-03-07T14:06:06.791936+05:30"},{"city":"Cuttack","state":"Odisha","latitude":20.4625,"longitude":85.8828,"temp":34.3,"humidity":42,"rain":0.0,"pressure":1005.5,"uv_index":8.25,"wind_gusts":29.9,"aqi":150,"pm10":62.2,"pm2_5":50.4,"mosquito_risk":0,"arthritis_risk":5,"migraine_risk":4,"frizz_risk":1,"updated_at":"2026-03-07T14:06:06.791943+05:30"},{"city":"Rourkela","state":"Odisha","latitude":22.2604,"longitude":84.8536,"temp":34.8,"humidity":32,"rain":0.0,"pressure":986.1,"uv_index":7.85,"wind_gusts":19.8,"aqi":159,"pm10":109.0,"pm2_5":69.8,"mosquito_risk":0,"arthritis_risk":5,"migraine_risk":7,"frizz_risk":0,"updated_at":"2026-03-07T14:06:06.791950+05:30"},{"city":"Raipur","state":"Chhattisgarh","latitude":21.2514,"longitude":81.6296,"temp":35.6,"humidity":23,"rain":0.0,"pressure":975.9,"uv_index":7.95,"wind_gusts":20.9,"aqi":143,"pm10":90.1,"pm2_5":38.1,"mosquito_risk":0,"arthritis_risk":5,"migraine_risk":10,"frizz_risk":0,"updated_at":"2026-03-07T14:06:06.791957+05:30"},{"city":"Bhilai","state":"Chhattisgarh","latitude":21.1938,"longitude":81.3509,"temp":36.2,"humidity":24,"rain":0.0,"pressure":976.3,"uv_index":7.95,"wind_gusts":18.4,"aqi":119,"pm10":84.3,"pm2_5":36.2,"mosquito_risk":0,"arthritis_risk":5,"migraine_risk":10,"frizz_risk":0,"updated_at":"2026-03-07T14:06:06.791964+05:30"},{"city":"Guwahati","state":"Assam","latitude":26.1158,"longitude":91.7086,"temp":31.5,"humidity":46,"rain":0.0,"pressure":1003.5,"uv_index":7.3,"wind_gusts":21.6,"aqi":146,"pm10":63.6,"pm2_5":54.2,"mosquito_risk":0,"arthritis_risk":5,"migraine_risk":4,"frizz_risk":1,"updated_at":"2026-03-07T14:06:06.791972+05:30"},{"city":"Agartala","state":"Tripura","latitude":23.8315,"longitude":91.2868,"temp":32.6,"humidity":40,"rain":0.0,"pressure":1008.1,"uv_index":7.6,"wind_gusts":18.7,"aqi":152,"pm10":61.9,"pm2_5":45.9,"mosquito_risk":0,"arthritis_risk":0,"migraine_risk":4,"frizz_risk":1,"updated_at":"2026-03-07T14:06:06.791979+05:30"},{"city":"Shillong","state":"Meghalaya","latitude":25.5788,"longitude":91.8933,"temp":20.5,"humidity":39,"rain":0.0,"pressure":859.8,"uv_index":7.45,"wind_gusts":42.1,"aqi":99,"pm10":51.1,"pm2_5":42.7,"mosquito_risk":0,"arthritis_risk":5,"migraine_risk":7,"frizz_risk":0,"updated_at":"2026-03-07T14:06:06.791985+05:30"},{"city":"Imphal","state":"Manipur","latitude":24.817,"longitude":93.9368,"temp":25.8,"humidity":43,"rain":0.0,"pressure":925.8,"uv_index":7.85,"wind_gusts":40.7,"aqi":157,"pm10":54.7,"pm2_5":48.2,"mosquito_risk":4,"arthritis_risk":5,"migraine_risk":7,"frizz_risk":0,"updated_at":"2026-03-07T14:06:06.791993+05:30"},{"city":"Aizawl","state":"Mizoram","latitude":23.7271,"longitude":92.7176,"temp":27.4,"humidity":35,"rain":0.0,"pressure":895.9,"uv_index":7.8,"wind_gusts":31.0,"aqi":174,"pm10":87.1,"pm2_5":79.2,"mosquito_risk":4,"arthritis_risk":5,"migraine_risk":7,"frizz_risk":0,"updated_at":"2026-03-07T14:06:06.792000+05:30"},{"city":"Kohima","state":"Nagaland","latitude":25.6701,"longitude":94.1077,"temp":19.8,"humidity":70,"rain":0.0,"pressure":858.0,"uv_index":7.7,"wind_gusts":56.5,"aqi":159,"pm10":55.3,"pm2_5":47.6,"mosquito_risk":3,"arthritis_risk":5,"migraine_risk":7,"frizz_risk":0,"updated_at":"2026-03-07T14:06:06.792007+05:30"},{"city":"Gangtok","state":"Sikkim","latitude":27.3314,"longitude":88.6138,"temp":16.2,"humidity":80,"rain":0.0,"pressure":840.7,"uv_index":7.25,"wind_gusts":15.1,"aqi":155,"pm10":60.8,"pm2_5":53.2,"mosquito_risk":3,"arthritis_risk":5,"migraine_risk":7,"frizz_risk":0,"updated_at":"2026-03-07T14:06:06.792013+05:30"},{"city":"Siliguri","state":"West Bengal","latitude":26.7271,"longitude":88.3953,"temp":23.5,"humidity":72,"rain":0.0,"pressure":997.9,"uv_index":7.25,"wind_gusts":14.8,"aqi":153,"pm10":64.3,"pm2_5":52.2,"mosquito_risk":3,"arthritis_risk":5,"migraine_risk":7,"frizz_risk":1,"updated_at":"2026-03-07T14:06:10.110174+05:30"},{"city":"Durgapur","state":"West Bengal","latitude":23.5204,"longitude":87.3119,"temp":32.7,"humidity":37,"rain":0.0,"pressure":997.1,"uv_index":7.8,"wind_gusts":23.0,"aqi":158,"pm10":91.5,"pm2_5":71.9,"mosquito_risk":0,"arthritis_risk":5,"migraine_risk":7,"frizz_risk":1,"updated_at":"2026-03-07T14:06:10.110203+05:30"},{"city":"Asansol","state":"West Bengal","latitude":23.6739,"longitude":86.9524,"temp":31.8,"humidity":38,"rain":0.0,"pressure":995.8,"uv_index":7.8,"wind_gusts":19.1,"aqi":158,"pm10":92.4,"pm2_5":71.5,"mosquito_risk":0,"arthritis_risk":5,"migraine_risk":7,"frizz_risk":0,"updated_at":"2026-03-07T14:06:10.110212+05:30"},{"city":"Pondicherry","state":"Puducherry","latitude":11.9139,"longitude":79.8145,"temp":35.5,"humidity":41,"rain":0.0,"pressure":1008.3,"uv_index":8.9,"wind_gusts":31.3,"aqi":88,"pm10":36.6,"pm2_5":29.5,"mosquito_risk":0,"arthritis_risk":0,"migraine_risk":7,"frizz_risk":1,"updated_at":"2026-03-07T14:06:10.110220+05:30"},{"city":"Port Blair","state":"Andaman and Nicobar Islands","latitude":11.6234,"longitude":92.7265,"temp":28.6,"humidity":63,"rain":0.0,"pressure":1008.1,"uv_index":8.85,"wind_gusts":16.2,"aqi":92,"pm10":56.6,"pm2_5":37.1,"mosquito_risk":7,"arthritis_risk":0,"migraine_risk":4,"frizz_risk":1,"updated_at":"2026-03-07T14:06:10.110228+05:30"},{"city":"Haridwar","state":"Uttarakhand","latitude":29.9457,"longitude":78.1642,"temp":30.7,"humidity":53,"rain":0.0,"pressure":977.9,"uv_index":5.75,"wind_gusts":23.8,"aqi":162,"pm10":109.2,"pm2_5":72.6,"mosquito_risk":0,"arthritis_risk":5,"migraine_risk":3,"frizz_risk":1,"updated_at":"2026-03-07T14:06:10.110236+05:30"},{"city":"Rishikesh","state":"Uttarakhand","latitude":30.0869,"longitude":78.2676,"temp":30.4,"humidity":51,"rain":0.0,"pressure":970.7,"uv_index":5.8,"wind_gusts":24.5,"aqi":160,"pm10":106.6,"pm2_5":70.3,"mosquito_risk":0,"arthritis_risk":5,"migraine_risk":3,"frizz_risk":1,"updated_at":"2026-03-07T14:06:10.110243+05:30"},{"city":"Nainital","state":"Uttarakhand","latitude":29.3919,"longitude":79.4542,"temp":22.5,"humidity":60,"rain":0.0,"pressure":810.9,"uv_index":6.6,"wind_gusts":54.7,"aqi":158,"pm10":95.7,"pm2_5":63.1,"mosquito_risk":0,"arthritis_risk":5,"migraine_risk":7,"frizz_risk":0,"updated_at":"2026-03-07T14:06:10.110251+05:30"},{"city":"Mussoorie","state":"Uttarakhand","latitude":30.4599,"longitude":78.0664,"temp":22.0,"humidity":63,"rain":0.0,"pressure":807.9,"uv_index":6.1,"wind_gusts":40.7,"aqi":160,"pm10":105.2,"pm2_5":67.1,"mosquito_risk":3,"arthritis_risk":5,"migraine_risk":7,"frizz_risk":0,"updated_at":"2026-03-07T14:06:10.110257+05:30"},{"city":"Dharamshala","state":"Himachal Pradesh","latitude":32.219,"longitude":76.3234,"temp":26.1,"humidity":59,"rain":0.0,"pressure":874.2,"uv_index":6.1,"wind_gusts":20.9,"aqi":53,"pm10":23.0,"pm2_5":9.7,"mosquito_risk":4,"arthritis_risk":5,"migraine_risk":7,"frizz_risk":1,"updated_at":"2026-03-07T14:06:10.110265+05:30"},{"city":"Dalhousie","state":"Himachal Pradesh","latitude":32.5387,"longitude":75.971,"temp":23.4,"humidity":47,"rain":0.0,"pressure":809.4,"uv_index":6.55,"wind_gusts":16.2,"aqi":101,"pm10":36.0,"pm2_5":22.1,"mosquito_risk":0,"arthritis_risk":5,"migraine_risk":7,"frizz_risk":0,"updated_at":"2026-03-07T14:06:10.110273+05:30"},{"city":"Patiala","state":"Punjab","latitude":30.3398,"longitude":76.3869,"temp":31.7,"humidity":46,"rain":0.0,"pressure":981.8,"uv_index":5.8,"wind_gusts":16.9,"aqi":171,"pm10":123.9,"pm2_5":69.8,"mosquito_risk":0,"arthritis_risk":5,"migraine_risk":3,"frizz_risk":1,"updated_at":"2026-03-07T14:06:10.110280+05:30"},{"city":"Bhatinda","state":"Punjab","latitude":30.211,"longitude":74.9455,"temp":33.6,"humidity":32,"rain":0.0,"pressure":987.0,"uv_index":6.45,"wind_gusts":20.2,"aqi":133,"pm10":82.7,"pm2_5":34.2,"mosquito_risk":0,"arthritis_risk":5,"migraine_risk":7,"frizz_risk":0,"updated_at":"2026-03-07T14:06:10.110286+05:30"},{"city":"Rohtak","state":"Haryana","latitude":28.8955,"longitude":76.6066,"temp":32.7,"humidity":37,"rain":0.0,"pressure":985.4,"uv_index":5.95,"wind_gusts":13.3,"aqi":175,"pm10":211.9,"pm2_5":48.1,"mosquito_risk":0,"arthritis_risk":5,"migraine_risk":3,"frizz_risk":1,"updated_at":"2026-03-07T14:06:10.110293+05:30"},{"city":"Panipat","state":"Haryana","latitude":29.3909,"longitude":76.9635,"temp":32.2,"humidity":44,"rain":0.0,"pressure":984.0,"uv_index":5.75,"wind_gusts":18.0,"aqi":209,"pm10":237.0,"pm2_5":59.8,"mosquito_risk":0,"arthritis_risk":5,"migraine_risk":3,"frizz_risk":1,"updated_at":"2026-03-07T14:06:10.110301+05:30"},{"city":"Mathura","state":"Uttar Pradesh","latitude":27.4924,"longitude":77.6737,"temp":34.1,"humidity":33,"rain":0.0,"pressure":990.2,"uv_index":6.2,"wind_gusts":15.8,"aqi":168,"pm10":297.1,"pm2_5":57.3,"mosquito_risk":0,"arthritis_risk":5,"migraine_risk":7,"frizz_risk":0,"updated_at":"2026-03-07T14:06:10.110307+05:30"},{"city":"Vrindavan","state":"Uttar Pradesh","latitude":27.5823,"longitude":77.7027,"temp":33.4,"humidity":38,"rain":0.0,"pressure":990.7,"uv_index":6.2,"wind_gusts":15.5,"aqi":168,"pm10":297.1,"pm2_5":57.3,"mosquito_risk":0,"arthritis_risk":5,"migraine_risk":7,"frizz_risk":1,"updated_at":"2026-03-07T14:06:10.110313+05:30"},{"city":"Ayodhya","state":"Uttar Pradesh","latitude":26.7922,"longitude":82.1998,"temp":31.6,"humidity":46,"rain":0.0,"pressure":998.9,"uv_index":6.65,"wind_gusts":18.7,"aqi":172,"pm10":83.1,"pm2_5":64.7,"mosquito_risk":0,"arthritis_risk":5,"migraine_risk":7,"frizz_risk":1,"updated_at":"2026-03-07T14:06:10.110320+05:30"},{"city":"Ratlam","state":"Madhya Pradesh","latitude":23.3315,"longitude":75.0367,"temp":34.1,"humidity":25,"rain":0.0,"pressure":957.5,"uv_index":7.45,"wind_gusts":10.8,"aqi":77,"pm10":16.8,"pm2_5":15.1,"mosquito_risk":0,"arthritis_risk":5,"migraine_risk":7,"frizz_risk":0,"updated_at":"2026-03-07T14:06:10.110327+05:30"},{"city":"Sagar","state":"Madhya Pradesh","latitude":23.8388,"longitude":78.7378,"temp":34.4,"humidity":26,"rain":0.0,"pressure":953.1,"uv_index":7.4,"wind_gusts":22.3,"aqi":69,"pm10":52.0,"pm2_5":17.5,"mosquito_risk":0,"arthritis_risk":5,"migraine_risk":7,"frizz_risk":0,"updated_at":"2026-03-07T14:06:10.110333+05:30"},{"city":"Satna","state":"Madhya Pradesh","latitude":24.6005,"longitude":80.8322,"temp":33.9,"humidity":33,"rain":0.0,"pressure":974.0,"uv_index":7.4,"wind_gusts":20.2,"aqi":152,"pm10":98.7,"pm2_5":57.3,"mosquito_risk":0,"arthritis_risk":5,"migraine_risk":7,"frizz_risk":0,"updated_at":"2026-03-07T14:06:10.110340+05:30"},{"city":"Akola","state":"Maharashtra","latitude":20.7002,"longitude":77.0082,"temp":37.6,"humidity":18,"rain":0.0,"pressure":976.5,"uv_index":7.9,"wind_gusts":18.0,"aqi":77,"pm10":30.5,"pm2_5":20.0,"mosquito_risk":0,"arthritis_risk":5,"migraine_risk":10,"frizz_risk":0,"updated_at":"2026-03-07T14:06:10.110347+05:30"},{"city":"Amravati","state":"Maharashtra","latitude":20.9374,"longitude":77.7796,"temp":37.8,"humidity":18,"rain":0.0,"pressure":968.8,"uv_index":7.85,"wind_gusts":15.1,"aqi":81,"pm10":31.9,"pm2_5":18.0,"mosquito_risk":0,"arthritis_risk":5,"migraine_risk":10,"frizz_risk":0,"updated_at":"2026-03-07T14:06:10.110354+05:30"},{"city":"Latur","state":"Maharashtra","latitude":18.4088,"longitude":76.5604,"temp":35.4,"humidity":18,"rain":0.0,"pressure":941.3,"uv_index":8.35,"wind_gusts":28.4,"aqi":78,"pm10":21.6,"pm2_5":16.5,"mosquito_risk":0,"arthritis_risk":5,"migraine_risk":10,"frizz_risk":0,"updated_at":"2026-03-07T14:06:10.110361+05:30"},{"city":"Nanded","state":"Maharashtra","latitude":19.1383,"longitude":77.3091,"temp":38.3,"humidity":18,"rain":0.0,"pressure":969.5,"uv_index":8.1,"wind_gusts":20.5,"aqi":95,"pm10":26.7,"pm2_5":17.3,"mosquito_risk":0,"arthritis_risk":5,"migraine_risk":10,"frizz_risk":0,"updated_at":"2026-03-07T14:06:10.110368+05:30"},{"city":"Gulbarga","state":"Karnataka","latitude":17.3297,"longitude":76.8343,"temp":38.1,"humidity":13,"rain":0.0,"pressure":959.2,"uv_index":8.45,"wind_gusts":24.1,"aqi":68,"pm10":21.2,"pm2_5":13.9,"mosquito_risk":0,"arthritis_risk":5,"migraine_risk":10,"frizz_risk":0,"updated_at":"2026-03-07T14:06:10.110374+05:30"},{"city":"Bidar","state":"Karnataka","latitude":17.9104,"longitude":77.5199,"temp":36.5,"humidity":17,"rain":0.0,"pressure":936.7,"uv_index":8.4,"wind_gusts":22.3,"aqi":76,"pm10":23.0,"pm2_5":15.1,"mosquito_risk":0,"arthritis_risk":5,"migraine_risk":10,"frizz_risk":0,"updated_at":"2026-03-07T14:06:10.110381+05:30"},{"city":"Hospet","state":"Karnataka","latitude":15.2689,"longitude":76.3909,"temp":35.4,"humidity":25,"rain":0.0,"pressure":956.2,"uv_index":8.75,"wind_gusts":20.5,"aqi":87,"pm10":28.4,"pm2_5":24.0,"mosquito_risk":0,"arthritis_risk":5,"migraine_risk":10,"frizz_risk":0,"updated_at":"2026-03-07T14:06:10.110387+05:30"},{"city":"Tirupur","state":"Tamil Nadu","latitude":11.1085,"longitude":77.3411,"temp":35.5,"humidity":33,"rain":0.0,"pressure":975.0,"uv_index":9.2,"wind_gusts":30.2,"aqi":121,"pm10":36.8,"pm2_5":33.6,"mosquito_risk":0,"arthritis_risk":5,"migraine_risk":10,"frizz_risk":1,"updated_at":"2026-03-07T14:06:10.110393+05:30"},{"city":"Alappuzha","state":"Kerala","latitude":9.4981,"longitude":76.3388,"temp":27.7,"humidity":82,"rain":0.0,"pressure":1009.0,"uv_index":9.0,"wind_gusts":24.5,"aqi":117,"pm10":30.6,"pm2_5":28.6,"mosquito_risk":7,"arthritis_risk":0,"migraine_risk":4,"frizz_risk":1,"updated_at":"2026-03-07T14:06:10.110400+05:30"},{"city":"Munnar","state":"Kerala","latitude":10.0889,"longitude":77.0595,"temp":27.9,"humidity":50,"rain":0.0,"pressure":858.7,"uv_index":9.5,"wind_gusts":34.9,"aqi":99,"pm10":27.7,"pm2_5":24.5,"mosquito_risk":4,"arthritis_risk":5,"migraine_risk":7,"frizz_risk":1,"updated_at":"2026-03-07T14:06:10.110407+05:30"},{"city":"Silchar","state":"Assam","latitude":24.8333,"longitude":92.7789,"temp":33.7,"humidity":38,"rain":0.0,"pressure":1006.4,"uv_index":7.55,"wind_gusts":21.2,"aqi":161,"pm10":59.6,"pm2_5":53.0,"mosquito_risk":0,"arthritis_risk":5,"migraine_risk":4,"frizz_risk":1,"updated_at":"2026-03-07T14:06:10.110413+05:30"},{"city":"Dibrugarh","state":"Assam","latitude":27.4728,"longitude":94.912,"temp":29.1,"humidity":54,"rain":0.0,"pressure":998.0,"uv_index":7.3,"wind_gusts":23.4,"aqi":141,"pm10":68.2,"pm2_5":56.1,"mosquito_risk":4,"arthritis_risk":5,"migraine_risk":7,"frizz_risk":1,"updated_at":"2026-03-07T14:06:10.110420+05:30"}]