[{"city":"Delhi","state":"Delhi","latitude":28.6139,"longitude":77.209,"temp":24.1,"humidity":62,"rain":0.0,"pressure":989.6,"uv_index":3.95,"wind_gusts":33.1,"aqi":124,"pm10":105.2,"pm2_5":36.9,"mosquito_risk":3,"arthritis_risk":5,"migraine_risk":3,"frizz_risk":1,"updated_at":"2026-03-19T11:32:14.148025+05:30"},{"city":"Mumbai","state":"Maharashtra","latitude":19.076,"longitude":72.8777,"temp":27.1,"humidity":74,"rain":0.0,"pressure":1012.9,"uv_index":7.75,"wind_gusts":21.2,"aqi":70,"pm10":45.3,"pm2_5":35.6,"mosquito_risk":7,"arthritis_risk":0,"migraine_risk":4,"frizz_risk":1,"updated_at":"2026-03-19T11:32:14.148059+05:30"},{"city":"Bangalore","state":"Karnataka","latitude":12.9716,"longitude":77.5946,"temp":27.3,"humidity":53,"rain":0.0,"pressure":916.1,"uv_index":9.35,"wind_gusts":23.0,"aqi":92,"pm10":26.7,"pm2_5":23.8,"mosquito_risk":4,"arthritis_risk":5,"migraine_risk":7,"frizz_risk":1,"updated_at":"2026-03-19T11:32:14.148074+05:30"},{"city":"Hyderabad","state":"Telangana","latitude":17.385,"longitude":78.4867,"temp":28.5,"humidity":52,"rain":0.0,"pressure":958.4,"uv_index":8.75,"wind_gusts":24.5,"aqi":84,"pm10":22.2,"pm2_5":16.5,"mosquito_risk":4,"arthritis_risk":5,"migraine_risk":7,"frizz_risk":1,"updated_at":"2026-03-19T11:32:14.148082+05:30"},{"city":"Chennai","state":"Tamil Nadu","latitude":13.0827,"longitude":80.2707,"temp":31.0,"humidity":58,"rain":0.0,"pressure":1012.1,"uv_index":9.1,"wind_gusts":29.5,"aqi":42,"pm10":18.1,"pm2_5":13.6,"mosquito_risk":0,"arthritis_risk":0,"migraine_risk":4,"frizz_risk":1,"updated_at":"2026-03-19T11:32:14.148090+05:30"},{"city":"Kolkata","state":"West Bengal","latitude":22.5726,"longitude":88.3639,"temp":31.4,"humidity":62,"rain":0.0,"pressure":1010.8,"uv_index":7.7,"wind_gusts":25.2,"aqi":69,"pm10":46.0,"pm2_5":39.3,"mosquito_risk":3,"arthritis_risk":0,"migraine_risk":4,"frizz_risk":1,"updated_at":"2026-03-19T11:32:14.148097+05:30"},{"city":"Pune","state":"Maharashtra","latitude":18.5204,"longitude":73.8567,"temp":30.9,"humidity":40,"rain":0.0,"pressure":953.0,"uv_index":8.3,"wind_gusts":34.2,"aqi":99,"pm10":42.1,"pm2_5":30.9,"mosquito_risk":0,"arthritis_risk":5,"migraine_risk":7,"frizz_risk":0,"updated_at":"2026-03-19T11:32:14.148108+05:30"},{"city":"Ahmedabad","state":"Gujarat","latitude":23.0225,"longitude":72.5714,"temp":30.0,"humidity":47,"rain":0.0,"pressure":1006.2,"uv_index":7.55,"wind_gusts":45.4,"aqi":66,"pm10":29.0,"pm2_5":21.4,"mosquito_risk":4,"arthritis_risk":5,"migraine_risk":4,"frizz_risk":1,"updated_at":"2026-03-19T11:32:14.148115+05:30"},{"city":"Jaipur","state":"Rajasthan","latitude":26.9124,"longitude":75.7873,"temp":22.8,"humidity":64,"rain":0.0,"pressure":964.9,"uv_index":7.05,"wind_gusts":31.7,"aqi":141,"pm10":132.2,"pm2_5":26.5,"mosquito_risk":3,"arthritis_risk":5,"migraine_risk":7,"frizz_risk":0,"updated_at":"2026-03-19T11:32:14.148121+05:30"},{"city":"Lucknow","state":"Uttar Pradesh","latitude":26.8467,"longitude":80.9462,"temp":32.7,"humidity":28,"rain":0.0,"pressure":997.9,"uv_index":6.8,"wind_gusts":28.1,"aqi":97,"pm10":43.4,"pm2_5":18.2,"mosquito_risk":0,"arthritis_risk":5,"migraine_risk":7,"frizz_risk":0,"updated_at":"2026-03-19T11:32:14.148128+05:30"},{"city":"Kanpur","state":"Uttar Pradesh","latitude":26.4499,"longitude":80.3319,"temp":31.0,"humidity":40,"rain":0.0,"pressure":996.2,"uv_index":6.85,"wind_gusts":32.8,"aqi":116,"pm10":374.4,"pm2_5":48.9,"mosquito_risk":0,"arthritis_risk":5,"migraine_risk":7,"frizz_risk":0,"updated_at":"2026-03-19T11:32:14.148134+05:30"},{"city":"Chandigarh","state":"Chandigarh","latitude":30.7333,"longitude":76.7794,"temp":19.9,"humidity":78,"rain":0.0,"pressure":975.6,"uv_index":3.9,"wind_gusts":19.1,"aqi":59,"pm10":59.1,"pm2_5":16.3,"mosquito_risk":3,"arthritis_risk":5,"migraine_risk":3,"frizz_risk":0,"updated_at":"2026-03-19T11:32:14.148141+05:30"},{"city":"Srinagar","state":"Jammu and Kashmir","latitude":34.0837,"longitude":74.7973,"temp":7.3,"humidity":84,"rain":0.0,"pressure":843.0,"uv_index":0.95,"wind_gusts":15.1,"aqi":92,"pm10":21.4,"pm2_5":17.9,"mosquito_risk":3,"arthritis_risk":10,"migraine_risk":3,"frizz_risk":0,"updated_at":"2026-03-19T11:32:14.148148+05:30"},{"city":"Jammu","state":"Jammu and Kashmir","latitude":32.7266,"longitude":74.857,"temp":20.1,"humidity":71,"rain":0.0,"pressure":978.9,"uv_index":3.0,"wind_gusts":35.3,"aqi":59,"pm10":39.1,"pm2_5":13.2,"mosquito_risk":3,"arthritis_risk":5,"migraine_risk":3,"frizz_risk":0,"updated_at":"2026-03-19T11:32:14.148155+05:30"},{"city":"Amritsar","state":"Punjab","latitude":31.634,"longitude":74.8723,"temp":19.2,"humidity":79,"rain":0.0,"pressure":987.1,"uv_index":2.45,"wind_gusts":22.7,"aqi":81,"pm10":93.8,"pm2_5":30.2,"mosquito_risk":3,"arthritis_risk":5,"migraine_risk":3,"frizz_risk":0,"updated_at":"2026-03-19T11:32:14.148162+05:30"},{"city":"Ludhiana","state":"Punjab","latitude":30.901,"longitude":75.8573,"temp":19.0,"humidity":81,"rain":0.0,"pressure":985.8,"uv_index":1.6,"wind_gusts":24.5,"aqi":81,"pm10":48.5,"pm2_5":18.8,"mosquito_risk":3,"arthritis_risk":10,"migraine_risk":3,"frizz_risk":0,"updated_at":"2026-03-19T11:32:14.148168+05:30"},{"city":"Jalandhar","state":"Punjab","latitude":31.326,"longitude":75.5762,"temp":19.7,"humidity":74,"rain":0.0,"pressure":986.5,"uv_index":2.7,"wind_gusts":27.7,"aqi":79,"pm10":85.2,"pm2_5":27.0,"mosquito_risk":3,"arthritis_risk":5,"migraine_risk":3,"frizz_risk":0,"updated_at":"2026-03-19T11:32:14.148177+05:30"},{"city":"Dehradun","state":"Uttarakhand","latitude":30.6284,"longitude":78.0322,"temp":12.8,"humidity":74,"rain":0.2,"pressure":833.2,"uv_index":5.3,"wind_gusts":32.0,"aqi":42,"pm10":25.6,"pm2_5":7.1,"mosquito_risk":6,"arthritis_risk":5,"migraine_risk":3,"frizz_risk":0,"updated_at":"2026-03-19T11:32:14.148184+05:30"},{"city":"Shimla","state":"Himachal Pradesh","latitude":31.1048,"longitude":77.1734,"temp":12.9,"humidity":66,"rain":0.0,"pressure":787.0,"uv_index":3.7,"wind_gusts":37.4,"aqi":42,"pm10":26.8,"pm2_5":7.5,"mosquito_risk":3,"arthritis_risk":5,"migraine_risk":3,"frizz_risk":0,"updated_at":"2026-03-19T11:32:14.148190+05:30"},{"city":"Manali","state":"Himachal Pradesh","latitude":32.2396,"longitude":77.1887,"temp":12.7,"humidity":89,"rain":0.1,"pressure":820.0,"uv_index":4.3,"wind_gusts":23.8,"aqi":43,"pm10":4.0,"pm2_5":2.6,"mosquito_risk":6,"arthritis_risk":10,"migraine_risk":3,"frizz_risk":0,"updated_at":"2026-03-19T11:32:14.148195+05:30"},{"city":"Gurgaon","state":"Haryana","latitude":28.4595,"longitude":77.0266,"temp":23.0,"humidity":73,"rain":0.0,"pressure":987.8,"uv_index":5.05,"wind_gusts":30.2,"aqi":154,"pm10":119.7,"pm2_5":38.4,"mosquito_risk":3,"arthritis_risk":5,"migraine_risk":3,"frizz_risk":1,"updated_at":"2026-03-19T11:32:14.148201+05:30"},{"city":"Noida","state":"Uttar Pradesh","latitude":28.5355,"longitude":77.391,"temp":24.8,"humidity":60,"rain":0.0,"pressure":991.2,"uv_index":4.25,"wind_gusts":32.8,"aqi":154,"pm10":119.7,"pm2_5":38.4,"mosquito_risk":0,"arthritis_risk":5,"migraine_risk":3,"frizz_risk":1,"updated_at":"2026-03-19T11:32:14.148208+05:30"},{"city":"Ghaziabad","state":"Uttar Pradesh","latitude":28.6692,"longitude":77.4538,"temp":23.4,"humidity":65,"rain":0.0,"pressure":989.3,"uv_index":4.2,"wind_gusts":34.2,"aqi":115,"pm10":68.0,"pm2_5":24.0,"mosquito_risk":3,"arthritis_risk":5,"migraine_risk":3,"frizz_risk":1,"updated_at":"2026-03-19T11:32:14.148218+05:30"},{"city":"Faridabad","state":"Haryana","latitude":28.4089,"longitude":77.3178,"temp":24.8,"humidity":62,"rain":0.0,"pressure":990.5,"uv_index":5.9,"wind_gusts":33.5,"aqi":154,"pm10":119.7,"pm2_5":38.4,"mosquito_risk":3,"arthritis_risk":5,"migraine_risk":3,"frizz_risk":1,"updated_at":"2026-03-19T11:32:14.148224+05:30"},{"city":"Meerut","state":"Uttar Pradesh","latitude":28.9845,"longitude":77.7064,"temp":23.1,"humidity":66,"rain":0.0,"pressure":988.1,"uv_index":3.35,"wind_gusts":35.6,"aqi":115,"pm10":68.0,"pm2_5":24.0,"mosquito_risk":3,"arthritis_risk":5,"migraine_risk":3,"frizz_risk":1,"updated_at":"2026-03-19T11:32:14.148230+05:30"},{"city":"Agra","state":"Uttar Pradesh","latitude":27.1767,"longitude":78.0081,"temp":26.6,"humidity":44,"rain":0.0,"pressure":994.4,"uv_index":6.7,"wind_gusts":37.8,"aqi":579,"pm10":823.3,"pm2_5":87.1,"mosquito_risk":4,"arthritis_risk":5,"migraine_risk":7,"frizz_risk":0,"updated_at":"2026-03-19T11:32:14.148236+05:30"},{"city":"Varanasi","state":"Uttar Pradesh","latitude":25.3176,"longitude":82.9739,"temp":32.7,"humidity":45,"rain":0.0,"pressure":1001.7,"uv_index":7.5,"wind_gusts":52.9,"aqi":120,"pm10":56.2,"pm2_5":42.6,"mosquito_risk":0,"arthritis_risk":5,"migraine_risk":4,"frizz_risk":1,"updated_at":"2026-03-19T11:32:14.148245+05:30"},{"city":"Prayagraj","state":"Uttar Pradesh","latitude":25.4358,"longitude":81.8463,"temp":31.9,"humidity":45,"rain":0.0,"pressure":1000.1,"uv_index":7.35,"wind_gusts":21.2,"aqi":107,"pm10":66.1,"pm2_5":31.4,"mosquito_risk":0,"arthritis_risk":5,"migraine_risk":4,"frizz_risk":1,"updated_at":"2026-03-19T11:32:14.148256+05:30"},{"city":"Gorakhpur","state":"Uttar Pradesh","latitude":26.7606,"longitude":83.3732,"temp":31.3,"humidity":42,"rain":0.0,"pressure":1001.7,"uv_index":7.2,"wind_gusts":17.3,"aqi":125,"pm10":70.3,"pm2_5":24.3,"mosquito_risk":0,"arthritis_risk":5,"migraine_risk":4,"frizz_risk":1,"updated_at":"2026-03-19T11:32:14.148263+05:30"},{"city":"Bareilly","state":"Uttar Pradesh","latitude":28.367,"longitude":79.4304,"temp":27.7,"humidity":49,"rain":0.0,"pressure":992.6,"uv_index":6.15,"wind_gusts":34.2,"aqi":87,"pm10":21.2,"pm2_5":10.2,"mosquito_risk":4,"arthritis_risk":5,"migraine_risk":7,"frizz_risk":0,"updated_at":"2026-03-19T11:32:14.148269+05:30"},{"city":"Aligarh","state":"Uttar Pradesh","latitude":27.8974,"longitude":78.088,"temp":26.4,"humidity":52,"rain":0.0,"pressure":992.3,"uv_index":6.4,"wind_gusts":34.6,"aqi":147,"pm10":358.6,"pm2_5":44.8,"mosquito_risk":4,"arthritis_risk":5,"migraine_risk":7,"frizz_risk":0,"updated_at":"2026-03-19T11:32:14.148275+05:30"},{"city":"Moradabad","state":"Uttar Pradesh","latitude":28.8386,"longitude":78.7733,"temp":26.8,"humidity":49,"rain":0.0,"pressure":989.8,"uv_index":5.5,"wind_gusts":46.1,"aqi":115,"pm10":39.8,"pm2_5":20.0,"mosquito_risk":4,"arthritis_risk":5,"migraine_risk":3,"frizz_risk":0,"updated_at":"2026-03-19T11:32:14.148280+05:30"},{"city":"Saharanpur","state":"Uttar Pradesh","latitude":29.9637,"longitude":77.546,"temp":21.7,"humidity":67,"rain":0.0,"pressure":982.6,"uv_index":3.55,"wind_gusts":27.0,"aqi":74,"pm10":36.3,"pm2_5":13.1,"mosquito_risk":3,"arthritis_risk":5,"migraine_risk":3,"frizz_risk":0,"updated_at":"2026-03-19T11:32:14.148286+05:30"},{"city":"Jhansi","state":"Uttar Pradesh","latitude":25.4484,"longitude":78.5685,"temp":32.7,"humidity":32,"rain":0.0,"pressure":981.7,"uv_index":7.3,"wind_gusts":46.1,"aqi":82,"pm10":98.7,"pm2_5":36.4,"mosquito_risk":0,"arthritis_risk":5,"migraine_risk":7,"frizz_risk":0,"updated_at":"2026-03-19T11:32:17.381226+05:30"},{"city":"Surat","state":"Gujarat","latitude":21.1702,"longitude":72.8311,"temp":28.5,"humidity":58,"rain":0.0,"pressure":1011.8,"uv_index":7.45,"wind_gusts":30.6,"aqi":78,"pm10":35.7,"pm2_5":26.7,"mosquito_risk":4,"arthritis_risk":0,"migraine_risk":4,"frizz_risk":1,"updated_at":"2026-03-19T11:32:17.381256+05:30"},{"city":"Vadodara","state":"Gujarat","latitude":22.3072,"longitude":73.1812,"temp":30.7,"humidity":53,"rain":0.0,"pressure":1009.0,"uv_index":7.35,"wind_gusts":55.8,"aqi":63,"pm10":22.1,"pm2_5":15.3,"mosquito_risk":0,"arthritis_risk":0,"migraine_risk":4,"frizz_risk":1,"updated_at":"2026-03-19T11:32:17.381267+05:30"},{"city":"Rajkot","state":"Gujarat","latitude":22.3039,"longitude":70.8022,"temp":31.3,"humidity":44,"rain":0.0,"pressure":997.5,"uv_index":7.4,"wind_gusts":51.8,"aqi":42,"pm10":35.4,"pm2_5":17.3,"mosquito_risk":0,"arthritis_risk":5,"migraine_risk":7,"frizz_risk":1,"updated_at":"2026-03-19T11:32:17.381275+05:30"},{"city":"Thane","state":"Maharashtra","latitude":19.2183,"longitude":72.9781,"temp":30.0,"humidity":58,"rain":0.0,"pressure":1012.3,"uv_index":7.75,"wind_gusts":34.6,"aqi":70,"pm10":45.3,"pm2_5":35.6,"mosquito_risk":4,"arthritis_risk":0,"migraine_risk":4,"frizz_risk":1,"updated_at":"2026-03-19T11:32:17.381283+05:30"},{"city":"Nagpur","state":"Maharashtra","latitude":21.1458,"longitude":79.0882,"temp":31.1,"humidity":45,"rain":0.0,"pressure":978.2,"uv_index":7.85,"wind_gusts":22.7,"aqi":105,"pm10":58.4,"pm2_5":47.8,"mosquito_risk":0,"arthritis_risk":5,"migraine_risk":7,"frizz_risk":1,"updated_at":"2026-03-19T11:32:17.381290+05:30"},{"city":"Nashik","state":"Maharashtra","latitude":19.9975,"longitude":73.7898,"temp":28.6,"humidity":49,"rain":0.0,"pressure":949.8,"uv_index":7.95,"wind_gusts":38.9,"aqi":56,"pm10":15.0,"pm2_5":10.9,"mosquito_risk":4,"arthritis_risk":5,"migraine_risk":7,"frizz_risk":1,"updated_at":"2026-03-19T11:32:17.381297+05:30"},{"city":"Aurangabad","state":"Maharashtra","latitude":19.8762,"longitude":75.3433,"temp":30.3,"humidity":39,"rain":0.0,"pressure":948.5,"uv_index":8.45,"wind_gusts":29.2,"aqi":74,"pm10":31.3,"pm2_5":22.2,"mosquito_risk":0,"arthritis_risk":5,"migraine_risk":7,"frizz_risk":0,"updated_at":"2026-03-19T11:32:17.381304+05:30"},{"city":"Solapur","state":"Maharashtra","latitude":17.6599,"longitude":75.9064,"temp":31.2,"humidity":41,"rain":0.0,"pressure":962.0,"uv_index":8.65,"wind_gusts":33.5,"aqi":81,"pm10":27.8,"pm2_5":21.6,"mosquito_risk":0,"arthritis_risk":5,"migraine_risk":7,"frizz_risk":1,"updated_at":"2026-03-19T11:32:17.381312+05:30"},{"city":"Kolhapur","state":"Maharashtra","latitude":16.705,"longitude":74.2433,"temp":29.5,"humidity":26,"rain":0.0,"pressure":952.8,"uv_index":8.8,"wind_gusts":37.8,"aqi":119,"pm10":36.2,"pm2_5":24.6,"mosquito_risk":4,"arthritis_risk":5,"migraine_risk":7,"frizz_risk":0,"updated_at":"2026-03-19T11:32:17.381319+05:30"},{"city":"Goa","state":"Goa","latitude":15.2993,"longitude":74.124,"temp":30.9,"humidity":57,"rain":0.0,"pressure":1003.0,"uv_index":8.8,"wind_gusts":30.6,"aqi":81,"pm10":33.9,"pm2_5":22.7,"mosquito_risk":0,"arthritis_risk":5,"migraine_risk":4,"frizz_risk":1,"updated_at":"2026-03-19T11:32:17.381326+05:30"},{"city":"Jodhpur","state":"Rajasthan","latitude":26.2389,"longitude":73.0243,"temp":24.4,"humidity":60,"rain":0.0,"pressure":988.5,"uv_index":6.8,"wind_gusts":40.7,"aqi":65,"pm10":137.4,"pm2_5":24.9,"mosquito_risk":0,"arthritis_risk":5,"migraine_risk":7,"frizz_risk":1,"updated_at":"2026-03-19T11:32:17.381333+05:30"},{"city":"Udaipur","state":"Rajasthan","latitude":24.5854,"longitude":73.7125,"temp":26.2,"humidity":45,"rain":0.0,"pressure":950.7,"uv_index":6.6,"wind_gusts":38.9,"aqi":35,"pm10":51.3,"pm2_5":17.8,"mosquito_risk":4,"arthritis_risk":5,"migraine_risk":7,"frizz_risk":0,"updated_at":"2026-03-19T11:32:17.381341+05:30"},{"city":"Kota","state":"Rajasthan","latitude":25.2138,"longitude":75.8648,"temp":28.8,"humidity":44,"rain":0.0,"pressure":983.4,"uv_index":7.35,"wind_gusts":34.2,"aqi":79,"pm10":120.1,"pm2_5":41.7,"mosquito_risk":4,"arthritis_risk":5,"migraine_risk":7,"frizz_risk":0,"updated_at":"2026-03-19T11:32:17.381349+05:30"},{"city":"Bikaner","state":"Rajasthan","latitude":28.0229,"longitude":73.3119,"temp":21.8,"humidity":68,"rain":0.0,"pressure":987.4,"uv_index":5.9,"wind_gusts":31.0,"aqi":63,"pm10":116.9,"pm2_5":23.9,"mosquito_risk":3,"arthritis_risk":5,"migraine_risk":3,"frizz_risk":0,"updated_at":"2026-03-19T11:32:17.381356+05:30"},{"city":"Ajmer","state":"Rajasthan","latitude":26.4499,"longitude":74.6399,"temp":23.5,"humidity":61,"rain":0.0,"pressure":959.4,"uv_index":5.2,"wind_gusts":31.0,"aqi":69,"pm10":79.2,"pm2_5":17.6,"mosquito_risk":3,"arthritis_risk":5,"migraine_risk":3,"frizz_risk":0,"updated_at":"2026-03-19T11:32:17.381363+05:30"},{"city":"Gwalior","state":"Madhya Pradesh","latitude":26.2183,"longitude":78.1828,"temp":30.6,"humidity":40,"rain":0.0,"pressure":988.1,"uv_index":7.0,"wind_gusts":31.3,"aqi":130,"pm10":179.7,"pm2_5":47.1,"mosquito_risk":0,"arthritis_risk":5,"migraine_risk":7,"frizz_risk":0,"updated_at":"2026-03-19T11:32:17.381370+05:30"},{"city":"Indore","state":"Madhya Pradesh","latitude":22.7196,"longitude":75.8577,"temp":30.7,"humidity":21,"rain":0.0,"pressure":952.6,"uv_index":7.9,"wind_gusts":41.4,"aqi":55,"pm10":18.8,"pm2_5":15.5,"mosquito_risk":0,"arthritis_risk":5,"migraine_risk":7,"frizz_risk":0,"updated_at":"2026-03-19T11:32:17.381377+05:30"},{"city":"Bhopal","state":"Madhya Pradesh","latitude":23.2599,"longitude":77.4126,"temp":32.1,"humidity":31,"rain":0.0,"pressure":958.0,"uv_index":7.8,"wind_gusts":34.9,"aqi":70,"pm10":15.8,"pm2_5":14.6,"mosquito_risk":0,"arthritis_risk":5,"migraine_risk":7,"frizz_risk":0,"updated_at":"2026-03-19T11:32:17.381384+05:30"},{"city":"Jabalpur","state":"Madhya Pradesh","latitude":23.1815,"longitude":79.9864,"temp":32.7,"humidity":33,"rain":0.0,"pressure":965.8,"uv_index":7.9,"wind_gusts":31.7,"aqi":74,"pm10":34.7,"pm2_5":27.3,"mosquito_risk":0,"arthritis_risk":5,"migraine_risk":7,"frizz_risk":0,"updated_at":"2026-03-19T11:32:17.381391+05:30"},{"city":"Ujjain","state":"Madhya Pradesh","latitude":23.1765,"longitude":75.7885,"temp":29.4,"humidity":25,"rain":0.0,"pressure":958.3,"uv_index":7.8,"wind_gusts":31.3,"aqi":54,"pm10":22.7,"pm2_5":14.1,"mosquito_risk":4,"arthritis_risk":5,"migraine_risk":7,"frizz_risk":0,"updated_at":"2026-03-19T11:32:17.381398+05:30"},{"city":"Visakhapatnam","state":"Andhra Pradesh","latitude":17.6868,"longitude":83.2185,"temp":30.9,"humidity":55,"rain":0.0,"pressure":1009.3,"uv_index":7.8,"wind_gusts":31.0,"aqi":64,"pm10":25.6,"pm2_5":20.5,"mosquito_risk":0,"arthritis_risk":0,"migraine_risk":4,"frizz_risk":1,"updated_at":"2026-03-19T11:32:17.381407+05:30"},{"city":"Vijayawada","state":"Andhra Pradesh","latitude":16.5062,"longitude":80.648,"temp":28.7,"humidity":65,"rain":0.0,"pressure":1008.3,"uv_index":8.35,"wind_gusts":28.4,"aqi":63,"pm10":15.0,"pm2_5":11.3,"mosquito_risk":7,"arthritis_risk":0,"migraine_risk":4,"frizz_risk":1,"updated_at":"2026-03-19T11:32:17.381416+05:30"},{"city":"Guntur","state":"Andhra Pradesh","latitude":16.3067,"longitude":80.4365,"temp":29.4,"humidity":64,"rain":0.0,"pressure":1009.5,"uv_index":8.4,"wind_gusts":23.0,"aqi":64,"pm10":14.7,"pm2_5":10.5,"mosquito_risk":7,"arthritis_risk":0,"migraine_risk":4,"frizz_risk":1,"updated_at":"2026-03-19T11:32:17.381423+05:30"},{"city":"Nellore","state":"Andhra Pradesh","latitude":14.4426,"longitude":79.9865,"temp":30.7,"humidity":57,"rain":0.0,"pressure":1011.0,"uv_index":9.0,"wind_gusts":23.8,"aqi":35,"pm10":18.3,"pm2_5":13.1,"mosquito_risk":0,"arthritis_risk":0,"migraine_risk":4,"frizz_risk":1,"updated_at":"2026-03-19T11:32:17.381430+05:30"},{"city":"Kurnool","state":"Andhra Pradesh","latitude":15.8281,"longitude":78.0373,"temp":30.3,"humidity":50,"rain":0.0,"pressure":982.1,"uv_index":8.85,"wind_gusts":18.7,"aqi":65,"pm10":14.3,"pm2_5":9.9,"mosquito_risk":0,"arthritis_risk":5,"migraine_risk":7,"frizz_risk":1,"updated_at":"2026-03-19T11:32:17.381438+05:30"},{"city":"Kakinada","state":"Andhra Pradesh","latitude":16.9891,"longitude":82.2475,"temp":30.7,"humidity":57,"rain":0.0,"pressure":1013.0,"uv_index":8.5,"wind_gusts":24.1,"aqi":41,"pm10":13.8,"pm2_5":10.1,"mosquito_risk":0,"arthritis_risk":0,"migraine_risk":4,"frizz_risk":1,"updated_at":"2026-03-19T11:32:17.381445+05:30"},{"city":"Tirupati","state":"Andhra Pradesh","latitude":13.6288,"longitude":79.4192,"temp":30.7,"humidity":54,"rain":0.0,"pressure":996.3,"uv_index":9.1,"wind_gusts":25.6,"aqi":61,"pm10":13.8,"pm2_5":10.4,"mosquito_risk":0,"arthritis_risk":5,"migraine_risk":7,"frizz_risk":1,"updated_at":"2026-03-19T11:32:17.381451+05:30"},{"city":"Warangal","state":"Telangana","latitude":17.9689,"longitude":79.5941,"temp":28.2,"humidity":65,"rain":0.0,"pressure":984.3,"uv_index":8.0,"wind_gusts":21.6,"aqi":145,"pm10":26.3,"pm2_5":20.6,"mosquito_risk":7,"arthritis_risk":5,"migraine_risk":7,"frizz_risk":1,"updated_at":"2026-03-19T11:32:17.381490+05:30"},{"city":"Nizamabad","state":"Telangana","latitude":18.6725,"longitude":78.0941,"temp":29.2,"humidity":50,"rain":0.0,"pressure":969.9,"uv_index":8.45,"wind_gusts":25.6,"aqi":118,"pm10":25.5,"pm2_5":20.3,"mosquito_risk":4,"arthritis_risk":5,"migraine_risk":7,"frizz_risk":1,"updated_at":"2026-03-19T11:32:17.381498+05:30"},{"city":"Mysore","state":"Karnataka","latitude":12.2958,"longitude":76.6396,"temp":28.1,"humidity":51,"rain":0.0,"pressure":932.8,"uv_index":9.35,"wind_gusts":31.3,"aqi":95,"pm10":29.3,"pm2_5":26.5,"mosquito_risk":4,"arthritis_risk":5,"migraine_risk":7,"frizz_risk":1,"updated_at":"2026-03-19T11:32:17.381505+05:30"},{"city":"Mangalore","state":"Karnataka","latitude":12.9141,"longitude":74.856,"temp":27.6,"humidity":75,"rain":0.0,"pressure":1011.4,"uv_index":8.95,"wind_gusts":24.1,"aqi":72,"pm10":26.4,"pm2_5":20.7,"mosquito_risk":7,"arthritis_risk":0,"migraine_risk":4,"frizz_risk":1,"updated_at":"2026-03-19T11:32:17.381512+05:30"},{"city":"Hubli-Dharwad","state":"Karnataka","latitude":15.3647,"longitude":75.124,"temp":28.8,"humidity":51,"rain":0.0,"pressure":945.7,"uv_index":8.95,"wind_gusts":36.4,"aqi":96,"pm10":32.6,"pm2_5":26.8,"mosquito_risk":4,"arthritis_risk":5,"migraine_risk":7,"frizz_risk":1,"updated_at":"2026-03-19T11:32:17.381520+05:30"},{"city":"Belgaum","state":"Karnataka","latitude":15.8497,"longitude":74.4977,"temp":28.3,"humidity":44,"rain":0.0,"pressure":930.6,"uv_index":9.0,"wind_gusts":37.4,"aqi":102,"pm10":32.6,"pm2_5":21.1,"mosquito_risk":4,"arthritis_risk":5,"migraine_risk":7,"frizz_risk":0,"updated_at":"2026-03-19T11:32:20.628329+05:30"},{"city":"Coimbatore","state":"Tamil Nadu","latitude":11.0168,"longitude":76.9558,"temp":28.6,"humidity":57,"rain":0.0,"pressure":966.5,"uv_index":9.3,"wind_gusts":39.2,"aqi":65,"pm10":16.6,"pm2_5":15.0,"mosquito_risk":4,"arthritis_risk":5,"migraine_risk":7,"frizz_risk":1,"updated_at":"2026-03-19T11:32:20.628359+05:30"},{"city":"Madurai","state":"Tamil Nadu","latitude":9.9252,"longitude":78.1198,"temp":30.2,"humidity":59,"rain":0.0,"pressure":997.6,"uv_index":9.25,"wind_gusts":20.5,"aqi":49,"pm10":16.6,"pm2_5":13.4,"mosquito_risk":0,"arthritis_risk":5,"migraine_risk":7,"frizz_risk":1,"updated_at":"2026-03-19T11:32:20.628370+05:30"},{"city":"Trichy","state":"Tamil Nadu","latitude":10.7905,"longitude":78.7047,"temp":30.7,"humidity":60,"rain":0.0,"pressure":1004.4,"uv_index":9.2,"wind_gusts":25.2,"aqi":51,"pm10":14.3,"pm2_5":11.8,"mosquito_risk":0,"arthritis_risk":5,"migraine_risk":4,"frizz_risk":1,"updated_at":"2026-03-19T11:32:20.628380+05:30"},{"city":"Salem","state":"Tamil Nadu","latitude":11.6643,"longitude":78.146,"temp":30.6,"humidity":55,"rain":0.0,"pressure":981.8,"uv_index":9.25,"wind_gusts":20.2,"aqi":74,"pm10":21.1,"pm2_5":19.2,"mosquito_risk":0,"arthritis_risk":5,"migraine_risk":7,"frizz_risk":1,"updated_at":"2026-03-19T11:32:20.628388+05:30"},{"city":"Tirunelveli","state":"Tamil Nadu","latitude":8.7139,"longitude":77.7567,"temp":31.6,"humidity":56,"rain":0.0,"pressure":1007.3,"uv_index":8.5,"wind_gusts":24.1,"aqi":65,"pm10":14.0,"pm2_5":13.2,"mosquito_risk":0,"arthritis_risk":5,"migraine_risk":4,"frizz_risk":1,"updated_at":"2026-03-19T11:32:20.628396+05:30"},{"city":"Vellore","state":"Tamil Nadu","latitude":12.9165,"longitude":79.1325,"temp":31.0,"humidity":48,"rain":0.0,"pressure":989.0,"uv_index":9.15,"wind_gusts":23.4,"aqi":58,"pm10":14.0,"pm2_5":9.5,"mosquito_risk":0,"arthritis_risk":5,"migraine_risk":7,"frizz_risk":1,"updated_at":"2026-03-19T11:32:20.628403+05:30"},{"city":"Erode","state":"Tamil Nadu","latitude":11.341,"longitude":77.7172,"temp":30.4,"humidity":56,"rain":0.0,"pressure":993.7,"uv_index":9.25,"wind_gusts":23.4,"aqi":56,"pm10":13.4,"pm2_5":12.2,"mosquito_risk":0,"arthritis_risk":5,"migraine_risk":7,"frizz_risk":1,"updated_at":"2026-03-19T11:32:20.628410+05:30"},{"city":"Kochi","state":"Kerala","latitude":9.9312,"longitude":76.2673,"temp":27.1,"humidity":80,"rain":0.0,"pressure":1012.9,"uv_index":9.1,"wind_gusts":25.9,"aqi":62,"pm10":16.1,"pm2_5":14.9,"mosquito_risk":7,"arthritis_risk":0,"migraine_risk":4,"frizz_risk":1,"updated_at":"2026-03-19T11:32:20.628418+05:30"},{"city":"Thiruvananthapuram","state":"Kerala","latitude":8.5241,"longitude":76.9366,"temp":27.6,"humidity":78,"rain":0.0,"pressure":1011.7,"uv_index":8.1,"wind_gusts":20.5,"aqi":47,"pm10":13.4,"pm2_5":12.7,"mosquito_risk":7,"arthritis_risk":0,"migraine_risk":4,"frizz_risk":1,"updated_at":"2026-03-19T11:32:20.628425+05:30"},{"city":"Kozhikode","state":"Kerala","latitude":11.2588,"longitude":75.7804,"temp":29.1,"humidity":71,"rain":0.0,"pressure":1012.2,"uv_index":9.05,"wind_gusts":27.7,"aqi":63,"pm10":13.9,"pm2_5":12.8,"mosquito_risk":7,"arthritis_risk":0,"migraine_risk":4,"frizz_risk":1,"updated_at":"2026-03-19T11:32:20.628432+05:30"},{"city":"Thrissur","state":"Kerala","latitude":10.5276,"longitude":76.2144,"temp":31.0,"humidity":60,"rain":0.0,"pressure":1011.3,"uv_index":9.1,"wind_gusts":31.0,"aqi":58,"pm10":14.4,"pm2_5":13.2,"mosquito_risk":0,"arthritis_risk":0,"migraine_risk":4,"frizz_risk":1,"updated_at":"2026-03-19T11:32:20.628441+05:30"},{"city":"Kannur","state":"Kerala","latitude":11.8745,"longitude":75.3704,"temp":29.8,"humidity":65,"rain":0.0,"pressure":1011.7,"uv_index":9.0,"wind_gusts":30.6,"aqi":66,"pm10":20.5,"pm2_5":16.7,"mosquito_risk":7,"arthritis_risk":0,"migraine_risk":4,"frizz_risk":1,"updated_at":"2026-03-19T11:32:20.628448+05:30"},{"city":"Patna","state":"Bihar","latitude":25.5941,"longitude":85.1376,"temp":30.6,"humidity":56,"rain":0.0,"pressure":1005.1,"uv_index":7.25,"wind_gusts":50.8,"aqi":162,"pm10":80.1,"pm2_5":62.4,"mosquito_risk":0,"arthritis_risk":5,"migraine_risk":4,"frizz_risk":1,"updated_at":"2026-03-19T11:32:20.628486+05:30"},{"city":"Gaya","state":"Bihar","latitude":24.7914,"longitude":85.0002,"temp":32.0,"humidity":44,"rain":0.0,"pressure":998.0,"uv_index":7.55,"wind_gusts":29.9,"aqi":114,"pm10":51.1,"pm2_5":38.4,"mosquito_risk":0,"arthritis_risk":5,"migraine_risk":7,"frizz_risk":1,"updated_at":"2026-03-19T11:32:20.628495+05:30"},{"city":"Muzaffarpur","state":"Bihar","latitude":26.1209,"longitude":85.3647,"temp":30.0,"humidity":58,"rain":0.0,"pressure":1005.3,"uv_index":7.0,"wind_gusts":35.6,"aqi":161,"pm10":77.1,"pm2_5":58.2,"mosquito_risk":4,"arthritis_risk":5,"migraine_risk":4,"frizz_risk":1,"updated_at":"2026-03-19T11:32:20.628503+05:30"},{"city":"Bhagalpur","state":"Bihar","latitude":25.2425,"longitude":87.0117,"temp":28.2,"humidity":67,"rain":0.0,"pressure":1006.5,"uv_index":6.95,"wind_gusts":34.9,"aqi":127,"pm10":55.5,"pm2_5":51.3,"mosquito_risk":7,"arthritis_risk":5,"migraine_risk":4,"frizz_risk":1,"updated_at":"2026-03-19T11:32:20.628509+05:30"},{"city":"Ranchi","state":"Jharkhand","latitude":23.3441,"longitude":85.3096,"temp":30.0,"humidity":40,"rain":0.0,"pressure":942.8,"uv_index":6.75,"wind_gusts":35.3,"aqi":95,"pm10":43.8,"pm2_5":33.9,"mosquito_risk":4,"arthritis_risk":5,"migraine_risk":7,"frizz_risk":0,"updated_at":"2026-03-19T11:32:20.628517+05:30"},{"city":"Jamshedpur","state":"Jharkhand","latitude":22.8046,"longitude":86.2029,"temp":31.8,"humidity":44,"rain":0.0,"pressure":995.7,"uv_index":7.7,"wind_gusts":40.3,"aqi":137,"pm10":55.4,"pm2_5":45.9,"mosquito_risk":0,"arthritis_risk":5,"migraine_risk":7,"frizz_risk":1,"updated_at":"2026-03-19T11:32:20.628524+05:30"},{"city":"Dhanbad","state":"Jharkhand","latitude":23.7957,"longitude":86.4304,"temp":33.4,"humidity":31,"rain":0.0,"pressure":984.4,"uv_index":7.2,"wind_gusts":30.2,"aqi":157,"pm10":62.6,"pm2_5":53.6,"mosquito_risk":0,"arthritis_risk":5,"migraine_risk":7,"frizz_risk":0,"updated_at":"2026-03-19T11:32:20.628531+05:30"},{"city":"Bokaro","state":"Jharkhand","latitude":23.6693,"longitude":86.1511,"temp":33.3,"humidity":32,"rain":0.0,"pressure":988.4,"uv_index":7.15,"wind_gusts":35.6,"aqi":143,"pm10":54.6,"pm2_5":44.5,"mosquito_risk":0,"arthritis_risk":5,"migraine_risk":7,"frizz_risk":0,"updated_at":"2026-03-19T11:32:20.628538+05:30"},{"city":"Bhubaneswar","state":"Odisha","latitude":20.2961,"longitude":85.8245,"temp":32.3,"humidity":57,"rain":0.0,"pressure":1007.4,"uv_index":7.95,"wind_gusts":22.0,"aqi":81,"pm10":39.8,"pm2_5":31.2,"mosquito_risk":0,"arthritis_risk":5,"migraine_risk":4,"frizz_risk":1,"updated_at":"2026-03-19T11:32:20.628545+05:30"},{"city":"Cuttack","state":"Odisha","latitude":20.4625,"longitude":85.8828,"temp":33.3,"humidity":51,"rain":0.0,"pressure":1009.2,"uv_index":7.9,"wind_gusts":22.3,"aqi":81,"pm10":39.8,"pm2_5":31.2,"mosquito_risk":0,"arthritis_risk":0,"migraine_risk":4,"frizz_risk":1,"updated_at":"2026-03-19T11:32:20.628553+05:30"},{"city":"Rourkela","state":"Odisha","latitude":22.2604,"longitude":84.8536,"temp":31.2,"humidity":50,"rain":0.0,"pressure":990.4,"uv_index":7.15,"wind_gusts":25.6,"aqi":123,"pm10":58.1,"pm2_5":47.3,"mosquito_risk":0,"arthritis_risk":5,"migraine_risk":7,"frizz_risk":1,"updated_at":"2026-03-19T11:32:20.628561+05:30"},{"city":"Raipur","state":"Chhattisgarh","latitude":21.2514,"longitude":81.6296,"temp":32.5,"humidity":39,"rain":0.0,"pressure":979.9,"uv_index":7.75,"wind_gusts":27.7,"aqi":131,"pm10":65.9,"pm2_5":57.6,"mosquito_risk":0,"arthritis_risk":5,"migraine_risk":7,"frizz_risk":1,"updated_at":"2026-03-19T11:32:20.628568+05:30"},{"city":"Bhilai","state":"Chhattisgarh","latitude":21.1938,"longitude":81.3509,"temp":32.4,"humidity":41,"rain":0.0,"pressure":980.2,"uv_index":7.6,"wind_gusts":26.3,"aqi":136,"pm10":58.9,"pm2_5":50.3,"mosquito_risk":0,"arthritis_risk":5,"migraine_risk":7,"frizz_risk":1,"updated_at":"2026-03-19T11:32:20.628574+05:30"},{"city":"Guwahati","state":"Assam","latitude":26.1158,"longitude":91.7086,"temp":25.4,"humidity":70,"rain":0.0,"pressure":1007.4,"uv_index":7.5,"wind_gusts":29.5,"aqi":115,"pm10":49.0,"pm2_5":34.8,"mosquito_risk":7,"arthritis_risk":5,"migraine_risk":4,"frizz_risk":1,"updated_at":"2026-03-19T11:32:20.628582+05:30"},{"city":"Agartala","state":"Tripura","latitude":23.8315,"longitude":91.2868,"temp":30.4,"humidity":55,"rain":0.0,"pressure":1011.5,"uv_index":7.85,"wind_gusts":29.2,"aqi":89,"pm10":21.5,"pm2_5":18.0,"mosquito_risk":0,"arthritis_risk":0,"migraine_risk":4,"frizz_risk":1,"updated_at":"2026-03-19T11:32:20.628588+05:30"},{"city":"Shillong","state":"Meghalaya","latitude":25.5788,"longitude":91.8933,"temp":19.7,"humidity":45,"rain":0.0,"pressure":860.8,"uv_index":7.15,"wind_gusts":47.9,"aqi":87,"pm10":49.4,"pm2_5":29.5,"mosquito_risk":0,"arthritis_risk":5,"migraine_risk":7,"frizz_risk":0,"updated_at":"2026-03-19T11:32:20.628593+05:30"},{"city":"Imphal","state":"Manipur","latitude":24.817,"longitude":93.9368,"temp":20.6,"humidity":71,"rain":0.0,"pressure":927.8,"uv_index":8.25,"wind_gusts":60.8,"aqi":93,"pm10":34.8,"pm2_5":23.5,"mosquito_risk":3,"arthritis_risk":5,"migraine_risk":7,"frizz_risk":0,"updated_at":"2026-03-19T11:32:20.628599+05:30"},{"city":"Aizawl","state":"Mizoram","latitude":23.7271,"longitude":92.7176,"temp":25.4,"humidity":46,"rain":0.0,"pressure":898.2,"uv_index":8.05,"wind_gusts":40.0,"aqi":73,"pm10":31.4,"pm2_5":22.3,"mosquito_risk":4,"arthritis_risk":5,"migraine_risk":7,"frizz_risk":0,"updated_at":"2026-03-19T11:32:20.628605+05:30"},{"city":"Kohima","state":"Nagaland","latitude":25.6701,"longitude":94.1077,"temp":18.5,"humidity":67,"rain":0.0,"pressure":859.5,"uv_index":7.95,"wind_gusts":86.8,"aqi":83,"pm10":42.5,"pm2_5":24.9,"mosquito_risk":3,"arthritis_risk":5,"migraine_risk":7,"frizz_risk":0,"updated_at":"2026-03-19T11:32:20.628611+05:30"},{"city":"Gangtok","state":"Sikkim","latitude":27.3314,"longitude":88.6138,"temp":18.6,"humidity":62,"rain":0.0,"pressure":840.9,"uv_index":7.7,"wind_gusts":19.4,"aqi":99,"pm10":56.7,"pm2_5":32.7,"mosquito_risk":3,"arthritis_risk":5,"migraine_risk":7,"frizz_risk":0,"updated_at":"2026-03-19T11:32:20.628616+05:30"},{"city":"Siliguri","state":"West Bengal","latitude":26.7271,"longitude":88.3953,"temp":21.6,"humidity":79,"rain":0.0,"pressure":999.5,"uv_index":7.4,"wind_gusts":24.8,"aqi":137,"pm10":73.3,"pm2_5":52.7,"mosquito_risk":3,"arthritis_risk":5,"migraine_risk":7,"frizz_risk":1,"updated_at":"2026-03-19T11:32:23.859156+05:30"},{"city":"Durgapur","state":"West Bengal","latitude":23.5204,"longitude":87.3119,"temp":32.7,"humidity":44,"rain":0.0,"pressure":999.7,"uv_index":7.75,"wind_gusts":28.4,"aqi":147,"pm10":77.5,"pm2_5":68.2,"mosquito_risk":0,"arthritis_risk":5,"migraine_risk":7,"frizz_risk":1,"updated_at":"2026-03-19T11:32:23.859185+05:30"},{"city":"Asansol","state":"West Bengal","latitude":23.6739,"longitude":86.9524,"temp":32.9,"humidity":41,"rain":0.0,"pressure":998.2,"uv_index":7.65,"wind_gusts":25.6,"aqi":153,"pm10":67.5,"pm2_5":58.9,"mosquito_risk":0,"arthritis_risk":5,"migraine_risk":7,"frizz_risk":1,"updated_at":"2026-03-19T11:32:23.859196+05:30"},{"city":"Pondicherry","state":"Puducherry","latitude":11.9139,"longitude":79.8145,"temp":30.3,"humidity":64,"rain":0.0,"pressure":1013.1,"uv_index":9.1,"wind_gusts":26.6,"aqi":37,"pm10":16.4,"pm2_5":12.3,"mosquito_risk":3,"arthritis_risk":0,"migraine_risk":4,"frizz_risk":1,"updated_at":"2026-03-19T11:32:23.859205+05:30"},{"city":"Port Blair","state":"Andaman and Nicobar Islands","latitude":11.6234,"longitude":92.7265,"temp":28.1,"humidity":79,"rain":0.0,"pressure":1010.1,"uv_index":9.05,"wind_gusts":22.0,"aqi":51,"pm10":16.6,"pm2_5":13.0,"mosquito_risk":7,"arthritis_risk":0,"migraine_risk":4,"frizz_risk":1,"updated_at":"2026-03-19T11:32:23.859214+05:30"},{"city":"Haridwar","state":"Uttarakhand","latitude":29.9457,"longitude":78.1642,"temp":23.5,"humidity":60,"rain":0.0,"pressure":980.8,"uv_index":3.9,"wind_gusts":24.8,"aqi":67,"pm10":38.2,"pm2_5":11.2,"mosquito_risk":0,"arthritis_risk":5,"migraine_risk":3,"frizz_risk":0,"updated_at":"2026-03-19T11:32:23.859222+05:30"},{"city":"Rishikesh","state":"Uttarakhand","latitude":30.0869,"longitude":78.2676,"temp":23.9,"humidity":50,"rain":0.0,"pressure":973.3,"uv_index":4.2,"wind_gusts":28.1,"aqi":63,"pm10":36.9,"pm2_5":10.0,"mosquito_risk":0,"arthritis_risk":5,"migraine_risk":3,"frizz_risk":0,"updated_at":"2026-03-19T11:32:23.859230+05:30"},{"city":"Nainital","state":"Uttarakhand","latitude":29.3919,"longitude":79.4542,"temp":21.2,"humidity":44,"rain":0.0,"pressure":811.2,"uv_index":5.75,"wind_gusts":59.4,"aqi":76,"pm10":37.3,"pm2_5":11.7,"mosquito_risk":0,"arthritis_risk":5,"migraine_risk":3,"frizz_risk":0,"updated_at":"2026-03-19T11:32:23.859238+05:30"},{"city":"Mussoorie","state":"Uttarakhand","latitude":30.4599,"longitude":78.0664,"temp":14.2,"humidity":69,"rain":0.1,"pressure":805.9,"uv_index":5.1,"wind_gusts":41.0,"aqi":60,"pm10":49.9,"pm2_5":13.2,"mosquito_risk":6,"arthritis_risk":5,"migraine_risk":3,"frizz_risk":0,"updated_at":"2026-03-19T11:32:23.859245+05:30"},{"city":"Dharamshala","state":"Himachal Pradesh","latitude":32.219,"longitude":76.3234,"temp":17.0,"humidity":71,"rain":0.0,"pressure":872.1,"uv_index":3.8,"wind_gusts":29.9,"aqi":42,"pm10":10.5,"pm2_5":3.9,"mosquito_risk":3,"arthritis_risk":5,"migraine_risk":3,"frizz_risk":0,"updated_at":"2026-03-19T11:32:23.859252+05:30"},{"city":"Dalhousie","state":"Himachal Pradesh","latitude":32.5387,"longitude":75.971,"temp":14.0,"humidity":63,"rain":0.0,"pressure":805.5,"uv_index":4.55,"wind_gusts":25.2,"aqi":54,"pm10":53.3,"pm2_5":15.3,"mosquito_risk":3,"arthritis_risk":5,"migraine_risk":3,"frizz_risk":0,"updated_at":"2026-03-19T11:32:23.859260+05:30"},{"city":"Patiala","state":"Punjab","latitude":30.3398,"longitude":76.3869,"temp":19.7,"humidity":83,"rain":0.1,"pressure":985.1,"uv_index":3.85,"wind_gusts":25.2,"aqi":105,"pm10":47.7,"pm2_5":16.6,"mosquito_risk":6,"arthritis_risk":10,"migraine_risk":3,"frizz_risk":1,"updated_at":"2026-03-19T11:32:23.859267+05:30"},{"city":"Bhatinda","state":"Punjab","latitude":30.211,"longitude":74.9455,"temp":19.4,"humidity":87,"rain":0.1,"pressure":990.0,"uv_index":1.4,"wind_gusts":21.2,"aqi":86,"pm10":84.8,"pm2_5":32.4,"mosquito_risk":6,"arthritis_risk":10,"migraine_risk":3,"frizz_risk":1,"updated_at":"2026-03-19T11:32:23.859275+05:30"},{"city":"Rohtak","state":"Haryana","latitude":28.8955,"longitude":76.6066,"temp":23.7,"humidity":72,"rain":0.0,"pressure":988.2,"uv_index":4.9,"wind_gusts":28.8,"aqi":134,"pm10":113.2,"pm2_5":45.5,"mosquito_risk":3,"arthritis_risk":5,"migraine_risk":3,"frizz_risk":1,"updated_at":"2026-03-19T11:32:23.859282+05:30"},{"city":"Panipat","state":"Haryana","latitude":29.3909,"longitude":76.9635,"temp":22.0,"humidity":74,"rain":0.0,"pressure":987.0,"uv_index":3.65,"wind_gusts":36.0,"aqi":131,"pm10":66.1,"pm2_5":31.0,"mosquito_risk":3,"arthritis_risk":5,"migraine_risk":3,"frizz_risk":1,"updated_at":"2026-03-19T11:32:23.859289+05:30"},{"city":"Mathura","state":"Uttar Pradesh","latitude":27.4924,"longitude":77.6737,"temp":25.0,"humidity":52,"rain":0.0,"pressure":993.7,"uv_index":6.6,"wind_gusts":35.6,"aqi":130,"pm10":415.4,"pm2_5":57.5,"mosquito_risk":4,"arthritis_risk":5,"migraine_risk":7,"frizz_risk":0,"updated_at":"2026-03-19T11:32:23.859296+05:30"},{"city":"Vrindavan","state":"Uttar Pradesh","latitude":27.5823,"longitude":77.7027,"temp":25.7,"humidity":51,"rain":0.0,"pressure":994.1,"uv_index":6.55,"wind_gusts":34.2,"aqi":130,"pm10":415.4,"pm2_5":57.5,"mosquito_risk":4,"arthritis_risk":5,"migraine_risk":7,"frizz_risk":0,"updated_at":"2026-03-19T11:32:23.859303+05:30"},{"city":"Ayodhya","state":"Uttar Pradesh","latitude":26.7922,"longitude":82.1998,"temp":34.1,"humidity":23,"rain":0.0,"pressure":999.5,"uv_index":6.9,"wind_gusts":29.5,"aqi":118,"pm10":62.2,"pm2_5":29.2,"mosquito_risk":0,"arthritis_risk":5,"migraine_risk":7,"frizz_risk":0,"updated_at":"2026-03-19T11:32:23.859311+05:30"},{"city":"Ratlam","state":"Madhya Pradesh","latitude":23.3315,"longitude":75.0367,"temp":27.6,"humidity":51,"rain":0.0,"pressure":959.0,"uv_index":7.75,"wind_gusts":58.7,"aqi":50,"pm10":20.2,"pm2_5":12.5,"mosquito_risk":4,"arthritis_risk":5,"migraine_risk":7,"frizz_risk":1,"updated_at":"2026-03-19T11:32:23.859318+05:30"},{"city":"Sagar","state":"Madhya Pradesh","latitude":23.8388,"longitude":78.7378,"temp":32.7,"humidity":23,"rain":0.0,"pressure":954.1,"uv_index":7.75,"wind_gusts":43.6,"aqi":48,"pm10":16.6,"pm2_5":14.7,"mosquito_risk":0,"arthritis_risk":5,"migraine_risk":7,"frizz_risk":0,"updated_at":"2026-03-19T11:32:23.859325+05:30"},{"city":"Satna","state":"Madhya Pradesh","latitude":24.6005,"longitude":80.8322,"temp":34.3,"humidity":26,"rain":0.0,"pressure":975.3,"uv_index":7.7,"wind_gusts":31.0,"aqi":68,"pm10":49.0,"pm2_5":27.9,"mosquito_risk":0,"arthritis_risk":5,"migraine_risk":7,"frizz_risk":0,"updated_at":"2026-03-19T11:32:23.859332+05:30"},{"city":"Akola","state":"Maharashtra","latitude":20.7002,"longitude":77.0082,"temp":33.0,"humidity":31,"rain":0.0,"pressure":979.5,"uv_index":8.2,"wind_gusts":25.6,"aqi":97,"pm10":40.2,"pm2_5":34.9,"mosquito_risk":0,"arthritis_risk":5,"migraine_risk":7,"frizz_risk":0,"updated_at":"2026-03-19T11:32:23.859339+05:30"},{"city":"Amravati","state":"Maharashtra","latitude":20.9374,"longitude":77.7796,"temp":32.5,"humidity":35,"rain":0.0,"pressure":972.0,"uv_index":8.15,"wind_gusts":23.0,"aqi":101,"pm10":43.0,"pm2_5":36.3,"mosquito_risk":0,"arthritis_risk":5,"migraine_risk":7,"frizz_risk":0,"updated_at":"2026-03-19T11:32:23.859347+05:30"},{"city":"Latur","state":"Maharashtra","latitude":18.4088,"longitude":76.5604,"temp":28.9,"humidity":45,"rain":0.0,"pressure":944.8,"uv_index":8.55,"wind_gusts":37.4,"aqi":92,"pm10":28.8,"pm2_5":22.6,"mosquito_risk":4,"arthritis_risk":5,"migraine_risk":7,"frizz_risk":0,"updated_at":"2026-03-19T11:32:23.859354+05:30"},{"city":"Nanded","state":"Maharashtra","latitude":19.1383,"longitude":77.3091,"temp":31.2,"humidity":42,"rain":0.0,"pressure":973.6,"uv_index":8.4,"wind_gusts":19.8,"aqi":97,"pm10":31.8,"pm2_5":26.1,"mosquito_risk":0,"arthritis_risk":5,"migraine_risk":7,"frizz_risk":1,"updated_at":"2026-03-19T11:32:23.859361+05:30"},{"city":"Gulbarga","state":"Karnataka","latitude":17.3297,"longitude":76.8343,"temp":30.9,"humidity":42,"rain":0.0,"pressure":963.8,"uv_index":8.65,"wind_gusts":21.2,"aqi":87,"pm10":21.9,"pm2_5":17.8,"mosquito_risk":0,"arthritis_risk":5,"migraine_risk":7,"frizz_risk":1,"updated_at":"2026-03-19T11:32:23.859368+05:30"},{"city":"Bidar","state":"Karnataka","latitude":17.9104,"longitude":77.5199,"temp":28.9,"humidity":46,"rain":0.0,"pressure":940.4,"uv_index":8.6,"wind_gusts":28.1,"aqi":91,"pm10":20.3,"pm2_5":15.2,"mosquito_risk":4,"arthritis_risk":5,"migraine_risk":7,"frizz_risk":1,"updated_at":"2026-03-19T11:32:23.859375+05:30"},{"city":"Hospet","state":"Karnataka","latitude":15.2689,"longitude":76.3909,"temp":28.0,"humidity":55,"rain":0.0,"pressure":961.1,"uv_index":8.9,"wind_gusts":22.3,"aqi":94,"pm10":31.9,"pm2_5":26.8,"mosquito_risk":4,"arthritis_risk":5,"migraine_risk":7,"frizz_risk":1,"updated_at":"2026-03-19T11:32:23.859383+05:30"},{"city":"Tirupur","state":"Tamil Nadu","latitude":11.1085,"longitude":77.3411,"temp":30.4,"humidity":51,"rain":0.0,"pressure":980.1,"uv_index":9.35,"wind_gusts":28.8,"aqi":60,"pm10":19.3,"pm2_5":17.5,"mosquito_risk":0,"arthritis_risk":5,"migraine_risk":7,"frizz_risk":1,"updated_at":"2026-03-19T11:32:23.859390+05:30"},{"city":"Alappuzha","state":"Kerala","latitude":9.4981,"longitude":76.3388,"temp":27.7,"humidity":77,"rain":0.0,"pressure":1012.9,"uv_index":9.1,"wind_gusts":24.8,"aqi":56,"pm10":16.8,"pm2_5":15.8,"mosquito_risk":7,"arthritis_risk":0,"migraine_risk":4,"frizz_risk":1,"updated_at":"2026-03-19T11:32:23.859398+05:30"},{"city":"Munnar","state":"Kerala","latitude":10.0889,"longitude":77.0595,"temp":26.1,"humidity":60,"rain":0.0,"pressure":861.6,"uv_index":9.6,"wind_gusts":36.7,"aqi":63,"pm10":12.9,"pm2_5":12.2,"mosquito_risk":4,"arthritis_risk":5,"migraine_risk":7,"frizz_risk":1,"updated_at":"2026-03-19T11:32:23.859405+05:30"},{"city":"Silchar","state":"Assam","latitude":24.8333,"longitude":92.7789,"temp":27.3,"humidity":64,"rain":0.0,"pressure":1010.8,"uv_index":7.9,"wind_gusts":23.0,"aqi":94,"pm10":28.1,"pm2_5":22.8,"mosquito_risk":7,"arthritis_risk":0,"migraine_risk":4,"frizz_risk":1,"updated_at":"2026-03-19T11:32:23.859412+05:30"},{"city":"Dibrugarh","state":"Assam","latitude":27.4728,"longitude":94.912,"temp":21.6,"humidity":75,"rain":0.0,"pressure":1002.4,"uv_index":6.3,"wind_gusts":19.8,"aqi":93,"pm10":49.7,"pm2_5":31.3,"mosquito_risk":3,"arthritis_risk":5,"migraine_risk":4,"frizz_risk":1,"updated_at":"2026-03-19T11:32:23.859419+05:30"}]