[{"city":"Delhi","state":"Delhi","latitude":28.6139,"longitude":77.209,"temp":39.7,"humidity":28,"rain":0.0,"pressure":978.2,"uv_index":7.75,"wind_gusts":25.6,"aqi":199,"pm10":312.9,"pm2_5":93.4,"no2":6.0,"co":226.0,"o3":206.0,"so2":28.3,"mosquito_risk":0,"arthritis_risk":5,"migraine_risk":10,"frizz_risk":1,"updated_at":"2026-06-25T13:18:22.667692+05:30"},{"city":"Mumbai","state":"Maharashtra","latitude":19.076,"longitude":72.8777,"temp":29.4,"humidity":77,"rain":0.0,"pressure":1006.8,"uv_index":4.6,"wind_gusts":38.5,"aqi":54,"pm10":29.7,"pm2_5":17.0,"no2":6.2,"co":175.0,"o3":97.0,"so2":11.9,"mosquito_risk":7,"arthritis_risk":5,"migraine_risk":0,"frizz_risk":1,"updated_at":"2026-06-25T13:18:22.667735+05:30"},{"city":"Bangalore","state":"Karnataka","latitude":12.9716,"longitude":77.5946,"temp":27.4,"humidity":58,"rain":0.1,"pressure":911.1,"uv_index":8.55,"wind_gusts":57.2,"aqi":25,"pm10":11.4,"pm2_5":6.6,"no2":2.0,"co":192.0,"o3":69.0,"so2":2.0,"mosquito_risk":7,"arthritis_risk":5,"migraine_risk":7,"frizz_risk":1,"updated_at":"2026-06-25T13:18:22.667751+05:30"},{"city":"Hyderabad","state":"Telangana","latitude":17.385,"longitude":78.4867,"temp":31.3,"humidity":49,"rain":0.1,"pressure":949.9,"uv_index":7.6,"wind_gusts":46.1,"aqi":27,"pm10":28.5,"pm2_5":13.4,"no2":1.6,"co":194.0,"o3":100.0,"so2":3.7,"mosquito_risk":3,"arthritis_risk":5,"migraine_risk":7,"frizz_risk":1,"updated_at":"2026-06-25T13:18:22.667760+05:30"},{"city":"Chennai","state":"Tamil Nadu","latitude":13.0827,"longitude":80.2707,"temp":36.6,"humidity":44,"rain":0.0,"pressure":1003.5,"uv_index":7.7,"wind_gusts":43.9,"aqi":59,"pm10":21.3,"pm2_5":15.7,"no2":4.6,"co":180.0,"o3":125.0,"so2":9.2,"mosquito_risk":0,"arthritis_risk":5,"migraine_risk":7,"frizz_risk":1,"updated_at":"2026-06-25T13:18:22.667770+05:30"},{"city":"Kolkata","state":"West Bengal","latitude":22.5726,"longitude":88.3639,"temp":32.4,"humidity":67,"rain":0.1,"pressure":1001.4,"uv_index":8.7,"wind_gusts":35.3,"aqi":127,"pm10":29.0,"pm2_5":27.4,"no2":2.9,"co":385.0,"o3":169.0,"so2":13.8,"mosquito_risk":6,"arthritis_risk":5,"migraine_risk":4,"frizz_risk":1,"updated_at":"2026-06-25T13:18:22.667780+05:30"},{"city":"Pune","state":"Maharashtra","latitude":18.5204,"longitude":73.8567,"temp":29.2,"humidity":62,"rain":0.0,"pressure":946.3,"uv_index":8.2,"wind_gusts":41.4,"aqi":32,"pm10":15.4,"pm2_5":7.1,"no2":1.9,"co":137.0,"o3":78.0,"so2":4.2,"mosquito_risk":7,"arthritis_risk":5,"migraine_risk":7,"frizz_risk":1,"updated_at":"2026-06-25T13:18:22.667786+05:30"},{"city":"Ahmedabad","state":"Gujarat","latitude":23.0225,"longitude":72.5714,"temp":37.9,"humidity":35,"rain":0.0,"pressure":997.8,"uv_index":8.0,"wind_gusts":38.9,"aqi":71,"pm10":67.5,"pm2_5":24.2,"no2":1.3,"co":128.0,"o3":85.0,"so2":3.2,"mosquito_risk":0,"arthritis_risk":5,"migraine_risk":10,"frizz_risk":1,"updated_at":"2026-06-25T13:18:22.667793+05:30"},{"city":"Jaipur","state":"Rajasthan","latitude":26.9124,"longitude":75.7873,"temp":36.2,"humidity":36,"rain":0.0,"pressure":956.3,"uv_index":8.2,"wind_gusts":28.8,"aqi":136,"pm10":185.3,"pm2_5":46.0,"no2":0.6,"co":144.0,"o3":98.0,"so2":3.2,"mosquito_risk":0,"arthritis_risk":5,"migraine_risk":10,"frizz_risk":1,"updated_at":"2026-06-25T13:18:22.667800+05:30"},{"city":"Lucknow","state":"Uttar Pradesh","latitude":26.8467,"longitude":80.9462,"temp":39.6,"humidity":31,"rain":0.0,"pressure":988.1,"uv_index":8.3,"wind_gusts":34.2,"aqi":158,"pm10":315.7,"pm2_5":70.1,"no2":0.8,"co":184.0,"o3":159.0,"so2":6.2,"mosquito_risk":0,"arthritis_risk":5,"migraine_risk":10,"frizz_risk":1,"updated_at":"2026-06-25T13:18:22.667811+05:30"},{"city":"Kanpur","state":"Uttar Pradesh","latitude":26.4499,"longitude":80.3319,"temp":39.8,"humidity":27,"rain":0.0,"pressure":986.6,"uv_index":8.3,"wind_gusts":45.0,"aqi":152,"pm10":221.2,"pm2_5":53.2,"no2":1.0,"co":183.0,"o3":150.0,"so2":5.3,"mosquito_risk":0,"arthritis_risk":5,"migraine_risk":10,"frizz_risk":1,"updated_at":"2026-06-25T13:18:22.667817+05:30"},{"city":"Chandigarh","state":"Chandigarh","latitude":30.7333,"longitude":76.7794,"temp":35.8,"humidity":39,"rain":0.0,"pressure":964.9,"uv_index":7.8,"wind_gusts":22.0,"aqi":155,"pm10":124.3,"pm2_5":50.2,"no2":2.0,"co":338.0,"o3":212.0,"so2":17.0,"mosquito_risk":0,"arthritis_risk":5,"migraine_risk":10,"frizz_risk":1,"updated_at":"2026-06-25T13:18:22.667824+05:30"},{"city":"Srinagar","state":"Jammu and Kashmir","latitude":34.0837,"longitude":74.7973,"temp":28.8,"humidity":42,"rain":0.0,"pressure":841.9,"uv_index":9.1,"wind_gusts":23.8,"aqi":73,"pm10":18.7,"pm2_5":15.5,"no2":1.1,"co":336.0,"o3":160.0,"so2":2.9,"mosquito_risk":4,"arthritis_risk":5,"migraine_risk":7,"frizz_risk":0,"updated_at":"2026-06-25T13:18:22.667831+05:30"},{"city":"Jammu","state":"Jammu and Kashmir","latitude":32.7266,"longitude":74.857,"temp":35.1,"humidity":42,"rain":0.0,"pressure":969.0,"uv_index":8.65,"wind_gusts":23.4,"aqi":93,"pm10":58.2,"pm2_5":30.5,"no2":0.9,"co":270.0,"o3":162.0,"so2":5.9,"mosquito_risk":0,"arthritis_risk":5,"migraine_risk":10,"frizz_risk":1,"updated_at":"2026-06-25T13:18:22.667837+05:30"},{"city":"Amritsar","state":"Punjab","latitude":31.634,"longitude":74.8723,"temp":34.3,"humidity":50,"rain":0.0,"pressure":976.7,"uv_index":8.45,"wind_gusts":52.9,"aqi":137,"pm10":72.4,"pm2_5":39.2,"no2":1.1,"co":235.0,"o3":186.0,"so2":7.3,"mosquito_risk":0,"arthritis_risk":5,"migraine_risk":7,"frizz_risk":1,"updated_at":"2026-06-25T13:18:22.667846+05:30"},{"city":"Ludhiana","state":"Punjab","latitude":30.901,"longitude":75.8573,"temp":36.7,"humidity":39,"rain":0.0,"pressure":974.5,"uv_index":8.05,"wind_gusts":24.5,"aqi":166,"pm10":209.5,"pm2_5":64.5,"no2":0.9,"co":261.0,"o3":188.0,"so2":7.7,"mosquito_risk":0,"arthritis_risk":5,"migraine_risk":10,"frizz_risk":1,"updated_at":"2026-06-25T13:18:22.667852+05:30"},{"city":"Jalandhar","state":"Punjab","latitude":31.326,"longitude":75.5762,"temp":35.6,"humidity":43,"rain":0.0,"pressure":975.7,"uv_index":8.25,"wind_gusts":45.0,"aqi":151,"pm10":102.4,"pm2_5":46.1,"no2":1.1,"co":281.0,"o3":188.0,"so2":9.5,"mosquito_risk":0,"arthritis_risk":5,"migraine_risk":10,"frizz_risk":1,"updated_at":"2026-06-25T13:18:22.667858+05:30"},{"city":"Dehradun","state":"Uttarakhand","latitude":30.6284,"longitude":78.0322,"temp":23.8,"humidity":61,"rain":0.1,"pressure":831.7,"uv_index":7.65,"wind_gusts":24.5,"aqi":76,"pm10":17.6,"pm2_5":15.7,"no2":0.7,"co":227.0,"o3":166.0,"so2":2.9,"mosquito_risk":6,"arthritis_risk":5,"migraine_risk":7,"frizz_risk":0,"updated_at":"2026-06-25T13:18:22.667864+05:30"},{"city":"Shimla","state":"Himachal Pradesh","latitude":31.1048,"longitude":77.1734,"temp":21.4,"humidity":61,"rain":0.0,"pressure":786.1,"uv_index":6.5,"wind_gusts":28.1,"aqi":93,"pm10":40.6,"pm2_5":24.5,"no2":1.1,"co":255.0,"o3":170.0,"so2":6.9,"mosquito_risk":3,"arthritis_risk":5,"migraine_risk":7,"frizz_risk":0,"updated_at":"2026-06-25T13:18:22.667873+05:30"},{"city":"Manali","state":"Himachal Pradesh","latitude":32.2396,"longitude":77.1887,"temp":25.0,"humidity":51,"rain":0.1,"pressure":820.0,"uv_index":9.0,"wind_gusts":31.0,"aqi":39,"pm10":9.7,"pm2_5":9.1,"no2":10.1,"co":165.0,"o3":103.0,"so2":0.6,"mosquito_risk":7,"arthritis_risk":5,"migraine_risk":7,"frizz_risk":0,"updated_at":"2026-06-25T13:18:22.667880+05:30"},{"city":"Gurgaon","state":"Haryana","latitude":28.4595,"longitude":77.0266,"temp":37.9,"humidity":31,"rain":0.0,"pressure":977.0,"uv_index":7.85,"wind_gusts":19.4,"aqi":346,"pm10":411.6,"pm2_5":93.6,"no2":3.8,"co":170.0,"o3":170.0,"so2":16.5,"mosquito_risk":0,"arthritis_risk":5,"migraine_risk":10,"frizz_risk":1,"updated_at":"2026-06-25T13:18:22.667887+05:30"},{"city":"Noida","state":"Uttar Pradesh","latitude":28.5355,"longitude":77.391,"temp":37.0,"humidity":36,"rain":0.0,"pressure":979.9,"uv_index":7.8,"wind_gusts":22.3,"aqi":346,"pm10":411.6,"pm2_5":93.6,"no2":3.8,"co":242.0,"o3":170.0,"so2":16.5,"mosquito_risk":0,"arthritis_risk":5,"migraine_risk":10,"frizz_risk":1,"updated_at":"2026-06-25T13:18:22.667893+05:30"},{"city":"Ghaziabad","state":"Uttar Pradesh","latitude":28.6692,"longitude":77.4538,"temp":36.9,"humidity":37,"rain":0.0,"pressure":978.2,"uv_index":7.2,"wind_gusts":16.9,"aqi":207,"pm10":367.9,"pm2_5":98.3,"no2":3.0,"co":219.0,"o3":220.0,"so2":25.8,"mosquito_risk":0,"arthritis_risk":5,"migraine_risk":10,"frizz_risk":1,"updated_at":"2026-06-25T13:18:22.667900+05:30"},{"city":"Faridabad","state":"Haryana","latitude":28.4089,"longitude":77.3178,"temp":37.3,"humidity":34,"rain":0.0,"pressure":979.2,"uv_index":7.8,"wind_gusts":19.4,"aqi":346,"pm10":411.6,"pm2_5":93.6,"no2":3.8,"co":195.0,"o3":170.0,"so2":16.5,"mosquito_risk":0,"arthritis_risk":5,"migraine_risk":10,"frizz_risk":1,"updated_at":"2026-06-25T13:18:22.667906+05:30"},{"city":"Meerut","state":"Uttar Pradesh","latitude":28.9845,"longitude":77.7064,"temp":37.2,"humidity":36,"rain":0.0,"pressure":977.2,"uv_index":4.45,"wind_gusts":22.3,"aqi":207,"pm10":367.9,"pm2_5":98.3,"no2":3.0,"co":234.0,"o3":220.0,"so2":25.8,"mosquito_risk":0,"arthritis_risk":5,"migraine_risk":6,"frizz_risk":1,"updated_at":"2026-06-25T13:18:22.667912+05:30"},{"city":"Agra","state":"Uttar Pradesh","latitude":27.1767,"longitude":78.0081,"temp":38.9,"humidity":29,"rain":0.0,"pressure":982.9,"uv_index":8.1,"wind_gusts":29.2,"aqi":193,"pm10":251.5,"pm2_5":60.1,"no2":0.9,"co":162.0,"o3":136.0,"so2":3.7,"mosquito_risk":0,"arthritis_risk":5,"migraine_risk":10,"frizz_risk":1,"updated_at":"2026-06-25T13:18:22.667919+05:30"},{"city":"Varanasi","state":"Uttar Pradesh","latitude":25.3176,"longitude":82.9739,"temp":38.3,"humidity":39,"rain":0.0,"pressure":992.1,"uv_index":8.8,"wind_gusts":37.4,"aqi":116,"pm10":112.7,"pm2_5":43.5,"no2":1.3,"co":220.0,"o3":151.0,"so2":7.9,"mosquito_risk":0,"arthritis_risk":5,"migraine_risk":10,"frizz_risk":1,"updated_at":"2026-06-25T13:18:22.667925+05:30"},{"city":"Prayagraj","state":"Uttar Pradesh","latitude":25.4358,"longitude":81.8463,"temp":37.6,"humidity":39,"rain":0.0,"pressure":991.0,"uv_index":8.65,"wind_gusts":34.6,"aqi":128,"pm10":155.1,"pm2_5":52.9,"no2":1.4,"co":173.0,"o3":156.0,"so2":8.2,"mosquito_risk":0,"arthritis_risk":5,"migraine_risk":10,"frizz_risk":1,"updated_at":"2026-06-25T13:18:22.667931+05:30"},{"city":"Gorakhpur","state":"Uttar Pradesh","latitude":26.7606,"longitude":83.3732,"temp":38.5,"humidity":38,"rain":0.0,"pressure":991.5,"uv_index":8.65,"wind_gusts":25.9,"aqi":161,"pm10":160.7,"pm2_5":68.5,"no2":1.5,"co":283.0,"o3":214.0,"so2":11.3,"mosquito_risk":0,"arthritis_risk":5,"migraine_risk":10,"frizz_risk":1,"updated_at":"2026-06-25T13:18:22.667937+05:30"},{"city":"Bareilly","state":"Uttar Pradesh","latitude":28.367,"longitude":79.4304,"temp":38.3,"humidity":32,"rain":0.0,"pressure":982.0,"uv_index":8.1,"wind_gusts":22.3,"aqi":170,"pm10":221.2,"pm2_5":69.2,"no2":1.0,"co":201.0,"o3":198.0,"so2":13.3,"mosquito_risk":0,"arthritis_risk":5,"migraine_risk":10,"frizz_risk":1,"updated_at":"2026-06-25T13:18:22.667945+05:30"},{"city":"Aligarh","state":"Uttar Pradesh","latitude":27.8974,"longitude":78.088,"temp":38.2,"humidity":31,"rain":0.0,"pressure":980.7,"uv_index":7.85,"wind_gusts":19.4,"aqi":372,"pm10":355.8,"pm2_5":83.8,"no2":1.2,"co":168.0,"o3":165.0,"so2":11.9,"mosquito_risk":0,"arthritis_risk":5,"migraine_risk":10,"frizz_risk":1,"updated_at":"2026-06-25T13:18:22.667951+05:30"},{"city":"Moradabad","state":"Uttar Pradesh","latitude":28.8386,"longitude":78.7733,"temp":38.1,"humidity":32,"rain":0.0,"pressure":979.2,"uv_index":7.9,"wind_gusts":24.8,"aqi":179,"pm10":259.8,"pm2_5":73.1,"no2":1.6,"co":186.0,"o3":202.0,"so2":15.3,"mosquito_risk":0,"arthritis_risk":5,"migraine_risk":10,"frizz_risk":1,"updated_at":"2026-06-25T13:18:22.667957+05:30"},{"city":"Saharanpur","state":"Uttar Pradesh","latitude":29.9637,"longitude":77.546,"temp":36.0,"humidity":38,"rain":0.0,"pressure":971.8,"uv_index":7.45,"wind_gusts":22.7,"aqi":157,"pm10":131.8,"pm2_5":48.7,"no2":1.8,"co":225.0,"o3":206.0,"so2":15.0,"mosquito_risk":0,"arthritis_risk":5,"migraine_risk":10,"frizz_risk":1,"updated_at":"2026-06-25T13:18:22.667963+05:30"},{"city":"Jhansi","state":"Uttar Pradesh","latitude":25.4484,"longitude":78.5685,"temp":34.1,"humidity":49,"rain":0.0,"pressure":974.1,"uv_index":8.2,"wind_gusts":39.2,"aqi":79,"pm10":83.4,"pm2_5":31.2,"no2":1.7,"co":146.0,"o3":112.0,"so2":7.9,"mosquito_risk":0,"arthritis_risk":5,"migraine_risk":7,"frizz_risk":1,"updated_at":"2026-06-25T13:18:26.070694+05:30"},{"city":"Surat","state":"Gujarat","latitude":21.1702,"longitude":72.8311,"temp":33.3,"humidity":57,"rain":0.0,"pressure":1003.6,"uv_index":7.6,"wind_gusts":43.6,"aqi":74,"pm10":57.7,"pm2_5":27.0,"no2":13.0,"co":333.0,"o3":57.0,"so2":43.0,"mosquito_risk":0,"arthritis_risk":5,"migraine_risk":4,"frizz_risk":1,"updated_at":"2026-06-25T13:18:26.070726+05:30"},{"city":"Vadodara","state":"Gujarat","latitude":22.3072,"longitude":73.1812,"temp":37.2,"humidity":35,"rain":0.0,"pressure":1000.1,"uv_index":8.0,"wind_gusts":45.0,"aqi":74,"pm10":82.0,"pm2_5":27.6,"no2":1.7,"co":128.0,"o3":88.0,"so2":4.0,"mosquito_risk":0,"arthritis_risk":5,"migraine_risk":7,"frizz_risk":1,"updated_at":"2026-06-25T13:18:26.070738+05:30"},{"city":"Rajkot","state":"Gujarat","latitude":22.3039,"longitude":70.8022,"temp":37.3,"humidity":37,"rain":0.0,"pressure":990.2,"uv_index":7.55,"wind_gusts":45.0,"aqi":68,"pm10":70.1,"pm2_5":23.5,"no2":1.0,"co":103.0,"o3":86.0,"so2":3.9,"mosquito_risk":0,"arthritis_risk":5,"migraine_risk":10,"frizz_risk":1,"updated_at":"2026-06-25T13:18:26.070747+05:30"},{"city":"Thane","state":"Maharashtra","latitude":19.2183,"longitude":72.9781,"temp":30.7,"humidity":69,"rain":0.0,"pressure":1005.9,"uv_index":6.6,"wind_gusts":33.1,"aqi":54,"pm10":29.7,"pm2_5":17.0,"no2":6.2,"co":186.0,"o3":97.0,"so2":11.9,"mosquito_risk":3,"arthritis_risk":5,"migraine_risk":4,"frizz_risk":1,"updated_at":"2026-06-25T13:18:26.070756+05:30"},{"city":"Nagpur","state":"Maharashtra","latitude":21.1458,"longitude":79.0882,"temp":33.0,"humidity":54,"rain":0.0,"pressure":969.0,"uv_index":8.0,"wind_gusts":30.2,"aqi":57,"pm10":31.4,"pm2_5":21.5,"no2":6.9,"co":175.0,"o3":119.0,"so2":23.4,"mosquito_risk":0,"arthritis_risk":5,"migraine_risk":7,"frizz_risk":1,"updated_at":"2026-06-25T13:18:26.070765+05:30"},{"city":"Nashik","state":"Maharashtra","latitude":19.9975,"longitude":73.7898,"temp":29.0,"humidity":64,"rain":0.0,"pressure":943.5,"uv_index":6.6,"wind_gusts":41.4,"aqi":50,"pm10":25.0,"pm2_5":11.1,"no2":1.7,"co":122.0,"o3":83.0,"so2":4.5,"mosquito_risk":7,"arthritis_risk":5,"migraine_risk":7,"frizz_risk":1,"updated_at":"2026-06-25T13:18:26.070773+05:30"},{"city":"Aurangabad","state":"Maharashtra","latitude":19.8762,"longitude":75.3433,"temp":28.6,"humidity":64,"rain":0.0,"pressure":942.1,"uv_index":1.8,"wind_gusts":45.0,"aqi":61,"pm10":29.9,"pm2_5":12.6,"no2":2.2,"co":127.0,"o3":71.0,"so2":4.6,"mosquito_risk":7,"arthritis_risk":5,"migraine_risk":3,"frizz_risk":1,"updated_at":"2026-06-25T13:18:26.070781+05:30"},{"city":"Solapur","state":"Maharashtra","latitude":17.6599,"longitude":75.9064,"temp":30.4,"humidity":53,"rain":0.0,"pressure":955.0,"uv_index":7.1,"wind_gusts":40.7,"aqi":24,"pm10":34.8,"pm2_5":11.7,"no2":1.0,"co":113.0,"o3":83.0,"so2":1.8,"mosquito_risk":0,"arthritis_risk":5,"migraine_risk":7,"frizz_risk":1,"updated_at":"2026-06-25T13:18:26.070790+05:30"},{"city":"Kolhapur","state":"Maharashtra","latitude":16.705,"longitude":74.2433,"temp":27.5,"humidity":66,"rain":0.1,"pressure":946.9,"uv_index":3.1,"wind_gusts":47.9,"aqi":22,"pm10":7.2,"pm2_5":4.5,"no2":1.4,"co":119.0,"o3":69.0,"so2":1.6,"mosquito_risk":10,"arthritis_risk":5,"migraine_risk":3,"frizz_risk":1,"updated_at":"2026-06-25T13:18:26.070798+05:30"},{"city":"Goa","state":"Goa","latitude":15.2993,"longitude":74.124,"temp":30.6,"humidity":68,"rain":0.0,"pressure":997.6,"uv_index":7.0,"wind_gusts":32.8,"aqi":46,"pm10":12.9,"pm2_5":6.9,"no2":1.6,"co":123.0,"o3":56.0,"so2":1.0,"mosquito_risk":3,"arthritis_risk":5,"migraine_risk":7,"frizz_risk":1,"updated_at":"2026-06-25T13:18:26.070805+05:30"},{"city":"Jodhpur","state":"Rajasthan","latitude":26.2389,"longitude":73.0243,"temp":35.6,"humidity":46,"rain":0.0,"pressure":978.7,"uv_index":8.35,"wind_gusts":37.1,"aqi":149,"pm10":221.2,"pm2_5":49.0,"no2":0.6,"co":108.0,"o3":78.0,"so2":1.9,"mosquito_risk":0,"arthritis_risk":5,"migraine_risk":10,"frizz_risk":1,"updated_at":"2026-06-25T13:18:26.070813+05:30"},{"city":"Udaipur","state":"Rajasthan","latitude":24.5854,"longitude":73.7125,"temp":33.7,"humidity":46,"rain":0.0,"pressure":943.7,"uv_index":8.75,"wind_gusts":32.8,"aqi":72,"pm10":63.3,"pm2_5":22.9,"no2":0.6,"co":109.0,"o3":77.0,"so2":2.1,"mosquito_risk":0,"arthritis_risk":5,"migraine_risk":7,"frizz_risk":1,"updated_at":"2026-06-25T13:18:26.070821+05:30"},{"city":"Kota","state":"Rajasthan","latitude":25.2138,"longitude":75.8648,"temp":36.8,"humidity":39,"rain":0.0,"pressure":974.9,"uv_index":8.3,"wind_gusts":36.7,"aqi":87,"pm10":77.8,"pm2_5":30.0,"no2":0.8,"co":128.0,"o3":104.0,"so2":4.7,"mosquito_risk":0,"arthritis_risk":5,"migraine_risk":10,"frizz_risk":1,"updated_at":"2026-06-25T13:18:26.070829+05:30"},{"city":"Bikaner","state":"Rajasthan","latitude":28.0229,"longitude":73.3119,"temp":39.2,"humidity":33,"rain":0.0,"pressure":976.6,"uv_index":8.45,"wind_gusts":32.0,"aqi":152,"pm10":287.8,"pm2_5":80.8,"no2":0.4,"co":124.0,"o3":91.0,"so2":3.0,"mosquito_risk":0,"arthritis_risk":5,"migraine_risk":10,"frizz_risk":1,"updated_at":"2026-06-25T13:18:26.070837+05:30"},{"city":"Ajmer","state":"Rajasthan","latitude":26.4499,"longitude":74.6399,"temp":32.4,"humidity":52,"rain":0.0,"pressure":951.6,"uv_index":8.3,"wind_gusts":40.7,"aqi":96,"pm10":170.0,"pm2_5":45.1,"no2":0.6,"co":108.0,"o3":81.0,"so2":2.7,"mosquito_risk":0,"arthritis_risk":5,"migraine_risk":7,"frizz_risk":1,"updated_at":"2026-06-25T13:18:26.070845+05:30"},{"city":"Gwalior","state":"Madhya Pradesh","latitude":26.2183,"longitude":78.1828,"temp":38.6,"humidity":31,"rain":0.0,"pressure":978.7,"uv_index":8.25,"wind_gusts":38.5,"aqi":85,"pm10":109.2,"pm2_5":34.3,"no2":0.5,"co":146.0,"o3":110.0,"so2":2.7,"mosquito_risk":0,"arthritis_risk":5,"migraine_risk":10,"frizz_risk":1,"updated_at":"2026-06-25T13:18:26.070852+05:30"},{"city":"Indore","state":"Madhya Pradesh","latitude":22.7196,"longitude":75.8577,"temp":32.2,"humidity":55,"rain":0.0,"pressure":945.4,"uv_index":3.15,"wind_gusts":36.0,"aqi":74,"pm10":52.0,"pm2_5":26.3,"no2":1.4,"co":182.0,"o3":102.0,"so2":6.3,"mosquito_risk":0,"arthritis_risk":5,"migraine_risk":3,"frizz_risk":1,"updated_at":"2026-06-25T13:18:26.070860+05:30"},{"city":"Bhopal","state":"Madhya Pradesh","latitude":23.2599,"longitude":77.4126,"temp":32.0,"humidity":56,"rain":0.0,"pressure":950.6,"uv_index":8.3,"wind_gusts":26.6,"aqi":76,"pm10":50.9,"pm2_5":28.1,"no2":2.7,"co":216.0,"o3":92.0,"so2":8.5,"mosquito_risk":0,"arthritis_risk":5,"migraine_risk":7,"frizz_risk":1,"updated_at":"2026-06-25T13:18:26.070868+05:30"},{"city":"Jabalpur","state":"Madhya Pradesh","latitude":23.1815,"longitude":79.9864,"temp":33.7,"humidity":48,"rain":0.0,"pressure":958.0,"uv_index":8.85,"wind_gusts":25.9,"aqi":65,"pm10":53.6,"pm2_5":25.1,"no2":0.8,"co":178.0,"o3":118.0,"so2":3.6,"mosquito_risk":0,"arthritis_risk":5,"migraine_risk":7,"frizz_risk":1,"updated_at":"2026-06-25T13:18:26.070877+05:30"},{"city":"Ujjain","state":"Madhya Pradesh","latitude":23.1765,"longitude":75.7885,"temp":33.5,"humidity":51,"rain":0.0,"pressure":951.0,"uv_index":7.6,"wind_gusts":37.1,"aqi":78,"pm10":56.9,"pm2_5":26.1,"no2":0.9,"co":142.0,"o3":101.0,"so2":5.1,"mosquito_risk":0,"arthritis_risk":5,"migraine_risk":7,"frizz_risk":1,"updated_at":"2026-06-25T13:18:26.070885+05:30"},{"city":"Visakhapatnam","state":"Andhra Pradesh","latitude":17.6868,"longitude":83.2185,"temp":36.3,"humidity":43,"rain":0.0,"pressure":998.2,"uv_index":8.45,"wind_gusts":30.2,"aqi":69,"pm10":27.9,"pm2_5":24.0,"no2":8.0,"co":340.0,"o3":149.0,"so2":34.3,"mosquito_risk":0,"arthritis_risk":5,"migraine_risk":10,"frizz_risk":1,"updated_at":"2026-06-25T13:18:26.070893+05:30"},{"city":"Vijayawada","state":"Andhra Pradesh","latitude":16.5062,"longitude":80.648,"temp":34.7,"humidity":46,"rain":0.2,"pressure":998.0,"uv_index":8.65,"wind_gusts":40.0,"aqi":56,"pm10":20.1,"pm2_5":11.8,"no2":1.4,"co":157.0,"o3":111.0,"so2":5.1,"mosquito_risk":3,"arthritis_risk":5,"migraine_risk":7,"frizz_risk":1,"updated_at":"2026-06-25T13:18:26.070900+05:30"},{"city":"Guntur","state":"Andhra Pradesh","latitude":16.3067,"longitude":80.4365,"temp":34.0,"humidity":50,"rain":0.1,"pressure":999.5,"uv_index":8.35,"wind_gusts":37.1,"aqi":51,"pm10":21.2,"pm2_5":11.6,"no2":1.2,"co":155.0,"o3":107.0,"so2":4.2,"mosquito_risk":3,"arthritis_risk":5,"migraine_risk":7,"frizz_risk":1,"updated_at":"2026-06-25T13:18:26.070908+05:30"},{"city":"Nellore","state":"Andhra Pradesh","latitude":14.4426,"longitude":79.9865,"temp":36.5,"humidity":42,"rain":0.0,"pressure":1001.8,"uv_index":8.2,"wind_gusts":46.8,"aqi":30,"pm10":13.9,"pm2_5":7.7,"no2":1.3,"co":109.0,"o3":92.0,"so2":4.5,"mosquito_risk":0,"arthritis_risk":5,"migraine_risk":7,"frizz_risk":1,"updated_at":"2026-06-25T13:18:26.070916+05:30"},{"city":"Kurnool","state":"Andhra Pradesh","latitude":15.8281,"longitude":78.0373,"temp":34.2,"humidity":42,"rain":0.0,"pressure":974.3,"uv_index":6.5,"wind_gusts":47.5,"aqi":27,"pm10":23.9,"pm2_5":9.9,"no2":1.3,"co":113.0,"o3":86.0,"so2":4.6,"mosquito_risk":0,"arthritis_risk":5,"migraine_risk":7,"frizz_risk":1,"updated_at":"2026-06-25T13:18:26.070925+05:30"},{"city":"Kakinada","state":"Andhra Pradesh","latitude":16.9891,"longitude":82.2475,"temp":34.5,"humidity":48,"rain":0.0,"pressure":1002.6,"uv_index":8.7,"wind_gusts":39.6,"aqi":56,"pm10":18.5,"pm2_5":14.2,"no2":1.9,"co":216.0,"o3":133.0,"so2":5.4,"mosquito_risk":0,"arthritis_risk":5,"migraine_risk":4,"frizz_risk":1,"updated_at":"2026-06-25T13:18:26.070933+05:30"},{"city":"Tirupati","state":"Andhra Pradesh","latitude":13.6288,"longitude":79.4192,"temp":37.0,"humidity":38,"rain":0.0,"pressure":987.5,"uv_index":8.2,"wind_gusts":42.1,"aqi":39,"pm10":12.8,"pm2_5":6.7,"no2":0.5,"co":103.0,"o3":75.0,"so2":1.0,"mosquito_risk":0,"arthritis_risk":5,"migraine_risk":10,"frizz_risk":1,"updated_at":"2026-06-25T13:18:26.070941+05:30"},{"city":"Warangal","state":"Telangana","latitude":17.9689,"longitude":79.5941,"temp":33.2,"humidity":48,"rain":0.2,"pressure":974.4,"uv_index":5.7,"wind_gusts":35.6,"aqi":53,"pm10":21.3,"pm2_5":15.1,"no2":2.5,"co":173.0,"o3":97.0,"so2":4.2,"mosquito_risk":3,"arthritis_risk":5,"migraine_risk":3,"frizz_risk":1,"updated_at":"2026-06-25T13:18:26.070949+05:30"},{"city":"Nizamabad","state":"Telangana","latitude":18.6725,"longitude":78.0941,"temp":32.1,"humidity":53,"rain":0.0,"pressure":961.2,"uv_index":6.65,"wind_gusts":39.2,"aqi":57,"pm10":33.6,"pm2_5":19.4,"no2":2.5,"co":153.0,"o3":97.0,"so2":6.3,"mosquito_risk":0,"arthritis_risk":5,"migraine_risk":7,"frizz_risk":1,"updated_at":"2026-06-25T13:18:26.070957+05:30"},{"city":"Mysore","state":"Karnataka","latitude":12.2958,"longitude":76.6396,"temp":29.0,"humidity":57,"rain":0.0,"pressure":928.2,"uv_index":8.2,"wind_gusts":47.9,"aqi":22,"pm10":8.2,"pm2_5":4.9,"no2":1.3,"co":118.0,"o3":71.0,"so2":1.4,"mosquito_risk":4,"arthritis_risk":5,"migraine_risk":7,"frizz_risk":1,"updated_at":"2026-06-25T13:18:26.070964+05:30"},{"city":"Mangalore","state":"Karnataka","latitude":12.9141,"longitude":74.856,"temp":29.1,"humidity":74,"rain":0.0,"pressure":1007.2,"uv_index":8.6,"wind_gusts":32.4,"aqi":43,"pm10":11.5,"pm2_5":7.1,"no2":1.9,"co":102.0,"o3":64.0,"so2":2.4,"mosquito_risk":7,"arthritis_risk":5,"migraine_risk":4,"frizz_risk":1,"updated_at":"2026-06-25T13:18:26.070972+05:30"},{"city":"Hubli-Dharwad","state":"Karnataka","latitude":15.3647,"longitude":75.124,"temp":29.3,"humidity":61,"rain":0.0,"pressure":940.3,"uv_index":8.75,"wind_gusts":51.8,"aqi":22,"pm10":3.0,"pm2_5":1.7,"no2":1.7,"co":111.0,"o3":58.0,"so2":0.9,"mosquito_risk":7,"arthritis_risk":5,"migraine_risk":7,"frizz_risk":1,"updated_at":"2026-06-25T13:18:26.070980+05:30"},{"city":"Belgaum","state":"Karnataka","latitude":15.8497,"longitude":74.4977,"temp":26.6,"humidity":71,"rain":0.0,"pressure":925.2,"uv_index":6.2,"wind_gusts":47.9,"aqi":20,"pm10":5.1,"pm2_5":2.9,"no2":1.6,"co":104.0,"o3":58.0,"so2":1.4,"mosquito_risk":7,"arthritis_risk":5,"migraine_risk":7,"frizz_risk":1,"updated_at":"2026-06-25T13:18:29.398334+05:30"},{"city":"Coimbatore","state":"Tamil Nadu","latitude":11.0168,"longitude":76.9558,"temp":31.8,"humidity":47,"rain":0.0,"pressure":961.0,"uv_index":8.2,"wind_gusts":51.8,"aqi":22,"pm10":6.8,"pm2_5":4.6,"no2":1.4,"co":117.0,"o3":68.0,"so2":1.8,"mosquito_risk":0,"arthritis_risk":5,"migraine_risk":7,"frizz_risk":1,"updated_at":"2026-06-25T13:18:29.398370+05:30"},{"city":"Madurai","state":"Tamil Nadu","latitude":9.9252,"longitude":78.1198,"temp":37.3,"humidity":35,"rain":0.0,"pressure":991.0,"uv_index":8.6,"wind_gusts":33.8,"aqi":69,"pm10":9.5,"pm2_5":7.7,"no2":1.6,"co":179.0,"o3":117.0,"so2":3.4,"mosquito_risk":0,"arthritis_risk":5,"migraine_risk":10,"frizz_risk":1,"updated_at":"2026-06-25T13:18:29.398384+05:30"},{"city":"Trichy","state":"Tamil Nadu","latitude":10.7905,"longitude":78.7047,"temp":36.3,"humidity":41,"rain":0.0,"pressure":997.1,"uv_index":8.35,"wind_gusts":53.6,"aqi":37,"pm10":9.5,"pm2_5":6.1,"no2":1.2,"co":110.0,"o3":83.0,"so2":2.0,"mosquito_risk":0,"arthritis_risk":5,"migraine_risk":10,"frizz_risk":1,"updated_at":"2026-06-25T13:18:29.398394+05:30"},{"city":"Salem","state":"Tamil Nadu","latitude":11.6643,"longitude":78.146,"temp":33.8,"humidity":49,"rain":0.0,"pressure":976.0,"uv_index":8.8,"wind_gusts":37.4,"aqi":55,"pm10":14.8,"pm2_5":10.2,"no2":1.8,"co":167.0,"o3":108.0,"so2":6.5,"mosquito_risk":0,"arthritis_risk":5,"migraine_risk":7,"frizz_risk":1,"updated_at":"2026-06-25T13:18:29.398404+05:30"},{"city":"Tirunelveli","state":"Tamil Nadu","latitude":8.7139,"longitude":77.7567,"temp":36.0,"humidity":40,"rain":0.0,"pressure":1001.8,"uv_index":8.55,"wind_gusts":45.4,"aqi":21,"pm10":5.5,"pm2_5":4.1,"no2":1.3,"co":112.0,"o3":69.0,"so2":1.3,"mosquito_risk":0,"arthritis_risk":5,"migraine_risk":7,"frizz_risk":1,"updated_at":"2026-06-25T13:18:29.398413+05:30"},{"city":"Vellore","state":"Tamil Nadu","latitude":12.9165,"longitude":79.1325,"temp":35.7,"humidity":41,"rain":0.0,"pressure":981.5,"uv_index":8.1,"wind_gusts":43.6,"aqi":45,"pm10":16.1,"pm2_5":9.4,"no2":1.0,"co":135.0,"o3":92.0,"so2":2.2,"mosquito_risk":0,"arthritis_risk":5,"migraine_risk":10,"frizz_risk":1,"updated_at":"2026-06-25T13:18:29.398422+05:30"},{"city":"Erode","state":"Tamil Nadu","latitude":11.341,"longitude":77.7172,"temp":37.1,"humidity":36,"rain":0.0,"pressure":987.2,"uv_index":8.8,"wind_gusts":38.9,"aqi":42,"pm10":10.0,"pm2_5":7.1,"no2":1.5,"co":146.0,"o3":95.0,"so2":2.2,"mosquito_risk":0,"arthritis_risk":5,"migraine_risk":10,"frizz_risk":1,"updated_at":"2026-06-25T13:18:29.398431+05:30"},{"city":"Kochi","state":"Kerala","latitude":9.9312,"longitude":76.2673,"temp":28.8,"humidity":78,"rain":0.0,"pressure":1009.3,"uv_index":8.35,"wind_gusts":38.5,"aqi":37,"pm10":7.2,"pm2_5":5.5,"no2":3.3,"co":116.0,"o3":55.0,"so2":2.9,"mosquito_risk":7,"arthritis_risk":0,"migraine_risk":4,"frizz_risk":1,"updated_at":"2026-06-25T13:18:29.398440+05:30"},{"city":"Thiruvananthapuram","state":"Kerala","latitude":8.5241,"longitude":76.9366,"temp":28.9,"humidity":76,"rain":0.0,"pressure":1008.3,"uv_index":8.3,"wind_gusts":55.4,"aqi":27,"pm10":10.8,"pm2_5":7.1,"no2":1.2,"co":91.0,"o3":65.0,"so2":1.2,"mosquito_risk":7,"arthritis_risk":0,"migraine_risk":4,"frizz_risk":1,"updated_at":"2026-06-25T13:18:29.398448+05:30"},{"city":"Kozhikode","state":"Kerala","latitude":11.2588,"longitude":75.7804,"temp":28.9,"humidity":75,"rain":0.1,"pressure":1008.3,"uv_index":8.5,"wind_gusts":31.3,"aqi":25,"pm10":6.9,"pm2_5":4.2,"no2":0.6,"co":117.0,"o3":59.0,"so2":0.9,"mosquito_risk":10,"arthritis_risk":0,"migraine_risk":4,"frizz_risk":1,"updated_at":"2026-06-25T13:18:29.398456+05:30"},{"city":"Thrissur","state":"Kerala","latitude":10.5276,"longitude":76.2144,"temp":29.9,"humidity":72,"rain":0.1,"pressure":1007.4,"uv_index":8.4,"wind_gusts":35.6,"aqi":39,"pm10":6.5,"pm2_5":5.1,"no2":1.6,"co":125.0,"o3":63.0,"so2":2.0,"mosquito_risk":10,"arthritis_risk":5,"migraine_risk":4,"frizz_risk":1,"updated_at":"2026-06-25T13:18:29.398465+05:30"},{"city":"Kannur","state":"Kerala","latitude":11.8745,"longitude":75.3704,"temp":28.6,"humidity":76,"rain":0.0,"pressure":1007.9,"uv_index":8.35,"wind_gusts":35.3,"aqi":26,"pm10":10.9,"pm2_5":6.3,"no2":1.1,"co":116.0,"o3":63.0,"so2":1.3,"mosquito_risk":7,"arthritis_risk":5,"migraine_risk":4,"frizz_risk":1,"updated_at":"2026-06-25T13:18:29.398474+05:30"},{"city":"Patna","state":"Bihar","latitude":25.5941,"longitude":85.1376,"temp":38.2,"humidity":43,"rain":0.0,"pressure":994.9,"uv_index":8.85,"wind_gusts":22.0,"aqi":151,"pm10":108.7,"pm2_5":45.9,"no2":2.1,"co":286.0,"o3":207.0,"so2":16.6,"mosquito_risk":0,"arthritis_risk":5,"migraine_risk":10,"frizz_risk":1,"updated_at":"2026-06-25T13:18:29.398483+05:30"},{"city":"Gaya","state":"Bihar","latitude":24.7914,"longitude":85.0002,"temp":37.3,"humidity":43,"rain":0.0,"pressure":988.7,"uv_index":8.95,"wind_gusts":21.6,"aqi":90,"pm10":89.2,"pm2_5":38.0,"no2":1.5,"co":189.0,"o3":173.0,"so2":14.8,"mosquito_risk":0,"arthritis_risk":5,"migraine_risk":10,"frizz_risk":1,"updated_at":"2026-06-25T13:18:29.398491+05:30"},{"city":"Muzaffarpur","state":"Bihar","latitude":26.1209,"longitude":85.3647,"temp":35.6,"humidity":56,"rain":0.0,"pressure":995.0,"uv_index":8.85,"wind_gusts":29.2,"aqi":157,"pm10":107.8,"pm2_5":59.3,"no2":2.6,"co":414.0,"o3":234.0,"so2":18.5,"mosquito_risk":0,"arthritis_risk":5,"migraine_risk":10,"frizz_risk":1,"updated_at":"2026-06-25T13:18:29.398500+05:30"},{"city":"Bhagalpur","state":"Bihar","latitude":25.2425,"longitude":87.0117,"temp":34.5,"humidity":59,"rain":0.2,"pressure":995.7,"uv_index":8.85,"wind_gusts":25.9,"aqi":154,"pm10":95.0,"pm2_5":58.0,"no2":3.1,"co":316.0,"o3":225.0,"so2":19.0,"mosquito_risk":3,"arthritis_risk":5,"migraine_risk":7,"frizz_risk":1,"updated_at":"2026-06-25T13:18:29.398509+05:30"},{"city":"Ranchi","state":"Jharkhand","latitude":23.3441,"longitude":85.3096,"temp":31.9,"humidity":57,"rain":0.0,"pressure":934.7,"uv_index":9.15,"wind_gusts":22.7,"aqi":77,"pm10":24.7,"pm2_5":23.3,"no2":1.2,"co":176.0,"o3":157.0,"so2":10.9,"mosquito_risk":0,"arthritis_risk":5,"migraine_risk":7,"frizz_risk":1,"updated_at":"2026-06-25T13:18:29.398518+05:30"},{"city":"Jamshedpur","state":"Jharkhand","latitude":22.8046,"longitude":86.2029,"temp":32.9,"humidity":63,"rain":0.1,"pressure":986.3,"uv_index":9.05,"wind_gusts":37.1,"aqi":94,"pm10":31.1,"pm2_5":30.6,"no2":1.9,"co":242.0,"o3":183.0,"so2":21.9,"mosquito_risk":6,"arthritis_risk":5,"migraine_risk":7,"frizz_risk":1,"updated_at":"2026-06-25T13:18:29.398525+05:30"},{"city":"Dhanbad","state":"Jharkhand","latitude":23.7957,"longitude":86.4304,"temp":36.6,"humidity":46,"rain":0.0,"pressure":975.1,"uv_index":9.05,"wind_gusts":23.0,"aqi":142,"pm10":48.3,"pm2_5":47.1,"no2":9.8,"co":172.0,"o3":204.0,"so2":55.6,"mosquito_risk":0,"arthritis_risk":5,"migraine_risk":10,"frizz_risk":1,"updated_at":"2026-06-25T13:18:29.398532+05:30"},{"city":"Bokaro","state":"Jharkhand","latitude":23.6693,"longitude":86.1511,"temp":36.1,"humidity":48,"rain":0.0,"pressure":979.0,"uv_index":9.1,"wind_gusts":26.6,"aqi":114,"pm10":45.3,"pm2_5":41.9,"no2":10.6,"co":184.0,"o3":188.0,"so2":55.5,"mosquito_risk":0,"arthritis_risk":5,"migraine_risk":10,"frizz_risk":1,"updated_at":"2026-06-25T13:18:29.398539+05:30"},{"city":"Bhubaneswar","state":"Odisha","latitude":20.2961,"longitude":85.8245,"temp":33.2,"humidity":66,"rain":0.0,"pressure":997.9,"uv_index":9.05,"wind_gusts":35.3,"aqi":82,"pm10":19.8,"pm2_5":19.2,"no2":1.9,"co":208.0,"o3":165.0,"so2":11.4,"mosquito_risk":3,"arthritis_risk":5,"migraine_risk":7,"frizz_risk":1,"updated_at":"2026-06-25T13:18:29.398545+05:30"},{"city":"Cuttack","state":"Odisha","latitude":20.4625,"longitude":85.8828,"temp":33.1,"humidity":68,"rain":0.0,"pressure":999.7,"uv_index":9.15,"wind_gusts":35.6,"aqi":82,"pm10":19.8,"pm2_5":19.2,"no2":1.9,"co":229.0,"o3":165.0,"so2":11.4,"mosquito_risk":3,"arthritis_risk":5,"migraine_risk":7,"frizz_risk":1,"updated_at":"2026-06-25T13:18:29.398552+05:30"},{"city":"Rourkela","state":"Odisha","latitude":22.2604,"longitude":84.8536,"temp":36.4,"humidity":44,"rain":0.0,"pressure":980.0,"uv_index":9.0,"wind_gusts":32.8,"aqi":90,"pm10":23.4,"pm2_5":23.2,"no2":1.4,"co":202.0,"o3":156.0,"so2":14.3,"mosquito_risk":0,"arthritis_risk":5,"migraine_risk":10,"frizz_risk":1,"updated_at":"2026-06-25T13:18:29.398558+05:30"},{"city":"Raipur","state":"Chhattisgarh","latitude":21.2514,"longitude":81.6296,"temp":35.2,"humidity":43,"rain":0.1,"pressure":970.1,"uv_index":8.85,"wind_gusts":31.0,"aqi":72,"pm10":27.7,"pm2_5":27.6,"no2":10.3,"co":286.0,"o3":132.0,"so2":44.3,"mosquito_risk":3,"arthritis_risk":5,"migraine_risk":10,"frizz_risk":1,"updated_at":"2026-06-25T13:18:29.398565+05:30"},{"city":"Bhilai","state":"Chhattisgarh","latitude":21.1938,"longitude":81.3509,"temp":34.9,"humidity":44,"rain":0.0,"pressure":970.5,"uv_index":8.9,"wind_gusts":34.2,"aqi":67,"pm10":23.9,"pm2_5":23.7,"no2":11.2,"co":509.0,"o3":118.0,"so2":44.3,"mosquito_risk":0,"arthritis_risk":5,"migraine_risk":7,"frizz_risk":1,"updated_at":"2026-06-25T13:18:29.398572+05:30"},{"city":"Guwahati","state":"Assam","latitude":26.1158,"longitude":91.7086,"temp":31.7,"humidity":71,"rain":0.1,"pressure":996.2,"uv_index":8.8,"wind_gusts":21.6,"aqi":66,"pm10":26.1,"pm2_5":18.1,"no2":1.2,"co":319.0,"o3":146.0,"so2":5.9,"mosquito_risk":6,"arthritis_risk":5,"migraine_risk":7,"frizz_risk":1,"updated_at":"2026-06-25T13:18:29.398578+05:30"},{"city":"Agartala","state":"Tripura","latitude":23.8315,"longitude":91.2868,"temp":31.1,"humidity":72,"rain":0.0,"pressure":1001.8,"uv_index":8.55,"wind_gusts":27.0,"aqi":79,"pm10":45.8,"pm2_5":35.4,"no2":3.1,"co":190.0,"o3":157.0,"so2":6.5,"mosquito_risk":3,"arthritis_risk":5,"migraine_risk":4,"frizz_risk":1,"updated_at":"2026-06-25T13:18:29.398608+05:30"},{"city":"Shillong","state":"Meghalaya","latitude":25.5788,"longitude":91.8933,"temp":26.3,"humidity":58,"rain":0.0,"pressure":856.2,"uv_index":7.05,"wind_gusts":17.6,"aqi":55,"pm10":17.7,"pm2_5":12.2,"no2":1.6,"co":262.0,"o3":134.0,"so2":3.8,"mosquito_risk":4,"arthritis_risk":5,"migraine_risk":7,"frizz_risk":1,"updated_at":"2026-06-25T13:18:29.398616+05:30"},{"city":"Imphal","state":"Manipur","latitude":24.817,"longitude":93.9368,"temp":26.8,"humidity":79,"rain":0.0,"pressure":919.6,"uv_index":8.5,"wind_gusts":22.7,"aqi":51,"pm10":28.3,"pm2_5":14.8,"no2":0.9,"co":205.0,"o3":117.0,"so2":3.2,"mosquito_risk":7,"arthritis_risk":5,"migraine_risk":7,"frizz_risk":1,"updated_at":"2026-06-25T13:18:29.398623+05:30"},{"city":"Aizawl","state":"Mizoram","latitude":23.7271,"longitude":92.7176,"temp":21.9,"humidity":92,"rain":0.2,"pressure":889.8,"uv_index":8.55,"wind_gusts":20.5,"aqi":49,"pm10":81.3,"pm2_5":33.3,"no2":0.4,"co":171.0,"o3":112.0,"so2":3.4,"mosquito_risk":6,"arthritis_risk":5,"migraine_risk":7,"frizz_risk":1,"updated_at":"2026-06-25T13:18:29.398630+05:30"},{"city":"Kohima","state":"Nagaland","latitude":25.6701,"longitude":94.1077,"temp":23.4,"humidity":91,"rain":0.1,"pressure":853.5,"uv_index":9.25,"wind_gusts":23.0,"aqi":43,"pm10":15.0,"pm2_5":8.4,"no2":0.7,"co":215.0,"o3":113.0,"so2":2.6,"mosquito_risk":6,"arthritis_risk":5,"migraine_risk":7,"frizz_risk":1,"updated_at":"2026-06-25T13:18:29.398638+05:30"},{"city":"Gangtok","state":"Sikkim","latitude":27.3314,"longitude":88.6138,"temp":23.7,"humidity":67,"rain":0.2,"pressure":836.9,"uv_index":8.8,"wind_gusts":37.4,"aqi":47,"pm10":17.8,"pm2_5":11.8,"no2":0.9,"co":283.0,"o3":148.0,"so2":3.2,"mosquito_risk":6,"arthritis_risk":5,"migraine_risk":7,"frizz_risk":1,"updated_at":"2026-06-25T13:18:29.398645+05:30"},{"city":"Siliguri","state":"West Bengal","latitude":26.7271,"longitude":88.3953,"temp":31.4,"humidity":72,"rain":0.0,"pressure":988.2,"uv_index":8.4,"wind_gusts":27.0,"aqi":95,"pm10":37.6,"pm2_5":27.1,"no2":2.0,"co":430.0,"o3":170.0,"so2":7.5,"mosquito_risk":3,"arthritis_risk":5,"migraine_risk":7,"frizz_risk":1,"updated_at":"2026-06-25T13:18:32.722558+05:30"},{"city":"Durgapur","state":"West Bengal","latitude":23.5204,"longitude":87.3119,"temp":36.0,"humidity":54,"rain":0.0,"pressure":989.5,"uv_index":8.9,"wind_gusts":50.8,"aqi":155,"pm10":61.2,"pm2_5":60.3,"no2":11.2,"co":472.0,"o3":222.0,"so2":64.9,"mosquito_risk":0,"arthritis_risk":5,"migraine_risk":10,"frizz_risk":1,"updated_at":"2026-06-25T13:18:32.722618+05:30"},{"city":"Asansol","state":"West Bengal","latitude":23.6739,"longitude":86.9524,"temp":36.2,"humidity":51,"rain":0.0,"pressure":988.1,"uv_index":8.85,"wind_gusts":34.9,"aqi":148,"pm10":50.6,"pm2_5":49.8,"no2":8.4,"co":426.0,"o3":210.0,"so2":49.7,"mosquito_risk":0,"arthritis_risk":5,"migraine_risk":10,"frizz_risk":1,"updated_at":"2026-06-25T13:18:32.722634+05:30"},{"city":"Pondicherry","state":"Puducherry","latitude":11.9139,"longitude":79.8145,"temp":34.0,"humidity":57,"rain":0.0,"pressure":1005.4,"uv_index":7.75,"wind_gusts":40.7,"aqi":63,"pm10":21.8,"pm2_5":16.8,"no2":2.2,"co":181.0,"o3":133.0,"so2":6.2,"mosquito_risk":0,"arthritis_risk":5,"migraine_risk":4,"frizz_risk":1,"updated_at":"2026-06-25T13:18:32.722643+05:30"},{"city":"Port Blair","state":"Andaman and Nicobar Islands","latitude":11.6234,"longitude":92.7265,"temp":29.4,"humidity":74,"rain":0.1,"pressure":1005.7,"uv_index":7.1,"wind_gusts":45.0,"aqi":28,"pm10":6.8,"pm2_5":4.2,"no2":0.3,"co":90.0,"o3":56.0,"so2":0.5,"mosquito_risk":10,"arthritis_risk":5,"migraine_risk":4,"frizz_risk":1,"updated_at":"2026-06-25T13:18:32.722652+05:30"},{"city":"Haridwar","state":"Uttarakhand","latitude":29.9457,"longitude":78.1642,"temp":36.6,"humidity":38,"rain":0.0,"pressure":969.8,"uv_index":7.05,"wind_gusts":25.2,"aqi":140,"pm10":63.6,"pm2_5":35.6,"no2":1.2,"co":277.0,"o3":196.0,"so2":7.5,"mosquito_risk":0,"arthritis_risk":5,"migraine_risk":10,"frizz_risk":1,"updated_at":"2026-06-25T13:18:32.722660+05:30"},{"city":"Rishikesh","state":"Uttarakhand","latitude":30.0869,"longitude":78.2676,"temp":35.5,"humidity":38,"rain":0.0,"pressure":963.0,"uv_index":7.15,"wind_gusts":19.4,"aqi":119,"pm10":50.6,"pm2_5":30.3,"no2":0.7,"co":261.0,"o3":182.0,"so2":6.2,"mosquito_risk":0,"arthritis_risk":5,"migraine_risk":10,"frizz_risk":1,"updated_at":"2026-06-25T13:18:32.722667+05:30"},{"city":"Nainital","state":"Uttarakhand","latitude":29.3919,"longitude":79.4542,"temp":23.1,"humidity":55,"rain":0.2,"pressure":807.5,"uv_index":6.85,"wind_gusts":29.2,"aqi":116,"pm10":86.8,"pm2_5":32.9,"no2":1.1,"co":246.0,"o3":178.0,"so2":6.4,"mosquito_risk":3,"arthritis_risk":5,"migraine_risk":7,"frizz_risk":0,"updated_at":"2026-06-25T13:18:32.722675+05:30"},{"city":"Mussoorie","state":"Uttarakhand","latitude":30.4599,"longitude":78.0664,"temp":18.9,"humidity":85,"rain":0.1,"pressure":803.6,"uv_index":7.15,"wind_gusts":30.6,"aqi":101,"pm10":37.7,"pm2_5":29.1,"no2":1.1,"co":247.0,"o3":193.0,"so2":6.8,"mosquito_risk":6,"arthritis_risk":10,"migraine_risk":7,"frizz_risk":1,"updated_at":"2026-06-25T13:18:32.722683+05:30"},{"city":"Dharamshala","state":"Himachal Pradesh","latitude":32.219,"longitude":76.3234,"temp":26.4,"humidity":57,"rain":0.0,"pressure":868.9,"uv_index":8.55,"wind_gusts":39.2,"aqi":49,"pm10":17.1,"pm2_5":12.1,"no2":0.6,"co":238.0,"o3":152.0,"so2":1.5,"mosquito_risk":4,"arthritis_risk":5,"migraine_risk":7,"frizz_risk":1,"updated_at":"2026-06-25T13:18:32.722691+05:30"},{"city":"Dalhousie","state":"Himachal Pradesh","latitude":32.5387,"longitude":75.971,"temp":20.6,"humidity":82,"rain":0.1,"pressure":805.4,"uv_index":8.05,"wind_gusts":30.2,"aqi":79,"pm10":41.2,"pm2_5":26.5,"no2":1.2,"co":263.0,"o3":175.0,"so2":3.6,"mosquito_risk":6,"arthritis_risk":5,"migraine_risk":7,"frizz_risk":1,"updated_at":"2026-06-25T13:18:32.722699+05:30"},{"city":"Patiala","state":"Punjab","latitude":30.3398,"longitude":76.3869,"temp":36.6,"humidity":37,"rain":0.0,"pressure":974.0,"uv_index":7.7,"wind_gusts":20.2,"aqi":195,"pm10":238.0,"pm2_5":71.2,"no2":1.5,"co":234.0,"o3":204.0,"so2":14.3,"mosquito_risk":0,"arthritis_risk":5,"migraine_risk":10,"frizz_risk":1,"updated_at":"2026-06-25T13:18:32.722706+05:30"},{"city":"Bhatinda","state":"Punjab","latitude":30.211,"longitude":74.9455,"temp":35.8,"humidity":44,"rain":0.0,"pressure":979.2,"uv_index":8.3,"wind_gusts":26.6,"aqi":158,"pm10":237.0,"pm2_5":68.0,"no2":2.2,"co":171.0,"o3":169.0,"so2":17.1,"mosquito_risk":0,"arthritis_risk":5,"migraine_risk":10,"frizz_risk":1,"updated_at":"2026-06-25T13:18:32.722713+05:30"},{"city":"Rohtak","state":"Haryana","latitude":28.8955,"longitude":76.6066,"temp":36.6,"humidity":38,"rain":0.0,"pressure":977.4,"uv_index":7.75,"wind_gusts":18.7,"aqi":213,"pm10":281.3,"pm2_5":71.2,"no2":0.0,"co":161.0,"o3":140.0,"so2":2.3,"mosquito_risk":0,"arthritis_risk":5,"migraine_risk":10,"frizz_risk":1,"updated_at":"2026-06-25T13:18:32.722720+05:30"},{"city":"Panipat","state":"Haryana","latitude":29.3909,"longitude":76.9635,"temp":36.6,"humidity":39,"rain":0.0,"pressure":976.1,"uv_index":7.65,"wind_gusts":19.8,"aqi":395,"pm10":426.5,"pm2_5":97.8,"no2":3.1,"co":185.0,"o3":176.0,"so2":22.1,"mosquito_risk":0,"arthritis_risk":5,"migraine_risk":10,"frizz_risk":1,"updated_at":"2026-06-25T13:18:32.722727+05:30"},{"city":"Mathura","state":"Uttar Pradesh","latitude":27.4924,"longitude":77.6737,"temp":38.0,"humidity":34,"rain":0.0,"pressure":981.9,"uv_index":8.05,"wind_gusts":17.6,"aqi":328,"pm10":426.5,"pm2_5":76.4,"no2":0.8,"co":176.0,"o3":121.0,"so2":2.0,"mosquito_risk":0,"arthritis_risk":5,"migraine_risk":10,"frizz_risk":1,"updated_at":"2026-06-25T13:18:32.722734+05:30"},{"city":"Vrindavan","state":"Uttar Pradesh","latitude":27.5823,"longitude":77.7027,"temp":37.7,"humidity":35,"rain":0.0,"pressure":982.4,"uv_index":8.0,"wind_gusts":16.9,"aqi":328,"pm10":426.5,"pm2_5":76.4,"no2":0.8,"co":173.0,"o3":121.0,"so2":2.0,"mosquito_risk":0,"arthritis_risk":5,"migraine_risk":10,"frizz_risk":1,"updated_at":"2026-06-25T13:18:32.722741+05:30"},{"city":"Ayodhya","state":"Uttar Pradesh","latitude":26.7922,"longitude":82.1998,"temp":38.6,"humidity":34,"rain":0.0,"pressure":989.7,"uv_index":8.4,"wind_gusts":26.6,"aqi":164,"pm10":243.1,"pm2_5":62.9,"no2":0.7,"co":206.0,"o3":154.0,"so2":6.0,"mosquito_risk":0,"arthritis_risk":5,"migraine_risk":10,"frizz_risk":1,"updated_at":"2026-06-25T13:18:32.722747+05:30"},{"city":"Ratlam","state":"Madhya Pradesh","latitude":23.3315,"longitude":75.0367,"temp":33.5,"humidity":51,"rain":0.0,"pressure":951.8,"uv_index":6.2,"wind_gusts":39.6,"aqi":74,"pm10":55.4,"pm2_5":25.3,"no2":0.7,"co":116.0,"o3":100.0,"so2":4.6,"mosquito_risk":0,"arthritis_risk":5,"migraine_risk":7,"frizz_risk":1,"updated_at":"2026-06-25T13:18:32.722754+05:30"},{"city":"Sagar","state":"Madhya Pradesh","latitude":23.8388,"longitude":78.7378,"temp":32.9,"humidity":49,"rain":0.0,"pressure":947.3,"uv_index":8.35,"wind_gusts":37.8,"aqi":75,"pm10":74.7,"pm2_5":30.9,"no2":1.0,"co":175.0,"o3":118.0,"so2":5.9,"mosquito_risk":0,"arthritis_risk":5,"migraine_risk":7,"frizz_risk":1,"updated_at":"2026-06-25T13:18:32.722761+05:30"},{"city":"Satna","state":"Madhya Pradesh","latitude":24.6005,"longitude":80.8322,"temp":36.1,"humidity":42,"rain":0.0,"pressure":967.4,"uv_index":7.05,"wind_gusts":26.3,"aqi":82,"pm10":96.4,"pm2_5":32.2,"no2":0.7,"co":154.0,"o3":125.0,"so2":3.5,"mosquito_risk":0,"arthritis_risk":5,"migraine_risk":10,"frizz_risk":1,"updated_at":"2026-06-25T13:18:32.722768+05:30"},{"city":"Akola","state":"Maharashtra","latitude":20.7002,"longitude":77.0082,"temp":32.7,"humidity":53,"rain":0.0,"pressure":971.8,"uv_index":5.55,"wind_gusts":38.5,"aqi":61,"pm10":36.1,"pm2_5":17.6,"no2":1.9,"co":124.0,"o3":89.0,"so2":6.3,"mosquito_risk":0,"arthritis_risk":5,"migraine_risk":3,"frizz_risk":1,"updated_at":"2026-06-25T13:18:32.722776+05:30"},{"city":"Amravati","state":"Maharashtra","latitude":20.9374,"longitude":77.7796,"temp":31.9,"humidity":55,"rain":0.0,"pressure":963.9,"uv_index":7.65,"wind_gusts":35.3,"aqi":59,"pm10":42.4,"pm2_5":19.8,"no2":2.3,"co":150.0,"o3":98.0,"so2":7.2,"mosquito_risk":0,"arthritis_risk":5,"migraine_risk":7,"frizz_risk":1,"updated_at":"2026-06-25T13:18:32.722784+05:30"},{"city":"Latur","state":"Maharashtra","latitude":18.4088,"longitude":76.5604,"temp":28.2,"humidity":63,"rain":0.0,"pressure":937.3,"uv_index":7.05,"wind_gusts":46.8,"aqi":40,"pm10":38.5,"pm2_5":15.7,"no2":1.4,"co":127.0,"o3":81.0,"so2":2.4,"mosquito_risk":7,"arthritis_risk":5,"migraine_risk":7,"frizz_risk":1,"updated_at":"2026-06-25T13:18:32.722791+05:30"},{"city":"Nanded","state":"Maharashtra","latitude":19.1383,"longitude":77.3091,"temp":28.8,"humidity":74,"rain":0.0,"pressure":965.6,"uv_index":8.05,"wind_gusts":41.0,"aqi":59,"pm10":33.2,"pm2_5":16.1,"no2":1.1,"co":160.0,"o3":102.0,"so2":3.7,"mosquito_risk":7,"arthritis_risk":5,"migraine_risk":7,"frizz_risk":1,"updated_at":"2026-06-25T13:18:32.722798+05:30"},{"city":"Gulbarga","state":"Karnataka","latitude":17.3297,"longitude":76.8343,"temp":31.2,"humidity":53,"rain":0.0,"pressure":956.2,"uv_index":6.25,"wind_gusts":43.6,"aqi":23,"pm10":34.8,"pm2_5":11.8,"no2":1.3,"co":122.0,"o3":86.0,"so2":2.1,"mosquito_risk":0,"arthritis_risk":5,"migraine_risk":7,"frizz_risk":1,"updated_at":"2026-06-25T13:18:32.722805+05:30"},{"city":"Bidar","state":"Karnataka","latitude":17.9104,"longitude":77.5199,"temp":29.3,"humidity":63,"rain":0.0,"pressure":933.2,"uv_index":6.95,"wind_gusts":42.8,"aqi":38,"pm10":35.0,"pm2_5":15.8,"no2":2.1,"co":131.0,"o3":93.0,"so2":4.4,"mosquito_risk":7,"arthritis_risk":5,"migraine_risk":7,"frizz_risk":1,"updated_at":"2026-06-25T13:18:32.722812+05:30"},{"city":"Hospet","state":"Karnataka","latitude":15.2689,"longitude":76.3909,"temp":28.3,"humidity":73,"rain":0.0,"pressure":954.2,"uv_index":8.1,"wind_gusts":48.2,"aqi":23,"pm10":6.7,"pm2_5":3.4,"no2":1.3,"co":120.0,"o3":68.0,"so2":1.5,"mosquito_risk":7,"arthritis_risk":5,"migraine_risk":7,"frizz_risk":1,"updated_at":"2026-06-25T13:18:32.722818+05:30"},{"city":"Tirupur","state":"Tamil Nadu","latitude":11.1085,"longitude":77.3411,"temp":32.9,"humidity":49,"rain":0.0,"pressure":973.9,"uv_index":8.05,"wind_gusts":50.8,"aqi":48,"pm10":9.5,"pm2_5":6.9,"no2":1.5,"co":143.0,"o3":87.0,"so2":2.4,"mosquito_risk":0,"arthritis_risk":5,"migraine_risk":7,"frizz_risk":1,"updated_at":"2026-06-25T13:18:32.722825+05:30"},{"city":"Alappuzha","state":"Kerala","latitude":9.4981,"longitude":76.3388,"temp":29.2,"humidity":75,"rain":0.0,"pressure":1009.2,"uv_index":8.0,"wind_gusts":47.9,"aqi":32,"pm10":10.2,"pm2_5":7.5,"no2":3.4,"co":85.0,"o3":63.0,"so2":3.2,"mosquito_risk":7,"arthritis_risk":0,"migraine_risk":4,"frizz_risk":1,"updated_at":"2026-06-25T13:18:32.722831+05:30"},{"city":"Munnar","state":"Kerala","latitude":10.0889,"longitude":77.0595,"temp":19.5,"humidity":95,"rain":0.2,"pressure":857.6,"uv_index":9.0,"wind_gusts":40.3,"aqi":20,"pm10":4.8,"pm2_5":3.2,"no2":0.8,"co":88.0,"o3":55.0,"so2":0.9,"mosquito_risk":6,"arthritis_risk":10,"migraine_risk":7,"frizz_risk":1,"updated_at":"2026-06-25T13:18:32.722839+05:30"},{"city":"Silchar","state":"Assam","latitude":24.8333,"longitude":92.7789,"temp":32.2,"humidity":68,"rain":0.0,"pressure":999.9,"uv_index":8.7,"wind_gusts":20.2,"aqi":64,"pm10":52.9,"pm2_5":25.5,"no2":1.1,"co":227.0,"o3":126.0,"so2":5.2,"mosquito_risk":3,"arthritis_risk":5,"migraine_risk":7,"frizz_risk":1,"updated_at":"2026-06-25T13:18:32.722845+05:30"},{"city":"Dibrugarh","state":"Assam","latitude":27.4728,"longitude":94.912,"temp":33.0,"humidity":63,"rain":0.0,"pressure":988.9,"uv_index":8.55,"wind_gusts":20.9,"aqi":51,"pm10":9.3,"pm2_5":7.2,"no2":1.0,"co":243.0,"o3":134.0,"so2":2.0,"mosquito_risk":3,"arthritis_risk":5,"migraine_risk":7,"frizz_risk":1,"updated_at":"2026-06-25T13:18:32.722852+05:30"}]