[{"city":"Delhi","state":"Delhi","latitude":28.6139,"longitude":77.209,"temp":31.0,"humidity":36,"rain":0.0,"pressure":986.8,"uv_index":6.85,"wind_gusts":22.3,"aqi":129,"pm10":166.7,"pm2_5":39.0,"mosquito_risk":0,"arthritis_risk":5,"migraine_risk":7,"frizz_risk":0,"updated_at":"2026-04-01T12:56:01.641861+05:30"},{"city":"Mumbai","state":"Maharashtra","latitude":19.076,"longitude":72.8777,"temp":27.8,"humidity":76,"rain":0.0,"pressure":1010.1,"uv_index":7.85,"wind_gusts":23.8,"aqi":62,"pm10":46.6,"pm2_5":24.8,"mosquito_risk":7,"arthritis_risk":0,"migraine_risk":4,"frizz_risk":1,"updated_at":"2026-04-01T12:56:01.641896+05:30"},{"city":"Bangalore","state":"Karnataka","latitude":12.9716,"longitude":77.5946,"temp":32.7,"humidity":24,"rain":0.0,"pressure":913.6,"uv_index":9.55,"wind_gusts":29.9,"aqi":80,"pm10":32.5,"pm2_5":22.0,"mosquito_risk":0,"arthritis_risk":5,"migraine_risk":7,"frizz_risk":0,"updated_at":"2026-04-01T12:56:01.641911+05:30"},{"city":"Hyderabad","state":"Telangana","latitude":17.385,"longitude":78.4867,"temp":34.8,"humidity":34,"rain":0.0,"pressure":955.1,"uv_index":9.1,"wind_gusts":22.3,"aqi":115,"pm10":35.0,"pm2_5":28.5,"mosquito_risk":0,"arthritis_risk":5,"migraine_risk":7,"frizz_risk":1,"updated_at":"2026-04-01T12:56:01.641920+05:30"},{"city":"Chennai","state":"Tamil Nadu","latitude":13.0827,"longitude":80.2707,"temp":33.3,"humidity":47,"rain":0.0,"pressure":1008.9,"uv_index":9.15,"wind_gusts":29.2,"aqi":47,"pm10":13.0,"pm2_5":10.1,"mosquito_risk":0,"arthritis_risk":0,"migraine_risk":4,"frizz_risk":1,"updated_at":"2026-04-01T12:56:01.641929+05:30"},{"city":"Kolkata","state":"West Bengal","latitude":22.5726,"longitude":88.3639,"temp":33.7,"humidity":59,"rain":0.0,"pressure":1007.4,"uv_index":8.6,"wind_gusts":20.2,"aqi":97,"pm10":58.9,"pm2_5":39.6,"mosquito_risk":0,"arthritis_risk":5,"migraine_risk":4,"frizz_risk":1,"updated_at":"2026-04-01T12:56:01.641936+05:30"},{"city":"Pune","state":"Maharashtra","latitude":18.5204,"longitude":73.8567,"temp":34.5,"humidity":42,"rain":0.0,"pressure":950.1,"uv_index":8.5,"wind_gusts":30.2,"aqi":99,"pm10":45.9,"pm2_5":36.2,"mosquito_risk":0,"arthritis_risk":5,"migraine_risk":7,"frizz_risk":1,"updated_at":"2026-04-01T12:56:01.641946+05:30"},{"city":"Ahmedabad","state":"Gujarat","latitude":23.0225,"longitude":72.5714,"temp":34.7,"humidity":32,"rain":0.0,"pressure":1003.5,"uv_index":7.85,"wind_gusts":25.6,"aqi":62,"pm10":43.0,"pm2_5":19.4,"mosquito_risk":0,"arthritis_risk":5,"migraine_risk":4,"frizz_risk":0,"updated_at":"2026-04-01T12:56:01.641953+05:30"},{"city":"Jaipur","state":"Rajasthan","latitude":26.9124,"longitude":75.7873,"temp":29.6,"humidity":47,"rain":0.0,"pressure":963.4,"uv_index":6.7,"wind_gusts":34.2,"aqi":108,"pm10":241.2,"pm2_5":34.8,"mosquito_risk":4,"arthritis_risk":5,"migraine_risk":7,"frizz_risk":1,"updated_at":"2026-04-01T12:56:01.641960+05:30"},{"city":"Lucknow","state":"Uttar Pradesh","latitude":26.8467,"longitude":80.9462,"temp":33.6,"humidity":34,"rain":0.0,"pressure":996.2,"uv_index":7.15,"wind_gusts":27.4,"aqi":112,"pm10":75.2,"pm2_5":22.1,"mosquito_risk":0,"arthritis_risk":5,"migraine_risk":7,"frizz_risk":0,"updated_at":"2026-04-01T12:56:01.641968+05:30"},{"city":"Kanpur","state":"Uttar Pradesh","latitude":26.4499,"longitude":80.3319,"temp":30.6,"humidity":52,"rain":0.0,"pressure":995.0,"uv_index":7.35,"wind_gusts":28.8,"aqi":167,"pm10":96.2,"pm2_5":24.4,"mosquito_risk":0,"arthritis_risk":5,"migraine_risk":7,"frizz_risk":1,"updated_at":"2026-04-01T12:56:01.641994+05:30"},{"city":"Chandigarh","state":"Chandigarh","latitude":30.7333,"longitude":76.7794,"temp":30.3,"humidity":34,"rain":0.0,"pressure":973.0,"uv_index":6.55,"wind_gusts":13.3,"aqi":78,"pm10":69.8,"pm2_5":19.3,"mosquito_risk":0,"arthritis_risk":5,"migraine_risk":7,"frizz_risk":0,"updated_at":"2026-04-01T12:56:01.642003+05:30"},{"city":"Srinagar","state":"Jammu and Kashmir","latitude":34.0837,"longitude":74.7973,"temp":17.0,"humidity":57,"rain":0.0,"pressure":845.4,"uv_index":7.1,"wind_gusts":20.5,"aqi":80,"pm10":28.9,"pm2_5":13.7,"mosquito_risk":0,"arthritis_risk":5,"migraine_risk":7,"frizz_risk":0,"updated_at":"2026-04-01T12:56:01.642010+05:30"},{"city":"Jammu","state":"Jammu and Kashmir","latitude":32.7266,"longitude":74.857,"temp":30.0,"humidity":33,"rain":0.0,"pressure":976.8,"uv_index":6.4,"wind_gusts":20.5,"aqi":78,"pm10":44.8,"pm2_5":16.5,"mosquito_risk":4,"arthritis_risk":5,"migraine_risk":7,"frizz_risk":0,"updated_at":"2026-04-01T12:56:01.642017+05:30"},{"city":"Amritsar","state":"Punjab","latitude":31.634,"longitude":74.8723,"temp":29.0,"humidity":42,"rain":0.0,"pressure":984.9,"uv_index":6.9,"wind_gusts":14.0,"aqi":119,"pm10":88.9,"pm2_5":30.4,"mosquito_risk":4,"arthritis_risk":5,"migraine_risk":7,"frizz_risk":0,"updated_at":"2026-04-01T12:56:01.642023+05:30"},{"city":"Ludhiana","state":"Punjab","latitude":30.901,"longitude":75.8573,"temp":31.0,"humidity":31,"rain":0.0,"pressure":982.7,"uv_index":6.65,"wind_gusts":15.1,"aqi":130,"pm10":132.2,"pm2_5":34.6,"mosquito_risk":0,"arthritis_risk":5,"migraine_risk":7,"frizz_risk":0,"updated_at":"2026-04-01T12:56:01.642030+05:30"},{"city":"Jalandhar","state":"Punjab","latitude":31.326,"longitude":75.5762,"temp":29.6,"humidity":39,"rain":0.0,"pressure":983.9,"uv_index":6.75,"wind_gusts":11.9,"aqi":121,"pm10":140.2,"pm2_5":36.8,"mosquito_risk":4,"arthritis_risk":5,"migraine_risk":7,"frizz_risk":0,"updated_at":"2026-04-01T12:56:01.642038+05:30"},{"city":"Dehradun","state":"Uttarakhand","latitude":30.6284,"longitude":78.0322,"temp":20.4,"humidity":43,"rain":0.0,"pressure":834.5,"uv_index":6.4,"wind_gusts":29.9,"aqi":45,"pm10":18.8,"pm2_5":5.7,"mosquito_risk":0,"arthritis_risk":5,"migraine_risk":7,"frizz_risk":0,"updated_at":"2026-04-01T12:56:01.642044+05:30"},{"city":"Shimla","state":"Himachal Pradesh","latitude":31.1048,"longitude":77.1734,"temp":18.4,"humidity":46,"rain":0.0,"pressure":789.2,"uv_index":6.1,"wind_gusts":33.8,"aqi":50,"pm10":24.2,"pm2_5":6.7,"mosquito_risk":0,"arthritis_risk":5,"migraine_risk":7,"frizz_risk":0,"updated_at":"2026-04-01T12:56:01.642050+05:30"},{"city":"Manali","state":"Himachal Pradesh","latitude":32.2396,"longitude":77.1887,"temp":20.8,"humidity":34,"rain":0.0,"pressure":823.3,"uv_index":8.45,"wind_gusts":31.0,"aqi":68,"pm10":12.4,"pm2_5":6.0,"mosquito_risk":0,"arthritis_risk":5,"migraine_risk":7,"frizz_risk":0,"updated_at":"2026-04-01T12:56:01.642055+05:30"},{"city":"Gurgaon","state":"Haryana","latitude":28.4595,"longitude":77.0266,"temp":31.6,"humidity":35,"rain":0.0,"pressure":985.3,"uv_index":6.95,"wind_gusts":25.2,"aqi":357,"pm10":325.0,"pm2_5":56.2,"mosquito_risk":0,"arthritis_risk":5,"migraine_risk":7,"frizz_risk":0,"updated_at":"2026-04-01T12:56:01.642062+05:30"},{"city":"Noida","state":"Uttar Pradesh","latitude":28.5355,"longitude":77.391,"temp":31.2,"humidity":37,"rain":0.0,"pressure":988.4,"uv_index":6.85,"wind_gusts":21.2,"aqi":357,"pm10":325.0,"pm2_5":56.2,"mosquito_risk":0,"arthritis_risk":5,"migraine_risk":7,"frizz_risk":0,"updated_at":"2026-04-01T12:56:01.642068+05:30"},{"city":"Ghaziabad","state":"Uttar Pradesh","latitude":28.6692,"longitude":77.4538,"temp":30.8,"humidity":38,"rain":0.0,"pressure":986.7,"uv_index":6.85,"wind_gusts":21.2,"aqi":113,"pm10":127.6,"pm2_5":32.1,"mosquito_risk":0,"arthritis_risk":5,"migraine_risk":7,"frizz_risk":0,"updated_at":"2026-04-01T12:56:01.642074+05:30"},{"city":"Faridabad","state":"Haryana","latitude":28.4089,"longitude":77.3178,"temp":31.7,"humidity":35,"rain":0.0,"pressure":987.7,"uv_index":6.9,"wind_gusts":22.0,"aqi":357,"pm10":325.0,"pm2_5":56.2,"mosquito_risk":0,"arthritis_risk":5,"migraine_risk":7,"frizz_risk":0,"updated_at":"2026-04-01T12:56:01.642080+05:30"},{"city":"Meerut","state":"Uttar Pradesh","latitude":28.9845,"longitude":77.7064,"temp":31.9,"humidity":34,"rain":0.0,"pressure":985.4,"uv_index":6.5,"wind_gusts":24.1,"aqi":113,"pm10":127.6,"pm2_5":32.1,"mosquito_risk":0,"arthritis_risk":5,"migraine_risk":7,"frizz_risk":0,"updated_at":"2026-04-01T12:56:01.642085+05:30"},{"city":"Agra","state":"Uttar Pradesh","latitude":27.1767,"longitude":78.0081,"temp":32.2,"humidity":40,"rain":0.0,"pressure":991.6,"uv_index":7.25,"wind_gusts":25.6,"aqi":596,"pm10":291.5,"pm2_5":47.6,"mosquito_risk":0,"arthritis_risk":5,"migraine_risk":7,"frizz_risk":1,"updated_at":"2026-04-01T12:56:01.642091+05:30"},{"city":"Varanasi","state":"Uttar Pradesh","latitude":25.3176,"longitude":82.9739,"temp":35.5,"humidity":35,"rain":0.0,"pressure":999.5,"uv_index":7.55,"wind_gusts":28.1,"aqi":129,"pm10":68.5,"pm2_5":21.0,"mosquito_risk":0,"arthritis_risk":5,"migraine_risk":10,"frizz_risk":1,"updated_at":"2026-04-01T12:56:01.642101+05:30"},{"city":"Prayagraj","state":"Uttar Pradesh","latitude":25.4358,"longitude":81.8463,"temp":34.7,"humidity":38,"rain":0.0,"pressure":998.2,"uv_index":7.9,"wind_gusts":36.0,"aqi":98,"pm10":53.3,"pm2_5":16.6,"mosquito_risk":0,"arthritis_risk":5,"migraine_risk":7,"frizz_risk":1,"updated_at":"2026-04-01T12:56:01.642107+05:30"},{"city":"Gorakhpur","state":"Uttar Pradesh","latitude":26.7606,"longitude":83.3732,"temp":33.2,"humidity":39,"rain":0.0,"pressure":999.1,"uv_index":7.8,"wind_gusts":25.2,"aqi":152,"pm10":54.0,"pm2_5":21.9,"mosquito_risk":0,"arthritis_risk":5,"migraine_risk":7,"frizz_risk":1,"updated_at":"2026-04-01T12:56:01.642115+05:30"},{"city":"Bareilly","state":"Uttar Pradesh","latitude":28.367,"longitude":79.4304,"temp":33.3,"humidity":30,"rain":0.0,"pressure":990.2,"uv_index":6.95,"wind_gusts":27.4,"aqi":85,"pm10":54.1,"pm2_5":16.5,"mosquito_risk":0,"arthritis_risk":5,"migraine_risk":7,"frizz_risk":0,"updated_at":"2026-04-01T12:56:01.642121+05:30"},{"city":"Aligarh","state":"Uttar Pradesh","latitude":27.8974,"longitude":78.088,"temp":33.0,"humidity":36,"rain":0.0,"pressure":989.1,"uv_index":7.0,"wind_gusts":28.1,"aqi":216,"pm10":186.3,"pm2_5":38.9,"mosquito_risk":0,"arthritis_risk":5,"migraine_risk":7,"frizz_risk":0,"updated_at":"2026-04-01T12:56:01.642128+05:30"},{"city":"Moradabad","state":"Uttar Pradesh","latitude":28.8386,"longitude":78.7733,"temp":32.6,"humidity":31,"rain":0.0,"pressure":987.4,"uv_index":6.85,"wind_gusts":27.4,"aqi":96,"pm10":79.2,"pm2_5":22.6,"mosquito_risk":0,"arthritis_risk":5,"migraine_risk":7,"frizz_risk":0,"updated_at":"2026-04-01T12:56:01.642134+05:30"},{"city":"Saharanpur","state":"Uttar Pradesh","latitude":29.9637,"longitude":77.546,"temp":31.2,"humidity":29,"rain":0.0,"pressure":979.6,"uv_index":6.2,"wind_gusts":18.7,"aqi":102,"pm10":69.6,"pm2_5":21.7,"mosquito_risk":0,"arthritis_risk":5,"migraine_risk":7,"frizz_risk":0,"updated_at":"2026-04-01T12:56:01.642140+05:30"},{"city":"Jhansi","state":"Uttar Pradesh","latitude":25.4484,"longitude":78.5685,"temp":33.8,"humidity":35,"rain":0.0,"pressure":980.8,"uv_index":7.8,"wind_gusts":33.5,"aqi":73,"pm10":90.6,"pm2_5":26.3,"mosquito_risk":0,"arthritis_risk":5,"migraine_risk":7,"frizz_risk":1,"updated_at":"2026-04-01T12:56:04.918330+05:30"},{"city":"Surat","state":"Gujarat","latitude":21.1702,"longitude":72.8311,"temp":31.2,"humidity":50,"rain":0.0,"pressure":1008.5,"uv_index":7.65,"wind_gusts":25.2,"aqi":89,"pm10":49.0,"pm2_5":39.0,"mosquito_risk":0,"arthritis_risk":0,"migraine_risk":4,"frizz_risk":1,"updated_at":"2026-04-01T12:56:04.918356+05:30"},{"city":"Vadodara","state":"Gujarat","latitude":22.3072,"longitude":73.1812,"temp":35.4,"humidity":36,"rain":0.0,"pressure":1005.6,"uv_index":7.9,"wind_gusts":29.2,"aqi":67,"pm10":33.9,"pm2_5":18.5,"mosquito_risk":0,"arthritis_risk":5,"migraine_risk":7,"frizz_risk":1,"updated_at":"2026-04-01T12:56:04.918365+05:30"},{"city":"Rajkot","state":"Gujarat","latitude":22.3039,"longitude":70.8022,"temp":32.0,"humidity":40,"rain":0.0,"pressure":996.2,"uv_index":7.25,"wind_gusts":35.6,"aqi":60,"pm10":39.5,"pm2_5":17.9,"mosquito_risk":0,"arthritis_risk":5,"migraine_risk":7,"frizz_risk":1,"updated_at":"2026-04-01T12:56:04.918372+05:30"},{"city":"Thane","state":"Maharashtra","latitude":19.2183,"longitude":72.9781,"temp":30.7,"humidity":62,"rain":0.0,"pressure":1009.7,"uv_index":7.85,"wind_gusts":34.6,"aqi":62,"pm10":46.6,"pm2_5":24.8,"mosquito_risk":3,"arthritis_risk":0,"migraine_risk":4,"frizz_risk":1,"updated_at":"2026-04-01T12:56:04.918379+05:30"},{"city":"Nagpur","state":"Maharashtra","latitude":21.1458,"longitude":79.0882,"temp":34.8,"humidity":40,"rain":0.0,"pressure":975.2,"uv_index":8.6,"wind_gusts":37.1,"aqi":74,"pm10":27.0,"pm2_5":22.2,"mosquito_risk":0,"arthritis_risk":5,"migraine_risk":7,"frizz_risk":1,"updated_at":"2026-04-01T12:56:04.918385+05:30"},{"city":"Nashik","state":"Maharashtra","latitude":19.9975,"longitude":73.7898,"temp":32.1,"humidity":48,"rain":0.0,"pressure":947.4,"uv_index":8.1,"wind_gusts":32.0,"aqi":55,"pm10":30.9,"pm2_5":19.3,"mosquito_risk":0,"arthritis_risk":5,"migraine_risk":7,"frizz_risk":1,"updated_at":"2026-04-01T12:56:04.918391+05:30"},{"city":"Aurangabad","state":"Maharashtra","latitude":19.8762,"longitude":75.3433,"temp":34.7,"humidity":36,"rain":0.0,"pressure":945.8,"uv_index":8.8,"wind_gusts":36.4,"aqi":84,"pm10":43.7,"pm2_5":34.0,"mosquito_risk":0,"arthritis_risk":5,"migraine_risk":7,"frizz_risk":1,"updated_at":"2026-04-01T12:56:04.918397+05:30"},{"city":"Solapur","state":"Maharashtra","latitude":17.6599,"longitude":75.9064,"temp":36.6,"humidity":31,"rain":0.0,"pressure":958.3,"uv_index":8.9,"wind_gusts":29.2,"aqi":108,"pm10":40.3,"pm2_5":33.2,"mosquito_risk":0,"arthritis_risk":5,"migraine_risk":10,"frizz_risk":1,"updated_at":"2026-04-01T12:56:04.918403+05:30"},{"city":"Kolhapur","state":"Maharashtra","latitude":16.705,"longitude":74.2433,"temp":32.7,"humidity":49,"rain":0.0,"pressure":949.5,"uv_index":8.95,"wind_gusts":30.6,"aqi":142,"pm10":51.2,"pm2_5":43.5,"mosquito_risk":0,"arthritis_risk":5,"migraine_risk":7,"frizz_risk":1,"updated_at":"2026-04-01T12:56:04.918409+05:30"},{"city":"Goa","state":"Goa","latitude":15.2993,"longitude":74.124,"temp":32.5,"humidity":63,"rain":0.0,"pressure":998.9,"uv_index":8.85,"wind_gusts":32.0,"aqi":71,"pm10":30.7,"pm2_5":25.0,"mosquito_risk":3,"arthritis_risk":5,"migraine_risk":7,"frizz_risk":1,"updated_at":"2026-04-01T12:56:04.918414+05:30"},{"city":"Jodhpur","state":"Rajasthan","latitude":26.2389,"longitude":73.0243,"temp":32.7,"humidity":27,"rain":0.0,"pressure":985.4,"uv_index":7.75,"wind_gusts":32.0,"aqi":108,"pm10":112.2,"pm2_5":20.0,"mosquito_risk":0,"arthritis_risk":5,"migraine_risk":7,"frizz_risk":0,"updated_at":"2026-04-01T12:56:04.918420+05:30"},{"city":"Udaipur","state":"Rajasthan","latitude":24.5854,"longitude":73.7125,"temp":31.8,"humidity":34,"rain":0.0,"pressure":948.8,"uv_index":8.4,"wind_gusts":38.2,"aqi":53,"pm10":35.0,"pm2_5":13.9,"mosquito_risk":0,"arthritis_risk":5,"migraine_risk":7,"frizz_risk":0,"updated_at":"2026-04-01T12:56:04.918426+05:30"},{"city":"Kota","state":"Rajasthan","latitude":25.2138,"longitude":75.8648,"temp":35.5,"humidity":32,"rain":0.0,"pressure":981.1,"uv_index":7.45,"wind_gusts":33.8,"aqi":57,"pm10":48.3,"pm2_5":18.9,"mosquito_risk":0,"arthritis_risk":5,"migraine_risk":10,"frizz_risk":1,"updated_at":"2026-04-01T12:56:04.918432+05:30"},{"city":"Bikaner","state":"Rajasthan","latitude":28.0229,"longitude":73.3119,"temp":31.5,"humidity":24,"rain":0.0,"pressure":983.8,"uv_index":6.85,"wind_gusts":23.8,"aqi":51,"pm10":284.1,"pm2_5":38.9,"mosquito_risk":0,"arthritis_risk":5,"migraine_risk":7,"frizz_risk":0,"updated_at":"2026-04-01T12:56:04.918438+05:30"},{"city":"Ajmer","state":"Rajasthan","latitude":26.4499,"longitude":74.6399,"temp":31.9,"humidity":26,"rain":0.0,"pressure":957.3,"uv_index":7.4,"wind_gusts":28.4,"aqi":57,"pm10":81.3,"pm2_5":18.1,"mosquito_risk":0,"arthritis_risk":5,"migraine_risk":7,"frizz_risk":0,"updated_at":"2026-04-01T12:56:04.918443+05:30"},{"city":"Gwalior","state":"Madhya Pradesh","latitude":26.2183,"longitude":78.1828,"temp":33.0,"humidity":40,"rain":0.0,"pressure":986.3,"uv_index":7.5,"wind_gusts":35.3,"aqi":118,"pm10":161.1,"pm2_5":37.7,"mosquito_risk":0,"arthritis_risk":5,"migraine_risk":7,"frizz_risk":1,"updated_at":"2026-04-01T12:56:04.918449+05:30"},{"city":"Indore","state":"Madhya Pradesh","latitude":22.7196,"longitude":75.8577,"temp":33.8,"humidity":38,"rain":0.0,"pressure":950.0,"uv_index":8.3,"wind_gusts":36.0,"aqi":69,"pm10":35.2,"pm2_5":22.8,"mosquito_risk":0,"arthritis_risk":5,"migraine_risk":7,"frizz_risk":1,"updated_at":"2026-04-01T12:56:04.918455+05:30"},{"city":"Bhopal","state":"Madhya Pradesh","latitude":23.2599,"longitude":77.4126,"temp":35.6,"humidity":29,"rain":0.0,"pressure":955.8,"uv_index":8.25,"wind_gusts":39.2,"aqi":59,"pm10":25.3,"pm2_5":15.9,"mosquito_risk":0,"arthritis_risk":5,"migraine_risk":10,"frizz_risk":0,"updated_at":"2026-04-01T12:56:04.918460+05:30"},{"city":"Jabalpur","state":"Madhya Pradesh","latitude":23.1815,"longitude":79.9864,"temp":35.4,"humidity":32,"rain":0.0,"pressure":963.6,"uv_index":8.2,"wind_gusts":41.4,"aqi":62,"pm10":18.0,"pm2_5":13.2,"mosquito_risk":0,"arthritis_risk":5,"migraine_risk":10,"frizz_risk":1,"updated_at":"2026-04-01T12:56:04.918467+05:30"},{"city":"Ujjain","state":"Madhya Pradesh","latitude":23.1765,"longitude":75.7885,"temp":34.3,"humidity":36,"rain":0.0,"pressure":955.7,"uv_index":8.2,"wind_gusts":32.0,"aqi":72,"pm10":36.1,"pm2_5":20.7,"mosquito_risk":0,"arthritis_risk":5,"migraine_risk":7,"frizz_risk":1,"updated_at":"2026-04-01T12:56:04.918473+05:30"},{"city":"Visakhapatnam","state":"Andhra Pradesh","latitude":17.6868,"longitude":83.2185,"temp":34.1,"humidity":50,"rain":0.0,"pressure":1005.9,"uv_index":9.05,"wind_gusts":33.8,"aqi":75,"pm10":25.4,"pm2_5":20.5,"mosquito_risk":0,"arthritis_risk":5,"migraine_risk":4,"frizz_risk":1,"updated_at":"2026-04-01T12:56:04.918478+05:30"},{"city":"Vijayawada","state":"Andhra Pradesh","latitude":16.5062,"longitude":80.648,"temp":33.9,"humidity":49,"rain":0.0,"pressure":1004.6,"uv_index":9.05,"wind_gusts":28.1,"aqi":65,"pm10":21.2,"pm2_5":15.5,"mosquito_risk":0,"arthritis_risk":5,"migraine_risk":4,"frizz_risk":1,"updated_at":"2026-04-01T12:56:04.918484+05:30"},{"city":"Guntur","state":"Andhra Pradesh","latitude":16.3067,"longitude":80.4365,"temp":34.3,"humidity":48,"rain":0.0,"pressure":1005.7,"uv_index":9.1,"wind_gusts":29.5,"aqi":65,"pm10":19.6,"pm2_5":13.7,"mosquito_risk":0,"arthritis_risk":5,"migraine_risk":4,"frizz_risk":1,"updated_at":"2026-04-01T12:56:04.918490+05:30"},{"city":"Nellore","state":"Andhra Pradesh","latitude":14.4426,"longitude":79.9865,"temp":34.5,"humidity":46,"rain":0.0,"pressure":1007.4,"uv_index":9.2,"wind_gusts":29.5,"aqi":51,"pm10":17.4,"pm2_5":13.8,"mosquito_risk":0,"arthritis_risk":5,"migraine_risk":4,"frizz_risk":1,"updated_at":"2026-04-01T12:56:04.918496+05:30"},{"city":"Kurnool","state":"Andhra Pradesh","latitude":15.8281,"longitude":78.0373,"temp":36.7,"humidity":33,"rain":0.0,"pressure":978.1,"uv_index":9.1,"wind_gusts":27.0,"aqi":81,"pm10":32.1,"pm2_5":24.9,"mosquito_risk":0,"arthritis_risk":5,"migraine_risk":10,"frizz_risk":1,"updated_at":"2026-04-01T12:56:04.918503+05:30"},{"city":"Kakinada","state":"Andhra Pradesh","latitude":16.9891,"longitude":82.2475,"temp":35.1,"humidity":47,"rain":0.0,"pressure":1009.5,"uv_index":9.05,"wind_gusts":33.8,"aqi":55,"pm10":16.6,"pm2_5":11.9,"mosquito_risk":0,"arthritis_risk":0,"migraine_risk":7,"frizz_risk":1,"updated_at":"2026-04-01T12:56:04.918509+05:30"},{"city":"Tirupati","state":"Andhra Pradesh","latitude":13.6288,"longitude":79.4192,"temp":34.5,"humidity":34,"rain":0.0,"pressure":993.1,"uv_index":9.35,"wind_gusts":32.0,"aqi":64,"pm10":17.0,"pm2_5":12.4,"mosquito_risk":0,"arthritis_risk":5,"migraine_risk":7,"frizz_risk":1,"updated_at":"2026-04-01T12:56:04.918514+05:30"},{"city":"Warangal","state":"Telangana","latitude":17.9689,"longitude":79.5941,"temp":34.1,"humidity":46,"rain":0.0,"pressure":980.8,"uv_index":8.95,"wind_gusts":30.6,"aqi":118,"pm10":34.5,"pm2_5":28.7,"mosquito_risk":0,"arthritis_risk":5,"migraine_risk":7,"frizz_risk":1,"updated_at":"2026-04-01T12:56:04.918520+05:30"},{"city":"Nizamabad","state":"Telangana","latitude":18.6725,"longitude":78.0941,"temp":35.8,"humidity":34,"rain":0.0,"pressure":966.3,"uv_index":8.85,"wind_gusts":28.4,"aqi":141,"pm10":37.0,"pm2_5":31.2,"mosquito_risk":0,"arthritis_risk":5,"migraine_risk":10,"frizz_risk":1,"updated_at":"2026-04-01T12:56:04.918525+05:30"},{"city":"Mysore","state":"Karnataka","latitude":12.2958,"longitude":76.6396,"temp":31.8,"humidity":35,"rain":0.0,"pressure":929.8,"uv_index":9.5,"wind_gusts":27.4,"aqi":94,"pm10":31.0,"pm2_5":21.2,"mosquito_risk":0,"arthritis_risk":5,"migraine_risk":7,"frizz_risk":0,"updated_at":"2026-04-01T12:56:04.918531+05:30"},{"city":"Mangalore","state":"Karnataka","latitude":12.9141,"longitude":74.856,"temp":29.5,"humidity":80,"rain":0.0,"pressure":1007.6,"uv_index":9.05,"wind_gusts":20.9,"aqi":78,"pm10":35.6,"pm2_5":28.5,"mosquito_risk":7,"arthritis_risk":5,"migraine_risk":4,"frizz_risk":1,"updated_at":"2026-04-01T12:56:04.918536+05:30"},{"city":"Hubli-Dharwad","state":"Karnataka","latitude":15.3647,"longitude":75.124,"temp":33.3,"humidity":45,"rain":0.0,"pressure":942.3,"uv_index":9.15,"wind_gusts":33.8,"aqi":117,"pm10":49.0,"pm2_5":40.0,"mosquito_risk":0,"arthritis_risk":5,"migraine_risk":7,"frizz_risk":1,"updated_at":"2026-04-01T12:56:04.918542+05:30"},{"city":"Belgaum","state":"Karnataka","latitude":15.8497,"longitude":74.4977,"temp":29.7,"humidity":62,"rain":0.0,"pressure":927.5,"uv_index":9.1,"wind_gusts":27.7,"aqi":116,"pm10":47.4,"pm2_5":40.2,"mosquito_risk":7,"arthritis_risk":5,"migraine_risk":7,"frizz_risk":1,"updated_at":"2026-04-01T12:56:08.196526+05:30"},{"city":"Coimbatore","state":"Tamil Nadu","latitude":11.0168,"longitude":76.9558,"temp":34.1,"humidity":33,"rain":0.0,"pressure":963.0,"uv_index":9.45,"wind_gusts":34.2,"aqi":69,"pm10":22.9,"pm2_5":15.1,"mosquito_risk":0,"arthritis_risk":5,"migraine_risk":7,"frizz_risk":0,"updated_at":"2026-04-01T12:56:08.196549+05:30"},{"city":"Madurai","state":"Tamil Nadu","latitude":9.9252,"longitude":78.1198,"temp":34.2,"humidity":41,"rain":0.0,"pressure":993.7,"uv_index":9.0,"wind_gusts":23.4,"aqi":60,"pm10":12.6,"pm2_5":8.8,"mosquito_risk":0,"arthritis_risk":5,"migraine_risk":7,"frizz_risk":1,"updated_at":"2026-04-01T12:56:08.196558+05:30"},{"city":"Trichy","state":"Tamil Nadu","latitude":10.7905,"longitude":78.7047,"temp":33.4,"humidity":48,"rain":0.0,"pressure":1000.7,"uv_index":9.2,"wind_gusts":24.8,"aqi":57,"pm10":15.5,"pm2_5":12.7,"mosquito_risk":0,"arthritis_risk":5,"migraine_risk":4,"frizz_risk":1,"updated_at":"2026-04-01T12:56:08.196566+05:30"},{"city":"Salem","state":"Tamil Nadu","latitude":11.6643,"longitude":78.146,"temp":34.9,"humidity":34,"rain":0.0,"pressure":978.3,"uv_index":9.4,"wind_gusts":31.3,"aqi":78,"pm10":33.8,"pm2_5":28.3,"mosquito_risk":0,"arthritis_risk":5,"migraine_risk":7,"frizz_risk":1,"updated_at":"2026-04-01T12:56:08.196573+05:30"},{"city":"Tirunelveli","state":"Tamil Nadu","latitude":8.7139,"longitude":77.7567,"temp":36.1,"humidity":35,"rain":0.0,"pressure":1003.4,"uv_index":9.35,"wind_gusts":39.6,"aqi":59,"pm10":10.0,"pm2_5":5.8,"mosquito_risk":0,"arthritis_risk":5,"migraine_risk":7,"frizz_risk":1,"updated_at":"2026-04-01T12:56:08.196579+05:30"},{"city":"Vellore","state":"Tamil Nadu","latitude":12.9165,"longitude":79.1325,"temp":34.1,"humidity":34,"rain":0.0,"pressure":986.1,"uv_index":9.4,"wind_gusts":32.8,"aqi":70,"pm10":15.7,"pm2_5":10.5,"mosquito_risk":0,"arthritis_risk":5,"migraine_risk":7,"frizz_risk":0,"updated_at":"2026-04-01T12:56:08.196585+05:30"},{"city":"Erode","state":"Tamil Nadu","latitude":11.341,"longitude":77.7172,"temp":34.9,"humidity":40,"rain":0.0,"pressure":989.8,"uv_index":9.3,"wind_gusts":20.9,"aqi":54,"pm10":19.7,"pm2_5":15.3,"mosquito_risk":0,"arthritis_risk":5,"migraine_risk":7,"frizz_risk":1,"updated_at":"2026-04-01T12:56:08.196591+05:30"},{"city":"Kochi","state":"Kerala","latitude":9.9312,"longitude":76.2673,"temp":28.7,"humidity":79,"rain":0.0,"pressure":1008.9,"uv_index":9.15,"wind_gusts":29.2,"aqi":96,"pm10":31.8,"pm2_5":26.8,"mosquito_risk":7,"arthritis_risk":0,"migraine_risk":4,"frizz_risk":1,"updated_at":"2026-04-01T12:56:08.196597+05:30"},{"city":"Thiruvananthapuram","state":"Kerala","latitude":8.5241,"longitude":76.9366,"temp":29.0,"humidity":76,"rain":0.0,"pressure":1007.9,"uv_index":9.15,"wind_gusts":28.4,"aqi":62,"pm10":18.7,"pm2_5":16.9,"mosquito_risk":7,"arthritis_risk":5,"migraine_risk":4,"frizz_risk":1,"updated_at":"2026-04-01T12:56:08.196603+05:30"},{"city":"Kozhikode","state":"Kerala","latitude":11.2588,"longitude":75.7804,"temp":30.7,"humidity":72,"rain":0.0,"pressure":1008.3,"uv_index":9.15,"wind_gusts":26.6,"aqi":72,"pm10":21.4,"pm2_5":17.2,"mosquito_risk":3,"arthritis_risk":0,"migraine_risk":4,"frizz_risk":1,"updated_at":"2026-04-01T12:56:08.196608+05:30"},{"city":"Thrissur","state":"Kerala","latitude":10.5276,"longitude":76.2144,"temp":33.6,"humidity":55,"rain":0.0,"pressure":1007.2,"uv_index":9.2,"wind_gusts":34.2,"aqi":94,"pm10":29.3,"pm2_5":22.9,"mosquito_risk":0,"arthritis_risk":5,"migraine_risk":4,"frizz_risk":1,"updated_at":"2026-04-01T12:56:08.196615+05:30"},{"city":"Kannur","state":"Kerala","latitude":11.8745,"longitude":75.3704,"temp":30.9,"humidity":71,"rain":0.0,"pressure":1007.9,"uv_index":9.1,"wind_gusts":28.1,"aqi":82,"pm10":32.9,"pm2_5":25.8,"mosquito_risk":3,"arthritis_risk":5,"migraine_risk":4,"frizz_risk":1,"updated_at":"2026-04-01T12:56:08.196621+05:30"},{"city":"Patna","state":"Bihar","latitude":25.5941,"longitude":85.1376,"temp":33.6,"humidity":48,"rain":0.0,"pressure":1002.0,"uv_index":8.2,"wind_gusts":25.2,"aqi":165,"pm10":36.2,"pm2_5":17.5,"mosquito_risk":0,"arthritis_risk":5,"migraine_risk":4,"frizz_risk":1,"updated_at":"2026-04-01T12:56:08.196626+05:30"},{"city":"Gaya","state":"Bihar","latitude":24.7914,"longitude":85.0002,"temp":35.4,"humidity":34,"rain":0.0,"pressure":995.6,"uv_index":7.95,"wind_gusts":29.9,"aqi":101,"pm10":56.0,"pm2_5":20.1,"mosquito_risk":0,"arthritis_risk":5,"migraine_risk":10,"frizz_risk":1,"updated_at":"2026-04-01T12:56:08.196632+05:30"},{"city":"Muzaffarpur","state":"Bihar","latitude":26.1209,"longitude":85.3647,"temp":32.2,"humidity":51,"rain":0.0,"pressure":1002.3,"uv_index":8.15,"wind_gusts":30.2,"aqi":168,"pm10":65.9,"pm2_5":43.1,"mosquito_risk":0,"arthritis_risk":5,"migraine_risk":4,"frizz_risk":1,"updated_at":"2026-04-01T12:56:08.196638+05:30"},{"city":"Bhagalpur","state":"Bihar","latitude":25.2425,"longitude":87.0117,"temp":32.2,"humidity":59,"rain":0.0,"pressure":1002.6,"uv_index":8.25,"wind_gusts":25.9,"aqi":158,"pm10":72.2,"pm2_5":42.4,"mosquito_risk":0,"arthritis_risk":5,"migraine_risk":4,"frizz_risk":1,"updated_at":"2026-04-01T12:56:08.196644+05:30"},{"city":"Ranchi","state":"Jharkhand","latitude":23.3441,"longitude":85.3096,"temp":32.4,"humidity":33,"rain":0.0,"pressure":940.9,"uv_index":8.85,"wind_gusts":44.6,"aqi":79,"pm10":69.8,"pm2_5":27.8,"mosquito_risk":0,"arthritis_risk":5,"migraine_risk":7,"frizz_risk":0,"updated_at":"2026-04-01T12:56:08.196650+05:30"},{"city":"Jamshedpur","state":"Jharkhand","latitude":22.8046,"longitude":86.2029,"temp":36.2,"humidity":38,"rain":0.0,"pressure":992.5,"uv_index":8.7,"wind_gusts":20.5,"aqi":127,"pm10":79.2,"pm2_5":38.3,"mosquito_risk":0,"arthritis_risk":5,"migraine_risk":10,"frizz_risk":1,"updated_at":"2026-04-01T12:56:08.196655+05:30"},{"city":"Dhanbad","state":"Jharkhand","latitude":23.7957,"longitude":86.4304,"temp":35.7,"humidity":32,"rain":0.0,"pressure":981.5,"uv_index":8.6,"wind_gusts":31.3,"aqi":163,"pm10":73.8,"pm2_5":32.0,"mosquito_risk":0,"arthritis_risk":5,"migraine_risk":10,"frizz_risk":1,"updated_at":"2026-04-01T12:56:08.196661+05:30"},{"city":"Bokaro","state":"Jharkhand","latitude":23.6693,"longitude":86.1511,"temp":35.5,"humidity":32,"rain":0.0,"pressure":985.4,"uv_index":8.6,"wind_gusts":41.0,"aqi":152,"pm10":74.3,"pm2_5":29.2,"mosquito_risk":0,"arthritis_risk":5,"migraine_risk":10,"frizz_risk":1,"updated_at":"2026-04-01T12:56:08.196667+05:30"},{"city":"Bhubaneswar","state":"Odisha","latitude":20.2961,"longitude":85.8245,"temp":36.0,"humidity":42,"rain":0.0,"pressure":1004.3,"uv_index":8.85,"wind_gusts":28.4,"aqi":110,"pm10":42.5,"pm2_5":30.7,"mosquito_risk":0,"arthritis_risk":5,"migraine_risk":7,"frizz_risk":1,"updated_at":"2026-04-01T12:56:08.196673+05:30"},{"city":"Cuttack","state":"Odisha","latitude":20.4625,"longitude":85.8828,"temp":36.2,"humidity":43,"rain":0.0,"pressure":1006.0,"uv_index":8.9,"wind_gusts":23.4,"aqi":110,"pm10":42.5,"pm2_5":30.7,"mosquito_risk":0,"arthritis_risk":5,"migraine_risk":7,"frizz_risk":1,"updated_at":"2026-04-01T12:56:08.196678+05:30"},{"city":"Rourkela","state":"Odisha","latitude":22.2604,"longitude":84.8536,"temp":35.5,"humidity":43,"rain":0.0,"pressure":987.1,"uv_index":8.6,"wind_gusts":12.2,"aqi":126,"pm10":88.5,"pm2_5":41.6,"mosquito_risk":0,"arthritis_risk":5,"migraine_risk":10,"frizz_risk":1,"updated_at":"2026-04-01T12:56:08.196684+05:30"},{"city":"Raipur","state":"Chhattisgarh","latitude":21.2514,"longitude":81.6296,"temp":36.3,"humidity":33,"rain":0.0,"pressure":976.8,"uv_index":8.7,"wind_gusts":18.4,"aqi":152,"pm10":32.2,"pm2_5":26.4,"mosquito_risk":0,"arthritis_risk":5,"migraine_risk":10,"frizz_risk":1,"updated_at":"2026-04-01T12:56:08.196690+05:30"},{"city":"Bhilai","state":"Chhattisgarh","latitude":21.1938,"longitude":81.3509,"temp":36.1,"humidity":33,"rain":0.0,"pressure":977.2,"uv_index":8.7,"wind_gusts":19.8,"aqi":141,"pm10":30.6,"pm2_5":23.7,"mosquito_risk":0,"arthritis_risk":5,"migraine_risk":10,"frizz_risk":1,"updated_at":"2026-04-01T12:56:08.196695+05:30"},{"city":"Guwahati","state":"Assam","latitude":26.1158,"longitude":91.7086,"temp":27.0,"humidity":77,"rain":0.0,"pressure":1002.8,"uv_index":8.05,"wind_gusts":37.8,"aqi":121,"pm10":46.2,"pm2_5":34.1,"mosquito_risk":7,"arthritis_risk":5,"migraine_risk":4,"frizz_risk":1,"updated_at":"2026-04-01T12:56:08.196701+05:30"},{"city":"Agartala","state":"Tripura","latitude":23.8315,"longitude":91.2868,"temp":32.6,"humidity":57,"rain":0.0,"pressure":1007.6,"uv_index":8.35,"wind_gusts":32.0,"aqi":102,"pm10":37.1,"pm2_5":29.6,"mosquito_risk":0,"arthritis_risk":5,"migraine_risk":4,"frizz_risk":1,"updated_at":"2026-04-01T12:56:08.196707+05:30"},{"city":"Shillong","state":"Meghalaya","latitude":25.5788,"longitude":91.8933,"temp":19.2,"humidity":63,"rain":0.0,"pressure":858.1,"uv_index":8.45,"wind_gusts":60.5,"aqi":74,"pm10":40.0,"pm2_5":28.6,"mosquito_risk":3,"arthritis_risk":5,"migraine_risk":7,"frizz_risk":0,"updated_at":"2026-04-01T12:56:08.196713+05:30"},{"city":"Imphal","state":"Manipur","latitude":24.817,"longitude":93.9368,"temp":21.9,"humidity":76,"rain":0.0,"pressure":925.0,"uv_index":8.7,"wind_gusts":64.8,"aqi":94,"pm10":37.1,"pm2_5":26.1,"mosquito_risk":3,"arthritis_risk":5,"migraine_risk":7,"frizz_risk":1,"updated_at":"2026-04-01T12:56:08.196718+05:30"},{"city":"Aizawl","state":"Mizoram","latitude":23.7271,"longitude":92.7176,"temp":25.8,"humidity":53,"rain":0.0,"pressure":895.7,"uv_index":8.6,"wind_gusts":41.4,"aqi":97,"pm10":49.6,"pm2_5":33.4,"mosquito_risk":4,"arthritis_risk":5,"migraine_risk":7,"frizz_risk":0,"updated_at":"2026-04-01T12:56:08.196724+05:30"},{"city":"Kohima","state":"Nagaland","latitude":25.6701,"longitude":94.1077,"temp":20.5,"humidity":63,"rain":0.0,"pressure":856.8,"uv_index":8.55,"wind_gusts":75.2,"aqi":67,"pm10":30.3,"pm2_5":18.2,"mosquito_risk":3,"arthritis_risk":5,"migraine_risk":7,"frizz_risk":0,"updated_at":"2026-04-01T12:56:08.196730+05:30"},{"city":"Gangtok","state":"Sikkim","latitude":27.3314,"longitude":88.6138,"temp":18.6,"humidity":79,"rain":0.0,"pressure":839.2,"uv_index":8.45,"wind_gusts":20.2,"aqi":106,"pm10":31.3,"pm2_5":22.7,"mosquito_risk":3,"arthritis_risk":5,"migraine_risk":7,"frizz_risk":0,"updated_at":"2026-04-01T12:56:08.196736+05:30"},{"city":"Siliguri","state":"West Bengal","latitude":26.7271,"longitude":88.3953,"temp":23.8,"humidity":77,"rain":0.0,"pressure":995.3,"uv_index":8.05,"wind_gusts":32.4,"aqi":151,"pm10":49.7,"pm2_5":37.5,"mosquito_risk":3,"arthritis_risk":5,"migraine_risk":7,"frizz_risk":1,"updated_at":"2026-04-01T12:56:11.472554+05:30"},{"city":"Durgapur","state":"West Bengal","latitude":23.5204,"longitude":87.3119,"temp":35.6,"humidity":41,"rain":0.0,"pressure":996.2,"uv_index":8.55,"wind_gusts":21.6,"aqi":158,"pm10":70.8,"pm2_5":40.6,"mosquito_risk":0,"arthritis_risk":5,"migraine_risk":10,"frizz_risk":1,"updated_at":"2026-04-01T12:56:11.472579+05:30"},{"city":"Asansol","state":"West Bengal","latitude":23.6739,"longitude":86.9524,"temp":35.5,"humidity":40,"rain":0.0,"pressure":994.9,"uv_index":8.6,"wind_gusts":23.4,"aqi":155,"pm10":72.2,"pm2_5":34.5,"mosquito_risk":0,"arthritis_risk":5,"migraine_risk":10,"frizz_risk":1,"updated_at":"2026-04-01T12:56:11.472589+05:30"},{"city":"Pondicherry","state":"Puducherry","latitude":11.9139,"longitude":79.8145,"temp":33.0,"humidity":54,"rain":0.0,"pressure":1009.5,"uv_index":8.6,"wind_gusts":25.9,"aqi":44,"pm10":12.7,"pm2_5":9.2,"mosquito_risk":0,"arthritis_risk":0,"migraine_risk":4,"frizz_risk":1,"updated_at":"2026-04-01T12:56:11.472596+05:30"},{"city":"Port Blair","state":"Andaman and Nicobar Islands","latitude":11.6234,"longitude":92.7265,"temp":28.5,"humidity":80,"rain":0.0,"pressure":1007.8,"uv_index":3.85,"wind_gusts":15.5,"aqi":40,"pm10":16.1,"pm2_5":14.3,"mosquito_risk":7,"arthritis_risk":5,"migraine_risk":0,"frizz_risk":1,"updated_at":"2026-04-01T12:56:11.472603+05:30"},{"city":"Haridwar","state":"Uttarakhand","latitude":29.9457,"longitude":78.1642,"temp":32.1,"humidity":26,"rain":0.0,"pressure":978.2,"uv_index":6.6,"wind_gusts":26.3,"aqi":74,"pm10":43.5,"pm2_5":13.7,"mosquito_risk":0,"arthritis_risk":5,"migraine_risk":7,"frizz_risk":0,"updated_at":"2026-04-01T12:56:11.472610+05:30"},{"city":"Rishikesh","state":"Uttarakhand","latitude":30.0869,"longitude":78.2676,"temp":31.7,"humidity":25,"rain":0.0,"pressure":970.8,"uv_index":6.6,"wind_gusts":29.2,"aqi":57,"pm10":30.4,"pm2_5":9.0,"mosquito_risk":0,"arthritis_risk":5,"migraine_risk":7,"frizz_risk":0,"updated_at":"2026-04-01T12:56:11.472616+05:30"},{"city":"Nainital","state":"Uttarakhand","latitude":29.3919,"longitude":79.4542,"temp":24.0,"humidity":37,"rain":0.0,"pressure":811.6,"uv_index":7.45,"wind_gusts":37.8,"aqi":58,"pm10":34.3,"pm2_5":10.3,"mosquito_risk":0,"arthritis_risk":5,"migraine_risk":7,"frizz_risk":0,"updated_at":"2026-04-01T12:56:11.472623+05:30"},{"city":"Mussoorie","state":"Uttarakhand","latitude":30.4599,"longitude":78.0664,"temp":22.2,"humidity":35,"rain":0.0,"pressure":808.0,"uv_index":6.4,"wind_gusts":38.9,"aqi":59,"pm10":28.1,"pm2_5":9.1,"mosquito_risk":0,"arthritis_risk":5,"migraine_risk":7,"frizz_risk":0,"updated_at":"2026-04-01T12:56:11.472628+05:30"},{"city":"Dharamshala","state":"Himachal Pradesh","latitude":32.219,"longitude":76.3234,"temp":23.7,"humidity":45,"rain":0.0,"pressure":873.3,"uv_index":6.25,"wind_gusts":24.5,"aqi":49,"pm10":20.9,"pm2_5":6.3,"mosquito_risk":0,"arthritis_risk":5,"migraine_risk":7,"frizz_risk":0,"updated_at":"2026-04-01T12:56:11.472634+05:30"},{"city":"Dalhousie","state":"Himachal Pradesh","latitude":32.5387,"longitude":75.971,"temp":21.4,"humidity":37,"rain":0.0,"pressure":808.3,"uv_index":5.7,"wind_gusts":20.9,"aqi":54,"pm10":29.7,"pm2_5":10.8,"mosquito_risk":0,"arthritis_risk":5,"migraine_risk":3,"frizz_risk":0,"updated_at":"2026-04-01T12:56:11.472641+05:30"},{"city":"Patiala","state":"Punjab","latitude":30.3398,"longitude":76.3869,"temp":30.7,"humidity":31,"rain":0.0,"pressure":982.0,"uv_index":5.7,"wind_gusts":13.0,"aqi":156,"pm10":196.5,"pm2_5":39.5,"mosquito_risk":0,"arthritis_risk":5,"migraine_risk":3,"frizz_risk":0,"updated_at":"2026-04-01T12:56:11.472647+05:30"},{"city":"Bhatinda","state":"Punjab","latitude":30.211,"longitude":74.9455,"temp":29.2,"humidity":43,"rain":0.0,"pressure":987.3,"uv_index":6.05,"wind_gusts":20.5,"aqi":101,"pm10":146.7,"pm2_5":31.2,"mosquito_risk":4,"arthritis_risk":5,"migraine_risk":7,"frizz_risk":0,"updated_at":"2026-04-01T12:56:11.472653+05:30"},{"city":"Rohtak","state":"Haryana","latitude":28.8955,"longitude":76.6066,"temp":30.2,"humidity":39,"rain":0.0,"pressure":985.8,"uv_index":6.6,"wind_gusts":29.2,"aqi":148,"pm10":177.9,"pm2_5":37.6,"mosquito_risk":0,"arthritis_risk":5,"migraine_risk":7,"frizz_risk":0,"updated_at":"2026-04-01T12:56:11.472658+05:30"},{"city":"Panipat","state":"Haryana","latitude":29.3909,"longitude":76.9635,"temp":30.9,"humidity":36,"rain":0.0,"pressure":984.3,"uv_index":6.25,"wind_gusts":20.2,"aqi":161,"pm10":215.6,"pm2_5":39.2,"mosquito_risk":0,"arthritis_risk":5,"migraine_risk":7,"frizz_risk":0,"updated_at":"2026-04-01T12:56:11.472664+05:30"},{"city":"Mathura","state":"Uttar Pradesh","latitude":27.4924,"longitude":77.6737,"temp":31.3,"humidity":43,"rain":0.0,"pressure":990.7,"uv_index":7.15,"wind_gusts":24.5,"aqi":338,"pm10":257.0,"pm2_5":47.3,"mosquito_risk":0,"arthritis_risk":5,"migraine_risk":7,"frizz_risk":1,"updated_at":"2026-04-01T12:56:11.472670+05:30"},{"city":"Vrindavan","state":"Uttar Pradesh","latitude":27.5823,"longitude":77.7027,"temp":31.7,"humidity":42,"rain":0.0,"pressure":991.0,"uv_index":7.1,"wind_gusts":28.8,"aqi":338,"pm10":257.0,"pm2_5":47.3,"mosquito_risk":0,"arthritis_risk":5,"migraine_risk":7,"frizz_risk":1,"updated_at":"2026-04-01T12:56:11.472676+05:30"},{"city":"Ayodhya","state":"Uttar Pradesh","latitude":26.7922,"longitude":82.1998,"temp":33.3,"humidity":38,"rain":0.0,"pressure":997.7,"uv_index":7.55,"wind_gusts":29.2,"aqi":96,"pm10":57.4,"pm2_5":20.0,"mosquito_risk":0,"arthritis_risk":5,"migraine_risk":7,"frizz_risk":1,"updated_at":"2026-04-01T12:56:11.472681+05:30"},{"city":"Ratlam","state":"Madhya Pradesh","latitude":23.3315,"longitude":75.0367,"temp":33.8,"humidity":37,"rain":0.0,"pressure":956.6,"uv_index":8.15,"wind_gusts":34.6,"aqi":68,"pm10":36.1,"pm2_5":21.4,"mosquito_risk":0,"arthritis_risk":5,"migraine_risk":7,"frizz_risk":1,"updated_at":"2026-04-01T12:56:11.472687+05:30"},{"city":"Sagar","state":"Madhya Pradesh","latitude":23.8388,"longitude":78.7378,"temp":35.5,"humidity":27,"rain":0.0,"pressure":952.6,"uv_index":8.25,"wind_gusts":37.1,"aqi":45,"pm10":22.5,"pm2_5":13.3,"mosquito_risk":0,"arthritis_risk":5,"migraine_risk":10,"frizz_risk":0,"updated_at":"2026-04-01T12:56:11.472693+05:30"},{"city":"Satna","state":"Madhya Pradesh","latitude":24.6005,"longitude":80.8322,"temp":34.6,"humidity":35,"rain":0.0,"pressure":974.2,"uv_index":8.0,"wind_gusts":24.5,"aqi":68,"pm10":53.2,"pm2_5":19.8,"mosquito_risk":0,"arthritis_risk":5,"migraine_risk":7,"frizz_risk":1,"updated_at":"2026-04-01T12:56:11.472699+05:30"},{"city":"Akola","state":"Maharashtra","latitude":20.7002,"longitude":77.0082,"temp":36.0,"humidity":38,"rain":0.0,"pressure":976.4,"uv_index":8.55,"wind_gusts":20.9,"aqi":78,"pm10":25.7,"pm2_5":18.3,"mosquito_risk":0,"arthritis_risk":5,"migraine_risk":10,"frizz_risk":1,"updated_at":"2026-04-01T12:56:11.472705+05:30"},{"city":"Amravati","state":"Maharashtra","latitude":20.9374,"longitude":77.7796,"temp":35.7,"humidity":35,"rain":0.0,"pressure":968.9,"uv_index":8.6,"wind_gusts":26.3,"aqi":75,"pm10":22.4,"pm2_5":16.2,"mosquito_risk":0,"arthritis_risk":5,"migraine_risk":10,"frizz_risk":1,"updated_at":"2026-04-01T12:56:11.472712+05:30"},{"city":"Latur","state":"Maharashtra","latitude":18.4088,"longitude":76.5604,"temp":34.8,"humidity":33,"rain":0.0,"pressure":941.6,"uv_index":8.85,"wind_gusts":28.1,"aqi":120,"pm10":31.2,"pm2_5":25.7,"mosquito_risk":0,"arthritis_risk":5,"migraine_risk":7,"frizz_risk":1,"updated_at":"2026-04-01T12:56:11.472718+05:30"},{"city":"Nanded","state":"Maharashtra","latitude":19.1383,"longitude":77.3091,"temp":36.6,"humidity":34,"rain":0.0,"pressure":969.9,"uv_index":8.75,"wind_gusts":24.8,"aqi":110,"pm10":28.5,"pm2_5":22.8,"mosquito_risk":0,"arthritis_risk":5,"migraine_risk":10,"frizz_risk":1,"updated_at":"2026-04-01T12:56:11.472723+05:30"},{"city":"Gulbarga","state":"Karnataka","latitude":17.3297,"longitude":76.8343,"temp":35.7,"humidity":34,"rain":0.0,"pressure":960.2,"uv_index":8.95,"wind_gusts":39.6,"aqi":108,"pm10":36.7,"pm2_5":30.5,"mosquito_risk":0,"arthritis_risk":5,"migraine_risk":10,"frizz_risk":1,"updated_at":"2026-04-01T12:56:11.472729+05:30"},{"city":"Bidar","state":"Karnataka","latitude":17.9104,"longitude":77.5199,"temp":33.9,"humidity":38,"rain":0.0,"pressure":937.7,"uv_index":8.95,"wind_gusts":25.2,"aqi":127,"pm10":34.1,"pm2_5":27.9,"mosquito_risk":0,"arthritis_risk":5,"migraine_risk":7,"frizz_risk":1,"updated_at":"2026-04-01T12:56:11.472735+05:30"},{"city":"Hospet","state":"Karnataka","latitude":15.2689,"longitude":76.3909,"temp":32.8,"humidity":44,"rain":0.0,"pressure":957.3,"uv_index":9.15,"wind_gusts":28.8,"aqi":116,"pm10":41.9,"pm2_5":34.6,"mosquito_risk":0,"arthritis_risk":5,"migraine_risk":7,"frizz_risk":1,"updated_at":"2026-04-01T12:56:11.472740+05:30"},{"city":"Tirupur","state":"Tamil Nadu","latitude":11.1085,"longitude":77.3411,"temp":34.3,"humidity":36,"rain":0.0,"pressure":976.4,"uv_index":9.4,"wind_gusts":21.6,"aqi":58,"pm10":20.7,"pm2_5":15.5,"mosquito_risk":0,"arthritis_risk":5,"migraine_risk":7,"frizz_risk":1,"updated_at":"2026-04-01T12:56:11.472746+05:30"},{"city":"Alappuzha","state":"Kerala","latitude":9.4981,"longitude":76.3388,"temp":28.8,"humidity":80,"rain":0.0,"pressure":1009.0,"uv_index":9.2,"wind_gusts":27.0,"aqi":83,"pm10":22.6,"pm2_5":20.5,"mosquito_risk":7,"arthritis_risk":0,"migraine_risk":4,"frizz_risk":1,"updated_at":"2026-04-01T12:56:11.472752+05:30"},{"city":"Munnar","state":"Kerala","latitude":10.0889,"longitude":77.0595,"temp":29.9,"humidity":38,"rain":0.0,"pressure":859.6,"uv_index":9.75,"wind_gusts":29.2,"aqi":69,"pm10":19.2,"pm2_5":11.3,"mosquito_risk":4,"arthritis_risk":5,"migraine_risk":7,"frizz_risk":0,"updated_at":"2026-04-01T12:56:11.472758+05:30"},{"city":"Silchar","state":"Assam","latitude":24.8333,"longitude":92.7789,"temp":26.0,"humidity":80,"rain":0.0,"pressure":1007.7,"uv_index":8.4,"wind_gusts":31.0,"aqi":117,"pm10":46.0,"pm2_5":36.9,"mosquito_risk":7,"arthritis_risk":5,"migraine_risk":4,"frizz_risk":1,"updated_at":"2026-04-01T12:56:11.472764+05:30"},{"city":"Dibrugarh","state":"Assam","latitude":27.4728,"longitude":94.912,"temp":24.2,"humidity":86,"rain":0.0,"pressure":996.6,"uv_index":7.65,"wind_gusts":34.2,"aqi":104,"pm10":68.7,"pm2_5":45.4,"mosquito_risk":3,"arthritis_risk":5,"migraine_risk":7,"frizz_risk":1,"updated_at":"2026-04-01T12:56:11.472770+05:30"}]