[{"city":"Delhi","state":"Delhi","latitude":28.6139,"longitude":77.209,"temp":23.1,"humidity":69,"rain":0.0,"pressure":985.0,"uv_index":6.2,"wind_gusts":44.6,"aqi":346,"pm10":284.1,"pm2_5":63.6,"mosquito_risk":3,"arthritis_risk":5,"migraine_risk":7,"frizz_risk":1,"updated_at":"2026-04-04T02:10:14.885783+05:30"},{"city":"Mumbai","state":"Maharashtra","latitude":19.076,"longitude":72.8777,"temp":27.7,"humidity":77,"rain":0.0,"pressure":1009.3,"uv_index":7.85,"wind_gusts":19.8,"aqi":80,"pm10":54.2,"pm2_5":23.4,"mosquito_risk":7,"arthritis_risk":0,"migraine_risk":4,"frizz_risk":1,"updated_at":"2026-04-04T02:10:14.885841+05:30"},{"city":"Bangalore","state":"Karnataka","latitude":12.9716,"longitude":77.5946,"temp":23.2,"humidity":73,"rain":0.0,"pressure":911.9,"uv_index":9.35,"wind_gusts":28.8,"aqi":87,"pm10":30.7,"pm2_5":28.9,"mosquito_risk":3,"arthritis_risk":5,"migraine_risk":7,"frizz_risk":1,"updated_at":"2026-04-04T02:10:14.885858+05:30"},{"city":"Hyderabad","state":"Telangana","latitude":17.385,"longitude":78.4867,"temp":26.8,"humidity":54,"rain":0.0,"pressure":952.5,"uv_index":8.3,"wind_gusts":37.4,"aqi":69,"pm10":21.7,"pm2_5":19.6,"mosquito_risk":4,"arthritis_risk":5,"migraine_risk":7,"frizz_risk":1,"updated_at":"2026-04-04T02:10:14.885870+05:30"},{"city":"Chennai","state":"Tamil Nadu","latitude":13.0827,"longitude":80.2707,"temp":27.8,"humidity":81,"rain":0.0,"pressure":1007.4,"uv_index":7.95,"wind_gusts":36.4,"aqi":43,"pm10":11.2,"pm2_5":8.2,"mosquito_risk":7,"arthritis_risk":5,"migraine_risk":4,"frizz_risk":1,"updated_at":"2026-04-04T02:10:14.885878+05:30"},{"city":"Kolkata","state":"West Bengal","latitude":22.5726,"longitude":88.3639,"temp":26.8,"humidity":95,"rain":0.0,"pressure":1004.2,"uv_index":8.65,"wind_gusts":18.4,"aqi":73,"pm10":18.2,"pm2_5":15.9,"mosquito_risk":7,"arthritis_risk":5,"migraine_risk":4,"frizz_risk":1,"updated_at":"2026-04-04T02:10:14.885887+05:30"},{"city":"Pune","state":"Maharashtra","latitude":18.5204,"longitude":73.8567,"temp":22.0,"humidity":78,"rain":0.0,"pressure":948.4,"uv_index":8.5,"wind_gusts":38.9,"aqi":123,"pm10":42.4,"pm2_5":33.1,"mosquito_risk":3,"arthritis_risk":5,"migraine_risk":7,"frizz_risk":1,"updated_at":"2026-04-04T02:10:14.885899+05:30"},{"city":"Ahmedabad","state":"Gujarat","latitude":23.0225,"longitude":72.5714,"temp":26.0,"humidity":63,"rain":0.0,"pressure":1003.1,"uv_index":7.35,"wind_gusts":24.8,"aqi":64,"pm10":20.5,"pm2_5":11.0,"mosquito_risk":7,"arthritis_risk":5,"migraine_risk":4,"frizz_risk":1,"updated_at":"2026-04-04T02:10:14.885907+05:30"},{"city":"Jaipur","state":"Rajasthan","latitude":26.9124,"longitude":75.7873,"temp":22.4,"humidity":80,"rain":0.0,"pressure":960.8,"uv_index":7.4,"wind_gusts":43.2,"aqi":131,"pm10":108.7,"pm2_5":36.9,"mosquito_risk":3,"arthritis_risk":5,"migraine_risk":7,"frizz_risk":1,"updated_at":"2026-04-04T02:10:14.885914+05:30"},{"city":"Lucknow","state":"Uttar Pradesh","latitude":26.8467,"longitude":80.9462,"temp":25.2,"humidity":64,"rain":0.0,"pressure":993.8,"uv_index":6.05,"wind_gusts":34.9,"aqi":120,"pm10":236.1,"pm2_5":65.4,"mosquito_risk":7,"arthritis_risk":5,"migraine_risk":7,"frizz_risk":1,"updated_at":"2026-04-04T02:10:14.885921+05:30"},{"city":"Kanpur","state":"Uttar Pradesh","latitude":26.4499,"longitude":80.3319,"temp":24.9,"humidity":69,"rain":0.0,"pressure":992.4,"uv_index":4.55,"wind_gusts":30.6,"aqi":178,"pm10":448.9,"pm2_5":83.4,"mosquito_risk":3,"arthritis_risk":5,"migraine_risk":3,"frizz_risk":1,"updated_at":"2026-04-04T02:10:14.885929+05:30"},{"city":"Chandigarh","state":"Chandigarh","latitude":30.7333,"longitude":76.7794,"temp":19.9,"humidity":83,"rain":0.0,"pressure":970.3,"uv_index":6.15,"wind_gusts":34.6,"aqi":79,"pm10":52.3,"pm2_5":36.4,"mosquito_risk":3,"arthritis_risk":10,"migraine_risk":7,"frizz_risk":1,"updated_at":"2026-04-04T02:10:14.885937+05:30"},{"city":"Srinagar","state":"Jammu and Kashmir","latitude":34.0837,"longitude":74.7973,"temp":9.3,"humidity":90,"rain":0.0,"pressure":840.7,"uv_index":6.65,"wind_gusts":32.8,"aqi":87,"pm10":18.7,"pm2_5":17.2,"mosquito_risk":3,"arthritis_risk":10,"migraine_risk":7,"frizz_risk":0,"updated_at":"2026-04-04T02:10:14.885944+05:30"},{"city":"Jammu","state":"Jammu and Kashmir","latitude":32.7266,"longitude":74.857,"temp":18.2,"humidity":89,"rain":0.0,"pressure":976.0,"uv_index":7.15,"wind_gusts":21.6,"aqi":65,"pm10":24.9,"pm2_5":15.4,"mosquito_risk":3,"arthritis_risk":10,"migraine_risk":7,"frizz_risk":1,"updated_at":"2026-04-04T02:10:14.885953+05:30"},{"city":"Amritsar","state":"Punjab","latitude":31.634,"longitude":74.8723,"temp":18.5,"humidity":97,"rain":0.0,"pressure":983.2,"uv_index":7.1,"wind_gusts":30.2,"aqi":77,"pm10":65.0,"pm2_5":24.0,"mosquito_risk":3,"arthritis_risk":10,"migraine_risk":7,"frizz_risk":1,"updated_at":"2026-04-04T02:10:14.885960+05:30"},{"city":"Ludhiana","state":"Punjab","latitude":30.901,"longitude":75.8573,"temp":19.2,"humidity":89,"rain":0.0,"pressure":980.7,"uv_index":5.6,"wind_gusts":19.8,"aqi":98,"pm10":137.4,"pm2_5":43.4,"mosquito_risk":3,"arthritis_risk":10,"migraine_risk":3,"frizz_risk":1,"updated_at":"2026-04-04T02:10:14.885967+05:30"},{"city":"Jalandhar","state":"Punjab","latitude":31.326,"longitude":75.5762,"temp":18.8,"humidity":91,"rain":0.0,"pressure":981.9,"uv_index":6.3,"wind_gusts":21.2,"aqi":84,"pm10":64.0,"pm2_5":32.8,"mosquito_risk":3,"arthritis_risk":10,"migraine_risk":7,"frizz_risk":1,"updated_at":"2026-04-04T02:10:14.885976+05:30"},{"city":"Dehradun","state":"Uttarakhand","latitude":30.6284,"longitude":78.0322,"temp":14.9,"humidity":74,"rain":0.0,"pressure":831.2,"uv_index":5.05,"wind_gusts":34.6,"aqi":47,"pm10":28.5,"pm2_5":13.4,"mosquito_risk":3,"arthritis_risk":5,"migraine_risk":3,"frizz_risk":0,"updated_at":"2026-04-04T02:10:14.885983+05:30"},{"city":"Shimla","state":"Himachal Pradesh","latitude":31.1048,"longitude":77.1734,"temp":13.3,"humidity":70,"rain":0.0,"pressure":784.6,"uv_index":5.3,"wind_gusts":50.0,"aqi":51,"pm10":27.8,"pm2_5":17.9,"mosquito_risk":3,"arthritis_risk":5,"migraine_risk":3,"frizz_risk":0,"updated_at":"2026-04-04T02:10:14.885991+05:30"},{"city":"Manali","state":"Himachal Pradesh","latitude":32.2396,"longitude":77.1887,"temp":12.8,"humidity":93,"rain":0.1,"pressure":820.2,"uv_index":5.35,"wind_gusts":30.2,"aqi":47,"pm10":4.9,"pm2_5":2.3,"mosquito_risk":6,"arthritis_risk":10,"migraine_risk":3,"frizz_risk":0,"updated_at":"2026-04-04T02:10:14.885998+05:30"},{"city":"Gurgaon","state":"Haryana","latitude":28.4595,"longitude":77.0266,"temp":20.8,"humidity":82,"rain":0.0,"pressure":983.2,"uv_index":6.0,"wind_gusts":37.4,"aqi":690,"pm10":292.4,"pm2_5":72.2,"mosquito_risk":3,"arthritis_risk":5,"migraine_risk":3,"frizz_risk":1,"updated_at":"2026-04-04T02:10:14.886005+05:30"},{"city":"Noida","state":"Uttar Pradesh","latitude":28.5355,"longitude":77.391,"temp":23.0,"humidity":70,"rain":0.0,"pressure":986.4,"uv_index":6.45,"wind_gusts":43.2,"aqi":690,"pm10":292.4,"pm2_5":72.2,"mosquito_risk":3,"arthritis_risk":5,"migraine_risk":7,"frizz_risk":1,"updated_at":"2026-04-04T02:10:14.886014+05:30"},{"city":"Ghaziabad","state":"Uttar Pradesh","latitude":28.6692,"longitude":77.4538,"temp":21.5,"humidity":77,"rain":0.0,"pressure":984.5,"uv_index":6.25,"wind_gusts":43.2,"aqi":258,"pm10":233.8,"pm2_5":59.8,"mosquito_risk":3,"arthritis_risk":5,"migraine_risk":7,"frizz_risk":1,"updated_at":"2026-04-04T02:10:14.886024+05:30"},{"city":"Faridabad","state":"Haryana","latitude":28.4089,"longitude":77.3178,"temp":21.5,"humidity":74,"rain":0.0,"pressure":985.8,"uv_index":6.25,"wind_gusts":39.2,"aqi":690,"pm10":292.4,"pm2_5":72.2,"mosquito_risk":3,"arthritis_risk":5,"migraine_risk":7,"frizz_risk":1,"updated_at":"2026-04-04T02:10:14.886031+05:30"},{"city":"Meerut","state":"Uttar Pradesh","latitude":28.9845,"longitude":77.7064,"temp":21.1,"humidity":80,"rain":0.0,"pressure":983.2,"uv_index":6.05,"wind_gusts":45.0,"aqi":258,"pm10":233.8,"pm2_5":59.8,"mosquito_risk":3,"arthritis_risk":5,"migraine_risk":7,"frizz_risk":1,"updated_at":"2026-04-04T02:10:14.886037+05:30"},{"city":"Agra","state":"Uttar Pradesh","latitude":27.1767,"longitude":78.0081,"temp":23.2,"humidity":67,"rain":0.0,"pressure":989.4,"uv_index":6.5,"wind_gusts":30.2,"aqi":684,"pm10":605.4,"pm2_5":81.5,"mosquito_risk":3,"arthritis_risk":5,"migraine_risk":7,"frizz_risk":1,"updated_at":"2026-04-04T02:10:14.886044+05:30"},{"city":"Varanasi","state":"Uttar Pradesh","latitude":25.3176,"longitude":82.9739,"temp":25.2,"humidity":73,"rain":0.0,"pressure":997.0,"uv_index":7.5,"wind_gusts":28.1,"aqi":83,"pm10":33.9,"pm2_5":28.8,"mosquito_risk":7,"arthritis_risk":5,"migraine_risk":7,"frizz_risk":1,"updated_at":"2026-04-04T02:10:14.886053+05:30"},{"city":"Prayagraj","state":"Uttar Pradesh","latitude":25.4358,"longitude":81.8463,"temp":26.0,"humidity":67,"rain":0.0,"pressure":995.8,"uv_index":6.65,"wind_gusts":28.8,"aqi":90,"pm10":66.6,"pm2_5":39.2,"mosquito_risk":7,"arthritis_risk":5,"migraine_risk":7,"frizz_risk":1,"updated_at":"2026-04-04T02:10:14.886060+05:30"},{"city":"Gorakhpur","state":"Uttar Pradesh","latitude":26.7606,"longitude":83.3732,"temp":24.2,"humidity":69,"rain":0.0,"pressure":996.4,"uv_index":7.25,"wind_gusts":42.1,"aqi":72,"pm10":112.5,"pm2_5":39.3,"mosquito_risk":3,"arthritis_risk":5,"migraine_risk":7,"frizz_risk":1,"updated_at":"2026-04-04T02:10:14.886066+05:30"},{"city":"Bareilly","state":"Uttar Pradesh","latitude":28.367,"longitude":79.4304,"temp":23.0,"humidity":82,"rain":0.0,"pressure":988.0,"uv_index":5.5,"wind_gusts":27.7,"aqi":113,"pm10":122.0,"pm2_5":51.6,"mosquito_risk":3,"arthritis_risk":5,"migraine_risk":3,"frizz_risk":1,"updated_at":"2026-04-04T02:10:14.886073+05:30"},{"city":"Aligarh","state":"Uttar Pradesh","latitude":27.8974,"longitude":78.088,"temp":21.9,"humidity":70,"rain":0.0,"pressure":987.2,"uv_index":6.55,"wind_gusts":36.0,"aqi":638,"pm10":368.8,"pm2_5":71.2,"mosquito_risk":3,"arthritis_risk":5,"migraine_risk":7,"frizz_risk":1,"updated_at":"2026-04-04T02:10:14.886082+05:30"},{"city":"Moradabad","state":"Uttar Pradesh","latitude":28.8386,"longitude":78.7733,"temp":22.0,"humidity":83,"rain":0.0,"pressure":985.2,"uv_index":5.6,"wind_gusts":53.3,"aqi":151,"pm10":160.2,"pm2_5":54.4,"mosquito_risk":3,"arthritis_risk":5,"migraine_risk":3,"frizz_risk":1,"updated_at":"2026-04-04T02:10:14.886089+05:30"},{"city":"Saharanpur","state":"Uttar Pradesh","latitude":29.9637,"longitude":77.546,"temp":22.0,"humidity":78,"rain":0.0,"pressure":977.1,"uv_index":6.1,"wind_gusts":32.4,"aqi":135,"pm10":115.3,"pm2_5":61.7,"mosquito_risk":3,"arthritis_risk":5,"migraine_risk":7,"frizz_risk":1,"updated_at":"2026-04-04T02:10:14.886095+05:30"},{"city":"Jhansi","state":"Uttar Pradesh","latitude":25.4484,"longitude":78.5685,"temp":23.7,"humidity":74,"rain":0.0,"pressure":978.9,"uv_index":7.65,"wind_gusts":48.6,"aqi":66,"pm10":51.8,"pm2_5":26.0,"mosquito_risk":3,"arthritis_risk":5,"migraine_risk":7,"frizz_risk":1,"updated_at":"2026-04-04T02:10:18.233065+05:30"},{"city":"Surat","state":"Gujarat","latitude":21.1702,"longitude":72.8311,"temp":26.8,"humidity":82,"rain":0.0,"pressure":1007.4,"uv_index":7.65,"wind_gusts":23.4,"aqi":93,"pm10":26.8,"pm2_5":21.0,"mosquito_risk":7,"arthritis_risk":5,"migraine_risk":4,"frizz_risk":1,"updated_at":"2026-04-04T02:10:18.233096+05:30"},{"city":"Vadodara","state":"Gujarat","latitude":22.3072,"longitude":73.1812,"temp":26.1,"humidity":85,"rain":0.0,"pressure":1005.2,"uv_index":7.85,"wind_gusts":25.6,"aqi":80,"pm10":57.4,"pm2_5":38.3,"mosquito_risk":7,"arthritis_risk":5,"migraine_risk":4,"frizz_risk":1,"updated_at":"2026-04-04T02:10:18.233105+05:30"},{"city":"Rajkot","state":"Gujarat","latitude":22.3039,"longitude":70.8022,"temp":22.9,"humidity":87,"rain":0.0,"pressure":995.3,"uv_index":7.55,"wind_gusts":33.1,"aqi":56,"pm10":17.0,"pm2_5":10.2,"mosquito_risk":3,"arthritis_risk":5,"migraine_risk":7,"frizz_risk":1,"updated_at":"2026-04-04T02:10:18.233113+05:30"},{"city":"Thane","state":"Maharashtra","latitude":19.2183,"longitude":72.9781,"temp":26.0,"humidity":84,"rain":0.0,"pressure":1008.9,"uv_index":7.85,"wind_gusts":36.7,"aqi":80,"pm10":54.2,"pm2_5":23.4,"mosquito_risk":7,"arthritis_risk":0,"migraine_risk":4,"frizz_risk":1,"updated_at":"2026-04-04T02:10:18.233119+05:30"},{"city":"Nagpur","state":"Maharashtra","latitude":21.1458,"longitude":79.0882,"temp":25.7,"humidity":69,"rain":0.0,"pressure":973.1,"uv_index":8.05,"wind_gusts":29.9,"aqi":83,"pm10":46.2,"pm2_5":42.4,"mosquito_risk":7,"arthritis_risk":5,"migraine_risk":7,"frizz_risk":1,"updated_at":"2026-04-04T02:10:18.233127+05:30"},{"city":"Nashik","state":"Maharashtra","latitude":19.9975,"longitude":73.7898,"temp":20.6,"humidity":88,"rain":0.0,"pressure":946.0,"uv_index":8.15,"wind_gusts":37.8,"aqi":66,"pm10":45.6,"pm2_5":22.3,"mosquito_risk":3,"arthritis_risk":5,"migraine_risk":7,"frizz_risk":1,"updated_at":"2026-04-04T02:10:18.233135+05:30"},{"city":"Aurangabad","state":"Maharashtra","latitude":19.8762,"longitude":75.3433,"temp":25.1,"humidity":62,"rain":0.0,"pressure":944.4,"uv_index":8.7,"wind_gusts":37.8,"aqi":101,"pm10":50.6,"pm2_5":42.7,"mosquito_risk":7,"arthritis_risk":5,"migraine_risk":7,"frizz_risk":1,"updated_at":"2026-04-04T02:10:18.233142+05:30"},{"city":"Solapur","state":"Maharashtra","latitude":17.6599,"longitude":75.9064,"temp":24.4,"humidity":77,"rain":0.0,"pressure":957.5,"uv_index":8.8,"wind_gusts":21.6,"aqi":98,"pm10":46.0,"pm2_5":41.8,"mosquito_risk":3,"arthritis_risk":5,"migraine_risk":7,"frizz_risk":1,"updated_at":"2026-04-04T02:10:18.233149+05:30"},{"city":"Kolhapur","state":"Maharashtra","latitude":16.705,"longitude":74.2433,"temp":20.4,"humidity":97,"rain":0.0,"pressure":947.8,"uv_index":9.0,"wind_gusts":41.0,"aqi":125,"pm10":40.3,"pm2_5":36.4,"mosquito_risk":3,"arthritis_risk":5,"migraine_risk":7,"frizz_risk":1,"updated_at":"2026-04-04T02:10:18.233156+05:30"},{"city":"Goa","state":"Goa","latitude":15.2993,"longitude":74.124,"temp":27.7,"humidity":76,"rain":0.0,"pressure":998.3,"uv_index":8.45,"wind_gusts":31.7,"aqi":77,"pm10":39.2,"pm2_5":32.5,"mosquito_risk":7,"arthritis_risk":5,"migraine_risk":7,"frizz_risk":1,"updated_at":"2026-04-04T02:10:18.233163+05:30"},{"city":"Jodhpur","state":"Rajasthan","latitude":26.2389,"longitude":73.0243,"temp":21.9,"humidity":66,"rain":0.0,"pressure":984.3,"uv_index":7.35,"wind_gusts":26.6,"aqi":128,"pm10":170.4,"pm2_5":28.0,"mosquito_risk":3,"arthritis_risk":5,"migraine_risk":7,"frizz_risk":0,"updated_at":"2026-04-04T02:10:18.233169+05:30"},{"city":"Udaipur","state":"Rajasthan","latitude":24.5854,"longitude":73.7125,"temp":21.2,"humidity":68,"rain":0.0,"pressure":946.8,"uv_index":8.25,"wind_gusts":37.8,"aqi":55,"pm10":34.5,"pm2_5":13.9,"mosquito_risk":3,"arthritis_risk":5,"migraine_risk":7,"frizz_risk":0,"updated_at":"2026-04-04T02:10:18.233175+05:30"},{"city":"Kota","state":"Rajasthan","latitude":25.2138,"longitude":75.8648,"temp":25.2,"humidity":66,"rain":0.0,"pressure":979.8,"uv_index":7.3,"wind_gusts":40.7,"aqi":59,"pm10":41.6,"pm2_5":21.1,"mosquito_risk":7,"arthritis_risk":5,"migraine_risk":7,"frizz_risk":1,"updated_at":"2026-04-04T02:10:18.233182+05:30"},{"city":"Bikaner","state":"Rajasthan","latitude":28.0229,"longitude":73.3119,"temp":19.8,"humidity":77,"rain":0.0,"pressure":983.4,"uv_index":7.1,"wind_gusts":25.9,"aqi":63,"pm10":64.3,"pm2_5":22.2,"mosquito_risk":3,"arthritis_risk":5,"migraine_risk":7,"frizz_risk":0,"updated_at":"2026-04-04T02:10:18.233188+05:30"},{"city":"Ajmer","state":"Rajasthan","latitude":26.4499,"longitude":74.6399,"temp":21.6,"humidity":77,"rain":0.0,"pressure":955.2,"uv_index":6.95,"wind_gusts":34.9,"aqi":83,"pm10":51.8,"pm2_5":18.9,"mosquito_risk":3,"arthritis_risk":5,"migraine_risk":7,"frizz_risk":1,"updated_at":"2026-04-04T02:10:18.233195+05:30"},{"city":"Gwalior","state":"Madhya Pradesh","latitude":26.2183,"longitude":78.1828,"temp":23.7,"humidity":75,"rain":0.0,"pressure":984.5,"uv_index":7.3,"wind_gusts":31.3,"aqi":77,"pm10":213.7,"pm2_5":50.3,"mosquito_risk":3,"arthritis_risk":5,"migraine_risk":7,"frizz_risk":1,"updated_at":"2026-04-04T02:10:18.233201+05:30"},{"city":"Indore","state":"Madhya Pradesh","latitude":22.7196,"longitude":75.8577,"temp":22.8,"humidity":72,"rain":0.0,"pressure":948.5,"uv_index":8.3,"wind_gusts":40.7,"aqi":72,"pm10":32.4,"pm2_5":22.2,"mosquito_risk":3,"arthritis_risk":5,"migraine_risk":7,"frizz_risk":1,"updated_at":"2026-04-04T02:10:18.233208+05:30"},{"city":"Bhopal","state":"Madhya Pradesh","latitude":23.2599,"longitude":77.4126,"temp":24.9,"humidity":58,"rain":0.0,"pressure":954.4,"uv_index":8.25,"wind_gusts":34.2,"aqi":70,"pm10":33.8,"pm2_5":29.0,"mosquito_risk":0,"arthritis_risk":5,"migraine_risk":7,"frizz_risk":1,"updated_at":"2026-04-04T02:10:18.233215+05:30"},{"city":"Jabalpur","state":"Madhya Pradesh","latitude":23.1815,"longitude":79.9864,"temp":25.9,"humidity":66,"rain":0.0,"pressure":961.9,"uv_index":4.25,"wind_gusts":29.2,"aqi":78,"pm10":42.4,"pm2_5":37.0,"mosquito_risk":7,"arthritis_risk":5,"migraine_risk":3,"frizz_risk":1,"updated_at":"2026-04-04T02:10:18.233221+05:30"},{"city":"Ujjain","state":"Madhya Pradesh","latitude":23.1765,"longitude":75.7885,"temp":23.0,"humidity":71,"rain":0.0,"pressure":954.2,"uv_index":8.2,"wind_gusts":35.6,"aqi":70,"pm10":40.4,"pm2_5":25.7,"mosquito_risk":3,"arthritis_risk":5,"migraine_risk":7,"frizz_risk":1,"updated_at":"2026-04-04T02:10:18.233228+05:30"},{"city":"Visakhapatnam","state":"Andhra Pradesh","latitude":17.6868,"longitude":83.2185,"temp":26.5,"humidity":89,"rain":0.0,"pressure":1003.9,"uv_index":8.8,"wind_gusts":37.8,"aqi":58,"pm10":14.0,"pm2_5":12.2,"mosquito_risk":7,"arthritis_risk":5,"migraine_risk":4,"frizz_risk":1,"updated_at":"2026-04-04T02:10:18.233235+05:30"},{"city":"Vijayawada","state":"Andhra Pradesh","latitude":16.5062,"longitude":80.648,"temp":26.1,"humidity":90,"rain":0.0,"pressure":1002.6,"uv_index":8.3,"wind_gusts":18.0,"aqi":43,"pm10":11.4,"pm2_5":10.3,"mosquito_risk":7,"arthritis_risk":5,"migraine_risk":4,"frizz_risk":1,"updated_at":"2026-04-04T02:10:18.233241+05:30"},{"city":"Guntur","state":"Andhra Pradesh","latitude":16.3067,"longitude":80.4365,"temp":26.2,"humidity":90,"rain":0.0,"pressure":1003.7,"uv_index":8.4,"wind_gusts":16.9,"aqi":39,"pm10":10.7,"pm2_5":9.5,"mosquito_risk":7,"arthritis_risk":5,"migraine_risk":4,"frizz_risk":1,"updated_at":"2026-04-04T02:10:18.233248+05:30"},{"city":"Nellore","state":"Andhra Pradesh","latitude":14.4426,"longitude":79.9865,"temp":26.5,"humidity":88,"rain":0.0,"pressure":1005.6,"uv_index":8.65,"wind_gusts":29.9,"aqi":41,"pm10":8.8,"pm2_5":6.9,"mosquito_risk":7,"arthritis_risk":5,"migraine_risk":4,"frizz_risk":1,"updated_at":"2026-04-04T02:10:18.233255+05:30"},{"city":"Kurnool","state":"Andhra Pradesh","latitude":15.8281,"longitude":78.0373,"temp":29.4,"humidity":45,"rain":0.0,"pressure":975.9,"uv_index":8.4,"wind_gusts":32.0,"aqi":56,"pm10":24.3,"pm2_5":20.9,"mosquito_risk":4,"arthritis_risk":5,"migraine_risk":7,"frizz_risk":1,"updated_at":"2026-04-04T02:10:18.233262+05:30"},{"city":"Kakinada","state":"Andhra Pradesh","latitude":16.9891,"longitude":82.2475,"temp":25.8,"humidity":90,"rain":0.0,"pressure":1007.9,"uv_index":8.6,"wind_gusts":33.1,"aqi":29,"pm10":8.0,"pm2_5":5.8,"mosquito_risk":7,"arthritis_risk":5,"migraine_risk":4,"frizz_risk":1,"updated_at":"2026-04-04T02:10:18.233269+05:30"},{"city":"Tirupati","state":"Andhra Pradesh","latitude":13.6288,"longitude":79.4192,"temp":24.9,"humidity":72,"rain":0.0,"pressure":992.3,"uv_index":8.5,"wind_gusts":29.2,"aqi":54,"pm10":16.8,"pm2_5":16.1,"mosquito_risk":3,"arthritis_risk":5,"migraine_risk":7,"frizz_risk":1,"updated_at":"2026-04-04T02:10:18.233275+05:30"},{"city":"Warangal","state":"Telangana","latitude":17.9689,"longitude":79.5941,"temp":27.1,"humidity":68,"rain":0.0,"pressure":978.0,"uv_index":7.7,"wind_gusts":25.6,"aqi":72,"pm10":24.7,"pm2_5":23.4,"mosquito_risk":7,"arthritis_risk":5,"migraine_risk":7,"frizz_risk":1,"updated_at":"2026-04-04T02:10:18.233281+05:30"},{"city":"Nizamabad","state":"Telangana","latitude":18.6725,"longitude":78.0941,"temp":25.2,"humidity":80,"rain":0.0,"pressure":965.6,"uv_index":8.05,"wind_gusts":32.8,"aqi":111,"pm10":64.3,"pm2_5":58.8,"mosquito_risk":7,"arthritis_risk":5,"migraine_risk":7,"frizz_risk":1,"updated_at":"2026-04-04T02:10:18.233288+05:30"},{"city":"Mysore","state":"Karnataka","latitude":12.2958,"longitude":76.6396,"temp":22.8,"humidity":89,"rain":0.0,"pressure":928.2,"uv_index":9.0,"wind_gusts":29.5,"aqi":74,"pm10":26.0,"pm2_5":24.6,"mosquito_risk":3,"arthritis_risk":5,"migraine_risk":7,"frizz_risk":1,"updated_at":"2026-04-04T02:10:18.233294+05:30"},{"city":"Mangalore","state":"Karnataka","latitude":12.9141,"longitude":74.856,"temp":28.1,"humidity":83,"rain":0.0,"pressure":1007.1,"uv_index":7.85,"wind_gusts":23.4,"aqi":67,"pm10":22.2,"pm2_5":18.2,"mosquito_risk":7,"arthritis_risk":5,"migraine_risk":4,"frizz_risk":1,"updated_at":"2026-04-04T02:10:18.233300+05:30"},{"city":"Hubli-Dharwad","state":"Karnataka","latitude":15.3647,"longitude":75.124,"temp":23.0,"humidity":91,"rain":0.0,"pressure":940.9,"uv_index":8.9,"wind_gusts":31.0,"aqi":77,"pm10":24.4,"pm2_5":22.8,"mosquito_risk":3,"arthritis_risk":5,"migraine_risk":7,"frizz_risk":1,"updated_at":"2026-04-04T02:10:18.233307+05:30"},{"city":"Belgaum","state":"Karnataka","latitude":15.8497,"longitude":74.4977,"temp":21.2,"humidity":98,"rain":0.0,"pressure":925.4,"uv_index":8.7,"wind_gusts":34.6,"aqi":91,"pm10":37.7,"pm2_5":33.4,"mosquito_risk":3,"arthritis_risk":5,"migraine_risk":7,"frizz_risk":1,"updated_at":"2026-04-04T02:10:21.586949+05:30"},{"city":"Coimbatore","state":"Tamil Nadu","latitude":11.0168,"longitude":76.9558,"temp":24.8,"humidity":80,"rain":0.0,"pressure":962.1,"uv_index":8.4,"wind_gusts":45.7,"aqi":72,"pm10":27.5,"pm2_5":25.8,"mosquito_risk":3,"arthritis_risk":5,"migraine_risk":7,"frizz_risk":1,"updated_at":"2026-04-04T02:10:21.586981+05:30"},{"city":"Madurai","state":"Tamil Nadu","latitude":9.9252,"longitude":78.1198,"temp":25.0,"humidity":86,"rain":0.0,"pressure":993.6,"uv_index":9.2,"wind_gusts":21.2,"aqi":57,"pm10":26.0,"pm2_5":25.1,"mosquito_risk":7,"arthritis_risk":5,"migraine_risk":7,"frizz_risk":1,"updated_at":"2026-04-04T02:10:21.586992+05:30"},{"city":"Trichy","state":"Tamil Nadu","latitude":10.7905,"longitude":78.7047,"temp":26.7,"humidity":84,"rain":0.0,"pressure":1000.2,"uv_index":8.95,"wind_gusts":26.3,"aqi":58,"pm10":12.3,"pm2_5":11.7,"mosquito_risk":7,"arthritis_risk":5,"migraine_risk":4,"frizz_risk":1,"updated_at":"2026-04-04T02:10:21.587000+05:30"},{"city":"Salem","state":"Tamil Nadu","latitude":11.6643,"longitude":78.146,"temp":27.0,"humidity":75,"rain":0.0,"pressure":977.9,"uv_index":8.6,"wind_gusts":41.0,"aqi":64,"pm10":14.4,"pm2_5":13.8,"mosquito_risk":7,"arthritis_risk":5,"migraine_risk":7,"frizz_risk":1,"updated_at":"2026-04-04T02:10:21.587008+05:30"},{"city":"Tirunelveli","state":"Tamil Nadu","latitude":8.7139,"longitude":77.7567,"temp":25.7,"humidity":91,"rain":0.0,"pressure":1003.8,"uv_index":7.75,"wind_gusts":19.1,"aqi":66,"pm10":25.6,"pm2_5":24.2,"mosquito_risk":7,"arthritis_risk":5,"migraine_risk":4,"frizz_risk":1,"updated_at":"2026-04-04T02:10:21.587016+05:30"},{"city":"Vellore","state":"Tamil Nadu","latitude":12.9165,"longitude":79.1325,"temp":25.7,"humidity":77,"rain":0.0,"pressure":985.0,"uv_index":8.65,"wind_gusts":30.6,"aqi":75,"pm10":19.1,"pm2_5":17.8,"mosquito_risk":7,"arthritis_risk":5,"migraine_risk":7,"frizz_risk":1,"updated_at":"2026-04-04T02:10:21.587023+05:30"},{"city":"Erode","state":"Tamil Nadu","latitude":11.341,"longitude":77.7172,"temp":27.2,"humidity":74,"rain":0.0,"pressure":989.5,"uv_index":8.65,"wind_gusts":33.5,"aqi":56,"pm10":21.2,"pm2_5":20.3,"mosquito_risk":7,"arthritis_risk":5,"migraine_risk":7,"frizz_risk":1,"updated_at":"2026-04-04T02:10:21.587030+05:30"},{"city":"Kochi","state":"Kerala","latitude":9.9312,"longitude":76.2673,"temp":27.5,"humidity":83,"rain":0.0,"pressure":1009.2,"uv_index":9.25,"wind_gusts":24.5,"aqi":67,"pm10":24.3,"pm2_5":23.5,"mosquito_risk":7,"arthritis_risk":0,"migraine_risk":4,"frizz_risk":1,"updated_at":"2026-04-04T02:10:21.587038+05:30"},{"city":"Thiruvananthapuram","state":"Kerala","latitude":8.5241,"longitude":76.9366,"temp":28.3,"humidity":82,"rain":0.0,"pressure":1008.3,"uv_index":8.4,"wind_gusts":30.6,"aqi":64,"pm10":21.8,"pm2_5":18.3,"mosquito_risk":7,"arthritis_risk":0,"migraine_risk":4,"frizz_risk":1,"updated_at":"2026-04-04T02:10:21.587046+05:30"},{"city":"Kozhikode","state":"Kerala","latitude":11.2588,"longitude":75.7804,"temp":28.0,"humidity":81,"rain":0.0,"pressure":1008.3,"uv_index":7.5,"wind_gusts":28.8,"aqi":60,"pm10":19.3,"pm2_5":15.7,"mosquito_risk":7,"arthritis_risk":0,"migraine_risk":4,"frizz_risk":1,"updated_at":"2026-04-04T02:10:21.587058+05:30"},{"city":"Thrissur","state":"Kerala","latitude":10.5276,"longitude":76.2144,"temp":26.8,"humidity":83,"rain":0.0,"pressure":1007.6,"uv_index":8.75,"wind_gusts":29.9,"aqi":68,"pm10":26.1,"pm2_5":24.7,"mosquito_risk":7,"arthritis_risk":5,"migraine_risk":4,"frizz_risk":1,"updated_at":"2026-04-04T02:10:21.587066+05:30"},{"city":"Kannur","state":"Kerala","latitude":11.8745,"longitude":75.3704,"temp":27.0,"humidity":83,"rain":0.0,"pressure":1007.7,"uv_index":7.65,"wind_gusts":28.1,"aqi":72,"pm10":26.8,"pm2_5":23.9,"mosquito_risk":7,"arthritis_risk":5,"migraine_risk":4,"frizz_risk":1,"updated_at":"2026-04-04T02:10:21.587073+05:30"},{"city":"Patna","state":"Bihar","latitude":25.5941,"longitude":85.1376,"temp":26.0,"humidity":69,"rain":0.0,"pressure":999.3,"uv_index":7.85,"wind_gusts":38.5,"aqi":86,"pm10":32.2,"pm2_5":23.1,"mosquito_risk":7,"arthritis_risk":5,"migraine_risk":7,"frizz_risk":1,"updated_at":"2026-04-04T02:10:21.587080+05:30"},{"city":"Gaya","state":"Bihar","latitude":24.7914,"longitude":85.0002,"temp":25.8,"humidity":68,"rain":0.0,"pressure":993.1,"uv_index":8.25,"wind_gusts":27.4,"aqi":78,"pm10":26.3,"pm2_5":21.9,"mosquito_risk":7,"arthritis_risk":5,"migraine_risk":7,"frizz_risk":1,"updated_at":"2026-04-04T02:10:21.587089+05:30"},{"city":"Muzaffarpur","state":"Bihar","latitude":26.1209,"longitude":85.3647,"temp":24.3,"humidity":72,"rain":0.0,"pressure":999.2,"uv_index":8.0,"wind_gusts":39.6,"aqi":81,"pm10":37.1,"pm2_5":23.7,"mosquito_risk":3,"arthritis_risk":5,"migraine_risk":7,"frizz_risk":1,"updated_at":"2026-04-04T02:10:21.587097+05:30"},{"city":"Bhagalpur","state":"Bihar","latitude":25.2425,"longitude":87.0117,"temp":25.2,"humidity":70,"rain":0.0,"pressure":999.6,"uv_index":8.2,"wind_gusts":28.1,"aqi":77,"pm10":27.4,"pm2_5":25.7,"mosquito_risk":7,"arthritis_risk":5,"migraine_risk":7,"frizz_risk":1,"updated_at":"2026-04-04T02:10:21.587104+05:30"},{"city":"Ranchi","state":"Jharkhand","latitude":23.3441,"longitude":85.3096,"temp":24.4,"humidity":61,"rain":0.0,"pressure":937.6,"uv_index":8.1,"wind_gusts":31.7,"aqi":70,"pm10":31.0,"pm2_5":25.3,"mosquito_risk":3,"arthritis_risk":5,"migraine_risk":7,"frizz_risk":1,"updated_at":"2026-04-04T02:10:21.587111+05:30"},{"city":"Jamshedpur","state":"Jharkhand","latitude":22.8046,"longitude":86.2029,"temp":27.1,"humidity":70,"rain":0.0,"pressure":989.8,"uv_index":8.45,"wind_gusts":26.6,"aqi":107,"pm10":44.7,"pm2_5":39.2,"mosquito_risk":7,"arthritis_risk":5,"migraine_risk":7,"frizz_risk":1,"updated_at":"2026-04-04T02:10:21.587118+05:30"},{"city":"Dhanbad","state":"Jharkhand","latitude":23.7957,"longitude":86.4304,"temp":27.5,"humidity":55,"rain":0.0,"pressure":978.8,"uv_index":7.85,"wind_gusts":25.9,"aqi":135,"pm10":47.7,"pm2_5":43.8,"mosquito_risk":4,"arthritis_risk":5,"migraine_risk":7,"frizz_risk":1,"updated_at":"2026-04-04T02:10:21.587125+05:30"},{"city":"Bokaro","state":"Jharkhand","latitude":23.6693,"longitude":86.1511,"temp":27.4,"humidity":54,"rain":0.0,"pressure":983.2,"uv_index":7.7,"wind_gusts":35.6,"aqi":135,"pm10":51.5,"pm2_5":47.6,"mosquito_risk":4,"arthritis_risk":5,"migraine_risk":7,"frizz_risk":1,"updated_at":"2026-04-04T02:10:21.587132+05:30"},{"city":"Bhubaneswar","state":"Odisha","latitude":20.2961,"longitude":85.8245,"temp":26.7,"humidity":94,"rain":0.0,"pressure":1002.2,"uv_index":8.95,"wind_gusts":27.0,"aqi":57,"pm10":16.0,"pm2_5":14.0,"mosquito_risk":7,"arthritis_risk":5,"migraine_risk":4,"frizz_risk":1,"updated_at":"2026-04-04T02:10:21.587139+05:30"},{"city":"Cuttack","state":"Odisha","latitude":20.4625,"longitude":85.8828,"temp":26.8,"humidity":92,"rain":0.0,"pressure":1003.9,"uv_index":9.0,"wind_gusts":30.2,"aqi":57,"pm10":16.0,"pm2_5":14.0,"mosquito_risk":7,"arthritis_risk":5,"migraine_risk":4,"frizz_risk":1,"updated_at":"2026-04-04T02:10:21.587147+05:30"},{"city":"Rourkela","state":"Odisha","latitude":22.2604,"longitude":84.8536,"temp":27.2,"humidity":69,"rain":0.0,"pressure":985.0,"uv_index":8.05,"wind_gusts":49.7,"aqi":118,"pm10":49.7,"pm2_5":44.6,"mosquito_risk":7,"arthritis_risk":5,"migraine_risk":7,"frizz_risk":1,"updated_at":"2026-04-04T02:10:21.587154+05:30"},{"city":"Raipur","state":"Chhattisgarh","latitude":21.2514,"longitude":81.6296,"temp":25.1,"humidity":76,"rain":0.0,"pressure":975.6,"uv_index":8.15,"wind_gusts":35.6,"aqi":138,"pm10":44.9,"pm2_5":42.1,"mosquito_risk":7,"arthritis_risk":5,"migraine_risk":7,"frizz_risk":1,"updated_at":"2026-04-04T02:10:21.587161+05:30"},{"city":"Bhilai","state":"Chhattisgarh","latitude":21.1938,"longitude":81.3509,"temp":25.0,"humidity":76,"rain":0.0,"pressure":975.7,"uv_index":8.1,"wind_gusts":29.2,"aqi":106,"pm10":31.8,"pm2_5":28.5,"mosquito_risk":7,"arthritis_risk":5,"migraine_risk":7,"frizz_risk":1,"updated_at":"2026-04-04T02:10:21.587167+05:30"},{"city":"Guwahati","state":"Assam","latitude":26.1158,"longitude":91.7086,"temp":24.7,"humidity":90,"rain":0.0,"pressure":1000.1,"uv_index":8.25,"wind_gusts":31.7,"aqi":142,"pm10":57.5,"pm2_5":52.5,"mosquito_risk":3,"arthritis_risk":5,"migraine_risk":4,"frizz_risk":1,"updated_at":"2026-04-04T02:10:21.587174+05:30"},{"city":"Agartala","state":"Tripura","latitude":23.8315,"longitude":91.2868,"temp":26.4,"humidity":95,"rain":0.0,"pressure":1004.3,"uv_index":8.5,"wind_gusts":29.2,"aqi":69,"pm10":10.2,"pm2_5":8.9,"mosquito_risk":7,"arthritis_risk":5,"migraine_risk":4,"frizz_risk":1,"updated_at":"2026-04-04T02:10:21.587181+05:30"},{"city":"Shillong","state":"Meghalaya","latitude":25.5788,"longitude":91.8933,"temp":16.2,"humidity":85,"rain":0.0,"pressure":855.1,"uv_index":8.55,"wind_gusts":57.6,"aqi":106,"pm10":42.8,"pm2_5":36.2,"mosquito_risk":3,"arthritis_risk":10,"migraine_risk":7,"frizz_risk":0,"updated_at":"2026-04-04T02:10:21.587189+05:30"},{"city":"Imphal","state":"Manipur","latitude":24.817,"longitude":93.9368,"temp":19.4,"humidity":83,"rain":0.0,"pressure":922.1,"uv_index":8.65,"wind_gusts":84.6,"aqi":116,"pm10":70.3,"pm2_5":59.8,"mosquito_risk":3,"arthritis_risk":10,"migraine_risk":7,"frizz_risk":1,"updated_at":"2026-04-04T02:10:21.587197+05:30"},{"city":"Aizawl","state":"Mizoram","latitude":23.7271,"longitude":92.7176,"temp":19.1,"humidity":86,"rain":0.0,"pressure":891.1,"uv_index":8.65,"wind_gusts":55.1,"aqi":115,"pm10":52.5,"pm2_5":41.1,"mosquito_risk":3,"arthritis_risk":10,"migraine_risk":7,"frizz_risk":1,"updated_at":"2026-04-04T02:10:21.587204+05:30"},{"city":"Kohima","state":"Nagaland","latitude":25.6701,"longitude":94.1077,"temp":16.2,"humidity":79,"rain":0.0,"pressure":853.7,"uv_index":8.55,"wind_gusts":94.0,"aqi":100,"pm10":53.1,"pm2_5":45.8,"mosquito_risk":3,"arthritis_risk":5,"migraine_risk":7,"frizz_risk":0,"updated_at":"2026-04-04T02:10:21.587211+05:30"},{"city":"Gangtok","state":"Sikkim","latitude":27.3314,"longitude":88.6138,"temp":15.6,"humidity":95,"rain":0.0,"pressure":836.4,"uv_index":8.3,"wind_gusts":18.0,"aqi":106,"pm10":45.2,"pm2_5":36.1,"mosquito_risk":3,"arthritis_risk":10,"migraine_risk":7,"frizz_risk":0,"updated_at":"2026-04-04T02:10:21.587218+05:30"},{"city":"Siliguri","state":"West Bengal","latitude":26.7271,"longitude":88.3953,"temp":22.1,"humidity":76,"rain":0.0,"pressure":992.9,"uv_index":8.2,"wind_gusts":27.7,"aqi":154,"pm10":96.4,"pm2_5":80.6,"mosquito_risk":3,"arthritis_risk":5,"migraine_risk":7,"frizz_risk":1,"updated_at":"2026-04-04T02:10:24.945886+05:30"},{"city":"Durgapur","state":"West Bengal","latitude":23.5204,"longitude":87.3119,"temp":28.0,"humidity":78,"rain":0.0,"pressure":993.3,"uv_index":8.55,"wind_gusts":18.7,"aqi":159,"pm10":76.1,"pm2_5":71.5,"mosquito_risk":7,"arthritis_risk":5,"migraine_risk":7,"frizz_risk":1,"updated_at":"2026-04-04T02:10:24.945920+05:30"},{"city":"Asansol","state":"West Bengal","latitude":23.6739,"longitude":86.9524,"temp":29.6,"humidity":65,"rain":0.0,"pressure":992.0,"uv_index":8.35,"wind_gusts":18.0,"aqi":133,"pm10":41.9,"pm2_5":37.8,"mosquito_risk":7,"arthritis_risk":5,"migraine_risk":7,"frizz_risk":1,"updated_at":"2026-04-04T02:10:24.945937+05:30"},{"city":"Pondicherry","state":"Puducherry","latitude":11.9139,"longitude":79.8145,"temp":26.5,"humidity":96,"rain":0.0,"pressure":1008.9,"uv_index":8.4,"wind_gusts":22.0,"aqi":46,"pm10":11.2,"pm2_5":7.8,"mosquito_risk":7,"arthritis_risk":0,"migraine_risk":4,"frizz_risk":1,"updated_at":"2026-04-04T02:10:24.945947+05:30"},{"city":"Port Blair","state":"Andaman and Nicobar Islands","latitude":11.6234,"longitude":92.7265,"temp":28.4,"humidity":76,"rain":0.0,"pressure":1005.8,"uv_index":8.7,"wind_gusts":21.2,"aqi":40,"pm10":18.7,"pm2_5":10.1,"mosquito_risk":7,"arthritis_risk":5,"migraine_risk":4,"frizz_risk":1,"updated_at":"2026-04-04T02:10:24.945956+05:30"},{"city":"Haridwar","state":"Uttarakhand","latitude":29.9457,"longitude":78.1642,"temp":21.7,"humidity":81,"rain":0.0,"pressure":975.9,"uv_index":5.35,"wind_gusts":34.9,"aqi":93,"pm10":51.5,"pm2_5":37.3,"mosquito_risk":3,"arthritis_risk":5,"migraine_risk":3,"frizz_risk":1,"updated_at":"2026-04-04T02:10:24.945965+05:30"},{"city":"Rishikesh","state":"Uttarakhand","latitude":30.0869,"longitude":78.2676,"temp":22.3,"humidity":65,"rain":0.0,"pressure":968.9,"uv_index":5.7,"wind_gusts":27.4,"aqi":86,"pm10":44.0,"pm2_5":27.1,"mosquito_risk":3,"arthritis_risk":5,"migraine_risk":3,"frizz_risk":0,"updated_at":"2026-04-04T02:10:24.945974+05:30"},{"city":"Nainital","state":"Uttarakhand","latitude":29.3919,"longitude":79.4542,"temp":19.0,"humidity":43,"rain":0.0,"pressure":807.5,"uv_index":4.75,"wind_gusts":36.4,"aqi":72,"pm10":39.1,"pm2_5":23.3,"mosquito_risk":0,"arthritis_risk":5,"migraine_risk":3,"frizz_risk":0,"updated_at":"2026-04-04T02:10:24.945984+05:30"},{"city":"Mussoorie","state":"Uttarakhand","latitude":30.4599,"longitude":78.0664,"temp":16.6,"humidity":61,"rain":0.0,"pressure":804.0,"uv_index":4.95,"wind_gusts":40.7,"aqi":68,"pm10":34.8,"pm2_5":23.9,"mosquito_risk":3,"arthritis_risk":5,"migraine_risk":3,"frizz_risk":0,"updated_at":"2026-04-04T02:10:24.945993+05:30"},{"city":"Dharamshala","state":"Himachal Pradesh","latitude":32.219,"longitude":76.3234,"temp":15.1,"humidity":84,"rain":0.0,"pressure":869.2,"uv_index":6.75,"wind_gusts":46.8,"aqi":47,"pm10":6.5,"pm2_5":3.2,"mosquito_risk":3,"arthritis_risk":10,"migraine_risk":7,"frizz_risk":0,"updated_at":"2026-04-04T02:10:24.946001+05:30"},{"city":"Dalhousie","state":"Himachal Pradesh","latitude":32.5387,"longitude":75.971,"temp":11.9,"humidity":82,"rain":0.0,"pressure":803.2,"uv_index":6.3,"wind_gusts":46.8,"aqi":53,"pm10":22.2,"pm2_5":10.9,"mosquito_risk":3,"arthritis_risk":10,"migraine_risk":7,"frizz_risk":0,"updated_at":"2026-04-04T02:10:24.946011+05:30"},{"city":"Patiala","state":"Punjab","latitude":30.3398,"longitude":76.3869,"temp":19.4,"humidity":90,"rain":0.0,"pressure":979.9,"uv_index":5.35,"wind_gusts":28.4,"aqi":134,"pm10":165.8,"pm2_5":42.1,"mosquito_risk":3,"arthritis_risk":10,"migraine_risk":3,"frizz_risk":1,"updated_at":"2026-04-04T02:10:24.946019+05:30"},{"city":"Bhatinda","state":"Punjab","latitude":30.211,"longitude":74.9455,"temp":18.8,"humidity":96,"rain":0.0,"pressure":985.7,"uv_index":6.75,"wind_gusts":31.0,"aqi":86,"pm10":178.8,"pm2_5":41.0,"mosquito_risk":3,"arthritis_risk":10,"migraine_risk":7,"frizz_risk":1,"updated_at":"2026-04-04T02:10:24.946026+05:30"},{"city":"Rohtak","state":"Haryana","latitude":28.8955,"longitude":76.6066,"temp":20.0,"humidity":89,"rain":0.0,"pressure":983.5,"uv_index":6.05,"wind_gusts":38.9,"aqi":458,"pm10":314.8,"pm2_5":66.4,"mosquito_risk":3,"arthritis_risk":5,"migraine_risk":7,"frizz_risk":1,"updated_at":"2026-04-04T02:10:24.946034+05:30"},{"city":"Panipat","state":"Haryana","latitude":29.3909,"longitude":76.9635,"temp":19.9,"humidity":90,"rain":0.0,"pressure":982.2,"uv_index":5.8,"wind_gusts":34.9,"aqi":848,"pm10":609.1,"pm2_5":95.5,"mosquito_risk":3,"arthritis_risk":10,"migraine_risk":3,"frizz_risk":1,"updated_at":"2026-04-04T02:10:24.946043+05:30"},{"city":"Mathura","state":"Uttar Pradesh","latitude":27.4924,"longitude":77.6737,"temp":22.2,"humidity":76,"rain":0.0,"pressure":988.5,"uv_index":6.0,"wind_gusts":31.7,"aqi":570,"pm10":386.5,"pm2_5":60.5,"mosquito_risk":3,"arthritis_risk":5,"migraine_risk":3,"frizz_risk":1,"updated_at":"2026-04-04T02:10:24.946051+05:30"},{"city":"Vrindavan","state":"Uttar Pradesh","latitude":27.5823,"longitude":77.7027,"temp":22.0,"humidity":73,"rain":0.0,"pressure":988.9,"uv_index":5.85,"wind_gusts":33.1,"aqi":570,"pm10":386.5,"pm2_5":60.5,"mosquito_risk":3,"arthritis_risk":5,"migraine_risk":3,"frizz_risk":1,"updated_at":"2026-04-04T02:10:24.946059+05:30"},{"city":"Ayodhya","state":"Uttar Pradesh","latitude":26.7922,"longitude":82.1998,"temp":23.9,"humidity":68,"rain":0.0,"pressure":994.9,"uv_index":7.05,"wind_gusts":37.4,"aqi":85,"pm10":149.0,"pm2_5":48.4,"mosquito_risk":3,"arthritis_risk":5,"migraine_risk":7,"frizz_risk":1,"updated_at":"2026-04-04T02:10:24.946067+05:30"},{"city":"Ratlam","state":"Madhya Pradesh","latitude":23.3315,"longitude":75.0367,"temp":24.2,"humidity":60,"rain":0.0,"pressure":955.1,"uv_index":8.1,"wind_gusts":35.6,"aqi":67,"pm10":42.3,"pm2_5":22.6,"mosquito_risk":0,"arthritis_risk":5,"migraine_risk":7,"frizz_risk":0,"updated_at":"2026-04-04T02:10:24.946075+05:30"},{"city":"Sagar","state":"Madhya Pradesh","latitude":23.8388,"longitude":78.7378,"temp":24.4,"humidity":62,"rain":0.0,"pressure":951.3,"uv_index":8.05,"wind_gusts":34.6,"aqi":66,"pm10":34.2,"pm2_5":30.6,"mosquito_risk":3,"arthritis_risk":5,"migraine_risk":7,"frizz_risk":1,"updated_at":"2026-04-04T02:10:24.946083+05:30"},{"city":"Satna","state":"Madhya Pradesh","latitude":24.6005,"longitude":80.8322,"temp":25.7,"humidity":68,"rain":0.0,"pressure":972.0,"uv_index":6.45,"wind_gusts":50.4,"aqi":69,"pm10":29.5,"pm2_5":26.1,"mosquito_risk":7,"arthritis_risk":5,"migraine_risk":7,"frizz_risk":1,"updated_at":"2026-04-04T02:10:24.946091+05:30"},{"city":"Akola","state":"Maharashtra","latitude":20.7002,"longitude":77.0082,"temp":26.0,"humidity":70,"rain":0.0,"pressure":975.5,"uv_index":7.1,"wind_gusts":23.0,"aqi":98,"pm10":40.7,"pm2_5":37.1,"mosquito_risk":7,"arthritis_risk":5,"migraine_risk":7,"frizz_risk":1,"updated_at":"2026-04-04T02:10:24.946099+05:30"},{"city":"Amravati","state":"Maharashtra","latitude":20.9374,"longitude":77.7796,"temp":25.1,"humidity":72,"rain":0.0,"pressure":967.5,"uv_index":7.15,"wind_gusts":27.4,"aqi":97,"pm10":41.1,"pm2_5":37.1,"mosquito_risk":7,"arthritis_risk":5,"migraine_risk":7,"frizz_risk":1,"updated_at":"2026-04-04T02:10:24.946108+05:30"},{"city":"Latur","state":"Maharashtra","latitude":18.4088,"longitude":76.5604,"temp":23.3,"humidity":81,"rain":0.0,"pressure":940.3,"uv_index":8.9,"wind_gusts":27.4,"aqi":99,"pm10":53.2,"pm2_5":46.9,"mosquito_risk":3,"arthritis_risk":5,"migraine_risk":7,"frizz_risk":1,"updated_at":"2026-04-04T02:10:24.946116+05:30"},{"city":"Nanded","state":"Maharashtra","latitude":19.1383,"longitude":77.3091,"temp":24.7,"humidity":79,"rain":0.0,"pressure":969.4,"uv_index":8.2,"wind_gusts":28.4,"aqi":97,"pm10":38.5,"pm2_5":35.3,"mosquito_risk":3,"arthritis_risk":5,"migraine_risk":7,"frizz_risk":1,"updated_at":"2026-04-04T02:10:24.946124+05:30"},{"city":"Gulbarga","state":"Karnataka","latitude":17.3297,"longitude":76.8343,"temp":27.2,"humidity":62,"rain":0.0,"pressure":959.0,"uv_index":8.55,"wind_gusts":34.6,"aqi":86,"pm10":37.5,"pm2_5":34.1,"mosquito_risk":7,"arthritis_risk":5,"migraine_risk":7,"frizz_risk":1,"updated_at":"2026-04-04T02:10:24.946133+05:30"},{"city":"Bidar","state":"Karnataka","latitude":17.9104,"longitude":77.5199,"temp":24.0,"humidity":79,"rain":0.0,"pressure":935.2,"uv_index":8.4,"wind_gusts":30.2,"aqi":92,"pm10":46.3,"pm2_5":41.8,"mosquito_risk":3,"arthritis_risk":5,"migraine_risk":7,"frizz_risk":1,"updated_at":"2026-04-04T02:10:24.946140+05:30"},{"city":"Hospet","state":"Karnataka","latitude":15.2689,"longitude":76.3909,"temp":26.7,"humidity":76,"rain":0.0,"pressure":956.0,"uv_index":8.5,"wind_gusts":24.5,"aqi":85,"pm10":25.6,"pm2_5":24.6,"mosquito_risk":7,"arthritis_risk":5,"migraine_risk":7,"frizz_risk":1,"updated_at":"2026-04-04T02:10:24.946148+05:30"},{"city":"Tirupur","state":"Tamil Nadu","latitude":11.1085,"longitude":77.3411,"temp":26.6,"humidity":77,"rain":0.0,"pressure":975.4,"uv_index":8.9,"wind_gusts":33.1,"aqi":72,"pm10":26.6,"pm2_5":25.3,"mosquito_risk":7,"arthritis_risk":5,"migraine_risk":7,"frizz_risk":1,"updated_at":"2026-04-04T02:10:24.946154+05:30"},{"city":"Alappuzha","state":"Kerala","latitude":9.4981,"longitude":76.3388,"temp":27.4,"humidity":83,"rain":0.0,"pressure":1009.3,"uv_index":8.75,"wind_gusts":24.5,"aqi":64,"pm10":23.2,"pm2_5":20.7,"mosquito_risk":7,"arthritis_risk":0,"migraine_risk":4,"frizz_risk":1,"updated_at":"2026-04-04T02:10:24.946161+05:30"},{"city":"Munnar","state":"Kerala","latitude":10.0889,"longitude":77.0595,"temp":20.7,"humidity":92,"rain":0.0,"pressure":857.0,"uv_index":9.3,"wind_gusts":33.8,"aqi":60,"pm10":21.0,"pm2_5":20.4,"mosquito_risk":3,"arthritis_risk":5,"migraine_risk":7,"frizz_risk":1,"updated_at":"2026-04-04T02:10:24.946168+05:30"},{"city":"Silchar","state":"Assam","latitude":24.8333,"longitude":92.7789,"temp":25.2,"humidity":84,"rain":0.0,"pressure":1003.3,"uv_index":8.45,"wind_gusts":36.7,"aqi":150,"pm10":82.9,"pm2_5":68.2,"mosquito_risk":7,"arthritis_risk":5,"migraine_risk":4,"frizz_risk":1,"updated_at":"2026-04-04T02:10:24.946174+05:30"},{"city":"Dibrugarh","state":"Assam","latitude":27.4728,"longitude":94.912,"temp":22.6,"humidity":95,"rain":0.0,"pressure":995.1,"uv_index":8.15,"wind_gusts":13.0,"aqi":95,"pm10":33.9,"pm2_5":30.7,"mosquito_risk":3,"arthritis_risk":5,"migraine_risk":7,"frizz_risk":1,"updated_at":"2026-04-04T02:10:24.946181+05:30"}]