[{"city":"Delhi","state":"Delhi","latitude":28.6139,"longitude":77.209,"temp":29.1,"humidity":41,"rain":0.0,"pressure":986.6,"uv_index":5.8,"wind_gusts":28.4,"aqi":163,"pm10":86.8,"pm2_5":29.7,"mosquito_risk":4,"arthritis_risk":5,"migraine_risk":3,"frizz_risk":0,"updated_at":"2026-03-31T10:42:23.082609+05:30"},{"city":"Mumbai","state":"Maharashtra","latitude":19.076,"longitude":72.8777,"temp":27.9,"humidity":78,"rain":0.0,"pressure":1011.0,"uv_index":8.05,"wind_gusts":25.2,"aqi":68,"pm10":33.2,"pm2_5":21.0,"mosquito_risk":7,"arthritis_risk":0,"migraine_risk":4,"frizz_risk":1,"updated_at":"2026-03-31T10:42:23.082662+05:30"},{"city":"Bangalore","state":"Karnataka","latitude":12.9716,"longitude":77.5946,"temp":29.0,"humidity":49,"rain":0.0,"pressure":914.4,"uv_index":9.1,"wind_gusts":24.8,"aqi":90,"pm10":30.3,"pm2_5":26.3,"mosquito_risk":4,"arthritis_risk":5,"migraine_risk":7,"frizz_risk":1,"updated_at":"2026-03-31T10:42:23.082678+05:30"},{"city":"Hyderabad","state":"Telangana","latitude":17.385,"longitude":78.4867,"temp":30.1,"humidity":52,"rain":0.0,"pressure":956.8,"uv_index":9.05,"wind_gusts":37.4,"aqi":109,"pm10":33.1,"pm2_5":28.5,"mosquito_risk":0,"arthritis_risk":5,"migraine_risk":7,"frizz_risk":1,"updated_at":"2026-03-31T10:42:23.082689+05:30"},{"city":"Chennai","state":"Tamil Nadu","latitude":13.0827,"longitude":80.2707,"temp":31.8,"humidity":58,"rain":0.0,"pressure":1010.0,"uv_index":9.3,"wind_gusts":30.2,"aqi":49,"pm10":17.5,"pm2_5":12.9,"mosquito_risk":0,"arthritis_risk":0,"migraine_risk":4,"frizz_risk":1,"updated_at":"2026-03-31T10:42:23.082698+05:30"},{"city":"Kolkata","state":"West Bengal","latitude":22.5726,"longitude":88.3639,"temp":30.2,"humidity":72,"rain":0.0,"pressure":1009.1,"uv_index":7.55,"wind_gusts":27.0,"aqi":88,"pm10":34.6,"pm2_5":29.3,"mosquito_risk":3,"arthritis_risk":0,"migraine_risk":4,"frizz_risk":1,"updated_at":"2026-03-31T10:42:23.082707+05:30"},{"city":"Pune","state":"Maharashtra","latitude":18.5204,"longitude":73.8567,"temp":30.6,"humidity":58,"rain":0.0,"pressure":951.0,"uv_index":8.55,"wind_gusts":31.0,"aqi":88,"pm10":40.5,"pm2_5":29.9,"mosquito_risk":0,"arthritis_risk":5,"migraine_risk":7,"frizz_risk":1,"updated_at":"2026-03-31T10:42:23.082719+05:30"},{"city":"Ahmedabad","state":"Gujarat","latitude":23.0225,"longitude":72.5714,"temp":31.5,"humidity":48,"rain":0.0,"pressure":1005.0,"uv_index":8.0,"wind_gusts":27.4,"aqi":67,"pm10":38.0,"pm2_5":19.9,"mosquito_risk":0,"arthritis_risk":5,"migraine_risk":4,"frizz_risk":1,"updated_at":"2026-03-31T10:42:23.082728+05:30"},{"city":"Jaipur","state":"Rajasthan","latitude":26.9124,"longitude":75.7873,"temp":29.0,"humidity":40,"rain":0.0,"pressure":963.4,"uv_index":7.2,"wind_gusts":50.4,"aqi":78,"pm10":93.1,"pm2_5":18.9,"mosquito_risk":4,"arthritis_risk":5,"migraine_risk":7,"frizz_risk":0,"updated_at":"2026-03-31T10:42:23.082737+05:30"},{"city":"Lucknow","state":"Uttar Pradesh","latitude":26.8467,"longitude":80.9462,"temp":31.5,"humidity":47,"rain":0.0,"pressure":996.5,"uv_index":7.3,"wind_gusts":27.0,"aqi":152,"pm10":156.0,"pm2_5":50.1,"mosquito_risk":0,"arthritis_risk":5,"migraine_risk":7,"frizz_risk":1,"updated_at":"2026-03-31T10:42:23.082745+05:30"},{"city":"Kanpur","state":"Uttar Pradesh","latitude":26.4499,"longitude":80.3319,"temp":29.8,"humidity":57,"rain":0.0,"pressure":995.3,"uv_index":7.25,"wind_gusts":28.1,"aqi":463,"pm10":370.7,"pm2_5":71.7,"mosquito_risk":4,"arthritis_risk":5,"migraine_risk":7,"frizz_risk":1,"updated_at":"2026-03-31T10:42:23.082753+05:30"},{"city":"Chandigarh","state":"Chandigarh","latitude":30.7333,"longitude":76.7794,"temp":27.6,"humidity":56,"rain":0.0,"pressure":971.9,"uv_index":6.45,"wind_gusts":23.0,"aqi":114,"pm10":90.1,"pm2_5":26.7,"mosquito_risk":4,"arthritis_risk":5,"migraine_risk":7,"frizz_risk":1,"updated_at":"2026-03-31T10:42:23.082761+05:30"},{"city":"Srinagar","state":"Jammu and Kashmir","latitude":34.0837,"longitude":74.7973,"temp":12.1,"humidity":76,"rain":0.0,"pressure":845.2,"uv_index":7.3,"wind_gusts":16.9,"aqi":72,"pm10":26.2,"pm2_5":11.9,"mosquito_risk":3,"arthritis_risk":5,"migraine_risk":7,"frizz_risk":0,"updated_at":"2026-03-31T10:42:23.082768+05:30"},{"city":"Jammu","state":"Jammu and Kashmir","latitude":32.7266,"longitude":74.857,"temp":30.1,"humidity":33,"rain":0.0,"pressure":975.6,"uv_index":6.85,"wind_gusts":38.2,"aqi":71,"pm10":55.2,"pm2_5":16.8,"mosquito_risk":0,"arthritis_risk":5,"migraine_risk":7,"frizz_risk":0,"updated_at":"2026-03-31T10:42:23.082776+05:30"},{"city":"Amritsar","state":"Punjab","latitude":31.634,"longitude":74.8723,"temp":26.3,"humidity":59,"rain":0.0,"pressure":984.0,"uv_index":6.5,"wind_gusts":28.4,"aqi":148,"pm10":222.6,"pm2_5":50.6,"mosquito_risk":4,"arthritis_risk":5,"migraine_risk":7,"frizz_risk":1,"updated_at":"2026-03-31T10:42:23.082784+05:30"},{"city":"Ludhiana","state":"Punjab","latitude":30.901,"longitude":75.8573,"temp":28.4,"humidity":53,"rain":0.0,"pressure":981.8,"uv_index":6.3,"wind_gusts":20.2,"aqi":335,"pm10":266.4,"pm2_5":64.3,"mosquito_risk":4,"arthritis_risk":5,"migraine_risk":7,"frizz_risk":1,"updated_at":"2026-03-31T10:42:23.082791+05:30"},{"city":"Jalandhar","state":"Punjab","latitude":31.326,"longitude":75.5762,"temp":28.1,"humidity":55,"rain":0.0,"pressure":982.8,"uv_index":6.55,"wind_gusts":27.0,"aqi":204,"pm10":282.2,"pm2_5":61.2,"mosquito_risk":4,"arthritis_risk":5,"migraine_risk":7,"frizz_risk":1,"updated_at":"2026-03-31T10:42:23.082801+05:30"},{"city":"Dehradun","state":"Uttarakhand","latitude":30.6284,"longitude":78.0322,"temp":20.2,"humidity":47,"rain":0.0,"pressure":833.5,"uv_index":7.1,"wind_gusts":34.9,"aqi":48,"pm10":26.5,"pm2_5":7.0,"mosquito_risk":0,"arthritis_risk":5,"migraine_risk":7,"frizz_risk":0,"updated_at":"2026-03-31T10:42:23.082809+05:30"},{"city":"Shimla","state":"Himachal Pradesh","latitude":31.1048,"longitude":77.1734,"temp":18.2,"humidity":50,"rain":0.0,"pressure":788.1,"uv_index":6.95,"wind_gusts":32.4,"aqi":57,"pm10":34.3,"pm2_5":9.3,"mosquito_risk":0,"arthritis_risk":5,"migraine_risk":7,"frizz_risk":0,"updated_at":"2026-03-31T10:42:23.082816+05:30"},{"city":"Manali","state":"Himachal Pradesh","latitude":32.2396,"longitude":77.1887,"temp":20.7,"humidity":22,"rain":0.0,"pressure":823.1,"uv_index":8.55,"wind_gusts":35.6,"aqi":49,"pm10":2.8,"pm2_5":1.5,"mosquito_risk":0,"arthritis_risk":5,"migraine_risk":7,"frizz_risk":1,"updated_at":"2026-03-31T10:42:23.082825+05:30"},{"city":"Gurgaon","state":"Haryana","latitude":28.4595,"longitude":77.0266,"temp":28.7,"humidity":46,"rain":0.0,"pressure":985.0,"uv_index":5.85,"wind_gusts":27.0,"aqi":648,"pm10":265.4,"pm2_5":50.2,"mosquito_risk":4,"arthritis_risk":5,"migraine_risk":3,"frizz_risk":0,"updated_at":"2026-03-31T10:42:23.082833+05:30"},{"city":"Noida","state":"Uttar Pradesh","latitude":28.5355,"longitude":77.391,"temp":29.3,"humidity":43,"rain":0.0,"pressure":988.1,"uv_index":5.85,"wind_gusts":27.0,"aqi":648,"pm10":265.4,"pm2_5":50.2,"mosquito_risk":4,"arthritis_risk":5,"migraine_risk":3,"frizz_risk":0,"updated_at":"2026-03-31T10:42:23.082840+05:30"},{"city":"Ghaziabad","state":"Uttar Pradesh","latitude":28.6692,"longitude":77.4538,"temp":28.7,"humidity":45,"rain":0.0,"pressure":986.2,"uv_index":6.0,"wind_gusts":25.2,"aqi":151,"pm10":83.8,"pm2_5":27.3,"mosquito_risk":4,"arthritis_risk":5,"migraine_risk":3,"frizz_risk":0,"updated_at":"2026-03-31T10:42:23.082847+05:30"},{"city":"Faridabad","state":"Haryana","latitude":28.4089,"longitude":77.3178,"temp":29.8,"humidity":42,"rain":0.0,"pressure":987.3,"uv_index":5.85,"wind_gusts":29.5,"aqi":648,"pm10":265.4,"pm2_5":50.2,"mosquito_risk":4,"arthritis_risk":5,"migraine_risk":3,"frizz_risk":0,"updated_at":"2026-03-31T10:42:23.082854+05:30"},{"city":"Meerut","state":"Uttar Pradesh","latitude":28.9845,"longitude":77.7064,"temp":29.3,"humidity":44,"rain":0.0,"pressure":984.8,"uv_index":6.35,"wind_gusts":28.1,"aqi":151,"pm10":83.8,"pm2_5":27.3,"mosquito_risk":4,"arthritis_risk":5,"migraine_risk":7,"frizz_risk":0,"updated_at":"2026-03-31T10:42:23.082861+05:30"},{"city":"Agra","state":"Uttar Pradesh","latitude":27.1767,"longitude":78.0081,"temp":33.1,"humidity":31,"rain":0.0,"pressure":991.4,"uv_index":6.8,"wind_gusts":31.7,"aqi":567,"pm10":286.8,"pm2_5":43.9,"mosquito_risk":0,"arthritis_risk":5,"migraine_risk":7,"frizz_risk":0,"updated_at":"2026-03-31T10:42:23.082869+05:30"},{"city":"Varanasi","state":"Uttar Pradesh","latitude":25.3176,"longitude":82.9739,"temp":31.7,"humidity":50,"rain":0.0,"pressure":1000.3,"uv_index":7.75,"wind_gusts":29.9,"aqi":114,"pm10":282.2,"pm2_5":85.7,"mosquito_risk":0,"arthritis_risk":5,"migraine_risk":4,"frizz_risk":1,"updated_at":"2026-03-31T10:42:23.082879+05:30"},{"city":"Prayagraj","state":"Uttar Pradesh","latitude":25.4358,"longitude":81.8463,"temp":32.1,"humidity":46,"rain":0.0,"pressure":999.0,"uv_index":7.85,"wind_gusts":26.6,"aqi":126,"pm10":271.0,"pm2_5":82.9,"mosquito_risk":0,"arthritis_risk":5,"migraine_risk":7,"frizz_risk":1,"updated_at":"2026-03-31T10:42:23.082887+05:30"},{"city":"Gorakhpur","state":"Uttar Pradesh","latitude":26.7606,"longitude":83.3732,"temp":28.8,"humidity":65,"rain":0.0,"pressure":1000.5,"uv_index":7.3,"wind_gusts":22.0,"aqi":158,"pm10":115.5,"pm2_5":68.5,"mosquito_risk":7,"arthritis_risk":5,"migraine_risk":4,"frizz_risk":1,"updated_at":"2026-03-31T10:42:23.082894+05:30"},{"city":"Bareilly","state":"Uttar Pradesh","latitude":28.367,"longitude":79.4304,"temp":31.0,"humidity":44,"rain":0.0,"pressure":989.9,"uv_index":6.8,"wind_gusts":32.0,"aqi":104,"pm10":98.0,"pm2_5":36.6,"mosquito_risk":0,"arthritis_risk":5,"migraine_risk":7,"frizz_risk":1,"updated_at":"2026-03-31T10:42:23.082902+05:30"},{"city":"Aligarh","state":"Uttar Pradesh","latitude":27.8974,"longitude":78.088,"temp":30.2,"humidity":40,"rain":0.0,"pressure":989.1,"uv_index":6.5,"wind_gusts":36.7,"aqi":589,"pm10":193.2,"pm2_5":42.4,"mosquito_risk":0,"arthritis_risk":5,"migraine_risk":7,"frizz_risk":0,"updated_at":"2026-03-31T10:42:23.082909+05:30"},{"city":"Moradabad","state":"Uttar Pradesh","latitude":28.8386,"longitude":78.7733,"temp":30.2,"humidity":44,"rain":0.0,"pressure":986.8,"uv_index":6.8,"wind_gusts":29.9,"aqi":117,"pm10":116.4,"pm2_5":40.6,"mosquito_risk":0,"arthritis_risk":5,"migraine_risk":7,"frizz_risk":1,"updated_at":"2026-03-31T10:42:23.082917+05:30"},{"city":"Saharanpur","state":"Uttar Pradesh","latitude":29.9637,"longitude":77.546,"temp":27.9,"humidity":57,"rain":0.0,"pressure":978.8,"uv_index":6.45,"wind_gusts":26.3,"aqi":152,"pm10":156.9,"pm2_5":47.4,"mosquito_risk":4,"arthritis_risk":5,"migraine_risk":7,"frizz_risk":1,"updated_at":"2026-03-31T10:42:23.082926+05:30"},{"city":"Jhansi","state":"Uttar Pradesh","latitude":25.4484,"longitude":78.5685,"temp":34.0,"humidity":28,"rain":0.0,"pressure":981.8,"uv_index":7.8,"wind_gusts":32.8,"aqi":56,"pm10":52.6,"pm2_5":15.4,"mosquito_risk":0,"arthritis_risk":5,"migraine_risk":7,"frizz_risk":0,"updated_at":"2026-03-31T10:42:26.344136+05:30"},{"city":"Surat","state":"Gujarat","latitude":21.1702,"longitude":72.8311,"temp":30.1,"humidity":65,"rain":0.0,"pressure":1009.7,"uv_index":7.8,"wind_gusts":28.8,"aqi":88,"pm10":52.5,"pm2_5":38.2,"mosquito_risk":3,"arthritis_risk":0,"migraine_risk":4,"frizz_risk":1,"updated_at":"2026-03-31T10:42:26.344168+05:30"},{"city":"Vadodara","state":"Gujarat","latitude":22.3072,"longitude":73.1812,"temp":32.7,"humidity":45,"rain":0.0,"pressure":1007.3,"uv_index":8.0,"wind_gusts":28.4,"aqi":86,"pm10":41.2,"pm2_5":30.6,"mosquito_risk":0,"arthritis_risk":5,"migraine_risk":4,"frizz_risk":1,"updated_at":"2026-03-31T10:42:26.344179+05:30"},{"city":"Rajkot","state":"Gujarat","latitude":22.3039,"longitude":70.8022,"temp":29.5,"humidity":57,"rain":0.0,"pressure":997.5,"uv_index":7.75,"wind_gusts":40.0,"aqi":57,"pm10":62.6,"pm2_5":20.8,"mosquito_risk":4,"arthritis_risk":5,"migraine_risk":7,"frizz_risk":1,"updated_at":"2026-03-31T10:42:26.344188+05:30"},{"city":"Thane","state":"Maharashtra","latitude":19.2183,"longitude":72.9781,"temp":30.0,"humidity":64,"rain":0.0,"pressure":1010.5,"uv_index":8.05,"wind_gusts":37.4,"aqi":68,"pm10":33.2,"pm2_5":21.0,"mosquito_risk":7,"arthritis_risk":0,"migraine_risk":4,"frizz_risk":1,"updated_at":"2026-03-31T10:42:26.344196+05:30"},{"city":"Nagpur","state":"Maharashtra","latitude":21.1458,"longitude":79.0882,"temp":30.0,"humidity":54,"rain":0.0,"pressure":976.9,"uv_index":8.55,"wind_gusts":20.2,"aqi":60,"pm10":26.3,"pm2_5":15.5,"mosquito_risk":4,"arthritis_risk":5,"migraine_risk":7,"frizz_risk":1,"updated_at":"2026-03-31T10:42:26.344204+05:30"},{"city":"Nashik","state":"Maharashtra","latitude":19.9975,"longitude":73.7898,"temp":28.5,"humidity":63,"rain":0.0,"pressure":948.6,"uv_index":8.3,"wind_gusts":29.5,"aqi":65,"pm10":32.1,"pm2_5":14.5,"mosquito_risk":7,"arthritis_risk":5,"migraine_risk":7,"frizz_risk":1,"updated_at":"2026-03-31T10:42:26.344212+05:30"},{"city":"Aurangabad","state":"Maharashtra","latitude":19.8762,"longitude":75.3433,"temp":30.2,"humidity":44,"rain":0.0,"pressure":947.5,"uv_index":8.75,"wind_gusts":22.7,"aqi":63,"pm10":28.2,"pm2_5":21.5,"mosquito_risk":0,"arthritis_risk":5,"migraine_risk":7,"frizz_risk":1,"updated_at":"2026-03-31T10:42:26.344219+05:30"},{"city":"Solapur","state":"Maharashtra","latitude":17.6599,"longitude":75.9064,"temp":29.1,"humidity":55,"rain":0.0,"pressure":960.1,"uv_index":8.9,"wind_gusts":24.8,"aqi":88,"pm10":45.2,"pm2_5":35.2,"mosquito_risk":4,"arthritis_risk":5,"migraine_risk":7,"frizz_risk":1,"updated_at":"2026-03-31T10:42:26.344227+05:30"},{"city":"Kolhapur","state":"Maharashtra","latitude":16.705,"longitude":74.2433,"temp":28.8,"humidity":63,"rain":0.0,"pressure":950.5,"uv_index":8.9,"wind_gusts":34.9,"aqi":90,"pm10":43.0,"pm2_5":35.4,"mosquito_risk":7,"arthritis_risk":5,"migraine_risk":7,"frizz_risk":1,"updated_at":"2026-03-31T10:42:26.344235+05:30"},{"city":"Goa","state":"Goa","latitude":15.2993,"longitude":74.124,"temp":32.0,"humidity":56,"rain":0.0,"pressure":999.7,"uv_index":9.0,"wind_gusts":32.8,"aqi":73,"pm10":35.6,"pm2_5":23.6,"mosquito_risk":0,"arthritis_risk":5,"migraine_risk":7,"frizz_risk":1,"updated_at":"2026-03-31T10:42:26.344242+05:30"},{"city":"Jodhpur","state":"Rajasthan","latitude":26.2389,"longitude":73.0243,"temp":30.4,"humidity":46,"rain":0.0,"pressure":985.7,"uv_index":7.7,"wind_gusts":36.4,"aqi":74,"pm10":64.0,"pm2_5":17.5,"mosquito_risk":0,"arthritis_risk":5,"migraine_risk":7,"frizz_risk":1,"updated_at":"2026-03-31T10:42:26.344249+05:30"},{"city":"Udaipur","state":"Rajasthan","latitude":24.5854,"longitude":73.7125,"temp":29.4,"humidity":39,"rain":0.0,"pressure":949.7,"uv_index":8.3,"wind_gusts":37.1,"aqi":41,"pm10":23.9,"pm2_5":8.9,"mosquito_risk":4,"arthritis_risk":5,"migraine_risk":7,"frizz_risk":0,"updated_at":"2026-03-31T10:42:26.344257+05:30"},{"city":"Kota","state":"Rajasthan","latitude":25.2138,"longitude":75.8648,"temp":32.8,"humidity":43,"rain":0.0,"pressure":982.1,"uv_index":7.8,"wind_gusts":42.5,"aqi":53,"pm10":32.1,"pm2_5":16.1,"mosquito_risk":0,"arthritis_risk":5,"migraine_risk":7,"frizz_risk":1,"updated_at":"2026-03-31T10:42:26.344264+05:30"},{"city":"Bikaner","state":"Rajasthan","latitude":28.0229,"longitude":73.3119,"temp":27.4,"humidity":55,"rain":0.0,"pressure":984.8,"uv_index":6.9,"wind_gusts":38.5,"aqi":75,"pm10":115.5,"pm2_5":28.6,"mosquito_risk":4,"arthritis_risk":5,"migraine_risk":7,"frizz_risk":1,"updated_at":"2026-03-31T10:42:26.344272+05:30"},{"city":"Ajmer","state":"Rajasthan","latitude":26.4499,"longitude":74.6399,"temp":27.8,"humidity":49,"rain":0.0,"pressure":958.5,"uv_index":7.65,"wind_gusts":37.1,"aqi":44,"pm10":32.4,"pm2_5":10.4,"mosquito_risk":4,"arthritis_risk":5,"migraine_risk":7,"frizz_risk":1,"updated_at":"2026-03-31T10:42:26.344278+05:30"},{"city":"Gwalior","state":"Madhya Pradesh","latitude":26.2183,"longitude":78.1828,"temp":33.8,"humidity":30,"rain":0.0,"pressure":987.0,"uv_index":7.45,"wind_gusts":26.3,"aqi":57,"pm10":15.2,"pm2_5":7.3,"mosquito_risk":0,"arthritis_risk":5,"migraine_risk":7,"frizz_risk":0,"updated_at":"2026-03-31T10:42:26.344284+05:30"},{"city":"Indore","state":"Madhya Pradesh","latitude":22.7196,"longitude":75.8577,"temp":32.0,"humidity":38,"rain":0.0,"pressure":951.1,"uv_index":8.3,"wind_gusts":26.3,"aqi":50,"pm10":21.0,"pm2_5":11.3,"mosquito_risk":0,"arthritis_risk":5,"migraine_risk":7,"frizz_risk":0,"updated_at":"2026-03-31T10:42:26.344291+05:30"},{"city":"Bhopal","state":"Madhya Pradesh","latitude":23.2599,"longitude":77.4126,"temp":33.3,"humidity":32,"rain":0.0,"pressure":957.4,"uv_index":8.25,"wind_gusts":26.6,"aqi":49,"pm10":31.7,"pm2_5":12.8,"mosquito_risk":0,"arthritis_risk":5,"migraine_risk":7,"frizz_risk":0,"updated_at":"2026-03-31T10:42:26.344298+05:30"},{"city":"Jabalpur","state":"Madhya Pradesh","latitude":23.1815,"longitude":79.9864,"temp":31.3,"humidity":41,"rain":0.0,"pressure":965.3,"uv_index":8.35,"wind_gusts":18.0,"aqi":58,"pm10":223.5,"pm2_5":39.1,"mosquito_risk":0,"arthritis_risk":5,"migraine_risk":7,"frizz_risk":1,"updated_at":"2026-03-31T10:42:26.344305+05:30"},{"city":"Ujjain","state":"Madhya Pradesh","latitude":23.1765,"longitude":75.7885,"temp":32.0,"humidity":39,"rain":0.0,"pressure":957.0,"uv_index":8.2,"wind_gusts":27.7,"aqi":50,"pm10":22.6,"pm2_5":11.9,"mosquito_risk":0,"arthritis_risk":5,"migraine_risk":7,"frizz_risk":1,"updated_at":"2026-03-31T10:42:26.344312+05:30"},{"city":"Visakhapatnam","state":"Andhra Pradesh","latitude":17.6868,"longitude":83.2185,"temp":31.8,"humidity":57,"rain":0.0,"pressure":1007.5,"uv_index":9.05,"wind_gusts":34.6,"aqi":62,"pm10":30.3,"pm2_5":25.7,"mosquito_risk":0,"arthritis_risk":5,"migraine_risk":4,"frizz_risk":1,"updated_at":"2026-03-31T10:42:26.344319+05:30"},{"city":"Vijayawada","state":"Andhra Pradesh","latitude":16.5062,"longitude":80.648,"temp":30.7,"humidity":64,"rain":0.0,"pressure":1006.4,"uv_index":9.05,"wind_gusts":23.8,"aqi":63,"pm10":22.4,"pm2_5":17.6,"mosquito_risk":3,"arthritis_risk":5,"migraine_risk":4,"frizz_risk":1,"updated_at":"2026-03-31T10:42:26.344327+05:30"},{"city":"Guntur","state":"Andhra Pradesh","latitude":16.3067,"longitude":80.4365,"temp":31.1,"humidity":65,"rain":0.0,"pressure":1007.4,"uv_index":9.1,"wind_gusts":27.7,"aqi":64,"pm10":23.2,"pm2_5":18.9,"mosquito_risk":3,"arthritis_risk":5,"migraine_risk":4,"frizz_risk":1,"updated_at":"2026-03-31T10:42:26.344333+05:30"},{"city":"Nellore","state":"Andhra Pradesh","latitude":14.4426,"longitude":79.9865,"temp":31.1,"humidity":65,"rain":0.0,"pressure":1008.8,"uv_index":9.2,"wind_gusts":30.2,"aqi":56,"pm10":20.8,"pm2_5":16.5,"mosquito_risk":3,"arthritis_risk":0,"migraine_risk":4,"frizz_risk":1,"updated_at":"2026-03-31T10:42:26.344341+05:30"},{"city":"Kurnool","state":"Andhra Pradesh","latitude":15.8281,"longitude":78.0373,"temp":33.1,"humidity":46,"rain":0.0,"pressure":979.3,"uv_index":9.1,"wind_gusts":31.7,"aqi":88,"pm10":30.6,"pm2_5":26.5,"mosquito_risk":0,"arthritis_risk":5,"migraine_risk":7,"frizz_risk":1,"updated_at":"2026-03-31T10:42:26.344348+05:30"},{"city":"Kakinada","state":"Andhra Pradesh","latitude":16.9891,"longitude":82.2475,"temp":32.1,"humidity":57,"rain":0.0,"pressure":1011.2,"uv_index":9.05,"wind_gusts":31.3,"aqi":47,"pm10":20.2,"pm2_5":15.3,"mosquito_risk":0,"arthritis_risk":0,"migraine_risk":4,"frizz_risk":1,"updated_at":"2026-03-31T10:42:26.344355+05:30"},{"city":"Tirupati","state":"Andhra Pradesh","latitude":13.6288,"longitude":79.4192,"temp":31.0,"humidity":58,"rain":0.0,"pressure":994.6,"uv_index":9.3,"wind_gusts":32.8,"aqi":82,"pm10":21.7,"pm2_5":19.1,"mosquito_risk":0,"arthritis_risk":5,"migraine_risk":7,"frizz_risk":1,"updated_at":"2026-03-31T10:42:26.344361+05:30"},{"city":"Warangal","state":"Telangana","latitude":17.9689,"longitude":79.5941,"temp":28.8,"humidity":68,"rain":0.0,"pressure":982.8,"uv_index":8.9,"wind_gusts":26.3,"aqi":105,"pm10":40.5,"pm2_5":34.8,"mosquito_risk":7,"arthritis_risk":5,"migraine_risk":7,"frizz_risk":1,"updated_at":"2026-03-31T10:42:26.344367+05:30"},{"city":"Nizamabad","state":"Telangana","latitude":18.6725,"longitude":78.0941,"temp":28.4,"humidity":58,"rain":0.0,"pressure":968.4,"uv_index":8.85,"wind_gusts":38.5,"aqi":92,"pm10":51.6,"pm2_5":40.7,"mosquito_risk":4,"arthritis_risk":5,"migraine_risk":7,"frizz_risk":1,"updated_at":"2026-03-31T10:42:26.344374+05:30"},{"city":"Mysore","state":"Karnataka","latitude":12.2958,"longitude":76.6396,"temp":28.1,"humidity":60,"rain":0.0,"pressure":930.8,"uv_index":8.8,"wind_gusts":30.6,"aqi":109,"pm10":47.5,"pm2_5":41.7,"mosquito_risk":4,"arthritis_risk":5,"migraine_risk":7,"frizz_risk":1,"updated_at":"2026-03-31T10:42:26.344381+05:30"},{"city":"Mangalore","state":"Karnataka","latitude":12.9141,"longitude":74.856,"temp":29.8,"humidity":75,"rain":0.0,"pressure":1007.9,"uv_index":8.9,"wind_gusts":27.0,"aqi":94,"pm10":29.1,"pm2_5":22.6,"mosquito_risk":7,"arthritis_risk":5,"migraine_risk":4,"frizz_risk":1,"updated_at":"2026-03-31T10:42:26.344387+05:30"},{"city":"Hubli-Dharwad","state":"Karnataka","latitude":15.3647,"longitude":75.124,"temp":29.7,"humidity":56,"rain":0.0,"pressure":943.3,"uv_index":9.15,"wind_gusts":27.4,"aqi":73,"pm10":32.7,"pm2_5":26.5,"mosquito_risk":4,"arthritis_risk":5,"migraine_risk":7,"frizz_risk":1,"updated_at":"2026-03-31T10:42:26.344394+05:30"},{"city":"Belgaum","state":"Karnataka","latitude":15.8497,"longitude":74.4977,"temp":28.0,"humidity":64,"rain":0.0,"pressure":928.2,"uv_index":9.15,"wind_gusts":36.4,"aqi":75,"pm10":36.8,"pm2_5":28.7,"mosquito_risk":7,"arthritis_risk":5,"migraine_risk":7,"frizz_risk":1,"updated_at":"2026-03-31T10:42:29.600781+05:30"},{"city":"Coimbatore","state":"Tamil Nadu","latitude":11.0168,"longitude":76.9558,"temp":30.5,"humidity":57,"rain":0.0,"pressure":964.0,"uv_index":9.5,"wind_gusts":38.2,"aqi":91,"pm10":14.9,"pm2_5":12.7,"mosquito_risk":0,"arthritis_risk":5,"migraine_risk":7,"frizz_risk":1,"updated_at":"2026-03-31T10:42:29.600814+05:30"},{"city":"Madurai","state":"Tamil Nadu","latitude":9.9252,"longitude":78.1198,"temp":31.4,"humidity":56,"rain":0.0,"pressure":995.6,"uv_index":9.35,"wind_gusts":31.0,"aqi":70,"pm10":20.4,"pm2_5":18.0,"mosquito_risk":0,"arthritis_risk":5,"migraine_risk":7,"frizz_risk":1,"updated_at":"2026-03-31T10:42:29.600825+05:30"},{"city":"Trichy","state":"Tamil Nadu","latitude":10.7905,"longitude":78.7047,"temp":31.3,"humidity":59,"rain":0.0,"pressure":1002.4,"uv_index":9.35,"wind_gusts":24.1,"aqi":62,"pm10":16.6,"pm2_5":12.7,"mosquito_risk":0,"arthritis_risk":5,"migraine_risk":4,"frizz_risk":1,"updated_at":"2026-03-31T10:42:29.600834+05:30"},{"city":"Salem","state":"Tamil Nadu","latitude":11.6643,"longitude":78.146,"temp":31.8,"humidity":54,"rain":0.0,"pressure":979.8,"uv_index":9.45,"wind_gusts":31.0,"aqi":68,"pm10":16.0,"pm2_5":14.2,"mosquito_risk":0,"arthritis_risk":5,"migraine_risk":7,"frizz_risk":1,"updated_at":"2026-03-31T10:42:29.600843+05:30"},{"city":"Tirunelveli","state":"Tamil Nadu","latitude":8.7139,"longitude":77.7567,"temp":32.7,"humidity":52,"rain":0.0,"pressure":1005.4,"uv_index":8.7,"wind_gusts":43.6,"aqi":79,"pm10":24.3,"pm2_5":21.9,"mosquito_risk":0,"arthritis_risk":5,"migraine_risk":4,"frizz_risk":1,"updated_at":"2026-03-31T10:42:29.600851+05:30"},{"city":"Vellore","state":"Tamil Nadu","latitude":12.9165,"longitude":79.1325,"temp":30.4,"humidity":59,"rain":0.0,"pressure":987.6,"uv_index":9.35,"wind_gusts":32.4,"aqi":101,"pm10":24.5,"pm2_5":22.1,"mosquito_risk":0,"arthritis_risk":5,"migraine_risk":7,"frizz_risk":1,"updated_at":"2026-03-31T10:42:29.600859+05:30"},{"city":"Erode","state":"Tamil Nadu","latitude":11.341,"longitude":77.7172,"temp":31.9,"humidity":57,"rain":0.0,"pressure":991.5,"uv_index":9.4,"wind_gusts":29.2,"aqi":58,"pm10":13.9,"pm2_5":12.4,"mosquito_risk":0,"arthritis_risk":5,"migraine_risk":7,"frizz_risk":1,"updated_at":"2026-03-31T10:42:29.600867+05:30"},{"city":"Kochi","state":"Kerala","latitude":9.9312,"longitude":76.2673,"temp":28.7,"humidity":81,"rain":0.0,"pressure":1009.9,"uv_index":9.1,"wind_gusts":27.7,"aqi":110,"pm10":41.0,"pm2_5":37.0,"mosquito_risk":7,"arthritis_risk":0,"migraine_risk":4,"frizz_risk":1,"updated_at":"2026-03-31T10:42:29.600874+05:30"},{"city":"Thiruvananthapuram","state":"Kerala","latitude":8.5241,"longitude":76.9366,"temp":28.1,"humidity":80,"rain":0.0,"pressure":1009.4,"uv_index":9.15,"wind_gusts":24.5,"aqi":82,"pm10":29.6,"pm2_5":25.7,"mosquito_risk":7,"arthritis_risk":0,"migraine_risk":4,"frizz_risk":1,"updated_at":"2026-03-31T10:42:29.600882+05:30"},{"city":"Kozhikode","state":"Kerala","latitude":11.2588,"longitude":75.7804,"temp":30.5,"humidity":72,"rain":0.0,"pressure":1009.0,"uv_index":8.25,"wind_gusts":27.7,"aqi":113,"pm10":48.2,"pm2_5":41.4,"mosquito_risk":3,"arthritis_risk":0,"migraine_risk":4,"frizz_risk":1,"updated_at":"2026-03-31T10:42:29.600889+05:30"},{"city":"Thrissur","state":"Kerala","latitude":10.5276,"longitude":76.2144,"temp":32.7,"humidity":59,"rain":0.0,"pressure":1008.1,"uv_index":8.85,"wind_gusts":37.4,"aqi":133,"pm10":38.1,"pm2_5":33.8,"mosquito_risk":0,"arthritis_risk":0,"migraine_risk":4,"frizz_risk":1,"updated_at":"2026-03-31T10:42:29.600897+05:30"},{"city":"Kannur","state":"Kerala","latitude":11.8745,"longitude":75.3704,"temp":31.3,"humidity":65,"rain":0.0,"pressure":1008.3,"uv_index":8.85,"wind_gusts":30.2,"aqi":115,"pm10":44.1,"pm2_5":36.9,"mosquito_risk":3,"arthritis_risk":0,"migraine_risk":4,"frizz_risk":1,"updated_at":"2026-03-31T10:42:29.600905+05:30"},{"city":"Patna","state":"Bihar","latitude":25.5941,"longitude":85.1376,"temp":29.0,"humidity":69,"rain":0.0,"pressure":1003.9,"uv_index":7.8,"wind_gusts":28.1,"aqi":165,"pm10":102.7,"pm2_5":86.8,"mosquito_risk":7,"arthritis_risk":5,"migraine_risk":4,"frizz_risk":1,"updated_at":"2026-03-31T10:42:29.600912+05:30"},{"city":"Gaya","state":"Bihar","latitude":24.7914,"longitude":85.0002,"temp":32.7,"humidity":51,"rain":0.0,"pressure":996.7,"uv_index":8.2,"wind_gusts":20.9,"aqi":130,"pm10":75.0,"pm2_5":41.8,"mosquito_risk":0,"arthritis_risk":5,"migraine_risk":7,"frizz_risk":1,"updated_at":"2026-03-31T10:42:29.600919+05:30"},{"city":"Muzaffarpur","state":"Bihar","latitude":26.1209,"longitude":85.3647,"temp":28.1,"humidity":69,"rain":0.0,"pressure":1004.3,"uv_index":7.95,"wind_gusts":26.6,"aqi":171,"pm10":106.2,"pm2_5":92.7,"mosquito_risk":7,"arthritis_risk":5,"migraine_risk":4,"frizz_risk":1,"updated_at":"2026-03-31T10:42:29.600926+05:30"},{"city":"Bhagalpur","state":"Bihar","latitude":25.2425,"longitude":87.0117,"temp":28.4,"humidity":70,"rain":0.0,"pressure":1004.9,"uv_index":8.1,"wind_gusts":21.6,"aqi":163,"pm10":83.4,"pm2_5":71.7,"mosquito_risk":7,"arthritis_risk":5,"migraine_risk":4,"frizz_risk":1,"updated_at":"2026-03-31T10:42:29.600933+05:30"},{"city":"Ranchi","state":"Jharkhand","latitude":23.3441,"longitude":85.3096,"temp":30.9,"humidity":44,"rain":0.0,"pressure":941.5,"uv_index":8.45,"wind_gusts":27.0,"aqi":128,"pm10":58.6,"pm2_5":39.9,"mosquito_risk":0,"arthritis_risk":5,"migraine_risk":7,"frizz_risk":1,"updated_at":"2026-03-31T10:42:29.600940+05:30"},{"city":"Jamshedpur","state":"Jharkhand","latitude":22.8046,"longitude":86.2029,"temp":32.1,"humidity":59,"rain":0.0,"pressure":993.9,"uv_index":8.65,"wind_gusts":27.4,"aqi":152,"pm10":69.4,"pm2_5":59.6,"mosquito_risk":0,"arthritis_risk":5,"migraine_risk":7,"frizz_risk":1,"updated_at":"2026-03-31T10:42:29.600947+05:30"},{"city":"Dhanbad","state":"Jharkhand","latitude":23.7957,"longitude":86.4304,"temp":30.9,"humidity":60,"rain":0.0,"pressure":983.0,"uv_index":8.55,"wind_gusts":30.2,"aqi":170,"pm10":102.7,"pm2_5":89.2,"mosquito_risk":0,"arthritis_risk":5,"migraine_risk":7,"frizz_risk":1,"updated_at":"2026-03-31T10:42:29.600955+05:30"},{"city":"Bokaro","state":"Jharkhand","latitude":23.6693,"longitude":86.1511,"temp":31.1,"humidity":61,"rain":0.0,"pressure":987.0,"uv_index":8.55,"wind_gusts":31.7,"aqi":168,"pm10":98.0,"pm2_5":79.2,"mosquito_risk":3,"arthritis_risk":5,"migraine_risk":7,"frizz_risk":1,"updated_at":"2026-03-31T10:42:29.600983+05:30"},{"city":"Bhubaneswar","state":"Odisha","latitude":20.2961,"longitude":85.8245,"temp":31.4,"humidity":69,"rain":0.0,"pressure":1006.1,"uv_index":8.7,"wind_gusts":26.6,"aqi":63,"pm10":31.3,"pm2_5":26.2,"mosquito_risk":3,"arthritis_risk":5,"migraine_risk":4,"frizz_risk":1,"updated_at":"2026-03-31T10:42:29.600992+05:30"},{"city":"Cuttack","state":"Odisha","latitude":20.4625,"longitude":85.8828,"temp":30.4,"humidity":75,"rain":0.0,"pressure":1008.2,"uv_index":8.2,"wind_gusts":30.6,"aqi":63,"pm10":31.3,"pm2_5":26.2,"mosquito_risk":3,"arthritis_risk":0,"migraine_risk":4,"frizz_risk":1,"updated_at":"2026-03-31T10:42:29.600999+05:30"},{"city":"Rourkela","state":"Odisha","latitude":22.2604,"longitude":84.8536,"temp":33.2,"humidity":48,"rain":0.0,"pressure":988.2,"uv_index":8.15,"wind_gusts":47.9,"aqi":113,"pm10":60.3,"pm2_5":49.9,"mosquito_risk":0,"arthritis_risk":5,"migraine_risk":7,"frizz_risk":1,"updated_at":"2026-03-31T10:42:29.601005+05:30"},{"city":"Raipur","state":"Chhattisgarh","latitude":21.2514,"longitude":81.6296,"temp":30.6,"humidity":47,"rain":0.0,"pressure":978.3,"uv_index":8.2,"wind_gusts":33.1,"aqi":106,"pm10":167.2,"pm2_5":49.0,"mosquito_risk":0,"arthritis_risk":5,"migraine_risk":7,"frizz_risk":1,"updated_at":"2026-03-31T10:42:29.601011+05:30"},{"city":"Bhilai","state":"Chhattisgarh","latitude":21.1938,"longitude":81.3509,"temp":30.1,"humidity":52,"rain":0.0,"pressure":978.6,"uv_index":8.25,"wind_gusts":29.2,"aqi":86,"pm10":245.9,"pm2_5":53.9,"mosquito_risk":0,"arthritis_risk":5,"migraine_risk":7,"frizz_risk":1,"updated_at":"2026-03-31T10:42:29.601018+05:30"},{"city":"Guwahati","state":"Assam","latitude":26.1158,"longitude":91.7086,"temp":26.0,"humidity":75,"rain":0.0,"pressure":1005.7,"uv_index":8.0,"wind_gusts":22.7,"aqi":131,"pm10":54.7,"pm2_5":40.3,"mosquito_risk":7,"arthritis_risk":5,"migraine_risk":4,"frizz_risk":1,"updated_at":"2026-03-31T10:42:29.601024+05:30"},{"city":"Agartala","state":"Tripura","latitude":23.8315,"longitude":91.2868,"temp":26.8,"humidity":83,"rain":0.0,"pressure":1010.3,"uv_index":8.3,"wind_gusts":20.2,"aqi":112,"pm10":29.9,"pm2_5":26.7,"mosquito_risk":7,"arthritis_risk":0,"migraine_risk":4,"frizz_risk":1,"updated_at":"2026-03-31T10:42:29.601031+05:30"},{"city":"Shillong","state":"Meghalaya","latitude":25.5788,"longitude":91.8933,"temp":19.5,"humidity":61,"rain":0.0,"pressure":859.6,"uv_index":8.25,"wind_gusts":37.4,"aqi":117,"pm10":43.1,"pm2_5":28.2,"mosquito_risk":3,"arthritis_risk":5,"migraine_risk":7,"frizz_risk":0,"updated_at":"2026-03-31T10:42:29.601038+05:30"},{"city":"Imphal","state":"Manipur","latitude":24.817,"longitude":93.9368,"temp":19.5,"humidity":87,"rain":0.0,"pressure":926.3,"uv_index":8.7,"wind_gusts":55.1,"aqi":77,"pm10":13.9,"pm2_5":10.4,"mosquito_risk":3,"arthritis_risk":10,"migraine_risk":7,"frizz_risk":1,"updated_at":"2026-03-31T10:42:29.601045+05:30"},{"city":"Aizawl","state":"Mizoram","latitude":23.7271,"longitude":92.7176,"temp":22.6,"humidity":78,"rain":0.0,"pressure":896.6,"uv_index":8.55,"wind_gusts":40.7,"aqi":122,"pm10":52.0,"pm2_5":41.2,"mosquito_risk":3,"arthritis_risk":5,"migraine_risk":7,"frizz_risk":1,"updated_at":"2026-03-31T10:42:29.601051+05:30"},{"city":"Kohima","state":"Nagaland","latitude":25.6701,"longitude":94.1077,"temp":18.8,"humidity":78,"rain":0.0,"pressure":858.6,"uv_index":8.55,"wind_gusts":66.6,"aqi":78,"pm10":34.9,"pm2_5":21.4,"mosquito_risk":3,"arthritis_risk":5,"migraine_risk":7,"frizz_risk":0,"updated_at":"2026-03-31T10:42:29.601058+05:30"},{"city":"Gangtok","state":"Sikkim","latitude":27.3314,"longitude":88.6138,"temp":17.7,"humidity":78,"rain":0.0,"pressure":840.8,"uv_index":8.3,"wind_gusts":16.6,"aqi":132,"pm10":37.4,"pm2_5":27.9,"mosquito_risk":3,"arthritis_risk":5,"migraine_risk":7,"frizz_risk":0,"updated_at":"2026-03-31T10:42:29.601064+05:30"},{"city":"Siliguri","state":"West Bengal","latitude":26.7271,"longitude":88.3953,"temp":22.7,"humidity":79,"rain":0.0,"pressure":998.2,"uv_index":7.65,"wind_gusts":20.5,"aqi":164,"pm10":84.5,"pm2_5":61.9,"mosquito_risk":3,"arthritis_risk":5,"migraine_risk":7,"frizz_risk":1,"updated_at":"2026-03-31T10:42:32.860915+05:30"},{"city":"Durgapur","state":"West Bengal","latitude":23.5204,"longitude":87.3119,"temp":30.9,"humidity":67,"rain":0.0,"pressure":998.0,"uv_index":8.5,"wind_gusts":20.9,"aqi":159,"pm10":85.7,"pm2_5":77.3,"mosquito_risk":3,"arthritis_risk":5,"migraine_risk":7,"frizz_risk":1,"updated_at":"2026-03-31T10:42:32.860946+05:30"},{"city":"Asansol","state":"West Bengal","latitude":23.6739,"longitude":86.9524,"temp":30.7,"humidity":67,"rain":0.0,"pressure":996.7,"uv_index":8.55,"wind_gusts":26.6,"aqi":159,"pm10":91.3,"pm2_5":81.3,"mosquito_risk":3,"arthritis_risk":5,"migraine_risk":7,"frizz_risk":1,"updated_at":"2026-03-31T10:42:32.861003+05:30"},{"city":"Pondicherry","state":"Puducherry","latitude":11.9139,"longitude":79.8145,"temp":30.8,"humidity":66,"rain":0.0,"pressure":1011.2,"uv_index":9.25,"wind_gusts":26.3,"aqi":43,"pm10":16.2,"pm2_5":11.7,"mosquito_risk":3,"arthritis_risk":0,"migraine_risk":4,"frizz_risk":1,"updated_at":"2026-03-31T10:42:32.861016+05:30"},{"city":"Port Blair","state":"Andaman and Nicobar Islands","latitude":11.6234,"longitude":92.7265,"temp":29.4,"humidity":69,"rain":0.0,"pressure":1009.6,"uv_index":9.2,"wind_gusts":12.6,"aqi":53,"pm10":15.3,"pm2_5":12.8,"mosquito_risk":7,"arthritis_risk":0,"migraine_risk":4,"frizz_risk":1,"updated_at":"2026-03-31T10:42:32.861025+05:30"},{"city":"Haridwar","state":"Uttarakhand","latitude":29.9457,"longitude":78.1642,"temp":29.4,"humidity":44,"rain":0.0,"pressure":977.3,"uv_index":6.6,"wind_gusts":30.6,"aqi":100,"pm10":88.2,"pm2_5":26.2,"mosquito_risk":4,"arthritis_risk":5,"migraine_risk":7,"frizz_risk":0,"updated_at":"2026-03-31T10:42:32.861033+05:30"},{"city":"Rishikesh","state":"Uttarakhand","latitude":30.0869,"longitude":78.2676,"temp":29.4,"humidity":40,"rain":0.0,"pressure":970.0,"uv_index":6.65,"wind_gusts":28.4,"aqi":74,"pm10":43.7,"pm2_5":12.3,"mosquito_risk":4,"arthritis_risk":5,"migraine_risk":7,"frizz_risk":0,"updated_at":"2026-03-31T10:42:32.861041+05:30"},{"city":"Nainital","state":"Uttarakhand","latitude":29.3919,"longitude":79.4542,"temp":24.6,"humidity":37,"rain":0.0,"pressure":810.7,"uv_index":7.5,"wind_gusts":43.6,"aqi":79,"pm10":56.9,"pm2_5":17.3,"mosquito_risk":0,"arthritis_risk":5,"migraine_risk":7,"frizz_risk":0,"updated_at":"2026-03-31T10:42:32.861048+05:30"},{"city":"Mussoorie","state":"Uttarakhand","latitude":30.4599,"longitude":78.0664,"temp":20.8,"humidity":49,"rain":0.0,"pressure":806.6,"uv_index":7.0,"wind_gusts":34.6,"aqi":73,"pm10":37.4,"pm2_5":11.4,"mosquito_risk":0,"arthritis_risk":5,"migraine_risk":7,"frizz_risk":0,"updated_at":"2026-03-31T10:42:32.861055+05:30"},{"city":"Dharamshala","state":"Himachal Pradesh","latitude":32.219,"longitude":76.3234,"temp":23.0,"humidity":52,"rain":0.0,"pressure":872.3,"uv_index":7.2,"wind_gusts":22.7,"aqi":38,"pm10":7.3,"pm2_5":2.8,"mosquito_risk":0,"arthritis_risk":5,"migraine_risk":7,"frizz_risk":0,"updated_at":"2026-03-31T10:42:32.861061+05:30"},{"city":"Dalhousie","state":"Himachal Pradesh","latitude":32.5387,"longitude":75.971,"temp":20.5,"humidity":45,"rain":0.0,"pressure":806.9,"uv_index":7.4,"wind_gusts":27.4,"aqi":69,"pm10":64.3,"pm2_5":14.4,"mosquito_risk":0,"arthritis_risk":5,"migraine_risk":7,"frizz_risk":0,"updated_at":"2026-03-31T10:42:32.861069+05:30"},{"city":"Patiala","state":"Punjab","latitude":30.3398,"longitude":76.3869,"temp":28.5,"humidity":58,"rain":0.0,"pressure":981.3,"uv_index":6.1,"wind_gusts":24.1,"aqi":462,"pm10":344.6,"pm2_5":69.8,"mosquito_risk":4,"arthritis_risk":5,"migraine_risk":7,"frizz_risk":1,"updated_at":"2026-03-31T10:42:32.861077+05:30"},{"city":"Bhatinda","state":"Punjab","latitude":30.211,"longitude":74.9455,"temp":27.0,"humidity":54,"rain":0.0,"pressure":987.1,"uv_index":6.6,"wind_gusts":34.9,"aqi":127,"pm10":75.7,"pm2_5":29.3,"mosquito_risk":4,"arthritis_risk":5,"migraine_risk":7,"frizz_risk":1,"updated_at":"2026-03-31T10:42:32.861084+05:30"},{"city":"Rohtak","state":"Haryana","latitude":28.8955,"longitude":76.6066,"temp":27.8,"humidity":53,"rain":0.0,"pressure":985.4,"uv_index":5.55,"wind_gusts":28.1,"aqi":183,"pm10":66.8,"pm2_5":25.8,"mosquito_risk":4,"arthritis_risk":5,"migraine_risk":3,"frizz_risk":1,"updated_at":"2026-03-31T10:42:32.861091+05:30"},{"city":"Panipat","state":"Haryana","latitude":29.3909,"longitude":76.9635,"temp":28.6,"humidity":46,"rain":0.0,"pressure":983.7,"uv_index":5.9,"wind_gusts":24.1,"aqi":351,"pm10":56.5,"pm2_5":23.9,"mosquito_risk":4,"arthritis_risk":5,"migraine_risk":3,"frizz_risk":0,"updated_at":"2026-03-31T10:42:32.861098+05:30"},{"city":"Mathura","state":"Uttar Pradesh","latitude":27.4924,"longitude":77.6737,"temp":30.9,"humidity":39,"rain":0.0,"pressure":990.4,"uv_index":6.95,"wind_gusts":30.6,"aqi":331,"pm10":178.8,"pm2_5":37.1,"mosquito_risk":0,"arthritis_risk":5,"migraine_risk":7,"frizz_risk":0,"updated_at":"2026-03-31T10:42:32.861105+05:30"},{"city":"Vrindavan","state":"Uttar Pradesh","latitude":27.5823,"longitude":77.7027,"temp":30.5,"humidity":40,"rain":0.0,"pressure":990.8,"uv_index":6.9,"wind_gusts":35.6,"aqi":331,"pm10":178.8,"pm2_5":37.1,"mosquito_risk":0,"arthritis_risk":5,"migraine_risk":7,"frizz_risk":0,"updated_at":"2026-03-31T10:42:32.861112+05:30"},{"city":"Ayodhya","state":"Uttar Pradesh","latitude":26.7922,"longitude":82.1998,"temp":30.9,"humidity":54,"rain":0.0,"pressure":998.1,"uv_index":7.45,"wind_gusts":30.6,"aqi":128,"pm10":138.8,"pm2_5":52.4,"mosquito_risk":0,"arthritis_risk":5,"migraine_risk":7,"frizz_risk":1,"updated_at":"2026-03-31T10:42:32.861118+05:30"},{"city":"Ratlam","state":"Madhya Pradesh","latitude":23.3315,"longitude":75.0367,"temp":31.1,"humidity":45,"rain":0.0,"pressure":957.8,"uv_index":8.15,"wind_gusts":29.2,"aqi":46,"pm10":21.1,"pm2_5":11.1,"mosquito_risk":0,"arthritis_risk":5,"migraine_risk":7,"frizz_risk":1,"updated_at":"2026-03-31T10:42:32.861125+05:30"},{"city":"Sagar","state":"Madhya Pradesh","latitude":23.8388,"longitude":78.7378,"temp":33.2,"humidity":29,"rain":0.0,"pressure":954.0,"uv_index":8.2,"wind_gusts":23.8,"aqi":51,"pm10":110.8,"pm2_5":22.4,"mosquito_risk":0,"arthritis_risk":5,"migraine_risk":7,"frizz_risk":0,"updated_at":"2026-03-31T10:42:32.861131+05:30"},{"city":"Satna","state":"Madhya Pradesh","latitude":24.6005,"longitude":80.8322,"temp":33.4,"humidity":31,"rain":0.0,"pressure":975.0,"uv_index":8.2,"wind_gusts":23.8,"aqi":125,"pm10":303.6,"pm2_5":60.1,"mosquito_risk":0,"arthritis_risk":5,"migraine_risk":7,"frizz_risk":0,"updated_at":"2026-03-31T10:42:32.861139+05:30"},{"city":"Akola","state":"Maharashtra","latitude":20.7002,"longitude":77.0082,"temp":32.4,"humidity":43,"rain":0.0,"pressure":978.9,"uv_index":8.5,"wind_gusts":18.0,"aqi":67,"pm10":29.7,"pm2_5":20.8,"mosquito_risk":0,"arthritis_risk":5,"migraine_risk":7,"frizz_risk":1,"updated_at":"2026-03-31T10:42:32.861146+05:30"},{"city":"Amravati","state":"Maharashtra","latitude":20.9374,"longitude":77.7796,"temp":31.8,"humidity":45,"rain":0.0,"pressure":971.1,"uv_index":8.55,"wind_gusts":17.3,"aqi":64,"pm10":28.7,"pm2_5":20.0,"mosquito_risk":0,"arthritis_risk":5,"migraine_risk":7,"frizz_risk":1,"updated_at":"2026-03-31T10:42:32.861154+05:30"},{"city":"Latur","state":"Maharashtra","latitude":18.4088,"longitude":76.5604,"temp":29.1,"humidity":52,"rain":0.0,"pressure":943.1,"uv_index":8.85,"wind_gusts":29.2,"aqi":82,"pm10":47.3,"pm2_5":37.8,"mosquito_risk":4,"arthritis_risk":5,"migraine_risk":7,"frizz_risk":1,"updated_at":"2026-03-31T10:42:32.861160+05:30"},{"city":"Nanded","state":"Maharashtra","latitude":19.1383,"longitude":77.3091,"temp":30.4,"humidity":53,"rain":0.0,"pressure":972.4,"uv_index":8.75,"wind_gusts":26.3,"aqi":75,"pm10":43.3,"pm2_5":31.9,"mosquito_risk":0,"arthritis_risk":5,"migraine_risk":7,"frizz_risk":1,"updated_at":"2026-03-31T10:42:32.861167+05:30"},{"city":"Gulbarga","state":"Karnataka","latitude":17.3297,"longitude":76.8343,"temp":31.0,"humidity":48,"rain":0.0,"pressure":961.7,"uv_index":8.95,"wind_gusts":40.7,"aqi":110,"pm10":49.5,"pm2_5":41.6,"mosquito_risk":0,"arthritis_risk":5,"migraine_risk":7,"frizz_risk":1,"updated_at":"2026-03-31T10:42:32.861174+05:30"},{"city":"Bidar","state":"Karnataka","latitude":17.9104,"longitude":77.5199,"temp":29.4,"humidity":51,"rain":0.0,"pressure":938.9,"uv_index":8.95,"wind_gusts":40.3,"aqi":107,"pm10":43.8,"pm2_5":37.4,"mosquito_risk":4,"arthritis_risk":5,"migraine_risk":7,"frizz_risk":1,"updated_at":"2026-03-31T10:42:32.861180+05:30"},{"city":"Hospet","state":"Karnataka","latitude":15.2689,"longitude":76.3909,"temp":29.0,"humidity":61,"rain":0.0,"pressure":958.2,"uv_index":9.15,"wind_gusts":21.6,"aqi":94,"pm10":44.8,"pm2_5":39.1,"mosquito_risk":7,"arthritis_risk":5,"migraine_risk":7,"frizz_risk":1,"updated_at":"2026-03-31T10:42:32.861187+05:30"},{"city":"Tirupur","state":"Tamil Nadu","latitude":11.1085,"longitude":77.3411,"temp":30.7,"humidity":62,"rain":0.0,"pressure":977.6,"uv_index":9.5,"wind_gusts":28.1,"aqi":75,"pm10":14.0,"pm2_5":12.6,"mosquito_risk":3,"arthritis_risk":5,"migraine_risk":7,"frizz_risk":1,"updated_at":"2026-03-31T10:42:32.861193+05:30"},{"city":"Alappuzha","state":"Kerala","latitude":9.4981,"longitude":76.3388,"temp":28.6,"humidity":80,"rain":0.0,"pressure":1010.1,"uv_index":9.2,"wind_gusts":25.9,"aqi":108,"pm10":44.6,"pm2_5":40.4,"mosquito_risk":7,"arthritis_risk":0,"migraine_risk":4,"frizz_risk":1,"updated_at":"2026-03-31T10:42:32.861199+05:30"},{"city":"Munnar","state":"Kerala","latitude":10.0889,"longitude":77.0595,"temp":27.8,"humidity":52,"rain":0.0,"pressure":860.2,"uv_index":9.75,"wind_gusts":28.4,"aqi":79,"pm10":15.3,"pm2_5":12.3,"mosquito_risk":4,"arthritis_risk":5,"migraine_risk":7,"frizz_risk":1,"updated_at":"2026-03-31T10:42:32.861207+05:30"},{"city":"Silchar","state":"Assam","latitude":24.8333,"longitude":92.7789,"temp":23.9,"humidity":89,"rain":0.0,"pressure":1009.6,"uv_index":8.35,"wind_gusts":23.4,"aqi":96,"pm10":30.7,"pm2_5":24.0,"mosquito_risk":3,"arthritis_risk":0,"migraine_risk":4,"frizz_risk":1,"updated_at":"2026-03-31T10:42:32.861213+05:30"},{"city":"Dibrugarh","state":"Assam","latitude":27.4728,"longitude":94.912,"temp":25.1,"humidity":74,"rain":0.0,"pressure":999.3,"uv_index":8.15,"wind_gusts":13.7,"aqi":95,"pm10":35.3,"pm2_5":24.3,"mosquito_risk":7,"arthritis_risk":5,"migraine_risk":7,"frizz_risk":1,"updated_at":"2026-03-31T10:42:32.861220+05:30"}]