[{"city":"Delhi","state":"Delhi","latitude":28.6139,"longitude":77.209,"temp":35.0,"humidity":31,"rain":0.0,"pressure":984.7,"uv_index":7.55,"wind_gusts":34.2,"aqi":184,"pm10":339.9,"pm2_5":62.2,"no2":5.5,"co":400.0,"o3":234.0,"so2":30.0,"mosquito_risk":0,"arthritis_risk":5,"migraine_risk":7,"frizz_risk":0,"updated_at":"2026-05-09T12:38:52.478120+05:30"},{"city":"Mumbai","state":"Maharashtra","latitude":19.076,"longitude":72.8777,"temp":36.4,"humidity":53,"rain":0.0,"pressure":1007.0,"uv_index":7.85,"wind_gusts":47.9,"aqi":88,"pm10":65.7,"pm2_5":38.8,"no2":9.8,"co":293.0,"o3":205.0,"so2":27.3,"mosquito_risk":0,"arthritis_risk":5,"migraine_risk":7,"frizz_risk":1,"updated_at":"2026-05-09T12:38:52.478170+05:30"},{"city":"Bangalore","state":"Karnataka","latitude":12.9716,"longitude":77.5946,"temp":32.0,"humidity":36,"rain":0.0,"pressure":911.7,"uv_index":9.5,"wind_gusts":44.3,"aqi":48,"pm10":6.4,"pm2_5":5.7,"no2":2.7,"co":201.0,"o3":80.0,"so2":4.0,"mosquito_risk":0,"arthritis_risk":5,"migraine_risk":7,"frizz_risk":0,"updated_at":"2026-05-09T12:38:52.478185+05:30"},{"city":"Hyderabad","state":"Telangana","latitude":17.385,"longitude":78.4867,"temp":35.0,"humidity":27,"rain":0.0,"pressure":954.4,"uv_index":9.1,"wind_gusts":33.8,"aqi":50,"pm10":16.3,"pm2_5":11.1,"no2":1.7,"co":243.0,"o3":143.0,"so2":4.1,"mosquito_risk":0,"arthritis_risk":5,"migraine_risk":7,"frizz_risk":0,"updated_at":"2026-05-09T12:38:52.478199+05:30"},{"city":"Chennai","state":"Tamil Nadu","latitude":13.0827,"longitude":80.2707,"temp":30.8,"humidity":66,"rain":0.0,"pressure":1006.5,"uv_index":8.2,"wind_gusts":39.6,"aqi":22,"pm10":4.2,"pm2_5":3.1,"no2":1.8,"co":138.0,"o3":57.0,"so2":4.8,"mosquito_risk":3,"arthritis_risk":5,"migraine_risk":4,"frizz_risk":1,"updated_at":"2026-05-09T12:38:52.478207+05:30"},{"city":"Kolkata","state":"West Bengal","latitude":22.5726,"longitude":88.3639,"temp":32.0,"humidity":61,"rain":0.0,"pressure":1007.4,"uv_index":8.9,"wind_gusts":22.0,"aqi":138,"pm10":44.4,"pm2_5":35.6,"no2":2.8,"co":467.0,"o3":226.0,"so2":15.8,"mosquito_risk":3,"arthritis_risk":5,"migraine_risk":4,"frizz_risk":1,"updated_at":"2026-05-09T12:38:52.478215+05:30"},{"city":"Pune","state":"Maharashtra","latitude":18.5204,"longitude":73.8567,"temp":37.3,"humidity":23,"rain":0.0,"pressure":948.9,"uv_index":8.5,"wind_gusts":35.6,"aqi":92,"pm10":53.4,"pm2_5":30.6,"no2":1.2,"co":233.0,"o3":176.0,"so2":7.7,"mosquito_risk":0,"arthritis_risk":5,"migraine_risk":10,"frizz_risk":0,"updated_at":"2026-05-09T12:38:52.478223+05:30"},{"city":"Ahmedabad","state":"Gujarat","latitude":23.0225,"longitude":72.5714,"temp":40.8,"humidity":19,"rain":0.0,"pressure":1001.7,"uv_index":8.1,"wind_gusts":33.8,"aqi":69,"pm10":37.0,"pm2_5":13.4,"no2":1.8,"co":200.0,"o3":134.0,"so2":4.2,"mosquito_risk":0,"arthritis_risk":5,"migraine_risk":7,"frizz_risk":0,"updated_at":"2026-05-09T12:38:52.478232+05:30"},{"city":"Jaipur","state":"Rajasthan","latitude":26.9124,"longitude":75.7873,"temp":36.0,"humidity":26,"rain":0.0,"pressure":960.9,"uv_index":8.15,"wind_gusts":28.8,"aqi":180,"pm10":186.7,"pm2_5":38.6,"no2":1.2,"co":258.0,"o3":182.0,"so2":8.6,"mosquito_risk":0,"arthritis_risk":5,"migraine_risk":10,"frizz_risk":0,"updated_at":"2026-05-09T12:38:52.478240+05:30"},{"city":"Lucknow","state":"Uttar Pradesh","latitude":26.8467,"longitude":80.9462,"temp":32.2,"humidity":44,"rain":0.0,"pressure":995.1,"uv_index":7.95,"wind_gusts":36.4,"aqi":101,"pm10":65.4,"pm2_5":36.6,"no2":1.4,"co":304.0,"o3":192.0,"so2":10.9,"mosquito_risk":0,"arthritis_risk":5,"migraine_risk":7,"frizz_risk":1,"updated_at":"2026-05-09T12:38:52.478247+05:30"},{"city":"Kanpur","state":"Uttar Pradesh","latitude":26.4499,"longitude":80.3319,"temp":34.6,"humidity":34,"rain":0.0,"pressure":992.5,"uv_index":8.05,"wind_gusts":38.5,"aqi":169,"pm10":235.2,"pm2_5":49.5,"no2":1.6,"co":336.0,"o3":202.0,"so2":12.3,"mosquito_risk":0,"arthritis_risk":5,"migraine_risk":7,"frizz_risk":1,"updated_at":"2026-05-09T12:38:52.478254+05:30"},{"city":"Chandigarh","state":"Chandigarh","latitude":30.7333,"longitude":76.7794,"temp":33.5,"humidity":32,"rain":0.0,"pressure":971.3,"uv_index":7.6,"wind_gusts":31.7,"aqi":88,"pm10":165.8,"pm2_5":39.6,"no2":1.6,"co":257.0,"o3":206.0,"so2":11.8,"mosquito_risk":0,"arthritis_risk":5,"migraine_risk":7,"frizz_risk":0,"updated_at":"2026-05-09T12:38:52.478261+05:30"},{"city":"Srinagar","state":"Jammu and Kashmir","latitude":34.0837,"longitude":74.7973,"temp":23.7,"humidity":39,"rain":0.0,"pressure":845.9,"uv_index":8.9,"wind_gusts":18.0,"aqi":95,"pm10":48.2,"pm2_5":12.3,"no2":1.2,"co":253.0,"o3":158.0,"so2":1.6,"mosquito_risk":0,"arthritis_risk":5,"migraine_risk":7,"frizz_risk":0,"updated_at":"2026-05-09T12:38:52.478269+05:30"},{"city":"Jammu","state":"Jammu and Kashmir","latitude":32.7266,"longitude":74.857,"temp":34.3,"humidity":33,"rain":0.0,"pressure":974.8,"uv_index":8.4,"wind_gusts":29.9,"aqi":152,"pm10":171.4,"pm2_5":48.4,"no2":0.9,"co":286.0,"o3":196.0,"so2":9.3,"mosquito_risk":0,"arthritis_risk":5,"migraine_risk":7,"frizz_risk":0,"updated_at":"2026-05-09T12:38:52.478276+05:30"},{"city":"Amritsar","state":"Punjab","latitude":31.634,"longitude":74.8723,"temp":35.6,"humidity":30,"rain":0.0,"pressure":982.5,"uv_index":8.3,"wind_gusts":24.8,"aqi":140,"pm10":434.9,"pm2_5":80.3,"no2":1.5,"co":289.0,"o3":207.0,"so2":15.7,"mosquito_risk":0,"arthritis_risk":5,"migraine_risk":10,"frizz_risk":0,"updated_at":"2026-05-09T12:38:52.478282+05:30"},{"city":"Ludhiana","state":"Punjab","latitude":30.901,"longitude":75.8573,"temp":35.2,"humidity":31,"rain":0.0,"pressure":980.7,"uv_index":7.9,"wind_gusts":32.4,"aqi":137,"pm10":482.4,"pm2_5":72.2,"no2":1.1,"co":274.0,"o3":204.0,"so2":9.9,"mosquito_risk":0,"arthritis_risk":5,"migraine_risk":10,"frizz_risk":0,"updated_at":"2026-05-09T12:38:52.478289+05:30"},{"city":"Jalandhar","state":"Punjab","latitude":31.326,"longitude":75.5762,"temp":34.8,"humidity":32,"rain":0.0,"pressure":981.7,"uv_index":8.05,"wind_gusts":25.9,"aqi":143,"pm10":407.9,"pm2_5":67.8,"no2":1.1,"co":301.0,"o3":202.0,"so2":9.9,"mosquito_risk":0,"arthritis_risk":5,"migraine_risk":7,"frizz_risk":0,"updated_at":"2026-05-09T12:38:52.478295+05:30"},{"city":"Dehradun","state":"Uttarakhand","latitude":30.6284,"longitude":78.0322,"temp":20.3,"humidity":54,"rain":0.0,"pressure":834.4,"uv_index":8.0,"wind_gusts":28.1,"aqi":52,"pm10":25.4,"pm2_5":11.0,"no2":0.8,"co":216.0,"o3":160.0,"so2":1.9,"mosquito_risk":0,"arthritis_risk":5,"migraine_risk":7,"frizz_risk":0,"updated_at":"2026-05-09T12:38:52.478303+05:30"},{"city":"Shimla","state":"Himachal Pradesh","latitude":31.1048,"longitude":77.1734,"temp":20.4,"humidity":44,"rain":0.0,"pressure":789.2,"uv_index":8.05,"wind_gusts":34.2,"aqi":71,"pm10":71.2,"pm2_5":26.0,"no2":1.1,"co":222.0,"o3":189.0,"so2":11.7,"mosquito_risk":0,"arthritis_risk":5,"migraine_risk":7,"frizz_risk":0,"updated_at":"2026-05-09T12:38:52.478309+05:30"},{"city":"Manali","state":"Himachal Pradesh","latitude":32.2396,"longitude":77.1887,"temp":22.5,"humidity":24,"rain":0.0,"pressure":820.9,"uv_index":10.15,"wind_gusts":39.2,"aqi":95,"pm10":33.1,"pm2_5":6.3,"no2":0.3,"co":129.0,"o3":158.0,"so2":0.1,"mosquito_risk":0,"arthritis_risk":5,"migraine_risk":7,"frizz_risk":0,"updated_at":"2026-05-09T12:38:52.478316+05:30"},{"city":"Gurgaon","state":"Haryana","latitude":28.4595,"longitude":77.0266,"temp":34.7,"humidity":31,"rain":0.0,"pressure":983.1,"uv_index":7.65,"wind_gusts":27.4,"aqi":1102,"pm10":784.2,"pm2_5":95.0,"no2":3.4,"co":361.0,"o3":207.0,"so2":18.0,"mosquito_risk":0,"arthritis_risk":5,"migraine_risk":7,"frizz_risk":0,"updated_at":"2026-05-09T12:38:52.478322+05:30"},{"city":"Noida","state":"Uttar Pradesh","latitude":28.5355,"longitude":77.391,"temp":34.2,"humidity":36,"rain":0.0,"pressure":986.2,"uv_index":7.6,"wind_gusts":29.5,"aqi":1102,"pm10":784.2,"pm2_5":95.0,"no2":3.4,"co":346.0,"o3":207.0,"so2":18.0,"mosquito_risk":0,"arthritis_risk":5,"migraine_risk":7,"frizz_risk":1,"updated_at":"2026-05-09T12:38:52.478328+05:30"},{"city":"Ghaziabad","state":"Uttar Pradesh","latitude":28.6692,"longitude":77.4538,"temp":34.0,"humidity":35,"rain":0.0,"pressure":984.6,"uv_index":7.55,"wind_gusts":27.4,"aqi":128,"pm10":196.0,"pm2_5":38.3,"no2":2.0,"co":304.0,"o3":196.0,"so2":10.8,"mosquito_risk":0,"arthritis_risk":5,"migraine_risk":7,"frizz_risk":1,"updated_at":"2026-05-09T12:38:52.478335+05:30"},{"city":"Faridabad","state":"Haryana","latitude":28.4089,"longitude":77.3178,"temp":33.8,"humidity":34,"rain":0.0,"pressure":985.4,"uv_index":7.6,"wind_gusts":37.1,"aqi":1102,"pm10":784.2,"pm2_5":95.0,"no2":3.4,"co":321.0,"o3":207.0,"so2":18.0,"mosquito_risk":0,"arthritis_risk":5,"migraine_risk":7,"frizz_risk":0,"updated_at":"2026-05-09T12:38:52.478341+05:30"},{"city":"Meerut","state":"Uttar Pradesh","latitude":28.9845,"longitude":77.7064,"temp":32.3,"humidity":42,"rain":0.0,"pressure":983.8,"uv_index":7.45,"wind_gusts":27.7,"aqi":128,"pm10":196.0,"pm2_5":38.3,"no2":2.0,"co":308.0,"o3":196.0,"so2":10.8,"mosquito_risk":0,"arthritis_risk":5,"migraine_risk":7,"frizz_risk":1,"updated_at":"2026-05-09T12:38:52.478346+05:30"},{"city":"Agra","state":"Uttar Pradesh","latitude":27.1767,"longitude":78.0081,"temp":34.2,"humidity":39,"rain":0.0,"pressure":988.7,"uv_index":7.9,"wind_gusts":28.8,"aqi":819,"pm10":512.2,"pm2_5":66.8,"no2":1.5,"co":316.0,"o3":193.0,"so2":10.8,"mosquito_risk":0,"arthritis_risk":5,"migraine_risk":7,"frizz_risk":1,"updated_at":"2026-05-09T12:38:52.478352+05:30"},{"city":"Varanasi","state":"Uttar Pradesh","latitude":25.3176,"longitude":82.9739,"temp":34.5,"humidity":37,"rain":0.0,"pressure":998.0,"uv_index":8.35,"wind_gusts":36.4,"aqi":116,"pm10":69.2,"pm2_5":41.2,"no2":1.9,"co":344.0,"o3":216.0,"so2":16.7,"mosquito_risk":0,"arthritis_risk":5,"migraine_risk":7,"frizz_risk":1,"updated_at":"2026-05-09T12:38:52.478359+05:30"},{"city":"Prayagraj","state":"Uttar Pradesh","latitude":25.4358,"longitude":81.8463,"temp":35.2,"humidity":33,"rain":0.0,"pressure":996.3,"uv_index":8.3,"wind_gusts":46.4,"aqi":118,"pm10":68.5,"pm2_5":40.7,"no2":2.1,"co":388.0,"o3":211.0,"so2":14.2,"mosquito_risk":0,"arthritis_risk":5,"migraine_risk":10,"frizz_risk":1,"updated_at":"2026-05-09T12:38:52.478366+05:30"},{"city":"Gorakhpur","state":"Uttar Pradesh","latitude":26.7606,"longitude":83.3732,"temp":30.6,"humidity":50,"rain":0.0,"pressure":1000.4,"uv_index":8.4,"wind_gusts":37.4,"aqi":100,"pm10":60.5,"pm2_5":39.6,"no2":1.4,"co":353.0,"o3":195.0,"so2":9.7,"mosquito_risk":0,"arthritis_risk":5,"migraine_risk":4,"frizz_risk":1,"updated_at":"2026-05-09T12:38:52.478372+05:30"},{"city":"Bareilly","state":"Uttar Pradesh","latitude":28.367,"longitude":79.4304,"temp":32.2,"humidity":42,"rain":0.0,"pressure":989.2,"uv_index":7.55,"wind_gusts":33.5,"aqi":83,"pm10":88.0,"pm2_5":24.9,"no2":1.5,"co":280.0,"o3":188.0,"so2":8.4,"mosquito_risk":0,"arthritis_risk":5,"migraine_risk":7,"frizz_risk":1,"updated_at":"2026-05-09T12:38:52.478378+05:30"},{"city":"Aligarh","state":"Uttar Pradesh","latitude":27.8974,"longitude":78.088,"temp":33.5,"humidity":35,"rain":0.0,"pressure":987.3,"uv_index":7.7,"wind_gusts":29.2,"aqi":480,"pm10":340.9,"pm2_5":49.5,"no2":1.5,"co":314.0,"o3":189.0,"so2":12.2,"mosquito_risk":0,"arthritis_risk":5,"migraine_risk":7,"frizz_risk":1,"updated_at":"2026-05-09T12:38:52.478384+05:30"},{"city":"Moradabad","state":"Uttar Pradesh","latitude":28.8386,"longitude":78.7733,"temp":31.8,"humidity":43,"rain":0.0,"pressure":986.2,"uv_index":7.65,"wind_gusts":32.8,"aqi":87,"pm10":53.3,"pm2_5":22.7,"no2":1.8,"co":295.0,"o3":199.0,"so2":14.5,"mosquito_risk":0,"arthritis_risk":5,"migraine_risk":7,"frizz_risk":1,"updated_at":"2026-05-09T12:38:52.478390+05:30"},{"city":"Saharanpur","state":"Uttar Pradesh","latitude":29.9637,"longitude":77.546,"temp":31.6,"humidity":40,"rain":0.0,"pressure":978.4,"uv_index":7.3,"wind_gusts":31.0,"aqi":106,"pm10":91.7,"pm2_5":27.9,"no2":1.0,"co":282.0,"o3":192.0,"so2":9.8,"mosquito_risk":0,"arthritis_risk":5,"migraine_risk":7,"frizz_risk":1,"updated_at":"2026-05-09T12:38:52.478396+05:30"},{"city":"Jhansi","state":"Uttar Pradesh","latitude":25.4484,"longitude":78.5685,"temp":35.8,"humidity":32,"rain":0.0,"pressure":978.0,"uv_index":8.3,"wind_gusts":52.2,"aqi":96,"pm10":50.9,"pm2_5":30.6,"no2":2.0,"co":264.0,"o3":197.0,"so2":22.7,"mosquito_risk":0,"arthritis_risk":5,"migraine_risk":10,"frizz_risk":1,"updated_at":"2026-05-09T12:38:55.811434+05:30"},{"city":"Surat","state":"Gujarat","latitude":21.1702,"longitude":72.8311,"temp":41.0,"humidity":20,"rain":0.0,"pressure":1006.0,"uv_index":7.7,"wind_gusts":34.9,"aqi":100,"pm10":65.2,"pm2_5":41.3,"no2":36.5,"co":179.0,"o3":98.0,"so2":102.5,"mosquito_risk":0,"arthritis_risk":5,"migraine_risk":7,"frizz_risk":0,"updated_at":"2026-05-09T12:38:55.811465+05:30"},{"city":"Vadodara","state":"Gujarat","latitude":22.3072,"longitude":73.1812,"temp":41.5,"humidity":18,"rain":0.0,"pressure":1003.6,"uv_index":8.05,"wind_gusts":31.0,"aqi":75,"pm10":38.0,"pm2_5":16.9,"no2":3.1,"co":250.0,"o3":171.0,"so2":11.2,"mosquito_risk":0,"arthritis_risk":5,"migraine_risk":7,"frizz_risk":0,"updated_at":"2026-05-09T12:38:55.811475+05:30"},{"city":"Rajkot","state":"Gujarat","latitude":22.3039,"longitude":70.8022,"temp":40.2,"humidity":21,"rain":0.0,"pressure":994.4,"uv_index":7.7,"wind_gusts":45.4,"aqi":55,"pm10":50.4,"pm2_5":15.6,"no2":1.3,"co":154.0,"o3":130.0,"so2":6.2,"mosquito_risk":0,"arthritis_risk":5,"migraine_risk":10,"frizz_risk":0,"updated_at":"2026-05-09T12:38:55.811484+05:30"},{"city":"Thane","state":"Maharashtra","latitude":19.2183,"longitude":72.9781,"temp":42.0,"humidity":17,"rain":0.0,"pressure":1005.9,"uv_index":7.85,"wind_gusts":43.2,"aqi":88,"pm10":65.7,"pm2_5":38.8,"no2":9.8,"co":198.0,"o3":205.0,"so2":27.3,"mosquito_risk":0,"arthritis_risk":5,"migraine_risk":7,"frizz_risk":0,"updated_at":"2026-05-09T12:38:55.811492+05:30"},{"city":"Nagpur","state":"Maharashtra","latitude":21.1458,"longitude":79.0882,"temp":36.8,"humidity":30,"rain":0.0,"pressure":974.1,"uv_index":8.9,"wind_gusts":47.9,"aqi":106,"pm10":58.3,"pm2_5":24.5,"no2":4.4,"co":230.0,"o3":193.0,"so2":21.7,"mosquito_risk":0,"arthritis_risk":5,"migraine_risk":10,"frizz_risk":1,"updated_at":"2026-05-09T12:38:55.811500+05:30"},{"city":"Nashik","state":"Maharashtra","latitude":19.9975,"longitude":73.7898,"temp":38.6,"humidity":14,"rain":0.0,"pressure":946.5,"uv_index":8.15,"wind_gusts":51.5,"aqi":82,"pm10":53.8,"pm2_5":22.1,"no2":1.2,"co":197.0,"o3":164.0,"so2":10.6,"mosquito_risk":0,"arthritis_risk":5,"migraine_risk":10,"frizz_risk":0,"updated_at":"2026-05-09T12:38:55.811508+05:30"},{"city":"Aurangabad","state":"Maharashtra","latitude":19.8762,"longitude":75.3433,"temp":38.8,"humidity":15,"rain":0.0,"pressure":945.0,"uv_index":9.05,"wind_gusts":31.0,"aqi":105,"pm10":57.6,"pm2_5":31.1,"no2":0.9,"co":230.0,"o3":171.0,"so2":8.4,"mosquito_risk":0,"arthritis_risk":5,"migraine_risk":10,"frizz_risk":0,"updated_at":"2026-05-09T12:38:55.811515+05:30"},{"city":"Solapur","state":"Maharashtra","latitude":17.6599,"longitude":75.9064,"temp":37.7,"humidity":26,"rain":0.0,"pressure":957.8,"uv_index":9.05,"wind_gusts":31.3,"aqi":69,"pm10":28.8,"pm2_5":18.2,"no2":1.2,"co":209.0,"o3":165.0,"so2":5.4,"mosquito_risk":0,"arthritis_risk":5,"migraine_risk":10,"frizz_risk":0,"updated_at":"2026-05-09T12:38:55.811524+05:30"},{"city":"Kolhapur","state":"Maharashtra","latitude":16.705,"longitude":74.2433,"temp":37.3,"humidity":26,"rain":0.0,"pressure":948.5,"uv_index":8.85,"wind_gusts":37.8,"aqi":140,"pm10":29.0,"pm2_5":20.0,"no2":1.0,"co":216.0,"o3":154.0,"so2":3.5,"mosquito_risk":0,"arthritis_risk":5,"migraine_risk":10,"frizz_risk":0,"updated_at":"2026-05-09T12:38:55.811531+05:30"},{"city":"Goa","state":"Goa","latitude":15.2993,"longitude":74.124,"temp":40.0,"humidity":26,"rain":0.0,"pressure":995.7,"uv_index":8.65,"wind_gusts":51.1,"aqi":87,"pm10":33.2,"pm2_5":20.1,"no2":1.2,"co":203.0,"o3":141.0,"so2":3.4,"mosquito_risk":0,"arthritis_risk":5,"migraine_risk":10,"frizz_risk":1,"updated_at":"2026-05-09T12:38:55.811539+05:30"},{"city":"Jodhpur","state":"Rajasthan","latitude":26.2389,"longitude":73.0243,"temp":40.8,"humidity":17,"rain":0.0,"pressure":983.0,"uv_index":8.35,"wind_gusts":41.4,"aqi":115,"pm10":138.3,"pm2_5":27.8,"no2":0.7,"co":162.0,"o3":127.0,"so2":2.3,"mosquito_risk":0,"arthritis_risk":5,"migraine_risk":10,"frizz_risk":0,"updated_at":"2026-05-09T12:38:55.811546+05:30"},{"city":"Udaipur","state":"Rajasthan","latitude":24.5854,"longitude":73.7125,"temp":38.0,"humidity":14,"rain":0.0,"pressure":948.0,"uv_index":8.8,"wind_gusts":44.3,"aqi":47,"pm10":43.7,"pm2_5":11.4,"no2":0.6,"co":143.0,"o3":136.0,"so2":3.3,"mosquito_risk":0,"arthritis_risk":5,"migraine_risk":10,"frizz_risk":0,"updated_at":"2026-05-09T12:38:55.811554+05:30"},{"city":"Kota","state":"Rajasthan","latitude":25.2138,"longitude":75.8648,"temp":39.0,"humidity":20,"rain":0.0,"pressure":978.5,"uv_index":8.35,"wind_gusts":45.4,"aqi":65,"pm10":46.7,"pm2_5":17.1,"no2":1.2,"co":253.0,"o3":164.0,"so2":8.1,"mosquito_risk":0,"arthritis_risk":5,"migraine_risk":10,"frizz_risk":0,"updated_at":"2026-05-09T12:38:55.811562+05:30"},{"city":"Bikaner","state":"Rajasthan","latitude":28.0229,"longitude":73.3119,"temp":39.2,"humidity":18,"rain":0.0,"pressure":982.5,"uv_index":8.3,"wind_gusts":25.9,"aqi":93,"pm10":172.8,"pm2_5":40.2,"no2":0.6,"co":248.0,"o3":181.0,"so2":10.7,"mosquito_risk":0,"arthritis_risk":5,"migraine_risk":10,"frizz_risk":0,"updated_at":"2026-05-09T12:38:55.811569+05:30"},{"city":"Ajmer","state":"Rajasthan","latitude":26.4499,"longitude":74.6399,"temp":37.6,"humidity":19,"rain":0.0,"pressure":955.8,"uv_index":8.3,"wind_gusts":47.2,"aqi":77,"pm10":132.2,"pm2_5":30.0,"no2":0.9,"co":248.0,"o3":153.0,"so2":6.1,"mosquito_risk":0,"arthritis_risk":5,"migraine_risk":10,"frizz_risk":0,"updated_at":"2026-05-09T12:38:55.811576+05:30"},{"city":"Gwalior","state":"Madhya Pradesh","latitude":26.2183,"longitude":78.1828,"temp":34.8,"humidity":35,"rain":0.0,"pressure":983.4,"uv_index":8.1,"wind_gusts":28.8,"aqi":91,"pm10":82.9,"pm2_5":29.7,"no2":0.9,"co":306.0,"o3":184.0,"so2":9.5,"mosquito_risk":0,"arthritis_risk":5,"migraine_risk":7,"frizz_risk":1,"updated_at":"2026-05-09T12:38:55.811583+05:30"},{"city":"Indore","state":"Madhya Pradesh","latitude":22.7196,"longitude":75.8577,"temp":39.8,"humidity":10,"rain":0.0,"pressure":949.0,"uv_index":8.65,"wind_gusts":50.4,"aqi":71,"pm10":59.8,"pm2_5":11.8,"no2":0.9,"co":176.0,"o3":141.0,"so2":3.3,"mosquito_risk":0,"arthritis_risk":5,"migraine_risk":10,"frizz_risk":0,"updated_at":"2026-05-09T12:38:55.811591+05:30"},{"city":"Bhopal","state":"Madhya Pradesh","latitude":23.2599,"longitude":77.4126,"temp":39.5,"humidity":12,"rain":0.0,"pressure":954.1,"uv_index":8.65,"wind_gusts":45.4,"aqi":74,"pm10":58.9,"pm2_5":15.3,"no2":0.6,"co":181.0,"o3":151.0,"so2":4.5,"mosquito_risk":0,"arthritis_risk":5,"migraine_risk":10,"frizz_risk":0,"updated_at":"2026-05-09T12:38:55.811598+05:30"},{"city":"Jabalpur","state":"Madhya Pradesh","latitude":23.1815,"longitude":79.9864,"temp":39.0,"humidity":17,"rain":0.0,"pressure":961.7,"uv_index":8.8,"wind_gusts":38.2,"aqi":99,"pm10":39.2,"pm2_5":13.8,"no2":0.7,"co":193.0,"o3":161.0,"so2":5.1,"mosquito_risk":0,"arthritis_risk":5,"migraine_risk":10,"frizz_risk":0,"updated_at":"2026-05-09T12:38:55.811605+05:30"},{"city":"Ujjain","state":"Madhya Pradesh","latitude":23.1765,"longitude":75.7885,"temp":40.0,"humidity":11,"rain":0.0,"pressure":954.4,"uv_index":8.55,"wind_gusts":48.6,"aqi":71,"pm10":62.4,"pm2_5":12.0,"no2":0.8,"co":155.0,"o3":138.0,"so2":3.9,"mosquito_risk":0,"arthritis_risk":5,"migraine_risk":10,"frizz_risk":0,"updated_at":"2026-05-09T12:38:55.811612+05:30"},{"city":"Visakhapatnam","state":"Andhra Pradesh","latitude":17.6868,"longitude":83.2185,"temp":33.8,"humidity":51,"rain":0.0,"pressure":1004.0,"uv_index":9.15,"wind_gusts":35.3,"aqi":74,"pm10":22.6,"pm2_5":18.0,"no2":22.2,"co":565.0,"o3":57.0,"so2":28.3,"mosquito_risk":0,"arthritis_risk":5,"migraine_risk":4,"frizz_risk":1,"updated_at":"2026-05-09T12:38:55.811620+05:30"},{"city":"Vijayawada","state":"Andhra Pradesh","latitude":16.5062,"longitude":80.648,"temp":36.7,"humidity":37,"rain":0.0,"pressure":1002.2,"uv_index":9.2,"wind_gusts":38.9,"aqi":45,"pm10":10.3,"pm2_5":8.8,"no2":1.3,"co":155.0,"o3":97.0,"so2":4.9,"mosquito_risk":0,"arthritis_risk":5,"migraine_risk":7,"frizz_risk":1,"updated_at":"2026-05-09T12:38:55.811627+05:30"},{"city":"Guntur","state":"Andhra Pradesh","latitude":16.3067,"longitude":80.4365,"temp":37.4,"humidity":35,"rain":0.0,"pressure":1003.1,"uv_index":9.2,"wind_gusts":33.1,"aqi":44,"pm10":11.7,"pm2_5":9.7,"no2":1.2,"co":152.0,"o3":106.0,"so2":4.3,"mosquito_risk":0,"arthritis_risk":5,"migraine_risk":7,"frizz_risk":1,"updated_at":"2026-05-09T12:38:55.811633+05:30"},{"city":"Nellore","state":"Andhra Pradesh","latitude":14.4426,"longitude":79.9865,"temp":33.8,"humidity":53,"rain":0.1,"pressure":1005.4,"uv_index":9.2,"wind_gusts":40.0,"aqi":23,"pm10":5.9,"pm2_5":4.2,"no2":0.9,"co":121.0,"o3":63.0,"so2":1.9,"mosquito_risk":3,"arthritis_risk":5,"migraine_risk":4,"frizz_risk":1,"updated_at":"2026-05-09T12:38:55.811641+05:30"},{"city":"Kurnool","state":"Andhra Pradesh","latitude":15.8281,"longitude":78.0373,"temp":38.4,"humidity":24,"rain":0.0,"pressure":976.3,"uv_index":9.15,"wind_gusts":38.5,"aqi":30,"pm10":10.9,"pm2_5":7.5,"no2":0.7,"co":184.0,"o3":109.0,"so2":1.2,"mosquito_risk":0,"arthritis_risk":5,"migraine_risk":10,"frizz_risk":0,"updated_at":"2026-05-09T12:38:55.811647+05:30"},{"city":"Kakinada","state":"Andhra Pradesh","latitude":16.9891,"longitude":82.2475,"temp":32.5,"humidity":58,"rain":0.0,"pressure":1007.7,"uv_index":9.15,"wind_gusts":36.4,"aqi":28,"pm10":12.2,"pm2_5":8.9,"no2":2.7,"co":132.0,"o3":79.0,"so2":3.2,"mosquito_risk":0,"arthritis_risk":5,"migraine_risk":4,"frizz_risk":1,"updated_at":"2026-05-09T12:38:55.811653+05:30"},{"city":"Tirupati","state":"Andhra Pradesh","latitude":13.6288,"longitude":79.4192,"temp":35.0,"humidity":43,"rain":0.0,"pressure":990.0,"uv_index":7.35,"wind_gusts":39.2,"aqi":31,"pm10":4.3,"pm2_5":3.2,"no2":0.7,"co":134.0,"o3":67.0,"so2":0.8,"mosquito_risk":0,"arthritis_risk":5,"migraine_risk":7,"frizz_risk":1,"updated_at":"2026-05-09T12:38:55.811659+05:30"},{"city":"Warangal","state":"Telangana","latitude":17.9689,"longitude":79.5941,"temp":36.0,"humidity":35,"rain":0.0,"pressure":979.7,"uv_index":9.15,"wind_gusts":32.4,"aqi":52,"pm10":18.2,"pm2_5":14.0,"no2":1.4,"co":224.0,"o3":141.0,"so2":6.6,"mosquito_risk":0,"arthritis_risk":5,"migraine_risk":10,"frizz_risk":1,"updated_at":"2026-05-09T12:38:55.811665+05:30"},{"city":"Nizamabad","state":"Telangana","latitude":18.6725,"longitude":78.0941,"temp":36.5,"humidity":29,"rain":0.0,"pressure":965.7,"uv_index":9.15,"wind_gusts":35.6,"aqi":66,"pm10":25.3,"pm2_5":15.2,"no2":1.1,"co":212.0,"o3":162.0,"so2":2.9,"mosquito_risk":0,"arthritis_risk":5,"migraine_risk":10,"frizz_risk":0,"updated_at":"2026-05-09T12:38:55.811670+05:30"},{"city":"Mysore","state":"Karnataka","latitude":12.2958,"longitude":76.6396,"temp":31.4,"humidity":47,"rain":0.0,"pressure":928.0,"uv_index":9.4,"wind_gusts":38.9,"aqi":58,"pm10":10.4,"pm2_5":9.2,"no2":1.7,"co":179.0,"o3":103.0,"so2":4.7,"mosquito_risk":0,"arthritis_risk":5,"migraine_risk":7,"frizz_risk":1,"updated_at":"2026-05-09T12:38:55.811676+05:30"},{"city":"Mangalore","state":"Karnataka","latitude":12.9141,"longitude":74.856,"temp":30.6,"humidity":75,"rain":0.0,"pressure":1005.3,"uv_index":7.9,"wind_gusts":38.2,"aqi":86,"pm10":34.6,"pm2_5":25.9,"no2":1.8,"co":236.0,"o3":146.0,"so2":3.5,"mosquito_risk":3,"arthritis_risk":5,"migraine_risk":4,"frizz_risk":1,"updated_at":"2026-05-09T12:38:55.811683+05:30"},{"city":"Hubli-Dharwad","state":"Karnataka","latitude":15.3647,"longitude":75.124,"temp":36.5,"humidity":23,"rain":0.0,"pressure":941.1,"uv_index":9.2,"wind_gusts":43.6,"aqi":53,"pm10":14.3,"pm2_5":10.1,"no2":1.4,"co":184.0,"o3":141.0,"so2":2.9,"mosquito_risk":0,"arthritis_risk":5,"migraine_risk":10,"frizz_risk":0,"updated_at":"2026-05-09T12:38:55.811689+05:30"},{"city":"Belgaum","state":"Karnataka","latitude":15.8497,"longitude":74.4977,"temp":35.7,"humidity":25,"rain":0.0,"pressure":926.8,"uv_index":9.15,"wind_gusts":41.4,"aqi":81,"pm10":25.6,"pm2_5":17.4,"no2":1.5,"co":199.0,"o3":156.0,"so2":4.2,"mosquito_risk":0,"arthritis_risk":5,"migraine_risk":10,"frizz_risk":0,"updated_at":"2026-05-09T12:38:59.151375+05:30"},{"city":"Coimbatore","state":"Tamil Nadu","latitude":11.0168,"longitude":76.9558,"temp":31.6,"humidity":53,"rain":0.0,"pressure":960.4,"uv_index":7.75,"wind_gusts":24.8,"aqi":64,"pm10":16.2,"pm2_5":13.4,"no2":1.3,"co":181.0,"o3":117.0,"so2":5.1,"mosquito_risk":0,"arthritis_risk":5,"migraine_risk":7,"frizz_risk":1,"updated_at":"2026-05-09T12:38:59.151405+05:30"},{"city":"Madurai","state":"Tamil Nadu","latitude":9.9252,"longitude":78.1198,"temp":28.4,"humidity":73,"rain":0.0,"pressure":991.7,"uv_index":5.5,"wind_gusts":40.3,"aqi":69,"pm10":11.5,"pm2_5":10.9,"no2":2.1,"co":194.0,"o3":96.0,"so2":8.5,"mosquito_risk":7,"arthritis_risk":5,"migraine_risk":3,"frizz_risk":1,"updated_at":"2026-05-09T12:38:59.151416+05:30"},{"city":"Trichy","state":"Tamil Nadu","latitude":10.7905,"longitude":78.7047,"temp":29.5,"humidity":72,"rain":0.1,"pressure":998.6,"uv_index":3.2,"wind_gusts":33.8,"aqi":42,"pm10":10.5,"pm2_5":10.1,"no2":4.9,"co":180.0,"o3":75.0,"so2":13.2,"mosquito_risk":10,"arthritis_risk":5,"migraine_risk":3,"frizz_risk":1,"updated_at":"2026-05-09T12:38:59.151425+05:30"},{"city":"Salem","state":"Tamil Nadu","latitude":11.6643,"longitude":78.146,"temp":32.2,"humidity":55,"rain":0.0,"pressure":975.7,"uv_index":8.25,"wind_gusts":31.7,"aqi":51,"pm10":11.3,"pm2_5":10.6,"no2":3.3,"co":176.0,"o3":94.0,"so2":12.4,"mosquito_risk":0,"arthritis_risk":5,"migraine_risk":7,"frizz_risk":1,"updated_at":"2026-05-09T12:38:59.151434+05:30"},{"city":"Tirunelveli","state":"Tamil Nadu","latitude":8.7139,"longitude":77.7567,"temp":32.3,"humidity":57,"rain":0.0,"pressure":1001.8,"uv_index":4.35,"wind_gusts":25.2,"aqi":56,"pm10":12.7,"pm2_5":11.7,"no2":1.4,"co":165.0,"o3":95.0,"so2":4.7,"mosquito_risk":0,"arthritis_risk":5,"migraine_risk":0,"frizz_risk":1,"updated_at":"2026-05-09T12:38:59.151442+05:30"},{"city":"Vellore","state":"Tamil Nadu","latitude":12.9165,"longitude":79.1325,"temp":34.0,"humidity":47,"rain":0.0,"pressure":983.1,"uv_index":6.85,"wind_gusts":48.2,"aqi":48,"pm10":8.0,"pm2_5":7.5,"no2":1.9,"co":135.0,"o3":83.0,"so2":5.3,"mosquito_risk":0,"arthritis_risk":5,"migraine_risk":7,"frizz_risk":1,"updated_at":"2026-05-09T12:38:59.151450+05:30"},{"city":"Erode","state":"Tamil Nadu","latitude":11.341,"longitude":77.7172,"temp":32.3,"humidity":55,"rain":0.0,"pressure":987.3,"uv_index":8.1,"wind_gusts":36.4,"aqi":61,"pm10":13.9,"pm2_5":12.9,"no2":1.9,"co":189.0,"o3":121.0,"so2":8.5,"mosquito_risk":0,"arthritis_risk":5,"migraine_risk":7,"frizz_risk":1,"updated_at":"2026-05-09T12:38:59.151458+05:30"},{"city":"Kochi","state":"Kerala","latitude":9.9312,"longitude":76.2673,"temp":29.6,"humidity":74,"rain":0.0,"pressure":1007.0,"uv_index":8.1,"wind_gusts":32.0,"aqi":75,"pm10":18.3,"pm2_5":17.1,"no2":1.9,"co":257.0,"o3":168.0,"so2":3.2,"mosquito_risk":7,"arthritis_risk":5,"migraine_risk":4,"frizz_risk":1,"updated_at":"2026-05-09T12:38:59.151466+05:30"},{"city":"Thiruvananthapuram","state":"Kerala","latitude":8.5241,"longitude":76.9366,"temp":25.2,"humidity":92,"rain":0.0,"pressure":1007.3,"uv_index":4.85,"wind_gusts":28.4,"aqi":49,"pm10":8.4,"pm2_5":6.7,"no2":1.0,"co":227.0,"o3":127.0,"so2":1.2,"mosquito_risk":7,"arthritis_risk":5,"migraine_risk":0,"frizz_risk":1,"updated_at":"2026-05-09T12:38:59.151474+05:30"},{"city":"Kozhikode","state":"Kerala","latitude":11.2588,"longitude":75.7804,"temp":30.6,"humidity":75,"rain":0.0,"pressure":1005.9,"uv_index":8.3,"wind_gusts":37.4,"aqi":66,"pm10":16.6,"pm2_5":14.5,"no2":0.8,"co":289.0,"o3":132.0,"so2":2.6,"mosquito_risk":3,"arthritis_risk":5,"migraine_risk":4,"frizz_risk":1,"updated_at":"2026-05-09T12:38:59.151481+05:30"},{"city":"Thrissur","state":"Kerala","latitude":10.5276,"longitude":76.2144,"temp":31.4,"humidity":68,"rain":0.0,"pressure":1005.0,"uv_index":8.15,"wind_gusts":34.6,"aqi":78,"pm10":20.3,"pm2_5":18.7,"no2":1.4,"co":223.0,"o3":140.0,"so2":4.8,"mosquito_risk":3,"arthritis_risk":5,"migraine_risk":4,"frizz_risk":1,"updated_at":"2026-05-09T12:38:59.151489+05:30"},{"city":"Kannur","state":"Kerala","latitude":11.8745,"longitude":75.3704,"temp":31.1,"humidity":68,"rain":0.0,"pressure":1005.4,"uv_index":8.65,"wind_gusts":39.2,"aqi":73,"pm10":18.3,"pm2_5":13.9,"no2":1.2,"co":276.0,"o3":122.0,"so2":1.7,"mosquito_risk":3,"arthritis_risk":5,"migraine_risk":4,"frizz_risk":1,"updated_at":"2026-05-09T12:38:59.151497+05:30"},{"city":"Patna","state":"Bihar","latitude":25.5941,"longitude":85.1376,"temp":31.2,"humidity":54,"rain":0.0,"pressure":1002.3,"uv_index":8.4,"wind_gusts":32.0,"aqi":137,"pm10":59.4,"pm2_5":49.2,"no2":2.5,"co":371.0,"o3":220.0,"so2":24.8,"mosquito_risk":0,"arthritis_risk":5,"migraine_risk":4,"frizz_risk":1,"updated_at":"2026-05-09T12:38:59.151504+05:30"},{"city":"Gaya","state":"Bihar","latitude":24.7914,"longitude":85.0002,"temp":33.7,"humidity":40,"rain":0.0,"pressure":995.0,"uv_index":8.5,"wind_gusts":33.5,"aqi":122,"pm10":59.8,"pm2_5":42.4,"no2":2.4,"co":342.0,"o3":231.0,"so2":27.6,"mosquito_risk":0,"arthritis_risk":5,"migraine_risk":7,"frizz_risk":1,"updated_at":"2026-05-09T12:38:59.151511+05:30"},{"city":"Muzaffarpur","state":"Bihar","latitude":26.1209,"longitude":85.3647,"temp":30.5,"humidity":55,"rain":0.0,"pressure":1002.9,"uv_index":8.65,"wind_gusts":34.9,"aqi":146,"pm10":58.7,"pm2_5":48.7,"no2":2.3,"co":330.0,"o3":210.0,"so2":19.5,"mosquito_risk":0,"arthritis_risk":5,"migraine_risk":4,"frizz_risk":1,"updated_at":"2026-05-09T12:38:59.151518+05:30"},{"city":"Bhagalpur","state":"Bihar","latitude":25.2425,"longitude":87.0117,"temp":32.2,"humidity":51,"rain":0.0,"pressure":1003.3,"uv_index":8.7,"wind_gusts":30.6,"aqi":150,"pm10":53.1,"pm2_5":42.8,"no2":3.2,"co":352.0,"o3":214.0,"so2":10.2,"mosquito_risk":0,"arthritis_risk":5,"migraine_risk":4,"frizz_risk":1,"updated_at":"2026-05-09T12:38:59.151525+05:30"},{"city":"Ranchi","state":"Jharkhand","latitude":23.3441,"longitude":85.3096,"temp":31.2,"humidity":36,"rain":0.0,"pressure":939.9,"uv_index":9.2,"wind_gusts":29.2,"aqi":114,"pm10":48.7,"pm2_5":27.5,"no2":1.6,"co":229.0,"o3":199.0,"so2":21.3,"mosquito_risk":0,"arthritis_risk":5,"migraine_risk":7,"frizz_risk":0,"updated_at":"2026-05-09T12:38:59.151533+05:30"},{"city":"Jamshedpur","state":"Jharkhand","latitude":22.8046,"longitude":86.2029,"temp":33.2,"humidity":45,"rain":0.0,"pressure":992.5,"uv_index":8.85,"wind_gusts":31.7,"aqi":88,"pm10":44.1,"pm2_5":33.1,"no2":2.6,"co":432.0,"o3":210.0,"so2":24.0,"mosquito_risk":0,"arthritis_risk":5,"migraine_risk":7,"frizz_risk":1,"updated_at":"2026-05-09T12:38:59.151540+05:30"},{"city":"Dhanbad","state":"Jharkhand","latitude":23.7957,"longitude":86.4304,"temp":31.9,"humidity":50,"rain":0.0,"pressure":981.9,"uv_index":8.95,"wind_gusts":35.6,"aqi":145,"pm10":60.5,"pm2_5":51.9,"no2":23.7,"co":299.0,"o3":193.0,"so2":69.9,"mosquito_risk":0,"arthritis_risk":5,"migraine_risk":7,"frizz_risk":1,"updated_at":"2026-05-09T12:38:59.151548+05:30"},{"city":"Bokaro","state":"Jharkhand","latitude":23.6693,"longitude":86.1511,"temp":33.3,"humidity":43,"rain":0.0,"pressure":985.4,"uv_index":8.95,"wind_gusts":38.2,"aqi":142,"pm10":56.6,"pm2_5":45.6,"no2":17.9,"co":1360.0,"o3":214.0,"so2":62.1,"mosquito_risk":0,"arthritis_risk":5,"migraine_risk":7,"frizz_risk":1,"updated_at":"2026-05-09T12:38:59.151555+05:30"},{"city":"Bhubaneswar","state":"Odisha","latitude":20.2961,"longitude":85.8245,"temp":34.3,"humidity":49,"rain":0.0,"pressure":1003.7,"uv_index":9.1,"wind_gusts":31.7,"aqi":46,"pm10":15.3,"pm2_5":10.1,"no2":1.3,"co":194.0,"o3":118.0,"so2":4.2,"mosquito_risk":0,"arthritis_risk":5,"migraine_risk":4,"frizz_risk":1,"updated_at":"2026-05-09T12:38:59.151562+05:30"},{"city":"Cuttack","state":"Odisha","latitude":20.4625,"longitude":85.8828,"temp":34.5,"humidity":49,"rain":0.0,"pressure":1005.4,"uv_index":9.15,"wind_gusts":43.2,"aqi":46,"pm10":15.3,"pm2_5":10.1,"no2":1.3,"co":212.0,"o3":118.0,"so2":4.2,"mosquito_risk":0,"arthritis_risk":5,"migraine_risk":4,"frizz_risk":1,"updated_at":"2026-05-09T12:38:59.151569+05:30"},{"city":"Rourkela","state":"Odisha","latitude":22.2604,"longitude":84.8536,"temp":34.6,"humidity":38,"rain":0.0,"pressure":986.4,"uv_index":8.9,"wind_gusts":49.3,"aqi":100,"pm10":39.0,"pm2_5":25.4,"no2":1.6,"co":228.0,"o3":197.0,"so2":29.0,"mosquito_risk":0,"arthritis_risk":5,"migraine_risk":7,"frizz_risk":1,"updated_at":"2026-05-09T12:38:59.151576+05:30"},{"city":"Raipur","state":"Chhattisgarh","latitude":21.2514,"longitude":81.6296,"temp":37.5,"humidity":21,"rain":0.0,"pressure":975.4,"uv_index":8.95,"wind_gusts":60.5,"aqi":112,"pm10":29.8,"pm2_5":17.5,"no2":3.4,"co":448.0,"o3":198.0,"so2":4.1,"mosquito_risk":0,"arthritis_risk":5,"migraine_risk":10,"frizz_risk":0,"updated_at":"2026-05-09T12:38:59.151584+05:30"},{"city":"Bhilai","state":"Chhattisgarh","latitude":21.1938,"longitude":81.3509,"temp":36.2,"humidity":27,"rain":0.0,"pressure":976.1,"uv_index":8.95,"wind_gusts":42.8,"aqi":110,"pm10":32.4,"pm2_5":17.2,"no2":3.9,"co":477.0,"o3":181.0,"so2":4.2,"mosquito_risk":0,"arthritis_risk":5,"migraine_risk":10,"frizz_risk":0,"updated_at":"2026-05-09T12:38:59.151591+05:30"},{"city":"Guwahati","state":"Assam","latitude":26.1158,"longitude":91.7086,"temp":30.8,"humidity":58,"rain":0.0,"pressure":1002.7,"uv_index":8.65,"wind_gusts":25.2,"aqi":111,"pm10":34.7,"pm2_5":22.6,"no2":0.7,"co":328.0,"o3":145.0,"so2":1.7,"mosquito_risk":0,"arthritis_risk":5,"migraine_risk":4,"frizz_risk":1,"updated_at":"2026-05-09T12:38:59.151598+05:30"},{"city":"Agartala","state":"Tripura","latitude":23.8315,"longitude":91.2868,"temp":32.0,"humidity":52,"rain":0.0,"pressure":1006.9,"uv_index":8.8,"wind_gusts":20.2,"aqi":152,"pm10":55.8,"pm2_5":40.3,"no2":3.8,"co":341.0,"o3":221.0,"so2":5.1,"mosquito_risk":0,"arthritis_risk":5,"migraine_risk":4,"frizz_risk":1,"updated_at":"2026-05-09T12:38:59.151605+05:30"},{"city":"Shillong","state":"Meghalaya","latitude":25.5788,"longitude":91.8933,"temp":22.7,"humidity":55,"rain":0.1,"pressure":859.9,"uv_index":8.4,"wind_gusts":24.5,"aqi":76,"pm10":33.1,"pm2_5":21.0,"no2":0.9,"co":250.0,"o3":141.0,"so2":1.6,"mosquito_risk":3,"arthritis_risk":5,"migraine_risk":7,"frizz_risk":0,"updated_at":"2026-05-09T12:38:59.151612+05:30"},{"city":"Imphal","state":"Manipur","latitude":24.817,"longitude":93.9368,"temp":28.5,"humidity":48,"rain":0.0,"pressure":925.1,"uv_index":9.2,"wind_gusts":28.1,"aqi":93,"pm10":31.5,"pm2_5":16.8,"no2":0.6,"co":217.0,"o3":143.0,"so2":2.2,"mosquito_risk":4,"arthritis_risk":5,"migraine_risk":7,"frizz_risk":1,"updated_at":"2026-05-09T12:38:59.151619+05:30"},{"city":"Aizawl","state":"Mizoram","latitude":23.7271,"longitude":92.7176,"temp":28.3,"humidity":35,"rain":0.0,"pressure":894.8,"uv_index":9.0,"wind_gusts":24.8,"aqi":78,"pm10":44.9,"pm2_5":18.3,"no2":0.4,"co":226.0,"o3":144.0,"so2":2.4,"mosquito_risk":4,"arthritis_risk":5,"migraine_risk":7,"frizz_risk":0,"updated_at":"2026-05-09T12:38:59.151626+05:30"},{"city":"Kohima","state":"Nagaland","latitude":25.6701,"longitude":94.1077,"temp":24.5,"humidity":58,"rain":0.0,"pressure":858.4,"uv_index":9.15,"wind_gusts":28.8,"aqi":78,"pm10":28.1,"pm2_5":17.5,"no2":0.6,"co":243.0,"o3":141.0,"so2":1.4,"mosquito_risk":0,"arthritis_risk":5,"migraine_risk":7,"frizz_risk":0,"updated_at":"2026-05-09T12:38:59.151632+05:30"},{"city":"Gangtok","state":"Sikkim","latitude":27.3314,"longitude":88.6138,"temp":18.6,"humidity":59,"rain":0.0,"pressure":840.4,"uv_index":8.95,"wind_gusts":35.3,"aqi":70,"pm10":23.5,"pm2_5":13.0,"no2":0.3,"co":203.0,"o3":135.0,"so2":1.0,"mosquito_risk":0,"arthritis_risk":5,"migraine_risk":7,"frizz_risk":0,"updated_at":"2026-05-09T12:38:59.151638+05:30"},{"city":"Siliguri","state":"West Bengal","latitude":26.7271,"longitude":88.3953,"temp":29.4,"humidity":56,"rain":0.0,"pressure":995.4,"uv_index":8.55,"wind_gusts":26.3,"aqi":119,"pm10":34.7,"pm2_5":21.2,"no2":0.6,"co":265.0,"o3":153.0,"so2":1.6,"mosquito_risk":4,"arthritis_risk":5,"migraine_risk":7,"frizz_risk":1,"updated_at":"2026-05-09T12:39:02.514783+05:30"},{"city":"Durgapur","state":"West Bengal","latitude":23.5204,"longitude":87.3119,"temp":30.8,"humidity":63,"rain":0.0,"pressure":997.1,"uv_index":8.9,"wind_gusts":42.8,"aqi":141,"pm10":45.8,"pm2_5":38.9,"no2":13.5,"co":236.0,"o3":170.0,"so2":45.7,"mosquito_risk":3,"arthritis_risk":5,"migraine_risk":7,"frizz_risk":1,"updated_at":"2026-05-09T12:39:02.514815+05:30"},{"city":"Asansol","state":"West Bengal","latitude":23.6739,"longitude":86.9524,"temp":31.6,"humidity":57,"rain":0.0,"pressure":995.5,"uv_index":8.95,"wind_gusts":47.2,"aqi":128,"pm10":47.4,"pm2_5":40.3,"no2":13.7,"co":531.0,"o3":172.0,"so2":48.1,"mosquito_risk":0,"arthritis_risk":5,"migraine_risk":7,"frizz_risk":1,"updated_at":"2026-05-09T12:39:02.514825+05:30"},{"city":"Pondicherry","state":"Puducherry","latitude":11.9139,"longitude":79.8145,"temp":27.7,"humidity":83,"rain":0.1,"pressure":1007.5,"uv_index":3.25,"wind_gusts":38.2,"aqi":25,"pm10":4.9,"pm2_5":3.6,"no2":1.4,"co":122.0,"o3":64.0,"so2":0.7,"mosquito_risk":10,"arthritis_risk":5,"migraine_risk":0,"frizz_risk":1,"updated_at":"2026-05-09T12:39:02.514834+05:30"},{"city":"Port Blair","state":"Andaman and Nicobar Islands","latitude":11.6234,"longitude":92.7265,"temp":27.0,"humidity":86,"rain":0.1,"pressure":1006.2,"uv_index":8.1,"wind_gusts":43.6,"aqi":28,"pm10":3.3,"pm2_5":2.3,"no2":0.3,"co":126.0,"o3":58.0,"so2":0.1,"mosquito_risk":10,"arthritis_risk":5,"migraine_risk":4,"frizz_risk":1,"updated_at":"2026-05-09T12:39:02.514842+05:30"},{"city":"Haridwar","state":"Uttarakhand","latitude":29.9457,"longitude":78.1642,"temp":32.2,"humidity":39,"rain":0.0,"pressure":976.6,"uv_index":7.4,"wind_gusts":28.1,"aqi":86,"pm10":45.3,"pm2_5":20.5,"no2":1.1,"co":257.0,"o3":189.0,"so2":7.7,"mosquito_risk":0,"arthritis_risk":5,"migraine_risk":7,"frizz_risk":1,"updated_at":"2026-05-09T12:39:02.514883+05:30"},{"city":"Rishikesh","state":"Uttarakhand","latitude":30.0869,"longitude":78.2676,"temp":30.5,"humidity":41,"rain":0.0,"pressure":969.5,"uv_index":7.5,"wind_gusts":26.6,"aqi":69,"pm10":35.6,"pm2_5":16.8,"no2":0.9,"co":248.0,"o3":179.0,"so2":5.0,"mosquito_risk":0,"arthritis_risk":5,"migraine_risk":7,"frizz_risk":0,"updated_at":"2026-05-09T12:39:02.514900+05:30"},{"city":"Nainital","state":"Uttarakhand","latitude":29.3919,"longitude":79.4542,"temp":18.1,"humidity":63,"rain":0.1,"pressure":809.3,"uv_index":7.95,"wind_gusts":30.2,"aqi":64,"pm10":31.2,"pm2_5":13.4,"no2":0.8,"co":250.0,"o3":154.0,"so2":2.2,"mosquito_risk":6,"arthritis_risk":5,"migraine_risk":7,"frizz_risk":0,"updated_at":"2026-05-09T12:39:02.514909+05:30"},{"city":"Mussoorie","state":"Uttarakhand","latitude":30.4599,"longitude":78.0664,"temp":18.8,"humidity":57,"rain":0.0,"pressure":806.9,"uv_index":7.85,"wind_gusts":40.0,"aqi":76,"pm10":40.3,"pm2_5":17.7,"no2":1.2,"co":231.0,"o3":176.0,"so2":4.7,"mosquito_risk":0,"arthritis_risk":5,"migraine_risk":7,"frizz_risk":0,"updated_at":"2026-05-09T12:39:02.514917+05:30"},{"city":"Dharamshala","state":"Himachal Pradesh","latitude":32.219,"longitude":76.3234,"temp":22.5,"humidity":65,"rain":0.0,"pressure":872.7,"uv_index":8.25,"wind_gusts":37.4,"aqi":67,"pm10":59.0,"pm2_5":21.8,"no2":0.6,"co":259.0,"o3":163.0,"so2":3.2,"mosquito_risk":3,"arthritis_risk":5,"migraine_risk":7,"frizz_risk":0,"updated_at":"2026-05-09T12:39:02.514925+05:30"},{"city":"Dalhousie","state":"Himachal Pradesh","latitude":32.5387,"longitude":75.971,"temp":20.6,"humidity":57,"rain":0.0,"pressure":809.2,"uv_index":8.55,"wind_gusts":34.6,"aqi":118,"pm10":104.5,"pm2_5":40.2,"no2":1.1,"co":260.0,"o3":194.0,"so2":8.2,"mosquito_risk":0,"arthritis_risk":5,"migraine_risk":7,"frizz_risk":0,"updated_at":"2026-05-09T12:39:02.514934+05:30"},{"city":"Patiala","state":"Punjab","latitude":30.3398,"longitude":76.3869,"temp":34.6,"humidity":31,"rain":0.0,"pressure":980.3,"uv_index":7.5,"wind_gusts":29.2,"aqi":242,"pm10":597.9,"pm2_5":82.0,"no2":2.1,"co":259.0,"o3":217.0,"so2":18.6,"mosquito_risk":0,"arthritis_risk":5,"migraine_risk":7,"frizz_risk":0,"updated_at":"2026-05-09T12:39:02.514942+05:30"},{"city":"Bhatinda","state":"Punjab","latitude":30.211,"longitude":74.9455,"temp":37.0,"humidity":28,"rain":0.0,"pressure":985.3,"uv_index":8.2,"wind_gusts":25.6,"aqi":564,"pm10":532.7,"pm2_5":94.5,"no2":2.4,"co":272.0,"o3":208.0,"so2":23.5,"mosquito_risk":0,"arthritis_risk":5,"migraine_risk":10,"frizz_risk":0,"updated_at":"2026-05-09T12:39:02.514949+05:30"},{"city":"Rohtak","state":"Haryana","latitude":28.8955,"longitude":76.6066,"temp":35.5,"humidity":29,"rain":0.0,"pressure":983.4,"uv_index":7.6,"wind_gusts":27.0,"aqi":466,"pm10":549.5,"pm2_5":85.7,"no2":2.6,"co":341.0,"o3":229.0,"so2":22.9,"mosquito_risk":0,"arthritis_risk":5,"migraine_risk":10,"frizz_risk":0,"updated_at":"2026-05-09T12:39:02.514957+05:30"},{"city":"Panipat","state":"Haryana","latitude":29.3909,"longitude":76.9635,"temp":33.9,"humidity":35,"rain":0.0,"pressure":982.5,"uv_index":7.45,"wind_gusts":31.0,"aqi":665,"pm10":566.2,"pm2_5":86.4,"no2":3.9,"co":301.0,"o3":229.0,"so2":30.6,"mosquito_risk":0,"arthritis_risk":5,"migraine_risk":7,"frizz_risk":1,"updated_at":"2026-05-09T12:39:02.514964+05:30"},{"city":"Mathura","state":"Uttar Pradesh","latitude":27.4924,"longitude":77.6737,"temp":34.8,"humidity":34,"rain":0.0,"pressure":987.9,"uv_index":7.85,"wind_gusts":27.0,"aqi":772,"pm10":501.1,"pm2_5":63.1,"no2":1.2,"co":313.0,"o3":187.0,"so2":7.7,"mosquito_risk":0,"arthritis_risk":5,"migraine_risk":7,"frizz_risk":1,"updated_at":"2026-05-09T12:39:02.514971+05:30"},{"city":"Vrindavan","state":"Uttar Pradesh","latitude":27.5823,"longitude":77.7027,"temp":35.1,"humidity":32,"rain":0.0,"pressure":988.4,"uv_index":7.8,"wind_gusts":27.4,"aqi":772,"pm10":501.1,"pm2_5":63.1,"no2":1.2,"co":313.0,"o3":187.0,"so2":7.7,"mosquito_risk":0,"arthritis_risk":5,"migraine_risk":10,"frizz_risk":0,"updated_at":"2026-05-09T12:39:02.514979+05:30"},{"city":"Ayodhya","state":"Uttar Pradesh","latitude":26.7922,"longitude":82.1998,"temp":29.6,"humidity":56,"rain":0.0,"pressure":997.8,"uv_index":8.15,"wind_gusts":38.9,"aqi":88,"pm10":61.2,"pm2_5":36.0,"no2":1.2,"co":345.0,"o3":190.0,"so2":9.3,"mosquito_risk":4,"arthritis_risk":5,"migraine_risk":7,"frizz_risk":1,"updated_at":"2026-05-09T12:39:02.514986+05:30"},{"city":"Ratlam","state":"Madhya Pradesh","latitude":23.3315,"longitude":75.0367,"temp":39.7,"humidity":12,"rain":0.0,"pressure":955.8,"uv_index":8.5,"wind_gusts":40.7,"aqi":57,"pm10":65.7,"pm2_5":11.9,"no2":0.6,"co":147.0,"o3":136.0,"so2":3.2,"mosquito_risk":0,"arthritis_risk":5,"migraine_risk":10,"frizz_risk":0,"updated_at":"2026-05-09T12:39:02.514993+05:30"},{"city":"Sagar","state":"Madhya Pradesh","latitude":23.8388,"longitude":78.7378,"temp":38.2,"humidity":15,"rain":0.0,"pressure":950.7,"uv_index":8.6,"wind_gusts":44.6,"aqi":93,"pm10":30.0,"pm2_5":10.7,"no2":0.5,"co":171.0,"o3":153.0,"so2":5.3,"mosquito_risk":0,"arthritis_risk":5,"migraine_risk":10,"frizz_risk":0,"updated_at":"2026-05-09T12:39:02.515000+05:30"},{"city":"Satna","state":"Madhya Pradesh","latitude":24.6005,"longitude":80.8322,"temp":35.3,"humidity":23,"rain":0.0,"pressure":971.9,"uv_index":8.65,"wind_gusts":38.5,"aqi":106,"pm10":58.7,"pm2_5":25.3,"no2":1.4,"co":221.0,"o3":193.0,"so2":11.4,"mosquito_risk":0,"arthritis_risk":5,"migraine_risk":10,"frizz_risk":0,"updated_at":"2026-05-09T12:39:02.515007+05:30"},{"city":"Akola","state":"Maharashtra","latitude":20.7002,"longitude":77.0082,"temp":40.3,"humidity":18,"rain":0.0,"pressure":974.8,"uv_index":8.85,"wind_gusts":38.2,"aqi":77,"pm10":57.9,"pm2_5":26.3,"no2":1.3,"co":213.0,"o3":178.0,"so2":11.7,"mosquito_risk":0,"arthritis_risk":5,"migraine_risk":10,"frizz_risk":0,"updated_at":"2026-05-09T12:39:02.515014+05:30"},{"city":"Amravati","state":"Maharashtra","latitude":20.9374,"longitude":77.7796,"temp":39.0,"humidity":22,"rain":0.0,"pressure":967.7,"uv_index":8.85,"wind_gusts":34.6,"aqi":79,"pm10":52.9,"pm2_5":23.5,"no2":1.5,"co":214.0,"o3":177.0,"so2":6.5,"mosquito_risk":0,"arthritis_risk":5,"migraine_risk":10,"frizz_risk":0,"updated_at":"2026-05-09T12:39:02.515021+05:30"},{"city":"Latur","state":"Maharashtra","latitude":18.4088,"longitude":76.5604,"temp":37.0,"humidity":24,"rain":0.0,"pressure":941.2,"uv_index":9.05,"wind_gusts":46.8,"aqi":73,"pm10":34.2,"pm2_5":20.7,"no2":0.9,"co":209.0,"o3":166.0,"so2":6.4,"mosquito_risk":0,"arthritis_risk":5,"migraine_risk":10,"frizz_risk":0,"updated_at":"2026-05-09T12:39:02.515027+05:30"},{"city":"Nanded","state":"Maharashtra","latitude":19.1383,"longitude":77.3091,"temp":38.5,"humidity":23,"rain":0.0,"pressure":969.1,"uv_index":9.0,"wind_gusts":31.3,"aqi":72,"pm10":32.8,"pm2_5":19.7,"no2":0.9,"co":216.0,"o3":169.0,"so2":4.7,"mosquito_risk":0,"arthritis_risk":5,"migraine_risk":10,"frizz_risk":0,"updated_at":"2026-05-09T12:39:02.515033+05:30"},{"city":"Gulbarga","state":"Karnataka","latitude":17.3297,"longitude":76.8343,"temp":37.0,"humidity":26,"rain":0.0,"pressure":959.5,"uv_index":8.8,"wind_gusts":34.6,"aqi":58,"pm10":19.1,"pm2_5":12.3,"no2":1.4,"co":207.0,"o3":156.0,"so2":4.2,"mosquito_risk":0,"arthritis_risk":5,"migraine_risk":10,"frizz_risk":0,"updated_at":"2026-05-09T12:39:02.515039+05:30"},{"city":"Bidar","state":"Karnataka","latitude":17.9104,"longitude":77.5199,"temp":35.8,"humidity":27,"rain":0.0,"pressure":937.1,"uv_index":8.85,"wind_gusts":34.6,"aqi":63,"pm10":22.3,"pm2_5":13.3,"no2":1.1,"co":206.0,"o3":157.0,"so2":2.6,"mosquito_risk":0,"arthritis_risk":5,"migraine_risk":10,"frizz_risk":0,"updated_at":"2026-05-09T12:39:02.515045+05:30"},{"city":"Hospet","state":"Karnataka","latitude":15.2689,"longitude":76.3909,"temp":35.2,"humidity":30,"rain":0.0,"pressure":955.6,"uv_index":9.2,"wind_gusts":36.0,"aqi":46,"pm10":12.8,"pm2_5":9.8,"no2":4.2,"co":182.0,"o3":122.0,"so2":8.6,"mosquito_risk":0,"arthritis_risk":5,"migraine_risk":10,"frizz_risk":0,"updated_at":"2026-05-09T12:39:02.515051+05:30"},{"city":"Tirupur","state":"Tamil Nadu","latitude":11.1085,"longitude":77.3411,"temp":32.8,"humidity":52,"rain":0.1,"pressure":973.9,"uv_index":8.05,"wind_gusts":29.9,"aqi":79,"pm10":16.0,"pm2_5":14.1,"no2":1.6,"co":175.0,"o3":126.0,"so2":6.4,"mosquito_risk":3,"arthritis_risk":5,"migraine_risk":7,"frizz_risk":1,"updated_at":"2026-05-09T12:39:02.515057+05:30"},{"city":"Alappuzha","state":"Kerala","latitude":9.4981,"longitude":76.3388,"temp":27.4,"humidity":87,"rain":0.0,"pressure":1007.8,"uv_index":8.15,"wind_gusts":31.0,"aqi":71,"pm10":14.7,"pm2_5":13.7,"no2":2.1,"co":204.0,"o3":154.0,"so2":4.9,"mosquito_risk":7,"arthritis_risk":5,"migraine_risk":4,"frizz_risk":1,"updated_at":"2026-05-09T12:39:02.515063+05:30"},{"city":"Munnar","state":"Kerala","latitude":10.0889,"longitude":77.0595,"temp":21.3,"humidity":83,"rain":0.1,"pressure":856.7,"uv_index":4.95,"wind_gusts":24.1,"aqi":52,"pm10":11.5,"pm2_5":10.0,"no2":1.1,"co":163.0,"o3":97.0,"so2":2.5,"mosquito_risk":6,"arthritis_risk":5,"migraine_risk":3,"frizz_risk":1,"updated_at":"2026-05-09T12:39:02.515069+05:30"},{"city":"Silchar","state":"Assam","latitude":24.8333,"longitude":92.7789,"temp":33.4,"humidity":43,"rain":0.0,"pressure":1004.8,"uv_index":8.7,"wind_gusts":16.9,"aqi":121,"pm10":46.4,"pm2_5":24.9,"no2":0.9,"co":267.0,"o3":160.0,"so2":4.3,"mosquito_risk":0,"arthritis_risk":5,"migraine_risk":4,"frizz_risk":1,"updated_at":"2026-05-09T12:39:02.515074+05:30"},{"city":"Dibrugarh","state":"Assam","latitude":27.4728,"longitude":94.912,"temp":31.4,"humidity":55,"rain":0.0,"pressure":996.7,"uv_index":8.7,"wind_gusts":19.4,"aqi":101,"pm10":31.8,"pm2_5":22.1,"no2":1.1,"co":246.0,"o3":159.0,"so2":1.9,"mosquito_risk":0,"arthritis_risk":5,"migraine_risk":7,"frizz_risk":1,"updated_at":"2026-05-09T12:39:02.515080+05:30"}]