[{"city":"Delhi","state":"Delhi","latitude":28.6139,"longitude":77.209,"temp":28.4,"humidity":37,"rain":0.0,"pressure":987.7,"uv_index":7.05,"wind_gusts":23.8,"aqi":130,"pm10":170.9,"pm2_5":39.5,"mosquito_risk":4,"arthritis_risk":5,"migraine_risk":7,"frizz_risk":0,"updated_at":"2026-04-09T14:42:42.797551+05:30"},{"city":"Mumbai","state":"Maharashtra","latitude":19.076,"longitude":72.8777,"temp":28.1,"humidity":75,"rain":0.0,"pressure":1009.9,"uv_index":7.95,"wind_gusts":19.1,"aqi":80,"pm10":131.3,"pm2_5":38.9,"mosquito_risk":7,"arthritis_risk":0,"migraine_risk":4,"frizz_risk":1,"updated_at":"2026-04-09T14:42:42.797604+05:30"},{"city":"Bangalore","state":"Karnataka","latitude":12.9716,"longitude":77.5946,"temp":33.7,"humidity":31,"rain":0.0,"pressure":912.4,"uv_index":9.6,"wind_gusts":27.4,"aqi":92,"pm10":24.0,"pm2_5":15.4,"mosquito_risk":0,"arthritis_risk":5,"migraine_risk":7,"frizz_risk":0,"updated_at":"2026-04-09T14:42:42.797620+05:30"},{"city":"Hyderabad","state":"Telangana","latitude":17.385,"longitude":78.4867,"temp":37.9,"humidity":20,"rain":0.0,"pressure":953.1,"uv_index":9.2,"wind_gusts":27.7,"aqi":100,"pm10":48.8,"pm2_5":24.3,"mosquito_risk":0,"arthritis_risk":5,"migraine_risk":10,"frizz_risk":0,"updated_at":"2026-04-09T14:42:42.797632+05:30"},{"city":"Chennai","state":"Tamil Nadu","latitude":13.0827,"longitude":80.2707,"temp":35.5,"humidity":54,"rain":0.0,"pressure":1006.5,"uv_index":9.35,"wind_gusts":38.9,"aqi":65,"pm10":25.3,"pm2_5":20.0,"mosquito_risk":0,"arthritis_risk":5,"migraine_risk":7,"frizz_risk":1,"updated_at":"2026-04-09T14:42:42.797641+05:30"},{"city":"Kolkata","state":"West Bengal","latitude":22.5726,"longitude":88.3639,"temp":27.1,"humidity":71,"rain":0.0,"pressure":1007.4,"uv_index":8.45,"wind_gusts":14.4,"aqi":82,"pm10":66.6,"pm2_5":49.4,"mosquito_risk":7,"arthritis_risk":5,"migraine_risk":4,"frizz_risk":1,"updated_at":"2026-04-09T14:42:42.797650+05:30"},{"city":"Pune","state":"Maharashtra","latitude":18.5204,"longitude":73.8567,"temp":34.3,"humidity":36,"rain":0.0,"pressure":949.7,"uv_index":8.5,"wind_gusts":34.2,"aqi":80,"pm10":134.6,"pm2_5":37.3,"mosquito_risk":0,"arthritis_risk":5,"migraine_risk":7,"frizz_risk":1,"updated_at":"2026-04-09T14:42:42.797663+05:30"},{"city":"Ahmedabad","state":"Gujarat","latitude":23.0225,"longitude":72.5714,"temp":36.4,"humidity":25,"rain":0.0,"pressure":1003.6,"uv_index":8.0,"wind_gusts":17.3,"aqi":79,"pm10":63.1,"pm2_5":21.9,"mosquito_risk":0,"arthritis_risk":5,"migraine_risk":7,"frizz_risk":0,"updated_at":"2026-04-09T14:42:42.797671+05:30"},{"city":"Jaipur","state":"Rajasthan","latitude":26.9124,"longitude":75.7873,"temp":29.6,"humidity":29,"rain":0.0,"pressure":963.6,"uv_index":7.75,"wind_gusts":27.0,"aqi":154,"pm10":178.8,"pm2_5":34.7,"mosquito_risk":4,"arthritis_risk":5,"migraine_risk":7,"frizz_risk":0,"updated_at":"2026-04-09T14:42:42.797679+05:30"},{"city":"Lucknow","state":"Uttar Pradesh","latitude":26.8467,"longitude":80.9462,"temp":31.0,"humidity":28,"rain":0.0,"pressure":997.0,"uv_index":7.55,"wind_gusts":32.8,"aqi":132,"pm10":74.3,"pm2_5":21.0,"mosquito_risk":0,"arthritis_risk":5,"migraine_risk":7,"frizz_risk":0,"updated_at":"2026-04-09T14:42:42.797686+05:30"},{"city":"Kanpur","state":"Uttar Pradesh","latitude":26.4499,"longitude":80.3319,"temp":30.5,"humidity":30,"rain":0.0,"pressure":995.5,"uv_index":7.6,"wind_gusts":32.4,"aqi":132,"pm10":311.1,"pm2_5":40.4,"mosquito_risk":0,"arthritis_risk":5,"migraine_risk":7,"frizz_risk":0,"updated_at":"2026-04-09T14:42:42.797694+05:30"},{"city":"Chandigarh","state":"Chandigarh","latitude":30.7333,"longitude":76.7794,"temp":25.8,"humidity":43,"rain":0.0,"pressure":974.6,"uv_index":7.05,"wind_gusts":24.1,"aqi":76,"pm10":30.5,"pm2_5":17.1,"mosquito_risk":4,"arthritis_risk":5,"migraine_risk":7,"frizz_risk":0,"updated_at":"2026-04-09T14:42:42.797701+05:30"},{"city":"Srinagar","state":"Jammu and Kashmir","latitude":34.0837,"longitude":74.7973,"temp":12.4,"humidity":71,"rain":0.0,"pressure":843.2,"uv_index":7.9,"wind_gusts":22.0,"aqi":77,"pm10":10.6,"pm2_5":6.0,"mosquito_risk":3,"arthritis_risk":5,"migraine_risk":7,"frizz_risk":0,"updated_at":"2026-04-09T14:42:42.797709+05:30"},{"city":"Jammu","state":"Jammu and Kashmir","latitude":32.7266,"longitude":74.857,"temp":24.6,"humidity":52,"rain":0.0,"pressure":979.4,"uv_index":7.65,"wind_gusts":27.4,"aqi":66,"pm10":17.5,"pm2_5":8.5,"mosquito_risk":0,"arthritis_risk":5,"migraine_risk":7,"frizz_risk":0,"updated_at":"2026-04-09T14:42:42.797716+05:30"},{"city":"Amritsar","state":"Punjab","latitude":31.634,"longitude":74.8723,"temp":24.8,"humidity":53,"rain":0.0,"pressure":987.3,"uv_index":7.6,"wind_gusts":18.4,"aqi":77,"pm10":45.4,"pm2_5":20.2,"mosquito_risk":0,"arthritis_risk":5,"migraine_risk":7,"frizz_risk":0,"updated_at":"2026-04-09T14:42:42.797723+05:30"},{"city":"Ludhiana","state":"Punjab","latitude":30.901,"longitude":75.8573,"temp":26.5,"humidity":41,"rain":0.0,"pressure":984.8,"uv_index":7.25,"wind_gusts":19.8,"aqi":95,"pm10":41.2,"pm2_5":18.2,"mosquito_risk":4,"arthritis_risk":5,"migraine_risk":7,"frizz_risk":0,"updated_at":"2026-04-09T14:42:42.797730+05:30"},{"city":"Jalandhar","state":"Punjab","latitude":31.326,"longitude":75.5762,"temp":26.1,"humidity":43,"rain":0.0,"pressure":986.1,"uv_index":7.4,"wind_gusts":21.2,"aqi":89,"pm10":43.0,"pm2_5":16.8,"mosquito_risk":4,"arthritis_risk":5,"migraine_risk":7,"frizz_risk":0,"updated_at":"2026-04-09T14:42:42.797740+05:30"},{"city":"Dehradun","state":"Uttarakhand","latitude":30.6284,"longitude":78.0322,"temp":14.4,"humidity":67,"rain":0.0,"pressure":832.3,"uv_index":7.05,"wind_gusts":23.4,"aqi":74,"pm10":20.1,"pm2_5":10.4,"mosquito_risk":3,"arthritis_risk":5,"migraine_risk":7,"frizz_risk":0,"updated_at":"2026-04-09T14:42:42.797747+05:30"},{"city":"Shimla","state":"Himachal Pradesh","latitude":31.1048,"longitude":77.1734,"temp":12.1,"humidity":75,"rain":0.0,"pressure":786.3,"uv_index":7.4,"wind_gusts":27.0,"aqi":87,"pm10":20.7,"pm2_5":12.7,"mosquito_risk":3,"arthritis_risk":5,"migraine_risk":7,"frizz_risk":0,"updated_at":"2026-04-09T14:42:42.797754+05:30"},{"city":"Manali","state":"Himachal Pradesh","latitude":32.2396,"longitude":77.1887,"temp":14.5,"humidity":59,"rain":0.0,"pressure":820.1,"uv_index":9.7,"wind_gusts":24.8,"aqi":123,"pm10":7.8,"pm2_5":4.6,"mosquito_risk":0,"arthritis_risk":5,"migraine_risk":7,"frizz_risk":0,"updated_at":"2026-04-09T14:42:42.797761+05:30"},{"city":"Gurgaon","state":"Haryana","latitude":28.4595,"longitude":77.0266,"temp":28.2,"humidity":44,"rain":0.0,"pressure":986.2,"uv_index":7.15,"wind_gusts":17.3,"aqi":150,"pm10":594.2,"pm2_5":70.8,"mosquito_risk":4,"arthritis_risk":5,"migraine_risk":7,"frizz_risk":0,"updated_at":"2026-04-09T14:42:42.797768+05:30"},{"city":"Noida","state":"Uttar Pradesh","latitude":28.5355,"longitude":77.391,"temp":28.4,"humidity":40,"rain":0.0,"pressure":989.3,"uv_index":7.1,"wind_gusts":22.7,"aqi":150,"pm10":594.2,"pm2_5":70.8,"mosquito_risk":4,"arthritis_risk":5,"migraine_risk":7,"frizz_risk":0,"updated_at":"2026-04-09T14:42:42.797775+05:30"},{"city":"Ghaziabad","state":"Uttar Pradesh","latitude":28.6692,"longitude":77.4538,"temp":28.3,"humidity":35,"rain":0.0,"pressure":987.5,"uv_index":7.05,"wind_gusts":23.8,"aqi":114,"pm10":148.5,"pm2_5":38.8,"mosquito_risk":4,"arthritis_risk":5,"migraine_risk":7,"frizz_risk":0,"updated_at":"2026-04-09T14:42:42.797784+05:30"},{"city":"Faridabad","state":"Haryana","latitude":28.4089,"longitude":77.3178,"temp":27.9,"humidity":45,"rain":0.0,"pressure":988.5,"uv_index":7.15,"wind_gusts":19.4,"aqi":150,"pm10":594.2,"pm2_5":70.8,"mosquito_risk":4,"arthritis_risk":5,"migraine_risk":7,"frizz_risk":0,"updated_at":"2026-04-09T14:42:42.797791+05:30"},{"city":"Meerut","state":"Uttar Pradesh","latitude":28.9845,"longitude":77.7064,"temp":28.0,"humidity":34,"rain":0.0,"pressure":986.3,"uv_index":6.95,"wind_gusts":29.2,"aqi":114,"pm10":148.5,"pm2_5":38.8,"mosquito_risk":4,"arthritis_risk":5,"migraine_risk":7,"frizz_risk":0,"updated_at":"2026-04-09T14:42:42.797798+05:30"},{"city":"Agra","state":"Uttar Pradesh","latitude":27.1767,"longitude":78.0081,"temp":29.4,"humidity":41,"rain":0.0,"pressure":992.2,"uv_index":7.45,"wind_gusts":17.3,"aqi":512,"pm10":317.6,"pm2_5":44.7,"mosquito_risk":4,"arthritis_risk":5,"migraine_risk":7,"frizz_risk":0,"updated_at":"2026-04-09T14:42:42.797805+05:30"},{"city":"Varanasi","state":"Uttar Pradesh","latitude":25.3176,"longitude":82.9739,"temp":32.5,"humidity":27,"rain":0.0,"pressure":999.9,"uv_index":8.15,"wind_gusts":29.2,"aqi":113,"pm10":50.8,"pm2_5":18.8,"mosquito_risk":0,"arthritis_risk":5,"migraine_risk":7,"frizz_risk":0,"updated_at":"2026-04-09T14:42:42.797814+05:30"},{"city":"Prayagraj","state":"Uttar Pradesh","latitude":25.4358,"longitude":81.8463,"temp":32.1,"humidity":28,"rain":0.0,"pressure":998.9,"uv_index":8.05,"wind_gusts":31.0,"aqi":113,"pm10":61.7,"pm2_5":20.0,"mosquito_risk":0,"arthritis_risk":5,"migraine_risk":7,"frizz_risk":0,"updated_at":"2026-04-09T14:42:42.797821+05:30"},{"city":"Gorakhpur","state":"Uttar Pradesh","latitude":26.7606,"longitude":83.3732,"temp":31.4,"humidity":31,"rain":0.0,"pressure":999.5,"uv_index":7.95,"wind_gusts":31.0,"aqi":152,"pm10":84.8,"pm2_5":32.8,"mosquito_risk":0,"arthritis_risk":5,"migraine_risk":7,"frizz_risk":0,"updated_at":"2026-04-09T14:42:42.797827+05:30"},{"city":"Bareilly","state":"Uttar Pradesh","latitude":28.367,"longitude":79.4304,"temp":29.2,"humidity":32,"rain":0.0,"pressure":991.1,"uv_index":7.35,"wind_gusts":33.1,"aqi":99,"pm10":43.2,"pm2_5":18.9,"mosquito_risk":4,"arthritis_risk":5,"migraine_risk":7,"frizz_risk":0,"updated_at":"2026-04-09T14:42:42.797834+05:30"},{"city":"Aligarh","state":"Uttar Pradesh","latitude":27.8974,"longitude":78.088,"temp":29.8,"humidity":37,"rain":0.0,"pressure":990.0,"uv_index":7.2,"wind_gusts":26.6,"aqi":118,"pm10":323.2,"pm2_5":46.3,"mosquito_risk":4,"arthritis_risk":5,"migraine_risk":7,"frizz_risk":0,"updated_at":"2026-04-09T14:42:42.797840+05:30"},{"city":"Moradabad","state":"Uttar Pradesh","latitude":28.8386,"longitude":78.7733,"temp":28.3,"humidity":33,"rain":0.0,"pressure":988.2,"uv_index":7.15,"wind_gusts":30.6,"aqi":108,"pm10":54.0,"pm2_5":22.5,"mosquito_risk":4,"arthritis_risk":5,"migraine_risk":7,"frizz_risk":0,"updated_at":"2026-04-09T14:42:42.797847+05:30"},{"city":"Saharanpur","state":"Uttar Pradesh","latitude":29.9637,"longitude":77.546,"temp":26.8,"humidity":40,"rain":0.0,"pressure":981.0,"uv_index":6.75,"wind_gusts":27.4,"aqi":93,"pm10":47.5,"pm2_5":18.3,"mosquito_risk":4,"arthritis_risk":5,"migraine_risk":7,"frizz_risk":0,"updated_at":"2026-04-09T14:42:42.797870+05:30"},{"city":"Jhansi","state":"Uttar Pradesh","latitude":25.4484,"longitude":78.5685,"temp":30.4,"humidity":34,"rain":0.0,"pressure":981.5,"uv_index":8.0,"wind_gusts":25.2,"aqi":94,"pm10":111.8,"pm2_5":27.3,"mosquito_risk":0,"arthritis_risk":5,"migraine_risk":7,"frizz_risk":0,"updated_at":"2026-04-09T14:42:46.023006+05:30"},{"city":"Surat","state":"Gujarat","latitude":21.1702,"longitude":72.8311,"temp":30.6,"humidity":45,"rain":0.0,"pressure":1009.1,"uv_index":7.7,"wind_gusts":28.1,"aqi":84,"pm10":112.9,"pm2_5":43.4,"mosquito_risk":0,"arthritis_risk":0,"migraine_risk":4,"frizz_risk":1,"updated_at":"2026-04-09T14:42:46.023040+05:30"},{"city":"Vadodara","state":"Gujarat","latitude":22.3072,"longitude":73.1812,"temp":34.8,"humidity":35,"rain":0.0,"pressure":1006.1,"uv_index":8.0,"wind_gusts":20.5,"aqi":69,"pm10":47.3,"pm2_5":21.9,"mosquito_risk":0,"arthritis_risk":5,"migraine_risk":4,"frizz_risk":1,"updated_at":"2026-04-09T14:42:46.023051+05:30"},{"city":"Rajkot","state":"Gujarat","latitude":22.3039,"longitude":70.8022,"temp":34.8,"humidity":27,"rain":0.0,"pressure":995.7,"uv_index":7.7,"wind_gusts":21.2,"aqi":66,"pm10":56.3,"pm2_5":22.8,"mosquito_risk":0,"arthritis_risk":5,"migraine_risk":7,"frizz_risk":0,"updated_at":"2026-04-09T14:42:46.023059+05:30"},{"city":"Thane","state":"Maharashtra","latitude":19.2183,"longitude":72.9781,"temp":31.6,"humidity":55,"rain":0.0,"pressure":1009.6,"uv_index":7.95,"wind_gusts":33.8,"aqi":80,"pm10":131.3,"pm2_5":38.9,"mosquito_risk":0,"arthritis_risk":0,"migraine_risk":4,"frizz_risk":1,"updated_at":"2026-04-09T14:42:46.023066+05:30"},{"city":"Nagpur","state":"Maharashtra","latitude":21.1458,"longitude":79.0882,"temp":33.7,"humidity":33,"rain":0.0,"pressure":974.0,"uv_index":8.75,"wind_gusts":20.5,"aqi":90,"pm10":61.0,"pm2_5":28.4,"mosquito_risk":0,"arthritis_risk":5,"migraine_risk":7,"frizz_risk":0,"updated_at":"2026-04-09T14:42:46.023074+05:30"},{"city":"Nashik","state":"Maharashtra","latitude":19.9975,"longitude":73.7898,"temp":31.2,"humidity":38,"rain":0.0,"pressure":947.2,"uv_index":8.2,"wind_gusts":27.0,"aqi":66,"pm10":82.4,"pm2_5":21.4,"mosquito_risk":0,"arthritis_risk":5,"migraine_risk":7,"frizz_risk":0,"updated_at":"2026-04-09T14:42:46.023081+05:30"},{"city":"Aurangabad","state":"Maharashtra","latitude":19.8762,"longitude":75.3433,"temp":34.3,"humidity":24,"rain":0.0,"pressure":945.5,"uv_index":8.9,"wind_gusts":28.8,"aqi":66,"pm10":51.5,"pm2_5":16.7,"mosquito_risk":0,"arthritis_risk":5,"migraine_risk":7,"frizz_risk":0,"updated_at":"2026-04-09T14:42:46.023087+05:30"},{"city":"Solapur","state":"Maharashtra","latitude":17.6599,"longitude":75.9064,"temp":37.5,"humidity":20,"rain":0.0,"pressure":957.6,"uv_index":8.95,"wind_gusts":23.0,"aqi":74,"pm10":109.2,"pm2_5":31.1,"mosquito_risk":0,"arthritis_risk":5,"migraine_risk":10,"frizz_risk":0,"updated_at":"2026-04-09T14:42:46.023094+05:30"},{"city":"Kolhapur","state":"Maharashtra","latitude":16.705,"longitude":74.2433,"temp":32.5,"humidity":43,"rain":0.0,"pressure":949.2,"uv_index":9.0,"wind_gusts":38.9,"aqi":79,"pm10":128.5,"pm2_5":28.7,"mosquito_risk":0,"arthritis_risk":5,"migraine_risk":7,"frizz_risk":1,"updated_at":"2026-04-09T14:42:46.023101+05:30"},{"city":"Goa","state":"Goa","latitude":15.2993,"longitude":74.124,"temp":32.3,"humidity":59,"rain":0.0,"pressure":999.3,"uv_index":9.0,"wind_gusts":35.3,"aqi":72,"pm10":65.4,"pm2_5":18.7,"mosquito_risk":0,"arthritis_risk":5,"migraine_risk":7,"frizz_risk":1,"updated_at":"2026-04-09T14:42:46.023108+05:30"},{"city":"Jodhpur","state":"Rajasthan","latitude":26.2389,"longitude":73.0243,"temp":33.6,"humidity":15,"rain":0.0,"pressure":986.9,"uv_index":8.0,"wind_gusts":26.3,"aqi":93,"pm10":110.1,"pm2_5":15.5,"mosquito_risk":0,"arthritis_risk":5,"migraine_risk":7,"frizz_risk":0,"updated_at":"2026-04-09T14:42:46.023116+05:30"},{"city":"Udaipur","state":"Rajasthan","latitude":24.5854,"longitude":73.7125,"temp":32.1,"humidity":15,"rain":0.0,"pressure":950.0,"uv_index":8.5,"wind_gusts":39.6,"aqi":72,"pm10":83.4,"pm2_5":16.6,"mosquito_risk":0,"arthritis_risk":5,"migraine_risk":7,"frizz_risk":0,"updated_at":"2026-04-09T14:42:46.023123+05:30"},{"city":"Kota","state":"Rajasthan","latitude":25.2138,"longitude":75.8648,"temp":33.1,"humidity":27,"rain":0.0,"pressure":981.7,"uv_index":8.0,"wind_gusts":21.6,"aqi":116,"pm10":102.2,"pm2_5":30.5,"mosquito_risk":0,"arthritis_risk":5,"migraine_risk":7,"frizz_risk":0,"updated_at":"2026-04-09T14:42:46.023130+05:30"},{"city":"Bikaner","state":"Rajasthan","latitude":28.0229,"longitude":73.3119,"temp":31.4,"humidity":20,"rain":0.0,"pressure":986.6,"uv_index":7.8,"wind_gusts":21.2,"aqi":85,"pm10":73.3,"pm2_5":17.5,"mosquito_risk":0,"arthritis_risk":5,"migraine_risk":7,"frizz_risk":0,"updated_at":"2026-04-09T14:42:46.023137+05:30"},{"city":"Ajmer","state":"Rajasthan","latitude":26.4499,"longitude":74.6399,"temp":30.9,"humidity":21,"rain":0.0,"pressure":958.2,"uv_index":7.95,"wind_gusts":27.4,"aqi":79,"pm10":96.2,"pm2_5":21.9,"mosquito_risk":0,"arthritis_risk":5,"migraine_risk":7,"frizz_risk":0,"updated_at":"2026-04-09T14:42:46.023144+05:30"},{"city":"Gwalior","state":"Madhya Pradesh","latitude":26.2183,"longitude":78.1828,"temp":30.7,"humidity":34,"rain":0.0,"pressure":986.6,"uv_index":7.75,"wind_gusts":34.6,"aqi":114,"pm10":128.1,"pm2_5":28.1,"mosquito_risk":0,"arthritis_risk":5,"migraine_risk":7,"frizz_risk":0,"updated_at":"2026-04-09T14:42:46.023150+05:30"},{"city":"Indore","state":"Madhya Pradesh","latitude":22.7196,"longitude":75.8577,"temp":32.0,"humidity":32,"rain":0.0,"pressure":950.4,"uv_index":8.4,"wind_gusts":23.4,"aqi":78,"pm10":38.1,"pm2_5":18.0,"mosquito_risk":0,"arthritis_risk":5,"migraine_risk":7,"frizz_risk":0,"updated_at":"2026-04-09T14:42:46.023156+05:30"},{"city":"Bhopal","state":"Madhya Pradesh","latitude":23.2599,"longitude":77.4126,"temp":33.7,"humidity":23,"rain":0.0,"pressure":955.8,"uv_index":8.4,"wind_gusts":26.6,"aqi":72,"pm10":66.1,"pm2_5":21.8,"mosquito_risk":0,"arthritis_risk":5,"migraine_risk":7,"frizz_risk":0,"updated_at":"2026-04-09T14:42:46.023163+05:30"},{"city":"Jabalpur","state":"Madhya Pradesh","latitude":23.1815,"longitude":79.9864,"temp":32.2,"humidity":30,"rain":0.0,"pressure":963.5,"uv_index":8.55,"wind_gusts":26.6,"aqi":130,"pm10":72.2,"pm2_5":26.4,"mosquito_risk":0,"arthritis_risk":5,"migraine_risk":7,"frizz_risk":0,"updated_at":"2026-04-09T14:42:46.023169+05:30"},{"city":"Ujjain","state":"Madhya Pradesh","latitude":23.1765,"longitude":75.7885,"temp":32.8,"humidity":27,"rain":0.0,"pressure":956.2,"uv_index":8.35,"wind_gusts":20.5,"aqi":75,"pm10":47.4,"pm2_5":19.8,"mosquito_risk":0,"arthritis_risk":5,"migraine_risk":7,"frizz_risk":0,"updated_at":"2026-04-09T14:42:46.023176+05:30"},{"city":"Visakhapatnam","state":"Andhra Pradesh","latitude":17.6868,"longitude":83.2185,"temp":33.6,"humidity":58,"rain":0.0,"pressure":1003.2,"uv_index":9.15,"wind_gusts":44.6,"aqi":98,"pm10":40.4,"pm2_5":33.5,"mosquito_risk":0,"arthritis_risk":5,"migraine_risk":4,"frizz_risk":1,"updated_at":"2026-04-09T14:42:46.023183+05:30"},{"city":"Vijayawada","state":"Andhra Pradesh","latitude":16.5062,"longitude":80.648,"temp":37.3,"humidity":40,"rain":0.0,"pressure":1001.1,"uv_index":9.15,"wind_gusts":33.1,"aqi":90,"pm10":32.0,"pm2_5":26.0,"mosquito_risk":0,"arthritis_risk":5,"migraine_risk":7,"frizz_risk":1,"updated_at":"2026-04-09T14:42:46.023190+05:30"},{"city":"Guntur","state":"Andhra Pradesh","latitude":16.3067,"longitude":80.4365,"temp":38.0,"humidity":39,"rain":0.0,"pressure":1001.9,"uv_index":8.95,"wind_gusts":33.8,"aqi":92,"pm10":33.4,"pm2_5":26.1,"mosquito_risk":0,"arthritis_risk":5,"migraine_risk":7,"frizz_risk":1,"updated_at":"2026-04-09T14:42:46.023197+05:30"},{"city":"Nellore","state":"Andhra Pradesh","latitude":14.4426,"longitude":79.9865,"temp":39.9,"humidity":30,"rain":0.0,"pressure":1003.3,"uv_index":9.3,"wind_gusts":35.3,"aqi":77,"pm10":30.7,"pm2_5":25.9,"mosquito_risk":0,"arthritis_risk":5,"migraine_risk":7,"frizz_risk":1,"updated_at":"2026-04-09T14:42:46.023204+05:30"},{"city":"Kurnool","state":"Andhra Pradesh","latitude":15.8281,"longitude":78.0373,"temp":39.9,"humidity":20,"rain":0.0,"pressure":975.5,"uv_index":9.2,"wind_gusts":27.7,"aqi":114,"pm10":46.7,"pm2_5":23.2,"mosquito_risk":0,"arthritis_risk":5,"migraine_risk":10,"frizz_risk":0,"updated_at":"2026-04-09T14:42:46.023211+05:30"},{"city":"Kakinada","state":"Andhra Pradesh","latitude":16.9891,"longitude":82.2475,"temp":35.4,"humidity":48,"rain":0.0,"pressure":1006.9,"uv_index":9.15,"wind_gusts":30.6,"aqi":80,"pm10":27.9,"pm2_5":21.5,"mosquito_risk":0,"arthritis_risk":5,"migraine_risk":7,"frizz_risk":1,"updated_at":"2026-04-09T14:42:46.023218+05:30"},{"city":"Tirupati","state":"Andhra Pradesh","latitude":13.6288,"longitude":79.4192,"temp":36.5,"humidity":38,"rain":0.0,"pressure":990.3,"uv_index":9.35,"wind_gusts":29.9,"aqi":97,"pm10":33.1,"pm2_5":29.8,"mosquito_risk":0,"arthritis_risk":5,"migraine_risk":10,"frizz_risk":1,"updated_at":"2026-04-09T14:42:46.023225+05:30"},{"city":"Warangal","state":"Telangana","latitude":17.9689,"longitude":79.5941,"temp":35.5,"humidity":45,"rain":0.0,"pressure":978.1,"uv_index":9.05,"wind_gusts":24.5,"aqi":105,"pm10":41.1,"pm2_5":30.0,"mosquito_risk":0,"arthritis_risk":5,"migraine_risk":10,"frizz_risk":1,"updated_at":"2026-04-09T14:42:46.023231+05:30"},{"city":"Nizamabad","state":"Telangana","latitude":18.6725,"longitude":78.0941,"temp":35.2,"humidity":32,"rain":0.0,"pressure":965.5,"uv_index":8.95,"wind_gusts":25.9,"aqi":91,"pm10":86.8,"pm2_5":29.8,"mosquito_risk":0,"arthritis_risk":5,"migraine_risk":10,"frizz_risk":0,"updated_at":"2026-04-09T14:42:46.023237+05:30"},{"city":"Mysore","state":"Karnataka","latitude":12.2958,"longitude":76.6396,"temp":34.6,"humidity":29,"rain":0.0,"pressure":928.7,"uv_index":9.55,"wind_gusts":37.1,"aqi":74,"pm10":19.7,"pm2_5":12.0,"mosquito_risk":0,"arthritis_risk":5,"migraine_risk":7,"frizz_risk":0,"updated_at":"2026-04-09T14:42:46.023244+05:30"},{"city":"Mangalore","state":"Karnataka","latitude":12.9141,"longitude":74.856,"temp":29.2,"humidity":78,"rain":0.0,"pressure":1007.3,"uv_index":9.15,"wind_gusts":34.2,"aqi":76,"pm10":57.0,"pm2_5":19.6,"mosquito_risk":7,"arthritis_risk":5,"migraine_risk":4,"frizz_risk":1,"updated_at":"2026-04-09T14:42:46.023250+05:30"},{"city":"Hubli-Dharwad","state":"Karnataka","latitude":15.3647,"longitude":75.124,"temp":33.5,"humidity":36,"rain":0.0,"pressure":941.6,"uv_index":9.2,"wind_gusts":40.3,"aqi":67,"pm10":72.9,"pm2_5":22.2,"mosquito_risk":0,"arthritis_risk":5,"migraine_risk":7,"frizz_risk":1,"updated_at":"2026-04-09T14:42:46.023257+05:30"},{"city":"Belgaum","state":"Karnataka","latitude":15.8497,"longitude":74.4977,"temp":31.2,"humidity":45,"rain":0.0,"pressure":927.3,"uv_index":9.2,"wind_gusts":36.4,"aqi":75,"pm10":89.9,"pm2_5":23.1,"mosquito_risk":0,"arthritis_risk":5,"migraine_risk":7,"frizz_risk":1,"updated_at":"2026-04-09T14:42:49.245388+05:30"},{"city":"Coimbatore","state":"Tamil Nadu","latitude":11.0168,"longitude":76.9558,"temp":33.5,"humidity":47,"rain":0.0,"pressure":962.1,"uv_index":9.5,"wind_gusts":38.9,"aqi":48,"pm10":13.7,"pm2_5":8.7,"mosquito_risk":0,"arthritis_risk":5,"migraine_risk":7,"frizz_risk":1,"updated_at":"2026-04-09T14:42:49.245422+05:30"},{"city":"Madurai","state":"Tamil Nadu","latitude":9.9252,"longitude":78.1198,"temp":36.3,"humidity":40,"rain":0.0,"pressure":992.3,"uv_index":9.4,"wind_gusts":21.6,"aqi":90,"pm10":32.5,"pm2_5":28.1,"mosquito_risk":0,"arthritis_risk":5,"migraine_risk":10,"frizz_risk":1,"updated_at":"2026-04-09T14:42:49.245433+05:30"},{"city":"Trichy","state":"Tamil Nadu","latitude":10.7905,"longitude":78.7047,"temp":36.1,"humidity":43,"rain":0.0,"pressure":998.8,"uv_index":9.4,"wind_gusts":20.9,"aqi":78,"pm10":30.7,"pm2_5":26.1,"mosquito_risk":0,"arthritis_risk":5,"migraine_risk":10,"frizz_risk":1,"updated_at":"2026-04-09T14:42:49.245441+05:30"},{"city":"Salem","state":"Tamil Nadu","latitude":11.6643,"longitude":78.146,"temp":36.2,"humidity":40,"rain":0.0,"pressure":976.9,"uv_index":9.3,"wind_gusts":36.4,"aqi":97,"pm10":19.0,"pm2_5":16.7,"mosquito_risk":0,"arthritis_risk":5,"migraine_risk":10,"frizz_risk":1,"updated_at":"2026-04-09T14:42:49.245447+05:30"},{"city":"Tirunelveli","state":"Tamil Nadu","latitude":8.7139,"longitude":77.7567,"temp":37.5,"humidity":34,"rain":0.0,"pressure":1001.8,"uv_index":9.25,"wind_gusts":32.0,"aqi":68,"pm10":23.3,"pm2_5":19.3,"mosquito_risk":0,"arthritis_risk":5,"migraine_risk":7,"frizz_risk":1,"updated_at":"2026-04-09T14:42:49.245454+05:30"},{"city":"Vellore","state":"Tamil Nadu","latitude":12.9165,"longitude":79.1325,"temp":35.7,"humidity":44,"rain":0.0,"pressure":983.8,"uv_index":9.45,"wind_gusts":19.4,"aqi":117,"pm10":31.1,"pm2_5":27.6,"mosquito_risk":0,"arthritis_risk":5,"migraine_risk":10,"frizz_risk":1,"updated_at":"2026-04-09T14:42:49.245461+05:30"},{"city":"Erode","state":"Tamil Nadu","latitude":11.341,"longitude":77.7172,"temp":37.9,"humidity":36,"rain":0.0,"pressure":987.8,"uv_index":8.8,"wind_gusts":22.0,"aqi":64,"pm10":12.5,"pm2_5":10.4,"mosquito_risk":0,"arthritis_risk":5,"migraine_risk":10,"frizz_risk":1,"updated_at":"2026-04-09T14:42:49.245469+05:30"},{"city":"Kochi","state":"Kerala","latitude":9.9312,"longitude":76.2673,"temp":29.1,"humidity":78,"rain":0.0,"pressure":1008.7,"uv_index":8.3,"wind_gusts":25.2,"aqi":67,"pm10":29.8,"pm2_5":17.4,"mosquito_risk":7,"arthritis_risk":0,"migraine_risk":4,"frizz_risk":1,"updated_at":"2026-04-09T14:42:49.245476+05:30"},{"city":"Thiruvananthapuram","state":"Kerala","latitude":8.5241,"longitude":76.9366,"temp":29.0,"humidity":80,"rain":0.0,"pressure":1007.8,"uv_index":9.05,"wind_gusts":30.6,"aqi":51,"pm10":23.9,"pm2_5":14.4,"mosquito_risk":7,"arthritis_risk":5,"migraine_risk":4,"frizz_risk":1,"updated_at":"2026-04-09T14:42:49.245483+05:30"},{"city":"Kozhikode","state":"Kerala","latitude":11.2588,"longitude":75.7804,"temp":30.9,"humidity":68,"rain":0.0,"pressure":1007.9,"uv_index":9.15,"wind_gusts":25.9,"aqi":66,"pm10":64.0,"pm2_5":23.8,"mosquito_risk":3,"arthritis_risk":5,"migraine_risk":4,"frizz_risk":1,"updated_at":"2026-04-09T14:42:49.245489+05:30"},{"city":"Thrissur","state":"Kerala","latitude":10.5276,"longitude":76.2144,"temp":33.6,"humidity":56,"rain":0.0,"pressure":1007.1,"uv_index":7.7,"wind_gusts":28.8,"aqi":63,"pm10":30.9,"pm2_5":16.5,"mosquito_risk":0,"arthritis_risk":5,"migraine_risk":4,"frizz_risk":1,"updated_at":"2026-04-09T14:42:49.245496+05:30"},{"city":"Kannur","state":"Kerala","latitude":11.8745,"longitude":75.3704,"temp":32.3,"humidity":59,"rain":0.0,"pressure":1007.4,"uv_index":9.15,"wind_gusts":32.8,"aqi":71,"pm10":52.4,"pm2_5":20.1,"mosquito_risk":0,"arthritis_risk":5,"migraine_risk":4,"frizz_risk":1,"updated_at":"2026-04-09T14:42:49.245502+05:30"},{"city":"Patna","state":"Bihar","latitude":25.5941,"longitude":85.1376,"temp":31.4,"humidity":36,"rain":0.0,"pressure":1001.8,"uv_index":8.3,"wind_gusts":27.4,"aqi":114,"pm10":74.7,"pm2_5":33.1,"mosquito_risk":0,"arthritis_risk":5,"migraine_risk":4,"frizz_risk":0,"updated_at":"2026-04-09T14:42:49.245509+05:30"},{"city":"Gaya","state":"Bihar","latitude":24.7914,"longitude":85.0002,"temp":31.3,"humidity":39,"rain":0.0,"pressure":995.5,"uv_index":8.4,"wind_gusts":22.7,"aqi":115,"pm10":63.1,"pm2_5":29.1,"mosquito_risk":0,"arthritis_risk":5,"migraine_risk":7,"frizz_risk":0,"updated_at":"2026-04-09T14:42:49.245515+05:30"},{"city":"Muzaffarpur","state":"Bihar","latitude":26.1209,"longitude":85.3647,"temp":30.8,"humidity":38,"rain":0.0,"pressure":1001.9,"uv_index":7.75,"wind_gusts":20.5,"aqi":122,"pm10":71.7,"pm2_5":33.8,"mosquito_risk":0,"arthritis_risk":5,"migraine_risk":4,"frizz_risk":0,"updated_at":"2026-04-09T14:42:49.245522+05:30"},{"city":"Bhagalpur","state":"Bihar","latitude":25.2425,"longitude":87.0117,"temp":29.5,"humidity":49,"rain":0.0,"pressure":1002.4,"uv_index":8.25,"wind_gusts":23.4,"aqi":130,"pm10":46.0,"pm2_5":29.4,"mosquito_risk":4,"arthritis_risk":5,"migraine_risk":4,"frizz_risk":1,"updated_at":"2026-04-09T14:42:49.245528+05:30"},{"city":"Ranchi","state":"Jharkhand","latitude":23.3441,"longitude":85.3096,"temp":28.9,"humidity":40,"rain":0.0,"pressure":939.1,"uv_index":8.85,"wind_gusts":32.4,"aqi":117,"pm10":51.6,"pm2_5":18.5,"mosquito_risk":4,"arthritis_risk":5,"migraine_risk":7,"frizz_risk":0,"updated_at":"2026-04-09T14:42:49.245534+05:30"},{"city":"Jamshedpur","state":"Jharkhand","latitude":22.8046,"longitude":86.2029,"temp":31.3,"humidity":47,"rain":0.0,"pressure":991.6,"uv_index":8.6,"wind_gusts":15.8,"aqi":113,"pm10":112.2,"pm2_5":53.9,"mosquito_risk":0,"arthritis_risk":5,"migraine_risk":7,"frizz_risk":1,"updated_at":"2026-04-09T14:42:49.245541+05:30"},{"city":"Dhanbad","state":"Jharkhand","latitude":23.7957,"longitude":86.4304,"temp":30.7,"humidity":41,"rain":0.0,"pressure":981.0,"uv_index":8.7,"wind_gusts":24.5,"aqi":151,"pm10":85.2,"pm2_5":37.6,"mosquito_risk":0,"arthritis_risk":5,"migraine_risk":7,"frizz_risk":0,"updated_at":"2026-04-09T14:42:49.245548+05:30"},{"city":"Bokaro","state":"Jharkhand","latitude":23.6693,"longitude":86.1511,"temp":30.2,"humidity":45,"rain":0.0,"pressure":985.1,"uv_index":8.7,"wind_gusts":22.7,"aqi":153,"pm10":73.8,"pm2_5":32.6,"mosquito_risk":0,"arthritis_risk":5,"migraine_risk":7,"frizz_risk":1,"updated_at":"2026-04-09T14:42:49.245554+05:30"},{"city":"Bhubaneswar","state":"Odisha","latitude":20.2961,"longitude":85.8245,"temp":31.3,"humidity":68,"rain":0.0,"pressure":1002.6,"uv_index":9.0,"wind_gusts":32.8,"aqi":90,"pm10":75.7,"pm2_5":48.0,"mosquito_risk":3,"arthritis_risk":5,"migraine_risk":4,"frizz_risk":1,"updated_at":"2026-04-09T14:42:49.245560+05:30"},{"city":"Cuttack","state":"Odisha","latitude":20.4625,"longitude":85.8828,"temp":32.5,"humidity":60,"rain":0.0,"pressure":1004.4,"uv_index":9.05,"wind_gusts":31.7,"aqi":90,"pm10":75.7,"pm2_5":48.0,"mosquito_risk":0,"arthritis_risk":5,"migraine_risk":4,"frizz_risk":1,"updated_at":"2026-04-09T14:42:49.245565+05:30"},{"city":"Rourkela","state":"Odisha","latitude":22.2604,"longitude":84.8536,"temp":32.9,"humidity":40,"rain":0.0,"pressure":985.6,"uv_index":8.75,"wind_gusts":20.2,"aqi":127,"pm10":70.3,"pm2_5":25.4,"mosquito_risk":0,"arthritis_risk":5,"migraine_risk":7,"frizz_risk":1,"updated_at":"2026-04-09T14:42:49.245571+05:30"},{"city":"Raipur","state":"Chhattisgarh","latitude":21.2514,"longitude":81.6296,"temp":35.5,"humidity":28,"rain":0.0,"pressure":974.9,"uv_index":8.85,"wind_gusts":27.0,"aqi":115,"pm10":86.6,"pm2_5":38.5,"mosquito_risk":0,"arthritis_risk":5,"migraine_risk":10,"frizz_risk":0,"updated_at":"2026-04-09T14:42:49.245577+05:30"},{"city":"Bhilai","state":"Chhattisgarh","latitude":21.1938,"longitude":81.3509,"temp":35.8,"humidity":29,"rain":0.0,"pressure":975.4,"uv_index":8.6,"wind_gusts":25.9,"aqi":117,"pm10":87.1,"pm2_5":38.4,"mosquito_risk":0,"arthritis_risk":5,"migraine_risk":10,"frizz_risk":0,"updated_at":"2026-04-09T14:42:49.245583+05:30"},{"city":"Guwahati","state":"Assam","latitude":26.1158,"longitude":91.7086,"temp":27.5,"humidity":68,"rain":0.0,"pressure":1002.1,"uv_index":8.05,"wind_gusts":22.3,"aqi":80,"pm10":31.3,"pm2_5":25.1,"mosquito_risk":7,"arthritis_risk":5,"migraine_risk":4,"frizz_risk":1,"updated_at":"2026-04-09T14:42:49.245589+05:30"},{"city":"Agartala","state":"Tripura","latitude":23.8315,"longitude":91.2868,"temp":25.3,"humidity":83,"rain":0.0,"pressure":1007.6,"uv_index":8.25,"wind_gusts":18.7,"aqi":110,"pm10":19.2,"pm2_5":16.0,"mosquito_risk":7,"arthritis_risk":5,"migraine_risk":4,"frizz_risk":1,"updated_at":"2026-04-09T14:42:49.245595+05:30"},{"city":"Shillong","state":"Meghalaya","latitude":25.5788,"longitude":91.8933,"temp":15.7,"humidity":72,"rain":0.0,"pressure":855.7,"uv_index":8.3,"wind_gusts":45.4,"aqi":80,"pm10":28.0,"pm2_5":22.9,"mosquito_risk":3,"arthritis_risk":5,"migraine_risk":7,"frizz_risk":0,"updated_at":"2026-04-09T14:42:49.245601+05:30"},{"city":"Imphal","state":"Manipur","latitude":24.817,"longitude":93.9368,"temp":18.8,"humidity":84,"rain":0.0,"pressure":923.8,"uv_index":7.55,"wind_gusts":53.3,"aqi":79,"pm10":28.5,"pm2_5":23.7,"mosquito_risk":3,"arthritis_risk":10,"migraine_risk":7,"frizz_risk":0,"updated_at":"2026-04-09T14:42:49.245608+05:30"},{"city":"Aizawl","state":"Mizoram","latitude":23.7271,"longitude":92.7176,"temp":20.3,"humidity":80,"rain":0.0,"pressure":893.4,"uv_index":6.4,"wind_gusts":49.3,"aqi":71,"pm10":28.1,"pm2_5":23.9,"mosquito_risk":3,"arthritis_risk":5,"migraine_risk":7,"frizz_risk":1,"updated_at":"2026-04-09T14:42:49.245614+05:30"},{"city":"Kohima","state":"Nagaland","latitude":25.6701,"longitude":94.1077,"temp":15.8,"humidity":81,"rain":0.1,"pressure":854.7,"uv_index":6.7,"wind_gusts":70.6,"aqi":76,"pm10":26.1,"pm2_5":18.7,"mosquito_risk":6,"arthritis_risk":10,"migraine_risk":7,"frizz_risk":0,"updated_at":"2026-04-09T14:42:49.245620+05:30"},{"city":"Gangtok","state":"Sikkim","latitude":27.3314,"longitude":88.6138,"temp":15.1,"humidity":79,"rain":0.0,"pressure":836.7,"uv_index":5.8,"wind_gusts":20.5,"aqi":103,"pm10":18.9,"pm2_5":14.5,"mosquito_risk":3,"arthritis_risk":5,"migraine_risk":3,"frizz_risk":0,"updated_at":"2026-04-09T14:42:49.245627+05:30"},{"city":"Siliguri","state":"West Bengal","latitude":26.7271,"longitude":88.3953,"temp":23.8,"humidity":66,"rain":0.0,"pressure":994.7,"uv_index":4.4,"wind_gusts":21.6,"aqi":113,"pm10":31.1,"pm2_5":22.6,"mosquito_risk":3,"arthritis_risk":5,"migraine_risk":3,"frizz_risk":1,"updated_at":"2026-04-09T14:42:52.473130+05:30"},{"city":"Durgapur","state":"West Bengal","latitude":23.5204,"longitude":87.3119,"temp":30.5,"humidity":48,"rain":0.0,"pressure":996.1,"uv_index":8.7,"wind_gusts":18.0,"aqi":128,"pm10":89.6,"pm2_5":45.9,"mosquito_risk":0,"arthritis_risk":5,"migraine_risk":7,"frizz_risk":1,"updated_at":"2026-04-09T14:42:52.473165+05:30"},{"city":"Asansol","state":"West Bengal","latitude":23.6739,"longitude":86.9524,"temp":30.4,"humidity":49,"rain":0.0,"pressure":994.8,"uv_index":8.7,"wind_gusts":19.8,"aqi":129,"pm10":98.0,"pm2_5":44.0,"mosquito_risk":0,"arthritis_risk":5,"migraine_risk":7,"frizz_risk":1,"updated_at":"2026-04-09T14:42:52.473176+05:30"},{"city":"Pondicherry","state":"Puducherry","latitude":11.9139,"longitude":79.8145,"temp":36.9,"humidity":42,"rain":0.0,"pressure":1007.1,"uv_index":9.3,"wind_gusts":29.9,"aqi":67,"pm10":28.3,"pm2_5":23.2,"mosquito_risk":0,"arthritis_risk":5,"migraine_risk":7,"frizz_risk":1,"updated_at":"2026-04-09T14:42:52.473184+05:30"},{"city":"Port Blair","state":"Andaman and Nicobar Islands","latitude":11.6234,"longitude":92.7265,"temp":29.5,"humidity":72,"rain":0.0,"pressure":1007.7,"uv_index":9.25,"wind_gusts":12.2,"aqi":33,"pm10":7.0,"pm2_5":5.7,"mosquito_risk":7,"arthritis_risk":5,"migraine_risk":4,"frizz_risk":1,"updated_at":"2026-04-09T14:42:52.473192+05:30"},{"city":"Haridwar","state":"Uttarakhand","latitude":29.9457,"longitude":78.1642,"temp":27.0,"humidity":38,"rain":0.0,"pressure":979.3,"uv_index":6.9,"wind_gusts":30.2,"aqi":69,"pm10":27.1,"pm2_5":12.9,"mosquito_risk":4,"arthritis_risk":5,"migraine_risk":7,"frizz_risk":0,"updated_at":"2026-04-09T14:42:52.473200+05:30"},{"city":"Rishikesh","state":"Uttarakhand","latitude":30.0869,"longitude":78.2676,"temp":26.2,"humidity":38,"rain":0.0,"pressure":971.7,"uv_index":6.95,"wind_gusts":29.9,"aqi":73,"pm10":19.2,"pm2_5":9.1,"mosquito_risk":4,"arthritis_risk":5,"migraine_risk":7,"frizz_risk":0,"updated_at":"2026-04-09T14:42:52.473207+05:30"},{"city":"Nainital","state":"Uttarakhand","latitude":29.3919,"longitude":79.4542,"temp":18.6,"humidity":45,"rain":0.0,"pressure":808.7,"uv_index":7.8,"wind_gusts":40.7,"aqi":75,"pm10":34.2,"pm2_5":16.6,"mosquito_risk":0,"arthritis_risk":5,"migraine_risk":7,"frizz_risk":0,"updated_at":"2026-04-09T14:42:52.473214+05:30"},{"city":"Mussoorie","state":"Uttarakhand","latitude":30.4599,"longitude":78.0664,"temp":15.7,"humidity":60,"rain":0.0,"pressure":805.1,"uv_index":6.6,"wind_gusts":27.7,"aqi":75,"pm10":18.2,"pm2_5":9.1,"mosquito_risk":0,"arthritis_risk":5,"migraine_risk":7,"frizz_risk":0,"updated_at":"2026-04-09T14:42:52.473221+05:30"},{"city":"Dharamshala","state":"Himachal Pradesh","latitude":32.219,"longitude":76.3234,"temp":18.2,"humidity":65,"rain":0.0,"pressure":872.7,"uv_index":7.5,"wind_gusts":19.8,"aqi":118,"pm10":16.3,"pm2_5":7.4,"mosquito_risk":3,"arthritis_risk":5,"migraine_risk":7,"frizz_risk":0,"updated_at":"2026-04-09T14:42:52.473227+05:30"},{"city":"Dalhousie","state":"Himachal Pradesh","latitude":32.5387,"longitude":75.971,"temp":16.1,"humidity":53,"rain":0.0,"pressure":806.9,"uv_index":7.65,"wind_gusts":18.4,"aqi":89,"pm10":19.2,"pm2_5":7.9,"mosquito_risk":0,"arthritis_risk":5,"migraine_risk":7,"frizz_risk":0,"updated_at":"2026-04-09T14:42:52.473234+05:30"},{"city":"Patiala","state":"Punjab","latitude":30.3398,"longitude":76.3869,"temp":26.8,"humidity":40,"rain":0.0,"pressure":983.8,"uv_index":6.9,"wind_gusts":25.2,"aqi":83,"pm10":243.1,"pm2_5":37.7,"mosquito_risk":4,"arthritis_risk":5,"migraine_risk":7,"frizz_risk":0,"updated_at":"2026-04-09T14:42:52.473242+05:30"},{"city":"Bhatinda","state":"Punjab","latitude":30.211,"longitude":74.9455,"temp":28.1,"humidity":38,"rain":0.0,"pressure":989.2,"uv_index":7.6,"wind_gusts":25.6,"aqi":97,"pm10":58.2,"pm2_5":26.4,"mosquito_risk":4,"arthritis_risk":5,"migraine_risk":7,"frizz_risk":0,"updated_at":"2026-04-09T14:42:52.473248+05:30"},{"city":"Rohtak","state":"Haryana","latitude":28.8955,"longitude":76.6066,"temp":29.0,"humidity":35,"rain":0.0,"pressure":986.4,"uv_index":7.05,"wind_gusts":19.4,"aqi":143,"pm10":271.9,"pm2_5":42.4,"mosquito_risk":4,"arthritis_risk":5,"migraine_risk":7,"frizz_risk":0,"updated_at":"2026-04-09T14:42:52.473255+05:30"},{"city":"Panipat","state":"Haryana","latitude":29.3909,"longitude":76.9635,"temp":28.4,"humidity":35,"rain":0.0,"pressure":985.5,"uv_index":6.9,"wind_gusts":22.3,"aqi":130,"pm10":480.6,"pm2_5":61.9,"mosquito_risk":4,"arthritis_risk":5,"migraine_risk":7,"frizz_risk":0,"updated_at":"2026-04-09T14:42:52.473261+05:30"},{"city":"Mathura","state":"Uttar Pradesh","latitude":27.4924,"longitude":77.6737,"temp":29.9,"humidity":35,"rain":0.0,"pressure":991.1,"uv_index":7.35,"wind_gusts":25.2,"aqi":318,"pm10":321.3,"pm2_5":46.8,"mosquito_risk":4,"arthritis_risk":5,"migraine_risk":7,"frizz_risk":0,"updated_at":"2026-04-09T14:42:52.473268+05:30"},{"city":"Vrindavan","state":"Uttar Pradesh","latitude":27.5823,"longitude":77.7027,"temp":29.7,"humidity":36,"rain":0.0,"pressure":991.6,"uv_index":7.35,"wind_gusts":24.8,"aqi":318,"pm10":321.3,"pm2_5":46.8,"mosquito_risk":4,"arthritis_risk":5,"migraine_risk":7,"frizz_risk":0,"updated_at":"2026-04-09T14:42:52.473274+05:30"},{"city":"Ayodhya","state":"Uttar Pradesh","latitude":26.7922,"longitude":82.1998,"temp":31.5,"humidity":28,"rain":0.0,"pressure":998.2,"uv_index":7.75,"wind_gusts":32.8,"aqi":122,"pm10":56.1,"pm2_5":22.5,"mosquito_risk":0,"arthritis_risk":5,"migraine_risk":7,"frizz_risk":0,"updated_at":"2026-04-09T14:42:52.473281+05:30"},{"city":"Ratlam","state":"Madhya Pradesh","latitude":23.3315,"longitude":75.0367,"temp":32.8,"humidity":28,"rain":0.0,"pressure":957.3,"uv_index":8.3,"wind_gusts":26.6,"aqi":67,"pm10":45.8,"pm2_5":17.1,"mosquito_risk":0,"arthritis_risk":5,"migraine_risk":7,"frizz_risk":0,"updated_at":"2026-04-09T14:42:52.473287+05:30"},{"city":"Sagar","state":"Madhya Pradesh","latitude":23.8388,"longitude":78.7378,"temp":32.8,"humidity":25,"rain":0.0,"pressure":952.6,"uv_index":8.4,"wind_gusts":27.0,"aqi":70,"pm10":70.1,"pm2_5":20.2,"mosquito_risk":0,"arthritis_risk":5,"migraine_risk":7,"frizz_risk":0,"updated_at":"2026-04-09T14:42:52.473293+05:30"},{"city":"Satna","state":"Madhya Pradesh","latitude":24.6005,"longitude":80.8322,"temp":31.5,"humidity":27,"rain":0.0,"pressure":974.0,"uv_index":8.4,"wind_gusts":25.2,"aqi":82,"pm10":66.4,"pm2_5":15.7,"mosquito_risk":0,"arthritis_risk":5,"migraine_risk":7,"frizz_risk":0,"updated_at":"2026-04-09T14:42:52.473299+05:30"},{"city":"Akola","state":"Maharashtra","latitude":20.7002,"longitude":77.0082,"temp":35.3,"humidity":30,"rain":0.0,"pressure":976.0,"uv_index":8.7,"wind_gusts":25.6,"aqi":71,"pm10":51.3,"pm2_5":21.1,"mosquito_risk":0,"arthritis_risk":5,"migraine_risk":10,"frizz_risk":0,"updated_at":"2026-04-09T14:42:52.473307+05:30"},{"city":"Amravati","state":"Maharashtra","latitude":20.9374,"longitude":77.7796,"temp":35.7,"humidity":25,"rain":0.0,"pressure":968.1,"uv_index":8.7,"wind_gusts":17.6,"aqi":70,"pm10":47.5,"pm2_5":19.8,"mosquito_risk":0,"arthritis_risk":5,"migraine_risk":10,"frizz_risk":0,"updated_at":"2026-04-09T14:42:52.473314+05:30"},{"city":"Latur","state":"Maharashtra","latitude":18.4088,"longitude":76.5604,"temp":33.5,"humidity":27,"rain":0.0,"pressure":941.0,"uv_index":8.95,"wind_gusts":28.4,"aqi":79,"pm10":127.1,"pm2_5":37.6,"mosquito_risk":0,"arthritis_risk":5,"migraine_risk":7,"frizz_risk":0,"updated_at":"2026-04-09T14:42:52.473320+05:30"},{"city":"Nanded","state":"Maharashtra","latitude":19.1383,"longitude":77.3091,"temp":35.5,"humidity":28,"rain":0.0,"pressure":969.7,"uv_index":8.85,"wind_gusts":20.2,"aqi":77,"pm10":101.0,"pm2_5":31.1,"mosquito_risk":0,"arthritis_risk":5,"migraine_risk":10,"frizz_risk":0,"updated_at":"2026-04-09T14:42:52.473327+05:30"},{"city":"Gulbarga","state":"Karnataka","latitude":17.3297,"longitude":76.8343,"temp":37.9,"humidity":16,"rain":0.0,"pressure":959.0,"uv_index":9.0,"wind_gusts":31.3,"aqi":75,"pm10":74.3,"pm2_5":26.0,"mosquito_risk":0,"arthritis_risk":5,"migraine_risk":10,"frizz_risk":0,"updated_at":"2026-04-09T14:42:52.473333+05:30"},{"city":"Bidar","state":"Karnataka","latitude":17.9104,"longitude":77.5199,"temp":35.3,"humidity":23,"rain":0.0,"pressure":936.5,"uv_index":9.05,"wind_gusts":32.4,"aqi":91,"pm10":71.5,"pm2_5":26.0,"mosquito_risk":0,"arthritis_risk":5,"migraine_risk":10,"frizz_risk":0,"updated_at":"2026-04-09T14:42:52.473339+05:30"},{"city":"Hospet","state":"Karnataka","latitude":15.2689,"longitude":76.3909,"temp":35.8,"humidity":27,"rain":0.0,"pressure":956.1,"uv_index":9.2,"wind_gusts":22.7,"aqi":68,"pm10":71.7,"pm2_5":22.9,"mosquito_risk":0,"arthritis_risk":5,"migraine_risk":10,"frizz_risk":0,"updated_at":"2026-04-09T14:42:52.473345+05:30"},{"city":"Tirupur","state":"Tamil Nadu","latitude":11.1085,"longitude":77.3411,"temp":37.4,"humidity":30,"rain":0.0,"pressure":974.6,"uv_index":9.25,"wind_gusts":34.2,"aqi":63,"pm10":13.2,"pm2_5":10.3,"mosquito_risk":0,"arthritis_risk":5,"migraine_risk":10,"frizz_risk":1,"updated_at":"2026-04-09T14:42:52.473352+05:30"},{"city":"Alappuzha","state":"Kerala","latitude":9.4981,"longitude":76.3388,"temp":29.1,"humidity":78,"rain":0.0,"pressure":1008.8,"uv_index":8.2,"wind_gusts":24.5,"aqi":61,"pm10":33.3,"pm2_5":19.7,"mosquito_risk":7,"arthritis_risk":0,"migraine_risk":4,"frizz_risk":1,"updated_at":"2026-04-09T14:42:52.473359+05:30"},{"city":"Munnar","state":"Kerala","latitude":10.0889,"longitude":77.0595,"temp":25.8,"humidity":72,"rain":0.0,"pressure":858.6,"uv_index":9.05,"wind_gusts":33.8,"aqi":64,"pm10":21.4,"pm2_5":17.6,"mosquito_risk":7,"arthritis_risk":5,"migraine_risk":7,"frizz_risk":1,"updated_at":"2026-04-09T14:42:52.473366+05:30"},{"city":"Silchar","state":"Assam","latitude":24.8333,"longitude":92.7789,"temp":24.8,"humidity":79,"rain":0.0,"pressure":1006.6,"uv_index":4.85,"wind_gusts":24.1,"aqi":91,"pm10":38.5,"pm2_5":32.6,"mosquito_risk":3,"arthritis_risk":5,"migraine_risk":0,"frizz_risk":1,"updated_at":"2026-04-09T14:42:52.473372+05:30"},{"city":"Dibrugarh","state":"Assam","latitude":27.4728,"longitude":94.912,"temp":24.6,"humidity":72,"rain":0.0,"pressure":997.0,"uv_index":3.6,"wind_gusts":25.9,"aqi":94,"pm10":36.4,"pm2_5":23.0,"mosquito_risk":3,"arthritis_risk":5,"migraine_risk":3,"frizz_risk":1,"updated_at":"2026-04-09T14:42:52.473378+05:30"}]