[{"city":"Delhi","state":"Delhi","latitude":28.6139,"longitude":77.209,"temp":33.2,"humidity":26,"rain":0.0,"pressure":976.8,"uv_index":7.75,"wind_gusts":56.9,"aqi":583,"pm10":715.3,"pm2_5":153.7,"no2":58.7,"co":931.0,"o3":27.0,"so2":19.4,"mosquito_risk":0,"arthritis_risk":5,"migraine_risk":7,"frizz_risk":0,"updated_at":"2026-05-28T03:28:49.821458+05:30"},{"city":"Mumbai","state":"Maharashtra","latitude":19.076,"longitude":72.8777,"temp":29.8,"humidity":73,"rain":0.0,"pressure":1008.5,"uv_index":7.8,"wind_gusts":40.3,"aqi":43,"pm10":34.9,"pm2_5":13.8,"no2":5.2,"co":145.0,"o3":46.0,"so2":3.7,"mosquito_risk":7,"arthritis_risk":0,"migraine_risk":4,"frizz_risk":1,"updated_at":"2026-05-28T03:28:49.821495+05:30"},{"city":"Bangalore","state":"Karnataka","latitude":12.9716,"longitude":77.5946,"temp":22.0,"humidity":90,"rain":0.0,"pressure":911.6,"uv_index":9.25,"wind_gusts":27.0,"aqi":71,"pm10":15.7,"pm2_5":15.1,"no2":18.1,"co":347.0,"o3":52.0,"so2":5.8,"mosquito_risk":3,"arthritis_risk":5,"migraine_risk":7,"frizz_risk":1,"updated_at":"2026-05-28T03:28:49.821510+05:30"},{"city":"Hyderabad","state":"Telangana","latitude":17.385,"longitude":78.4867,"temp":26.8,"humidity":69,"rain":0.0,"pressure":951.7,"uv_index":9.1,"wind_gusts":32.8,"aqi":69,"pm10":23.2,"pm2_5":19.6,"no2":14.8,"co":319.0,"o3":72.0,"so2":13.9,"mosquito_risk":7,"arthritis_risk":5,"migraine_risk":7,"frizz_risk":1,"updated_at":"2026-05-28T03:28:49.821519+05:30"},{"city":"Chennai","state":"Tamil Nadu","latitude":13.0827,"longitude":80.2707,"temp":30.0,"humidity":81,"rain":0.0,"pressure":1005.5,"uv_index":8.8,"wind_gusts":39.6,"aqi":77,"pm10":15.4,"pm2_5":12.7,"no2":14.4,"co":257.0,"o3":52.0,"so2":14.7,"mosquito_risk":7,"arthritis_risk":5,"migraine_risk":4,"frizz_risk":1,"updated_at":"2026-05-28T03:28:49.821528+05:30"},{"city":"Kolkata","state":"West Bengal","latitude":22.5726,"longitude":88.3639,"temp":26.7,"humidity":95,"rain":0.0,"pressure":1003.5,"uv_index":8.9,"wind_gusts":41.4,"aqi":115,"pm10":41.1,"pm2_5":33.6,"no2":8.0,"co":299.0,"o3":84.0,"so2":5.4,"mosquito_risk":7,"arthritis_risk":5,"migraine_risk":4,"frizz_risk":1,"updated_at":"2026-05-28T03:28:49.821535+05:30"},{"city":"Pune","state":"Maharashtra","latitude":18.5204,"longitude":73.8567,"temp":24.4,"humidity":90,"rain":0.0,"pressure":948.1,"uv_index":8.4,"wind_gusts":37.8,"aqi":42,"pm10":10.2,"pm2_5":8.3,"no2":11.9,"co":154.0,"o3":38.0,"so2":11.2,"mosquito_risk":3,"arthritis_risk":5,"migraine_risk":7,"frizz_risk":1,"updated_at":"2026-05-28T03:28:49.821542+05:30"},{"city":"Ahmedabad","state":"Gujarat","latitude":23.0225,"longitude":72.5714,"temp":30.0,"humidity":72,"rain":0.0,"pressure":1000.5,"uv_index":8.1,"wind_gusts":40.7,"aqi":69,"pm10":37.0,"pm2_5":19.2,"no2":5.0,"co":126.0,"o3":49.0,"so2":3.8,"mosquito_risk":7,"arthritis_risk":5,"migraine_risk":4,"frizz_risk":1,"updated_at":"2026-05-28T03:28:49.821548+05:30"},{"city":"Jaipur","state":"Rajasthan","latitude":26.9124,"longitude":75.7873,"temp":34.0,"humidity":28,"rain":0.0,"pressure":955.7,"uv_index":8.25,"wind_gusts":49.0,"aqi":187,"pm10":395.8,"pm2_5":74.0,"no2":3.8,"co":158.0,"o3":79.0,"so2":3.7,"mosquito_risk":0,"arthritis_risk":5,"migraine_risk":7,"frizz_risk":0,"updated_at":"2026-05-28T03:28:49.821559+05:30"},{"city":"Lucknow","state":"Uttar Pradesh","latitude":26.8467,"longitude":80.9462,"temp":29.5,"humidity":63,"rain":0.0,"pressure":989.6,"uv_index":8.2,"wind_gusts":46.1,"aqi":129,"pm10":62.6,"pm2_5":43.5,"no2":8.4,"co":397.0,"o3":127.0,"so2":14.0,"mosquito_risk":7,"arthritis_risk":5,"migraine_risk":7,"frizz_risk":1,"updated_at":"2026-05-28T03:28:49.821566+05:30"},{"city":"Kanpur","state":"Uttar Pradesh","latitude":26.4499,"longitude":80.3319,"temp":31.7,"humidity":51,"rain":0.0,"pressure":987.1,"uv_index":8.2,"wind_gusts":38.9,"aqi":231,"pm10":261.7,"pm2_5":67.1,"no2":11.3,"co":406.0,"o3":110.0,"so2":13.2,"mosquito_risk":0,"arthritis_risk":5,"migraine_risk":7,"frizz_risk":1,"updated_at":"2026-05-28T03:28:49.821573+05:30"},{"city":"Chandigarh","state":"Chandigarh","latitude":30.7333,"longitude":76.7794,"temp":26.0,"humidity":39,"rain":0.0,"pressure":962.1,"uv_index":7.75,"wind_gusts":55.4,"aqi":67,"pm10":36.4,"pm2_5":29.9,"no2":32.9,"co":285.0,"o3":29.0,"so2":5.5,"mosquito_risk":4,"arthritis_risk":5,"migraine_risk":7,"frizz_risk":0,"updated_at":"2026-05-28T03:28:49.821580+05:30"},{"city":"Srinagar","state":"Jammu and Kashmir","latitude":34.0837,"longitude":74.7973,"temp":12.8,"humidity":86,"rain":0.0,"pressure":838.6,"uv_index":6.5,"wind_gusts":29.5,"aqi":76,"pm10":39.8,"pm2_5":30.4,"no2":22.5,"co":405.0,"o3":18.0,"so2":0.1,"mosquito_risk":3,"arthritis_risk":10,"migraine_risk":7,"frizz_risk":0,"updated_at":"2026-05-28T03:28:49.821587+05:30"},{"city":"Jammu","state":"Jammu and Kashmir","latitude":32.7266,"longitude":74.857,"temp":25.0,"humidity":40,"rain":0.0,"pressure":965.8,"uv_index":8.45,"wind_gusts":43.6,"aqi":74,"pm10":31.3,"pm2_5":23.5,"no2":27.6,"co":305.0,"o3":32.0,"so2":2.8,"mosquito_risk":4,"arthritis_risk":5,"migraine_risk":7,"frizz_risk":0,"updated_at":"2026-05-28T03:28:49.821593+05:30"},{"city":"Amritsar","state":"Punjab","latitude":31.634,"longitude":74.8723,"temp":29.1,"humidity":39,"rain":0.0,"pressure":974.3,"uv_index":8.4,"wind_gusts":41.4,"aqi":96,"pm10":68.2,"pm2_5":56.8,"no2":46.0,"co":609.0,"o3":30.0,"so2":10.4,"mosquito_risk":4,"arthritis_risk":5,"migraine_risk":7,"frizz_risk":0,"updated_at":"2026-05-28T03:28:49.821599+05:30"},{"city":"Ludhiana","state":"Punjab","latitude":30.901,"longitude":75.8573,"temp":30.0,"humidity":33,"rain":0.0,"pressure":972.1,"uv_index":8.0,"wind_gusts":49.3,"aqi":81,"pm10":46.0,"pm2_5":40.2,"no2":27.4,"co":623.0,"o3":51.0,"so2":8.7,"mosquito_risk":4,"arthritis_risk":5,"migraine_risk":7,"frizz_risk":0,"updated_at":"2026-05-28T03:28:49.821605+05:30"},{"city":"Jalandhar","state":"Punjab","latitude":31.326,"longitude":75.5762,"temp":30.1,"humidity":31,"rain":0.0,"pressure":973.2,"uv_index":8.2,"wind_gusts":37.4,"aqi":91,"pm10":79.4,"pm2_5":52.9,"no2":35.2,"co":808.0,"o3":51.0,"so2":8.7,"mosquito_risk":0,"arthritis_risk":5,"migraine_risk":7,"frizz_risk":0,"updated_at":"2026-05-28T03:28:49.821611+05:30"},{"city":"Dehradun","state":"Uttarakhand","latitude":30.6284,"longitude":78.0322,"temp":16.5,"humidity":43,"rain":0.0,"pressure":826.1,"uv_index":8.2,"wind_gusts":40.3,"aqi":61,"pm10":29.4,"pm2_5":19.0,"no2":29.1,"co":170.0,"o3":28.0,"so2":0.5,"mosquito_risk":0,"arthritis_risk":5,"migraine_risk":7,"frizz_risk":0,"updated_at":"2026-05-28T03:28:49.821617+05:30"},{"city":"Shimla","state":"Himachal Pradesh","latitude":31.1048,"longitude":77.1734,"temp":15.1,"humidity":36,"rain":0.0,"pressure":781.1,"uv_index":8.25,"wind_gusts":47.9,"aqi":56,"pm10":37.1,"pm2_5":17.8,"no2":17.8,"co":196.0,"o3":84.0,"so2":1.4,"mosquito_risk":0,"arthritis_risk":5,"migraine_risk":7,"frizz_risk":0,"updated_at":"2026-05-28T03:28:49.821630+05:30"},{"city":"Manali","state":"Himachal Pradesh","latitude":32.2396,"longitude":77.1887,"temp":11.3,"humidity":49,"rain":0.0,"pressure":813.5,"uv_index":9.55,"wind_gusts":58.3,"aqi":58,"pm10":16.1,"pm2_5":9.4,"no2":62.2,"co":224.0,"o3":58.0,"so2":0.0,"mosquito_risk":0,"arthritis_risk":5,"migraine_risk":7,"frizz_risk":0,"updated_at":"2026-05-28T03:28:49.821636+05:30"},{"city":"Gurgaon","state":"Haryana","latitude":28.4595,"longitude":77.0266,"temp":31.0,"humidity":30,"rain":0.0,"pressure":975.2,"uv_index":7.85,"wind_gusts":65.5,"aqi":907,"pm10":1143.7,"pm2_5":186.7,"no2":37.4,"co":483.0,"o3":41.0,"so2":13.9,"mosquito_risk":0,"arthritis_risk":5,"migraine_risk":7,"frizz_risk":0,"updated_at":"2026-05-28T03:28:49.821646+05:30"},{"city":"Noida","state":"Uttar Pradesh","latitude":28.5355,"longitude":77.391,"temp":29.0,"humidity":48,"rain":0.0,"pressure":978.3,"uv_index":7.75,"wind_gusts":64.8,"aqi":907,"pm10":1143.7,"pm2_5":186.7,"no2":37.4,"co":1195.0,"o3":41.0,"so2":13.9,"mosquito_risk":4,"arthritis_risk":5,"migraine_risk":7,"frizz_risk":1,"updated_at":"2026-05-28T03:28:49.821653+05:30"},{"city":"Ghaziabad","state":"Uttar Pradesh","latitude":28.6692,"longitude":77.4538,"temp":28.5,"humidity":49,"rain":0.0,"pressure":977.0,"uv_index":7.75,"wind_gusts":77.8,"aqi":433,"pm10":925.7,"pm2_5":188.6,"no2":48.4,"co":665.0,"o3":39.0,"so2":23.1,"mosquito_risk":4,"arthritis_risk":5,"migraine_risk":7,"frizz_risk":1,"updated_at":"2026-05-28T03:28:49.821659+05:30"},{"city":"Faridabad","state":"Haryana","latitude":28.4089,"longitude":77.3178,"temp":31.2,"humidity":33,"rain":0.0,"pressure":977.5,"uv_index":7.8,"wind_gusts":72.4,"aqi":907,"pm10":1143.7,"pm2_5":186.7,"no2":37.4,"co":593.0,"o3":41.0,"so2":13.9,"mosquito_risk":0,"arthritis_risk":5,"migraine_risk":7,"frizz_risk":0,"updated_at":"2026-05-28T03:28:49.821666+05:30"},{"city":"Meerut","state":"Uttar Pradesh","latitude":28.9845,"longitude":77.7064,"temp":28.5,"humidity":48,"rain":0.0,"pressure":976.2,"uv_index":7.65,"wind_gusts":58.7,"aqi":433,"pm10":925.7,"pm2_5":188.6,"no2":48.4,"co":874.0,"o3":39.0,"so2":23.1,"mosquito_risk":4,"arthritis_risk":5,"migraine_risk":7,"frizz_risk":1,"updated_at":"2026-05-28T03:28:49.821672+05:30"},{"city":"Agra","state":"Uttar Pradesh","latitude":27.1767,"longitude":78.0081,"temp":32.5,"humidity":27,"rain":0.0,"pressure":981.7,"uv_index":8.1,"wind_gusts":45.0,"aqi":711,"pm10":879.2,"pm2_5":133.6,"no2":26.8,"co":491.0,"o3":43.0,"so2":9.1,"mosquito_risk":0,"arthritis_risk":5,"migraine_risk":7,"frizz_risk":0,"updated_at":"2026-05-28T03:28:49.821678+05:30"},{"city":"Varanasi","state":"Uttar Pradesh","latitude":25.3176,"longitude":82.9739,"temp":28.9,"humidity":64,"rain":0.0,"pressure":993.5,"uv_index":8.7,"wind_gusts":38.2,"aqi":148,"pm10":52.4,"pm2_5":46.6,"no2":8.8,"co":386.0,"o3":126.0,"so2":20.7,"mosquito_risk":7,"arthritis_risk":5,"migraine_risk":7,"frizz_risk":1,"updated_at":"2026-05-28T03:28:49.821685+05:30"},{"city":"Prayagraj","state":"Uttar Pradesh","latitude":25.4358,"longitude":81.8463,"temp":31.1,"humidity":55,"rain":0.0,"pressure":991.2,"uv_index":8.6,"wind_gusts":38.5,"aqi":125,"pm10":57.6,"pm2_5":49.1,"no2":8.5,"co":440.0,"o3":139.0,"so2":18.1,"mosquito_risk":0,"arthritis_risk":5,"migraine_risk":7,"frizz_risk":1,"updated_at":"2026-05-28T03:28:49.821691+05:30"},{"city":"Gorakhpur","state":"Uttar Pradesh","latitude":26.7606,"longitude":83.3732,"temp":26.9,"humidity":71,"rain":0.0,"pressure":995.4,"uv_index":8.6,"wind_gusts":43.2,"aqi":104,"pm10":30.9,"pm2_5":26.4,"no2":9.9,"co":393.0,"o3":97.0,"so2":10.5,"mosquito_risk":7,"arthritis_risk":5,"migraine_risk":7,"frizz_risk":1,"updated_at":"2026-05-28T03:28:49.821699+05:30"},{"city":"Bareilly","state":"Uttar Pradesh","latitude":28.367,"longitude":79.4304,"temp":28.6,"humidity":60,"rain":0.0,"pressure":982.9,"uv_index":8.05,"wind_gusts":42.1,"aqi":117,"pm10":68.0,"pm2_5":38.3,"no2":14.6,"co":436.0,"o3":92.0,"so2":10.0,"mosquito_risk":4,"arthritis_risk":5,"migraine_risk":7,"frizz_risk":1,"updated_at":"2026-05-28T03:28:49.821705+05:30"},{"city":"Aligarh","state":"Uttar Pradesh","latitude":27.8974,"longitude":78.088,"temp":30.1,"humidity":38,"rain":0.0,"pressure":979.8,"uv_index":7.9,"wind_gusts":71.6,"aqi":620,"pm10":776.7,"pm2_5":154.6,"no2":38.3,"co":648.0,"o3":41.0,"so2":11.0,"mosquito_risk":0,"arthritis_risk":5,"migraine_risk":7,"frizz_risk":0,"updated_at":"2026-05-28T03:28:49.821712+05:30"},{"city":"Moradabad","state":"Uttar Pradesh","latitude":28.8386,"longitude":78.7733,"temp":29.5,"humidity":56,"rain":0.0,"pressure":979.4,"uv_index":7.85,"wind_gusts":48.6,"aqi":130,"pm10":39.1,"pm2_5":37.5,"no2":19.2,"co":438.0,"o3":86.0,"so2":12.5,"mosquito_risk":4,"arthritis_risk":5,"migraine_risk":7,"frizz_risk":1,"updated_at":"2026-05-28T03:28:49.821718+05:30"},{"city":"Saharanpur","state":"Uttar Pradesh","latitude":29.9637,"longitude":77.546,"temp":28.2,"humidity":50,"rain":0.0,"pressure":970.5,"uv_index":7.5,"wind_gusts":48.6,"aqi":111,"pm10":117.8,"pm2_5":57.6,"no2":36.8,"co":585.0,"o3":54.0,"so2":12.6,"mosquito_risk":4,"arthritis_risk":5,"migraine_risk":7,"frizz_risk":1,"updated_at":"2026-05-28T03:28:49.821724+05:30"},{"city":"Jhansi","state":"Uttar Pradesh","latitude":25.4484,"longitude":78.5685,"temp":33.3,"humidity":26,"rain":0.0,"pressure":972.7,"uv_index":8.45,"wind_gusts":46.4,"aqi":74,"pm10":30.2,"pm2_5":16.8,"no2":4.5,"co":160.0,"o3":65.0,"so2":2.5,"mosquito_risk":0,"arthritis_risk":5,"migraine_risk":7,"frizz_risk":0,"updated_at":"2026-05-28T03:28:53.213232+05:30"},{"city":"Surat","state":"Gujarat","latitude":21.1702,"longitude":72.8311,"temp":29.5,"humidity":77,"rain":0.0,"pressure":1006.3,"uv_index":7.7,"wind_gusts":48.6,"aqi":80,"pm10":47.1,"pm2_5":24.4,"no2":15.1,"co":235.0,"o3":38.0,"so2":26.4,"mosquito_risk":7,"arthritis_risk":5,"migraine_risk":4,"frizz_risk":1,"updated_at":"2026-05-28T03:28:53.213261+05:30"},{"city":"Vadodara","state":"Gujarat","latitude":22.3072,"longitude":73.1812,"temp":29.6,"humidity":75,"rain":0.0,"pressure":1003.1,"uv_index":8.05,"wind_gusts":44.6,"aqi":77,"pm10":32.6,"pm2_5":21.5,"no2":14.9,"co":126.0,"o3":34.0,"so2":16.2,"mosquito_risk":7,"arthritis_risk":5,"migraine_risk":4,"frizz_risk":1,"updated_at":"2026-05-28T03:28:53.213271+05:30"},{"city":"Rajkot","state":"Gujarat","latitude":22.3039,"longitude":70.8022,"temp":28.0,"humidity":80,"rain":0.0,"pressure":993.3,"uv_index":7.7,"wind_gusts":48.6,"aqi":69,"pm10":36.6,"pm2_5":17.8,"no2":3.9,"co":113.0,"o3":45.0,"so2":4.3,"mosquito_risk":7,"arthritis_risk":5,"migraine_risk":7,"frizz_risk":1,"updated_at":"2026-05-28T03:28:53.213280+05:30"},{"city":"Thane","state":"Maharashtra","latitude":19.2183,"longitude":72.9781,"temp":29.0,"humidity":80,"rain":0.0,"pressure":1007.9,"uv_index":7.8,"wind_gusts":39.6,"aqi":43,"pm10":34.9,"pm2_5":13.8,"no2":5.2,"co":165.0,"o3":46.0,"so2":3.7,"mosquito_risk":7,"arthritis_risk":5,"migraine_risk":4,"frizz_risk":1,"updated_at":"2026-05-28T03:28:53.213288+05:30"},{"city":"Nagpur","state":"Maharashtra","latitude":21.1458,"longitude":79.0882,"temp":33.8,"humidity":23,"rain":0.0,"pressure":969.8,"uv_index":8.8,"wind_gusts":45.0,"aqi":68,"pm10":27.2,"pm2_5":17.8,"no2":12.5,"co":220.0,"o3":63.0,"so2":9.6,"mosquito_risk":0,"arthritis_risk":5,"migraine_risk":7,"frizz_risk":0,"updated_at":"2026-05-28T03:28:53.213296+05:30"},{"city":"Nashik","state":"Maharashtra","latitude":19.9975,"longitude":73.7898,"temp":24.0,"humidity":89,"rain":0.0,"pressure":945.7,"uv_index":8.15,"wind_gusts":40.0,"aqi":39,"pm10":22.1,"pm2_5":11.3,"no2":8.0,"co":123.0,"o3":38.0,"so2":5.5,"mosquito_risk":3,"arthritis_risk":5,"migraine_risk":7,"frizz_risk":1,"updated_at":"2026-05-28T03:28:53.213303+05:30"},{"city":"Aurangabad","state":"Maharashtra","latitude":19.8762,"longitude":75.3433,"temp":26.2,"humidity":73,"rain":0.0,"pressure":943.6,"uv_index":9.0,"wind_gusts":42.1,"aqi":47,"pm10":20.6,"pm2_5":13.1,"no2":9.1,"co":156.0,"o3":45.0,"so2":5.5,"mosquito_risk":7,"arthritis_risk":5,"migraine_risk":7,"frizz_risk":1,"updated_at":"2026-05-28T03:28:53.213311+05:30"},{"city":"Solapur","state":"Maharashtra","latitude":17.6599,"longitude":75.9064,"temp":27.7,"humidity":68,"rain":0.0,"pressure":956.9,"uv_index":8.95,"wind_gusts":34.9,"aqi":51,"pm10":12.3,"pm2_5":10.6,"no2":6.8,"co":152.0,"o3":75.0,"so2":7.4,"mosquito_risk":7,"arthritis_risk":5,"migraine_risk":7,"frizz_risk":1,"updated_at":"2026-05-28T03:28:53.213319+05:30"},{"city":"Kolhapur","state":"Maharashtra","latitude":16.705,"longitude":74.2433,"temp":23.6,"humidity":95,"rain":0.0,"pressure":948.1,"uv_index":8.8,"wind_gusts":42.5,"aqi":31,"pm10":7.3,"pm2_5":5.6,"no2":4.9,"co":146.0,"o3":42.0,"so2":2.1,"mosquito_risk":3,"arthritis_risk":5,"migraine_risk":7,"frizz_risk":1,"updated_at":"2026-05-28T03:28:53.213327+05:30"},{"city":"Goa","state":"Goa","latitude":15.2993,"longitude":74.124,"temp":26.4,"humidity":97,"rain":0.1,"pressure":998.5,"uv_index":7.05,"wind_gusts":28.8,"aqi":37,"pm10":17.5,"pm2_5":13.9,"no2":5.9,"co":321.0,"o3":38.0,"so2":1.5,"mosquito_risk":10,"arthritis_risk":5,"migraine_risk":7,"frizz_risk":1,"updated_at":"2026-05-28T03:28:53.213334+05:30"},{"city":"Jodhpur","state":"Rajasthan","latitude":26.2389,"longitude":73.0243,"temp":32.8,"humidity":39,"rain":0.0,"pressure":979.4,"uv_index":8.4,"wind_gusts":51.1,"aqi":166,"pm10":243.1,"pm2_5":54.7,"no2":3.5,"co":141.0,"o3":62.0,"so2":2.2,"mosquito_risk":0,"arthritis_risk":5,"migraine_risk":7,"frizz_risk":1,"updated_at":"2026-05-28T03:28:53.213341+05:30"},{"city":"Udaipur","state":"Rajasthan","latitude":24.5854,"longitude":73.7125,"temp":29.0,"humidity":54,"rain":0.0,"pressure":944.2,"uv_index":8.8,"wind_gusts":48.6,"aqi":66,"pm10":36.8,"pm2_5":19.3,"no2":3.7,"co":142.0,"o3":69.0,"so2":2.9,"mosquito_risk":4,"arthritis_risk":5,"migraine_risk":7,"frizz_risk":1,"updated_at":"2026-05-28T03:28:53.213381+05:30"},{"city":"Kota","state":"Rajasthan","latitude":25.2138,"longitude":75.8648,"temp":34.5,"humidity":28,"rain":0.0,"pressure":974.6,"uv_index":8.35,"wind_gusts":42.1,"aqi":74,"pm10":38.2,"pm2_5":22.1,"no2":6.2,"co":178.0,"o3":65.0,"so2":5.9,"mosquito_risk":0,"arthritis_risk":5,"migraine_risk":7,"frizz_risk":0,"updated_at":"2026-05-28T03:28:53.213392+05:30"},{"city":"Bikaner","state":"Rajasthan","latitude":28.0229,"longitude":73.3119,"temp":35.0,"humidity":25,"rain":0.0,"pressure":976.7,"uv_index":8.45,"wind_gusts":41.8,"aqi":141,"pm10":144.8,"pm2_5":53.0,"no2":2.4,"co":128.0,"o3":73.0,"so2":4.5,"mosquito_risk":0,"arthritis_risk":5,"migraine_risk":7,"frizz_risk":0,"updated_at":"2026-05-28T03:28:53.213400+05:30"},{"city":"Ajmer","state":"Rajasthan","latitude":26.4499,"longitude":74.6399,"temp":32.1,"humidity":36,"rain":0.0,"pressure":951.1,"uv_index":8.35,"wind_gusts":54.0,"aqi":74,"pm10":46.7,"pm2_5":19.9,"no2":3.6,"co":139.0,"o3":73.0,"so2":3.5,"mosquito_risk":0,"arthritis_risk":5,"migraine_risk":7,"frizz_risk":0,"updated_at":"2026-05-28T03:28:53.213408+05:30"},{"city":"Gwalior","state":"Madhya Pradesh","latitude":26.2183,"longitude":78.1828,"temp":34.5,"humidity":26,"rain":0.0,"pressure":977.5,"uv_index":8.25,"wind_gusts":49.3,"aqi":92,"pm10":30.7,"pm2_5":20.1,"no2":7.4,"co":169.0,"o3":55.0,"so2":3.4,"mosquito_risk":0,"arthritis_risk":5,"migraine_risk":7,"frizz_risk":0,"updated_at":"2026-05-28T03:28:53.213415+05:30"},{"city":"Indore","state":"Madhya Pradesh","latitude":22.7196,"longitude":75.8577,"temp":29.5,"humidity":56,"rain":0.0,"pressure":946.6,"uv_index":8.65,"wind_gusts":47.2,"aqi":68,"pm10":50.3,"pm2_5":27.8,"no2":4.8,"co":219.0,"o3":93.0,"so2":7.9,"mosquito_risk":4,"arthritis_risk":5,"migraine_risk":7,"frizz_risk":1,"updated_at":"2026-05-28T03:28:53.213423+05:30"},{"city":"Bhopal","state":"Madhya Pradesh","latitude":23.2599,"longitude":77.4126,"temp":32.9,"humidity":30,"rain":0.0,"pressure":951.0,"uv_index":8.7,"wind_gusts":39.6,"aqi":68,"pm10":38.2,"pm2_5":22.3,"no2":4.0,"co":184.0,"o3":82.0,"so2":4.8,"mosquito_risk":0,"arthritis_risk":5,"migraine_risk":7,"frizz_risk":0,"updated_at":"2026-05-28T03:28:53.213430+05:30"},{"city":"Jabalpur","state":"Madhya Pradesh","latitude":23.1815,"longitude":79.9864,"temp":33.3,"humidity":23,"rain":0.0,"pressure":958.1,"uv_index":8.85,"wind_gusts":37.1,"aqi":73,"pm10":30.5,"pm2_5":19.7,"no2":10.8,"co":208.0,"o3":62.0,"so2":4.0,"mosquito_risk":0,"arthritis_risk":5,"migraine_risk":7,"frizz_risk":0,"updated_at":"2026-05-28T03:28:53.213437+05:30"},{"city":"Ujjain","state":"Madhya Pradesh","latitude":23.1765,"longitude":75.7885,"temp":29.5,"humidity":58,"rain":0.0,"pressure":952.1,"uv_index":8.6,"wind_gusts":49.7,"aqi":70,"pm10":48.5,"pm2_5":28.1,"no2":4.2,"co":201.0,"o3":93.0,"so2":9.3,"mosquito_risk":4,"arthritis_risk":5,"migraine_risk":7,"frizz_risk":1,"updated_at":"2026-05-28T03:28:53.213445+05:30"},{"city":"Visakhapatnam","state":"Andhra Pradesh","latitude":17.6868,"longitude":83.2185,"temp":30.2,"humidity":82,"rain":0.0,"pressure":1000.0,"uv_index":9.0,"wind_gusts":47.9,"aqi":138,"pm10":47.1,"pm2_5":36.9,"no2":27.0,"co":511.0,"o3":70.0,"so2":31.6,"mosquito_risk":3,"arthritis_risk":5,"migraine_risk":4,"frizz_risk":1,"updated_at":"2026-05-28T03:28:53.213455+05:30"},{"city":"Vijayawada","state":"Andhra Pradesh","latitude":16.5062,"longitude":80.648,"temp":31.3,"humidity":57,"rain":0.0,"pressure":999.6,"uv_index":8.65,"wind_gusts":35.6,"aqi":85,"pm10":37.6,"pm2_5":33.1,"no2":14.3,"co":280.0,"o3":76.0,"so2":6.3,"mosquito_risk":0,"arthritis_risk":5,"migraine_risk":7,"frizz_risk":1,"updated_at":"2026-05-28T03:28:53.213462+05:30"},{"city":"Guntur","state":"Andhra Pradesh","latitude":16.3067,"longitude":80.4365,"temp":30.4,"humidity":62,"rain":0.0,"pressure":1001.0,"uv_index":8.3,"wind_gusts":32.4,"aqi":77,"pm10":37.1,"pm2_5":31.8,"no2":16.2,"co":278.0,"o3":68.0,"so2":6.5,"mosquito_risk":3,"arthritis_risk":5,"migraine_risk":4,"frizz_risk":1,"updated_at":"2026-05-28T03:28:53.213470+05:30"},{"city":"Nellore","state":"Andhra Pradesh","latitude":14.4426,"longitude":79.9865,"temp":27.0,"humidity":81,"rain":0.0,"pressure":1004.1,"uv_index":9.0,"wind_gusts":35.6,"aqi":75,"pm10":34.1,"pm2_5":31.9,"no2":12.0,"co":306.0,"o3":91.0,"so2":11.6,"mosquito_risk":7,"arthritis_risk":5,"migraine_risk":4,"frizz_risk":1,"updated_at":"2026-05-28T03:28:53.213478+05:30"},{"city":"Kurnool","state":"Andhra Pradesh","latitude":15.8281,"longitude":78.0373,"temp":27.9,"humidity":63,"rain":0.0,"pressure":976.2,"uv_index":9.0,"wind_gusts":67.0,"aqi":60,"pm10":13.7,"pm2_5":12.2,"no2":11.8,"co":209.0,"o3":61.0,"so2":8.4,"mosquito_risk":7,"arthritis_risk":5,"migraine_risk":7,"frizz_risk":1,"updated_at":"2026-05-28T03:28:53.213486+05:30"},{"city":"Kakinada","state":"Andhra Pradesh","latitude":16.9891,"longitude":82.2475,"temp":31.0,"humidity":68,"rain":0.0,"pressure":1003.7,"uv_index":9.0,"wind_gusts":40.7,"aqi":91,"pm10":31.5,"pm2_5":24.6,"no2":5.4,"co":283.0,"o3":115.0,"so2":4.3,"mosquito_risk":3,"arthritis_risk":5,"migraine_risk":4,"frizz_risk":1,"updated_at":"2026-05-28T03:28:53.213494+05:30"},{"city":"Tirupati","state":"Andhra Pradesh","latitude":13.6288,"longitude":79.4192,"temp":25.5,"humidity":77,"rain":0.0,"pressure":989.8,"uv_index":9.05,"wind_gusts":25.9,"aqi":78,"pm10":44.9,"pm2_5":39.1,"no2":32.5,"co":513.0,"o3":39.0,"so2":10.6,"mosquito_risk":7,"arthritis_risk":5,"migraine_risk":7,"frizz_risk":1,"updated_at":"2026-05-28T03:28:53.213501+05:30"},{"city":"Warangal","state":"Telangana","latitude":17.9689,"longitude":79.5941,"temp":29.9,"humidity":58,"rain":0.0,"pressure":975.7,"uv_index":9.05,"wind_gusts":37.8,"aqi":85,"pm10":35.4,"pm2_5":30.4,"no2":18.5,"co":332.0,"o3":60.0,"so2":7.7,"mosquito_risk":4,"arthritis_risk":5,"migraine_risk":7,"frizz_risk":1,"updated_at":"2026-05-28T03:28:53.213509+05:30"},{"city":"Nizamabad","state":"Telangana","latitude":18.6725,"longitude":78.0941,"temp":29.9,"humidity":52,"rain":0.0,"pressure":962.9,"uv_index":9.0,"wind_gusts":34.9,"aqi":65,"pm10":36.3,"pm2_5":29.8,"no2":22.9,"co":334.0,"o3":44.0,"so2":5.5,"mosquito_risk":4,"arthritis_risk":5,"migraine_risk":7,"frizz_risk":1,"updated_at":"2026-05-28T03:28:53.213516+05:30"},{"city":"Mysore","state":"Karnataka","latitude":12.2958,"longitude":76.6396,"temp":22.0,"humidity":95,"rain":0.0,"pressure":928.8,"uv_index":9.1,"wind_gusts":34.9,"aqi":51,"pm10":6.4,"pm2_5":6.1,"no2":6.6,"co":148.0,"o3":56.0,"so2":2.3,"mosquito_risk":3,"arthritis_risk":5,"migraine_risk":7,"frizz_risk":1,"updated_at":"2026-05-28T03:28:53.213522+05:30"},{"city":"Mangalore","state":"Karnataka","latitude":12.9141,"longitude":74.856,"temp":26.0,"humidity":96,"rain":0.0,"pressure":1007.5,"uv_index":8.65,"wind_gusts":41.0,"aqi":51,"pm10":12.0,"pm2_5":9.9,"no2":8.4,"co":282.0,"o3":46.0,"so2":2.7,"mosquito_risk":7,"arthritis_risk":5,"migraine_risk":4,"frizz_risk":1,"updated_at":"2026-05-28T03:28:53.213530+05:30"},{"city":"Hubli-Dharwad","state":"Karnataka","latitude":15.3647,"longitude":75.124,"temp":23.9,"humidity":96,"rain":0.0,"pressure":941.3,"uv_index":9.0,"wind_gusts":47.5,"aqi":24,"pm10":5.1,"pm2_5":4.2,"no2":5.7,"co":152.0,"o3":38.0,"so2":1.4,"mosquito_risk":3,"arthritis_risk":5,"migraine_risk":7,"frizz_risk":1,"updated_at":"2026-05-28T03:28:53.213537+05:30"},{"city":"Belgaum","state":"Karnataka","latitude":15.8497,"longitude":74.4977,"temp":22.6,"humidity":98,"rain":0.0,"pressure":926.2,"uv_index":9.0,"wind_gusts":44.6,"aqi":30,"pm10":7.7,"pm2_5":5.9,"no2":4.0,"co":130.0,"o3":42.0,"so2":1.3,"mosquito_risk":3,"arthritis_risk":5,"migraine_risk":7,"frizz_risk":1,"updated_at":"2026-05-28T03:28:56.589575+05:30"},{"city":"Coimbatore","state":"Tamil Nadu","latitude":11.0168,"longitude":76.9558,"temp":25.5,"humidity":82,"rain":0.0,"pressure":961.6,"uv_index":8.4,"wind_gusts":49.7,"aqi":34,"pm10":5.0,"pm2_5":4.2,"no2":3.8,"co":132.0,"o3":59.0,"so2":2.2,"mosquito_risk":7,"arthritis_risk":5,"migraine_risk":7,"frizz_risk":1,"updated_at":"2026-05-28T03:28:56.589603+05:30"},{"city":"Madurai","state":"Tamil Nadu","latitude":9.9252,"longitude":78.1198,"temp":27.4,"humidity":75,"rain":0.0,"pressure":992.6,"uv_index":7.9,"wind_gusts":47.5,"aqi":88,"pm10":40.7,"pm2_5":37.4,"no2":37.7,"co":199.0,"o3":9.0,"so2":5.5,"mosquito_risk":7,"arthritis_risk":5,"migraine_risk":7,"frizz_risk":1,"updated_at":"2026-05-28T03:28:56.589613+05:30"},{"city":"Trichy","state":"Tamil Nadu","latitude":10.7905,"longitude":78.7047,"temp":28.4,"humidity":69,"rain":0.0,"pressure":999.2,"uv_index":7.95,"wind_gusts":38.5,"aqi":55,"pm10":12.3,"pm2_5":11.6,"no2":13.5,"co":160.0,"o3":46.0,"so2":4.3,"mosquito_risk":7,"arthritis_risk":5,"migraine_risk":7,"frizz_risk":1,"updated_at":"2026-05-28T03:28:56.589621+05:30"},{"city":"Salem","state":"Tamil Nadu","latitude":11.6643,"longitude":78.146,"temp":27.6,"humidity":70,"rain":0.0,"pressure":977.4,"uv_index":8.0,"wind_gusts":34.2,"aqi":66,"pm10":12.3,"pm2_5":11.2,"no2":16.2,"co":268.0,"o3":40.0,"so2":6.6,"mosquito_risk":7,"arthritis_risk":5,"migraine_risk":7,"frizz_risk":1,"updated_at":"2026-05-28T03:28:56.589628+05:30"},{"city":"Tirunelveli","state":"Tamil Nadu","latitude":8.7139,"longitude":77.7567,"temp":28.8,"humidity":69,"rain":0.0,"pressure":1003.5,"uv_index":7.8,"wind_gusts":40.3,"aqi":27,"pm10":9.1,"pm2_5":7.7,"no2":7.5,"co":166.0,"o3":36.0,"so2":1.9,"mosquito_risk":7,"arthritis_risk":5,"migraine_risk":4,"frizz_risk":1,"updated_at":"2026-05-28T03:28:56.589635+05:30"},{"city":"Vellore","state":"Tamil Nadu","latitude":12.9165,"longitude":79.1325,"temp":26.1,"humidity":79,"rain":0.0,"pressure":983.4,"uv_index":8.85,"wind_gusts":34.6,"aqi":88,"pm10":39.6,"pm2_5":33.8,"no2":19.7,"co":269.0,"o3":51.0,"so2":8.3,"mosquito_risk":7,"arthritis_risk":5,"migraine_risk":7,"frizz_risk":1,"updated_at":"2026-05-28T03:28:56.589641+05:30"},{"city":"Erode","state":"Tamil Nadu","latitude":11.341,"longitude":77.7172,"temp":26.9,"humidity":78,"rain":0.0,"pressure":989.0,"uv_index":8.05,"wind_gusts":46.8,"aqi":49,"pm10":7.3,"pm2_5":6.8,"no2":9.6,"co":154.0,"o3":43.0,"so2":3.6,"mosquito_risk":7,"arthritis_risk":5,"migraine_risk":7,"frizz_risk":1,"updated_at":"2026-05-28T03:28:56.589648+05:30"},{"city":"Kochi","state":"Kerala","latitude":9.9312,"longitude":76.2673,"temp":26.2,"humidity":95,"rain":0.0,"pressure":1009.8,"uv_index":6.4,"wind_gusts":28.1,"aqi":51,"pm10":17.9,"pm2_5":16.3,"no2":17.6,"co":219.0,"o3":18.0,"so2":4.8,"mosquito_risk":7,"arthritis_risk":0,"migraine_risk":4,"frizz_risk":1,"updated_at":"2026-05-28T03:28:56.589655+05:30"},{"city":"Thiruvananthapuram","state":"Kerala","latitude":8.5241,"longitude":76.9366,"temp":25.4,"humidity":94,"rain":0.0,"pressure":1009.2,"uv_index":6.55,"wind_gusts":29.9,"aqi":27,"pm10":12.4,"pm2_5":7.0,"no2":3.7,"co":234.0,"o3":48.0,"so2":1.8,"mosquito_risk":7,"arthritis_risk":0,"migraine_risk":4,"frizz_risk":1,"updated_at":"2026-05-28T03:28:56.589662+05:30"},{"city":"Kozhikode","state":"Kerala","latitude":11.2588,"longitude":75.7804,"temp":24.8,"humidity":99,"rain":0.1,"pressure":1009.1,"uv_index":8.3,"wind_gusts":28.8,"aqi":28,"pm10":9.0,"pm2_5":6.6,"no2":3.7,"co":499.0,"o3":56.0,"so2":2.2,"mosquito_risk":6,"arthritis_risk":0,"migraine_risk":4,"frizz_risk":1,"updated_at":"2026-05-28T03:28:56.589669+05:30"},{"city":"Thrissur","state":"Kerala","latitude":10.5276,"longitude":76.2144,"temp":24.8,"humidity":97,"rain":0.0,"pressure":1008.1,"uv_index":7.45,"wind_gusts":28.8,"aqi":47,"pm10":15.0,"pm2_5":13.6,"no2":14.1,"co":244.0,"o3":27.0,"so2":5.0,"mosquito_risk":3,"arthritis_risk":0,"migraine_risk":4,"frizz_risk":1,"updated_at":"2026-05-28T03:28:56.589676+05:30"},{"city":"Kannur","state":"Kerala","latitude":11.8745,"longitude":75.3704,"temp":25.6,"humidity":98,"rain":0.1,"pressure":1008.3,"uv_index":8.65,"wind_gusts":33.8,"aqi":41,"pm10":8.9,"pm2_5":7.4,"no2":6.2,"co":208.0,"o3":43.0,"so2":2.4,"mosquito_risk":10,"arthritis_risk":0,"migraine_risk":4,"frizz_risk":1,"updated_at":"2026-05-28T03:28:56.589684+05:30"},{"city":"Patna","state":"Bihar","latitude":25.5941,"longitude":85.1376,"temp":26.3,"humidity":78,"rain":0.0,"pressure":998.0,"uv_index":8.75,"wind_gusts":49.3,"aqi":105,"pm10":33.1,"pm2_5":30.2,"no2":12.3,"co":337.0,"o3":91.0,"so2":19.1,"mosquito_risk":7,"arthritis_risk":5,"migraine_risk":7,"frizz_risk":1,"updated_at":"2026-05-28T03:28:56.589691+05:30"},{"city":"Gaya","state":"Bihar","latitude":24.7914,"longitude":85.0002,"temp":27.0,"humidity":70,"rain":0.0,"pressure":990.1,"uv_index":8.8,"wind_gusts":38.2,"aqi":132,"pm10":36.3,"pm2_5":33.3,"no2":9.8,"co":417.0,"o3":96.0,"so2":16.8,"mosquito_risk":7,"arthritis_risk":5,"migraine_risk":7,"frizz_risk":1,"updated_at":"2026-05-28T03:28:56.589697+05:30"},{"city":"Muzaffarpur","state":"Bihar","latitude":26.1209,"longitude":85.3647,"temp":25.4,"humidity":82,"rain":0.0,"pressure":998.8,"uv_index":8.7,"wind_gusts":46.4,"aqi":90,"pm10":29.4,"pm2_5":26.7,"no2":11.7,"co":324.0,"o3":87.0,"so2":12.9,"mosquito_risk":7,"arthritis_risk":5,"migraine_risk":7,"frizz_risk":1,"updated_at":"2026-05-28T03:28:56.589704+05:30"},{"city":"Bhagalpur","state":"Bihar","latitude":25.2425,"longitude":87.0117,"temp":25.0,"humidity":90,"rain":0.0,"pressure":1000.1,"uv_index":8.65,"wind_gusts":46.1,"aqi":97,"pm10":37.4,"pm2_5":34.8,"no2":14.8,"co":349.0,"o3":73.0,"so2":9.6,"mosquito_risk":7,"arthritis_risk":5,"migraine_risk":4,"frizz_risk":1,"updated_at":"2026-05-28T03:28:56.589711+05:30"},{"city":"Ranchi","state":"Jharkhand","latitude":23.3441,"longitude":85.3096,"temp":23.4,"humidity":72,"rain":0.0,"pressure":934.9,"uv_index":9.05,"wind_gusts":36.7,"aqi":125,"pm10":63.6,"pm2_5":53.8,"no2":10.0,"co":344.0,"o3":115.0,"so2":23.2,"mosquito_risk":3,"arthritis_risk":5,"migraine_risk":7,"frizz_risk":1,"updated_at":"2026-05-28T03:28:56.589717+05:30"},{"city":"Jamshedpur","state":"Jharkhand","latitude":22.8046,"longitude":86.2029,"temp":25.0,"humidity":94,"rain":0.0,"pressure":988.4,"uv_index":9.05,"wind_gusts":32.4,"aqi":152,"pm10":34.3,"pm2_5":30.3,"no2":8.7,"co":278.0,"o3":78.0,"so2":12.0,"mosquito_risk":7,"arthritis_risk":5,"migraine_risk":7,"frizz_risk":1,"updated_at":"2026-05-28T03:28:56.589724+05:30"},{"city":"Dhanbad","state":"Jharkhand","latitude":23.7957,"longitude":86.4304,"temp":24.9,"humidity":89,"rain":0.0,"pressure":977.6,"uv_index":9.0,"wind_gusts":36.4,"aqi":160,"pm10":81.0,"pm2_5":71.9,"no2":32.1,"co":675.0,"o3":68.0,"so2":81.0,"mosquito_risk":3,"arthritis_risk":5,"migraine_risk":7,"frizz_risk":1,"updated_at":"2026-05-28T03:28:56.589731+05:30"},{"city":"Bokaro","state":"Jharkhand","latitude":23.6693,"longitude":86.1511,"temp":25.2,"humidity":84,"rain":0.0,"pressure":981.5,"uv_index":9.0,"wind_gusts":40.7,"aqi":161,"pm10":89.9,"pm2_5":80.6,"no2":38.1,"co":786.0,"o3":64.0,"so2":95.0,"mosquito_risk":7,"arthritis_risk":5,"migraine_risk":7,"frizz_risk":1,"updated_at":"2026-05-28T03:28:56.589738+05:30"},{"city":"Bhubaneswar","state":"Odisha","latitude":20.2961,"longitude":85.8245,"temp":28.2,"humidity":88,"rain":0.0,"pressure":999.5,"uv_index":9.05,"wind_gusts":44.6,"aqi":104,"pm10":43.4,"pm2_5":32.7,"no2":5.3,"co":268.0,"o3":107.0,"so2":5.1,"mosquito_risk":7,"arthritis_risk":5,"migraine_risk":7,"frizz_risk":1,"updated_at":"2026-05-28T03:28:56.589744+05:30"},{"city":"Cuttack","state":"Odisha","latitude":20.4625,"longitude":85.8828,"temp":27.9,"humidity":91,"rain":0.0,"pressure":1001.3,"uv_index":9.1,"wind_gusts":41.8,"aqi":104,"pm10":43.4,"pm2_5":32.7,"no2":5.3,"co":300.0,"o3":107.0,"so2":5.1,"mosquito_risk":7,"arthritis_risk":5,"migraine_risk":4,"frizz_risk":1,"updated_at":"2026-05-28T03:28:56.589751+05:30"},{"city":"Rourkela","state":"Odisha","latitude":22.2604,"longitude":84.8536,"temp":26.1,"humidity":81,"rain":0.0,"pressure":981.8,"uv_index":8.9,"wind_gusts":36.7,"aqi":150,"pm10":76.4,"pm2_5":59.8,"no2":32.2,"co":321.0,"o3":43.0,"so2":28.3,"mosquito_risk":7,"arthritis_risk":5,"migraine_risk":7,"frizz_risk":1,"updated_at":"2026-05-28T03:28:56.589757+05:30"},{"city":"Raipur","state":"Chhattisgarh","latitude":21.2514,"longitude":81.6296,"temp":32.5,"humidity":32,"rain":0.0,"pressure":970.2,"uv_index":8.95,"wind_gusts":33.1,"aqi":99,"pm10":40.4,"pm2_5":32.1,"no2":32.8,"co":544.0,"o3":52.0,"so2":51.5,"mosquito_risk":0,"arthritis_risk":5,"migraine_risk":7,"frizz_risk":0,"updated_at":"2026-05-28T03:28:56.589764+05:30"},{"city":"Bhilai","state":"Chhattisgarh","latitude":21.1938,"longitude":81.3509,"temp":31.1,"humidity":37,"rain":0.0,"pressure":970.6,"uv_index":8.95,"wind_gusts":37.4,"aqi":91,"pm10":34.2,"pm2_5":27.0,"no2":25.7,"co":639.0,"o3":56.0,"so2":38.6,"mosquito_risk":0,"arthritis_risk":5,"migraine_risk":7,"frizz_risk":0,"updated_at":"2026-05-28T03:28:56.589771+05:30"},{"city":"Guwahati","state":"Assam","latitude":26.1158,"longitude":91.7086,"temp":22.2,"humidity":94,"rain":0.0,"pressure":1001.3,"uv_index":8.75,"wind_gusts":19.4,"aqi":77,"pm10":44.8,"pm2_5":42.6,"no2":21.7,"co":525.0,"o3":29.0,"so2":2.0,"mosquito_risk":3,"arthritis_risk":5,"migraine_risk":4,"frizz_risk":1,"updated_at":"2026-05-28T03:28:56.589778+05:30"},{"city":"Agartala","state":"Tripura","latitude":23.8315,"longitude":91.2868,"temp":22.5,"humidity":98,"rain":0.0,"pressure":1005.6,"uv_index":8.85,"wind_gusts":21.6,"aqi":78,"pm10":25.8,"pm2_5":22.5,"no2":13.9,"co":250.0,"o3":42.0,"so2":2.5,"mosquito_risk":3,"arthritis_risk":5,"migraine_risk":4,"frizz_risk":1,"updated_at":"2026-05-28T03:28:56.589785+05:30"},{"city":"Shillong","state":"Meghalaya","latitude":25.5788,"longitude":91.8933,"temp":15.1,"humidity":87,"rain":0.0,"pressure":854.9,"uv_index":8.15,"wind_gusts":23.8,"aqi":50,"pm10":10.1,"pm2_5":6.3,"no2":5.4,"co":238.0,"o3":70.0,"so2":2.9,"mosquito_risk":3,"arthritis_risk":10,"migraine_risk":7,"frizz_risk":0,"updated_at":"2026-05-28T03:28:56.589792+05:30"},{"city":"Imphal","state":"Manipur","latitude":24.817,"longitude":93.9368,"temp":20.1,"humidity":99,"rain":0.0,"pressure":922.3,"uv_index":9.25,"wind_gusts":31.3,"aqi":92,"pm10":73.1,"pm2_5":60.3,"no2":40.4,"co":657.0,"o3":24.0,"so2":8.0,"mosquito_risk":3,"arthritis_risk":5,"migraine_risk":7,"frizz_risk":1,"updated_at":"2026-05-28T03:28:56.589799+05:30"},{"city":"Aizawl","state":"Mizoram","latitude":23.7271,"longitude":92.7176,"temp":15.9,"humidity":97,"rain":0.0,"pressure":890.3,"uv_index":9.05,"wind_gusts":27.7,"aqi":61,"pm10":18.0,"pm2_5":12.7,"no2":8.8,"co":287.0,"o3":22.0,"so2":0.8,"mosquito_risk":3,"arthritis_risk":10,"migraine_risk":7,"frizz_risk":0,"updated_at":"2026-05-28T03:28:56.589805+05:30"},{"city":"Kohima","state":"Nagaland","latitude":25.6701,"longitude":94.1077,"temp":17.2,"humidity":91,"rain":0.1,"pressure":854.5,"uv_index":9.2,"wind_gusts":31.0,"aqi":68,"pm10":31.1,"pm2_5":21.0,"no2":14.8,"co":216.0,"o3":26.0,"so2":1.3,"mosquito_risk":6,"arthritis_risk":10,"migraine_risk":7,"frizz_risk":0,"updated_at":"2026-05-28T03:28:56.589812+05:30"},{"city":"Gangtok","state":"Sikkim","latitude":27.3314,"longitude":88.6138,"temp":14.0,"humidity":89,"rain":0.0,"pressure":835.8,"uv_index":8.3,"wind_gusts":36.4,"aqi":56,"pm10":20.8,"pm2_5":15.3,"no2":9.2,"co":736.0,"o3":107.0,"so2":2.5,"mosquito_risk":3,"arthritis_risk":10,"migraine_risk":7,"frizz_risk":0,"updated_at":"2026-05-28T03:28:56.589819+05:30"},{"city":"Siliguri","state":"West Bengal","latitude":26.7271,"longitude":88.3953,"temp":22.7,"humidity":86,"rain":0.0,"pressure":992.6,"uv_index":6.85,"wind_gusts":27.0,"aqi":75,"pm10":45.9,"pm2_5":35.6,"no2":18.6,"co":301.0,"o3":84.0,"so2":7.2,"mosquito_risk":3,"arthritis_risk":5,"migraine_risk":7,"frizz_risk":1,"updated_at":"2026-05-28T03:28:59.966721+05:30"},{"city":"Durgapur","state":"West Bengal","latitude":23.5204,"longitude":87.3119,"temp":25.5,"humidity":92,"rain":0.0,"pressure":993.3,"uv_index":8.95,"wind_gusts":31.0,"aqi":155,"pm10":75.4,"pm2_5":64.3,"no2":25.9,"co":496.0,"o3":68.0,"so2":34.8,"mosquito_risk":7,"arthritis_risk":5,"migraine_risk":7,"frizz_risk":1,"updated_at":"2026-05-28T03:28:59.966749+05:30"},{"city":"Asansol","state":"West Bengal","latitude":23.6739,"longitude":86.9524,"temp":25.4,"humidity":94,"rain":0.0,"pressure":991.6,"uv_index":8.95,"wind_gusts":32.4,"aqi":156,"pm10":71.7,"pm2_5":62.4,"no2":26.0,"co":525.0,"o3":70.0,"so2":45.0,"mosquito_risk":7,"arthritis_risk":5,"migraine_risk":7,"frizz_risk":1,"updated_at":"2026-05-28T03:28:59.966759+05:30"},{"city":"Pondicherry","state":"Puducherry","latitude":11.9139,"longitude":79.8145,"temp":29.0,"humidity":77,"rain":0.0,"pressure":1007.0,"uv_index":7.45,"wind_gusts":38.9,"aqi":75,"pm10":15.5,"pm2_5":12.7,"no2":12.4,"co":272.0,"o3":56.0,"so2":8.4,"mosquito_risk":7,"arthritis_risk":5,"migraine_risk":4,"frizz_risk":1,"updated_at":"2026-05-28T03:28:59.966766+05:30"},{"city":"Port Blair","state":"Andaman and Nicobar Islands","latitude":11.6234,"longitude":92.7265,"temp":24.2,"humidity":98,"rain":0.2,"pressure":1006.5,"uv_index":8.6,"wind_gusts":41.4,"aqi":33,"pm10":10.4,"pm2_5":4.9,"no2":0.2,"co":118.0,"o3":79.0,"so2":0.3,"mosquito_risk":6,"arthritis_risk":5,"migraine_risk":4,"frizz_risk":1,"updated_at":"2026-05-28T03:28:59.966773+05:30"},{"city":"Haridwar","state":"Uttarakhand","latitude":29.9457,"longitude":78.1642,"temp":27.8,"humidity":49,"rain":0.0,"pressure":969.3,"uv_index":7.6,"wind_gusts":39.2,"aqi":122,"pm10":74.5,"pm2_5":47.7,"no2":27.0,"co":344.0,"o3":80.0,"so2":12.2,"mosquito_risk":4,"arthritis_risk":5,"migraine_risk":7,"frizz_risk":0,"updated_at":"2026-05-28T03:28:59.966780+05:30"},{"city":"Rishikesh","state":"Uttarakhand","latitude":30.0869,"longitude":78.2676,"temp":21.8,"humidity":67,"rain":0.0,"pressure":961.4,"uv_index":7.7,"wind_gusts":35.3,"aqi":148,"pm10":64.5,"pm2_5":48.3,"no2":21.4,"co":505.0,"o3":95.0,"so2":8.1,"mosquito_risk":3,"arthritis_risk":5,"migraine_risk":7,"frizz_risk":0,"updated_at":"2026-05-28T03:28:59.966787+05:30"},{"city":"Nainital","state":"Uttarakhand","latitude":29.3919,"longitude":79.4542,"temp":13.7,"humidity":80,"rain":0.0,"pressure":801.8,"uv_index":8.5,"wind_gusts":31.0,"aqi":97,"pm10":47.1,"pm2_5":31.2,"no2":16.4,"co":383.0,"o3":116.0,"so2":7.4,"mosquito_risk":3,"arthritis_risk":5,"migraine_risk":7,"frizz_risk":0,"updated_at":"2026-05-28T03:28:59.966794+05:30"},{"city":"Mussoorie","state":"Uttarakhand","latitude":30.4599,"longitude":78.0664,"temp":17.7,"humidity":39,"rain":0.0,"pressure":800.7,"uv_index":8.1,"wind_gusts":50.4,"aqi":73,"pm10":45.1,"pm2_5":36.3,"no2":41.7,"co":209.0,"o3":37.0,"so2":7.7,"mosquito_risk":0,"arthritis_risk":5,"migraine_risk":7,"frizz_risk":0,"updated_at":"2026-05-28T03:28:59.966800+05:30"},{"city":"Dharamshala","state":"Himachal Pradesh","latitude":32.219,"longitude":76.3234,"temp":24.2,"humidity":29,"rain":0.0,"pressure":866.2,"uv_index":8.3,"wind_gusts":42.8,"aqi":51,"pm10":19.4,"pm2_5":12.3,"no2":13.0,"co":171.0,"o3":46.0,"so2":0.3,"mosquito_risk":0,"arthritis_risk":5,"migraine_risk":7,"frizz_risk":0,"updated_at":"2026-05-28T03:28:59.966807+05:30"},{"city":"Dalhousie","state":"Himachal Pradesh","latitude":32.5387,"longitude":75.971,"temp":12.6,"humidity":55,"rain":0.0,"pressure":798.9,"uv_index":8.6,"wind_gusts":39.6,"aqi":64,"pm10":27.0,"pm2_5":19.9,"no2":40.0,"co":231.0,"o3":10.0,"so2":1.1,"mosquito_risk":0,"arthritis_risk":5,"migraine_risk":7,"frizz_risk":0,"updated_at":"2026-05-28T03:28:59.966815+05:30"},{"city":"Patiala","state":"Punjab","latitude":30.3398,"longitude":76.3869,"temp":31.0,"humidity":30,"rain":0.0,"pressure":971.7,"uv_index":7.65,"wind_gusts":48.6,"aqi":473,"pm10":158.8,"pm2_5":52.7,"no2":19.4,"co":421.0,"o3":66.0,"so2":10.1,"mosquito_risk":0,"arthritis_risk":5,"migraine_risk":7,"frizz_risk":0,"updated_at":"2026-05-28T03:28:59.966821+05:30"},{"city":"Bhatinda","state":"Punjab","latitude":30.211,"longitude":74.9455,"temp":31.9,"humidity":28,"rain":0.0,"pressure":976.8,"uv_index":8.35,"wind_gusts":47.2,"aqi":82,"pm10":55.1,"pm2_5":36.3,"no2":30.8,"co":468.0,"o3":65.0,"so2":7.2,"mosquito_risk":0,"arthritis_risk":5,"migraine_risk":7,"frizz_risk":0,"updated_at":"2026-05-28T03:28:59.966828+05:30"},{"city":"Rohtak","state":"Haryana","latitude":28.8955,"longitude":76.6066,"temp":29.6,"humidity":39,"rain":0.0,"pressure":975.2,"uv_index":7.8,"wind_gusts":63.7,"aqi":714,"pm10":504.8,"pm2_5":103.8,"no2":40.8,"co":485.0,"o3":33.0,"so2":6.3,"mosquito_risk":4,"arthritis_risk":5,"migraine_risk":7,"frizz_risk":0,"updated_at":"2026-05-28T03:28:59.966835+05:30"},{"city":"Panipat","state":"Haryana","latitude":29.3909,"longitude":76.9635,"temp":30.6,"humidity":27,"rain":0.0,"pressure":974.3,"uv_index":7.65,"wind_gusts":52.9,"aqi":1328,"pm10":948.1,"pm2_5":184.9,"no2":42.9,"co":478.0,"o3":39.0,"so2":9.2,"mosquito_risk":0,"arthritis_risk":5,"migraine_risk":7,"frizz_risk":0,"updated_at":"2026-05-28T03:28:59.966842+05:30"},{"city":"Mathura","state":"Uttar Pradesh","latitude":27.4924,"longitude":77.6737,"temp":31.9,"humidity":31,"rain":0.0,"pressure":980.7,"uv_index":8.05,"wind_gusts":75.2,"aqi":635,"pm10":510.4,"pm2_5":94.1,"no2":29.9,"co":432.0,"o3":39.0,"so2":6.4,"mosquito_risk":0,"arthritis_risk":5,"migraine_risk":7,"frizz_risk":0,"updated_at":"2026-05-28T03:28:59.966848+05:30"},{"city":"Vrindavan","state":"Uttar Pradesh","latitude":27.5823,"longitude":77.7027,"temp":31.1,"humidity":37,"rain":0.0,"pressure":981.0,"uv_index":8.0,"wind_gusts":76.3,"aqi":635,"pm10":510.4,"pm2_5":94.1,"no2":29.9,"co":451.0,"o3":39.0,"so2":6.4,"mosquito_risk":0,"arthritis_risk":5,"migraine_risk":7,"frizz_risk":0,"updated_at":"2026-05-28T03:28:59.966855+05:30"},{"city":"Ayodhya","state":"Uttar Pradesh","latitude":26.7922,"longitude":82.1998,"temp":27.6,"humidity":65,"rain":0.0,"pressure":992.7,"uv_index":8.35,"wind_gusts":45.7,"aqi":112,"pm10":42.3,"pm2_5":34.3,"no2":7.7,"co":382.0,"o3":119.0,"so2":12.8,"mosquito_risk":7,"arthritis_risk":5,"migraine_risk":7,"frizz_risk":1,"updated_at":"2026-05-28T03:28:59.966861+05:30"},{"city":"Ratlam","state":"Madhya Pradesh","latitude":23.3315,"longitude":75.0367,"temp":27.8,"humidity":69,"rain":0.0,"pressure":953.4,"uv_index":8.5,"wind_gusts":50.8,"aqi":72,"pm10":44.4,"pm2_5":28.1,"no2":5.9,"co":227.0,"o3":80.0,"so2":13.9,"mosquito_risk":7,"arthritis_risk":5,"migraine_risk":7,"frizz_risk":1,"updated_at":"2026-05-28T03:28:59.966868+05:30"},{"city":"Sagar","state":"Madhya Pradesh","latitude":23.8388,"longitude":78.7378,"temp":32.8,"humidity":27,"rain":0.0,"pressure":947.1,"uv_index":8.7,"wind_gusts":44.6,"aqi":70,"pm10":43.4,"pm2_5":23.4,"no2":5.5,"co":166.0,"o3":80.0,"so2":4.9,"mosquito_risk":0,"arthritis_risk":5,"migraine_risk":7,"frizz_risk":0,"updated_at":"2026-05-28T03:28:59.966875+05:30"},{"city":"Satna","state":"Madhya Pradesh","latitude":24.6005,"longitude":80.8322,"temp":29.9,"humidity":55,"rain":0.0,"pressure":966.4,"uv_index":8.75,"wind_gusts":49.3,"aqi":83,"pm10":137.8,"pm2_5":45.2,"no2":22.7,"co":272.0,"o3":64.0,"so2":6.2,"mosquito_risk":4,"arthritis_risk":5,"migraine_risk":7,"frizz_risk":1,"updated_at":"2026-05-28T03:28:59.966881+05:30"},{"city":"Akola","state":"Maharashtra","latitude":20.7002,"longitude":77.0082,"temp":31.4,"humidity":48,"rain":0.0,"pressure":973.2,"uv_index":8.8,"wind_gusts":42.8,"aqi":59,"pm10":38.9,"pm2_5":25.6,"no2":8.4,"co":194.0,"o3":87.0,"so2":12.3,"mosquito_risk":0,"arthritis_risk":5,"migraine_risk":7,"frizz_risk":1,"updated_at":"2026-05-28T03:28:59.966889+05:30"},{"city":"Amravati","state":"Maharashtra","latitude":20.9374,"longitude":77.7796,"temp":32.2,"humidity":37,"rain":0.0,"pressure":965.2,"uv_index":8.85,"wind_gusts":41.0,"aqi":59,"pm10":34.5,"pm2_5":22.7,"no2":8.9,"co":196.0,"o3":79.0,"so2":9.9,"mosquito_risk":0,"arthritis_risk":5,"migraine_risk":7,"frizz_risk":0,"updated_at":"2026-05-28T03:28:59.966896+05:30"},{"city":"Latur","state":"Maharashtra","latitude":18.4088,"longitude":76.5604,"temp":27.8,"humidity":55,"rain":0.0,"pressure":938.9,"uv_index":8.95,"wind_gusts":32.4,"aqi":61,"pm10":17.8,"pm2_5":14.7,"no2":9.5,"co":214.0,"o3":76.0,"so2":6.3,"mosquito_risk":4,"arthritis_risk":5,"migraine_risk":7,"frizz_risk":1,"updated_at":"2026-05-28T03:28:59.966902+05:30"},{"city":"Nanded","state":"Maharashtra","latitude":19.1383,"longitude":77.3091,"temp":31.6,"humidity":41,"rain":0.0,"pressure":966.8,"uv_index":8.9,"wind_gusts":36.0,"aqi":55,"pm10":31.4,"pm2_5":22.6,"no2":17.8,"co":254.0,"o3":48.0,"so2":6.2,"mosquito_risk":0,"arthritis_risk":5,"migraine_risk":7,"frizz_risk":1,"updated_at":"2026-05-28T03:28:59.966909+05:30"},{"city":"Gulbarga","state":"Karnataka","latitude":17.3297,"longitude":76.8343,"temp":28.0,"humidity":66,"rain":0.0,"pressure":957.9,"uv_index":8.95,"wind_gusts":37.8,"aqi":52,"pm10":12.5,"pm2_5":10.4,"no2":10.8,"co":186.0,"o3":51.0,"so2":3.1,"mosquito_risk":7,"arthritis_risk":5,"migraine_risk":7,"frizz_risk":1,"updated_at":"2026-05-28T03:28:59.966915+05:30"},{"city":"Bidar","state":"Karnataka","latitude":17.9104,"longitude":77.5199,"temp":27.7,"humidity":55,"rain":0.0,"pressure":934.6,"uv_index":8.15,"wind_gusts":33.1,"aqi":67,"pm10":28.7,"pm2_5":23.2,"no2":19.9,"co":260.0,"o3":62.0,"so2":7.2,"mosquito_risk":4,"arthritis_risk":5,"migraine_risk":7,"frizz_risk":1,"updated_at":"2026-05-28T03:28:59.966921+05:30"},{"city":"Hospet","state":"Karnataka","latitude":15.2689,"longitude":76.3909,"temp":24.9,"humidity":93,"rain":0.0,"pressure":956.3,"uv_index":8.9,"wind_gusts":51.1,"aqi":35,"pm10":5.7,"pm2_5":4.9,"no2":5.4,"co":145.0,"o3":43.0,"so2":1.4,"mosquito_risk":3,"arthritis_risk":5,"migraine_risk":7,"frizz_risk":1,"updated_at":"2026-05-28T03:28:59.966928+05:30"},{"city":"Tirupur","state":"Tamil Nadu","latitude":11.1085,"longitude":77.3411,"temp":26.5,"humidity":77,"rain":0.0,"pressure":974.9,"uv_index":8.1,"wind_gusts":49.0,"aqi":50,"pm10":7.9,"pm2_5":7.4,"no2":9.8,"co":126.0,"o3":44.0,"so2":3.8,"mosquito_risk":7,"arthritis_risk":5,"migraine_risk":7,"frizz_risk":1,"updated_at":"2026-05-28T03:28:59.966934+05:30"},{"city":"Alappuzha","state":"Kerala","latitude":9.4981,"longitude":76.3388,"temp":25.9,"humidity":98,"rain":0.0,"pressure":1009.8,"uv_index":7.7,"wind_gusts":24.1,"aqi":39,"pm10":15.3,"pm2_5":12.5,"no2":11.7,"co":218.0,"o3":38.0,"so2":3.3,"mosquito_risk":7,"arthritis_risk":0,"migraine_risk":4,"frizz_risk":1,"updated_at":"2026-05-28T03:28:59.966940+05:30"},{"city":"Munnar","state":"Kerala","latitude":10.0889,"longitude":77.0595,"temp":17.8,"humidity":100,"rain":0.0,"pressure":857.3,"uv_index":7.5,"wind_gusts":28.4,"aqi":33,"pm10":6.5,"pm2_5":6.0,"no2":7.8,"co":134.0,"o3":32.0,"so2":1.4,"mosquito_risk":3,"arthritis_risk":10,"migraine_risk":7,"frizz_risk":1,"updated_at":"2026-05-28T03:28:59.966947+05:30"},{"city":"Silchar","state":"Assam","latitude":24.8333,"longitude":92.7789,"temp":23.0,"humidity":100,"rain":0.0,"pressure":1005.0,"uv_index":8.9,"wind_gusts":20.5,"aqi":87,"pm10":44.6,"pm2_5":33.3,"no2":11.1,"co":537.0,"o3":68.0,"so2":5.1,"mosquito_risk":3,"arthritis_risk":5,"migraine_risk":4,"frizz_risk":1,"updated_at":"2026-05-28T03:28:59.966953+05:30"},{"city":"Dibrugarh","state":"Assam","latitude":27.4728,"longitude":94.912,"temp":24.5,"humidity":90,"rain":0.2,"pressure":994.9,"uv_index":8.6,"wind_gusts":34.9,"aqi":92,"pm10":52.5,"pm2_5":44.6,"no2":28.7,"co":601.0,"o3":0.0,"so2":1.2,"mosquito_risk":6,"arthritis_risk":5,"migraine_risk":7,"frizz_risk":1,"updated_at":"2026-05-28T03:28:59.966960+05:30"}]