[{"city":"Delhi","state":"Delhi","latitude":28.6139,"longitude":77.209,"temp":23.0,"humidity":67,"rain":0.0,"pressure":984.6,"uv_index":6.25,"wind_gusts":30.2,"aqi":303,"pm10":300.8,"pm2_5":79.2,"mosquito_risk":3,"arthritis_risk":5,"migraine_risk":7,"frizz_risk":1,"updated_at":"2026-03-30T23:30:53.569346+05:30"},{"city":"Mumbai","state":"Maharashtra","latitude":19.076,"longitude":72.8777,"temp":27.6,"humidity":89,"rain":0.0,"pressure":1009.3,"uv_index":8.05,"wind_gusts":26.6,"aqi":69,"pm10":51.5,"pm2_5":19.3,"mosquito_risk":7,"arthritis_risk":0,"migraine_risk":4,"frizz_risk":1,"updated_at":"2026-03-30T23:30:53.569389+05:30"},{"city":"Bangalore","state":"Karnataka","latitude":12.9716,"longitude":77.5946,"temp":24.6,"humidity":64,"rain":0.0,"pressure":912.3,"uv_index":8.7,"wind_gusts":29.2,"aqi":121,"pm10":26.0,"pm2_5":25.0,"mosquito_risk":3,"arthritis_risk":5,"migraine_risk":7,"frizz_risk":1,"updated_at":"2026-03-30T23:30:53.569404+05:30"},{"city":"Hyderabad","state":"Telangana","latitude":17.385,"longitude":78.4867,"temp":25.3,"humidity":77,"rain":0.0,"pressure":953.5,"uv_index":8.25,"wind_gusts":34.2,"aqi":131,"pm10":100.6,"pm2_5":90.3,"mosquito_risk":7,"arthritis_risk":5,"migraine_risk":7,"frizz_risk":1,"updated_at":"2026-03-30T23:30:53.569415+05:30"},{"city":"Chennai","state":"Tamil Nadu","latitude":13.0827,"longitude":80.2707,"temp":27.0,"humidity":83,"rain":0.0,"pressure":1008.3,"uv_index":9.3,"wind_gusts":32.0,"aqi":50,"pm10":14.6,"pm2_5":10.5,"mosquito_risk":7,"arthritis_risk":0,"migraine_risk":4,"frizz_risk":1,"updated_at":"2026-03-30T23:30:53.569425+05:30"},{"city":"Kolkata","state":"West Bengal","latitude":22.5726,"longitude":88.3639,"temp":26.8,"humidity":89,"rain":0.0,"pressure":1007.2,"uv_index":8.5,"wind_gusts":27.7,"aqi":91,"pm10":29.3,"pm2_5":25.1,"mosquito_risk":7,"arthritis_risk":5,"migraine_risk":4,"frizz_risk":1,"updated_at":"2026-03-30T23:30:53.569433+05:30"},{"city":"Pune","state":"Maharashtra","latitude":18.5204,"longitude":73.8567,"temp":25.2,"humidity":86,"rain":0.0,"pressure":949.2,"uv_index":8.55,"wind_gusts":36.4,"aqi":82,"pm10":51.7,"pm2_5":45.9,"mosquito_risk":7,"arthritis_risk":5,"migraine_risk":7,"frizz_risk":1,"updated_at":"2026-03-30T23:30:53.569441+05:30"},{"city":"Ahmedabad","state":"Gujarat","latitude":23.0225,"longitude":72.5714,"temp":28.4,"humidity":56,"rain":0.0,"pressure":1002.6,"uv_index":8.0,"wind_gusts":31.7,"aqi":57,"pm10":46.0,"pm2_5":27.2,"mosquito_risk":4,"arthritis_risk":5,"migraine_risk":4,"frizz_risk":1,"updated_at":"2026-03-30T23:30:53.569449+05:30"},{"city":"Jaipur","state":"Rajasthan","latitude":26.9124,"longitude":75.7873,"temp":23.9,"humidity":65,"rain":0.0,"pressure":961.6,"uv_index":6.5,"wind_gusts":46.1,"aqi":109,"pm10":134.6,"pm2_5":25.6,"mosquito_risk":3,"arthritis_risk":5,"migraine_risk":7,"frizz_risk":1,"updated_at":"2026-03-30T23:30:53.569456+05:30"},{"city":"Lucknow","state":"Uttar Pradesh","latitude":26.8467,"longitude":80.9462,"temp":29.1,"humidity":46,"rain":0.0,"pressure":993.9,"uv_index":7.3,"wind_gusts":18.7,"aqi":111,"pm10":407.9,"pm2_5":85.9,"mosquito_risk":4,"arthritis_risk":5,"migraine_risk":7,"frizz_risk":1,"updated_at":"2026-03-30T23:30:53.569467+05:30"},{"city":"Kanpur","state":"Uttar Pradesh","latitude":26.4499,"longitude":80.3319,"temp":26.3,"humidity":71,"rain":0.0,"pressure":992.3,"uv_index":7.3,"wind_gusts":18.4,"aqi":150,"pm10":862.4,"pm2_5":138.3,"mosquito_risk":7,"arthritis_risk":5,"migraine_risk":7,"frizz_risk":1,"updated_at":"2026-03-30T23:30:53.569474+05:30"},{"city":"Chandigarh","state":"Chandigarh","latitude":30.7333,"longitude":76.7794,"temp":23.4,"humidity":79,"rain":0.0,"pressure":970.9,"uv_index":6.0,"wind_gusts":16.6,"aqi":112,"pm10":170.4,"pm2_5":61.2,"mosquito_risk":3,"arthritis_risk":5,"migraine_risk":3,"frizz_risk":1,"updated_at":"2026-03-30T23:30:53.569481+05:30"},{"city":"Srinagar","state":"Jammu and Kashmir","latitude":34.0837,"longitude":74.7973,"temp":10.0,"humidity":93,"rain":0.0,"pressure":843.6,"uv_index":5.35,"wind_gusts":37.1,"aqi":84,"pm10":60.5,"pm2_5":35.3,"mosquito_risk":3,"arthritis_risk":10,"migraine_risk":3,"frizz_risk":0,"updated_at":"2026-03-30T23:30:53.569489+05:30"},{"city":"Jammu","state":"Jammu and Kashmir","latitude":32.7266,"longitude":74.857,"temp":19.3,"humidity":81,"rain":0.0,"pressure":977.1,"uv_index":6.15,"wind_gusts":45.7,"aqi":73,"pm10":54.1,"pm2_5":21.4,"mosquito_risk":3,"arthritis_risk":10,"migraine_risk":7,"frizz_risk":0,"updated_at":"2026-03-30T23:30:53.569497+05:30"},{"city":"Amritsar","state":"Punjab","latitude":31.634,"longitude":74.8723,"temp":20.4,"humidity":89,"rain":0.0,"pressure":982.7,"uv_index":5.3,"wind_gusts":50.8,"aqi":98,"pm10":75.4,"pm2_5":33.2,"mosquito_risk":3,"arthritis_risk":5,"migraine_risk":3,"frizz_risk":1,"updated_at":"2026-03-30T23:30:53.569504+05:30"},{"city":"Ludhiana","state":"Punjab","latitude":30.901,"longitude":75.8573,"temp":23.4,"humidity":72,"rain":0.0,"pressure":980.7,"uv_index":5.95,"wind_gusts":41.8,"aqi":150,"pm10":110.8,"pm2_5":44.6,"mosquito_risk":3,"arthritis_risk":5,"migraine_risk":3,"frizz_risk":1,"updated_at":"2026-03-30T23:30:53.569511+05:30"},{"city":"Jalandhar","state":"Punjab","latitude":31.326,"longitude":75.5762,"temp":21.7,"humidity":84,"rain":0.0,"pressure":981.7,"uv_index":4.7,"wind_gusts":33.1,"aqi":127,"pm10":81.5,"pm2_5":41.6,"mosquito_risk":3,"arthritis_risk":5,"migraine_risk":3,"frizz_risk":1,"updated_at":"2026-03-30T23:30:53.569518+05:30"},{"city":"Dehradun","state":"Uttarakhand","latitude":30.6284,"longitude":78.0322,"temp":14.8,"humidity":69,"rain":0.0,"pressure":831.0,"uv_index":6.1,"wind_gusts":26.6,"aqi":45,"pm10":26.9,"pm2_5":11.4,"mosquito_risk":3,"arthritis_risk":5,"migraine_risk":7,"frizz_risk":0,"updated_at":"2026-03-30T23:30:53.569525+05:30"},{"city":"Shimla","state":"Himachal Pradesh","latitude":31.1048,"longitude":77.1734,"temp":12.8,"humidity":75,"rain":0.0,"pressure":785.4,"uv_index":6.35,"wind_gusts":23.4,"aqi":55,"pm10":20.5,"pm2_5":11.4,"mosquito_risk":3,"arthritis_risk":5,"migraine_risk":7,"frizz_risk":0,"updated_at":"2026-03-30T23:30:53.569531+05:30"},{"city":"Manali","state":"Himachal Pradesh","latitude":32.2396,"longitude":77.1887,"temp":13.4,"humidity":65,"rain":0.0,"pressure":820.3,"uv_index":8.4,"wind_gusts":30.2,"aqi":61,"pm10":8.6,"pm2_5":5.0,"mosquito_risk":3,"arthritis_risk":5,"migraine_risk":7,"frizz_risk":0,"updated_at":"2026-03-30T23:30:53.569540+05:30"},{"city":"Gurgaon","state":"Haryana","latitude":28.4595,"longitude":77.0266,"temp":21.0,"humidity":77,"rain":0.0,"pressure":983.1,"uv_index":6.1,"wind_gusts":27.0,"aqi":998,"pm10":296.2,"pm2_5":81.3,"mosquito_risk":3,"arthritis_risk":5,"migraine_risk":7,"frizz_risk":1,"updated_at":"2026-03-30T23:30:53.569548+05:30"},{"city":"Noida","state":"Uttar Pradesh","latitude":28.5355,"longitude":77.391,"temp":22.9,"humidity":68,"rain":0.0,"pressure":986.1,"uv_index":6.1,"wind_gusts":32.0,"aqi":998,"pm10":296.2,"pm2_5":81.3,"mosquito_risk":3,"arthritis_risk":5,"migraine_risk":7,"frizz_risk":1,"updated_at":"2026-03-30T23:30:53.569554+05:30"},{"city":"Ghaziabad","state":"Uttar Pradesh","latitude":28.6692,"longitude":77.4538,"temp":22.0,"humidity":70,"rain":0.0,"pressure":984.3,"uv_index":6.1,"wind_gusts":31.3,"aqi":196,"pm10":385.6,"pm2_5":86.6,"mosquito_risk":3,"arthritis_risk":5,"migraine_risk":7,"frizz_risk":1,"updated_at":"2026-03-30T23:30:53.569560+05:30"},{"city":"Faridabad","state":"Haryana","latitude":28.4089,"longitude":77.3178,"temp":21.3,"humidity":71,"rain":0.0,"pressure":985.4,"uv_index":5.9,"wind_gusts":32.4,"aqi":998,"pm10":296.2,"pm2_5":81.3,"mosquito_risk":3,"arthritis_risk":5,"migraine_risk":3,"frizz_risk":0,"updated_at":"2026-03-30T23:30:53.569567+05:30"},{"city":"Meerut","state":"Uttar Pradesh","latitude":28.9845,"longitude":77.7064,"temp":21.6,"humidity":70,"rain":0.0,"pressure":983.1,"uv_index":5.9,"wind_gusts":25.2,"aqi":196,"pm10":385.6,"pm2_5":86.6,"mosquito_risk":3,"arthritis_risk":5,"migraine_risk":3,"frizz_risk":0,"updated_at":"2026-03-30T23:30:53.569573+05:30"},{"city":"Agra","state":"Uttar Pradesh","latitude":27.1767,"longitude":78.0081,"temp":24.8,"humidity":57,"rain":0.0,"pressure":989.8,"uv_index":6.85,"wind_gusts":42.5,"aqi":611,"pm10":422.8,"pm2_5":76.8,"mosquito_risk":0,"arthritis_risk":5,"migraine_risk":7,"frizz_risk":0,"updated_at":"2026-03-30T23:30:53.569582+05:30"},{"city":"Varanasi","state":"Uttar Pradesh","latitude":25.3176,"longitude":82.9739,"temp":26.5,"humidity":62,"rain":0.0,"pressure":997.9,"uv_index":7.95,"wind_gusts":24.8,"aqi":96,"pm10":76.4,"pm2_5":59.3,"mosquito_risk":7,"arthritis_risk":5,"migraine_risk":7,"frizz_risk":1,"updated_at":"2026-03-30T23:30:53.569589+05:30"},{"city":"Prayagraj","state":"Uttar Pradesh","latitude":25.4358,"longitude":81.8463,"temp":26.9,"humidity":61,"rain":0.0,"pressure":996.6,"uv_index":7.85,"wind_gusts":26.6,"aqi":102,"pm10":77.3,"pm2_5":57.2,"mosquito_risk":7,"arthritis_risk":5,"migraine_risk":7,"frizz_risk":1,"updated_at":"2026-03-30T23:30:53.569595+05:30"},{"city":"Gorakhpur","state":"Uttar Pradesh","latitude":26.7606,"longitude":83.3732,"temp":24.9,"humidity":71,"rain":0.0,"pressure":997.5,"uv_index":7.65,"wind_gusts":25.9,"aqi":150,"pm10":91.7,"pm2_5":68.9,"mosquito_risk":3,"arthritis_risk":5,"migraine_risk":7,"frizz_risk":1,"updated_at":"2026-03-30T23:30:53.569602+05:30"},{"city":"Bareilly","state":"Uttar Pradesh","latitude":28.367,"longitude":79.4304,"temp":24.1,"humidity":76,"rain":0.0,"pressure":987.5,"uv_index":6.3,"wind_gusts":20.9,"aqi":111,"pm10":181.6,"pm2_5":57.2,"mosquito_risk":3,"arthritis_risk":5,"migraine_risk":7,"frizz_risk":1,"updated_at":"2026-03-30T23:30:53.569610+05:30"},{"city":"Aligarh","state":"Uttar Pradesh","latitude":27.8974,"longitude":78.088,"temp":22.3,"humidity":67,"rain":0.0,"pressure":987.3,"uv_index":6.35,"wind_gusts":36.4,"aqi":624,"pm10":627.7,"pm2_5":118.5,"mosquito_risk":3,"arthritis_risk":5,"migraine_risk":7,"frizz_risk":0,"updated_at":"2026-03-30T23:30:53.569616+05:30"},{"city":"Moradabad","state":"Uttar Pradesh","latitude":28.8386,"longitude":78.7733,"temp":23.6,"humidity":79,"rain":0.0,"pressure":984.5,"uv_index":6.35,"wind_gusts":21.2,"aqi":151,"pm10":264.5,"pm2_5":73.1,"mosquito_risk":3,"arthritis_risk":5,"migraine_risk":7,"frizz_risk":1,"updated_at":"2026-03-30T23:30:53.569622+05:30"},{"city":"Saharanpur","state":"Uttar Pradesh","latitude":29.9637,"longitude":77.546,"temp":22.3,"humidity":84,"rain":0.0,"pressure":977.3,"uv_index":6.1,"wind_gusts":17.6,"aqi":140,"pm10":391.2,"pm2_5":96.6,"mosquito_risk":3,"arthritis_risk":5,"migraine_risk":7,"frizz_risk":1,"updated_at":"2026-03-30T23:30:53.569629+05:30"},{"city":"Jhansi","state":"Uttar Pradesh","latitude":25.4484,"longitude":78.5685,"temp":26.6,"humidity":53,"rain":0.0,"pressure":979.1,"uv_index":7.1,"wind_gusts":36.0,"aqi":56,"pm10":30.7,"pm2_5":13.1,"mosquito_risk":4,"arthritis_risk":5,"migraine_risk":7,"frizz_risk":1,"updated_at":"2026-03-30T23:31:02.248944+05:30"},{"city":"Surat","state":"Gujarat","latitude":21.1702,"longitude":72.8311,"temp":27.5,"humidity":81,"rain":0.0,"pressure":1007.3,"uv_index":7.8,"wind_gusts":27.0,"aqi":107,"pm10":38.5,"pm2_5":25.1,"mosquito_risk":7,"arthritis_risk":5,"migraine_risk":4,"frizz_risk":1,"updated_at":"2026-03-30T23:31:02.249009+05:30"},{"city":"Vadodara","state":"Gujarat","latitude":22.3072,"longitude":73.1812,"temp":28.7,"humidity":69,"rain":0.0,"pressure":1004.9,"uv_index":8.0,"wind_gusts":29.5,"aqi":73,"pm10":60.3,"pm2_5":40.0,"mosquito_risk":7,"arthritis_risk":5,"migraine_risk":4,"frizz_risk":1,"updated_at":"2026-03-30T23:31:02.249023+05:30"},{"city":"Rajkot","state":"Gujarat","latitude":22.3039,"longitude":70.8022,"temp":25.6,"humidity":77,"rain":0.0,"pressure":995.2,"uv_index":7.8,"wind_gusts":34.9,"aqi":56,"pm10":30.3,"pm2_5":14.8,"mosquito_risk":7,"arthritis_risk":5,"migraine_risk":7,"frizz_risk":1,"updated_at":"2026-03-30T23:31:02.249033+05:30"},{"city":"Thane","state":"Maharashtra","latitude":19.2183,"longitude":72.9781,"temp":27.2,"humidity":85,"rain":0.0,"pressure":1008.7,"uv_index":8.05,"wind_gusts":39.2,"aqi":69,"pm10":51.5,"pm2_5":19.3,"mosquito_risk":7,"arthritis_risk":0,"migraine_risk":4,"frizz_risk":1,"updated_at":"2026-03-30T23:31:02.249041+05:30"},{"city":"Nagpur","state":"Maharashtra","latitude":21.1458,"longitude":79.0882,"temp":27.9,"humidity":55,"rain":0.0,"pressure":973.3,"uv_index":8.55,"wind_gusts":28.4,"aqi":65,"pm10":34.0,"pm2_5":28.6,"mosquito_risk":4,"arthritis_risk":5,"migraine_risk":7,"frizz_risk":1,"updated_at":"2026-03-30T23:31:02.249050+05:30"},{"city":"Nashik","state":"Maharashtra","latitude":19.9975,"longitude":73.7898,"temp":24.9,"humidity":79,"rain":0.0,"pressure":946.2,"uv_index":8.25,"wind_gusts":32.0,"aqi":57,"pm10":44.7,"pm2_5":34.3,"mosquito_risk":3,"arthritis_risk":5,"migraine_risk":7,"frizz_risk":1,"updated_at":"2026-03-30T23:31:02.249058+05:30"},{"city":"Aurangabad","state":"Maharashtra","latitude":19.8762,"longitude":75.3433,"temp":24.4,"humidity":68,"rain":0.0,"pressure":945.1,"uv_index":8.75,"wind_gusts":53.3,"aqi":59,"pm10":27.2,"pm2_5":21.8,"mosquito_risk":3,"arthritis_risk":5,"migraine_risk":7,"frizz_risk":1,"updated_at":"2026-03-30T23:31:02.249065+05:30"},{"city":"Solapur","state":"Maharashtra","latitude":17.6599,"longitude":75.9064,"temp":27.4,"humidity":58,"rain":0.0,"pressure":958.6,"uv_index":8.85,"wind_gusts":43.6,"aqi":90,"pm10":49.8,"pm2_5":44.4,"mosquito_risk":4,"arthritis_risk":5,"migraine_risk":7,"frizz_risk":1,"updated_at":"2026-03-30T23:31:02.249076+05:30"},{"city":"Kolhapur","state":"Maharashtra","latitude":16.705,"longitude":74.2433,"temp":24.1,"humidity":91,"rain":0.0,"pressure":948.7,"uv_index":8.55,"wind_gusts":38.9,"aqi":75,"pm10":38.0,"pm2_5":34.1,"mosquito_risk":3,"arthritis_risk":5,"migraine_risk":7,"frizz_risk":1,"updated_at":"2026-03-30T23:31:02.249084+05:30"},{"city":"Goa","state":"Goa","latitude":15.2993,"longitude":74.124,"temp":28.6,"humidity":77,"rain":0.0,"pressure":998.9,"uv_index":8.95,"wind_gusts":30.2,"aqi":59,"pm10":33.9,"pm2_5":25.3,"mosquito_risk":7,"arthritis_risk":5,"migraine_risk":7,"frizz_risk":1,"updated_at":"2026-03-30T23:31:02.249092+05:30"},{"city":"Jodhpur","state":"Rajasthan","latitude":26.2389,"longitude":73.0243,"temp":25.4,"humidity":62,"rain":0.0,"pressure":984.2,"uv_index":7.8,"wind_gusts":37.4,"aqi":103,"pm10":85.2,"pm2_5":20.1,"mosquito_risk":7,"arthritis_risk":5,"migraine_risk":7,"frizz_risk":1,"updated_at":"2026-03-30T23:31:02.249099+05:30"},{"city":"Udaipur","state":"Rajasthan","latitude":24.5854,"longitude":73.7125,"temp":22.8,"humidity":60,"rain":0.0,"pressure":947.8,"uv_index":8.15,"wind_gusts":51.5,"aqi":47,"pm10":36.6,"pm2_5":16.2,"mosquito_risk":0,"arthritis_risk":5,"migraine_risk":7,"frizz_risk":0,"updated_at":"2026-03-30T23:31:02.249107+05:30"},{"city":"Kota","state":"Rajasthan","latitude":25.2138,"longitude":75.8648,"temp":26.1,"humidity":57,"rain":0.0,"pressure":980.2,"uv_index":7.1,"wind_gusts":26.6,"aqi":47,"pm10":31.2,"pm2_5":18.0,"mosquito_risk":4,"arthritis_risk":5,"migraine_risk":7,"frizz_risk":1,"updated_at":"2026-03-30T23:31:02.249115+05:30"},{"city":"Bikaner","state":"Rajasthan","latitude":28.0229,"longitude":73.3119,"temp":27.3,"humidity":46,"rain":0.0,"pressure":982.4,"uv_index":6.85,"wind_gusts":45.4,"aqi":108,"pm10":73.3,"pm2_5":21.9,"mosquito_risk":4,"arthritis_risk":5,"migraine_risk":7,"frizz_risk":0,"updated_at":"2026-03-30T23:31:02.249122+05:30"},{"city":"Ajmer","state":"Rajasthan","latitude":26.4499,"longitude":74.6399,"temp":23.2,"humidity":65,"rain":0.0,"pressure":955.9,"uv_index":7.25,"wind_gusts":37.4,"aqi":47,"pm10":19.2,"pm2_5":10.4,"mosquito_risk":3,"arthritis_risk":5,"migraine_risk":7,"frizz_risk":1,"updated_at":"2026-03-30T23:31:02.249130+05:30"},{"city":"Gwalior","state":"Madhya Pradesh","latitude":26.2183,"longitude":78.1828,"temp":26.1,"humidity":55,"rain":0.0,"pressure":984.9,"uv_index":6.25,"wind_gusts":38.9,"aqi":68,"pm10":36.0,"pm2_5":14.3,"mosquito_risk":4,"arthritis_risk":5,"migraine_risk":7,"frizz_risk":1,"updated_at":"2026-03-30T23:31:02.249138+05:30"},{"city":"Indore","state":"Madhya Pradesh","latitude":22.7196,"longitude":75.8577,"temp":24.2,"humidity":69,"rain":0.0,"pressure":948.7,"uv_index":8.1,"wind_gusts":24.1,"aqi":51,"pm10":30.3,"pm2_5":18.9,"mosquito_risk":3,"arthritis_risk":5,"migraine_risk":7,"frizz_risk":1,"updated_at":"2026-03-30T23:31:02.249145+05:30"},{"city":"Bhopal","state":"Madhya Pradesh","latitude":23.2599,"longitude":77.4126,"temp":27.0,"humidity":53,"rain":0.0,"pressure":954.7,"uv_index":8.2,"wind_gusts":29.2,"aqi":48,"pm10":19.7,"pm2_5":10.1,"mosquito_risk":4,"arthritis_risk":5,"migraine_risk":7,"frizz_risk":1,"updated_at":"2026-03-30T23:31:02.249153+05:30"},{"city":"Jabalpur","state":"Madhya Pradesh","latitude":23.1815,"longitude":79.9864,"temp":26.2,"humidity":58,"rain":0.0,"pressure":962.1,"uv_index":8.35,"wind_gusts":29.5,"aqi":51,"pm10":34.3,"pm2_5":19.3,"mosquito_risk":4,"arthritis_risk":5,"migraine_risk":7,"frizz_risk":1,"updated_at":"2026-03-30T23:31:02.249161+05:30"},{"city":"Ujjain","state":"Madhya Pradesh","latitude":23.1765,"longitude":75.7885,"temp":25.3,"humidity":64,"rain":0.0,"pressure":954.6,"uv_index":7.7,"wind_gusts":27.0,"aqi":53,"pm10":37.6,"pm2_5":26.0,"mosquito_risk":7,"arthritis_risk":5,"migraine_risk":7,"frizz_risk":1,"updated_at":"2026-03-30T23:31:02.249169+05:30"},{"city":"Visakhapatnam","state":"Andhra Pradesh","latitude":17.6868,"longitude":83.2185,"temp":26.9,"humidity":83,"rain":0.0,"pressure":1005.0,"uv_index":8.95,"wind_gusts":43.6,"aqi":61,"pm10":18.8,"pm2_5":14.6,"mosquito_risk":7,"arthritis_risk":5,"migraine_risk":4,"frizz_risk":1,"updated_at":"2026-03-30T23:31:02.249176+05:30"},{"city":"Vijayawada","state":"Andhra Pradesh","latitude":16.5062,"longitude":80.648,"temp":26.2,"humidity":85,"rain":0.0,"pressure":1004.0,"uv_index":9.05,"wind_gusts":32.0,"aqi":63,"pm10":14.6,"pm2_5":12.0,"mosquito_risk":7,"arthritis_risk":5,"migraine_risk":4,"frizz_risk":1,"updated_at":"2026-03-30T23:31:02.249184+05:30"},{"city":"Guntur","state":"Andhra Pradesh","latitude":16.3067,"longitude":80.4365,"temp":26.3,"humidity":89,"rain":0.0,"pressure":1005.0,"uv_index":9.05,"wind_gusts":34.2,"aqi":68,"pm10":14.7,"pm2_5":12.3,"mosquito_risk":7,"arthritis_risk":5,"migraine_risk":4,"frizz_risk":1,"updated_at":"2026-03-30T23:31:02.249191+05:30"},{"city":"Nellore","state":"Andhra Pradesh","latitude":14.4426,"longitude":79.9865,"temp":26.9,"humidity":85,"rain":0.0,"pressure":1006.8,"uv_index":9.2,"wind_gusts":32.4,"aqi":59,"pm10":12.2,"pm2_5":9.3,"mosquito_risk":7,"arthritis_risk":5,"migraine_risk":4,"frizz_risk":1,"updated_at":"2026-03-30T23:31:02.249200+05:30"},{"city":"Kurnool","state":"Andhra Pradesh","latitude":15.8281,"longitude":78.0373,"temp":30.4,"humidity":56,"rain":0.0,"pressure":976.8,"uv_index":9.05,"wind_gusts":24.5,"aqi":122,"pm10":45.9,"pm2_5":40.0,"mosquito_risk":0,"arthritis_risk":5,"migraine_risk":7,"frizz_risk":1,"updated_at":"2026-03-30T23:31:02.249208+05:30"},{"city":"Kakinada","state":"Andhra Pradesh","latitude":16.9891,"longitude":82.2475,"temp":25.0,"humidity":90,"rain":0.0,"pressure":1009.1,"uv_index":9.0,"wind_gusts":34.6,"aqi":51,"pm10":14.4,"pm2_5":9.9,"mosquito_risk":7,"arthritis_risk":0,"migraine_risk":4,"frizz_risk":1,"updated_at":"2026-03-30T23:31:02.249216+05:30"},{"city":"Tirupati","state":"Andhra Pradesh","latitude":13.6288,"longitude":79.4192,"temp":26.9,"humidity":71,"rain":0.0,"pressure":992.8,"uv_index":9.3,"wind_gusts":36.4,"aqi":80,"pm10":27.1,"pm2_5":25.4,"mosquito_risk":7,"arthritis_risk":5,"migraine_risk":7,"frizz_risk":1,"updated_at":"2026-03-30T23:31:02.249223+05:30"},{"city":"Warangal","state":"Telangana","latitude":17.9689,"longitude":79.5941,"temp":28.5,"humidity":69,"rain":0.0,"pressure":979.2,"uv_index":8.9,"wind_gusts":27.0,"aqi":115,"pm10":40.7,"pm2_5":37.5,"mosquito_risk":7,"arthritis_risk":5,"migraine_risk":7,"frizz_risk":1,"updated_at":"2026-03-30T23:31:02.249231+05:30"},{"city":"Nizamabad","state":"Telangana","latitude":18.6725,"longitude":78.0941,"temp":24.8,"humidity":81,"rain":0.0,"pressure":967.2,"uv_index":8.8,"wind_gusts":43.6,"aqi":84,"pm10":45.8,"pm2_5":42.1,"mosquito_risk":3,"arthritis_risk":5,"migraine_risk":7,"frizz_risk":1,"updated_at":"2026-03-30T23:31:02.249238+05:30"},{"city":"Mysore","state":"Karnataka","latitude":12.2958,"longitude":76.6396,"temp":23.8,"humidity":87,"rain":0.0,"pressure":928.9,"uv_index":9.45,"wind_gusts":21.6,"aqi":125,"pm10":43.0,"pm2_5":40.5,"mosquito_risk":3,"arthritis_risk":5,"migraine_risk":7,"frizz_risk":1,"updated_at":"2026-03-30T23:31:02.249245+05:30"},{"city":"Mangalore","state":"Karnataka","latitude":12.9141,"longitude":74.856,"temp":30.2,"humidity":76,"rain":0.0,"pressure":1007.1,"uv_index":4.85,"wind_gusts":23.0,"aqi":64,"pm10":27.4,"pm2_5":23.8,"mosquito_risk":3,"arthritis_risk":5,"migraine_risk":0,"frizz_risk":1,"updated_at":"2026-03-30T23:31:02.249253+05:30"},{"city":"Hubli-Dharwad","state":"Karnataka","latitude":15.3647,"longitude":75.124,"temp":24.6,"humidity":83,"rain":0.0,"pressure":941.7,"uv_index":8.1,"wind_gusts":30.6,"aqi":74,"pm10":13.6,"pm2_5":12.6,"mosquito_risk":3,"arthritis_risk":5,"migraine_risk":7,"frizz_risk":1,"updated_at":"2026-03-30T23:31:02.249260+05:30"},{"city":"Belgaum","state":"Karnataka","latitude":15.8497,"longitude":74.4977,"temp":23.0,"humidity":95,"rain":0.0,"pressure":926.4,"uv_index":9.2,"wind_gusts":31.7,"aqi":76,"pm10":30.3,"pm2_5":26.3,"mosquito_risk":3,"arthritis_risk":5,"migraine_risk":7,"frizz_risk":1,"updated_at":"2026-03-30T23:31:08.905142+05:30"},{"city":"Coimbatore","state":"Tamil Nadu","latitude":11.0168,"longitude":76.9558,"temp":25.0,"humidity":88,"rain":0.0,"pressure":962.4,"uv_index":9.45,"wind_gusts":36.4,"aqi":94,"pm10":62.2,"pm2_5":58.3,"mosquito_risk":7,"arthritis_risk":5,"migraine_risk":7,"frizz_risk":1,"updated_at":"2026-03-30T23:31:08.905170+05:30"},{"city":"Madurai","state":"Tamil Nadu","latitude":9.9252,"longitude":78.1198,"temp":27.3,"humidity":85,"rain":0.0,"pressure":994.4,"uv_index":9.4,"wind_gusts":30.6,"aqi":71,"pm10":21.2,"pm2_5":20.0,"mosquito_risk":7,"arthritis_risk":5,"migraine_risk":7,"frizz_risk":1,"updated_at":"2026-03-30T23:31:08.905179+05:30"},{"city":"Trichy","state":"Tamil Nadu","latitude":10.7905,"longitude":78.7047,"temp":26.6,"humidity":86,"rain":0.0,"pressure":1000.7,"uv_index":9.35,"wind_gusts":25.6,"aqi":63,"pm10":17.4,"pm2_5":15.8,"mosquito_risk":7,"arthritis_risk":5,"migraine_risk":4,"frizz_risk":1,"updated_at":"2026-03-30T23:31:08.905186+05:30"},{"city":"Salem","state":"Tamil Nadu","latitude":11.6643,"longitude":78.146,"temp":28.5,"humidity":55,"rain":0.0,"pressure":977.7,"uv_index":9.45,"wind_gusts":25.6,"aqi":72,"pm10":23.4,"pm2_5":22.4,"mosquito_risk":4,"arthritis_risk":5,"migraine_risk":7,"frizz_risk":1,"updated_at":"2026-03-30T23:31:08.905193+05:30"},{"city":"Tirunelveli","state":"Tamil Nadu","latitude":8.7139,"longitude":77.7567,"temp":26.4,"humidity":78,"rain":0.0,"pressure":1004.1,"uv_index":9.35,"wind_gusts":52.2,"aqi":78,"pm10":29.0,"pm2_5":27.0,"mosquito_risk":7,"arthritis_risk":5,"migraine_risk":4,"frizz_risk":1,"updated_at":"2026-03-30T23:31:08.905200+05:30"},{"city":"Vellore","state":"Tamil Nadu","latitude":12.9165,"longitude":79.1325,"temp":25.5,"humidity":78,"rain":0.0,"pressure":985.7,"uv_index":9.35,"wind_gusts":33.5,"aqi":93,"pm10":41.1,"pm2_5":39.3,"mosquito_risk":7,"arthritis_risk":5,"migraine_risk":7,"frizz_risk":1,"updated_at":"2026-03-30T23:31:08.905206+05:30"},{"city":"Erode","state":"Tamil Nadu","latitude":11.341,"longitude":77.7172,"temp":29.0,"humidity":64,"rain":0.0,"pressure":989.6,"uv_index":9.4,"wind_gusts":25.2,"aqi":62,"pm10":14.7,"pm2_5":14.0,"mosquito_risk":7,"arthritis_risk":5,"migraine_risk":7,"frizz_risk":1,"updated_at":"2026-03-30T23:31:08.905211+05:30"},{"city":"Kochi","state":"Kerala","latitude":9.9312,"longitude":76.2673,"temp":29.2,"humidity":81,"rain":0.0,"pressure":1009.0,"uv_index":9.2,"wind_gusts":27.0,"aqi":103,"pm10":56.6,"pm2_5":55.3,"mosquito_risk":7,"arthritis_risk":0,"migraine_risk":4,"frizz_risk":1,"updated_at":"2026-03-30T23:31:08.905217+05:30"},{"city":"Thiruvananthapuram","state":"Kerala","latitude":8.5241,"longitude":76.9366,"temp":28.7,"humidity":81,"rain":0.0,"pressure":1008.4,"uv_index":9.2,"wind_gusts":33.1,"aqi":83,"pm10":28.4,"pm2_5":23.5,"mosquito_risk":7,"arthritis_risk":0,"migraine_risk":4,"frizz_risk":1,"updated_at":"2026-03-30T23:31:08.905223+05:30"},{"city":"Kozhikode","state":"Kerala","latitude":11.2588,"longitude":75.7804,"temp":29.8,"humidity":80,"rain":0.0,"pressure":1007.9,"uv_index":9.1,"wind_gusts":28.4,"aqi":99,"pm10":34.2,"pm2_5":27.1,"mosquito_risk":7,"arthritis_risk":5,"migraine_risk":4,"frizz_risk":1,"updated_at":"2026-03-30T23:31:08.905229+05:30"},{"city":"Thrissur","state":"Kerala","latitude":10.5276,"longitude":76.2144,"temp":28.4,"humidity":86,"rain":0.0,"pressure":1007.3,"uv_index":9.15,"wind_gusts":30.6,"aqi":107,"pm10":70.1,"pm2_5":66.1,"mosquito_risk":7,"arthritis_risk":5,"migraine_risk":4,"frizz_risk":1,"updated_at":"2026-03-30T23:31:08.905236+05:30"},{"city":"Kannur","state":"Kerala","latitude":11.8745,"longitude":75.3704,"temp":29.2,"humidity":79,"rain":0.0,"pressure":1007.2,"uv_index":8.5,"wind_gusts":24.8,"aqi":108,"pm10":55.5,"pm2_5":51.6,"mosquito_risk":7,"arthritis_risk":5,"migraine_risk":4,"frizz_risk":1,"updated_at":"2026-03-30T23:31:08.905243+05:30"},{"city":"Patna","state":"Bihar","latitude":25.5941,"longitude":85.1376,"temp":25.5,"humidity":81,"rain":0.0,"pressure":1001.3,"uv_index":8.1,"wind_gusts":30.6,"aqi":155,"pm10":93.4,"pm2_5":79.9,"mosquito_risk":7,"arthritis_risk":5,"migraine_risk":4,"frizz_risk":1,"updated_at":"2026-03-30T23:31:08.905249+05:30"},{"city":"Gaya","state":"Bihar","latitude":24.7914,"longitude":85.0002,"temp":26.1,"humidity":81,"rain":0.0,"pressure":994.4,"uv_index":8.2,"wind_gusts":23.4,"aqi":105,"pm10":66.1,"pm2_5":52.3,"mosquito_risk":7,"arthritis_risk":5,"migraine_risk":7,"frizz_risk":1,"updated_at":"2026-03-30T23:31:08.905255+05:30"},{"city":"Muzaffarpur","state":"Bihar","latitude":26.1209,"longitude":85.3647,"temp":23.7,"humidity":85,"rain":0.0,"pressure":1001.6,"uv_index":8.05,"wind_gusts":29.2,"aqi":158,"pm10":110.6,"pm2_5":92.9,"mosquito_risk":3,"arthritis_risk":5,"migraine_risk":4,"frizz_risk":1,"updated_at":"2026-03-30T23:31:08.905261+05:30"},{"city":"Bhagalpur","state":"Bihar","latitude":25.2425,"longitude":87.0117,"temp":23.8,"humidity":92,"rain":0.0,"pressure":1003.1,"uv_index":8.05,"wind_gusts":19.4,"aqi":156,"pm10":74.0,"pm2_5":69.6,"mosquito_risk":3,"arthritis_risk":5,"migraine_risk":4,"frizz_risk":1,"updated_at":"2026-03-30T23:31:08.905267+05:30"},{"city":"Ranchi","state":"Jharkhand","latitude":23.3441,"longitude":85.3096,"temp":24.0,"humidity":75,"rain":0.0,"pressure":938.5,"uv_index":8.75,"wind_gusts":25.9,"aqi":104,"pm10":35.4,"pm2_5":24.3,"mosquito_risk":3,"arthritis_risk":5,"migraine_risk":7,"frizz_risk":1,"updated_at":"2026-03-30T23:31:08.905273+05:30"},{"city":"Jamshedpur","state":"Jharkhand","latitude":22.8046,"longitude":86.2029,"temp":27.3,"humidity":79,"rain":0.0,"pressure":991.6,"uv_index":8.6,"wind_gusts":27.7,"aqi":123,"pm10":41.7,"pm2_5":35.6,"mosquito_risk":7,"arthritis_risk":5,"migraine_risk":7,"frizz_risk":1,"updated_at":"2026-03-30T23:31:08.905279+05:30"},{"city":"Dhanbad","state":"Jharkhand","latitude":23.7957,"longitude":86.4304,"temp":26.4,"humidity":75,"rain":0.0,"pressure":981.0,"uv_index":8.5,"wind_gusts":28.1,"aqi":163,"pm10":70.3,"pm2_5":63.8,"mosquito_risk":7,"arthritis_risk":5,"migraine_risk":7,"frizz_risk":1,"updated_at":"2026-03-30T23:31:08.905285+05:30"},{"city":"Bokaro","state":"Jharkhand","latitude":23.6693,"longitude":86.1511,"temp":25.2,"humidity":78,"rain":0.0,"pressure":985.0,"uv_index":8.5,"wind_gusts":23.0,"aqi":158,"pm10":66.6,"pm2_5":56.5,"mosquito_risk":7,"arthritis_risk":5,"migraine_risk":7,"frizz_risk":1,"updated_at":"2026-03-30T23:31:08.905291+05:30"},{"city":"Bhubaneswar","state":"Odisha","latitude":20.2961,"longitude":85.8245,"temp":27.0,"humidity":86,"rain":0.0,"pressure":1003.4,"uv_index":8.8,"wind_gusts":38.9,"aqi":64,"pm10":18.2,"pm2_5":14.7,"mosquito_risk":7,"arthritis_risk":5,"migraine_risk":4,"frizz_risk":1,"updated_at":"2026-03-30T23:31:08.905297+05:30"},{"city":"Cuttack","state":"Odisha","latitude":20.4625,"longitude":85.8828,"temp":27.0,"humidity":87,"rain":0.0,"pressure":1005.2,"uv_index":8.8,"wind_gusts":32.8,"aqi":64,"pm10":18.2,"pm2_5":14.7,"mosquito_risk":7,"arthritis_risk":5,"migraine_risk":4,"frizz_risk":1,"updated_at":"2026-03-30T23:31:08.905303+05:30"},{"city":"Rourkela","state":"Odisha","latitude":22.2604,"longitude":84.8536,"temp":26.8,"humidity":77,"rain":0.0,"pressure":985.5,"uv_index":8.5,"wind_gusts":52.6,"aqi":101,"pm10":52.7,"pm2_5":45.5,"mosquito_risk":7,"arthritis_risk":5,"migraine_risk":7,"frizz_risk":1,"updated_at":"2026-03-30T23:31:08.905309+05:30"},{"city":"Raipur","state":"Chhattisgarh","latitude":21.2514,"longitude":81.6296,"temp":28.6,"humidity":51,"rain":0.0,"pressure":975.4,"uv_index":8.6,"wind_gusts":32.8,"aqi":98,"pm10":47.1,"pm2_5":39.3,"mosquito_risk":4,"arthritis_risk":5,"migraine_risk":7,"frizz_risk":1,"updated_at":"2026-03-30T23:31:08.905315+05:30"},{"city":"Bhilai","state":"Chhattisgarh","latitude":21.1938,"longitude":81.3509,"temp":27.8,"humidity":54,"rain":0.0,"pressure":975.5,"uv_index":8.65,"wind_gusts":31.3,"aqi":77,"pm10":40.9,"pm2_5":32.7,"mosquito_risk":4,"arthritis_risk":5,"migraine_risk":7,"frizz_risk":1,"updated_at":"2026-03-30T23:31:08.905321+05:30"},{"city":"Guwahati","state":"Assam","latitude":26.1158,"longitude":91.7086,"temp":22.2,"humidity":93,"rain":0.0,"pressure":1004.5,"uv_index":7.35,"wind_gusts":27.7,"aqi":101,"pm10":46.0,"pm2_5":39.8,"mosquito_risk":3,"arthritis_risk":5,"migraine_risk":4,"frizz_risk":1,"updated_at":"2026-03-30T23:31:08.905327+05:30"},{"city":"Agartala","state":"Tripura","latitude":23.8315,"longitude":91.2868,"temp":23.6,"humidity":93,"rain":0.0,"pressure":1008.7,"uv_index":8.3,"wind_gusts":29.9,"aqi":115,"pm10":35.2,"pm2_5":30.7,"mosquito_risk":3,"arthritis_risk":0,"migraine_risk":4,"frizz_risk":1,"updated_at":"2026-03-30T23:31:08.905333+05:30"},{"city":"Shillong","state":"Meghalaya","latitude":25.5788,"longitude":91.8933,"temp":12.8,"humidity":93,"rain":0.0,"pressure":856.4,"uv_index":6.25,"wind_gusts":42.1,"aqi":99,"pm10":39.7,"pm2_5":35.5,"mosquito_risk":3,"arthritis_risk":10,"migraine_risk":7,"frizz_risk":0,"updated_at":"2026-03-30T23:31:08.905340+05:30"},{"city":"Imphal","state":"Manipur","latitude":24.817,"longitude":93.9368,"temp":17.1,"humidity":87,"rain":0.0,"pressure":924.7,"uv_index":7.75,"wind_gusts":58.7,"aqi":138,"pm10":18.6,"pm2_5":15.9,"mosquito_risk":3,"arthritis_risk":10,"migraine_risk":7,"frizz_risk":0,"updated_at":"2026-03-30T23:31:08.905346+05:30"},{"city":"Aizawl","state":"Mizoram","latitude":23.7271,"longitude":92.7176,"temp":17.9,"humidity":92,"rain":0.0,"pressure":894.2,"uv_index":8.45,"wind_gusts":50.8,"aqi":116,"pm10":34.8,"pm2_5":28.1,"mosquito_risk":3,"arthritis_risk":10,"migraine_risk":7,"frizz_risk":1,"updated_at":"2026-03-30T23:31:08.905352+05:30"},{"city":"Kohima","state":"Nagaland","latitude":25.6701,"longitude":94.1077,"temp":14.0,"humidity":87,"rain":0.0,"pressure":855.4,"uv_index":8.45,"wind_gusts":77.8,"aqi":113,"pm10":24.6,"pm2_5":19.6,"mosquito_risk":3,"arthritis_risk":10,"migraine_risk":7,"frizz_risk":0,"updated_at":"2026-03-30T23:31:08.905358+05:30"},{"city":"Gangtok","state":"Sikkim","latitude":27.3314,"longitude":88.6138,"temp":13.3,"humidity":94,"rain":0.0,"pressure":837.6,"uv_index":7.55,"wind_gusts":21.2,"aqi":93,"pm10":45.6,"pm2_5":38.1,"mosquito_risk":3,"arthritis_risk":10,"migraine_risk":7,"frizz_risk":0,"updated_at":"2026-03-30T23:31:08.905364+05:30"},{"city":"Siliguri","state":"West Bengal","latitude":26.7271,"longitude":88.3953,"temp":18.9,"humidity":88,"rain":0.0,"pressure":996.7,"uv_index":7.45,"wind_gusts":14.8,"aqi":154,"pm10":88.9,"pm2_5":70.3,"mosquito_risk":3,"arthritis_risk":10,"migraine_risk":7,"frizz_risk":1,"updated_at":"2026-03-30T23:31:13.545299+05:30"},{"city":"Durgapur","state":"West Bengal","latitude":23.5204,"longitude":87.3119,"temp":25.9,"humidity":85,"rain":0.0,"pressure":996.9,"uv_index":8.5,"wind_gusts":25.2,"aqi":156,"pm10":49.0,"pm2_5":44.7,"mosquito_risk":7,"arthritis_risk":5,"migraine_risk":7,"frizz_risk":1,"updated_at":"2026-03-30T23:31:13.545332+05:30"},{"city":"Asansol","state":"West Bengal","latitude":23.6739,"longitude":86.9524,"temp":25.3,"humidity":82,"rain":0.0,"pressure":995.4,"uv_index":8.5,"wind_gusts":22.3,"aqi":158,"pm10":53.6,"pm2_5":48.0,"mosquito_risk":7,"arthritis_risk":5,"migraine_risk":7,"frizz_risk":1,"updated_at":"2026-03-30T23:31:13.545345+05:30"},{"city":"Pondicherry","state":"Puducherry","latitude":11.9139,"longitude":79.8145,"temp":25.5,"humidity":92,"rain":0.0,"pressure":1009.5,"uv_index":9.25,"wind_gusts":27.7,"aqi":44,"pm10":13.3,"pm2_5":9.3,"mosquito_risk":7,"arthritis_risk":0,"migraine_risk":4,"frizz_risk":1,"updated_at":"2026-03-30T23:31:13.545354+05:30"},{"city":"Port Blair","state":"Andaman and Nicobar Islands","latitude":11.6234,"longitude":92.7265,"temp":28.7,"humidity":78,"rain":0.0,"pressure":1008.1,"uv_index":9.2,"wind_gusts":15.1,"aqi":60,"pm10":12.0,"pm2_5":8.9,"mosquito_risk":7,"arthritis_risk":0,"migraine_risk":4,"frizz_risk":1,"updated_at":"2026-03-30T23:31:13.545362+05:30"},{"city":"Haridwar","state":"Uttarakhand","latitude":29.9457,"longitude":78.1642,"temp":22.9,"humidity":78,"rain":0.0,"pressure":975.6,"uv_index":5.75,"wind_gusts":21.2,"aqi":101,"pm10":293.4,"pm2_5":75.9,"mosquito_risk":3,"arthritis_risk":5,"migraine_risk":3,"frizz_risk":1,"updated_at":"2026-03-30T23:31:13.545370+05:30"},{"city":"Rishikesh","state":"Uttarakhand","latitude":30.0869,"longitude":78.2676,"temp":22.0,"humidity":72,"rain":0.0,"pressure":968.3,"uv_index":5.8,"wind_gusts":24.8,"aqi":77,"pm10":109.0,"pm2_5":33.4,"mosquito_risk":3,"arthritis_risk":5,"migraine_risk":3,"frizz_risk":1,"updated_at":"2026-03-30T23:31:13.545378+05:30"},{"city":"Nainital","state":"Uttarakhand","latitude":29.3919,"longitude":79.4542,"temp":19.4,"humidity":46,"rain":0.0,"pressure":807.2,"uv_index":7.3,"wind_gusts":47.9,"aqi":84,"pm10":99.2,"pm2_5":39.0,"mosquito_risk":0,"arthritis_risk":5,"migraine_risk":7,"frizz_risk":0,"updated_at":"2026-03-30T23:31:13.545386+05:30"},{"city":"Mussoorie","state":"Uttarakhand","latitude":30.4599,"longitude":78.0664,"temp":16.7,"humidity":60,"rain":0.0,"pressure":803.8,"uv_index":6.2,"wind_gusts":34.2,"aqi":78,"pm10":112.2,"pm2_5":37.3,"mosquito_risk":0,"arthritis_risk":5,"migraine_risk":7,"frizz_risk":0,"updated_at":"2026-03-30T23:31:13.545395+05:30"},{"city":"Dharamshala","state":"Himachal Pradesh","latitude":32.219,"longitude":76.3234,"temp":18.1,"humidity":63,"rain":0.0,"pressure":870.9,"uv_index":6.05,"wind_gusts":36.4,"aqi":41,"pm10":12.8,"pm2_5":6.4,"mosquito_risk":3,"arthritis_risk":5,"migraine_risk":7,"frizz_risk":0,"updated_at":"2026-03-30T23:31:13.545402+05:30"},{"city":"Dalhousie","state":"Himachal Pradesh","latitude":32.5387,"longitude":75.971,"temp":13.9,"humidity":70,"rain":0.0,"pressure":804.3,"uv_index":5.75,"wind_gusts":42.5,"aqi":64,"pm10":37.4,"pm2_5":21.5,"mosquito_risk":3,"arthritis_risk":5,"migraine_risk":3,"frizz_risk":0,"updated_at":"2026-03-30T23:31:13.545411+05:30"},{"city":"Patiala","state":"Punjab","latitude":30.3398,"longitude":76.3869,"temp":21.9,"humidity":73,"rain":0.0,"pressure":980.1,"uv_index":5.4,"wind_gusts":25.6,"aqi":362,"pm10":168.6,"pm2_5":43.3,"mosquito_risk":3,"arthritis_risk":5,"migraine_risk":3,"frizz_risk":1,"updated_at":"2026-03-30T23:31:13.545419+05:30"},{"city":"Bhatinda","state":"Punjab","latitude":30.211,"longitude":74.9455,"temp":22.3,"humidity":72,"rain":0.0,"pressure":985.2,"uv_index":4.15,"wind_gusts":38.9,"aqi":153,"pm10":204.0,"pm2_5":38.4,"mosquito_risk":3,"arthritis_risk":5,"migraine_risk":3,"frizz_risk":1,"updated_at":"2026-03-30T23:31:13.545427+05:30"},{"city":"Rohtak","state":"Haryana","latitude":28.8955,"longitude":76.6066,"temp":21.7,"humidity":76,"rain":0.0,"pressure":983.4,"uv_index":6.65,"wind_gusts":34.2,"aqi":412,"pm10":238.4,"pm2_5":74.5,"mosquito_risk":3,"arthritis_risk":5,"migraine_risk":7,"frizz_risk":1,"updated_at":"2026-03-30T23:31:13.545435+05:30"},{"city":"Panipat","state":"Haryana","latitude":29.3909,"longitude":76.9635,"temp":20.8,"humidity":73,"rain":0.0,"pressure":982.1,"uv_index":6.6,"wind_gusts":25.9,"aqi":625,"pm10":521.5,"pm2_5":99.7,"mosquito_risk":3,"arthritis_risk":5,"migraine_risk":7,"frizz_risk":0,"updated_at":"2026-03-30T23:31:13.545442+05:30"},{"city":"Mathura","state":"Uttar Pradesh","latitude":27.4924,"longitude":77.6737,"temp":23.4,"humidity":63,"rain":0.0,"pressure":988.7,"uv_index":6.2,"wind_gusts":39.6,"aqi":514,"pm10":410.7,"pm2_5":88.7,"mosquito_risk":3,"arthritis_risk":5,"migraine_risk":7,"frizz_risk":0,"updated_at":"2026-03-30T23:31:13.545450+05:30"},{"city":"Vrindavan","state":"Uttar Pradesh","latitude":27.5823,"longitude":77.7027,"temp":22.7,"humidity":67,"rain":0.0,"pressure":989.1,"uv_index":6.45,"wind_gusts":40.0,"aqi":514,"pm10":410.7,"pm2_5":88.7,"mosquito_risk":3,"arthritis_risk":5,"migraine_risk":7,"frizz_risk":1,"updated_at":"2026-03-30T23:31:13.545458+05:30"},{"city":"Ayodhya","state":"Uttar Pradesh","latitude":26.7922,"longitude":82.1998,"temp":25.8,"humidity":69,"rain":0.0,"pressure":995.4,"uv_index":7.45,"wind_gusts":25.2,"aqi":134,"pm10":79.9,"pm2_5":31.9,"mosquito_risk":7,"arthritis_risk":5,"migraine_risk":7,"frizz_risk":1,"updated_at":"2026-03-30T23:31:13.545465+05:30"},{"city":"Ratlam","state":"Madhya Pradesh","latitude":23.3315,"longitude":75.0367,"temp":25.3,"humidity":68,"rain":0.0,"pressure":955.1,"uv_index":8.15,"wind_gusts":38.2,"aqi":53,"pm10":35.9,"pm2_5":24.1,"mosquito_risk":7,"arthritis_risk":5,"migraine_risk":7,"frizz_risk":1,"updated_at":"2026-03-30T23:31:13.545473+05:30"},{"city":"Sagar","state":"Madhya Pradesh","latitude":23.8388,"longitude":78.7378,"temp":27.3,"humidity":47,"rain":0.0,"pressure":951.3,"uv_index":8.15,"wind_gusts":32.0,"aqi":47,"pm10":27.3,"pm2_5":12.3,"mosquito_risk":4,"arthritis_risk":5,"migraine_risk":7,"frizz_risk":0,"updated_at":"2026-03-30T23:31:13.545481+05:30"},{"city":"Satna","state":"Madhya Pradesh","latitude":24.6005,"longitude":80.8322,"temp":25.0,"humidity":66,"rain":0.0,"pressure":972.4,"uv_index":8.15,"wind_gusts":66.2,"aqi":65,"pm10":246.8,"pm2_5":45.9,"mosquito_risk":7,"arthritis_risk":5,"migraine_risk":7,"frizz_risk":1,"updated_at":"2026-03-30T23:31:13.545488+05:30"},{"city":"Akola","state":"Maharashtra","latitude":20.7002,"longitude":77.0082,"temp":27.6,"humidity":63,"rain":0.0,"pressure":976.0,"uv_index":8.5,"wind_gusts":42.5,"aqi":49,"pm10":27.1,"pm2_5":21.1,"mosquito_risk":7,"arthritis_risk":5,"migraine_risk":7,"frizz_risk":1,"updated_at":"2026-03-30T23:31:13.545496+05:30"},{"city":"Amravati","state":"Maharashtra","latitude":20.9374,"longitude":77.7796,"temp":28.1,"humidity":53,"rain":0.0,"pressure":968.2,"uv_index":8.5,"wind_gusts":24.8,"aqi":47,"pm10":23.5,"pm2_5":18.4,"mosquito_risk":4,"arthritis_risk":5,"migraine_risk":7,"frizz_risk":1,"updated_at":"2026-03-30T23:31:13.545504+05:30"},{"city":"Latur","state":"Maharashtra","latitude":18.4088,"longitude":76.5604,"temp":24.2,"humidity":69,"rain":0.0,"pressure":941.3,"uv_index":8.6,"wind_gusts":33.1,"aqi":82,"pm10":29.3,"pm2_5":26.5,"mosquito_risk":3,"arthritis_risk":5,"migraine_risk":7,"frizz_risk":1,"updated_at":"2026-03-30T23:31:13.545512+05:30"},{"city":"Nanded","state":"Maharashtra","latitude":19.1383,"longitude":77.3091,"temp":24.1,"humidity":82,"rain":0.0,"pressure":970.8,"uv_index":8.7,"wind_gusts":48.2,"aqi":58,"pm10":24.9,"pm2_5":22.6,"mosquito_risk":3,"arthritis_risk":5,"migraine_risk":7,"frizz_risk":1,"updated_at":"2026-03-30T23:31:13.545520+05:30"},{"city":"Gulbarga","state":"Karnataka","latitude":17.3297,"longitude":76.8343,"temp":27.3,"humidity":61,"rain":0.0,"pressure":960.1,"uv_index":8.85,"wind_gusts":38.9,"aqi":97,"pm10":68.9,"pm2_5":60.1,"mosquito_risk":7,"arthritis_risk":5,"migraine_risk":7,"frizz_risk":1,"updated_at":"2026-03-30T23:31:13.545527+05:30"},{"city":"Bidar","state":"Karnataka","latitude":17.9104,"longitude":77.5199,"temp":24.5,"humidity":73,"rain":0.0,"pressure":936.6,"uv_index":8.9,"wind_gusts":45.0,"aqi":98,"pm10":58.8,"pm2_5":53.1,"mosquito_risk":3,"arthritis_risk":5,"migraine_risk":7,"frizz_risk":1,"updated_at":"2026-03-30T23:31:13.545535+05:30"},{"city":"Hospet","state":"Karnataka","latitude":15.2689,"longitude":76.3909,"temp":28.6,"humidity":65,"rain":0.0,"pressure":956.4,"uv_index":9.1,"wind_gusts":16.9,"aqi":121,"pm10":64.5,"pm2_5":58.1,"mosquito_risk":7,"arthritis_risk":5,"migraine_risk":7,"frizz_risk":1,"updated_at":"2026-03-30T23:31:13.545543+05:30"},{"city":"Tirupur","state":"Tamil Nadu","latitude":11.1085,"longitude":77.3411,"temp":27.5,"humidity":77,"rain":0.0,"pressure":975.9,"uv_index":9.45,"wind_gusts":27.0,"aqi":83,"pm10":36.9,"pm2_5":34.8,"mosquito_risk":7,"arthritis_risk":5,"migraine_risk":7,"frizz_risk":1,"updated_at":"2026-03-30T23:31:13.545551+05:30"},{"city":"Alappuzha","state":"Kerala","latitude":9.4981,"longitude":76.3388,"temp":28.4,"humidity":83,"rain":0.0,"pressure":1009.3,"uv_index":9.2,"wind_gusts":27.0,"aqi":99,"pm10":48.4,"pm2_5":44.7,"mosquito_risk":7,"arthritis_risk":0,"migraine_risk":4,"frizz_risk":1,"updated_at":"2026-03-30T23:31:13.545559+05:30"},{"city":"Munnar","state":"Kerala","latitude":10.0889,"longitude":77.0595,"temp":21.7,"humidity":88,"rain":0.0,"pressure":857.6,"uv_index":8.7,"wind_gusts":36.4,"aqi":81,"pm10":41.8,"pm2_5":39.8,"mosquito_risk":3,"arthritis_risk":5,"migraine_risk":7,"frizz_risk":1,"updated_at":"2026-03-30T23:31:13.545567+05:30"},{"city":"Silchar","state":"Assam","latitude":24.8333,"longitude":92.7789,"temp":23.3,"humidity":93,"rain":0.0,"pressure":1008.0,"uv_index":8.3,"wind_gusts":25.9,"aqi":134,"pm10":37.5,"pm2_5":29.8,"mosquito_risk":3,"arthritis_risk":0,"migraine_risk":4,"frizz_risk":1,"updated_at":"2026-03-30T23:31:13.545575+05:30"},{"city":"Dibrugarh","state":"Assam","latitude":27.4728,"longitude":94.912,"temp":22.4,"humidity":85,"rain":0.0,"pressure":999.1,"uv_index":5.75,"wind_gusts":10.1,"aqi":91,"pm10":35.0,"pm2_5":32.6,"mosquito_risk":3,"arthritis_risk":5,"migraine_risk":3,"frizz_risk":1,"updated_at":"2026-03-30T23:31:13.545583+05:30"}]