[{"city":"Delhi","state":"Delhi","latitude":28.6139,"longitude":77.209,"temp":30.9,"humidity":73,"rain":0.0,"pressure":976.6,"uv_index":7.05,"wind_gusts":38.2,"aqi":315,"pm10":292.4,"pm2_5":111.3,"no2":48.6,"co":918.0,"o3":39.0,"so2":20.8,"mosquito_risk":3,"arthritis_risk":5,"migraine_risk":7,"frizz_risk":1,"updated_at":"2026-07-14T21:47:37.849860+05:30"},{"city":"Mumbai","state":"Maharashtra","latitude":19.076,"longitude":72.8777,"temp":27.8,"humidity":79,"rain":0.0,"pressure":1007.9,"uv_index":6.55,"wind_gusts":41.0,"aqi":73,"pm10":31.9,"pm2_5":15.7,"no2":8.4,"co":237.0,"o3":42.0,"so2":6.1,"mosquito_risk":7,"arthritis_risk":5,"migraine_risk":4,"frizz_risk":1,"updated_at":"2026-07-14T21:47:37.849908+05:30"},{"city":"Bangalore","state":"Karnataka","latitude":12.9716,"longitude":77.5946,"temp":25.4,"humidity":55,"rain":0.0,"pressure":912.4,"uv_index":8.55,"wind_gusts":40.3,"aqi":58,"pm10":24.1,"pm2_5":18.8,"no2":36.7,"co":913.0,"o3":40.0,"so2":8.2,"mosquito_risk":4,"arthritis_risk":5,"migraine_risk":7,"frizz_risk":0,"updated_at":"2026-07-14T21:47:37.849924+05:30"},{"city":"Hyderabad","state":"Telangana","latitude":17.385,"longitude":78.4867,"temp":29.5,"humidity":56,"rain":0.0,"pressure":951.8,"uv_index":8.05,"wind_gusts":47.5,"aqi":61,"pm10":28.7,"pm2_5":21.5,"no2":15.4,"co":456.0,"o3":58.0,"so2":6.1,"mosquito_risk":4,"arthritis_risk":5,"migraine_risk":7,"frizz_risk":1,"updated_at":"2026-07-14T21:47:37.849934+05:30"},{"city":"Chennai","state":"Tamil Nadu","latitude":13.0827,"longitude":80.2707,"temp":31.7,"humidity":68,"rain":0.0,"pressure":1004.8,"uv_index":8.25,"wind_gusts":37.1,"aqi":109,"pm10":39.6,"pm2_5":27.2,"no2":12.9,"co":253.0,"o3":117.0,"so2":6.8,"mosquito_risk":3,"arthritis_risk":5,"migraine_risk":4,"frizz_risk":1,"updated_at":"2026-07-14T21:47:37.849942+05:30"},{"city":"Kolkata","state":"West Bengal","latitude":22.5726,"longitude":88.3639,"temp":28.0,"humidity":92,"rain":0.0,"pressure":1000.0,"uv_index":8.7,"wind_gusts":27.4,"aqi":134,"pm10":74.5,"pm2_5":73.1,"no2":46.9,"co":1291.0,"o3":20.0,"so2":22.7,"mosquito_risk":7,"arthritis_risk":5,"migraine_risk":4,"frizz_risk":1,"updated_at":"2026-07-14T21:47:37.849950+05:30"},{"city":"Pune","state":"Maharashtra","latitude":18.5204,"longitude":73.8567,"temp":23.7,"humidity":86,"rain":0.0,"pressure":947.7,"uv_index":8.4,"wind_gusts":47.9,"aqi":57,"pm10":25.4,"pm2_5":14.3,"no2":10.5,"co":182.0,"o3":37.0,"so2":7.0,"mosquito_risk":3,"arthritis_risk":5,"migraine_risk":7,"frizz_risk":1,"updated_at":"2026-07-14T21:47:37.849957+05:30"},{"city":"Ahmedabad","state":"Gujarat","latitude":23.0225,"longitude":72.5714,"temp":29.9,"humidity":68,"rain":0.0,"pressure":999.2,"uv_index":6.1,"wind_gusts":43.9,"aqi":65,"pm10":28.6,"pm2_5":16.3,"no2":12.1,"co":254.0,"o3":46.0,"so2":5.2,"mosquito_risk":7,"arthritis_risk":5,"migraine_risk":7,"frizz_risk":1,"updated_at":"2026-07-14T21:47:37.849964+05:30"},{"city":"Jaipur","state":"Rajasthan","latitude":26.9124,"longitude":75.7873,"temp":30.4,"humidity":57,"rain":0.0,"pressure":955.3,"uv_index":8.1,"wind_gusts":41.0,"aqi":437,"pm10":484.3,"pm2_5":98.7,"no2":13.6,"co":202.0,"o3":48.0,"so2":5.7,"mosquito_risk":0,"arthritis_risk":5,"migraine_risk":7,"frizz_risk":1,"updated_at":"2026-07-14T21:47:37.849971+05:30"},{"city":"Lucknow","state":"Uttar Pradesh","latitude":26.8467,"longitude":80.9462,"temp":30.7,"humidity":73,"rain":0.0,"pressure":987.4,"uv_index":7.8,"wind_gusts":24.5,"aqi":157,"pm10":156.5,"pm2_5":79.2,"no2":30.4,"co":355.0,"o3":46.0,"so2":11.7,"mosquito_risk":3,"arthritis_risk":5,"migraine_risk":7,"frizz_risk":1,"updated_at":"2026-07-14T21:47:37.849982+05:30"},{"city":"Kanpur","state":"Uttar Pradesh","latitude":26.4499,"longitude":80.3319,"temp":31.3,"humidity":64,"rain":0.0,"pressure":986.2,"uv_index":7.55,"wind_gusts":31.0,"aqi":147,"pm10":114.6,"pm2_5":54.8,"no2":19.4,"co":229.0,"o3":58.0,"so2":7.5,"mosquito_risk":3,"arthritis_risk":5,"migraine_risk":7,"frizz_risk":1,"updated_at":"2026-07-14T21:47:37.849988+05:30"},{"city":"Chandigarh","state":"Chandigarh","latitude":30.7333,"longitude":76.7794,"temp":28.4,"humidity":79,"rain":0.0,"pressure":962.2,"uv_index":7.7,"wind_gusts":24.5,"aqi":172,"pm10":123.4,"pm2_5":91.0,"no2":43.5,"co":1429.0,"o3":91.0,"so2":21.1,"mosquito_risk":7,"arthritis_risk":5,"migraine_risk":7,"frizz_risk":1,"updated_at":"2026-07-14T21:47:37.849998+05:30"},{"city":"Srinagar","state":"Jammu and Kashmir","latitude":34.0837,"longitude":74.7973,"temp":21.0,"humidity":82,"rain":0.0,"pressure":837.3,"uv_index":8.85,"wind_gusts":22.0,"aqi":83,"pm10":31.4,"pm2_5":28.0,"no2":32.0,"co":1164.0,"o3":43.0,"so2":3.4,"mosquito_risk":3,"arthritis_risk":5,"migraine_risk":7,"frizz_risk":1,"updated_at":"2026-07-14T21:47:37.850005+05:30"},{"city":"Jammu","state":"Jammu and Kashmir","latitude":32.7266,"longitude":74.857,"temp":28.8,"humidity":76,"rain":0.0,"pressure":965.7,"uv_index":8.25,"wind_gusts":22.7,"aqi":153,"pm10":112.2,"pm2_5":73.1,"no2":54.1,"co":1022.0,"o3":74.0,"so2":9.6,"mosquito_risk":7,"arthritis_risk":5,"migraine_risk":7,"frizz_risk":1,"updated_at":"2026-07-14T21:47:37.850012+05:30"},{"city":"Amritsar","state":"Punjab","latitude":31.634,"longitude":74.8723,"temp":29.5,"humidity":77,"rain":0.0,"pressure":973.5,"uv_index":8.2,"wind_gusts":14.8,"aqi":187,"pm10":155.1,"pm2_5":111.3,"no2":61.0,"co":1284.0,"o3":46.0,"so2":12.5,"mosquito_risk":7,"arthritis_risk":5,"migraine_risk":7,"frizz_risk":1,"updated_at":"2026-07-14T21:47:37.850019+05:30"},{"city":"Ludhiana","state":"Punjab","latitude":30.901,"longitude":75.8573,"temp":30.1,"humidity":78,"rain":0.0,"pressure":971.9,"uv_index":7.85,"wind_gusts":24.1,"aqi":187,"pm10":156.0,"pm2_5":122.9,"no2":65.9,"co":869.0,"o3":45.0,"so2":14.1,"mosquito_risk":3,"arthritis_risk":5,"migraine_risk":7,"frizz_risk":1,"updated_at":"2026-07-14T21:47:37.850025+05:30"},{"city":"Jalandhar","state":"Punjab","latitude":31.326,"longitude":75.5762,"temp":29.8,"humidity":84,"rain":0.0,"pressure":972.8,"uv_index":7.5,"wind_gusts":19.8,"aqi":193,"pm10":208.2,"pm2_5":144.4,"no2":78.4,"co":1381.0,"o3":55.0,"so2":14.2,"mosquito_risk":7,"arthritis_risk":5,"migraine_risk":7,"frizz_risk":1,"updated_at":"2026-07-14T21:47:37.850031+05:30"},{"city":"Dehradun","state":"Uttarakhand","latitude":30.6284,"longitude":78.0322,"temp":19.5,"humidity":97,"rain":0.0,"pressure":827.8,"uv_index":8.1,"wind_gusts":27.0,"aqi":121,"pm10":77.5,"pm2_5":39.9,"no2":31.3,"co":317.0,"o3":76.0,"so2":3.5,"mosquito_risk":3,"arthritis_risk":10,"migraine_risk":7,"frizz_risk":1,"updated_at":"2026-07-14T21:47:37.850038+05:30"},{"city":"Shimla","state":"Himachal Pradesh","latitude":31.1048,"longitude":77.1734,"temp":15.8,"humidity":93,"rain":0.0,"pressure":781.4,"uv_index":7.85,"wind_gusts":32.8,"aqi":153,"pm10":87.5,"pm2_5":55.5,"no2":25.1,"co":473.0,"o3":93.0,"so2":9.6,"mosquito_risk":3,"arthritis_risk":10,"migraine_risk":7,"frizz_risk":0,"updated_at":"2026-07-14T21:47:37.850044+05:30"},{"city":"Manali","state":"Himachal Pradesh","latitude":32.2396,"longitude":77.1887,"temp":18.9,"humidity":91,"rain":0.0,"pressure":816.2,"uv_index":9.55,"wind_gusts":31.7,"aqi":106,"pm10":33.8,"pm2_5":22.5,"no2":55.7,"co":217.0,"o3":71.0,"so2":0.4,"mosquito_risk":3,"arthritis_risk":10,"migraine_risk":7,"frizz_risk":1,"updated_at":"2026-07-14T21:47:37.850056+05:30"},{"city":"Gurgaon","state":"Haryana","latitude":28.4595,"longitude":77.0266,"temp":31.0,"humidity":65,"rain":0.0,"pressure":975.1,"uv_index":6.8,"wind_gusts":34.2,"aqi":386,"pm10":201.6,"pm2_5":89.2,"no2":46.3,"co":557.0,"o3":38.0,"so2":16.3,"mosquito_risk":3,"arthritis_risk":5,"migraine_risk":7,"frizz_risk":1,"updated_at":"2026-07-14T21:47:37.850064+05:30"},{"city":"Noida","state":"Uttar Pradesh","latitude":28.5355,"longitude":77.391,"temp":31.1,"humidity":72,"rain":0.0,"pressure":978.0,"uv_index":7.05,"wind_gusts":30.6,"aqi":386,"pm10":201.6,"pm2_5":89.2,"no2":46.3,"co":765.0,"o3":38.0,"so2":16.3,"mosquito_risk":3,"arthritis_risk":5,"migraine_risk":7,"frizz_risk":1,"updated_at":"2026-07-14T21:47:37.850070+05:30"},{"city":"Ghaziabad","state":"Uttar Pradesh","latitude":28.6692,"longitude":77.4538,"temp":31.0,"humidity":71,"rain":0.0,"pressure":976.3,"uv_index":7.25,"wind_gusts":30.6,"aqi":225,"pm10":314.8,"pm2_5":109.2,"no2":34.5,"co":884.0,"o3":59.0,"so2":17.4,"mosquito_risk":3,"arthritis_risk":5,"migraine_risk":7,"frizz_risk":1,"updated_at":"2026-07-14T21:47:37.850077+05:30"},{"city":"Faridabad","state":"Haryana","latitude":28.4089,"longitude":77.3178,"temp":31.8,"humidity":63,"rain":0.0,"pressure":977.3,"uv_index":7.45,"wind_gusts":43.9,"aqi":386,"pm10":201.6,"pm2_5":89.2,"no2":46.3,"co":614.0,"o3":38.0,"so2":16.3,"mosquito_risk":3,"arthritis_risk":5,"migraine_risk":7,"frizz_risk":1,"updated_at":"2026-07-14T21:47:37.850082+05:30"},{"city":"Meerut","state":"Uttar Pradesh","latitude":28.9845,"longitude":77.7064,"temp":30.9,"humidity":78,"rain":0.0,"pressure":975.0,"uv_index":7.55,"wind_gusts":29.9,"aqi":225,"pm10":314.8,"pm2_5":109.2,"no2":34.5,"co":860.0,"o3":59.0,"so2":17.4,"mosquito_risk":3,"arthritis_risk":5,"migraine_risk":7,"frizz_risk":1,"updated_at":"2026-07-14T21:47:37.850089+05:30"},{"city":"Agra","state":"Uttar Pradesh","latitude":27.1767,"longitude":78.0081,"temp":31.3,"humidity":63,"rain":0.0,"pressure":982.0,"uv_index":7.95,"wind_gusts":28.4,"aqi":153,"pm10":151.3,"pm2_5":56.7,"no2":15.6,"co":316.0,"o3":61.0,"so2":6.5,"mosquito_risk":3,"arthritis_risk":5,"migraine_risk":7,"frizz_risk":1,"updated_at":"2026-07-14T21:47:37.850095+05:30"},{"city":"Varanasi","state":"Uttar Pradesh","latitude":25.3176,"longitude":82.9739,"temp":30.9,"humidity":72,"rain":0.0,"pressure":991.9,"uv_index":6.5,"wind_gusts":22.3,"aqi":153,"pm10":161.6,"pm2_5":80.1,"no2":30.7,"co":1615.0,"o3":58.0,"so2":16.9,"mosquito_risk":3,"arthritis_risk":5,"migraine_risk":7,"frizz_risk":1,"updated_at":"2026-07-14T21:47:37.850101+05:30"},{"city":"Prayagraj","state":"Uttar Pradesh","latitude":25.4358,"longitude":81.8463,"temp":31.1,"humidity":75,"rain":0.0,"pressure":990.4,"uv_index":7.7,"wind_gusts":29.2,"aqi":150,"pm10":153.7,"pm2_5":80.6,"no2":28.8,"co":356.0,"o3":50.0,"so2":13.0,"mosquito_risk":3,"arthritis_risk":5,"migraine_risk":7,"frizz_risk":1,"updated_at":"2026-07-14T21:47:37.850109+05:30"},{"city":"Gorakhpur","state":"Uttar Pradesh","latitude":26.7606,"longitude":83.3732,"temp":29.1,"humidity":84,"rain":0.0,"pressure":991.7,"uv_index":7.75,"wind_gusts":32.0,"aqi":156,"pm10":128.1,"pm2_5":85.4,"no2":33.0,"co":594.0,"o3":54.0,"so2":13.8,"mosquito_risk":7,"arthritis_risk":5,"migraine_risk":7,"frizz_risk":1,"updated_at":"2026-07-14T21:47:37.850115+05:30"},{"city":"Bareilly","state":"Uttar Pradesh","latitude":28.367,"longitude":79.4304,"temp":30.3,"humidity":81,"rain":0.0,"pressure":980.7,"uv_index":8.0,"wind_gusts":28.8,"aqi":180,"pm10":186.7,"pm2_5":100.4,"no2":25.7,"co":388.0,"o3":72.0,"so2":12.1,"mosquito_risk":3,"arthritis_risk":5,"migraine_risk":7,"frizz_risk":1,"updated_at":"2026-07-14T21:47:37.850124+05:30"},{"city":"Aligarh","state":"Uttar Pradesh","latitude":27.8974,"longitude":78.088,"temp":30.7,"humidity":71,"rain":0.0,"pressure":979.3,"uv_index":7.8,"wind_gusts":46.1,"aqi":253,"pm10":225.8,"pm2_5":94.3,"no2":26.1,"co":363.0,"o3":50.0,"so2":8.1,"mosquito_risk":3,"arthritis_risk":5,"migraine_risk":7,"frizz_risk":1,"updated_at":"2026-07-14T21:47:37.850130+05:30"},{"city":"Moradabad","state":"Uttar Pradesh","latitude":28.8386,"longitude":78.7733,"temp":29.5,"humidity":84,"rain":0.0,"pressure":977.4,"uv_index":7.5,"wind_gusts":30.2,"aqi":193,"pm10":224.9,"pm2_5":118.7,"no2":34.3,"co":741.0,"o3":66.0,"so2":14.8,"mosquito_risk":7,"arthritis_risk":5,"migraine_risk":7,"frizz_risk":1,"updated_at":"2026-07-14T21:47:37.850136+05:30"},{"city":"Saharanpur","state":"Uttar Pradesh","latitude":29.9637,"longitude":77.546,"temp":30.7,"humidity":75,"rain":0.0,"pressure":969.3,"uv_index":7.35,"wind_gusts":30.6,"aqi":190,"pm10":225.8,"pm2_5":129.0,"no2":59.1,"co":621.0,"o3":62.0,"so2":25.3,"mosquito_risk":3,"arthritis_risk":5,"migraine_risk":7,"frizz_risk":1,"updated_at":"2026-07-14T21:47:37.850143+05:30"},{"city":"Jhansi","state":"Uttar Pradesh","latitude":25.4484,"longitude":78.5685,"temp":30.1,"humidity":69,"rain":0.0,"pressure":973.3,"uv_index":8.4,"wind_gusts":41.4,"aqi":107,"pm10":97.1,"pm2_5":44.6,"no2":9.3,"co":194.0,"o3":61.0,"so2":5.4,"mosquito_risk":3,"arthritis_risk":5,"migraine_risk":7,"frizz_risk":1,"updated_at":"2026-07-14T21:47:41.173503+05:30"},{"city":"Surat","state":"Gujarat","latitude":21.1702,"longitude":72.8311,"temp":28.4,"humidity":79,"rain":0.0,"pressure":1005.0,"uv_index":4.3,"wind_gusts":53.6,"aqi":73,"pm10":27.2,"pm2_5":18.4,"no2":19.9,"co":294.0,"o3":27.0,"so2":31.2,"mosquito_risk":7,"arthritis_risk":5,"migraine_risk":0,"frizz_risk":1,"updated_at":"2026-07-14T21:47:41.173540+05:30"},{"city":"Vadodara","state":"Gujarat","latitude":22.3072,"longitude":73.1812,"temp":28.7,"humidity":78,"rain":0.0,"pressure":1001.8,"uv_index":5.35,"wind_gusts":48.2,"aqi":64,"pm10":26.8,"pm2_5":17.0,"no2":14.0,"co":155.0,"o3":35.0,"so2":10.6,"mosquito_risk":7,"arthritis_risk":5,"migraine_risk":0,"frizz_risk":1,"updated_at":"2026-07-14T21:47:41.173550+05:30"},{"city":"Rajkot","state":"Gujarat","latitude":22.3039,"longitude":70.8022,"temp":28.2,"humidity":77,"rain":0.0,"pressure":991.5,"uv_index":7.2,"wind_gusts":52.2,"aqi":58,"pm10":24.6,"pm2_5":13.2,"no2":5.1,"co":111.0,"o3":41.0,"so2":3.9,"mosquito_risk":7,"arthritis_risk":5,"migraine_risk":7,"frizz_risk":1,"updated_at":"2026-07-14T21:47:41.173559+05:30"},{"city":"Thane","state":"Maharashtra","latitude":19.2183,"longitude":72.9781,"temp":27.0,"humidity":84,"rain":0.0,"pressure":1007.3,"uv_index":6.9,"wind_gusts":34.9,"aqi":73,"pm10":31.9,"pm2_5":15.7,"no2":8.4,"co":244.0,"o3":42.0,"so2":6.1,"mosquito_risk":7,"arthritis_risk":5,"migraine_risk":4,"frizz_risk":1,"updated_at":"2026-07-14T21:47:41.173568+05:30"},{"city":"Nagpur","state":"Maharashtra","latitude":21.1458,"longitude":79.0882,"temp":29.1,"humidity":57,"rain":0.0,"pressure":970.4,"uv_index":8.15,"wind_gusts":47.9,"aqi":78,"pm10":31.0,"pm2_5":23.3,"no2":13.7,"co":231.0,"o3":59.0,"so2":10.9,"mosquito_risk":4,"arthritis_risk":5,"migraine_risk":7,"frizz_risk":1,"updated_at":"2026-07-14T21:47:41.173576+05:30"},{"city":"Nashik","state":"Maharashtra","latitude":19.9975,"longitude":73.7898,"temp":23.4,"humidity":90,"rain":0.0,"pressure":944.4,"uv_index":7.2,"wind_gusts":50.8,"aqi":58,"pm10":19.3,"pm2_5":10.3,"no2":9.3,"co":149.0,"o3":39.0,"so2":5.1,"mosquito_risk":3,"arthritis_risk":5,"migraine_risk":7,"frizz_risk":1,"updated_at":"2026-07-14T21:47:41.173599+05:30"},{"city":"Aurangabad","state":"Maharashtra","latitude":19.8762,"longitude":75.3433,"temp":25.1,"humidity":73,"rain":0.0,"pressure":943.1,"uv_index":7.7,"wind_gusts":50.4,"aqi":62,"pm10":26.6,"pm2_5":17.2,"no2":7.6,"co":158.0,"o3":69.0,"so2":8.7,"mosquito_risk":7,"arthritis_risk":5,"migraine_risk":7,"frizz_risk":1,"updated_at":"2026-07-14T21:47:41.173607+05:30"},{"city":"Solapur","state":"Maharashtra","latitude":17.6599,"longitude":75.9064,"temp":27.8,"humidity":56,"rain":0.0,"pressure":956.5,"uv_index":8.5,"wind_gusts":38.9,"aqi":58,"pm10":23.5,"pm2_5":16.6,"no2":5.7,"co":164.0,"o3":64.0,"so2":2.8,"mosquito_risk":4,"arthritis_risk":5,"migraine_risk":7,"frizz_risk":1,"updated_at":"2026-07-14T21:47:41.173615+05:30"},{"city":"Kolhapur","state":"Maharashtra","latitude":16.705,"longitude":74.2433,"temp":22.8,"humidity":93,"rain":0.0,"pressure":948.1,"uv_index":8.8,"wind_gusts":43.9,"aqi":55,"pm10":24.4,"pm2_5":15.0,"no2":8.3,"co":183.0,"o3":38.0,"so2":3.2,"mosquito_risk":3,"arthritis_risk":5,"migraine_risk":7,"frizz_risk":1,"updated_at":"2026-07-14T21:47:41.173623+05:30"},{"city":"Goa","state":"Goa","latitude":15.2993,"longitude":74.124,"temp":26.5,"humidity":87,"rain":0.0,"pressure":999.2,"uv_index":7.65,"wind_gusts":31.3,"aqi":71,"pm10":38.0,"pm2_5":20.7,"no2":4.8,"co":468.0,"o3":45.0,"so2":1.8,"mosquito_risk":7,"arthritis_risk":5,"migraine_risk":7,"frizz_risk":1,"updated_at":"2026-07-14T21:47:41.173630+05:30"},{"city":"Jodhpur","state":"Rajasthan","latitude":26.2389,"longitude":73.0243,"temp":32.1,"humidity":50,"rain":0.0,"pressure":977.8,"uv_index":8.2,"wind_gusts":47.5,"aqi":198,"pm10":262.6,"pm2_5":62.2,"no2":6.8,"co":227.0,"o3":52.0,"so2":2.3,"mosquito_risk":0,"arthritis_risk":5,"migraine_risk":7,"frizz_risk":1,"updated_at":"2026-07-14T21:47:41.173638+05:30"},{"city":"Udaipur","state":"Rajasthan","latitude":24.5854,"longitude":73.7125,"temp":26.9,"humidity":71,"rain":0.0,"pressure":943.0,"uv_index":8.1,"wind_gusts":47.9,"aqi":72,"pm10":53.0,"pm2_5":23.7,"no2":6.3,"co":136.0,"o3":59.0,"so2":3.4,"mosquito_risk":7,"arthritis_risk":5,"migraine_risk":7,"frizz_risk":1,"updated_at":"2026-07-14T21:47:41.173645+05:30"},{"city":"Kota","state":"Rajasthan","latitude":25.2138,"longitude":75.8648,"temp":30.5,"humidity":58,"rain":0.0,"pressure":974.5,"uv_index":8.3,"wind_gusts":38.5,"aqi":89,"pm10":42.5,"pm2_5":24.7,"no2":9.4,"co":193.0,"o3":65.0,"so2":6.0,"mosquito_risk":0,"arthritis_risk":5,"migraine_risk":7,"frizz_risk":1,"updated_at":"2026-07-14T21:47:41.173652+05:30"},{"city":"Bikaner","state":"Rajasthan","latitude":28.0229,"longitude":73.3119,"temp":34.6,"humidity":42,"rain":0.0,"pressure":975.4,"uv_index":8.4,"wind_gusts":39.6,"aqi":170,"pm10":285.9,"pm2_5":78.2,"no2":3.0,"co":138.0,"o3":66.0,"so2":2.9,"mosquito_risk":0,"arthritis_risk":5,"migraine_risk":7,"frizz_risk":1,"updated_at":"2026-07-14T21:47:41.173659+05:30"},{"city":"Ajmer","state":"Rajasthan","latitude":26.4499,"longitude":74.6399,"temp":28.9,"humidity":59,"rain":0.0,"pressure":950.3,"uv_index":8.25,"wind_gusts":56.2,"aqi":101,"pm10":88.5,"pm2_5":34.9,"no2":7.7,"co":170.0,"o3":54.0,"so2":3.8,"mosquito_risk":4,"arthritis_risk":5,"migraine_risk":7,"frizz_risk":1,"updated_at":"2026-07-14T21:47:41.173666+05:30"},{"city":"Gwalior","state":"Madhya Pradesh","latitude":26.2183,"longitude":78.1828,"temp":29.9,"humidity":70,"rain":0.0,"pressure":978.1,"uv_index":8.05,"wind_gusts":42.5,"aqi":112,"pm10":96.2,"pm2_5":41.4,"no2":9.5,"co":169.0,"o3":56.0,"so2":3.3,"mosquito_risk":7,"arthritis_risk":5,"migraine_risk":7,"frizz_risk":1,"updated_at":"2026-07-14T21:47:41.173673+05:30"},{"city":"Indore","state":"Madhya Pradesh","latitude":22.7196,"longitude":75.8577,"temp":26.2,"humidity":71,"rain":0.0,"pressure":945.5,"uv_index":8.4,"wind_gusts":52.2,"aqi":68,"pm10":32.2,"pm2_5":23.2,"no2":13.2,"co":313.0,"o3":60.0,"so2":7.1,"mosquito_risk":7,"arthritis_risk":5,"migraine_risk":7,"frizz_risk":1,"updated_at":"2026-07-14T21:47:41.173680+05:30"},{"city":"Bhopal","state":"Madhya Pradesh","latitude":23.2599,"longitude":77.4126,"temp":26.5,"humidity":69,"rain":0.0,"pressure":950.5,"uv_index":8.55,"wind_gusts":42.1,"aqi":77,"pm10":28.9,"pm2_5":20.2,"no2":9.4,"co":300.0,"o3":58.0,"so2":3.9,"mosquito_risk":7,"arthritis_risk":5,"migraine_risk":7,"frizz_risk":1,"updated_at":"2026-07-14T21:47:41.173687+05:30"},{"city":"Jabalpur","state":"Madhya Pradesh","latitude":23.1815,"longitude":79.9864,"temp":27.4,"humidity":73,"rain":0.0,"pressure":958.1,"uv_index":8.1,"wind_gusts":38.2,"aqi":92,"pm10":74.3,"pm2_5":38.0,"no2":8.5,"co":220.0,"o3":64.0,"so2":4.9,"mosquito_risk":7,"arthritis_risk":5,"migraine_risk":7,"frizz_risk":1,"updated_at":"2026-07-14T21:47:41.173694+05:30"},{"city":"Ujjain","state":"Madhya Pradesh","latitude":23.1765,"longitude":75.7885,"temp":26.5,"humidity":65,"rain":0.0,"pressure":950.8,"uv_index":8.5,"wind_gusts":50.8,"aqi":68,"pm10":31.1,"pm2_5":21.9,"no2":8.0,"co":246.0,"o3":65.0,"so2":5.3,"mosquito_risk":7,"arthritis_risk":5,"migraine_risk":7,"frizz_risk":1,"updated_at":"2026-07-14T21:47:41.173701+05:30"},{"city":"Visakhapatnam","state":"Andhra Pradesh","latitude":17.6868,"longitude":83.2185,"temp":31.6,"humidity":63,"rain":0.0,"pressure":998.5,"uv_index":8.5,"wind_gusts":26.3,"aqi":139,"pm10":55.8,"pm2_5":40.0,"no2":45.8,"co":346.0,"o3":42.0,"so2":59.3,"mosquito_risk":3,"arthritis_risk":5,"migraine_risk":7,"frizz_risk":1,"updated_at":"2026-07-14T21:47:41.173707+05:30"},{"city":"Vijayawada","state":"Andhra Pradesh","latitude":16.5062,"longitude":80.648,"temp":31.2,"humidity":56,"rain":0.0,"pressure":999.3,"uv_index":6.65,"wind_gusts":48.6,"aqi":80,"pm10":39.2,"pm2_5":30.7,"no2":16.2,"co":217.0,"o3":52.0,"so2":9.2,"mosquito_risk":0,"arthritis_risk":5,"migraine_risk":7,"frizz_risk":1,"updated_at":"2026-07-14T21:47:41.173714+05:30"},{"city":"Guntur","state":"Andhra Pradesh","latitude":16.3067,"longitude":80.4365,"temp":31.4,"humidity":53,"rain":0.0,"pressure":1000.7,"uv_index":6.35,"wind_gusts":49.3,"aqi":71,"pm10":38.0,"pm2_5":30.2,"no2":17.1,"co":273.0,"o3":50.0,"so2":8.8,"mosquito_risk":0,"arthritis_risk":5,"migraine_risk":4,"frizz_risk":1,"updated_at":"2026-07-14T21:47:41.173721+05:30"},{"city":"Nellore","state":"Andhra Pradesh","latitude":14.4426,"longitude":79.9865,"temp":32.4,"humidity":41,"rain":0.0,"pressure":1003.2,"uv_index":8.25,"wind_gusts":48.2,"aqi":67,"pm10":38.9,"pm2_5":27.1,"no2":9.8,"co":358.0,"o3":89.0,"so2":4.3,"mosquito_risk":0,"arthritis_risk":5,"migraine_risk":4,"frizz_risk":1,"updated_at":"2026-07-14T21:47:41.173729+05:30"},{"city":"Kurnool","state":"Andhra Pradesh","latitude":15.8281,"longitude":78.0373,"temp":31.7,"humidity":48,"rain":0.0,"pressure":975.4,"uv_index":7.3,"wind_gusts":43.2,"aqi":58,"pm10":28.6,"pm2_5":19.7,"no2":10.9,"co":248.0,"o3":72.0,"so2":7.4,"mosquito_risk":0,"arthritis_risk":5,"migraine_risk":7,"frizz_risk":1,"updated_at":"2026-07-14T21:47:41.173737+05:30"},{"city":"Kakinada","state":"Andhra Pradesh","latitude":16.9891,"longitude":82.2475,"temp":31.4,"humidity":64,"rain":0.0,"pressure":1003.0,"uv_index":8.15,"wind_gusts":52.6,"aqi":95,"pm10":43.7,"pm2_5":27.0,"no2":8.7,"co":222.0,"o3":83.0,"so2":8.3,"mosquito_risk":3,"arthritis_risk":5,"migraine_risk":4,"frizz_risk":1,"updated_at":"2026-07-14T21:47:41.173744+05:30"},{"city":"Tirupati","state":"Andhra Pradesh","latitude":13.6288,"longitude":79.4192,"temp":31.1,"humidity":43,"rain":0.0,"pressure":989.0,"uv_index":8.4,"wind_gusts":38.5,"aqi":78,"pm10":75.9,"pm2_5":56.7,"no2":64.1,"co":253.0,"o3":22.0,"so2":9.0,"mosquito_risk":0,"arthritis_risk":5,"migraine_risk":7,"frizz_risk":1,"updated_at":"2026-07-14T21:47:41.173750+05:30"},{"city":"Warangal","state":"Telangana","latitude":17.9689,"longitude":79.5941,"temp":28.9,"humidity":64,"rain":0.0,"pressure":976.1,"uv_index":7.25,"wind_gusts":43.2,"aqi":70,"pm10":28.7,"pm2_5":23.9,"no2":12.0,"co":243.0,"o3":58.0,"so2":6.1,"mosquito_risk":7,"arthritis_risk":5,"migraine_risk":7,"frizz_risk":1,"updated_at":"2026-07-14T21:47:41.173756+05:30"},{"city":"Nizamabad","state":"Telangana","latitude":18.6725,"longitude":78.0941,"temp":28.0,"humidity":63,"rain":0.0,"pressure":962.6,"uv_index":5.4,"wind_gusts":43.9,"aqi":65,"pm10":30.4,"pm2_5":23.3,"no2":9.6,"co":266.0,"o3":70.0,"so2":5.7,"mosquito_risk":7,"arthritis_risk":5,"migraine_risk":3,"frizz_risk":1,"updated_at":"2026-07-14T21:47:41.173763+05:30"},{"city":"Mysore","state":"Karnataka","latitude":12.2958,"longitude":76.6396,"temp":23.1,"humidity":87,"rain":0.0,"pressure":929.1,"uv_index":8.9,"wind_gusts":34.2,"aqi":56,"pm10":21.4,"pm2_5":15.5,"no2":14.0,"co":203.0,"o3":58.0,"so2":3.3,"mosquito_risk":3,"arthritis_risk":5,"migraine_risk":7,"frizz_risk":1,"updated_at":"2026-07-14T21:47:41.173769+05:30"},{"city":"Mangalore","state":"Karnataka","latitude":12.9141,"longitude":74.856,"temp":27.1,"humidity":83,"rain":0.0,"pressure":1008.5,"uv_index":8.5,"wind_gusts":38.9,"aqi":61,"pm10":27.7,"pm2_5":16.7,"no2":9.3,"co":244.0,"o3":38.0,"so2":3.2,"mosquito_risk":7,"arthritis_risk":0,"migraine_risk":4,"frizz_risk":1,"updated_at":"2026-07-14T21:47:41.173776+05:30"},{"city":"Hubli-Dharwad","state":"Karnataka","latitude":15.3647,"longitude":75.124,"temp":22.8,"humidity":90,"rain":0.0,"pressure":941.5,"uv_index":9.0,"wind_gusts":44.6,"aqi":54,"pm10":19.6,"pm2_5":13.0,"no2":6.9,"co":156.0,"o3":43.0,"so2":1.8,"mosquito_risk":3,"arthritis_risk":5,"migraine_risk":7,"frizz_risk":1,"updated_at":"2026-07-14T21:47:41.173783+05:30"},{"city":"Belgaum","state":"Karnataka","latitude":15.8497,"longitude":74.4977,"temp":21.0,"humidity":98,"rain":0.0,"pressure":926.1,"uv_index":8.4,"wind_gusts":41.0,"aqi":53,"pm10":20.7,"pm2_5":12.4,"no2":9.0,"co":145.0,"o3":33.0,"so2":2.3,"mosquito_risk":3,"arthritis_risk":5,"migraine_risk":7,"frizz_risk":1,"updated_at":"2026-07-14T21:47:44.476946+05:30"},{"city":"Coimbatore","state":"Tamil Nadu","latitude":11.0168,"longitude":76.9558,"temp":25.2,"humidity":87,"rain":0.0,"pressure":962.1,"uv_index":8.35,"wind_gusts":52.6,"aqi":55,"pm10":17.9,"pm2_5":14.7,"no2":11.2,"co":197.0,"o3":44.0,"so2":4.0,"mosquito_risk":7,"arthritis_risk":5,"migraine_risk":7,"frizz_risk":1,"updated_at":"2026-07-14T21:47:44.476985+05:30"},{"city":"Madurai","state":"Tamil Nadu","latitude":9.9252,"longitude":78.1198,"temp":31.0,"humidity":59,"rain":0.0,"pressure":992.5,"uv_index":8.55,"wind_gusts":29.9,"aqi":74,"pm10":39.8,"pm2_5":24.6,"no2":23.4,"co":253.0,"o3":64.0,"so2":8.1,"mosquito_risk":0,"arthritis_risk":5,"migraine_risk":7,"frizz_risk":1,"updated_at":"2026-07-14T21:47:44.476997+05:30"},{"city":"Trichy","state":"Tamil Nadu","latitude":10.7905,"longitude":78.7047,"temp":30.6,"humidity":67,"rain":0.0,"pressure":999.2,"uv_index":8.65,"wind_gusts":46.4,"aqi":68,"pm10":35.9,"pm2_5":27.7,"no2":35.6,"co":278.0,"o3":33.0,"so2":7.9,"mosquito_risk":3,"arthritis_risk":5,"migraine_risk":7,"frizz_risk":1,"updated_at":"2026-07-14T21:47:44.477006+05:30"},{"city":"Salem","state":"Tamil Nadu","latitude":11.6643,"longitude":78.146,"temp":28.1,"humidity":68,"rain":0.0,"pressure":976.7,"uv_index":8.35,"wind_gusts":28.4,"aqi":72,"pm10":25.7,"pm2_5":18.7,"no2":17.8,"co":301.0,"o3":59.0,"so2":6.0,"mosquito_risk":7,"arthritis_risk":5,"migraine_risk":7,"frizz_risk":1,"updated_at":"2026-07-14T21:47:44.477015+05:30"},{"city":"Tirunelveli","state":"Tamil Nadu","latitude":8.7139,"longitude":77.7567,"temp":30.7,"humidity":58,"rain":0.0,"pressure":1002.3,"uv_index":7.55,"wind_gusts":38.2,"aqi":51,"pm10":16.3,"pm2_5":11.6,"no2":6.8,"co":156.0,"o3":52.0,"so2":2.6,"mosquito_risk":0,"arthritis_risk":5,"migraine_risk":4,"frizz_risk":1,"updated_at":"2026-07-14T21:47:44.477023+05:30"},{"city":"Vellore","state":"Tamil Nadu","latitude":12.9165,"longitude":79.1325,"temp":31.9,"humidity":44,"rain":0.0,"pressure":983.0,"uv_index":8.9,"wind_gusts":42.8,"aqi":74,"pm10":70.3,"pm2_5":52.5,"no2":51.5,"co":223.0,"o3":28.0,"so2":10.7,"mosquito_risk":0,"arthritis_risk":5,"migraine_risk":7,"frizz_risk":1,"updated_at":"2026-07-14T21:47:44.477031+05:30"},{"city":"Erode","state":"Tamil Nadu","latitude":11.341,"longitude":77.7172,"temp":29.0,"humidity":69,"rain":0.0,"pressure":988.4,"uv_index":8.6,"wind_gusts":53.6,"aqi":61,"pm10":26.5,"pm2_5":19.5,"no2":20.0,"co":195.0,"o3":46.0,"so2":4.5,"mosquito_risk":7,"arthritis_risk":5,"migraine_risk":7,"frizz_risk":1,"updated_at":"2026-07-14T21:47:44.477039+05:30"},{"city":"Kochi","state":"Kerala","latitude":9.9312,"longitude":76.2673,"temp":27.6,"humidity":85,"rain":0.0,"pressure":1010.5,"uv_index":8.3,"wind_gusts":42.1,"aqi":57,"pm10":28.6,"pm2_5":20.1,"no2":16.8,"co":158.0,"o3":28.0,"so2":4.9,"mosquito_risk":7,"arthritis_risk":0,"migraine_risk":4,"frizz_risk":1,"updated_at":"2026-07-14T21:47:44.477046+05:30"},{"city":"Thiruvananthapuram","state":"Kerala","latitude":8.5241,"longitude":76.9366,"temp":26.5,"humidity":88,"rain":0.0,"pressure":1009.7,"uv_index":7.95,"wind_gusts":50.8,"aqi":55,"pm10":24.8,"pm2_5":13.5,"no2":4.4,"co":132.0,"o3":49.0,"so2":1.5,"mosquito_risk":7,"arthritis_risk":0,"migraine_risk":4,"frizz_risk":1,"updated_at":"2026-07-14T21:47:44.477054+05:30"},{"city":"Kozhikode","state":"Kerala","latitude":11.2588,"longitude":75.7804,"temp":26.6,"humidity":86,"rain":0.0,"pressure":1009.4,"uv_index":8.15,"wind_gusts":46.4,"aqi":55,"pm10":29.1,"pm2_5":14.6,"no2":1.7,"co":164.0,"o3":53.0,"so2":1.3,"mosquito_risk":7,"arthritis_risk":0,"migraine_risk":4,"frizz_risk":1,"updated_at":"2026-07-14T21:47:44.477061+05:30"},{"city":"Thrissur","state":"Kerala","latitude":10.5276,"longitude":76.2144,"temp":26.2,"humidity":90,"rain":0.0,"pressure":1008.9,"uv_index":7.9,"wind_gusts":43.9,"aqi":56,"pm10":26.3,"pm2_5":17.7,"no2":9.6,"co":231.0,"o3":35.0,"so2":3.4,"mosquito_risk":7,"arthritis_risk":0,"migraine_risk":4,"frizz_risk":1,"updated_at":"2026-07-14T21:47:44.477069+05:30"},{"city":"Kannur","state":"Kerala","latitude":11.8745,"longitude":75.3704,"temp":27.2,"humidity":81,"rain":0.0,"pressure":1008.7,"uv_index":8.4,"wind_gusts":48.2,"aqi":57,"pm10":24.1,"pm2_5":14.6,"no2":9.4,"co":219.0,"o3":37.0,"so2":2.5,"mosquito_risk":7,"arthritis_risk":0,"migraine_risk":4,"frizz_risk":1,"updated_at":"2026-07-14T21:47:44.477076+05:30"},{"city":"Patna","state":"Bihar","latitude":25.5941,"longitude":85.1376,"temp":30.5,"humidity":83,"rain":0.0,"pressure":994.9,"uv_index":7.6,"wind_gusts":19.8,"aqi":153,"pm10":142.0,"pm2_5":100.4,"no2":48.7,"co":852.0,"o3":53.0,"so2":21.0,"mosquito_risk":3,"arthritis_risk":5,"migraine_risk":7,"frizz_risk":1,"updated_at":"2026-07-14T21:47:44.477083+05:30"},{"city":"Gaya","state":"Bihar","latitude":24.7914,"longitude":85.0002,"temp":31.0,"humidity":77,"rain":0.0,"pressure":988.5,"uv_index":8.45,"wind_gusts":21.6,"aqi":158,"pm10":145.8,"pm2_5":99.4,"no2":38.0,"co":696.0,"o3":52.0,"so2":16.6,"mosquito_risk":3,"arthritis_risk":5,"migraine_risk":7,"frizz_risk":1,"updated_at":"2026-07-14T21:47:44.477089+05:30"},{"city":"Muzaffarpur","state":"Bihar","latitude":26.1209,"longitude":85.3647,"temp":29.7,"humidity":84,"rain":0.0,"pressure":995.0,"uv_index":7.55,"wind_gusts":20.9,"aqi":153,"pm10":117.3,"pm2_5":90.8,"no2":42.4,"co":458.0,"o3":58.0,"so2":19.3,"mosquito_risk":7,"arthritis_risk":5,"migraine_risk":7,"frizz_risk":1,"updated_at":"2026-07-14T21:47:44.477096+05:30"},{"city":"Bhagalpur","state":"Bihar","latitude":25.2425,"longitude":87.0117,"temp":29.0,"humidity":92,"rain":0.0,"pressure":996.0,"uv_index":8.2,"wind_gusts":27.7,"aqi":125,"pm10":72.2,"pm2_5":63.3,"no2":32.7,"co":432.0,"o3":81.0,"so2":19.7,"mosquito_risk":7,"arthritis_risk":5,"migraine_risk":7,"frizz_risk":1,"updated_at":"2026-07-14T21:47:44.477103+05:30"},{"city":"Ranchi","state":"Jharkhand","latitude":23.3441,"longitude":85.3096,"temp":25.6,"humidity":89,"rain":0.0,"pressure":933.4,"uv_index":8.75,"wind_gusts":40.0,"aqi":151,"pm10":109.2,"pm2_5":65.0,"no2":26.3,"co":444.0,"o3":52.0,"so2":10.4,"mosquito_risk":7,"arthritis_risk":5,"migraine_risk":7,"frizz_risk":1,"updated_at":"2026-07-14T21:47:44.477109+05:30"},{"city":"Jamshedpur","state":"Jharkhand","latitude":22.8046,"longitude":86.2029,"temp":27.3,"humidity":95,"rain":0.0,"pressure":985.8,"uv_index":6.2,"wind_gusts":31.3,"aqi":155,"pm10":70.3,"pm2_5":53.3,"no2":26.0,"co":892.0,"o3":83.0,"so2":42.4,"mosquito_risk":7,"arthritis_risk":5,"migraine_risk":7,"frizz_risk":1,"updated_at":"2026-07-14T21:47:44.477116+05:30"},{"city":"Dhanbad","state":"Jharkhand","latitude":23.7957,"longitude":86.4304,"temp":27.0,"humidity":93,"rain":0.0,"pressure":974.9,"uv_index":8.8,"wind_gusts":28.8,"aqi":165,"pm10":85.0,"pm2_5":66.6,"no2":54.0,"co":587.0,"o3":41.0,"so2":132.1,"mosquito_risk":7,"arthritis_risk":5,"migraine_risk":7,"frizz_risk":1,"updated_at":"2026-07-14T21:47:44.477122+05:30"},{"city":"Bokaro","state":"Jharkhand","latitude":23.6693,"longitude":86.1511,"temp":27.2,"humidity":98,"rain":0.0,"pressure":978.8,"uv_index":8.7,"wind_gusts":29.5,"aqi":167,"pm10":101.3,"pm2_5":69.6,"no2":46.2,"co":704.0,"o3":49.0,"so2":122.6,"mosquito_risk":7,"arthritis_risk":5,"migraine_risk":7,"frizz_risk":1,"updated_at":"2026-07-14T21:47:44.477129+05:30"},{"city":"Bhubaneswar","state":"Odisha","latitude":20.2961,"longitude":85.8245,"temp":27.0,"humidity":93,"rain":0.0,"pressure":996.7,"uv_index":3.95,"wind_gusts":37.8,"aqi":117,"pm10":78.0,"pm2_5":56.5,"no2":27.6,"co":416.0,"o3":50.0,"so2":17.4,"mosquito_risk":7,"arthritis_risk":5,"migraine_risk":3,"frizz_risk":1,"updated_at":"2026-07-14T21:47:44.477136+05:30"},{"city":"Cuttack","state":"Odisha","latitude":20.4625,"longitude":85.8828,"temp":27.2,"humidity":92,"rain":0.0,"pressure":998.4,"uv_index":2.05,"wind_gusts":29.2,"aqi":117,"pm10":78.0,"pm2_5":56.5,"no2":27.6,"co":307.0,"o3":50.0,"so2":17.4,"mosquito_risk":7,"arthritis_risk":5,"migraine_risk":3,"frizz_risk":1,"updated_at":"2026-07-14T21:47:44.477143+05:30"},{"city":"Rourkela","state":"Odisha","latitude":22.2604,"longitude":84.8536,"temp":26.9,"humidity":92,"rain":0.0,"pressure":980.1,"uv_index":7.8,"wind_gusts":30.2,"aqi":145,"pm10":104.1,"pm2_5":58.4,"no2":19.1,"co":1006.0,"o3":83.0,"so2":17.1,"mosquito_risk":7,"arthritis_risk":5,"migraine_risk":7,"frizz_risk":1,"updated_at":"2026-07-14T21:47:44.477150+05:30"},{"city":"Raipur","state":"Chhattisgarh","latitude":21.2514,"longitude":81.6296,"temp":27.8,"humidity":86,"rain":0.1,"pressure":971.1,"uv_index":8.75,"wind_gusts":33.8,"aqi":129,"pm10":71.9,"pm2_5":42.7,"no2":38.6,"co":558.0,"o3":42.0,"so2":62.2,"mosquito_risk":10,"arthritis_risk":5,"migraine_risk":7,"frizz_risk":1,"updated_at":"2026-07-14T21:47:44.477158+05:30"},{"city":"Bhilai","state":"Chhattisgarh","latitude":21.1938,"longitude":81.3509,"temp":29.0,"humidity":71,"rain":0.0,"pressure":971.3,"uv_index":8.75,"wind_gusts":35.6,"aqi":113,"pm10":71.7,"pm2_5":40.4,"no2":27.9,"co":1052.0,"o3":55.0,"so2":46.5,"mosquito_risk":7,"arthritis_risk":5,"migraine_risk":7,"frizz_risk":1,"updated_at":"2026-07-14T21:47:44.477164+05:30"},{"city":"Guwahati","state":"Assam","latitude":26.1158,"longitude":91.7086,"temp":27.7,"humidity":95,"rain":0.0,"pressure":996.1,"uv_index":8.1,"wind_gusts":25.2,"aqi":51,"pm10":15.7,"pm2_5":15.4,"no2":12.9,"co":281.0,"o3":31.0,"so2":2.2,"mosquito_risk":7,"arthritis_risk":5,"migraine_risk":7,"frizz_risk":1,"updated_at":"2026-07-14T21:47:44.477170+05:30"},{"city":"Agartala","state":"Tripura","latitude":23.8315,"longitude":91.2868,"temp":27.8,"humidity":87,"rain":0.0,"pressure":1000.9,"uv_index":8.65,"wind_gusts":25.2,"aqi":79,"pm10":31.0,"pm2_5":30.0,"no2":21.2,"co":241.0,"o3":43.0,"so2":3.0,"mosquito_risk":7,"arthritis_risk":5,"migraine_risk":4,"frizz_risk":1,"updated_at":"2026-07-14T21:47:44.477177+05:30"},{"city":"Shillong","state":"Meghalaya","latitude":25.5788,"longitude":91.8933,"temp":19.4,"humidity":98,"rain":0.0,"pressure":854.0,"uv_index":8.65,"wind_gusts":25.9,"aqi":58,"pm10":11.3,"pm2_5":10.9,"no2":9.7,"co":481.0,"o3":60.0,"so2":2.6,"mosquito_risk":3,"arthritis_risk":10,"migraine_risk":7,"frizz_risk":1,"updated_at":"2026-07-14T21:47:44.477184+05:30"},{"city":"Imphal","state":"Manipur","latitude":24.817,"longitude":93.9368,"temp":25.0,"humidity":90,"rain":0.0,"pressure":919.8,"uv_index":9.2,"wind_gusts":25.9,"aqi":54,"pm10":22.6,"pm2_5":21.4,"no2":21.5,"co":723.0,"o3":26.0,"so2":3.6,"mosquito_risk":7,"arthritis_risk":5,"migraine_risk":7,"frizz_risk":1,"updated_at":"2026-07-14T21:47:44.477190+05:30"},{"city":"Aizawl","state":"Mizoram","latitude":23.7271,"longitude":92.7176,"temp":20.5,"humidity":99,"rain":0.0,"pressure":888.7,"uv_index":8.95,"wind_gusts":19.8,"aqi":50,"pm10":4.7,"pm2_5":4.3,"no2":5.3,"co":177.0,"o3":43.0,"so2":0.5,"mosquito_risk":3,"arthritis_risk":5,"migraine_risk":7,"frizz_risk":1,"updated_at":"2026-07-14T21:47:44.477197+05:30"},{"city":"Kohima","state":"Nagaland","latitude":25.6701,"longitude":94.1077,"temp":20.3,"humidity":95,"rain":0.0,"pressure":852.2,"uv_index":8.15,"wind_gusts":24.8,"aqi":43,"pm10":10.7,"pm2_5":10.5,"no2":14.8,"co":362.0,"o3":24.0,"so2":1.3,"mosquito_risk":3,"arthritis_risk":5,"migraine_risk":7,"frizz_risk":1,"updated_at":"2026-07-14T21:47:44.477203+05:30"},{"city":"Gangtok","state":"Sikkim","latitude":27.3314,"longitude":88.6138,"temp":19.0,"humidity":95,"rain":0.1,"pressure":835.6,"uv_index":8.7,"wind_gusts":27.7,"aqi":44,"pm10":5.7,"pm2_5":5.3,"no2":9.3,"co":381.0,"o3":75.0,"so2":1.2,"mosquito_risk":6,"arthritis_risk":10,"migraine_risk":7,"frizz_risk":1,"updated_at":"2026-07-14T21:47:44.477211+05:30"},{"city":"Siliguri","state":"West Bengal","latitude":26.7271,"longitude":88.3953,"temp":27.9,"humidity":93,"rain":0.0,"pressure":987.8,"uv_index":8.45,"wind_gusts":27.0,"aqi":68,"pm10":31.2,"pm2_5":29.0,"no2":19.2,"co":1484.0,"o3":69.0,"so2":5.5,"mosquito_risk":7,"arthritis_risk":5,"migraine_risk":7,"frizz_risk":1,"updated_at":"2026-07-14T21:47:47.791866+05:30"},{"city":"Durgapur","state":"West Bengal","latitude":23.5204,"longitude":87.3119,"temp":27.5,"humidity":97,"rain":0.0,"pressure":989.6,"uv_index":7.65,"wind_gusts":26.3,"aqi":163,"pm10":77.5,"pm2_5":65.9,"no2":35.6,"co":739.0,"o3":64.0,"so2":36.0,"mosquito_risk":7,"arthritis_risk":5,"migraine_risk":7,"frizz_risk":1,"updated_at":"2026-07-14T21:47:47.791905+05:30"},{"city":"Asansol","state":"West Bengal","latitude":23.6739,"longitude":86.9524,"temp":27.2,"humidity":95,"rain":0.0,"pressure":988.2,"uv_index":7.4,"wind_gusts":26.3,"aqi":159,"pm10":67.5,"pm2_5":51.2,"no2":34.6,"co":832.0,"o3":62.0,"so2":35.9,"mosquito_risk":7,"arthritis_risk":5,"migraine_risk":7,"frizz_risk":1,"updated_at":"2026-07-14T21:47:47.791918+05:30"},{"city":"Pondicherry","state":"Puducherry","latitude":11.9139,"longitude":79.8145,"temp":30.3,"humidity":81,"rain":0.0,"pressure":1006.4,"uv_index":8.05,"wind_gusts":43.2,"aqi":110,"pm10":33.6,"pm2_5":22.2,"no2":8.8,"co":169.0,"o3":92.0,"so2":4.9,"mosquito_risk":3,"arthritis_risk":5,"migraine_risk":4,"frizz_risk":1,"updated_at":"2026-07-14T21:47:47.791928+05:30"},{"city":"Port Blair","state":"Andaman and Nicobar Islands","latitude":11.6234,"longitude":92.7265,"temp":28.5,"humidity":76,"rain":0.0,"pressure":1006.7,"uv_index":8.3,"wind_gusts":61.2,"aqi":49,"pm10":16.1,"pm2_5":7.9,"no2":0.3,"co":86.0,"o3":49.0,"so2":0.3,"mosquito_risk":7,"arthritis_risk":5,"migraine_risk":4,"frizz_risk":1,"updated_at":"2026-07-14T21:47:47.791937+05:30"},{"city":"Haridwar","state":"Uttarakhand","latitude":29.9457,"longitude":78.1642,"temp":28.8,"humidity":89,"rain":0.0,"pressure":967.7,"uv_index":7.5,"wind_gusts":32.8,"aqi":179,"pm10":215.1,"pm2_5":113.6,"no2":36.4,"co":449.0,"o3":85.0,"so2":19.3,"mosquito_risk":7,"arthritis_risk":5,"migraine_risk":7,"frizz_risk":1,"updated_at":"2026-07-14T21:47:47.791945+05:30"},{"city":"Rishikesh","state":"Uttarakhand","latitude":30.0869,"longitude":78.2676,"temp":27.7,"humidity":87,"rain":0.0,"pressure":960.7,"uv_index":7.6,"wind_gusts":28.4,"aqi":165,"pm10":186.3,"pm2_5":81.5,"no2":10.7,"co":454.0,"o3":118.0,"so2":11.5,"mosquito_risk":7,"arthritis_risk":5,"migraine_risk":7,"frizz_risk":1,"updated_at":"2026-07-14T21:47:47.791953+05:30"},{"city":"Nainital","state":"Uttarakhand","latitude":29.3919,"longitude":79.4542,"temp":17.1,"humidity":97,"rain":0.0,"pressure":802.8,"uv_index":8.5,"wind_gusts":27.7,"aqi":166,"pm10":172.8,"pm2_5":83.1,"no2":17.2,"co":384.0,"o3":74.0,"so2":8.7,"mosquito_risk":3,"arthritis_risk":10,"migraine_risk":7,"frizz_risk":1,"updated_at":"2026-07-14T21:47:47.791961+05:30"},{"city":"Mussoorie","state":"Uttarakhand","latitude":30.4599,"longitude":78.0664,"temp":17.3,"humidity":100,"rain":0.0,"pressure":800.2,"uv_index":8.0,"wind_gusts":38.2,"aqi":162,"pm10":133.6,"pm2_5":73.6,"no2":38.0,"co":415.0,"o3":80.0,"so2":13.9,"mosquito_risk":3,"arthritis_risk":10,"migraine_risk":7,"frizz_risk":1,"updated_at":"2026-07-14T21:47:47.791968+05:30"},{"city":"Dharamshala","state":"Himachal Pradesh","latitude":32.219,"longitude":76.3234,"temp":22.1,"humidity":77,"rain":0.0,"pressure":865.1,"uv_index":8.3,"wind_gusts":30.6,"aqi":89,"pm10":32.0,"pm2_5":19.8,"no2":16.0,"co":429.0,"o3":70.0,"so2":1.5,"mosquito_risk":3,"arthritis_risk":5,"migraine_risk":7,"frizz_risk":1,"updated_at":"2026-07-14T21:47:47.791976+05:30"},{"city":"Dalhousie","state":"Himachal Pradesh","latitude":32.5387,"longitude":75.971,"temp":16.8,"humidity":96,"rain":0.0,"pressure":800.9,"uv_index":8.6,"wind_gusts":31.3,"aqi":153,"pm10":115.9,"pm2_5":69.2,"no2":39.4,"co":722.0,"o3":102.0,"so2":5.9,"mosquito_risk":3,"arthritis_risk":10,"migraine_risk":7,"frizz_risk":1,"updated_at":"2026-07-14T21:47:47.791984+05:30"},{"city":"Patiala","state":"Punjab","latitude":30.3398,"longitude":76.3869,"temp":30.2,"humidity":76,"rain":0.0,"pressure":971.5,"uv_index":7.5,"wind_gusts":45.7,"aqi":188,"pm10":328.8,"pm2_5":132.7,"no2":48.0,"co":661.0,"o3":54.0,"so2":12.8,"mosquito_risk":3,"arthritis_risk":5,"migraine_risk":7,"frizz_risk":1,"updated_at":"2026-07-14T21:47:47.791992+05:30"},{"city":"Bhatinda","state":"Punjab","latitude":30.211,"longitude":74.9455,"temp":33.6,"humidity":52,"rain":0.0,"pressure":976.9,"uv_index":8.2,"wind_gusts":28.1,"aqi":181,"pm10":191.9,"pm2_5":110.6,"no2":60.8,"co":512.0,"o3":46.0,"so2":12.2,"mosquito_risk":0,"arthritis_risk":5,"migraine_risk":7,"frizz_risk":1,"updated_at":"2026-07-14T21:47:47.792000+05:30"},{"city":"Rohtak","state":"Haryana","latitude":28.8955,"longitude":76.6066,"temp":31.6,"humidity":77,"rain":0.0,"pressure":975.1,"uv_index":7.35,"wind_gusts":36.7,"aqi":493,"pm10":222.1,"pm2_5":88.7,"no2":29.1,"co":395.0,"o3":49.0,"so2":6.0,"mosquito_risk":3,"arthritis_risk":5,"migraine_risk":7,"frizz_risk":1,"updated_at":"2026-07-14T21:47:47.792007+05:30"},{"city":"Panipat","state":"Haryana","latitude":29.3909,"longitude":76.9635,"temp":30.8,"humidity":72,"rain":0.0,"pressure":973.7,"uv_index":7.35,"wind_gusts":42.1,"aqi":771,"pm10":277.5,"pm2_5":101.3,"no2":25.8,"co":567.0,"o3":56.0,"so2":6.8,"mosquito_risk":3,"arthritis_risk":5,"migraine_risk":7,"frizz_risk":1,"updated_at":"2026-07-14T21:47:47.792013+05:30"},{"city":"Mathura","state":"Uttar Pradesh","latitude":27.4924,"longitude":77.6737,"temp":31.3,"humidity":65,"rain":0.0,"pressure":980.8,"uv_index":7.9,"wind_gusts":29.9,"aqi":649,"pm10":972.3,"pm2_5":156.0,"no2":25.4,"co":305.0,"o3":48.0,"so2":5.4,"mosquito_risk":3,"arthritis_risk":5,"migraine_risk":7,"frizz_risk":1,"updated_at":"2026-07-14T21:47:47.792022+05:30"},{"city":"Vrindavan","state":"Uttar Pradesh","latitude":27.5823,"longitude":77.7027,"temp":31.2,"humidity":67,"rain":0.0,"pressure":981.3,"uv_index":7.9,"wind_gusts":29.2,"aqi":649,"pm10":972.3,"pm2_5":156.0,"no2":25.4,"co":368.0,"o3":48.0,"so2":5.4,"mosquito_risk":3,"arthritis_risk":5,"migraine_risk":7,"frizz_risk":1,"updated_at":"2026-07-14T21:47:47.792030+05:30"},{"city":"Ayodhya","state":"Uttar Pradesh","latitude":26.7922,"longitude":82.1998,"temp":29.4,"humidity":91,"rain":0.0,"pressure":989.5,"uv_index":7.95,"wind_gusts":34.2,"aqi":163,"pm10":165.8,"pm2_5":79.9,"no2":19.9,"co":684.0,"o3":77.0,"so2":9.1,"mosquito_risk":7,"arthritis_risk":5,"migraine_risk":7,"frizz_risk":1,"updated_at":"2026-07-14T21:47:47.792038+05:30"},{"city":"Ratlam","state":"Madhya Pradesh","latitude":23.3315,"longitude":75.0367,"temp":26.8,"humidity":70,"rain":0.0,"pressure":951.9,"uv_index":8.4,"wind_gusts":50.8,"aqi":65,"pm10":27.4,"pm2_5":18.7,"no2":6.2,"co":168.0,"o3":68.0,"so2":5.7,"mosquito_risk":7,"arthritis_risk":5,"migraine_risk":7,"frizz_risk":1,"updated_at":"2026-07-14T21:47:47.792046+05:30"},{"city":"Sagar","state":"Madhya Pradesh","latitude":23.8388,"longitude":78.7378,"temp":27.4,"humidity":65,"rain":0.0,"pressure":946.8,"uv_index":8.6,"wind_gusts":44.3,"aqi":91,"pm10":44.4,"pm2_5":26.5,"no2":6.0,"co":188.0,"o3":68.0,"so2":3.7,"mosquito_risk":7,"arthritis_risk":5,"migraine_risk":7,"frizz_risk":1,"updated_at":"2026-07-14T21:47:47.792054+05:30"},{"city":"Satna","state":"Madhya Pradesh","latitude":24.6005,"longitude":80.8322,"temp":29.4,"humidity":70,"rain":0.0,"pressure":967.0,"uv_index":6.9,"wind_gusts":41.4,"aqi":108,"pm10":68.2,"pm2_5":34.8,"no2":8.7,"co":176.0,"o3":71.0,"so2":4.8,"mosquito_risk":7,"arthritis_risk":5,"migraine_risk":7,"frizz_risk":1,"updated_at":"2026-07-14T21:47:47.792061+05:30"},{"city":"Akola","state":"Maharashtra","latitude":20.7002,"longitude":77.0082,"temp":28.6,"humidity":63,"rain":0.0,"pressure":972.9,"uv_index":5.35,"wind_gusts":51.1,"aqi":63,"pm10":27.7,"pm2_5":19.6,"no2":11.5,"co":192.0,"o3":61.0,"so2":6.9,"mosquito_risk":7,"arthritis_risk":5,"migraine_risk":3,"frizz_risk":1,"updated_at":"2026-07-14T21:47:47.792069+05:30"},{"city":"Amravati","state":"Maharashtra","latitude":20.9374,"longitude":77.7796,"temp":28.8,"humidity":60,"rain":0.0,"pressure":964.9,"uv_index":7.65,"wind_gusts":50.4,"aqi":64,"pm10":27.1,"pm2_5":19.3,"no2":11.2,"co":171.0,"o3":65.0,"so2":7.3,"mosquito_risk":4,"arthritis_risk":5,"migraine_risk":7,"frizz_risk":1,"updated_at":"2026-07-14T21:47:47.792078+05:30"},{"city":"Latur","state":"Maharashtra","latitude":18.4088,"longitude":76.5604,"temp":26.8,"humidity":55,"rain":0.0,"pressure":938.6,"uv_index":7.15,"wind_gusts":41.0,"aqi":59,"pm10":25.6,"pm2_5":19.1,"no2":6.8,"co":187.0,"o3":69.0,"so2":3.5,"mosquito_risk":4,"arthritis_risk":5,"migraine_risk":7,"frizz_risk":1,"updated_at":"2026-07-14T21:47:47.792086+05:30"},{"city":"Nanded","state":"Maharashtra","latitude":19.1383,"longitude":77.3091,"temp":28.4,"humidity":62,"rain":0.0,"pressure":966.5,"uv_index":8.5,"wind_gusts":41.0,"aqi":66,"pm10":31.3,"pm2_5":23.9,"no2":11.3,"co":290.0,"o3":64.0,"so2":4.7,"mosquito_risk":7,"arthritis_risk":5,"migraine_risk":7,"frizz_risk":1,"updated_at":"2026-07-14T21:47:47.792094+05:30"},{"city":"Gulbarga","state":"Karnataka","latitude":17.3297,"longitude":76.8343,"temp":30.0,"humidity":45,"rain":0.0,"pressure":957.6,"uv_index":8.35,"wind_gusts":44.3,"aqi":58,"pm10":25.0,"pm2_5":17.9,"no2":12.4,"co":193.0,"o3":57.0,"so2":3.5,"mosquito_risk":4,"arthritis_risk":5,"migraine_risk":7,"frizz_risk":1,"updated_at":"2026-07-14T21:47:47.792101+05:30"},{"city":"Bidar","state":"Karnataka","latitude":17.9104,"longitude":77.5199,"temp":26.9,"humidity":68,"rain":0.0,"pressure":934.0,"uv_index":7.25,"wind_gusts":41.0,"aqi":61,"pm10":30.6,"pm2_5":23.6,"no2":18.3,"co":335.0,"o3":48.0,"so2":4.8,"mosquito_risk":7,"arthritis_risk":5,"migraine_risk":7,"frizz_risk":1,"updated_at":"2026-07-14T21:47:47.792108+05:30"},{"city":"Hospet","state":"Karnataka","latitude":15.2689,"longitude":76.3909,"temp":27.1,"humidity":64,"rain":0.0,"pressure":956.0,"uv_index":8.3,"wind_gusts":43.2,"aqi":54,"pm10":24.1,"pm2_5":15.7,"no2":6.1,"co":150.0,"o3":60.0,"so2":2.0,"mosquito_risk":7,"arthritis_risk":5,"migraine_risk":7,"frizz_risk":1,"updated_at":"2026-07-14T21:47:47.792114+05:30"},{"city":"Tirupur","state":"Tamil Nadu","latitude":11.1085,"longitude":77.3411,"temp":25.7,"humidity":84,"rain":0.0,"pressure":975.2,"uv_index":8.35,"wind_gusts":58.0,"aqi":63,"pm10":30.3,"pm2_5":22.4,"no2":24.4,"co":178.0,"o3":38.0,"so2":5.8,"mosquito_risk":7,"arthritis_risk":5,"migraine_risk":7,"frizz_risk":1,"updated_at":"2026-07-14T21:47:47.792121+05:30"},{"city":"Alappuzha","state":"Kerala","latitude":9.4981,"longitude":76.3388,"temp":27.8,"humidity":85,"rain":0.0,"pressure":1010.6,"uv_index":8.05,"wind_gusts":42.1,"aqi":57,"pm10":30.2,"pm2_5":17.2,"no2":9.5,"co":90.0,"o3":44.0,"so2":3.3,"mosquito_risk":7,"arthritis_risk":0,"migraine_risk":4,"frizz_risk":1,"updated_at":"2026-07-14T21:47:47.792128+05:30"},{"city":"Munnar","state":"Kerala","latitude":10.0889,"longitude":77.0595,"temp":18.6,"humidity":100,"rain":0.0,"pressure":858.1,"uv_index":8.6,"wind_gusts":31.0,"aqi":50,"pm10":14.3,"pm2_5":12.0,"no2":11.3,"co":166.0,"o3":36.0,"so2":2.6,"mosquito_risk":3,"arthritis_risk":10,"migraine_risk":7,"frizz_risk":1,"updated_at":"2026-07-14T21:47:47.792136+05:30"},{"city":"Silchar","state":"Assam","latitude":24.8333,"longitude":92.7789,"temp":27.2,"humidity":98,"rain":0.1,"pressure":1000.4,"uv_index":8.85,"wind_gusts":19.1,"aqi":84,"pm10":18.6,"pm2_5":17.5,"no2":7.3,"co":305.0,"o3":66.0,"so2":3.9,"mosquito_risk":10,"arthritis_risk":5,"migraine_risk":4,"frizz_risk":1,"updated_at":"2026-07-14T21:47:47.792142+05:30"},{"city":"Dibrugarh","state":"Assam","latitude":27.4728,"longitude":94.912,"temp":28.5,"humidity":88,"rain":0.1,"pressure":989.5,"uv_index":8.6,"wind_gusts":23.4,"aqi":80,"pm10":25.4,"pm2_5":25.1,"no2":15.6,"co":296.0,"o3":40.0,"so2":1.9,"mosquito_risk":10,"arthritis_risk":5,"migraine_risk":7,"frizz_risk":1,"updated_at":"2026-07-14T21:47:47.792149+05:30"}]