[{"city":"Delhi","state":"Delhi","latitude":28.6139,"longitude":77.209,"temp":41.4,"humidity":16,"rain":0.0,"pressure":979.5,"uv_index":7.4,"wind_gusts":50.4,"aqi":511,"pm10":609.1,"pm2_5":75.4,"mosquito_risk":0,"arthritis_risk":5,"migraine_risk":10,"frizz_risk":0,"updated_at":"2026-04-26T13:46:20.852452+05:30"},{"city":"Mumbai","state":"Maharashtra","latitude":19.076,"longitude":72.8777,"temp":36.2,"humidity":45,"rain":0.0,"pressure":1005.7,"uv_index":7.6,"wind_gusts":34.9,"aqi":85,"pm10":64.7,"pm2_5":37.8,"mosquito_risk":0,"arthritis_risk":5,"migraine_risk":7,"frizz_risk":1,"updated_at":"2026-04-26T13:46:20.852498+05:30"},{"city":"Bangalore","state":"Karnataka","latitude":12.9716,"longitude":77.5946,"temp":36.3,"humidity":20,"rain":0.0,"pressure":912.2,"uv_index":9.6,"wind_gusts":37.8,"aqi":91,"pm10":41.6,"pm2_5":30.0,"mosquito_risk":0,"arthritis_risk":5,"migraine_risk":10,"frizz_risk":0,"updated_at":"2026-04-26T13:46:20.852514+05:30"},{"city":"Hyderabad","state":"Telangana","latitude":17.385,"longitude":78.4867,"temp":38.8,"humidity":21,"rain":0.0,"pressure":952.5,"uv_index":9.3,"wind_gusts":33.8,"aqi":91,"pm10":37.1,"pm2_5":30.3,"mosquito_risk":0,"arthritis_risk":5,"migraine_risk":10,"frizz_risk":0,"updated_at":"2026-04-26T13:46:20.852526+05:30"},{"city":"Chennai","state":"Tamil Nadu","latitude":13.0827,"longitude":80.2707,"temp":34.5,"humidity":51,"rain":0.0,"pressure":1005.7,"uv_index":9.25,"wind_gusts":51.8,"aqi":37,"pm10":20.4,"pm2_5":12.9,"mosquito_risk":0,"arthritis_risk":5,"migraine_risk":4,"frizz_risk":1,"updated_at":"2026-04-26T13:46:20.852535+05:30"},{"city":"Kolkata","state":"West Bengal","latitude":22.5726,"longitude":88.3639,"temp":36.2,"humidity":48,"rain":0.0,"pressure":1002.3,"uv_index":8.9,"wind_gusts":49.3,"aqi":65,"pm10":25.3,"pm2_5":17.1,"mosquito_risk":0,"arthritis_risk":5,"migraine_risk":7,"frizz_risk":1,"updated_at":"2026-04-26T13:46:20.852548+05:30"},{"city":"Pune","state":"Maharashtra","latitude":18.5204,"longitude":73.8567,"temp":41.2,"humidity":12,"rain":0.0,"pressure":947.1,"uv_index":8.45,"wind_gusts":39.2,"aqi":78,"pm10":27.1,"pm2_5":20.2,"mosquito_risk":0,"arthritis_risk":5,"migraine_risk":10,"frizz_risk":0,"updated_at":"2026-04-26T13:46:20.852555+05:30"},{"city":"Ahmedabad","state":"Gujarat","latitude":23.0225,"longitude":72.5714,"temp":43.2,"humidity":14,"rain":0.0,"pressure":999.2,"uv_index":8.2,"wind_gusts":38.9,"aqi":65,"pm10":47.3,"pm2_5":16.6,"mosquito_risk":0,"arthritis_risk":5,"migraine_risk":10,"frizz_risk":0,"updated_at":"2026-04-26T13:46:20.852564+05:30"},{"city":"Jaipur","state":"Rajasthan","latitude":26.9124,"longitude":75.7873,"temp":41.5,"humidity":13,"rain":0.0,"pressure":958.2,"uv_index":8.05,"wind_gusts":42.5,"aqi":128,"pm10":314.8,"pm2_5":41.8,"mosquito_risk":0,"arthritis_risk":5,"migraine_risk":10,"frizz_risk":0,"updated_at":"2026-04-26T13:46:20.852572+05:30"},{"city":"Lucknow","state":"Uttar Pradesh","latitude":26.8467,"longitude":80.9462,"temp":43.0,"humidity":14,"rain":0.0,"pressure":988.0,"uv_index":7.9,"wind_gusts":51.8,"aqi":151,"pm10":152.3,"pm2_5":39.9,"mosquito_risk":0,"arthritis_risk":5,"migraine_risk":10,"frizz_risk":0,"updated_at":"2026-04-26T13:46:20.852581+05:30"},{"city":"Kanpur","state":"Uttar Pradesh","latitude":26.4499,"longitude":80.3319,"temp":43.8,"humidity":12,"rain":0.0,"pressure":986.7,"uv_index":7.9,"wind_gusts":54.0,"aqi":389,"pm10":484.3,"pm2_5":64.5,"mosquito_risk":0,"arthritis_risk":5,"migraine_risk":10,"frizz_risk":0,"updated_at":"2026-04-26T13:46:20.852588+05:30"},{"city":"Chandigarh","state":"Chandigarh","latitude":30.7333,"longitude":76.7794,"temp":38.7,"humidity":15,"rain":0.0,"pressure":966.0,"uv_index":7.4,"wind_gusts":44.3,"aqi":70,"pm10":48.9,"pm2_5":16.4,"mosquito_risk":0,"arthritis_risk":5,"migraine_risk":10,"frizz_risk":0,"updated_at":"2026-04-26T13:46:20.852596+05:30"},{"city":"Srinagar","state":"Jammu and Kashmir","latitude":34.0837,"longitude":74.7973,"temp":22.2,"humidity":45,"rain":0.0,"pressure":844.8,"uv_index":8.6,"wind_gusts":15.8,"aqi":79,"pm10":18.1,"pm2_5":8.0,"mosquito_risk":0,"arthritis_risk":5,"migraine_risk":7,"frizz_risk":0,"updated_at":"2026-04-26T13:46:20.852606+05:30"},{"city":"Jammu","state":"Jammu and Kashmir","latitude":32.7266,"longitude":74.857,"temp":36.5,"humidity":19,"rain":0.0,"pressure":970.4,"uv_index":8.15,"wind_gusts":34.6,"aqi":77,"pm10":46.7,"pm2_5":14.6,"mosquito_risk":0,"arthritis_risk":5,"migraine_risk":10,"frizz_risk":0,"updated_at":"2026-04-26T13:46:20.852613+05:30"},{"city":"Amritsar","state":"Punjab","latitude":31.634,"longitude":74.8723,"temp":38.8,"humidity":16,"rain":0.0,"pressure":978.2,"uv_index":8.1,"wind_gusts":36.7,"aqi":94,"pm10":24.2,"pm2_5":10.0,"mosquito_risk":0,"arthritis_risk":5,"migraine_risk":10,"frizz_risk":0,"updated_at":"2026-04-26T13:46:20.852621+05:30"},{"city":"Ludhiana","state":"Punjab","latitude":30.901,"longitude":75.8573,"temp":39.4,"humidity":13,"rain":0.0,"pressure":975.9,"uv_index":7.65,"wind_gusts":41.0,"aqi":85,"pm10":53.1,"pm2_5":15.7,"mosquito_risk":0,"arthritis_risk":5,"migraine_risk":10,"frizz_risk":0,"updated_at":"2026-04-26T13:46:20.852629+05:30"},{"city":"Jalandhar","state":"Punjab","latitude":31.326,"longitude":75.5762,"temp":38.3,"humidity":16,"rain":0.0,"pressure":977.0,"uv_index":7.85,"wind_gusts":37.8,"aqi":94,"pm10":59.8,"pm2_5":15.4,"mosquito_risk":0,"arthritis_risk":5,"migraine_risk":10,"frizz_risk":0,"updated_at":"2026-04-26T13:46:20.852636+05:30"},{"city":"Dehradun","state":"Uttarakhand","latitude":30.6284,"longitude":78.0322,"temp":26.7,"humidity":27,"rain":0.0,"pressure":832.2,"uv_index":7.8,"wind_gusts":49.3,"aqi":46,"pm10":59.6,"pm2_5":14.4,"mosquito_risk":4,"arthritis_risk":5,"migraine_risk":7,"frizz_risk":0,"updated_at":"2026-04-26T13:46:20.852643+05:30"},{"city":"Shimla","state":"Himachal Pradesh","latitude":31.1048,"longitude":77.1734,"temp":24.3,"humidity":16,"rain":0.0,"pressure":788.2,"uv_index":7.9,"wind_gusts":52.2,"aqi":58,"pm10":56.7,"pm2_5":14.9,"mosquito_risk":0,"arthritis_risk":5,"migraine_risk":7,"frizz_risk":1,"updated_at":"2026-04-26T13:46:20.852650+05:30"},{"city":"Manali","state":"Himachal Pradesh","latitude":32.2396,"longitude":77.1887,"temp":21.9,"humidity":30,"rain":0.0,"pressure":819.8,"uv_index":9.8,"wind_gusts":45.0,"aqi":69,"pm10":22.2,"pm2_5":6.3,"mosquito_risk":0,"arthritis_risk":5,"migraine_risk":7,"frizz_risk":0,"updated_at":"2026-04-26T13:46:20.852656+05:30"},{"city":"Gurgaon","state":"Haryana","latitude":28.4595,"longitude":77.0266,"temp":40.2,"humidity":18,"rain":0.0,"pressure":978.4,"uv_index":7.55,"wind_gusts":50.8,"aqi":1428,"pm10":1777.0,"pm2_5":171.8,"mosquito_risk":0,"arthritis_risk":5,"migraine_risk":10,"frizz_risk":0,"updated_at":"2026-04-26T13:46:20.852663+05:30"},{"city":"Noida","state":"Uttar Pradesh","latitude":28.5355,"longitude":77.391,"temp":41.3,"humidity":17,"rain":0.0,"pressure":980.7,"uv_index":7.45,"wind_gusts":45.7,"aqi":1428,"pm10":1777.0,"pm2_5":171.8,"mosquito_risk":0,"arthritis_risk":5,"migraine_risk":10,"frizz_risk":0,"updated_at":"2026-04-26T13:46:20.852669+05:30"},{"city":"Ghaziabad","state":"Uttar Pradesh","latitude":28.6692,"longitude":77.4538,"temp":41.5,"humidity":16,"rain":0.0,"pressure":979.1,"uv_index":7.4,"wind_gusts":49.7,"aqi":398,"pm10":441.4,"pm2_5":61.0,"mosquito_risk":0,"arthritis_risk":5,"migraine_risk":10,"frizz_risk":0,"updated_at":"2026-04-26T13:46:20.852675+05:30"},{"city":"Faridabad","state":"Haryana","latitude":28.4089,"longitude":77.3178,"temp":41.0,"humidity":16,"rain":0.0,"pressure":980.1,"uv_index":7.5,"wind_gusts":55.1,"aqi":1428,"pm10":1777.0,"pm2_5":171.8,"mosquito_risk":0,"arthritis_risk":5,"migraine_risk":10,"frizz_risk":0,"updated_at":"2026-04-26T13:46:20.852681+05:30"},{"city":"Meerut","state":"Uttar Pradesh","latitude":28.9845,"longitude":77.7064,"temp":40.3,"humidity":15,"rain":0.0,"pressure":977.6,"uv_index":7.35,"wind_gusts":48.6,"aqi":398,"pm10":441.4,"pm2_5":61.0,"mosquito_risk":0,"arthritis_risk":5,"migraine_risk":10,"frizz_risk":0,"updated_at":"2026-04-26T13:46:20.852688+05:30"},{"city":"Agra","state":"Uttar Pradesh","latitude":27.1767,"longitude":78.0081,"temp":42.5,"humidity":13,"rain":0.0,"pressure":984.2,"uv_index":7.8,"wind_gusts":49.7,"aqi":1014,"pm10":910.8,"pm2_5":94.1,"mosquito_risk":0,"arthritis_risk":5,"migraine_risk":10,"frizz_risk":0,"updated_at":"2026-04-26T13:46:20.852697+05:30"},{"city":"Varanasi","state":"Uttar Pradesh","latitude":25.3176,"longitude":82.9739,"temp":43.7,"humidity":15,"rain":0.0,"pressure":991.6,"uv_index":8.5,"wind_gusts":45.0,"aqi":149,"pm10":208.6,"pm2_5":45.9,"mosquito_risk":0,"arthritis_risk":5,"migraine_risk":10,"frizz_risk":0,"updated_at":"2026-04-26T13:46:20.852703+05:30"},{"city":"Prayagraj","state":"Uttar Pradesh","latitude":25.4358,"longitude":81.8463,"temp":43.2,"humidity":13,"rain":0.0,"pressure":990.8,"uv_index":8.4,"wind_gusts":50.8,"aqi":135,"pm10":146.7,"pm2_5":38.4,"mosquito_risk":0,"arthritis_risk":5,"migraine_risk":10,"frizz_risk":0,"updated_at":"2026-04-26T13:46:20.852710+05:30"},{"city":"Gorakhpur","state":"Uttar Pradesh","latitude":26.7606,"longitude":83.3732,"temp":37.8,"humidity":32,"rain":0.0,"pressure":992.9,"uv_index":8.35,"wind_gusts":42.5,"aqi":151,"pm10":103.4,"pm2_5":53.7,"mosquito_risk":0,"arthritis_risk":5,"migraine_risk":10,"frizz_risk":1,"updated_at":"2026-04-26T13:46:20.852718+05:30"},{"city":"Bareilly","state":"Uttar Pradesh","latitude":28.367,"longitude":79.4304,"temp":40.7,"humidity":17,"rain":0.0,"pressure":982.1,"uv_index":7.65,"wind_gusts":47.5,"aqi":124,"pm10":110.4,"pm2_5":33.6,"mosquito_risk":0,"arthritis_risk":5,"migraine_risk":10,"frizz_risk":0,"updated_at":"2026-04-26T13:46:20.852725+05:30"},{"city":"Aligarh","state":"Uttar Pradesh","latitude":27.8974,"longitude":78.088,"temp":42.0,"humidity":15,"rain":0.0,"pressure":981.6,"uv_index":7.6,"wind_gusts":52.6,"aqi":860,"pm10":938.8,"pm2_5":105.9,"mosquito_risk":0,"arthritis_risk":5,"migraine_risk":10,"frizz_risk":0,"updated_at":"2026-04-26T13:46:20.852731+05:30"},{"city":"Moradabad","state":"Uttar Pradesh","latitude":28.8386,"longitude":78.7733,"temp":40.2,"humidity":20,"rain":0.0,"pressure":979.3,"uv_index":7.5,"wind_gusts":52.6,"aqi":140,"pm10":103.8,"pm2_5":30.6,"mosquito_risk":0,"arthritis_risk":5,"migraine_risk":10,"frizz_risk":0,"updated_at":"2026-04-26T13:46:20.852737+05:30"},{"city":"Saharanpur","state":"Uttar Pradesh","latitude":29.9637,"longitude":77.546,"temp":39.5,"humidity":13,"rain":0.0,"pressure":971.8,"uv_index":7.1,"wind_gusts":51.8,"aqi":95,"pm10":107.6,"pm2_5":25.3,"mosquito_risk":0,"arthritis_risk":5,"migraine_risk":10,"frizz_risk":0,"updated_at":"2026-04-26T13:46:20.852743+05:30"},{"city":"Jhansi","state":"Uttar Pradesh","latitude":25.4484,"longitude":78.5685,"temp":42.8,"humidity":13,"rain":0.0,"pressure":975.0,"uv_index":8.3,"wind_gusts":42.8,"aqi":106,"pm10":128.5,"pm2_5":33.3,"mosquito_risk":0,"arthritis_risk":5,"migraine_risk":10,"frizz_risk":0,"updated_at":"2026-04-26T13:46:24.169626+05:30"},{"city":"Surat","state":"Gujarat","latitude":21.1702,"longitude":72.8311,"temp":43.0,"humidity":18,"rain":0.0,"pressure":1003.7,"uv_index":7.85,"wind_gusts":35.3,"aqi":109,"pm10":89.9,"pm2_5":47.8,"mosquito_risk":0,"arthritis_risk":5,"migraine_risk":7,"frizz_risk":0,"updated_at":"2026-04-26T13:46:24.169662+05:30"},{"city":"Vadodara","state":"Gujarat","latitude":22.3072,"longitude":73.1812,"temp":43.6,"humidity":15,"rain":0.0,"pressure":1001.2,"uv_index":8.15,"wind_gusts":42.5,"aqi":74,"pm10":47.1,"pm2_5":21.0,"mosquito_risk":0,"arthritis_risk":5,"migraine_risk":7,"frizz_risk":0,"updated_at":"2026-04-26T13:46:24.169672+05:30"},{"city":"Rajkot","state":"Gujarat","latitude":22.3039,"longitude":70.8022,"temp":42.0,"humidity":15,"rain":0.0,"pressure":992.5,"uv_index":7.85,"wind_gusts":39.2,"aqi":60,"pm10":66.4,"pm2_5":18.0,"mosquito_risk":0,"arthritis_risk":5,"migraine_risk":10,"frizz_risk":0,"updated_at":"2026-04-26T13:46:24.169680+05:30"},{"city":"Thane","state":"Maharashtra","latitude":19.2183,"longitude":72.9781,"temp":41.3,"humidity":29,"rain":0.0,"pressure":1004.5,"uv_index":7.55,"wind_gusts":31.0,"aqi":85,"pm10":64.7,"pm2_5":37.8,"mosquito_risk":0,"arthritis_risk":5,"migraine_risk":7,"frizz_risk":1,"updated_at":"2026-04-26T13:46:24.169687+05:30"},{"city":"Nagpur","state":"Maharashtra","latitude":21.1458,"longitude":79.0882,"temp":44.9,"humidity":9,"rain":0.0,"pressure":970.1,"uv_index":8.9,"wind_gusts":38.5,"aqi":105,"pm10":30.5,"pm2_5":21.9,"mosquito_risk":0,"arthritis_risk":5,"migraine_risk":10,"frizz_risk":0,"updated_at":"2026-04-26T13:46:24.169694+05:30"},{"city":"Nashik","state":"Maharashtra","latitude":19.9975,"longitude":73.7898,"temp":40.5,"humidity":13,"rain":0.0,"pressure":945.2,"uv_index":8.1,"wind_gusts":36.7,"aqi":71,"pm10":29.5,"pm2_5":17.6,"mosquito_risk":0,"arthritis_risk":5,"migraine_risk":10,"frizz_risk":0,"updated_at":"2026-04-26T13:46:24.169701+05:30"},{"city":"Aurangabad","state":"Maharashtra","latitude":19.8762,"longitude":75.3433,"temp":41.7,"humidity":10,"rain":0.0,"pressure":943.4,"uv_index":9.05,"wind_gusts":29.5,"aqi":81,"pm10":20.0,"pm2_5":12.4,"mosquito_risk":0,"arthritis_risk":5,"migraine_risk":10,"frizz_risk":0,"updated_at":"2026-04-26T13:46:24.169708+05:30"},{"city":"Solapur","state":"Maharashtra","latitude":17.6599,"longitude":75.9064,"temp":40.6,"humidity":17,"rain":0.0,"pressure":955.9,"uv_index":9.1,"wind_gusts":24.8,"aqi":114,"pm10":45.4,"pm2_5":36.1,"mosquito_risk":0,"arthritis_risk":5,"migraine_risk":10,"frizz_risk":0,"updated_at":"2026-04-26T13:46:24.169715+05:30"},{"city":"Kolhapur","state":"Maharashtra","latitude":16.705,"longitude":74.2433,"temp":37.5,"humidity":24,"rain":0.0,"pressure":947.1,"uv_index":9.0,"wind_gusts":49.3,"aqi":134,"pm10":40.7,"pm2_5":33.8,"mosquito_risk":0,"arthritis_risk":5,"migraine_risk":10,"frizz_risk":0,"updated_at":"2026-04-26T13:46:24.169722+05:30"},{"city":"Goa","state":"Goa","latitude":15.2993,"longitude":74.124,"temp":37.2,"humidity":47,"rain":0.0,"pressure":995.9,"uv_index":8.95,"wind_gusts":39.6,"aqi":85,"pm10":36.3,"pm2_5":25.7,"mosquito_risk":0,"arthritis_risk":5,"migraine_risk":10,"frizz_risk":1,"updated_at":"2026-04-26T13:46:24.169729+05:30"},{"city":"Jodhpur","state":"Rajasthan","latitude":26.2389,"longitude":73.0243,"temp":43.0,"humidity":12,"rain":0.0,"pressure":980.4,"uv_index":8.3,"wind_gusts":35.6,"aqi":77,"pm10":108.5,"pm2_5":18.5,"mosquito_risk":0,"arthritis_risk":5,"migraine_risk":10,"frizz_risk":0,"updated_at":"2026-04-26T13:46:24.169736+05:30"},{"city":"Udaipur","state":"Rajasthan","latitude":24.5854,"longitude":73.7125,"temp":40.2,"humidity":15,"rain":0.0,"pressure":945.9,"uv_index":8.75,"wind_gusts":29.9,"aqi":52,"pm10":31.1,"pm2_5":9.8,"mosquito_risk":0,"arthritis_risk":5,"migraine_risk":10,"frizz_risk":0,"updated_at":"2026-04-26T13:46:24.169742+05:30"},{"city":"Kota","state":"Rajasthan","latitude":25.2138,"longitude":75.8648,"temp":42.8,"humidity":14,"rain":0.0,"pressure":976.5,"uv_index":8.3,"wind_gusts":32.0,"aqi":92,"pm10":119.0,"pm2_5":27.1,"mosquito_risk":0,"arthritis_risk":5,"migraine_risk":10,"frizz_risk":0,"updated_at":"2026-04-26T13:46:24.169749+05:30"},{"city":"Bikaner","state":"Rajasthan","latitude":28.0229,"longitude":73.3119,"temp":42.8,"humidity":12,"rain":0.0,"pressure":979.1,"uv_index":8.15,"wind_gusts":35.3,"aqi":75,"pm10":123.4,"pm2_5":23.7,"mosquito_risk":0,"arthritis_risk":5,"migraine_risk":10,"frizz_risk":0,"updated_at":"2026-04-26T13:46:24.169756+05:30"},{"city":"Ajmer","state":"Rajasthan","latitude":26.4499,"longitude":74.6399,"temp":40.7,"humidity":13,"rain":0.0,"pressure":953.6,"uv_index":8.25,"wind_gusts":41.0,"aqi":73,"pm10":88.7,"pm2_5":18.9,"mosquito_risk":0,"arthritis_risk":5,"migraine_risk":10,"frizz_risk":0,"updated_at":"2026-04-26T13:46:24.169762+05:30"},{"city":"Gwalior","state":"Madhya Pradesh","latitude":26.2183,"longitude":78.1828,"temp":42.8,"humidity":13,"rain":0.0,"pressure":980.1,"uv_index":8.05,"wind_gusts":49.7,"aqi":129,"pm10":102.2,"pm2_5":27.8,"mosquito_risk":0,"arthritis_risk":5,"migraine_risk":10,"frizz_risk":0,"updated_at":"2026-04-26T13:46:24.169769+05:30"},{"city":"Indore","state":"Madhya Pradesh","latitude":22.7196,"longitude":75.8577,"temp":42.2,"humidity":12,"rain":0.0,"pressure":946.9,"uv_index":8.65,"wind_gusts":49.7,"aqi":63,"pm10":49.9,"pm2_5":15.9,"mosquito_risk":0,"arthritis_risk":5,"migraine_risk":10,"frizz_risk":0,"updated_at":"2026-04-26T13:46:24.169776+05:30"},{"city":"Bhopal","state":"Madhya Pradesh","latitude":23.2599,"longitude":77.4126,"temp":42.5,"humidity":12,"rain":0.0,"pressure":952.2,"uv_index":8.65,"wind_gusts":39.6,"aqi":72,"pm10":84.3,"pm2_5":24.3,"mosquito_risk":0,"arthritis_risk":5,"migraine_risk":10,"frizz_risk":0,"updated_at":"2026-04-26T13:46:24.169783+05:30"},{"city":"Jabalpur","state":"Madhya Pradesh","latitude":23.1815,"longitude":79.9864,"temp":42.8,"humidity":12,"rain":0.0,"pressure":958.9,"uv_index":8.7,"wind_gusts":39.6,"aqi":77,"pm10":238.0,"pm2_5":41.9,"mosquito_risk":0,"arthritis_risk":5,"migraine_risk":10,"frizz_risk":0,"updated_at":"2026-04-26T13:46:24.169790+05:30"},{"city":"Ujjain","state":"Madhya Pradesh","latitude":23.1765,"longitude":75.7885,"temp":41.8,"humidity":13,"rain":0.0,"pressure":952.6,"uv_index":8.55,"wind_gusts":37.4,"aqi":71,"pm10":56.7,"pm2_5":17.8,"mosquito_risk":0,"arthritis_risk":5,"migraine_risk":10,"frizz_risk":0,"updated_at":"2026-04-26T13:46:24.169797+05:30"},{"city":"Visakhapatnam","state":"Andhra Pradesh","latitude":17.6868,"longitude":83.2185,"temp":33.9,"humidity":58,"rain":0.0,"pressure":1001.9,"uv_index":9.05,"wind_gusts":48.2,"aqi":56,"pm10":23.9,"pm2_5":15.9,"mosquito_risk":0,"arthritis_risk":5,"migraine_risk":4,"frizz_risk":1,"updated_at":"2026-04-26T13:46:24.169803+05:30"},{"city":"Vijayawada","state":"Andhra Pradesh","latitude":16.5062,"longitude":80.648,"temp":39.0,"humidity":29,"rain":0.0,"pressure":1000.6,"uv_index":8.8,"wind_gusts":39.6,"aqi":54,"pm10":31.5,"pm2_5":20.5,"mosquito_risk":0,"arthritis_risk":5,"migraine_risk":7,"frizz_risk":1,"updated_at":"2026-04-26T13:46:24.169809+05:30"},{"city":"Guntur","state":"Andhra Pradesh","latitude":16.3067,"longitude":80.4365,"temp":38.5,"humidity":30,"rain":0.0,"pressure":1001.8,"uv_index":8.9,"wind_gusts":42.1,"aqi":55,"pm10":36.8,"pm2_5":24.3,"mosquito_risk":0,"arthritis_risk":5,"migraine_risk":7,"frizz_risk":1,"updated_at":"2026-04-26T13:46:24.169815+05:30"},{"city":"Nellore","state":"Andhra Pradesh","latitude":14.4426,"longitude":79.9865,"temp":39.0,"humidity":36,"rain":0.0,"pressure":1003.1,"uv_index":9.1,"wind_gusts":45.0,"aqi":51,"pm10":28.9,"pm2_5":21.4,"mosquito_risk":0,"arthritis_risk":5,"migraine_risk":7,"frizz_risk":1,"updated_at":"2026-04-26T13:46:24.169822+05:30"},{"city":"Kurnool","state":"Andhra Pradesh","latitude":15.8281,"longitude":78.0373,"temp":42.5,"humidity":15,"rain":0.0,"pressure":974.6,"uv_index":9.2,"wind_gusts":33.5,"aqi":85,"pm10":38.3,"pm2_5":30.2,"mosquito_risk":0,"arthritis_risk":5,"migraine_risk":10,"frizz_risk":0,"updated_at":"2026-04-26T13:46:24.169830+05:30"},{"city":"Kakinada","state":"Andhra Pradesh","latitude":16.9891,"longitude":82.2475,"temp":38.8,"humidity":36,"rain":0.0,"pressure":1005.2,"uv_index":8.9,"wind_gusts":42.1,"aqi":44,"pm10":22.2,"pm2_5":12.2,"mosquito_risk":0,"arthritis_risk":5,"migraine_risk":7,"frizz_risk":1,"updated_at":"2026-04-26T13:46:24.169835+05:30"},{"city":"Tirupati","state":"Andhra Pradesh","latitude":13.6288,"longitude":79.4192,"temp":39.9,"humidity":21,"rain":0.0,"pressure":988.9,"uv_index":9.35,"wind_gusts":41.4,"aqi":63,"pm10":32.6,"pm2_5":24.6,"mosquito_risk":0,"arthritis_risk":5,"migraine_risk":10,"frizz_risk":0,"updated_at":"2026-04-26T13:46:24.169842+05:30"},{"city":"Warangal","state":"Telangana","latitude":17.9689,"longitude":79.5941,"temp":40.8,"humidity":21,"rain":0.0,"pressure":977.0,"uv_index":8.95,"wind_gusts":36.7,"aqi":83,"pm10":34.3,"pm2_5":27.5,"mosquito_risk":0,"arthritis_risk":5,"migraine_risk":10,"frizz_risk":0,"updated_at":"2026-04-26T13:46:24.169848+05:30"},{"city":"Nizamabad","state":"Telangana","latitude":18.6725,"longitude":78.0941,"temp":41.1,"humidity":16,"rain":0.0,"pressure":963.1,"uv_index":8.75,"wind_gusts":30.6,"aqi":115,"pm10":44.8,"pm2_5":37.7,"mosquito_risk":0,"arthritis_risk":5,"migraine_risk":10,"frizz_risk":0,"updated_at":"2026-04-26T13:46:24.169854+05:30"},{"city":"Mysore","state":"Karnataka","latitude":12.2958,"longitude":76.6396,"temp":35.5,"humidity":25,"rain":0.0,"pressure":928.2,"uv_index":9.45,"wind_gusts":40.3,"aqi":81,"pm10":36.9,"pm2_5":27.2,"mosquito_risk":0,"arthritis_risk":5,"migraine_risk":10,"frizz_risk":0,"updated_at":"2026-04-26T13:46:24.169860+05:30"},{"city":"Mangalore","state":"Karnataka","latitude":12.9141,"longitude":74.856,"temp":32.8,"humidity":67,"rain":0.0,"pressure":1005.3,"uv_index":9.1,"wind_gusts":37.8,"aqi":73,"pm10":28.8,"pm2_5":21.9,"mosquito_risk":3,"arthritis_risk":5,"migraine_risk":4,"frizz_risk":1,"updated_at":"2026-04-26T13:46:24.169867+05:30"},{"city":"Hubli-Dharwad","state":"Karnataka","latitude":15.3647,"longitude":75.124,"temp":37.5,"humidity":27,"rain":0.0,"pressure":940.2,"uv_index":9.05,"wind_gusts":57.2,"aqi":93,"pm10":41.8,"pm2_5":34.2,"mosquito_risk":0,"arthritis_risk":5,"migraine_risk":10,"frizz_risk":0,"updated_at":"2026-04-26T13:46:24.169873+05:30"},{"city":"Belgaum","state":"Karnataka","latitude":15.8497,"longitude":74.4977,"temp":36.4,"humidity":28,"rain":0.0,"pressure":925.6,"uv_index":8.85,"wind_gusts":45.7,"aqi":118,"pm10":44.9,"pm2_5":36.9,"mosquito_risk":0,"arthritis_risk":5,"migraine_risk":10,"frizz_risk":0,"updated_at":"2026-04-26T13:46:27.414942+05:30"},{"city":"Coimbatore","state":"Tamil Nadu","latitude":11.0168,"longitude":76.9558,"temp":38.0,"humidity":20,"rain":0.0,"pressure":960.6,"uv_index":9.35,"wind_gusts":37.8,"aqi":77,"pm10":29.3,"pm2_5":21.9,"mosquito_risk":0,"arthritis_risk":5,"migraine_risk":10,"frizz_risk":0,"updated_at":"2026-04-26T13:46:27.414976+05:30"},{"city":"Madurai","state":"Tamil Nadu","latitude":9.9252,"longitude":78.1198,"temp":39.5,"humidity":28,"rain":0.0,"pressure":990.7,"uv_index":9.25,"wind_gusts":39.6,"aqi":53,"pm10":10.2,"pm2_5":9.0,"mosquito_risk":0,"arthritis_risk":5,"migraine_risk":10,"frizz_risk":1,"updated_at":"2026-04-26T13:46:27.414987+05:30"},{"city":"Trichy","state":"Tamil Nadu","latitude":10.7905,"longitude":78.7047,"temp":37.8,"humidity":31,"rain":0.0,"pressure":997.7,"uv_index":9.25,"wind_gusts":32.4,"aqi":52,"pm10":13.0,"pm2_5":10.6,"mosquito_risk":0,"arthritis_risk":5,"migraine_risk":10,"frizz_risk":1,"updated_at":"2026-04-26T13:46:27.414996+05:30"},{"city":"Salem","state":"Tamil Nadu","latitude":11.6643,"longitude":78.146,"temp":39.5,"humidity":19,"rain":0.0,"pressure":975.4,"uv_index":9.35,"wind_gusts":41.4,"aqi":69,"pm10":25.0,"pm2_5":18.3,"mosquito_risk":0,"arthritis_risk":5,"migraine_risk":10,"frizz_risk":0,"updated_at":"2026-04-26T13:46:27.415004+05:30"},{"city":"Tirunelveli","state":"Tamil Nadu","latitude":8.7139,"longitude":77.7567,"temp":38.9,"humidity":30,"rain":0.0,"pressure":1000.7,"uv_index":9.2,"wind_gusts":37.4,"aqi":48,"pm10":9.9,"pm2_5":9.5,"mosquito_risk":0,"arthritis_risk":5,"migraine_risk":7,"frizz_risk":1,"updated_at":"2026-04-26T13:46:27.415011+05:30"},{"city":"Vellore","state":"Tamil Nadu","latitude":12.9165,"longitude":79.1325,"temp":39.2,"humidity":22,"rain":0.0,"pressure":982.7,"uv_index":9.35,"wind_gusts":37.1,"aqi":83,"pm10":33.2,"pm2_5":24.9,"mosquito_risk":0,"arthritis_risk":5,"migraine_risk":10,"frizz_risk":0,"updated_at":"2026-04-26T13:46:27.415019+05:30"},{"city":"Erode","state":"Tamil Nadu","latitude":11.341,"longitude":77.7172,"temp":39.7,"humidity":21,"rain":0.0,"pressure":986.9,"uv_index":9.3,"wind_gusts":38.9,"aqi":57,"pm10":20.4,"pm2_5":15.0,"mosquito_risk":0,"arthritis_risk":5,"migraine_risk":10,"frizz_risk":0,"updated_at":"2026-04-26T13:46:27.415026+05:30"},{"city":"Kochi","state":"Kerala","latitude":9.9312,"longitude":76.2673,"temp":32.3,"humidity":66,"rain":0.0,"pressure":1007.0,"uv_index":9.0,"wind_gusts":36.7,"aqi":75,"pm10":21.0,"pm2_5":18.7,"mosquito_risk":3,"arthritis_risk":5,"migraine_risk":4,"frizz_risk":1,"updated_at":"2026-04-26T13:46:27.415035+05:30"},{"city":"Thiruvananthapuram","state":"Kerala","latitude":8.5241,"longitude":76.9366,"temp":32.5,"humidity":59,"rain":0.1,"pressure":1006.2,"uv_index":8.85,"wind_gusts":33.1,"aqi":47,"pm10":13.2,"pm2_5":10.8,"mosquito_risk":3,"arthritis_risk":5,"migraine_risk":4,"frizz_risk":1,"updated_at":"2026-04-26T13:46:27.415042+05:30"},{"city":"Kozhikode","state":"Kerala","latitude":11.2588,"longitude":75.7804,"temp":31.3,"humidity":72,"rain":0.0,"pressure":1006.4,"uv_index":8.25,"wind_gusts":34.9,"aqi":58,"pm10":14.7,"pm2_5":12.5,"mosquito_risk":3,"arthritis_risk":5,"migraine_risk":4,"frizz_risk":1,"updated_at":"2026-04-26T13:46:27.415048+05:30"},{"city":"Thrissur","state":"Kerala","latitude":10.5276,"longitude":76.2144,"temp":33.8,"humidity":56,"rain":0.0,"pressure":1005.1,"uv_index":9.0,"wind_gusts":40.0,"aqi":70,"pm10":23.4,"pm2_5":19.7,"mosquito_risk":0,"arthritis_risk":5,"migraine_risk":4,"frizz_risk":1,"updated_at":"2026-04-26T13:46:27.415055+05:30"},{"city":"Kannur","state":"Kerala","latitude":11.8745,"longitude":75.3704,"temp":32.8,"humidity":64,"rain":0.0,"pressure":1005.8,"uv_index":9.0,"wind_gusts":37.4,"aqi":68,"pm10":21.8,"pm2_5":17.1,"mosquito_risk":3,"arthritis_risk":5,"migraine_risk":4,"frizz_risk":1,"updated_at":"2026-04-26T13:46:27.415062+05:30"},{"city":"Patna","state":"Bihar","latitude":25.5941,"longitude":85.1376,"temp":35.8,"humidity":44,"rain":0.0,"pressure":996.4,"uv_index":8.65,"wind_gusts":43.9,"aqi":150,"pm10":82.2,"pm2_5":57.7,"mosquito_risk":0,"arthritis_risk":5,"migraine_risk":10,"frizz_risk":1,"updated_at":"2026-04-26T13:46:27.415069+05:30"},{"city":"Gaya","state":"Bihar","latitude":24.7914,"longitude":85.0002,"temp":39.7,"humidity":24,"rain":0.0,"pressure":989.5,"uv_index":8.7,"wind_gusts":44.3,"aqi":132,"pm10":146.7,"pm2_5":44.0,"mosquito_risk":0,"arthritis_risk":5,"migraine_risk":10,"frizz_risk":0,"updated_at":"2026-04-26T13:46:27.415075+05:30"},{"city":"Muzaffarpur","state":"Bihar","latitude":26.1209,"longitude":85.3647,"temp":34.5,"humidity":48,"rain":0.0,"pressure":996.5,"uv_index":8.65,"wind_gusts":48.6,"aqi":152,"pm10":75.2,"pm2_5":58.1,"mosquito_risk":0,"arthritis_risk":5,"migraine_risk":7,"frizz_risk":1,"updated_at":"2026-04-26T13:46:27.415081+05:30"},{"city":"Bhagalpur","state":"Bihar","latitude":25.2425,"longitude":87.0117,"temp":35.5,"humidity":43,"rain":0.0,"pressure":997.5,"uv_index":8.6,"wind_gusts":38.5,"aqi":142,"pm10":69.2,"pm2_5":59.8,"mosquito_risk":0,"arthritis_risk":5,"migraine_risk":10,"frizz_risk":1,"updated_at":"2026-04-26T13:46:27.415087+05:30"},{"city":"Ranchi","state":"Jharkhand","latitude":23.3441,"longitude":85.3096,"temp":38.3,"humidity":16,"rain":0.0,"pressure":935.4,"uv_index":9.2,"wind_gusts":41.0,"aqi":142,"pm10":107.1,"pm2_5":26.1,"mosquito_risk":0,"arthritis_risk":5,"migraine_risk":10,"frizz_risk":0,"updated_at":"2026-04-26T13:46:27.415093+05:30"},{"city":"Jamshedpur","state":"Jharkhand","latitude":22.8046,"longitude":86.2029,"temp":42.2,"humidity":13,"rain":0.0,"pressure":986.2,"uv_index":8.85,"wind_gusts":41.0,"aqi":136,"pm10":76.8,"pm2_5":41.3,"mosquito_risk":0,"arthritis_risk":5,"migraine_risk":10,"frizz_risk":0,"updated_at":"2026-04-26T13:46:27.415099+05:30"},{"city":"Dhanbad","state":"Jharkhand","latitude":23.7957,"longitude":86.4304,"temp":35.7,"humidity":28,"rain":0.0,"pressure":976.2,"uv_index":8.95,"wind_gusts":43.2,"aqi":154,"pm10":108.7,"pm2_5":35.2,"mosquito_risk":0,"arthritis_risk":5,"migraine_risk":10,"frizz_risk":0,"updated_at":"2026-04-26T13:46:27.415104+05:30"},{"city":"Bokaro","state":"Jharkhand","latitude":23.6693,"longitude":86.1511,"temp":37.8,"humidity":27,"rain":0.0,"pressure":979.1,"uv_index":8.95,"wind_gusts":36.0,"aqi":152,"pm10":122.5,"pm2_5":31.8,"mosquito_risk":0,"arthritis_risk":5,"migraine_risk":10,"frizz_risk":0,"updated_at":"2026-04-26T13:46:27.415110+05:30"},{"city":"Bhubaneswar","state":"Odisha","latitude":20.2961,"longitude":85.8245,"temp":34.2,"humidity":60,"rain":0.0,"pressure":999.5,"uv_index":9.05,"wind_gusts":52.2,"aqi":57,"pm10":27.2,"pm2_5":20.1,"mosquito_risk":0,"arthritis_risk":5,"migraine_risk":7,"frizz_risk":1,"updated_at":"2026-04-26T13:46:27.415116+05:30"},{"city":"Cuttack","state":"Odisha","latitude":20.4625,"longitude":85.8828,"temp":35.4,"humidity":57,"rain":0.0,"pressure":1000.9,"uv_index":9.05,"wind_gusts":49.7,"aqi":57,"pm10":27.2,"pm2_5":20.1,"mosquito_risk":0,"arthritis_risk":5,"migraine_risk":7,"frizz_risk":1,"updated_at":"2026-04-26T13:46:27.415122+05:30"},{"city":"Rourkela","state":"Odisha","latitude":22.2604,"longitude":84.8536,"temp":41.7,"humidity":17,"rain":0.0,"pressure":981.0,"uv_index":8.6,"wind_gusts":45.7,"aqi":159,"pm10":69.4,"pm2_5":39.0,"mosquito_risk":0,"arthritis_risk":5,"migraine_risk":10,"frizz_risk":0,"updated_at":"2026-04-26T13:46:27.415127+05:30"},{"city":"Raipur","state":"Chhattisgarh","latitude":21.2514,"longitude":81.6296,"temp":43.0,"humidity":13,"rain":0.0,"pressure":971.6,"uv_index":8.95,"wind_gusts":41.0,"aqi":126,"pm10":30.3,"pm2_5":25.0,"mosquito_risk":0,"arthritis_risk":5,"migraine_risk":10,"frizz_risk":0,"updated_at":"2026-04-26T13:46:27.415133+05:30"},{"city":"Bhilai","state":"Chhattisgarh","latitude":21.1938,"longitude":81.3509,"temp":42.5,"humidity":14,"rain":0.0,"pressure":972.2,"uv_index":9.0,"wind_gusts":44.3,"aqi":118,"pm10":29.2,"pm2_5":22.5,"mosquito_risk":0,"arthritis_risk":5,"migraine_risk":10,"frizz_risk":0,"updated_at":"2026-04-26T13:46:27.415138+05:30"},{"city":"Guwahati","state":"Assam","latitude":26.1158,"longitude":91.7086,"temp":28.0,"humidity":63,"rain":0.0,"pressure":1000.1,"uv_index":3.8,"wind_gusts":40.3,"aqi":142,"pm10":53.1,"pm2_5":37.5,"mosquito_risk":7,"arthritis_risk":5,"migraine_risk":0,"frizz_risk":1,"updated_at":"2026-04-26T13:46:27.415144+05:30"},{"city":"Agartala","state":"Tripura","latitude":23.8315,"longitude":91.2868,"temp":32.5,"humidity":56,"rain":0.0,"pressure":1004.0,"uv_index":8.8,"wind_gusts":36.4,"aqi":112,"pm10":37.0,"pm2_5":23.1,"mosquito_risk":0,"arthritis_risk":5,"migraine_risk":4,"frizz_risk":1,"updated_at":"2026-04-26T13:46:27.415150+05:30"},{"city":"Shillong","state":"Meghalaya","latitude":25.5788,"longitude":91.8933,"temp":21.9,"humidity":63,"rain":0.0,"pressure":856.7,"uv_index":4.1,"wind_gusts":45.4,"aqi":127,"pm10":54.6,"pm2_5":34.3,"mosquito_risk":3,"arthritis_risk":5,"migraine_risk":3,"frizz_risk":0,"updated_at":"2026-04-26T13:46:27.415157+05:30"},{"city":"Imphal","state":"Manipur","latitude":24.817,"longitude":93.9368,"temp":28.0,"humidity":52,"rain":0.0,"pressure":922.3,"uv_index":5.7,"wind_gusts":32.4,"aqi":151,"pm10":104.1,"pm2_5":45.8,"mosquito_risk":4,"arthritis_risk":5,"migraine_risk":3,"frizz_risk":1,"updated_at":"2026-04-26T13:46:27.415163+05:30"},{"city":"Aizawl","state":"Mizoram","latitude":23.7271,"longitude":92.7176,"temp":27.6,"humidity":45,"rain":0.0,"pressure":892.8,"uv_index":9.0,"wind_gusts":36.4,"aqi":113,"pm10":58.9,"pm2_5":27.8,"mosquito_risk":4,"arthritis_risk":5,"migraine_risk":7,"frizz_risk":0,"updated_at":"2026-04-26T13:46:27.415169+05:30"},{"city":"Kohima","state":"Nagaland","latitude":25.6701,"longitude":94.1077,"temp":22.8,"humidity":68,"rain":0.0,"pressure":854.7,"uv_index":6.95,"wind_gusts":35.6,"aqi":153,"pm10":110.8,"pm2_5":54.8,"mosquito_risk":3,"arthritis_risk":5,"migraine_risk":7,"frizz_risk":1,"updated_at":"2026-04-26T13:46:27.415175+05:30"},{"city":"Gangtok","state":"Sikkim","latitude":27.3314,"longitude":88.6138,"temp":17.8,"humidity":81,"rain":0.1,"pressure":836.5,"uv_index":8.0,"wind_gusts":42.1,"aqi":80,"pm10":59.5,"pm2_5":34.2,"mosquito_risk":6,"arthritis_risk":10,"migraine_risk":7,"frizz_risk":0,"updated_at":"2026-04-26T13:46:27.415181+05:30"},{"city":"Siliguri","state":"West Bengal","latitude":26.7271,"longitude":88.3953,"temp":28.1,"humidity":61,"rain":0.0,"pressure":991.7,"uv_index":8.4,"wind_gusts":33.1,"aqi":138,"pm10":67.5,"pm2_5":37.5,"mosquito_risk":7,"arthritis_risk":5,"migraine_risk":7,"frizz_risk":1,"updated_at":"2026-04-26T13:46:30.686469+05:30"},{"city":"Durgapur","state":"West Bengal","latitude":23.5204,"longitude":87.3119,"temp":35.8,"humidity":52,"rain":0.0,"pressure":991.0,"uv_index":8.9,"wind_gusts":38.9,"aqi":130,"pm10":86.8,"pm2_5":73.3,"mosquito_risk":0,"arthritis_risk":5,"migraine_risk":10,"frizz_risk":1,"updated_at":"2026-04-26T13:46:30.686504+05:30"},{"city":"Asansol","state":"West Bengal","latitude":23.6739,"longitude":86.9524,"temp":36.2,"humidity":48,"rain":0.0,"pressure":989.8,"uv_index":8.95,"wind_gusts":40.7,"aqi":140,"pm10":99.9,"pm2_5":55.3,"mosquito_risk":0,"arthritis_risk":5,"migraine_risk":10,"frizz_risk":1,"updated_at":"2026-04-26T13:46:30.686515+05:30"},{"city":"Pondicherry","state":"Puducherry","latitude":11.9139,"longitude":79.8145,"temp":33.0,"humidity":60,"rain":0.0,"pressure":1007.2,"uv_index":9.2,"wind_gusts":42.8,"aqi":31,"pm10":17.3,"pm2_5":11.2,"mosquito_risk":0,"arthritis_risk":5,"migraine_risk":4,"frizz_risk":1,"updated_at":"2026-04-26T13:46:30.686524+05:30"},{"city":"Port Blair","state":"Andaman and Nicobar Islands","latitude":11.6234,"longitude":92.7265,"temp":34.5,"humidity":43,"rain":0.0,"pressure":1005.2,"uv_index":9.1,"wind_gusts":34.9,"aqi":57,"pm10":18.7,"pm2_5":13.0,"mosquito_risk":0,"arthritis_risk":5,"migraine_risk":4,"frizz_risk":1,"updated_at":"2026-04-26T13:46:30.686531+05:30"},{"city":"Haridwar","state":"Uttarakhand","latitude":29.9457,"longitude":78.1642,"temp":38.5,"humidity":19,"rain":0.0,"pressure":969.8,"uv_index":7.2,"wind_gusts":45.7,"aqi":73,"pm10":71.2,"pm2_5":21.8,"mosquito_risk":0,"arthritis_risk":5,"migraine_risk":10,"frizz_risk":0,"updated_at":"2026-04-26T13:46:30.686539+05:30"},{"city":"Rishikesh","state":"Uttarakhand","latitude":30.0869,"longitude":78.2676,"temp":37.6,"humidity":20,"rain":0.0,"pressure":962.7,"uv_index":7.3,"wind_gusts":36.0,"aqi":67,"pm10":84.1,"pm2_5":20.9,"mosquito_risk":0,"arthritis_risk":5,"migraine_risk":10,"frizz_risk":0,"updated_at":"2026-04-26T13:46:30.686546+05:30"},{"city":"Nainital","state":"Uttarakhand","latitude":29.3919,"longitude":79.4542,"temp":24.6,"humidity":31,"rain":0.0,"pressure":807.5,"uv_index":8.15,"wind_gusts":52.2,"aqi":82,"pm10":91.7,"pm2_5":29.5,"mosquito_risk":0,"arthritis_risk":5,"migraine_risk":7,"frizz_risk":0,"updated_at":"2026-04-26T13:46:30.686554+05:30"},{"city":"Mussoorie","state":"Uttarakhand","latitude":30.4599,"longitude":78.0664,"temp":24.7,"humidity":23,"rain":0.0,"pressure":805.4,"uv_index":7.7,"wind_gusts":60.8,"aqi":62,"pm10":79.2,"pm2_5":21.7,"mosquito_risk":0,"arthritis_risk":5,"migraine_risk":7,"frizz_risk":0,"updated_at":"2026-04-26T13:46:30.686561+05:30"},{"city":"Dharamshala","state":"Himachal Pradesh","latitude":32.219,"longitude":76.3234,"temp":28.1,"humidity":26,"rain":0.0,"pressure":870.5,"uv_index":8.05,"wind_gusts":44.3,"aqi":46,"pm10":39.3,"pm2_5":10.5,"mosquito_risk":4,"arthritis_risk":5,"migraine_risk":7,"frizz_risk":0,"updated_at":"2026-04-26T13:46:30.686568+05:30"},{"city":"Dalhousie","state":"Himachal Pradesh","latitude":32.5387,"longitude":75.971,"temp":24.1,"humidity":28,"rain":0.0,"pressure":807.6,"uv_index":8.3,"wind_gusts":40.7,"aqi":69,"pm10":56.0,"pm2_5":16.6,"mosquito_risk":0,"arthritis_risk":5,"migraine_risk":7,"frizz_risk":0,"updated_at":"2026-04-26T13:46:30.686576+05:30"},{"city":"Patiala","state":"Punjab","latitude":30.3398,"longitude":76.3869,"temp":40.8,"humidity":11,"rain":0.0,"pressure":975.0,"uv_index":7.3,"wind_gusts":46.4,"aqi":460,"pm10":722.7,"pm2_5":68.7,"mosquito_risk":0,"arthritis_risk":5,"migraine_risk":10,"frizz_risk":0,"updated_at":"2026-04-26T13:46:30.686584+05:30"},{"city":"Bhatinda","state":"Punjab","latitude":30.211,"longitude":74.9455,"temp":41.3,"humidity":14,"rain":0.0,"pressure":980.9,"uv_index":8.0,"wind_gusts":37.4,"aqi":92,"pm10":49.9,"pm2_5":14.8,"mosquito_risk":0,"arthritis_risk":5,"migraine_risk":10,"frizz_risk":0,"updated_at":"2026-04-26T13:46:30.686591+05:30"},{"city":"Rohtak","state":"Haryana","latitude":28.8955,"longitude":76.6066,"temp":40.8,"humidity":17,"rain":0.0,"pressure":978.7,"uv_index":7.45,"wind_gusts":42.5,"aqi":711,"pm10":888.5,"pm2_5":91.3,"mosquito_risk":0,"arthritis_risk":5,"migraine_risk":10,"frizz_risk":0,"updated_at":"2026-04-26T13:46:30.686598+05:30"},{"city":"Panipat","state":"Haryana","latitude":29.3909,"longitude":76.9635,"temp":42.0,"humidity":12,"rain":0.0,"pressure":976.4,"uv_index":7.25,"wind_gusts":49.7,"aqi":1430,"pm10":1728.5,"pm2_5":152.7,"mosquito_risk":0,"arthritis_risk":5,"migraine_risk":10,"frizz_risk":0,"updated_at":"2026-04-26T13:46:30.686604+05:30"},{"city":"Mathura","state":"Uttar Pradesh","latitude":27.4924,"longitude":77.6737,"temp":42.0,"humidity":14,"rain":0.0,"pressure":983.3,"uv_index":7.75,"wind_gusts":48.6,"aqi":937,"pm10":976.0,"pm2_5":99.0,"mosquito_risk":0,"arthritis_risk":5,"migraine_risk":10,"frizz_risk":0,"updated_at":"2026-04-26T13:46:30.686611+05:30"},{"city":"Vrindavan","state":"Uttar Pradesh","latitude":27.5823,"longitude":77.7027,"temp":42.0,"humidity":14,"rain":0.0,"pressure":983.7,"uv_index":7.7,"wind_gusts":48.2,"aqi":937,"pm10":976.0,"pm2_5":99.0,"mosquito_risk":0,"arthritis_risk":5,"migraine_risk":10,"frizz_risk":0,"updated_at":"2026-04-26T13:46:30.686617+05:30"},{"city":"Ayodhya","state":"Uttar Pradesh","latitude":26.7922,"longitude":82.1998,"temp":40.3,"humidity":26,"rain":0.0,"pressure":990.1,"uv_index":8.1,"wind_gusts":53.3,"aqi":151,"pm10":116.2,"pm2_5":46.8,"mosquito_risk":0,"arthritis_risk":5,"migraine_risk":10,"frizz_risk":1,"updated_at":"2026-04-26T13:46:30.686624+05:30"},{"city":"Ratlam","state":"Madhya Pradesh","latitude":23.3315,"longitude":75.0367,"temp":41.8,"humidity":13,"rain":0.0,"pressure":953.7,"uv_index":8.5,"wind_gusts":39.6,"aqi":62,"pm10":55.8,"pm2_5":17.0,"mosquito_risk":0,"arthritis_risk":5,"migraine_risk":10,"frizz_risk":0,"updated_at":"2026-04-26T13:46:30.686631+05:30"},{"city":"Sagar","state":"Madhya Pradesh","latitude":23.8388,"longitude":78.7378,"temp":41.0,"humidity":14,"rain":0.0,"pressure":949.0,"uv_index":8.65,"wind_gusts":44.3,"aqi":79,"pm10":132.2,"pm2_5":28.1,"mosquito_risk":0,"arthritis_risk":5,"migraine_risk":10,"frizz_risk":0,"updated_at":"2026-04-26T13:46:30.686637+05:30"},{"city":"Satna","state":"Madhya Pradesh","latitude":24.6005,"longitude":80.8322,"temp":42.8,"humidity":13,"rain":0.0,"pressure":968.3,"uv_index":8.65,"wind_gusts":43.2,"aqi":132,"pm10":157.4,"pm2_5":34.3,"mosquito_risk":0,"arthritis_risk":5,"migraine_risk":10,"frizz_risk":0,"updated_at":"2026-04-26T13:46:30.686644+05:30"},{"city":"Akola","state":"Maharashtra","latitude":20.7002,"longitude":77.0082,"temp":43.8,"humidity":11,"rain":0.0,"pressure":972.3,"uv_index":8.85,"wind_gusts":34.2,"aqi":75,"pm10":28.3,"pm2_5":12.5,"mosquito_risk":0,"arthritis_risk":5,"migraine_risk":10,"frizz_risk":0,"updated_at":"2026-04-26T13:46:30.686651+05:30"},{"city":"Amravati","state":"Maharashtra","latitude":20.9374,"longitude":77.7796,"temp":42.9,"humidity":10,"rain":0.0,"pressure":965.1,"uv_index":8.85,"wind_gusts":27.7,"aqi":67,"pm10":28.1,"pm2_5":12.5,"mosquito_risk":0,"arthritis_risk":5,"migraine_risk":10,"frizz_risk":0,"updated_at":"2026-04-26T13:46:30.686658+05:30"},{"city":"Latur","state":"Maharashtra","latitude":18.4088,"longitude":76.5604,"temp":39.8,"humidity":14,"rain":0.0,"pressure":939.5,"uv_index":9.0,"wind_gusts":26.6,"aqi":114,"pm10":43.1,"pm2_5":34.2,"mosquito_risk":0,"arthritis_risk":5,"migraine_risk":10,"frizz_risk":0,"updated_at":"2026-04-26T13:46:30.686664+05:30"},{"city":"Nanded","state":"Maharashtra","latitude":19.1383,"longitude":77.3091,"temp":42.5,"humidity":13,"rain":0.0,"pressure":966.5,"uv_index":9.05,"wind_gusts":29.9,"aqi":119,"pm10":30.2,"pm2_5":22.0,"mosquito_risk":0,"arthritis_risk":5,"migraine_risk":10,"frizz_risk":0,"updated_at":"2026-04-26T13:46:30.686670+05:30"},{"city":"Gulbarga","state":"Karnataka","latitude":17.3297,"longitude":76.8343,"temp":40.3,"humidity":18,"rain":0.0,"pressure":957.4,"uv_index":7.8,"wind_gusts":25.6,"aqi":104,"pm10":41.2,"pm2_5":33.2,"mosquito_risk":0,"arthritis_risk":5,"migraine_risk":10,"frizz_risk":0,"updated_at":"2026-04-26T13:46:30.686675+05:30"},{"city":"Bidar","state":"Karnataka","latitude":17.9104,"longitude":77.5199,"temp":38.7,"humidity":20,"rain":0.0,"pressure":935.5,"uv_index":7.95,"wind_gusts":33.8,"aqi":107,"pm10":42.3,"pm2_5":33.9,"mosquito_risk":0,"arthritis_risk":5,"migraine_risk":10,"frizz_risk":0,"updated_at":"2026-04-26T13:46:30.686681+05:30"},{"city":"Hospet","state":"Karnataka","latitude":15.2689,"longitude":76.3909,"temp":37.5,"humidity":27,"rain":0.0,"pressure":955.0,"uv_index":8.9,"wind_gusts":41.8,"aqi":94,"pm10":36.2,"pm2_5":29.2,"mosquito_risk":0,"arthritis_risk":5,"migraine_risk":10,"frizz_risk":0,"updated_at":"2026-04-26T13:46:30.686688+05:30"},{"city":"Tirupur","state":"Tamil Nadu","latitude":11.1085,"longitude":77.3411,"temp":39.2,"humidity":22,"rain":0.0,"pressure":973.5,"uv_index":9.4,"wind_gusts":31.0,"aqi":66,"pm10":22.7,"pm2_5":17.1,"mosquito_risk":0,"arthritis_risk":5,"migraine_risk":10,"frizz_risk":0,"updated_at":"2026-04-26T13:46:30.686693+05:30"},{"city":"Alappuzha","state":"Kerala","latitude":9.4981,"longitude":76.3388,"temp":31.5,"humidity":70,"rain":0.0,"pressure":1006.9,"uv_index":8.95,"wind_gusts":38.2,"aqi":65,"pm10":17.3,"pm2_5":15.8,"mosquito_risk":3,"arthritis_risk":5,"migraine_risk":4,"frizz_risk":1,"updated_at":"2026-04-26T13:46:30.686700+05:30"},{"city":"Munnar","state":"Kerala","latitude":10.0889,"longitude":77.0595,"temp":25.4,"humidity":48,"rain":0.1,"pressure":858.5,"uv_index":9.6,"wind_gusts":27.0,"aqi":64,"pm10":15.5,"pm2_5":13.2,"mosquito_risk":7,"arthritis_risk":5,"migraine_risk":7,"frizz_risk":0,"updated_at":"2026-04-26T13:46:30.686707+05:30"},{"city":"Silchar","state":"Assam","latitude":24.8333,"longitude":92.7789,"temp":31.6,"humidity":58,"rain":0.0,"pressure":1002.6,"uv_index":6.8,"wind_gusts":21.6,"aqi":161,"pm10":82.2,"pm2_5":42.8,"mosquito_risk":0,"arthritis_risk":5,"migraine_risk":4,"frizz_risk":1,"updated_at":"2026-04-26T13:46:30.686713+05:30"},{"city":"Dibrugarh","state":"Assam","latitude":27.4728,"longitude":94.912,"temp":26.5,"humidity":70,"rain":0.0,"pressure":994.4,"uv_index":5.15,"wind_gusts":25.2,"aqi":95,"pm10":51.1,"pm2_5":34.5,"mosquito_risk":7,"arthritis_risk":5,"migraine_risk":3,"frizz_risk":1,"updated_at":"2026-04-26T13:46:30.686719+05:30"}]