[{"city":"Delhi","state":"Delhi","latitude":28.6139,"longitude":77.209,"temp":17.8,"humidity":89,"rain":0.0,"pressure":984.4,"uv_index":3.7,"wind_gusts":21.2,"aqi":145,"pm10":155.1,"pm2_5":62.4,"mosquito_risk":3,"arthritis_risk":10,"migraine_risk":3,"frizz_risk":0,"updated_at":"2026-03-20T04:02:24.789963+05:30"},{"city":"Mumbai","state":"Maharashtra","latitude":19.076,"longitude":72.8777,"temp":26.5,"humidity":69,"rain":0.0,"pressure":1009.1,"uv_index":7.8,"wind_gusts":24.8,"aqi":67,"pm10":53.0,"pm2_5":26.7,"mosquito_risk":7,"arthritis_risk":0,"migraine_risk":4,"frizz_risk":1,"updated_at":"2026-03-20T04:02:24.790000+05:30"},{"city":"Bangalore","state":"Karnataka","latitude":12.9716,"longitude":77.5946,"temp":20.1,"humidity":87,"rain":0.0,"pressure":911.2,"uv_index":9.4,"wind_gusts":16.9,"aqi":100,"pm10":29.3,"pm2_5":26.0,"mosquito_risk":3,"arthritis_risk":5,"migraine_risk":7,"frizz_risk":1,"updated_at":"2026-03-20T04:02:24.790015+05:30"},{"city":"Hyderabad","state":"Telangana","latitude":17.385,"longitude":78.4867,"temp":20.6,"humidity":88,"rain":0.0,"pressure":953.0,"uv_index":8.8,"wind_gusts":25.2,"aqi":66,"pm10":21.4,"pm2_5":18.9,"mosquito_risk":3,"arthritis_risk":5,"migraine_risk":7,"frizz_risk":1,"updated_at":"2026-03-20T04:02:24.790024+05:30"},{"city":"Chennai","state":"Tamil Nadu","latitude":13.0827,"longitude":80.2707,"temp":25.6,"humidity":88,"rain":0.0,"pressure":1008.0,"uv_index":9.15,"wind_gusts":33.5,"aqi":33,"pm10":8.7,"pm2_5":6.8,"mosquito_risk":7,"arthritis_risk":0,"migraine_risk":4,"frizz_risk":1,"updated_at":"2026-03-20T04:02:24.790032+05:30"},{"city":"Kolkata","state":"West Bengal","latitude":22.5726,"longitude":88.3639,"temp":24.3,"humidity":94,"rain":0.0,"pressure":1007.5,"uv_index":7.95,"wind_gusts":39.6,"aqi":74,"pm10":23.5,"pm2_5":19.4,"mosquito_risk":3,"arthritis_risk":5,"migraine_risk":4,"frizz_risk":1,"updated_at":"2026-03-20T04:02:24.790040+05:30"},{"city":"Pune","state":"Maharashtra","latitude":18.5204,"longitude":73.8567,"temp":19.2,"humidity":88,"rain":0.0,"pressure":948.2,"uv_index":8.35,"wind_gusts":36.7,"aqi":90,"pm10":30.9,"pm2_5":22.2,"mosquito_risk":3,"arthritis_risk":10,"migraine_risk":7,"frizz_risk":1,"updated_at":"2026-03-20T04:02:24.790052+05:30"},{"city":"Ahmedabad","state":"Gujarat","latitude":23.0225,"longitude":72.5714,"temp":20.0,"humidity":92,"rain":0.0,"pressure":1003.8,"uv_index":7.65,"wind_gusts":33.8,"aqi":59,"pm10":60.1,"pm2_5":32.5,"mosquito_risk":3,"arthritis_risk":5,"migraine_risk":4,"frizz_risk":1,"updated_at":"2026-03-20T04:02:24.790060+05:30"},{"city":"Jaipur","state":"Rajasthan","latitude":26.9124,"longitude":75.7873,"temp":18.2,"humidity":90,"rain":0.1,"pressure":960.6,"uv_index":6.05,"wind_gusts":25.2,"aqi":115,"pm10":86.8,"pm2_5":27.2,"mosquito_risk":6,"arthritis_risk":10,"migraine_risk":7,"frizz_risk":1,"updated_at":"2026-03-20T04:02:24.790067+05:30"},{"city":"Lucknow","state":"Uttar Pradesh","latitude":26.8467,"longitude":80.9462,"temp":22.8,"humidity":60,"rain":0.0,"pressure":994.0,"uv_index":6.0,"wind_gusts":43.6,"aqi":92,"pm10":51.7,"pm2_5":31.2,"mosquito_risk":0,"arthritis_risk":5,"migraine_risk":3,"frizz_risk":0,"updated_at":"2026-03-20T04:02:24.790074+05:30"},{"city":"Kanpur","state":"Uttar Pradesh","latitude":26.4499,"longitude":80.3319,"temp":21.7,"humidity":73,"rain":0.0,"pressure":991.7,"uv_index":5.55,"wind_gusts":43.6,"aqi":115,"pm10":78.5,"pm2_5":38.4,"mosquito_risk":3,"arthritis_risk":5,"migraine_risk":3,"frizz_risk":1,"updated_at":"2026-03-20T04:02:24.790081+05:30"},{"city":"Chandigarh","state":"Chandigarh","latitude":30.7333,"longitude":76.7794,"temp":15.6,"humidity":100,"rain":0.0,"pressure":970.1,"uv_index":0.4,"wind_gusts":25.2,"aqi":87,"pm10":40.5,"pm2_5":24.7,"mosquito_risk":3,"arthritis_risk":10,"migraine_risk":3,"frizz_risk":0,"updated_at":"2026-03-20T04:02:24.790089+05:30"},{"city":"Srinagar","state":"Jammu and Kashmir","latitude":34.0837,"longitude":74.7973,"temp":6.0,"humidity":96,"rain":0.3,"pressure":837.3,"uv_index":4.9,"wind_gusts":12.6,"aqi":102,"pm10":14.1,"pm2_5":13.9,"mosquito_risk":6,"arthritis_risk":10,"migraine_risk":3,"frizz_risk":0,"updated_at":"2026-03-20T04:02:24.790096+05:30"},{"city":"Jammu","state":"Jammu and Kashmir","latitude":32.7266,"longitude":74.857,"temp":16.2,"humidity":98,"rain":0.0,"pressure":975.0,"uv_index":4.2,"wind_gusts":20.9,"aqi":84,"pm10":64.7,"pm2_5":42.3,"mosquito_risk":3,"arthritis_risk":10,"migraine_risk":3,"frizz_risk":0,"updated_at":"2026-03-20T04:02:24.790103+05:30"},{"city":"Amritsar","state":"Punjab","latitude":31.634,"longitude":74.8723,"temp":14.9,"humidity":98,"rain":0.0,"pressure":983.3,"uv_index":4.15,"wind_gusts":19.4,"aqi":91,"pm10":53.6,"pm2_5":39.5,"mosquito_risk":3,"arthritis_risk":10,"migraine_risk":3,"frizz_risk":0,"updated_at":"2026-03-20T04:02:24.790110+05:30"},{"city":"Ludhiana","state":"Punjab","latitude":30.901,"longitude":75.8573,"temp":15.1,"humidity":100,"rain":0.0,"pressure":980.7,"uv_index":2.85,"wind_gusts":17.3,"aqi":104,"pm10":55.1,"pm2_5":30.0,"mosquito_risk":3,"arthritis_risk":10,"migraine_risk":3,"frizz_risk":0,"updated_at":"2026-03-20T04:02:24.790117+05:30"},{"city":"Jalandhar","state":"Punjab","latitude":31.326,"longitude":75.5762,"temp":14.7,"humidity":99,"rain":0.0,"pressure":982.1,"uv_index":2.3,"wind_gusts":18.0,"aqi":92,"pm10":42.3,"pm2_5":24.3,"mosquito_risk":3,"arthritis_risk":10,"migraine_risk":3,"frizz_risk":0,"updated_at":"2026-03-20T04:02:24.790125+05:30"},{"city":"Dehradun","state":"Uttarakhand","latitude":30.6284,"longitude":78.0322,"temp":10.1,"humidity":81,"rain":0.0,"pressure":827.9,"uv_index":0.35,"wind_gusts":34.6,"aqi":45,"pm10":32.4,"pm2_5":11.1,"mosquito_risk":3,"arthritis_risk":10,"migraine_risk":3,"frizz_risk":0,"updated_at":"2026-03-20T04:02:24.790132+05:30"},{"city":"Shimla","state":"Himachal Pradesh","latitude":31.1048,"longitude":77.1734,"temp":8.0,"humidity":84,"rain":0.0,"pressure":779.9,"uv_index":0.5,"wind_gusts":40.7,"aqi":41,"pm10":29.6,"pm2_5":9.3,"mosquito_risk":3,"arthritis_risk":10,"migraine_risk":3,"frizz_risk":0,"updated_at":"2026-03-20T04:02:24.790138+05:30"},{"city":"Manali","state":"Himachal Pradesh","latitude":32.2396,"longitude":77.1887,"temp":10.3,"humidity":99,"rain":0.8,"pressure":813.6,"uv_index":3.2,"wind_gusts":28.8,"aqi":45,"pm10":2.2,"pm2_5":1.9,"mosquito_risk":6,"arthritis_risk":10,"migraine_risk":3,"frizz_risk":0,"updated_at":"2026-03-20T04:02:24.790144+05:30"},{"city":"Gurgaon","state":"Haryana","latitude":28.4595,"longitude":77.0266,"temp":16.5,"humidity":97,"rain":0.0,"pressure":982.8,"uv_index":3.65,"wind_gusts":18.0,"aqi":156,"pm10":157.9,"pm2_5":60.1,"mosquito_risk":3,"arthritis_risk":10,"migraine_risk":3,"frizz_risk":0,"updated_at":"2026-03-20T04:02:24.790150+05:30"},{"city":"Noida","state":"Uttar Pradesh","latitude":28.5355,"longitude":77.391,"temp":18.0,"humidity":88,"rain":0.0,"pressure":985.9,"uv_index":4.05,"wind_gusts":21.6,"aqi":156,"pm10":157.9,"pm2_5":60.1,"mosquito_risk":3,"arthritis_risk":10,"migraine_risk":3,"frizz_risk":0,"updated_at":"2026-03-20T04:02:24.790156+05:30"},{"city":"Ghaziabad","state":"Uttar Pradesh","latitude":28.6692,"longitude":77.4538,"temp":17.2,"humidity":91,"rain":0.0,"pressure":984.0,"uv_index":4.45,"wind_gusts":20.2,"aqi":126,"pm10":119.0,"pm2_5":59.4,"mosquito_risk":3,"arthritis_risk":10,"migraine_risk":3,"frizz_risk":0,"updated_at":"2026-03-20T04:02:24.790162+05:30"},{"city":"Faridabad","state":"Haryana","latitude":28.4089,"longitude":77.3178,"temp":17.5,"humidity":90,"rain":0.0,"pressure":985.2,"uv_index":4.15,"wind_gusts":19.4,"aqi":156,"pm10":157.9,"pm2_5":60.1,"mosquito_risk":3,"arthritis_risk":10,"migraine_risk":3,"frizz_risk":0,"updated_at":"2026-03-20T04:02:24.790168+05:30"},{"city":"Meerut","state":"Uttar Pradesh","latitude":28.9845,"longitude":77.7064,"temp":16.8,"humidity":92,"rain":0.0,"pressure":982.7,"uv_index":3.6,"wind_gusts":24.8,"aqi":126,"pm10":119.0,"pm2_5":59.4,"mosquito_risk":3,"arthritis_risk":10,"migraine_risk":3,"frizz_risk":0,"updated_at":"2026-03-20T04:02:24.790173+05:30"},{"city":"Agra","state":"Uttar Pradesh","latitude":27.1767,"longitude":78.0081,"temp":18.4,"humidity":91,"rain":0.0,"pressure":988.9,"uv_index":5.6,"wind_gusts":27.4,"aqi":666,"pm10":905.2,"pm2_5":110.8,"mosquito_risk":3,"arthritis_risk":10,"migraine_risk":3,"frizz_risk":1,"updated_at":"2026-03-20T04:02:24.790179+05:30"},{"city":"Varanasi","state":"Uttar Pradesh","latitude":25.3176,"longitude":82.9739,"temp":22.9,"humidity":67,"rain":0.0,"pressure":997.4,"uv_index":7.5,"wind_gusts":43.9,"aqi":104,"pm10":66.6,"pm2_5":53.6,"mosquito_risk":3,"arthritis_risk":5,"migraine_risk":7,"frizz_risk":1,"updated_at":"2026-03-20T04:02:24.790188+05:30"},{"city":"Prayagraj","state":"Uttar Pradesh","latitude":25.4358,"longitude":81.8463,"temp":23.9,"humidity":59,"rain":0.0,"pressure":996.0,"uv_index":4.95,"wind_gusts":51.5,"aqi":106,"pm10":58.7,"pm2_5":42.6,"mosquito_risk":0,"arthritis_risk":5,"migraine_risk":3,"frizz_risk":0,"updated_at":"2026-03-20T04:02:24.790195+05:30"},{"city":"Gorakhpur","state":"Uttar Pradesh","latitude":26.7606,"longitude":83.3732,"temp":17.1,"humidity":92,"rain":0.0,"pressure":997.2,"uv_index":7.1,"wind_gusts":42.1,"aqi":123,"pm10":113.2,"pm2_5":74.0,"mosquito_risk":3,"arthritis_risk":10,"migraine_risk":7,"frizz_risk":0,"updated_at":"2026-03-20T04:02:24.790203+05:30"},{"city":"Bareilly","state":"Uttar Pradesh","latitude":28.367,"longitude":79.4304,"temp":18.8,"humidity":80,"rain":0.0,"pressure":988.4,"uv_index":3.6,"wind_gusts":35.6,"aqi":85,"pm10":47.5,"pm2_5":32.4,"mosquito_risk":3,"arthritis_risk":5,"migraine_risk":3,"frizz_risk":0,"updated_at":"2026-03-20T04:02:24.790210+05:30"},{"city":"Aligarh","state":"Uttar Pradesh","latitude":27.8974,"longitude":78.088,"temp":17.6,"humidity":85,"rain":0.0,"pressure":986.8,"uv_index":4.7,"wind_gusts":23.4,"aqi":139,"pm10":122.0,"pm2_5":45.3,"mosquito_risk":3,"arthritis_risk":10,"migraine_risk":3,"frizz_risk":0,"updated_at":"2026-03-20T04:02:24.790216+05:30"},{"city":"Moradabad","state":"Uttar Pradesh","latitude":28.8386,"longitude":78.7733,"temp":18.4,"humidity":79,"rain":0.0,"pressure":984.8,"uv_index":2.75,"wind_gusts":25.6,"aqi":93,"pm10":53.1,"pm2_5":29.0,"mosquito_risk":3,"arthritis_risk":5,"migraine_risk":3,"frizz_risk":0,"updated_at":"2026-03-20T04:02:24.790221+05:30"},{"city":"Saharanpur","state":"Uttar Pradesh","latitude":29.9637,"longitude":77.546,"temp":16.0,"humidity":87,"rain":0.0,"pressure":976.9,"uv_index":1.15,"wind_gusts":23.8,"aqi":114,"pm10":73.3,"pm2_5":53.7,"mosquito_risk":3,"arthritis_risk":10,"migraine_risk":3,"frizz_risk":0,"updated_at":"2026-03-20T04:02:24.790227+05:30"},{"city":"Jhansi","state":"Uttar Pradesh","latitude":25.4484,"longitude":78.5685,"temp":20.9,"humidity":77,"rain":0.0,"pressure":978.6,"uv_index":5.1,"wind_gusts":29.5,"aqi":82,"pm10":114.8,"pm2_5":45.9,"mosquito_risk":3,"arthritis_risk":5,"migraine_risk":3,"frizz_risk":1,"updated_at":"2026-03-20T04:02:28.014507+05:30"},{"city":"Surat","state":"Gujarat","latitude":21.1702,"longitude":72.8311,"temp":22.8,"humidity":85,"rain":0.0,"pressure":1007.5,"uv_index":7.5,"wind_gusts":26.3,"aqi":89,"pm10":56.5,"pm2_5":45.3,"mosquito_risk":3,"arthritis_risk":5,"migraine_risk":4,"frizz_risk":1,"updated_at":"2026-03-20T04:02:28.014528+05:30"},{"city":"Vadodara","state":"Gujarat","latitude":22.3072,"longitude":73.1812,"temp":21.0,"humidity":89,"rain":0.0,"pressure":1005.9,"uv_index":7.65,"wind_gusts":30.6,"aqi":55,"pm10":48.9,"pm2_5":22.6,"mosquito_risk":3,"arthritis_risk":5,"migraine_risk":4,"frizz_risk":1,"updated_at":"2026-03-20T04:02:28.014537+05:30"},{"city":"Rajkot","state":"Gujarat","latitude":22.3039,"longitude":70.8022,"temp":19.7,"humidity":92,"rain":0.0,"pressure":996.1,"uv_index":7.5,"wind_gusts":30.2,"aqi":60,"pm10":65.9,"pm2_5":25.0,"mosquito_risk":3,"arthritis_risk":10,"migraine_risk":7,"frizz_risk":1,"updated_at":"2026-03-20T04:02:28.014544+05:30"},{"city":"Thane","state":"Maharashtra","latitude":19.2183,"longitude":72.9781,"temp":23.7,"humidity":85,"rain":0.0,"pressure":1008.6,"uv_index":7.8,"wind_gusts":36.7,"aqi":67,"pm10":53.0,"pm2_5":26.7,"mosquito_risk":3,"arthritis_risk":0,"migraine_risk":4,"frizz_risk":1,"updated_at":"2026-03-20T04:02:28.014551+05:30"},{"city":"Nagpur","state":"Maharashtra","latitude":21.1458,"longitude":79.0882,"temp":21.5,"humidity":76,"rain":0.0,"pressure":974.5,"uv_index":7.55,"wind_gusts":39.2,"aqi":110,"pm10":55.2,"pm2_5":45.3,"mosquito_risk":3,"arthritis_risk":5,"migraine_risk":7,"frizz_risk":1,"updated_at":"2026-03-20T04:02:28.014558+05:30"},{"city":"Nashik","state":"Maharashtra","latitude":19.9975,"longitude":73.7898,"temp":19.3,"humidity":89,"rain":0.0,"pressure":945.1,"uv_index":8.0,"wind_gusts":33.5,"aqi":54,"pm10":23.9,"pm2_5":16.4,"mosquito_risk":3,"arthritis_risk":10,"migraine_risk":7,"frizz_risk":1,"updated_at":"2026-03-20T04:02:28.014565+05:30"},{"city":"Aurangabad","state":"Maharashtra","latitude":19.8762,"longitude":75.3433,"temp":21.6,"humidity":63,"rain":0.0,"pressure":943.8,"uv_index":8.5,"wind_gusts":34.9,"aqi":77,"pm10":37.7,"pm2_5":25.6,"mosquito_risk":3,"arthritis_risk":5,"migraine_risk":7,"frizz_risk":0,"updated_at":"2026-03-20T04:02:28.014572+05:30"},{"city":"Solapur","state":"Maharashtra","latitude":17.6599,"longitude":75.9064,"temp":22.4,"humidity":68,"rain":0.0,"pressure":956.8,"uv_index":8.7,"wind_gusts":28.8,"aqi":75,"pm10":48.1,"pm2_5":33.2,"mosquito_risk":3,"arthritis_risk":5,"migraine_risk":7,"frizz_risk":1,"updated_at":"2026-03-20T04:02:28.014579+05:30"},{"city":"Kolhapur","state":"Maharashtra","latitude":16.705,"longitude":74.2433,"temp":17.7,"humidity":91,"rain":0.0,"pressure":947.2,"uv_index":8.85,"wind_gusts":44.3,"aqi":87,"pm10":37.8,"pm2_5":33.1,"mosquito_risk":3,"arthritis_risk":10,"migraine_risk":7,"frizz_risk":1,"updated_at":"2026-03-20T04:02:28.014586+05:30"},{"city":"Goa","state":"Goa","latitude":15.2993,"longitude":74.124,"temp":24.9,"humidity":84,"rain":0.0,"pressure":998.0,"uv_index":8.85,"wind_gusts":40.0,"aqi":66,"pm10":28.5,"pm2_5":21.2,"mosquito_risk":3,"arthritis_risk":5,"migraine_risk":7,"frizz_risk":1,"updated_at":"2026-03-20T04:02:28.014592+05:30"},{"city":"Jodhpur","state":"Rajasthan","latitude":26.2389,"longitude":73.0243,"temp":19.2,"humidity":86,"rain":0.0,"pressure":984.9,"uv_index":7.25,"wind_gusts":18.7,"aqi":72,"pm10":73.8,"pm2_5":22.2,"mosquito_risk":3,"arthritis_risk":10,"migraine_risk":7,"frizz_risk":1,"updated_at":"2026-03-20T04:02:28.014599+05:30"},{"city":"Udaipur","state":"Rajasthan","latitude":24.5854,"longitude":73.7125,"temp":17.8,"humidity":70,"rain":0.0,"pressure":946.3,"uv_index":7.95,"wind_gusts":30.6,"aqi":58,"pm10":53.1,"pm2_5":19.0,"mosquito_risk":3,"arthritis_risk":5,"migraine_risk":7,"frizz_risk":0,"updated_at":"2026-03-20T04:02:28.014605+05:30"},{"city":"Kota","state":"Rajasthan","latitude":25.2138,"longitude":75.8648,"temp":21.3,"humidity":74,"rain":0.0,"pressure":979.9,"uv_index":6.25,"wind_gusts":31.7,"aqi":75,"pm10":39.2,"pm2_5":17.5,"mosquito_risk":3,"arthritis_risk":5,"migraine_risk":7,"frizz_risk":1,"updated_at":"2026-03-20T04:02:28.014612+05:30"},{"city":"Bikaner","state":"Rajasthan","latitude":28.0229,"longitude":73.3119,"temp":19.1,"humidity":89,"rain":0.0,"pressure":983.9,"uv_index":6.9,"wind_gusts":17.3,"aqi":68,"pm10":28.3,"pm2_5":16.8,"mosquito_risk":3,"arthritis_risk":10,"migraine_risk":7,"frizz_risk":1,"updated_at":"2026-03-20T04:02:28.014618+05:30"},{"city":"Ajmer","state":"Rajasthan","latitude":26.4499,"longitude":74.6399,"temp":18.8,"humidity":90,"rain":0.0,"pressure":954.8,"uv_index":6.6,"wind_gusts":28.1,"aqi":73,"pm10":41.3,"pm2_5":17.4,"mosquito_risk":3,"arthritis_risk":10,"migraine_risk":7,"frizz_risk":1,"updated_at":"2026-03-20T04:02:28.014624+05:30"},{"city":"Gwalior","state":"Madhya Pradesh","latitude":26.2183,"longitude":78.1828,"temp":19.9,"humidity":89,"rain":0.0,"pressure":984.3,"uv_index":4.55,"wind_gusts":29.5,"aqi":132,"pm10":204.0,"pm2_5":62.4,"mosquito_risk":3,"arthritis_risk":10,"migraine_risk":3,"frizz_risk":1,"updated_at":"2026-03-20T04:02:28.014631+05:30"},{"city":"Indore","state":"Madhya Pradesh","latitude":22.7196,"longitude":75.8577,"temp":19.3,"humidity":77,"rain":0.0,"pressure":948.3,"uv_index":7.9,"wind_gusts":37.4,"aqi":57,"pm10":46.4,"pm2_5":19.0,"mosquito_risk":3,"arthritis_risk":5,"migraine_risk":7,"frizz_risk":0,"updated_at":"2026-03-20T04:02:28.014637+05:30"},{"city":"Bhopal","state":"Madhya Pradesh","latitude":23.2599,"longitude":77.4126,"temp":19.5,"humidity":69,"rain":0.0,"pressure":953.5,"uv_index":7.8,"wind_gusts":35.6,"aqi":70,"pm10":29.9,"pm2_5":23.1,"mosquito_risk":3,"arthritis_risk":5,"migraine_risk":7,"frizz_risk":0,"updated_at":"2026-03-20T04:02:28.014644+05:30"},{"city":"Jabalpur","state":"Madhya Pradesh","latitude":23.1815,"longitude":79.9864,"temp":21.4,"humidity":64,"rain":0.0,"pressure":962.5,"uv_index":5.1,"wind_gusts":29.9,"aqi":74,"pm10":23.1,"pm2_5":19.0,"mosquito_risk":3,"arthritis_risk":5,"migraine_risk":3,"frizz_risk":0,"updated_at":"2026-03-20T04:02:28.014650+05:30"},{"city":"Ujjain","state":"Madhya Pradesh","latitude":23.1765,"longitude":75.7885,"temp":19.8,"humidity":78,"rain":0.0,"pressure":954.1,"uv_index":7.8,"wind_gusts":40.3,"aqi":55,"pm10":50.5,"pm2_5":20.1,"mosquito_risk":3,"arthritis_risk":5,"migraine_risk":7,"frizz_risk":0,"updated_at":"2026-03-20T04:02:28.014657+05:30"},{"city":"Visakhapatnam","state":"Andhra Pradesh","latitude":17.6868,"longitude":83.2185,"temp":22.4,"humidity":89,"rain":0.0,"pressure":1005.0,"uv_index":8.75,"wind_gusts":37.4,"aqi":67,"pm10":24.8,"pm2_5":21.7,"mosquito_risk":3,"arthritis_risk":5,"migraine_risk":4,"frizz_risk":1,"updated_at":"2026-03-20T04:02:28.014663+05:30"},{"city":"Vijayawada","state":"Andhra Pradesh","latitude":16.5062,"longitude":80.648,"temp":23.2,"humidity":93,"rain":0.0,"pressure":1003.7,"uv_index":8.85,"wind_gusts":24.1,"aqi":61,"pm10":23.3,"pm2_5":21.0,"mosquito_risk":3,"arthritis_risk":5,"migraine_risk":4,"frizz_risk":1,"updated_at":"2026-03-20T04:02:28.014670+05:30"},{"city":"Guntur","state":"Andhra Pradesh","latitude":16.3067,"longitude":80.4365,"temp":23.2,"humidity":94,"rain":0.0,"pressure":1004.8,"uv_index":8.85,"wind_gusts":35.6,"aqi":56,"pm10":18.5,"pm2_5":16.8,"mosquito_risk":3,"arthritis_risk":5,"migraine_risk":4,"frizz_risk":1,"updated_at":"2026-03-20T04:02:28.014676+05:30"},{"city":"Nellore","state":"Andhra Pradesh","latitude":14.4426,"longitude":79.9865,"temp":24.6,"humidity":91,"rain":0.0,"pressure":1006.8,"uv_index":9.0,"wind_gusts":32.0,"aqi":33,"pm10":8.0,"pm2_5":6.4,"mosquito_risk":3,"arthritis_risk":5,"migraine_risk":4,"frizz_risk":1,"updated_at":"2026-03-20T04:02:28.014683+05:30"},{"city":"Kurnool","state":"Andhra Pradesh","latitude":15.8281,"longitude":78.0373,"temp":23.9,"humidity":74,"rain":0.0,"pressure":977.3,"uv_index":8.85,"wind_gusts":18.7,"aqi":60,"pm10":22.4,"pm2_5":19.4,"mosquito_risk":3,"arthritis_risk":5,"migraine_risk":7,"frizz_risk":1,"updated_at":"2026-03-20T04:02:28.014691+05:30"},{"city":"Kakinada","state":"Andhra Pradesh","latitude":16.9891,"longitude":82.2475,"temp":20.9,"humidity":91,"rain":0.0,"pressure":1008.9,"uv_index":8.8,"wind_gusts":27.7,"aqi":42,"pm10":18.0,"pm2_5":14.9,"mosquito_risk":3,"arthritis_risk":0,"migraine_risk":4,"frizz_risk":1,"updated_at":"2026-03-20T04:02:28.014697+05:30"},{"city":"Tirupati","state":"Andhra Pradesh","latitude":13.6288,"longitude":79.4192,"temp":22.8,"humidity":90,"rain":0.0,"pressure":992.7,"uv_index":9.15,"wind_gusts":20.5,"aqi":49,"pm10":17.3,"pm2_5":15.7,"mosquito_risk":3,"arthritis_risk":5,"migraine_risk":7,"frizz_risk":1,"updated_at":"2026-03-20T04:02:28.014704+05:30"},{"city":"Warangal","state":"Telangana","latitude":17.9689,"longitude":79.5941,"temp":21.8,"humidity":89,"rain":0.0,"pressure":979.1,"uv_index":8.65,"wind_gusts":25.6,"aqi":109,"pm10":17.5,"pm2_5":16.5,"mosquito_risk":3,"arthritis_risk":5,"migraine_risk":7,"frizz_risk":1,"updated_at":"2026-03-20T04:02:28.014711+05:30"},{"city":"Nizamabad","state":"Telangana","latitude":18.6725,"longitude":78.0941,"temp":21.3,"humidity":78,"rain":0.0,"pressure":965.4,"uv_index":8.55,"wind_gusts":25.2,"aqi":95,"pm10":39.6,"pm2_5":35.0,"mosquito_risk":3,"arthritis_risk":5,"migraine_risk":7,"frizz_risk":1,"updated_at":"2026-03-20T04:02:28.014717+05:30"},{"city":"Mysore","state":"Karnataka","latitude":12.2958,"longitude":76.6396,"temp":21.3,"humidity":88,"rain":0.0,"pressure":927.9,"uv_index":9.4,"wind_gusts":36.0,"aqi":82,"pm10":27.5,"pm2_5":25.8,"mosquito_risk":3,"arthritis_risk":5,"migraine_risk":7,"frizz_risk":1,"updated_at":"2026-03-20T04:02:28.014723+05:30"},{"city":"Mangalore","state":"Karnataka","latitude":12.9141,"longitude":74.856,"temp":28.5,"humidity":77,"rain":0.0,"pressure":1006.6,"uv_index":9.05,"wind_gusts":27.0,"aqi":70,"pm10":29.8,"pm2_5":25.5,"mosquito_risk":7,"arthritis_risk":5,"migraine_risk":4,"frizz_risk":1,"updated_at":"2026-03-20T04:02:28.014730+05:30"},{"city":"Hubli-Dharwad","state":"Karnataka","latitude":15.3647,"longitude":75.124,"temp":19.8,"humidity":95,"rain":0.0,"pressure":940.1,"uv_index":9.0,"wind_gusts":40.7,"aqi":80,"pm10":27.6,"pm2_5":22.2,"mosquito_risk":3,"arthritis_risk":10,"migraine_risk":7,"frizz_risk":1,"updated_at":"2026-03-20T04:02:28.014737+05:30"},{"city":"Belgaum","state":"Karnataka","latitude":15.8497,"longitude":74.4977,"temp":18.6,"humidity":95,"rain":0.0,"pressure":924.7,"uv_index":9.1,"wind_gusts":44.3,"aqi":78,"pm10":33.8,"pm2_5":28.2,"mosquito_risk":3,"arthritis_risk":10,"migraine_risk":7,"frizz_risk":1,"updated_at":"2026-03-20T04:02:31.238163+05:30"},{"city":"Coimbatore","state":"Tamil Nadu","latitude":11.0168,"longitude":76.9558,"temp":22.4,"humidity":89,"rain":0.0,"pressure":961.9,"uv_index":9.35,"wind_gusts":36.7,"aqi":62,"pm10":21.8,"pm2_5":21.0,"mosquito_risk":3,"arthritis_risk":5,"migraine_risk":7,"frizz_risk":1,"updated_at":"2026-03-20T04:02:31.238190+05:30"},{"city":"Madurai","state":"Tamil Nadu","latitude":9.9252,"longitude":78.1198,"temp":23.3,"humidity":85,"rain":0.0,"pressure":993.7,"uv_index":9.3,"wind_gusts":24.8,"aqi":57,"pm10":12.7,"pm2_5":12.1,"mosquito_risk":3,"arthritis_risk":5,"migraine_risk":7,"frizz_risk":1,"updated_at":"2026-03-20T04:02:31.238202+05:30"},{"city":"Trichy","state":"Tamil Nadu","latitude":10.7905,"longitude":78.7047,"temp":22.8,"humidity":86,"rain":0.0,"pressure":1001.3,"uv_index":9.25,"wind_gusts":20.2,"aqi":58,"pm10":17.4,"pm2_5":15.8,"mosquito_risk":3,"arthritis_risk":5,"migraine_risk":4,"frizz_risk":1,"updated_at":"2026-03-20T04:02:31.238212+05:30"},{"city":"Salem","state":"Tamil Nadu","latitude":11.6643,"longitude":78.146,"temp":22.5,"humidity":89,"rain":0.0,"pressure":978.6,"uv_index":9.3,"wind_gusts":20.9,"aqi":77,"pm10":25.4,"pm2_5":21.3,"mosquito_risk":3,"arthritis_risk":5,"migraine_risk":7,"frizz_risk":1,"updated_at":"2026-03-20T04:02:31.238221+05:30"},{"city":"Tirunelveli","state":"Tamil Nadu","latitude":8.7139,"longitude":77.7567,"temp":24.0,"humidity":92,"rain":0.0,"pressure":1003.3,"uv_index":9.25,"wind_gusts":41.4,"aqi":59,"pm10":27.0,"pm2_5":25.8,"mosquito_risk":3,"arthritis_risk":5,"migraine_risk":4,"frizz_risk":1,"updated_at":"2026-03-20T04:02:31.238229+05:30"},{"city":"Vellore","state":"Tamil Nadu","latitude":12.9165,"longitude":79.1325,"temp":22.8,"humidity":91,"rain":0.0,"pressure":985.7,"uv_index":9.2,"wind_gusts":24.1,"aqi":61,"pm10":26.4,"pm2_5":24.7,"mosquito_risk":3,"arthritis_risk":5,"migraine_risk":7,"frizz_risk":1,"updated_at":"2026-03-20T04:02:31.238237+05:30"},{"city":"Erode","state":"Tamil Nadu","latitude":11.341,"longitude":77.7172,"temp":22.8,"humidity":80,"rain":0.0,"pressure":990.4,"uv_index":9.3,"wind_gusts":26.6,"aqi":71,"pm10":26.4,"pm2_5":21.8,"mosquito_risk":3,"arthritis_risk":5,"migraine_risk":7,"frizz_risk":1,"updated_at":"2026-03-20T04:02:31.238245+05:30"},{"city":"Kochi","state":"Kerala","latitude":9.9312,"longitude":76.2673,"temp":27.9,"humidity":79,"rain":0.0,"pressure":1008.5,"uv_index":9.15,"wind_gusts":33.8,"aqi":59,"pm10":25.9,"pm2_5":24.6,"mosquito_risk":7,"arthritis_risk":0,"migraine_risk":4,"frizz_risk":1,"updated_at":"2026-03-20T04:02:31.238254+05:30"},{"city":"Thiruvananthapuram","state":"Kerala","latitude":8.5241,"longitude":76.9366,"temp":27.9,"humidity":78,"rain":0.0,"pressure":1007.6,"uv_index":9.15,"wind_gusts":25.9,"aqi":45,"pm10":14.0,"pm2_5":11.6,"mosquito_risk":7,"arthritis_risk":5,"migraine_risk":4,"frizz_risk":1,"updated_at":"2026-03-20T04:02:31.238262+05:30"},{"city":"Kozhikode","state":"Kerala","latitude":11.2588,"longitude":75.7804,"temp":27.7,"humidity":81,"rain":0.0,"pressure":1007.7,"uv_index":9.05,"wind_gusts":32.4,"aqi":51,"pm10":24.7,"pm2_5":15.1,"mosquito_risk":7,"arthritis_risk":5,"migraine_risk":4,"frizz_risk":1,"updated_at":"2026-03-20T04:02:31.238270+05:30"},{"city":"Thrissur","state":"Kerala","latitude":10.5276,"longitude":76.2144,"temp":25.6,"humidity":91,"rain":0.0,"pressure":1006.9,"uv_index":9.15,"wind_gusts":37.8,"aqi":56,"pm10":33.4,"pm2_5":30.9,"mosquito_risk":7,"arthritis_risk":5,"migraine_risk":4,"frizz_risk":1,"updated_at":"2026-03-20T04:02:31.238280+05:30"},{"city":"Kannur","state":"Kerala","latitude":11.8745,"longitude":75.3704,"temp":26.8,"humidity":84,"rain":0.0,"pressure":1007.1,"uv_index":9.05,"wind_gusts":37.4,"aqi":56,"pm10":21.8,"pm2_5":17.6,"mosquito_risk":7,"arthritis_risk":5,"migraine_risk":4,"frizz_risk":1,"updated_at":"2026-03-20T04:02:31.238288+05:30"},{"city":"Patna","state":"Bihar","latitude":25.5941,"longitude":85.1376,"temp":23.5,"humidity":82,"rain":0.0,"pressure":1000.8,"uv_index":7.7,"wind_gusts":33.1,"aqi":159,"pm10":82.2,"pm2_5":74.0,"mosquito_risk":3,"arthritis_risk":5,"migraine_risk":4,"frizz_risk":1,"updated_at":"2026-03-20T04:02:31.238295+05:30"},{"city":"Gaya","state":"Bihar","latitude":24.7914,"longitude":85.0002,"temp":22.1,"humidity":72,"rain":0.0,"pressure":994.2,"uv_index":7.8,"wind_gusts":20.2,"aqi":126,"pm10":46.2,"pm2_5":41.7,"mosquito_risk":3,"arthritis_risk":5,"migraine_risk":7,"frizz_risk":1,"updated_at":"2026-03-20T04:02:31.238303+05:30"},{"city":"Muzaffarpur","state":"Bihar","latitude":26.1209,"longitude":85.3647,"temp":21.1,"humidity":91,"rain":0.0,"pressure":1001.3,"uv_index":7.65,"wind_gusts":40.3,"aqi":162,"pm10":107.3,"pm2_5":92.9,"mosquito_risk":3,"arthritis_risk":5,"migraine_risk":4,"frizz_risk":1,"updated_at":"2026-03-20T04:02:31.238312+05:30"},{"city":"Bhagalpur","state":"Bihar","latitude":25.2425,"longitude":87.0117,"temp":22.6,"humidity":95,"rain":0.0,"pressure":1002.6,"uv_index":7.75,"wind_gusts":33.8,"aqi":134,"pm10":61.0,"pm2_5":56.8,"mosquito_risk":3,"arthritis_risk":5,"migraine_risk":4,"frizz_risk":1,"updated_at":"2026-03-20T04:02:31.238320+05:30"},{"city":"Ranchi","state":"Jharkhand","latitude":23.3441,"longitude":85.3096,"temp":20.8,"humidity":65,"rain":0.0,"pressure":938.0,"uv_index":6.9,"wind_gusts":35.3,"aqi":86,"pm10":40.7,"pm2_5":33.9,"mosquito_risk":3,"arthritis_risk":5,"migraine_risk":7,"frizz_risk":0,"updated_at":"2026-03-20T04:02:31.238329+05:30"},{"city":"Jamshedpur","state":"Jharkhand","latitude":22.8046,"longitude":86.2029,"temp":25.3,"humidity":62,"rain":0.0,"pressure":991.9,"uv_index":7.85,"wind_gusts":32.0,"aqi":118,"pm10":54.8,"pm2_5":47.4,"mosquito_risk":7,"arthritis_risk":5,"migraine_risk":7,"frizz_risk":1,"updated_at":"2026-03-20T04:02:31.238338+05:30"},{"city":"Dhanbad","state":"Jharkhand","latitude":23.7957,"longitude":86.4304,"temp":23.7,"humidity":67,"rain":0.0,"pressure":980.5,"uv_index":8.2,"wind_gusts":43.6,"aqi":155,"pm10":98.7,"pm2_5":92.0,"mosquito_risk":3,"arthritis_risk":5,"migraine_risk":7,"frizz_risk":1,"updated_at":"2026-03-20T04:02:31.238347+05:30"},{"city":"Bokaro","state":"Jharkhand","latitude":23.6693,"longitude":86.1511,"temp":22.1,"humidity":65,"rain":0.0,"pressure":984.7,"uv_index":8.2,"wind_gusts":40.3,"aqi":143,"pm10":97.1,"pm2_5":89.6,"mosquito_risk":3,"arthritis_risk":5,"migraine_risk":7,"frizz_risk":0,"updated_at":"2026-03-20T04:02:31.238356+05:30"},{"city":"Bhubaneswar","state":"Odisha","latitude":20.2961,"longitude":85.8245,"temp":24.4,"humidity":92,"rain":0.0,"pressure":1003.7,"uv_index":8.55,"wind_gusts":30.6,"aqi":77,"pm10":17.1,"pm2_5":14.4,"mosquito_risk":3,"arthritis_risk":5,"migraine_risk":4,"frizz_risk":1,"updated_at":"2026-03-20T04:02:31.238366+05:30"},{"city":"Cuttack","state":"Odisha","latitude":20.4625,"longitude":85.8828,"temp":24.1,"humidity":95,"rain":0.0,"pressure":1005.8,"uv_index":8.6,"wind_gusts":35.3,"aqi":77,"pm10":17.1,"pm2_5":14.4,"mosquito_risk":3,"arthritis_risk":5,"migraine_risk":4,"frizz_risk":1,"updated_at":"2026-03-20T04:02:31.238374+05:30"},{"city":"Rourkela","state":"Odisha","latitude":22.2604,"longitude":84.8536,"temp":22.4,"humidity":80,"rain":0.0,"pressure":986.3,"uv_index":8.2,"wind_gusts":38.9,"aqi":114,"pm10":54.1,"pm2_5":46.8,"mosquito_risk":3,"arthritis_risk":5,"migraine_risk":7,"frizz_risk":1,"updated_at":"2026-03-20T04:02:31.238383+05:30"},{"city":"Raipur","state":"Chhattisgarh","latitude":21.2514,"longitude":81.6296,"temp":22.0,"humidity":73,"rain":0.0,"pressure":975.6,"uv_index":7.3,"wind_gusts":28.1,"aqi":146,"pm10":47.3,"pm2_5":43.5,"mosquito_risk":3,"arthritis_risk":5,"migraine_risk":7,"frizz_risk":1,"updated_at":"2026-03-20T04:02:31.238390+05:30"},{"city":"Bhilai","state":"Chhattisgarh","latitude":21.1938,"longitude":81.3509,"temp":21.5,"humidity":74,"rain":0.0,"pressure":975.9,"uv_index":6.95,"wind_gusts":27.4,"aqi":147,"pm10":45.8,"pm2_5":42.7,"mosquito_risk":3,"arthritis_risk":5,"migraine_risk":7,"frizz_risk":1,"updated_at":"2026-03-20T04:02:31.238396+05:30"},{"city":"Guwahati","state":"Assam","latitude":26.1158,"longitude":91.7086,"temp":21.4,"humidity":90,"rain":0.0,"pressure":1004.8,"uv_index":7.6,"wind_gusts":26.6,"aqi":90,"pm10":42.4,"pm2_5":34.9,"mosquito_risk":3,"arthritis_risk":5,"migraine_risk":4,"frizz_risk":1,"updated_at":"2026-03-20T04:02:31.238403+05:30"},{"city":"Agartala","state":"Tripura","latitude":23.8315,"longitude":91.2868,"temp":21.6,"humidity":93,"rain":0.0,"pressure":1008.0,"uv_index":7.1,"wind_gusts":29.2,"aqi":88,"pm10":32.6,"pm2_5":31.5,"mosquito_risk":3,"arthritis_risk":0,"migraine_risk":4,"frizz_risk":1,"updated_at":"2026-03-20T04:02:31.238410+05:30"},{"city":"Shillong","state":"Meghalaya","latitude":25.5788,"longitude":91.8933,"temp":10.7,"humidity":88,"rain":0.0,"pressure":854.9,"uv_index":6.9,"wind_gusts":31.7,"aqi":76,"pm10":31.1,"pm2_5":27.8,"mosquito_risk":3,"arthritis_risk":10,"migraine_risk":7,"frizz_risk":0,"updated_at":"2026-03-20T04:02:31.238416+05:30"},{"city":"Imphal","state":"Manipur","latitude":24.817,"longitude":93.9368,"temp":15.3,"humidity":86,"rain":0.0,"pressure":924.3,"uv_index":7.75,"wind_gusts":43.9,"aqi":86,"pm10":48.7,"pm2_5":41.9,"mosquito_risk":3,"arthritis_risk":10,"migraine_risk":7,"frizz_risk":0,"updated_at":"2026-03-20T04:02:31.238423+05:30"},{"city":"Aizawl","state":"Mizoram","latitude":23.7271,"longitude":92.7176,"temp":15.8,"humidity":83,"rain":0.0,"pressure":892.6,"uv_index":7.2,"wind_gusts":40.0,"aqi":72,"pm10":29.9,"pm2_5":27.0,"mosquito_risk":3,"arthritis_risk":10,"migraine_risk":7,"frizz_risk":0,"updated_at":"2026-03-20T04:02:31.238429+05:30"},{"city":"Kohima","state":"Nagaland","latitude":25.6701,"longitude":94.1077,"temp":12.9,"humidity":80,"rain":0.0,"pressure":855.0,"uv_index":7.85,"wind_gusts":64.8,"aqi":69,"pm10":31.5,"pm2_5":24.3,"mosquito_risk":3,"arthritis_risk":5,"migraine_risk":7,"frizz_risk":0,"updated_at":"2026-03-20T04:02:31.238436+05:30"},{"city":"Gangtok","state":"Sikkim","latitude":27.3314,"longitude":88.6138,"temp":12.2,"humidity":89,"rain":0.0,"pressure":836.2,"uv_index":7.95,"wind_gusts":20.5,"aqi":99,"pm10":47.8,"pm2_5":36.6,"mosquito_risk":3,"arthritis_risk":10,"migraine_risk":7,"frizz_risk":0,"updated_at":"2026-03-20T04:02:31.238443+05:30"},{"city":"Siliguri","state":"West Bengal","latitude":26.7271,"longitude":88.3953,"temp":18.0,"humidity":85,"rain":0.0,"pressure":996.9,"uv_index":7.65,"wind_gusts":22.3,"aqi":145,"pm10":93.4,"pm2_5":68.7,"mosquito_risk":3,"arthritis_risk":10,"migraine_risk":7,"frizz_risk":0,"updated_at":"2026-03-20T04:02:34.464583+05:30"},{"city":"Durgapur","state":"West Bengal","latitude":23.5204,"longitude":87.3119,"temp":23.7,"humidity":88,"rain":0.0,"pressure":996.1,"uv_index":8.15,"wind_gusts":47.5,"aqi":151,"pm10":76.8,"pm2_5":70.8,"mosquito_risk":3,"arthritis_risk":5,"migraine_risk":7,"frizz_risk":1,"updated_at":"2026-03-20T04:02:34.464604+05:30"},{"city":"Asansol","state":"West Bengal","latitude":23.6739,"longitude":86.9524,"temp":24.3,"humidity":82,"rain":0.0,"pressure":994.6,"uv_index":8.15,"wind_gusts":46.4,"aqi":152,"pm10":68.0,"pm2_5":61.7,"mosquito_risk":3,"arthritis_risk":5,"migraine_risk":7,"frizz_risk":1,"updated_at":"2026-03-20T04:02:34.464613+05:30"},{"city":"Pondicherry","state":"Puducherry","latitude":11.9139,"longitude":79.8145,"temp":24.2,"humidity":92,"rain":0.0,"pressure":1009.8,"uv_index":9.1,"wind_gusts":25.6,"aqi":35,"pm10":6.6,"pm2_5":5.1,"mosquito_risk":3,"arthritis_risk":0,"migraine_risk":4,"frizz_risk":1,"updated_at":"2026-03-20T04:02:34.464620+05:30"},{"city":"Port Blair","state":"Andaman and Nicobar Islands","latitude":11.6234,"longitude":92.7265,"temp":27.9,"humidity":77,"rain":0.0,"pressure":1007.3,"uv_index":9.1,"wind_gusts":11.9,"aqi":49,"pm10":13.8,"pm2_5":10.7,"mosquito_risk":7,"arthritis_risk":5,"migraine_risk":4,"frizz_risk":1,"updated_at":"2026-03-20T04:02:34.464627+05:30"},{"city":"Haridwar","state":"Uttarakhand","latitude":29.9457,"longitude":78.1642,"temp":18.8,"humidity":72,"rain":0.0,"pressure":975.8,"uv_index":2.35,"wind_gusts":27.7,"aqi":77,"pm10":28.1,"pm2_5":17.9,"mosquito_risk":3,"arthritis_risk":5,"migraine_risk":3,"frizz_risk":0,"updated_at":"2026-03-20T04:02:34.464633+05:30"},{"city":"Rishikesh","state":"Uttarakhand","latitude":30.0869,"longitude":78.2676,"temp":18.7,"humidity":67,"rain":0.0,"pressure":968.6,"uv_index":2.45,"wind_gusts":27.7,"aqi":65,"pm10":31.5,"pm2_5":15.2,"mosquito_risk":3,"arthritis_risk":5,"migraine_risk":3,"frizz_risk":0,"updated_at":"2026-03-20T04:02:34.464640+05:30"},{"city":"Nainital","state":"Uttarakhand","latitude":29.3919,"longitude":79.4542,"temp":13.8,"humidity":69,"rain":0.0,"pressure":804.5,"uv_index":1.75,"wind_gusts":72.4,"aqi":67,"pm10":26.5,"pm2_5":15.8,"mosquito_risk":3,"arthritis_risk":5,"migraine_risk":3,"frizz_risk":0,"updated_at":"2026-03-20T04:02:34.464646+05:30"},{"city":"Mussoorie","state":"Uttarakhand","latitude":30.4599,"longitude":78.0664,"temp":11.3,"humidity":74,"rain":0.0,"pressure":800.3,"uv_index":0.6,"wind_gusts":46.8,"aqi":65,"pm10":36.4,"pm2_5":14.8,"mosquito_risk":3,"arthritis_risk":5,"migraine_risk":3,"frizz_risk":0,"updated_at":"2026-03-20T04:02:34.464652+05:30"},{"city":"Dharamshala","state":"Himachal Pradesh","latitude":32.219,"longitude":76.3234,"temp":12.1,"humidity":81,"rain":1.0,"pressure":866.3,"uv_index":1.45,"wind_gusts":26.3,"aqi":43,"pm10":4.1,"pm2_5":3.5,"mosquito_risk":6,"arthritis_risk":10,"migraine_risk":3,"frizz_risk":0,"updated_at":"2026-03-20T04:02:34.464658+05:30"},{"city":"Dalhousie","state":"Himachal Pradesh","latitude":32.5387,"longitude":75.971,"temp":8.7,"humidity":86,"rain":0.9,"pressure":799.1,"uv_index":2.15,"wind_gusts":24.5,"aqi":72,"pm10":13.4,"pm2_5":10.6,"mosquito_risk":6,"arthritis_risk":10,"migraine_risk":3,"frizz_risk":0,"updated_at":"2026-03-20T04:02:34.464665+05:30"},{"city":"Patiala","state":"Punjab","latitude":30.3398,"longitude":76.3869,"temp":14.9,"humidity":100,"rain":0.0,"pressure":979.8,"uv_index":1.1,"wind_gusts":18.4,"aqi":101,"pm10":42.8,"pm2_5":21.9,"mosquito_risk":3,"arthritis_risk":10,"migraine_risk":3,"frizz_risk":0,"updated_at":"2026-03-20T04:02:34.464671+05:30"},{"city":"Bhatinda","state":"Punjab","latitude":30.211,"longitude":74.9455,"temp":16.6,"humidity":99,"rain":0.0,"pressure":985.8,"uv_index":3.95,"wind_gusts":20.5,"aqi":91,"pm10":66.6,"pm2_5":52.7,"mosquito_risk":3,"arthritis_risk":10,"migraine_risk":3,"frizz_risk":1,"updated_at":"2026-03-20T04:02:34.464677+05:30"},{"city":"Rohtak","state":"Haryana","latitude":28.8955,"longitude":76.6066,"temp":16.3,"humidity":99,"rain":0.0,"pressure":983.3,"uv_index":2.1,"wind_gusts":12.2,"aqi":145,"pm10":147.6,"pm2_5":57.4,"mosquito_risk":3,"arthritis_risk":10,"migraine_risk":3,"frizz_risk":1,"updated_at":"2026-03-20T04:02:34.464683+05:30"},{"city":"Panipat","state":"Haryana","latitude":29.3909,"longitude":76.9635,"temp":15.2,"humidity":99,"rain":0.0,"pressure":981.9,"uv_index":1.85,"wind_gusts":15.5,"aqi":151,"pm10":141.1,"pm2_5":63.3,"mosquito_risk":3,"arthritis_risk":10,"migraine_risk":3,"frizz_risk":0,"updated_at":"2026-03-20T04:02:34.464690+05:30"},{"city":"Mathura","state":"Uttar Pradesh","latitude":27.4924,"longitude":77.6737,"temp":17.6,"humidity":92,"rain":0.0,"pressure":988.2,"uv_index":5.75,"wind_gusts":23.0,"aqi":140,"pm10":122.5,"pm2_5":56.0,"mosquito_risk":3,"arthritis_risk":10,"migraine_risk":3,"frizz_risk":1,"updated_at":"2026-03-20T04:02:34.464696+05:30"},{"city":"Vrindavan","state":"Uttar Pradesh","latitude":27.5823,"longitude":77.7027,"temp":17.4,"humidity":91,"rain":0.0,"pressure":988.6,"uv_index":5.65,"wind_gusts":22.3,"aqi":140,"pm10":122.5,"pm2_5":56.0,"mosquito_risk":3,"arthritis_risk":10,"migraine_risk":3,"frizz_risk":0,"updated_at":"2026-03-20T04:02:34.464701+05:30"},{"city":"Ayodhya","state":"Uttar Pradesh","latitude":26.7922,"longitude":82.1998,"temp":20.5,"humidity":65,"rain":0.0,"pressure":996.3,"uv_index":6.55,"wind_gusts":32.8,"aqi":123,"pm10":77.1,"pm2_5":56.9,"mosquito_risk":3,"arthritis_risk":5,"migraine_risk":7,"frizz_risk":0,"updated_at":"2026-03-20T04:02:34.464707+05:30"},{"city":"Ratlam","state":"Madhya Pradesh","latitude":23.3315,"longitude":75.0367,"temp":20.7,"humidity":78,"rain":0.0,"pressure":954.8,"uv_index":7.75,"wind_gusts":37.8,"aqi":52,"pm10":52.7,"pm2_5":20.1,"mosquito_risk":3,"arthritis_risk":5,"migraine_risk":7,"frizz_risk":1,"updated_at":"2026-03-20T04:02:34.464714+05:30"},{"city":"Sagar","state":"Madhya Pradesh","latitude":23.8388,"longitude":78.7378,"temp":20.9,"humidity":64,"rain":0.0,"pressure":949.8,"uv_index":6.9,"wind_gusts":29.9,"aqi":56,"pm10":32.8,"pm2_5":18.8,"mosquito_risk":3,"arthritis_risk":5,"migraine_risk":7,"frizz_risk":0,"updated_at":"2026-03-20T04:02:34.464719+05:30"},{"city":"Satna","state":"Madhya Pradesh","latitude":24.6005,"longitude":80.8322,"temp":25.4,"humidity":36,"rain":0.0,"pressure":971.3,"uv_index":6.05,"wind_gusts":49.0,"aqi":70,"pm10":27.8,"pm2_5":21.9,"mosquito_risk":4,"arthritis_risk":5,"migraine_risk":7,"frizz_risk":0,"updated_at":"2026-03-20T04:02:34.464726+05:30"},{"city":"Akola","state":"Maharashtra","latitude":20.7002,"longitude":77.0082,"temp":22.2,"humidity":76,"rain":0.0,"pressure":975.9,"uv_index":8.2,"wind_gusts":24.1,"aqi":88,"pm10":28.6,"pm2_5":17.9,"mosquito_risk":3,"arthritis_risk":5,"migraine_risk":7,"frizz_risk":1,"updated_at":"2026-03-20T04:02:34.464732+05:30"},{"city":"Amravati","state":"Maharashtra","latitude":20.9374,"longitude":77.7796,"temp":22.2,"humidity":74,"rain":0.0,"pressure":968.2,"uv_index":8.0,"wind_gusts":21.2,"aqi":94,"pm10":26.3,"pm2_5":17.3,"mosquito_risk":3,"arthritis_risk":5,"migraine_risk":7,"frizz_risk":1,"updated_at":"2026-03-20T04:02:34.464739+05:30"},{"city":"Latur","state":"Maharashtra","latitude":18.4088,"longitude":76.5604,"temp":20.6,"humidity":70,"rain":0.0,"pressure":939.0,"uv_index":8.6,"wind_gusts":29.2,"aqi":78,"pm10":46.9,"pm2_5":30.9,"mosquito_risk":3,"arthritis_risk":5,"migraine_risk":7,"frizz_risk":0,"updated_at":"2026-03-20T04:02:34.464773+05:30"},{"city":"Nanded","state":"Maharashtra","latitude":19.1383,"longitude":77.3091,"temp":22.1,"humidity":75,"rain":0.0,"pressure":969.0,"uv_index":8.4,"wind_gusts":26.6,"aqi":84,"pm10":27.3,"pm2_5":20.2,"mosquito_risk":3,"arthritis_risk":5,"migraine_risk":7,"frizz_risk":1,"updated_at":"2026-03-20T04:02:34.464781+05:30"},{"city":"Gulbarga","state":"Karnataka","latitude":17.3297,"longitude":76.8343,"temp":22.8,"humidity":63,"rain":0.0,"pressure":958.6,"uv_index":8.7,"wind_gusts":24.5,"aqi":74,"pm10":38.1,"pm2_5":24.1,"mosquito_risk":3,"arthritis_risk":5,"migraine_risk":7,"frizz_risk":0,"updated_at":"2026-03-20T04:02:34.464787+05:30"},{"city":"Bidar","state":"Karnataka","latitude":17.9104,"longitude":77.5199,"temp":21.7,"humidity":66,"rain":0.0,"pressure":935.0,"uv_index":8.65,"wind_gusts":24.5,"aqi":79,"pm10":31.3,"pm2_5":23.1,"mosquito_risk":3,"arthritis_risk":5,"migraine_risk":7,"frizz_risk":0,"updated_at":"2026-03-20T04:02:34.464793+05:30"},{"city":"Hospet","state":"Karnataka","latitude":15.2689,"longitude":76.3909,"temp":24.2,"humidity":75,"rain":0.0,"pressure":955.9,"uv_index":8.95,"wind_gusts":21.2,"aqi":75,"pm10":28.2,"pm2_5":21.6,"mosquito_risk":3,"arthritis_risk":5,"migraine_risk":7,"frizz_risk":1,"updated_at":"2026-03-20T04:02:34.464799+05:30"},{"city":"Tirupur","state":"Tamil Nadu","latitude":11.1085,"longitude":77.3411,"temp":23.3,"humidity":84,"rain":0.0,"pressure":976.1,"uv_index":9.4,"wind_gusts":28.1,"aqi":70,"pm10":31.3,"pm2_5":24.6,"mosquito_risk":3,"arthritis_risk":5,"migraine_risk":7,"frizz_risk":1,"updated_at":"2026-03-20T04:02:34.464805+05:30"},{"city":"Alappuzha","state":"Kerala","latitude":9.4981,"longitude":76.3388,"temp":28.0,"humidity":81,"rain":0.0,"pressure":1008.5,"uv_index":9.15,"wind_gusts":30.6,"aqi":58,"pm10":23.1,"pm2_5":20.5,"mosquito_risk":7,"arthritis_risk":0,"migraine_risk":4,"frizz_risk":1,"updated_at":"2026-03-20T04:02:34.464811+05:30"},{"city":"Munnar","state":"Kerala","latitude":10.0889,"longitude":77.0595,"temp":17.6,"humidity":89,"rain":0.0,"pressure":855.2,"uv_index":9.65,"wind_gusts":38.9,"aqi":48,"pm10":16.6,"pm2_5":15.4,"mosquito_risk":3,"arthritis_risk":10,"migraine_risk":7,"frizz_risk":0,"updated_at":"2026-03-20T04:02:34.464818+05:30"},{"city":"Silchar","state":"Assam","latitude":24.8333,"longitude":92.7789,"temp":21.9,"humidity":80,"rain":0.0,"pressure":1006.6,"uv_index":7.3,"wind_gusts":23.4,"aqi":98,"pm10":44.2,"pm2_5":40.7,"mosquito_risk":3,"arthritis_risk":5,"migraine_risk":4,"frizz_risk":1,"updated_at":"2026-03-20T04:02:34.464825+05:30"},{"city":"Dibrugarh","state":"Assam","latitude":27.4728,"longitude":94.912,"temp":19.2,"humidity":93,"rain":0.0,"pressure":999.8,"uv_index":6.2,"wind_gusts":13.3,"aqi":85,"pm10":32.0,"pm2_5":27.4,"mosquito_risk":3,"arthritis_risk":10,"migraine_risk":7,"frizz_risk":1,"updated_at":"2026-03-20T04:02:34.464833+05:30"}]