[{"city":"Delhi","state":"Delhi","latitude":28.6139,"longitude":77.209,"temp":28.8,"humidity":49,"rain":0.0,"pressure":982.8,"uv_index":7.55,"wind_gusts":46.8,"aqi":178,"pm10":499.2,"pm2_5":66.8,"no2":5.2,"co":302.0,"o3":196.0,"so2":17.1,"mosquito_risk":4,"arthritis_risk":5,"migraine_risk":7,"frizz_risk":1,"updated_at":"2026-05-07T15:05:18.753418+05:30"},{"city":"Mumbai","state":"Maharashtra","latitude":19.076,"longitude":72.8777,"temp":33.6,"humidity":62,"rain":0.0,"pressure":1004.9,"uv_index":7.9,"wind_gusts":44.3,"aqi":99,"pm10":99.0,"pm2_5":33.3,"no2":4.9,"co":223.0,"o3":135.0,"so2":17.0,"mosquito_risk":3,"arthritis_risk":5,"migraine_risk":4,"frizz_risk":1,"updated_at":"2026-05-07T15:05:18.753461+05:30"},{"city":"Bangalore","state":"Karnataka","latitude":12.9716,"longitude":77.5946,"temp":33.0,"humidity":31,"rain":0.0,"pressure":909.7,"uv_index":9.35,"wind_gusts":29.5,"aqi":83,"pm10":29.5,"pm2_5":18.9,"no2":3.5,"co":297.0,"o3":142.0,"so2":5.5,"mosquito_risk":0,"arthritis_risk":5,"migraine_risk":7,"frizz_risk":0,"updated_at":"2026-05-07T15:05:18.753475+05:30"},{"city":"Hyderabad","state":"Telangana","latitude":17.385,"longitude":78.4867,"temp":35.2,"humidity":29,"rain":0.0,"pressure":951.4,"uv_index":9.25,"wind_gusts":29.5,"aqi":67,"pm10":29.9,"pm2_5":17.4,"no2":2.0,"co":250.0,"o3":144.0,"so2":3.9,"mosquito_risk":0,"arthritis_risk":5,"migraine_risk":10,"frizz_risk":0,"updated_at":"2026-05-07T15:05:18.753484+05:30"},{"city":"Chennai","state":"Tamil Nadu","latitude":13.0827,"longitude":80.2707,"temp":32.5,"humidity":59,"rain":0.0,"pressure":1003.8,"uv_index":9.25,"wind_gusts":40.0,"aqi":33,"pm10":6.7,"pm2_5":5.4,"no2":1.9,"co":138.0,"o3":59.0,"so2":6.5,"mosquito_risk":0,"arthritis_risk":5,"migraine_risk":4,"frizz_risk":1,"updated_at":"2026-05-07T15:05:18.753495+05:30"},{"city":"Kolkata","state":"West Bengal","latitude":22.5726,"longitude":88.3639,"temp":30.3,"humidity":71,"rain":0.0,"pressure":1005.2,"uv_index":8.9,"wind_gusts":37.8,"aqi":90,"pm10":34.9,"pm2_5":29.2,"no2":2.7,"co":361.0,"o3":173.0,"so2":16.2,"mosquito_risk":3,"arthritis_risk":5,"migraine_risk":4,"frizz_risk":1,"updated_at":"2026-05-07T15:05:18.753503+05:30"},{"city":"Pune","state":"Maharashtra","latitude":18.5204,"longitude":73.8567,"temp":37.5,"humidity":18,"rain":0.0,"pressure":945.6,"uv_index":8.45,"wind_gusts":32.0,"aqi":82,"pm10":47.4,"pm2_5":17.5,"no2":1.8,"co":197.0,"o3":160.0,"so2":4.9,"mosquito_risk":0,"arthritis_risk":5,"migraine_risk":10,"frizz_risk":0,"updated_at":"2026-05-07T15:05:18.753510+05:30"},{"city":"Ahmedabad","state":"Gujarat","latitude":23.0225,"longitude":72.5714,"temp":41.6,"humidity":15,"rain":0.0,"pressure":998.0,"uv_index":8.1,"wind_gusts":29.5,"aqi":91,"pm10":80.8,"pm2_5":22.9,"no2":1.7,"co":178.0,"o3":149.0,"so2":5.9,"mosquito_risk":0,"arthritis_risk":5,"migraine_risk":10,"frizz_risk":0,"updated_at":"2026-05-07T15:05:18.753518+05:30"},{"city":"Jaipur","state":"Rajasthan","latitude":26.9124,"longitude":75.7873,"temp":38.5,"humidity":12,"rain":0.0,"pressure":957.1,"uv_index":8.1,"wind_gusts":45.0,"aqi":96,"pm10":254.3,"pm2_5":38.3,"no2":1.2,"co":209.0,"o3":153.0,"so2":4.0,"mosquito_risk":0,"arthritis_risk":5,"migraine_risk":10,"frizz_risk":0,"updated_at":"2026-05-07T15:05:18.753525+05:30"},{"city":"Lucknow","state":"Uttar Pradesh","latitude":26.8467,"longitude":80.9462,"temp":31.2,"humidity":43,"rain":0.0,"pressure":993.8,"uv_index":8.05,"wind_gusts":32.4,"aqi":105,"pm10":95.9,"pm2_5":29.5,"no2":1.6,"co":274.0,"o3":180.0,"so2":8.0,"mosquito_risk":0,"arthritis_risk":5,"migraine_risk":7,"frizz_risk":1,"updated_at":"2026-05-07T15:05:18.753532+05:30"},{"city":"Kanpur","state":"Uttar Pradesh","latitude":26.4499,"longitude":80.3319,"temp":32.7,"humidity":32,"rain":0.0,"pressure":991.8,"uv_index":8.05,"wind_gusts":38.9,"aqi":131,"pm10":155.5,"pm2_5":33.2,"no2":1.6,"co":221.0,"o3":179.0,"so2":6.5,"mosquito_risk":0,"arthritis_risk":5,"migraine_risk":7,"frizz_risk":0,"updated_at":"2026-05-07T15:05:18.753538+05:30"},{"city":"Chandigarh","state":"Chandigarh","latitude":30.7333,"longitude":76.7794,"temp":29.8,"humidity":34,"rain":0.0,"pressure":969.4,"uv_index":5.55,"wind_gusts":44.6,"aqi":147,"pm10":39.2,"pm2_5":17.2,"no2":2.0,"co":277.0,"o3":198.0,"so2":6.8,"mosquito_risk":4,"arthritis_risk":5,"migraine_risk":3,"frizz_risk":0,"updated_at":"2026-05-07T15:05:18.753561+05:30"},{"city":"Srinagar","state":"Jammu and Kashmir","latitude":34.0837,"longitude":74.7973,"temp":23.7,"humidity":30,"rain":0.0,"pressure":841.2,"uv_index":8.7,"wind_gusts":35.3,"aqi":74,"pm10":45.5,"pm2_5":10.7,"no2":1.2,"co":281.0,"o3":139.0,"so2":1.4,"mosquito_risk":0,"arthritis_risk":5,"migraine_risk":7,"frizz_risk":0,"updated_at":"2026-05-07T15:05:18.753571+05:30"},{"city":"Jammu","state":"Jammu and Kashmir","latitude":32.7266,"longitude":74.857,"temp":32.6,"humidity":25,"rain":0.0,"pressure":972.4,"uv_index":8.3,"wind_gusts":30.6,"aqi":124,"pm10":27.2,"pm2_5":14.7,"no2":1.4,"co":243.0,"o3":185.0,"so2":5.7,"mosquito_risk":0,"arthritis_risk":5,"migraine_risk":7,"frizz_risk":0,"updated_at":"2026-05-07T15:05:18.753578+05:30"},{"city":"Amritsar","state":"Punjab","latitude":31.634,"longitude":74.8723,"temp":34.5,"humidity":23,"rain":0.0,"pressure":979.8,"uv_index":8.2,"wind_gusts":32.0,"aqi":122,"pm10":75.7,"pm2_5":24.2,"no2":1.2,"co":286.0,"o3":189.0,"so2":8.7,"mosquito_risk":0,"arthritis_risk":5,"migraine_risk":7,"frizz_risk":0,"updated_at":"2026-05-07T15:05:18.753584+05:30"},{"city":"Ludhiana","state":"Punjab","latitude":30.901,"longitude":75.8573,"temp":32.8,"humidity":32,"rain":0.0,"pressure":977.8,"uv_index":7.8,"wind_gusts":34.6,"aqi":125,"pm10":299.9,"pm2_5":48.0,"no2":1.5,"co":284.0,"o3":195.0,"so2":6.2,"mosquito_risk":0,"arthritis_risk":5,"migraine_risk":7,"frizz_risk":0,"updated_at":"2026-05-07T15:05:18.753589+05:30"},{"city":"Jalandhar","state":"Punjab","latitude":31.326,"longitude":75.5762,"temp":32.7,"humidity":29,"rain":0.0,"pressure":978.9,"uv_index":7.95,"wind_gusts":29.2,"aqi":113,"pm10":117.6,"pm2_5":30.6,"no2":1.2,"co":287.0,"o3":191.0,"so2":6.9,"mosquito_risk":0,"arthritis_risk":5,"migraine_risk":7,"frizz_risk":0,"updated_at":"2026-05-07T15:05:18.753596+05:30"},{"city":"Dehradun","state":"Uttarakhand","latitude":30.6284,"longitude":78.0322,"temp":17.2,"humidity":61,"rain":0.0,"pressure":831.1,"uv_index":6.05,"wind_gusts":28.4,"aqi":117,"pm10":44.5,"pm2_5":23.1,"no2":1.9,"co":202.0,"o3":158.0,"so2":2.9,"mosquito_risk":3,"arthritis_risk":5,"migraine_risk":7,"frizz_risk":0,"updated_at":"2026-05-07T15:05:18.753605+05:30"},{"city":"Shimla","state":"Himachal Pradesh","latitude":31.1048,"longitude":77.1734,"temp":15.3,"humidity":53,"rain":0.0,"pressure":785.0,"uv_index":5.5,"wind_gusts":33.5,"aqi":123,"pm10":37.4,"pm2_5":20.5,"no2":1.3,"co":190.0,"o3":175.0,"so2":4.3,"mosquito_risk":0,"arthritis_risk":5,"migraine_risk":3,"frizz_risk":0,"updated_at":"2026-05-07T15:05:18.753612+05:30"},{"city":"Manali","state":"Himachal Pradesh","latitude":32.2396,"longitude":77.1887,"temp":15.3,"humidity":63,"rain":0.0,"pressure":817.3,"uv_index":9.15,"wind_gusts":28.8,"aqi":97,"pm10":49.9,"pm2_5":9.3,"no2":0.8,"co":152.0,"o3":145.0,"so2":0.4,"mosquito_risk":3,"arthritis_risk":5,"migraine_risk":7,"frizz_risk":0,"updated_at":"2026-05-07T15:05:18.753618+05:30"},{"city":"Gurgaon","state":"Haryana","latitude":28.4595,"longitude":77.0266,"temp":33.2,"humidity":31,"rain":0.0,"pressure":980.3,"uv_index":7.65,"wind_gusts":51.5,"aqi":1034,"pm10":1840.3,"pm2_5":183.5,"no2":3.9,"co":271.0,"o3":191.0,"so2":12.7,"mosquito_risk":0,"arthritis_risk":5,"migraine_risk":7,"frizz_risk":0,"updated_at":"2026-05-07T15:05:18.753625+05:30"},{"city":"Noida","state":"Uttar Pradesh","latitude":28.5355,"longitude":77.391,"temp":30.0,"humidity":44,"rain":0.0,"pressure":984.5,"uv_index":7.55,"wind_gusts":45.7,"aqi":1034,"pm10":1840.3,"pm2_5":183.5,"no2":3.9,"co":281.0,"o3":191.0,"so2":12.7,"mosquito_risk":4,"arthritis_risk":5,"migraine_risk":7,"frizz_risk":1,"updated_at":"2026-05-07T15:05:18.753630+05:30"},{"city":"Ghaziabad","state":"Uttar Pradesh","latitude":28.6692,"longitude":77.4538,"temp":30.5,"humidity":39,"rain":0.0,"pressure":982.9,"uv_index":7.55,"wind_gusts":46.1,"aqi":130,"pm10":148.1,"pm2_5":28.9,"no2":2.4,"co":275.0,"o3":169.0,"so2":5.4,"mosquito_risk":0,"arthritis_risk":5,"migraine_risk":7,"frizz_risk":0,"updated_at":"2026-05-07T15:05:18.753637+05:30"},{"city":"Faridabad","state":"Haryana","latitude":28.4089,"longitude":77.3178,"temp":30.5,"humidity":44,"rain":0.0,"pressure":983.4,"uv_index":7.6,"wind_gusts":48.6,"aqi":1034,"pm10":1840.3,"pm2_5":183.5,"no2":3.9,"co":260.0,"o3":191.0,"so2":12.7,"mosquito_risk":0,"arthritis_risk":5,"migraine_risk":7,"frizz_risk":1,"updated_at":"2026-05-07T15:05:18.753642+05:30"},{"city":"Meerut","state":"Uttar Pradesh","latitude":28.9845,"longitude":77.7064,"temp":29.1,"humidity":48,"rain":0.0,"pressure":982.0,"uv_index":6.95,"wind_gusts":37.8,"aqi":130,"pm10":148.1,"pm2_5":28.9,"no2":2.4,"co":271.0,"o3":169.0,"so2":5.4,"mosquito_risk":4,"arthritis_risk":5,"migraine_risk":7,"frizz_risk":1,"updated_at":"2026-05-07T15:05:18.753648+05:30"},{"city":"Agra","state":"Uttar Pradesh","latitude":27.1767,"longitude":78.0081,"temp":33.7,"humidity":32,"rain":0.0,"pressure":986.7,"uv_index":7.9,"wind_gusts":51.1,"aqi":737,"pm10":1009.6,"pm2_5":100.6,"no2":1.5,"co":242.0,"o3":176.0,"so2":7.7,"mosquito_risk":0,"arthritis_risk":5,"migraine_risk":7,"frizz_risk":0,"updated_at":"2026-05-07T15:05:18.753653+05:30"},{"city":"Varanasi","state":"Uttar Pradesh","latitude":25.3176,"longitude":82.9739,"temp":32.2,"humidity":36,"rain":0.0,"pressure":997.3,"uv_index":8.6,"wind_gusts":28.8,"aqi":124,"pm10":75.0,"pm2_5":27.9,"no2":1.8,"co":334.0,"o3":184.0,"so2":8.7,"mosquito_risk":0,"arthritis_risk":5,"migraine_risk":7,"frizz_risk":0,"updated_at":"2026-05-07T15:05:18.753659+05:30"},{"city":"Prayagraj","state":"Uttar Pradesh","latitude":25.4358,"longitude":81.8463,"temp":35.0,"humidity":27,"rain":0.0,"pressure":995.5,"uv_index":8.45,"wind_gusts":33.1,"aqi":119,"pm10":83.1,"pm2_5":28.3,"no2":1.7,"co":261.0,"o3":182.0,"so2":7.5,"mosquito_risk":0,"arthritis_risk":5,"migraine_risk":7,"frizz_risk":0,"updated_at":"2026-05-07T15:05:18.753667+05:30"},{"city":"Gorakhpur","state":"Uttar Pradesh","latitude":26.7606,"longitude":83.3732,"temp":31.5,"humidity":45,"rain":0.0,"pressure":997.8,"uv_index":8.4,"wind_gusts":33.5,"aqi":120,"pm10":53.8,"pm2_5":27.9,"no2":1.5,"co":313.0,"o3":173.0,"so2":5.3,"mosquito_risk":0,"arthritis_risk":5,"migraine_risk":7,"frizz_risk":1,"updated_at":"2026-05-07T15:05:18.753672+05:30"},{"city":"Bareilly","state":"Uttar Pradesh","latitude":28.367,"longitude":79.4304,"temp":30.0,"humidity":48,"rain":0.0,"pressure":987.3,"uv_index":7.45,"wind_gusts":41.8,"aqi":108,"pm10":103.6,"pm2_5":32.1,"no2":1.6,"co":284.0,"o3":190.0,"so2":10.9,"mosquito_risk":4,"arthritis_risk":5,"migraine_risk":7,"frizz_risk":1,"updated_at":"2026-05-07T15:05:18.753677+05:30"},{"city":"Aligarh","state":"Uttar Pradesh","latitude":27.8974,"longitude":78.088,"temp":32.7,"humidity":33,"rain":0.0,"pressure":985.2,"uv_index":7.7,"wind_gusts":47.5,"aqi":322,"pm10":514.1,"pm2_5":57.0,"no2":1.5,"co":228.0,"o3":169.0,"so2":7.8,"mosquito_risk":0,"arthritis_risk":5,"migraine_risk":7,"frizz_risk":0,"updated_at":"2026-05-07T15:05:18.753683+05:30"},{"city":"Moradabad","state":"Uttar Pradesh","latitude":28.8386,"longitude":78.7733,"temp":29.6,"humidity":50,"rain":0.0,"pressure":984.2,"uv_index":7.5,"wind_gusts":35.6,"aqi":120,"pm10":87.3,"pm2_5":32.2,"no2":2.5,"co":265.0,"o3":203.0,"so2":17.1,"mosquito_risk":4,"arthritis_risk":5,"migraine_risk":7,"frizz_risk":1,"updated_at":"2026-05-07T15:05:18.753688+05:30"},{"city":"Saharanpur","state":"Uttar Pradesh","latitude":29.9637,"longitude":77.546,"temp":28.5,"humidity":48,"rain":0.0,"pressure":976.4,"uv_index":6.95,"wind_gusts":39.6,"aqi":124,"pm10":81.5,"pm2_5":26.2,"no2":1.7,"co":256.0,"o3":186.0,"so2":8.5,"mosquito_risk":4,"arthritis_risk":5,"migraine_risk":7,"frizz_risk":1,"updated_at":"2026-05-07T15:05:18.753693+05:30"},{"city":"Jhansi","state":"Uttar Pradesh","latitude":25.4484,"longitude":78.5685,"temp":35.2,"humidity":23,"rain":0.0,"pressure":977.1,"uv_index":8.3,"wind_gusts":42.1,"aqi":112,"pm10":42.0,"pm2_5":17.1,"no2":1.3,"co":220.0,"o3":172.0,"so2":12.4,"mosquito_risk":0,"arthritis_risk":5,"migraine_risk":10,"frizz_risk":0,"updated_at":"2026-05-07T15:05:22.129497+05:30"},{"city":"Surat","state":"Gujarat","latitude":21.1702,"longitude":72.8311,"temp":39.9,"humidity":27,"rain":0.0,"pressure":1002.6,"uv_index":7.7,"wind_gusts":33.8,"aqi":129,"pm10":110.1,"pm2_5":58.9,"no2":55.7,"co":925.0,"o3":108.0,"so2":117.2,"mosquito_risk":0,"arthritis_risk":5,"migraine_risk":7,"frizz_risk":1,"updated_at":"2026-05-07T15:05:22.129529+05:30"},{"city":"Vadodara","state":"Gujarat","latitude":22.3072,"longitude":73.1812,"temp":41.7,"humidity":15,"rain":0.0,"pressure":1000.2,"uv_index":8.05,"wind_gusts":38.9,"aqi":119,"pm10":78.5,"pm2_5":29.6,"no2":2.3,"co":210.0,"o3":200.0,"so2":13.9,"mosquito_risk":0,"arthritis_risk":5,"migraine_risk":7,"frizz_risk":0,"updated_at":"2026-05-07T15:05:22.129537+05:30"},{"city":"Rajkot","state":"Gujarat","latitude":22.3039,"longitude":70.8022,"temp":41.6,"humidity":12,"rain":0.0,"pressure":990.7,"uv_index":7.7,"wind_gusts":47.2,"aqi":72,"pm10":82.0,"pm2_5":22.8,"no2":0.9,"co":152.0,"o3":143.0,"so2":4.6,"mosquito_risk":0,"arthritis_risk":5,"migraine_risk":10,"frizz_risk":0,"updated_at":"2026-05-07T15:05:22.129567+05:30"},{"city":"Thane","state":"Maharashtra","latitude":19.2183,"longitude":72.9781,"temp":37.8,"humidity":33,"rain":0.0,"pressure":1003.8,"uv_index":7.9,"wind_gusts":35.6,"aqi":99,"pm10":99.0,"pm2_5":33.3,"no2":4.9,"co":218.0,"o3":135.0,"so2":17.0,"mosquito_risk":0,"arthritis_risk":5,"migraine_risk":7,"frizz_risk":1,"updated_at":"2026-05-07T15:05:22.129575+05:30"},{"city":"Nagpur","state":"Maharashtra","latitude":21.1458,"longitude":79.0882,"temp":39.0,"humidity":19,"rain":0.0,"pressure":971.3,"uv_index":8.9,"wind_gusts":49.7,"aqi":159,"pm10":54.6,"pm2_5":34.2,"no2":5.0,"co":220.0,"o3":229.0,"so2":25.5,"mosquito_risk":0,"arthritis_risk":5,"migraine_risk":10,"frizz_risk":0,"updated_at":"2026-05-07T15:05:22.129581+05:30"},{"city":"Nashik","state":"Maharashtra","latitude":19.9975,"longitude":73.7898,"temp":37.2,"humidity":20,"rain":0.0,"pressure":943.5,"uv_index":8.15,"wind_gusts":45.4,"aqi":103,"pm10":63.8,"pm2_5":21.8,"no2":1.2,"co":191.0,"o3":156.0,"so2":5.9,"mosquito_risk":0,"arthritis_risk":5,"migraine_risk":10,"frizz_risk":0,"updated_at":"2026-05-07T15:05:22.129587+05:30"},{"city":"Aurangabad","state":"Maharashtra","latitude":19.8762,"longitude":75.3433,"temp":37.7,"humidity":17,"rain":0.0,"pressure":942.1,"uv_index":9.05,"wind_gusts":32.0,"aqi":121,"pm10":49.2,"pm2_5":17.8,"no2":1.3,"co":195.0,"o3":167.0,"so2":8.0,"mosquito_risk":0,"arthritis_risk":5,"migraine_risk":10,"frizz_risk":0,"updated_at":"2026-05-07T15:05:22.129594+05:30"},{"city":"Solapur","state":"Maharashtra","latitude":17.6599,"longitude":75.9064,"temp":38.0,"humidity":23,"rain":0.0,"pressure":954.1,"uv_index":9.05,"wind_gusts":43.9,"aqi":94,"pm10":40.6,"pm2_5":20.9,"no2":1.3,"co":201.0,"o3":162.0,"so2":5.1,"mosquito_risk":0,"arthritis_risk":5,"migraine_risk":10,"frizz_risk":0,"updated_at":"2026-05-07T15:05:22.129600+05:30"},{"city":"Kolhapur","state":"Maharashtra","latitude":16.705,"longitude":74.2433,"temp":36.5,"humidity":24,"rain":0.0,"pressure":945.0,"uv_index":8.95,"wind_gusts":48.2,"aqi":83,"pm10":47.0,"pm2_5":27.0,"no2":2.2,"co":211.0,"o3":178.0,"so2":7.1,"mosquito_risk":0,"arthritis_risk":5,"migraine_risk":10,"frizz_risk":0,"updated_at":"2026-05-07T15:05:22.129606+05:30"},{"city":"Goa","state":"Goa","latitude":15.2993,"longitude":74.124,"temp":33.7,"humidity":52,"rain":0.1,"pressure":994.7,"uv_index":8.9,"wind_gusts":35.6,"aqi":73,"pm10":59.5,"pm2_5":27.6,"no2":0.8,"co":169.0,"o3":113.0,"so2":3.1,"mosquito_risk":3,"arthritis_risk":5,"migraine_risk":7,"frizz_risk":1,"updated_at":"2026-05-07T15:05:22.129613+05:30"},{"city":"Jodhpur","state":"Rajasthan","latitude":26.2389,"longitude":73.0243,"temp":41.0,"humidity":11,"rain":0.0,"pressure":979.4,"uv_index":8.3,"wind_gusts":38.5,"aqi":107,"pm10":192.8,"pm2_5":32.0,"no2":0.7,"co":167.0,"o3":149.0,"so2":4.0,"mosquito_risk":0,"arthritis_risk":5,"migraine_risk":10,"frizz_risk":0,"updated_at":"2026-05-07T15:05:22.129618+05:30"},{"city":"Udaipur","state":"Rajasthan","latitude":24.5854,"longitude":73.7125,"temp":36.6,"humidity":16,"rain":0.0,"pressure":944.9,"uv_index":8.75,"wind_gusts":31.3,"aqi":82,"pm10":85.4,"pm2_5":18.6,"no2":0.5,"co":160.0,"o3":141.0,"so2":2.6,"mosquito_risk":0,"arthritis_risk":5,"migraine_risk":10,"frizz_risk":0,"updated_at":"2026-05-07T15:05:22.129624+05:30"},{"city":"Kota","state":"Rajasthan","latitude":25.2138,"longitude":75.8648,"temp":40.0,"humidity":14,"rain":0.0,"pressure":976.0,"uv_index":8.3,"wind_gusts":39.6,"aqi":93,"pm10":91.5,"pm2_5":19.8,"no2":1.1,"co":171.0,"o3":156.0,"so2":3.9,"mosquito_risk":0,"arthritis_risk":5,"migraine_risk":10,"frizz_risk":0,"updated_at":"2026-05-07T15:05:22.129630+05:30"},{"city":"Bikaner","state":"Rajasthan","latitude":28.0229,"longitude":73.3119,"temp":41.5,"humidity":10,"rain":0.0,"pressure":977.5,"uv_index":8.25,"wind_gusts":37.1,"aqi":98,"pm10":65.9,"pm2_5":17.0,"no2":0.4,"co":164.0,"o3":152.0,"so2":8.6,"mosquito_risk":0,"arthritis_risk":5,"migraine_risk":10,"frizz_risk":0,"updated_at":"2026-05-07T15:05:22.129636+05:30"},{"city":"Ajmer","state":"Rajasthan","latitude":26.4499,"longitude":74.6399,"temp":37.9,"humidity":13,"rain":0.0,"pressure":952.5,"uv_index":8.25,"wind_gusts":46.4,"aqi":69,"pm10":71.7,"pm2_5":20.8,"no2":0.6,"co":161.0,"o3":144.0,"so2":3.3,"mosquito_risk":0,"arthritis_risk":5,"migraine_risk":10,"frizz_risk":0,"updated_at":"2026-05-07T15:05:22.129642+05:30"},{"city":"Gwalior","state":"Madhya Pradesh","latitude":26.2183,"longitude":78.1828,"temp":32.2,"humidity":34,"rain":0.0,"pressure":982.3,"uv_index":7.9,"wind_gusts":44.6,"aqi":106,"pm10":54.0,"pm2_5":19.2,"no2":0.8,"co":254.0,"o3":168.0,"so2":7.8,"mosquito_risk":0,"arthritis_risk":5,"migraine_risk":7,"frizz_risk":0,"updated_at":"2026-05-07T15:05:22.129648+05:30"},{"city":"Indore","state":"Madhya Pradesh","latitude":22.7196,"longitude":75.8577,"temp":38.5,"humidity":12,"rain":0.0,"pressure":946.5,"uv_index":8.65,"wind_gusts":37.1,"aqi":116,"pm10":20.0,"pm2_5":8.9,"no2":1.1,"co":205.0,"o3":165.0,"so2":4.0,"mosquito_risk":0,"arthritis_risk":5,"migraine_risk":10,"frizz_risk":0,"updated_at":"2026-05-07T15:05:22.129654+05:30"},{"city":"Bhopal","state":"Madhya Pradesh","latitude":23.2599,"longitude":77.4126,"temp":38.5,"humidity":12,"rain":0.0,"pressure":952.2,"uv_index":8.65,"wind_gusts":34.2,"aqi":105,"pm10":18.0,"pm2_5":6.9,"no2":0.7,"co":193.0,"o3":160.0,"so2":3.5,"mosquito_risk":0,"arthritis_risk":5,"migraine_risk":10,"frizz_risk":0,"updated_at":"2026-05-07T15:05:22.129660+05:30"},{"city":"Jabalpur","state":"Madhya Pradesh","latitude":23.1815,"longitude":79.9864,"temp":38.4,"humidity":12,"rain":0.0,"pressure":960.0,"uv_index":8.8,"wind_gusts":24.8,"aqi":108,"pm10":22.5,"pm2_5":7.8,"no2":0.9,"co":192.0,"o3":157.0,"so2":3.1,"mosquito_risk":0,"arthritis_risk":5,"migraine_risk":10,"frizz_risk":0,"updated_at":"2026-05-07T15:05:22.129665+05:30"},{"city":"Ujjain","state":"Madhya Pradesh","latitude":23.1765,"longitude":75.7885,"temp":38.6,"humidity":12,"rain":0.0,"pressure":951.9,"uv_index":8.55,"wind_gusts":33.5,"aqi":101,"pm10":21.0,"pm2_5":10.6,"no2":0.8,"co":194.0,"o3":163.0,"so2":4.7,"mosquito_risk":0,"arthritis_risk":5,"migraine_risk":10,"frizz_risk":0,"updated_at":"2026-05-07T15:05:22.129671+05:30"},{"city":"Visakhapatnam","state":"Andhra Pradesh","latitude":17.6868,"longitude":83.2185,"temp":32.8,"humidity":58,"rain":0.0,"pressure":1001.8,"uv_index":8.85,"wind_gusts":31.7,"aqi":73,"pm10":20.4,"pm2_5":16.1,"no2":15.6,"co":294.0,"o3":59.0,"so2":21.5,"mosquito_risk":0,"arthritis_risk":5,"migraine_risk":4,"frizz_risk":1,"updated_at":"2026-05-07T15:05:22.129677+05:30"},{"city":"Vijayawada","state":"Andhra Pradesh","latitude":16.5062,"longitude":80.648,"temp":33.2,"humidity":51,"rain":0.0,"pressure":1000.2,"uv_index":9.15,"wind_gusts":42.1,"aqi":53,"pm10":21.4,"pm2_5":15.0,"no2":2.0,"co":158.0,"o3":91.0,"so2":5.1,"mosquito_risk":0,"arthritis_risk":5,"migraine_risk":4,"frizz_risk":1,"updated_at":"2026-05-07T15:05:22.129683+05:30"},{"city":"Guntur","state":"Andhra Pradesh","latitude":16.3067,"longitude":80.4365,"temp":33.3,"humidity":51,"rain":0.0,"pressure":1001.2,"uv_index":9.2,"wind_gusts":44.3,"aqi":54,"pm10":23.8,"pm2_5":16.4,"no2":1.8,"co":191.0,"o3":102.0,"so2":3.8,"mosquito_risk":0,"arthritis_risk":5,"migraine_risk":4,"frizz_risk":1,"updated_at":"2026-05-07T15:05:22.129689+05:30"},{"city":"Nellore","state":"Andhra Pradesh","latitude":14.4426,"longitude":79.9865,"temp":33.9,"humidity":53,"rain":0.0,"pressure":1002.5,"uv_index":9.2,"wind_gusts":40.3,"aqi":38,"pm10":9.2,"pm2_5":6.9,"no2":1.0,"co":122.0,"o3":72.0,"so2":3.1,"mosquito_risk":0,"arthritis_risk":5,"migraine_risk":4,"frizz_risk":1,"updated_at":"2026-05-07T15:05:22.129696+05:30"},{"city":"Kurnool","state":"Andhra Pradesh","latitude":15.8281,"longitude":78.0373,"temp":39.3,"humidity":21,"rain":0.0,"pressure":973.2,"uv_index":9.2,"wind_gusts":45.4,"aqi":63,"pm10":26.8,"pm2_5":16.6,"no2":1.0,"co":199.0,"o3":139.0,"so2":4.0,"mosquito_risk":0,"arthritis_risk":5,"migraine_risk":10,"frizz_risk":0,"updated_at":"2026-05-07T15:05:22.129702+05:30"},{"city":"Kakinada","state":"Andhra Pradesh","latitude":16.9891,"longitude":82.2475,"temp":32.2,"humidity":63,"rain":0.0,"pressure":1005.3,"uv_index":8.9,"wind_gusts":33.5,"aqi":34,"pm10":10.0,"pm2_5":6.7,"no2":0.7,"co":131.0,"o3":52.0,"so2":0.8,"mosquito_risk":3,"arthritis_risk":5,"migraine_risk":4,"frizz_risk":1,"updated_at":"2026-05-07T15:05:22.129707+05:30"},{"city":"Tirupati","state":"Andhra Pradesh","latitude":13.6288,"longitude":79.4192,"temp":36.6,"humidity":37,"rain":0.0,"pressure":987.2,"uv_index":9.25,"wind_gusts":39.6,"aqi":59,"pm10":10.8,"pm2_5":9.6,"no2":1.3,"co":156.0,"o3":109.0,"so2":5.3,"mosquito_risk":0,"arthritis_risk":5,"migraine_risk":10,"frizz_risk":1,"updated_at":"2026-05-07T15:05:22.129714+05:30"},{"city":"Warangal","state":"Telangana","latitude":17.9689,"longitude":79.5941,"temp":36.7,"humidity":34,"rain":0.0,"pressure":976.4,"uv_index":9.1,"wind_gusts":36.7,"aqi":77,"pm10":27.5,"pm2_5":17.5,"no2":1.6,"co":202.0,"o3":137.0,"so2":4.5,"mosquito_risk":0,"arthritis_risk":5,"migraine_risk":10,"frizz_risk":1,"updated_at":"2026-05-07T15:05:22.129719+05:30"},{"city":"Nizamabad","state":"Telangana","latitude":18.6725,"longitude":78.0941,"temp":29.7,"humidity":48,"rain":0.1,"pressure":963.6,"uv_index":9.1,"wind_gusts":47.2,"aqi":82,"pm10":40.6,"pm2_5":22.2,"no2":1.4,"co":220.0,"o3":159.0,"so2":3.9,"mosquito_risk":7,"arthritis_risk":5,"migraine_risk":7,"frizz_risk":1,"updated_at":"2026-05-07T15:05:22.129725+05:30"},{"city":"Mysore","state":"Karnataka","latitude":12.2958,"longitude":76.6396,"temp":33.0,"humidity":37,"rain":0.0,"pressure":925.5,"uv_index":9.2,"wind_gusts":27.7,"aqi":85,"pm10":33.2,"pm2_5":22.4,"no2":2.0,"co":236.0,"o3":147.0,"so2":5.6,"mosquito_risk":0,"arthritis_risk":5,"migraine_risk":7,"frizz_risk":1,"updated_at":"2026-05-07T15:05:22.129731+05:30"},{"city":"Mangalore","state":"Karnataka","latitude":12.9141,"longitude":74.856,"temp":30.4,"humidity":74,"rain":0.1,"pressure":1003.1,"uv_index":8.2,"wind_gusts":36.0,"aqi":64,"pm10":37.8,"pm2_5":19.6,"no2":1.0,"co":154.0,"o3":108.0,"so2":2.0,"mosquito_risk":6,"arthritis_risk":5,"migraine_risk":4,"frizz_risk":1,"updated_at":"2026-05-07T15:05:22.129737+05:30"},{"city":"Hubli-Dharwad","state":"Karnataka","latitude":15.3647,"longitude":75.124,"temp":36.8,"humidity":20,"rain":0.0,"pressure":937.9,"uv_index":9.2,"wind_gusts":50.8,"aqi":82,"pm10":49.4,"pm2_5":29.3,"no2":1.8,"co":195.0,"o3":174.0,"so2":4.3,"mosquito_risk":0,"arthritis_risk":5,"migraine_risk":10,"frizz_risk":0,"updated_at":"2026-05-07T15:05:22.129743+05:30"},{"city":"Belgaum","state":"Karnataka","latitude":15.8497,"longitude":74.4977,"temp":31.1,"humidity":42,"rain":0.0,"pressure":924.0,"uv_index":8.35,"wind_gusts":48.2,"aqi":92,"pm10":41.7,"pm2_5":24.6,"no2":2.0,"co":214.0,"o3":175.0,"so2":6.9,"mosquito_risk":0,"arthritis_risk":5,"migraine_risk":7,"frizz_risk":1,"updated_at":"2026-05-07T15:05:25.514016+05:30"},{"city":"Coimbatore","state":"Tamil Nadu","latitude":11.0168,"longitude":76.9558,"temp":33.0,"humidity":48,"rain":0.0,"pressure":957.8,"uv_index":7.2,"wind_gusts":29.2,"aqi":74,"pm10":27.3,"pm2_5":17.3,"no2":1.5,"co":236.0,"o3":122.0,"so2":2.0,"mosquito_risk":0,"arthritis_risk":5,"migraine_risk":7,"frizz_risk":1,"updated_at":"2026-05-07T15:05:25.514050+05:30"},{"city":"Madurai","state":"Tamil Nadu","latitude":9.9252,"longitude":78.1198,"temp":34.7,"humidity":44,"rain":0.0,"pressure":988.4,"uv_index":6.0,"wind_gusts":34.9,"aqi":70,"pm10":19.8,"pm2_5":13.4,"no2":1.9,"co":195.0,"o3":131.0,"so2":2.1,"mosquito_risk":0,"arthritis_risk":5,"migraine_risk":3,"frizz_risk":1,"updated_at":"2026-05-07T15:05:25.514060+05:30"},{"city":"Trichy","state":"Tamil Nadu","latitude":10.7905,"longitude":78.7047,"temp":35.5,"humidity":44,"rain":0.0,"pressure":995.0,"uv_index":8.5,"wind_gusts":29.2,"aqi":64,"pm10":16.7,"pm2_5":13.4,"no2":1.9,"co":182.0,"o3":132.0,"so2":5.4,"mosquito_risk":0,"arthritis_risk":5,"migraine_risk":10,"frizz_risk":1,"updated_at":"2026-05-07T15:05:25.514068+05:30"},{"city":"Salem","state":"Tamil Nadu","latitude":11.6643,"longitude":78.146,"temp":34.8,"humidity":45,"rain":0.0,"pressure":973.0,"uv_index":8.75,"wind_gusts":34.6,"aqi":81,"pm10":27.8,"pm2_5":21.6,"no2":2.5,"co":203.0,"o3":152.0,"so2":13.8,"mosquito_risk":0,"arthritis_risk":5,"migraine_risk":7,"frizz_risk":1,"updated_at":"2026-05-07T15:05:25.514075+05:30"},{"city":"Tirunelveli","state":"Tamil Nadu","latitude":8.7139,"longitude":77.7567,"temp":33.5,"humidity":47,"rain":0.0,"pressure":998.9,"uv_index":4.75,"wind_gusts":30.2,"aqi":74,"pm10":33.9,"pm2_5":26.1,"no2":1.5,"co":186.0,"o3":134.0,"so2":5.6,"mosquito_risk":0,"arthritis_risk":5,"migraine_risk":3,"frizz_risk":1,"updated_at":"2026-05-07T15:05:25.514082+05:30"},{"city":"Vellore","state":"Tamil Nadu","latitude":12.9165,"longitude":79.1325,"temp":36.3,"humidity":39,"rain":0.0,"pressure":980.5,"uv_index":9.25,"wind_gusts":29.2,"aqi":74,"pm10":10.2,"pm2_5":8.3,"no2":1.2,"co":172.0,"o3":113.0,"so2":2.2,"mosquito_risk":0,"arthritis_risk":5,"migraine_risk":10,"frizz_risk":1,"updated_at":"2026-05-07T15:05:25.514089+05:30"},{"city":"Erode","state":"Tamil Nadu","latitude":11.341,"longitude":77.7172,"temp":33.9,"humidity":48,"rain":0.0,"pressure":984.8,"uv_index":7.9,"wind_gusts":35.6,"aqi":72,"pm10":20.4,"pm2_5":13.1,"no2":1.7,"co":217.0,"o3":130.0,"so2":2.7,"mosquito_risk":0,"arthritis_risk":5,"migraine_risk":7,"frizz_risk":1,"updated_at":"2026-05-07T15:05:25.514094+05:30"},{"city":"Kochi","state":"Kerala","latitude":9.9312,"longitude":76.2673,"temp":28.9,"humidity":77,"rain":0.1,"pressure":1004.6,"uv_index":5.45,"wind_gusts":24.1,"aqi":75,"pm10":27.6,"pm2_5":21.3,"no2":3.0,"co":218.0,"o3":171.0,"so2":3.4,"mosquito_risk":10,"arthritis_risk":5,"migraine_risk":0,"frizz_risk":1,"updated_at":"2026-05-07T15:05:25.514101+05:30"},{"city":"Thiruvananthapuram","state":"Kerala","latitude":8.5241,"longitude":76.9366,"temp":29.4,"humidity":78,"rain":0.0,"pressure":1003.8,"uv_index":7.4,"wind_gusts":28.4,"aqi":106,"pm10":26.5,"pm2_5":19.2,"no2":1.6,"co":251.0,"o3":173.0,"so2":4.1,"mosquito_risk":7,"arthritis_risk":5,"migraine_risk":4,"frizz_risk":1,"updated_at":"2026-05-07T15:05:25.514106+05:30"},{"city":"Kozhikode","state":"Kerala","latitude":11.2588,"longitude":75.7804,"temp":29.7,"humidity":78,"rain":0.0,"pressure":1003.7,"uv_index":6.6,"wind_gusts":36.0,"aqi":72,"pm10":20.2,"pm2_5":11.8,"no2":0.7,"co":219.0,"o3":124.0,"so2":1.6,"mosquito_risk":7,"arthritis_risk":5,"migraine_risk":4,"frizz_risk":1,"updated_at":"2026-05-07T15:05:25.514111+05:30"},{"city":"Thrissur","state":"Kerala","latitude":10.5276,"longitude":76.2144,"temp":29.7,"humidity":69,"rain":0.0,"pressure":1002.9,"uv_index":4.2,"wind_gusts":27.0,"aqi":76,"pm10":35.4,"pm2_5":26.1,"no2":2.0,"co":283.0,"o3":156.0,"so2":3.5,"mosquito_risk":7,"arthritis_risk":5,"migraine_risk":0,"frizz_risk":1,"updated_at":"2026-05-07T15:05:25.514118+05:30"},{"city":"Kannur","state":"Kerala","latitude":11.8745,"longitude":75.3704,"temp":31.1,"humidity":68,"rain":0.0,"pressure":1003.2,"uv_index":7.9,"wind_gusts":41.0,"aqi":60,"pm10":25.7,"pm2_5":13.4,"no2":1.1,"co":209.0,"o3":109.0,"so2":1.3,"mosquito_risk":3,"arthritis_risk":5,"migraine_risk":4,"frizz_risk":1,"updated_at":"2026-05-07T15:05:25.514123+05:30"},{"city":"Patna","state":"Bihar","latitude":25.5941,"longitude":85.1376,"temp":29.1,"humidity":62,"rain":0.0,"pressure":1001.0,"uv_index":8.7,"wind_gusts":40.7,"aqi":146,"pm10":58.2,"pm2_5":36.0,"no2":2.0,"co":351.0,"o3":191.0,"so2":7.7,"mosquito_risk":7,"arthritis_risk":5,"migraine_risk":4,"frizz_risk":1,"updated_at":"2026-05-07T15:05:25.514128+05:30"},{"city":"Gaya","state":"Bihar","latitude":24.7914,"longitude":85.0002,"temp":33.8,"humidity":34,"rain":0.0,"pressure":993.3,"uv_index":8.75,"wind_gusts":32.4,"aqi":142,"pm10":60.1,"pm2_5":30.5,"no2":1.5,"co":307.0,"o3":189.0,"so2":8.6,"mosquito_risk":0,"arthritis_risk":5,"migraine_risk":7,"frizz_risk":0,"updated_at":"2026-05-07T15:05:25.514133+05:30"},{"city":"Muzaffarpur","state":"Bihar","latitude":26.1209,"longitude":85.3647,"temp":29.8,"humidity":58,"rain":0.0,"pressure":1000.9,"uv_index":8.65,"wind_gusts":39.2,"aqi":140,"pm10":53.8,"pm2_5":33.6,"no2":2.2,"co":334.0,"o3":189.0,"so2":8.4,"mosquito_risk":4,"arthritis_risk":5,"migraine_risk":4,"frizz_risk":1,"updated_at":"2026-05-07T15:05:25.514138+05:30"},{"city":"Bhagalpur","state":"Bihar","latitude":25.2425,"longitude":87.0117,"temp":28.9,"humidity":63,"rain":0.0,"pressure":1001.3,"uv_index":8.7,"wind_gusts":38.5,"aqi":169,"pm10":65.0,"pm2_5":46.1,"no2":3.1,"co":382.0,"o3":213.0,"so2":9.2,"mosquito_risk":7,"arthritis_risk":5,"migraine_risk":4,"frizz_risk":1,"updated_at":"2026-05-07T15:05:25.514143+05:30"},{"city":"Ranchi","state":"Jharkhand","latitude":23.3441,"longitude":85.3096,"temp":32.2,"humidity":27,"rain":0.0,"pressure":937.6,"uv_index":9.2,"wind_gusts":34.2,"aqi":144,"pm10":31.7,"pm2_5":19.2,"no2":1.3,"co":210.0,"o3":179.0,"so2":9.6,"mosquito_risk":0,"arthritis_risk":5,"migraine_risk":7,"frizz_risk":0,"updated_at":"2026-05-07T15:05:25.514148+05:30"},{"city":"Jamshedpur","state":"Jharkhand","latitude":22.8046,"longitude":86.2029,"temp":34.8,"humidity":30,"rain":0.0,"pressure":989.5,"uv_index":9.05,"wind_gusts":42.5,"aqi":137,"pm10":55.6,"pm2_5":40.9,"no2":3.1,"co":290.0,"o3":218.0,"so2":24.3,"mosquito_risk":0,"arthritis_risk":5,"migraine_risk":7,"frizz_risk":0,"updated_at":"2026-05-07T15:05:25.514152+05:30"},{"city":"Dhanbad","state":"Jharkhand","latitude":23.7957,"longitude":86.4304,"temp":29.8,"humidity":59,"rain":0.0,"pressure":979.6,"uv_index":8.95,"wind_gusts":39.2,"aqi":162,"pm10":69.2,"pm2_5":57.6,"no2":13.1,"co":310.0,"o3":242.0,"so2":51.6,"mosquito_risk":4,"arthritis_risk":5,"migraine_risk":7,"frizz_risk":1,"updated_at":"2026-05-07T15:05:25.514158+05:30"},{"city":"Bokaro","state":"Jharkhand","latitude":23.6693,"longitude":86.1511,"temp":30.4,"humidity":52,"rain":0.0,"pressure":983.3,"uv_index":8.95,"wind_gusts":47.2,"aqi":158,"pm10":53.4,"pm2_5":38.3,"no2":11.6,"co":254.0,"o3":214.0,"so2":39.5,"mosquito_risk":0,"arthritis_risk":5,"migraine_risk":7,"frizz_risk":1,"updated_at":"2026-05-07T15:05:25.514163+05:30"},{"city":"Bhubaneswar","state":"Odisha","latitude":20.2961,"longitude":85.8245,"temp":32.1,"humidity":61,"rain":0.0,"pressure":1001.3,"uv_index":9.1,"wind_gusts":50.4,"aqi":51,"pm10":24.4,"pm2_5":17.2,"no2":1.7,"co":199.0,"o3":126.0,"so2":6.0,"mosquito_risk":3,"arthritis_risk":5,"migraine_risk":4,"frizz_risk":1,"updated_at":"2026-05-07T15:05:25.514169+05:30"},{"city":"Cuttack","state":"Odisha","latitude":20.4625,"longitude":85.8828,"temp":32.2,"humidity":59,"rain":0.0,"pressure":1003.1,"uv_index":9.15,"wind_gusts":43.6,"aqi":51,"pm10":24.4,"pm2_5":17.2,"no2":1.7,"co":222.0,"o3":126.0,"so2":6.0,"mosquito_risk":0,"arthritis_risk":5,"migraine_risk":4,"frizz_risk":1,"updated_at":"2026-05-07T15:05:25.514173+05:30"},{"city":"Rourkela","state":"Odisha","latitude":22.2604,"longitude":84.8536,"temp":37.0,"humidity":20,"rain":0.0,"pressure":983.3,"uv_index":8.95,"wind_gusts":36.7,"aqi":185,"pm10":49.9,"pm2_5":38.1,"no2":2.2,"co":246.0,"o3":224.0,"so2":30.0,"mosquito_risk":0,"arthritis_risk":5,"migraine_risk":10,"frizz_risk":0,"updated_at":"2026-05-07T15:05:25.514179+05:30"},{"city":"Raipur","state":"Chhattisgarh","latitude":21.2514,"longitude":81.6296,"temp":38.6,"humidity":15,"rain":0.0,"pressure":973.0,"uv_index":8.95,"wind_gusts":32.8,"aqi":151,"pm10":45.2,"pm2_5":28.9,"no2":6.6,"co":186.0,"o3":254.0,"so2":6.4,"mosquito_risk":0,"arthritis_risk":5,"migraine_risk":10,"frizz_risk":0,"updated_at":"2026-05-07T15:05:25.514184+05:30"},{"city":"Bhilai","state":"Chhattisgarh","latitude":21.1938,"longitude":81.3509,"temp":38.3,"humidity":16,"rain":0.0,"pressure":973.4,"uv_index":9.0,"wind_gusts":26.6,"aqi":140,"pm10":46.2,"pm2_5":29.5,"no2":7.6,"co":275.0,"o3":249.0,"so2":6.4,"mosquito_risk":0,"arthritis_risk":5,"migraine_risk":10,"frizz_risk":0,"updated_at":"2026-05-07T15:05:25.514189+05:30"},{"city":"Guwahati","state":"Assam","latitude":26.1158,"longitude":91.7086,"temp":29.4,"humidity":56,"rain":0.0,"pressure":1000.7,"uv_index":8.65,"wind_gusts":32.8,"aqi":99,"pm10":42.6,"pm2_5":29.9,"no2":1.2,"co":298.0,"o3":151.0,"so2":2.4,"mosquito_risk":4,"arthritis_risk":5,"migraine_risk":4,"frizz_risk":1,"updated_at":"2026-05-07T15:05:25.514194+05:30"},{"city":"Agartala","state":"Tripura","latitude":23.8315,"longitude":91.2868,"temp":30.5,"humidity":64,"rain":0.0,"pressure":1005.6,"uv_index":8.85,"wind_gusts":32.0,"aqi":100,"pm10":17.8,"pm2_5":15.9,"no2":4.5,"co":226.0,"o3":157.0,"so2":2.2,"mosquito_risk":3,"arthritis_risk":5,"migraine_risk":4,"frizz_risk":1,"updated_at":"2026-05-07T15:05:25.514199+05:30"},{"city":"Shillong","state":"Meghalaya","latitude":25.5788,"longitude":91.8933,"temp":22.1,"humidity":50,"rain":0.0,"pressure":857.7,"uv_index":7.75,"wind_gusts":24.8,"aqi":96,"pm10":27.5,"pm2_5":19.8,"no2":1.2,"co":240.0,"o3":141.0,"so2":1.5,"mosquito_risk":0,"arthritis_risk":5,"migraine_risk":7,"frizz_risk":0,"updated_at":"2026-05-07T15:05:25.514204+05:30"},{"city":"Imphal","state":"Manipur","latitude":24.817,"longitude":93.9368,"temp":27.3,"humidity":54,"rain":0.0,"pressure":922.7,"uv_index":9.1,"wind_gusts":31.0,"aqi":97,"pm10":21.7,"pm2_5":14.2,"no2":1.1,"co":191.0,"o3":105.0,"so2":0.8,"mosquito_risk":4,"arthritis_risk":5,"migraine_risk":7,"frizz_risk":1,"updated_at":"2026-05-07T15:05:25.514209+05:30"},{"city":"Aizawl","state":"Mizoram","latitude":23.7271,"longitude":92.7176,"temp":24.8,"humidity":57,"rain":0.0,"pressure":893.2,"uv_index":9.05,"wind_gusts":23.4,"aqi":68,"pm10":22.8,"pm2_5":14.7,"no2":0.7,"co":164.0,"o3":106.0,"so2":1.1,"mosquito_risk":0,"arthritis_risk":5,"migraine_risk":7,"frizz_risk":0,"updated_at":"2026-05-07T15:05:25.514214+05:30"},{"city":"Kohima","state":"Nagaland","latitude":25.6701,"longitude":94.1077,"temp":21.0,"humidity":74,"rain":0.0,"pressure":855.8,"uv_index":9.15,"wind_gusts":27.4,"aqi":65,"pm10":21.4,"pm2_5":13.9,"no2":1.1,"co":248.0,"o3":109.0,"so2":0.5,"mosquito_risk":3,"arthritis_risk":5,"migraine_risk":7,"frizz_risk":0,"updated_at":"2026-05-07T15:05:25.514219+05:30"},{"city":"Gangtok","state":"Sikkim","latitude":27.3314,"longitude":88.6138,"temp":19.9,"humidity":49,"rain":0.0,"pressure":838.5,"uv_index":8.55,"wind_gusts":39.2,"aqi":91,"pm10":29.8,"pm2_5":19.4,"no2":1.1,"co":215.0,"o3":144.0,"so2":1.1,"mosquito_risk":0,"arthritis_risk":5,"migraine_risk":7,"frizz_risk":0,"updated_at":"2026-05-07T15:05:25.514225+05:30"},{"city":"Siliguri","state":"West Bengal","latitude":26.7271,"longitude":88.3953,"temp":29.6,"humidity":52,"rain":0.0,"pressure":992.8,"uv_index":8.6,"wind_gusts":23.8,"aqi":107,"pm10":44.4,"pm2_5":30.7,"no2":1.6,"co":356.0,"o3":164.0,"so2":3.1,"mosquito_risk":4,"arthritis_risk":5,"migraine_risk":7,"frizz_risk":1,"updated_at":"2026-05-07T15:05:28.886567+05:30"},{"city":"Durgapur","state":"West Bengal","latitude":23.5204,"longitude":87.3119,"temp":27.8,"humidity":75,"rain":0.1,"pressure":994.7,"uv_index":8.9,"wind_gusts":45.4,"aqi":162,"pm10":79.2,"pm2_5":69.6,"no2":13.8,"co":426.0,"o3":237.0,"so2":52.3,"mosquito_risk":10,"arthritis_risk":5,"migraine_risk":7,"frizz_risk":1,"updated_at":"2026-05-07T15:05:28.886601+05:30"},{"city":"Asansol","state":"West Bengal","latitude":23.6739,"longitude":86.9524,"temp":29.8,"humidity":67,"rain":0.0,"pressure":993.4,"uv_index":8.95,"wind_gusts":34.2,"aqi":160,"pm10":70.8,"pm2_5":62.6,"no2":13.6,"co":372.0,"o3":233.0,"so2":53.4,"mosquito_risk":7,"arthritis_risk":5,"migraine_risk":7,"frizz_risk":1,"updated_at":"2026-05-07T15:05:28.886611+05:30"},{"city":"Pondicherry","state":"Puducherry","latitude":11.9139,"longitude":79.8145,"temp":30.7,"humidity":68,"rain":0.0,"pressure":1004.7,"uv_index":7.15,"wind_gusts":32.0,"aqi":35,"pm10":6.0,"pm2_5":4.0,"no2":0.8,"co":154.0,"o3":56.0,"so2":0.3,"mosquito_risk":3,"arthritis_risk":5,"migraine_risk":4,"frizz_risk":1,"updated_at":"2026-05-07T15:05:28.886618+05:30"},{"city":"Port Blair","state":"Andaman and Nicobar Islands","latitude":11.6234,"longitude":92.7265,"temp":29.5,"humidity":76,"rain":0.0,"pressure":1004.1,"uv_index":8.45,"wind_gusts":34.2,"aqi":34,"pm10":5.6,"pm2_5":4.3,"no2":0.5,"co":148.0,"o3":74.0,"so2":0.1,"mosquito_risk":7,"arthritis_risk":5,"migraine_risk":4,"frizz_risk":1,"updated_at":"2026-05-07T15:05:28.886625+05:30"},{"city":"Haridwar","state":"Uttarakhand","latitude":29.9457,"longitude":78.1642,"temp":29.0,"humidity":44,"rain":0.0,"pressure":975.0,"uv_index":6.9,"wind_gusts":40.0,"aqi":133,"pm10":78.9,"pm2_5":25.3,"no2":1.4,"co":218.0,"o3":188.0,"so2":9.0,"mosquito_risk":4,"arthritis_risk":5,"migraine_risk":7,"frizz_risk":0,"updated_at":"2026-05-07T15:05:28.886631+05:30"},{"city":"Rishikesh","state":"Uttarakhand","latitude":30.0869,"longitude":78.2676,"temp":28.0,"humidity":42,"rain":0.0,"pressure":967.7,"uv_index":6.45,"wind_gusts":35.3,"aqi":137,"pm10":67.5,"pm2_5":21.8,"no2":0.9,"co":213.0,"o3":188.0,"so2":7.9,"mosquito_risk":4,"arthritis_risk":5,"migraine_risk":7,"frizz_risk":0,"updated_at":"2026-05-07T15:05:28.886637+05:30"},{"city":"Nainital","state":"Uttarakhand","latitude":29.3919,"longitude":79.4542,"temp":15.3,"humidity":65,"rain":0.0,"pressure":806.2,"uv_index":7.4,"wind_gusts":29.5,"aqi":123,"pm10":71.7,"pm2_5":23.5,"no2":0.9,"co":199.0,"o3":175.0,"so2":6.9,"mosquito_risk":3,"arthritis_risk":5,"migraine_risk":7,"frizz_risk":0,"updated_at":"2026-05-07T15:05:28.886643+05:30"},{"city":"Mussoorie","state":"Uttarakhand","latitude":30.4599,"longitude":78.0664,"temp":16.0,"humidity":60,"rain":0.0,"pressure":803.5,"uv_index":5.95,"wind_gusts":32.8,"aqi":132,"pm10":67.3,"pm2_5":23.4,"no2":1.6,"co":212.0,"o3":183.0,"so2":9.4,"mosquito_risk":0,"arthritis_risk":5,"migraine_risk":3,"frizz_risk":0,"updated_at":"2026-05-07T15:05:28.886650+05:30"},{"city":"Dharamshala","state":"Himachal Pradesh","latitude":32.219,"longitude":76.3234,"temp":20.7,"humidity":50,"rain":0.0,"pressure":869.4,"uv_index":6.7,"wind_gusts":37.1,"aqi":119,"pm10":43.9,"pm2_5":13.8,"no2":0.6,"co":199.0,"o3":153.0,"so2":1.1,"mosquito_risk":0,"arthritis_risk":5,"migraine_risk":7,"frizz_risk":0,"updated_at":"2026-05-07T15:05:28.886656+05:30"},{"city":"Dalhousie","state":"Himachal Pradesh","latitude":32.5387,"longitude":75.971,"temp":16.8,"humidity":53,"rain":0.0,"pressure":805.3,"uv_index":7.7,"wind_gusts":32.4,"aqi":135,"pm10":21.0,"pm2_5":10.9,"no2":1.3,"co":199.0,"o3":183.0,"so2":3.9,"mosquito_risk":0,"arthritis_risk":5,"migraine_risk":7,"frizz_risk":0,"updated_at":"2026-05-07T15:05:28.886662+05:30"},{"city":"Patiala","state":"Punjab","latitude":30.3398,"longitude":76.3869,"temp":30.7,"humidity":35,"rain":0.0,"pressure":977.9,"uv_index":7.4,"wind_gusts":44.6,"aqi":271,"pm10":455.4,"pm2_5":58.8,"no2":1.6,"co":275.0,"o3":201.0,"so2":7.9,"mosquito_risk":0,"arthritis_risk":5,"migraine_risk":7,"frizz_risk":0,"updated_at":"2026-05-07T15:05:28.886668+05:30"},{"city":"Bhatinda","state":"Punjab","latitude":30.211,"longitude":74.9455,"temp":36.8,"humidity":22,"rain":0.0,"pressure":981.2,"uv_index":8.1,"wind_gusts":39.2,"aqi":150,"pm10":646.3,"pm2_5":85.2,"no2":1.8,"co":236.0,"o3":195.0,"so2":13.1,"mosquito_risk":0,"arthritis_risk":5,"migraine_risk":10,"frizz_risk":0,"updated_at":"2026-05-07T15:05:28.886674+05:30"},{"city":"Rohtak","state":"Haryana","latitude":28.8955,"longitude":76.6066,"temp":32.1,"humidity":31,"rain":0.0,"pressure":980.4,"uv_index":7.6,"wind_gusts":49.7,"aqi":554,"pm10":957.4,"pm2_5":116.4,"no2":3.1,"co":255.0,"o3":210.0,"so2":15.4,"mosquito_risk":0,"arthritis_risk":5,"migraine_risk":7,"frizz_risk":0,"updated_at":"2026-05-07T15:05:28.886680+05:30"},{"city":"Panipat","state":"Haryana","latitude":29.3909,"longitude":76.9635,"temp":29.4,"humidity":43,"rain":0.0,"pressure":980.6,"uv_index":7.2,"wind_gusts":43.6,"aqi":1026,"pm10":787.9,"pm2_5":88.2,"no2":3.1,"co":261.0,"o3":197.0,"so2":16.0,"mosquito_risk":4,"arthritis_risk":5,"migraine_risk":7,"frizz_risk":0,"updated_at":"2026-05-07T15:05:28.886686+05:30"},{"city":"Mathura","state":"Uttar Pradesh","latitude":27.4924,"longitude":77.6737,"temp":33.5,"humidity":31,"rain":0.0,"pressure":986.1,"uv_index":7.85,"wind_gusts":47.5,"aqi":740,"pm10":1344.8,"pm2_5":129.9,"no2":1.4,"co":244.0,"o3":177.0,"so2":7.1,"mosquito_risk":0,"arthritis_risk":5,"migraine_risk":7,"frizz_risk":0,"updated_at":"2026-05-07T15:05:28.886692+05:30"},{"city":"Vrindavan","state":"Uttar Pradesh","latitude":27.5823,"longitude":77.7027,"temp":33.8,"humidity":31,"rain":0.0,"pressure":986.5,"uv_index":7.8,"wind_gusts":47.9,"aqi":740,"pm10":1344.8,"pm2_5":129.9,"no2":1.4,"co":245.0,"o3":177.0,"so2":7.1,"mosquito_risk":0,"arthritis_risk":5,"migraine_risk":7,"frizz_risk":0,"updated_at":"2026-05-07T15:05:28.886697+05:30"},{"city":"Ayodhya","state":"Uttar Pradesh","latitude":26.7922,"longitude":82.1998,"temp":30.6,"humidity":48,"rain":0.0,"pressure":995.9,"uv_index":7.95,"wind_gusts":31.0,"aqi":112,"pm10":73.1,"pm2_5":29.1,"no2":1.2,"co":287.0,"o3":171.0,"so2":6.7,"mosquito_risk":0,"arthritis_risk":5,"migraine_risk":7,"frizz_risk":1,"updated_at":"2026-05-07T15:05:28.886702+05:30"},{"city":"Ratlam","state":"Madhya Pradesh","latitude":23.3315,"longitude":75.0367,"temp":38.5,"humidity":14,"rain":0.0,"pressure":952.7,"uv_index":8.45,"wind_gusts":33.5,"aqi":101,"pm10":20.9,"pm2_5":9.4,"no2":0.6,"co":165.0,"o3":160.0,"so2":4.4,"mosquito_risk":0,"arthritis_risk":5,"migraine_risk":10,"frizz_risk":0,"updated_at":"2026-05-07T15:05:28.886708+05:30"},{"city":"Sagar","state":"Madhya Pradesh","latitude":23.8388,"longitude":78.7378,"temp":38.0,"humidity":12,"rain":0.0,"pressure":949.1,"uv_index":8.65,"wind_gusts":35.3,"aqi":106,"pm10":23.0,"pm2_5":7.5,"no2":0.6,"co":161.0,"o3":156.0,"so2":3.0,"mosquito_risk":0,"arthritis_risk":5,"migraine_risk":10,"frizz_risk":0,"updated_at":"2026-05-07T15:05:28.886713+05:30"},{"city":"Satna","state":"Madhya Pradesh","latitude":24.6005,"longitude":80.8322,"temp":34.2,"humidity":25,"rain":0.0,"pressure":971.5,"uv_index":8.65,"wind_gusts":40.3,"aqi":128,"pm10":88.0,"pm2_5":24.9,"no2":1.0,"co":221.0,"o3":172.0,"so2":6.0,"mosquito_risk":0,"arthritis_risk":5,"migraine_risk":7,"frizz_risk":0,"updated_at":"2026-05-07T15:05:28.886719+05:30"},{"city":"Akola","state":"Maharashtra","latitude":20.7002,"longitude":77.0082,"temp":39.0,"humidity":21,"rain":0.0,"pressure":972.4,"uv_index":8.85,"wind_gusts":41.0,"aqi":95,"pm10":41.8,"pm2_5":21.0,"no2":1.6,"co":185.0,"o3":170.0,"so2":7.5,"mosquito_risk":0,"arthritis_risk":5,"migraine_risk":10,"frizz_risk":0,"updated_at":"2026-05-07T15:05:28.886726+05:30"},{"city":"Amravati","state":"Maharashtra","latitude":20.9374,"longitude":77.7796,"temp":39.1,"humidity":19,"rain":0.0,"pressure":965.1,"uv_index":6.4,"wind_gusts":33.5,"aqi":97,"pm10":41.8,"pm2_5":21.1,"no2":1.7,"co":196.0,"o3":171.0,"so2":4.7,"mosquito_risk":0,"arthritis_risk":5,"migraine_risk":10,"frizz_risk":0,"updated_at":"2026-05-07T15:05:28.886732+05:30"},{"city":"Latur","state":"Maharashtra","latitude":18.4088,"longitude":76.5604,"temp":37.2,"humidity":23,"rain":0.0,"pressure":937.9,"uv_index":8.4,"wind_gusts":35.3,"aqi":89,"pm10":38.5,"pm2_5":19.0,"no2":1.3,"co":188.0,"o3":152.0,"so2":4.1,"mosquito_risk":0,"arthritis_risk":5,"migraine_risk":10,"frizz_risk":0,"updated_at":"2026-05-07T15:05:28.886738+05:30"},{"city":"Nanded","state":"Maharashtra","latitude":19.1383,"longitude":77.3091,"temp":36.7,"humidity":26,"rain":0.0,"pressure":966.5,"uv_index":8.3,"wind_gusts":42.1,"aqi":89,"pm10":40.2,"pm2_5":20.0,"no2":1.1,"co":187.0,"o3":156.0,"so2":4.0,"mosquito_risk":0,"arthritis_risk":5,"migraine_risk":10,"frizz_risk":0,"updated_at":"2026-05-07T15:05:28.886743+05:30"},{"city":"Gulbarga","state":"Karnataka","latitude":17.3297,"longitude":76.8343,"temp":37.3,"humidity":25,"rain":0.0,"pressure":956.1,"uv_index":9.1,"wind_gusts":36.0,"aqi":89,"pm10":38.2,"pm2_5":22.6,"no2":1.7,"co":197.0,"o3":167.0,"so2":7.6,"mosquito_risk":0,"arthritis_risk":5,"migraine_risk":10,"frizz_risk":0,"updated_at":"2026-05-07T15:05:28.886749+05:30"},{"city":"Bidar","state":"Karnataka","latitude":17.9104,"longitude":77.5199,"temp":30.0,"humidity":44,"rain":0.0,"pressure":934.2,"uv_index":8.45,"wind_gusts":41.8,"aqi":80,"pm10":35.7,"pm2_5":19.2,"no2":1.5,"co":192.0,"o3":151.0,"so2":3.4,"mosquito_risk":4,"arthritis_risk":5,"migraine_risk":7,"frizz_risk":1,"updated_at":"2026-05-07T15:05:28.886753+05:30"},{"city":"Hospet","state":"Karnataka","latitude":15.2689,"longitude":76.3909,"temp":35.7,"humidity":31,"rain":0.0,"pressure":952.7,"uv_index":9.2,"wind_gusts":33.5,"aqi":103,"pm10":38.8,"pm2_5":26.0,"no2":2.4,"co":230.0,"o3":180.0,"so2":6.4,"mosquito_risk":0,"arthritis_risk":5,"migraine_risk":10,"frizz_risk":1,"updated_at":"2026-05-07T15:05:28.886759+05:30"},{"city":"Tirupur","state":"Tamil Nadu","latitude":11.1085,"longitude":77.3411,"temp":35.0,"humidity":42,"rain":0.0,"pressure":971.0,"uv_index":6.65,"wind_gusts":28.1,"aqi":82,"pm10":23.3,"pm2_5":14.0,"no2":1.8,"co":216.0,"o3":130.0,"so2":2.2,"mosquito_risk":0,"arthritis_risk":5,"migraine_risk":7,"frizz_risk":1,"updated_at":"2026-05-07T15:05:28.886763+05:30"},{"city":"Alappuzha","state":"Kerala","latitude":9.4981,"longitude":76.3388,"temp":28.9,"humidity":80,"rain":0.0,"pressure":1004.6,"uv_index":6.85,"wind_gusts":17.3,"aqi":107,"pm10":25.8,"pm2_5":20.2,"no2":2.8,"co":211.0,"o3":186.0,"so2":5.2,"mosquito_risk":7,"arthritis_risk":5,"migraine_risk":4,"frizz_risk":1,"updated_at":"2026-05-07T15:05:28.886768+05:30"},{"city":"Munnar","state":"Kerala","latitude":10.0889,"longitude":77.0595,"temp":20.6,"humidity":88,"rain":0.0,"pressure":854.7,"uv_index":6.5,"wind_gusts":24.8,"aqi":77,"pm10":23.1,"pm2_5":14.5,"no2":1.1,"co":195.0,"o3":110.0,"so2":1.2,"mosquito_risk":3,"arthritis_risk":5,"migraine_risk":7,"frizz_risk":1,"updated_at":"2026-05-07T15:05:28.886774+05:30"},{"city":"Silchar","state":"Assam","latitude":24.8333,"longitude":92.7789,"temp":31.2,"humidity":59,"rain":0.0,"pressure":1003.8,"uv_index":8.85,"wind_gusts":21.6,"aqi":113,"pm10":20.1,"pm2_5":15.0,"no2":1.3,"co":199.0,"o3":106.0,"so2":1.6,"mosquito_risk":0,"arthritis_risk":5,"migraine_risk":4,"frizz_risk":1,"updated_at":"2026-05-07T15:05:28.886779+05:30"},{"city":"Dibrugarh","state":"Assam","latitude":27.4728,"longitude":94.912,"temp":28.3,"humidity":62,"rain":0.0,"pressure":994.8,"uv_index":8.8,"wind_gusts":27.0,"aqi":77,"pm10":46.0,"pm2_5":28.6,"no2":1.4,"co":236.0,"o3":136.0,"so2":1.7,"mosquito_risk":7,"arthritis_risk":5,"migraine_risk":7,"frizz_risk":1,"updated_at":"2026-05-07T15:05:28.886784+05:30"}]