[{"city":"Delhi","state":"Delhi","latitude":28.6139,"longitude":77.209,"temp":24.4,"humidity":69,"rain":0.0,"pressure":982.4,"uv_index":6.6,"wind_gusts":45.4,"aqi":135,"pm10":225.4,"pm2_5":84.3,"mosquito_risk":3,"arthritis_risk":5,"migraine_risk":7,"frizz_risk":1,"updated_at":"2026-04-03T02:08:37.582264+05:30"},{"city":"Mumbai","state":"Maharashtra","latitude":19.076,"longitude":72.8777,"temp":27.3,"humidity":73,"rain":0.0,"pressure":1009.2,"uv_index":7.45,"wind_gusts":22.7,"aqi":67,"pm10":26.7,"pm2_5":16.4,"mosquito_risk":7,"arthritis_risk":0,"migraine_risk":4,"frizz_risk":1,"updated_at":"2026-04-03T02:08:37.582331+05:30"},{"city":"Bangalore","state":"Karnataka","latitude":12.9716,"longitude":77.5946,"temp":22.1,"humidity":61,"rain":0.0,"pressure":912.3,"uv_index":9.6,"wind_gusts":27.0,"aqi":53,"pm10":22.2,"pm2_5":21.7,"mosquito_risk":3,"arthritis_risk":5,"migraine_risk":7,"frizz_risk":0,"updated_at":"2026-04-03T02:08:37.582350+05:30"},{"city":"Hyderabad","state":"Telangana","latitude":17.385,"longitude":78.4867,"temp":25.7,"humidity":65,"rain":0.0,"pressure":954.4,"uv_index":9.15,"wind_gusts":23.4,"aqi":63,"pm10":22.9,"pm2_5":19.7,"mosquito_risk":7,"arthritis_risk":5,"migraine_risk":7,"frizz_risk":1,"updated_at":"2026-04-03T02:08:37.582360+05:30"},{"city":"Chennai","state":"Tamil Nadu","latitude":13.0827,"longitude":80.2707,"temp":27.1,"humidity":85,"rain":0.0,"pressure":1008.4,"uv_index":9.25,"wind_gusts":37.8,"aqi":45,"pm10":11.8,"pm2_5":9.1,"mosquito_risk":7,"arthritis_risk":0,"migraine_risk":4,"frizz_risk":1,"updated_at":"2026-04-03T02:08:37.582370+05:30"},{"city":"Kolkata","state":"West Bengal","latitude":22.5726,"longitude":88.3639,"temp":26.3,"humidity":91,"rain":0.0,"pressure":1005.7,"uv_index":8.65,"wind_gusts":20.9,"aqi":73,"pm10":16.2,"pm2_5":13.9,"mosquito_risk":7,"arthritis_risk":5,"migraine_risk":4,"frizz_risk":1,"updated_at":"2026-04-03T02:08:37.582379+05:30"},{"city":"Pune","state":"Maharashtra","latitude":18.5204,"longitude":73.8567,"temp":22.4,"humidity":94,"rain":0.0,"pressure":948.9,"uv_index":8.35,"wind_gusts":36.7,"aqi":139,"pm10":63.3,"pm2_5":58.9,"mosquito_risk":3,"arthritis_risk":5,"migraine_risk":7,"frizz_risk":1,"updated_at":"2026-04-03T02:08:37.582405+05:30"},{"city":"Ahmedabad","state":"Gujarat","latitude":23.0225,"longitude":72.5714,"temp":25.6,"humidity":58,"rain":0.0,"pressure":1003.5,"uv_index":7.85,"wind_gusts":37.4,"aqi":55,"pm10":29.4,"pm2_5":15.6,"mosquito_risk":4,"arthritis_risk":5,"migraine_risk":4,"frizz_risk":1,"updated_at":"2026-04-03T02:08:37.582416+05:30"},{"city":"Jaipur","state":"Rajasthan","latitude":26.9124,"longitude":75.7873,"temp":24.0,"humidity":67,"rain":0.0,"pressure":959.5,"uv_index":7.5,"wind_gusts":52.6,"aqi":112,"pm10":141.6,"pm2_5":35.5,"mosquito_risk":3,"arthritis_risk":5,"migraine_risk":7,"frizz_risk":1,"updated_at":"2026-04-03T02:08:37.582425+05:30"},{"city":"Lucknow","state":"Uttar Pradesh","latitude":26.8467,"longitude":80.9462,"temp":25.6,"humidity":58,"rain":0.0,"pressure":992.7,"uv_index":5.25,"wind_gusts":34.6,"aqi":84,"pm10":88.2,"pm2_5":33.5,"mosquito_risk":4,"arthritis_risk":5,"migraine_risk":3,"frizz_risk":1,"updated_at":"2026-04-03T02:08:37.582433+05:30"},{"city":"Kanpur","state":"Uttar Pradesh","latitude":26.4499,"longitude":80.3319,"temp":27.6,"humidity":54,"rain":0.0,"pressure":991.0,"uv_index":6.65,"wind_gusts":26.3,"aqi":97,"pm10":124.8,"pm2_5":42.6,"mosquito_risk":4,"arthritis_risk":5,"migraine_risk":7,"frizz_risk":1,"updated_at":"2026-04-03T02:08:37.582441+05:30"},{"city":"Chandigarh","state":"Chandigarh","latitude":30.7333,"longitude":76.7794,"temp":20.4,"humidity":61,"rain":0.0,"pressure":968.3,"uv_index":5.9,"wind_gusts":50.8,"aqi":67,"pm10":37.1,"pm2_5":28.4,"mosquito_risk":3,"arthritis_risk":5,"migraine_risk":3,"frizz_risk":0,"updated_at":"2026-04-03T02:08:37.582449+05:30"},{"city":"Srinagar","state":"Jammu and Kashmir","latitude":34.0837,"longitude":74.7973,"temp":9.6,"humidity":79,"rain":0.0,"pressure":840.2,"uv_index":4.05,"wind_gusts":18.4,"aqi":101,"pm10":60.1,"pm2_5":54.4,"mosquito_risk":3,"arthritis_risk":5,"migraine_risk":3,"frizz_risk":0,"updated_at":"2026-04-03T02:08:37.582456+05:30"},{"city":"Jammu","state":"Jammu and Kashmir","latitude":32.7266,"longitude":74.857,"temp":21.8,"humidity":68,"rain":0.0,"pressure":972.6,"uv_index":4.7,"wind_gusts":38.9,"aqi":74,"pm10":27.4,"pm2_5":20.7,"mosquito_risk":3,"arthritis_risk":5,"migraine_risk":3,"frizz_risk":0,"updated_at":"2026-04-03T02:08:37.582464+05:30"},{"city":"Amritsar","state":"Punjab","latitude":31.634,"longitude":74.8723,"temp":21.8,"humidity":76,"rain":0.0,"pressure":981.1,"uv_index":4.25,"wind_gusts":37.1,"aqi":87,"pm10":79.2,"pm2_5":50.3,"mosquito_risk":3,"arthritis_risk":5,"migraine_risk":3,"frizz_risk":1,"updated_at":"2026-04-03T02:08:37.582471+05:30"},{"city":"Ludhiana","state":"Punjab","latitude":30.901,"longitude":75.8573,"temp":22.7,"humidity":59,"rain":0.0,"pressure":978.7,"uv_index":4.05,"wind_gusts":45.4,"aqi":122,"pm10":151.3,"pm2_5":72.6,"mosquito_risk":0,"arthritis_risk":5,"migraine_risk":3,"frizz_risk":0,"updated_at":"2026-04-03T02:08:37.582479+05:30"},{"city":"Jalandhar","state":"Punjab","latitude":31.326,"longitude":75.5762,"temp":21.6,"humidity":63,"rain":0.0,"pressure":979.8,"uv_index":6.2,"wind_gusts":46.1,"aqi":99,"pm10":162.5,"pm2_5":74.5,"mosquito_risk":3,"arthritis_risk":5,"migraine_risk":7,"frizz_risk":0,"updated_at":"2026-04-03T02:08:37.582488+05:30"},{"city":"Dehradun","state":"Uttarakhand","latitude":30.6284,"longitude":78.0322,"temp":15.4,"humidity":54,"rain":0.0,"pressure":830.6,"uv_index":6.15,"wind_gusts":45.4,"aqi":36,"pm10":14.9,"pm2_5":9.9,"mosquito_risk":0,"arthritis_risk":5,"migraine_risk":7,"frizz_risk":0,"updated_at":"2026-04-03T02:08:37.582495+05:30"},{"city":"Shimla","state":"Himachal Pradesh","latitude":31.1048,"longitude":77.1734,"temp":13.6,"humidity":57,"rain":0.0,"pressure":784.4,"uv_index":6.5,"wind_gusts":54.7,"aqi":54,"pm10":30.5,"pm2_5":20.1,"mosquito_risk":0,"arthritis_risk":5,"migraine_risk":7,"frizz_risk":0,"updated_at":"2026-04-03T02:08:37.582503+05:30"},{"city":"Manali","state":"Himachal Pradesh","latitude":32.2396,"longitude":77.1887,"temp":16.8,"humidity":34,"rain":0.0,"pressure":821.2,"uv_index":6.15,"wind_gusts":45.0,"aqi":43,"pm10":11.4,"pm2_5":7.6,"mosquito_risk":0,"arthritis_risk":5,"migraine_risk":7,"frizz_risk":0,"updated_at":"2026-04-03T02:08:37.582510+05:30"},{"city":"Gurgaon","state":"Haryana","latitude":28.4595,"longitude":77.0266,"temp":22.6,"humidity":74,"rain":0.0,"pressure":980.7,"uv_index":6.75,"wind_gusts":40.7,"aqi":191,"pm10":151.8,"pm2_5":69.4,"mosquito_risk":3,"arthritis_risk":5,"migraine_risk":7,"frizz_risk":1,"updated_at":"2026-04-03T02:08:37.582516+05:30"},{"city":"Noida","state":"Uttar Pradesh","latitude":28.5355,"longitude":77.391,"temp":24.0,"humidity":72,"rain":0.0,"pressure":984.0,"uv_index":6.25,"wind_gusts":42.1,"aqi":191,"pm10":151.8,"pm2_5":69.4,"mosquito_risk":3,"arthritis_risk":5,"migraine_risk":7,"frizz_risk":1,"updated_at":"2026-04-03T02:08:37.582523+05:30"},{"city":"Ghaziabad","state":"Uttar Pradesh","latitude":28.6692,"longitude":77.4538,"temp":23.7,"humidity":71,"rain":0.0,"pressure":982.2,"uv_index":6.4,"wind_gusts":41.0,"aqi":115,"pm10":190.5,"pm2_5":89.4,"mosquito_risk":3,"arthritis_risk":5,"migraine_risk":7,"frizz_risk":1,"updated_at":"2026-04-03T02:08:37.582531+05:30"},{"city":"Faridabad","state":"Haryana","latitude":28.4089,"longitude":77.3178,"temp":23.4,"humidity":67,"rain":0.0,"pressure":983.0,"uv_index":6.0,"wind_gusts":38.5,"aqi":191,"pm10":151.8,"pm2_5":69.4,"mosquito_risk":3,"arthritis_risk":5,"migraine_risk":3,"frizz_risk":1,"updated_at":"2026-04-03T02:08:37.582540+05:30"},{"city":"Meerut","state":"Uttar Pradesh","latitude":28.9845,"longitude":77.7064,"temp":23.0,"humidity":61,"rain":0.0,"pressure":981.0,"uv_index":5.25,"wind_gusts":39.2,"aqi":115,"pm10":190.5,"pm2_5":89.4,"mosquito_risk":3,"arthritis_risk":5,"migraine_risk":3,"frizz_risk":0,"updated_at":"2026-04-03T02:08:37.582549+05:30"},{"city":"Agra","state":"Uttar Pradesh","latitude":27.1767,"longitude":78.0081,"temp":24.7,"humidity":64,"rain":0.0,"pressure":987.0,"uv_index":7.25,"wind_gusts":34.9,"aqi":232,"pm10":317.6,"pm2_5":82.7,"mosquito_risk":3,"arthritis_risk":5,"migraine_risk":7,"frizz_risk":1,"updated_at":"2026-04-03T02:08:37.582556+05:30"},{"city":"Varanasi","state":"Uttar Pradesh","latitude":25.3176,"longitude":82.9739,"temp":26.8,"humidity":58,"rain":0.0,"pressure":996.8,"uv_index":6.25,"wind_gusts":33.1,"aqi":88,"pm10":43.4,"pm2_5":34.2,"mosquito_risk":4,"arthritis_risk":5,"migraine_risk":7,"frizz_risk":1,"updated_at":"2026-04-03T02:08:37.582565+05:30"},{"city":"Prayagraj","state":"Uttar Pradesh","latitude":25.4358,"longitude":81.8463,"temp":27.6,"humidity":54,"rain":0.0,"pressure":995.3,"uv_index":6.6,"wind_gusts":31.0,"aqi":78,"pm10":61.7,"pm2_5":32.9,"mosquito_risk":4,"arthritis_risk":5,"migraine_risk":7,"frizz_risk":1,"updated_at":"2026-04-03T02:08:37.582572+05:30"},{"city":"Gorakhpur","state":"Uttar Pradesh","latitude":26.7606,"longitude":83.3732,"temp":23.6,"humidity":56,"rain":0.0,"pressure":996.2,"uv_index":6.2,"wind_gusts":32.4,"aqi":65,"pm10":68.2,"pm2_5":25.2,"mosquito_risk":0,"arthritis_risk":5,"migraine_risk":7,"frizz_risk":0,"updated_at":"2026-04-03T02:08:37.582580+05:30"},{"city":"Bareilly","state":"Uttar Pradesh","latitude":28.367,"longitude":79.4304,"temp":23.2,"humidity":61,"rain":0.0,"pressure":986.3,"uv_index":4.7,"wind_gusts":23.0,"aqi":70,"pm10":47.5,"pm2_5":27.9,"mosquito_risk":3,"arthritis_risk":5,"migraine_risk":3,"frizz_risk":0,"updated_at":"2026-04-03T02:08:37.582587+05:30"},{"city":"Aligarh","state":"Uttar Pradesh","latitude":27.8974,"longitude":78.088,"temp":23.6,"humidity":65,"rain":0.0,"pressure":984.9,"uv_index":6.4,"wind_gusts":37.4,"aqi":130,"pm10":124.8,"pm2_5":71.0,"mosquito_risk":3,"arthritis_risk":5,"migraine_risk":7,"frizz_risk":1,"updated_at":"2026-04-03T02:08:37.582593+05:30"},{"city":"Moradabad","state":"Uttar Pradesh","latitude":28.8386,"longitude":78.7733,"temp":23.5,"humidity":54,"rain":0.0,"pressure":983.2,"uv_index":5.7,"wind_gusts":34.2,"aqi":83,"pm10":79.6,"pm2_5":46.7,"mosquito_risk":0,"arthritis_risk":5,"migraine_risk":3,"frizz_risk":0,"updated_at":"2026-04-03T02:08:37.582599+05:30"},{"city":"Saharanpur","state":"Uttar Pradesh","latitude":29.9637,"longitude":77.546,"temp":19.7,"humidity":63,"rain":0.0,"pressure":975.3,"uv_index":5.75,"wind_gusts":25.6,"aqi":88,"pm10":67.3,"pm2_5":53.7,"mosquito_risk":3,"arthritis_risk":5,"migraine_risk":3,"frizz_risk":0,"updated_at":"2026-04-03T02:08:37.582605+05:30"},{"city":"Jhansi","state":"Uttar Pradesh","latitude":25.4484,"longitude":78.5685,"temp":26.9,"humidity":44,"rain":0.0,"pressure":977.7,"uv_index":7.75,"wind_gusts":37.4,"aqi":68,"pm10":23.2,"pm2_5":21.1,"mosquito_risk":4,"arthritis_risk":5,"migraine_risk":7,"frizz_risk":0,"updated_at":"2026-04-03T02:08:40.798395+05:30"},{"city":"Surat","state":"Gujarat","latitude":21.1702,"longitude":72.8311,"temp":26.5,"humidity":84,"rain":0.0,"pressure":1007.6,"uv_index":7.65,"wind_gusts":28.1,"aqi":91,"pm10":31.2,"pm2_5":24.7,"mosquito_risk":7,"arthritis_risk":5,"migraine_risk":4,"frizz_risk":1,"updated_at":"2026-04-03T02:08:40.798428+05:30"},{"city":"Vadodara","state":"Gujarat","latitude":22.3072,"longitude":73.1812,"temp":25.4,"humidity":80,"rain":0.0,"pressure":1005.5,"uv_index":7.85,"wind_gusts":32.4,"aqi":73,"pm10":23.3,"pm2_5":21.8,"mosquito_risk":7,"arthritis_risk":5,"migraine_risk":4,"frizz_risk":1,"updated_at":"2026-04-03T02:08:40.798441+05:30"},{"city":"Rajkot","state":"Gujarat","latitude":22.3039,"longitude":70.8022,"temp":23.8,"humidity":62,"rain":0.0,"pressure":995.3,"uv_index":6.7,"wind_gusts":47.9,"aqi":59,"pm10":43.9,"pm2_5":18.7,"mosquito_risk":3,"arthritis_risk":5,"migraine_risk":7,"frizz_risk":1,"updated_at":"2026-04-03T02:08:40.798448+05:30"},{"city":"Thane","state":"Maharashtra","latitude":19.2183,"longitude":72.9781,"temp":24.7,"humidity":83,"rain":0.0,"pressure":1008.7,"uv_index":7.6,"wind_gusts":32.8,"aqi":67,"pm10":26.7,"pm2_5":16.4,"mosquito_risk":3,"arthritis_risk":0,"migraine_risk":4,"frizz_risk":1,"updated_at":"2026-04-03T02:08:40.798455+05:30"},{"city":"Nagpur","state":"Maharashtra","latitude":21.1458,"longitude":79.0882,"temp":24.2,"humidity":81,"rain":0.0,"pressure":975.5,"uv_index":8.65,"wind_gusts":31.3,"aqi":96,"pm10":46.4,"pm2_5":41.0,"mosquito_risk":3,"arthritis_risk":5,"migraine_risk":7,"frizz_risk":1,"updated_at":"2026-04-03T02:08:40.798462+05:30"},{"city":"Nashik","state":"Maharashtra","latitude":19.9975,"longitude":73.7898,"temp":22.7,"humidity":82,"rain":0.0,"pressure":946.0,"uv_index":8.05,"wind_gusts":33.8,"aqi":85,"pm10":20.0,"pm2_5":15.6,"mosquito_risk":3,"arthritis_risk":5,"migraine_risk":7,"frizz_risk":1,"updated_at":"2026-04-03T02:08:40.798469+05:30"},{"city":"Aurangabad","state":"Maharashtra","latitude":19.8762,"longitude":75.3433,"temp":22.8,"humidity":86,"rain":0.0,"pressure":944.9,"uv_index":8.45,"wind_gusts":28.4,"aqi":107,"pm10":45.3,"pm2_5":39.3,"mosquito_risk":3,"arthritis_risk":5,"migraine_risk":7,"frizz_risk":1,"updated_at":"2026-04-03T02:08:40.798476+05:30"},{"city":"Solapur","state":"Maharashtra","latitude":17.6599,"longitude":75.9064,"temp":24.1,"humidity":83,"rain":0.0,"pressure":958.6,"uv_index":8.95,"wind_gusts":25.2,"aqi":108,"pm10":47.5,"pm2_5":43.0,"mosquito_risk":3,"arthritis_risk":5,"migraine_risk":7,"frizz_risk":1,"updated_at":"2026-04-03T02:08:40.798483+05:30"},{"city":"Kolhapur","state":"Maharashtra","latitude":16.705,"longitude":74.2433,"temp":22.1,"humidity":96,"rain":0.0,"pressure":948.9,"uv_index":8.75,"wind_gusts":34.6,"aqi":150,"pm10":62.6,"pm2_5":59.3,"mosquito_risk":3,"arthritis_risk":5,"migraine_risk":7,"frizz_risk":1,"updated_at":"2026-04-03T02:08:40.798490+05:30"},{"city":"Goa","state":"Goa","latitude":15.2993,"longitude":74.124,"temp":27.9,"humidity":83,"rain":0.0,"pressure":998.8,"uv_index":9.0,"wind_gusts":32.4,"aqi":75,"pm10":33.2,"pm2_5":28.2,"mosquito_risk":7,"arthritis_risk":5,"migraine_risk":7,"frizz_risk":1,"updated_at":"2026-04-03T02:08:40.798498+05:30"},{"city":"Jodhpur","state":"Rajasthan","latitude":26.2389,"longitude":73.0243,"temp":24.3,"humidity":54,"rain":0.0,"pressure":984.6,"uv_index":6.3,"wind_gusts":47.2,"aqi":88,"pm10":116.4,"pm2_5":24.9,"mosquito_risk":0,"arthritis_risk":5,"migraine_risk":7,"frizz_risk":0,"updated_at":"2026-04-03T02:08:40.798504+05:30"},{"city":"Udaipur","state":"Rajasthan","latitude":24.5854,"longitude":73.7125,"temp":22.3,"humidity":63,"rain":0.0,"pressure":947.1,"uv_index":7.85,"wind_gusts":53.6,"aqi":49,"pm10":22.1,"pm2_5":11.7,"mosquito_risk":3,"arthritis_risk":5,"migraine_risk":7,"frizz_risk":0,"updated_at":"2026-04-03T02:08:40.798512+05:30"},{"city":"Kota","state":"Rajasthan","latitude":25.2138,"longitude":75.8648,"temp":25.5,"humidity":42,"rain":0.0,"pressure":979.0,"uv_index":7.75,"wind_gusts":40.3,"aqi":66,"pm10":24.4,"pm2_5":22.1,"mosquito_risk":4,"arthritis_risk":5,"migraine_risk":7,"frizz_risk":0,"updated_at":"2026-04-03T02:08:40.798518+05:30"},{"city":"Bikaner","state":"Rajasthan","latitude":28.0229,"longitude":73.3119,"temp":23.6,"humidity":72,"rain":0.0,"pressure":982.8,"uv_index":6.65,"wind_gusts":49.0,"aqi":65,"pm10":109.2,"pm2_5":27.1,"mosquito_risk":3,"arthritis_risk":5,"migraine_risk":7,"frizz_risk":1,"updated_at":"2026-04-03T02:08:40.798525+05:30"},{"city":"Ajmer","state":"Rajasthan","latitude":26.4499,"longitude":74.6399,"temp":23.9,"humidity":54,"rain":0.0,"pressure":955.2,"uv_index":7.55,"wind_gusts":61.9,"aqi":59,"pm10":104.1,"pm2_5":26.9,"mosquito_risk":0,"arthritis_risk":5,"migraine_risk":7,"frizz_risk":0,"updated_at":"2026-04-03T02:08:40.798531+05:30"},{"city":"Gwalior","state":"Madhya Pradesh","latitude":26.2183,"longitude":78.1828,"temp":27.7,"humidity":60,"rain":0.0,"pressure":982.9,"uv_index":7.6,"wind_gusts":29.2,"aqi":76,"pm10":47.5,"pm2_5":32.6,"mosquito_risk":4,"arthritis_risk":5,"migraine_risk":7,"frizz_risk":1,"updated_at":"2026-04-03T02:08:40.798538+05:30"},{"city":"Indore","state":"Madhya Pradesh","latitude":22.7196,"longitude":75.8577,"temp":24.1,"humidity":65,"rain":0.0,"pressure":948.9,"uv_index":8.3,"wind_gusts":38.5,"aqi":92,"pm10":35.2,"pm2_5":31.8,"mosquito_risk":3,"arthritis_risk":5,"migraine_risk":7,"frizz_risk":1,"updated_at":"2026-04-03T02:08:40.798544+05:30"},{"city":"Bhopal","state":"Madhya Pradesh","latitude":23.2599,"longitude":77.4126,"temp":24.8,"humidity":71,"rain":0.0,"pressure":954.8,"uv_index":8.25,"wind_gusts":34.9,"aqi":89,"pm10":37.1,"pm2_5":31.9,"mosquito_risk":3,"arthritis_risk":5,"migraine_risk":7,"frizz_risk":1,"updated_at":"2026-04-03T02:08:40.798551+05:30"},{"city":"Jabalpur","state":"Madhya Pradesh","latitude":23.1815,"longitude":79.9864,"temp":26.9,"humidity":64,"rain":0.0,"pressure":962.4,"uv_index":8.15,"wind_gusts":29.2,"aqi":91,"pm10":39.6,"pm2_5":33.5,"mosquito_risk":7,"arthritis_risk":5,"migraine_risk":7,"frizz_risk":1,"updated_at":"2026-04-03T02:08:40.798558+05:30"},{"city":"Ujjain","state":"Madhya Pradesh","latitude":23.1765,"longitude":75.7885,"temp":23.4,"humidity":61,"rain":0.0,"pressure":954.5,"uv_index":8.2,"wind_gusts":36.0,"aqi":76,"pm10":26.4,"pm2_5":24.1,"mosquito_risk":3,"arthritis_risk":5,"migraine_risk":7,"frizz_risk":0,"updated_at":"2026-04-03T02:08:40.798565+05:30"},{"city":"Visakhapatnam","state":"Andhra Pradesh","latitude":17.6868,"longitude":83.2185,"temp":26.4,"humidity":90,"rain":0.0,"pressure":1005.1,"uv_index":8.6,"wind_gusts":40.0,"aqi":53,"pm10":18.5,"pm2_5":15.9,"mosquito_risk":7,"arthritis_risk":5,"migraine_risk":4,"frizz_risk":1,"updated_at":"2026-04-03T02:08:40.798571+05:30"},{"city":"Vijayawada","state":"Andhra Pradesh","latitude":16.5062,"longitude":80.648,"temp":25.6,"humidity":92,"rain":0.0,"pressure":1004.3,"uv_index":8.65,"wind_gusts":23.8,"aqi":48,"pm10":14.3,"pm2_5":13.0,"mosquito_risk":7,"arthritis_risk":5,"migraine_risk":4,"frizz_risk":1,"updated_at":"2026-04-03T02:08:40.798578+05:30"},{"city":"Guntur","state":"Andhra Pradesh","latitude":16.3067,"longitude":80.4365,"temp":25.6,"humidity":93,"rain":0.0,"pressure":1005.5,"uv_index":8.65,"wind_gusts":29.5,"aqi":42,"pm10":13.2,"pm2_5":11.9,"mosquito_risk":7,"arthritis_risk":5,"migraine_risk":4,"frizz_risk":1,"updated_at":"2026-04-03T02:08:40.798584+05:30"},{"city":"Nellore","state":"Andhra Pradesh","latitude":14.4426,"longitude":79.9865,"temp":26.4,"humidity":90,"rain":0.0,"pressure":1007.2,"uv_index":9.15,"wind_gusts":32.8,"aqi":38,"pm10":10.3,"pm2_5":8.0,"mosquito_risk":7,"arthritis_risk":5,"migraine_risk":4,"frizz_risk":1,"updated_at":"2026-04-03T02:08:40.798591+05:30"},{"city":"Kurnool","state":"Andhra Pradesh","latitude":15.8281,"longitude":78.0373,"temp":28.2,"humidity":48,"rain":0.0,"pressure":977.2,"uv_index":9.15,"wind_gusts":24.8,"aqi":51,"pm10":15.8,"pm2_5":13.5,"mosquito_risk":4,"arthritis_risk":5,"migraine_risk":7,"frizz_risk":1,"updated_at":"2026-04-03T02:08:40.798599+05:30"},{"city":"Kakinada","state":"Andhra Pradesh","latitude":16.9891,"longitude":82.2475,"temp":25.2,"humidity":95,"rain":0.0,"pressure":1009.3,"uv_index":8.8,"wind_gusts":36.7,"aqi":34,"pm10":16.1,"pm2_5":12.9,"mosquito_risk":7,"arthritis_risk":0,"migraine_risk":4,"frizz_risk":1,"updated_at":"2026-04-03T02:08:40.798605+05:30"},{"city":"Tirupati","state":"Andhra Pradesh","latitude":13.6288,"longitude":79.4192,"temp":24.4,"humidity":86,"rain":0.0,"pressure":993.3,"uv_index":9.35,"wind_gusts":30.6,"aqi":51,"pm10":22.4,"pm2_5":20.0,"mosquito_risk":3,"arthritis_risk":5,"migraine_risk":7,"frizz_risk":1,"updated_at":"2026-04-03T02:08:40.798612+05:30"},{"city":"Warangal","state":"Telangana","latitude":17.9689,"longitude":79.5941,"temp":26.8,"humidity":71,"rain":0.0,"pressure":980.2,"uv_index":9.0,"wind_gusts":25.2,"aqi":64,"pm10":24.9,"pm2_5":22.5,"mosquito_risk":7,"arthritis_risk":5,"migraine_risk":7,"frizz_risk":1,"updated_at":"2026-04-03T02:08:40.798618+05:30"},{"city":"Nizamabad","state":"Telangana","latitude":18.6725,"longitude":78.0941,"temp":23.5,"humidity":86,"rain":0.0,"pressure":967.7,"uv_index":8.85,"wind_gusts":32.4,"aqi":121,"pm10":48.1,"pm2_5":43.7,"mosquito_risk":3,"arthritis_risk":5,"migraine_risk":7,"frizz_risk":1,"updated_at":"2026-04-03T02:08:40.798625+05:30"},{"city":"Mysore","state":"Karnataka","latitude":12.2958,"longitude":76.6396,"temp":22.7,"humidity":89,"rain":0.0,"pressure":929.3,"uv_index":9.5,"wind_gusts":40.7,"aqi":84,"pm10":25.6,"pm2_5":24.5,"mosquito_risk":3,"arthritis_risk":5,"migraine_risk":7,"frizz_risk":1,"updated_at":"2026-04-03T02:08:40.798632+05:30"},{"city":"Mangalore","state":"Karnataka","latitude":12.9141,"longitude":74.856,"temp":28.6,"humidity":81,"rain":0.0,"pressure":1007.8,"uv_index":9.15,"wind_gusts":23.8,"aqi":80,"pm10":41.3,"pm2_5":37.7,"mosquito_risk":7,"arthritis_risk":5,"migraine_risk":4,"frizz_risk":1,"updated_at":"2026-04-03T02:08:40.798639+05:30"},{"city":"Hubli-Dharwad","state":"Karnataka","latitude":15.3647,"longitude":75.124,"temp":23.1,"humidity":90,"rain":0.0,"pressure":941.8,"uv_index":9.2,"wind_gusts":33.5,"aqi":87,"pm10":21.7,"pm2_5":20.2,"mosquito_risk":3,"arthritis_risk":5,"migraine_risk":7,"frizz_risk":1,"updated_at":"2026-04-03T02:08:40.798645+05:30"},{"city":"Belgaum","state":"Karnataka","latitude":15.8497,"longitude":74.4977,"temp":21.3,"humidity":99,"rain":0.0,"pressure":926.2,"uv_index":9.25,"wind_gusts":36.7,"aqi":100,"pm10":40.5,"pm2_5":37.0,"mosquito_risk":3,"arthritis_risk":5,"migraine_risk":7,"frizz_risk":1,"updated_at":"2026-04-03T02:08:44.036549+05:30"},{"city":"Coimbatore","state":"Tamil Nadu","latitude":11.0168,"longitude":76.9558,"temp":24.4,"humidity":86,"rain":0.0,"pressure":962.9,"uv_index":9.5,"wind_gusts":42.8,"aqi":59,"pm10":23.7,"pm2_5":21.8,"mosquito_risk":3,"arthritis_risk":5,"migraine_risk":7,"frizz_risk":1,"updated_at":"2026-04-03T02:08:44.036580+05:30"},{"city":"Madurai","state":"Tamil Nadu","latitude":9.9252,"longitude":78.1198,"temp":25.7,"humidity":85,"rain":0.0,"pressure":994.7,"uv_index":8.5,"wind_gusts":18.7,"aqi":52,"pm10":12.7,"pm2_5":11.6,"mosquito_risk":7,"arthritis_risk":5,"migraine_risk":7,"frizz_risk":1,"updated_at":"2026-04-03T02:08:44.036591+05:30"},{"city":"Trichy","state":"Tamil Nadu","latitude":10.7905,"longitude":78.7047,"temp":25.3,"humidity":88,"rain":0.0,"pressure":1001.4,"uv_index":9.35,"wind_gusts":26.6,"aqi":54,"pm10":20.3,"pm2_5":18.3,"mosquito_risk":7,"arthritis_risk":5,"migraine_risk":4,"frizz_risk":1,"updated_at":"2026-04-03T02:08:44.036599+05:30"},{"city":"Salem","state":"Tamil Nadu","latitude":11.6643,"longitude":78.146,"temp":25.9,"humidity":67,"rain":0.0,"pressure":978.8,"uv_index":9.2,"wind_gusts":22.0,"aqi":63,"pm10":26.0,"pm2_5":25.3,"mosquito_risk":7,"arthritis_risk":5,"migraine_risk":7,"frizz_risk":1,"updated_at":"2026-04-03T02:08:44.036606+05:30"},{"city":"Tirunelveli","state":"Tamil Nadu","latitude":8.7139,"longitude":77.7567,"temp":26.6,"humidity":79,"rain":0.0,"pressure":1004.5,"uv_index":9.35,"wind_gusts":25.9,"aqi":51,"pm10":17.9,"pm2_5":17.0,"mosquito_risk":7,"arthritis_risk":5,"migraine_risk":4,"frizz_risk":1,"updated_at":"2026-04-03T02:08:44.036614+05:30"},{"city":"Vellore","state":"Tamil Nadu","latitude":12.9165,"longitude":79.1325,"temp":22.5,"humidity":76,"rain":0.0,"pressure":986.0,"uv_index":9.1,"wind_gusts":29.9,"aqi":58,"pm10":34.7,"pm2_5":33.1,"mosquito_risk":3,"arthritis_risk":5,"migraine_risk":7,"frizz_risk":1,"updated_at":"2026-04-03T02:08:44.036621+05:30"},{"city":"Erode","state":"Tamil Nadu","latitude":11.341,"longitude":77.7172,"temp":26.1,"humidity":75,"rain":0.0,"pressure":990.6,"uv_index":9.2,"wind_gusts":17.3,"aqi":46,"pm10":12.0,"pm2_5":11.5,"mosquito_risk":7,"arthritis_risk":5,"migraine_risk":7,"frizz_risk":1,"updated_at":"2026-04-03T02:08:44.036628+05:30"},{"city":"Kochi","state":"Kerala","latitude":9.9312,"longitude":76.2673,"temp":27.3,"humidity":83,"rain":0.0,"pressure":1010.0,"uv_index":9.25,"wind_gusts":22.7,"aqi":74,"pm10":29.2,"pm2_5":27.2,"mosquito_risk":7,"arthritis_risk":0,"migraine_risk":4,"frizz_risk":1,"updated_at":"2026-04-03T02:08:44.036635+05:30"},{"city":"Thiruvananthapuram","state":"Kerala","latitude":8.5241,"longitude":76.9366,"temp":28.1,"humidity":83,"rain":0.0,"pressure":1008.9,"uv_index":9.2,"wind_gusts":20.5,"aqi":68,"pm10":15.7,"pm2_5":11.4,"mosquito_risk":7,"arthritis_risk":0,"migraine_risk":4,"frizz_risk":1,"updated_at":"2026-04-03T02:08:44.036642+05:30"},{"city":"Kozhikode","state":"Kerala","latitude":11.2588,"longitude":75.7804,"temp":28.5,"humidity":79,"rain":0.0,"pressure":1008.9,"uv_index":9.15,"wind_gusts":25.6,"aqi":58,"pm10":22.2,"pm2_5":17.7,"mosquito_risk":7,"arthritis_risk":0,"migraine_risk":4,"frizz_risk":1,"updated_at":"2026-04-03T02:08:44.036648+05:30"},{"city":"Thrissur","state":"Kerala","latitude":10.5276,"longitude":76.2144,"temp":26.1,"humidity":91,"rain":0.0,"pressure":1008.4,"uv_index":9.2,"wind_gusts":30.6,"aqi":70,"pm10":32.8,"pm2_5":30.2,"mosquito_risk":7,"arthritis_risk":0,"migraine_risk":4,"frizz_risk":1,"updated_at":"2026-04-03T02:08:44.036656+05:30"},{"city":"Kannur","state":"Kerala","latitude":11.8745,"longitude":75.3704,"temp":27.7,"humidity":83,"rain":0.0,"pressure":1008.3,"uv_index":9.05,"wind_gusts":27.0,"aqi":77,"pm10":41.3,"pm2_5":38.9,"mosquito_risk":7,"arthritis_risk":0,"migraine_risk":4,"frizz_risk":1,"updated_at":"2026-04-03T02:08:44.036662+05:30"},{"city":"Patna","state":"Bihar","latitude":25.5941,"longitude":85.1376,"temp":25.7,"humidity":63,"rain":0.0,"pressure":999.7,"uv_index":8.25,"wind_gusts":30.6,"aqi":73,"pm10":34.9,"pm2_5":28.5,"mosquito_risk":7,"arthritis_risk":5,"migraine_risk":7,"frizz_risk":1,"updated_at":"2026-04-03T02:08:44.036669+05:30"},{"city":"Gaya","state":"Bihar","latitude":24.7914,"longitude":85.0002,"temp":27.7,"humidity":52,"rain":0.0,"pressure":993.5,"uv_index":8.3,"wind_gusts":34.2,"aqi":76,"pm10":40.9,"pm2_5":31.9,"mosquito_risk":4,"arthritis_risk":5,"migraine_risk":7,"frizz_risk":1,"updated_at":"2026-04-03T02:08:44.036675+05:30"},{"city":"Muzaffarpur","state":"Bihar","latitude":26.1209,"longitude":85.3647,"temp":23.7,"humidity":58,"rain":0.0,"pressure":999.5,"uv_index":8.0,"wind_gusts":32.8,"aqi":74,"pm10":33.6,"pm2_5":27.5,"mosquito_risk":0,"arthritis_risk":5,"migraine_risk":7,"frizz_risk":0,"updated_at":"2026-04-03T02:08:44.036682+05:30"},{"city":"Bhagalpur","state":"Bihar","latitude":25.2425,"longitude":87.0117,"temp":25.6,"humidity":72,"rain":0.0,"pressure":1000.1,"uv_index":8.3,"wind_gusts":24.5,"aqi":67,"pm10":29.3,"pm2_5":20.8,"mosquito_risk":7,"arthritis_risk":5,"migraine_risk":4,"frizz_risk":1,"updated_at":"2026-04-03T02:08:44.036689+05:30"},{"city":"Ranchi","state":"Jharkhand","latitude":23.3441,"longitude":85.3096,"temp":24.2,"humidity":64,"rain":0.0,"pressure":938.3,"uv_index":8.95,"wind_gusts":31.3,"aqi":76,"pm10":45.3,"pm2_5":37.1,"mosquito_risk":3,"arthritis_risk":5,"migraine_risk":7,"frizz_risk":1,"updated_at":"2026-04-03T02:08:44.036695+05:30"},{"city":"Jamshedpur","state":"Jharkhand","latitude":22.8046,"longitude":86.2029,"temp":27.5,"humidity":72,"rain":0.0,"pressure":990.7,"uv_index":8.75,"wind_gusts":32.8,"aqi":98,"pm10":48.8,"pm2_5":39.3,"mosquito_risk":7,"arthritis_risk":5,"migraine_risk":7,"frizz_risk":1,"updated_at":"2026-04-03T02:08:44.036702+05:30"},{"city":"Dhanbad","state":"Jharkhand","latitude":23.7957,"longitude":86.4304,"temp":27.3,"humidity":59,"rain":0.0,"pressure":979.5,"uv_index":8.7,"wind_gusts":23.8,"aqi":151,"pm10":83.4,"pm2_5":76.4,"mosquito_risk":4,"arthritis_risk":5,"migraine_risk":7,"frizz_risk":1,"updated_at":"2026-04-03T02:08:44.036709+05:30"},{"city":"Bokaro","state":"Jharkhand","latitude":23.6693,"longitude":86.1511,"temp":28.1,"humidity":54,"rain":0.0,"pressure":984.0,"uv_index":8.7,"wind_gusts":25.6,"aqi":151,"pm10":91.7,"pm2_5":85.7,"mosquito_risk":4,"arthritis_risk":5,"migraine_risk":7,"frizz_risk":1,"updated_at":"2026-04-03T02:08:44.036716+05:30"},{"city":"Bhubaneswar","state":"Odisha","latitude":20.2961,"longitude":85.8245,"temp":25.9,"humidity":89,"rain":0.0,"pressure":1003.3,"uv_index":8.95,"wind_gusts":31.7,"aqi":52,"pm10":11.7,"pm2_5":9.6,"mosquito_risk":7,"arthritis_risk":5,"migraine_risk":4,"frizz_risk":1,"updated_at":"2026-04-03T02:08:44.036723+05:30"},{"city":"Cuttack","state":"Odisha","latitude":20.4625,"longitude":85.8828,"temp":25.6,"humidity":89,"rain":0.0,"pressure":1005.2,"uv_index":9.0,"wind_gusts":33.1,"aqi":52,"pm10":11.7,"pm2_5":9.6,"mosquito_risk":7,"arthritis_risk":5,"migraine_risk":4,"frizz_risk":1,"updated_at":"2026-04-03T02:08:44.036729+05:30"},{"city":"Rourkela","state":"Odisha","latitude":22.2604,"longitude":84.8536,"temp":26.5,"humidity":85,"rain":0.0,"pressure":985.2,"uv_index":8.7,"wind_gusts":54.0,"aqi":111,"pm10":49.6,"pm2_5":39.3,"mosquito_risk":7,"arthritis_risk":5,"migraine_risk":7,"frizz_risk":1,"updated_at":"2026-04-03T02:08:44.036736+05:30"},{"city":"Raipur","state":"Chhattisgarh","latitude":21.2514,"longitude":81.6296,"temp":27.7,"humidity":60,"rain":0.0,"pressure":975.6,"uv_index":8.75,"wind_gusts":27.0,"aqi":145,"pm10":80.1,"pm2_5":72.6,"mosquito_risk":4,"arthritis_risk":5,"migraine_risk":7,"frizz_risk":1,"updated_at":"2026-04-03T02:08:44.036742+05:30"},{"city":"Bhilai","state":"Chhattisgarh","latitude":21.1938,"longitude":81.3509,"temp":27.3,"humidity":61,"rain":0.0,"pressure":975.9,"uv_index":8.75,"wind_gusts":25.2,"aqi":130,"pm10":61.0,"pm2_5":53.4,"mosquito_risk":7,"arthritis_risk":5,"migraine_risk":7,"frizz_risk":1,"updated_at":"2026-04-03T02:08:44.036748+05:30"},{"city":"Guwahati","state":"Assam","latitude":26.1158,"longitude":91.7086,"temp":24.2,"humidity":87,"rain":0.0,"pressure":1001.5,"uv_index":8.25,"wind_gusts":22.0,"aqi":107,"pm10":44.2,"pm2_5":40.7,"mosquito_risk":3,"arthritis_risk":5,"migraine_risk":4,"frizz_risk":1,"updated_at":"2026-04-03T02:08:44.036754+05:30"},{"city":"Agartala","state":"Tripura","latitude":23.8315,"longitude":91.2868,"temp":25.4,"humidity":95,"rain":0.0,"pressure":1006.0,"uv_index":8.45,"wind_gusts":29.9,"aqi":101,"pm10":15.1,"pm2_5":13.3,"mosquito_risk":7,"arthritis_risk":5,"migraine_risk":4,"frizz_risk":1,"updated_at":"2026-04-03T02:08:44.036761+05:30"},{"city":"Shillong","state":"Meghalaya","latitude":25.5788,"longitude":91.8933,"temp":15.5,"humidity":86,"rain":0.0,"pressure":856.3,"uv_index":8.65,"wind_gusts":49.3,"aqi":92,"pm10":40.2,"pm2_5":34.1,"mosquito_risk":3,"arthritis_risk":10,"migraine_risk":7,"frizz_risk":0,"updated_at":"2026-04-03T02:08:44.036768+05:30"},{"city":"Imphal","state":"Manipur","latitude":24.817,"longitude":93.9368,"temp":18.1,"humidity":92,"rain":0.0,"pressure":923.9,"uv_index":8.8,"wind_gusts":63.0,"aqi":119,"pm10":53.9,"pm2_5":46.4,"mosquito_risk":3,"arthritis_risk":10,"migraine_risk":7,"frizz_risk":1,"updated_at":"2026-04-03T02:08:44.036775+05:30"},{"city":"Aizawl","state":"Mizoram","latitude":23.7271,"longitude":92.7176,"temp":18.7,"humidity":88,"rain":0.0,"pressure":892.9,"uv_index":8.7,"wind_gusts":49.3,"aqi":102,"pm10":53.4,"pm2_5":41.8,"mosquito_risk":3,"arthritis_risk":10,"migraine_risk":7,"frizz_risk":1,"updated_at":"2026-04-03T02:08:44.036782+05:30"},{"city":"Kohima","state":"Nagaland","latitude":25.6701,"longitude":94.1077,"temp":15.8,"humidity":82,"rain":0.0,"pressure":854.9,"uv_index":8.75,"wind_gusts":72.4,"aqi":92,"pm10":39.0,"pm2_5":32.2,"mosquito_risk":3,"arthritis_risk":10,"migraine_risk":7,"frizz_risk":0,"updated_at":"2026-04-03T02:08:44.036788+05:30"},{"city":"Gangtok","state":"Sikkim","latitude":27.3314,"longitude":88.6138,"temp":15.7,"humidity":91,"rain":0.0,"pressure":837.6,"uv_index":8.6,"wind_gusts":20.5,"aqi":80,"pm10":27.4,"pm2_5":23.1,"mosquito_risk":3,"arthritis_risk":10,"migraine_risk":7,"frizz_risk":0,"updated_at":"2026-04-03T02:08:44.036795+05:30"},{"city":"Siliguri","state":"West Bengal","latitude":26.7271,"longitude":88.3953,"temp":22.9,"humidity":58,"rain":0.0,"pressure":993.7,"uv_index":8.25,"wind_gusts":22.0,"aqi":144,"pm10":78.5,"pm2_5":70.3,"mosquito_risk":0,"arthritis_risk":5,"migraine_risk":7,"frizz_risk":0,"updated_at":"2026-04-03T02:08:47.264147+05:30"},{"city":"Durgapur","state":"West Bengal","latitude":23.5204,"longitude":87.3119,"temp":28.6,"humidity":68,"rain":0.0,"pressure":994.6,"uv_index":8.65,"wind_gusts":19.4,"aqi":153,"pm10":100.4,"pm2_5":92.2,"mosquito_risk":7,"arthritis_risk":5,"migraine_risk":7,"frizz_risk":1,"updated_at":"2026-04-03T02:08:47.264175+05:30"},{"city":"Asansol","state":"West Bengal","latitude":23.6739,"longitude":86.9524,"temp":28.3,"humidity":65,"rain":0.0,"pressure":993.0,"uv_index":8.65,"wind_gusts":21.6,"aqi":125,"pm10":53.8,"pm2_5":46.1,"mosquito_risk":7,"arthritis_risk":5,"migraine_risk":7,"frizz_risk":1,"updated_at":"2026-04-03T02:08:47.264184+05:30"},{"city":"Pondicherry","state":"Puducherry","latitude":11.9139,"longitude":79.8145,"temp":23.5,"humidity":91,"rain":0.0,"pressure":1009.7,"uv_index":9.3,"wind_gusts":32.0,"aqi":39,"pm10":12.3,"pm2_5":9.2,"mosquito_risk":3,"arthritis_risk":0,"migraine_risk":4,"frizz_risk":1,"updated_at":"2026-04-03T02:08:47.264193+05:30"},{"city":"Port Blair","state":"Andaman and Nicobar Islands","latitude":11.6234,"longitude":92.7265,"temp":28.5,"humidity":80,"rain":0.0,"pressure":1006.4,"uv_index":9.25,"wind_gusts":28.8,"aqi":43,"pm10":10.6,"pm2_5":6.3,"mosquito_risk":7,"arthritis_risk":5,"migraine_risk":4,"frizz_risk":1,"updated_at":"2026-04-03T02:08:47.264201+05:30"},{"city":"Haridwar","state":"Uttarakhand","latitude":29.9457,"longitude":78.1642,"temp":20.2,"humidity":60,"rain":0.0,"pressure":974.3,"uv_index":5.6,"wind_gusts":38.5,"aqi":61,"pm10":30.5,"pm2_5":23.9,"mosquito_risk":0,"arthritis_risk":5,"migraine_risk":3,"frizz_risk":0,"updated_at":"2026-04-03T02:08:47.264208+05:30"},{"city":"Rishikesh","state":"Uttarakhand","latitude":30.0869,"longitude":78.2676,"temp":21.4,"humidity":50,"rain":0.0,"pressure":967.4,"uv_index":5.0,"wind_gusts":31.0,"aqi":48,"pm10":23.7,"pm2_5":14.0,"mosquito_risk":0,"arthritis_risk":5,"migraine_risk":3,"frizz_risk":0,"updated_at":"2026-04-03T02:08:47.264216+05:30"},{"city":"Nainital","state":"Uttarakhand","latitude":29.3919,"longitude":79.4542,"temp":20.7,"humidity":33,"rain":0.0,"pressure":807.5,"uv_index":5.8,"wind_gusts":34.6,"aqi":51,"pm10":26.5,"pm2_5":14.6,"mosquito_risk":0,"arthritis_risk":5,"migraine_risk":3,"frizz_risk":0,"updated_at":"2026-04-03T02:08:47.264223+05:30"},{"city":"Mussoorie","state":"Uttarakhand","latitude":30.4599,"longitude":78.0664,"temp":18.1,"humidity":42,"rain":0.0,"pressure":803.9,"uv_index":6.25,"wind_gusts":48.2,"aqi":56,"pm10":29.6,"pm2_5":21.5,"mosquito_risk":0,"arthritis_risk":5,"migraine_risk":7,"frizz_risk":0,"updated_at":"2026-04-03T02:08:47.264230+05:30"},{"city":"Dharamshala","state":"Himachal Pradesh","latitude":32.219,"longitude":76.3234,"temp":21.2,"humidity":36,"rain":0.0,"pressure":869.3,"uv_index":4.9,"wind_gusts":47.5,"aqi":35,"pm10":17.2,"pm2_5":9.7,"mosquito_risk":0,"arthritis_risk":5,"migraine_risk":3,"frizz_risk":0,"updated_at":"2026-04-03T02:08:47.264238+05:30"},{"city":"Dalhousie","state":"Himachal Pradesh","latitude":32.5387,"longitude":75.971,"temp":17.3,"humidity":41,"rain":0.0,"pressure":803.4,"uv_index":5.75,"wind_gusts":48.6,"aqi":61,"pm10":27.2,"pm2_5":21.5,"mosquito_risk":0,"arthritis_risk":5,"migraine_risk":3,"frizz_risk":0,"updated_at":"2026-04-03T02:08:47.264245+05:30"},{"city":"Patiala","state":"Punjab","latitude":30.3398,"longitude":76.3869,"temp":21.7,"humidity":64,"rain":0.0,"pressure":977.9,"uv_index":5.15,"wind_gusts":37.8,"aqi":111,"pm10":118.3,"pm2_5":56.6,"mosquito_risk":3,"arthritis_risk":5,"migraine_risk":3,"frizz_risk":0,"updated_at":"2026-04-03T02:08:47.264253+05:30"},{"city":"Bhatinda","state":"Punjab","latitude":30.211,"longitude":74.9455,"temp":21.2,"humidity":85,"rain":0.0,"pressure":983.8,"uv_index":5.8,"wind_gusts":45.4,"aqi":99,"pm10":207.7,"pm2_5":44.4,"mosquito_risk":3,"arthritis_risk":5,"migraine_risk":3,"frizz_risk":1,"updated_at":"2026-04-03T02:08:47.264260+05:30"},{"city":"Rohtak","state":"Haryana","latitude":28.8955,"longitude":76.6066,"temp":21.7,"humidity":78,"rain":0.0,"pressure":981.0,"uv_index":6.4,"wind_gusts":37.1,"aqi":153,"pm10":381.8,"pm2_5":103.4,"mosquito_risk":3,"arthritis_risk":5,"migraine_risk":7,"frizz_risk":1,"updated_at":"2026-04-03T02:08:47.264267+05:30"},{"city":"Panipat","state":"Haryana","latitude":29.3909,"longitude":76.9635,"temp":22.3,"humidity":71,"rain":0.0,"pressure":979.9,"uv_index":5.9,"wind_gusts":31.3,"aqi":153,"pm10":388.4,"pm2_5":118.5,"mosquito_risk":3,"arthritis_risk":5,"migraine_risk":3,"frizz_risk":1,"updated_at":"2026-04-03T02:08:47.264275+05:30"},{"city":"Mathura","state":"Uttar Pradesh","latitude":27.4924,"longitude":77.6737,"temp":24.2,"humidity":65,"rain":0.0,"pressure":986.0,"uv_index":6.55,"wind_gusts":38.5,"aqi":191,"pm10":182.1,"pm2_5":61.0,"mosquito_risk":3,"arthritis_risk":5,"migraine_risk":7,"frizz_risk":1,"updated_at":"2026-04-03T02:08:47.264282+05:30"},{"city":"Vrindavan","state":"Uttar Pradesh","latitude":27.5823,"longitude":77.7027,"temp":22.8,"humidity":70,"rain":0.0,"pressure":986.5,"uv_index":6.65,"wind_gusts":37.8,"aqi":191,"pm10":182.1,"pm2_5":61.0,"mosquito_risk":3,"arthritis_risk":5,"migraine_risk":7,"frizz_risk":1,"updated_at":"2026-04-03T02:08:47.264289+05:30"},{"city":"Ayodhya","state":"Uttar Pradesh","latitude":26.7922,"longitude":82.1998,"temp":23.8,"humidity":60,"rain":0.0,"pressure":994.4,"uv_index":5.8,"wind_gusts":23.8,"aqi":72,"pm10":75.4,"pm2_5":28.4,"mosquito_risk":0,"arthritis_risk":5,"migraine_risk":3,"frizz_risk":0,"updated_at":"2026-04-03T02:08:47.264296+05:30"},{"city":"Ratlam","state":"Madhya Pradesh","latitude":23.3315,"longitude":75.0367,"temp":23.6,"humidity":64,"rain":0.0,"pressure":955.0,"uv_index":8.15,"wind_gusts":37.4,"aqi":68,"pm10":24.0,"pm2_5":21.6,"mosquito_risk":3,"arthritis_risk":5,"migraine_risk":7,"frizz_risk":1,"updated_at":"2026-04-03T02:08:47.264303+05:30"},{"city":"Sagar","state":"Madhya Pradesh","latitude":23.8388,"longitude":78.7378,"temp":26.4,"humidity":55,"rain":0.0,"pressure":951.1,"uv_index":7.15,"wind_gusts":27.7,"aqi":74,"pm10":29.7,"pm2_5":26.4,"mosquito_risk":4,"arthritis_risk":5,"migraine_risk":7,"frizz_risk":1,"updated_at":"2026-04-03T02:08:47.264309+05:30"},{"city":"Satna","state":"Madhya Pradesh","latitude":24.6005,"longitude":80.8322,"temp":28.9,"humidity":44,"rain":0.0,"pressure":971.6,"uv_index":6.4,"wind_gusts":34.9,"aqi":69,"pm10":30.4,"pm2_5":25.1,"mosquito_risk":4,"arthritis_risk":5,"migraine_risk":7,"frizz_risk":0,"updated_at":"2026-04-03T02:08:47.264336+05:30"},{"city":"Akola","state":"Maharashtra","latitude":20.7002,"longitude":77.0082,"temp":23.6,"humidity":86,"rain":0.0,"pressure":977.2,"uv_index":8.6,"wind_gusts":30.6,"aqi":102,"pm10":37.1,"pm2_5":33.9,"mosquito_risk":3,"arthritis_risk":5,"migraine_risk":7,"frizz_risk":1,"updated_at":"2026-04-03T02:08:47.264346+05:30"},{"city":"Amravati","state":"Maharashtra","latitude":20.9374,"longitude":77.7796,"temp":23.3,"humidity":91,"rain":0.0,"pressure":969.5,"uv_index":8.65,"wind_gusts":55.4,"aqi":98,"pm10":41.6,"pm2_5":37.4,"mosquito_risk":3,"arthritis_risk":5,"migraine_risk":7,"frizz_risk":1,"updated_at":"2026-04-03T02:08:47.264353+05:30"},{"city":"Latur","state":"Maharashtra","latitude":18.4088,"longitude":76.5604,"temp":22.7,"humidity":87,"rain":0.0,"pressure":941.3,"uv_index":8.95,"wind_gusts":23.0,"aqi":113,"pm10":44.8,"pm2_5":38.2,"mosquito_risk":3,"arthritis_risk":5,"migraine_risk":7,"frizz_risk":1,"updated_at":"2026-04-03T02:08:47.264360+05:30"},{"city":"Nanded","state":"Maharashtra","latitude":19.1383,"longitude":77.3091,"temp":24.4,"humidity":87,"rain":0.0,"pressure":971.0,"uv_index":8.8,"wind_gusts":26.6,"aqi":120,"pm10":50.4,"pm2_5":46.3,"mosquito_risk":3,"arthritis_risk":5,"migraine_risk":7,"frizz_risk":1,"updated_at":"2026-04-03T02:08:47.264367+05:30"},{"city":"Gulbarga","state":"Karnataka","latitude":17.3297,"longitude":76.8343,"temp":25.6,"humidity":70,"rain":0.0,"pressure":960.4,"uv_index":8.6,"wind_gusts":39.6,"aqi":83,"pm10":29.6,"pm2_5":26.0,"mosquito_risk":7,"arthritis_risk":5,"migraine_risk":7,"frizz_risk":1,"updated_at":"2026-04-03T02:08:47.264373+05:30"},{"city":"Bidar","state":"Karnataka","latitude":17.9104,"longitude":77.5199,"temp":23.1,"humidity":85,"rain":0.0,"pressure":937.0,"uv_index":8.4,"wind_gusts":25.6,"aqi":101,"pm10":41.4,"pm2_5":37.5,"mosquito_risk":3,"arthritis_risk":5,"migraine_risk":7,"frizz_risk":1,"updated_at":"2026-04-03T02:08:47.264380+05:30"},{"city":"Hospet","state":"Karnataka","latitude":15.2689,"longitude":76.3909,"temp":26.8,"humidity":73,"rain":0.0,"pressure":957.2,"uv_index":9.1,"wind_gusts":47.9,"aqi":88,"pm10":31.5,"pm2_5":28.9,"mosquito_risk":7,"arthritis_risk":5,"migraine_risk":7,"frizz_risk":1,"updated_at":"2026-04-03T02:08:47.264387+05:30"},{"city":"Tirupur","state":"Tamil Nadu","latitude":11.1085,"longitude":77.3411,"temp":25.9,"humidity":79,"rain":0.0,"pressure":976.5,"uv_index":9.45,"wind_gusts":35.6,"aqi":53,"pm10":22.4,"pm2_5":21.2,"mosquito_risk":7,"arthritis_risk":5,"migraine_risk":7,"frizz_risk":1,"updated_at":"2026-04-03T02:08:47.264394+05:30"},{"city":"Alappuzha","state":"Kerala","latitude":9.4981,"longitude":76.3388,"temp":27.6,"humidity":83,"rain":0.0,"pressure":1010.0,"uv_index":9.2,"wind_gusts":19.8,"aqi":72,"pm10":29.2,"pm2_5":24.2,"mosquito_risk":7,"arthritis_risk":0,"migraine_risk":4,"frizz_risk":1,"updated_at":"2026-04-03T02:08:47.264400+05:30"},{"city":"Munnar","state":"Kerala","latitude":10.0889,"longitude":77.0595,"temp":20.1,"humidity":98,"rain":0.0,"pressure":857.3,"uv_index":9.75,"wind_gusts":29.9,"aqi":62,"pm10":28.0,"pm2_5":27.0,"mosquito_risk":3,"arthritis_risk":5,"migraine_risk":7,"frizz_risk":1,"updated_at":"2026-04-03T02:08:47.264408+05:30"},{"city":"Silchar","state":"Assam","latitude":24.8333,"longitude":92.7789,"temp":22.1,"humidity":91,"rain":0.0,"pressure":1006.2,"uv_index":8.5,"wind_gusts":29.5,"aqi":146,"pm10":76.4,"pm2_5":62.9,"mosquito_risk":3,"arthritis_risk":5,"migraine_risk":4,"frizz_risk":1,"updated_at":"2026-04-03T02:08:47.264414+05:30"},{"city":"Dibrugarh","state":"Assam","latitude":27.4728,"longitude":94.912,"temp":21.6,"humidity":94,"rain":0.0,"pressure":996.9,"uv_index":8.3,"wind_gusts":11.9,"aqi":82,"pm10":24.8,"pm2_5":23.8,"mosquito_risk":3,"arthritis_risk":5,"migraine_risk":7,"frizz_risk":1,"updated_at":"2026-04-03T02:08:47.264421+05:30"}]