[{"city":"Delhi","state":"Delhi","latitude":28.6139,"longitude":77.209,"temp":32.0,"humidity":70,"rain":0.0,"pressure":974.3,"uv_index":6.3,"wind_gusts":36.0,"aqi":107,"pm10":98.7,"pm2_5":40.3,"no2":13.0,"co":427.0,"o3":171.0,"so2":19.8,"mosquito_risk":3,"arthritis_risk":5,"migraine_risk":7,"frizz_risk":1,"updated_at":"2026-07-22T15:57:21.321440+05:30"},{"city":"Mumbai","state":"Maharashtra","latitude":19.076,"longitude":72.8777,"temp":27.6,"humidity":77,"rain":0.1,"pressure":1003.3,"uv_index":0.6,"wind_gusts":65.2,"aqi":57,"pm10":26.7,"pm2_5":11.9,"no2":6.4,"co":200.0,"o3":45.0,"so2":3.7,"mosquito_risk":10,"arthritis_risk":5,"migraine_risk":0,"frizz_risk":1,"updated_at":"2026-07-22T15:57:21.321487+05:30"},{"city":"Bangalore","state":"Karnataka","latitude":12.9716,"longitude":77.5946,"temp":25.0,"humidity":74,"rain":0.1,"pressure":910.8,"uv_index":7.75,"wind_gusts":47.9,"aqi":39,"pm10":8.1,"pm2_5":5.2,"no2":8.7,"co":348.0,"o3":55.0,"so2":2.6,"mosquito_risk":10,"arthritis_risk":5,"migraine_risk":7,"frizz_risk":1,"updated_at":"2026-07-22T15:57:21.321503+05:30"},{"city":"Hyderabad","state":"Telangana","latitude":17.385,"longitude":78.4867,"temp":27.1,"humidity":68,"rain":0.2,"pressure":949.2,"uv_index":4.55,"wind_gusts":47.9,"aqi":42,"pm10":11.4,"pm2_5":7.9,"no2":6.4,"co":238.0,"o3":60.0,"so2":4.4,"mosquito_risk":10,"arthritis_risk":5,"migraine_risk":3,"frizz_risk":1,"updated_at":"2026-07-22T15:57:21.321513+05:30"},{"city":"Chennai","state":"Tamil Nadu","latitude":13.0827,"longitude":80.2707,"temp":32.9,"humidity":63,"rain":0.0,"pressure":1003.6,"uv_index":8.6,"wind_gusts":35.6,"aqi":78,"pm10":32.5,"pm2_5":21.8,"no2":7.1,"co":231.0,"o3":117.0,"so2":6.7,"mosquito_risk":3,"arthritis_risk":5,"migraine_risk":4,"frizz_risk":1,"updated_at":"2026-07-22T15:57:21.321522+05:30"},{"city":"Kolkata","state":"West Bengal","latitude":22.5726,"longitude":88.3639,"temp":27.3,"humidity":91,"rain":0.2,"pressure":999.3,"uv_index":5.15,"wind_gusts":34.6,"aqi":56,"pm10":10.3,"pm2_5":9.8,"no2":7.6,"co":398.0,"o3":73.0,"so2":6.5,"mosquito_risk":10,"arthritis_risk":5,"migraine_risk":3,"frizz_risk":1,"updated_at":"2026-07-22T15:57:21.321530+05:30"},{"city":"Pune","state":"Maharashtra","latitude":18.5204,"longitude":73.8567,"temp":25.1,"humidity":78,"rain":0.0,"pressure":943.0,"uv_index":1.5,"wind_gusts":63.0,"aqi":20,"pm10":3.4,"pm2_5":2.8,"no2":6.8,"co":151.0,"o3":40.0,"so2":3.5,"mosquito_risk":7,"arthritis_risk":5,"migraine_risk":3,"frizz_risk":1,"updated_at":"2026-07-22T15:57:21.321537+05:30"},{"city":"Ahmedabad","state":"Gujarat","latitude":23.0225,"longitude":72.5714,"temp":32.0,"humidity":62,"rain":0.0,"pressure":992.2,"uv_index":5.45,"wind_gusts":34.9,"aqi":62,"pm10":32.2,"pm2_5":15.2,"no2":5.8,"co":231.0,"o3":68.0,"so2":4.4,"mosquito_risk":3,"arthritis_risk":5,"migraine_risk":3,"frizz_risk":1,"updated_at":"2026-07-22T15:57:21.321543+05:30"},{"city":"Jaipur","state":"Rajasthan","latitude":26.9124,"longitude":75.7873,"temp":30.6,"humidity":70,"rain":0.0,"pressure":950.4,"uv_index":6.9,"wind_gusts":37.4,"aqi":58,"pm10":5.8,"pm2_5":5.2,"no2":3.2,"co":239.0,"o3":134.0,"so2":4.4,"mosquito_risk":3,"arthritis_risk":5,"migraine_risk":7,"frizz_risk":1,"updated_at":"2026-07-22T15:57:21.321550+05:30"},{"city":"Lucknow","state":"Uttar Pradesh","latitude":26.8467,"longitude":80.9462,"temp":32.6,"humidity":62,"rain":0.0,"pressure":984.4,"uv_index":5.95,"wind_gusts":45.0,"aqi":86,"pm10":13.4,"pm2_5":13.3,"no2":3.0,"co":219.0,"o3":129.0,"so2":5.0,"mosquito_risk":3,"arthritis_risk":5,"migraine_risk":3,"frizz_risk":1,"updated_at":"2026-07-22T15:57:21.321561+05:30"},{"city":"Kanpur","state":"Uttar Pradesh","latitude":26.4499,"longitude":80.3319,"temp":32.8,"humidity":61,"rain":0.0,"pressure":982.2,"uv_index":6.2,"wind_gusts":42.5,"aqi":81,"pm10":13.2,"pm2_5":13.2,"no2":2.6,"co":232.0,"o3":138.0,"so2":6.1,"mosquito_risk":3,"arthritis_risk":5,"migraine_risk":7,"frizz_risk":1,"updated_at":"2026-07-22T15:57:21.321567+05:30"},{"city":"Chandigarh","state":"Chandigarh","latitude":30.7333,"longitude":76.7794,"temp":30.8,"humidity":66,"rain":0.0,"pressure":962.3,"uv_index":6.95,"wind_gusts":44.6,"aqi":87,"pm10":18.2,"pm2_5":17.6,"no2":3.4,"co":225.0,"o3":116.0,"so2":5.6,"mosquito_risk":3,"arthritis_risk":5,"migraine_risk":7,"frizz_risk":1,"updated_at":"2026-07-22T15:57:21.321574+05:30"},{"city":"Srinagar","state":"Jammu and Kashmir","latitude":34.0837,"longitude":74.7973,"temp":20.0,"humidity":91,"rain":0.1,"pressure":839.4,"uv_index":3.9,"wind_gusts":13.3,"aqi":62,"pm10":11.5,"pm2_5":11.4,"no2":10.6,"co":447.0,"o3":77.0,"so2":2.7,"mosquito_risk":6,"arthritis_risk":5,"migraine_risk":3,"frizz_risk":1,"updated_at":"2026-07-22T15:57:21.321580+05:30"},{"city":"Jammu","state":"Jammu and Kashmir","latitude":32.7266,"longitude":74.857,"temp":29.1,"humidity":76,"rain":0.0,"pressure":967.3,"uv_index":6.75,"wind_gusts":40.7,"aqi":60,"pm10":14.0,"pm2_5":13.6,"no2":3.2,"co":287.0,"o3":120.0,"so2":2.3,"mosquito_risk":7,"arthritis_risk":5,"migraine_risk":7,"frizz_risk":1,"updated_at":"2026-07-22T15:57:21.321586+05:30"},{"city":"Amritsar","state":"Punjab","latitude":31.634,"longitude":74.8723,"temp":28.7,"humidity":87,"rain":0.0,"pressure":974.0,"uv_index":3.0,"wind_gusts":42.5,"aqi":78,"pm10":24.7,"pm2_5":24.3,"no2":7.9,"co":427.0,"o3":96.0,"so2":4.8,"mosquito_risk":7,"arthritis_risk":5,"migraine_risk":3,"frizz_risk":1,"updated_at":"2026-07-22T15:57:21.321592+05:30"},{"city":"Ludhiana","state":"Punjab","latitude":30.901,"longitude":75.8573,"temp":30.8,"humidity":74,"rain":0.0,"pressure":971.5,"uv_index":5.95,"wind_gusts":40.0,"aqi":102,"pm10":30.9,"pm2_5":30.2,"no2":8.1,"co":453.0,"o3":116.0,"so2":12.1,"mosquito_risk":3,"arthritis_risk":5,"migraine_risk":3,"frizz_risk":1,"updated_at":"2026-07-22T15:57:21.321598+05:30"},{"city":"Jalandhar","state":"Punjab","latitude":31.326,"longitude":75.5762,"temp":30.9,"humidity":69,"rain":0.0,"pressure":972.8,"uv_index":4.7,"wind_gusts":42.5,"aqi":101,"pm10":31.3,"pm2_5":30.7,"no2":10.4,"co":384.0,"o3":99.0,"so2":10.7,"mosquito_risk":3,"arthritis_risk":5,"migraine_risk":3,"frizz_risk":1,"updated_at":"2026-07-22T15:57:21.321603+05:30"},{"city":"Dehradun","state":"Uttarakhand","latitude":30.6284,"longitude":78.0322,"temp":22.1,"humidity":86,"rain":0.0,"pressure":828.4,"uv_index":5.45,"wind_gusts":26.6,"aqi":43,"pm10":6.0,"pm2_5":5.7,"no2":0.9,"co":190.0,"o3":89.0,"so2":1.0,"mosquito_risk":3,"arthritis_risk":5,"migraine_risk":3,"frizz_risk":1,"updated_at":"2026-07-22T15:57:21.321609+05:30"},{"city":"Shimla","state":"Himachal Pradesh","latitude":31.1048,"longitude":77.1734,"temp":17.6,"humidity":88,"rain":0.0,"pressure":782.5,"uv_index":5.2,"wind_gusts":27.0,"aqi":49,"pm10":7.2,"pm2_5":7.1,"no2":5.1,"co":183.0,"o3":94.0,"so2":1.6,"mosquito_risk":3,"arthritis_risk":10,"migraine_risk":3,"frizz_risk":0,"updated_at":"2026-07-22T15:57:21.321616+05:30"},{"city":"Manali","state":"Himachal Pradesh","latitude":32.2396,"longitude":77.1887,"temp":23.4,"humidity":84,"rain":0.1,"pressure":817.9,"uv_index":3.9,"wind_gusts":20.5,"aqi":46,"pm10":3.2,"pm2_5":3.0,"no2":1.7,"co":223.0,"o3":109.0,"so2":1.1,"mosquito_risk":6,"arthritis_risk":5,"migraine_risk":3,"frizz_risk":1,"updated_at":"2026-07-22T15:57:21.321624+05:30"},{"city":"Gurgaon","state":"Haryana","latitude":28.4595,"longitude":77.0266,"temp":32.2,"humidity":65,"rain":0.0,"pressure":972.6,"uv_index":5.95,"wind_gusts":43.2,"aqi":94,"pm10":186.3,"pm2_5":48.1,"no2":11.5,"co":398.0,"o3":155.0,"so2":13.6,"mosquito_risk":3,"arthritis_risk":5,"migraine_risk":3,"frizz_risk":1,"updated_at":"2026-07-22T15:57:21.321631+05:30"},{"city":"Noida","state":"Uttar Pradesh","latitude":28.5355,"longitude":77.391,"temp":32.3,"humidity":70,"rain":0.0,"pressure":975.8,"uv_index":6.7,"wind_gusts":38.5,"aqi":94,"pm10":186.3,"pm2_5":48.1,"no2":11.5,"co":325.0,"o3":155.0,"so2":13.6,"mosquito_risk":3,"arthritis_risk":5,"migraine_risk":7,"frizz_risk":1,"updated_at":"2026-07-22T15:57:21.321637+05:30"},{"city":"Ghaziabad","state":"Uttar Pradesh","latitude":28.6692,"longitude":77.4538,"temp":32.3,"humidity":69,"rain":0.0,"pressure":974.1,"uv_index":6.9,"wind_gusts":40.7,"aqi":88,"pm10":28.4,"pm2_5":22.9,"no2":3.8,"co":260.0,"o3":146.0,"so2":8.8,"mosquito_risk":3,"arthritis_risk":5,"migraine_risk":7,"frizz_risk":1,"updated_at":"2026-07-22T15:57:21.321643+05:30"},{"city":"Faridabad","state":"Haryana","latitude":28.4089,"longitude":77.3178,"temp":32.0,"humidity":69,"rain":0.0,"pressure":975.0,"uv_index":6.9,"wind_gusts":39.6,"aqi":94,"pm10":186.3,"pm2_5":48.1,"no2":11.5,"co":323.0,"o3":155.0,"so2":13.6,"mosquito_risk":3,"arthritis_risk":5,"migraine_risk":7,"frizz_risk":1,"updated_at":"2026-07-22T15:57:21.321649+05:30"},{"city":"Meerut","state":"Uttar Pradesh","latitude":28.9845,"longitude":77.7064,"temp":31.9,"humidity":71,"rain":0.0,"pressure":973.3,"uv_index":6.9,"wind_gusts":41.8,"aqi":88,"pm10":28.4,"pm2_5":22.9,"no2":3.8,"co":264.0,"o3":146.0,"so2":8.8,"mosquito_risk":3,"arthritis_risk":5,"migraine_risk":7,"frizz_risk":1,"updated_at":"2026-07-22T15:57:21.321657+05:30"},{"city":"Agra","state":"Uttar Pradesh","latitude":27.1767,"longitude":78.0081,"temp":33.3,"humidity":59,"rain":0.1,"pressure":978.1,"uv_index":6.85,"wind_gusts":36.7,"aqi":82,"pm10":19.3,"pm2_5":19.0,"no2":2.3,"co":257.0,"o3":140.0,"so2":4.6,"mosquito_risk":3,"arthritis_risk":5,"migraine_risk":7,"frizz_risk":1,"updated_at":"2026-07-22T15:57:21.321664+05:30"},{"city":"Varanasi","state":"Uttar Pradesh","latitude":25.3176,"longitude":82.9739,"temp":30.5,"humidity":75,"rain":0.0,"pressure":987.9,"uv_index":8.05,"wind_gusts":46.8,"aqi":71,"pm10":14.1,"pm2_5":14.0,"no2":4.2,"co":372.0,"o3":130.0,"so2":9.1,"mosquito_risk":3,"arthritis_risk":5,"migraine_risk":7,"frizz_risk":1,"updated_at":"2026-07-22T15:57:21.321670+05:30"},{"city":"Prayagraj","state":"Uttar Pradesh","latitude":25.4358,"longitude":81.8463,"temp":32.6,"humidity":64,"rain":0.0,"pressure":985.7,"uv_index":8.15,"wind_gusts":37.1,"aqi":77,"pm10":15.6,"pm2_5":15.5,"no2":3.0,"co":327.0,"o3":142.0,"so2":9.0,"mosquito_risk":3,"arthritis_risk":5,"migraine_risk":7,"frizz_risk":1,"updated_at":"2026-07-22T15:57:21.321677+05:30"},{"city":"Gorakhpur","state":"Uttar Pradesh","latitude":26.7606,"longitude":83.3732,"temp":31.2,"humidity":73,"rain":0.3,"pressure":989.0,"uv_index":6.35,"wind_gusts":52.6,"aqi":78,"pm10":13.7,"pm2_5":13.6,"no2":3.9,"co":248.0,"o3":108.0,"so2":3.7,"mosquito_risk":6,"arthritis_risk":5,"migraine_risk":7,"frizz_risk":1,"updated_at":"2026-07-22T15:57:21.321683+05:30"},{"city":"Bareilly","state":"Uttar Pradesh","latitude":28.367,"longitude":79.4304,"temp":32.2,"humidity":69,"rain":0.0,"pressure":979.0,"uv_index":6.6,"wind_gusts":42.8,"aqi":76,"pm10":20.3,"pm2_5":19.8,"no2":2.9,"co":242.0,"o3":129.0,"so2":5.1,"mosquito_risk":3,"arthritis_risk":5,"migraine_risk":7,"frizz_risk":1,"updated_at":"2026-07-22T15:57:21.321691+05:30"},{"city":"Aligarh","state":"Uttar Pradesh","latitude":27.8974,"longitude":78.088,"temp":32.3,"humidity":68,"rain":0.0,"pressure":976.8,"uv_index":6.9,"wind_gusts":39.6,"aqi":84,"pm10":17.4,"pm2_5":17.3,"no2":2.9,"co":244.0,"o3":146.0,"so2":7.8,"mosquito_risk":3,"arthritis_risk":5,"migraine_risk":7,"frizz_risk":1,"updated_at":"2026-07-22T15:57:21.321697+05:30"},{"city":"Moradabad","state":"Uttar Pradesh","latitude":28.8386,"longitude":78.7733,"temp":32.6,"humidity":64,"rain":0.0,"pressure":975.9,"uv_index":7.35,"wind_gusts":45.0,"aqi":73,"pm10":17.9,"pm2_5":17.6,"no2":3.3,"co":235.0,"o3":136.0,"so2":7.5,"mosquito_risk":3,"arthritis_risk":5,"migraine_risk":7,"frizz_risk":1,"updated_at":"2026-07-22T15:57:21.321703+05:30"},{"city":"Saharanpur","state":"Uttar Pradesh","latitude":29.9637,"longitude":77.546,"temp":31.4,"humidity":66,"rain":0.0,"pressure":968.7,"uv_index":7.35,"wind_gusts":52.6,"aqi":76,"pm10":15.7,"pm2_5":15.1,"no2":2.0,"co":247.0,"o3":116.0,"so2":3.1,"mosquito_risk":3,"arthritis_risk":5,"migraine_risk":7,"frizz_risk":1,"updated_at":"2026-07-22T15:57:21.321709+05:30"},{"city":"Jhansi","state":"Uttar Pradesh","latitude":25.4484,"longitude":78.5685,"temp":31.5,"humidity":67,"rain":0.1,"pressure":967.7,"uv_index":7.35,"wind_gusts":35.3,"aqi":60,"pm10":16.5,"pm2_5":16.2,"no2":2.6,"co":196.0,"o3":124.0,"so2":8.4,"mosquito_risk":6,"arthritis_risk":5,"migraine_risk":7,"frizz_risk":1,"updated_at":"2026-07-22T15:57:24.601348+05:30"},{"city":"Surat","state":"Gujarat","latitude":21.1702,"longitude":72.8311,"temp":26.6,"humidity":95,"rain":0.1,"pressure":998.0,"uv_index":0.65,"wind_gusts":32.8,"aqi":71,"pm10":23.2,"pm2_5":20.4,"no2":32.7,"co":392.0,"o3":14.0,"so2":57.7,"mosquito_risk":10,"arthritis_risk":5,"migraine_risk":3,"frizz_risk":1,"updated_at":"2026-07-22T15:57:24.601384+05:30"},{"city":"Vadodara","state":"Gujarat","latitude":22.3072,"longitude":73.1812,"temp":30.3,"humidity":73,"rain":0.1,"pressure":994.8,"uv_index":0.9,"wind_gusts":26.3,"aqi":61,"pm10":41.0,"pm2_5":20.3,"no2":7.0,"co":242.0,"o3":70.0,"so2":10.2,"mosquito_risk":6,"arthritis_risk":5,"migraine_risk":3,"frizz_risk":1,"updated_at":"2026-07-22T15:57:24.601395+05:30"},{"city":"Rajkot","state":"Gujarat","latitude":22.3039,"longitude":70.8022,"temp":30.2,"humidity":73,"rain":0.1,"pressure":985.4,"uv_index":3.0,"wind_gusts":44.3,"aqi":57,"pm10":37.3,"pm2_5":18.5,"no2":4.3,"co":103.0,"o3":68.0,"so2":6.1,"mosquito_risk":6,"arthritis_risk":5,"migraine_risk":3,"frizz_risk":1,"updated_at":"2026-07-22T15:57:24.601403+05:30"},{"city":"Thane","state":"Maharashtra","latitude":19.2183,"longitude":72.9781,"temp":26.4,"humidity":88,"rain":0.3,"pressure":1002.5,"uv_index":0.55,"wind_gusts":45.0,"aqi":57,"pm10":26.7,"pm2_5":11.9,"no2":6.4,"co":201.0,"o3":45.0,"so2":3.7,"mosquito_risk":10,"arthritis_risk":5,"migraine_risk":0,"frizz_risk":1,"updated_at":"2026-07-22T15:57:24.601411+05:30"},{"city":"Nagpur","state":"Maharashtra","latitude":21.1458,"longitude":79.0882,"temp":26.4,"humidity":86,"rain":0.2,"pressure":965.6,"uv_index":0.65,"wind_gusts":51.8,"aqi":35,"pm10":5.1,"pm2_5":4.9,"no2":7.6,"co":164.0,"o3":51.0,"so2":12.3,"mosquito_risk":10,"arthritis_risk":5,"migraine_risk":3,"frizz_risk":1,"updated_at":"2026-07-22T15:57:24.601418+05:30"},{"city":"Nashik","state":"Maharashtra","latitude":19.9975,"longitude":73.7898,"temp":23.1,"humidity":92,"rain":0.3,"pressure":938.5,"uv_index":0.6,"wind_gusts":64.8,"aqi":19,"pm10":8.1,"pm2_5":4.9,"no2":3.4,"co":128.0,"o3":45.0,"so2":1.2,"mosquito_risk":6,"arthritis_risk":5,"migraine_risk":3,"frizz_risk":1,"updated_at":"2026-07-22T15:57:24.601425+05:30"},{"city":"Aurangabad","state":"Maharashtra","latitude":19.8762,"longitude":75.3433,"temp":24.5,"humidity":86,"rain":0.2,"pressure":937.7,"uv_index":1.25,"wind_gusts":49.7,"aqi":20,"pm10":3.4,"pm2_5":3.2,"no2":4.8,"co":159.0,"o3":59.0,"so2":5.4,"mosquito_risk":6,"arthritis_risk":5,"migraine_risk":3,"frizz_risk":1,"updated_at":"2026-07-22T15:57:24.601432+05:30"},{"city":"Solapur","state":"Maharashtra","latitude":17.6599,"longitude":75.9064,"temp":28.3,"humidity":61,"rain":0.0,"pressure":953.0,"uv_index":6.75,"wind_gusts":58.0,"aqi":28,"pm10":10.4,"pm2_5":5.8,"no2":2.1,"co":114.0,"o3":55.0,"so2":1.6,"mosquito_risk":7,"arthritis_risk":5,"migraine_risk":7,"frizz_risk":1,"updated_at":"2026-07-22T15:57:24.601440+05:30"},{"city":"Kolhapur","state":"Maharashtra","latitude":16.705,"longitude":74.2433,"temp":23.2,"humidity":90,"rain":0.2,"pressure":945.0,"uv_index":7.1,"wind_gusts":60.5,"aqi":24,"pm10":5.5,"pm2_5":3.9,"no2":4.3,"co":132.0,"o3":44.0,"so2":1.7,"mosquito_risk":6,"arthritis_risk":5,"migraine_risk":7,"frizz_risk":1,"updated_at":"2026-07-22T15:57:24.601447+05:30"},{"city":"Goa","state":"Goa","latitude":15.2993,"longitude":74.124,"temp":26.2,"humidity":96,"rain":0.3,"pressure":997.0,"uv_index":6.7,"wind_gusts":29.9,"aqi":56,"pm10":27.3,"pm2_5":12.4,"no2":1.2,"co":120.0,"o3":48.0,"so2":0.9,"mosquito_risk":10,"arthritis_risk":5,"migraine_risk":7,"frizz_risk":1,"updated_at":"2026-07-22T15:57:24.601454+05:30"},{"city":"Jodhpur","state":"Rajasthan","latitude":26.2389,"longitude":73.0243,"temp":30.3,"humidity":77,"rain":0.0,"pressure":973.3,"uv_index":4.5,"wind_gusts":22.0,"aqi":76,"pm10":153.7,"pm2_5":37.5,"no2":1.7,"co":153.0,"o3":98.0,"so2":1.8,"mosquito_risk":3,"arthritis_risk":5,"migraine_risk":3,"frizz_risk":1,"updated_at":"2026-07-22T15:57:24.601461+05:30"},{"city":"Udaipur","state":"Rajasthan","latitude":24.5854,"longitude":73.7125,"temp":26.5,"humidity":87,"rain":0.1,"pressure":936.9,"uv_index":1.95,"wind_gusts":29.2,"aqi":55,"pm10":21.4,"pm2_5":9.4,"no2":3.2,"co":171.0,"o3":71.0,"so2":3.1,"mosquito_risk":10,"arthritis_risk":5,"migraine_risk":3,"frizz_risk":1,"updated_at":"2026-07-22T15:57:24.601468+05:30"},{"city":"Kota","state":"Rajasthan","latitude":25.2138,"longitude":75.8648,"temp":30.6,"humidity":75,"rain":0.1,"pressure":968.3,"uv_index":7.65,"wind_gusts":23.8,"aqi":50,"pm10":10.1,"pm2_5":8.1,"no2":2.3,"co":180.0,"o3":119.0,"so2":4.9,"mosquito_risk":6,"arthritis_risk":5,"migraine_risk":7,"frizz_risk":1,"updated_at":"2026-07-22T15:57:24.601475+05:30"},{"city":"Bikaner","state":"Rajasthan","latitude":28.0229,"longitude":73.3119,"temp":27.2,"humidity":95,"rain":0.2,"pressure":972.4,"uv_index":7.95,"wind_gusts":36.7,"aqi":68,"pm10":23.2,"pm2_5":14.0,"no2":1.0,"co":202.0,"o3":143.0,"so2":4.4,"mosquito_risk":10,"arthritis_risk":5,"migraine_risk":7,"frizz_risk":1,"updated_at":"2026-07-22T15:57:24.601482+05:30"},{"city":"Ajmer","state":"Rajasthan","latitude":26.4499,"longitude":74.6399,"temp":30.7,"humidity":65,"rain":0.1,"pressure":945.2,"uv_index":7.45,"wind_gusts":28.1,"aqi":59,"pm10":9.1,"pm2_5":7.9,"no2":2.3,"co":205.0,"o3":121.0,"so2":1.7,"mosquito_risk":6,"arthritis_risk":5,"migraine_risk":7,"frizz_risk":1,"updated_at":"2026-07-22T15:57:24.601489+05:30"},{"city":"Gwalior","state":"Madhya Pradesh","latitude":26.2183,"longitude":78.1828,"temp":31.8,"humidity":68,"rain":0.0,"pressure":973.2,"uv_index":7.1,"wind_gusts":36.7,"aqi":59,"pm10":15.3,"pm2_5":15.1,"no2":1.6,"co":301.0,"o3":122.0,"so2":3.7,"mosquito_risk":3,"arthritis_risk":5,"migraine_risk":7,"frizz_risk":1,"updated_at":"2026-07-22T15:57:24.601496+05:30"},{"city":"Indore","state":"Madhya Pradesh","latitude":22.7196,"longitude":75.8577,"temp":25.9,"humidity":89,"rain":0.3,"pressure":939.1,"uv_index":2.4,"wind_gusts":33.8,"aqi":50,"pm10":8.6,"pm2_5":7.8,"no2":5.7,"co":243.0,"o3":75.0,"so2":3.8,"mosquito_risk":10,"arthritis_risk":5,"migraine_risk":3,"frizz_risk":1,"updated_at":"2026-07-22T15:57:24.601502+05:30"},{"city":"Bhopal","state":"Madhya Pradesh","latitude":23.2599,"longitude":77.4126,"temp":25.1,"humidity":92,"rain":0.4,"pressure":944.1,"uv_index":7.25,"wind_gusts":38.2,"aqi":41,"pm10":7.0,"pm2_5":6.8,"no2":2.9,"co":456.0,"o3":96.0,"so2":2.7,"mosquito_risk":10,"arthritis_risk":5,"migraine_risk":7,"frizz_risk":1,"updated_at":"2026-07-22T15:57:24.601509+05:30"},{"city":"Jabalpur","state":"Madhya Pradesh","latitude":23.1815,"longitude":79.9864,"temp":26.8,"humidity":84,"rain":0.1,"pressure":952.1,"uv_index":6.65,"wind_gusts":41.4,"aqi":39,"pm10":4.4,"pm2_5":4.4,"no2":2.9,"co":183.0,"o3":90.0,"so2":2.0,"mosquito_risk":10,"arthritis_risk":5,"migraine_risk":7,"frizz_risk":1,"updated_at":"2026-07-22T15:57:24.601516+05:30"},{"city":"Ujjain","state":"Madhya Pradesh","latitude":23.1765,"longitude":75.7885,"temp":25.9,"humidity":92,"rain":0.2,"pressure":944.5,"uv_index":3.05,"wind_gusts":32.8,"aqi":50,"pm10":8.3,"pm2_5":5.9,"no2":2.8,"co":216.0,"o3":80.0,"so2":2.6,"mosquito_risk":10,"arthritis_risk":5,"migraine_risk":3,"frizz_risk":1,"updated_at":"2026-07-22T15:57:24.601524+05:30"},{"city":"Visakhapatnam","state":"Andhra Pradesh","latitude":17.6868,"longitude":83.2185,"temp":31.7,"humidity":61,"rain":0.0,"pressure":998.1,"uv_index":8.3,"wind_gusts":54.7,"aqi":63,"pm10":27.1,"pm2_5":16.6,"no2":12.6,"co":331.0,"o3":78.0,"so2":26.7,"mosquito_risk":3,"arthritis_risk":5,"migraine_risk":7,"frizz_risk":1,"updated_at":"2026-07-22T15:57:24.601531+05:30"},{"city":"Vijayawada","state":"Andhra Pradesh","latitude":16.5062,"longitude":80.648,"temp":32.2,"humidity":58,"rain":0.0,"pressure":998.5,"uv_index":5.45,"wind_gusts":46.4,"aqi":63,"pm10":17.8,"pm2_5":9.7,"no2":3.0,"co":131.0,"o3":77.0,"so2":4.3,"mosquito_risk":0,"arthritis_risk":5,"migraine_risk":3,"frizz_risk":1,"updated_at":"2026-07-22T15:57:24.601538+05:30"},{"city":"Guntur","state":"Andhra Pradesh","latitude":16.3067,"longitude":80.4365,"temp":33.9,"humidity":46,"rain":0.0,"pressure":999.6,"uv_index":5.7,"wind_gusts":51.5,"aqi":59,"pm10":15.7,"pm2_5":8.4,"no2":3.0,"co":124.0,"o3":67.0,"so2":3.9,"mosquito_risk":0,"arthritis_risk":5,"migraine_risk":3,"frizz_risk":1,"updated_at":"2026-07-22T15:57:24.601545+05:30"},{"city":"Nellore","state":"Andhra Pradesh","latitude":14.4426,"longitude":79.9865,"temp":36.9,"humidity":38,"rain":0.0,"pressure":1001.5,"uv_index":8.4,"wind_gusts":43.9,"aqi":64,"pm10":24.7,"pm2_5":15.5,"no2":4.5,"co":116.0,"o3":90.0,"so2":4.6,"mosquito_risk":0,"arthritis_risk":5,"migraine_risk":7,"frizz_risk":1,"updated_at":"2026-07-22T15:57:24.601553+05:30"},{"city":"Kurnool","state":"Andhra Pradesh","latitude":15.8281,"longitude":78.0373,"temp":26.9,"humidity":85,"rain":0.2,"pressure":973.8,"uv_index":6.55,"wind_gusts":50.4,"aqi":41,"pm10":18.2,"pm2_5":8.5,"no2":3.1,"co":118.0,"o3":62.0,"so2":2.1,"mosquito_risk":10,"arthritis_risk":5,"migraine_risk":7,"frizz_risk":1,"updated_at":"2026-07-22T15:57:24.601560+05:30"},{"city":"Kakinada","state":"Andhra Pradesh","latitude":16.9891,"longitude":82.2475,"temp":33.2,"humidity":53,"rain":0.0,"pressure":1002.7,"uv_index":8.65,"wind_gusts":58.3,"aqi":61,"pm10":26.3,"pm2_5":15.1,"no2":3.1,"co":169.0,"o3":90.0,"so2":4.8,"mosquito_risk":0,"arthritis_risk":5,"migraine_risk":4,"frizz_risk":1,"updated_at":"2026-07-22T15:57:24.601568+05:30"},{"city":"Tirupati","state":"Andhra Pradesh","latitude":13.6288,"longitude":79.4192,"temp":34.4,"humidity":44,"rain":0.1,"pressure":987.7,"uv_index":8.85,"wind_gusts":38.5,"aqi":72,"pm10":18.5,"pm2_5":9.4,"no2":6.2,"co":135.0,"o3":76.0,"so2":2.1,"mosquito_risk":3,"arthritis_risk":5,"migraine_risk":7,"frizz_risk":1,"updated_at":"2026-07-22T15:57:24.601574+05:30"},{"city":"Warangal","state":"Telangana","latitude":17.9689,"longitude":79.5941,"temp":29.1,"humidity":69,"rain":0.0,"pressure":974.3,"uv_index":2.3,"wind_gusts":46.1,"aqi":51,"pm10":15.0,"pm2_5":10.0,"no2":5.4,"co":144.0,"o3":55.0,"so2":3.7,"mosquito_risk":7,"arthritis_risk":5,"migraine_risk":3,"frizz_risk":1,"updated_at":"2026-07-22T15:57:24.601580+05:30"},{"city":"Nizamabad","state":"Telangana","latitude":18.6725,"longitude":78.0941,"temp":28.9,"humidity":62,"rain":0.1,"pressure":959.7,"uv_index":2.0,"wind_gusts":50.0,"aqi":40,"pm10":16.5,"pm2_5":8.6,"no2":2.5,"co":132.0,"o3":62.0,"so2":2.6,"mosquito_risk":10,"arthritis_risk":5,"migraine_risk":3,"frizz_risk":1,"updated_at":"2026-07-22T15:57:24.601587+05:30"},{"city":"Mysore","state":"Karnataka","latitude":12.2958,"longitude":76.6396,"temp":25.4,"humidity":73,"rain":0.0,"pressure":928.1,"uv_index":7.95,"wind_gusts":52.6,"aqi":29,"pm10":4.7,"pm2_5":3.1,"no2":4.0,"co":127.0,"o3":53.0,"so2":1.3,"mosquito_risk":7,"arthritis_risk":5,"migraine_risk":7,"frizz_risk":1,"updated_at":"2026-07-22T15:57:24.601593+05:30"},{"city":"Mangalore","state":"Karnataka","latitude":12.9141,"longitude":74.856,"temp":25.4,"humidity":94,"rain":0.1,"pressure":1007.5,"uv_index":8.15,"wind_gusts":31.0,"aqi":51,"pm10":16.1,"pm2_5":7.1,"no2":1.9,"co":107.0,"o3":46.0,"so2":1.4,"mosquito_risk":10,"arthritis_risk":5,"migraine_risk":4,"frizz_risk":1,"updated_at":"2026-07-22T15:57:24.601600+05:30"},{"city":"Hubli-Dharwad","state":"Karnataka","latitude":15.3647,"longitude":75.124,"temp":25.1,"humidity":78,"rain":0.1,"pressure":939.1,"uv_index":4.4,"wind_gusts":62.3,"aqi":21,"pm10":6.7,"pm2_5":3.8,"no2":2.5,"co":109.0,"o3":52.0,"so2":0.9,"mosquito_risk":10,"arthritis_risk":5,"migraine_risk":3,"frizz_risk":1,"updated_at":"2026-07-22T15:57:24.601606+05:30"},{"city":"Belgaum","state":"Karnataka","latitude":15.8497,"longitude":74.4977,"temp":22.5,"humidity":92,"rain":0.1,"pressure":923.4,"uv_index":8.2,"wind_gusts":62.3,"aqi":20,"pm10":4.6,"pm2_5":2.7,"no2":3.0,"co":110.0,"o3":42.0,"so2":1.3,"mosquito_risk":6,"arthritis_risk":5,"migraine_risk":7,"frizz_risk":1,"updated_at":"2026-07-22T15:57:27.916452+05:30"},{"city":"Coimbatore","state":"Tamil Nadu","latitude":11.0168,"longitude":76.9558,"temp":31.1,"humidity":52,"rain":0.0,"pressure":960.7,"uv_index":8.4,"wind_gusts":53.6,"aqi":40,"pm10":6.6,"pm2_5":4.5,"no2":2.6,"co":142.0,"o3":60.0,"so2":1.7,"mosquito_risk":0,"arthritis_risk":5,"migraine_risk":7,"frizz_risk":1,"updated_at":"2026-07-22T15:57:27.916489+05:30"},{"city":"Madurai","state":"Tamil Nadu","latitude":9.9252,"longitude":78.1198,"temp":38.3,"humidity":29,"rain":0.0,"pressure":990.1,"uv_index":8.25,"wind_gusts":50.0,"aqi":72,"pm10":33.8,"pm2_5":15.7,"no2":2.6,"co":126.0,"o3":115.0,"so2":2.5,"mosquito_risk":0,"arthritis_risk":5,"migraine_risk":10,"frizz_risk":1,"updated_at":"2026-07-22T15:57:27.916501+05:30"},{"city":"Trichy","state":"Tamil Nadu","latitude":10.7905,"longitude":78.7047,"temp":37.9,"humidity":32,"rain":0.0,"pressure":996.4,"uv_index":7.9,"wind_gusts":40.3,"aqi":57,"pm10":17.7,"pm2_5":9.3,"no2":2.0,"co":113.0,"o3":85.0,"so2":2.1,"mosquito_risk":0,"arthritis_risk":5,"migraine_risk":10,"frizz_risk":1,"updated_at":"2026-07-22T15:57:27.916510+05:30"},{"city":"Salem","state":"Tamil Nadu","latitude":11.6643,"longitude":78.146,"temp":34.0,"humidity":45,"rain":0.0,"pressure":975.1,"uv_index":8.7,"wind_gusts":40.7,"aqi":67,"pm10":18.2,"pm2_5":10.7,"no2":3.7,"co":162.0,"o3":95.0,"so2":5.9,"mosquito_risk":0,"arthritis_risk":5,"migraine_risk":7,"frizz_risk":1,"updated_at":"2026-07-22T15:57:27.916518+05:30"},{"city":"Tirunelveli","state":"Tamil Nadu","latitude":8.7139,"longitude":77.7567,"temp":38.1,"humidity":30,"rain":0.0,"pressure":1000.4,"uv_index":8.6,"wind_gusts":44.3,"aqi":50,"pm10":14.6,"pm2_5":8.4,"no2":1.7,"co":117.0,"o3":82.0,"so2":1.4,"mosquito_risk":0,"arthritis_risk":5,"migraine_risk":7,"frizz_risk":1,"updated_at":"2026-07-22T15:57:27.916526+05:30"},{"city":"Vellore","state":"Tamil Nadu","latitude":12.9165,"longitude":79.1325,"temp":35.0,"humidity":43,"rain":0.0,"pressure":981.2,"uv_index":9.0,"wind_gusts":40.0,"aqi":75,"pm10":11.7,"pm2_5":6.9,"no2":3.4,"co":148.0,"o3":78.0,"so2":2.3,"mosquito_risk":0,"arthritis_risk":5,"migraine_risk":7,"frizz_risk":1,"updated_at":"2026-07-22T15:57:27.916533+05:30"},{"city":"Erode","state":"Tamil Nadu","latitude":11.341,"longitude":77.7172,"temp":34.8,"humidity":41,"rain":0.0,"pressure":986.7,"uv_index":8.45,"wind_gusts":41.4,"aqi":56,"pm10":9.9,"pm2_5":6.2,"no2":2.8,"co":169.0,"o3":79.0,"so2":1.9,"mosquito_risk":0,"arthritis_risk":5,"migraine_risk":7,"frizz_risk":1,"updated_at":"2026-07-22T15:57:27.916540+05:30"},{"city":"Kochi","state":"Kerala","latitude":9.9312,"longitude":76.2673,"temp":28.6,"humidity":80,"rain":0.0,"pressure":1009.0,"uv_index":7.9,"wind_gusts":34.9,"aqi":63,"pm10":12.5,"pm2_5":8.5,"no2":3.1,"co":124.0,"o3":70.0,"so2":2.9,"mosquito_risk":7,"arthritis_risk":0,"migraine_risk":4,"frizz_risk":1,"updated_at":"2026-07-22T15:57:27.916548+05:30"},{"city":"Thiruvananthapuram","state":"Kerala","latitude":8.5241,"longitude":76.9366,"temp":29.0,"humidity":76,"rain":0.0,"pressure":1008.1,"uv_index":8.15,"wind_gusts":37.4,"aqi":52,"pm10":16.2,"pm2_5":10.3,"no2":2.3,"co":111.0,"o3":70.0,"so2":1.7,"mosquito_risk":7,"arthritis_risk":0,"migraine_risk":4,"frizz_risk":1,"updated_at":"2026-07-22T15:57:27.916554+05:30"},{"city":"Kozhikode","state":"Kerala","latitude":11.2588,"longitude":75.7804,"temp":28.6,"humidity":78,"rain":0.0,"pressure":1008.6,"uv_index":7.9,"wind_gusts":31.3,"aqi":38,"pm10":8.8,"pm2_5":4.9,"no2":0.9,"co":117.0,"o3":54.0,"so2":1.1,"mosquito_risk":7,"arthritis_risk":0,"migraine_risk":4,"frizz_risk":1,"updated_at":"2026-07-22T15:57:27.916561+05:30"},{"city":"Thrissur","state":"Kerala","latitude":10.5276,"longitude":76.2144,"temp":28.5,"humidity":78,"rain":0.0,"pressure":1007.4,"uv_index":7.65,"wind_gusts":34.9,"aqi":60,"pm10":9.4,"pm2_5":6.6,"no2":2.1,"co":105.0,"o3":59.0,"so2":1.9,"mosquito_risk":7,"arthritis_risk":5,"migraine_risk":4,"frizz_risk":1,"updated_at":"2026-07-22T15:57:27.916568+05:30"},{"city":"Kannur","state":"Kerala","latitude":11.8745,"longitude":75.3704,"temp":27.5,"humidity":80,"rain":0.0,"pressure":1008.0,"uv_index":7.4,"wind_gusts":29.2,"aqi":45,"pm10":7.8,"pm2_5":4.4,"no2":2.1,"co":107.0,"o3":51.0,"so2":1.3,"mosquito_risk":7,"arthritis_risk":0,"migraine_risk":4,"frizz_risk":1,"updated_at":"2026-07-22T15:57:27.916576+05:30"},{"city":"Patna","state":"Bihar","latitude":25.5941,"longitude":85.1376,"temp":31.8,"humidity":68,"rain":0.0,"pressure":991.9,"uv_index":8.2,"wind_gusts":47.9,"aqi":63,"pm10":10.9,"pm2_5":10.9,"no2":4.5,"co":259.0,"o3":111.0,"so2":6.3,"mosquito_risk":3,"arthritis_risk":5,"migraine_risk":7,"frizz_risk":1,"updated_at":"2026-07-22T15:57:27.916582+05:30"},{"city":"Gaya","state":"Bihar","latitude":24.7914,"longitude":85.0002,"temp":30.7,"humidity":71,"rain":0.1,"pressure":984.9,"uv_index":8.85,"wind_gusts":44.6,"aqi":52,"pm10":7.7,"pm2_5":7.7,"no2":4.1,"co":348.0,"o3":117.0,"so2":9.2,"mosquito_risk":6,"arthritis_risk":5,"migraine_risk":7,"frizz_risk":1,"updated_at":"2026-07-22T15:57:27.916589+05:30"},{"city":"Muzaffarpur","state":"Bihar","latitude":26.1209,"longitude":85.3647,"temp":30.4,"humidity":76,"rain":0.0,"pressure":992.5,"uv_index":7.75,"wind_gusts":53.3,"aqi":68,"pm10":12.0,"pm2_5":12.0,"no2":4.8,"co":228.0,"o3":106.0,"so2":5.3,"mosquito_risk":3,"arthritis_risk":5,"migraine_risk":7,"frizz_risk":1,"updated_at":"2026-07-22T15:57:27.916595+05:30"},{"city":"Bhagalpur","state":"Bihar","latitude":25.2425,"longitude":87.0117,"temp":30.4,"humidity":75,"rain":0.1,"pressure":993.7,"uv_index":8.1,"wind_gusts":43.6,"aqi":58,"pm10":8.7,"pm2_5":8.6,"no2":5.5,"co":225.0,"o3":103.0,"so2":9.5,"mosquito_risk":6,"arthritis_risk":5,"migraine_risk":7,"frizz_risk":1,"updated_at":"2026-07-22T15:57:27.916601+05:30"},{"city":"Ranchi","state":"Jharkhand","latitude":23.3441,"longitude":85.3096,"temp":26.9,"humidity":75,"rain":0.0,"pressure":930.7,"uv_index":6.0,"wind_gusts":41.8,"aqi":48,"pm10":3.5,"pm2_5":3.5,"no2":5.6,"co":165.0,"o3":68.0,"so2":10.2,"mosquito_risk":7,"arthritis_risk":5,"migraine_risk":3,"frizz_risk":1,"updated_at":"2026-07-22T15:57:27.916608+05:30"},{"city":"Jamshedpur","state":"Jharkhand","latitude":22.8046,"longitude":86.2029,"temp":26.8,"humidity":92,"rain":0.0,"pressure":983.7,"uv_index":6.5,"wind_gusts":23.4,"aqi":59,"pm10":10.9,"pm2_5":10.7,"no2":12.5,"co":456.0,"o3":66.0,"so2":17.5,"mosquito_risk":7,"arthritis_risk":5,"migraine_risk":7,"frizz_risk":1,"updated_at":"2026-07-22T15:57:27.916615+05:30"},{"city":"Dhanbad","state":"Jharkhand","latitude":23.7957,"longitude":86.4304,"temp":28.6,"humidity":77,"rain":0.0,"pressure":972.3,"uv_index":7.05,"wind_gusts":41.0,"aqi":75,"pm10":19.6,"pm2_5":19.5,"no2":26.9,"co":226.0,"o3":67.0,"so2":68.4,"mosquito_risk":7,"arthritis_risk":5,"migraine_risk":7,"frizz_risk":1,"updated_at":"2026-07-22T15:57:27.916621+05:30"},{"city":"Bokaro","state":"Jharkhand","latitude":23.6693,"longitude":86.1511,"temp":27.8,"humidity":83,"rain":0.0,"pressure":976.2,"uv_index":8.65,"wind_gusts":38.2,"aqi":79,"pm10":17.2,"pm2_5":17.1,"no2":23.9,"co":877.0,"o3":67.0,"so2":65.8,"mosquito_risk":7,"arthritis_risk":5,"migraine_risk":7,"frizz_risk":1,"updated_at":"2026-07-22T15:57:27.916628+05:30"},{"city":"Bhubaneswar","state":"Odisha","latitude":20.2961,"longitude":85.8245,"temp":29.1,"humidity":77,"rain":0.0,"pressure":996.5,"uv_index":7.55,"wind_gusts":38.9,"aqi":59,"pm10":21.0,"pm2_5":17.1,"no2":5.8,"co":260.0,"o3":108.0,"so2":7.5,"mosquito_risk":7,"arthritis_risk":5,"migraine_risk":7,"frizz_risk":1,"updated_at":"2026-07-22T15:57:27.916635+05:30"},{"city":"Cuttack","state":"Odisha","latitude":20.4625,"longitude":85.8828,"temp":28.0,"humidity":90,"rain":0.0,"pressure":998.3,"uv_index":7.0,"wind_gusts":38.9,"aqi":59,"pm10":21.0,"pm2_5":17.1,"no2":5.8,"co":253.0,"o3":108.0,"so2":7.5,"mosquito_risk":7,"arthritis_risk":5,"migraine_risk":7,"frizz_risk":1,"updated_at":"2026-07-22T15:57:27.916642+05:30"},{"city":"Rourkela","state":"Odisha","latitude":22.2604,"longitude":84.8536,"temp":26.2,"humidity":92,"rain":0.1,"pressure":978.1,"uv_index":1.8,"wind_gusts":37.4,"aqi":57,"pm10":5.6,"pm2_5":5.4,"no2":5.6,"co":278.0,"o3":63.0,"so2":4.7,"mosquito_risk":10,"arthritis_risk":5,"migraine_risk":3,"frizz_risk":1,"updated_at":"2026-07-22T15:57:27.916649+05:30"},{"city":"Raipur","state":"Chhattisgarh","latitude":21.2514,"longitude":81.6296,"temp":27.6,"humidity":76,"rain":0.1,"pressure":967.4,"uv_index":0.5,"wind_gusts":54.4,"aqi":58,"pm10":12.9,"pm2_5":11.8,"no2":17.7,"co":206.0,"o3":34.0,"so2":30.4,"mosquito_risk":10,"arthritis_risk":5,"migraine_risk":3,"frizz_risk":1,"updated_at":"2026-07-22T15:57:27.916655+05:30"},{"city":"Bhilai","state":"Chhattisgarh","latitude":21.1938,"longitude":81.3509,"temp":27.3,"humidity":76,"rain":0.0,"pressure":967.9,"uv_index":0.75,"wind_gusts":57.6,"aqi":55,"pm10":11.8,"pm2_5":10.8,"no2":14.4,"co":367.0,"o3":42.0,"so2":29.0,"mosquito_risk":7,"arthritis_risk":5,"migraine_risk":3,"frizz_risk":1,"updated_at":"2026-07-22T15:57:27.916663+05:30"},{"city":"Guwahati","state":"Assam","latitude":26.1158,"longitude":91.7086,"temp":28.9,"humidity":84,"rain":0.1,"pressure":995.5,"uv_index":8.65,"wind_gusts":21.6,"aqi":50,"pm10":6.0,"pm2_5":6.0,"no2":3.0,"co":223.0,"o3":79.0,"so2":1.2,"mosquito_risk":10,"arthritis_risk":5,"migraine_risk":7,"frizz_risk":1,"updated_at":"2026-07-22T15:57:27.916670+05:30"},{"city":"Agartala","state":"Tripura","latitude":23.8315,"longitude":91.2868,"temp":28.1,"humidity":86,"rain":0.0,"pressure":1000.6,"uv_index":8.1,"wind_gusts":38.9,"aqi":39,"pm10":6.8,"pm2_5":6.5,"no2":5.1,"co":172.0,"o3":70.0,"so2":1.4,"mosquito_risk":7,"arthritis_risk":5,"migraine_risk":4,"frizz_risk":1,"updated_at":"2026-07-22T15:57:27.916677+05:30"},{"city":"Shillong","state":"Meghalaya","latitude":25.5788,"longitude":91.8933,"temp":24.7,"humidity":68,"rain":0.0,"pressure":855.1,"uv_index":7.75,"wind_gusts":32.4,"aqi":34,"pm10":5.3,"pm2_5":4.3,"no2":2.1,"co":162.0,"o3":69.0,"so2":1.2,"mosquito_risk":3,"arthritis_risk":5,"migraine_risk":7,"frizz_risk":1,"updated_at":"2026-07-22T15:57:27.916684+05:30"},{"city":"Imphal","state":"Manipur","latitude":24.817,"longitude":93.9368,"temp":26.3,"humidity":83,"rain":0.0,"pressure":919.3,"uv_index":8.75,"wind_gusts":24.1,"aqi":52,"pm10":5.1,"pm2_5":4.9,"no2":3.3,"co":187.0,"o3":70.0,"so2":1.1,"mosquito_risk":7,"arthritis_risk":5,"migraine_risk":7,"frizz_risk":1,"updated_at":"2026-07-22T15:57:27.916690+05:30"},{"city":"Aizawl","state":"Mizoram","latitude":23.7271,"longitude":92.7176,"temp":21.2,"humidity":94,"rain":0.2,"pressure":889.0,"uv_index":8.15,"wind_gusts":39.6,"aqi":31,"pm10":3.3,"pm2_5":2.8,"no2":2.1,"co":126.0,"o3":57.0,"so2":0.4,"mosquito_risk":6,"arthritis_risk":5,"migraine_risk":7,"frizz_risk":1,"updated_at":"2026-07-22T15:57:27.916697+05:30"},{"city":"Kohima","state":"Nagaland","latitude":25.6701,"longitude":94.1077,"temp":24.1,"humidity":83,"rain":0.0,"pressure":852.6,"uv_index":7.95,"wind_gusts":24.1,"aqi":32,"pm10":3.8,"pm2_5":3.6,"no2":2.6,"co":154.0,"o3":65.0,"so2":0.5,"mosquito_risk":3,"arthritis_risk":5,"migraine_risk":7,"frizz_risk":1,"updated_at":"2026-07-22T15:57:27.916703+05:30"},{"city":"Gangtok","state":"Sikkim","latitude":27.3314,"longitude":88.6138,"temp":20.0,"humidity":91,"rain":0.2,"pressure":835.5,"uv_index":6.8,"wind_gusts":30.6,"aqi":37,"pm10":2.0,"pm2_5":2.0,"no2":3.7,"co":174.0,"o3":79.0,"so2":0.6,"mosquito_risk":6,"arthritis_risk":5,"migraine_risk":7,"frizz_risk":1,"updated_at":"2026-07-22T15:57:27.916710+05:30"},{"city":"Siliguri","state":"West Bengal","latitude":26.7271,"longitude":88.3953,"temp":28.5,"humidity":82,"rain":0.0,"pressure":987.5,"uv_index":8.5,"wind_gusts":37.4,"aqi":59,"pm10":6.6,"pm2_5":6.4,"no2":4.3,"co":329.0,"o3":89.0,"so2":1.5,"mosquito_risk":7,"arthritis_risk":5,"migraine_risk":7,"frizz_risk":1,"updated_at":"2026-07-22T15:57:31.208996+05:30"},{"city":"Durgapur","state":"West Bengal","latitude":23.5204,"longitude":87.3119,"temp":28.7,"humidity":80,"rain":0.0,"pressure":988.0,"uv_index":8.55,"wind_gusts":35.6,"aqi":68,"pm10":14.3,"pm2_5":14.2,"no2":13.8,"co":311.0,"o3":97.0,"so2":26.1,"mosquito_risk":7,"arthritis_risk":5,"migraine_risk":7,"frizz_risk":1,"updated_at":"2026-07-22T15:57:31.209034+05:30"},{"city":"Asansol","state":"West Bengal","latitude":23.6739,"longitude":86.9524,"temp":27.6,"humidity":84,"rain":0.1,"pressure":986.3,"uv_index":8.45,"wind_gusts":36.7,"aqi":64,"pm10":12.5,"pm2_5":12.5,"no2":15.0,"co":501.0,"o3":91.0,"so2":29.2,"mosquito_risk":10,"arthritis_risk":5,"migraine_risk":7,"frizz_risk":1,"updated_at":"2026-07-22T15:57:31.209046+05:30"},{"city":"Pondicherry","state":"Puducherry","latitude":11.9139,"longitude":79.8145,"temp":31.6,"humidity":66,"rain":0.0,"pressure":1005.2,"uv_index":7.65,"wind_gusts":37.8,"aqi":72,"pm10":41.7,"pm2_5":30.5,"no2":10.2,"co":200.0,"o3":128.0,"so2":9.3,"mosquito_risk":3,"arthritis_risk":5,"migraine_risk":4,"frizz_risk":1,"updated_at":"2026-07-22T15:57:31.209055+05:30"},{"city":"Port Blair","state":"Andaman and Nicobar Islands","latitude":11.6234,"longitude":92.7265,"temp":28.7,"humidity":79,"rain":0.0,"pressure":1006.7,"uv_index":8.55,"wind_gusts":40.3,"aqi":48,"pm10":14.7,"pm2_5":8.6,"no2":0.4,"co":100.0,"o3":47.0,"so2":0.6,"mosquito_risk":7,"arthritis_risk":5,"migraine_risk":4,"frizz_risk":1,"updated_at":"2026-07-22T15:57:31.209064+05:30"},{"city":"Haridwar","state":"Uttarakhand","latitude":29.9457,"longitude":78.1642,"temp":31.6,"humidity":64,"rain":0.0,"pressure":967.3,"uv_index":7.4,"wind_gusts":37.1,"aqi":70,"pm10":13.8,"pm2_5":13.3,"no2":1.4,"co":185.0,"o3":110.0,"so2":3.3,"mosquito_risk":3,"arthritis_risk":5,"migraine_risk":7,"frizz_risk":1,"updated_at":"2026-07-22T15:57:31.209071+05:30"},{"city":"Rishikesh","state":"Uttarakhand","latitude":30.0869,"longitude":78.2676,"temp":29.3,"humidity":76,"rain":0.0,"pressure":960.5,"uv_index":6.8,"wind_gusts":23.8,"aqi":55,"pm10":11.4,"pm2_5":11.0,"no2":1.6,"co":194.0,"o3":95.0,"so2":2.1,"mosquito_risk":7,"arthritis_risk":5,"migraine_risk":7,"frizz_risk":1,"updated_at":"2026-07-22T15:57:31.209078+05:30"},{"city":"Nainital","state":"Uttarakhand","latitude":29.3919,"longitude":79.4542,"temp":23.0,"humidity":64,"rain":0.0,"pressure":804.6,"uv_index":6.7,"wind_gusts":47.9,"aqi":53,"pm10":8.9,"pm2_5":8.6,"no2":1.0,"co":170.0,"o3":95.0,"so2":0.9,"mosquito_risk":3,"arthritis_risk":5,"migraine_risk":7,"frizz_risk":0,"updated_at":"2026-07-22T15:57:31.209086+05:30"},{"city":"Mussoorie","state":"Uttarakhand","latitude":30.4599,"longitude":78.0664,"temp":21.9,"humidity":74,"rain":0.0,"pressure":802.1,"uv_index":7.8,"wind_gusts":30.6,"aqi":54,"pm10":11.2,"pm2_5":10.8,"no2":2.6,"co":212.0,"o3":104.0,"so2":2.7,"mosquito_risk":3,"arthritis_risk":5,"migraine_risk":7,"frizz_risk":1,"updated_at":"2026-07-22T15:57:31.209092+05:30"},{"city":"Dharamshala","state":"Himachal Pradesh","latitude":32.219,"longitude":76.3234,"temp":22.3,"humidity":98,"rain":0.2,"pressure":865.9,"uv_index":5.45,"wind_gusts":24.1,"aqi":45,"pm10":3.7,"pm2_5":3.6,"no2":3.4,"co":241.0,"o3":94.0,"so2":0.5,"mosquito_risk":6,"arthritis_risk":5,"migraine_risk":3,"frizz_risk":1,"updated_at":"2026-07-22T15:57:31.209099+05:30"},{"city":"Dalhousie","state":"Himachal Pradesh","latitude":32.5387,"longitude":75.971,"temp":18.8,"humidity":100,"rain":0.1,"pressure":802.7,"uv_index":1.7,"wind_gusts":20.9,"aqi":61,"pm10":10.9,"pm2_5":10.4,"no2":6.7,"co":251.0,"o3":104.0,"so2":1.6,"mosquito_risk":6,"arthritis_risk":10,"migraine_risk":3,"frizz_risk":1,"updated_at":"2026-07-22T15:57:31.209107+05:30"},{"city":"Patiala","state":"Punjab","latitude":30.3398,"longitude":76.3869,"temp":30.2,"humidity":75,"rain":0.2,"pressure":970.9,"uv_index":6.45,"wind_gusts":39.6,"aqi":90,"pm10":24.0,"pm2_5":23.4,"no2":3.8,"co":282.0,"o3":134.0,"so2":7.8,"mosquito_risk":6,"arthritis_risk":5,"migraine_risk":7,"frizz_risk":1,"updated_at":"2026-07-22T15:57:31.209114+05:30"},{"city":"Bhatinda","state":"Punjab","latitude":30.211,"longitude":74.9455,"temp":32.6,"humidity":63,"rain":0.0,"pressure":975.4,"uv_index":6.75,"wind_gusts":43.6,"aqi":84,"pm10":25.7,"pm2_5":25.4,"no2":5.9,"co":333.0,"o3":148.0,"so2":14.7,"mosquito_risk":3,"arthritis_risk":5,"migraine_risk":7,"frizz_risk":1,"updated_at":"2026-07-22T15:57:31.209121+05:30"},{"city":"Rohtak","state":"Haryana","latitude":28.8955,"longitude":76.6066,"temp":32.4,"humidity":63,"rain":0.0,"pressure":973.2,"uv_index":6.2,"wind_gusts":42.5,"aqi":99,"pm10":325.0,"pm2_5":62.9,"no2":6.0,"co":351.0,"o3":191.0,"so2":16.4,"mosquito_risk":3,"arthritis_risk":5,"migraine_risk":7,"frizz_risk":1,"updated_at":"2026-07-22T15:57:31.209128+05:30"},{"city":"Panipat","state":"Haryana","latitude":29.3909,"longitude":76.9635,"temp":31.7,"humidity":69,"rain":0.0,"pressure":972.5,"uv_index":7.45,"wind_gusts":41.8,"aqi":102,"pm10":205.4,"pm2_5":48.9,"no2":4.6,"co":281.0,"o3":189.0,"so2":17.5,"mosquito_risk":3,"arthritis_risk":5,"migraine_risk":7,"frizz_risk":1,"updated_at":"2026-07-22T15:57:31.209134+05:30"},{"city":"Mathura","state":"Uttar Pradesh","latitude":27.4924,"longitude":77.6737,"temp":33.2,"humidity":60,"rain":0.0,"pressure":977.4,"uv_index":7.2,"wind_gusts":38.9,"aqi":76,"pm10":298.0,"pm2_5":47.5,"no2":2.5,"co":256.0,"o3":143.0,"so2":4.4,"mosquito_risk":0,"arthritis_risk":5,"migraine_risk":7,"frizz_risk":1,"updated_at":"2026-07-22T15:57:31.209141+05:30"},{"city":"Vrindavan","state":"Uttar Pradesh","latitude":27.5823,"longitude":77.7027,"temp":33.0,"humidity":61,"rain":0.0,"pressure":977.9,"uv_index":7.05,"wind_gusts":38.5,"aqi":76,"pm10":298.0,"pm2_5":47.5,"no2":2.5,"co":253.0,"o3":143.0,"so2":4.4,"mosquito_risk":3,"arthritis_risk":5,"migraine_risk":7,"frizz_risk":1,"updated_at":"2026-07-22T15:57:31.209147+05:30"},{"city":"Ayodhya","state":"Uttar Pradesh","latitude":26.7922,"longitude":82.1998,"temp":29.8,"humidity":78,"rain":0.0,"pressure":986.9,"uv_index":8.0,"wind_gusts":48.6,"aqi":82,"pm10":15.4,"pm2_5":15.3,"no2":2.9,"co":245.0,"o3":120.0,"so2":4.0,"mosquito_risk":7,"arthritis_risk":5,"migraine_risk":7,"frizz_risk":1,"updated_at":"2026-07-22T15:57:31.209154+05:30"},{"city":"Ratlam","state":"Madhya Pradesh","latitude":23.3315,"longitude":75.0367,"temp":26.7,"humidity":89,"rain":0.3,"pressure":945.2,"uv_index":1.1,"wind_gusts":34.2,"aqi":49,"pm10":8.8,"pm2_5":6.0,"no2":2.7,"co":150.0,"o3":76.0,"so2":2.7,"mosquito_risk":10,"arthritis_risk":5,"migraine_risk":3,"frizz_risk":1,"updated_at":"2026-07-22T15:57:31.209160+05:30"},{"city":"Sagar","state":"Madhya Pradesh","latitude":23.8388,"longitude":78.7378,"temp":25.2,"humidity":98,"rain":0.1,"pressure":940.6,"uv_index":8.0,"wind_gusts":25.9,"aqi":42,"pm10":2.5,"pm2_5":2.4,"no2":1.5,"co":168.0,"o3":91.0,"so2":0.8,"mosquito_risk":10,"arthritis_risk":5,"migraine_risk":7,"frizz_risk":1,"updated_at":"2026-07-22T15:57:31.209167+05:30"},{"city":"Satna","state":"Madhya Pradesh","latitude":24.6005,"longitude":80.8322,"temp":29.1,"humidity":77,"rain":0.2,"pressure":961.5,"uv_index":7.55,"wind_gusts":31.3,"aqi":58,"pm10":9.1,"pm2_5":9.1,"no2":2.3,"co":228.0,"o3":109.0,"so2":6.5,"mosquito_risk":10,"arthritis_risk":5,"migraine_risk":7,"frizz_risk":1,"updated_at":"2026-07-22T15:57:31.209173+05:30"},{"city":"Akola","state":"Maharashtra","latitude":20.7002,"longitude":77.0082,"temp":29.0,"humidity":66,"rain":0.0,"pressure":967.7,"uv_index":0.75,"wind_gusts":58.3,"aqi":24,"pm10":5.1,"pm2_5":4.1,"no2":4.5,"co":147.0,"o3":55.0,"so2":3.2,"mosquito_risk":7,"arthritis_risk":5,"migraine_risk":3,"frizz_risk":1,"updated_at":"2026-07-22T15:57:31.209181+05:30"},{"city":"Amravati","state":"Maharashtra","latitude":20.9374,"longitude":77.7796,"temp":26.5,"humidity":86,"rain":0.1,"pressure":959.9,"uv_index":1.05,"wind_gusts":51.5,"aqi":24,"pm10":4.2,"pm2_5":3.6,"no2":4.7,"co":149.0,"o3":53.0,"so2":3.4,"mosquito_risk":10,"arthritis_risk":5,"migraine_risk":3,"frizz_risk":1,"updated_at":"2026-07-22T15:57:31.209188+05:30"},{"city":"Latur","state":"Maharashtra","latitude":18.4088,"longitude":76.5604,"temp":25.7,"humidity":75,"rain":0.0,"pressure":934.8,"uv_index":5.1,"wind_gusts":60.1,"aqi":28,"pm10":8.8,"pm2_5":5.4,"no2":2.2,"co":131.0,"o3":51.0,"so2":1.4,"mosquito_risk":7,"arthritis_risk":5,"migraine_risk":3,"frizz_risk":1,"updated_at":"2026-07-22T15:57:31.209195+05:30"},{"city":"Nanded","state":"Maharashtra","latitude":19.1383,"longitude":77.3091,"temp":25.4,"humidity":90,"rain":0.2,"pressure":963.2,"uv_index":1.05,"wind_gusts":51.8,"aqi":38,"pm10":12.0,"pm2_5":6.7,"no2":2.9,"co":157.0,"o3":61.0,"so2":3.3,"mosquito_risk":10,"arthritis_risk":5,"migraine_risk":3,"frizz_risk":1,"updated_at":"2026-07-22T15:57:31.209201+05:30"},{"city":"Gulbarga","state":"Karnataka","latitude":17.3297,"longitude":76.8343,"temp":29.7,"humidity":58,"rain":0.1,"pressure":954.3,"uv_index":2.85,"wind_gusts":63.0,"aqi":30,"pm10":15.4,"pm2_5":8.2,"no2":3.7,"co":125.0,"o3":58.0,"so2":2.3,"mosquito_risk":7,"arthritis_risk":5,"migraine_risk":3,"frizz_risk":1,"updated_at":"2026-07-22T15:57:31.209207+05:30"},{"city":"Bidar","state":"Karnataka","latitude":17.9104,"longitude":77.5199,"temp":27.9,"humidity":61,"rain":0.0,"pressure":930.9,"uv_index":1.85,"wind_gusts":57.2,"aqi":32,"pm10":10.9,"pm2_5":7.1,"no2":4.0,"co":125.0,"o3":60.0,"so2":1.8,"mosquito_risk":7,"arthritis_risk":5,"migraine_risk":3,"frizz_risk":1,"updated_at":"2026-07-22T15:57:31.209213+05:30"},{"city":"Hospet","state":"Karnataka","latitude":15.2689,"longitude":76.3909,"temp":30.1,"humidity":52,"rain":0.1,"pressure":953.3,"uv_index":5.35,"wind_gusts":61.2,"aqi":22,"pm10":9.1,"pm2_5":4.4,"no2":2.6,"co":110.0,"o3":60.0,"so2":1.3,"mosquito_risk":3,"arthritis_risk":5,"migraine_risk":3,"frizz_risk":1,"updated_at":"2026-07-22T15:57:31.209219+05:30"},{"city":"Tirupur","state":"Tamil Nadu","latitude":11.1085,"longitude":77.3411,"temp":33.6,"humidity":46,"rain":0.0,"pressure":973.4,"uv_index":8.5,"wind_gusts":54.7,"aqi":58,"pm10":10.3,"pm2_5":6.7,"no2":2.9,"co":144.0,"o3":78.0,"so2":2.3,"mosquito_risk":0,"arthritis_risk":5,"migraine_risk":7,"frizz_risk":1,"updated_at":"2026-07-22T15:57:31.209225+05:30"},{"city":"Alappuzha","state":"Kerala","latitude":9.4981,"longitude":76.3388,"temp":29.1,"humidity":76,"rain":0.0,"pressure":1009.0,"uv_index":7.35,"wind_gusts":33.1,"aqi":60,"pm10":19.7,"pm2_5":13.3,"no2":3.9,"co":91.0,"o3":81.0,"so2":3.6,"mosquito_risk":7,"arthritis_risk":0,"migraine_risk":4,"frizz_risk":1,"updated_at":"2026-07-22T15:57:31.209231+05:30"},{"city":"Munnar","state":"Kerala","latitude":10.0889,"longitude":77.0595,"temp":19.4,"humidity":91,"rain":0.1,"pressure":857.5,"uv_index":8.3,"wind_gusts":34.2,"aqi":45,"pm10":8.4,"pm2_5":5.6,"no2":1.6,"co":100.0,"o3":69.0,"so2":1.4,"mosquito_risk":6,"arthritis_risk":10,"migraine_risk":7,"frizz_risk":1,"updated_at":"2026-07-22T15:57:31.209237+05:30"},{"city":"Silchar","state":"Assam","latitude":24.8333,"longitude":92.7789,"temp":32.8,"humidity":62,"rain":0.0,"pressure":998.8,"uv_index":8.75,"wind_gusts":28.4,"aqi":53,"pm10":9.9,"pm2_5":8.0,"no2":2.0,"co":171.0,"o3":80.0,"so2":2.7,"mosquito_risk":3,"arthritis_risk":5,"migraine_risk":7,"frizz_risk":1,"updated_at":"2026-07-22T15:57:31.209244+05:30"},{"city":"Dibrugarh","state":"Assam","latitude":27.4728,"longitude":94.912,"temp":31.6,"humidity":73,"rain":0.0,"pressure":988.4,"uv_index":3.5,"wind_gusts":19.8,"aqi":64,"pm10":4.6,"pm2_5":4.5,"no2":1.9,"co":181.0,"o3":116.0,"so2":1.1,"mosquito_risk":3,"arthritis_risk":5,"migraine_risk":3,"frizz_risk":1,"updated_at":"2026-07-22T15:57:31.209250+05:30"}]