[{"city":"Delhi","state":"Delhi","latitude":28.6139,"longitude":77.209,"temp":18.8,"humidity":89,"rain":0.0,"pressure":981.5,"uv_index":6.95,"wind_gusts":24.5,"aqi":252,"pm10":91.7,"pm2_5":35.7,"mosquito_risk":3,"arthritis_risk":10,"migraine_risk":7,"frizz_risk":1,"updated_at":"2026-04-08T02:22:14.619911+05:30"},{"city":"Mumbai","state":"Maharashtra","latitude":19.076,"longitude":72.8777,"temp":28.4,"humidity":76,"rain":0.0,"pressure":1009.2,"uv_index":7.95,"wind_gusts":22.0,"aqi":72,"pm10":82.0,"pm2_5":23.0,"mosquito_risk":7,"arthritis_risk":0,"migraine_risk":4,"frizz_risk":1,"updated_at":"2026-04-08T02:22:14.619960+05:30"},{"city":"Bangalore","state":"Karnataka","latitude":12.9716,"longitude":77.5946,"temp":22.4,"humidity":73,"rain":0.0,"pressure":910.7,"uv_index":9.65,"wind_gusts":23.0,"aqi":51,"pm10":16.6,"pm2_5":13.9,"mosquito_risk":3,"arthritis_risk":5,"migraine_risk":7,"frizz_risk":1,"updated_at":"2026-04-08T02:22:14.619974+05:30"},{"city":"Hyderabad","state":"Telangana","latitude":17.385,"longitude":78.4867,"temp":27.6,"humidity":41,"rain":0.0,"pressure":952.4,"uv_index":9.15,"wind_gusts":27.7,"aqi":75,"pm10":40.7,"pm2_5":31.0,"mosquito_risk":4,"arthritis_risk":5,"migraine_risk":7,"frizz_risk":0,"updated_at":"2026-04-08T02:22:14.619985+05:30"},{"city":"Chennai","state":"Tamil Nadu","latitude":13.0827,"longitude":80.2707,"temp":28.9,"humidity":86,"rain":0.0,"pressure":1006.1,"uv_index":9.15,"wind_gusts":35.3,"aqi":87,"pm10":31.3,"pm2_5":24.7,"mosquito_risk":7,"arthritis_risk":5,"migraine_risk":4,"frizz_risk":1,"updated_at":"2026-04-08T02:22:14.619994+05:30"},{"city":"Kolkata","state":"West Bengal","latitude":22.5726,"longitude":88.3639,"temp":23.2,"humidity":97,"rain":0.0,"pressure":1006.1,"uv_index":8.7,"wind_gusts":27.0,"aqi":98,"pm10":19.4,"pm2_5":17.1,"mosquito_risk":3,"arthritis_risk":5,"migraine_risk":4,"frizz_risk":1,"updated_at":"2026-04-08T02:22:14.620003+05:30"},{"city":"Pune","state":"Maharashtra","latitude":18.5204,"longitude":73.8567,"temp":21.0,"humidity":81,"rain":0.0,"pressure":948.7,"uv_index":8.55,"wind_gusts":39.2,"aqi":76,"pm10":48.7,"pm2_5":25.0,"mosquito_risk":3,"arthritis_risk":5,"migraine_risk":7,"frizz_risk":1,"updated_at":"2026-04-08T02:22:14.620016+05:30"},{"city":"Ahmedabad","state":"Gujarat","latitude":23.0225,"longitude":72.5714,"temp":26.0,"humidity":77,"rain":0.0,"pressure":1000.6,"uv_index":8.0,"wind_gusts":34.2,"aqi":61,"pm10":23.0,"pm2_5":11.6,"mosquito_risk":7,"arthritis_risk":5,"migraine_risk":4,"frizz_risk":1,"updated_at":"2026-04-08T02:22:14.620024+05:30"},{"city":"Jaipur","state":"Rajasthan","latitude":26.9124,"longitude":75.7873,"temp":19.2,"humidity":86,"rain":0.0,"pressure":957.6,"uv_index":7.65,"wind_gusts":32.8,"aqi":150,"pm10":93.4,"pm2_5":27.2,"mosquito_risk":3,"arthritis_risk":10,"migraine_risk":7,"frizz_risk":1,"updated_at":"2026-04-08T02:22:14.620032+05:30"},{"city":"Lucknow","state":"Uttar Pradesh","latitude":26.8467,"longitude":80.9462,"temp":21.7,"humidity":67,"rain":0.0,"pressure":993.0,"uv_index":7.45,"wind_gusts":32.0,"aqi":106,"pm10":56.2,"pm2_5":28.6,"mosquito_risk":3,"arthritis_risk":5,"migraine_risk":7,"frizz_risk":0,"updated_at":"2026-04-08T02:22:14.620041+05:30"},{"city":"Kanpur","state":"Uttar Pradesh","latitude":26.4499,"longitude":80.3319,"temp":20.5,"humidity":81,"rain":0.0,"pressure":991.8,"uv_index":7.5,"wind_gusts":28.8,"aqi":111,"pm10":86.1,"pm2_5":28.2,"mosquito_risk":3,"arthritis_risk":5,"migraine_risk":7,"frizz_risk":1,"updated_at":"2026-04-08T02:22:14.620050+05:30"},{"city":"Chandigarh","state":"Chandigarh","latitude":30.7333,"longitude":76.7794,"temp":16.9,"humidity":93,"rain":0.0,"pressure":968.0,"uv_index":4.75,"wind_gusts":24.5,"aqi":67,"pm10":31.4,"pm2_5":11.9,"mosquito_risk":3,"arthritis_risk":10,"migraine_risk":3,"frizz_risk":0,"updated_at":"2026-04-08T02:22:14.620058+05:30"},{"city":"Srinagar","state":"Jammu and Kashmir","latitude":34.0837,"longitude":74.7973,"temp":9.1,"humidity":95,"rain":0.1,"pressure":834.8,"uv_index":5.8,"wind_gusts":22.7,"aqi":63,"pm10":13.3,"pm2_5":13.2,"mosquito_risk":6,"arthritis_risk":10,"migraine_risk":3,"frizz_risk":0,"updated_at":"2026-04-08T02:22:14.620066+05:30"},{"city":"Jammu","state":"Jammu and Kashmir","latitude":32.7266,"longitude":74.857,"temp":17.4,"humidity":88,"rain":0.0,"pressure":972.8,"uv_index":3.5,"wind_gusts":25.6,"aqi":61,"pm10":41.7,"pm2_5":16.2,"mosquito_risk":3,"arthritis_risk":10,"migraine_risk":3,"frizz_risk":0,"updated_at":"2026-04-08T02:22:14.620074+05:30"},{"city":"Amritsar","state":"Punjab","latitude":31.634,"longitude":74.8723,"temp":16.4,"humidity":94,"rain":0.0,"pressure":980.9,"uv_index":5.95,"wind_gusts":20.5,"aqi":105,"pm10":59.6,"pm2_5":25.8,"mosquito_risk":3,"arthritis_risk":10,"migraine_risk":3,"frizz_risk":0,"updated_at":"2026-04-08T02:22:14.620081+05:30"},{"city":"Ludhiana","state":"Punjab","latitude":30.901,"longitude":75.8573,"temp":17.1,"humidity":89,"rain":0.0,"pressure":978.8,"uv_index":4.85,"wind_gusts":26.3,"aqi":139,"pm10":97.6,"pm2_5":31.3,"mosquito_risk":3,"arthritis_risk":10,"migraine_risk":3,"frizz_risk":0,"updated_at":"2026-04-08T02:22:14.620089+05:30"},{"city":"Jalandhar","state":"Punjab","latitude":31.326,"longitude":75.5762,"temp":16.5,"humidity":89,"rain":0.0,"pressure":980.2,"uv_index":5.4,"wind_gusts":23.8,"aqi":125,"pm10":95.7,"pm2_5":30.6,"mosquito_risk":3,"arthritis_risk":10,"migraine_risk":3,"frizz_risk":0,"updated_at":"2026-04-08T02:22:14.620100+05:30"},{"city":"Dehradun","state":"Uttarakhand","latitude":30.6284,"longitude":78.0322,"temp":10.8,"humidity":81,"rain":0.0,"pressure":826.6,"uv_index":2.7,"wind_gusts":38.2,"aqi":48,"pm10":34.3,"pm2_5":14.9,"mosquito_risk":3,"arthritis_risk":10,"migraine_risk":3,"frizz_risk":0,"updated_at":"2026-04-08T02:22:14.620108+05:30"},{"city":"Shimla","state":"Himachal Pradesh","latitude":31.1048,"longitude":77.1734,"temp":9.6,"humidity":69,"rain":0.0,"pressure":779.6,"uv_index":6.45,"wind_gusts":38.2,"aqi":63,"pm10":24.0,"pm2_5":10.2,"mosquito_risk":3,"arthritis_risk":5,"migraine_risk":7,"frizz_risk":0,"updated_at":"2026-04-08T02:22:14.620115+05:30"},{"city":"Manali","state":"Himachal Pradesh","latitude":32.2396,"longitude":77.1887,"temp":10.2,"humidity":99,"rain":0.5,"pressure":813.5,"uv_index":8.2,"wind_gusts":23.0,"aqi":70,"pm10":14.4,"pm2_5":11.5,"mosquito_risk":6,"arthritis_risk":10,"migraine_risk":7,"frizz_risk":0,"updated_at":"2026-04-08T02:22:14.620123+05:30"},{"city":"Gurgaon","state":"Haryana","latitude":28.4595,"longitude":77.0266,"temp":19.1,"humidity":91,"rain":0.0,"pressure":980.0,"uv_index":7.05,"wind_gusts":23.8,"aqi":823,"pm10":102.9,"pm2_5":37.1,"mosquito_risk":3,"arthritis_risk":10,"migraine_risk":7,"frizz_risk":1,"updated_at":"2026-04-08T02:22:14.620130+05:30"},{"city":"Noida","state":"Uttar Pradesh","latitude":28.5355,"longitude":77.391,"temp":18.6,"humidity":91,"rain":0.0,"pressure":983.1,"uv_index":6.95,"wind_gusts":25.2,"aqi":823,"pm10":102.9,"pm2_5":37.1,"mosquito_risk":3,"arthritis_risk":10,"migraine_risk":7,"frizz_risk":1,"updated_at":"2026-04-08T02:22:14.620137+05:30"},{"city":"Ghaziabad","state":"Uttar Pradesh","latitude":28.6692,"longitude":77.4538,"temp":18.1,"humidity":93,"rain":0.0,"pressure":981.3,"uv_index":6.9,"wind_gusts":23.0,"aqi":152,"pm10":77.5,"pm2_5":32.6,"mosquito_risk":3,"arthritis_risk":10,"migraine_risk":7,"frizz_risk":1,"updated_at":"2026-04-08T02:22:14.620143+05:30"},{"city":"Faridabad","state":"Haryana","latitude":28.4089,"longitude":77.3178,"temp":18.4,"humidity":92,"rain":0.0,"pressure":982.3,"uv_index":7.0,"wind_gusts":27.0,"aqi":823,"pm10":102.9,"pm2_5":37.1,"mosquito_risk":3,"arthritis_risk":10,"migraine_risk":7,"frizz_risk":1,"updated_at":"2026-04-08T02:22:14.620150+05:30"},{"city":"Meerut","state":"Uttar Pradesh","latitude":28.9845,"longitude":77.7064,"temp":18.3,"humidity":93,"rain":0.0,"pressure":980.3,"uv_index":6.2,"wind_gusts":29.5,"aqi":152,"pm10":77.5,"pm2_5":32.6,"mosquito_risk":3,"arthritis_risk":10,"migraine_risk":7,"frizz_risk":1,"updated_at":"2026-04-08T02:22:14.620157+05:30"},{"city":"Agra","state":"Uttar Pradesh","latitude":27.1767,"longitude":78.0081,"temp":19.8,"humidity":93,"rain":0.1,"pressure":987.5,"uv_index":7.35,"wind_gusts":22.7,"aqi":387,"pm10":74.7,"pm2_5":28.4,"mosquito_risk":6,"arthritis_risk":10,"migraine_risk":7,"frizz_risk":1,"updated_at":"2026-04-08T02:22:14.620164+05:30"},{"city":"Varanasi","state":"Uttar Pradesh","latitude":25.3176,"longitude":82.9739,"temp":23.2,"humidity":64,"rain":0.0,"pressure":997.4,"uv_index":6.0,"wind_gusts":36.7,"aqi":86,"pm10":60.8,"pm2_5":25.1,"mosquito_risk":3,"arthritis_risk":5,"migraine_risk":3,"frizz_risk":1,"updated_at":"2026-04-08T02:22:14.620176+05:30"},{"city":"Prayagraj","state":"Uttar Pradesh","latitude":25.4358,"longitude":81.8463,"temp":21.8,"humidity":76,"rain":0.0,"pressure":995.7,"uv_index":7.65,"wind_gusts":29.5,"aqi":89,"pm10":53.8,"pm2_5":21.3,"mosquito_risk":3,"arthritis_risk":5,"migraine_risk":7,"frizz_risk":1,"updated_at":"2026-04-08T02:22:14.620183+05:30"},{"city":"Gorakhpur","state":"Uttar Pradesh","latitude":26.7606,"longitude":83.3732,"temp":23.1,"humidity":65,"rain":0.0,"pressure":997.3,"uv_index":4.85,"wind_gusts":31.3,"aqi":72,"pm10":58.3,"pm2_5":21.7,"mosquito_risk":3,"arthritis_risk":5,"migraine_risk":3,"frizz_risk":1,"updated_at":"2026-04-08T02:22:14.620190+05:30"},{"city":"Bareilly","state":"Uttar Pradesh","latitude":28.367,"longitude":79.4304,"temp":19.1,"humidity":91,"rain":0.0,"pressure":986.8,"uv_index":7.2,"wind_gusts":28.4,"aqi":69,"pm10":44.6,"pm2_5":24.7,"mosquito_risk":3,"arthritis_risk":10,"migraine_risk":7,"frizz_risk":1,"updated_at":"2026-04-08T02:22:14.620197+05:30"},{"city":"Aligarh","state":"Uttar Pradesh","latitude":27.8974,"longitude":78.088,"temp":18.4,"humidity":95,"rain":0.1,"pressure":984.5,"uv_index":7.1,"wind_gusts":28.1,"aqi":200,"pm10":90.3,"pm2_5":34.0,"mosquito_risk":6,"arthritis_risk":10,"migraine_risk":7,"frizz_risk":1,"updated_at":"2026-04-08T02:22:14.620203+05:30"},{"city":"Moradabad","state":"Uttar Pradesh","latitude":28.8386,"longitude":78.7733,"temp":19.0,"humidity":90,"rain":0.0,"pressure":982.8,"uv_index":6.25,"wind_gusts":31.0,"aqi":82,"pm10":62.2,"pm2_5":29.0,"mosquito_risk":3,"arthritis_risk":10,"migraine_risk":7,"frizz_risk":1,"updated_at":"2026-04-08T02:22:14.620210+05:30"},{"city":"Saharanpur","state":"Uttar Pradesh","latitude":29.9637,"longitude":77.546,"temp":17.5,"humidity":90,"rain":0.0,"pressure":975.3,"uv_index":6.45,"wind_gusts":28.4,"aqi":76,"pm10":87.1,"pm2_5":30.5,"mosquito_risk":3,"arthritis_risk":10,"migraine_risk":7,"frizz_risk":0,"updated_at":"2026-04-08T02:22:14.620216+05:30"},{"city":"Jhansi","state":"Uttar Pradesh","latitude":25.4484,"longitude":78.5685,"temp":20.5,"humidity":80,"rain":0.0,"pressure":977.2,"uv_index":7.95,"wind_gusts":34.2,"aqi":67,"pm10":44.7,"pm2_5":23.3,"mosquito_risk":3,"arthritis_risk":5,"migraine_risk":7,"frizz_risk":1,"updated_at":"2026-04-08T02:22:17.842578+05:30"},{"city":"Surat","state":"Gujarat","latitude":21.1702,"longitude":72.8311,"temp":27.1,"humidity":81,"rain":0.0,"pressure":1006.7,"uv_index":7.7,"wind_gusts":41.4,"aqi":68,"pm10":32.9,"pm2_5":17.7,"mosquito_risk":7,"arthritis_risk":5,"migraine_risk":4,"frizz_risk":1,"updated_at":"2026-04-08T02:22:17.842666+05:30"},{"city":"Vadodara","state":"Gujarat","latitude":22.3072,"longitude":73.1812,"temp":26.7,"humidity":81,"rain":0.0,"pressure":1003.3,"uv_index":8.0,"wind_gusts":36.7,"aqi":65,"pm10":30.0,"pm2_5":18.0,"mosquito_risk":7,"arthritis_risk":5,"migraine_risk":4,"frizz_risk":1,"updated_at":"2026-04-08T02:22:17.842684+05:30"},{"city":"Rajkot","state":"Gujarat","latitude":22.3039,"longitude":70.8022,"temp":24.9,"humidity":86,"rain":0.0,"pressure":993.6,"uv_index":7.7,"wind_gusts":38.9,"aqi":56,"pm10":23.5,"pm2_5":11.0,"mosquito_risk":3,"arthritis_risk":5,"migraine_risk":7,"frizz_risk":1,"updated_at":"2026-04-08T02:22:17.842700+05:30"},{"city":"Thane","state":"Maharashtra","latitude":19.2183,"longitude":72.9781,"temp":26.7,"humidity":81,"rain":0.0,"pressure":1008.6,"uv_index":7.95,"wind_gusts":36.0,"aqi":72,"pm10":82.0,"pm2_5":23.0,"mosquito_risk":7,"arthritis_risk":0,"migraine_risk":4,"frizz_risk":1,"updated_at":"2026-04-08T02:22:17.842713+05:30"},{"city":"Nagpur","state":"Maharashtra","latitude":21.1458,"longitude":79.0882,"temp":23.2,"humidity":58,"rain":0.0,"pressure":971.7,"uv_index":8.75,"wind_gusts":37.1,"aqi":66,"pm10":38.2,"pm2_5":25.5,"mosquito_risk":0,"arthritis_risk":5,"migraine_risk":7,"frizz_risk":0,"updated_at":"2026-04-08T02:22:17.842723+05:30"},{"city":"Nashik","state":"Maharashtra","latitude":19.9975,"longitude":73.7898,"temp":21.6,"humidity":90,"rain":0.0,"pressure":945.6,"uv_index":8.2,"wind_gusts":42.5,"aqi":60,"pm10":40.9,"pm2_5":15.4,"mosquito_risk":3,"arthritis_risk":5,"migraine_risk":7,"frizz_risk":1,"updated_at":"2026-04-08T02:22:17.842733+05:30"},{"city":"Aurangabad","state":"Maharashtra","latitude":19.8762,"longitude":75.3433,"temp":22.8,"humidity":68,"rain":0.0,"pressure":943.9,"uv_index":8.9,"wind_gusts":47.5,"aqi":60,"pm10":44.9,"pm2_5":17.3,"mosquito_risk":3,"arthritis_risk":5,"migraine_risk":7,"frizz_risk":1,"updated_at":"2026-04-08T02:22:17.842742+05:30"},{"city":"Solapur","state":"Maharashtra","latitude":17.6599,"longitude":75.9064,"temp":25.9,"humidity":49,"rain":0.0,"pressure":957.0,"uv_index":9.0,"wind_gusts":30.6,"aqi":63,"pm10":38.5,"pm2_5":25.3,"mosquito_risk":4,"arthritis_risk":5,"migraine_risk":7,"frizz_risk":0,"updated_at":"2026-04-08T02:22:17.842751+05:30"},{"city":"Kolhapur","state":"Maharashtra","latitude":16.705,"longitude":74.2433,"temp":20.2,"humidity":89,"rain":0.0,"pressure":947.9,"uv_index":9.0,"wind_gusts":42.5,"aqi":59,"pm10":26.4,"pm2_5":16.2,"mosquito_risk":3,"arthritis_risk":5,"migraine_risk":7,"frizz_risk":1,"updated_at":"2026-04-08T02:22:17.842760+05:30"},{"city":"Goa","state":"Goa","latitude":15.2993,"longitude":74.124,"temp":26.4,"humidity":76,"rain":0.0,"pressure":998.7,"uv_index":9.0,"wind_gusts":39.6,"aqi":55,"pm10":39.0,"pm2_5":17.9,"mosquito_risk":7,"arthritis_risk":5,"migraine_risk":7,"frizz_risk":1,"updated_at":"2026-04-08T02:22:17.842768+05:30"},{"city":"Jodhpur","state":"Rajasthan","latitude":26.2389,"longitude":73.0243,"temp":20.7,"humidity":81,"rain":0.2,"pressure":980.9,"uv_index":7.9,"wind_gusts":33.8,"aqi":131,"pm10":291.5,"pm2_5":63.6,"mosquito_risk":6,"arthritis_risk":5,"migraine_risk":7,"frizz_risk":1,"updated_at":"2026-04-08T02:22:17.842776+05:30"},{"city":"Udaipur","state":"Rajasthan","latitude":24.5854,"longitude":73.7125,"temp":21.1,"humidity":87,"rain":0.0,"pressure":943.4,"uv_index":8.5,"wind_gusts":33.8,"aqi":63,"pm10":32.5,"pm2_5":17.3,"mosquito_risk":3,"arthritis_risk":5,"migraine_risk":7,"frizz_risk":1,"updated_at":"2026-04-08T02:22:17.842785+05:30"},{"city":"Kota","state":"Rajasthan","latitude":25.2138,"longitude":75.8648,"temp":21.0,"humidity":84,"rain":0.0,"pressure":976.7,"uv_index":7.95,"wind_gusts":29.9,"aqi":65,"pm10":51.7,"pm2_5":25.8,"mosquito_risk":3,"arthritis_risk":5,"migraine_risk":7,"frizz_risk":1,"updated_at":"2026-04-08T02:22:17.842793+05:30"},{"city":"Bikaner","state":"Rajasthan","latitude":28.0229,"longitude":73.3119,"temp":20.2,"humidity":81,"rain":0.0,"pressure":979.7,"uv_index":7.7,"wind_gusts":27.0,"aqi":83,"pm10":40.4,"pm2_5":17.3,"mosquito_risk":3,"arthritis_risk":5,"migraine_risk":7,"frizz_risk":1,"updated_at":"2026-04-08T02:22:17.842800+05:30"},{"city":"Ajmer","state":"Rajasthan","latitude":26.4499,"longitude":74.6399,"temp":18.9,"humidity":87,"rain":0.0,"pressure":951.7,"uv_index":7.85,"wind_gusts":33.1,"aqi":69,"pm10":182.5,"pm2_5":43.1,"mosquito_risk":3,"arthritis_risk":10,"migraine_risk":7,"frizz_risk":1,"updated_at":"2026-04-08T02:22:17.842809+05:30"},{"city":"Gwalior","state":"Madhya Pradesh","latitude":26.2183,"longitude":78.1828,"temp":20.0,"humidity":89,"rain":0.4,"pressure":982.6,"uv_index":7.65,"wind_gusts":25.2,"aqi":75,"pm10":70.3,"pm2_5":25.7,"mosquito_risk":6,"arthritis_risk":5,"migraine_risk":7,"frizz_risk":1,"updated_at":"2026-04-08T02:22:17.842817+05:30"},{"city":"Indore","state":"Madhya Pradesh","latitude":22.7196,"longitude":75.8577,"temp":23.0,"humidity":81,"rain":0.0,"pressure":946.6,"uv_index":8.4,"wind_gusts":46.8,"aqi":67,"pm10":47.3,"pm2_5":20.9,"mosquito_risk":3,"arthritis_risk":5,"migraine_risk":7,"frizz_risk":1,"updated_at":"2026-04-08T02:22:17.842824+05:30"},{"city":"Bhopal","state":"Madhya Pradesh","latitude":23.2599,"longitude":77.4126,"temp":23.7,"humidity":62,"rain":0.0,"pressure":951.8,"uv_index":8.3,"wind_gusts":50.0,"aqi":63,"pm10":42.0,"pm2_5":22.5,"mosquito_risk":3,"arthritis_risk":5,"migraine_risk":7,"frizz_risk":0,"updated_at":"2026-04-08T02:22:17.842832+05:30"},{"city":"Jabalpur","state":"Madhya Pradesh","latitude":23.1815,"longitude":79.9864,"temp":24.4,"humidity":49,"rain":0.0,"pressure":959.6,"uv_index":7.95,"wind_gusts":42.5,"aqi":80,"pm10":40.5,"pm2_5":26.7,"mosquito_risk":0,"arthritis_risk":5,"migraine_risk":7,"frizz_risk":0,"updated_at":"2026-04-08T02:22:17.842840+05:30"},{"city":"Ujjain","state":"Madhya Pradesh","latitude":23.1765,"longitude":75.7885,"temp":22.9,"humidity":83,"rain":0.0,"pressure":952.0,"uv_index":8.3,"wind_gusts":49.7,"aqi":66,"pm10":50.9,"pm2_5":21.8,"mosquito_risk":3,"arthritis_risk":5,"migraine_risk":7,"frizz_risk":1,"updated_at":"2026-04-08T02:22:17.842849+05:30"},{"city":"Visakhapatnam","state":"Andhra Pradesh","latitude":17.6868,"longitude":83.2185,"temp":26.9,"humidity":92,"rain":0.0,"pressure":1002.8,"uv_index":9.1,"wind_gusts":42.8,"aqi":75,"pm10":29.3,"pm2_5":24.3,"mosquito_risk":7,"arthritis_risk":5,"migraine_risk":4,"frizz_risk":1,"updated_at":"2026-04-08T02:22:17.842857+05:30"},{"city":"Vijayawada","state":"Andhra Pradesh","latitude":16.5062,"longitude":80.648,"temp":28.0,"humidity":88,"rain":0.0,"pressure":1001.4,"uv_index":9.15,"wind_gusts":27.4,"aqi":105,"pm10":43.9,"pm2_5":40.7,"mosquito_risk":7,"arthritis_risk":5,"migraine_risk":4,"frizz_risk":1,"updated_at":"2026-04-08T02:22:17.842865+05:30"},{"city":"Guntur","state":"Andhra Pradesh","latitude":16.3067,"longitude":80.4365,"temp":27.9,"humidity":89,"rain":0.0,"pressure":1002.6,"uv_index":9.2,"wind_gusts":27.4,"aqi":100,"pm10":41.8,"pm2_5":38.9,"mosquito_risk":7,"arthritis_risk":5,"migraine_risk":4,"frizz_risk":1,"updated_at":"2026-04-08T02:22:17.842874+05:30"},{"city":"Nellore","state":"Andhra Pradesh","latitude":14.4426,"longitude":79.9865,"temp":28.0,"humidity":89,"rain":0.0,"pressure":1004.1,"uv_index":9.3,"wind_gusts":38.9,"aqi":104,"pm10":32.6,"pm2_5":29.7,"mosquito_risk":7,"arthritis_risk":5,"migraine_risk":4,"frizz_risk":1,"updated_at":"2026-04-08T02:22:17.842882+05:30"},{"city":"Kurnool","state":"Andhra Pradesh","latitude":15.8281,"longitude":78.0373,"temp":28.7,"humidity":37,"rain":0.0,"pressure":975.1,"uv_index":9.15,"wind_gusts":25.9,"aqi":72,"pm10":39.3,"pm2_5":31.9,"mosquito_risk":4,"arthritis_risk":5,"migraine_risk":7,"frizz_risk":0,"updated_at":"2026-04-08T02:22:17.842891+05:30"},{"city":"Kakinada","state":"Andhra Pradesh","latitude":16.9891,"longitude":82.2475,"temp":27.3,"humidity":94,"rain":0.0,"pressure":1006.7,"uv_index":9.15,"wind_gusts":28.4,"aqi":64,"pm10":34.5,"pm2_5":27.6,"mosquito_risk":7,"arthritis_risk":5,"migraine_risk":4,"frizz_risk":1,"updated_at":"2026-04-08T02:22:17.842900+05:30"},{"city":"Tirupati","state":"Andhra Pradesh","latitude":13.6288,"longitude":79.4192,"temp":26.8,"humidity":90,"rain":0.0,"pressure":991.0,"uv_index":9.4,"wind_gusts":25.6,"aqi":95,"pm10":49.1,"pm2_5":46.9,"mosquito_risk":7,"arthritis_risk":5,"migraine_risk":7,"frizz_risk":1,"updated_at":"2026-04-08T02:22:17.842909+05:30"},{"city":"Warangal","state":"Telangana","latitude":17.9689,"longitude":79.5941,"temp":27.9,"humidity":72,"rain":0.0,"pressure":977.6,"uv_index":9.05,"wind_gusts":25.9,"aqi":106,"pm10":59.6,"pm2_5":52.7,"mosquito_risk":7,"arthritis_risk":5,"migraine_risk":7,"frizz_risk":1,"updated_at":"2026-04-08T02:22:17.842916+05:30"},{"city":"Nizamabad","state":"Telangana","latitude":18.6725,"longitude":78.0941,"temp":25.9,"humidity":51,"rain":0.0,"pressure":963.8,"uv_index":9.0,"wind_gusts":27.4,"aqi":70,"pm10":54.8,"pm2_5":31.5,"mosquito_risk":4,"arthritis_risk":5,"migraine_risk":7,"frizz_risk":0,"updated_at":"2026-04-08T02:22:17.842924+05:30"},{"city":"Mysore","state":"Karnataka","latitude":12.2958,"longitude":76.6396,"temp":21.0,"humidity":90,"rain":0.0,"pressure":927.9,"uv_index":9.55,"wind_gusts":42.5,"aqi":46,"pm10":18.4,"pm2_5":15.5,"mosquito_risk":3,"arthritis_risk":5,"migraine_risk":7,"frizz_risk":1,"updated_at":"2026-04-08T02:22:17.842932+05:30"},{"city":"Mangalore","state":"Karnataka","latitude":12.9141,"longitude":74.856,"temp":28.7,"humidity":70,"rain":0.0,"pressure":1007.1,"uv_index":9.15,"wind_gusts":31.7,"aqi":58,"pm10":21.6,"pm2_5":14.2,"mosquito_risk":7,"arthritis_risk":5,"migraine_risk":4,"frizz_risk":1,"updated_at":"2026-04-08T02:22:17.842940+05:30"},{"city":"Hubli-Dharwad","state":"Karnataka","latitude":15.3647,"longitude":75.124,"temp":20.6,"humidity":94,"rain":0.0,"pressure":940.6,"uv_index":9.2,"wind_gusts":41.4,"aqi":46,"pm10":15.1,"pm2_5":10.6,"mosquito_risk":3,"arthritis_risk":5,"migraine_risk":7,"frizz_risk":1,"updated_at":"2026-04-08T02:22:17.842948+05:30"},{"city":"Siliguri","state":"West Bengal","latitude":26.7271,"longitude":88.3953,"temp":19.6,"humidity":64,"rain":0.0,"pressure":995.3,"uv_index":7.9,"wind_gusts":22.0,"aqi":78,"pm10":31.7,"pm2_5":27.3,"mosquito_risk":3,"arthritis_risk":5,"migraine_risk":7,"frizz_risk":0,"updated_at":"2026-04-08T02:23:08.764020+05:30"},{"city":"Durgapur","state":"West Bengal","latitude":23.5204,"longitude":87.3119,"temp":22.7,"humidity":92,"rain":0.0,"pressure":995.2,"uv_index":8.65,"wind_gusts":24.8,"aqi":118,"pm10":37.0,"pm2_5":35.0,"mosquito_risk":3,"arthritis_risk":5,"migraine_risk":7,"frizz_risk":1,"updated_at":"2026-04-08T02:23:08.764052+05:30"},{"city":"Asansol","state":"West Bengal","latitude":23.6739,"longitude":86.9524,"temp":23.0,"humidity":88,"rain":0.0,"pressure":993.8,"uv_index":8.7,"wind_gusts":33.1,"aqi":105,"pm10":42.8,"pm2_5":39.8,"mosquito_risk":3,"arthritis_risk":5,"migraine_risk":7,"frizz_risk":1,"updated_at":"2026-04-08T02:23:08.764062+05:30"},{"city":"Pondicherry","state":"Puducherry","latitude":11.9139,"longitude":79.8145,"temp":27.8,"humidity":91,"rain":0.0,"pressure":1007.6,"uv_index":9.3,"wind_gusts":24.8,"aqi":85,"pm10":31.1,"pm2_5":23.6,"mosquito_risk":7,"arthritis_risk":5,"migraine_risk":4,"frizz_risk":1,"updated_at":"2026-04-08T02:23:08.764071+05:30"},{"city":"Port Blair","state":"Andaman and Nicobar Islands","latitude":11.6234,"longitude":92.7265,"temp":28.7,"humidity":73,"rain":0.0,"pressure":1007.1,"uv_index":8.95,"wind_gusts":11.9,"aqi":25,"pm10":4.0,"pm2_5":2.7,"mosquito_risk":7,"arthritis_risk":5,"migraine_risk":4,"frizz_risk":1,"updated_at":"2026-04-08T02:23:08.764079+05:30"},{"city":"Haridwar","state":"Uttarakhand","latitude":29.9457,"longitude":78.1642,"temp":18.9,"humidity":81,"rain":0.0,"pressure":973.6,"uv_index":4.15,"wind_gusts":26.6,"aqi":64,"pm10":38.3,"pm2_5":19.2,"mosquito_risk":3,"arthritis_risk":10,"migraine_risk":3,"frizz_risk":0,"updated_at":"2026-04-08T02:23:08.764088+05:30"},{"city":"Rishikesh","state":"Uttarakhand","latitude":30.0869,"longitude":78.2676,"temp":18.4,"humidity":78,"rain":0.0,"pressure":966.4,"uv_index":4.4,"wind_gusts":29.9,"aqi":57,"pm10":46.2,"pm2_5":20.1,"mosquito_risk":3,"arthritis_risk":5,"migraine_risk":3,"frizz_risk":0,"updated_at":"2026-04-08T02:23:08.764095+05:30"},{"city":"Nainital","state":"Uttarakhand","latitude":29.3919,"longitude":79.4542,"temp":15.2,"humidity":63,"rain":0.0,"pressure":803.2,"uv_index":4.95,"wind_gusts":65.2,"aqi":54,"pm10":41.9,"pm2_5":20.1,"mosquito_risk":3,"arthritis_risk":5,"migraine_risk":3,"frizz_risk":0,"updated_at":"2026-04-08T02:23:08.764104+05:30"},{"city":"Mussoorie","state":"Uttarakhand","latitude":30.4599,"longitude":78.0664,"temp":11.3,"humidity":77,"rain":0.0,"pressure":798.7,"uv_index":3.5,"wind_gusts":54.4,"aqi":54,"pm10":37.1,"pm2_5":16.3,"mosquito_risk":3,"arthritis_risk":5,"migraine_risk":3,"frizz_risk":0,"updated_at":"2026-04-08T02:23:08.764112+05:30"},{"city":"Dharamshala","state":"Himachal Pradesh","latitude":32.219,"longitude":76.3234,"temp":13.3,"humidity":84,"rain":1.0,"pressure":865.7,"uv_index":3.25,"wind_gusts":36.4,"aqi":62,"pm10":9.0,"pm2_5":6.7,"mosquito_risk":6,"arthritis_risk":10,"migraine_risk":3,"frizz_risk":0,"updated_at":"2026-04-08T02:23:08.764121+05:30"},{"city":"Dalhousie","state":"Himachal Pradesh","latitude":32.5387,"longitude":75.971,"temp":10.1,"humidity":82,"rain":1.9,"pressure":799.0,"uv_index":1.45,"wind_gusts":38.2,"aqi":56,"pm10":31.9,"pm2_5":19.3,"mosquito_risk":6,"arthritis_risk":10,"migraine_risk":3,"frizz_risk":0,"updated_at":"2026-04-08T02:23:08.764131+05:30"},{"city":"Patiala","state":"Punjab","latitude":30.3398,"longitude":76.3869,"temp":16.9,"humidity":90,"rain":0.0,"pressure":977.8,"uv_index":2.7,"wind_gusts":23.4,"aqi":232,"pm10":64.0,"pm2_5":27.1,"mosquito_risk":3,"arthritis_risk":10,"migraine_risk":3,"frizz_risk":0,"updated_at":"2026-04-08T02:23:08.764140+05:30"},{"city":"Bhatinda","state":"Punjab","latitude":30.211,"longitude":74.9455,"temp":17.2,"humidity":92,"rain":0.0,"pressure":983.0,"uv_index":7.4,"wind_gusts":20.5,"aqi":109,"pm10":68.7,"pm2_5":25.1,"mosquito_risk":3,"arthritis_risk":10,"migraine_risk":7,"frizz_risk":0,"updated_at":"2026-04-08T02:23:08.764148+05:30"},{"city":"Rohtak","state":"Haryana","latitude":28.8955,"longitude":76.6066,"temp":18.2,"humidity":93,"rain":0.0,"pressure":980.6,"uv_index":6.95,"wind_gusts":25.9,"aqi":343,"pm10":117.6,"pm2_5":41.9,"mosquito_risk":3,"arthritis_risk":10,"migraine_risk":7,"frizz_risk":1,"updated_at":"2026-04-08T02:23:08.764156+05:30"},{"city":"Panipat","state":"Haryana","latitude":29.3909,"longitude":76.9635,"temp":17.0,"humidity":93,"rain":0.0,"pressure":980.0,"uv_index":5.65,"wind_gusts":24.1,"aqi":514,"pm10":85.9,"pm2_5":36.0,"mosquito_risk":3,"arthritis_risk":10,"migraine_risk":3,"frizz_risk":0,"updated_at":"2026-04-08T02:23:08.764164+05:30"},{"city":"Mathura","state":"Uttar Pradesh","latitude":27.4924,"longitude":77.6737,"temp":19.1,"humidity":95,"rain":0.2,"pressure":986.2,"uv_index":7.3,"wind_gusts":27.0,"aqi":472,"pm10":95.9,"pm2_5":34.3,"mosquito_risk":6,"arthritis_risk":10,"migraine_risk":7,"frizz_risk":1,"updated_at":"2026-04-08T02:23:08.764171+05:30"},{"city":"Vrindavan","state":"Uttar Pradesh","latitude":27.5823,"longitude":77.7027,"temp":18.7,"humidity":97,"rain":0.2,"pressure":986.4,"uv_index":7.25,"wind_gusts":27.4,"aqi":472,"pm10":95.9,"pm2_5":34.3,"mosquito_risk":6,"arthritis_risk":10,"migraine_risk":7,"frizz_risk":1,"updated_at":"2026-04-08T02:23:08.764178+05:30"},{"city":"Ayodhya","state":"Uttar Pradesh","latitude":26.7922,"longitude":82.1998,"temp":21.1,"humidity":78,"rain":0.0,"pressure":994.9,"uv_index":7.25,"wind_gusts":38.2,"aqi":89,"pm10":56.3,"pm2_5":22.1,"mosquito_risk":3,"arthritis_risk":5,"migraine_risk":7,"frizz_risk":1,"updated_at":"2026-04-08T02:23:08.764186+05:30"},{"city":"Ratlam","state":"Madhya Pradesh","latitude":23.3315,"longitude":75.0367,"temp":23.0,"humidity":88,"rain":0.0,"pressure":952.8,"uv_index":8.25,"wind_gusts":50.4,"aqi":65,"pm10":53.6,"pm2_5":22.7,"mosquito_risk":3,"arthritis_risk":5,"migraine_risk":7,"frizz_risk":1,"updated_at":"2026-04-08T02:23:08.764194+05:30"},{"city":"Sagar","state":"Madhya Pradesh","latitude":23.8388,"longitude":78.7378,"temp":24.0,"humidity":48,"rain":0.0,"pressure":948.3,"uv_index":8.3,"wind_gusts":46.1,"aqi":56,"pm10":43.9,"pm2_5":20.4,"mosquito_risk":0,"arthritis_risk":5,"migraine_risk":7,"frizz_risk":0,"updated_at":"2026-04-08T02:23:08.764201+05:30"},{"city":"Satna","state":"Madhya Pradesh","latitude":24.6005,"longitude":80.8322,"temp":22.2,"humidity":65,"rain":0.0,"pressure":970.1,"uv_index":8.35,"wind_gusts":42.8,"aqi":60,"pm10":49.0,"pm2_5":21.0,"mosquito_risk":3,"arthritis_risk":5,"migraine_risk":7,"frizz_risk":0,"updated_at":"2026-04-08T02:23:08.764208+05:30"},{"city":"Akola","state":"Maharashtra","latitude":20.7002,"longitude":77.0082,"temp":25.2,"humidity":62,"rain":0.0,"pressure":974.7,"uv_index":8.7,"wind_gusts":46.1,"aqi":64,"pm10":54.6,"pm2_5":23.5,"mosquito_risk":7,"arthritis_risk":5,"migraine_risk":7,"frizz_risk":1,"updated_at":"2026-04-08T02:23:08.764215+05:30"},{"city":"Amravati","state":"Maharashtra","latitude":20.9374,"longitude":77.7796,"temp":23.9,"humidity":59,"rain":0.0,"pressure":966.5,"uv_index":8.7,"wind_gusts":43.2,"aqi":59,"pm10":57.5,"pm2_5":24.3,"mosquito_risk":0,"arthritis_risk":5,"migraine_risk":7,"frizz_risk":0,"updated_at":"2026-04-08T02:23:08.764223+05:30"},{"city":"Latur","state":"Maharashtra","latitude":18.4088,"longitude":76.5604,"temp":22.5,"humidity":56,"rain":0.0,"pressure":939.2,"uv_index":9.0,"wind_gusts":34.9,"aqi":66,"pm10":48.1,"pm2_5":26.3,"mosquito_risk":0,"arthritis_risk":5,"migraine_risk":7,"frizz_risk":0,"updated_at":"2026-04-08T02:23:08.764231+05:30"},{"city":"Nanded","state":"Maharashtra","latitude":19.1383,"longitude":77.3091,"temp":25.0,"humidity":55,"rain":0.0,"pressure":968.1,"uv_index":8.9,"wind_gusts":33.5,"aqi":70,"pm10":51.5,"pm2_5":31.7,"mosquito_risk":4,"arthritis_risk":5,"migraine_risk":7,"frizz_risk":0,"updated_at":"2026-04-08T02:23:08.764238+05:30"},{"city":"Gulbarga","state":"Karnataka","latitude":17.3297,"longitude":76.8343,"temp":27.3,"humidity":35,"rain":0.0,"pressure":957.9,"uv_index":9.05,"wind_gusts":29.9,"aqi":56,"pm10":29.9,"pm2_5":18.2,"mosquito_risk":4,"arthritis_risk":5,"migraine_risk":7,"frizz_risk":0,"updated_at":"2026-04-08T02:23:08.764245+05:30"},{"city":"Bidar","state":"Karnataka","latitude":17.9104,"longitude":77.5199,"temp":25.6,"humidity":44,"rain":0.0,"pressure":934.5,"uv_index":9.05,"wind_gusts":28.8,"aqi":68,"pm10":52.4,"pm2_5":27.9,"mosquito_risk":4,"arthritis_risk":5,"migraine_risk":7,"frizz_risk":0,"updated_at":"2026-04-08T02:23:08.764253+05:30"},{"city":"Hospet","state":"Karnataka","latitude":15.2689,"longitude":76.3909,"temp":24.7,"humidity":73,"rain":0.0,"pressure":955.9,"uv_index":9.25,"wind_gusts":29.2,"aqi":48,"pm10":10.9,"pm2_5":9.0,"mosquito_risk":3,"arthritis_risk":5,"migraine_risk":7,"frizz_risk":1,"updated_at":"2026-04-08T02:23:08.764260+05:30"},{"city":"Tirupur","state":"Tamil Nadu","latitude":11.1085,"longitude":77.3411,"temp":24.9,"humidity":79,"rain":0.0,"pressure":974.7,"uv_index":9.5,"wind_gusts":40.3,"aqi":63,"pm10":22.6,"pm2_5":19.3,"mosquito_risk":3,"arthritis_risk":5,"migraine_risk":7,"frizz_risk":1,"updated_at":"2026-04-08T02:23:08.764267+05:30"},{"city":"Alappuzha","state":"Kerala","latitude":9.4981,"longitude":76.3388,"temp":29.1,"humidity":72,"rain":0.0,"pressure":1008.8,"uv_index":9.2,"wind_gusts":32.0,"aqi":62,"pm10":27.5,"pm2_5":17.4,"mosquito_risk":7,"arthritis_risk":0,"migraine_risk":4,"frizz_risk":1,"updated_at":"2026-04-08T02:23:08.764274+05:30"},{"city":"Munnar","state":"Kerala","latitude":10.0889,"longitude":77.0595,"temp":19.3,"humidity":94,"rain":0.0,"pressure":856.0,"uv_index":7.15,"wind_gusts":39.2,"aqi":60,"pm10":21.5,"pm2_5":18.5,"mosquito_risk":3,"arthritis_risk":10,"migraine_risk":7,"frizz_risk":1,"updated_at":"2026-04-08T02:23:08.764282+05:30"},{"city":"Silchar","state":"Assam","latitude":24.8333,"longitude":92.7789,"temp":21.8,"humidity":87,"rain":0.0,"pressure":1006.0,"uv_index":8.45,"wind_gusts":27.7,"aqi":135,"pm10":56.5,"pm2_5":51.7,"mosquito_risk":3,"arthritis_risk":5,"migraine_risk":4,"frizz_risk":1,"updated_at":"2026-04-08T02:23:08.764290+05:30"},{"city":"Dibrugarh","state":"Assam","latitude":27.4728,"longitude":94.912,"temp":20.3,"humidity":86,"rain":0.0,"pressure":998.4,"uv_index":8.25,"wind_gusts":14.0,"aqi":88,"pm10":21.1,"pm2_5":18.5,"mosquito_risk":3,"arthritis_risk":5,"migraine_risk":7,"frizz_risk":1,"updated_at":"2026-04-08T02:23:08.764297+05:30"}]