[{"city":"Delhi","state":"Delhi","latitude":28.6139,"longitude":77.209,"temp":26.7,"humidity":91,"rain":0.0,"pressure":977.9,"uv_index":6.6,"wind_gusts":37.4,"aqi":72,"pm10":20.2,"pm2_5":20.1,"no2":22.0,"co":506.0,"o3":72.0,"so2":19.0,"mosquito_risk":7,"arthritis_risk":5,"migraine_risk":7,"frizz_risk":1,"updated_at":"2026-07-22T00:57:16.188273+05:30"},{"city":"Mumbai","state":"Maharashtra","latitude":19.076,"longitude":72.8777,"temp":26.5,"humidity":90,"rain":0.2,"pressure":1005.4,"uv_index":2.8,"wind_gusts":54.7,"aqi":62,"pm10":29.8,"pm2_5":13.2,"no2":5.0,"co":186.0,"o3":44.0,"so2":3.8,"mosquito_risk":10,"arthritis_risk":5,"migraine_risk":0,"frizz_risk":1,"updated_at":"2026-07-22T00:57:16.188321+05:30"},{"city":"Bangalore","state":"Karnataka","latitude":12.9716,"longitude":77.5946,"temp":21.0,"humidity":88,"rain":0.0,"pressure":911.7,"uv_index":8.75,"wind_gusts":49.7,"aqi":39,"pm10":8.5,"pm2_5":6.8,"no2":15.7,"co":279.0,"o3":29.0,"so2":5.2,"mosquito_risk":3,"arthritis_risk":5,"migraine_risk":7,"frizz_risk":1,"updated_at":"2026-07-22T00:57:16.188337+05:30"},{"city":"Hyderabad","state":"Telangana","latitude":17.385,"longitude":78.4867,"temp":23.4,"humidity":89,"rain":0.0,"pressure":951.1,"uv_index":3.55,"wind_gusts":56.2,"aqi":50,"pm10":11.0,"pm2_5":7.4,"no2":8.0,"co":196.0,"o3":41.0,"so2":4.2,"mosquito_risk":3,"arthritis_risk":5,"migraine_risk":3,"frizz_risk":1,"updated_at":"2026-07-22T00:57:16.188347+05:30"},{"city":"Chennai","state":"Tamil Nadu","latitude":13.0827,"longitude":80.2707,"temp":28.9,"humidity":80,"rain":0.0,"pressure":1006.3,"uv_index":8.0,"wind_gusts":37.8,"aqi":75,"pm10":29.2,"pm2_5":20.3,"no2":11.0,"co":275.0,"o3":81.0,"so2":8.1,"mosquito_risk":7,"arthritis_risk":5,"migraine_risk":4,"frizz_risk":1,"updated_at":"2026-07-22T00:57:16.188357+05:30"},{"city":"Kolkata","state":"West Bengal","latitude":22.5726,"longitude":88.3639,"temp":26.0,"humidity":93,"rain":0.2,"pressure":1001.8,"uv_index":1.6,"wind_gusts":31.3,"aqi":59,"pm10":21.6,"pm2_5":20.3,"no2":14.8,"co":427.0,"o3":51.0,"so2":9.0,"mosquito_risk":10,"arthritis_risk":5,"migraine_risk":0,"frizz_risk":1,"updated_at":"2026-07-22T00:57:16.188365+05:30"},{"city":"Pune","state":"Maharashtra","latitude":18.5204,"longitude":73.8567,"temp":22.6,"humidity":94,"rain":0.1,"pressure":944.6,"uv_index":5.4,"wind_gusts":52.6,"aqi":24,"pm10":3.3,"pm2_5":2.1,"no2":4.3,"co":126.0,"o3":41.0,"so2":2.9,"mosquito_risk":6,"arthritis_risk":5,"migraine_risk":3,"frizz_risk":1,"updated_at":"2026-07-22T00:57:16.188373+05:30"},{"city":"Ahmedabad","state":"Gujarat","latitude":23.0225,"longitude":72.5714,"temp":27.7,"humidity":84,"rain":0.0,"pressure":996.0,"uv_index":2.25,"wind_gusts":29.2,"aqi":63,"pm10":19.4,"pm2_5":11.9,"no2":11.6,"co":173.0,"o3":37.0,"so2":4.6,"mosquito_risk":7,"arthritis_risk":5,"migraine_risk":3,"frizz_risk":1,"updated_at":"2026-07-22T00:57:16.188381+05:30"},{"city":"Jaipur","state":"Rajasthan","latitude":26.9124,"longitude":75.7873,"temp":26.0,"humidity":94,"rain":0.0,"pressure":953.9,"uv_index":7.45,"wind_gusts":29.2,"aqi":61,"pm10":34.9,"pm2_5":19.8,"no2":21.1,"co":480.0,"o3":49.0,"so2":5.8,"mosquito_risk":7,"arthritis_risk":5,"migraine_risk":7,"frizz_risk":1,"updated_at":"2026-07-22T00:57:16.188389+05:30"},{"city":"Lucknow","state":"Uttar Pradesh","latitude":26.8467,"longitude":80.9462,"temp":27.4,"humidity":88,"rain":0.0,"pressure":989.0,"uv_index":6.6,"wind_gusts":48.6,"aqi":69,"pm10":27.0,"pm2_5":26.5,"no2":9.6,"co":338.0,"o3":96.0,"so2":8.3,"mosquito_risk":7,"arthritis_risk":5,"migraine_risk":7,"frizz_risk":1,"updated_at":"2026-07-22T00:57:16.188400+05:30"},{"city":"Kanpur","state":"Uttar Pradesh","latitude":26.4499,"longitude":80.3319,"temp":27.3,"humidity":90,"rain":0.0,"pressure":986.8,"uv_index":7.35,"wind_gusts":43.9,"aqi":66,"pm10":21.5,"pm2_5":21.4,"no2":9.1,"co":351.0,"o3":102.0,"so2":8.5,"mosquito_risk":7,"arthritis_risk":5,"migraine_risk":7,"frizz_risk":1,"updated_at":"2026-07-22T00:57:16.188408+05:30"},{"city":"Chandigarh","state":"Chandigarh","latitude":30.7333,"longitude":76.7794,"temp":27.9,"humidity":79,"rain":0.0,"pressure":965.0,"uv_index":5.7,"wind_gusts":38.5,"aqi":68,"pm10":24.4,"pm2_5":24.4,"no2":26.3,"co":334.0,"o3":54.0,"so2":8.2,"mosquito_risk":7,"arthritis_risk":5,"migraine_risk":3,"frizz_risk":1,"updated_at":"2026-07-22T00:57:16.188415+05:30"},{"city":"Srinagar","state":"Jammu and Kashmir","latitude":34.0837,"longitude":74.7973,"temp":19.2,"humidity":96,"rain":0.2,"pressure":840.1,"uv_index":8.85,"wind_gusts":17.3,"aqi":58,"pm10":26.7,"pm2_5":26.0,"no2":41.4,"co":593.0,"o3":24.0,"so2":6.5,"mosquito_risk":6,"arthritis_risk":10,"migraine_risk":7,"frizz_risk":1,"updated_at":"2026-07-22T00:57:16.188422+05:30"},{"city":"Jammu","state":"Jammu and Kashmir","latitude":32.7266,"longitude":74.857,"temp":24.2,"humidity":89,"rain":0.0,"pressure":968.4,"uv_index":2.75,"wind_gusts":36.7,"aqi":82,"pm10":26.0,"pm2_5":20.9,"no2":26.9,"co":549.0,"o3":56.0,"so2":4.0,"mosquito_risk":3,"arthritis_risk":5,"migraine_risk":3,"frizz_risk":1,"updated_at":"2026-07-22T00:57:16.188429+05:30"},{"city":"Amritsar","state":"Punjab","latitude":31.634,"longitude":74.8723,"temp":26.2,"humidity":84,"rain":0.0,"pressure":976.1,"uv_index":6.25,"wind_gusts":33.8,"aqi":88,"pm10":36.2,"pm2_5":35.9,"no2":25.3,"co":668.0,"o3":62.0,"so2":9.0,"mosquito_risk":7,"arthritis_risk":5,"migraine_risk":7,"frizz_risk":1,"updated_at":"2026-07-22T00:57:16.188436+05:30"},{"city":"Ludhiana","state":"Punjab","latitude":30.901,"longitude":75.8573,"temp":27.9,"humidity":90,"rain":0.0,"pressure":974.2,"uv_index":7.1,"wind_gusts":34.9,"aqi":77,"pm10":29.5,"pm2_5":29.5,"no2":22.8,"co":780.0,"o3":71.0,"so2":11.5,"mosquito_risk":7,"arthritis_risk":5,"migraine_risk":7,"frizz_risk":1,"updated_at":"2026-07-22T00:57:16.188443+05:30"},{"city":"Jalandhar","state":"Punjab","latitude":31.326,"longitude":75.5762,"temp":27.1,"humidity":89,"rain":0.0,"pressure":975.3,"uv_index":3.25,"wind_gusts":37.8,"aqi":78,"pm10":39.8,"pm2_5":39.8,"no2":31.6,"co":840.0,"o3":56.0,"so2":15.6,"mosquito_risk":7,"arthritis_risk":5,"migraine_risk":3,"frizz_risk":1,"updated_at":"2026-07-22T00:57:16.188450+05:30"},{"city":"Dehradun","state":"Uttarakhand","latitude":30.6284,"longitude":78.0322,"temp":17.5,"humidity":98,"rain":0.1,"pressure":828.9,"uv_index":5.95,"wind_gusts":22.3,"aqi":46,"pm10":6.9,"pm2_5":6.8,"no2":13.6,"co":212.0,"o3":86.0,"so2":1.5,"mosquito_risk":6,"arthritis_risk":10,"migraine_risk":3,"frizz_risk":1,"updated_at":"2026-07-22T00:57:16.188458+05:30"},{"city":"Shimla","state":"Himachal Pradesh","latitude":31.1048,"longitude":77.1734,"temp":15.2,"humidity":99,"rain":0.1,"pressure":782.8,"uv_index":3.05,"wind_gusts":28.8,"aqi":42,"pm10":3.3,"pm2_5":3.2,"no2":10.9,"co":362.0,"o3":80.0,"so2":1.2,"mosquito_risk":6,"arthritis_risk":10,"migraine_risk":3,"frizz_risk":0,"updated_at":"2026-07-22T00:57:16.188464+05:30"},{"city":"Manali","state":"Himachal Pradesh","latitude":32.2396,"longitude":77.1887,"temp":19.6,"humidity":90,"rain":0.0,"pressure":818.0,"uv_index":6.05,"wind_gusts":26.6,"aqi":30,"pm10":3.3,"pm2_5":3.3,"no2":32.0,"co":285.0,"o3":29.0,"so2":0.1,"mosquito_risk":3,"arthritis_risk":10,"migraine_risk":7,"frizz_risk":1,"updated_at":"2026-07-22T00:57:16.188474+05:30"},{"city":"Gurgaon","state":"Haryana","latitude":28.4595,"longitude":77.0266,"temp":26.3,"humidity":95,"rain":0.0,"pressure":976.0,"uv_index":5.75,"wind_gusts":40.7,"aqi":70,"pm10":18.4,"pm2_5":18.3,"no2":19.8,"co":464.0,"o3":74.0,"so2":13.8,"mosquito_risk":7,"arthritis_risk":5,"migraine_risk":3,"frizz_risk":1,"updated_at":"2026-07-22T00:57:16.188481+05:30"},{"city":"Noida","state":"Uttar Pradesh","latitude":28.5355,"longitude":77.391,"temp":26.5,"humidity":94,"rain":0.0,"pressure":979.5,"uv_index":6.6,"wind_gusts":35.3,"aqi":70,"pm10":18.4,"pm2_5":18.3,"no2":19.8,"co":446.0,"o3":74.0,"so2":13.8,"mosquito_risk":7,"arthritis_risk":5,"migraine_risk":7,"frizz_risk":1,"updated_at":"2026-07-22T00:57:16.188488+05:30"},{"city":"Ghaziabad","state":"Uttar Pradesh","latitude":28.6692,"longitude":77.4538,"temp":26.3,"humidity":94,"rain":0.0,"pressure":977.9,"uv_index":6.8,"wind_gusts":38.9,"aqi":63,"pm10":19.8,"pm2_5":19.8,"no2":13.0,"co":406.0,"o3":81.0,"so2":10.4,"mosquito_risk":7,"arthritis_risk":5,"migraine_risk":7,"frizz_risk":1,"updated_at":"2026-07-22T00:57:16.188496+05:30"},{"city":"Faridabad","state":"Haryana","latitude":28.4089,"longitude":77.3178,"temp":26.3,"humidity":95,"rain":0.0,"pressure":978.6,"uv_index":6.4,"wind_gusts":38.5,"aqi":70,"pm10":18.4,"pm2_5":18.3,"no2":19.8,"co":451.0,"o3":74.0,"so2":13.8,"mosquito_risk":7,"arthritis_risk":5,"migraine_risk":7,"frizz_risk":1,"updated_at":"2026-07-22T00:57:16.188503+05:30"},{"city":"Meerut","state":"Uttar Pradesh","latitude":28.9845,"longitude":77.7064,"temp":26.5,"humidity":91,"rain":0.0,"pressure":977.1,"uv_index":6.9,"wind_gusts":41.8,"aqi":63,"pm10":19.8,"pm2_5":19.8,"no2":13.0,"co":412.0,"o3":81.0,"so2":10.4,"mosquito_risk":7,"arthritis_risk":5,"migraine_risk":7,"frizz_risk":1,"updated_at":"2026-07-22T00:57:16.188510+05:30"},{"city":"Agra","state":"Uttar Pradesh","latitude":27.1767,"longitude":78.0081,"temp":26.8,"humidity":95,"rain":0.0,"pressure":982.1,"uv_index":7.25,"wind_gusts":36.4,"aqi":64,"pm10":12.2,"pm2_5":11.8,"no2":12.8,"co":358.0,"o3":88.0,"so2":6.7,"mosquito_risk":7,"arthritis_risk":5,"migraine_risk":7,"frizz_risk":1,"updated_at":"2026-07-22T00:57:16.188517+05:30"},{"city":"Varanasi","state":"Uttar Pradesh","latitude":25.3176,"longitude":82.9739,"temp":26.2,"humidity":91,"rain":0.0,"pressure":992.8,"uv_index":5.95,"wind_gusts":50.4,"aqi":75,"pm10":21.8,"pm2_5":21.5,"no2":12.9,"co":411.0,"o3":69.0,"so2":7.8,"mosquito_risk":7,"arthritis_risk":5,"migraine_risk":3,"frizz_risk":1,"updated_at":"2026-07-22T00:57:16.188524+05:30"},{"city":"Prayagraj","state":"Uttar Pradesh","latitude":25.4358,"longitude":81.8463,"temp":26.1,"humidity":95,"rain":0.0,"pressure":990.9,"uv_index":7.65,"wind_gusts":41.8,"aqi":72,"pm10":26.4,"pm2_5":26.1,"no2":12.4,"co":480.0,"o3":81.0,"so2":6.8,"mosquito_risk":7,"arthritis_risk":5,"migraine_risk":7,"frizz_risk":1,"updated_at":"2026-07-22T00:57:16.188531+05:30"},{"city":"Gorakhpur","state":"Uttar Pradesh","latitude":26.7606,"longitude":83.3732,"temp":25.6,"humidity":93,"rain":0.0,"pressure":994.0,"uv_index":6.2,"wind_gusts":51.8,"aqi":71,"pm10":28.0,"pm2_5":27.8,"no2":14.0,"co":384.0,"o3":67.0,"so2":7.9,"mosquito_risk":7,"arthritis_risk":5,"migraine_risk":7,"frizz_risk":1,"updated_at":"2026-07-22T00:57:16.188538+05:30"},{"city":"Bareilly","state":"Uttar Pradesh","latitude":28.367,"longitude":79.4304,"temp":27.0,"humidity":91,"rain":0.0,"pressure":983.0,"uv_index":7.5,"wind_gusts":40.0,"aqi":59,"pm10":19.2,"pm2_5":19.1,"no2":11.8,"co":388.0,"o3":69.0,"so2":5.4,"mosquito_risk":7,"arthritis_risk":5,"migraine_risk":7,"frizz_risk":1,"updated_at":"2026-07-22T00:57:16.188546+05:30"},{"city":"Aligarh","state":"Uttar Pradesh","latitude":27.8974,"longitude":78.088,"temp":26.3,"humidity":95,"rain":0.0,"pressure":980.4,"uv_index":6.9,"wind_gusts":40.3,"aqi":63,"pm10":19.7,"pm2_5":19.7,"no2":12.9,"co":406.0,"o3":86.0,"so2":10.3,"mosquito_risk":7,"arthritis_risk":5,"migraine_risk":7,"frizz_risk":1,"updated_at":"2026-07-22T00:57:16.188553+05:30"},{"city":"Moradabad","state":"Uttar Pradesh","latitude":28.8386,"longitude":78.7733,"temp":27.0,"humidity":88,"rain":0.0,"pressure":979.9,"uv_index":7.7,"wind_gusts":44.6,"aqi":60,"pm10":17.8,"pm2_5":17.7,"no2":10.9,"co":357.0,"o3":78.0,"so2":6.3,"mosquito_risk":7,"arthritis_risk":5,"migraine_risk":7,"frizz_risk":1,"updated_at":"2026-07-22T00:57:16.188561+05:30"},{"city":"Saharanpur","state":"Uttar Pradesh","latitude":29.9637,"longitude":77.546,"temp":27.3,"humidity":84,"rain":0.0,"pressure":972.0,"uv_index":7.35,"wind_gusts":40.0,"aqi":69,"pm10":21.3,"pm2_5":21.2,"no2":16.3,"co":436.0,"o3":59.0,"so2":8.2,"mosquito_risk":7,"arthritis_risk":5,"migraine_risk":7,"frizz_risk":1,"updated_at":"2026-07-22T00:57:16.188567+05:30"},{"city":"Jhansi","state":"Uttar Pradesh","latitude":25.4484,"longitude":78.5685,"temp":26.7,"humidity":91,"rain":0.0,"pressure":971.9,"uv_index":7.2,"wind_gusts":36.4,"aqi":68,"pm10":29.1,"pm2_5":22.9,"no2":16.6,"co":297.0,"o3":61.0,"so2":7.1,"mosquito_risk":7,"arthritis_risk":5,"migraine_risk":7,"frizz_risk":1,"updated_at":"2026-07-22T00:57:19.616403+05:30"},{"city":"Surat","state":"Gujarat","latitude":21.1702,"longitude":72.8311,"temp":26.1,"humidity":94,"rain":0.1,"pressure":1001.7,"uv_index":1.05,"wind_gusts":40.3,"aqi":70,"pm10":20.0,"pm2_5":14.0,"no2":18.2,"co":312.0,"o3":29.0,"so2":27.2,"mosquito_risk":10,"arthritis_risk":5,"migraine_risk":0,"frizz_risk":1,"updated_at":"2026-07-22T00:57:19.616433+05:30"},{"city":"Vadodara","state":"Gujarat","latitude":22.3072,"longitude":73.1812,"temp":26.2,"humidity":94,"rain":0.0,"pressure":998.7,"uv_index":1.25,"wind_gusts":37.1,"aqi":60,"pm10":14.6,"pm2_5":9.9,"no2":12.4,"co":175.0,"o3":34.0,"so2":5.7,"mosquito_risk":7,"arthritis_risk":5,"migraine_risk":3,"frizz_risk":1,"updated_at":"2026-07-22T00:57:19.616443+05:30"},{"city":"Rajkot","state":"Gujarat","latitude":22.3039,"longitude":70.8022,"temp":26.5,"humidity":87,"rain":0.0,"pressure":988.7,"uv_index":5.05,"wind_gusts":49.3,"aqi":57,"pm10":15.1,"pm2_5":8.5,"no2":5.5,"co":110.0,"o3":40.0,"so2":5.1,"mosquito_risk":7,"arthritis_risk":5,"migraine_risk":3,"frizz_risk":1,"updated_at":"2026-07-22T00:57:19.616452+05:30"},{"city":"Thane","state":"Maharashtra","latitude":19.2183,"longitude":72.9781,"temp":25.3,"humidity":95,"rain":0.1,"pressure":1004.7,"uv_index":3.25,"wind_gusts":42.5,"aqi":62,"pm10":29.8,"pm2_5":13.2,"no2":5.0,"co":185.0,"o3":44.0,"so2":3.8,"mosquito_risk":10,"arthritis_risk":5,"migraine_risk":0,"frizz_risk":1,"updated_at":"2026-07-22T00:57:19.616460+05:30"},{"city":"Nagpur","state":"Maharashtra","latitude":21.1458,"longitude":79.0882,"temp":24.3,"humidity":96,"rain":0.1,"pressure":968.2,"uv_index":0.6,"wind_gusts":46.1,"aqi":43,"pm10":8.1,"pm2_5":7.5,"no2":12.8,"co":197.0,"o3":37.0,"so2":8.7,"mosquito_risk":6,"arthritis_risk":5,"migraine_risk":3,"frizz_risk":1,"updated_at":"2026-07-22T00:57:19.616468+05:30"},{"city":"Nashik","state":"Maharashtra","latitude":19.9975,"longitude":73.7898,"temp":22.6,"humidity":96,"rain":0.4,"pressure":940.8,"uv_index":2.5,"wind_gusts":58.7,"aqi":21,"pm10":1.1,"pm2_5":0.9,"no2":6.5,"co":131.0,"o3":40.0,"so2":3.3,"mosquito_risk":6,"arthritis_risk":5,"migraine_risk":3,"frizz_risk":1,"updated_at":"2026-07-22T00:57:19.616476+05:30"},{"city":"Aurangabad","state":"Maharashtra","latitude":19.8762,"longitude":75.3433,"temp":22.6,"humidity":95,"rain":0.1,"pressure":940.0,"uv_index":1.45,"wind_gusts":67.3,"aqi":26,"pm10":2.7,"pm2_5":2.3,"no2":7.8,"co":137.0,"o3":37.0,"so2":5.6,"mosquito_risk":6,"arthritis_risk":5,"migraine_risk":3,"frizz_risk":1,"updated_at":"2026-07-22T00:57:19.616483+05:30"},{"city":"Solapur","state":"Maharashtra","latitude":17.6599,"longitude":75.9064,"temp":23.7,"humidity":92,"rain":0.0,"pressure":955.2,"uv_index":1.55,"wind_gusts":61.6,"aqi":32,"pm10":4.3,"pm2_5":3.2,"no2":5.2,"co":126.0,"o3":35.0,"so2":2.2,"mosquito_risk":3,"arthritis_risk":5,"migraine_risk":3,"frizz_risk":1,"updated_at":"2026-07-22T00:57:19.616491+05:30"},{"city":"Kolhapur","state":"Maharashtra","latitude":16.705,"longitude":74.2433,"temp":21.9,"humidity":96,"rain":0.0,"pressure":946.5,"uv_index":5.7,"wind_gusts":50.0,"aqi":30,"pm10":5.1,"pm2_5":3.4,"no2":4.2,"co":108.0,"o3":37.0,"so2":1.9,"mosquito_risk":3,"arthritis_risk":5,"migraine_risk":3,"frizz_risk":1,"updated_at":"2026-07-22T00:57:19.616499+05:30"},{"city":"Goa","state":"Goa","latitude":15.2993,"longitude":74.124,"temp":23.4,"humidity":99,"rain":0.0,"pressure":998.3,"uv_index":7.6,"wind_gusts":38.5,"aqi":57,"pm10":26.5,"pm2_5":13.8,"no2":4.4,"co":225.0,"o3":33.0,"so2":1.2,"mosquito_risk":3,"arthritis_risk":5,"migraine_risk":7,"frizz_risk":1,"updated_at":"2026-07-22T00:57:19.616506+05:30"},{"city":"Jodhpur","state":"Rajasthan","latitude":26.2389,"longitude":73.0243,"temp":27.8,"humidity":89,"rain":0.1,"pressure":976.3,"uv_index":6.8,"wind_gusts":25.6,"aqi":90,"pm10":32.5,"pm2_5":18.3,"no2":12.7,"co":217.0,"o3":52.0,"so2":2.1,"mosquito_risk":10,"arthritis_risk":5,"migraine_risk":7,"frizz_risk":1,"updated_at":"2026-07-22T00:57:19.616514+05:30"},{"city":"Udaipur","state":"Rajasthan","latitude":24.5854,"longitude":73.7125,"temp":24.3,"humidity":97,"rain":0.3,"pressure":940.3,"uv_index":1.05,"wind_gusts":33.8,"aqi":54,"pm10":20.3,"pm2_5":13.1,"no2":7.8,"co":172.0,"o3":57.0,"so2":6.2,"mosquito_risk":6,"arthritis_risk":5,"migraine_risk":3,"frizz_risk":1,"updated_at":"2026-07-22T00:57:19.616521+05:30"},{"city":"Kota","state":"Rajasthan","latitude":25.2138,"longitude":75.8648,"temp":26.1,"humidity":93,"rain":0.0,"pressure":972.4,"uv_index":8.0,"wind_gusts":24.8,"aqi":56,"pm10":12.8,"pm2_5":11.6,"no2":11.4,"co":380.0,"o3":59.0,"so2":5.1,"mosquito_risk":7,"arthritis_risk":5,"migraine_risk":7,"frizz_risk":1,"updated_at":"2026-07-22T00:57:19.616528+05:30"},{"city":"Bikaner","state":"Rajasthan","latitude":28.0229,"longitude":73.3119,"temp":27.5,"humidity":89,"rain":0.1,"pressure":975.1,"uv_index":6.6,"wind_gusts":27.0,"aqi":81,"pm10":34.0,"pm2_5":15.2,"no2":3.6,"co":138.0,"o3":77.0,"so2":2.1,"mosquito_risk":10,"arthritis_risk":5,"migraine_risk":7,"frizz_risk":1,"updated_at":"2026-07-22T00:57:19.616536+05:30"},{"city":"Ajmer","state":"Rajasthan","latitude":26.4499,"longitude":74.6399,"temp":25.1,"humidity":95,"rain":0.0,"pressure":948.6,"uv_index":7.2,"wind_gusts":28.4,"aqi":61,"pm10":22.1,"pm2_5":15.3,"no2":13.5,"co":201.0,"o3":54.0,"so2":3.6,"mosquito_risk":7,"arthritis_risk":5,"migraine_risk":7,"frizz_risk":1,"updated_at":"2026-07-22T00:57:19.616543+05:30"},{"city":"Gwalior","state":"Madhya Pradesh","latitude":26.2183,"longitude":78.1828,"temp":26.4,"humidity":92,"rain":0.2,"pressure":977.2,"uv_index":6.15,"wind_gusts":35.6,"aqi":60,"pm10":14.2,"pm2_5":10.4,"no2":9.7,"co":257.0,"o3":76.0,"so2":2.7,"mosquito_risk":10,"arthritis_risk":5,"migraine_risk":7,"frizz_risk":1,"updated_at":"2026-07-22T00:57:19.616550+05:30"},{"city":"Indore","state":"Madhya Pradesh","latitude":22.7196,"longitude":75.8577,"temp":23.8,"humidity":95,"rain":0.1,"pressure":942.2,"uv_index":2.85,"wind_gusts":46.4,"aqi":53,"pm10":9.8,"pm2_5":8.5,"no2":12.0,"co":271.0,"o3":42.0,"so2":5.7,"mosquito_risk":6,"arthritis_risk":5,"migraine_risk":3,"frizz_risk":1,"updated_at":"2026-07-22T00:57:19.616558+05:30"},{"city":"Bhopal","state":"Madhya Pradesh","latitude":23.2599,"longitude":77.4126,"temp":23.7,"humidity":96,"rain":0.0,"pressure":947.4,"uv_index":6.85,"wind_gusts":24.8,"aqi":49,"pm10":11.5,"pm2_5":10.0,"no2":9.9,"co":271.0,"o3":41.0,"so2":4.0,"mosquito_risk":3,"arthritis_risk":5,"migraine_risk":7,"frizz_risk":1,"updated_at":"2026-07-22T00:57:19.616566+05:30"},{"city":"Jabalpur","state":"Madhya Pradesh","latitude":23.1815,"longitude":79.9864,"temp":24.2,"humidity":97,"rain":0.0,"pressure":955.4,"uv_index":6.55,"wind_gusts":16.9,"aqi":42,"pm10":6.9,"pm2_5":6.6,"no2":9.0,"co":237.0,"o3":44.0,"so2":3.2,"mosquito_risk":3,"arthritis_risk":5,"migraine_risk":7,"frizz_risk":1,"updated_at":"2026-07-22T00:57:19.616573+05:30"},{"city":"Ujjain","state":"Madhya Pradesh","latitude":23.1765,"longitude":75.7885,"temp":23.8,"humidity":95,"rain":0.1,"pressure":947.8,"uv_index":2.15,"wind_gusts":39.6,"aqi":53,"pm10":9.9,"pm2_5":8.1,"no2":9.0,"co":246.0,"o3":46.0,"so2":5.9,"mosquito_risk":6,"arthritis_risk":5,"migraine_risk":3,"frizz_risk":1,"updated_at":"2026-07-22T00:57:19.616581+05:30"},{"city":"Visakhapatnam","state":"Andhra Pradesh","latitude":17.6868,"longitude":83.2185,"temp":26.5,"humidity":84,"rain":0.0,"pressure":1000.0,"uv_index":5.5,"wind_gusts":56.5,"aqi":58,"pm10":19.6,"pm2_5":14.8,"no2":23.7,"co":300.0,"o3":28.0,"so2":34.7,"mosquito_risk":7,"arthritis_risk":5,"migraine_risk":0,"frizz_risk":1,"updated_at":"2026-07-22T00:57:19.616589+05:30"},{"city":"Vijayawada","state":"Andhra Pradesh","latitude":16.5062,"longitude":80.648,"temp":26.9,"humidity":89,"rain":0.1,"pressure":1000.7,"uv_index":7.7,"wind_gusts":46.8,"aqi":64,"pm10":29.8,"pm2_5":20.0,"no2":14.6,"co":251.0,"o3":35.0,"so2":8.7,"mosquito_risk":10,"arthritis_risk":5,"migraine_risk":4,"frizz_risk":1,"updated_at":"2026-07-22T00:57:19.616597+05:30"},{"city":"Guntur","state":"Andhra Pradesh","latitude":16.3067,"longitude":80.4365,"temp":28.7,"humidity":67,"rain":0.0,"pressure":1002.1,"uv_index":8.05,"wind_gusts":51.1,"aqi":62,"pm10":22.2,"pm2_5":14.0,"no2":10.5,"co":279.0,"o3":46.0,"so2":7.6,"mosquito_risk":7,"arthritis_risk":5,"migraine_risk":4,"frizz_risk":1,"updated_at":"2026-07-22T00:57:19.616604+05:30"},{"city":"Nellore","state":"Andhra Pradesh","latitude":14.4426,"longitude":79.9865,"temp":28.8,"humidity":76,"rain":0.0,"pressure":1004.9,"uv_index":8.15,"wind_gusts":37.8,"aqi":59,"pm10":43.4,"pm2_5":26.3,"no2":15.6,"co":206.0,"o3":47.0,"so2":7.5,"mosquito_risk":7,"arthritis_risk":5,"migraine_risk":4,"frizz_risk":1,"updated_at":"2026-07-22T00:57:19.616613+05:30"},{"city":"Kurnool","state":"Andhra Pradesh","latitude":15.8281,"longitude":78.0373,"temp":25.6,"humidity":80,"rain":0.0,"pressure":976.2,"uv_index":3.75,"wind_gusts":54.4,"aqi":51,"pm10":9.8,"pm2_5":6.8,"no2":7.9,"co":217.0,"o3":39.0,"so2":2.5,"mosquito_risk":7,"arthritis_risk":5,"migraine_risk":3,"frizz_risk":1,"updated_at":"2026-07-22T00:57:19.616621+05:30"},{"city":"Kakinada","state":"Andhra Pradesh","latitude":16.9891,"longitude":82.2475,"temp":28.7,"humidity":71,"rain":0.0,"pressure":1004.8,"uv_index":8.25,"wind_gusts":58.7,"aqi":54,"pm10":31.2,"pm2_5":17.6,"no2":9.7,"co":171.0,"o3":45.0,"so2":6.8,"mosquito_risk":7,"arthritis_risk":5,"migraine_risk":4,"frizz_risk":1,"updated_at":"2026-07-22T00:57:19.616651+05:30"},{"city":"Tirupati","state":"Andhra Pradesh","latitude":13.6288,"longitude":79.4192,"temp":26.5,"humidity":90,"rain":0.0,"pressure":990.7,"uv_index":9.0,"wind_gusts":40.3,"aqi":63,"pm10":39.8,"pm2_5":29.2,"no2":34.5,"co":336.0,"o3":17.0,"so2":5.3,"mosquito_risk":7,"arthritis_risk":5,"migraine_risk":7,"frizz_risk":1,"updated_at":"2026-07-22T00:57:19.616659+05:30"},{"city":"Warangal","state":"Telangana","latitude":17.9689,"longitude":79.5941,"temp":24.3,"humidity":91,"rain":0.2,"pressure":976.2,"uv_index":1.8,"wind_gusts":45.0,"aqi":51,"pm10":15.5,"pm2_5":11.5,"no2":10.1,"co":178.0,"o3":45.0,"so2":3.9,"mosquito_risk":6,"arthritis_risk":5,"migraine_risk":3,"frizz_risk":1,"updated_at":"2026-07-22T00:57:19.616667+05:30"},{"city":"Nizamabad","state":"Telangana","latitude":18.6725,"longitude":78.0941,"temp":23.5,"humidity":96,"rain":0.2,"pressure":961.9,"uv_index":2.2,"wind_gusts":50.4,"aqi":47,"pm10":8.6,"pm2_5":6.7,"no2":7.0,"co":155.0,"o3":38.0,"so2":3.3,"mosquito_risk":6,"arthritis_risk":5,"migraine_risk":3,"frizz_risk":1,"updated_at":"2026-07-22T00:57:19.616674+05:30"},{"city":"Mysore","state":"Karnataka","latitude":12.2958,"longitude":76.6396,"temp":21.4,"humidity":94,"rain":0.0,"pressure":929.2,"uv_index":8.0,"wind_gusts":53.6,"aqi":31,"pm10":7.0,"pm2_5":5.3,"no2":8.9,"co":134.0,"o3":31.0,"so2":2.5,"mosquito_risk":3,"arthritis_risk":5,"migraine_risk":7,"frizz_risk":1,"updated_at":"2026-07-22T00:57:19.616682+05:30"},{"city":"Mangalore","state":"Karnataka","latitude":12.9141,"longitude":74.856,"temp":24.2,"humidity":99,"rain":0.0,"pressure":1008.1,"uv_index":6.3,"wind_gusts":36.0,"aqi":55,"pm10":19.2,"pm2_5":13.8,"no2":11.7,"co":224.0,"o3":23.0,"so2":3.8,"mosquito_risk":3,"arthritis_risk":0,"migraine_risk":4,"frizz_risk":1,"updated_at":"2026-07-22T00:57:19.616690+05:30"},{"city":"Hubli-Dharwad","state":"Karnataka","latitude":15.3647,"longitude":75.124,"temp":22.1,"humidity":96,"rain":0.1,"pressure":940.1,"uv_index":1.1,"wind_gusts":63.7,"aqi":20,"pm10":4.5,"pm2_5":2.5,"no2":4.0,"co":119.0,"o3":34.0,"so2":1.3,"mosquito_risk":6,"arthritis_risk":5,"migraine_risk":3,"frizz_risk":1,"updated_at":"2026-07-22T00:57:19.616698+05:30"},{"city":"Belgaum","state":"Karnataka","latitude":15.8497,"longitude":74.4977,"temp":20.7,"humidity":99,"rain":0.0,"pressure":924.7,"uv_index":4.75,"wind_gusts":60.8,"aqi":22,"pm10":4.5,"pm2_5":2.5,"no2":3.7,"co":101.0,"o3":37.0,"so2":1.8,"mosquito_risk":3,"arthritis_risk":5,"migraine_risk":3,"frizz_risk":1,"updated_at":"2026-07-22T00:57:23.164608+05:30"},{"city":"Coimbatore","state":"Tamil Nadu","latitude":11.0168,"longitude":76.9558,"temp":23.5,"humidity":95,"rain":0.0,"pressure":962.4,"uv_index":8.5,"wind_gusts":52.9,"aqi":41,"pm10":9.9,"pm2_5":8.4,"no2":11.0,"co":213.0,"o3":24.0,"so2":4.0,"mosquito_risk":3,"arthritis_risk":5,"migraine_risk":7,"frizz_risk":1,"updated_at":"2026-07-22T00:57:23.164661+05:30"},{"city":"Madurai","state":"Tamil Nadu","latitude":9.9252,"longitude":78.1198,"temp":29.4,"humidity":64,"rain":0.0,"pressure":993.1,"uv_index":8.5,"wind_gusts":45.7,"aqi":59,"pm10":28.2,"pm2_5":20.3,"no2":26.8,"co":233.0,"o3":24.0,"so2":6.9,"mosquito_risk":7,"arthritis_risk":5,"migraine_risk":7,"frizz_risk":1,"updated_at":"2026-07-22T00:57:23.164673+05:30"},{"city":"Trichy","state":"Tamil Nadu","latitude":10.7905,"longitude":78.7047,"temp":28.9,"humidity":66,"rain":0.0,"pressure":999.8,"uv_index":8.75,"wind_gusts":43.9,"aqi":52,"pm10":13.6,"pm2_5":10.7,"no2":11.4,"co":178.0,"o3":34.0,"so2":4.6,"mosquito_risk":7,"arthritis_risk":5,"migraine_risk":7,"frizz_risk":1,"updated_at":"2026-07-22T00:57:23.164682+05:30"},{"city":"Salem","state":"Tamil Nadu","latitude":11.6643,"longitude":78.146,"temp":25.8,"humidity":80,"rain":0.0,"pressure":977.9,"uv_index":8.55,"wind_gusts":46.4,"aqi":59,"pm10":18.5,"pm2_5":13.8,"no2":17.4,"co":522.0,"o3":30.0,"so2":7.3,"mosquito_risk":7,"arthritis_risk":5,"migraine_risk":7,"frizz_risk":1,"updated_at":"2026-07-22T00:57:23.164690+05:30"},{"city":"Tirunelveli","state":"Tamil Nadu","latitude":8.7139,"longitude":77.7567,"temp":29.2,"humidity":64,"rain":0.0,"pressure":1003.8,"uv_index":8.45,"wind_gusts":45.7,"aqi":42,"pm10":6.1,"pm2_5":4.7,"no2":6.9,"co":147.0,"o3":32.0,"so2":2.5,"mosquito_risk":7,"arthritis_risk":5,"migraine_risk":4,"frizz_risk":1,"updated_at":"2026-07-22T00:57:23.164699+05:30"},{"city":"Vellore","state":"Tamil Nadu","latitude":12.9165,"longitude":79.1325,"temp":27.1,"humidity":85,"rain":0.0,"pressure":984.2,"uv_index":8.95,"wind_gusts":49.0,"aqi":73,"pm10":41.0,"pm2_5":28.9,"no2":27.4,"co":596.0,"o3":27.0,"so2":7.8,"mosquito_risk":7,"arthritis_risk":5,"migraine_risk":7,"frizz_risk":1,"updated_at":"2026-07-22T00:57:23.164707+05:30"},{"city":"Erode","state":"Tamil Nadu","latitude":11.341,"longitude":77.7172,"temp":26.7,"humidity":76,"rain":0.0,"pressure":989.7,"uv_index":8.4,"wind_gusts":45.7,"aqi":55,"pm10":18.6,"pm2_5":14.4,"no2":18.9,"co":169.0,"o3":23.0,"so2":4.9,"mosquito_risk":7,"arthritis_risk":5,"migraine_risk":7,"frizz_risk":1,"updated_at":"2026-07-22T00:57:23.164714+05:30"},{"city":"Kochi","state":"Kerala","latitude":9.9312,"longitude":76.2673,"temp":26.5,"humidity":94,"rain":0.0,"pressure":1010.6,"uv_index":8.55,"wind_gusts":38.2,"aqi":56,"pm10":19.9,"pm2_5":16.1,"no2":19.3,"co":190.0,"o3":13.0,"so2":5.9,"mosquito_risk":7,"arthritis_risk":0,"migraine_risk":4,"frizz_risk":1,"updated_at":"2026-07-22T00:57:23.164722+05:30"},{"city":"Thiruvananthapuram","state":"Kerala","latitude":8.5241,"longitude":76.9366,"temp":25.1,"humidity":93,"rain":0.0,"pressure":1010.3,"uv_index":7.9,"wind_gusts":38.5,"aqi":55,"pm10":12.8,"pm2_5":7.4,"no2":4.2,"co":162.0,"o3":38.0,"so2":1.8,"mosquito_risk":7,"arthritis_risk":0,"migraine_risk":4,"frizz_risk":1,"updated_at":"2026-07-22T00:57:23.164729+05:30"},{"city":"Kozhikode","state":"Kerala","latitude":11.2588,"longitude":75.7804,"temp":24.7,"humidity":96,"rain":0.0,"pressure":1010.1,"uv_index":6.75,"wind_gusts":36.4,"aqi":37,"pm10":14.0,"pm2_5":7.7,"no2":2.8,"co":153.0,"o3":42.0,"so2":1.8,"mosquito_risk":3,"arthritis_risk":0,"migraine_risk":4,"frizz_risk":1,"updated_at":"2026-07-22T00:57:23.164736+05:30"},{"city":"Thrissur","state":"Kerala","latitude":10.5276,"longitude":76.2144,"temp":25.1,"humidity":95,"rain":0.0,"pressure":1008.9,"uv_index":8.3,"wind_gusts":35.6,"aqi":55,"pm10":18.0,"pm2_5":15.4,"no2":15.4,"co":260.0,"o3":14.0,"so2":4.7,"mosquito_risk":7,"arthritis_risk":0,"migraine_risk":4,"frizz_risk":1,"updated_at":"2026-07-22T00:57:23.164744+05:30"},{"city":"Kannur","state":"Kerala","latitude":11.8745,"longitude":75.3704,"temp":24.6,"humidity":98,"rain":0.0,"pressure":1008.9,"uv_index":8.15,"wind_gusts":33.5,"aqi":48,"pm10":12.5,"pm2_5":7.8,"no2":11.2,"co":338.0,"o3":22.0,"so2":2.9,"mosquito_risk":3,"arthritis_risk":0,"migraine_risk":4,"frizz_risk":1,"updated_at":"2026-07-22T00:57:23.164751+05:30"},{"city":"Patna","state":"Bihar","latitude":25.5941,"longitude":85.1376,"temp":25.9,"humidity":96,"rain":0.2,"pressure":996.8,"uv_index":6.5,"wind_gusts":50.8,"aqi":74,"pm10":17.7,"pm2_5":17.6,"no2":12.5,"co":243.0,"o3":64.0,"so2":8.2,"mosquito_risk":10,"arthritis_risk":5,"migraine_risk":7,"frizz_risk":1,"updated_at":"2026-07-22T00:57:23.164758+05:30"},{"city":"Gaya","state":"Bihar","latitude":24.7914,"longitude":85.0002,"temp":25.3,"humidity":96,"rain":0.2,"pressure":989.6,"uv_index":8.3,"wind_gusts":47.2,"aqi":65,"pm10":10.8,"pm2_5":10.8,"no2":12.2,"co":294.0,"o3":50.0,"so2":7.8,"mosquito_risk":10,"arthritis_risk":5,"migraine_risk":7,"frizz_risk":1,"updated_at":"2026-07-22T00:57:23.164765+05:30"},{"city":"Muzaffarpur","state":"Bihar","latitude":26.1209,"longitude":85.3647,"temp":27.6,"humidity":81,"rain":0.0,"pressure":997.3,"uv_index":8.0,"wind_gusts":56.9,"aqi":76,"pm10":21.2,"pm2_5":21.1,"no2":12.8,"co":298.0,"o3":65.0,"so2":7.3,"mosquito_risk":7,"arthritis_risk":5,"migraine_risk":7,"frizz_risk":1,"updated_at":"2026-07-22T00:57:23.164773+05:30"},{"city":"Bhagalpur","state":"Bihar","latitude":25.2425,"longitude":87.0117,"temp":25.9,"humidity":96,"rain":0.0,"pressure":998.1,"uv_index":7.55,"wind_gusts":43.2,"aqi":64,"pm10":14.2,"pm2_5":14.1,"no2":13.1,"co":204.0,"o3":53.0,"so2":7.5,"mosquito_risk":7,"arthritis_risk":5,"migraine_risk":7,"frizz_risk":1,"updated_at":"2026-07-22T00:57:23.164780+05:30"},{"city":"Ranchi","state":"Jharkhand","latitude":23.3441,"longitude":85.3096,"temp":22.7,"humidity":98,"rain":0.0,"pressure":932.7,"uv_index":4.85,"wind_gusts":43.9,"aqi":54,"pm10":7.3,"pm2_5":7.3,"no2":12.1,"co":342.0,"o3":71.0,"so2":15.4,"mosquito_risk":3,"arthritis_risk":5,"migraine_risk":3,"frizz_risk":1,"updated_at":"2026-07-22T00:57:23.164788+05:30"},{"city":"Jamshedpur","state":"Jharkhand","latitude":22.8046,"longitude":86.2029,"temp":24.5,"humidity":97,"rain":0.0,"pressure":986.0,"uv_index":3.25,"wind_gusts":28.4,"aqi":56,"pm10":25.5,"pm2_5":25.0,"no2":32.2,"co":442.0,"o3":33.0,"so2":22.7,"mosquito_risk":3,"arthritis_risk":5,"migraine_risk":3,"frizz_risk":1,"updated_at":"2026-07-22T00:57:23.164795+05:30"},{"city":"Dhanbad","state":"Jharkhand","latitude":23.7957,"longitude":86.4304,"temp":24.4,"humidity":96,"rain":0.3,"pressure":975.7,"uv_index":7.6,"wind_gusts":41.8,"aqi":87,"pm10":55.8,"pm2_5":54.9,"no2":52.6,"co":262.0,"o3":17.0,"so2":134.0,"mosquito_risk":6,"arthritis_risk":5,"migraine_risk":7,"frizz_risk":1,"updated_at":"2026-07-22T00:57:23.164802+05:30"},{"city":"Bokaro","state":"Jharkhand","latitude":23.6693,"longitude":86.1511,"temp":24.6,"humidity":94,"rain":0.0,"pressure":979.3,"uv_index":8.65,"wind_gusts":37.1,"aqi":92,"pm10":52.7,"pm2_5":51.5,"no2":62.8,"co":236.0,"o3":5.0,"so2":145.1,"mosquito_risk":3,"arthritis_risk":5,"migraine_risk":7,"frizz_risk":1,"updated_at":"2026-07-22T00:57:23.164810+05:30"},{"city":"Bhubaneswar","state":"Odisha","latitude":20.2961,"longitude":85.8245,"temp":25.0,"humidity":97,"rain":0.5,"pressure":997.4,"uv_index":3.35,"wind_gusts":44.6,"aqi":77,"pm10":31.1,"pm2_5":30.5,"no2":25.0,"co":379.0,"o3":34.0,"so2":6.6,"mosquito_risk":10,"arthritis_risk":5,"migraine_risk":3,"frizz_risk":1,"updated_at":"2026-07-22T00:57:23.164817+05:30"},{"city":"Cuttack","state":"Odisha","latitude":20.4625,"longitude":85.8828,"temp":25.6,"humidity":96,"rain":0.4,"pressure":999.3,"uv_index":4.15,"wind_gusts":37.4,"aqi":77,"pm10":31.1,"pm2_5":30.5,"no2":25.0,"co":389.0,"o3":34.0,"so2":6.6,"mosquito_risk":10,"arthritis_risk":5,"migraine_risk":3,"frizz_risk":1,"updated_at":"2026-07-22T00:57:23.164824+05:30"},{"city":"Rourkela","state":"Odisha","latitude":22.2604,"longitude":84.8536,"temp":24.2,"humidity":98,"rain":0.6,"pressure":979.8,"uv_index":0.85,"wind_gusts":33.5,"aqi":69,"pm10":16.2,"pm2_5":16.1,"no2":18.1,"co":345.0,"o3":59.0,"so2":16.8,"mosquito_risk":6,"arthritis_risk":5,"migraine_risk":3,"frizz_risk":1,"updated_at":"2026-07-22T00:57:23.164831+05:30"},{"city":"Raipur","state":"Chhattisgarh","latitude":21.2514,"longitude":81.6296,"temp":24.2,"humidity":96,"rain":0.4,"pressure":969.6,"uv_index":0.6,"wind_gusts":49.3,"aqi":69,"pm10":11.5,"pm2_5":10.8,"no2":22.0,"co":325.0,"o3":27.0,"so2":30.8,"mosquito_risk":6,"arthritis_risk":5,"migraine_risk":3,"frizz_risk":1,"updated_at":"2026-07-22T00:57:23.164838+05:30"},{"city":"Bhilai","state":"Chhattisgarh","latitude":21.1938,"longitude":81.3509,"temp":24.0,"humidity":97,"rain":0.3,"pressure":970.0,"uv_index":1.5,"wind_gusts":52.6,"aqi":63,"pm10":10.4,"pm2_5":9.7,"no2":19.5,"co":433.0,"o3":29.0,"so2":26.8,"mosquito_risk":6,"arthritis_risk":5,"migraine_risk":3,"frizz_risk":1,"updated_at":"2026-07-22T00:57:23.164845+05:30"},{"city":"Guwahati","state":"Assam","latitude":26.1158,"longitude":91.7086,"temp":26.2,"humidity":95,"rain":0.1,"pressure":999.6,"uv_index":7.05,"wind_gusts":24.5,"aqi":50,"pm10":16.6,"pm2_5":16.3,"no2":16.9,"co":318.0,"o3":22.0,"so2":3.3,"mosquito_risk":10,"arthritis_risk":5,"migraine_risk":7,"frizz_risk":1,"updated_at":"2026-07-22T00:57:23.164853+05:30"},{"city":"Agartala","state":"Tripura","latitude":23.8315,"longitude":91.2868,"temp":24.9,"humidity":99,"rain":0.0,"pressure":1004.4,"uv_index":7.6,"wind_gusts":37.8,"aqi":49,"pm10":7.3,"pm2_5":6.9,"no2":10.3,"co":169.0,"o3":32.0,"so2":2.4,"mosquito_risk":3,"arthritis_risk":5,"migraine_risk":4,"frizz_risk":1,"updated_at":"2026-07-22T00:57:23.164860+05:30"},{"city":"Shillong","state":"Meghalaya","latitude":25.5788,"longitude":91.8933,"temp":18.7,"humidity":98,"rain":0.2,"pressure":856.4,"uv_index":5.3,"wind_gusts":27.7,"aqi":23,"pm10":5.6,"pm2_5":5.4,"no2":6.7,"co":187.0,"o3":45.0,"so2":2.3,"mosquito_risk":6,"arthritis_risk":10,"migraine_risk":3,"frizz_risk":1,"updated_at":"2026-07-22T00:57:23.164868+05:30"},{"city":"Imphal","state":"Manipur","latitude":24.817,"longitude":93.9368,"temp":21.9,"humidity":96,"rain":0.0,"pressure":922.6,"uv_index":7.5,"wind_gusts":29.2,"aqi":51,"pm10":17.7,"pm2_5":17.3,"no2":16.2,"co":307.0,"o3":30.0,"so2":3.0,"mosquito_risk":3,"arthritis_risk":5,"migraine_risk":7,"frizz_risk":1,"updated_at":"2026-07-22T00:57:23.164876+05:30"},{"city":"Aizawl","state":"Mizoram","latitude":23.7271,"longitude":92.7176,"temp":20.0,"humidity":95,"rain":0.1,"pressure":891.4,"uv_index":8.7,"wind_gusts":32.0,"aqi":24,"pm10":7.1,"pm2_5":6.6,"no2":11.6,"co":156.0,"o3":11.0,"so2":0.6,"mosquito_risk":6,"arthritis_risk":5,"migraine_risk":7,"frizz_risk":1,"updated_at":"2026-07-22T00:57:23.164883+05:30"},{"city":"Kohima","state":"Nagaland","latitude":25.6701,"longitude":94.1077,"temp":19.4,"humidity":92,"rain":0.0,"pressure":854.3,"uv_index":8.65,"wind_gusts":24.8,"aqi":26,"pm10":3.7,"pm2_5":3.6,"no2":6.2,"co":180.0,"o3":38.0,"so2":0.6,"mosquito_risk":3,"arthritis_risk":10,"migraine_risk":7,"frizz_risk":1,"updated_at":"2026-07-22T00:57:23.164890+05:30"},{"city":"Gangtok","state":"Sikkim","latitude":27.3314,"longitude":88.6138,"temp":18.0,"humidity":98,"rain":0.0,"pressure":837.5,"uv_index":5.85,"wind_gusts":28.8,"aqi":31,"pm10":5.0,"pm2_5":4.8,"no2":6.9,"co":262.0,"o3":66.0,"so2":1.2,"mosquito_risk":3,"arthritis_risk":10,"migraine_risk":3,"frizz_risk":1,"updated_at":"2026-07-22T00:57:23.164897+05:30"},{"city":"Siliguri","state":"West Bengal","latitude":26.7271,"longitude":88.3953,"temp":26.7,"humidity":82,"rain":0.0,"pressure":990.8,"uv_index":8.05,"wind_gusts":30.2,"aqi":49,"pm10":11.1,"pm2_5":10.6,"no2":13.6,"co":467.0,"o3":61.0,"so2":3.7,"mosquito_risk":7,"arthritis_risk":5,"migraine_risk":7,"frizz_risk":1,"updated_at":"2026-07-22T00:57:26.778169+05:30"},{"city":"Durgapur","state":"West Bengal","latitude":23.5204,"longitude":87.3119,"temp":25.2,"humidity":98,"rain":0.1,"pressure":990.9,"uv_index":8.55,"wind_gusts":39.6,"aqi":76,"pm10":33.3,"pm2_5":32.7,"no2":33.0,"co":328.0,"o3":39.0,"so2":34.1,"mosquito_risk":10,"arthritis_risk":5,"migraine_risk":7,"frizz_risk":1,"updated_at":"2026-07-22T00:57:26.778201+05:30"},{"city":"Asansol","state":"West Bengal","latitude":23.6739,"longitude":86.9524,"temp":25.0,"humidity":96,"rain":0.3,"pressure":989.5,"uv_index":8.5,"wind_gusts":40.3,"aqi":72,"pm10":31.9,"pm2_5":31.3,"no2":40.8,"co":380.0,"o3":31.0,"so2":46.1,"mosquito_risk":10,"arthritis_risk":5,"migraine_risk":7,"frizz_risk":1,"updated_at":"2026-07-22T00:57:26.778212+05:30"},{"city":"Pondicherry","state":"Puducherry","latitude":11.9139,"longitude":79.8145,"temp":28.6,"humidity":75,"rain":0.0,"pressure":1008.1,"uv_index":7.2,"wind_gusts":40.3,"aqi":78,"pm10":19.9,"pm2_5":13.5,"no2":9.3,"co":202.0,"o3":61.0,"so2":7.6,"mosquito_risk":7,"arthritis_risk":0,"migraine_risk":4,"frizz_risk":1,"updated_at":"2026-07-22T00:57:26.778221+05:30"},{"city":"Port Blair","state":"Andaman and Nicobar Islands","latitude":11.6234,"longitude":92.7265,"temp":27.2,"humidity":85,"rain":0.0,"pressure":1007.6,"uv_index":8.0,"wind_gusts":42.5,"aqi":46,"pm10":12.1,"pm2_5":6.9,"no2":0.2,"co":89.0,"o3":50.0,"so2":0.4,"mosquito_risk":7,"arthritis_risk":5,"migraine_risk":4,"frizz_risk":1,"updated_at":"2026-07-22T00:57:26.778230+05:30"},{"city":"Haridwar","state":"Uttarakhand","latitude":29.9457,"longitude":78.1642,"temp":26.9,"humidity":89,"rain":0.0,"pressure":970.6,"uv_index":7.4,"wind_gusts":33.1,"aqi":69,"pm10":28.2,"pm2_5":27.7,"no2":20.8,"co":299.0,"o3":48.0,"so2":7.1,"mosquito_risk":7,"arthritis_risk":5,"migraine_risk":7,"frizz_risk":1,"updated_at":"2026-07-22T00:57:26.778238+05:30"},{"city":"Rishikesh","state":"Uttarakhand","latitude":30.0869,"longitude":78.2676,"temp":25.2,"humidity":95,"rain":0.0,"pressure":963.3,"uv_index":7.2,"wind_gusts":24.8,"aqi":49,"pm10":12.5,"pm2_5":12.5,"no2":9.8,"co":450.0,"o3":72.0,"so2":4.0,"mosquito_risk":7,"arthritis_risk":5,"migraine_risk":7,"frizz_risk":1,"updated_at":"2026-07-22T00:57:26.778246+05:30"},{"city":"Nainital","state":"Uttarakhand","latitude":29.3919,"longitude":79.4542,"temp":15.8,"humidity":98,"rain":0.0,"pressure":804.0,"uv_index":7.3,"wind_gusts":49.7,"aqi":38,"pm10":9.3,"pm2_5":9.2,"no2":8.5,"co":223.0,"o3":63.0,"so2":1.9,"mosquito_risk":3,"arthritis_risk":10,"migraine_risk":7,"frizz_risk":0,"updated_at":"2026-07-22T00:57:26.778254+05:30"},{"city":"Mussoorie","state":"Uttarakhand","latitude":30.4599,"longitude":78.0664,"temp":16.6,"humidity":100,"rain":0.1,"pressure":801.9,"uv_index":5.3,"wind_gusts":26.3,"aqi":51,"pm10":16.9,"pm2_5":16.8,"no2":21.0,"co":307.0,"o3":68.0,"so2":4.8,"mosquito_risk":6,"arthritis_risk":10,"migraine_risk":3,"frizz_risk":1,"updated_at":"2026-07-22T00:57:26.778263+05:30"},{"city":"Dharamshala","state":"Himachal Pradesh","latitude":32.219,"longitude":76.3234,"temp":21.0,"humidity":95,"rain":0.1,"pressure":866.9,"uv_index":1.75,"wind_gusts":27.4,"aqi":37,"pm10":8.2,"pm2_5":7.7,"no2":13.2,"co":439.0,"o3":78.0,"so2":1.0,"mosquito_risk":6,"arthritis_risk":5,"migraine_risk":3,"frizz_risk":1,"updated_at":"2026-07-22T00:57:26.778270+05:30"},{"city":"Dalhousie","state":"Himachal Pradesh","latitude":32.5387,"longitude":75.971,"temp":17.1,"humidity":96,"rain":0.5,"pressure":803.4,"uv_index":0.75,"wind_gusts":23.8,"aqi":62,"pm10":17.6,"pm2_5":13.4,"no2":18.8,"co":713.0,"o3":88.0,"so2":3.7,"mosquito_risk":6,"arthritis_risk":10,"migraine_risk":3,"frizz_risk":1,"updated_at":"2026-07-22T00:57:26.778279+05:30"},{"city":"Patiala","state":"Punjab","latitude":30.3398,"longitude":76.3869,"temp":27.9,"humidity":85,"rain":0.0,"pressure":973.8,"uv_index":6.0,"wind_gusts":38.9,"aqi":72,"pm10":18.0,"pm2_5":18.0,"no2":14.6,"co":479.0,"o3":78.0,"so2":10.5,"mosquito_risk":7,"arthritis_risk":5,"migraine_risk":3,"frizz_risk":1,"updated_at":"2026-07-22T00:57:26.778286+05:30"},{"city":"Bhatinda","state":"Punjab","latitude":30.211,"longitude":74.9455,"temp":29.1,"humidity":81,"rain":0.0,"pressure":978.4,"uv_index":7.5,"wind_gusts":33.1,"aqi":128,"pm10":24.4,"pm2_5":24.4,"no2":16.7,"co":438.0,"o3":84.0,"so2":9.7,"mosquito_risk":7,"arthritis_risk":5,"migraine_risk":7,"frizz_risk":1,"updated_at":"2026-07-22T00:57:26.778293+05:30"},{"city":"Rohtak","state":"Haryana","latitude":28.8955,"longitude":76.6066,"temp":27.0,"humidity":93,"rain":0.0,"pressure":976.2,"uv_index":6.35,"wind_gusts":41.4,"aqi":73,"pm10":19.7,"pm2_5":19.6,"no2":25.7,"co":590.0,"o3":66.0,"so2":20.5,"mosquito_risk":7,"arthritis_risk":5,"migraine_risk":7,"frizz_risk":1,"updated_at":"2026-07-22T00:57:26.778300+05:30"},{"city":"Panipat","state":"Haryana","latitude":29.3909,"longitude":76.9635,"temp":27.5,"humidity":85,"rain":0.0,"pressure":975.7,"uv_index":7.4,"wind_gusts":39.2,"aqi":70,"pm10":18.1,"pm2_5":18.1,"no2":18.1,"co":431.0,"o3":74.0,"so2":14.7,"mosquito_risk":7,"arthritis_risk":5,"migraine_risk":7,"frizz_risk":1,"updated_at":"2026-07-22T00:57:26.778307+05:30"},{"city":"Mathura","state":"Uttar Pradesh","latitude":27.4924,"longitude":77.6737,"temp":26.6,"humidity":95,"rain":0.0,"pressure":981.2,"uv_index":7.0,"wind_gusts":38.9,"aqi":57,"pm10":12.0,"pm2_5":11.7,"no2":11.0,"co":332.0,"o3":89.0,"so2":4.0,"mosquito_risk":7,"arthritis_risk":5,"migraine_risk":7,"frizz_risk":1,"updated_at":"2026-07-22T00:57:26.778314+05:30"},{"city":"Vrindavan","state":"Uttar Pradesh","latitude":27.5823,"longitude":77.7027,"temp":26.6,"humidity":95,"rain":0.0,"pressure":981.7,"uv_index":6.95,"wind_gusts":37.8,"aqi":57,"pm10":12.0,"pm2_5":11.7,"no2":11.0,"co":331.0,"o3":89.0,"so2":4.0,"mosquito_risk":7,"arthritis_risk":5,"migraine_risk":7,"frizz_risk":1,"updated_at":"2026-07-22T00:57:26.778321+05:30"},{"city":"Ayodhya","state":"Uttar Pradesh","latitude":26.7922,"longitude":82.1998,"temp":27.8,"humidity":81,"rain":0.0,"pressure":991.4,"uv_index":6.4,"wind_gusts":50.0,"aqi":71,"pm10":30.0,"pm2_5":29.8,"no2":12.2,"co":366.0,"o3":79.0,"so2":7.7,"mosquito_risk":7,"arthritis_risk":5,"migraine_risk":7,"frizz_risk":1,"updated_at":"2026-07-22T00:57:26.778328+05:30"},{"city":"Ratlam","state":"Madhya Pradesh","latitude":23.3315,"longitude":75.0367,"temp":23.2,"humidity":99,"rain":0.2,"pressure":948.8,"uv_index":0.1,"wind_gusts":36.4,"aqi":51,"pm10":9.2,"pm2_5":7.0,"no2":8.7,"co":166.0,"o3":44.0,"so2":5.8,"mosquito_risk":6,"arthritis_risk":5,"migraine_risk":3,"frizz_risk":1,"updated_at":"2026-07-22T00:57:26.778336+05:30"},{"city":"Sagar","state":"Madhya Pradesh","latitude":23.8388,"longitude":78.7378,"temp":23.7,"humidity":97,"rain":0.0,"pressure":943.8,"uv_index":7.6,"wind_gusts":27.0,"aqi":42,"pm10":6.6,"pm2_5":6.5,"no2":9.4,"co":216.0,"o3":48.0,"so2":2.4,"mosquito_risk":3,"arthritis_risk":5,"migraine_risk":7,"frizz_risk":1,"updated_at":"2026-07-22T00:57:26.778343+05:30"},{"city":"Satna","state":"Madhya Pradesh","latitude":24.6005,"longitude":80.8322,"temp":24.8,"humidity":97,"rain":0.0,"pressure":965.5,"uv_index":7.15,"wind_gusts":33.5,"aqi":57,"pm10":12.0,"pm2_5":11.2,"no2":8.3,"co":275.0,"o3":81.0,"so2":5.0,"mosquito_risk":3,"arthritis_risk":5,"migraine_risk":7,"frizz_risk":1,"updated_at":"2026-07-22T00:57:26.778349+05:30"},{"city":"Akola","state":"Maharashtra","latitude":20.7002,"longitude":77.0082,"temp":24.6,"humidity":94,"rain":0.4,"pressure":970.8,"uv_index":2.2,"wind_gusts":41.4,"aqi":31,"pm10":5.0,"pm2_5":4.2,"no2":7.9,"co":150.0,"o3":39.0,"so2":3.9,"mosquito_risk":6,"arthritis_risk":5,"migraine_risk":3,"frizz_risk":1,"updated_at":"2026-07-22T00:57:26.778357+05:30"},{"city":"Amravati","state":"Maharashtra","latitude":20.9374,"longitude":77.7796,"temp":24.0,"humidity":96,"rain":0.1,"pressure":962.6,"uv_index":1.1,"wind_gusts":50.8,"aqi":32,"pm10":5.4,"pm2_5":4.4,"no2":7.9,"co":150.0,"o3":42.0,"so2":4.1,"mosquito_risk":6,"arthritis_risk":5,"migraine_risk":3,"frizz_risk":1,"updated_at":"2026-07-22T00:57:26.778365+05:30"},{"city":"Latur","state":"Maharashtra","latitude":18.4088,"longitude":76.5604,"temp":22.8,"humidity":94,"rain":0.3,"pressure":937.0,"uv_index":1.8,"wind_gusts":60.1,"aqi":34,"pm10":3.7,"pm2_5":3.0,"no2":4.9,"co":134.0,"o3":35.0,"so2":1.8,"mosquito_risk":6,"arthritis_risk":5,"migraine_risk":3,"frizz_risk":1,"updated_at":"2026-07-22T00:57:26.778373+05:30"},{"city":"Nanded","state":"Maharashtra","latitude":19.1383,"longitude":77.3091,"temp":24.2,"humidity":93,"rain":0.2,"pressure":965.4,"uv_index":1.35,"wind_gusts":47.5,"aqi":43,"pm10":5.4,"pm2_5":4.2,"no2":6.9,"co":150.0,"o3":35.0,"so2":3.5,"mosquito_risk":6,"arthritis_risk":5,"migraine_risk":3,"frizz_risk":1,"updated_at":"2026-07-22T00:57:26.778380+05:30"},{"city":"Gulbarga","state":"Karnataka","latitude":17.3297,"longitude":76.8343,"temp":23.2,"humidity":93,"rain":0.2,"pressure":957.0,"uv_index":1.3,"wind_gusts":64.4,"aqi":42,"pm10":5.8,"pm2_5":3.9,"no2":6.5,"co":135.0,"o3":33.0,"so2":2.8,"mosquito_risk":6,"arthritis_risk":5,"migraine_risk":3,"frizz_risk":1,"updated_at":"2026-07-22T00:57:26.778387+05:30"},{"city":"Bidar","state":"Karnataka","latitude":17.9104,"longitude":77.5199,"temp":22.4,"humidity":96,"rain":0.4,"pressure":933.1,"uv_index":2.4,"wind_gusts":66.6,"aqi":38,"pm10":6.9,"pm2_5":4.8,"no2":6.6,"co":135.0,"o3":35.0,"so2":2.4,"mosquito_risk":6,"arthritis_risk":5,"migraine_risk":3,"frizz_risk":1,"updated_at":"2026-07-22T00:57:26.778394+05:30"},{"city":"Hospet","state":"Karnataka","latitude":15.2689,"longitude":76.3909,"temp":23.8,"humidity":86,"rain":0.0,"pressure":955.6,"uv_index":8.0,"wind_gusts":60.1,"aqi":27,"pm10":6.0,"pm2_5":3.6,"no2":4.3,"co":119.0,"o3":35.0,"so2":1.6,"mosquito_risk":3,"arthritis_risk":5,"migraine_risk":7,"frizz_risk":1,"updated_at":"2026-07-22T00:57:26.778401+05:30"},{"city":"Tirupur","state":"Tamil Nadu","latitude":11.1085,"longitude":77.3411,"temp":25.0,"humidity":87,"rain":0.0,"pressure":976.0,"uv_index":8.2,"wind_gusts":56.2,"aqi":58,"pm10":23.5,"pm2_5":18.6,"no2":24.1,"co":173.0,"o3":19.0,"so2":6.5,"mosquito_risk":7,"arthritis_risk":5,"migraine_risk":7,"frizz_risk":1,"updated_at":"2026-07-22T00:57:26.778408+05:30"},{"city":"Alappuzha","state":"Kerala","latitude":9.4981,"longitude":76.3388,"temp":26.6,"humidity":91,"rain":0.0,"pressure":1010.7,"uv_index":8.35,"wind_gusts":36.4,"aqi":55,"pm10":17.9,"pm2_5":12.7,"no2":12.2,"co":102.0,"o3":29.0,"so2":4.4,"mosquito_risk":7,"arthritis_risk":0,"migraine_risk":4,"frizz_risk":1,"updated_at":"2026-07-22T00:57:26.778415+05:30"},{"city":"Munnar","state":"Kerala","latitude":10.0889,"longitude":77.0595,"temp":15.7,"humidity":88,"rain":0.0,"pressure":857.0,"uv_index":9.05,"wind_gusts":34.9,"aqi":35,"pm10":7.5,"pm2_5":6.2,"no2":8.9,"co":114.0,"o3":23.0,"so2":2.2,"mosquito_risk":3,"arthritis_risk":10,"migraine_risk":7,"frizz_risk":0,"updated_at":"2026-07-22T00:57:26.778422+05:30"},{"city":"Silchar","state":"Assam","latitude":24.8333,"longitude":92.7789,"temp":25.0,"humidity":96,"rain":0.1,"pressure":1004.4,"uv_index":8.75,"wind_gusts":20.5,"aqi":60,"pm10":24.2,"pm2_5":22.8,"no2":13.0,"co":195.0,"o3":50.0,"so2":7.4,"mosquito_risk":10,"arthritis_risk":5,"migraine_risk":4,"frizz_risk":1,"updated_at":"2026-07-22T00:57:26.778430+05:30"},{"city":"Dibrugarh","state":"Assam","latitude":27.4728,"longitude":94.912,"temp":25.3,"humidity":97,"rain":0.3,"pressure":994.1,"uv_index":3.7,"wind_gusts":25.2,"aqi":69,"pm10":12.3,"pm2_5":11.8,"no2":8.2,"co":222.0,"o3":62.0,"so2":1.3,"mosquito_risk":10,"arthritis_risk":5,"migraine_risk":3,"frizz_risk":1,"updated_at":"2026-07-22T00:57:26.778437+05:30"}]