[{"city":"Delhi","state":"Delhi","latitude":28.6139,"longitude":77.209,"temp":25.8,"humidity":56,"rain":0.0,"pressure":987.7,"uv_index":6.6,"wind_gusts":27.7,"aqi":228,"pm10":180.7,"pm2_5":67.3,"mosquito_risk":4,"arthritis_risk":5,"migraine_risk":7,"frizz_risk":1,"updated_at":"2026-03-25T10:26:57.389134+05:30"},{"city":"Mumbai","state":"Maharashtra","latitude":19.076,"longitude":72.8777,"temp":28.0,"humidity":80,"rain":0.0,"pressure":1011.1,"uv_index":7.95,"wind_gusts":22.7,"aqi":89,"pm10":43.1,"pm2_5":28.5,"mosquito_risk":7,"arthritis_risk":0,"migraine_risk":4,"frizz_risk":1,"updated_at":"2026-03-25T10:26:57.389190+05:30"},{"city":"Bangalore","state":"Karnataka","latitude":12.9716,"longitude":77.5946,"temp":28.3,"humidity":53,"rain":0.0,"pressure":915.1,"uv_index":9.5,"wind_gusts":30.6,"aqi":75,"pm10":22.0,"pm2_5":18.8,"mosquito_risk":4,"arthritis_risk":5,"migraine_risk":7,"frizz_risk":1,"updated_at":"2026-03-25T10:26:57.389204+05:30"},{"city":"Hyderabad","state":"Telangana","latitude":17.385,"longitude":78.4867,"temp":31.3,"humidity":47,"rain":0.0,"pressure":957.1,"uv_index":9.0,"wind_gusts":22.3,"aqi":90,"pm10":21.0,"pm2_5":15.5,"mosquito_risk":0,"arthritis_risk":5,"migraine_risk":7,"frizz_risk":1,"updated_at":"2026-03-25T10:26:57.389214+05:30"},{"city":"Chennai","state":"Tamil Nadu","latitude":13.0827,"longitude":80.2707,"temp":31.4,"humidity":55,"rain":0.0,"pressure":1011.0,"uv_index":9.2,"wind_gusts":32.0,"aqi":32,"pm10":19.0,"pm2_5":12.8,"mosquito_risk":0,"arthritis_risk":0,"migraine_risk":4,"frizz_risk":1,"updated_at":"2026-03-25T10:26:57.389222+05:30"},{"city":"Kolkata","state":"West Bengal","latitude":22.5726,"longitude":88.3639,"temp":30.0,"humidity":69,"rain":0.0,"pressure":1010.1,"uv_index":8.4,"wind_gusts":25.6,"aqi":86,"pm10":31.3,"pm2_5":24.2,"mosquito_risk":7,"arthritis_risk":0,"migraine_risk":4,"frizz_risk":1,"updated_at":"2026-03-25T10:26:57.389230+05:30"},{"city":"Pune","state":"Maharashtra","latitude":18.5204,"longitude":73.8567,"temp":31.5,"humidity":31,"rain":0.0,"pressure":951.8,"uv_index":8.5,"wind_gusts":29.2,"aqi":91,"pm10":31.8,"pm2_5":25.3,"mosquito_risk":0,"arthritis_risk":5,"migraine_risk":7,"frizz_risk":0,"updated_at":"2026-03-25T10:26:57.389240+05:30"},{"city":"Ahmedabad","state":"Gujarat","latitude":23.0225,"longitude":72.5714,"temp":30.4,"humidity":56,"rain":0.0,"pressure":1006.1,"uv_index":7.9,"wind_gusts":22.3,"aqi":66,"pm10":19.0,"pm2_5":11.7,"mosquito_risk":0,"arthritis_risk":5,"migraine_risk":4,"frizz_risk":1,"updated_at":"2026-03-25T10:26:57.389246+05:30"},{"city":"Jaipur","state":"Rajasthan","latitude":26.9124,"longitude":75.7873,"temp":26.6,"humidity":44,"rain":0.0,"pressure":964.8,"uv_index":7.35,"wind_gusts":23.4,"aqi":113,"pm10":430.3,"pm2_5":65.2,"mosquito_risk":4,"arthritis_risk":5,"migraine_risk":7,"frizz_risk":0,"updated_at":"2026-03-25T10:26:57.389252+05:30"},{"city":"Lucknow","state":"Uttar Pradesh","latitude":26.8467,"longitude":80.9462,"temp":27.9,"humidity":46,"rain":0.0,"pressure":998.1,"uv_index":7.15,"wind_gusts":36.7,"aqi":115,"pm10":145.3,"pm2_5":46.0,"mosquito_risk":4,"arthritis_risk":5,"migraine_risk":7,"frizz_risk":0,"updated_at":"2026-03-25T10:26:57.389258+05:30"},{"city":"Kanpur","state":"Uttar Pradesh","latitude":26.4499,"longitude":80.3319,"temp":27.0,"humidity":58,"rain":0.0,"pressure":996.7,"uv_index":7.15,"wind_gusts":28.8,"aqi":151,"pm10":261.7,"pm2_5":60.3,"mosquito_risk":4,"arthritis_risk":5,"migraine_risk":7,"frizz_risk":1,"updated_at":"2026-03-25T10:26:57.389264+05:30"},{"city":"Chandigarh","state":"Chandigarh","latitude":30.7333,"longitude":76.7794,"temp":24.9,"humidity":60,"rain":0.0,"pressure":972.5,"uv_index":6.55,"wind_gusts":33.5,"aqi":72,"pm10":34.2,"pm2_5":24.9,"mosquito_risk":0,"arthritis_risk":5,"migraine_risk":7,"frizz_risk":1,"updated_at":"2026-03-25T10:26:57.389270+05:30"},{"city":"Srinagar","state":"Jammu and Kashmir","latitude":34.0837,"longitude":74.7973,"temp":14.6,"humidity":51,"rain":0.0,"pressure":844.3,"uv_index":7.5,"wind_gusts":13.0,"aqi":80,"pm10":40.9,"pm2_5":28.2,"mosquito_risk":0,"arthritis_risk":5,"migraine_risk":7,"frizz_risk":0,"updated_at":"2026-03-25T10:26:57.389277+05:30"},{"city":"Jammu","state":"Jammu and Kashmir","latitude":32.7266,"longitude":74.857,"temp":24.7,"humidity":53,"rain":0.0,"pressure":975.9,"uv_index":7.2,"wind_gusts":18.7,"aqi":84,"pm10":33.2,"pm2_5":26.4,"mosquito_risk":0,"arthritis_risk":5,"migraine_risk":7,"frizz_risk":0,"updated_at":"2026-03-25T10:26:57.389283+05:30"},{"city":"Amritsar","state":"Punjab","latitude":31.634,"longitude":74.8723,"temp":25.1,"humidity":68,"rain":0.0,"pressure":984.5,"uv_index":6.35,"wind_gusts":20.2,"aqi":123,"pm10":64.7,"pm2_5":57.6,"mosquito_risk":7,"arthritis_risk":5,"migraine_risk":7,"frizz_risk":1,"updated_at":"2026-03-25T10:26:57.389289+05:30"},{"city":"Ludhiana","state":"Punjab","latitude":30.901,"longitude":75.8573,"temp":25.5,"humidity":61,"rain":0.0,"pressure":982.6,"uv_index":6.7,"wind_gusts":24.5,"aqi":125,"pm10":64.5,"pm2_5":56.9,"mosquito_risk":7,"arthritis_risk":5,"migraine_risk":7,"frizz_risk":1,"updated_at":"2026-03-25T10:26:57.389295+05:30"},{"city":"Jalandhar","state":"Punjab","latitude":31.326,"longitude":75.5762,"temp":24.7,"humidity":68,"rain":0.0,"pressure":983.7,"uv_index":6.85,"wind_gusts":23.0,"aqi":123,"pm10":65.4,"pm2_5":59.0,"mosquito_risk":3,"arthritis_risk":5,"migraine_risk":7,"frizz_risk":1,"updated_at":"2026-03-25T10:26:57.389302+05:30"},{"city":"Dehradun","state":"Uttarakhand","latitude":30.6284,"longitude":78.0322,"temp":17.0,"humidity":55,"rain":0.0,"pressure":831.9,"uv_index":7.0,"wind_gusts":23.0,"aqi":54,"pm10":15.8,"pm2_5":7.9,"mosquito_risk":0,"arthritis_risk":5,"migraine_risk":7,"frizz_risk":0,"updated_at":"2026-03-25T10:26:57.389308+05:30"},{"city":"Shimla","state":"Himachal Pradesh","latitude":31.1048,"longitude":77.1734,"temp":16.0,"humidity":56,"rain":0.0,"pressure":786.8,"uv_index":7.05,"wind_gusts":44.6,"aqi":58,"pm10":21.9,"pm2_5":12.9,"mosquito_risk":0,"arthritis_risk":5,"migraine_risk":7,"frizz_risk":0,"updated_at":"2026-03-25T10:26:57.389313+05:30"},{"city":"Manali","state":"Himachal Pradesh","latitude":32.2396,"longitude":77.1887,"temp":19.3,"humidity":18,"rain":0.0,"pressure":820.7,"uv_index":9.1,"wind_gusts":30.6,"aqi":77,"pm10":17.5,"pm2_5":9.1,"mosquito_risk":0,"arthritis_risk":5,"migraine_risk":7,"frizz_risk":1,"updated_at":"2026-03-25T10:26:57.389319+05:30"},{"city":"Gurgaon","state":"Haryana","latitude":28.4595,"longitude":77.0266,"temp":25.6,"humidity":62,"rain":0.0,"pressure":986.2,"uv_index":6.75,"wind_gusts":24.1,"aqi":711,"pm10":683.6,"pm2_5":117.6,"mosquito_risk":7,"arthritis_risk":5,"migraine_risk":7,"frizz_risk":1,"updated_at":"2026-03-25T10:26:57.389324+05:30"},{"city":"Noida","state":"Uttar Pradesh","latitude":28.5355,"longitude":77.391,"temp":26.1,"humidity":58,"rain":0.0,"pressure":989.2,"uv_index":6.55,"wind_gusts":27.4,"aqi":711,"pm10":683.6,"pm2_5":117.6,"mosquito_risk":4,"arthritis_risk":5,"migraine_risk":7,"frizz_risk":1,"updated_at":"2026-03-25T10:26:57.389330+05:30"},{"city":"Ghaziabad","state":"Uttar Pradesh","latitude":28.6692,"longitude":77.4538,"temp":25.3,"humidity":62,"rain":0.0,"pressure":987.3,"uv_index":6.55,"wind_gusts":28.8,"aqi":155,"pm10":137.4,"pm2_5":58.2,"mosquito_risk":7,"arthritis_risk":5,"migraine_risk":7,"frizz_risk":1,"updated_at":"2026-03-25T10:26:57.389336+05:30"},{"city":"Faridabad","state":"Haryana","latitude":28.4089,"longitude":77.3178,"temp":25.9,"humidity":61,"rain":0.0,"pressure":988.6,"uv_index":6.5,"wind_gusts":25.6,"aqi":711,"pm10":683.6,"pm2_5":117.6,"mosquito_risk":7,"arthritis_risk":5,"migraine_risk":7,"frizz_risk":1,"updated_at":"2026-03-25T10:26:57.389341+05:30"},{"city":"Meerut","state":"Uttar Pradesh","latitude":28.9845,"longitude":77.7064,"temp":25.2,"humidity":64,"rain":0.0,"pressure":985.7,"uv_index":6.3,"wind_gusts":33.8,"aqi":155,"pm10":137.4,"pm2_5":58.2,"mosquito_risk":7,"arthritis_risk":5,"migraine_risk":7,"frizz_risk":1,"updated_at":"2026-03-25T10:26:57.389347+05:30"},{"city":"Agra","state":"Uttar Pradesh","latitude":27.1767,"longitude":78.0081,"temp":28.7,"humidity":42,"rain":0.0,"pressure":992.9,"uv_index":7.0,"wind_gusts":28.4,"aqi":454,"pm10":376.3,"pm2_5":87.8,"mosquito_risk":4,"arthritis_risk":5,"migraine_risk":7,"frizz_risk":0,"updated_at":"2026-03-25T10:26:57.389354+05:30"},{"city":"Varanasi","state":"Uttar Pradesh","latitude":25.3176,"longitude":82.9739,"temp":29.9,"humidity":44,"rain":0.0,"pressure":1002.2,"uv_index":7.75,"wind_gusts":29.9,"aqi":108,"pm10":158.8,"pm2_5":45.3,"mosquito_risk":4,"arthritis_risk":5,"migraine_risk":4,"frizz_risk":1,"updated_at":"2026-03-25T10:26:57.389361+05:30"},{"city":"Prayagraj","state":"Uttar Pradesh","latitude":25.4358,"longitude":81.8463,"temp":29.0,"humidity":49,"rain":0.0,"pressure":1001.0,"uv_index":7.65,"wind_gusts":21.6,"aqi":99,"pm10":190.5,"pm2_5":50.2,"mosquito_risk":4,"arthritis_risk":5,"migraine_risk":4,"frizz_risk":1,"updated_at":"2026-03-25T10:26:57.389367+05:30"},{"city":"Gorakhpur","state":"Uttar Pradesh","latitude":26.7606,"longitude":83.3732,"temp":28.3,"humidity":53,"rain":0.0,"pressure":1001.2,"uv_index":7.25,"wind_gusts":29.2,"aqi":93,"pm10":94.8,"pm2_5":42.6,"mosquito_risk":4,"arthritis_risk":5,"migraine_risk":4,"frizz_risk":1,"updated_at":"2026-03-25T10:26:57.389374+05:30"},{"city":"Bareilly","state":"Uttar Pradesh","latitude":28.367,"longitude":79.4304,"temp":25.2,"humidity":64,"rain":0.0,"pressure":990.9,"uv_index":6.85,"wind_gusts":30.2,"aqi":104,"pm10":57.5,"pm2_5":39.9,"mosquito_risk":7,"arthritis_risk":5,"migraine_risk":7,"frizz_risk":1,"updated_at":"2026-03-25T10:26:57.389379+05:30"},{"city":"Aligarh","state":"Uttar Pradesh","latitude":27.8974,"longitude":78.088,"temp":26.4,"humidity":58,"rain":0.0,"pressure":990.3,"uv_index":6.75,"wind_gusts":29.2,"aqi":375,"pm10":361.4,"pm2_5":88.2,"mosquito_risk":4,"arthritis_risk":5,"migraine_risk":7,"frizz_risk":1,"updated_at":"2026-03-25T10:26:57.389385+05:30"},{"city":"Moradabad","state":"Uttar Pradesh","latitude":28.8386,"longitude":78.7733,"temp":24.9,"humidity":63,"rain":0.0,"pressure":987.7,"uv_index":6.65,"wind_gusts":31.3,"aqi":106,"pm10":68.9,"pm2_5":44.0,"mosquito_risk":3,"arthritis_risk":5,"migraine_risk":7,"frizz_risk":1,"updated_at":"2026-03-25T10:26:57.389390+05:30"},{"city":"Saharanpur","state":"Uttar Pradesh","latitude":29.9637,"longitude":77.546,"temp":24.1,"humidity":62,"rain":0.0,"pressure":979.6,"uv_index":6.3,"wind_gusts":36.0,"aqi":117,"pm10":63.6,"pm2_5":53.1,"mosquito_risk":3,"arthritis_risk":5,"migraine_risk":7,"frizz_risk":1,"updated_at":"2026-03-25T10:26:57.389395+05:30"},{"city":"Jhansi","state":"Uttar Pradesh","latitude":25.4484,"longitude":78.5685,"temp":29.8,"humidity":43,"rain":0.0,"pressure":982.8,"uv_index":7.65,"wind_gusts":30.2,"aqi":84,"pm10":287.8,"pm2_5":47.6,"mosquito_risk":4,"arthritis_risk":5,"migraine_risk":7,"frizz_risk":0,"updated_at":"2026-03-25T10:27:00.994818+05:30"},{"city":"Surat","state":"Gujarat","latitude":21.1702,"longitude":72.8311,"temp":29.5,"humidity":65,"rain":0.0,"pressure":1010.2,"uv_index":7.7,"wind_gusts":21.2,"aqi":99,"pm10":34.8,"pm2_5":28.2,"mosquito_risk":7,"arthritis_risk":0,"migraine_risk":4,"frizz_risk":1,"updated_at":"2026-03-25T10:27:00.994851+05:30"},{"city":"Vadodara","state":"Gujarat","latitude":22.3072,"longitude":73.1812,"temp":31.3,"humidity":51,"rain":0.0,"pressure":1008.2,"uv_index":7.6,"wind_gusts":16.9,"aqi":80,"pm10":28.9,"pm2_5":23.0,"mosquito_risk":0,"arthritis_risk":0,"migraine_risk":4,"frizz_risk":1,"updated_at":"2026-03-25T10:27:00.994862+05:30"},{"city":"Rajkot","state":"Gujarat","latitude":22.3039,"longitude":70.8022,"temp":26.9,"humidity":69,"rain":0.0,"pressure":998.2,"uv_index":7.7,"wind_gusts":26.3,"aqi":35,"pm10":19.3,"pm2_5":9.5,"mosquito_risk":7,"arthritis_risk":5,"migraine_risk":7,"frizz_risk":1,"updated_at":"2026-03-25T10:27:00.994871+05:30"},{"city":"Thane","state":"Maharashtra","latitude":19.2183,"longitude":72.9781,"temp":30.8,"humidity":60,"rain":0.0,"pressure":1010.6,"uv_index":7.95,"wind_gusts":35.6,"aqi":89,"pm10":43.1,"pm2_5":28.5,"mosquito_risk":0,"arthritis_risk":0,"migraine_risk":4,"frizz_risk":1,"updated_at":"2026-03-25T10:27:00.994880+05:30"},{"city":"Nagpur","state":"Maharashtra","latitude":21.1458,"longitude":79.0882,"temp":32.1,"humidity":33,"rain":0.0,"pressure":976.8,"uv_index":8.2,"wind_gusts":20.5,"aqi":107,"pm10":43.7,"pm2_5":32.6,"mosquito_risk":0,"arthritis_risk":5,"migraine_risk":7,"frizz_risk":0,"updated_at":"2026-03-25T10:27:00.994889+05:30"},{"city":"Nashik","state":"Maharashtra","latitude":19.9975,"longitude":73.7898,"temp":29.5,"humidity":40,"rain":0.0,"pressure":949.0,"uv_index":8.15,"wind_gusts":26.3,"aqi":75,"pm10":20.1,"pm2_5":11.4,"mosquito_risk":4,"arthritis_risk":5,"migraine_risk":7,"frizz_risk":0,"updated_at":"2026-03-25T10:27:00.994897+05:30"},{"city":"Aurangabad","state":"Maharashtra","latitude":19.8762,"longitude":75.3433,"temp":30.7,"humidity":35,"rain":0.0,"pressure":947.9,"uv_index":8.7,"wind_gusts":30.2,"aqi":59,"pm10":19.2,"pm2_5":13.2,"mosquito_risk":0,"arthritis_risk":5,"migraine_risk":7,"frizz_risk":0,"updated_at":"2026-03-25T10:27:00.994906+05:30"},{"city":"Solapur","state":"Maharashtra","latitude":17.6599,"longitude":75.9064,"temp":31.2,"humidity":52,"rain":0.0,"pressure":960.3,"uv_index":8.85,"wind_gusts":33.1,"aqi":96,"pm10":46.6,"pm2_5":38.4,"mosquito_risk":0,"arthritis_risk":5,"migraine_risk":7,"frizz_risk":1,"updated_at":"2026-03-25T10:27:00.994915+05:30"},{"city":"Kolhapur","state":"Maharashtra","latitude":16.705,"longitude":74.2433,"temp":30.7,"humidity":43,"rain":0.0,"pressure":951.0,"uv_index":8.95,"wind_gusts":42.1,"aqi":139,"pm10":63.8,"pm2_5":48.8,"mosquito_risk":0,"arthritis_risk":5,"migraine_risk":7,"frizz_risk":1,"updated_at":"2026-03-25T10:27:00.994923+05:30"},{"city":"Goa","state":"Goa","latitude":15.2993,"longitude":74.124,"temp":31.2,"humidity":65,"rain":0.0,"pressure":1000.4,"uv_index":8.95,"wind_gusts":29.2,"aqi":100,"pm10":41.2,"pm2_5":31.3,"mosquito_risk":3,"arthritis_risk":5,"migraine_risk":4,"frizz_risk":1,"updated_at":"2026-03-25T10:27:00.994931+05:30"},{"city":"Jodhpur","state":"Rajasthan","latitude":26.2389,"longitude":73.0243,"temp":29.6,"humidity":35,"rain":0.0,"pressure":986.8,"uv_index":7.15,"wind_gusts":27.4,"aqi":56,"pm10":52.0,"pm2_5":20.4,"mosquito_risk":4,"arthritis_risk":5,"migraine_risk":7,"frizz_risk":0,"updated_at":"2026-03-25T10:27:00.994939+05:30"},{"city":"Udaipur","state":"Rajasthan","latitude":24.5854,"longitude":73.7125,"temp":30.4,"humidity":37,"rain":0.0,"pressure":950.7,"uv_index":8.1,"wind_gusts":25.6,"aqi":56,"pm10":34.0,"pm2_5":11.5,"mosquito_risk":0,"arthritis_risk":5,"migraine_risk":7,"frizz_risk":0,"updated_at":"2026-03-25T10:27:00.994947+05:30"},{"city":"Kota","state":"Rajasthan","latitude":25.2138,"longitude":75.8648,"temp":29.5,"humidity":43,"rain":0.0,"pressure":983.2,"uv_index":7.7,"wind_gusts":33.1,"aqi":79,"pm10":35.3,"pm2_5":20.2,"mosquito_risk":4,"arthritis_risk":5,"migraine_risk":7,"frizz_risk":0,"updated_at":"2026-03-25T10:27:00.994955+05:30"},{"city":"Bikaner","state":"Rajasthan","latitude":28.0229,"longitude":73.3119,"temp":29.0,"humidity":32,"rain":0.0,"pressure":985.5,"uv_index":5.95,"wind_gusts":27.7,"aqi":56,"pm10":82.0,"pm2_5":21.2,"mosquito_risk":4,"arthritis_risk":5,"migraine_risk":3,"frizz_risk":0,"updated_at":"2026-03-25T10:27:00.994963+05:30"},{"city":"Ajmer","state":"Rajasthan","latitude":26.4499,"longitude":74.6399,"temp":27.2,"humidity":43,"rain":0.0,"pressure":958.8,"uv_index":7.5,"wind_gusts":31.0,"aqi":63,"pm10":176.5,"pm2_5":33.9,"mosquito_risk":4,"arthritis_risk":5,"migraine_risk":7,"frizz_risk":0,"updated_at":"2026-03-25T10:27:00.994971+05:30"},{"city":"Gwalior","state":"Madhya Pradesh","latitude":26.2183,"longitude":78.1828,"temp":29.5,"humidity":39,"rain":0.0,"pressure":988.2,"uv_index":7.35,"wind_gusts":28.1,"aqi":149,"pm10":491.7,"pm2_5":85.2,"mosquito_risk":4,"arthritis_risk":5,"migraine_risk":7,"frizz_risk":0,"updated_at":"2026-03-25T10:27:00.994979+05:30"},{"city":"Indore","state":"Madhya Pradesh","latitude":22.7196,"longitude":75.8577,"temp":29.3,"humidity":42,"rain":0.0,"pressure":951.9,"uv_index":8.15,"wind_gusts":24.8,"aqi":64,"pm10":28.9,"pm2_5":18.0,"mosquito_risk":4,"arthritis_risk":5,"migraine_risk":7,"frizz_risk":0,"updated_at":"2026-03-25T10:27:00.994987+05:30"},{"city":"Bhopal","state":"Madhya Pradesh","latitude":23.2599,"longitude":77.4126,"temp":31.3,"humidity":34,"rain":0.0,"pressure":957.6,"uv_index":8.05,"wind_gusts":21.6,"aqi":63,"pm10":30.3,"pm2_5":13.9,"mosquito_risk":0,"arthritis_risk":5,"migraine_risk":7,"frizz_risk":0,"updated_at":"2026-03-25T10:27:00.994995+05:30"},{"city":"Jabalpur","state":"Madhya Pradesh","latitude":23.1815,"longitude":79.9864,"temp":29.6,"humidity":47,"rain":0.0,"pressure":965.7,"uv_index":8.2,"wind_gusts":24.8,"aqi":64,"pm10":38.2,"pm2_5":14.7,"mosquito_risk":4,"arthritis_risk":5,"migraine_risk":7,"frizz_risk":1,"updated_at":"2026-03-25T10:27:00.995003+05:30"},{"city":"Ujjain","state":"Madhya Pradesh","latitude":23.1765,"longitude":75.7885,"temp":29.0,"humidity":43,"rain":0.0,"pressure":957.6,"uv_index":8.0,"wind_gusts":21.2,"aqi":77,"pm10":36.9,"pm2_5":26.3,"mosquito_risk":4,"arthritis_risk":5,"migraine_risk":7,"frizz_risk":0,"updated_at":"2026-03-25T10:27:00.995012+05:30"},{"city":"Visakhapatnam","state":"Andhra Pradesh","latitude":17.6868,"longitude":83.2185,"temp":31.0,"humidity":61,"rain":0.0,"pressure":1007.9,"uv_index":8.95,"wind_gusts":37.1,"aqi":72,"pm10":36.1,"pm2_5":24.4,"mosquito_risk":3,"arthritis_risk":5,"migraine_risk":4,"frizz_risk":1,"updated_at":"2026-03-25T10:27:00.995021+05:30"},{"city":"Vijayawada","state":"Andhra Pradesh","latitude":16.5062,"longitude":80.648,"temp":29.8,"humidity":66,"rain":0.0,"pressure":1006.9,"uv_index":9.0,"wind_gusts":24.5,"aqi":59,"pm10":16.6,"pm2_5":10.6,"mosquito_risk":7,"arthritis_risk":5,"migraine_risk":4,"frizz_risk":1,"updated_at":"2026-03-25T10:27:00.995029+05:30"},{"city":"Guntur","state":"Andhra Pradesh","latitude":16.3067,"longitude":80.4365,"temp":30.0,"humidity":64,"rain":0.0,"pressure":1008.0,"uv_index":9.0,"wind_gusts":25.9,"aqi":57,"pm10":13.9,"pm2_5":9.4,"mosquito_risk":7,"arthritis_risk":0,"migraine_risk":4,"frizz_risk":1,"updated_at":"2026-03-25T10:27:00.995037+05:30"},{"city":"Nellore","state":"Andhra Pradesh","latitude":14.4426,"longitude":79.9865,"temp":30.9,"humidity":58,"rain":0.0,"pressure":1009.7,"uv_index":9.1,"wind_gusts":29.9,"aqi":35,"pm10":12.5,"pm2_5":10.0,"mosquito_risk":0,"arthritis_risk":0,"migraine_risk":4,"frizz_risk":1,"updated_at":"2026-03-25T10:27:00.995046+05:30"},{"city":"Kurnool","state":"Andhra Pradesh","latitude":15.8281,"longitude":78.0373,"temp":32.6,"humidity":46,"rain":0.0,"pressure":980.4,"uv_index":8.9,"wind_gusts":18.4,"aqi":67,"pm10":13.0,"pm2_5":10.5,"mosquito_risk":0,"arthritis_risk":5,"migraine_risk":7,"frizz_risk":1,"updated_at":"2026-03-25T10:27:00.995056+05:30"},{"city":"Kakinada","state":"Andhra Pradesh","latitude":16.9891,"longitude":82.2475,"temp":31.3,"humidity":59,"rain":0.0,"pressure":1011.7,"uv_index":8.95,"wind_gusts":27.7,"aqi":52,"pm10":24.4,"pm2_5":13.4,"mosquito_risk":0,"arthritis_risk":0,"migraine_risk":4,"frizz_risk":1,"updated_at":"2026-03-25T10:27:00.995064+05:30"},{"city":"Tirupati","state":"Andhra Pradesh","latitude":13.6288,"longitude":79.4192,"temp":29.6,"humidity":58,"rain":0.0,"pressure":995.6,"uv_index":9.2,"wind_gusts":29.5,"aqi":58,"pm10":11.0,"pm2_5":8.4,"mosquito_risk":4,"arthritis_risk":5,"migraine_risk":7,"frizz_risk":1,"updated_at":"2026-03-25T10:27:00.995071+05:30"},{"city":"Warangal","state":"Telangana","latitude":17.9689,"longitude":79.5941,"temp":29.2,"humidity":64,"rain":0.0,"pressure":983.0,"uv_index":8.85,"wind_gusts":25.6,"aqi":82,"pm10":18.9,"pm2_5":14.1,"mosquito_risk":7,"arthritis_risk":5,"migraine_risk":7,"frizz_risk":1,"updated_at":"2026-03-25T10:27:00.995079+05:30"},{"city":"Nizamabad","state":"Telangana","latitude":18.6725,"longitude":78.0941,"temp":31.5,"humidity":48,"rain":0.0,"pressure":968.7,"uv_index":8.75,"wind_gusts":32.8,"aqi":101,"pm10":44.6,"pm2_5":38.1,"mosquito_risk":0,"arthritis_risk":5,"migraine_risk":7,"frizz_risk":1,"updated_at":"2026-03-25T10:27:00.995087+05:30"},{"city":"Mysore","state":"Karnataka","latitude":12.2958,"longitude":76.6396,"temp":29.5,"humidity":51,"rain":0.0,"pressure":931.7,"uv_index":9.45,"wind_gusts":34.9,"aqi":86,"pm10":23.6,"pm2_5":22.4,"mosquito_risk":4,"arthritis_risk":5,"migraine_risk":7,"frizz_risk":1,"updated_at":"2026-03-25T10:27:00.995093+05:30"},{"city":"Mangalore","state":"Karnataka","latitude":12.9141,"longitude":74.856,"temp":28.8,"humidity":80,"rain":0.0,"pressure":1009.3,"uv_index":9.05,"wind_gusts":26.6,"aqi":105,"pm10":53.8,"pm2_5":40.4,"mosquito_risk":7,"arthritis_risk":0,"migraine_risk":4,"frizz_risk":1,"updated_at":"2026-03-25T10:27:00.995100+05:30"},{"city":"Hubli-Dharwad","state":"Karnataka","latitude":15.3647,"longitude":75.124,"temp":29.0,"humidity":60,"rain":0.0,"pressure":943.9,"uv_index":9.1,"wind_gusts":33.1,"aqi":125,"pm10":53.0,"pm2_5":41.1,"mosquito_risk":4,"arthritis_risk":5,"migraine_risk":7,"frizz_risk":1,"updated_at":"2026-03-25T10:27:00.995107+05:30"},{"city":"Belgaum","state":"Karnataka","latitude":15.8497,"longitude":74.4977,"temp":29.8,"humidity":51,"rain":0.0,"pressure":928.9,"uv_index":9.05,"wind_gusts":25.6,"aqi":115,"pm10":44.7,"pm2_5":32.6,"mosquito_risk":4,"arthritis_risk":5,"migraine_risk":7,"frizz_risk":1,"updated_at":"2026-03-25T10:27:04.244485+05:30"},{"city":"Coimbatore","state":"Tamil Nadu","latitude":11.0168,"longitude":76.9558,"temp":29.8,"humidity":58,"rain":0.0,"pressure":965.3,"uv_index":9.4,"wind_gusts":36.4,"aqi":57,"pm10":7.5,"pm2_5":6.7,"mosquito_risk":4,"arthritis_risk":5,"migraine_risk":7,"frizz_risk":1,"updated_at":"2026-03-25T10:27:04.244516+05:30"},{"city":"Madurai","state":"Tamil Nadu","latitude":9.9252,"longitude":78.1198,"temp":29.8,"humidity":61,"rain":0.0,"pressure":996.8,"uv_index":9.35,"wind_gusts":25.9,"aqi":53,"pm10":13.5,"pm2_5":10.6,"mosquito_risk":7,"arthritis_risk":5,"migraine_risk":7,"frizz_risk":1,"updated_at":"2026-03-25T10:27:04.244528+05:30"},{"city":"Trichy","state":"Tamil Nadu","latitude":10.7905,"longitude":78.7047,"temp":29.0,"humidity":66,"rain":0.0,"pressure":1003.8,"uv_index":9.3,"wind_gusts":22.7,"aqi":53,"pm10":18.7,"pm2_5":14.3,"mosquito_risk":7,"arthritis_risk":5,"migraine_risk":4,"frizz_risk":1,"updated_at":"2026-03-25T10:27:04.244537+05:30"},{"city":"Salem","state":"Tamil Nadu","latitude":11.6643,"longitude":78.146,"temp":30.0,"humidity":58,"rain":0.0,"pressure":981.1,"uv_index":9.35,"wind_gusts":31.0,"aqi":77,"pm10":21.9,"pm2_5":21.0,"mosquito_risk":4,"arthritis_risk":5,"migraine_risk":7,"frizz_risk":1,"updated_at":"2026-03-25T10:27:04.244546+05:30"},{"city":"Tirunelveli","state":"Tamil Nadu","latitude":8.7139,"longitude":77.7567,"temp":31.6,"humidity":53,"rain":0.0,"pressure":1006.5,"uv_index":9.3,"wind_gusts":37.4,"aqi":38,"pm10":8.3,"pm2_5":6.5,"mosquito_risk":0,"arthritis_risk":5,"migraine_risk":4,"frizz_risk":1,"updated_at":"2026-03-25T10:27:04.244555+05:30"},{"city":"Vellore","state":"Tamil Nadu","latitude":12.9165,"longitude":79.1325,"temp":29.3,"humidity":59,"rain":0.0,"pressure":988.5,"uv_index":9.3,"wind_gusts":32.0,"aqi":62,"pm10":13.8,"pm2_5":12.1,"mosquito_risk":4,"arthritis_risk":5,"migraine_risk":7,"frizz_risk":1,"updated_at":"2026-03-25T10:27:04.244564+05:30"},{"city":"Erode","state":"Tamil Nadu","latitude":11.341,"longitude":77.7172,"temp":29.9,"humidity":62,"rain":0.0,"pressure":992.8,"uv_index":9.3,"wind_gusts":24.8,"aqi":52,"pm10":12.0,"pm2_5":9.8,"mosquito_risk":7,"arthritis_risk":5,"migraine_risk":7,"frizz_risk":1,"updated_at":"2026-03-25T10:27:04.244572+05:30"},{"city":"Kochi","state":"Kerala","latitude":9.9312,"longitude":76.2673,"temp":28.0,"humidity":82,"rain":0.0,"pressure":1011.3,"uv_index":9.15,"wind_gusts":32.4,"aqi":82,"pm10":30.5,"pm2_5":23.8,"mosquito_risk":7,"arthritis_risk":0,"migraine_risk":4,"frizz_risk":1,"updated_at":"2026-03-25T10:27:04.244579+05:30"},{"city":"Thiruvananthapuram","state":"Kerala","latitude":8.5241,"longitude":76.9366,"temp":28.3,"humidity":78,"rain":0.0,"pressure":1010.3,"uv_index":9.2,"wind_gusts":30.2,"aqi":65,"pm10":24.2,"pm2_5":18.7,"mosquito_risk":7,"arthritis_risk":0,"migraine_risk":4,"frizz_risk":1,"updated_at":"2026-03-25T10:27:04.244585+05:30"},{"city":"Kozhikode","state":"Kerala","latitude":11.2588,"longitude":75.7804,"temp":30.0,"humidity":73,"rain":0.0,"pressure":1010.4,"uv_index":9.1,"wind_gusts":29.5,"aqi":89,"pm10":50.2,"pm2_5":37.6,"mosquito_risk":7,"arthritis_risk":0,"migraine_risk":4,"frizz_risk":1,"updated_at":"2026-03-25T10:27:04.244592+05:30"},{"city":"Thrissur","state":"Kerala","latitude":10.5276,"longitude":76.2144,"temp":32.4,"humidity":57,"rain":0.0,"pressure":1009.5,"uv_index":9.15,"wind_gusts":37.1,"aqi":81,"pm10":30.2,"pm2_5":23.1,"mosquito_risk":0,"arthritis_risk":0,"migraine_risk":4,"frizz_risk":1,"updated_at":"2026-03-25T10:27:04.244599+05:30"},{"city":"Kannur","state":"Kerala","latitude":11.8745,"longitude":75.3704,"temp":31.1,"humidity":64,"rain":0.0,"pressure":1009.8,"uv_index":9.05,"wind_gusts":28.8,"aqi":103,"pm10":54.8,"pm2_5":41.7,"mosquito_risk":3,"arthritis_risk":0,"migraine_risk":4,"frizz_risk":1,"updated_at":"2026-03-25T10:27:04.244606+05:30"},{"city":"Patna","state":"Bihar","latitude":25.5941,"longitude":85.1376,"temp":29.5,"humidity":45,"rain":0.0,"pressure":1004.7,"uv_index":7.35,"wind_gusts":32.4,"aqi":110,"pm10":82.4,"pm2_5":40.6,"mosquito_risk":4,"arthritis_risk":5,"migraine_risk":4,"frizz_risk":1,"updated_at":"2026-03-25T10:27:04.244612+05:30"},{"city":"Gaya","state":"Bihar","latitude":24.7914,"longitude":85.0002,"temp":29.1,"humidity":51,"rain":0.0,"pressure":998.4,"uv_index":8.05,"wind_gusts":23.0,"aqi":118,"pm10":66.1,"pm2_5":30.0,"mosquito_risk":4,"arthritis_risk":5,"migraine_risk":7,"frizz_risk":1,"updated_at":"2026-03-25T10:27:04.244619+05:30"},{"city":"Muzaffarpur","state":"Bihar","latitude":26.1209,"longitude":85.3647,"temp":29.1,"humidity":51,"rain":0.0,"pressure":1004.4,"uv_index":7.35,"wind_gusts":26.6,"aqi":118,"pm10":81.7,"pm2_5":47.8,"mosquito_risk":4,"arthritis_risk":5,"migraine_risk":4,"frizz_risk":1,"updated_at":"2026-03-25T10:27:04.244626+05:30"},{"city":"Bhagalpur","state":"Bihar","latitude":25.2425,"longitude":87.0117,"temp":28.5,"humidity":65,"rain":0.0,"pressure":1005.2,"uv_index":8.0,"wind_gusts":28.1,"aqi":152,"pm10":91.3,"pm2_5":65.0,"mosquito_risk":7,"arthritis_risk":5,"migraine_risk":4,"frizz_risk":1,"updated_at":"2026-03-25T10:27:04.244633+05:30"},{"city":"Ranchi","state":"Jharkhand","latitude":23.3441,"longitude":85.3096,"temp":28.2,"humidity":40,"rain":0.0,"pressure":942.2,"uv_index":7.95,"wind_gusts":31.0,"aqi":100,"pm10":48.1,"pm2_5":21.7,"mosquito_risk":4,"arthritis_risk":5,"migraine_risk":7,"frizz_risk":0,"updated_at":"2026-03-25T10:27:04.244639+05:30"},{"city":"Jamshedpur","state":"Jharkhand","latitude":22.8046,"longitude":86.2029,"temp":31.0,"humidity":52,"rain":0.0,"pressure":994.9,"uv_index":8.55,"wind_gusts":16.6,"aqi":141,"pm10":82.7,"pm2_5":57.3,"mosquito_risk":0,"arthritis_risk":5,"migraine_risk":7,"frizz_risk":1,"updated_at":"2026-03-25T10:27:04.244646+05:30"},{"city":"Dhanbad","state":"Jharkhand","latitude":23.7957,"longitude":86.4304,"temp":31.6,"humidity":34,"rain":0.0,"pressure":984.1,"uv_index":8.45,"wind_gusts":31.3,"aqi":156,"pm10":68.9,"pm2_5":37.6,"mosquito_risk":0,"arthritis_risk":5,"migraine_risk":7,"frizz_risk":0,"updated_at":"2026-03-25T10:27:04.244652+05:30"},{"city":"Bokaro","state":"Jharkhand","latitude":23.6693,"longitude":86.1511,"temp":30.8,"humidity":39,"rain":0.0,"pressure":988.2,"uv_index":8.4,"wind_gusts":28.1,"aqi":152,"pm10":69.4,"pm2_5":37.7,"mosquito_risk":0,"arthritis_risk":5,"migraine_risk":7,"frizz_risk":0,"updated_at":"2026-03-25T10:27:04.244659+05:30"},{"city":"Bhubaneswar","state":"Odisha","latitude":20.2961,"longitude":85.8245,"temp":29.4,"humidity":71,"rain":0.0,"pressure":1006.9,"uv_index":8.6,"wind_gusts":28.4,"aqi":69,"pm10":34.0,"pm2_5":25.1,"mosquito_risk":7,"arthritis_risk":5,"migraine_risk":4,"frizz_risk":1,"updated_at":"2026-03-25T10:27:04.244666+05:30"},{"city":"Cuttack","state":"Odisha","latitude":20.4625,"longitude":85.8828,"temp":30.6,"humidity":67,"rain":0.0,"pressure":1008.5,"uv_index":8.65,"wind_gusts":27.4,"aqi":69,"pm10":34.0,"pm2_5":25.1,"mosquito_risk":3,"arthritis_risk":0,"migraine_risk":4,"frizz_risk":1,"updated_at":"2026-03-25T10:27:04.244673+05:30"},{"city":"Rourkela","state":"Odisha","latitude":22.2604,"longitude":84.8536,"temp":31.1,"humidity":57,"rain":0.0,"pressure":989.4,"uv_index":8.45,"wind_gusts":20.9,"aqi":139,"pm10":69.2,"pm2_5":47.5,"mosquito_risk":0,"arthritis_risk":5,"migraine_risk":7,"frizz_risk":1,"updated_at":"2026-03-25T10:27:04.244680+05:30"},{"city":"Raipur","state":"Chhattisgarh","latitude":21.2514,"longitude":81.6296,"temp":30.9,"humidity":53,"rain":0.0,"pressure":978.8,"uv_index":8.1,"wind_gusts":29.2,"aqi":150,"pm10":69.6,"pm2_5":62.4,"mosquito_risk":0,"arthritis_risk":5,"migraine_risk":7,"frizz_risk":1,"updated_at":"2026-03-25T10:27:04.244686+05:30"},{"city":"Bhilai","state":"Chhattisgarh","latitude":21.1938,"longitude":81.3509,"temp":30.3,"humidity":58,"rain":0.0,"pressure":979.1,"uv_index":7.7,"wind_gusts":25.9,"aqi":121,"pm10":62.6,"pm2_5":56.5,"mosquito_risk":0,"arthritis_risk":5,"migraine_risk":7,"frizz_risk":1,"updated_at":"2026-03-25T10:27:04.244692+05:30"},{"city":"Guwahati","state":"Assam","latitude":26.1158,"longitude":91.7086,"temp":24.8,"humidity":76,"rain":0.0,"pressure":1006.2,"uv_index":7.85,"wind_gusts":28.1,"aqi":126,"pm10":55.1,"pm2_5":38.9,"mosquito_risk":3,"arthritis_risk":5,"migraine_risk":4,"frizz_risk":1,"updated_at":"2026-03-25T10:27:04.244699+05:30"},{"city":"Agartala","state":"Tripura","latitude":23.8315,"longitude":91.2868,"temp":28.8,"humidity":72,"rain":0.0,"pressure":1010.6,"uv_index":8.2,"wind_gusts":27.4,"aqi":158,"pm10":58.0,"pm2_5":46.3,"mosquito_risk":7,"arthritis_risk":0,"migraine_risk":4,"frizz_risk":1,"updated_at":"2026-03-25T10:27:04.244705+05:30"},{"city":"Shillong","state":"Meghalaya","latitude":25.5788,"longitude":91.8933,"temp":17.7,"humidity":53,"rain":0.0,"pressure":859.3,"uv_index":8.25,"wind_gusts":67.0,"aqi":112,"pm10":55.6,"pm2_5":36.8,"mosquito_risk":0,"arthritis_risk":5,"migraine_risk":7,"frizz_risk":0,"updated_at":"2026-03-25T10:27:04.244712+05:30"},{"city":"Imphal","state":"Manipur","latitude":24.817,"longitude":93.9368,"temp":19.1,"humidity":76,"rain":0.0,"pressure":927.2,"uv_index":8.35,"wind_gusts":72.4,"aqi":114,"pm10":68.0,"pm2_5":45.2,"mosquito_risk":3,"arthritis_risk":5,"migraine_risk":7,"frizz_risk":0,"updated_at":"2026-03-25T10:27:04.244719+05:30"},{"city":"Aizawl","state":"Mizoram","latitude":23.7271,"longitude":92.7176,"temp":23.6,"humidity":49,"rain":0.0,"pressure":897.6,"uv_index":8.4,"wind_gusts":43.9,"aqi":118,"pm10":65.9,"pm2_5":37.3,"mosquito_risk":0,"arthritis_risk":5,"migraine_risk":7,"frizz_risk":0,"updated_at":"2026-03-25T10:27:04.244725+05:30"},{"city":"Kohima","state":"Nagaland","latitude":25.6701,"longitude":94.1077,"temp":17.9,"humidity":58,"rain":0.0,"pressure":858.3,"uv_index":8.1,"wind_gusts":76.7,"aqi":89,"pm10":63.8,"pm2_5":40.6,"mosquito_risk":0,"arthritis_risk":5,"migraine_risk":7,"frizz_risk":0,"updated_at":"2026-03-25T10:27:04.244731+05:30"},{"city":"Gangtok","state":"Sikkim","latitude":27.3314,"longitude":88.6138,"temp":16.3,"humidity":73,"rain":0.0,"pressure":839.3,"uv_index":8.05,"wind_gusts":18.0,"aqi":81,"pm10":28.0,"pm2_5":18.9,"mosquito_risk":3,"arthritis_risk":5,"migraine_risk":7,"frizz_risk":0,"updated_at":"2026-03-25T10:27:04.244738+05:30"},{"city":"Siliguri","state":"West Bengal","latitude":26.7271,"longitude":88.3953,"temp":21.0,"humidity":80,"rain":0.0,"pressure":997.9,"uv_index":7.75,"wind_gusts":25.6,"aqi":155,"pm10":76.1,"pm2_5":54.0,"mosquito_risk":3,"arthritis_risk":5,"migraine_risk":7,"frizz_risk":1,"updated_at":"2026-03-25T10:27:07.496621+05:30"},{"city":"Durgapur","state":"West Bengal","latitude":23.5204,"longitude":87.3119,"temp":31.6,"humidity":53,"rain":0.0,"pressure":999.1,"uv_index":8.4,"wind_gusts":27.0,"aqi":155,"pm10":90.1,"pm2_5":61.5,"mosquito_risk":0,"arthritis_risk":5,"migraine_risk":7,"frizz_risk":1,"updated_at":"2026-03-25T10:27:07.496651+05:30"},{"city":"Asansol","state":"West Bengal","latitude":23.6739,"longitude":86.9524,"temp":32.1,"humidity":45,"rain":0.0,"pressure":997.5,"uv_index":8.4,"wind_gusts":26.6,"aqi":147,"pm10":73.1,"pm2_5":42.1,"mosquito_risk":0,"arthritis_risk":5,"migraine_risk":7,"frizz_risk":1,"updated_at":"2026-03-25T10:27:07.496660+05:30"},{"city":"Pondicherry","state":"Puducherry","latitude":11.9139,"longitude":79.8145,"temp":30.2,"humidity":62,"rain":0.0,"pressure":1012.3,"uv_index":9.2,"wind_gusts":29.5,"aqi":31,"pm10":15.3,"pm2_5":9.6,"mosquito_risk":3,"arthritis_risk":0,"migraine_risk":4,"frizz_risk":1,"updated_at":"2026-03-25T10:27:07.496668+05:30"},{"city":"Port Blair","state":"Andaman and Nicobar Islands","latitude":11.6234,"longitude":92.7265,"temp":28.1,"humidity":77,"rain":0.0,"pressure":1009.6,"uv_index":9.1,"wind_gusts":24.5,"aqi":69,"pm10":22.0,"pm2_5":17.0,"mosquito_risk":7,"arthritis_risk":0,"migraine_risk":4,"frizz_risk":1,"updated_at":"2026-03-25T10:27:07.496676+05:30"},{"city":"Haridwar","state":"Uttarakhand","latitude":29.9457,"longitude":78.1642,"temp":25.3,"humidity":59,"rain":0.0,"pressure":977.8,"uv_index":6.45,"wind_gusts":26.6,"aqi":89,"pm10":28.3,"pm2_5":25.9,"mosquito_risk":4,"arthritis_risk":5,"migraine_risk":7,"frizz_risk":1,"updated_at":"2026-03-25T10:27:07.496683+05:30"},{"city":"Rishikesh","state":"Uttarakhand","latitude":30.0869,"longitude":78.2676,"temp":25.4,"humidity":60,"rain":0.0,"pressure":970.1,"uv_index":6.5,"wind_gusts":25.2,"aqi":78,"pm10":33.1,"pm2_5":25.3,"mosquito_risk":4,"arthritis_risk":5,"migraine_risk":7,"frizz_risk":1,"updated_at":"2026-03-25T10:27:07.496691+05:30"},{"city":"Nainital","state":"Uttarakhand","latitude":29.3919,"longitude":79.4542,"temp":19.0,"humidity":62,"rain":0.0,"pressure":808.3,"uv_index":7.3,"wind_gusts":27.7,"aqi":79,"pm10":24.0,"pm2_5":19.4,"mosquito_risk":3,"arthritis_risk":5,"migraine_risk":7,"frizz_risk":0,"updated_at":"2026-03-25T10:27:07.496699+05:30"},{"city":"Mussoorie","state":"Uttarakhand","latitude":30.4599,"longitude":78.0664,"temp":17.9,"humidity":63,"rain":0.0,"pressure":804.8,"uv_index":6.85,"wind_gusts":26.6,"aqi":76,"pm10":20.8,"pm2_5":15.2,"mosquito_risk":3,"arthritis_risk":5,"migraine_risk":7,"frizz_risk":0,"updated_at":"2026-03-25T10:27:07.496706+05:30"},{"city":"Dharamshala","state":"Himachal Pradesh","latitude":32.219,"longitude":76.3234,"temp":19.8,"humidity":58,"rain":0.0,"pressure":870.9,"uv_index":6.95,"wind_gusts":19.4,"aqi":72,"pm10":16.9,"pm2_5":5.3,"mosquito_risk":0,"arthritis_risk":5,"migraine_risk":7,"frizz_risk":0,"updated_at":"2026-03-25T10:27:07.496713+05:30"},{"city":"Dalhousie","state":"Himachal Pradesh","latitude":32.5387,"longitude":75.971,"temp":18.1,"humidity":43,"rain":0.0,"pressure":805.5,"uv_index":7.35,"wind_gusts":19.4,"aqi":71,"pm10":21.0,"pm2_5":12.1,"mosquito_risk":0,"arthritis_risk":5,"migraine_risk":7,"frizz_risk":0,"updated_at":"2026-03-25T10:27:07.496721+05:30"},{"city":"Patiala","state":"Punjab","latitude":30.3398,"longitude":76.3869,"temp":25.8,"humidity":62,"rain":0.0,"pressure":982.2,"uv_index":6.35,"wind_gusts":28.4,"aqi":149,"pm10":52.2,"pm2_5":47.1,"mosquito_risk":7,"arthritis_risk":5,"migraine_risk":7,"frizz_risk":1,"updated_at":"2026-03-25T10:27:07.496728+05:30"},{"city":"Bhatinda","state":"Punjab","latitude":30.211,"longitude":74.9455,"temp":26.7,"humidity":55,"rain":0.0,"pressure":987.8,"uv_index":6.7,"wind_gusts":23.8,"aqi":142,"pm10":46.0,"pm2_5":44.0,"mosquito_risk":4,"arthritis_risk":5,"migraine_risk":7,"frizz_risk":1,"updated_at":"2026-03-25T10:27:07.496734+05:30"},{"city":"Rohtak","state":"Haryana","latitude":28.8955,"longitude":76.6066,"temp":25.7,"humidity":62,"rain":0.0,"pressure":986.5,"uv_index":6.25,"wind_gusts":21.2,"aqi":389,"pm10":258.0,"pm2_5":71.9,"mosquito_risk":7,"arthritis_risk":5,"migraine_risk":7,"frizz_risk":1,"updated_at":"2026-03-25T10:27:07.496742+05:30"},{"city":"Panipat","state":"Haryana","latitude":29.3909,"longitude":76.9635,"temp":25.8,"humidity":62,"rain":0.0,"pressure":984.7,"uv_index":6.35,"wind_gusts":28.8,"aqi":639,"pm10":242.1,"pm2_5":64.3,"mosquito_risk":7,"arthritis_risk":5,"migraine_risk":7,"frizz_risk":1,"updated_at":"2026-03-25T10:27:07.496748+05:30"},{"city":"Mathura","state":"Uttar Pradesh","latitude":27.4924,"longitude":77.6737,"temp":27.4,"humidity":51,"rain":0.0,"pressure":991.9,"uv_index":6.9,"wind_gusts":21.2,"aqi":503,"pm10":478.7,"pm2_5":101.7,"mosquito_risk":4,"arthritis_risk":5,"migraine_risk":7,"frizz_risk":1,"updated_at":"2026-03-25T10:27:07.496755+05:30"},{"city":"Vrindavan","state":"Uttar Pradesh","latitude":27.5823,"longitude":77.7027,"temp":27.2,"humidity":54,"rain":0.0,"pressure":992.2,"uv_index":6.85,"wind_gusts":24.5,"aqi":503,"pm10":478.7,"pm2_5":101.7,"mosquito_risk":4,"arthritis_risk":5,"migraine_risk":7,"frizz_risk":1,"updated_at":"2026-03-25T10:27:07.496761+05:30"},{"city":"Ayodhya","state":"Uttar Pradesh","latitude":26.7922,"longitude":82.1998,"temp":29.0,"humidity":44,"rain":0.0,"pressure":999.6,"uv_index":7.3,"wind_gusts":35.6,"aqi":99,"pm10":115.0,"pm2_5":47.5,"mosquito_risk":4,"arthritis_risk":5,"migraine_risk":7,"frizz_risk":0,"updated_at":"2026-03-25T10:27:07.496768+05:30"},{"city":"Ratlam","state":"Madhya Pradesh","latitude":23.3315,"longitude":75.0367,"temp":30.0,"humidity":41,"rain":0.0,"pressure":958.1,"uv_index":8.05,"wind_gusts":25.6,"aqi":72,"pm10":33.1,"pm2_5":19.5,"mosquito_risk":4,"arthritis_risk":5,"migraine_risk":7,"frizz_risk":0,"updated_at":"2026-03-25T10:27:07.496775+05:30"},{"city":"Sagar","state":"Madhya Pradesh","latitude":23.8388,"longitude":78.7378,"temp":30.8,"humidity":35,"rain":0.0,"pressure":954.4,"uv_index":8.05,"wind_gusts":22.0,"aqi":61,"pm10":67.8,"pm2_5":19.6,"mosquito_risk":0,"arthritis_risk":5,"migraine_risk":7,"frizz_risk":0,"updated_at":"2026-03-25T10:27:07.496782+05:30"},{"city":"Satna","state":"Madhya Pradesh","latitude":24.6005,"longitude":80.8322,"temp":30.0,"humidity":36,"rain":0.0,"pressure":976.2,"uv_index":7.5,"wind_gusts":27.7,"aqi":75,"pm10":227.2,"pm2_5":39.0,"mosquito_risk":4,"arthritis_risk":5,"migraine_risk":7,"frizz_risk":0,"updated_at":"2026-03-25T10:27:07.496789+05:30"},{"city":"Akola","state":"Maharashtra","latitude":20.7002,"longitude":77.0082,"temp":31.8,"humidity":38,"rain":0.0,"pressure":978.8,"uv_index":8.45,"wind_gusts":23.8,"aqi":56,"pm10":15.3,"pm2_5":12.3,"mosquito_risk":0,"arthritis_risk":5,"migraine_risk":7,"frizz_risk":0,"updated_at":"2026-03-25T10:27:07.496796+05:30"},{"city":"Amravati","state":"Maharashtra","latitude":20.9374,"longitude":77.7796,"temp":32.1,"humidity":36,"rain":0.0,"pressure":970.9,"uv_index":8.45,"wind_gusts":20.2,"aqi":63,"pm10":18.7,"pm2_5":14.9,"mosquito_risk":0,"arthritis_risk":5,"migraine_risk":7,"frizz_risk":0,"updated_at":"2026-03-25T10:27:07.496803+05:30"},{"city":"Latur","state":"Maharashtra","latitude":18.4088,"longitude":76.5604,"temp":30.2,"humidity":52,"rain":0.0,"pressure":943.5,"uv_index":8.8,"wind_gusts":15.5,"aqi":105,"pm10":44.5,"pm2_5":37.0,"mosquito_risk":0,"arthritis_risk":5,"migraine_risk":7,"frizz_risk":1,"updated_at":"2026-03-25T10:27:07.496810+05:30"},{"city":"Nanded","state":"Maharashtra","latitude":19.1383,"longitude":77.3091,"temp":32.6,"humidity":44,"rain":0.0,"pressure":972.3,"uv_index":8.65,"wind_gusts":20.5,"aqi":96,"pm10":48.5,"pm2_5":41.8,"mosquito_risk":0,"arthritis_risk":5,"migraine_risk":7,"frizz_risk":1,"updated_at":"2026-03-25T10:27:07.496817+05:30"},{"city":"Gulbarga","state":"Karnataka","latitude":17.3297,"longitude":76.8343,"temp":31.8,"humidity":45,"rain":0.0,"pressure":962.2,"uv_index":8.85,"wind_gusts":49.0,"aqi":101,"pm10":42.8,"pm2_5":34.5,"mosquito_risk":0,"arthritis_risk":5,"migraine_risk":7,"frizz_risk":1,"updated_at":"2026-03-25T10:27:07.496823+05:30"},{"city":"Bidar","state":"Karnataka","latitude":17.9104,"longitude":77.5199,"temp":30.7,"humidity":46,"rain":0.0,"pressure":939.2,"uv_index":8.85,"wind_gusts":24.8,"aqi":95,"pm10":39.0,"pm2_5":31.9,"mosquito_risk":0,"arthritis_risk":5,"migraine_risk":7,"frizz_risk":1,"updated_at":"2026-03-25T10:27:07.496829+05:30"},{"city":"Hospet","state":"Karnataka","latitude":15.2689,"longitude":76.3909,"temp":29.7,"humidity":54,"rain":0.0,"pressure":959.1,"uv_index":9.05,"wind_gusts":21.2,"aqi":114,"pm10":40.5,"pm2_5":33.4,"mosquito_risk":4,"arthritis_risk":5,"migraine_risk":7,"frizz_risk":1,"updated_at":"2026-03-25T10:27:07.496836+05:30"},{"city":"Tirupur","state":"Tamil Nadu","latitude":11.1085,"longitude":77.3411,"temp":30.2,"humidity":59,"rain":0.0,"pressure":979.0,"uv_index":9.4,"wind_gusts":29.2,"aqi":57,"pm10":10.7,"pm2_5":9.1,"mosquito_risk":0,"arthritis_risk":5,"migraine_risk":7,"frizz_risk":1,"updated_at":"2026-03-25T10:27:07.496842+05:30"},{"city":"Alappuzha","state":"Kerala","latitude":9.4981,"longitude":76.3388,"temp":28.2,"humidity":81,"rain":0.0,"pressure":1011.3,"uv_index":9.15,"wind_gusts":28.1,"aqi":80,"pm10":32.8,"pm2_5":25.3,"mosquito_risk":7,"arthritis_risk":0,"migraine_risk":4,"frizz_risk":1,"updated_at":"2026-03-25T10:27:07.496848+05:30"},{"city":"Munnar","state":"Kerala","latitude":10.0889,"longitude":77.0595,"temp":27.8,"humidity":49,"rain":0.0,"pressure":861.1,"uv_index":9.65,"wind_gusts":31.0,"aqi":56,"pm10":6.0,"pm2_5":5.1,"mosquito_risk":4,"arthritis_risk":5,"migraine_risk":7,"frizz_risk":1,"updated_at":"2026-03-25T10:27:07.496855+05:30"},{"city":"Silchar","state":"Assam","latitude":24.8333,"longitude":92.7789,"temp":24.8,"humidity":74,"rain":0.0,"pressure":1010.8,"uv_index":8.2,"wind_gusts":36.0,"aqi":159,"pm10":88.9,"pm2_5":63.6,"mosquito_risk":3,"arthritis_risk":0,"migraine_risk":4,"frizz_risk":1,"updated_at":"2026-03-25T10:27:07.496862+05:30"},{"city":"Dibrugarh","state":"Assam","latitude":27.4728,"longitude":94.912,"temp":19.4,"humidity":90,"rain":0.1,"pressure":1001.4,"uv_index":5.55,"wind_gusts":27.7,"aqi":75,"pm10":24.4,"pm2_5":19.4,"mosquito_risk":6,"arthritis_risk":10,"migraine_risk":0,"frizz_risk":1,"updated_at":"2026-03-25T10:27:07.496870+05:30"}]