[{"city":"Delhi","state":"Delhi","latitude":28.6139,"longitude":77.209,"temp":33.6,"humidity":34,"rain":0.0,"pressure":980.8,"uv_index":6.65,"wind_gusts":19.8,"aqi":194,"pm10":342.7,"pm2_5":66.6,"mosquito_risk":0,"arthritis_risk":5,"migraine_risk":7,"frizz_risk":0,"updated_at":"2026-04-18T20:12:27.539309+05:30"},{"city":"Mumbai","state":"Maharashtra","latitude":19.076,"longitude":72.8777,"temp":30.5,"humidity":68,"rain":0.0,"pressure":1007.1,"uv_index":7.75,"wind_gusts":22.7,"aqi":121,"pm10":43.1,"pm2_5":28.5,"mosquito_risk":3,"arthritis_risk":5,"migraine_risk":4,"frizz_risk":1,"updated_at":"2026-04-18T20:12:27.539356+05:30"},{"city":"Bangalore","state":"Karnataka","latitude":12.9716,"longitude":77.5946,"temp":30.0,"humidity":34,"rain":0.0,"pressure":911.6,"uv_index":9.0,"wind_gusts":35.3,"aqi":140,"pm10":26.0,"pm2_5":23.6,"mosquito_risk":4,"arthritis_risk":5,"migraine_risk":7,"frizz_risk":0,"updated_at":"2026-04-18T20:12:27.539372+05:30"},{"city":"Hyderabad","state":"Telangana","latitude":17.385,"longitude":78.4867,"temp":31.1,"humidity":43,"rain":0.0,"pressure":953.6,"uv_index":9.25,"wind_gusts":38.5,"aqi":151,"pm10":49.7,"pm2_5":43.0,"mosquito_risk":0,"arthritis_risk":5,"migraine_risk":7,"frizz_risk":1,"updated_at":"2026-04-18T20:12:27.539382+05:30"},{"city":"Chennai","state":"Tamil Nadu","latitude":13.0827,"longitude":80.2707,"temp":29.2,"humidity":77,"rain":0.0,"pressure":1006.6,"uv_index":8.55,"wind_gusts":32.0,"aqi":41,"pm10":11.3,"pm2_5":6.9,"mosquito_risk":7,"arthritis_risk":5,"migraine_risk":4,"frizz_risk":1,"updated_at":"2026-04-18T20:12:27.539390+05:30"},{"city":"Kolkata","state":"West Bengal","latitude":22.5726,"longitude":88.3639,"temp":28.7,"humidity":83,"rain":0.0,"pressure":1004.7,"uv_index":8.85,"wind_gusts":24.1,"aqi":76,"pm10":29.1,"pm2_5":24.0,"mosquito_risk":7,"arthritis_risk":5,"migraine_risk":4,"frizz_risk":1,"updated_at":"2026-04-18T20:12:27.539400+05:30"},{"city":"Pune","state":"Maharashtra","latitude":18.5204,"longitude":73.8567,"temp":32.1,"humidity":44,"rain":0.0,"pressure":948.1,"uv_index":8.45,"wind_gusts":45.0,"aqi":162,"pm10":56.6,"pm2_5":48.2,"mosquito_risk":0,"arthritis_risk":5,"migraine_risk":7,"frizz_risk":1,"updated_at":"2026-04-18T20:12:27.539408+05:30"},{"city":"Ahmedabad","state":"Gujarat","latitude":23.0225,"longitude":72.5714,"temp":34.9,"humidity":19,"rain":0.0,"pressure":1000.4,"uv_index":8.15,"wind_gusts":27.7,"aqi":63,"pm10":37.5,"pm2_5":22.2,"mosquito_risk":0,"arthritis_risk":5,"migraine_risk":4,"frizz_risk":0,"updated_at":"2026-04-18T20:12:27.539415+05:30"},{"city":"Jaipur","state":"Rajasthan","latitude":26.9124,"longitude":75.7873,"temp":34.8,"humidity":18,"rain":0.0,"pressure":958.3,"uv_index":7.95,"wind_gusts":28.1,"aqi":222,"pm10":169.5,"pm2_5":33.9,"mosquito_risk":0,"arthritis_risk":5,"migraine_risk":7,"frizz_risk":0,"updated_at":"2026-04-18T20:12:27.539421+05:30"},{"city":"Lucknow","state":"Uttar Pradesh","latitude":26.8467,"longitude":80.9462,"temp":33.0,"humidity":38,"rain":0.0,"pressure":990.3,"uv_index":7.85,"wind_gusts":32.0,"aqi":123,"pm10":174.2,"pm2_5":43.8,"mosquito_risk":0,"arthritis_risk":5,"migraine_risk":7,"frizz_risk":1,"updated_at":"2026-04-18T20:12:27.539427+05:30"},{"city":"Kanpur","state":"Uttar Pradesh","latitude":26.4499,"longitude":80.3319,"temp":30.9,"humidity":51,"rain":0.0,"pressure":988.9,"uv_index":7.85,"wind_gusts":27.0,"aqi":130,"pm10":321.3,"pm2_5":56.2,"mosquito_risk":0,"arthritis_risk":5,"migraine_risk":7,"frizz_risk":1,"updated_at":"2026-04-18T20:12:27.539433+05:30"},{"city":"Chandigarh","state":"Chandigarh","latitude":30.7333,"longitude":76.7794,"temp":26.9,"humidity":46,"rain":0.0,"pressure":967.4,"uv_index":7.1,"wind_gusts":29.2,"aqi":103,"pm10":47.3,"pm2_5":24.5,"mosquito_risk":4,"arthritis_risk":5,"migraine_risk":7,"frizz_risk":0,"updated_at":"2026-04-18T20:12:27.539439+05:30"},{"city":"Srinagar","state":"Jammu and Kashmir","latitude":34.0837,"longitude":74.7973,"temp":13.3,"humidity":83,"rain":0.0,"pressure":844.3,"uv_index":5.85,"wind_gusts":30.6,"aqi":81,"pm10":34.6,"pm2_5":19.0,"mosquito_risk":3,"arthritis_risk":10,"migraine_risk":3,"frizz_risk":0,"updated_at":"2026-04-18T20:12:27.539445+05:30"},{"city":"Jammu","state":"Jammu and Kashmir","latitude":32.7266,"longitude":74.857,"temp":26.6,"humidity":45,"rain":0.0,"pressure":972.9,"uv_index":7.0,"wind_gusts":42.5,"aqi":84,"pm10":81.0,"pm2_5":33.8,"mosquito_risk":4,"arthritis_risk":5,"migraine_risk":7,"frizz_risk":0,"updated_at":"2026-04-18T20:12:27.539451+05:30"},{"city":"Amritsar","state":"Punjab","latitude":31.634,"longitude":74.8723,"temp":27.7,"humidity":42,"rain":0.0,"pressure":980.4,"uv_index":7.9,"wind_gusts":43.2,"aqi":95,"pm10":54.7,"pm2_5":27.9,"mosquito_risk":4,"arthritis_risk":5,"migraine_risk":7,"frizz_risk":0,"updated_at":"2026-04-18T20:12:27.539457+05:30"},{"city":"Ludhiana","state":"Punjab","latitude":30.901,"longitude":75.8573,"temp":30.9,"humidity":34,"rain":0.0,"pressure":977.8,"uv_index":7.45,"wind_gusts":32.4,"aqi":112,"pm10":63.3,"pm2_5":34.5,"mosquito_risk":0,"arthritis_risk":5,"migraine_risk":7,"frizz_risk":0,"updated_at":"2026-04-18T20:12:27.539464+05:30"},{"city":"Jalandhar","state":"Punjab","latitude":31.326,"longitude":75.5762,"temp":29.4,"humidity":38,"rain":0.0,"pressure":979.2,"uv_index":7.65,"wind_gusts":42.1,"aqi":106,"pm10":80.1,"pm2_5":34.2,"mosquito_risk":4,"arthritis_risk":5,"migraine_risk":7,"frizz_risk":0,"updated_at":"2026-04-18T20:12:27.539469+05:30"},{"city":"Dehradun","state":"Uttarakhand","latitude":30.6284,"longitude":78.0322,"temp":19.0,"humidity":48,"rain":0.0,"pressure":830.7,"uv_index":7.55,"wind_gusts":46.1,"aqi":79,"pm10":30.9,"pm2_5":11.8,"mosquito_risk":0,"arthritis_risk":5,"migraine_risk":7,"frizz_risk":0,"updated_at":"2026-04-18T20:12:27.539475+05:30"},{"city":"Shimla","state":"Himachal Pradesh","latitude":31.1048,"longitude":77.1734,"temp":17.8,"humidity":49,"rain":0.0,"pressure":786.5,"uv_index":7.7,"wind_gusts":47.9,"aqi":94,"pm10":48.8,"pm2_5":19.9,"mosquito_risk":0,"arthritis_risk":5,"migraine_risk":7,"frizz_risk":0,"updated_at":"2026-04-18T20:12:27.539481+05:30"},{"city":"Manali","state":"Himachal Pradesh","latitude":32.2396,"longitude":77.1887,"temp":17.4,"humidity":36,"rain":0.0,"pressure":823.1,"uv_index":8.9,"wind_gusts":25.2,"aqi":99,"pm10":32.4,"pm2_5":9.9,"mosquito_risk":0,"arthritis_risk":5,"migraine_risk":7,"frizz_risk":0,"updated_at":"2026-04-18T20:12:27.539486+05:30"},{"city":"Gurgaon","state":"Haryana","latitude":28.4595,"longitude":77.0266,"temp":30.7,"humidity":48,"rain":0.0,"pressure":978.9,"uv_index":6.9,"wind_gusts":15.8,"aqi":487,"pm10":769.3,"pm2_5":104.1,"mosquito_risk":0,"arthritis_risk":5,"migraine_risk":7,"frizz_risk":1,"updated_at":"2026-04-18T20:12:27.539492+05:30"},{"city":"Noida","state":"Uttar Pradesh","latitude":28.5355,"longitude":77.391,"temp":33.3,"humidity":37,"rain":0.0,"pressure":982.2,"uv_index":6.95,"wind_gusts":22.0,"aqi":487,"pm10":769.3,"pm2_5":104.1,"mosquito_risk":0,"arthritis_risk":5,"migraine_risk":7,"frizz_risk":1,"updated_at":"2026-04-18T20:12:27.539498+05:30"},{"city":"Ghaziabad","state":"Uttar Pradesh","latitude":28.6692,"longitude":77.4538,"temp":32.2,"humidity":41,"rain":0.0,"pressure":980.4,"uv_index":6.65,"wind_gusts":19.4,"aqi":172,"pm10":201.6,"pm2_5":58.3,"mosquito_risk":0,"arthritis_risk":5,"migraine_risk":7,"frizz_risk":1,"updated_at":"2026-04-18T20:12:27.539503+05:30"},{"city":"Faridabad","state":"Haryana","latitude":28.4089,"longitude":77.3178,"temp":32.0,"humidity":39,"rain":0.0,"pressure":981.4,"uv_index":7.25,"wind_gusts":25.2,"aqi":487,"pm10":769.3,"pm2_5":104.1,"mosquito_risk":0,"arthritis_risk":5,"migraine_risk":7,"frizz_risk":1,"updated_at":"2026-04-18T20:12:27.539509+05:30"},{"city":"Meerut","state":"Uttar Pradesh","latitude":28.9845,"longitude":77.7064,"temp":30.4,"humidity":44,"rain":0.0,"pressure":979.2,"uv_index":6.75,"wind_gusts":20.9,"aqi":172,"pm10":201.6,"pm2_5":58.3,"mosquito_risk":0,"arthritis_risk":5,"migraine_risk":7,"frizz_risk":1,"updated_at":"2026-04-18T20:12:27.539514+05:30"},{"city":"Agra","state":"Uttar Pradesh","latitude":27.1767,"longitude":78.0081,"temp":32.3,"humidity":45,"rain":0.0,"pressure":985.2,"uv_index":7.7,"wind_gusts":16.9,"aqi":592,"pm10":284.1,"pm2_5":60.5,"mosquito_risk":0,"arthritis_risk":5,"migraine_risk":7,"frizz_risk":1,"updated_at":"2026-04-18T20:12:27.539522+05:30"},{"city":"Varanasi","state":"Uttar Pradesh","latitude":25.3176,"longitude":82.9739,"temp":32.8,"humidity":35,"rain":0.0,"pressure":994.2,"uv_index":8.25,"wind_gusts":25.6,"aqi":157,"pm10":80.6,"pm2_5":40.9,"mosquito_risk":0,"arthritis_risk":5,"migraine_risk":7,"frizz_risk":0,"updated_at":"2026-04-18T20:12:27.539529+05:30"},{"city":"Prayagraj","state":"Uttar Pradesh","latitude":25.4358,"longitude":81.8463,"temp":34.1,"humidity":37,"rain":0.0,"pressure":992.8,"uv_index":7.85,"wind_gusts":28.8,"aqi":152,"pm10":78.7,"pm2_5":34.6,"mosquito_risk":0,"arthritis_risk":5,"migraine_risk":7,"frizz_risk":1,"updated_at":"2026-04-18T20:12:27.539535+05:30"},{"city":"Gorakhpur","state":"Uttar Pradesh","latitude":26.7606,"longitude":83.3732,"temp":31.8,"humidity":52,"rain":0.0,"pressure":993.9,"uv_index":8.1,"wind_gusts":28.4,"aqi":154,"pm10":40.6,"pm2_5":21.4,"mosquito_risk":0,"arthritis_risk":5,"migraine_risk":7,"frizz_risk":1,"updated_at":"2026-04-18T20:12:27.539540+05:30"},{"city":"Bareilly","state":"Uttar Pradesh","latitude":28.367,"longitude":79.4304,"temp":30.3,"humidity":41,"rain":0.0,"pressure":984.0,"uv_index":7.6,"wind_gusts":31.0,"aqi":140,"pm10":73.8,"pm2_5":31.2,"mosquito_risk":0,"arthritis_risk":5,"migraine_risk":7,"frizz_risk":0,"updated_at":"2026-04-18T20:12:27.539546+05:30"},{"city":"Aligarh","state":"Uttar Pradesh","latitude":27.8974,"longitude":78.088,"temp":32.1,"humidity":34,"rain":0.0,"pressure":983.0,"uv_index":7.35,"wind_gusts":25.6,"aqi":260,"pm10":326.0,"pm2_5":66.8,"mosquito_risk":0,"arthritis_risk":5,"migraine_risk":7,"frizz_risk":0,"updated_at":"2026-04-18T20:12:27.539552+05:30"},{"city":"Moradabad","state":"Uttar Pradesh","latitude":28.8386,"longitude":78.7733,"temp":29.9,"humidity":43,"rain":0.0,"pressure":981.3,"uv_index":7.4,"wind_gusts":28.8,"aqi":145,"pm10":113.6,"pm2_5":44.1,"mosquito_risk":4,"arthritis_risk":5,"migraine_risk":7,"frizz_risk":0,"updated_at":"2026-04-18T20:12:27.539557+05:30"},{"city":"Saharanpur","state":"Uttar Pradesh","latitude":29.9637,"longitude":77.546,"temp":28.4,"humidity":52,"rain":0.0,"pressure":973.8,"uv_index":7.0,"wind_gusts":23.4,"aqi":119,"pm10":107.6,"pm2_5":38.8,"mosquito_risk":4,"arthritis_risk":5,"migraine_risk":7,"frizz_risk":1,"updated_at":"2026-04-18T20:12:27.539562+05:30"},{"city":"Jhansi","state":"Uttar Pradesh","latitude":25.4484,"longitude":78.5685,"temp":32.7,"humidity":31,"rain":0.0,"pressure":975.5,"uv_index":7.85,"wind_gusts":27.0,"aqi":146,"pm10":76.1,"pm2_5":28.8,"mosquito_risk":0,"arthritis_risk":5,"migraine_risk":7,"frizz_risk":0,"updated_at":"2026-04-18T20:12:30.858942+05:30"},{"city":"Surat","state":"Gujarat","latitude":21.1702,"longitude":72.8311,"temp":29.5,"humidity":68,"rain":0.0,"pressure":1005.4,"uv_index":7.8,"wind_gusts":27.0,"aqi":112,"pm10":62.6,"pm2_5":52.0,"mosquito_risk":7,"arthritis_risk":5,"migraine_risk":4,"frizz_risk":1,"updated_at":"2026-04-18T20:12:30.858972+05:30"},{"city":"Vadodara","state":"Gujarat","latitude":22.3072,"longitude":73.1812,"temp":34.5,"humidity":36,"rain":0.0,"pressure":1002.1,"uv_index":8.15,"wind_gusts":19.4,"aqi":124,"pm10":44.8,"pm2_5":31.7,"mosquito_risk":0,"arthritis_risk":5,"migraine_risk":4,"frizz_risk":1,"updated_at":"2026-04-18T20:12:30.858982+05:30"},{"city":"Rajkot","state":"Gujarat","latitude":22.3039,"longitude":70.8022,"temp":32.6,"humidity":20,"rain":0.0,"pressure":993.6,"uv_index":7.8,"wind_gusts":28.1,"aqi":85,"pm10":28.6,"pm2_5":13.8,"mosquito_risk":0,"arthritis_risk":5,"migraine_risk":7,"frizz_risk":0,"updated_at":"2026-04-18T20:12:30.858990+05:30"},{"city":"Thane","state":"Maharashtra","latitude":19.2183,"longitude":72.9781,"temp":29.4,"humidity":67,"rain":0.0,"pressure":1006.5,"uv_index":7.85,"wind_gusts":33.5,"aqi":121,"pm10":43.1,"pm2_5":28.5,"mosquito_risk":7,"arthritis_risk":5,"migraine_risk":4,"frizz_risk":1,"updated_at":"2026-04-18T20:12:30.858997+05:30"},{"city":"Nagpur","state":"Maharashtra","latitude":21.1458,"longitude":79.0882,"temp":33.1,"humidity":36,"rain":0.0,"pressure":970.7,"uv_index":7.6,"wind_gusts":21.6,"aqi":168,"pm10":31.9,"pm2_5":28.9,"mosquito_risk":0,"arthritis_risk":5,"migraine_risk":7,"frizz_risk":0,"updated_at":"2026-04-18T20:12:30.859004+05:30"},{"city":"Nashik","state":"Maharashtra","latitude":19.9975,"longitude":73.7898,"temp":30.6,"humidity":39,"rain":0.0,"pressure":945.6,"uv_index":8.05,"wind_gusts":29.9,"aqi":126,"pm10":30.9,"pm2_5":24.6,"mosquito_risk":0,"arthritis_risk":5,"migraine_risk":7,"frizz_risk":0,"updated_at":"2026-04-18T20:12:30.859012+05:30"},{"city":"Aurangabad","state":"Maharashtra","latitude":19.8762,"longitude":75.3433,"temp":33.0,"humidity":19,"rain":0.0,"pressure":943.8,"uv_index":7.5,"wind_gusts":36.7,"aqi":116,"pm10":18.7,"pm2_5":15.2,"mosquito_risk":0,"arthritis_risk":5,"migraine_risk":7,"frizz_risk":0,"updated_at":"2026-04-18T20:12:30.859019+05:30"},{"city":"Solapur","state":"Maharashtra","latitude":17.6599,"longitude":75.9064,"temp":31.9,"humidity":42,"rain":0.0,"pressure":955.9,"uv_index":7.95,"wind_gusts":19.8,"aqi":173,"pm10":41.6,"pm2_5":36.9,"mosquito_risk":0,"arthritis_risk":5,"migraine_risk":7,"frizz_risk":1,"updated_at":"2026-04-18T20:12:30.859026+05:30"},{"city":"Kolhapur","state":"Maharashtra","latitude":16.705,"longitude":74.2433,"temp":27.8,"humidity":75,"rain":0.0,"pressure":947.8,"uv_index":8.65,"wind_gusts":44.6,"aqi":174,"pm10":39.0,"pm2_5":29.5,"mosquito_risk":7,"arthritis_risk":5,"migraine_risk":7,"frizz_risk":1,"updated_at":"2026-04-18T20:12:30.859033+05:30"},{"city":"Goa","state":"Goa","latitude":15.2993,"longitude":74.124,"temp":29.3,"humidity":76,"rain":0.0,"pressure":996.8,"uv_index":9.0,"wind_gusts":31.3,"aqi":75,"pm10":55.3,"pm2_5":24.8,"mosquito_risk":7,"arthritis_risk":5,"migraine_risk":7,"frizz_risk":1,"updated_at":"2026-04-18T20:12:30.859040+05:30"},{"city":"Jodhpur","state":"Rajasthan","latitude":26.2389,"longitude":73.0243,"temp":33.3,"humidity":22,"rain":0.0,"pressure":981.3,"uv_index":8.15,"wind_gusts":28.1,"aqi":99,"pm10":153.7,"pm2_5":22.2,"mosquito_risk":0,"arthritis_risk":5,"migraine_risk":7,"frizz_risk":0,"updated_at":"2026-04-18T20:12:30.859047+05:30"},{"city":"Udaipur","state":"Rajasthan","latitude":24.5854,"longitude":73.7125,"temp":32.4,"humidity":25,"rain":0.0,"pressure":946.4,"uv_index":8.75,"wind_gusts":29.5,"aqi":90,"pm10":29.7,"pm2_5":11.2,"mosquito_risk":0,"arthritis_risk":5,"migraine_risk":7,"frizz_risk":0,"updated_at":"2026-04-18T20:12:30.859055+05:30"},{"city":"Kota","state":"Rajasthan","latitude":25.2138,"longitude":75.8648,"temp":35.3,"humidity":22,"rain":0.0,"pressure":976.2,"uv_index":8.25,"wind_gusts":23.0,"aqi":172,"pm10":76.1,"pm2_5":33.1,"mosquito_risk":0,"arthritis_risk":5,"migraine_risk":10,"frizz_risk":0,"updated_at":"2026-04-18T20:12:30.859062+05:30"},{"city":"Bikaner","state":"Rajasthan","latitude":28.0229,"longitude":73.3119,"temp":35.6,"humidity":21,"rain":0.0,"pressure":979.7,"uv_index":7.8,"wind_gusts":29.9,"aqi":92,"pm10":41.0,"pm2_5":14.8,"mosquito_risk":0,"arthritis_risk":5,"migraine_risk":10,"frizz_risk":0,"updated_at":"2026-04-18T20:12:30.859070+05:30"},{"city":"Ajmer","state":"Rajasthan","latitude":26.4499,"longitude":74.6399,"temp":31.4,"humidity":26,"rain":0.0,"pressure":953.6,"uv_index":8.15,"wind_gusts":32.0,"aqi":84,"pm10":59.6,"pm2_5":18.0,"mosquito_risk":0,"arthritis_risk":5,"migraine_risk":7,"frizz_risk":0,"updated_at":"2026-04-18T20:12:30.859076+05:30"},{"city":"Gwalior","state":"Madhya Pradesh","latitude":26.2183,"longitude":78.1828,"temp":34.2,"humidity":37,"rain":0.0,"pressure":981.3,"uv_index":7.95,"wind_gusts":28.4,"aqi":127,"pm10":104.8,"pm2_5":31.4,"mosquito_risk":0,"arthritis_risk":5,"migraine_risk":7,"frizz_risk":1,"updated_at":"2026-04-18T20:12:30.859083+05:30"},{"city":"Indore","state":"Madhya Pradesh","latitude":22.7196,"longitude":75.8577,"temp":30.5,"humidity":31,"rain":0.0,"pressure":947.2,"uv_index":8.15,"wind_gusts":25.6,"aqi":98,"pm10":20.2,"pm2_5":18.5,"mosquito_risk":0,"arthritis_risk":5,"migraine_risk":7,"frizz_risk":0,"updated_at":"2026-04-18T20:12:30.859090+05:30"},{"city":"Bhopal","state":"Madhya Pradesh","latitude":23.2599,"longitude":77.4126,"temp":34.1,"humidity":20,"rain":0.0,"pressure":952.2,"uv_index":7.7,"wind_gusts":24.5,"aqi":126,"pm10":23.7,"pm2_5":20.3,"mosquito_risk":0,"arthritis_risk":5,"migraine_risk":7,"frizz_risk":0,"updated_at":"2026-04-18T20:12:30.859097+05:30"},{"city":"Jabalpur","state":"Madhya Pradesh","latitude":23.1815,"longitude":79.9864,"temp":31.9,"humidity":40,"rain":0.0,"pressure":959.4,"uv_index":7.45,"wind_gusts":24.5,"aqi":142,"pm10":24.1,"pm2_5":20.6,"mosquito_risk":0,"arthritis_risk":5,"migraine_risk":7,"frizz_risk":1,"updated_at":"2026-04-18T20:12:30.859104+05:30"},{"city":"Ujjain","state":"Madhya Pradesh","latitude":23.1765,"longitude":75.7885,"temp":31.2,"humidity":31,"rain":0.0,"pressure":952.8,"uv_index":8.5,"wind_gusts":24.1,"aqi":86,"pm10":28.9,"pm2_5":26.5,"mosquito_risk":0,"arthritis_risk":5,"migraine_risk":7,"frizz_risk":0,"updated_at":"2026-04-18T20:12:30.859111+05:30"},{"city":"Visakhapatnam","state":"Andhra Pradesh","latitude":17.6868,"longitude":83.2185,"temp":28.3,"humidity":84,"rain":0.0,"pressure":1003.4,"uv_index":9.15,"wind_gusts":34.2,"aqi":61,"pm10":23.7,"pm2_5":16.7,"mosquito_risk":7,"arthritis_risk":5,"migraine_risk":4,"frizz_risk":1,"updated_at":"2026-04-18T20:12:30.859118+05:30"},{"city":"Vijayawada","state":"Andhra Pradesh","latitude":16.5062,"longitude":80.648,"temp":30.4,"humidity":65,"rain":0.0,"pressure":1001.9,"uv_index":8.8,"wind_gusts":26.3,"aqi":57,"pm10":22.5,"pm2_5":17.9,"mosquito_risk":3,"arthritis_risk":5,"migraine_risk":4,"frizz_risk":1,"updated_at":"2026-04-18T20:12:30.859125+05:30"},{"city":"Guntur","state":"Andhra Pradesh","latitude":16.3067,"longitude":80.4365,"temp":29.4,"humidity":77,"rain":0.0,"pressure":1003.3,"uv_index":8.9,"wind_gusts":29.5,"aqi":62,"pm10":26.3,"pm2_5":21.2,"mosquito_risk":7,"arthritis_risk":5,"migraine_risk":4,"frizz_risk":1,"updated_at":"2026-04-18T20:12:30.859132+05:30"},{"city":"Nellore","state":"Andhra Pradesh","latitude":14.4426,"longitude":79.9865,"temp":29.6,"humidity":69,"rain":0.0,"pressure":1004.7,"uv_index":8.7,"wind_gusts":32.8,"aqi":74,"pm10":13.3,"pm2_5":9.7,"mosquito_risk":7,"arthritis_risk":5,"migraine_risk":4,"frizz_risk":1,"updated_at":"2026-04-18T20:12:30.859140+05:30"},{"city":"Kurnool","state":"Andhra Pradesh","latitude":15.8281,"longitude":78.0373,"temp":36.2,"humidity":30,"rain":0.0,"pressure":974.8,"uv_index":9.2,"wind_gusts":33.8,"aqi":144,"pm10":42.6,"pm2_5":36.2,"mosquito_risk":0,"arthritis_risk":5,"migraine_risk":10,"frizz_risk":0,"updated_at":"2026-04-18T20:12:30.859148+05:30"},{"city":"Kakinada","state":"Andhra Pradesh","latitude":16.9891,"longitude":82.2475,"temp":29.3,"humidity":76,"rain":0.0,"pressure":1007.0,"uv_index":9.1,"wind_gusts":29.9,"aqi":52,"pm10":18.6,"pm2_5":11.3,"mosquito_risk":7,"arthritis_risk":5,"migraine_risk":4,"frizz_risk":1,"updated_at":"2026-04-18T20:12:30.859154+05:30"},{"city":"Tirupati","state":"Andhra Pradesh","latitude":13.6288,"longitude":79.4192,"temp":31.3,"humidity":54,"rain":0.0,"pressure":991.1,"uv_index":9.0,"wind_gusts":32.0,"aqi":93,"pm10":18.7,"pm2_5":16.8,"mosquito_risk":0,"arthritis_risk":5,"migraine_risk":7,"frizz_risk":1,"updated_at":"2026-04-18T20:12:30.859160+05:30"},{"city":"Warangal","state":"Telangana","latitude":17.9689,"longitude":79.5941,"temp":34.4,"humidity":43,"rain":0.0,"pressure":977.1,"uv_index":8.8,"wind_gusts":26.6,"aqi":127,"pm10":41.8,"pm2_5":36.7,"mosquito_risk":0,"arthritis_risk":5,"migraine_risk":7,"frizz_risk":1,"updated_at":"2026-04-18T20:12:30.859167+05:30"},{"city":"Nizamabad","state":"Telangana","latitude":18.6725,"longitude":78.0941,"temp":33.5,"humidity":36,"rain":0.0,"pressure":963.9,"uv_index":8.85,"wind_gusts":37.8,"aqi":161,"pm10":48.3,"pm2_5":39.9,"mosquito_risk":0,"arthritis_risk":5,"migraine_risk":7,"frizz_risk":1,"updated_at":"2026-04-18T20:12:30.859174+05:30"},{"city":"Mysore","state":"Karnataka","latitude":12.2958,"longitude":76.6396,"temp":30.0,"humidity":36,"rain":0.0,"pressure":927.9,"uv_index":9.0,"wind_gusts":40.3,"aqi":137,"pm10":25.3,"pm2_5":22.8,"mosquito_risk":4,"arthritis_risk":5,"migraine_risk":7,"frizz_risk":0,"updated_at":"2026-04-18T20:12:30.859180+05:30"},{"city":"Mangalore","state":"Karnataka","latitude":12.9141,"longitude":74.856,"temp":30.6,"humidity":75,"rain":0.0,"pressure":1005.9,"uv_index":9.1,"wind_gusts":23.0,"aqi":63,"pm10":31.0,"pm2_5":17.0,"mosquito_risk":3,"arthritis_risk":5,"migraine_risk":4,"frizz_risk":1,"updated_at":"2026-04-18T20:12:30.859187+05:30"},{"city":"Hubli-Dharwad","state":"Karnataka","latitude":15.3647,"longitude":75.124,"temp":28.9,"humidity":71,"rain":0.0,"pressure":940.1,"uv_index":9.2,"wind_gusts":39.2,"aqi":128,"pm10":29.3,"pm2_5":24.1,"mosquito_risk":7,"arthritis_risk":5,"migraine_risk":7,"frizz_risk":1,"updated_at":"2026-04-18T20:12:30.859194+05:30"},{"city":"Belgaum","state":"Karnataka","latitude":15.8497,"longitude":74.4977,"temp":26.6,"humidity":84,"rain":0.0,"pressure":925.4,"uv_index":8.85,"wind_gusts":34.2,"aqi":152,"pm10":38.9,"pm2_5":26.7,"mosquito_risk":7,"arthritis_risk":5,"migraine_risk":7,"frizz_risk":1,"updated_at":"2026-04-18T20:12:34.184621+05:30"},{"city":"Coimbatore","state":"Tamil Nadu","latitude":11.0168,"longitude":76.9558,"temp":27.9,"humidity":78,"rain":0.0,"pressure":961.3,"uv_index":9.25,"wind_gusts":31.3,"aqi":140,"pm10":34.6,"pm2_5":29.2,"mosquito_risk":7,"arthritis_risk":5,"migraine_risk":7,"frizz_risk":1,"updated_at":"2026-04-18T20:12:34.184649+05:30"},{"city":"Madurai","state":"Tamil Nadu","latitude":9.9252,"longitude":78.1198,"temp":31.4,"humidity":63,"rain":0.0,"pressure":992.4,"uv_index":9.35,"wind_gusts":34.2,"aqi":107,"pm10":20.4,"pm2_5":17.8,"mosquito_risk":3,"arthritis_risk":5,"migraine_risk":7,"frizz_risk":1,"updated_at":"2026-04-18T20:12:34.184658+05:30"},{"city":"Trichy","state":"Tamil Nadu","latitude":10.7905,"longitude":78.7047,"temp":31.4,"humidity":64,"rain":0.0,"pressure":998.8,"uv_index":9.35,"wind_gusts":18.4,"aqi":75,"pm10":12.8,"pm2_5":11.9,"mosquito_risk":3,"arthritis_risk":5,"migraine_risk":7,"frizz_risk":1,"updated_at":"2026-04-18T20:12:34.184666+05:30"},{"city":"Salem","state":"Tamil Nadu","latitude":11.6643,"longitude":78.146,"temp":31.7,"humidity":49,"rain":0.0,"pressure":976.3,"uv_index":9.25,"wind_gusts":19.8,"aqi":113,"pm10":21.4,"pm2_5":17.1,"mosquito_risk":0,"arthritis_risk":5,"migraine_risk":7,"frizz_risk":1,"updated_at":"2026-04-18T20:12:34.184675+05:30"},{"city":"Tirunelveli","state":"Tamil Nadu","latitude":8.7139,"longitude":77.7567,"temp":30.7,"humidity":62,"rain":0.0,"pressure":1002.3,"uv_index":9.25,"wind_gusts":50.4,"aqi":119,"pm10":22.1,"pm2_5":20.0,"mosquito_risk":3,"arthritis_risk":5,"migraine_risk":4,"frizz_risk":1,"updated_at":"2026-04-18T20:12:34.184683+05:30"},{"city":"Vellore","state":"Tamil Nadu","latitude":12.9165,"longitude":79.1325,"temp":29.5,"humidity":61,"rain":0.0,"pressure":984.1,"uv_index":8.9,"wind_gusts":25.6,"aqi":99,"pm10":25.3,"pm2_5":23.5,"mosquito_risk":7,"arthritis_risk":5,"migraine_risk":7,"frizz_risk":1,"updated_at":"2026-04-18T20:12:34.184691+05:30"},{"city":"Erode","state":"Tamil Nadu","latitude":11.341,"longitude":77.7172,"temp":34.2,"humidity":36,"rain":0.0,"pressure":987.5,"uv_index":9.35,"wind_gusts":24.8,"aqi":102,"pm10":21.5,"pm2_5":17.2,"mosquito_risk":0,"arthritis_risk":5,"migraine_risk":7,"frizz_risk":1,"updated_at":"2026-04-18T20:12:34.184698+05:30"},{"city":"Kochi","state":"Kerala","latitude":9.9312,"longitude":76.2673,"temp":29.9,"humidity":81,"rain":0.0,"pressure":1007.8,"uv_index":9.15,"wind_gusts":31.3,"aqi":81,"pm10":28.9,"pm2_5":21.3,"mosquito_risk":7,"arthritis_risk":5,"migraine_risk":4,"frizz_risk":1,"updated_at":"2026-04-18T20:12:34.184706+05:30"},{"city":"Thiruvananthapuram","state":"Kerala","latitude":8.5241,"longitude":76.9366,"temp":29.1,"humidity":82,"rain":0.0,"pressure":1007.6,"uv_index":9.1,"wind_gusts":27.0,"aqi":78,"pm10":30.5,"pm2_5":19.3,"mosquito_risk":7,"arthritis_risk":5,"migraine_risk":4,"frizz_risk":1,"updated_at":"2026-04-18T20:12:34.184714+05:30"},{"city":"Kozhikode","state":"Kerala","latitude":11.2588,"longitude":75.7804,"temp":30.5,"humidity":79,"rain":0.0,"pressure":1006.9,"uv_index":9.05,"wind_gusts":33.1,"aqi":70,"pm10":23.7,"pm2_5":15.8,"mosquito_risk":3,"arthritis_risk":5,"migraine_risk":4,"frizz_risk":1,"updated_at":"2026-04-18T20:12:34.184721+05:30"},{"city":"Thrissur","state":"Kerala","latitude":10.5276,"longitude":76.2144,"temp":30.2,"humidity":77,"rain":0.0,"pressure":1006.1,"uv_index":8.65,"wind_gusts":36.4,"aqi":77,"pm10":24.3,"pm2_5":18.9,"mosquito_risk":3,"arthritis_risk":5,"migraine_risk":4,"frizz_risk":1,"updated_at":"2026-04-18T20:12:34.184758+05:30"},{"city":"Kannur","state":"Kerala","latitude":11.8745,"longitude":75.3704,"temp":30.2,"humidity":74,"rain":0.0,"pressure":1006.3,"uv_index":8.6,"wind_gusts":34.6,"aqi":69,"pm10":27.8,"pm2_5":18.9,"mosquito_risk":3,"arthritis_risk":5,"migraine_risk":4,"frizz_risk":1,"updated_at":"2026-04-18T20:12:34.184766+05:30"},{"city":"Patna","state":"Bihar","latitude":25.5941,"longitude":85.1376,"temp":32.5,"humidity":60,"rain":0.0,"pressure":997.6,"uv_index":8.6,"wind_gusts":24.5,"aqi":176,"pm10":63.6,"pm2_5":38.9,"mosquito_risk":0,"arthritis_risk":5,"migraine_risk":7,"frizz_risk":1,"updated_at":"2026-04-18T20:12:34.184773+05:30"},{"city":"Gaya","state":"Bihar","latitude":24.7914,"longitude":85.0002,"temp":33.9,"humidity":36,"rain":0.0,"pressure":991.1,"uv_index":8.65,"wind_gusts":28.4,"aqi":163,"pm10":66.4,"pm2_5":32.0,"mosquito_risk":0,"arthritis_risk":5,"migraine_risk":7,"frizz_risk":1,"updated_at":"2026-04-18T20:12:34.184780+05:30"},{"city":"Muzaffarpur","state":"Bihar","latitude":26.1209,"longitude":85.3647,"temp":29.8,"humidity":73,"rain":0.0,"pressure":998.0,"uv_index":8.6,"wind_gusts":31.0,"aqi":180,"pm10":74.7,"pm2_5":56.7,"mosquito_risk":7,"arthritis_risk":5,"migraine_risk":7,"frizz_risk":1,"updated_at":"2026-04-18T20:12:34.184787+05:30"},{"city":"Bhagalpur","state":"Bihar","latitude":25.2425,"longitude":87.0117,"temp":28.4,"humidity":86,"rain":0.0,"pressure":999.6,"uv_index":8.25,"wind_gusts":24.8,"aqi":175,"pm10":53.1,"pm2_5":47.8,"mosquito_risk":7,"arthritis_risk":5,"migraine_risk":7,"frizz_risk":1,"updated_at":"2026-04-18T20:12:34.184795+05:30"},{"city":"Ranchi","state":"Jharkhand","latitude":23.3441,"longitude":85.3096,"temp":32.2,"humidity":24,"rain":0.0,"pressure":937.3,"uv_index":9.15,"wind_gusts":42.1,"aqi":136,"pm10":51.5,"pm2_5":23.3,"mosquito_risk":0,"arthritis_risk":5,"migraine_risk":7,"frizz_risk":0,"updated_at":"2026-04-18T20:12:34.184802+05:30"},{"city":"Jamshedpur","state":"Jharkhand","latitude":22.8046,"longitude":86.2029,"temp":32.4,"humidity":63,"rain":0.0,"pressure":988.6,"uv_index":8.9,"wind_gusts":37.1,"aqi":189,"pm10":59.3,"pm2_5":41.6,"mosquito_risk":3,"arthritis_risk":5,"migraine_risk":7,"frizz_risk":1,"updated_at":"2026-04-18T20:12:34.184810+05:30"},{"city":"Dhanbad","state":"Jharkhand","latitude":23.7957,"longitude":86.4304,"temp":33.0,"humidity":50,"rain":0.0,"pressure":978.3,"uv_index":8.95,"wind_gusts":26.6,"aqi":203,"pm10":103.6,"pm2_5":73.6,"mosquito_risk":0,"arthritis_risk":5,"migraine_risk":7,"frizz_risk":1,"updated_at":"2026-04-18T20:12:34.184817+05:30"},{"city":"Bokaro","state":"Jharkhand","latitude":23.6693,"longitude":86.1511,"temp":32.3,"humidity":52,"rain":0.0,"pressure":982.1,"uv_index":8.95,"wind_gusts":40.0,"aqi":185,"pm10":87.3,"pm2_5":55.9,"mosquito_risk":0,"arthritis_risk":5,"migraine_risk":7,"frizz_risk":1,"updated_at":"2026-04-18T20:12:34.184824+05:30"},{"city":"Bhubaneswar","state":"Odisha","latitude":20.2961,"longitude":85.8245,"temp":27.6,"humidity":87,"rain":0.0,"pressure":1001.6,"uv_index":8.65,"wind_gusts":29.9,"aqi":58,"pm10":21.4,"pm2_5":17.1,"mosquito_risk":7,"arthritis_risk":5,"migraine_risk":4,"frizz_risk":1,"updated_at":"2026-04-18T20:12:34.184831+05:30"},{"city":"Cuttack","state":"Odisha","latitude":20.4625,"longitude":85.8828,"temp":28.7,"humidity":81,"rain":0.0,"pressure":1003.2,"uv_index":8.9,"wind_gusts":29.2,"aqi":58,"pm10":21.4,"pm2_5":17.1,"mosquito_risk":7,"arthritis_risk":5,"migraine_risk":4,"frizz_risk":1,"updated_at":"2026-04-18T20:12:34.184839+05:30"},{"city":"Rourkela","state":"Odisha","latitude":22.2604,"longitude":84.8536,"temp":34.3,"humidity":44,"rain":0.0,"pressure":982.4,"uv_index":8.65,"wind_gusts":28.1,"aqi":158,"pm10":77.5,"pm2_5":39.7,"mosquito_risk":0,"arthritis_risk":5,"migraine_risk":7,"frizz_risk":1,"updated_at":"2026-04-18T20:12:34.184846+05:30"},{"city":"Raipur","state":"Chhattisgarh","latitude":21.2514,"longitude":81.6296,"temp":33.3,"humidity":43,"rain":0.0,"pressure":973.6,"uv_index":8.85,"wind_gusts":31.3,"aqi":215,"pm10":88.7,"pm2_5":62.4,"mosquito_risk":0,"arthritis_risk":5,"migraine_risk":7,"frizz_risk":1,"updated_at":"2026-04-18T20:12:34.184854+05:30"},{"city":"Bhilai","state":"Chhattisgarh","latitude":21.1938,"longitude":81.3509,"temp":32.9,"humidity":45,"rain":0.0,"pressure":973.7,"uv_index":8.5,"wind_gusts":36.4,"aqi":216,"pm10":92.0,"pm2_5":61.7,"mosquito_risk":0,"arthritis_risk":5,"migraine_risk":7,"frizz_risk":1,"updated_at":"2026-04-18T20:12:34.184860+05:30"},{"city":"Guwahati","state":"Assam","latitude":26.1158,"longitude":91.7086,"temp":25.5,"humidity":89,"rain":0.0,"pressure":1002.3,"uv_index":8.5,"wind_gusts":22.7,"aqi":134,"pm10":68.7,"pm2_5":61.0,"mosquito_risk":7,"arthritis_risk":5,"migraine_risk":4,"frizz_risk":1,"updated_at":"2026-04-18T20:12:34.184867+05:30"},{"city":"Agartala","state":"Tripura","latitude":23.8315,"longitude":91.2868,"temp":28.2,"humidity":80,"rain":0.0,"pressure":1005.7,"uv_index":8.7,"wind_gusts":16.9,"aqi":135,"pm10":65.4,"pm2_5":58.4,"mosquito_risk":7,"arthritis_risk":5,"migraine_risk":4,"frizz_risk":1,"updated_at":"2026-04-18T20:12:34.184874+05:30"},{"city":"Shillong","state":"Meghalaya","latitude":25.5788,"longitude":91.8933,"temp":15.5,"humidity":92,"rain":0.0,"pressure":857.1,"uv_index":6.85,"wind_gusts":34.2,"aqi":125,"pm10":60.8,"pm2_5":51.3,"mosquito_risk":3,"arthritis_risk":10,"migraine_risk":7,"frizz_risk":0,"updated_at":"2026-04-18T20:12:34.184881+05:30"},{"city":"Imphal","state":"Manipur","latitude":24.817,"longitude":93.9368,"temp":20.8,"humidity":69,"rain":0.0,"pressure":924.2,"uv_index":9.1,"wind_gusts":46.4,"aqi":154,"pm10":65.2,"pm2_5":51.7,"mosquito_risk":3,"arthritis_risk":5,"migraine_risk":7,"frizz_risk":0,"updated_at":"2026-04-18T20:12:34.184887+05:30"},{"city":"Aizawl","state":"Mizoram","latitude":23.7271,"longitude":92.7176,"temp":22.5,"humidity":73,"rain":0.0,"pressure":893.6,"uv_index":8.95,"wind_gusts":34.6,"aqi":121,"pm10":66.8,"pm2_5":49.4,"mosquito_risk":3,"arthritis_risk":5,"migraine_risk":7,"frizz_risk":1,"updated_at":"2026-04-18T20:12:34.184893+05:30"},{"city":"Kohima","state":"Nagaland","latitude":25.6701,"longitude":94.1077,"temp":16.6,"humidity":97,"rain":0.0,"pressure":855.9,"uv_index":9.0,"wind_gusts":48.6,"aqi":137,"pm10":48.0,"pm2_5":37.3,"mosquito_risk":3,"arthritis_risk":10,"migraine_risk":7,"frizz_risk":1,"updated_at":"2026-04-18T20:12:34.184898+05:30"},{"city":"Gangtok","state":"Sikkim","latitude":27.3314,"longitude":88.6138,"temp":17.2,"humidity":94,"rain":0.0,"pressure":838.2,"uv_index":8.85,"wind_gusts":19.1,"aqi":117,"pm10":53.2,"pm2_5":40.6,"mosquito_risk":3,"arthritis_risk":10,"migraine_risk":7,"frizz_risk":1,"updated_at":"2026-04-18T20:12:34.184904+05:30"},{"city":"Siliguri","state":"West Bengal","latitude":26.7271,"longitude":88.3953,"temp":22.3,"humidity":92,"rain":0.0,"pressure":994.3,"uv_index":8.05,"wind_gusts":20.9,"aqi":159,"pm10":85.7,"pm2_5":65.0,"mosquito_risk":3,"arthritis_risk":5,"migraine_risk":7,"frizz_risk":1,"updated_at":"2026-04-18T20:12:37.518861+05:30"},{"city":"Durgapur","state":"West Bengal","latitude":23.5204,"longitude":87.3119,"temp":27.8,"humidity":79,"rain":0.0,"pressure":993.7,"uv_index":8.85,"wind_gusts":37.1,"aqi":175,"pm10":55.4,"pm2_5":50.9,"mosquito_risk":7,"arthritis_risk":5,"migraine_risk":7,"frizz_risk":1,"updated_at":"2026-04-18T20:12:37.518890+05:30"},{"city":"Asansol","state":"West Bengal","latitude":23.6739,"longitude":86.9524,"temp":29.0,"humidity":72,"rain":0.0,"pressure":992.2,"uv_index":8.9,"wind_gusts":30.6,"aqi":192,"pm10":78.7,"pm2_5":62.4,"mosquito_risk":7,"arthritis_risk":5,"migraine_risk":7,"frizz_risk":1,"updated_at":"2026-04-18T20:12:37.518899+05:30"},{"city":"Pondicherry","state":"Puducherry","latitude":11.9139,"longitude":79.8145,"temp":28.2,"humidity":80,"rain":0.0,"pressure":1007.9,"uv_index":9.25,"wind_gusts":27.0,"aqi":35,"pm10":9.8,"pm2_5":5.7,"mosquito_risk":7,"arthritis_risk":5,"migraine_risk":4,"frizz_risk":1,"updated_at":"2026-04-18T20:12:37.518907+05:30"},{"city":"Port Blair","state":"Andaman and Nicobar Islands","latitude":11.6234,"longitude":92.7265,"temp":29.6,"humidity":74,"rain":0.0,"pressure":1007.4,"uv_index":9.2,"wind_gusts":16.6,"aqi":53,"pm10":20.8,"pm2_5":15.9,"mosquito_risk":7,"arthritis_risk":5,"migraine_risk":4,"frizz_risk":1,"updated_at":"2026-04-18T20:12:37.518916+05:30"},{"city":"Haridwar","state":"Uttarakhand","latitude":29.9457,"longitude":78.1642,"temp":28.4,"humidity":52,"rain":0.0,"pressure":972.6,"uv_index":6.6,"wind_gusts":34.6,"aqi":104,"pm10":50.6,"pm2_5":23.7,"mosquito_risk":4,"arthritis_risk":5,"migraine_risk":7,"frizz_risk":1,"updated_at":"2026-04-18T20:12:37.518923+05:30"},{"city":"Rishikesh","state":"Uttarakhand","latitude":30.0869,"longitude":78.2676,"temp":26.5,"humidity":60,"rain":0.0,"pressure":965.7,"uv_index":6.85,"wind_gusts":38.2,"aqi":91,"pm10":43.3,"pm2_5":16.1,"mosquito_risk":4,"arthritis_risk":5,"migraine_risk":7,"frizz_risk":1,"updated_at":"2026-04-18T20:12:37.518931+05:30"},{"city":"Nainital","state":"Uttarakhand","latitude":29.3919,"longitude":79.4542,"temp":24.6,"humidity":31,"rain":0.0,"pressure":808.3,"uv_index":8.05,"wind_gusts":69.1,"aqi":107,"pm10":42.1,"pm2_5":19.4,"mosquito_risk":0,"arthritis_risk":5,"migraine_risk":7,"frizz_risk":0,"updated_at":"2026-04-18T20:12:37.518938+05:30"},{"city":"Mussoorie","state":"Uttarakhand","latitude":30.4599,"longitude":78.0664,"temp":21.3,"humidity":52,"rain":0.0,"pressure":804.3,"uv_index":7.4,"wind_gusts":51.5,"aqi":98,"pm10":49.6,"pm2_5":20.5,"mosquito_risk":0,"arthritis_risk":5,"migraine_risk":7,"frizz_risk":0,"updated_at":"2026-04-18T20:12:37.518946+05:30"},{"city":"Dharamshala","state":"Himachal Pradesh","latitude":32.219,"longitude":76.3234,"temp":23.9,"humidity":40,"rain":0.0,"pressure":870.7,"uv_index":7.45,"wind_gusts":38.9,"aqi":81,"pm10":42.6,"pm2_5":13.6,"mosquito_risk":0,"arthritis_risk":5,"migraine_risk":7,"frizz_risk":0,"updated_at":"2026-04-18T20:12:37.518953+05:30"},{"city":"Dalhousie","state":"Himachal Pradesh","latitude":32.5387,"longitude":75.971,"temp":20.2,"humidity":39,"rain":0.0,"pressure":805.6,"uv_index":6.8,"wind_gusts":39.6,"aqi":86,"pm10":58.3,"pm2_5":20.0,"mosquito_risk":0,"arthritis_risk":5,"migraine_risk":7,"frizz_risk":0,"updated_at":"2026-04-18T20:12:37.518961+05:30"},{"city":"Patiala","state":"Punjab","latitude":30.3398,"longitude":76.3869,"temp":29.0,"humidity":42,"rain":0.0,"pressure":976.7,"uv_index":7.1,"wind_gusts":19.4,"aqi":120,"pm10":137.4,"pm2_5":44.6,"mosquito_risk":4,"arthritis_risk":5,"migraine_risk":7,"frizz_risk":0,"updated_at":"2026-04-18T20:12:37.518968+05:30"},{"city":"Bhatinda","state":"Punjab","latitude":30.211,"longitude":74.9455,"temp":32.2,"humidity":30,"rain":0.0,"pressure":982.1,"uv_index":7.75,"wind_gusts":36.7,"aqi":146,"pm10":103.8,"pm2_5":36.0,"mosquito_risk":0,"arthritis_risk":5,"migraine_risk":7,"frizz_risk":0,"updated_at":"2026-04-18T20:12:37.518974+05:30"},{"city":"Rohtak","state":"Haryana","latitude":28.8955,"longitude":76.6066,"temp":29.5,"humidity":53,"rain":0.0,"pressure":979.4,"uv_index":6.95,"wind_gusts":14.4,"aqi":368,"pm10":393.0,"pm2_5":65.7,"mosquito_risk":4,"arthritis_risk":5,"migraine_risk":7,"frizz_risk":1,"updated_at":"2026-04-18T20:12:37.518981+05:30"},{"city":"Panipat","state":"Haryana","latitude":29.3909,"longitude":76.9635,"temp":29.2,"humidity":47,"rain":0.0,"pressure":978.3,"uv_index":6.6,"wind_gusts":12.2,"aqi":546,"pm10":495.5,"pm2_5":77.1,"mosquito_risk":4,"arthritis_risk":5,"migraine_risk":7,"frizz_risk":1,"updated_at":"2026-04-18T20:12:37.518987+05:30"},{"city":"Mathura","state":"Uttar Pradesh","latitude":27.4924,"longitude":77.6737,"temp":34.0,"humidity":35,"rain":0.0,"pressure":984.1,"uv_index":7.65,"wind_gusts":22.7,"aqi":468,"pm10":174.6,"pm2_5":46.0,"mosquito_risk":0,"arthritis_risk":5,"migraine_risk":7,"frizz_risk":1,"updated_at":"2026-04-18T20:12:37.518993+05:30"},{"city":"Vrindavan","state":"Uttar Pradesh","latitude":27.5823,"longitude":77.7027,"temp":33.7,"humidity":35,"rain":0.0,"pressure":984.6,"uv_index":7.6,"wind_gusts":24.8,"aqi":468,"pm10":174.6,"pm2_5":46.0,"mosquito_risk":0,"arthritis_risk":5,"migraine_risk":7,"frizz_risk":1,"updated_at":"2026-04-18T20:12:37.518999+05:30"},{"city":"Ayodhya","state":"Uttar Pradesh","latitude":26.7922,"longitude":82.1998,"temp":32.4,"humidity":37,"rain":0.0,"pressure":991.8,"uv_index":7.75,"wind_gusts":36.7,"aqi":123,"pm10":65.4,"pm2_5":24.6,"mosquito_risk":0,"arthritis_risk":5,"migraine_risk":7,"frizz_risk":0,"updated_at":"2026-04-18T20:12:37.519005+05:30"},{"city":"Ratlam","state":"Madhya Pradesh","latitude":23.3315,"longitude":75.0367,"temp":30.6,"humidity":45,"rain":0.0,"pressure":953.6,"uv_index":8.3,"wind_gusts":24.1,"aqi":86,"pm10":21.5,"pm2_5":17.9,"mosquito_risk":0,"arthritis_risk":5,"migraine_risk":7,"frizz_risk":1,"updated_at":"2026-04-18T20:12:37.519010+05:30"},{"city":"Sagar","state":"Madhya Pradesh","latitude":23.8388,"longitude":78.7378,"temp":34.0,"humidity":31,"rain":0.0,"pressure":948.5,"uv_index":7.85,"wind_gusts":29.9,"aqi":130,"pm10":20.4,"pm2_5":16.4,"mosquito_risk":0,"arthritis_risk":5,"migraine_risk":7,"frizz_risk":0,"updated_at":"2026-04-18T20:12:37.519016+05:30"},{"city":"Satna","state":"Madhya Pradesh","latitude":24.6005,"longitude":80.8322,"temp":34.5,"humidity":23,"rain":0.0,"pressure":969.1,"uv_index":8.5,"wind_gusts":28.8,"aqi":136,"pm10":56.5,"pm2_5":20.4,"mosquito_risk":0,"arthritis_risk":5,"migraine_risk":7,"frizz_risk":0,"updated_at":"2026-04-18T20:12:37.519021+05:30"},{"city":"Akola","state":"Maharashtra","latitude":20.7002,"longitude":77.0082,"temp":34.2,"humidity":28,"rain":0.0,"pressure":973.4,"uv_index":8.7,"wind_gusts":31.7,"aqi":121,"pm10":28.5,"pm2_5":24.0,"mosquito_risk":0,"arthritis_risk":5,"migraine_risk":7,"frizz_risk":0,"updated_at":"2026-04-18T20:12:37.519027+05:30"},{"city":"Amravati","state":"Maharashtra","latitude":20.9374,"longitude":77.7796,"temp":32.0,"humidity":28,"rain":0.0,"pressure":965.3,"uv_index":8.2,"wind_gusts":23.4,"aqi":123,"pm10":30.9,"pm2_5":25.9,"mosquito_risk":0,"arthritis_risk":5,"migraine_risk":7,"frizz_risk":0,"updated_at":"2026-04-18T20:12:37.519034+05:30"},{"city":"Latur","state":"Maharashtra","latitude":18.4088,"longitude":76.5604,"temp":30.7,"humidity":49,"rain":0.0,"pressure":939.2,"uv_index":9.1,"wind_gusts":16.6,"aqi":155,"pm10":33.4,"pm2_5":29.1,"mosquito_risk":0,"arthritis_risk":5,"migraine_risk":7,"frizz_risk":1,"updated_at":"2026-04-18T20:12:37.519039+05:30"},{"city":"Nanded","state":"Maharashtra","latitude":19.1383,"longitude":77.3091,"temp":33.1,"humidity":40,"rain":0.0,"pressure":967.0,"uv_index":8.85,"wind_gusts":18.0,"aqi":150,"pm10":48.0,"pm2_5":39.5,"mosquito_risk":0,"arthritis_risk":5,"migraine_risk":7,"frizz_risk":1,"updated_at":"2026-04-18T20:12:37.519044+05:30"},{"city":"Gulbarga","state":"Karnataka","latitude":17.3297,"longitude":76.8343,"temp":33.2,"humidity":39,"rain":0.0,"pressure":958.1,"uv_index":9.0,"wind_gusts":49.3,"aqi":178,"pm10":38.2,"pm2_5":34.2,"mosquito_risk":0,"arthritis_risk":5,"migraine_risk":7,"frizz_risk":1,"updated_at":"2026-04-18T20:12:37.519050+05:30"},{"city":"Bidar","state":"Karnataka","latitude":17.9104,"longitude":77.5199,"temp":29.4,"humidity":52,"rain":0.0,"pressure":935.7,"uv_index":9.0,"wind_gusts":28.1,"aqi":163,"pm10":44.8,"pm2_5":39.5,"mosquito_risk":4,"arthritis_risk":5,"migraine_risk":7,"frizz_risk":1,"updated_at":"2026-04-18T20:12:37.519055+05:30"},{"city":"Hospet","state":"Karnataka","latitude":15.2689,"longitude":76.3909,"temp":33.9,"humidity":43,"rain":0.0,"pressure":954.3,"uv_index":9.25,"wind_gusts":20.9,"aqi":159,"pm10":44.0,"pm2_5":38.4,"mosquito_risk":0,"arthritis_risk":5,"migraine_risk":7,"frizz_risk":1,"updated_at":"2026-04-18T20:12:37.519061+05:30"},{"city":"Tirupur","state":"Tamil Nadu","latitude":11.1085,"longitude":77.3411,"temp":33.8,"humidity":26,"rain":0.0,"pressure":974.1,"uv_index":9.3,"wind_gusts":31.3,"aqi":127,"pm10":28.2,"pm2_5":21.8,"mosquito_risk":0,"arthritis_risk":5,"migraine_risk":7,"frizz_risk":0,"updated_at":"2026-04-18T20:12:37.519066+05:30"},{"city":"Alappuzha","state":"Kerala","latitude":9.4981,"longitude":76.3388,"temp":29.9,"humidity":81,"rain":0.0,"pressure":1008.0,"uv_index":9.1,"wind_gusts":26.6,"aqi":88,"pm10":33.5,"pm2_5":22.5,"mosquito_risk":7,"arthritis_risk":0,"migraine_risk":4,"frizz_risk":1,"updated_at":"2026-04-18T20:12:37.519071+05:30"},{"city":"Munnar","state":"Kerala","latitude":10.0889,"longitude":77.0595,"temp":23.7,"humidity":84,"rain":0.0,"pressure":857.4,"uv_index":9.7,"wind_gusts":23.8,"aqi":90,"pm10":32.2,"pm2_5":27.0,"mosquito_risk":3,"arthritis_risk":5,"migraine_risk":7,"frizz_risk":1,"updated_at":"2026-04-18T20:12:37.519076+05:30"},{"city":"Silchar","state":"Assam","latitude":24.8333,"longitude":92.7789,"temp":28.8,"humidity":72,"rain":0.0,"pressure":1005.0,"uv_index":8.75,"wind_gusts":19.1,"aqi":158,"pm10":104.5,"pm2_5":84.8,"mosquito_risk":7,"arthritis_risk":5,"migraine_risk":4,"frizz_risk":1,"updated_at":"2026-04-18T20:12:37.519082+05:30"},{"city":"Dibrugarh","state":"Assam","latitude":27.4728,"longitude":94.912,"temp":27.3,"humidity":79,"rain":0.0,"pressure":995.7,"uv_index":8.65,"wind_gusts":13.7,"aqi":122,"pm10":73.1,"pm2_5":56.5,"mosquito_risk":7,"arthritis_risk":5,"migraine_risk":7,"frizz_risk":1,"updated_at":"2026-04-18T20:12:37.519087+05:30"}]