[{"city":"Delhi","state":"Delhi","latitude":28.6139,"longitude":77.209,"temp":29.5,"humidity":41,"rain":0.0,"pressure":985.9,"uv_index":5.8,"wind_gusts":32.8,"aqi":188,"pm10":319.4,"pm2_5":88.0,"mosquito_risk":4,"arthritis_risk":5,"migraine_risk":3,"frizz_risk":0,"updated_at":"2026-03-12T10:19:40.788369+05:30"},{"city":"Mumbai","state":"Maharashtra","latitude":19.076,"longitude":72.8777,"temp":27.5,"humidity":85,"rain":0.0,"pressure":1011.1,"uv_index":7.6,"wind_gusts":26.6,"aqi":155,"pm10":95.0,"pm2_5":89.9,"mosquito_risk":7,"arthritis_risk":0,"migraine_risk":4,"frizz_risk":1,"updated_at":"2026-03-12T10:19:40.788411+05:30"},{"city":"Bangalore","state":"Karnataka","latitude":12.9716,"longitude":77.5946,"temp":27.3,"humidity":46,"rain":0.0,"pressure":915.6,"uv_index":9.3,"wind_gusts":31.7,"aqi":67,"pm10":21.2,"pm2_5":20.0,"mosquito_risk":4,"arthritis_risk":5,"migraine_risk":7,"frizz_risk":0,"updated_at":"2026-03-12T10:19:40.788426+05:30"},{"city":"Hyderabad","state":"Telangana","latitude":17.385,"longitude":78.4867,"temp":31.8,"humidity":35,"rain":0.0,"pressure":957.6,"uv_index":8.65,"wind_gusts":23.0,"aqi":97,"pm10":37.1,"pm2_5":29.2,"mosquito_risk":0,"arthritis_risk":5,"migraine_risk":7,"frizz_risk":0,"updated_at":"2026-03-12T10:19:40.788436+05:30"},{"city":"Chennai","state":"Tamil Nadu","latitude":13.0827,"longitude":80.2707,"temp":31.2,"humidity":58,"rain":0.0,"pressure":1011.2,"uv_index":9.05,"wind_gusts":29.2,"aqi":72,"pm10":30.2,"pm2_5":26.2,"mosquito_risk":0,"arthritis_risk":0,"migraine_risk":4,"frizz_risk":1,"updated_at":"2026-03-12T10:19:40.788445+05:30"},{"city":"Kolkata","state":"West Bengal","latitude":22.5726,"longitude":88.3639,"temp":28.5,"humidity":73,"rain":0.0,"pressure":1009.9,"uv_index":8.0,"wind_gusts":20.9,"aqi":134,"pm10":48.2,"pm2_5":39.7,"mosquito_risk":7,"arthritis_risk":0,"migraine_risk":4,"frizz_risk":1,"updated_at":"2026-03-12T10:19:40.788454+05:30"},{"city":"Pune","state":"Maharashtra","latitude":18.5204,"longitude":73.8567,"temp":33.6,"humidity":28,"rain":0.0,"pressure":952.4,"uv_index":8.15,"wind_gusts":25.9,"aqi":146,"pm10":70.1,"pm2_5":64.0,"mosquito_risk":0,"arthritis_risk":5,"migraine_risk":7,"frizz_risk":0,"updated_at":"2026-03-12T10:19:40.788466+05:30"},{"city":"Ahmedabad","state":"Gujarat","latitude":23.0225,"longitude":72.5714,"temp":30.9,"humidity":36,"rain":0.0,"pressure":1006.9,"uv_index":7.45,"wind_gusts":28.4,"aqi":71,"pm10":22.1,"pm2_5":20.8,"mosquito_risk":0,"arthritis_risk":5,"migraine_risk":4,"frizz_risk":0,"updated_at":"2026-03-12T10:19:40.788473+05:30"},{"city":"Jaipur","state":"Rajasthan","latitude":26.9124,"longitude":75.7873,"temp":31.1,"humidity":20,"rain":0.0,"pressure":964.1,"uv_index":6.1,"wind_gusts":43.2,"aqi":101,"pm10":177.0,"pm2_5":34.1,"mosquito_risk":0,"arthritis_risk":5,"migraine_risk":7,"frizz_risk":0,"updated_at":"2026-03-12T10:19:40.788482+05:30"},{"city":"Lucknow","state":"Uttar Pradesh","latitude":26.8467,"longitude":80.9462,"temp":29.0,"humidity":49,"rain":0.0,"pressure":996.3,"uv_index":6.1,"wind_gusts":27.7,"aqi":155,"pm10":327.8,"pm2_5":79.9,"mosquito_risk":4,"arthritis_risk":5,"migraine_risk":7,"frizz_risk":1,"updated_at":"2026-03-12T10:19:40.788489+05:30"},{"city":"Kanpur","state":"Uttar Pradesh","latitude":26.4499,"longitude":80.3319,"temp":28.9,"humidity":64,"rain":0.0,"pressure":994.8,"uv_index":6.5,"wind_gusts":22.0,"aqi":171,"pm10":233.8,"pm2_5":56.1,"mosquito_risk":7,"arthritis_risk":5,"migraine_risk":7,"frizz_risk":1,"updated_at":"2026-03-12T10:19:40.788496+05:30"},{"city":"Chandigarh","state":"Chandigarh","latitude":30.7333,"longitude":76.7794,"temp":23.9,"humidity":67,"rain":0.0,"pressure":972.4,"uv_index":5.85,"wind_gusts":32.0,"aqi":101,"pm10":51.8,"pm2_5":37.8,"mosquito_risk":3,"arthritis_risk":5,"migraine_risk":3,"frizz_risk":1,"updated_at":"2026-03-12T10:19:40.788504+05:30"},{"city":"Srinagar","state":"Jammu and Kashmir","latitude":34.0837,"longitude":74.7973,"temp":10.8,"humidity":88,"rain":0.0,"pressure":842.7,"uv_index":6.9,"wind_gusts":24.8,"aqi":109,"pm10":6.7,"pm2_5":6.6,"mosquito_risk":3,"arthritis_risk":10,"migraine_risk":7,"frizz_risk":0,"updated_at":"2026-03-12T10:19:40.788512+05:30"},{"city":"Jammu","state":"Jammu and Kashmir","latitude":32.7266,"longitude":74.857,"temp":22.9,"humidity":68,"rain":0.0,"pressure":977.1,"uv_index":6.65,"wind_gusts":39.6,"aqi":79,"pm10":42.3,"pm2_5":29.0,"mosquito_risk":3,"arthritis_risk":5,"migraine_risk":7,"frizz_risk":1,"updated_at":"2026-03-12T10:19:40.788520+05:30"},{"city":"Amritsar","state":"Punjab","latitude":31.634,"longitude":74.8723,"temp":21.8,"humidity":79,"rain":0.0,"pressure":984.5,"uv_index":6.65,"wind_gusts":32.4,"aqi":158,"pm10":84.3,"pm2_5":61.5,"mosquito_risk":3,"arthritis_risk":5,"migraine_risk":7,"frizz_risk":1,"updated_at":"2026-03-12T10:19:40.788527+05:30"},{"city":"Ludhiana","state":"Punjab","latitude":30.901,"longitude":75.8573,"temp":23.4,"humidity":75,"rain":0.0,"pressure":982.3,"uv_index":6.15,"wind_gusts":59.4,"aqi":162,"pm10":75.7,"pm2_5":68.0,"mosquito_risk":3,"arthritis_risk":5,"migraine_risk":7,"frizz_risk":1,"updated_at":"2026-03-12T10:19:40.788533+05:30"},{"city":"Jalandhar","state":"Punjab","latitude":31.326,"longitude":75.5762,"temp":22.5,"humidity":72,"rain":0.0,"pressure":983.6,"uv_index":6.25,"wind_gusts":31.7,"aqi":155,"pm10":81.5,"pm2_5":62.9,"mosquito_risk":3,"arthritis_risk":5,"migraine_risk":7,"frizz_risk":1,"updated_at":"2026-03-12T10:19:40.788543+05:30"},{"city":"Dehradun","state":"Uttarakhand","latitude":30.6284,"longitude":78.0322,"temp":19.9,"humidity":46,"rain":0.0,"pressure":833.6,"uv_index":5.9,"wind_gusts":37.4,"aqi":59,"pm10":28.8,"pm2_5":9.7,"mosquito_risk":0,"arthritis_risk":5,"migraine_risk":3,"frizz_risk":0,"updated_at":"2026-03-12T10:19:40.788550+05:30"},{"city":"Shimla","state":"Himachal Pradesh","latitude":31.1048,"longitude":77.1734,"temp":17.9,"humidity":47,"rain":0.0,"pressure":788.3,"uv_index":6.5,"wind_gusts":42.1,"aqi":71,"pm10":42.0,"pm2_5":14.7,"mosquito_risk":0,"arthritis_risk":5,"migraine_risk":7,"frizz_risk":0,"updated_at":"2026-03-12T10:19:40.788557+05:30"},{"city":"Manali","state":"Himachal Pradesh","latitude":32.2396,"longitude":77.1887,"temp":11.0,"humidity":100,"rain":0.8,"pressure":819.8,"uv_index":4.45,"wind_gusts":44.3,"aqi":46,"pm10":10.8,"pm2_5":4.2,"mosquito_risk":6,"arthritis_risk":10,"migraine_risk":3,"frizz_risk":0,"updated_at":"2026-03-12T10:19:40.788564+05:30"},{"city":"Gurgaon","state":"Haryana","latitude":28.4595,"longitude":77.0266,"temp":28.4,"humidity":49,"rain":0.0,"pressure":984.3,"uv_index":5.95,"wind_gusts":34.2,"aqi":757,"pm10":1367.2,"pm2_5":195.1,"mosquito_risk":4,"arthritis_risk":5,"migraine_risk":3,"frizz_risk":1,"updated_at":"2026-03-12T10:19:40.788571+05:30"},{"city":"Noida","state":"Uttar Pradesh","latitude":28.5355,"longitude":77.391,"temp":29.8,"humidity":42,"rain":0.0,"pressure":987.3,"uv_index":6.0,"wind_gusts":32.0,"aqi":757,"pm10":1367.2,"pm2_5":195.1,"mosquito_risk":4,"arthritis_risk":5,"migraine_risk":3,"frizz_risk":0,"updated_at":"2026-03-12T10:19:40.788578+05:30"},{"city":"Ghaziabad","state":"Uttar Pradesh","latitude":28.6692,"longitude":77.4538,"temp":28.0,"humidity":52,"rain":0.0,"pressure":985.5,"uv_index":5.95,"wind_gusts":28.1,"aqi":156,"pm10":254.3,"pm2_5":83.8,"mosquito_risk":4,"arthritis_risk":5,"migraine_risk":3,"frizz_risk":1,"updated_at":"2026-03-12T10:19:40.788584+05:30"},{"city":"Faridabad","state":"Haryana","latitude":28.4089,"longitude":77.3178,"temp":29.9,"humidity":43,"rain":0.0,"pressure":986.6,"uv_index":6.1,"wind_gusts":32.0,"aqi":757,"pm10":1367.2,"pm2_5":195.1,"mosquito_risk":4,"arthritis_risk":5,"migraine_risk":7,"frizz_risk":0,"updated_at":"2026-03-12T10:19:40.788593+05:30"},{"city":"Meerut","state":"Uttar Pradesh","latitude":28.9845,"longitude":77.7064,"temp":28.1,"humidity":53,"rain":0.0,"pressure":984.4,"uv_index":6.05,"wind_gusts":24.1,"aqi":156,"pm10":254.3,"pm2_5":83.8,"mosquito_risk":4,"arthritis_risk":5,"migraine_risk":7,"frizz_risk":1,"updated_at":"2026-03-12T10:19:40.788600+05:30"},{"city":"Agra","state":"Uttar Pradesh","latitude":27.1767,"longitude":78.0081,"temp":31.2,"humidity":42,"rain":0.0,"pressure":990.9,"uv_index":6.0,"wind_gusts":32.4,"aqi":427,"pm10":588.6,"pm2_5":80.1,"mosquito_risk":0,"arthritis_risk":5,"migraine_risk":3,"frizz_risk":1,"updated_at":"2026-03-12T10:19:40.788607+05:30"},{"city":"Varanasi","state":"Uttar Pradesh","latitude":25.3176,"longitude":82.9739,"temp":30.0,"humidity":54,"rain":0.0,"pressure":1000.7,"uv_index":7.3,"wind_gusts":26.6,"aqi":159,"pm10":75.7,"pm2_5":37.1,"mosquito_risk":4,"arthritis_risk":5,"migraine_risk":4,"frizz_risk":1,"updated_at":"2026-03-12T10:19:40.788616+05:30"},{"city":"Prayagraj","state":"Uttar Pradesh","latitude":25.4358,"longitude":81.8463,"temp":30.0,"humidity":50,"rain":0.0,"pressure":999.2,"uv_index":6.7,"wind_gusts":25.6,"aqi":157,"pm10":87.5,"pm2_5":37.7,"mosquito_risk":4,"arthritis_risk":5,"migraine_risk":7,"frizz_risk":1,"updated_at":"2026-03-12T10:19:40.788623+05:30"},{"city":"Gorakhpur","state":"Uttar Pradesh","latitude":26.7606,"longitude":83.3732,"temp":28.6,"humidity":71,"rain":0.0,"pressure":1000.1,"uv_index":6.6,"wind_gusts":21.6,"aqi":231,"pm10":198.8,"pm2_5":160.2,"mosquito_risk":7,"arthritis_risk":5,"migraine_risk":4,"frizz_risk":1,"updated_at":"2026-03-12T10:19:40.788632+05:30"},{"city":"Bareilly","state":"Uttar Pradesh","latitude":28.367,"longitude":79.4304,"temp":26.4,"humidity":65,"rain":0.0,"pressure":989.6,"uv_index":5.95,"wind_gusts":23.8,"aqi":153,"pm10":71.5,"pm2_5":46.1,"mosquito_risk":7,"arthritis_risk":5,"migraine_risk":3,"frizz_risk":1,"updated_at":"2026-03-12T10:19:40.788639+05:30"},{"city":"Aligarh","state":"Uttar Pradesh","latitude":27.8974,"longitude":78.088,"temp":29.7,"humidity":43,"rain":0.0,"pressure":988.4,"uv_index":5.7,"wind_gusts":33.1,"aqi":447,"pm10":514.1,"pm2_5":108.0,"mosquito_risk":4,"arthritis_risk":5,"migraine_risk":3,"frizz_risk":0,"updated_at":"2026-03-12T10:19:40.788645+05:30"},{"city":"Moradabad","state":"Uttar Pradesh","latitude":28.8386,"longitude":78.7733,"temp":26.8,"humidity":61,"rain":0.0,"pressure":986.3,"uv_index":5.9,"wind_gusts":27.0,"aqi":151,"pm10":87.1,"pm2_5":55.6,"mosquito_risk":7,"arthritis_risk":5,"migraine_risk":3,"frizz_risk":1,"updated_at":"2026-03-12T10:19:40.788651+05:30"},{"city":"Saharanpur","state":"Uttar Pradesh","latitude":29.9637,"longitude":77.546,"temp":26.9,"humidity":63,"rain":0.0,"pressure":978.6,"uv_index":5.15,"wind_gusts":31.7,"aqi":151,"pm10":101.5,"pm2_5":78.0,"mosquito_risk":7,"arthritis_risk":5,"migraine_risk":3,"frizz_risk":1,"updated_at":"2026-03-12T10:19:40.788656+05:30"},{"city":"Jhansi","state":"Uttar Pradesh","latitude":25.4484,"longitude":78.5685,"temp":33.2,"humidity":26,"rain":0.0,"pressure":981.7,"uv_index":6.65,"wind_gusts":31.3,"aqi":70,"pm10":23.7,"pm2_5":13.2,"mosquito_risk":0,"arthritis_risk":5,"migraine_risk":7,"frizz_risk":0,"updated_at":"2026-03-12T10:19:44.040232+05:30"},{"city":"Surat","state":"Gujarat","latitude":21.1702,"longitude":72.8311,"temp":32.0,"humidity":32,"rain":0.0,"pressure":1010.5,"uv_index":7.3,"wind_gusts":26.6,"aqi":151,"pm10":50.3,"pm2_5":49.4,"mosquito_risk":0,"arthritis_risk":0,"migraine_risk":4,"frizz_risk":0,"updated_at":"2026-03-12T10:19:44.040265+05:30"},{"city":"Vadodara","state":"Gujarat","latitude":22.3072,"longitude":73.1812,"temp":32.4,"humidity":29,"rain":0.0,"pressure":1008.8,"uv_index":7.45,"wind_gusts":24.5,"aqi":76,"pm10":25.8,"pm2_5":25.2,"mosquito_risk":0,"arthritis_risk":0,"migraine_risk":4,"frizz_risk":0,"updated_at":"2026-03-12T10:19:44.040277+05:30"},{"city":"Rajkot","state":"Gujarat","latitude":22.3039,"longitude":70.8022,"temp":29.1,"humidity":44,"rain":0.0,"pressure":999.1,"uv_index":7.3,"wind_gusts":29.9,"aqi":59,"pm10":30.9,"pm2_5":17.6,"mosquito_risk":4,"arthritis_risk":5,"migraine_risk":7,"frizz_risk":0,"updated_at":"2026-03-12T10:19:44.040287+05:30"},{"city":"Thane","state":"Maharashtra","latitude":19.2183,"longitude":72.9781,"temp":31.5,"humidity":58,"rain":0.0,"pressure":1010.8,"uv_index":7.6,"wind_gusts":39.6,"aqi":155,"pm10":95.0,"pm2_5":89.9,"mosquito_risk":0,"arthritis_risk":0,"migraine_risk":4,"frizz_risk":1,"updated_at":"2026-03-12T10:19:44.040296+05:30"},{"city":"Nagpur","state":"Maharashtra","latitude":21.1458,"longitude":79.0882,"temp":32.6,"humidity":37,"rain":0.0,"pressure":977.9,"uv_index":8.05,"wind_gusts":15.8,"aqi":92,"pm10":42.3,"pm2_5":22.4,"mosquito_risk":0,"arthritis_risk":5,"migraine_risk":7,"frizz_risk":1,"updated_at":"2026-03-12T10:19:44.040305+05:30"},{"city":"Nashik","state":"Maharashtra","latitude":19.9975,"longitude":73.7898,"temp":32.7,"humidity":23,"rain":0.0,"pressure":949.8,"uv_index":7.8,"wind_gusts":25.2,"aqi":110,"pm10":21.4,"pm2_5":18.9,"mosquito_risk":0,"arthritis_risk":5,"migraine_risk":7,"frizz_risk":0,"updated_at":"2026-03-12T10:19:44.040314+05:30"},{"city":"Aurangabad","state":"Maharashtra","latitude":19.8762,"longitude":75.3433,"temp":32.8,"humidity":26,"rain":0.0,"pressure":948.4,"uv_index":8.35,"wind_gusts":20.5,"aqi":101,"pm10":24.4,"pm2_5":19.8,"mosquito_risk":0,"arthritis_risk":5,"migraine_risk":7,"frizz_risk":0,"updated_at":"2026-03-12T10:19:44.040322+05:30"},{"city":"Solapur","state":"Maharashtra","latitude":17.6599,"longitude":75.9064,"temp":30.2,"humidity":45,"rain":0.0,"pressure":961.1,"uv_index":8.55,"wind_gusts":17.6,"aqi":100,"pm10":46.9,"pm2_5":38.2,"mosquito_risk":0,"arthritis_risk":5,"migraine_risk":7,"frizz_risk":1,"updated_at":"2026-03-12T10:19:44.040331+05:30"},{"city":"Kolhapur","state":"Maharashtra","latitude":16.705,"longitude":74.2433,"temp":30.6,"humidity":44,"rain":0.0,"pressure":951.7,"uv_index":8.65,"wind_gusts":25.9,"aqi":152,"pm10":81.5,"pm2_5":75.4,"mosquito_risk":0,"arthritis_risk":5,"migraine_risk":7,"frizz_risk":1,"updated_at":"2026-03-12T10:19:44.040339+05:30"},{"city":"Goa","state":"Goa","latitude":15.2993,"longitude":74.124,"temp":30.7,"humidity":64,"rain":0.0,"pressure":1000.9,"uv_index":8.7,"wind_gusts":34.9,"aqi":148,"pm10":67.1,"pm2_5":59.5,"mosquito_risk":3,"arthritis_risk":5,"migraine_risk":4,"frizz_risk":1,"updated_at":"2026-03-12T10:19:44.040348+05:30"},{"city":"Jodhpur","state":"Rajasthan","latitude":26.2389,"longitude":73.0243,"temp":29.3,"humidity":27,"rain":0.0,"pressure":987.4,"uv_index":6.3,"wind_gusts":27.0,"aqi":73,"pm10":56.3,"pm2_5":18.5,"mosquito_risk":4,"arthritis_risk":5,"migraine_risk":7,"frizz_risk":0,"updated_at":"2026-03-12T10:19:44.040357+05:30"},{"city":"Udaipur","state":"Rajasthan","latitude":24.5854,"longitude":73.7125,"temp":31.1,"humidity":14,"rain":0.0,"pressure":951.4,"uv_index":7.45,"wind_gusts":38.9,"aqi":51,"pm10":12.8,"pm2_5":11.8,"mosquito_risk":0,"arthritis_risk":5,"migraine_risk":7,"frizz_risk":0,"updated_at":"2026-03-12T10:19:44.040365+05:30"},{"city":"Kota","state":"Rajasthan","latitude":25.2138,"longitude":75.8648,"temp":32.4,"humidity":23,"rain":0.0,"pressure":983.1,"uv_index":6.7,"wind_gusts":34.6,"aqi":80,"pm10":21.9,"pm2_5":17.3,"mosquito_risk":0,"arthritis_risk":5,"migraine_risk":7,"frizz_risk":0,"updated_at":"2026-03-12T10:19:44.040373+05:30"},{"city":"Bikaner","state":"Rajasthan","latitude":28.0229,"longitude":73.3119,"temp":27.8,"humidity":32,"rain":0.0,"pressure":985.4,"uv_index":6.3,"wind_gusts":22.7,"aqi":88,"pm10":111.8,"pm2_5":43.0,"mosquito_risk":4,"arthritis_risk":5,"migraine_risk":7,"frizz_risk":0,"updated_at":"2026-03-12T10:19:44.040381+05:30"},{"city":"Ajmer","state":"Rajasthan","latitude":26.4499,"longitude":74.6399,"temp":27.9,"humidity":31,"rain":0.0,"pressure":959.0,"uv_index":6.4,"wind_gusts":36.0,"aqi":59,"pm10":25.0,"pm2_5":13.8,"mosquito_risk":4,"arthritis_risk":5,"migraine_risk":7,"frizz_risk":0,"updated_at":"2026-03-12T10:19:44.040389+05:30"},{"city":"Gwalior","state":"Madhya Pradesh","latitude":26.2183,"longitude":78.1828,"temp":32.2,"humidity":30,"rain":0.0,"pressure":986.5,"uv_index":6.4,"wind_gusts":37.8,"aqi":71,"pm10":34.8,"pm2_5":16.6,"mosquito_risk":0,"arthritis_risk":5,"migraine_risk":7,"frizz_risk":0,"updated_at":"2026-03-12T10:19:44.040398+05:30"},{"city":"Indore","state":"Madhya Pradesh","latitude":22.7196,"longitude":75.8577,"temp":31.0,"humidity":30,"rain":0.0,"pressure":953.1,"uv_index":7.75,"wind_gusts":28.1,"aqi":72,"pm10":36.1,"pm2_5":25.2,"mosquito_risk":0,"arthritis_risk":5,"migraine_risk":7,"frizz_risk":0,"updated_at":"2026-03-12T10:19:44.040406+05:30"},{"city":"Bhopal","state":"Madhya Pradesh","latitude":23.2599,"longitude":77.4126,"temp":31.7,"humidity":32,"rain":0.0,"pressure":958.6,"uv_index":7.6,"wind_gusts":29.5,"aqi":66,"pm10":31.9,"pm2_5":16.1,"mosquito_risk":0,"arthritis_risk":5,"migraine_risk":7,"frizz_risk":0,"updated_at":"2026-03-12T10:19:44.040414+05:30"},{"city":"Jabalpur","state":"Madhya Pradesh","latitude":23.1815,"longitude":79.9864,"temp":30.3,"humidity":40,"rain":0.0,"pressure":966.2,"uv_index":7.7,"wind_gusts":21.2,"aqi":95,"pm10":56.6,"pm2_5":27.0,"mosquito_risk":0,"arthritis_risk":5,"migraine_risk":7,"frizz_risk":0,"updated_at":"2026-03-12T10:19:44.040422+05:30"},{"city":"Ujjain","state":"Madhya Pradesh","latitude":23.1765,"longitude":75.7885,"temp":29.4,"humidity":41,"rain":0.0,"pressure":958.6,"uv_index":7.65,"wind_gusts":27.7,"aqi":93,"pm10":42.4,"pm2_5":36.3,"mosquito_risk":4,"arthritis_risk":5,"migraine_risk":7,"frizz_risk":0,"updated_at":"2026-03-12T10:19:44.040430+05:30"},{"city":"Visakhapatnam","state":"Andhra Pradesh","latitude":17.6868,"longitude":83.2185,"temp":32.0,"humidity":44,"rain":0.0,"pressure":1007.2,"uv_index":8.65,"wind_gusts":37.1,"aqi":86,"pm10":35.2,"pm2_5":32.8,"mosquito_risk":0,"arthritis_risk":5,"migraine_risk":4,"frizz_risk":1,"updated_at":"2026-03-12T10:19:44.040440+05:30"},{"city":"Vijayawada","state":"Andhra Pradesh","latitude":16.5062,"longitude":80.648,"temp":31.1,"humidity":48,"rain":0.0,"pressure":1006.8,"uv_index":8.7,"wind_gusts":29.2,"aqi":69,"pm10":22.8,"pm2_5":21.4,"mosquito_risk":0,"arthritis_risk":5,"migraine_risk":4,"frizz_risk":1,"updated_at":"2026-03-12T10:19:44.040448+05:30"},{"city":"Guntur","state":"Andhra Pradesh","latitude":16.3067,"longitude":80.4365,"temp":31.5,"humidity":44,"rain":0.0,"pressure":1007.8,"uv_index":8.7,"wind_gusts":30.6,"aqi":65,"pm10":21.0,"pm2_5":19.9,"mosquito_risk":0,"arthritis_risk":5,"migraine_risk":4,"frizz_risk":1,"updated_at":"2026-03-12T10:19:44.040454+05:30"},{"city":"Nellore","state":"Andhra Pradesh","latitude":14.4426,"longitude":79.9865,"temp":31.4,"humidity":52,"rain":0.0,"pressure":1010.0,"uv_index":8.9,"wind_gusts":26.6,"aqi":64,"pm10":25.4,"pm2_5":22.9,"mosquito_risk":0,"arthritis_risk":0,"migraine_risk":4,"frizz_risk":1,"updated_at":"2026-03-12T10:19:44.040462+05:30"},{"city":"Kurnool","state":"Andhra Pradesh","latitude":15.8281,"longitude":78.0373,"temp":32.2,"humidity":39,"rain":0.0,"pressure":981.0,"uv_index":8.7,"wind_gusts":25.2,"aqi":72,"pm10":17.9,"pm2_5":16.6,"mosquito_risk":0,"arthritis_risk":5,"migraine_risk":7,"frizz_risk":1,"updated_at":"2026-03-12T10:19:44.040469+05:30"},{"city":"Kakinada","state":"Andhra Pradesh","latitude":16.9891,"longitude":82.2475,"temp":32.0,"humidity":50,"rain":0.0,"pressure":1011.2,"uv_index":8.65,"wind_gusts":37.1,"aqi":72,"pm10":24.5,"pm2_5":22.2,"mosquito_risk":0,"arthritis_risk":0,"migraine_risk":4,"frizz_risk":1,"updated_at":"2026-03-12T10:19:44.040475+05:30"},{"city":"Tirupati","state":"Andhra Pradesh","latitude":13.6288,"longitude":79.4192,"temp":30.7,"humidity":47,"rain":0.0,"pressure":995.8,"uv_index":9.05,"wind_gusts":34.9,"aqi":85,"pm10":36.0,"pm2_5":33.4,"mosquito_risk":0,"arthritis_risk":5,"migraine_risk":7,"frizz_risk":1,"updated_at":"2026-03-12T10:19:44.040482+05:30"},{"city":"Warangal","state":"Telangana","latitude":17.9689,"longitude":79.5941,"temp":30.8,"humidity":47,"rain":0.0,"pressure":982.9,"uv_index":8.5,"wind_gusts":14.0,"aqi":97,"pm10":43.4,"pm2_5":38.3,"mosquito_risk":0,"arthritis_risk":5,"migraine_risk":7,"frizz_risk":1,"updated_at":"2026-03-12T10:19:44.040488+05:30"},{"city":"Nizamabad","state":"Telangana","latitude":18.6725,"longitude":78.0941,"temp":31.4,"humidity":41,"rain":0.0,"pressure":969.1,"uv_index":8.35,"wind_gusts":20.2,"aqi":112,"pm10":45.4,"pm2_5":39.8,"mosquito_risk":0,"arthritis_risk":5,"migraine_risk":7,"frizz_risk":1,"updated_at":"2026-03-12T10:19:44.040495+05:30"},{"city":"Mysore","state":"Karnataka","latitude":12.2958,"longitude":76.6396,"temp":27.6,"humidity":53,"rain":0.0,"pressure":932.0,"uv_index":9.3,"wind_gusts":33.5,"aqi":64,"pm10":21.0,"pm2_5":19.6,"mosquito_risk":4,"arthritis_risk":5,"migraine_risk":7,"frizz_risk":1,"updated_at":"2026-03-12T10:19:44.040501+05:30"},{"city":"Mangalore","state":"Karnataka","latitude":12.9141,"longitude":74.856,"temp":29.0,"humidity":77,"rain":0.0,"pressure":1008.9,"uv_index":8.95,"wind_gusts":33.8,"aqi":98,"pm10":51.8,"pm2_5":45.4,"mosquito_risk":7,"arthritis_risk":0,"migraine_risk":4,"frizz_risk":1,"updated_at":"2026-03-12T10:19:44.040508+05:30"},{"city":"Hubli-Dharwad","state":"Karnataka","latitude":15.3647,"longitude":75.124,"temp":30.0,"humidity":40,"rain":0.0,"pressure":944.7,"uv_index":8.85,"wind_gusts":34.9,"aqi":66,"pm10":32.6,"pm2_5":28.1,"mosquito_risk":4,"arthritis_risk":5,"migraine_risk":7,"frizz_risk":0,"updated_at":"2026-03-12T10:19:44.040514+05:30"},{"city":"Belgaum","state":"Karnataka","latitude":15.8497,"longitude":74.4977,"temp":30.9,"humidity":29,"rain":0.0,"pressure":929.6,"uv_index":8.95,"wind_gusts":37.8,"aqi":112,"pm10":30.3,"pm2_5":24.7,"mosquito_risk":0,"arthritis_risk":5,"migraine_risk":7,"frizz_risk":0,"updated_at":"2026-03-12T10:19:47.288296+05:30"},{"city":"Coimbatore","state":"Tamil Nadu","latitude":11.0168,"longitude":76.9558,"temp":28.6,"humidity":56,"rain":0.0,"pressure":965.4,"uv_index":9.3,"wind_gusts":45.4,"aqi":74,"pm10":20.8,"pm2_5":19.2,"mosquito_risk":4,"arthritis_risk":5,"migraine_risk":7,"frizz_risk":1,"updated_at":"2026-03-12T10:19:47.288328+05:30"},{"city":"Madurai","state":"Tamil Nadu","latitude":9.9252,"longitude":78.1198,"temp":30.1,"humidity":58,"rain":0.0,"pressure":996.8,"uv_index":9.25,"wind_gusts":33.1,"aqi":71,"pm10":24.3,"pm2_5":21.1,"mosquito_risk":0,"arthritis_risk":5,"migraine_risk":7,"frizz_risk":1,"updated_at":"2026-03-12T10:19:47.288339+05:30"},{"city":"Trichy","state":"Tamil Nadu","latitude":10.7905,"longitude":78.7047,"temp":30.0,"humidity":61,"rain":0.0,"pressure":1003.8,"uv_index":9.15,"wind_gusts":27.0,"aqi":75,"pm10":33.2,"pm2_5":29.9,"mosquito_risk":7,"arthritis_risk":5,"migraine_risk":4,"frizz_risk":1,"updated_at":"2026-03-12T10:19:47.288348+05:30"},{"city":"Salem","state":"Tamil Nadu","latitude":11.6643,"longitude":78.146,"temp":29.0,"humidity":63,"rain":0.0,"pressure":981.5,"uv_index":9.2,"wind_gusts":28.8,"aqi":72,"pm10":29.7,"pm2_5":27.1,"mosquito_risk":7,"arthritis_risk":5,"migraine_risk":7,"frizz_risk":1,"updated_at":"2026-03-12T10:19:47.288356+05:30"},{"city":"Tirunelveli","state":"Tamil Nadu","latitude":8.7139,"longitude":77.7567,"temp":30.6,"humidity":56,"rain":0.0,"pressure":1006.6,"uv_index":8.8,"wind_gusts":34.6,"aqi":61,"pm10":18.5,"pm2_5":15.8,"mosquito_risk":0,"arthritis_risk":5,"migraine_risk":4,"frizz_risk":1,"updated_at":"2026-03-12T10:19:47.288364+05:30"},{"city":"Vellore","state":"Tamil Nadu","latitude":12.9165,"longitude":79.1325,"temp":29.6,"humidity":55,"rain":0.0,"pressure":988.9,"uv_index":9.1,"wind_gusts":34.9,"aqi":92,"pm10":27.8,"pm2_5":25.0,"mosquito_risk":4,"arthritis_risk":5,"migraine_risk":7,"frizz_risk":1,"updated_at":"2026-03-12T10:19:47.288372+05:30"},{"city":"Erode","state":"Tamil Nadu","latitude":11.341,"longitude":77.7172,"temp":29.6,"humidity":65,"rain":0.0,"pressure":993.1,"uv_index":9.15,"wind_gusts":22.7,"aqi":73,"pm10":27.2,"pm2_5":24.5,"mosquito_risk":7,"arthritis_risk":5,"migraine_risk":7,"frizz_risk":1,"updated_at":"2026-03-12T10:19:47.288379+05:30"},{"city":"Kochi","state":"Kerala","latitude":9.9312,"longitude":76.2673,"temp":27.7,"humidity":82,"rain":0.0,"pressure":1011.0,"uv_index":9.05,"wind_gusts":33.8,"aqi":98,"pm10":33.6,"pm2_5":31.2,"mosquito_risk":7,"arthritis_risk":0,"migraine_risk":4,"frizz_risk":1,"updated_at":"2026-03-12T10:19:47.288387+05:30"},{"city":"Thiruvananthapuram","state":"Kerala","latitude":8.5241,"longitude":76.9366,"temp":27.3,"humidity":80,"rain":0.0,"pressure":1010.4,"uv_index":9.05,"wind_gusts":25.9,"aqi":60,"pm10":16.5,"pm2_5":15.1,"mosquito_risk":7,"arthritis_risk":0,"migraine_risk":4,"frizz_risk":1,"updated_at":"2026-03-12T10:19:47.288394+05:30"},{"city":"Kozhikode","state":"Kerala","latitude":11.2588,"longitude":75.7804,"temp":29.8,"humidity":72,"rain":0.0,"pressure":1010.0,"uv_index":9.0,"wind_gusts":31.3,"aqi":98,"pm10":48.1,"pm2_5":44.0,"mosquito_risk":7,"arthritis_risk":0,"migraine_risk":4,"frizz_risk":1,"updated_at":"2026-03-12T10:19:47.288401+05:30"},{"city":"Thrissur","state":"Kerala","latitude":10.5276,"longitude":76.2144,"temp":32.5,"humidity":57,"rain":0.0,"pressure":1009.1,"uv_index":9.05,"wind_gusts":39.6,"aqi":94,"pm10":39.1,"pm2_5":36.8,"mosquito_risk":0,"arthritis_risk":0,"migraine_risk":4,"frizz_risk":1,"updated_at":"2026-03-12T10:19:47.288409+05:30"},{"city":"Kannur","state":"Kerala","latitude":11.8745,"longitude":75.3704,"temp":30.8,"humidity":60,"rain":0.0,"pressure":1009.3,"uv_index":9.0,"wind_gusts":31.7,"aqi":102,"pm10":42.0,"pm2_5":38.0,"mosquito_risk":0,"arthritis_risk":0,"migraine_risk":4,"frizz_risk":1,"updated_at":"2026-03-12T10:19:47.288417+05:30"},{"city":"Patna","state":"Bihar","latitude":25.5941,"longitude":85.1376,"temp":30.1,"humidity":64,"rain":0.0,"pressure":1003.5,"uv_index":7.45,"wind_gusts":24.1,"aqi":233,"pm10":191.9,"pm2_5":175.6,"mosquito_risk":3,"arthritis_risk":5,"migraine_risk":4,"frizz_risk":1,"updated_at":"2026-03-12T10:19:47.288424+05:30"},{"city":"Gaya","state":"Bihar","latitude":24.7914,"longitude":85.0002,"temp":30.8,"humidity":54,"rain":0.0,"pressure":996.8,"uv_index":7.3,"wind_gusts":22.7,"aqi":195,"pm10":141.1,"pm2_5":111.3,"mosquito_risk":0,"arthritis_risk":5,"migraine_risk":7,"frizz_risk":1,"updated_at":"2026-03-12T10:19:47.288431+05:30"},{"city":"Muzaffarpur","state":"Bihar","latitude":26.1209,"longitude":85.3647,"temp":28.9,"humidity":68,"rain":0.0,"pressure":1003.6,"uv_index":7.45,"wind_gusts":25.6,"aqi":238,"pm10":204.9,"pm2_5":188.6,"mosquito_risk":7,"arthritis_risk":5,"migraine_risk":4,"frizz_risk":1,"updated_at":"2026-03-12T10:19:47.288438+05:30"},{"city":"Bhagalpur","state":"Bihar","latitude":25.2425,"longitude":87.0117,"temp":26.8,"humidity":75,"rain":0.0,"pressure":1005.2,"uv_index":7.2,"wind_gusts":33.5,"aqi":186,"pm10":109.9,"pm2_5":100.4,"mosquito_risk":7,"arthritis_risk":5,"migraine_risk":4,"frizz_risk":1,"updated_at":"2026-03-12T10:19:47.288446+05:30"},{"city":"Ranchi","state":"Jharkhand","latitude":23.3441,"longitude":85.3096,"temp":28.4,"humidity":42,"rain":0.0,"pressure":941.8,"uv_index":8.2,"wind_gusts":35.6,"aqi":169,"pm10":137.4,"pm2_5":59.1,"mosquito_risk":4,"arthritis_risk":5,"migraine_risk":7,"frizz_risk":0,"updated_at":"2026-03-12T10:19:47.288453+05:30"},{"city":"Jamshedpur","state":"Jharkhand","latitude":22.8046,"longitude":86.2029,"temp":30.4,"humidity":64,"rain":0.0,"pressure":994.5,"uv_index":8.1,"wind_gusts":19.8,"aqi":169,"pm10":120.1,"pm2_5":104.8,"mosquito_risk":3,"arthritis_risk":5,"migraine_risk":7,"frizz_risk":1,"updated_at":"2026-03-12T10:19:47.288460+05:30"},{"city":"Dhanbad","state":"Jharkhand","latitude":23.7957,"longitude":86.4304,"temp":30.5,"humidity":49,"rain":0.0,"pressure":983.2,"uv_index":8.0,"wind_gusts":21.6,"aqi":198,"pm10":156.0,"pm2_5":137.4,"mosquito_risk":0,"arthritis_risk":5,"migraine_risk":7,"frizz_risk":1,"updated_at":"2026-03-12T10:19:47.288467+05:30"},{"city":"Bokaro","state":"Jharkhand","latitude":23.6693,"longitude":86.1511,"temp":30.6,"humidity":46,"rain":0.0,"pressure":987.4,"uv_index":8.0,"wind_gusts":24.1,"aqi":194,"pm10":143.9,"pm2_5":118.7,"mosquito_risk":0,"arthritis_risk":5,"migraine_risk":7,"frizz_risk":1,"updated_at":"2026-03-12T10:19:47.288474+05:30"},{"city":"Bhubaneswar","state":"Odisha","latitude":20.2961,"longitude":85.8245,"temp":30.9,"humidity":65,"rain":0.0,"pressure":1006.2,"uv_index":8.35,"wind_gusts":31.0,"aqi":99,"pm10":41.1,"pm2_5":35.5,"mosquito_risk":3,"arthritis_risk":5,"migraine_risk":4,"frizz_risk":1,"updated_at":"2026-03-12T10:19:47.288481+05:30"},{"city":"Cuttack","state":"Odisha","latitude":20.4625,"longitude":85.8828,"temp":31.0,"humidity":64,"rain":0.0,"pressure":1008.1,"uv_index":8.35,"wind_gusts":30.2,"aqi":99,"pm10":41.1,"pm2_5":35.5,"mosquito_risk":3,"arthritis_risk":0,"migraine_risk":4,"frizz_risk":1,"updated_at":"2026-03-12T10:19:47.288488+05:30"},{"city":"Rourkela","state":"Odisha","latitude":22.2604,"longitude":84.8536,"temp":30.8,"humidity":53,"rain":0.0,"pressure":989.2,"uv_index":8.0,"wind_gusts":16.9,"aqi":160,"pm10":128.1,"pm2_5":101.0,"mosquito_risk":0,"arthritis_risk":5,"migraine_risk":7,"frizz_risk":1,"updated_at":"2026-03-12T10:19:47.288494+05:30"},{"city":"Raipur","state":"Chhattisgarh","latitude":21.2514,"longitude":81.6296,"temp":31.8,"humidity":31,"rain":0.0,"pressure":979.6,"uv_index":8.1,"wind_gusts":15.5,"aqi":167,"pm10":92.0,"pm2_5":72.9,"mosquito_risk":0,"arthritis_risk":5,"migraine_risk":7,"frizz_risk":0,"updated_at":"2026-03-12T10:19:47.288502+05:30"},{"city":"Bhilai","state":"Chhattisgarh","latitude":21.1938,"longitude":81.3509,"temp":31.9,"humidity":32,"rain":0.0,"pressure":980.0,"uv_index":8.1,"wind_gusts":13.7,"aqi":160,"pm10":102.9,"pm2_5":82.2,"mosquito_risk":0,"arthritis_risk":5,"migraine_risk":7,"frizz_risk":0,"updated_at":"2026-03-12T10:19:47.288509+05:30"},{"city":"Guwahati","state":"Assam","latitude":26.1158,"longitude":91.7086,"temp":25.7,"humidity":78,"rain":0.0,"pressure":1006.7,"uv_index":7.3,"wind_gusts":24.1,"aqi":153,"pm10":72.2,"pm2_5":64.7,"mosquito_risk":7,"arthritis_risk":5,"migraine_risk":4,"frizz_risk":1,"updated_at":"2026-03-12T10:19:47.288515+05:30"},{"city":"Agartala","state":"Tripura","latitude":23.8315,"longitude":91.2868,"temp":25.6,"humidity":83,"rain":0.0,"pressure":1011.1,"uv_index":7.75,"wind_gusts":19.1,"aqi":165,"pm10":62.6,"pm2_5":55.4,"mosquito_risk":7,"arthritis_risk":0,"migraine_risk":4,"frizz_risk":1,"updated_at":"2026-03-12T10:19:47.288522+05:30"},{"city":"Shillong","state":"Meghalaya","latitude":25.5788,"longitude":91.8933,"temp":18.4,"humidity":61,"rain":0.0,"pressure":860.3,"uv_index":6.85,"wind_gusts":26.3,"aqi":120,"pm10":64.0,"pm2_5":55.4,"mosquito_risk":3,"arthritis_risk":5,"migraine_risk":7,"frizz_risk":0,"updated_at":"2026-03-12T10:19:47.288529+05:30"},{"city":"Imphal","state":"Manipur","latitude":24.817,"longitude":93.9368,"temp":22.5,"humidity":69,"rain":0.0,"pressure":927.3,"uv_index":8.0,"wind_gusts":31.0,"aqi":170,"pm10":86.4,"pm2_5":77.3,"mosquito_risk":3,"arthritis_risk":5,"migraine_risk":7,"frizz_risk":1,"updated_at":"2026-03-12T10:19:47.288537+05:30"},{"city":"Aizawl","state":"Mizoram","latitude":23.7271,"longitude":92.7176,"temp":23.6,"humidity":60,"rain":0.0,"pressure":897.2,"uv_index":7.9,"wind_gusts":36.4,"aqi":188,"pm10":112.9,"pm2_5":99.4,"mosquito_risk":0,"arthritis_risk":5,"migraine_risk":7,"frizz_risk":0,"updated_at":"2026-03-12T10:19:47.288544+05:30"},{"city":"Kohima","state":"Nagaland","latitude":25.6701,"longitude":94.1077,"temp":18.1,"humidity":83,"rain":0.0,"pressure":859.0,"uv_index":7.1,"wind_gusts":47.5,"aqi":152,"pm10":61.2,"pm2_5":54.8,"mosquito_risk":3,"arthritis_risk":10,"migraine_risk":7,"frizz_risk":0,"updated_at":"2026-03-12T10:19:47.288551+05:30"},{"city":"Gangtok","state":"Sikkim","latitude":27.3314,"longitude":88.6138,"temp":20.1,"humidity":61,"rain":0.0,"pressure":841.6,"uv_index":6.35,"wind_gusts":22.3,"aqi":133,"pm10":45.6,"pm2_5":40.5,"mosquito_risk":3,"arthritis_risk":5,"migraine_risk":7,"frizz_risk":0,"updated_at":"2026-03-12T10:19:47.288558+05:30"},{"city":"Siliguri","state":"West Bengal","latitude":26.7271,"longitude":88.3953,"temp":25.0,"humidity":72,"rain":0.0,"pressure":997.8,"uv_index":7.0,"wind_gusts":23.8,"aqi":177,"pm10":97.1,"pm2_5":87.1,"mosquito_risk":7,"arthritis_risk":5,"migraine_risk":7,"frizz_risk":1,"updated_at":"2026-03-12T10:19:50.540880+05:30"},{"city":"Durgapur","state":"West Bengal","latitude":23.5204,"longitude":87.3119,"temp":29.4,"humidity":68,"rain":0.0,"pressure":998.7,"uv_index":7.95,"wind_gusts":25.6,"aqi":184,"pm10":135.5,"pm2_5":122.5,"mosquito_risk":7,"arthritis_risk":5,"migraine_risk":7,"frizz_risk":1,"updated_at":"2026-03-12T10:19:50.540910+05:30"},{"city":"Asansol","state":"West Bengal","latitude":23.6739,"longitude":86.9524,"temp":29.5,"humidity":66,"rain":0.0,"pressure":997.1,"uv_index":7.65,"wind_gusts":26.3,"aqi":184,"pm10":149.0,"pm2_5":134.1,"mosquito_risk":7,"arthritis_risk":5,"migraine_risk":7,"frizz_risk":1,"updated_at":"2026-03-12T10:19:50.540919+05:30"},{"city":"Pondicherry","state":"Puducherry","latitude":11.9139,"longitude":79.8145,"temp":30.7,"humidity":64,"rain":0.0,"pressure":1012.4,"uv_index":9.0,"wind_gusts":28.4,"aqi":68,"pm10":28.7,"pm2_5":24.2,"mosquito_risk":3,"arthritis_risk":0,"migraine_risk":4,"frizz_risk":1,"updated_at":"2026-03-12T10:19:50.540927+05:30"},{"city":"Port Blair","state":"Andaman and Nicobar Islands","latitude":11.6234,"longitude":92.7265,"temp":28.7,"humidity":71,"rain":0.0,"pressure":1009.6,"uv_index":8.95,"wind_gusts":21.6,"aqi":47,"pm10":12.9,"pm2_5":10.1,"mosquito_risk":7,"arthritis_risk":0,"migraine_risk":4,"frizz_risk":1,"updated_at":"2026-03-12T10:19:50.540935+05:30"},{"city":"Haridwar","state":"Uttarakhand","latitude":29.9457,"longitude":78.1642,"temp":29.0,"humidity":50,"rain":0.0,"pressure":976.9,"uv_index":5.6,"wind_gusts":29.9,"aqi":108,"pm10":42.6,"pm2_5":29.1,"mosquito_risk":4,"arthritis_risk":5,"migraine_risk":3,"frizz_risk":1,"updated_at":"2026-03-12T10:19:50.540942+05:30"},{"city":"Rishikesh","state":"Uttarakhand","latitude":30.0869,"longitude":78.2676,"temp":29.5,"humidity":41,"rain":0.0,"pressure":969.6,"uv_index":5.6,"wind_gusts":26.6,"aqi":86,"pm10":30.5,"pm2_5":21.8,"mosquito_risk":4,"arthritis_risk":5,"migraine_risk":3,"frizz_risk":0,"updated_at":"2026-03-12T10:19:50.540950+05:30"},{"city":"Nainital","state":"Uttarakhand","latitude":29.3919,"longitude":79.4542,"temp":23.3,"humidity":47,"rain":0.0,"pressure":810.2,"uv_index":6.65,"wind_gusts":55.1,"aqi":99,"pm10":40.5,"pm2_5":21.6,"mosquito_risk":0,"arthritis_risk":5,"migraine_risk":7,"frizz_risk":0,"updated_at":"2026-03-12T10:19:50.540957+05:30"},{"city":"Mussoorie","state":"Uttarakhand","latitude":30.4599,"longitude":78.0664,"temp":21.9,"humidity":39,"rain":0.0,"pressure":807.0,"uv_index":5.75,"wind_gusts":45.7,"aqi":87,"pm10":31.3,"pm2_5":19.1,"mosquito_risk":0,"arthritis_risk":5,"migraine_risk":3,"frizz_risk":0,"updated_at":"2026-03-12T10:19:50.540964+05:30"},{"city":"Dharamshala","state":"Himachal Pradesh","latitude":32.219,"longitude":76.3234,"temp":19.4,"humidity":59,"rain":0.1,"pressure":872.5,"uv_index":6.2,"wind_gusts":36.4,"aqi":56,"pm10":21.2,"pm2_5":12.8,"mosquito_risk":3,"arthritis_risk":5,"migraine_risk":7,"frizz_risk":0,"updated_at":"2026-03-12T10:19:50.540972+05:30"},{"city":"Dalhousie","state":"Himachal Pradesh","latitude":32.5387,"longitude":75.971,"temp":15.6,"humidity":65,"rain":0.0,"pressure":806.2,"uv_index":5.0,"wind_gusts":36.0,"aqi":80,"pm10":49.8,"pm2_5":30.4,"mosquito_risk":3,"arthritis_risk":5,"migraine_risk":3,"frizz_risk":0,"updated_at":"2026-03-12T10:19:50.540979+05:30"},{"city":"Patiala","state":"Punjab","latitude":30.3398,"longitude":76.3869,"temp":24.4,"humidity":68,"rain":0.0,"pressure":981.9,"uv_index":5.75,"wind_gusts":31.0,"aqi":159,"pm10":274.7,"pm2_5":85.2,"mosquito_risk":3,"arthritis_risk":5,"migraine_risk":3,"frizz_risk":1,"updated_at":"2026-03-12T10:19:50.540986+05:30"},{"city":"Bhatinda","state":"Punjab","latitude":30.211,"longitude":74.9455,"temp":26.1,"humidity":69,"rain":0.0,"pressure":986.9,"uv_index":6.65,"wind_gusts":27.4,"aqi":154,"pm10":91.5,"pm2_5":62.4,"mosquito_risk":7,"arthritis_risk":5,"migraine_risk":7,"frizz_risk":1,"updated_at":"2026-03-12T10:19:50.540993+05:30"},{"city":"Rohtak","state":"Haryana","latitude":28.8955,"longitude":76.6066,"temp":28.0,"humidity":50,"rain":0.0,"pressure":984.6,"uv_index":6.05,"wind_gusts":27.7,"aqi":277,"pm10":448.0,"pm2_5":89.6,"mosquito_risk":4,"arthritis_risk":5,"migraine_risk":7,"frizz_risk":1,"updated_at":"2026-03-12T10:19:50.541000+05:30"},{"city":"Panipat","state":"Haryana","latitude":29.3909,"longitude":76.9635,"temp":27.7,"humidity":58,"rain":0.0,"pressure":983.4,"uv_index":5.85,"wind_gusts":24.5,"aqi":377,"pm10":702.2,"pm2_5":115.7,"mosquito_risk":4,"arthritis_risk":5,"migraine_risk":3,"frizz_risk":1,"updated_at":"2026-03-12T10:19:50.541007+05:30"},{"city":"Mathura","state":"Uttar Pradesh","latitude":27.4924,"longitude":77.6737,"temp":31.2,"humidity":39,"rain":0.0,"pressure":989.8,"uv_index":5.65,"wind_gusts":35.3,"aqi":400,"pm10":512.2,"pm2_5":71.0,"mosquito_risk":0,"arthritis_risk":5,"migraine_risk":3,"frizz_risk":0,"updated_at":"2026-03-12T10:19:50.541014+05:30"},{"city":"Vrindavan","state":"Uttar Pradesh","latitude":27.5823,"longitude":77.7027,"temp":30.7,"humidity":41,"rain":0.0,"pressure":990.3,"uv_index":5.7,"wind_gusts":36.7,"aqi":400,"pm10":512.2,"pm2_5":71.0,"mosquito_risk":0,"arthritis_risk":5,"migraine_risk":3,"frizz_risk":0,"updated_at":"2026-03-12T10:19:50.541020+05:30"},{"city":"Ayodhya","state":"Uttar Pradesh","latitude":26.7922,"longitude":82.1998,"temp":28.5,"humidity":61,"rain":0.0,"pressure":997.9,"uv_index":6.8,"wind_gusts":30.6,"aqi":164,"pm10":245.9,"pm2_5":73.6,"mosquito_risk":7,"arthritis_risk":5,"migraine_risk":7,"frizz_risk":1,"updated_at":"2026-03-12T10:19:50.541027+05:30"},{"city":"Ratlam","state":"Madhya Pradesh","latitude":23.3315,"longitude":75.0367,"temp":30.8,"humidity":33,"rain":0.0,"pressure":959.4,"uv_index":7.6,"wind_gusts":32.0,"aqi":82,"pm10":27.4,"pm2_5":24.0,"mosquito_risk":0,"arthritis_risk":5,"migraine_risk":7,"frizz_risk":0,"updated_at":"2026-03-12T10:19:50.541034+05:30"},{"city":"Sagar","state":"Madhya Pradesh","latitude":23.8388,"longitude":78.7378,"temp":32.6,"humidity":25,"rain":0.0,"pressure":954.8,"uv_index":7.35,"wind_gusts":27.4,"aqi":67,"pm10":29.9,"pm2_5":11.8,"mosquito_risk":0,"arthritis_risk":5,"migraine_risk":7,"frizz_risk":0,"updated_at":"2026-03-12T10:19:50.541041+05:30"},{"city":"Satna","state":"Madhya Pradesh","latitude":24.6005,"longitude":80.8322,"temp":33.0,"humidity":29,"rain":0.0,"pressure":975.2,"uv_index":7.55,"wind_gusts":33.5,"aqi":79,"pm10":42.0,"pm2_5":18.0,"mosquito_risk":0,"arthritis_risk":5,"migraine_risk":7,"frizz_risk":0,"updated_at":"2026-03-12T10:19:50.541048+05:30"},{"city":"Akola","state":"Maharashtra","latitude":20.7002,"longitude":77.0082,"temp":32.8,"humidity":32,"rain":0.0,"pressure":979.8,"uv_index":8.05,"wind_gusts":20.9,"aqi":98,"pm10":38.5,"pm2_5":27.4,"mosquito_risk":0,"arthritis_risk":5,"migraine_risk":7,"frizz_risk":0,"updated_at":"2026-03-12T10:19:50.541071+05:30"},{"city":"Amravati","state":"Maharashtra","latitude":20.9374,"longitude":77.7796,"temp":34.2,"humidity":25,"rain":0.0,"pressure":972.0,"uv_index":8.0,"wind_gusts":16.9,"aqi":97,"pm10":43.1,"pm2_5":32.0,"mosquito_risk":0,"arthritis_risk":5,"migraine_risk":7,"frizz_risk":0,"updated_at":"2026-03-12T10:19:50.541080+05:30"},{"city":"Latur","state":"Maharashtra","latitude":18.4088,"longitude":76.5604,"temp":30.6,"humidity":39,"rain":0.0,"pressure":944.3,"uv_index":8.45,"wind_gusts":19.1,"aqi":93,"pm10":43.7,"pm2_5":35.5,"mosquito_risk":0,"arthritis_risk":5,"migraine_risk":7,"frizz_risk":0,"updated_at":"2026-03-12T10:19:50.541087+05:30"},{"city":"Nanded","state":"Maharashtra","latitude":19.1383,"longitude":77.3091,"temp":32.9,"humidity":35,"rain":0.0,"pressure":973.0,"uv_index":8.25,"wind_gusts":16.6,"aqi":101,"pm10":41.6,"pm2_5":36.9,"mosquito_risk":0,"arthritis_risk":5,"migraine_risk":7,"frizz_risk":0,"updated_at":"2026-03-12T10:19:50.541094+05:30"},{"city":"Gulbarga","state":"Karnataka","latitude":17.3297,"longitude":76.8343,"temp":31.8,"humidity":37,"rain":0.0,"pressure":962.9,"uv_index":8.55,"wind_gusts":18.0,"aqi":101,"pm10":42.6,"pm2_5":35.0,"mosquito_risk":0,"arthritis_risk":5,"migraine_risk":7,"frizz_risk":0,"updated_at":"2026-03-12T10:19:50.541101+05:30"},{"city":"Bidar","state":"Karnataka","latitude":17.9104,"longitude":77.5199,"temp":31.6,"humidity":34,"rain":0.0,"pressure":940.0,"uv_index":8.5,"wind_gusts":19.1,"aqi":103,"pm10":42.6,"pm2_5":34.9,"mosquito_risk":0,"arthritis_risk":5,"migraine_risk":7,"frizz_risk":0,"updated_at":"2026-03-12T10:19:50.541108+05:30"},{"city":"Hospet","state":"Karnataka","latitude":15.2689,"longitude":76.3909,"temp":29.0,"humidity":47,"rain":0.0,"pressure":959.9,"uv_index":8.85,"wind_gusts":32.4,"aqi":74,"pm10":20.0,"pm2_5":18.6,"mosquito_risk":4,"arthritis_risk":5,"migraine_risk":7,"frizz_risk":1,"updated_at":"2026-03-12T10:19:50.541114+05:30"},{"city":"Tirupur","state":"Tamil Nadu","latitude":11.1085,"longitude":77.3411,"temp":29.3,"humidity":57,"rain":0.0,"pressure":979.2,"uv_index":9.3,"wind_gusts":32.8,"aqi":79,"pm10":28.0,"pm2_5":25.6,"mosquito_risk":4,"arthritis_risk":5,"migraine_risk":7,"frizz_risk":1,"updated_at":"2026-03-12T10:19:50.541120+05:30"},{"city":"Alappuzha","state":"Kerala","latitude":9.4981,"longitude":76.3388,"temp":27.5,"humidity":81,"rain":0.0,"pressure":1011.1,"uv_index":8.85,"wind_gusts":30.6,"aqi":88,"pm10":27.5,"pm2_5":26.0,"mosquito_risk":7,"arthritis_risk":0,"migraine_risk":4,"frizz_risk":1,"updated_at":"2026-03-12T10:19:50.541127+05:30"},{"city":"Munnar","state":"Kerala","latitude":10.0889,"longitude":77.0595,"temp":27.5,"humidity":50,"rain":0.0,"pressure":860.7,"uv_index":9.55,"wind_gusts":20.5,"aqi":73,"pm10":20.5,"pm2_5":18.6,"mosquito_risk":4,"arthritis_risk":5,"migraine_risk":7,"frizz_risk":1,"updated_at":"2026-03-12T10:19:50.541135+05:30"},{"city":"Silchar","state":"Assam","latitude":24.8333,"longitude":92.7789,"temp":26.6,"humidity":73,"rain":0.0,"pressure":1010.0,"uv_index":7.7,"wind_gusts":23.8,"aqi":184,"pm10":122.0,"pm2_5":110.8,"mosquito_risk":7,"arthritis_risk":0,"migraine_risk":4,"frizz_risk":1,"updated_at":"2026-03-12T10:19:50.541141+05:30"},{"city":"Dibrugarh","state":"Assam","latitude":27.4728,"longitude":94.912,"temp":25.1,"humidity":71,"rain":0.0,"pressure":1000.4,"uv_index":7.45,"wind_gusts":20.2,"aqi":155,"pm10":78.7,"pm2_5":70.5,"mosquito_risk":7,"arthritis_risk":5,"migraine_risk":4,"frizz_risk":1,"updated_at":"2026-03-12T10:19:50.541148+05:30"}]