[{"city":"Delhi","state":"Delhi","latitude":28.6139,"longitude":77.209,"temp":19.9,"humidity":73,"rain":0.0,"pressure":983.6,"uv_index":5.3,"wind_gusts":25.9,"aqi":440,"pm10":382.8,"pm2_5":79.9,"mosquito_risk":3,"arthritis_risk":5,"migraine_risk":3,"frizz_risk":0,"updated_at":"2026-03-14T05:01:45.650705+05:30"},{"city":"Mumbai","state":"Maharashtra","latitude":19.076,"longitude":72.8777,"temp":28.3,"humidity":72,"rain":0.0,"pressure":1008.1,"uv_index":7.65,"wind_gusts":18.0,"aqi":125,"pm10":56.5,"pm2_5":38.6,"mosquito_risk":7,"arthritis_risk":0,"migraine_risk":4,"frizz_risk":1,"updated_at":"2026-03-14T05:01:45.650753+05:30"},{"city":"Bangalore","state":"Karnataka","latitude":12.9716,"longitude":77.5946,"temp":20.0,"humidity":81,"rain":0.0,"pressure":911.7,"uv_index":9.3,"wind_gusts":31.7,"aqi":101,"pm10":48.0,"pm2_5":41.6,"mosquito_risk":3,"arthritis_risk":5,"migraine_risk":7,"frizz_risk":1,"updated_at":"2026-03-14T05:01:45.650769+05:30"},{"city":"Hyderabad","state":"Telangana","latitude":17.385,"longitude":78.4867,"temp":23.0,"humidity":65,"rain":0.0,"pressure":953.4,"uv_index":8.7,"wind_gusts":32.4,"aqi":106,"pm10":42.6,"pm2_5":34.2,"mosquito_risk":3,"arthritis_risk":5,"migraine_risk":7,"frizz_risk":1,"updated_at":"2026-03-14T05:01:45.650796+05:30"},{"city":"Chennai","state":"Tamil Nadu","latitude":13.0827,"longitude":80.2707,"temp":25.0,"humidity":90,"rain":0.0,"pressure":1008.9,"uv_index":9.05,"wind_gusts":31.3,"aqi":59,"pm10":21.4,"pm2_5":17.1,"mosquito_risk":7,"arthritis_risk":0,"migraine_risk":4,"frizz_risk":1,"updated_at":"2026-03-14T05:01:45.650807+05:30"},{"city":"Kolkata","state":"West Bengal","latitude":22.5726,"longitude":88.3639,"temp":25.4,"humidity":88,"rain":0.0,"pressure":1007.4,"uv_index":8.1,"wind_gusts":33.5,"aqi":104,"pm10":23.0,"pm2_5":18.5,"mosquito_risk":7,"arthritis_risk":5,"migraine_risk":4,"frizz_risk":1,"updated_at":"2026-03-14T05:01:45.650817+05:30"},{"city":"Pune","state":"Maharashtra","latitude":18.5204,"longitude":73.8567,"temp":20.3,"humidity":68,"rain":0.0,"pressure":947.9,"uv_index":8.25,"wind_gusts":44.6,"aqi":128,"pm10":48.9,"pm2_5":44.5,"mosquito_risk":3,"arthritis_risk":5,"migraine_risk":7,"frizz_risk":0,"updated_at":"2026-03-14T05:01:45.650829+05:30"},{"city":"Ahmedabad","state":"Gujarat","latitude":23.0225,"longitude":72.5714,"temp":20.6,"humidity":60,"rain":0.0,"pressure":1002.3,"uv_index":7.5,"wind_gusts":22.0,"aqi":90,"pm10":69.4,"pm2_5":25.1,"mosquito_risk":0,"arthritis_risk":5,"migraine_risk":4,"frizz_risk":0,"updated_at":"2026-03-14T05:01:45.650837+05:30"},{"city":"Jaipur","state":"Rajasthan","latitude":26.9124,"longitude":75.7873,"temp":22.0,"humidity":43,"rain":0.0,"pressure":960.0,"uv_index":6.9,"wind_gusts":23.0,"aqi":140,"pm10":333.4,"pm2_5":56.0,"mosquito_risk":0,"arthritis_risk":5,"migraine_risk":7,"frizz_risk":0,"updated_at":"2026-03-14T05:01:45.650845+05:30"},{"city":"Lucknow","state":"Uttar Pradesh","latitude":26.8467,"longitude":80.9462,"temp":21.4,"humidity":64,"rain":0.0,"pressure":993.8,"uv_index":6.7,"wind_gusts":25.2,"aqi":163,"pm10":406.1,"pm2_5":96.4,"mosquito_risk":3,"arthritis_risk":5,"migraine_risk":7,"frizz_risk":0,"updated_at":"2026-03-14T05:01:45.650853+05:30"},{"city":"Kanpur","state":"Uttar Pradesh","latitude":26.4499,"longitude":80.3319,"temp":20.0,"humidity":70,"rain":0.0,"pressure":992.4,"uv_index":6.7,"wind_gusts":20.2,"aqi":284,"pm10":614.7,"pm2_5":115.7,"mosquito_risk":3,"arthritis_risk":5,"migraine_risk":7,"frizz_risk":0,"updated_at":"2026-03-14T05:01:45.650860+05:30"},{"city":"Chandigarh","state":"Chandigarh","latitude":30.7333,"longitude":76.7794,"temp":18.1,"humidity":79,"rain":0.0,"pressure":968.3,"uv_index":5.6,"wind_gusts":18.7,"aqi":72,"pm10":21.5,"pm2_5":21.0,"mosquito_risk":3,"arthritis_risk":5,"migraine_risk":3,"frizz_risk":0,"updated_at":"2026-03-14T05:01:45.650868+05:30"},{"city":"Srinagar","state":"Jammu and Kashmir","latitude":34.0837,"longitude":74.7973,"temp":4.8,"humidity":83,"rain":0.0,"pressure":838.8,"uv_index":5.95,"wind_gusts":14.8,"aqi":88,"pm10":48.4,"pm2_5":35.0,"mosquito_risk":3,"arthritis_risk":10,"migraine_risk":3,"frizz_risk":0,"updated_at":"2026-03-14T05:01:45.650875+05:30"},{"city":"Jammu","state":"Jammu and Kashmir","latitude":32.7266,"longitude":74.857,"temp":15.8,"humidity":72,"rain":0.0,"pressure":972.8,"uv_index":6.3,"wind_gusts":19.1,"aqi":68,"pm10":32.8,"pm2_5":30.4,"mosquito_risk":3,"arthritis_risk":5,"migraine_risk":7,"frizz_risk":0,"updated_at":"2026-03-14T05:01:45.650883+05:30"},{"city":"Amritsar","state":"Punjab","latitude":31.634,"longitude":74.8723,"temp":16.4,"humidity":68,"rain":0.0,"pressure":981.4,"uv_index":4.9,"wind_gusts":16.6,"aqi":81,"pm10":26.3,"pm2_5":24.0,"mosquito_risk":3,"arthritis_risk":5,"migraine_risk":3,"frizz_risk":0,"updated_at":"2026-03-14T05:01:45.650890+05:30"},{"city":"Ludhiana","state":"Punjab","latitude":30.901,"longitude":75.8573,"temp":17.9,"humidity":73,"rain":0.0,"pressure":979.2,"uv_index":5.75,"wind_gusts":19.8,"aqi":90,"pm10":41.3,"pm2_5":30.7,"mosquito_risk":3,"arthritis_risk":5,"migraine_risk":3,"frizz_risk":0,"updated_at":"2026-03-14T05:01:45.650896+05:30"},{"city":"Jalandhar","state":"Punjab","latitude":31.326,"longitude":75.5762,"temp":17.3,"humidity":74,"rain":0.0,"pressure":980.3,"uv_index":6.45,"wind_gusts":19.4,"aqi":93,"pm10":55.5,"pm2_5":36.3,"mosquito_risk":3,"arthritis_risk":5,"migraine_risk":7,"frizz_risk":0,"updated_at":"2026-03-14T05:01:45.650906+05:30"},{"city":"Dehradun","state":"Uttarakhand","latitude":30.6284,"longitude":78.0322,"temp":12.9,"humidity":44,"rain":0.0,"pressure":828.2,"uv_index":4.45,"wind_gusts":21.6,"aqi":51,"pm10":19.7,"pm2_5":11.0,"mosquito_risk":0,"arthritis_risk":5,"migraine_risk":3,"frizz_risk":0,"updated_at":"2026-03-14T05:01:45.650913+05:30"},{"city":"Shimla","state":"Himachal Pradesh","latitude":31.1048,"longitude":77.1734,"temp":10.8,"humidity":67,"rain":0.0,"pressure":781.6,"uv_index":5.9,"wind_gusts":33.1,"aqi":55,"pm10":26.3,"pm2_5":18.2,"mosquito_risk":3,"arthritis_risk":5,"migraine_risk":3,"frizz_risk":0,"updated_at":"2026-03-14T05:01:45.650920+05:30"},{"city":"Manali","state":"Himachal Pradesh","latitude":32.2396,"longitude":77.1887,"temp":11.8,"humidity":27,"rain":0.0,"pressure":818.0,"uv_index":7.55,"wind_gusts":31.7,"aqi":35,"pm10":29.0,"pm2_5":14.8,"mosquito_risk":0,"arthritis_risk":5,"migraine_risk":7,"frizz_risk":1,"updated_at":"2026-03-14T05:01:45.650928+05:30"},{"city":"Gurgaon","state":"Haryana","latitude":28.4595,"longitude":77.0266,"temp":17.9,"humidity":81,"rain":0.0,"pressure":982.0,"uv_index":5.85,"wind_gusts":21.2,"aqi":1308,"pm10":923.9,"pm2_5":131.3,"mosquito_risk":3,"arthritis_risk":10,"migraine_risk":3,"frizz_risk":0,"updated_at":"2026-03-14T05:01:45.650936+05:30"},{"city":"Noida","state":"Uttar Pradesh","latitude":28.5355,"longitude":77.391,"temp":19.8,"humidity":74,"rain":0.0,"pressure":985.1,"uv_index":5.3,"wind_gusts":25.6,"aqi":1308,"pm10":923.9,"pm2_5":131.3,"mosquito_risk":3,"arthritis_risk":5,"migraine_risk":3,"frizz_risk":0,"updated_at":"2026-03-14T05:01:45.650945+05:30"},{"city":"Ghaziabad","state":"Uttar Pradesh","latitude":28.6692,"longitude":77.4538,"temp":19.0,"humidity":76,"rain":0.0,"pressure":983.0,"uv_index":5.7,"wind_gusts":24.8,"aqi":279,"pm10":308.3,"pm2_5":72.6,"mosquito_risk":3,"arthritis_risk":5,"migraine_risk":3,"frizz_risk":0,"updated_at":"2026-03-14T05:01:45.650952+05:30"},{"city":"Faridabad","state":"Haryana","latitude":28.4089,"longitude":77.3178,"temp":18.6,"humidity":77,"rain":0.0,"pressure":984.3,"uv_index":5.55,"wind_gusts":23.4,"aqi":1308,"pm10":923.9,"pm2_5":131.3,"mosquito_risk":3,"arthritis_risk":5,"migraine_risk":3,"frizz_risk":0,"updated_at":"2026-03-14T05:01:45.650959+05:30"},{"city":"Meerut","state":"Uttar Pradesh","latitude":28.9845,"longitude":77.7064,"temp":17.4,"humidity":84,"rain":0.0,"pressure":981.5,"uv_index":5.6,"wind_gusts":24.8,"aqi":279,"pm10":308.3,"pm2_5":72.6,"mosquito_risk":3,"arthritis_risk":10,"migraine_risk":3,"frizz_risk":0,"updated_at":"2026-03-14T05:01:45.650965+05:30"},{"city":"Agra","state":"Uttar Pradesh","latitude":27.1767,"longitude":78.0081,"temp":18.8,"humidity":68,"rain":0.0,"pressure":988.8,"uv_index":6.4,"wind_gusts":33.5,"aqi":776,"pm10":903.4,"pm2_5":147.1,"mosquito_risk":3,"arthritis_risk":5,"migraine_risk":7,"frizz_risk":0,"updated_at":"2026-03-14T05:01:45.650973+05:30"},{"city":"Varanasi","state":"Uttar Pradesh","latitude":25.3176,"longitude":82.9739,"temp":21.1,"humidity":69,"rain":0.0,"pressure":997.8,"uv_index":7.3,"wind_gusts":26.6,"aqi":128,"pm10":113.4,"pm2_5":51.6,"mosquito_risk":3,"arthritis_risk":5,"migraine_risk":7,"frizz_risk":0,"updated_at":"2026-03-14T05:01:45.650982+05:30"},{"city":"Prayagraj","state":"Uttar Pradesh","latitude":25.4358,"longitude":81.8463,"temp":21.4,"humidity":69,"rain":0.0,"pressure":996.4,"uv_index":7.2,"wind_gusts":16.9,"aqi":141,"pm10":238.0,"pm2_5":71.7,"mosquito_risk":3,"arthritis_risk":5,"migraine_risk":7,"frizz_risk":0,"updated_at":"2026-03-14T05:01:45.650989+05:30"},{"city":"Gorakhpur","state":"Uttar Pradesh","latitude":26.7606,"longitude":83.3732,"temp":18.8,"humidity":82,"rain":0.0,"pressure":997.0,"uv_index":6.65,"wind_gusts":24.5,"aqi":167,"pm10":131.8,"pm2_5":49.7,"mosquito_risk":3,"arthritis_risk":10,"migraine_risk":7,"frizz_risk":0,"updated_at":"2026-03-14T05:01:45.650996+05:30"},{"city":"Bareilly","state":"Uttar Pradesh","latitude":28.367,"longitude":79.4304,"temp":18.5,"humidity":78,"rain":0.0,"pressure":986.9,"uv_index":5.95,"wind_gusts":21.6,"aqi":145,"pm10":207.7,"pm2_5":71.0,"mosquito_risk":3,"arthritis_risk":5,"migraine_risk":3,"frizz_risk":0,"updated_at":"2026-03-14T05:01:45.651003+05:30"},{"city":"Aligarh","state":"Uttar Pradesh","latitude":27.8974,"longitude":78.088,"temp":18.6,"humidity":76,"rain":0.0,"pressure":986.2,"uv_index":6.3,"wind_gusts":35.3,"aqi":729,"pm10":672.4,"pm2_5":124.3,"mosquito_risk":3,"arthritis_risk":5,"migraine_risk":7,"frizz_risk":0,"updated_at":"2026-03-14T05:01:45.651010+05:30"},{"city":"Moradabad","state":"Uttar Pradesh","latitude":28.8386,"longitude":78.7733,"temp":17.8,"humidity":81,"rain":0.0,"pressure":983.6,"uv_index":5.7,"wind_gusts":22.0,"aqi":151,"pm10":171.4,"pm2_5":66.4,"mosquito_risk":3,"arthritis_risk":10,"migraine_risk":3,"frizz_risk":0,"updated_at":"2026-03-14T05:01:45.651017+05:30"},{"city":"Saharanpur","state":"Uttar Pradesh","latitude":29.9637,"longitude":77.546,"temp":17.4,"humidity":85,"rain":0.0,"pressure":975.5,"uv_index":5.35,"wind_gusts":21.6,"aqi":124,"pm10":149.0,"pm2_5":59.8,"mosquito_risk":3,"arthritis_risk":10,"migraine_risk":3,"frizz_risk":0,"updated_at":"2026-03-14T05:01:45.651025+05:30"},{"city":"Jhansi","state":"Uttar Pradesh","latitude":25.4484,"longitude":78.5685,"temp":20.8,"humidity":69,"rain":0.0,"pressure":978.4,"uv_index":7.15,"wind_gusts":20.9,"aqi":88,"pm10":343.7,"pm2_5":60.8,"mosquito_risk":3,"arthritis_risk":5,"migraine_risk":7,"frizz_risk":0,"updated_at":"2026-03-14T05:01:48.902059+05:30"},{"city":"Surat","state":"Gujarat","latitude":21.1702,"longitude":72.8311,"temp":25.2,"humidity":73,"rain":0.0,"pressure":1006.7,"uv_index":7.35,"wind_gusts":22.3,"aqi":134,"pm10":48.5,"pm2_5":39.5,"mosquito_risk":7,"arthritis_risk":5,"migraine_risk":4,"frizz_risk":1,"updated_at":"2026-03-14T05:01:48.902089+05:30"},{"city":"Vadodara","state":"Gujarat","latitude":22.3072,"longitude":73.1812,"temp":23.4,"humidity":47,"rain":0.0,"pressure":1004.5,"uv_index":7.55,"wind_gusts":25.6,"aqi":103,"pm10":27.5,"pm2_5":19.6,"mosquito_risk":0,"arthritis_risk":5,"migraine_risk":4,"frizz_risk":0,"updated_at":"2026-03-14T05:01:48.902099+05:30"},{"city":"Rajkot","state":"Gujarat","latitude":22.3039,"longitude":70.8022,"temp":21.5,"humidity":73,"rain":0.0,"pressure":994.7,"uv_index":7.35,"wind_gusts":29.2,"aqi":87,"pm10":216.1,"pm2_5":48.9,"mosquito_risk":3,"arthritis_risk":5,"migraine_risk":7,"frizz_risk":1,"updated_at":"2026-03-14T05:01:48.902107+05:30"},{"city":"Thane","state":"Maharashtra","latitude":19.2183,"longitude":72.9781,"temp":26.0,"humidity":73,"rain":0.0,"pressure":1007.7,"uv_index":7.65,"wind_gusts":34.6,"aqi":125,"pm10":56.5,"pm2_5":38.6,"mosquito_risk":7,"arthritis_risk":5,"migraine_risk":4,"frizz_risk":1,"updated_at":"2026-03-14T05:01:48.902114+05:30"},{"city":"Nagpur","state":"Maharashtra","latitude":21.1458,"longitude":79.0882,"temp":22.1,"humidity":57,"rain":0.0,"pressure":973.0,"uv_index":8.1,"wind_gusts":16.9,"aqi":100,"pm10":37.8,"pm2_5":36.3,"mosquito_risk":0,"arthritis_risk":5,"migraine_risk":7,"frizz_risk":0,"updated_at":"2026-03-14T05:01:48.902122+05:30"},{"city":"Nashik","state":"Maharashtra","latitude":19.9975,"longitude":73.7898,"temp":22.9,"humidity":45,"rain":0.0,"pressure":945.6,"uv_index":7.85,"wind_gusts":36.7,"aqi":83,"pm10":55.9,"pm2_5":41.2,"mosquito_risk":0,"arthritis_risk":5,"migraine_risk":7,"frizz_risk":0,"updated_at":"2026-03-14T05:01:48.902129+05:30"},{"city":"Aurangabad","state":"Maharashtra","latitude":19.8762,"longitude":75.3433,"temp":22.3,"humidity":52,"rain":0.0,"pressure":943.9,"uv_index":8.4,"wind_gusts":21.6,"aqi":83,"pm10":29.8,"pm2_5":25.9,"mosquito_risk":0,"arthritis_risk":5,"migraine_risk":7,"frizz_risk":0,"updated_at":"2026-03-14T05:01:48.902136+05:30"},{"city":"Solapur","state":"Maharashtra","latitude":17.6599,"longitude":75.9064,"temp":24.1,"humidity":65,"rain":0.0,"pressure":956.8,"uv_index":8.6,"wind_gusts":18.7,"aqi":104,"pm10":47.6,"pm2_5":41.2,"mosquito_risk":3,"arthritis_risk":5,"migraine_risk":7,"frizz_risk":1,"updated_at":"2026-03-14T05:01:48.902144+05:30"},{"city":"Kolhapur","state":"Maharashtra","latitude":16.705,"longitude":74.2433,"temp":20.1,"humidity":98,"rain":0.0,"pressure":947.4,"uv_index":8.7,"wind_gusts":45.4,"aqi":149,"pm10":76.8,"pm2_5":74.5,"mosquito_risk":3,"arthritis_risk":5,"migraine_risk":7,"frizz_risk":1,"updated_at":"2026-03-14T05:01:48.902151+05:30"},{"city":"Goa","state":"Goa","latitude":15.2993,"longitude":74.124,"temp":26.0,"humidity":92,"rain":0.0,"pressure":997.9,"uv_index":8.75,"wind_gusts":34.6,"aqi":134,"pm10":66.4,"pm2_5":62.4,"mosquito_risk":7,"arthritis_risk":5,"migraine_risk":7,"frizz_risk":1,"updated_at":"2026-03-14T05:01:48.902158+05:30"},{"city":"Jodhpur","state":"Rajasthan","latitude":26.2389,"longitude":73.0243,"temp":21.8,"humidity":52,"rain":0.0,"pressure":982.4,"uv_index":7.2,"wind_gusts":36.4,"aqi":86,"pm10":54.1,"pm2_5":22.4,"mosquito_risk":0,"arthritis_risk":5,"migraine_risk":7,"frizz_risk":0,"updated_at":"2026-03-14T05:01:48.902164+05:30"},{"city":"Udaipur","state":"Rajasthan","latitude":24.5854,"longitude":73.7125,"temp":20.6,"humidity":41,"rain":0.0,"pressure":946.3,"uv_index":7.85,"wind_gusts":32.0,"aqi":64,"pm10":46.6,"pm2_5":21.7,"mosquito_risk":0,"arthritis_risk":5,"migraine_risk":7,"frizz_risk":0,"updated_at":"2026-03-14T05:01:48.902171+05:30"},{"city":"Kota","state":"Rajasthan","latitude":25.2138,"longitude":75.8648,"temp":20.1,"humidity":51,"rain":0.0,"pressure":978.6,"uv_index":7.15,"wind_gusts":17.6,"aqi":58,"pm10":37.0,"pm2_5":23.9,"mosquito_risk":0,"arthritis_risk":5,"migraine_risk":7,"frizz_risk":0,"updated_at":"2026-03-14T05:01:48.902178+05:30"},{"city":"Bikaner","state":"Rajasthan","latitude":28.0229,"longitude":73.3119,"temp":24.1,"humidity":43,"rain":0.0,"pressure":982.4,"uv_index":6.3,"wind_gusts":25.9,"aqi":67,"pm10":29.1,"pm2_5":14.3,"mosquito_risk":0,"arthritis_risk":5,"migraine_risk":7,"frizz_risk":0,"updated_at":"2026-03-14T05:01:48.902185+05:30"},{"city":"Ajmer","state":"Rajasthan","latitude":26.4499,"longitude":74.6399,"temp":22.8,"humidity":35,"rain":0.0,"pressure":954.8,"uv_index":7.15,"wind_gusts":32.8,"aqi":74,"pm10":109.4,"pm2_5":28.6,"mosquito_risk":0,"arthritis_risk":5,"migraine_risk":7,"frizz_risk":0,"updated_at":"2026-03-14T05:01:48.902192+05:30"},{"city":"Gwalior","state":"Madhya Pradesh","latitude":26.2183,"longitude":78.1828,"temp":22.9,"humidity":57,"rain":0.0,"pressure":984.2,"uv_index":6.85,"wind_gusts":19.8,"aqi":136,"pm10":774.9,"pm2_5":109.7,"mosquito_risk":0,"arthritis_risk":5,"migraine_risk":7,"frizz_risk":0,"updated_at":"2026-03-14T05:01:48.902198+05:30"},{"city":"Indore","state":"Madhya Pradesh","latitude":22.7196,"longitude":75.8577,"temp":20.8,"humidity":44,"rain":0.0,"pressure":947.7,"uv_index":7.8,"wind_gusts":30.2,"aqi":68,"pm10":35.7,"pm2_5":30.0,"mosquito_risk":0,"arthritis_risk":5,"migraine_risk":7,"frizz_risk":0,"updated_at":"2026-03-14T05:01:48.902205+05:30"},{"city":"Bhopal","state":"Madhya Pradesh","latitude":23.2599,"longitude":77.4126,"temp":19.9,"humidity":41,"rain":0.0,"pressure":953.6,"uv_index":7.65,"wind_gusts":32.8,"aqi":65,"pm10":24.7,"pm2_5":24.5,"mosquito_risk":0,"arthritis_risk":5,"migraine_risk":7,"frizz_risk":0,"updated_at":"2026-03-14T05:01:48.902211+05:30"},{"city":"Jabalpur","state":"Madhya Pradesh","latitude":23.1815,"longitude":79.9864,"temp":19.9,"humidity":52,"rain":0.0,"pressure":961.2,"uv_index":7.8,"wind_gusts":28.4,"aqi":79,"pm10":35.5,"pm2_5":35.2,"mosquito_risk":0,"arthritis_risk":5,"migraine_risk":7,"frizz_risk":0,"updated_at":"2026-03-14T05:01:48.902218+05:30"},{"city":"Ujjain","state":"Madhya Pradesh","latitude":23.1765,"longitude":75.7885,"temp":20.0,"humidity":50,"rain":0.0,"pressure":953.4,"uv_index":7.7,"wind_gusts":34.9,"aqi":66,"pm10":39.0,"pm2_5":31.3,"mosquito_risk":0,"arthritis_risk":5,"migraine_risk":7,"frizz_risk":0,"updated_at":"2026-03-14T05:01:48.902225+05:30"},{"city":"Visakhapatnam","state":"Andhra Pradesh","latitude":17.6868,"longitude":83.2185,"temp":24.4,"humidity":91,"rain":0.0,"pressure":1005.8,"uv_index":8.65,"wind_gusts":40.7,"aqi":74,"pm10":24.4,"pm2_5":21.2,"mosquito_risk":3,"arthritis_risk":5,"migraine_risk":4,"frizz_risk":1,"updated_at":"2026-03-14T05:01:48.902231+05:30"},{"city":"Vijayawada","state":"Andhra Pradesh","latitude":16.5062,"longitude":80.648,"temp":24.6,"humidity":93,"rain":0.0,"pressure":1004.2,"uv_index":8.75,"wind_gusts":31.7,"aqi":79,"pm10":21.5,"pm2_5":18.2,"mosquito_risk":3,"arthritis_risk":5,"migraine_risk":4,"frizz_risk":1,"updated_at":"2026-03-14T05:01:48.902238+05:30"},{"city":"Guntur","state":"Andhra Pradesh","latitude":16.3067,"longitude":80.4365,"temp":24.4,"humidity":95,"rain":0.0,"pressure":1005.2,"uv_index":8.75,"wind_gusts":34.9,"aqi":75,"pm10":17.7,"pm2_5":14.9,"mosquito_risk":3,"arthritis_risk":5,"migraine_risk":4,"frizz_risk":1,"updated_at":"2026-03-14T05:01:48.902245+05:30"},{"city":"Nellore","state":"Andhra Pradesh","latitude":14.4426,"longitude":79.9865,"temp":23.8,"humidity":95,"rain":0.0,"pressure":1007.0,"uv_index":8.9,"wind_gusts":31.0,"aqi":68,"pm10":17.6,"pm2_5":15.3,"mosquito_risk":3,"arthritis_risk":5,"migraine_risk":4,"frizz_risk":1,"updated_at":"2026-03-14T05:01:48.902252+05:30"},{"city":"Kurnool","state":"Andhra Pradesh","latitude":15.8281,"longitude":78.0373,"temp":25.4,"humidity":67,"rain":0.0,"pressure":977.1,"uv_index":8.75,"wind_gusts":24.1,"aqi":110,"pm10":27.8,"pm2_5":25.2,"mosquito_risk":7,"arthritis_risk":5,"migraine_risk":7,"frizz_risk":1,"updated_at":"2026-03-14T05:01:48.902260+05:30"},{"city":"Kakinada","state":"Andhra Pradesh","latitude":16.9891,"longitude":82.2475,"temp":23.6,"humidity":95,"rain":0.0,"pressure":1009.7,"uv_index":8.7,"wind_gusts":31.7,"aqi":66,"pm10":23.7,"pm2_5":18.3,"mosquito_risk":3,"arthritis_risk":0,"migraine_risk":4,"frizz_risk":1,"updated_at":"2026-03-14T05:01:48.902266+05:30"},{"city":"Tirupati","state":"Andhra Pradesh","latitude":13.6288,"longitude":79.4192,"temp":21.3,"humidity":97,"rain":0.0,"pressure":993.3,"uv_index":9.0,"wind_gusts":30.2,"aqi":81,"pm10":30.5,"pm2_5":27.1,"mosquito_risk":3,"arthritis_risk":5,"migraine_risk":7,"frizz_risk":1,"updated_at":"2026-03-14T05:01:48.902273+05:30"},{"city":"Warangal","state":"Telangana","latitude":17.9689,"longitude":79.5941,"temp":22.9,"humidity":93,"rain":0.0,"pressure":979.3,"uv_index":8.5,"wind_gusts":28.8,"aqi":116,"pm10":23.3,"pm2_5":21.2,"mosquito_risk":3,"arthritis_risk":5,"migraine_risk":7,"frizz_risk":1,"updated_at":"2026-03-14T05:01:48.902279+05:30"},{"city":"Nizamabad","state":"Telangana","latitude":18.6725,"longitude":78.0941,"temp":25.4,"humidity":51,"rain":0.0,"pressure":964.6,"uv_index":8.45,"wind_gusts":30.6,"aqi":125,"pm10":47.4,"pm2_5":41.1,"mosquito_risk":4,"arthritis_risk":5,"migraine_risk":7,"frizz_risk":0,"updated_at":"2026-03-14T05:01:48.902286+05:30"},{"city":"Mysore","state":"Karnataka","latitude":12.2958,"longitude":76.6396,"temp":21.0,"humidity":98,"rain":0.0,"pressure":928.5,"uv_index":9.3,"wind_gusts":29.9,"aqi":96,"pm10":50.3,"pm2_5":46.4,"mosquito_risk":3,"arthritis_risk":5,"migraine_risk":7,"frizz_risk":1,"updated_at":"2026-03-14T05:01:48.902293+05:30"},{"city":"Mangalore","state":"Karnataka","latitude":12.9141,"longitude":74.856,"temp":27.8,"humidity":83,"rain":0.0,"pressure":1007.2,"uv_index":8.95,"wind_gusts":26.6,"aqi":110,"pm10":45.4,"pm2_5":40.5,"mosquito_risk":7,"arthritis_risk":5,"migraine_risk":4,"frizz_risk":1,"updated_at":"2026-03-14T05:01:48.902300+05:30"},{"city":"Hubli-Dharwad","state":"Karnataka","latitude":15.3647,"longitude":75.124,"temp":21.5,"humidity":96,"rain":0.0,"pressure":940.6,"uv_index":8.95,"wind_gusts":41.0,"aqi":94,"pm10":51.3,"pm2_5":48.4,"mosquito_risk":3,"arthritis_risk":5,"migraine_risk":7,"frizz_risk":1,"updated_at":"2026-03-14T05:01:48.902307+05:30"},{"city":"Belgaum","state":"Karnataka","latitude":15.8497,"longitude":74.4977,"temp":20.8,"humidity":98,"rain":0.0,"pressure":925.1,"uv_index":8.95,"wind_gusts":43.2,"aqi":118,"pm10":57.4,"pm2_5":53.2,"mosquito_risk":3,"arthritis_risk":5,"migraine_risk":7,"frizz_risk":1,"updated_at":"2026-03-14T05:01:52.156838+05:30"},{"city":"Coimbatore","state":"Tamil Nadu","latitude":11.0168,"longitude":76.9558,"temp":21.4,"humidity":75,"rain":0.0,"pressure":962.5,"uv_index":9.3,"wind_gusts":31.3,"aqi":81,"pm10":22.6,"pm2_5":21.6,"mosquito_risk":3,"arthritis_risk":5,"migraine_risk":7,"frizz_risk":1,"updated_at":"2026-03-14T05:01:52.156872+05:30"},{"city":"Madurai","state":"Tamil Nadu","latitude":9.9252,"longitude":78.1198,"temp":24.5,"humidity":88,"rain":0.0,"pressure":994.7,"uv_index":9.25,"wind_gusts":30.6,"aqi":71,"pm10":30.7,"pm2_5":28.1,"mosquito_risk":3,"arthritis_risk":5,"migraine_risk":7,"frizz_risk":1,"updated_at":"2026-03-14T05:01:52.156882+05:30"},{"city":"Trichy","state":"Tamil Nadu","latitude":10.7905,"longitude":78.7047,"temp":23.4,"humidity":96,"rain":0.0,"pressure":1001.7,"uv_index":9.2,"wind_gusts":19.8,"aqi":75,"pm10":34.1,"pm2_5":30.4,"mosquito_risk":3,"arthritis_risk":5,"migraine_risk":4,"frizz_risk":1,"updated_at":"2026-03-14T05:01:52.156890+05:30"},{"city":"Salem","state":"Tamil Nadu","latitude":11.6643,"longitude":78.146,"temp":21.8,"humidity":97,"rain":0.0,"pressure":978.7,"uv_index":9.2,"wind_gusts":16.9,"aqi":105,"pm10":50.4,"pm2_5":47.4,"mosquito_risk":3,"arthritis_risk":5,"migraine_risk":7,"frizz_risk":1,"updated_at":"2026-03-14T05:01:52.156899+05:30"},{"city":"Tirunelveli","state":"Tamil Nadu","latitude":8.7139,"longitude":77.7567,"temp":23.5,"humidity":82,"rain":0.0,"pressure":1004.8,"uv_index":9.25,"wind_gusts":38.5,"aqi":56,"pm10":17.7,"pm2_5":15.8,"mosquito_risk":3,"arthritis_risk":5,"migraine_risk":4,"frizz_risk":1,"updated_at":"2026-03-14T05:01:52.156909+05:30"},{"city":"Vellore","state":"Tamil Nadu","latitude":12.9165,"longitude":79.1325,"temp":19.7,"humidity":100,"rain":0.0,"pressure":986.3,"uv_index":9.1,"wind_gusts":32.4,"aqi":104,"pm10":53.0,"pm2_5":49.7,"mosquito_risk":3,"arthritis_risk":10,"migraine_risk":7,"frizz_risk":1,"updated_at":"2026-03-14T05:01:52.156917+05:30"},{"city":"Erode","state":"Tamil Nadu","latitude":11.341,"longitude":77.7172,"temp":23.6,"humidity":93,"rain":0.0,"pressure":990.6,"uv_index":9.2,"wind_gusts":20.9,"aqi":77,"pm10":21.8,"pm2_5":20.6,"mosquito_risk":3,"arthritis_risk":5,"migraine_risk":7,"frizz_risk":1,"updated_at":"2026-03-14T05:01:52.156925+05:30"},{"city":"Kochi","state":"Kerala","latitude":9.9312,"longitude":76.2673,"temp":26.2,"humidity":84,"rain":0.0,"pressure":1009.5,"uv_index":9.1,"wind_gusts":32.0,"aqi":84,"pm10":34.1,"pm2_5":33.5,"mosquito_risk":7,"arthritis_risk":0,"migraine_risk":4,"frizz_risk":1,"updated_at":"2026-03-14T05:01:52.156933+05:30"},{"city":"Thiruvananthapuram","state":"Kerala","latitude":8.5241,"longitude":76.9366,"temp":27.0,"humidity":85,"rain":0.0,"pressure":1008.6,"uv_index":9.1,"wind_gusts":22.7,"aqi":60,"pm10":16.9,"pm2_5":13.9,"mosquito_risk":7,"arthritis_risk":0,"migraine_risk":4,"frizz_risk":1,"updated_at":"2026-03-14T05:01:52.156941+05:30"},{"city":"Kozhikode","state":"Kerala","latitude":11.2588,"longitude":75.7804,"temp":26.5,"humidity":85,"rain":0.0,"pressure":1008.9,"uv_index":9.0,"wind_gusts":27.7,"aqi":86,"pm10":25.1,"pm2_5":22.5,"mosquito_risk":7,"arthritis_risk":0,"migraine_risk":4,"frizz_risk":1,"updated_at":"2026-03-14T05:01:52.156948+05:30"},{"city":"Thrissur","state":"Kerala","latitude":10.5276,"longitude":76.2144,"temp":25.1,"humidity":90,"rain":0.0,"pressure":1008.0,"uv_index":9.05,"wind_gusts":36.4,"aqi":101,"pm10":42.6,"pm2_5":40.9,"mosquito_risk":7,"arthritis_risk":0,"migraine_risk":4,"frizz_risk":1,"updated_at":"2026-03-14T05:01:52.156956+05:30"},{"city":"Kannur","state":"Kerala","latitude":11.8745,"longitude":75.3704,"temp":26.3,"humidity":86,"rain":0.0,"pressure":1008.0,"uv_index":9.0,"wind_gusts":32.0,"aqi":104,"pm10":37.8,"pm2_5":34.7,"mosquito_risk":7,"arthritis_risk":0,"migraine_risk":4,"frizz_risk":1,"updated_at":"2026-03-14T05:01:52.156964+05:30"},{"city":"Patna","state":"Bihar","latitude":25.5941,"longitude":85.1376,"temp":22.3,"humidity":77,"rain":0.0,"pressure":1000.5,"uv_index":7.35,"wind_gusts":19.8,"aqi":162,"pm10":75.2,"pm2_5":47.0,"mosquito_risk":3,"arthritis_risk":5,"migraine_risk":4,"frizz_risk":1,"updated_at":"2026-03-14T05:01:52.156971+05:30"},{"city":"Gaya","state":"Bihar","latitude":24.7914,"longitude":85.0002,"temp":20.6,"humidity":70,"rain":0.0,"pressure":994.1,"uv_index":7.55,"wind_gusts":19.1,"aqi":138,"pm10":108.7,"pm2_5":46.8,"mosquito_risk":3,"arthritis_risk":5,"migraine_risk":7,"frizz_risk":0,"updated_at":"2026-03-14T05:01:52.156978+05:30"},{"city":"Muzaffarpur","state":"Bihar","latitude":26.1209,"longitude":85.3647,"temp":20.8,"humidity":96,"rain":0.0,"pressure":1000.6,"uv_index":7.45,"wind_gusts":20.9,"aqi":169,"pm10":119.7,"pm2_5":82.9,"mosquito_risk":3,"arthritis_risk":5,"migraine_risk":4,"frizz_risk":1,"updated_at":"2026-03-14T05:01:52.156985+05:30"},{"city":"Bhagalpur","state":"Bihar","latitude":25.2425,"longitude":87.0117,"temp":22.5,"humidity":97,"rain":0.0,"pressure":1001.5,"uv_index":7.45,"wind_gusts":22.0,"aqi":163,"pm10":202.1,"pm2_5":86.4,"mosquito_risk":3,"arthritis_risk":5,"migraine_risk":4,"frizz_risk":1,"updated_at":"2026-03-14T05:01:52.156995+05:30"},{"city":"Ranchi","state":"Jharkhand","latitude":23.3441,"longitude":85.3096,"temp":21.8,"humidity":39,"rain":0.0,"pressure":938.0,"uv_index":8.25,"wind_gusts":33.5,"aqi":68,"pm10":121.5,"pm2_5":36.1,"mosquito_risk":0,"arthritis_risk":5,"migraine_risk":7,"frizz_risk":0,"updated_at":"2026-03-14T05:01:52.157005+05:30"},{"city":"Jamshedpur","state":"Jharkhand","latitude":22.8046,"longitude":86.2029,"temp":23.2,"humidity":80,"rain":0.0,"pressure":991.4,"uv_index":8.15,"wind_gusts":17.6,"aqi":150,"pm10":119.7,"pm2_5":81.5,"mosquito_risk":3,"arthritis_risk":5,"migraine_risk":7,"frizz_risk":1,"updated_at":"2026-03-14T05:01:52.157012+05:30"},{"city":"Dhanbad","state":"Jharkhand","latitude":23.7957,"longitude":86.4304,"temp":20.6,"humidity":68,"rain":0.0,"pressure":980.1,"uv_index":8.0,"wind_gusts":21.2,"aqi":157,"pm10":197.4,"pm2_5":106.2,"mosquito_risk":3,"arthritis_risk":5,"migraine_risk":7,"frizz_risk":0,"updated_at":"2026-03-14T05:01:52.157019+05:30"},{"city":"Bokaro","state":"Jharkhand","latitude":23.6693,"longitude":86.1511,"temp":20.5,"humidity":60,"rain":0.0,"pressure":984.4,"uv_index":8.0,"wind_gusts":26.6,"aqi":147,"pm10":174.6,"pm2_5":89.4,"mosquito_risk":0,"arthritis_risk":5,"migraine_risk":7,"frizz_risk":0,"updated_at":"2026-03-14T05:01:52.157026+05:30"},{"city":"Bhubaneswar","state":"Odisha","latitude":20.2961,"longitude":85.8245,"temp":25.0,"humidity":89,"rain":0.0,"pressure":1003.8,"uv_index":8.45,"wind_gusts":38.9,"aqi":86,"pm10":14.7,"pm2_5":11.8,"mosquito_risk":7,"arthritis_risk":5,"migraine_risk":4,"frizz_risk":1,"updated_at":"2026-03-14T05:01:52.157033+05:30"},{"city":"Cuttack","state":"Odisha","latitude":20.4625,"longitude":85.8828,"temp":24.9,"humidity":90,"rain":0.0,"pressure":1005.7,"uv_index":8.45,"wind_gusts":38.5,"aqi":86,"pm10":14.7,"pm2_5":11.8,"mosquito_risk":3,"arthritis_risk":5,"migraine_risk":4,"frizz_risk":1,"updated_at":"2026-03-14T05:01:52.157041+05:30"},{"city":"Rourkela","state":"Odisha","latitude":22.2604,"longitude":84.8536,"temp":21.7,"humidity":86,"rain":0.0,"pressure":985.7,"uv_index":8.05,"wind_gusts":29.2,"aqi":92,"pm10":54.4,"pm2_5":37.7,"mosquito_risk":3,"arthritis_risk":5,"migraine_risk":7,"frizz_risk":1,"updated_at":"2026-03-14T05:01:52.157047+05:30"},{"city":"Raipur","state":"Chhattisgarh","latitude":21.2514,"longitude":81.6296,"temp":22.4,"humidity":46,"rain":0.0,"pressure":974.4,"uv_index":8.2,"wind_gusts":31.0,"aqi":131,"pm10":78.5,"pm2_5":69.4,"mosquito_risk":0,"arthritis_risk":5,"migraine_risk":7,"frizz_risk":0,"updated_at":"2026-03-14T05:01:52.157054+05:30"},{"city":"Bhilai","state":"Chhattisgarh","latitude":21.1938,"longitude":81.3509,"temp":20.4,"humidity":51,"rain":0.0,"pressure":974.8,"uv_index":8.2,"wind_gusts":31.0,"aqi":126,"pm10":74.3,"pm2_5":64.5,"mosquito_risk":0,"arthritis_risk":5,"migraine_risk":7,"frizz_risk":0,"updated_at":"2026-03-14T05:01:52.157060+05:30"},{"city":"Guwahati","state":"Assam","latitude":26.1158,"longitude":91.7086,"temp":21.2,"humidity":91,"rain":0.0,"pressure":1003.9,"uv_index":7.45,"wind_gusts":42.5,"aqi":110,"pm10":22.6,"pm2_5":16.1,"mosquito_risk":3,"arthritis_risk":5,"migraine_risk":4,"frizz_risk":1,"updated_at":"2026-03-14T05:01:52.157067+05:30"},{"city":"Agartala","state":"Tripura","latitude":23.8315,"longitude":91.2868,"temp":21.3,"humidity":96,"rain":0.0,"pressure":1009.0,"uv_index":7.85,"wind_gusts":39.2,"aqi":84,"pm10":19.0,"pm2_5":16.2,"mosquito_risk":3,"arthritis_risk":0,"migraine_risk":4,"frizz_risk":1,"updated_at":"2026-03-14T05:01:52.157074+05:30"},{"city":"Shillong","state":"Meghalaya","latitude":25.5788,"longitude":91.8933,"temp":12.7,"humidity":94,"rain":0.0,"pressure":855.6,"uv_index":7.05,"wind_gusts":67.7,"aqi":74,"pm10":7.0,"pm2_5":5.0,"mosquito_risk":3,"arthritis_risk":10,"migraine_risk":7,"frizz_risk":0,"updated_at":"2026-03-14T05:01:52.157081+05:30"},{"city":"Imphal","state":"Manipur","latitude":24.817,"longitude":93.9368,"temp":15.6,"humidity":95,"rain":0.0,"pressure":924.9,"uv_index":7.65,"wind_gusts":69.8,"aqi":157,"pm10":32.1,"pm2_5":27.6,"mosquito_risk":3,"arthritis_risk":10,"migraine_risk":7,"frizz_risk":0,"updated_at":"2026-03-14T05:01:52.157088+05:30"},{"city":"Aizawl","state":"Mizoram","latitude":23.7271,"longitude":92.7176,"temp":17.0,"humidity":85,"rain":0.0,"pressure":894.4,"uv_index":8.0,"wind_gusts":58.7,"aqi":137,"pm10":42.1,"pm2_5":35.5,"mosquito_risk":3,"arthritis_risk":10,"migraine_risk":7,"frizz_risk":0,"updated_at":"2026-03-14T05:01:52.157096+05:30"},{"city":"Kohima","state":"Nagaland","latitude":25.6701,"longitude":94.1077,"temp":14.1,"humidity":86,"rain":0.0,"pressure":854.9,"uv_index":6.55,"wind_gusts":104.8,"aqi":134,"pm10":27.2,"pm2_5":23.5,"mosquito_risk":3,"arthritis_risk":10,"migraine_risk":7,"frizz_risk":0,"updated_at":"2026-03-14T05:01:52.157102+05:30"},{"city":"Gangtok","state":"Sikkim","latitude":27.3314,"longitude":88.6138,"temp":12.7,"humidity":84,"rain":0.0,"pressure":835.1,"uv_index":6.95,"wind_gusts":22.0,"aqi":92,"pm10":38.3,"pm2_5":32.6,"mosquito_risk":3,"arthritis_risk":10,"migraine_risk":7,"frizz_risk":0,"updated_at":"2026-03-14T05:01:52.157109+05:30"},{"city":"Siliguri","state":"West Bengal","latitude":26.7271,"longitude":88.3953,"temp":18.0,"humidity":94,"rain":0.0,"pressure":995.0,"uv_index":7.4,"wind_gusts":29.2,"aqi":137,"pm10":63.3,"pm2_5":49.4,"mosquito_risk":3,"arthritis_risk":10,"migraine_risk":7,"frizz_risk":1,"updated_at":"2026-03-14T05:01:55.414050+05:30"},{"city":"Durgapur","state":"West Bengal","latitude":23.5204,"longitude":87.3119,"temp":24.0,"humidity":97,"rain":0.0,"pressure":995.7,"uv_index":7.95,"wind_gusts":25.9,"aqi":154,"pm10":104.5,"pm2_5":78.9,"mosquito_risk":3,"arthritis_risk":5,"migraine_risk":7,"frizz_risk":1,"updated_at":"2026-03-14T05:01:55.414081+05:30"},{"city":"Asansol","state":"West Bengal","latitude":23.6739,"longitude":86.9524,"temp":23.8,"humidity":95,"rain":0.0,"pressure":994.2,"uv_index":7.95,"wind_gusts":24.8,"aqi":151,"pm10":131.3,"pm2_5":70.1,"mosquito_risk":3,"arthritis_risk":5,"migraine_risk":7,"frizz_risk":1,"updated_at":"2026-03-14T05:01:55.414091+05:30"},{"city":"Pondicherry","state":"Puducherry","latitude":11.9139,"longitude":79.8145,"temp":23.0,"humidity":99,"rain":0.0,"pressure":1010.4,"uv_index":9.05,"wind_gusts":30.2,"aqi":56,"pm10":20.1,"pm2_5":15.7,"mosquito_risk":3,"arthritis_risk":0,"migraine_risk":4,"frizz_risk":1,"updated_at":"2026-03-14T05:01:55.414099+05:30"},{"city":"Port Blair","state":"Andaman and Nicobar Islands","latitude":11.6234,"longitude":92.7265,"temp":27.3,"humidity":81,"rain":0.0,"pressure":1008.6,"uv_index":8.95,"wind_gusts":26.6,"aqi":61,"pm10":11.6,"pm2_5":8.9,"mosquito_risk":7,"arthritis_risk":0,"migraine_risk":4,"frizz_risk":1,"updated_at":"2026-03-14T05:01:55.414107+05:30"},{"city":"Haridwar","state":"Uttarakhand","latitude":29.9457,"longitude":78.1642,"temp":17.8,"humidity":81,"rain":0.0,"pressure":973.8,"uv_index":5.15,"wind_gusts":22.3,"aqi":88,"pm10":49.2,"pm2_5":44.2,"mosquito_risk":3,"arthritis_risk":10,"migraine_risk":3,"frizz_risk":0,"updated_at":"2026-03-14T05:01:55.414115+05:30"},{"city":"Rishikesh","state":"Uttarakhand","latitude":30.0869,"longitude":78.2676,"temp":18.6,"humidity":59,"rain":0.0,"pressure":966.5,"uv_index":4.65,"wind_gusts":22.0,"aqi":65,"pm10":23.5,"pm2_5":22.7,"mosquito_risk":0,"arthritis_risk":5,"migraine_risk":3,"frizz_risk":0,"updated_at":"2026-03-14T05:01:55.414123+05:30"},{"city":"Nainital","state":"Uttarakhand","latitude":29.3919,"longitude":79.4542,"temp":17.6,"humidity":40,"rain":0.0,"pressure":804.9,"uv_index":6.25,"wind_gusts":34.9,"aqi":82,"pm10":30.3,"pm2_5":28.9,"mosquito_risk":0,"arthritis_risk":5,"migraine_risk":7,"frizz_risk":0,"updated_at":"2026-03-14T05:01:55.414130+05:30"},{"city":"Mussoorie","state":"Uttarakhand","latitude":30.4599,"longitude":78.0664,"temp":15.1,"humidity":45,"rain":0.0,"pressure":801.1,"uv_index":4.0,"wind_gusts":25.9,"aqi":71,"pm10":23.4,"pm2_5":21.9,"mosquito_risk":0,"arthritis_risk":5,"migraine_risk":3,"frizz_risk":0,"updated_at":"2026-03-14T05:01:55.414138+05:30"},{"city":"Dharamshala","state":"Himachal Pradesh","latitude":32.219,"longitude":76.3234,"temp":18.1,"humidity":17,"rain":0.0,"pressure":867.9,"uv_index":5.65,"wind_gusts":20.9,"aqi":36,"pm10":13.7,"pm2_5":8.1,"mosquito_risk":0,"arthritis_risk":5,"migraine_risk":3,"frizz_risk":1,"updated_at":"2026-03-14T05:01:55.414145+05:30"},{"city":"Dalhousie","state":"Himachal Pradesh","latitude":32.5387,"longitude":75.971,"temp":14.3,"humidity":22,"rain":0.0,"pressure":801.8,"uv_index":6.1,"wind_gusts":18.7,"aqi":62,"pm10":24.3,"pm2_5":20.0,"mosquito_risk":0,"arthritis_risk":5,"migraine_risk":7,"frizz_risk":1,"updated_at":"2026-03-14T05:01:55.414153+05:30"},{"city":"Patiala","state":"Punjab","latitude":30.3398,"longitude":76.3869,"temp":17.3,"humidity":78,"rain":0.0,"pressure":978.3,"uv_index":5.8,"wind_gusts":22.7,"aqi":347,"pm10":501.1,"pm2_5":68.2,"mosquito_risk":3,"arthritis_risk":5,"migraine_risk":3,"frizz_risk":0,"updated_at":"2026-03-14T05:01:55.414160+05:30"},{"city":"Bhatinda","state":"Punjab","latitude":30.211,"longitude":74.9455,"temp":19.4,"humidity":77,"rain":0.0,"pressure":984.5,"uv_index":5.75,"wind_gusts":16.2,"aqi":98,"pm10":45.3,"pm2_5":34.7,"mosquito_risk":3,"arthritis_risk":5,"migraine_risk":3,"frizz_risk":0,"updated_at":"2026-03-14T05:01:55.414167+05:30"},{"city":"Rohtak","state":"Haryana","latitude":28.8955,"longitude":76.6066,"temp":17.7,"humidity":82,"rain":0.0,"pressure":982.3,"uv_index":5.8,"wind_gusts":21.2,"aqi":567,"pm10":416.3,"pm2_5":77.1,"mosquito_risk":3,"arthritis_risk":10,"migraine_risk":3,"frizz_risk":0,"updated_at":"2026-03-14T05:01:55.414174+05:30"},{"city":"Panipat","state":"Haryana","latitude":29.3909,"longitude":76.9635,"temp":17.3,"humidity":81,"rain":0.0,"pressure":980.7,"uv_index":5.95,"wind_gusts":24.5,"aqi":1037,"pm10":944.4,"pm2_5":124.8,"mosquito_risk":3,"arthritis_risk":10,"migraine_risk":3,"frizz_risk":0,"updated_at":"2026-03-14T05:01:55.414181+05:30"},{"city":"Mathura","state":"Uttar Pradesh","latitude":27.4924,"longitude":77.6737,"temp":19.4,"humidity":66,"rain":0.0,"pressure":987.8,"uv_index":5.75,"wind_gusts":37.8,"aqi":824,"pm10":825.2,"pm2_5":140.6,"mosquito_risk":3,"arthritis_risk":5,"migraine_risk":3,"frizz_risk":0,"updated_at":"2026-03-14T05:01:55.414187+05:30"},{"city":"Vrindavan","state":"Uttar Pradesh","latitude":27.5823,"longitude":77.7027,"temp":18.8,"humidity":72,"rain":0.0,"pressure":988.2,"uv_index":5.8,"wind_gusts":35.3,"aqi":824,"pm10":825.2,"pm2_5":140.6,"mosquito_risk":3,"arthritis_risk":5,"migraine_risk":3,"frizz_risk":0,"updated_at":"2026-03-14T05:01:55.414194+05:30"},{"city":"Ayodhya","state":"Uttar Pradesh","latitude":26.7922,"longitude":82.1998,"temp":19.6,"humidity":79,"rain":0.0,"pressure":995.4,"uv_index":6.85,"wind_gusts":24.1,"aqi":154,"pm10":252.4,"pm2_5":74.5,"mosquito_risk":3,"arthritis_risk":5,"migraine_risk":7,"frizz_risk":0,"updated_at":"2026-03-14T05:01:55.414201+05:30"},{"city":"Ratlam","state":"Madhya Pradesh","latitude":23.3315,"longitude":75.0367,"temp":24.2,"humidity":38,"rain":0.0,"pressure":954.5,"uv_index":7.65,"wind_gusts":36.0,"aqi":65,"pm10":40.7,"pm2_5":30.5,"mosquito_risk":0,"arthritis_risk":5,"migraine_risk":7,"frizz_risk":0,"updated_at":"2026-03-14T05:01:55.414208+05:30"},{"city":"Sagar","state":"Madhya Pradesh","latitude":23.8388,"longitude":78.7378,"temp":19.6,"humidity":41,"rain":0.0,"pressure":949.7,"uv_index":7.65,"wind_gusts":31.7,"aqi":57,"pm10":24.7,"pm2_5":16.5,"mosquito_risk":0,"arthritis_risk":5,"migraine_risk":7,"frizz_risk":0,"updated_at":"2026-03-14T05:01:55.414214+05:30"},{"city":"Satna","state":"Madhya Pradesh","latitude":24.6005,"longitude":80.8322,"temp":20.2,"humidity":48,"rain":0.0,"pressure":971.6,"uv_index":7.6,"wind_gusts":29.5,"aqi":56,"pm10":153.7,"pm2_5":37.5,"mosquito_risk":0,"arthritis_risk":5,"migraine_risk":7,"frizz_risk":0,"updated_at":"2026-03-14T05:01:55.414221+05:30"},{"city":"Akola","state":"Maharashtra","latitude":20.7002,"longitude":77.0082,"temp":23.8,"humidity":47,"rain":0.0,"pressure":974.8,"uv_index":8.1,"wind_gusts":15.1,"aqi":92,"pm10":41.6,"pm2_5":40.0,"mosquito_risk":0,"arthritis_risk":5,"migraine_risk":7,"frizz_risk":0,"updated_at":"2026-03-14T05:01:55.414228+05:30"},{"city":"Amravati","state":"Maharashtra","latitude":20.9374,"longitude":77.7796,"temp":22.5,"humidity":49,"rain":0.0,"pressure":966.7,"uv_index":8.1,"wind_gusts":11.2,"aqi":97,"pm10":52.9,"pm2_5":49.8,"mosquito_risk":0,"arthritis_risk":5,"migraine_risk":7,"frizz_risk":0,"updated_at":"2026-03-14T05:01:55.414235+05:30"},{"city":"Latur","state":"Maharashtra","latitude":18.4088,"longitude":76.5604,"temp":23.8,"humidity":54,"rain":0.0,"pressure":939.5,"uv_index":8.5,"wind_gusts":22.7,"aqi":104,"pm10":46.6,"pm2_5":37.7,"mosquito_risk":0,"arthritis_risk":5,"migraine_risk":7,"frizz_risk":0,"updated_at":"2026-03-14T05:01:55.414241+05:30"},{"city":"Nanded","state":"Maharashtra","latitude":19.1383,"longitude":77.3091,"temp":22.9,"humidity":53,"rain":0.0,"pressure":968.5,"uv_index":8.3,"wind_gusts":28.1,"aqi":120,"pm10":58.9,"pm2_5":50.1,"mosquito_risk":0,"arthritis_risk":5,"migraine_risk":7,"frizz_risk":0,"updated_at":"2026-03-14T05:01:55.414247+05:30"},{"city":"Gulbarga","state":"Karnataka","latitude":17.3297,"longitude":76.8343,"temp":25.7,"humidity":52,"rain":0.0,"pressure":959.0,"uv_index":8.6,"wind_gusts":41.8,"aqi":99,"pm10":38.0,"pm2_5":34.1,"mosquito_risk":4,"arthritis_risk":5,"migraine_risk":7,"frizz_risk":0,"updated_at":"2026-03-14T05:01:55.414254+05:30"},{"city":"Bidar","state":"Karnataka","latitude":17.9104,"longitude":77.5199,"temp":24.7,"humidity":52,"rain":0.0,"pressure":935.4,"uv_index":8.55,"wind_gusts":41.0,"aqi":102,"pm10":39.8,"pm2_5":34.7,"mosquito_risk":0,"arthritis_risk":5,"migraine_risk":7,"frizz_risk":0,"updated_at":"2026-03-14T05:01:55.414260+05:30"},{"city":"Hospet","state":"Karnataka","latitude":15.2689,"longitude":76.3909,"temp":24.3,"humidity":87,"rain":0.0,"pressure":956.2,"uv_index":8.9,"wind_gusts":27.0,"aqi":107,"pm10":43.8,"pm2_5":39.2,"mosquito_risk":3,"arthritis_risk":5,"migraine_risk":7,"frizz_risk":1,"updated_at":"2026-03-14T05:01:55.414267+05:30"},{"city":"Tirupur","state":"Tamil Nadu","latitude":11.1085,"longitude":77.3411,"temp":23.8,"humidity":81,"rain":0.0,"pressure":976.5,"uv_index":9.3,"wind_gusts":27.0,"aqi":84,"pm10":22.4,"pm2_5":21.2,"mosquito_risk":3,"arthritis_risk":5,"migraine_risk":7,"frizz_risk":1,"updated_at":"2026-03-14T05:01:55.414273+05:30"},{"city":"Alappuzha","state":"Kerala","latitude":9.4981,"longitude":76.3388,"temp":26.2,"humidity":85,"rain":0.0,"pressure":1009.6,"uv_index":9.1,"wind_gusts":28.1,"aqi":81,"pm10":21.9,"pm2_5":20.4,"mosquito_risk":7,"arthritis_risk":0,"migraine_risk":4,"frizz_risk":1,"updated_at":"2026-03-14T05:01:55.414279+05:30"},{"city":"Munnar","state":"Kerala","latitude":10.0889,"longitude":77.0595,"temp":17.0,"humidity":82,"rain":0.0,"pressure":855.3,"uv_index":9.6,"wind_gusts":31.3,"aqi":67,"pm10":18.7,"pm2_5":17.2,"mosquito_risk":3,"arthritis_risk":10,"migraine_risk":7,"frizz_risk":0,"updated_at":"2026-03-14T05:01:55.414287+05:30"},{"city":"Silchar","state":"Assam","latitude":24.8333,"longitude":92.7789,"temp":20.4,"humidity":96,"rain":0.0,"pressure":1008.6,"uv_index":7.35,"wind_gusts":41.8,"aqi":155,"pm10":21.5,"pm2_5":18.6,"mosquito_risk":3,"arthritis_risk":0,"migraine_risk":4,"frizz_risk":1,"updated_at":"2026-03-14T05:01:55.414293+05:30"},{"city":"Dibrugarh","state":"Assam","latitude":27.4728,"longitude":94.912,"temp":19.9,"humidity":90,"rain":0.0,"pressure":998.6,"uv_index":1.3,"wind_gusts":19.8,"aqi":118,"pm10":20.1,"pm2_5":19.3,"mosquito_risk":3,"arthritis_risk":10,"migraine_risk":3,"frizz_risk":1,"updated_at":"2026-03-14T05:01:55.414299+05:30"}]