[{"city":"Delhi","state":"Delhi","latitude":28.6139,"longitude":77.209,"temp":32.8,"humidity":43,"rain":0.0,"pressure":978.2,"uv_index":7.8,"wind_gusts":37.8,"aqi":510,"pm10":961.1,"pm2_5":166.2,"no2":26.0,"co":305.0,"o3":80.0,"so2":13.9,"mosquito_risk":0,"arthritis_risk":5,"migraine_risk":7,"frizz_risk":1,"updated_at":"2026-06-22T21:24:19.877751+05:30"},{"city":"Mumbai","state":"Maharashtra","latitude":19.076,"longitude":72.8777,"temp":28.0,"humidity":83,"rain":0.1,"pressure":1006.4,"uv_index":7.7,"wind_gusts":41.4,"aqi":40,"pm10":10.4,"pm2_5":7.6,"no2":11.5,"co":280.0,"o3":40.0,"so2":8.7,"mosquito_risk":10,"arthritis_risk":5,"migraine_risk":4,"frizz_risk":1,"updated_at":"2026-06-22T21:24:19.877834+05:30"},{"city":"Bangalore","state":"Karnataka","latitude":12.9716,"longitude":77.5946,"temp":21.0,"humidity":95,"rain":0.0,"pressure":913.2,"uv_index":8.35,"wind_gusts":46.4,"aqi":31,"pm10":12.0,"pm2_5":11.3,"no2":31.8,"co":411.0,"o3":30.0,"so2":8.0,"mosquito_risk":3,"arthritis_risk":5,"migraine_risk":7,"frizz_risk":1,"updated_at":"2026-06-22T21:24:19.877856+05:30"},{"city":"Hyderabad","state":"Telangana","latitude":17.385,"longitude":78.4867,"temp":28.0,"humidity":69,"rain":0.0,"pressure":952.8,"uv_index":9.05,"wind_gusts":41.4,"aqi":48,"pm10":17.9,"pm2_5":17.2,"no2":24.7,"co":476.0,"o3":43.0,"so2":7.0,"mosquito_risk":7,"arthritis_risk":5,"migraine_risk":7,"frizz_risk":1,"updated_at":"2026-06-22T21:24:19.877867+05:30"},{"city":"Chennai","state":"Tamil Nadu","latitude":13.0827,"longitude":80.2707,"temp":28.9,"humidity":83,"rain":0.0,"pressure":1007.2,"uv_index":8.6,"wind_gusts":34.6,"aqi":87,"pm10":25.4,"pm2_5":19.9,"no2":9.0,"co":225.0,"o3":110.0,"so2":7.4,"mosquito_risk":7,"arthritis_risk":5,"migraine_risk":4,"frizz_risk":1,"updated_at":"2026-06-22T21:24:19.877878+05:30"},{"city":"Kolkata","state":"West Bengal","latitude":22.5726,"longitude":88.3639,"temp":27.8,"humidity":91,"rain":0.0,"pressure":1002.3,"uv_index":7.9,"wind_gusts":30.6,"aqi":124,"pm10":46.8,"pm2_5":45.3,"no2":18.3,"co":834.0,"o3":79.0,"so2":12.7,"mosquito_risk":7,"arthritis_risk":5,"migraine_risk":4,"frizz_risk":1,"updated_at":"2026-06-22T21:24:19.877888+05:30"},{"city":"Pune","state":"Maharashtra","latitude":18.5204,"longitude":73.8567,"temp":24.7,"humidity":84,"rain":0.0,"pressure":946.8,"uv_index":7.35,"wind_gusts":43.9,"aqi":32,"pm10":6.6,"pm2_5":6.1,"no2":12.5,"co":178.0,"o3":41.0,"so2":6.5,"mosquito_risk":3,"arthritis_risk":5,"migraine_risk":7,"frizz_risk":1,"updated_at":"2026-06-22T21:24:19.877896+05:30"},{"city":"Ahmedabad","state":"Gujarat","latitude":23.0225,"longitude":72.5714,"temp":31.0,"humidity":69,"rain":0.0,"pressure":998.5,"uv_index":8.0,"wind_gusts":42.8,"aqi":70,"pm10":60.5,"pm2_5":25.4,"no2":13.9,"co":158.0,"o3":57.0,"so2":5.4,"mosquito_risk":3,"arthritis_risk":5,"migraine_risk":7,"frizz_risk":1,"updated_at":"2026-06-22T21:24:19.877905+05:30"},{"city":"Jaipur","state":"Rajasthan","latitude":26.9124,"longitude":75.7873,"temp":30.4,"humidity":51,"rain":0.0,"pressure":956.2,"uv_index":8.2,"wind_gusts":39.6,"aqi":121,"pm10":143.9,"pm2_5":59.5,"no2":37.4,"co":470.0,"o3":33.0,"so2":11.5,"mosquito_risk":0,"arthritis_risk":5,"migraine_risk":7,"frizz_risk":1,"updated_at":"2026-06-22T21:24:19.877914+05:30"},{"city":"Lucknow","state":"Uttar Pradesh","latitude":26.8467,"longitude":80.9462,"temp":35.2,"humidity":34,"rain":0.0,"pressure":987.9,"uv_index":8.35,"wind_gusts":37.1,"aqi":162,"pm10":228.2,"pm2_5":59.8,"no2":10.2,"co":225.0,"o3":91.0,"so2":5.7,"mosquito_risk":0,"arthritis_risk":5,"migraine_risk":10,"frizz_risk":1,"updated_at":"2026-06-22T21:24:19.877927+05:30"},{"city":"Kanpur","state":"Uttar Pradesh","latitude":26.4499,"longitude":80.3319,"temp":35.4,"humidity":33,"rain":0.0,"pressure":986.7,"uv_index":8.3,"wind_gusts":41.8,"aqi":209,"pm10":499.2,"pm2_5":88.0,"no2":9.0,"co":213.0,"o3":89.0,"so2":5.1,"mosquito_risk":0,"arthritis_risk":5,"migraine_risk":10,"frizz_risk":1,"updated_at":"2026-06-22T21:24:19.877936+05:30"},{"city":"Chandigarh","state":"Chandigarh","latitude":30.7333,"longitude":76.7794,"temp":28.4,"humidity":52,"rain":0.0,"pressure":963.8,"uv_index":5.85,"wind_gusts":41.0,"aqi":139,"pm10":39.9,"pm2_5":34.1,"no2":21.9,"co":703.0,"o3":109.0,"so2":11.2,"mosquito_risk":4,"arthritis_risk":5,"migraine_risk":3,"frizz_risk":1,"updated_at":"2026-06-22T21:24:19.877944+05:30"},{"city":"Srinagar","state":"Jammu and Kashmir","latitude":34.0837,"longitude":74.7973,"temp":18.7,"humidity":76,"rain":0.0,"pressure":840.3,"uv_index":8.2,"wind_gusts":25.6,"aqi":85,"pm10":25.7,"pm2_5":22.9,"no2":27.0,"co":886.0,"o3":55.0,"so2":1.5,"mosquito_risk":3,"arthritis_risk":5,"migraine_risk":7,"frizz_risk":0,"updated_at":"2026-06-22T21:24:19.877952+05:30"},{"city":"Jammu","state":"Jammu and Kashmir","latitude":32.7266,"longitude":74.857,"temp":30.6,"humidity":42,"rain":0.0,"pressure":967.8,"uv_index":8.6,"wind_gusts":34.9,"aqi":109,"pm10":41.7,"pm2_5":28.8,"no2":22.3,"co":545.0,"o3":96.0,"so2":4.4,"mosquito_risk":0,"arthritis_risk":5,"migraine_risk":7,"frizz_risk":1,"updated_at":"2026-06-22T21:24:19.877960+05:30"},{"city":"Amritsar","state":"Punjab","latitude":31.634,"longitude":74.8723,"temp":28.5,"humidity":68,"rain":0.0,"pressure":975.7,"uv_index":8.45,"wind_gusts":24.1,"aqi":156,"pm10":60.1,"pm2_5":43.7,"no2":19.2,"co":655.0,"o3":116.0,"so2":12.7,"mosquito_risk":7,"arthritis_risk":5,"migraine_risk":7,"frizz_risk":1,"updated_at":"2026-06-22T21:24:19.877969+05:30"},{"city":"Ludhiana","state":"Punjab","latitude":30.901,"longitude":75.8573,"temp":29.1,"humidity":60,"rain":0.0,"pressure":973.8,"uv_index":7.7,"wind_gusts":42.5,"aqi":125,"pm10":129.5,"pm2_5":50.8,"no2":14.4,"co":460.0,"o3":110.0,"so2":5.5,"mosquito_risk":4,"arthritis_risk":5,"migraine_risk":7,"frizz_risk":1,"updated_at":"2026-06-22T21:24:19.877977+05:30"},{"city":"Jalandhar","state":"Punjab","latitude":31.326,"longitude":75.5762,"temp":29.4,"humidity":62,"rain":0.0,"pressure":974.7,"uv_index":8.2,"wind_gusts":28.4,"aqi":136,"pm10":76.8,"pm2_5":44.8,"no2":17.3,"co":719.0,"o3":111.0,"so2":7.3,"mosquito_risk":7,"arthritis_risk":5,"migraine_risk":7,"frizz_risk":1,"updated_at":"2026-06-22T21:24:19.877984+05:30"},{"city":"Dehradun","state":"Uttarakhand","latitude":30.6284,"longitude":78.0322,"temp":17.9,"humidity":91,"rain":0.0,"pressure":827.1,"uv_index":7.7,"wind_gusts":22.7,"aqi":97,"pm10":38.6,"pm2_5":23.6,"no2":22.4,"co":274.0,"o3":92.0,"so2":2.7,"mosquito_risk":3,"arthritis_risk":10,"migraine_risk":7,"frizz_risk":1,"updated_at":"2026-06-22T21:24:19.877991+05:30"},{"city":"Shimla","state":"Himachal Pradesh","latitude":31.1048,"longitude":77.1734,"temp":14.9,"humidity":70,"rain":0.0,"pressure":781.4,"uv_index":6.9,"wind_gusts":16.9,"aqi":98,"pm10":33.2,"pm2_5":24.7,"no2":18.0,"co":309.0,"o3":100.0,"so2":6.0,"mosquito_risk":3,"arthritis_risk":5,"migraine_risk":7,"frizz_risk":0,"updated_at":"2026-06-22T21:24:19.878002+05:30"},{"city":"Manali","state":"Himachal Pradesh","latitude":32.2396,"longitude":77.1887,"temp":16.5,"humidity":70,"rain":0.0,"pressure":815.8,"uv_index":8.45,"wind_gusts":41.0,"aqi":98,"pm10":5.9,"pm2_5":4.7,"no2":72.0,"co":318.0,"o3":60.0,"so2":0.4,"mosquito_risk":3,"arthritis_risk":5,"migraine_risk":7,"frizz_risk":0,"updated_at":"2026-06-22T21:24:19.878011+05:30"},{"city":"Gurgaon","state":"Haryana","latitude":28.4595,"longitude":77.0266,"temp":31.6,"humidity":47,"rain":0.0,"pressure":976.7,"uv_index":7.85,"wind_gusts":39.6,"aqi":971,"pm10":661.2,"pm2_5":118.7,"no2":35.9,"co":527.0,"o3":67.0,"so2":12.9,"mosquito_risk":0,"arthritis_risk":5,"migraine_risk":7,"frizz_risk":1,"updated_at":"2026-06-22T21:24:19.878020+05:30"},{"city":"Noida","state":"Uttar Pradesh","latitude":28.5355,"longitude":77.391,"temp":31.8,"humidity":53,"rain":0.0,"pressure":979.5,"uv_index":7.85,"wind_gusts":35.3,"aqi":971,"pm10":661.2,"pm2_5":118.7,"no2":35.9,"co":410.0,"o3":67.0,"so2":12.9,"mosquito_risk":0,"arthritis_risk":5,"migraine_risk":7,"frizz_risk":1,"updated_at":"2026-06-22T21:24:19.878028+05:30"},{"city":"Ghaziabad","state":"Uttar Pradesh","latitude":28.6692,"longitude":77.4538,"temp":31.2,"humidity":54,"rain":0.0,"pressure":977.7,"uv_index":7.8,"wind_gusts":38.9,"aqi":414,"pm10":732.0,"pm2_5":144.8,"no2":25.7,"co":297.0,"o3":83.0,"so2":16.6,"mosquito_risk":0,"arthritis_risk":5,"migraine_risk":7,"frizz_risk":1,"updated_at":"2026-06-22T21:24:19.878035+05:30"},{"city":"Faridabad","state":"Haryana","latitude":28.4089,"longitude":77.3178,"temp":33.0,"humidity":42,"rain":0.0,"pressure":978.9,"uv_index":7.85,"wind_gusts":42.1,"aqi":971,"pm10":661.2,"pm2_5":118.7,"no2":35.9,"co":447.0,"o3":67.0,"so2":12.9,"mosquito_risk":0,"arthritis_risk":5,"migraine_risk":7,"frizz_risk":1,"updated_at":"2026-06-22T21:24:19.878045+05:30"},{"city":"Meerut","state":"Uttar Pradesh","latitude":28.9845,"longitude":77.7064,"temp":30.0,"humidity":59,"rain":0.0,"pressure":976.4,"uv_index":7.5,"wind_gusts":41.8,"aqi":414,"pm10":732.0,"pm2_5":144.8,"no2":25.7,"co":381.0,"o3":83.0,"so2":16.6,"mosquito_risk":4,"arthritis_risk":5,"migraine_risk":7,"frizz_risk":1,"updated_at":"2026-06-22T21:24:19.878053+05:30"},{"city":"Agra","state":"Uttar Pradesh","latitude":27.1767,"longitude":78.0081,"temp":33.1,"humidity":44,"rain":0.0,"pressure":983.2,"uv_index":8.1,"wind_gusts":41.4,"aqi":568,"pm10":894.1,"pm2_5":135.0,"no2":19.9,"co":315.0,"o3":67.0,"so2":7.5,"mosquito_risk":0,"arthritis_risk":5,"migraine_risk":7,"frizz_risk":1,"updated_at":"2026-06-22T21:24:19.878060+05:30"},{"city":"Varanasi","state":"Uttar Pradesh","latitude":25.3176,"longitude":82.9739,"temp":35.0,"humidity":45,"rain":0.0,"pressure":992.0,"uv_index":8.8,"wind_gusts":37.1,"aqi":103,"pm10":67.1,"pm2_5":41.4,"no2":19.3,"co":574.0,"o3":68.0,"so2":10.6,"mosquito_risk":0,"arthritis_risk":5,"migraine_risk":7,"frizz_risk":1,"updated_at":"2026-06-22T21:24:19.878068+05:30"},{"city":"Prayagraj","state":"Uttar Pradesh","latitude":25.4358,"longitude":81.8463,"temp":35.3,"humidity":35,"rain":0.0,"pressure":990.6,"uv_index":8.7,"wind_gusts":36.7,"aqi":100,"pm10":68.7,"pm2_5":33.6,"no2":10.7,"co":211.0,"o3":79.0,"so2":6.9,"mosquito_risk":0,"arthritis_risk":5,"migraine_risk":10,"frizz_risk":1,"updated_at":"2026-06-22T21:24:19.878076+05:30"},{"city":"Gorakhpur","state":"Uttar Pradesh","latitude":26.7606,"longitude":83.3732,"temp":31.8,"humidity":70,"rain":0.0,"pressure":991.6,"uv_index":8.65,"wind_gusts":30.2,"aqi":159,"pm10":234.2,"pm2_5":92.7,"no2":27.3,"co":503.0,"o3":87.0,"so2":16.1,"mosquito_risk":3,"arthritis_risk":5,"migraine_risk":7,"frizz_risk":1,"updated_at":"2026-06-22T21:24:19.878083+05:30"},{"city":"Bareilly","state":"Uttar Pradesh","latitude":28.367,"longitude":79.4304,"temp":31.2,"humidity":53,"rain":0.0,"pressure":981.3,"uv_index":8.1,"wind_gusts":44.3,"aqi":164,"pm10":117.3,"pm2_5":59.3,"no2":12.9,"co":302.0,"o3":124.0,"so2":12.2,"mosquito_risk":0,"arthritis_risk":5,"migraine_risk":7,"frizz_risk":1,"updated_at":"2026-06-22T21:24:19.878092+05:30"},{"city":"Aligarh","state":"Uttar Pradesh","latitude":27.8974,"longitude":78.088,"temp":30.9,"humidity":50,"rain":0.0,"pressure":980.8,"uv_index":7.95,"wind_gusts":40.7,"aqi":577,"pm10":704.1,"pm2_5":127.6,"no2":21.6,"co":252.0,"o3":88.0,"so2":9.4,"mosquito_risk":0,"arthritis_risk":5,"migraine_risk":7,"frizz_risk":1,"updated_at":"2026-06-22T21:24:19.878101+05:30"},{"city":"Moradabad","state":"Uttar Pradesh","latitude":28.8386,"longitude":78.7733,"temp":30.7,"humidity":54,"rain":0.0,"pressure":978.3,"uv_index":7.95,"wind_gusts":39.2,"aqi":168,"pm10":189.1,"pm2_5":69.4,"no2":17.2,"co":370.0,"o3":100.0,"so2":10.1,"mosquito_risk":0,"arthritis_risk":5,"migraine_risk":7,"frizz_risk":1,"updated_at":"2026-06-22T21:24:19.878108+05:30"},{"city":"Saharanpur","state":"Uttar Pradesh","latitude":29.9637,"longitude":77.546,"temp":29.3,"humidity":45,"rain":0.0,"pressure":970.6,"uv_index":7.3,"wind_gusts":38.5,"aqi":155,"pm10":532.7,"pm2_5":115.7,"no2":14.2,"co":327.0,"o3":100.0,"so2":9.6,"mosquito_risk":4,"arthritis_risk":5,"migraine_risk":7,"frizz_risk":1,"updated_at":"2026-06-22T21:24:19.878116+05:30"},{"city":"Jhansi","state":"Uttar Pradesh","latitude":25.4484,"longitude":78.5685,"temp":33.0,"humidity":46,"rain":0.0,"pressure":973.7,"uv_index":8.45,"wind_gusts":46.8,"aqi":87,"pm10":80.8,"pm2_5":32.9,"no2":7.6,"co":184.0,"o3":61.0,"so2":2.9,"mosquito_risk":0,"arthritis_risk":5,"migraine_risk":7,"frizz_risk":1,"updated_at":"2026-06-22T21:24:23.224442+05:30"},{"city":"Surat","state":"Gujarat","latitude":21.1702,"longitude":72.8311,"temp":29.5,"humidity":77,"rain":0.0,"pressure":1004.3,"uv_index":5.95,"wind_gusts":34.6,"aqi":59,"pm10":17.7,"pm2_5":14.2,"no2":23.2,"co":217.0,"o3":26.0,"so2":37.2,"mosquito_risk":7,"arthritis_risk":5,"migraine_risk":0,"frizz_risk":1,"updated_at":"2026-06-22T21:24:23.224476+05:30"},{"city":"Vadodara","state":"Gujarat","latitude":22.3072,"longitude":73.1812,"temp":30.5,"humidity":68,"rain":0.0,"pressure":1001.3,"uv_index":7.6,"wind_gusts":43.2,"aqi":52,"pm10":17.3,"pm2_5":13.7,"no2":15.6,"co":148.0,"o3":48.0,"so2":15.1,"mosquito_risk":3,"arthritis_risk":5,"migraine_risk":4,"frizz_risk":1,"updated_at":"2026-06-22T21:24:23.224488+05:30"},{"city":"Rajkot","state":"Gujarat","latitude":22.3039,"longitude":70.8022,"temp":30.1,"humidity":71,"rain":0.0,"pressure":991.0,"uv_index":7.55,"wind_gusts":48.2,"aqi":67,"pm10":55.2,"pm2_5":21.0,"no2":4.2,"co":121.0,"o3":59.0,"so2":4.1,"mosquito_risk":3,"arthritis_risk":5,"migraine_risk":7,"frizz_risk":1,"updated_at":"2026-06-22T21:24:23.224497+05:30"},{"city":"Thane","state":"Maharashtra","latitude":19.2183,"longitude":72.9781,"temp":27.6,"humidity":84,"rain":0.0,"pressure":1006.0,"uv_index":7.7,"wind_gusts":34.2,"aqi":40,"pm10":10.4,"pm2_5":7.6,"no2":11.5,"co":277.0,"o3":40.0,"so2":8.7,"mosquito_risk":7,"arthritis_risk":5,"migraine_risk":4,"frizz_risk":1,"updated_at":"2026-06-22T21:24:23.224505+05:30"},{"city":"Nagpur","state":"Maharashtra","latitude":21.1458,"longitude":79.0882,"temp":28.7,"humidity":67,"rain":0.0,"pressure":971.2,"uv_index":8.2,"wind_gusts":50.8,"aqi":69,"pm10":22.2,"pm2_5":19.7,"no2":19.2,"co":226.0,"o3":72.0,"so2":22.8,"mosquito_risk":7,"arthritis_risk":5,"migraine_risk":7,"frizz_risk":1,"updated_at":"2026-06-22T21:24:23.224514+05:30"},{"city":"Nashik","state":"Maharashtra","latitude":19.9975,"longitude":73.7898,"temp":24.7,"humidity":87,"rain":0.0,"pressure":944.1,"uv_index":7.05,"wind_gusts":39.2,"aqi":38,"pm10":7.6,"pm2_5":6.8,"no2":8.1,"co":179.0,"o3":63.0,"so2":4.3,"mosquito_risk":3,"arthritis_risk":5,"migraine_risk":7,"frizz_risk":1,"updated_at":"2026-06-22T21:24:23.224522+05:30"},{"city":"Aurangabad","state":"Maharashtra","latitude":19.8762,"longitude":75.3433,"temp":27.1,"humidity":76,"rain":0.0,"pressure":943.2,"uv_index":8.95,"wind_gusts":57.6,"aqi":42,"pm10":8.3,"pm2_5":8.2,"no2":6.2,"co":207.0,"o3":81.0,"so2":4.9,"mosquito_risk":7,"arthritis_risk":5,"migraine_risk":7,"frizz_risk":1,"updated_at":"2026-06-22T21:24:23.224529+05:30"},{"city":"Solapur","state":"Maharashtra","latitude":17.6599,"longitude":75.9064,"temp":26.6,"humidity":81,"rain":0.0,"pressure":956.7,"uv_index":8.9,"wind_gusts":51.1,"aqi":34,"pm10":6.4,"pm2_5":6.2,"no2":7.8,"co":160.0,"o3":55.0,"so2":2.1,"mosquito_risk":7,"arthritis_risk":5,"migraine_risk":7,"frizz_risk":1,"updated_at":"2026-06-22T21:24:23.224538+05:30"},{"city":"Kolhapur","state":"Maharashtra","latitude":16.705,"longitude":74.2433,"temp":23.9,"humidity":87,"rain":0.0,"pressure":947.7,"uv_index":8.8,"wind_gusts":47.5,"aqi":27,"pm10":6.4,"pm2_5":6.0,"no2":8.7,"co":163.0,"o3":38.0,"so2":2.6,"mosquito_risk":3,"arthritis_risk":5,"migraine_risk":7,"frizz_risk":1,"updated_at":"2026-06-22T21:24:23.224546+05:30"},{"city":"Goa","state":"Goa","latitude":15.2993,"longitude":74.124,"temp":24.8,"humidity":98,"rain":0.3,"pressure":999.1,"uv_index":8.25,"wind_gusts":37.8,"aqi":24,"pm10":11.4,"pm2_5":7.7,"no2":3.3,"co":210.0,"o3":46.0,"so2":0.7,"mosquito_risk":6,"arthritis_risk":5,"migraine_risk":7,"frizz_risk":1,"updated_at":"2026-06-22T21:24:23.224555+05:30"},{"city":"Jodhpur","state":"Rajasthan","latitude":26.2389,"longitude":73.0243,"temp":33.5,"humidity":42,"rain":0.0,"pressure":978.6,"uv_index":8.4,"wind_gusts":36.7,"aqi":126,"pm10":156.9,"pm2_5":38.5,"no2":12.3,"co":201.0,"o3":56.0,"so2":2.4,"mosquito_risk":0,"arthritis_risk":5,"migraine_risk":7,"frizz_risk":1,"updated_at":"2026-06-22T21:24:23.224564+05:30"},{"city":"Udaipur","state":"Rajasthan","latitude":24.5854,"longitude":73.7125,"temp":29.2,"humidity":51,"rain":0.0,"pressure":943.6,"uv_index":8.8,"wind_gusts":35.3,"aqi":71,"pm10":55.1,"pm2_5":22.2,"no2":5.2,"co":203.0,"o3":72.0,"so2":3.1,"mosquito_risk":4,"arthritis_risk":5,"migraine_risk":7,"frizz_risk":1,"updated_at":"2026-06-22T21:24:23.224572+05:30"},{"city":"Kota","state":"Rajasthan","latitude":25.2138,"longitude":75.8648,"temp":31.1,"humidity":56,"rain":0.0,"pressure":974.9,"uv_index":8.3,"wind_gusts":38.5,"aqi":95,"pm10":76.6,"pm2_5":41.3,"no2":15.3,"co":433.0,"o3":59.0,"so2":5.7,"mosquito_risk":0,"arthritis_risk":5,"migraine_risk":7,"frizz_risk":1,"updated_at":"2026-06-22T21:24:23.224580+05:30"},{"city":"Bikaner","state":"Rajasthan","latitude":28.0229,"longitude":73.3119,"temp":33.6,"humidity":37,"rain":0.0,"pressure":976.9,"uv_index":8.45,"wind_gusts":33.8,"aqi":148,"pm10":125.7,"pm2_5":39.6,"no2":7.7,"co":145.0,"o3":69.0,"so2":2.5,"mosquito_risk":0,"arthritis_risk":5,"migraine_risk":7,"frizz_risk":1,"updated_at":"2026-06-22T21:24:23.224588+05:30"},{"city":"Ajmer","state":"Rajasthan","latitude":26.4499,"longitude":74.6399,"temp":29.5,"humidity":55,"rain":0.0,"pressure":951.0,"uv_index":8.35,"wind_gusts":43.6,"aqi":94,"pm10":66.1,"pm2_5":31.1,"no2":11.8,"co":180.0,"o3":58.0,"so2":3.5,"mosquito_risk":4,"arthritis_risk":5,"migraine_risk":7,"frizz_risk":1,"updated_at":"2026-06-22T21:24:23.224596+05:30"},{"city":"Gwalior","state":"Madhya Pradesh","latitude":26.2183,"longitude":78.1828,"temp":33.6,"humidity":37,"rain":0.0,"pressure":978.8,"uv_index":8.25,"wind_gusts":49.7,"aqi":90,"pm10":101.5,"pm2_5":41.1,"no2":8.4,"co":226.0,"o3":68.0,"so2":3.2,"mosquito_risk":0,"arthritis_risk":5,"migraine_risk":7,"frizz_risk":1,"updated_at":"2026-06-22T21:24:23.224604+05:30"},{"city":"Indore","state":"Madhya Pradesh","latitude":22.7196,"longitude":75.8577,"temp":28.6,"humidity":63,"rain":0.0,"pressure":946.0,"uv_index":8.25,"wind_gusts":52.2,"aqi":71,"pm10":31.2,"pm2_5":25.4,"no2":18.3,"co":382.0,"o3":43.0,"so2":6.2,"mosquito_risk":7,"arthritis_risk":5,"migraine_risk":7,"frizz_risk":1,"updated_at":"2026-06-22T21:24:23.224611+05:30"},{"city":"Bhopal","state":"Madhya Pradesh","latitude":23.2599,"longitude":77.4126,"temp":26.3,"humidity":83,"rain":0.0,"pressure":951.3,"uv_index":8.65,"wind_gusts":58.3,"aqi":83,"pm10":20.1,"pm2_5":15.9,"no2":7.3,"co":440.0,"o3":65.0,"so2":3.6,"mosquito_risk":7,"arthritis_risk":5,"migraine_risk":7,"frizz_risk":1,"updated_at":"2026-06-22T21:24:23.224619+05:30"},{"city":"Jabalpur","state":"Madhya Pradesh","latitude":23.1815,"longitude":79.9864,"temp":30.0,"humidity":66,"rain":0.0,"pressure":959.2,"uv_index":8.3,"wind_gusts":44.6,"aqi":87,"pm10":48.9,"pm2_5":32.5,"no2":12.7,"co":204.0,"o3":68.0,"so2":4.5,"mosquito_risk":7,"arthritis_risk":5,"migraine_risk":7,"frizz_risk":1,"updated_at":"2026-06-22T21:24:23.224627+05:30"},{"city":"Ujjain","state":"Madhya Pradesh","latitude":23.1765,"longitude":75.7885,"temp":28.7,"humidity":66,"rain":0.0,"pressure":951.4,"uv_index":8.55,"wind_gusts":51.1,"aqi":71,"pm10":33.4,"pm2_5":25.4,"no2":8.6,"co":333.0,"o3":53.0,"so2":3.5,"mosquito_risk":7,"arthritis_risk":5,"migraine_risk":7,"frizz_risk":1,"updated_at":"2026-06-22T21:24:23.224636+05:30"},{"city":"Visakhapatnam","state":"Andhra Pradesh","latitude":17.6868,"longitude":83.2185,"temp":28.7,"humidity":90,"rain":0.0,"pressure":1002.0,"uv_index":4.7,"wind_gusts":46.8,"aqi":86,"pm10":36.2,"pm2_5":31.3,"no2":25.3,"co":408.0,"o3":95.0,"so2":40.6,"mosquito_risk":7,"arthritis_risk":5,"migraine_risk":0,"frizz_risk":1,"updated_at":"2026-06-22T21:24:23.224644+05:30"},{"city":"Vijayawada","state":"Andhra Pradesh","latitude":16.5062,"longitude":80.648,"temp":29.9,"humidity":76,"rain":0.0,"pressure":1001.5,"uv_index":4.1,"wind_gusts":32.0,"aqi":79,"pm10":31.0,"pm2_5":29.8,"no2":15.4,"co":297.0,"o3":69.0,"so2":8.9,"mosquito_risk":7,"arthritis_risk":5,"migraine_risk":0,"frizz_risk":1,"updated_at":"2026-06-22T21:24:23.224652+05:30"},{"city":"Guntur","state":"Andhra Pradesh","latitude":16.3067,"longitude":80.4365,"temp":30.3,"humidity":81,"rain":0.0,"pressure":1002.6,"uv_index":8.25,"wind_gusts":47.5,"aqi":75,"pm10":27.0,"pm2_5":25.8,"no2":13.8,"co":268.0,"o3":72.0,"so2":6.7,"mosquito_risk":3,"arthritis_risk":5,"migraine_risk":4,"frizz_risk":1,"updated_at":"2026-06-22T21:24:23.224660+05:30"},{"city":"Nellore","state":"Andhra Pradesh","latitude":14.4426,"longitude":79.9865,"temp":29.0,"humidity":72,"rain":0.0,"pressure":1005.4,"uv_index":8.0,"wind_gusts":41.4,"aqi":102,"pm10":25.3,"pm2_5":22.8,"no2":8.5,"co":272.0,"o3":107.0,"so2":7.1,"mosquito_risk":7,"arthritis_risk":5,"migraine_risk":4,"frizz_risk":1,"updated_at":"2026-06-22T21:24:23.224669+05:30"},{"city":"Kurnool","state":"Andhra Pradesh","latitude":15.8281,"longitude":78.0373,"temp":26.4,"humidity":80,"rain":0.0,"pressure":977.4,"uv_index":8.9,"wind_gusts":52.6,"aqi":35,"pm10":8.1,"pm2_5":7.7,"no2":8.6,"co":169.0,"o3":55.0,"so2":3.8,"mosquito_risk":7,"arthritis_risk":5,"migraine_risk":7,"frizz_risk":1,"updated_at":"2026-06-22T21:24:23.224678+05:30"},{"city":"Kakinada","state":"Andhra Pradesh","latitude":16.9891,"longitude":82.2475,"temp":29.0,"humidity":89,"rain":0.0,"pressure":1006.0,"uv_index":8.15,"wind_gusts":53.6,"aqi":106,"pm10":34.9,"pm2_5":27.1,"no2":4.3,"co":592.0,"o3":123.0,"so2":6.0,"mosquito_risk":7,"arthritis_risk":5,"migraine_risk":4,"frizz_risk":1,"updated_at":"2026-06-22T21:24:23.224687+05:30"},{"city":"Tirupati","state":"Andhra Pradesh","latitude":13.6288,"longitude":79.4192,"temp":25.6,"humidity":93,"rain":0.2,"pressure":992.1,"uv_index":8.85,"wind_gusts":43.6,"aqi":73,"pm10":20.4,"pm2_5":19.7,"no2":28.2,"co":393.0,"o3":35.0,"so2":3.5,"mosquito_risk":10,"arthritis_risk":5,"migraine_risk":7,"frizz_risk":1,"updated_at":"2026-06-22T21:24:23.224694+05:30"},{"city":"Warangal","state":"Telangana","latitude":17.9689,"longitude":79.5941,"temp":29.8,"humidity":70,"rain":0.0,"pressure":977.1,"uv_index":8.4,"wind_gusts":36.7,"aqi":60,"pm10":31.9,"pm2_5":31.1,"no2":22.5,"co":366.0,"o3":54.0,"so2":7.0,"mosquito_risk":7,"arthritis_risk":5,"migraine_risk":7,"frizz_risk":1,"updated_at":"2026-06-22T21:24:23.224702+05:30"},{"city":"Nizamabad","state":"Telangana","latitude":18.6725,"longitude":78.0941,"temp":26.4,"humidity":78,"rain":0.1,"pressure":964.6,"uv_index":8.3,"wind_gusts":53.6,"aqi":49,"pm10":11.4,"pm2_5":10.3,"no2":5.4,"co":351.0,"o3":83.0,"so2":2.4,"mosquito_risk":10,"arthritis_risk":5,"migraine_risk":7,"frizz_risk":1,"updated_at":"2026-06-22T21:24:23.224710+05:30"},{"city":"Mysore","state":"Karnataka","latitude":12.2958,"longitude":76.6396,"temp":21.8,"humidity":95,"rain":0.0,"pressure":930.1,"uv_index":8.7,"wind_gusts":42.8,"aqi":30,"pm10":5.9,"pm2_5":5.3,"no2":9.6,"co":147.0,"o3":44.0,"so2":2.3,"mosquito_risk":3,"arthritis_risk":5,"migraine_risk":7,"frizz_risk":1,"updated_at":"2026-06-22T21:24:23.224718+05:30"},{"city":"Mangalore","state":"Karnataka","latitude":12.9141,"longitude":74.856,"temp":24.6,"humidity":97,"rain":0.4,"pressure":1009.6,"uv_index":8.5,"wind_gusts":37.8,"aqi":27,"pm10":12.9,"pm2_5":9.3,"no2":7.9,"co":157.0,"o3":35.0,"so2":2.0,"mosquito_risk":6,"arthritis_risk":0,"migraine_risk":4,"frizz_risk":1,"updated_at":"2026-06-22T21:24:23.224727+05:30"},{"city":"Hubli-Dharwad","state":"Karnataka","latitude":15.3647,"longitude":75.124,"temp":22.7,"humidity":93,"rain":0.0,"pressure":941.8,"uv_index":8.9,"wind_gusts":50.0,"aqi":26,"pm10":2.8,"pm2_5":2.5,"no2":5.9,"co":120.0,"o3":42.0,"so2":1.1,"mosquito_risk":3,"arthritis_risk":5,"migraine_risk":7,"frizz_risk":1,"updated_at":"2026-06-22T21:24:23.224736+05:30"},{"city":"Belgaum","state":"Karnataka","latitude":15.8497,"longitude":74.4977,"temp":22.1,"humidity":93,"rain":0.0,"pressure":925.8,"uv_index":8.95,"wind_gusts":47.2,"aqi":24,"pm10":4.7,"pm2_5":4.0,"no2":6.5,"co":134.0,"o3":40.0,"so2":1.7,"mosquito_risk":3,"arthritis_risk":5,"migraine_risk":7,"frizz_risk":1,"updated_at":"2026-06-22T21:24:26.566355+05:30"},{"city":"Coimbatore","state":"Tamil Nadu","latitude":11.0168,"longitude":76.9558,"temp":23.9,"humidity":88,"rain":0.0,"pressure":963.4,"uv_index":8.75,"wind_gusts":52.2,"aqi":28,"pm10":6.3,"pm2_5":5.6,"no2":8.6,"co":150.0,"o3":41.0,"so2":3.2,"mosquito_risk":3,"arthritis_risk":5,"migraine_risk":7,"frizz_risk":1,"updated_at":"2026-06-22T21:24:26.566389+05:30"},{"city":"Madurai","state":"Tamil Nadu","latitude":9.9252,"longitude":78.1198,"temp":29.0,"humidity":60,"rain":0.0,"pressure":994.1,"uv_index":7.75,"wind_gusts":45.7,"aqi":50,"pm10":20.4,"pm2_5":19.4,"no2":39.6,"co":431.0,"o3":17.0,"so2":6.6,"mosquito_risk":4,"arthritis_risk":5,"migraine_risk":7,"frizz_risk":1,"updated_at":"2026-06-22T21:24:26.566401+05:30"},{"city":"Trichy","state":"Tamil Nadu","latitude":10.7905,"longitude":78.7047,"temp":27.2,"humidity":83,"rain":0.0,"pressure":1001.0,"uv_index":7.95,"wind_gusts":42.8,"aqi":39,"pm10":12.7,"pm2_5":11.8,"no2":14.8,"co":336.0,"o3":55.0,"so2":4.1,"mosquito_risk":7,"arthritis_risk":5,"migraine_risk":4,"frizz_risk":1,"updated_at":"2026-06-22T21:24:26.566410+05:30"},{"city":"Salem","state":"Tamil Nadu","latitude":11.6643,"longitude":78.146,"temp":25.1,"humidity":96,"rain":0.0,"pressure":979.1,"uv_index":8.75,"wind_gusts":39.2,"aqi":43,"pm10":12.7,"pm2_5":12.1,"no2":17.4,"co":349.0,"o3":54.0,"so2":5.8,"mosquito_risk":7,"arthritis_risk":5,"migraine_risk":7,"frizz_risk":1,"updated_at":"2026-06-22T21:24:26.566420+05:30"},{"city":"Tirunelveli","state":"Tamil Nadu","latitude":8.7139,"longitude":77.7567,"temp":28.9,"humidity":66,"rain":0.0,"pressure":1004.8,"uv_index":7.7,"wind_gusts":37.8,"aqi":31,"pm10":7.3,"pm2_5":6.3,"no2":7.1,"co":196.0,"o3":46.0,"so2":1.5,"mosquito_risk":7,"arthritis_risk":5,"migraine_risk":4,"frizz_risk":1,"updated_at":"2026-06-22T21:24:26.566428+05:30"},{"city":"Vellore","state":"Tamil Nadu","latitude":12.9165,"longitude":79.1325,"temp":24.5,"humidity":95,"rain":0.1,"pressure":985.8,"uv_index":8.95,"wind_gusts":32.4,"aqi":68,"pm10":14.3,"pm2_5":13.9,"no2":15.6,"co":531.0,"o3":55.0,"so2":3.5,"mosquito_risk":6,"arthritis_risk":5,"migraine_risk":7,"frizz_risk":1,"updated_at":"2026-06-22T21:24:26.566437+05:30"},{"city":"Erode","state":"Tamil Nadu","latitude":11.341,"longitude":77.7172,"temp":25.9,"humidity":80,"rain":0.0,"pressure":990.9,"uv_index":8.6,"wind_gusts":32.8,"aqi":36,"pm10":10.5,"pm2_5":9.3,"no2":13.5,"co":269.0,"o3":48.0,"so2":3.4,"mosquito_risk":7,"arthritis_risk":5,"migraine_risk":7,"frizz_risk":1,"updated_at":"2026-06-22T21:24:26.566446+05:30"},{"city":"Kochi","state":"Kerala","latitude":9.9312,"longitude":76.2673,"temp":26.1,"humidity":91,"rain":0.0,"pressure":1011.9,"uv_index":8.0,"wind_gusts":37.1,"aqi":35,"pm10":15.8,"pm2_5":13.9,"no2":19.5,"co":157.0,"o3":24.0,"so2":4.6,"mosquito_risk":7,"arthritis_risk":0,"migraine_risk":4,"frizz_risk":1,"updated_at":"2026-06-22T21:24:26.566454+05:30"},{"city":"Thiruvananthapuram","state":"Kerala","latitude":8.5241,"longitude":76.9366,"temp":25.5,"humidity":89,"rain":0.0,"pressure":1011.1,"uv_index":8.0,"wind_gusts":38.5,"aqi":29,"pm10":8.6,"pm2_5":5.1,"no2":2.1,"co":116.0,"o3":53.0,"so2":0.8,"mosquito_risk":7,"arthritis_risk":0,"migraine_risk":4,"frizz_risk":1,"updated_at":"2026-06-22T21:24:26.566462+05:30"},{"city":"Kozhikode","state":"Kerala","latitude":11.2588,"longitude":75.7804,"temp":24.5,"humidity":99,"rain":0.1,"pressure":1011.3,"uv_index":8.15,"wind_gusts":33.1,"aqi":26,"pm10":5.4,"pm2_5":3.4,"no2":1.2,"co":193.0,"o3":55.0,"so2":0.6,"mosquito_risk":6,"arthritis_risk":0,"migraine_risk":4,"frizz_risk":1,"updated_at":"2026-06-22T21:24:26.566470+05:30"},{"city":"Thrissur","state":"Kerala","latitude":10.5276,"longitude":76.2144,"temp":24.7,"humidity":98,"rain":0.1,"pressure":1010.5,"uv_index":8.15,"wind_gusts":31.7,"aqi":34,"pm10":14.7,"pm2_5":13.2,"no2":13.8,"co":316.0,"o3":29.0,"so2":3.7,"mosquito_risk":6,"arthritis_risk":0,"migraine_risk":4,"frizz_risk":1,"updated_at":"2026-06-22T21:24:26.566479+05:30"},{"city":"Kannur","state":"Kerala","latitude":11.8745,"longitude":75.3704,"temp":24.9,"humidity":97,"rain":0.1,"pressure":1010.6,"uv_index":8.6,"wind_gusts":32.4,"aqi":26,"pm10":8.3,"pm2_5":5.6,"no2":5.2,"co":164.0,"o3":44.0,"so2":1.3,"mosquito_risk":6,"arthritis_risk":0,"migraine_risk":4,"frizz_risk":1,"updated_at":"2026-06-22T21:24:26.566487+05:30"},{"city":"Patna","state":"Bihar","latitude":25.5941,"longitude":85.1376,"temp":31.7,"humidity":69,"rain":0.0,"pressure":995.1,"uv_index":8.65,"wind_gusts":32.4,"aqi":149,"pm10":85.2,"pm2_5":57.9,"no2":27.0,"co":515.0,"o3":76.0,"so2":13.6,"mosquito_risk":3,"arthritis_risk":5,"migraine_risk":7,"frizz_risk":1,"updated_at":"2026-06-22T21:24:26.566495+05:30"},{"city":"Gaya","state":"Bihar","latitude":24.7914,"longitude":85.0002,"temp":31.6,"humidity":62,"rain":0.0,"pressure":988.6,"uv_index":8.65,"wind_gusts":40.3,"aqi":98,"pm10":58.6,"pm2_5":38.6,"no2":14.1,"co":321.0,"o3":73.0,"so2":8.5,"mosquito_risk":3,"arthritis_risk":5,"migraine_risk":7,"frizz_risk":1,"updated_at":"2026-06-22T21:24:26.566503+05:30"},{"city":"Muzaffarpur","state":"Bihar","latitude":26.1209,"longitude":85.3647,"temp":29.1,"humidity":79,"rain":0.0,"pressure":995.5,"uv_index":8.4,"wind_gusts":33.8,"aqi":167,"pm10":96.2,"pm2_5":69.2,"no2":17.8,"co":627.0,"o3":123.0,"so2":15.4,"mosquito_risk":7,"arthritis_risk":5,"migraine_risk":7,"frizz_risk":1,"updated_at":"2026-06-22T21:24:26.566511+05:30"},{"city":"Bhagalpur","state":"Bihar","latitude":25.2425,"longitude":87.0117,"temp":29.1,"humidity":80,"rain":0.0,"pressure":996.6,"uv_index":8.7,"wind_gusts":31.7,"aqi":143,"pm10":86.6,"pm2_5":53.6,"no2":16.1,"co":287.0,"o3":94.0,"so2":11.1,"mosquito_risk":7,"arthritis_risk":5,"migraine_risk":7,"frizz_risk":1,"updated_at":"2026-06-22T21:24:26.566519+05:30"},{"city":"Ranchi","state":"Jharkhand","latitude":23.3441,"longitude":85.3096,"temp":25.9,"humidity":81,"rain":0.0,"pressure":934.8,"uv_index":7.25,"wind_gusts":36.7,"aqi":94,"pm10":41.1,"pm2_5":33.4,"no2":10.9,"co":212.0,"o3":81.0,"so2":4.9,"mosquito_risk":7,"arthritis_risk":5,"migraine_risk":7,"frizz_risk":1,"updated_at":"2026-06-22T21:24:26.566528+05:30"},{"city":"Jamshedpur","state":"Jharkhand","latitude":22.8046,"longitude":86.2029,"temp":27.9,"humidity":86,"rain":0.0,"pressure":987.1,"uv_index":3.7,"wind_gusts":28.1,"aqi":128,"pm10":56.9,"pm2_5":48.8,"no2":20.9,"co":725.0,"o3":97.0,"so2":22.6,"mosquito_risk":7,"arthritis_risk":5,"migraine_risk":3,"frizz_risk":1,"updated_at":"2026-06-22T21:24:26.566535+05:30"},{"city":"Dhanbad","state":"Jharkhand","latitude":23.7957,"longitude":86.4304,"temp":28.3,"humidity":82,"rain":0.0,"pressure":975.7,"uv_index":6.45,"wind_gusts":32.4,"aqi":150,"pm10":82.9,"pm2_5":69.6,"no2":58.1,"co":2004.0,"o3":52.0,"so2":129.4,"mosquito_risk":7,"arthritis_risk":5,"migraine_risk":7,"frizz_risk":1,"updated_at":"2026-06-22T21:24:26.566543+05:30"},{"city":"Bokaro","state":"Jharkhand","latitude":23.6693,"longitude":86.1511,"temp":28.7,"humidity":80,"rain":0.0,"pressure":979.6,"uv_index":2.85,"wind_gusts":36.7,"aqi":119,"pm10":61.9,"pm2_5":54.6,"no2":39.6,"co":396.0,"o3":64.0,"so2":98.9,"mosquito_risk":7,"arthritis_risk":5,"migraine_risk":3,"frizz_risk":1,"updated_at":"2026-06-22T21:24:26.566551+05:30"},{"city":"Bhubaneswar","state":"Odisha","latitude":20.2961,"longitude":85.8245,"temp":27.7,"humidity":90,"rain":0.0,"pressure":1000.0,"uv_index":6.9,"wind_gusts":48.6,"aqi":84,"pm10":30.2,"pm2_5":28.7,"no2":10.8,"co":329.0,"o3":97.0,"so2":7.8,"mosquito_risk":7,"arthritis_risk":5,"migraine_risk":4,"frizz_risk":1,"updated_at":"2026-06-22T21:24:26.566558+05:30"},{"city":"Cuttack","state":"Odisha","latitude":20.4625,"longitude":85.8828,"temp":28.0,"humidity":90,"rain":0.0,"pressure":1001.8,"uv_index":7.0,"wind_gusts":42.8,"aqi":84,"pm10":30.2,"pm2_5":28.7,"no2":10.8,"co":381.0,"o3":97.0,"so2":7.8,"mosquito_risk":7,"arthritis_risk":5,"migraine_risk":4,"frizz_risk":1,"updated_at":"2026-06-22T21:24:26.566566+05:30"},{"city":"Rourkela","state":"Odisha","latitude":22.2604,"longitude":84.8536,"temp":28.2,"humidity":86,"rain":0.0,"pressure":982.1,"uv_index":8.2,"wind_gusts":30.6,"aqi":158,"pm10":37.4,"pm2_5":32.0,"no2":5.5,"co":451.0,"o3":133.0,"so2":6.7,"mosquito_risk":7,"arthritis_risk":5,"migraine_risk":7,"frizz_risk":1,"updated_at":"2026-06-22T21:24:26.566574+05:30"},{"city":"Raipur","state":"Chhattisgarh","latitude":21.2514,"longitude":81.6296,"temp":29.1,"humidity":71,"rain":0.0,"pressure":973.0,"uv_index":8.95,"wind_gusts":50.4,"aqi":91,"pm10":30.7,"pm2_5":27.5,"no2":18.8,"co":203.0,"o3":91.0,"so2":31.1,"mosquito_risk":7,"arthritis_risk":5,"migraine_risk":7,"frizz_risk":1,"updated_at":"2026-06-22T21:24:26.566582+05:30"},{"city":"Bhilai","state":"Chhattisgarh","latitude":21.1938,"longitude":81.3509,"temp":30.1,"humidity":64,"rain":0.0,"pressure":973.5,"uv_index":9.0,"wind_gusts":51.1,"aqi":88,"pm10":32.0,"pm2_5":28.4,"no2":17.0,"co":397.0,"o3":91.0,"so2":27.4,"mosquito_risk":3,"arthritis_risk":5,"migraine_risk":7,"frizz_risk":1,"updated_at":"2026-06-22T21:24:26.566589+05:30"},{"city":"Guwahati","state":"Assam","latitude":26.1158,"longitude":91.7086,"temp":25.7,"humidity":98,"rain":0.0,"pressure":998.2,"uv_index":8.65,"wind_gusts":20.2,"aqi":65,"pm10":35.4,"pm2_5":29.9,"no2":12.4,"co":570.0,"o3":61.0,"so2":3.9,"mosquito_risk":7,"arthritis_risk":5,"migraine_risk":7,"frizz_risk":1,"updated_at":"2026-06-22T21:24:26.566597+05:30"},{"city":"Agartala","state":"Tripura","latitude":23.8315,"longitude":91.2868,"temp":25.7,"humidity":96,"rain":0.0,"pressure":1003.4,"uv_index":7.95,"wind_gusts":27.4,"aqi":61,"pm10":20.5,"pm2_5":19.7,"no2":12.7,"co":262.0,"o3":65.0,"so2":2.8,"mosquito_risk":7,"arthritis_risk":5,"migraine_risk":4,"frizz_risk":1,"updated_at":"2026-06-22T21:24:26.566605+05:30"},{"city":"Shillong","state":"Meghalaya","latitude":25.5788,"longitude":91.8933,"temp":19.7,"humidity":91,"rain":0.0,"pressure":855.3,"uv_index":5.65,"wind_gusts":27.4,"aqi":47,"pm10":16.5,"pm2_5":13.8,"no2":7.2,"co":266.0,"o3":80.0,"so2":2.3,"mosquito_risk":3,"arthritis_risk":10,"migraine_risk":3,"frizz_risk":1,"updated_at":"2026-06-22T21:24:26.566612+05:30"},{"city":"Imphal","state":"Manipur","latitude":24.817,"longitude":93.9368,"temp":22.4,"humidity":94,"rain":0.0,"pressure":921.0,"uv_index":5.3,"wind_gusts":24.1,"aqi":70,"pm10":25.5,"pm2_5":23.9,"no2":18.5,"co":345.0,"o3":34.0,"so2":3.6,"mosquito_risk":3,"arthritis_risk":5,"migraine_risk":3,"frizz_risk":1,"updated_at":"2026-06-22T21:24:26.566622+05:30"},{"city":"Aizawl","state":"Mizoram","latitude":23.7271,"longitude":92.7176,"temp":19.4,"humidity":98,"rain":0.0,"pressure":890.3,"uv_index":7.75,"wind_gusts":29.9,"aqi":33,"pm10":3.4,"pm2_5":3.3,"no2":4.9,"co":169.0,"o3":48.0,"so2":0.6,"mosquito_risk":3,"arthritis_risk":10,"migraine_risk":7,"frizz_risk":1,"updated_at":"2026-06-22T21:24:26.566630+05:30"},{"city":"Kohima","state":"Nagaland","latitude":25.6701,"longitude":94.1077,"temp":19.8,"humidity":94,"rain":0.0,"pressure":853.3,"uv_index":6.75,"wind_gusts":24.8,"aqi":52,"pm10":15.5,"pm2_5":12.8,"no2":9.2,"co":369.0,"o3":47.0,"so2":1.2,"mosquito_risk":3,"arthritis_risk":10,"migraine_risk":7,"frizz_risk":1,"updated_at":"2026-06-22T21:24:26.566638+05:30"},{"city":"Gangtok","state":"Sikkim","latitude":27.3314,"longitude":88.6138,"temp":18.5,"humidity":94,"rain":0.5,"pressure":835.2,"uv_index":8.15,"wind_gusts":27.4,"aqi":56,"pm10":6.9,"pm2_5":6.4,"no2":11.9,"co":369.0,"o3":97.0,"so2":1.5,"mosquito_risk":6,"arthritis_risk":10,"migraine_risk":7,"frizz_risk":1,"updated_at":"2026-06-22T21:24:26.566646+05:30"},{"city":"Siliguri","state":"West Bengal","latitude":26.7271,"longitude":88.3953,"temp":24.7,"humidity":99,"rain":0.1,"pressure":989.7,"uv_index":7.05,"wind_gusts":20.2,"aqi":80,"pm10":46.1,"pm2_5":35.0,"no2":11.1,"co":553.0,"o3":117.0,"so2":6.4,"mosquito_risk":6,"arthritis_risk":5,"migraine_risk":7,"frizz_risk":1,"updated_at":"2026-06-22T21:24:29.913531+05:30"},{"city":"Durgapur","state":"West Bengal","latitude":23.5204,"longitude":87.3119,"temp":28.2,"humidity":80,"rain":0.0,"pressure":990.8,"uv_index":8.4,"wind_gusts":32.8,"aqi":154,"pm10":64.3,"pm2_5":57.4,"no2":35.0,"co":1206.0,"o3":82.0,"so2":55.7,"mosquito_risk":7,"arthritis_risk":5,"migraine_risk":7,"frizz_risk":1,"updated_at":"2026-06-22T21:24:29.913563+05:30"},{"city":"Asansol","state":"West Bengal","latitude":23.6739,"longitude":86.9524,"temp":28.3,"humidity":80,"rain":0.0,"pressure":989.3,"uv_index":5.85,"wind_gusts":33.1,"aqi":151,"pm10":73.3,"pm2_5":59.5,"no2":42.5,"co":450.0,"o3":70.0,"so2":57.9,"mosquito_risk":7,"arthritis_risk":5,"migraine_risk":3,"frizz_risk":1,"updated_at":"2026-06-22T21:24:29.913575+05:30"},{"city":"Pondicherry","state":"Puducherry","latitude":11.9139,"longitude":79.8145,"temp":28.2,"humidity":78,"rain":0.0,"pressure":1009.0,"uv_index":8.6,"wind_gusts":38.2,"aqi":67,"pm10":15.2,"pm2_5":12.5,"no2":9.3,"co":254.0,"o3":83.0,"so2":6.3,"mosquito_risk":7,"arthritis_risk":0,"migraine_risk":4,"frizz_risk":1,"updated_at":"2026-06-22T21:24:29.913584+05:30"},{"city":"Port Blair","state":"Andaman and Nicobar Islands","latitude":11.6234,"longitude":92.7265,"temp":27.5,"humidity":82,"rain":0.0,"pressure":1008.6,"uv_index":8.6,"wind_gusts":37.8,"aqi":29,"pm10":10.7,"pm2_5":6.3,"no2":0.3,"co":91.0,"o3":40.0,"so2":0.3,"mosquito_risk":7,"arthritis_risk":0,"migraine_risk":4,"frizz_risk":1,"updated_at":"2026-06-22T21:24:29.913593+05:30"},{"city":"Haridwar","state":"Uttarakhand","latitude":29.9457,"longitude":78.1642,"temp":29.3,"humidity":54,"rain":0.0,"pressure":968.8,"uv_index":7.6,"wind_gusts":28.4,"aqi":141,"pm10":219.8,"pm2_5":56.5,"no2":12.1,"co":479.0,"o3":112.0,"so2":11.6,"mosquito_risk":4,"arthritis_risk":5,"migraine_risk":7,"frizz_risk":1,"updated_at":"2026-06-22T21:24:29.913602+05:30"},{"city":"Rishikesh","state":"Uttarakhand","latitude":30.0869,"longitude":78.2676,"temp":28.2,"humidity":58,"rain":0.0,"pressure":961.7,"uv_index":7.65,"wind_gusts":24.1,"aqi":141,"pm10":66.1,"pm2_5":27.9,"no2":8.2,"co":414.0,"o3":131.0,"so2":9.4,"mosquito_risk":4,"arthritis_risk":5,"migraine_risk":7,"frizz_risk":1,"updated_at":"2026-06-22T21:24:29.913610+05:30"},{"city":"Nainital","state":"Uttarakhand","latitude":29.3919,"longitude":79.4542,"temp":17.1,"humidity":90,"rain":0.0,"pressure":803.4,"uv_index":6.85,"wind_gusts":25.9,"aqi":129,"pm10":56.9,"pm2_5":31.2,"no2":9.3,"co":370.0,"o3":118.0,"so2":5.2,"mosquito_risk":3,"arthritis_risk":10,"migraine_risk":7,"frizz_risk":0,"updated_at":"2026-06-22T21:24:29.913619+05:30"},{"city":"Mussoorie","state":"Uttarakhand","latitude":30.4599,"longitude":78.0664,"temp":16.5,"humidity":91,"rain":0.0,"pressure":800.1,"uv_index":7.6,"wind_gusts":32.0,"aqi":125,"pm10":48.3,"pm2_5":29.1,"no2":20.2,"co":379.0,"o3":112.0,"so2":10.2,"mosquito_risk":3,"arthritis_risk":10,"migraine_risk":7,"frizz_risk":0,"updated_at":"2026-06-22T21:24:29.913627+05:30"},{"city":"Dharamshala","state":"Himachal Pradesh","latitude":32.219,"longitude":76.3234,"temp":21.1,"humidity":61,"rain":0.0,"pressure":865.7,"uv_index":8.15,"wind_gusts":36.4,"aqi":76,"pm10":12.7,"pm2_5":10.5,"no2":13.5,"co":281.0,"o3":74.0,"so2":0.6,"mosquito_risk":3,"arthritis_risk":5,"migraine_risk":7,"frizz_risk":0,"updated_at":"2026-06-22T21:24:29.913635+05:30"},{"city":"Dalhousie","state":"Himachal Pradesh","latitude":32.5387,"longitude":75.971,"temp":13.7,"humidity":87,"rain":0.0,"pressure":799.9,"uv_index":7.8,"wind_gusts":27.7,"aqi":103,"pm10":32.7,"pm2_5":22.2,"no2":21.8,"co":565.0,"o3":101.0,"so2":2.1,"mosquito_risk":3,"arthritis_risk":10,"migraine_risk":7,"frizz_risk":0,"updated_at":"2026-06-22T21:24:29.913643+05:30"},{"city":"Patiala","state":"Punjab","latitude":30.3398,"longitude":76.3869,"temp":29.5,"humidity":56,"rain":0.0,"pressure":973.3,"uv_index":6.95,"wind_gusts":37.4,"aqi":341,"pm10":1367.2,"pm2_5":222.1,"no2":11.5,"co":454.0,"o3":108.0,"so2":7.4,"mosquito_risk":4,"arthritis_risk":5,"migraine_risk":7,"frizz_risk":1,"updated_at":"2026-06-22T21:24:29.913651+05:30"},{"city":"Bhatinda","state":"Punjab","latitude":30.211,"longitude":74.9455,"temp":29.5,"humidity":64,"rain":0.0,"pressure":979.0,"uv_index":8.3,"wind_gusts":33.5,"aqi":110,"pm10":81.5,"pm2_5":45.1,"no2":25.8,"co":298.0,"o3":63.0,"so2":6.4,"mosquito_risk":7,"arthritis_risk":5,"migraine_risk":7,"frizz_risk":1,"updated_at":"2026-06-22T21:24:29.913659+05:30"},{"city":"Rohtak","state":"Haryana","latitude":28.8955,"longitude":76.6066,"temp":29.8,"humidity":58,"rain":0.0,"pressure":976.9,"uv_index":7.0,"wind_gusts":38.2,"aqi":623,"pm10":1054.3,"pm2_5":172.8,"no2":26.1,"co":375.0,"o3":73.0,"so2":6.7,"mosquito_risk":4,"arthritis_risk":5,"migraine_risk":7,"frizz_risk":1,"updated_at":"2026-06-22T21:24:29.913667+05:30"},{"city":"Panipat","state":"Haryana","latitude":29.3909,"longitude":76.9635,"temp":30.0,"humidity":53,"rain":0.0,"pressure":975.5,"uv_index":7.25,"wind_gusts":34.9,"aqi":1649,"pm10":2794.0,"pm2_5":392.1,"no2":16.6,"co":343.0,"o3":90.0,"so2":7.1,"mosquito_risk":4,"arthritis_risk":5,"migraine_risk":7,"frizz_risk":1,"updated_at":"2026-06-22T21:24:29.913674+05:30"},{"city":"Mathura","state":"Uttar Pradesh","latitude":27.4924,"longitude":77.6737,"temp":31.0,"humidity":50,"rain":0.0,"pressure":982.0,"uv_index":8.05,"wind_gusts":34.2,"aqi":544,"pm10":590.5,"pm2_5":95.7,"no2":25.3,"co":364.0,"o3":62.0,"so2":5.1,"mosquito_risk":0,"arthritis_risk":5,"migraine_risk":7,"frizz_risk":1,"updated_at":"2026-06-22T21:24:29.913682+05:30"},{"city":"Vrindavan","state":"Uttar Pradesh","latitude":27.5823,"longitude":77.7027,"temp":30.7,"humidity":52,"rain":0.0,"pressure":982.4,"uv_index":8.0,"wind_gusts":33.8,"aqi":544,"pm10":590.5,"pm2_5":95.7,"no2":25.3,"co":327.0,"o3":62.0,"so2":5.1,"mosquito_risk":0,"arthritis_risk":5,"migraine_risk":7,"frizz_risk":1,"updated_at":"2026-06-22T21:24:29.913689+05:30"},{"city":"Ayodhya","state":"Uttar Pradesh","latitude":26.7922,"longitude":82.1998,"temp":32.8,"humidity":54,"rain":0.0,"pressure":989.3,"uv_index":8.05,"wind_gusts":32.4,"aqi":158,"pm10":155.5,"pm2_5":62.2,"no2":13.9,"co":486.0,"o3":89.0,"so2":9.2,"mosquito_risk":0,"arthritis_risk":5,"migraine_risk":7,"frizz_risk":1,"updated_at":"2026-06-22T21:24:29.913697+05:30"},{"city":"Ratlam","state":"Madhya Pradesh","latitude":23.3315,"longitude":75.0367,"temp":29.1,"humidity":64,"rain":0.0,"pressure":952.3,"uv_index":7.7,"wind_gusts":39.6,"aqi":66,"pm10":29.6,"pm2_5":20.8,"no2":4.5,"co":175.0,"o3":64.0,"so2":3.2,"mosquito_risk":7,"arthritis_risk":5,"migraine_risk":7,"frizz_risk":1,"updated_at":"2026-06-22T21:24:29.913704+05:30"},{"city":"Sagar","state":"Madhya Pradesh","latitude":23.8388,"longitude":78.7378,"temp":27.8,"humidity":65,"rain":0.0,"pressure":948.0,"uv_index":8.7,"wind_gusts":34.6,"aqi":94,"pm10":47.5,"pm2_5":26.3,"no2":6.8,"co":170.0,"o3":77.0,"so2":3.5,"mosquito_risk":7,"arthritis_risk":5,"migraine_risk":7,"frizz_risk":1,"updated_at":"2026-06-22T21:24:29.913712+05:30"},{"city":"Satna","state":"Madhya Pradesh","latitude":24.6005,"longitude":80.8322,"temp":31.6,"humidity":54,"rain":0.0,"pressure":967.5,"uv_index":8.8,"wind_gusts":40.0,"aqi":80,"pm10":48.3,"pm2_5":27.4,"no2":9.4,"co":198.0,"o3":70.0,"so2":3.2,"mosquito_risk":0,"arthritis_risk":5,"migraine_risk":7,"frizz_risk":1,"updated_at":"2026-06-22T21:24:29.913719+05:30"},{"city":"Akola","state":"Maharashtra","latitude":20.7002,"longitude":77.0082,"temp":27.5,"humidity":86,"rain":0.2,"pressure":973.8,"uv_index":8.8,"wind_gusts":54.0,"aqi":56,"pm10":16.3,"pm2_5":14.1,"no2":10.7,"co":170.0,"o3":72.0,"so2":6.2,"mosquito_risk":10,"arthritis_risk":5,"migraine_risk":7,"frizz_risk":1,"updated_at":"2026-06-22T21:24:29.913728+05:30"},{"city":"Amravati","state":"Maharashtra","latitude":20.9374,"longitude":77.7796,"temp":31.2,"humidity":56,"rain":0.0,"pressure":966.1,"uv_index":8.8,"wind_gusts":40.3,"aqi":59,"pm10":17.8,"pm2_5":15.7,"no2":14.7,"co":161.0,"o3":62.0,"so2":6.6,"mosquito_risk":0,"arthritis_risk":5,"migraine_risk":7,"frizz_risk":1,"updated_at":"2026-06-22T21:24:29.913736+05:30"},{"city":"Latur","state":"Maharashtra","latitude":18.4088,"longitude":76.5604,"temp":25.8,"humidity":93,"rain":0.3,"pressure":938.8,"uv_index":8.85,"wind_gusts":55.1,"aqi":34,"pm10":4.9,"pm2_5":4.5,"no2":3.2,"co":196.0,"o3":64.0,"so2":0.8,"mosquito_risk":10,"arthritis_risk":5,"migraine_risk":7,"frizz_risk":1,"updated_at":"2026-06-22T21:24:29.913745+05:30"},{"city":"Nanded","state":"Maharashtra","latitude":19.1383,"longitude":77.3091,"temp":25.0,"humidity":94,"rain":0.6,"pressure":968.4,"uv_index":8.2,"wind_gusts":62.6,"aqi":53,"pm10":13.3,"pm2_5":12.3,"no2":7.5,"co":165.0,"o3":74.0,"so2":4.6,"mosquito_risk":10,"arthritis_risk":5,"migraine_risk":7,"frizz_risk":1,"updated_at":"2026-06-22T21:24:29.913752+05:30"},{"city":"Gulbarga","state":"Karnataka","latitude":17.3297,"longitude":76.8343,"temp":26.6,"humidity":83,"rain":0.1,"pressure":958.4,"uv_index":8.9,"wind_gusts":54.0,"aqi":37,"pm10":6.2,"pm2_5":5.9,"no2":7.8,"co":136.0,"o3":64.0,"so2":2.0,"mosquito_risk":10,"arthritis_risk":5,"migraine_risk":7,"frizz_risk":1,"updated_at":"2026-06-22T21:24:29.913760+05:30"},{"city":"Bidar","state":"Karnataka","latitude":17.9104,"longitude":77.5199,"temp":25.6,"humidity":85,"rain":0.0,"pressure":934.9,"uv_index":8.25,"wind_gusts":37.1,"aqi":43,"pm10":10.6,"pm2_5":10.2,"no2":12.8,"co":181.0,"o3":63.0,"so2":2.4,"mosquito_risk":7,"arthritis_risk":5,"migraine_risk":7,"frizz_risk":1,"updated_at":"2026-06-22T21:24:29.913767+05:30"},{"city":"Hospet","state":"Karnataka","latitude":15.2689,"longitude":76.3909,"temp":25.4,"humidity":79,"rain":0.0,"pressure":956.7,"uv_index":8.95,"wind_gusts":47.2,"aqi":31,"pm10":4.7,"pm2_5":3.9,"no2":6.0,"co":145.0,"o3":49.0,"so2":1.5,"mosquito_risk":7,"arthritis_risk":5,"migraine_risk":7,"frizz_risk":1,"updated_at":"2026-06-22T21:24:29.913774+05:30"},{"city":"Tirupur","state":"Tamil Nadu","latitude":11.1085,"longitude":77.3411,"temp":24.7,"humidity":86,"rain":0.0,"pressure":977.0,"uv_index":8.55,"wind_gusts":53.6,"aqi":35,"pm10":11.2,"pm2_5":10.1,"no2":14.9,"co":157.0,"o3":44.0,"so2":4.4,"mosquito_risk":3,"arthritis_risk":5,"migraine_risk":7,"frizz_risk":1,"updated_at":"2026-06-22T21:24:29.913782+05:30"},{"city":"Alappuzha","state":"Kerala","latitude":9.4981,"longitude":76.3388,"temp":26.4,"humidity":90,"rain":0.0,"pressure":1011.9,"uv_index":5.7,"wind_gusts":36.7,"aqi":29,"pm10":13.4,"pm2_5":11.0,"no2":11.0,"co":86.0,"o3":39.0,"so2":2.5,"mosquito_risk":7,"arthritis_risk":0,"migraine_risk":0,"frizz_risk":1,"updated_at":"2026-06-22T21:24:29.913790+05:30"},{"city":"Munnar","state":"Kerala","latitude":10.0889,"longitude":77.0595,"temp":16.5,"humidity":100,"rain":0.0,"pressure":858.4,"uv_index":8.55,"wind_gusts":36.4,"aqi":29,"pm10":7.8,"pm2_5":7.2,"no2":9.0,"co":116.0,"o3":42.0,"so2":2.3,"mosquito_risk":3,"arthritis_risk":10,"migraine_risk":7,"frizz_risk":1,"updated_at":"2026-06-22T21:24:29.913798+05:30"},{"city":"Silchar","state":"Assam","latitude":24.8333,"longitude":92.7789,"temp":25.2,"humidity":98,"rain":0.1,"pressure":1002.8,"uv_index":8.1,"wind_gusts":32.0,"aqi":76,"pm10":25.6,"pm2_5":21.7,"no2":8.8,"co":297.0,"o3":61.0,"so2":4.6,"mosquito_risk":10,"arthritis_risk":5,"migraine_risk":4,"frizz_risk":1,"updated_at":"2026-06-22T21:24:29.913806+05:30"},{"city":"Dibrugarh","state":"Assam","latitude":27.4728,"longitude":94.912,"temp":25.4,"humidity":99,"rain":0.1,"pressure":991.9,"uv_index":7.15,"wind_gusts":24.5,"aqi":70,"pm10":21.8,"pm2_5":18.5,"no2":11.5,"co":291.0,"o3":65.0,"so2":2.1,"mosquito_risk":10,"arthritis_risk":5,"migraine_risk":7,"frizz_risk":1,"updated_at":"2026-06-22T21:24:29.913813+05:30"}]