[{"city":"Delhi","state":"Delhi","latitude":28.6139,"longitude":77.209,"temp":30.9,"humidity":28,"rain":0.0,"pressure":978.0,"uv_index":7.7,"wind_gusts":39.6,"aqi":548,"pm10":570.0,"pm2_5":132.7,"no2":33.4,"co":505.0,"o3":37.0,"so2":13.6,"mosquito_risk":0,"arthritis_risk":5,"migraine_risk":7,"frizz_risk":0,"updated_at":"2026-05-26T04:36:36.574022+05:30"},{"city":"Mumbai","state":"Maharashtra","latitude":19.076,"longitude":72.8777,"temp":28.9,"humidity":80,"rain":0.0,"pressure":1007.7,"uv_index":7.85,"wind_gusts":38.5,"aqi":53,"pm10":17.4,"pm2_5":11.8,"no2":6.4,"co":286.0,"o3":40.0,"so2":4.6,"mosquito_risk":7,"arthritis_risk":5,"migraine_risk":4,"frizz_risk":1,"updated_at":"2026-05-26T04:36:36.574057+05:30"},{"city":"Bangalore","state":"Karnataka","latitude":12.9716,"longitude":77.5946,"temp":21.8,"humidity":92,"rain":0.0,"pressure":911.0,"uv_index":9.25,"wind_gusts":26.6,"aqi":61,"pm10":24.8,"pm2_5":22.5,"no2":17.6,"co":318.0,"o3":53.0,"so2":6.1,"mosquito_risk":3,"arthritis_risk":5,"migraine_risk":7,"frizz_risk":1,"updated_at":"2026-05-26T04:36:36.574072+05:30"},{"city":"Hyderabad","state":"Telangana","latitude":17.385,"longitude":78.4867,"temp":28.4,"humidity":58,"rain":0.0,"pressure":951.7,"uv_index":8.95,"wind_gusts":33.8,"aqi":95,"pm10":25.8,"pm2_5":21.1,"no2":14.4,"co":196.0,"o3":56.0,"so2":7.4,"mosquito_risk":4,"arthritis_risk":5,"migraine_risk":7,"frizz_risk":1,"updated_at":"2026-05-26T04:36:36.574082+05:30"},{"city":"Chennai","state":"Tamil Nadu","latitude":13.0827,"longitude":80.2707,"temp":29.5,"humidity":71,"rain":0.0,"pressure":1004.7,"uv_index":9.05,"wind_gusts":41.8,"aqi":72,"pm10":24.2,"pm2_5":21.4,"no2":15.6,"co":319.0,"o3":57.0,"so2":12.1,"mosquito_risk":7,"arthritis_risk":5,"migraine_risk":4,"frizz_risk":1,"updated_at":"2026-05-26T04:36:36.574090+05:30"},{"city":"Kolkata","state":"West Bengal","latitude":22.5726,"longitude":88.3639,"temp":29.4,"humidity":87,"rain":0.0,"pressure":1002.2,"uv_index":8.95,"wind_gusts":39.6,"aqi":95,"pm10":25.6,"pm2_5":21.7,"no2":5.9,"co":241.0,"o3":82.0,"so2":5.1,"mosquito_risk":7,"arthritis_risk":5,"migraine_risk":4,"frizz_risk":1,"updated_at":"2026-05-26T04:36:36.574098+05:30"},{"city":"Pune","state":"Maharashtra","latitude":18.5204,"longitude":73.8567,"temp":24.4,"humidity":91,"rain":0.0,"pressure":947.6,"uv_index":8.45,"wind_gusts":38.5,"aqi":51,"pm10":13.1,"pm2_5":11.0,"no2":15.3,"co":153.0,"o3":23.0,"so2":14.8,"mosquito_risk":3,"arthritis_risk":5,"migraine_risk":7,"frizz_risk":1,"updated_at":"2026-05-26T04:36:36.574105+05:30"},{"city":"Ahmedabad","state":"Gujarat","latitude":23.0225,"longitude":72.5714,"temp":29.1,"humidity":73,"rain":0.0,"pressure":1000.9,"uv_index":8.15,"wind_gusts":36.4,"aqi":78,"pm10":41.3,"pm2_5":19.6,"no2":5.4,"co":133.0,"o3":40.0,"so2":4.8,"mosquito_risk":7,"arthritis_risk":5,"migraine_risk":4,"frizz_risk":1,"updated_at":"2026-05-26T04:36:36.574112+05:30"},{"city":"Jaipur","state":"Rajasthan","latitude":26.9124,"longitude":75.7873,"temp":32.0,"humidity":46,"rain":0.0,"pressure":956.9,"uv_index":8.25,"wind_gusts":37.1,"aqi":237,"pm10":337.1,"pm2_5":75.9,"no2":3.9,"co":141.0,"o3":56.0,"so2":4.8,"mosquito_risk":0,"arthritis_risk":5,"migraine_risk":7,"frizz_risk":1,"updated_at":"2026-05-26T04:36:36.574126+05:30"},{"city":"Lucknow","state":"Uttar Pradesh","latitude":26.8467,"longitude":80.9462,"temp":28.9,"humidity":63,"rain":0.0,"pressure":988.4,"uv_index":8.2,"wind_gusts":45.0,"aqi":423,"pm10":398.6,"pm2_5":128.1,"no2":42.4,"co":444.0,"o3":22.0,"so2":13.1,"mosquito_risk":7,"arthritis_risk":5,"migraine_risk":7,"frizz_risk":1,"updated_at":"2026-05-26T04:36:36.574133+05:30"},{"city":"Kanpur","state":"Uttar Pradesh","latitude":26.4499,"longitude":80.3319,"temp":32.2,"humidity":27,"rain":0.0,"pressure":986.1,"uv_index":8.2,"wind_gusts":48.2,"aqi":420,"pm10":195.1,"pm2_5":53.9,"no2":25.1,"co":359.0,"o3":26.0,"so2":6.8,"mosquito_risk":0,"arthritis_risk":5,"migraine_risk":7,"frizz_risk":0,"updated_at":"2026-05-26T04:36:36.574140+05:30"},{"city":"Chandigarh","state":"Chandigarh","latitude":30.7333,"longitude":76.7794,"temp":24.0,"humidity":40,"rain":0.0,"pressure":962.6,"uv_index":7.75,"wind_gusts":43.9,"aqi":86,"pm10":34.2,"pm2_5":29.2,"no2":32.8,"co":432.0,"o3":17.0,"so2":5.5,"mosquito_risk":0,"arthritis_risk":5,"migraine_risk":7,"frizz_risk":0,"updated_at":"2026-05-26T04:36:36.574147+05:30"},{"city":"Srinagar","state":"Jammu and Kashmir","latitude":34.0837,"longitude":74.7973,"temp":10.1,"humidity":99,"rain":0.0,"pressure":842.1,"uv_index":9.0,"wind_gusts":18.7,"aqi":66,"pm10":39.0,"pm2_5":36.9,"no2":22.3,"co":397.0,"o3":19.0,"so2":0.0,"mosquito_risk":3,"arthritis_risk":10,"migraine_risk":7,"frizz_risk":0,"updated_at":"2026-05-26T04:36:36.574154+05:30"},{"city":"Jammu","state":"Jammu and Kashmir","latitude":32.7266,"longitude":74.857,"temp":25.4,"humidity":36,"rain":0.0,"pressure":968.0,"uv_index":8.55,"wind_gusts":37.4,"aqi":66,"pm10":20.7,"pm2_5":19.3,"no2":18.3,"co":155.0,"o3":23.0,"so2":1.2,"mosquito_risk":4,"arthritis_risk":5,"migraine_risk":7,"frizz_risk":0,"updated_at":"2026-05-26T04:36:36.574161+05:30"},{"city":"Amritsar","state":"Punjab","latitude":31.634,"longitude":74.8723,"temp":25.5,"humidity":38,"rain":0.0,"pressure":975.6,"uv_index":8.4,"wind_gusts":31.0,"aqi":79,"pm10":36.6,"pm2_5":27.9,"no2":21.1,"co":324.0,"o3":54.0,"so2":4.3,"mosquito_risk":4,"arthritis_risk":5,"migraine_risk":7,"frizz_risk":0,"updated_at":"2026-05-26T04:36:36.574167+05:30"},{"city":"Ludhiana","state":"Punjab","latitude":30.901,"longitude":75.8573,"temp":27.4,"humidity":30,"rain":0.0,"pressure":973.5,"uv_index":8.0,"wind_gusts":38.9,"aqi":81,"pm10":27.2,"pm2_5":24.1,"no2":17.1,"co":372.0,"o3":47.0,"so2":5.7,"mosquito_risk":4,"arthritis_risk":5,"migraine_risk":7,"frizz_risk":0,"updated_at":"2026-05-26T04:36:36.574173+05:30"},{"city":"Jalandhar","state":"Punjab","latitude":31.326,"longitude":75.5762,"temp":26.2,"humidity":34,"rain":0.0,"pressure":974.4,"uv_index":8.2,"wind_gusts":37.1,"aqi":79,"pm10":31.7,"pm2_5":23.7,"no2":21.2,"co":490.0,"o3":49.0,"so2":3.9,"mosquito_risk":4,"arthritis_risk":5,"migraine_risk":7,"frizz_risk":0,"updated_at":"2026-05-26T04:36:36.574179+05:30"},{"city":"Dehradun","state":"Uttarakhand","latitude":30.6284,"longitude":78.0322,"temp":12.4,"humidity":71,"rain":0.0,"pressure":824.4,"uv_index":8.2,"wind_gusts":40.3,"aqi":61,"pm10":20.9,"pm2_5":10.7,"no2":16.6,"co":187.0,"o3":35.0,"so2":0.0,"mosquito_risk":3,"arthritis_risk":5,"migraine_risk":7,"frizz_risk":0,"updated_at":"2026-05-26T04:36:36.574185+05:30"},{"city":"Shimla","state":"Himachal Pradesh","latitude":31.1048,"longitude":77.1734,"temp":12.4,"humidity":36,"rain":0.0,"pressure":779.7,"uv_index":8.3,"wind_gusts":56.9,"aqi":60,"pm10":20.4,"pm2_5":13.6,"no2":12.9,"co":169.0,"o3":58.0,"so2":0.8,"mosquito_risk":0,"arthritis_risk":5,"migraine_risk":7,"frizz_risk":1,"updated_at":"2026-05-26T04:36:36.574194+05:30"},{"city":"Manali","state":"Himachal Pradesh","latitude":32.2396,"longitude":77.1887,"temp":10.3,"humidity":57,"rain":0.0,"pressure":813.0,"uv_index":9.3,"wind_gusts":42.8,"aqi":53,"pm10":1.5,"pm2_5":0.8,"no2":6.8,"co":162.0,"o3":113.0,"so2":0.0,"mosquito_risk":0,"arthritis_risk":5,"migraine_risk":7,"frizz_risk":0,"updated_at":"2026-05-26T04:36:36.574202+05:30"},{"city":"Gurgaon","state":"Haryana","latitude":28.4595,"longitude":77.0266,"temp":28.3,"humidity":38,"rain":0.0,"pressure":976.4,"uv_index":7.8,"wind_gusts":34.9,"aqi":1377,"pm10":579.3,"pm2_5":136.4,"no2":30.7,"co":509.0,"o3":42.0,"so2":17.6,"mosquito_risk":4,"arthritis_risk":5,"migraine_risk":7,"frizz_risk":0,"updated_at":"2026-05-26T04:36:36.574208+05:30"},{"city":"Noida","state":"Uttar Pradesh","latitude":28.5355,"longitude":77.391,"temp":30.4,"humidity":28,"rain":0.0,"pressure":979.2,"uv_index":7.75,"wind_gusts":34.9,"aqi":1377,"pm10":579.3,"pm2_5":136.4,"no2":30.7,"co":506.0,"o3":42.0,"so2":17.6,"mosquito_risk":0,"arthritis_risk":5,"migraine_risk":7,"frizz_risk":0,"updated_at":"2026-05-26T04:36:36.574215+05:30"},{"city":"Ghaziabad","state":"Uttar Pradesh","latitude":28.6692,"longitude":77.4538,"temp":30.0,"humidity":27,"rain":0.0,"pressure":977.4,"uv_index":7.7,"wind_gusts":37.1,"aqi":445,"pm10":529.0,"pm2_5":150.4,"no2":52.1,"co":506.0,"o3":13.0,"so2":23.0,"mosquito_risk":4,"arthritis_risk":5,"migraine_risk":7,"frizz_risk":0,"updated_at":"2026-05-26T04:36:36.574221+05:30"},{"city":"Faridabad","state":"Haryana","latitude":28.4089,"longitude":77.3178,"temp":31.5,"humidity":26,"rain":0.0,"pressure":978.7,"uv_index":7.75,"wind_gusts":39.6,"aqi":1377,"pm10":579.3,"pm2_5":136.4,"no2":30.7,"co":539.0,"o3":42.0,"so2":17.6,"mosquito_risk":0,"arthritis_risk":5,"migraine_risk":7,"frizz_risk":0,"updated_at":"2026-05-26T04:36:36.574228+05:30"},{"city":"Meerut","state":"Uttar Pradesh","latitude":28.9845,"longitude":77.7064,"temp":29.8,"humidity":25,"rain":0.0,"pressure":975.8,"uv_index":7.65,"wind_gusts":37.8,"aqi":445,"pm10":529.0,"pm2_5":150.4,"no2":52.1,"co":486.0,"o3":13.0,"so2":23.0,"mosquito_risk":4,"arthritis_risk":5,"migraine_risk":7,"frizz_risk":0,"updated_at":"2026-05-26T04:36:36.574234+05:30"},{"city":"Agra","state":"Uttar Pradesh","latitude":27.1767,"longitude":78.0081,"temp":32.7,"humidity":37,"rain":0.0,"pressure":982.6,"uv_index":8.05,"wind_gusts":37.4,"aqi":1000,"pm10":1281.5,"pm2_5":195.6,"no2":12.3,"co":186.0,"o3":42.0,"so2":6.2,"mosquito_risk":0,"arthritis_risk":5,"migraine_risk":7,"frizz_risk":0,"updated_at":"2026-05-26T04:36:36.574240+05:30"},{"city":"Varanasi","state":"Uttar Pradesh","latitude":25.3176,"longitude":82.9739,"temp":30.0,"humidity":76,"rain":0.0,"pressure":992.3,"uv_index":8.75,"wind_gusts":45.7,"aqi":116,"pm10":85.4,"pm2_5":53.1,"no2":39.7,"co":629.0,"o3":17.0,"so2":10.6,"mosquito_risk":7,"arthritis_risk":5,"migraine_risk":7,"frizz_risk":1,"updated_at":"2026-05-26T04:36:36.574247+05:30"},{"city":"Prayagraj","state":"Uttar Pradesh","latitude":25.4358,"longitude":81.8463,"temp":30.4,"humidity":33,"rain":0.0,"pressure":990.8,"uv_index":8.6,"wind_gusts":43.9,"aqi":139,"pm10":124.8,"pm2_5":66.6,"no2":36.2,"co":394.0,"o3":21.0,"so2":11.1,"mosquito_risk":0,"arthritis_risk":5,"migraine_risk":7,"frizz_risk":0,"updated_at":"2026-05-26T04:36:36.574253+05:30"},{"city":"Gorakhpur","state":"Uttar Pradesh","latitude":26.7606,"longitude":83.3732,"temp":26.0,"humidity":76,"rain":0.0,"pressure":993.9,"uv_index":8.6,"wind_gusts":41.8,"aqi":157,"pm10":65.4,"pm2_5":56.3,"no2":9.7,"co":337.0,"o3":102.0,"so2":15.9,"mosquito_risk":7,"arthritis_risk":5,"migraine_risk":7,"frizz_risk":1,"updated_at":"2026-05-26T04:36:36.574261+05:30"},{"city":"Bareilly","state":"Uttar Pradesh","latitude":28.367,"longitude":79.4304,"temp":27.0,"humidity":41,"rain":0.0,"pressure":980.7,"uv_index":8.0,"wind_gusts":30.6,"aqi":171,"pm10":151.3,"pm2_5":64.3,"no2":22.0,"co":595.0,"o3":71.0,"so2":9.4,"mosquito_risk":4,"arthritis_risk":5,"migraine_risk":7,"frizz_risk":0,"updated_at":"2026-05-26T04:36:36.574268+05:30"},{"city":"Aligarh","state":"Uttar Pradesh","latitude":27.8974,"longitude":78.088,"temp":29.2,"humidity":36,"rain":0.0,"pressure":979.8,"uv_index":7.85,"wind_gusts":37.8,"aqi":969,"pm10":430.3,"pm2_5":148.5,"no2":46.0,"co":591.0,"o3":11.0,"so2":15.7,"mosquito_risk":4,"arthritis_risk":5,"migraine_risk":7,"frizz_risk":0,"updated_at":"2026-05-26T04:36:36.574274+05:30"},{"city":"Moradabad","state":"Uttar Pradesh","latitude":28.8386,"longitude":78.7733,"temp":28.0,"humidity":41,"rain":0.0,"pressure":977.7,"uv_index":7.85,"wind_gusts":36.7,"aqi":169,"pm10":261.7,"pm2_5":119.2,"no2":55.0,"co":740.0,"o3":42.0,"so2":22.5,"mosquito_risk":4,"arthritis_risk":5,"migraine_risk":7,"frizz_risk":0,"updated_at":"2026-05-26T04:36:36.574280+05:30"},{"city":"Saharanpur","state":"Uttar Pradesh","latitude":29.9637,"longitude":77.546,"temp":26.3,"humidity":35,"rain":0.0,"pressure":969.7,"uv_index":7.4,"wind_gusts":45.4,"aqi":116,"pm10":58.1,"pm2_5":41.7,"no2":39.2,"co":450.0,"o3":9.0,"so2":8.1,"mosquito_risk":4,"arthritis_risk":5,"migraine_risk":7,"frizz_risk":0,"updated_at":"2026-05-26T04:36:36.574287+05:30"},{"city":"Jhansi","state":"Uttar Pradesh","latitude":25.4484,"longitude":78.5685,"temp":33.4,"humidity":29,"rain":0.0,"pressure":973.7,"uv_index":8.45,"wind_gusts":46.1,"aqi":56,"pm10":43.7,"pm2_5":24.6,"no2":5.4,"co":156.0,"o3":67.0,"so2":6.8,"mosquito_risk":0,"arthritis_risk":5,"migraine_risk":7,"frizz_risk":0,"updated_at":"2026-05-26T04:36:39.866989+05:30"},{"city":"Surat","state":"Gujarat","latitude":21.1702,"longitude":72.8311,"temp":29.1,"humidity":80,"rain":0.0,"pressure":1005.7,"uv_index":7.7,"wind_gusts":43.2,"aqi":61,"pm10":28.4,"pm2_5":17.7,"no2":19.4,"co":332.0,"o3":31.0,"so2":31.3,"mosquito_risk":7,"arthritis_risk":5,"migraine_risk":4,"frizz_risk":1,"updated_at":"2026-05-26T04:36:39.867018+05:30"},{"city":"Vadodara","state":"Gujarat","latitude":22.3072,"longitude":73.1812,"temp":30.1,"humidity":78,"rain":0.0,"pressure":1002.9,"uv_index":8.1,"wind_gusts":39.6,"aqi":52,"pm10":21.1,"pm2_5":15.9,"no2":14.8,"co":166.0,"o3":26.0,"so2":13.1,"mosquito_risk":3,"arthritis_risk":5,"migraine_risk":4,"frizz_risk":1,"updated_at":"2026-05-26T04:36:39.867028+05:30"},{"city":"Rajkot","state":"Gujarat","latitude":22.3039,"longitude":70.8022,"temp":27.5,"humidity":80,"rain":0.0,"pressure":993.0,"uv_index":7.7,"wind_gusts":45.0,"aqi":67,"pm10":31.9,"pm2_5":13.8,"no2":4.1,"co":117.0,"o3":43.0,"so2":4.7,"mosquito_risk":7,"arthritis_risk":5,"migraine_risk":7,"frizz_risk":1,"updated_at":"2026-05-26T04:36:39.867035+05:30"},{"city":"Thane","state":"Maharashtra","latitude":19.2183,"longitude":72.9781,"temp":28.1,"humidity":90,"rain":0.0,"pressure":1007.1,"uv_index":7.85,"wind_gusts":33.8,"aqi":53,"pm10":17.4,"pm2_5":11.8,"no2":6.4,"co":468.0,"o3":40.0,"so2":4.6,"mosquito_risk":7,"arthritis_risk":5,"migraine_risk":4,"frizz_risk":1,"updated_at":"2026-05-26T04:36:39.867043+05:30"},{"city":"Nagpur","state":"Maharashtra","latitude":21.1458,"longitude":79.0882,"temp":35.2,"humidity":28,"rain":0.0,"pressure":970.2,"uv_index":8.9,"wind_gusts":42.1,"aqi":81,"pm10":48.7,"pm2_5":27.2,"no2":11.7,"co":218.0,"o3":62.0,"so2":8.6,"mosquito_risk":0,"arthritis_risk":5,"migraine_risk":10,"frizz_risk":0,"updated_at":"2026-05-26T04:36:39.867049+05:30"},{"city":"Nashik","state":"Maharashtra","latitude":19.9975,"longitude":73.7898,"temp":25.0,"humidity":90,"rain":0.0,"pressure":945.0,"uv_index":8.15,"wind_gusts":36.7,"aqi":35,"pm10":10.9,"pm2_5":7.9,"no2":5.9,"co":124.0,"o3":35.0,"so2":3.6,"mosquito_risk":7,"arthritis_risk":5,"migraine_risk":7,"frizz_risk":1,"updated_at":"2026-05-26T04:36:39.867056+05:30"},{"city":"Aurangabad","state":"Maharashtra","latitude":19.8762,"longitude":75.3433,"temp":26.4,"humidity":81,"rain":0.0,"pressure":943.2,"uv_index":9.0,"wind_gusts":34.6,"aqi":50,"pm10":11.6,"pm2_5":8.4,"no2":9.4,"co":157.0,"o3":35.0,"so2":6.5,"mosquito_risk":7,"arthritis_risk":5,"migraine_risk":7,"frizz_risk":1,"updated_at":"2026-05-26T04:36:39.867063+05:30"},{"city":"Solapur","state":"Maharashtra","latitude":17.6599,"longitude":75.9064,"temp":28.1,"humidity":72,"rain":0.0,"pressure":956.6,"uv_index":8.95,"wind_gusts":40.0,"aqi":62,"pm10":12.7,"pm2_5":11.5,"no2":8.4,"co":167.0,"o3":64.0,"so2":7.4,"mosquito_risk":7,"arthritis_risk":5,"migraine_risk":7,"frizz_risk":1,"updated_at":"2026-05-26T04:36:39.867069+05:30"},{"city":"Kolhapur","state":"Maharashtra","latitude":16.705,"longitude":74.2433,"temp":24.4,"humidity":93,"rain":0.0,"pressure":947.5,"uv_index":6.95,"wind_gusts":42.8,"aqi":36,"pm10":9.0,"pm2_5":7.5,"no2":6.8,"co":143.0,"o3":33.0,"so2":2.6,"mosquito_risk":3,"arthritis_risk":5,"migraine_risk":7,"frizz_risk":1,"updated_at":"2026-05-26T04:36:39.867076+05:30"},{"city":"Goa","state":"Goa","latitude":15.2993,"longitude":74.124,"temp":26.5,"humidity":95,"rain":0.0,"pressure":997.6,"uv_index":7.2,"wind_gusts":25.9,"aqi":35,"pm10":18.4,"pm2_5":15.1,"no2":8.8,"co":415.0,"o3":36.0,"so2":1.8,"mosquito_risk":7,"arthritis_risk":5,"migraine_risk":7,"frizz_risk":1,"updated_at":"2026-05-26T04:36:39.867082+05:30"},{"city":"Jodhpur","state":"Rajasthan","latitude":26.2389,"longitude":73.0243,"temp":31.2,"humidity":56,"rain":0.0,"pressure":979.9,"uv_index":8.4,"wind_gusts":39.2,"aqi":255,"pm10":333.4,"pm2_5":78.7,"no2":2.2,"co":122.0,"o3":55.0,"so2":2.6,"mosquito_risk":0,"arthritis_risk":5,"migraine_risk":7,"frizz_risk":1,"updated_at":"2026-05-26T04:36:39.867088+05:30"},{"city":"Udaipur","state":"Rajasthan","latitude":24.5854,"longitude":73.7125,"temp":27.0,"humidity":61,"rain":0.0,"pressure":944.6,"uv_index":8.85,"wind_gusts":36.4,"aqi":85,"pm10":42.6,"pm2_5":24.3,"no2":3.4,"co":135.0,"o3":51.0,"so2":2.6,"mosquito_risk":7,"arthritis_risk":5,"migraine_risk":7,"frizz_risk":1,"updated_at":"2026-05-26T04:36:39.867095+05:30"},{"city":"Kota","state":"Rajasthan","latitude":25.2138,"longitude":75.8648,"temp":32.8,"humidity":32,"rain":0.0,"pressure":975.6,"uv_index":8.4,"wind_gusts":36.7,"aqi":63,"pm10":42.5,"pm2_5":27.2,"no2":5.6,"co":157.0,"o3":56.0,"so2":5.2,"mosquito_risk":0,"arthritis_risk":5,"migraine_risk":7,"frizz_risk":0,"updated_at":"2026-05-26T04:36:39.867101+05:30"},{"city":"Bikaner","state":"Rajasthan","latitude":28.0229,"longitude":73.3119,"temp":32.0,"humidity":38,"rain":0.0,"pressure":977.2,"uv_index":8.4,"wind_gusts":41.0,"aqi":174,"pm10":238.0,"pm2_5":86.1,"no2":3.9,"co":145.0,"o3":58.0,"so2":3.5,"mosquito_risk":0,"arthritis_risk":5,"migraine_risk":7,"frizz_risk":0,"updated_at":"2026-05-26T04:36:39.867108+05:30"},{"city":"Ajmer","state":"Rajasthan","latitude":26.4499,"longitude":74.6399,"temp":30.0,"humidity":51,"rain":0.0,"pressure":952.1,"uv_index":8.4,"wind_gusts":46.4,"aqi":121,"pm10":64.7,"pm2_5":31.8,"no2":3.0,"co":130.0,"o3":57.0,"so2":3.7,"mosquito_risk":4,"arthritis_risk":5,"migraine_risk":7,"frizz_risk":1,"updated_at":"2026-05-26T04:36:39.867114+05:30"},{"city":"Gwalior","state":"Madhya Pradesh","latitude":26.2183,"longitude":78.1828,"temp":33.3,"humidity":36,"rain":0.0,"pressure":978.7,"uv_index":8.25,"wind_gusts":45.7,"aqi":69,"pm10":113.9,"pm2_5":47.6,"no2":4.3,"co":149.0,"o3":59.0,"so2":3.4,"mosquito_risk":0,"arthritis_risk":5,"migraine_risk":7,"frizz_risk":1,"updated_at":"2026-05-26T04:36:39.867120+05:30"},{"city":"Indore","state":"Madhya Pradesh","latitude":22.7196,"longitude":75.8577,"temp":28.1,"humidity":64,"rain":0.0,"pressure":946.9,"uv_index":8.65,"wind_gusts":41.8,"aqi":60,"pm10":13.0,"pm2_5":10.7,"no2":5.8,"co":162.0,"o3":62.0,"so2":10.6,"mosquito_risk":7,"arthritis_risk":5,"migraine_risk":7,"frizz_risk":1,"updated_at":"2026-05-26T04:36:39.867126+05:30"},{"city":"Bhopal","state":"Madhya Pradesh","latitude":23.2599,"longitude":77.4126,"temp":32.3,"humidity":32,"rain":0.0,"pressure":951.5,"uv_index":8.7,"wind_gusts":40.0,"aqi":69,"pm10":24.2,"pm2_5":17.8,"no2":3.4,"co":191.0,"o3":88.0,"so2":6.8,"mosquito_risk":0,"arthritis_risk":5,"migraine_risk":7,"frizz_risk":0,"updated_at":"2026-05-26T04:36:39.867133+05:30"},{"city":"Jabalpur","state":"Madhya Pradesh","latitude":23.1815,"longitude":79.9864,"temp":32.8,"humidity":27,"rain":0.0,"pressure":958.4,"uv_index":8.85,"wind_gusts":39.2,"aqi":74,"pm10":34.2,"pm2_5":21.5,"no2":6.3,"co":214.0,"o3":74.0,"so2":4.2,"mosquito_risk":0,"arthritis_risk":5,"migraine_risk":7,"frizz_risk":0,"updated_at":"2026-05-26T04:36:39.867139+05:30"},{"city":"Ujjain","state":"Madhya Pradesh","latitude":23.1765,"longitude":75.7885,"temp":28.4,"humidity":66,"rain":0.0,"pressure":952.4,"uv_index":8.6,"wind_gusts":39.6,"aqi":58,"pm10":13.0,"pm2_5":10.2,"no2":6.5,"co":163.0,"o3":51.0,"so2":11.5,"mosquito_risk":7,"arthritis_risk":5,"migraine_risk":7,"frizz_risk":1,"updated_at":"2026-05-26T04:36:39.867145+05:30"},{"city":"Visakhapatnam","state":"Andhra Pradesh","latitude":17.6868,"longitude":83.2185,"temp":30.2,"humidity":86,"rain":0.0,"pressure":1000.3,"uv_index":9.05,"wind_gusts":37.4,"aqi":107,"pm10":35.7,"pm2_5":28.8,"no2":28.7,"co":440.0,"o3":83.0,"so2":44.2,"mosquito_risk":3,"arthritis_risk":5,"migraine_risk":4,"frizz_risk":1,"updated_at":"2026-05-26T04:36:39.867152+05:30"},{"city":"Vijayawada","state":"Andhra Pradesh","latitude":16.5062,"longitude":80.648,"temp":31.3,"humidity":71,"rain":0.0,"pressure":998.9,"uv_index":9.1,"wind_gusts":38.9,"aqi":95,"pm10":31.4,"pm2_5":27.9,"no2":10.7,"co":339.0,"o3":85.0,"so2":7.9,"mosquito_risk":3,"arthritis_risk":5,"migraine_risk":7,"frizz_risk":1,"updated_at":"2026-05-26T04:36:39.867158+05:30"},{"city":"Guntur","state":"Andhra Pradesh","latitude":16.3067,"longitude":80.4365,"temp":31.5,"humidity":54,"rain":0.0,"pressure":1000.1,"uv_index":9.1,"wind_gusts":40.7,"aqi":90,"pm10":33.2,"pm2_5":29.0,"no2":10.8,"co":240.0,"o3":81.0,"so2":7.4,"mosquito_risk":0,"arthritis_risk":5,"migraine_risk":4,"frizz_risk":1,"updated_at":"2026-05-26T04:36:39.867164+05:30"},{"city":"Nellore","state":"Andhra Pradesh","latitude":14.4426,"longitude":79.9865,"temp":30.9,"humidity":51,"rain":0.0,"pressure":1002.7,"uv_index":9.0,"wind_gusts":35.3,"aqi":64,"pm10":17.2,"pm2_5":14.5,"no2":5.9,"co":200.0,"o3":86.0,"so2":4.3,"mosquito_risk":0,"arthritis_risk":5,"migraine_risk":4,"frizz_risk":1,"updated_at":"2026-05-26T04:36:39.867171+05:30"},{"city":"Kurnool","state":"Andhra Pradesh","latitude":15.8281,"longitude":78.0373,"temp":28.5,"humidity":74,"rain":0.0,"pressure":975.9,"uv_index":9.05,"wind_gusts":62.3,"aqi":66,"pm10":10.7,"pm2_5":8.8,"no2":9.8,"co":200.0,"o3":42.0,"so2":5.2,"mosquito_risk":7,"arthritis_risk":5,"migraine_risk":7,"frizz_risk":1,"updated_at":"2026-05-26T04:36:39.867177+05:30"},{"city":"Kakinada","state":"Andhra Pradesh","latitude":16.9891,"longitude":82.2475,"temp":31.4,"humidity":70,"rain":0.0,"pressure":1004.0,"uv_index":9.0,"wind_gusts":40.3,"aqi":75,"pm10":30.6,"pm2_5":23.3,"no2":3.0,"co":312.0,"o3":127.0,"so2":4.0,"mosquito_risk":3,"arthritis_risk":5,"migraine_risk":4,"frizz_risk":1,"updated_at":"2026-05-26T04:36:39.867184+05:30"},{"city":"Tirupati","state":"Andhra Pradesh","latitude":13.6288,"longitude":79.4192,"temp":28.4,"humidity":60,"rain":0.0,"pressure":988.7,"uv_index":9.1,"wind_gusts":25.9,"aqi":61,"pm10":19.0,"pm2_5":17.2,"no2":13.3,"co":193.0,"o3":50.0,"so2":2.5,"mosquito_risk":4,"arthritis_risk":5,"migraine_risk":7,"frizz_risk":1,"updated_at":"2026-05-26T04:36:39.867190+05:30"},{"city":"Warangal","state":"Telangana","latitude":17.9689,"longitude":79.5941,"temp":31.9,"humidity":45,"rain":0.0,"pressure":975.9,"uv_index":9.1,"wind_gusts":43.9,"aqi":100,"pm10":52.7,"pm2_5":35.5,"no2":15.2,"co":290.0,"o3":60.0,"so2":5.5,"mosquito_risk":0,"arthritis_risk":5,"migraine_risk":7,"frizz_risk":1,"updated_at":"2026-05-26T04:36:39.867196+05:30"},{"city":"Nizamabad","state":"Telangana","latitude":18.6725,"longitude":78.0941,"temp":31.2,"humidity":45,"rain":0.0,"pressure":963.4,"uv_index":9.05,"wind_gusts":35.3,"aqi":81,"pm10":31.9,"pm2_5":23.9,"no2":7.4,"co":187.0,"o3":78.0,"so2":5.5,"mosquito_risk":0,"arthritis_risk":5,"migraine_risk":7,"frizz_risk":1,"updated_at":"2026-05-26T04:36:39.867201+05:30"},{"city":"Mysore","state":"Karnataka","latitude":12.2958,"longitude":76.6396,"temp":23.0,"humidity":89,"rain":0.0,"pressure":928.4,"uv_index":9.15,"wind_gusts":41.8,"aqi":54,"pm10":14.7,"pm2_5":12.3,"no2":10.5,"co":252.0,"o3":42.0,"so2":2.7,"mosquito_risk":3,"arthritis_risk":5,"migraine_risk":7,"frizz_risk":1,"updated_at":"2026-05-26T04:36:39.867207+05:30"},{"city":"Mangalore","state":"Karnataka","latitude":12.9141,"longitude":74.856,"temp":25.8,"humidity":93,"rain":0.0,"pressure":1006.9,"uv_index":8.05,"wind_gusts":32.0,"aqi":66,"pm10":30.2,"pm2_5":25.7,"no2":19.9,"co":345.0,"o3":18.0,"so2":5.1,"mosquito_risk":7,"arthritis_risk":5,"migraine_risk":4,"frizz_risk":1,"updated_at":"2026-05-26T04:36:39.867213+05:30"},{"city":"Hubli-Dharwad","state":"Karnataka","latitude":15.3647,"longitude":75.124,"temp":23.9,"humidity":95,"rain":0.0,"pressure":940.6,"uv_index":8.5,"wind_gusts":47.9,"aqi":27,"pm10":4.6,"pm2_5":3.9,"no2":5.5,"co":163.0,"o3":34.0,"so2":1.3,"mosquito_risk":3,"arthritis_risk":5,"migraine_risk":7,"frizz_risk":1,"updated_at":"2026-05-26T04:36:39.867219+05:30"},{"city":"Belgaum","state":"Karnataka","latitude":15.8497,"longitude":74.4977,"temp":22.6,"humidity":98,"rain":0.0,"pressure":925.2,"uv_index":9.0,"wind_gusts":41.4,"aqi":26,"pm10":7.2,"pm2_5":5.7,"no2":5.0,"co":151.0,"o3":35.0,"so2":1.0,"mosquito_risk":3,"arthritis_risk":5,"migraine_risk":7,"frizz_risk":1,"updated_at":"2026-05-26T04:36:43.162717+05:30"},{"city":"Coimbatore","state":"Tamil Nadu","latitude":11.0168,"longitude":76.9558,"temp":24.8,"humidity":87,"rain":0.0,"pressure":961.5,"uv_index":8.85,"wind_gusts":52.2,"aqi":38,"pm10":11.0,"pm2_5":8.8,"no2":7.3,"co":172.0,"o3":40.0,"so2":3.3,"mosquito_risk":3,"arthritis_risk":5,"migraine_risk":7,"frizz_risk":1,"updated_at":"2026-05-26T04:36:43.162744+05:30"},{"city":"Madurai","state":"Tamil Nadu","latitude":9.9252,"longitude":78.1198,"temp":27.5,"humidity":73,"rain":0.0,"pressure":992.2,"uv_index":8.5,"wind_gusts":40.0,"aqi":72,"pm10":44.8,"pm2_5":42.6,"no2":38.7,"co":198.0,"o3":0.0,"so2":6.8,"mosquito_risk":7,"arthritis_risk":5,"migraine_risk":7,"frizz_risk":1,"updated_at":"2026-05-26T04:36:43.162757+05:30"},{"city":"Trichy","state":"Tamil Nadu","latitude":10.7905,"longitude":78.7047,"temp":27.7,"humidity":73,"rain":0.0,"pressure":998.6,"uv_index":8.95,"wind_gusts":32.4,"aqi":54,"pm10":5.3,"pm2_5":4.9,"no2":10.6,"co":201.0,"o3":33.0,"so2":3.7,"mosquito_risk":7,"arthritis_risk":5,"migraine_risk":7,"frizz_risk":1,"updated_at":"2026-05-26T04:36:43.162768+05:30"},{"city":"Salem","state":"Tamil Nadu","latitude":11.6643,"longitude":78.146,"temp":26.7,"humidity":75,"rain":0.0,"pressure":976.8,"uv_index":9.0,"wind_gusts":40.0,"aqi":70,"pm10":27.4,"pm2_5":24.9,"no2":22.4,"co":220.0,"o3":35.0,"so2":8.1,"mosquito_risk":7,"arthritis_risk":5,"migraine_risk":7,"frizz_risk":1,"updated_at":"2026-05-26T04:36:43.162778+05:30"},{"city":"Tirunelveli","state":"Tamil Nadu","latitude":8.7139,"longitude":77.7567,"temp":28.0,"humidity":73,"rain":0.0,"pressure":1002.7,"uv_index":8.45,"wind_gusts":26.3,"aqi":38,"pm10":12.1,"pm2_5":9.7,"no2":8.1,"co":207.0,"o3":32.0,"so2":2.6,"mosquito_risk":7,"arthritis_risk":5,"migraine_risk":4,"frizz_risk":1,"updated_at":"2026-05-26T04:36:43.162787+05:30"},{"city":"Vellore","state":"Tamil Nadu","latitude":12.9165,"longitude":79.1325,"temp":27.6,"humidity":67,"rain":0.0,"pressure":982.6,"uv_index":9.0,"wind_gusts":36.4,"aqi":69,"pm10":24.0,"pm2_5":22.9,"no2":15.8,"co":255.0,"o3":39.0,"so2":4.3,"mosquito_risk":7,"arthritis_risk":5,"migraine_risk":7,"frizz_risk":1,"updated_at":"2026-05-26T04:36:43.162797+05:30"},{"city":"Erode","state":"Tamil Nadu","latitude":11.341,"longitude":77.7172,"temp":26.9,"humidity":77,"rain":0.0,"pressure":988.5,"uv_index":8.9,"wind_gusts":43.9,"aqi":49,"pm10":13.0,"pm2_5":11.6,"no2":17.5,"co":214.0,"o3":29.0,"so2":4.2,"mosquito_risk":7,"arthritis_risk":5,"migraine_risk":7,"frizz_risk":1,"updated_at":"2026-05-26T04:36:43.162806+05:30"},{"city":"Kochi","state":"Kerala","latitude":9.9312,"longitude":76.2673,"temp":25.3,"humidity":97,"rain":0.1,"pressure":1009.7,"uv_index":8.15,"wind_gusts":29.9,"aqi":58,"pm10":20.0,"pm2_5":18.5,"no2":20.3,"co":410.0,"o3":6.0,"so2":5.2,"mosquito_risk":10,"arthritis_risk":0,"migraine_risk":4,"frizz_risk":1,"updated_at":"2026-05-26T04:36:43.162815+05:30"},{"city":"Thiruvananthapuram","state":"Kerala","latitude":8.5241,"longitude":76.9366,"temp":25.1,"humidity":97,"rain":0.0,"pressure":1009.2,"uv_index":7.65,"wind_gusts":33.1,"aqi":36,"pm10":11.0,"pm2_5":7.3,"no2":3.5,"co":285.0,"o3":62.0,"so2":1.9,"mosquito_risk":7,"arthritis_risk":0,"migraine_risk":4,"frizz_risk":1,"updated_at":"2026-05-26T04:36:43.162824+05:30"},{"city":"Kozhikode","state":"Kerala","latitude":11.2588,"longitude":75.7804,"temp":23.8,"humidity":98,"rain":0.1,"pressure":1009.8,"uv_index":7.6,"wind_gusts":31.0,"aqi":36,"pm10":12.1,"pm2_5":8.2,"no2":2.6,"co":483.0,"o3":59.0,"so2":1.4,"mosquito_risk":6,"arthritis_risk":0,"migraine_risk":4,"frizz_risk":1,"updated_at":"2026-05-26T04:36:43.162832+05:30"},{"city":"Thrissur","state":"Kerala","latitude":10.5276,"longitude":76.2144,"temp":24.0,"humidity":99,"rain":0.1,"pressure":1007.8,"uv_index":8.6,"wind_gusts":30.2,"aqi":57,"pm10":17.7,"pm2_5":16.6,"no2":16.8,"co":291.0,"o3":11.0,"so2":4.5,"mosquito_risk":6,"arthritis_risk":5,"migraine_risk":4,"frizz_risk":1,"updated_at":"2026-05-26T04:36:43.162842+05:30"},{"city":"Kannur","state":"Kerala","latitude":11.8745,"longitude":75.3704,"temp":26.2,"humidity":87,"rain":0.0,"pressure":1007.8,"uv_index":8.25,"wind_gusts":32.8,"aqi":65,"pm10":27.9,"pm2_5":24.0,"no2":21.8,"co":377.0,"o3":15.0,"so2":3.2,"mosquito_risk":7,"arthritis_risk":5,"migraine_risk":4,"frizz_risk":1,"updated_at":"2026-05-26T04:36:43.162851+05:30"},{"city":"Patna","state":"Bihar","latitude":25.5941,"longitude":85.1376,"temp":26.5,"humidity":85,"rain":0.0,"pressure":996.5,"uv_index":8.8,"wind_gusts":38.2,"aqi":155,"pm10":33.3,"pm2_5":29.6,"no2":12.8,"co":348.0,"o3":85.0,"so2":14.2,"mosquito_risk":7,"arthritis_risk":5,"migraine_risk":7,"frizz_risk":1,"updated_at":"2026-05-26T04:36:43.162860+05:30"},{"city":"Gaya","state":"Bihar","latitude":24.7914,"longitude":85.0002,"temp":27.9,"humidity":87,"rain":0.0,"pressure":988.8,"uv_index":8.9,"wind_gusts":37.4,"aqi":157,"pm10":93.6,"pm2_5":66.4,"no2":39.7,"co":440.0,"o3":17.0,"so2":12.1,"mosquito_risk":7,"arthritis_risk":5,"migraine_risk":7,"frizz_risk":1,"updated_at":"2026-05-26T04:36:43.162868+05:30"},{"city":"Muzaffarpur","state":"Bihar","latitude":26.1209,"longitude":85.3647,"temp":25.2,"humidity":86,"rain":0.0,"pressure":997.1,"uv_index":8.8,"wind_gusts":45.7,"aqi":155,"pm10":31.1,"pm2_5":26.5,"no2":11.8,"co":324.0,"o3":83.0,"so2":11.3,"mosquito_risk":7,"arthritis_risk":5,"migraine_risk":7,"frizz_risk":1,"updated_at":"2026-05-26T04:36:43.162876+05:30"},{"city":"Bhagalpur","state":"Bihar","latitude":25.2425,"longitude":87.0117,"temp":24.6,"humidity":89,"rain":0.0,"pressure":997.9,"uv_index":8.8,"wind_gusts":41.0,"aqi":104,"pm10":43.5,"pm2_5":39.0,"no2":14.6,"co":320.0,"o3":64.0,"so2":7.0,"mosquito_risk":3,"arthritis_risk":5,"migraine_risk":7,"frizz_risk":1,"updated_at":"2026-05-26T04:36:43.162884+05:30"},{"city":"Ranchi","state":"Jharkhand","latitude":23.3441,"longitude":85.3096,"temp":26.1,"humidity":55,"rain":0.0,"pressure":934.5,"uv_index":9.1,"wind_gusts":43.6,"aqi":105,"pm10":55.5,"pm2_5":38.3,"no2":12.3,"co":304.0,"o3":97.0,"so2":17.1,"mosquito_risk":4,"arthritis_risk":5,"migraine_risk":7,"frizz_risk":1,"updated_at":"2026-05-26T04:36:43.162893+05:30"},{"city":"Jamshedpur","state":"Jharkhand","latitude":22.8046,"longitude":86.2029,"temp":28.3,"humidity":78,"rain":0.0,"pressure":987.2,"uv_index":9.05,"wind_gusts":43.2,"aqi":117,"pm10":53.3,"pm2_5":48.7,"no2":19.5,"co":302.0,"o3":65.0,"so2":23.8,"mosquito_risk":7,"arthritis_risk":5,"migraine_risk":7,"frizz_risk":1,"updated_at":"2026-05-26T04:36:43.162901+05:30"},{"city":"Dhanbad","state":"Jharkhand","latitude":23.7957,"longitude":86.4304,"temp":28.0,"humidity":63,"rain":0.0,"pressure":975.5,"uv_index":9.05,"wind_gusts":31.3,"aqi":158,"pm10":78.9,"pm2_5":65.2,"no2":55.5,"co":262.0,"o3":43.0,"so2":108.0,"mosquito_risk":7,"arthritis_risk":5,"migraine_risk":7,"frizz_risk":1,"updated_at":"2026-05-26T04:36:43.162910+05:30"},{"city":"Bokaro","state":"Jharkhand","latitude":23.6693,"longitude":86.1511,"temp":27.5,"humidity":61,"rain":0.0,"pressure":979.3,"uv_index":9.0,"wind_gusts":34.6,"aqi":157,"pm10":78.5,"pm2_5":59.6,"no2":40.5,"co":307.0,"o3":29.0,"so2":68.4,"mosquito_risk":7,"arthritis_risk":5,"migraine_risk":7,"frizz_risk":1,"updated_at":"2026-05-26T04:36:43.162944+05:30"},{"city":"Bhubaneswar","state":"Odisha","latitude":20.2961,"longitude":85.8245,"temp":29.4,"humidity":89,"rain":0.0,"pressure":999.1,"uv_index":9.1,"wind_gusts":39.6,"aqi":96,"pm10":21.9,"pm2_5":18.0,"no2":3.7,"co":201.0,"o3":92.0,"so2":3.9,"mosquito_risk":7,"arthritis_risk":5,"migraine_risk":7,"frizz_risk":1,"updated_at":"2026-05-26T04:36:43.162952+05:30"},{"city":"Cuttack","state":"Odisha","latitude":20.4625,"longitude":85.8828,"temp":29.6,"humidity":87,"rain":0.0,"pressure":1000.9,"uv_index":9.15,"wind_gusts":36.0,"aqi":96,"pm10":21.9,"pm2_5":18.0,"no2":3.7,"co":210.0,"o3":92.0,"so2":3.9,"mosquito_risk":7,"arthritis_risk":5,"migraine_risk":4,"frizz_risk":1,"updated_at":"2026-05-26T04:36:43.162959+05:30"},{"city":"Rourkela","state":"Odisha","latitude":22.2604,"longitude":84.8536,"temp":28.1,"humidity":87,"rain":0.0,"pressure":981.9,"uv_index":8.75,"wind_gusts":40.3,"aqi":117,"pm10":87.3,"pm2_5":69.8,"no2":36.5,"co":307.0,"o3":50.0,"so2":24.8,"mosquito_risk":7,"arthritis_risk":5,"migraine_risk":7,"frizz_risk":1,"updated_at":"2026-05-26T04:36:43.162965+05:30"},{"city":"Raipur","state":"Chhattisgarh","latitude":21.2514,"longitude":81.6296,"temp":32.7,"humidity":33,"rain":0.0,"pressure":971.3,"uv_index":8.95,"wind_gusts":35.6,"aqi":125,"pm10":63.6,"pm2_5":44.8,"no2":41.4,"co":552.0,"o3":25.0,"so2":43.5,"mosquito_risk":0,"arthritis_risk":5,"migraine_risk":7,"frizz_risk":0,"updated_at":"2026-05-26T04:36:43.162971+05:30"},{"city":"Bhilai","state":"Chhattisgarh","latitude":21.1938,"longitude":81.3509,"temp":31.6,"humidity":38,"rain":0.0,"pressure":971.8,"uv_index":8.95,"wind_gusts":40.0,"aqi":120,"pm10":68.7,"pm2_5":43.9,"no2":38.6,"co":826.0,"o3":23.0,"so2":40.9,"mosquito_risk":0,"arthritis_risk":5,"migraine_risk":7,"frizz_risk":0,"updated_at":"2026-05-26T04:36:43.162978+05:30"},{"city":"Guwahati","state":"Assam","latitude":26.1158,"longitude":91.7086,"temp":22.5,"humidity":96,"rain":0.1,"pressure":1001.0,"uv_index":8.75,"wind_gusts":25.9,"aqi":55,"pm10":24.6,"pm2_5":13.9,"no2":6.3,"co":309.0,"o3":79.0,"so2":2.4,"mosquito_risk":6,"arthritis_risk":5,"migraine_risk":4,"frizz_risk":1,"updated_at":"2026-05-26T04:36:43.162984+05:30"},{"city":"Agartala","state":"Tripura","latitude":23.8315,"longitude":91.2868,"temp":24.3,"humidity":98,"rain":0.0,"pressure":1004.8,"uv_index":8.75,"wind_gusts":34.9,"aqi":69,"pm10":20.7,"pm2_5":17.9,"no2":9.7,"co":195.0,"o3":55.0,"so2":3.4,"mosquito_risk":3,"arthritis_risk":5,"migraine_risk":4,"frizz_risk":1,"updated_at":"2026-05-26T04:36:43.162990+05:30"},{"city":"Shillong","state":"Meghalaya","latitude":25.5788,"longitude":91.8933,"temp":18.2,"humidity":98,"rain":0.3,"pressure":855.6,"uv_index":8.85,"wind_gusts":36.0,"aqi":34,"pm10":4.7,"pm2_5":2.1,"no2":4.5,"co":225.0,"o3":78.0,"so2":3.5,"mosquito_risk":6,"arthritis_risk":10,"migraine_risk":7,"frizz_risk":1,"updated_at":"2026-05-26T04:36:43.162997+05:30"},{"city":"Imphal","state":"Manipur","latitude":24.817,"longitude":93.9368,"temp":20.2,"humidity":99,"rain":0.0,"pressure":922.6,"uv_index":9.25,"wind_gusts":32.4,"aqi":67,"pm10":5.6,"pm2_5":5.0,"no2":6.2,"co":308.0,"o3":48.0,"so2":2.3,"mosquito_risk":3,"arthritis_risk":5,"migraine_risk":7,"frizz_risk":1,"updated_at":"2026-05-26T04:36:43.163003+05:30"},{"city":"Aizawl","state":"Mizoram","latitude":23.7271,"longitude":92.7176,"temp":17.5,"humidity":97,"rain":0.0,"pressure":890.7,"uv_index":9.05,"wind_gusts":36.0,"aqi":53,"pm10":15.8,"pm2_5":10.7,"no2":2.9,"co":170.0,"o3":50.0,"so2":1.2,"mosquito_risk":3,"arthritis_risk":10,"migraine_risk":7,"frizz_risk":1,"updated_at":"2026-05-26T04:36:43.163009+05:30"},{"city":"Kohima","state":"Nagaland","latitude":25.6701,"longitude":94.1077,"temp":16.5,"humidity":91,"rain":0.0,"pressure":853.4,"uv_index":8.65,"wind_gusts":32.0,"aqi":57,"pm10":9.9,"pm2_5":5.1,"no2":3.4,"co":235.0,"o3":64.0,"so2":1.5,"mosquito_risk":3,"arthritis_risk":10,"migraine_risk":7,"frizz_risk":0,"updated_at":"2026-05-26T04:36:43.163015+05:30"},{"city":"Gangtok","state":"Sikkim","latitude":27.3314,"longitude":88.6138,"temp":14.4,"humidity":96,"rain":0.1,"pressure":834.9,"uv_index":9.2,"wind_gusts":40.3,"aqi":84,"pm10":18.8,"pm2_5":13.2,"no2":6.2,"co":378.0,"o3":115.0,"so2":3.2,"mosquito_risk":6,"arthritis_risk":10,"migraine_risk":7,"frizz_risk":0,"updated_at":"2026-05-26T04:36:43.163022+05:30"},{"city":"Siliguri","state":"West Bengal","latitude":26.7271,"longitude":88.3953,"temp":22.6,"humidity":95,"rain":0.0,"pressure":991.7,"uv_index":8.7,"wind_gusts":27.7,"aqi":117,"pm10":49.4,"pm2_5":34.7,"no2":14.9,"co":359.0,"o3":90.0,"so2":4.0,"mosquito_risk":3,"arthritis_risk":5,"migraine_risk":7,"frizz_risk":1,"updated_at":"2026-05-26T04:36:46.468567+05:30"},{"city":"Durgapur","state":"West Bengal","latitude":23.5204,"longitude":87.3119,"temp":28.0,"humidity":96,"rain":0.0,"pressure":991.2,"uv_index":8.95,"wind_gusts":33.8,"aqi":151,"pm10":56.8,"pm2_5":54.6,"no2":30.4,"co":705.0,"o3":54.0,"so2":43.3,"mosquito_risk":7,"arthritis_risk":5,"migraine_risk":7,"frizz_risk":1,"updated_at":"2026-05-26T04:36:46.468591+05:30"},{"city":"Asansol","state":"West Bengal","latitude":23.6739,"longitude":86.9524,"temp":27.9,"humidity":97,"rain":0.0,"pressure":989.5,"uv_index":9.0,"wind_gusts":35.6,"aqi":151,"pm10":63.6,"pm2_5":57.0,"no2":41.2,"co":410.0,"o3":50.0,"so2":58.8,"mosquito_risk":7,"arthritis_risk":5,"migraine_risk":7,"frizz_risk":1,"updated_at":"2026-05-26T04:36:46.468601+05:30"},{"city":"Pondicherry","state":"Puducherry","latitude":11.9139,"longitude":79.8145,"temp":28.4,"humidity":80,"rain":0.0,"pressure":1006.4,"uv_index":8.8,"wind_gusts":45.0,"aqi":67,"pm10":14.8,"pm2_5":12.9,"no2":15.6,"co":273.0,"o3":37.0,"so2":8.9,"mosquito_risk":7,"arthritis_risk":5,"migraine_risk":4,"frizz_risk":1,"updated_at":"2026-05-26T04:36:46.468609+05:30"},{"city":"Port Blair","state":"Andaman and Nicobar Islands","latitude":11.6234,"longitude":92.7265,"temp":23.8,"humidity":99,"rain":0.2,"pressure":1007.7,"uv_index":4.65,"wind_gusts":38.5,"aqi":30,"pm10":12.3,"pm2_5":6.8,"no2":0.3,"co":116.0,"o3":63.0,"so2":0.4,"mosquito_risk":6,"arthritis_risk":5,"migraine_risk":0,"frizz_risk":1,"updated_at":"2026-05-26T04:36:46.468616+05:30"},{"city":"Haridwar","state":"Uttarakhand","latitude":29.9457,"longitude":78.1642,"temp":24.1,"humidity":45,"rain":0.0,"pressure":967.8,"uv_index":7.55,"wind_gusts":32.8,"aqi":98,"pm10":44.8,"pm2_5":33.3,"no2":27.3,"co":229.0,"o3":21.0,"so2":4.1,"mosquito_risk":0,"arthritis_risk":5,"migraine_risk":7,"frizz_risk":0,"updated_at":"2026-05-26T04:36:46.468623+05:30"},{"city":"Rishikesh","state":"Uttarakhand","latitude":30.0869,"longitude":78.2676,"temp":21.0,"humidity":56,"rain":0.0,"pressure":960.5,"uv_index":7.65,"wind_gusts":29.9,"aqi":88,"pm10":57.3,"pm2_5":34.3,"no2":13.7,"co":271.0,"o3":67.0,"so2":3.3,"mosquito_risk":0,"arthritis_risk":5,"migraine_risk":7,"frizz_risk":0,"updated_at":"2026-05-26T04:36:46.468630+05:30"},{"city":"Nainital","state":"Uttarakhand","latitude":29.3919,"longitude":79.4542,"temp":15.6,"humidity":46,"rain":0.0,"pressure":802.2,"uv_index":8.5,"wind_gusts":35.6,"aqi":107,"pm10":75.4,"pm2_5":43.5,"no2":33.0,"co":227.0,"o3":28.0,"so2":4.3,"mosquito_risk":0,"arthritis_risk":5,"migraine_risk":7,"frizz_risk":0,"updated_at":"2026-05-26T04:36:46.468637+05:30"},{"city":"Mussoorie","state":"Uttarakhand","latitude":30.4599,"longitude":78.0664,"temp":16.2,"humidity":38,"rain":0.0,"pressure":799.5,"uv_index":8.05,"wind_gusts":54.0,"aqi":80,"pm10":46.8,"pm2_5":25.8,"no2":26.2,"co":180.0,"o3":32.0,"so2":3.1,"mosquito_risk":0,"arthritis_risk":5,"migraine_risk":7,"frizz_risk":0,"updated_at":"2026-05-26T04:36:46.468644+05:30"},{"city":"Dharamshala","state":"Himachal Pradesh","latitude":32.219,"longitude":76.3234,"temp":20.8,"humidity":24,"rain":0.0,"pressure":865.3,"uv_index":8.45,"wind_gusts":45.0,"aqi":32,"pm10":6.1,"pm2_5":4.0,"no2":5.6,"co":147.0,"o3":67.0,"so2":0.1,"mosquito_risk":0,"arthritis_risk":5,"migraine_risk":7,"frizz_risk":1,"updated_at":"2026-05-26T04:36:46.468651+05:30"},{"city":"Dalhousie","state":"Himachal Pradesh","latitude":32.5387,"longitude":75.971,"temp":10.1,"humidity":53,"rain":0.0,"pressure":797.9,"uv_index":8.7,"wind_gusts":42.1,"aqi":52,"pm10":11.8,"pm2_5":10.0,"no2":12.9,"co":195.0,"o3":38.0,"so2":0.2,"mosquito_risk":0,"arthritis_risk":5,"migraine_risk":7,"frizz_risk":0,"updated_at":"2026-05-26T04:36:46.468658+05:30"},{"city":"Patiala","state":"Punjab","latitude":30.3398,"longitude":76.3869,"temp":28.5,"humidity":28,"rain":0.0,"pressure":972.8,"uv_index":7.65,"wind_gusts":42.5,"aqi":280,"pm10":251.5,"pm2_5":58.9,"no2":14.5,"co":335.0,"o3":56.0,"so2":6.7,"mosquito_risk":4,"arthritis_risk":5,"migraine_risk":7,"frizz_risk":0,"updated_at":"2026-05-26T04:36:46.468665+05:30"},{"city":"Bhatinda","state":"Punjab","latitude":30.211,"longitude":74.9455,"temp":30.2,"humidity":32,"rain":0.0,"pressure":978.9,"uv_index":8.3,"wind_gusts":27.4,"aqi":89,"pm10":60.8,"pm2_5":39.6,"no2":23.5,"co":323.0,"o3":47.0,"so2":8.5,"mosquito_risk":0,"arthritis_risk":5,"migraine_risk":7,"frizz_risk":0,"updated_at":"2026-05-26T04:36:46.468671+05:30"},{"city":"Rohtak","state":"Haryana","latitude":28.8955,"longitude":76.6066,"temp":29.0,"humidity":32,"rain":0.0,"pressure":976.5,"uv_index":7.75,"wind_gusts":32.4,"aqi":716,"pm10":923.9,"pm2_5":194.2,"no2":21.6,"co":392.0,"o3":51.0,"so2":7.0,"mosquito_risk":4,"arthritis_risk":5,"migraine_risk":7,"frizz_risk":0,"updated_at":"2026-05-26T04:36:46.468677+05:30"},{"city":"Panipat","state":"Haryana","latitude":29.3909,"longitude":76.9635,"temp":29.3,"humidity":25,"rain":0.0,"pressure":974.8,"uv_index":7.55,"wind_gusts":37.4,"aqi":924,"pm10":1069.2,"pm2_5":227.7,"no2":17.7,"co":408.0,"o3":49.0,"so2":5.8,"mosquito_risk":4,"arthritis_risk":5,"migraine_risk":7,"frizz_risk":0,"updated_at":"2026-05-26T04:36:46.468683+05:30"},{"city":"Mathura","state":"Uttar Pradesh","latitude":27.4924,"longitude":77.6737,"temp":31.5,"humidity":33,"rain":0.0,"pressure":981.6,"uv_index":8.0,"wind_gusts":35.6,"aqi":774,"pm10":737.6,"pm2_5":135.5,"no2":19.7,"co":216.0,"o3":33.0,"so2":6.6,"mosquito_risk":0,"arthritis_risk":5,"migraine_risk":7,"frizz_risk":0,"updated_at":"2026-05-26T04:36:46.468690+05:30"},{"city":"Vrindavan","state":"Uttar Pradesh","latitude":27.5823,"longitude":77.7027,"temp":31.0,"humidity":32,"rain":0.0,"pressure":982.0,"uv_index":7.95,"wind_gusts":33.5,"aqi":774,"pm10":737.6,"pm2_5":135.5,"no2":19.7,"co":254.0,"o3":33.0,"so2":6.6,"mosquito_risk":0,"arthritis_risk":5,"migraine_risk":7,"frizz_risk":0,"updated_at":"2026-05-26T04:36:46.468696+05:30"},{"city":"Ayodhya","state":"Uttar Pradesh","latitude":26.7922,"longitude":82.1998,"temp":26.5,"humidity":74,"rain":0.0,"pressure":991.1,"uv_index":8.3,"wind_gusts":39.2,"aqi":161,"pm10":89.2,"pm2_5":68.5,"no2":15.6,"co":330.0,"o3":81.0,"so2":16.4,"mosquito_risk":7,"arthritis_risk":5,"migraine_risk":7,"frizz_risk":1,"updated_at":"2026-05-26T04:36:46.468702+05:30"},{"city":"Ratlam","state":"Madhya Pradesh","latitude":23.3315,"longitude":75.0367,"temp":27.0,"humidity":78,"rain":0.0,"pressure":953.6,"uv_index":8.55,"wind_gusts":40.0,"aqi":56,"pm10":12.6,"pm2_5":9.6,"no2":7.5,"co":164.0,"o3":43.0,"so2":12.6,"mosquito_risk":7,"arthritis_risk":5,"migraine_risk":7,"frizz_risk":1,"updated_at":"2026-05-26T04:36:46.468709+05:30"},{"city":"Sagar","state":"Madhya Pradesh","latitude":23.8388,"longitude":78.7378,"temp":31.4,"humidity":30,"rain":0.0,"pressure":947.7,"uv_index":8.75,"wind_gusts":42.5,"aqi":63,"pm10":29.3,"pm2_5":19.6,"no2":4.3,"co":177.0,"o3":81.0,"so2":5.0,"mosquito_risk":0,"arthritis_risk":5,"migraine_risk":7,"frizz_risk":0,"updated_at":"2026-05-26T04:36:46.468715+05:30"},{"city":"Satna","state":"Madhya Pradesh","latitude":24.6005,"longitude":80.8322,"temp":31.1,"humidity":28,"rain":0.0,"pressure":967.1,"uv_index":8.8,"wind_gusts":53.6,"aqi":63,"pm10":38.4,"pm2_5":20.3,"no2":9.6,"co":174.0,"o3":61.0,"so2":3.4,"mosquito_risk":0,"arthritis_risk":5,"migraine_risk":7,"frizz_risk":0,"updated_at":"2026-05-26T04:36:46.468721+05:30"},{"city":"Akola","state":"Maharashtra","latitude":20.7002,"longitude":77.0082,"temp":31.5,"humidity":50,"rain":0.0,"pressure":973.3,"uv_index":8.4,"wind_gusts":42.5,"aqi":63,"pm10":16.4,"pm2_5":14.1,"no2":7.6,"co":142.0,"o3":74.0,"so2":13.5,"mosquito_risk":0,"arthritis_risk":5,"migraine_risk":7,"frizz_risk":1,"updated_at":"2026-05-26T04:36:46.468729+05:30"},{"city":"Amravati","state":"Maharashtra","latitude":20.9374,"longitude":77.7796,"temp":32.5,"humidity":43,"rain":0.0,"pressure":965.4,"uv_index":8.85,"wind_gusts":40.3,"aqi":69,"pm10":19.6,"pm2_5":17.2,"no2":7.1,"co":197.0,"o3":87.0,"so2":14.1,"mosquito_risk":0,"arthritis_risk":5,"migraine_risk":7,"frizz_risk":1,"updated_at":"2026-05-26T04:36:46.468736+05:30"},{"city":"Latur","state":"Maharashtra","latitude":18.4088,"longitude":76.5604,"temp":27.8,"humidity":65,"rain":0.0,"pressure":938.8,"uv_index":8.85,"wind_gusts":31.7,"aqi":68,"pm10":15.3,"pm2_5":13.3,"no2":7.0,"co":182.0,"o3":76.0,"so2":5.7,"mosquito_risk":7,"arthritis_risk":5,"migraine_risk":7,"frizz_risk":1,"updated_at":"2026-05-26T04:36:46.468743+05:30"},{"city":"Nanded","state":"Maharashtra","latitude":19.1383,"longitude":77.3091,"temp":31.0,"humidity":53,"rain":0.0,"pressure":966.9,"uv_index":7.3,"wind_gusts":34.2,"aqi":72,"pm10":17.2,"pm2_5":13.1,"no2":6.2,"co":167.0,"o3":63.0,"so2":2.4,"mosquito_risk":0,"arthritis_risk":5,"migraine_risk":7,"frizz_risk":1,"updated_at":"2026-05-26T04:36:46.468749+05:30"},{"city":"Gulbarga","state":"Karnataka","latitude":17.3297,"longitude":76.8343,"temp":28.3,"humidity":68,"rain":0.0,"pressure":957.7,"uv_index":9.0,"wind_gusts":34.2,"aqi":63,"pm10":12.9,"pm2_5":11.6,"no2":8.9,"co":176.0,"o3":59.0,"so2":5.6,"mosquito_risk":7,"arthritis_risk":5,"migraine_risk":7,"frizz_risk":1,"updated_at":"2026-05-26T04:36:46.468755+05:30"},{"city":"Bidar","state":"Karnataka","latitude":17.9104,"longitude":77.5199,"temp":27.4,"humidity":63,"rain":0.0,"pressure":934.2,"uv_index":9.05,"wind_gusts":33.5,"aqi":87,"pm10":28.3,"pm2_5":22.5,"no2":8.9,"co":207.0,"o3":73.0,"so2":5.1,"mosquito_risk":7,"arthritis_risk":5,"migraine_risk":7,"frizz_risk":1,"updated_at":"2026-05-26T04:36:46.468761+05:30"},{"city":"Hospet","state":"Karnataka","latitude":15.2689,"longitude":76.3909,"temp":25.0,"humidity":90,"rain":0.0,"pressure":955.7,"uv_index":6.8,"wind_gusts":53.3,"aqi":41,"pm10":4.9,"pm2_5":4.2,"no2":5.6,"co":157.0,"o3":37.0,"so2":1.5,"mosquito_risk":7,"arthritis_risk":5,"migraine_risk":7,"frizz_risk":1,"updated_at":"2026-05-26T04:36:46.468767+05:30"},{"city":"Tirupur","state":"Tamil Nadu","latitude":11.1085,"longitude":77.3411,"temp":25.5,"humidity":85,"rain":0.0,"pressure":974.6,"uv_index":9.05,"wind_gusts":54.0,"aqi":52,"pm10":17.7,"pm2_5":15.5,"no2":20.9,"co":148.0,"o3":27.0,"so2":5.4,"mosquito_risk":7,"arthritis_risk":5,"migraine_risk":7,"frizz_risk":1,"updated_at":"2026-05-26T04:36:46.468774+05:30"},{"city":"Alappuzha","state":"Kerala","latitude":9.4981,"longitude":76.3388,"temp":25.1,"humidity":97,"rain":0.2,"pressure":1009.8,"uv_index":8.25,"wind_gusts":28.8,"aqi":45,"pm10":12.9,"pm2_5":11.0,"no2":12.1,"co":241.0,"o3":36.0,"so2":4.5,"mosquito_risk":10,"arthritis_risk":0,"migraine_risk":4,"frizz_risk":1,"updated_at":"2026-05-26T04:36:46.468780+05:30"},{"city":"Munnar","state":"Kerala","latitude":10.0889,"longitude":77.0595,"temp":17.2,"humidity":100,"rain":0.0,"pressure":857.0,"uv_index":9.05,"wind_gusts":28.4,"aqi":30,"pm10":8.1,"pm2_5":7.7,"no2":7.2,"co":162.0,"o3":24.0,"so2":1.2,"mosquito_risk":3,"arthritis_risk":10,"migraine_risk":7,"frizz_risk":1,"updated_at":"2026-05-26T04:36:46.468787+05:30"},{"city":"Silchar","state":"Assam","latitude":24.8333,"longitude":92.7789,"temp":23.9,"humidity":97,"rain":0.3,"pressure":1004.2,"uv_index":8.9,"wind_gusts":29.9,"aqi":67,"pm10":14.1,"pm2_5":9.8,"no2":5.2,"co":224.0,"o3":70.0,"so2":2.3,"mosquito_risk":6,"arthritis_risk":5,"migraine_risk":4,"frizz_risk":1,"updated_at":"2026-05-26T04:36:46.468793+05:30"},{"city":"Dibrugarh","state":"Assam","latitude":27.4728,"longitude":94.912,"temp":22.1,"humidity":98,"rain":0.0,"pressure":995.6,"uv_index":8.95,"wind_gusts":25.2,"aqi":70,"pm10":28.5,"pm2_5":21.5,"no2":15.3,"co":251.0,"o3":50.0,"so2":2.3,"mosquito_risk":3,"arthritis_risk":5,"migraine_risk":7,"frizz_risk":1,"updated_at":"2026-05-26T04:36:46.468800+05:30"}]