[{"city":"Delhi","state":"Delhi","latitude":28.6139,"longitude":77.209,"temp":28.3,"humidity":50,"rain":0.0,"pressure":984.4,"uv_index":7.55,"wind_gusts":38.2,"aqi":262,"pm10":271.9,"pm2_5":60.5,"no2":24.8,"co":518.0,"o3":120.0,"so2":20.7,"mosquito_risk":4,"arthritis_risk":5,"migraine_risk":7,"frizz_risk":1,"updated_at":"2026-05-08T20:57:18.878265+05:30"},{"city":"Mumbai","state":"Maharashtra","latitude":19.076,"longitude":72.8777,"temp":29.5,"humidity":85,"rain":0.0,"pressure":1006.6,"uv_index":7.85,"wind_gusts":48.2,"aqi":92,"pm10":46.1,"pm2_5":20.8,"no2":12.2,"co":298.0,"o3":81.0,"so2":9.7,"mosquito_risk":7,"arthritis_risk":5,"migraine_risk":4,"frizz_risk":1,"updated_at":"2026-05-08T20:57:18.878315+05:30"},{"city":"Bangalore","state":"Karnataka","latitude":12.9716,"longitude":77.5946,"temp":25.0,"humidity":69,"rain":0.0,"pressure":911.7,"uv_index":9.45,"wind_gusts":45.4,"aqi":49,"pm10":14.2,"pm2_5":13.6,"no2":21.9,"co":374.0,"o3":62.0,"so2":8.7,"mosquito_risk":7,"arthritis_risk":5,"migraine_risk":7,"frizz_risk":1,"updated_at":"2026-05-08T20:57:18.878330+05:30"},{"city":"Hyderabad","state":"Telangana","latitude":17.385,"longitude":78.4867,"temp":28.8,"humidity":55,"rain":0.0,"pressure":954.4,"uv_index":9.25,"wind_gusts":39.2,"aqi":81,"pm10":19.6,"pm2_5":17.1,"no2":11.0,"co":399.0,"o3":97.0,"so2":6.6,"mosquito_risk":4,"arthritis_risk":5,"migraine_risk":7,"frizz_risk":1,"updated_at":"2026-05-08T20:57:18.878340+05:30"},{"city":"Chennai","state":"Tamil Nadu","latitude":13.0827,"longitude":80.2707,"temp":28.5,"humidity":76,"rain":0.0,"pressure":1007.6,"uv_index":8.05,"wind_gusts":44.3,"aqi":21,"pm10":5.2,"pm2_5":3.9,"no2":7.3,"co":138.0,"o3":36.0,"so2":3.3,"mosquito_risk":7,"arthritis_risk":5,"migraine_risk":4,"frizz_risk":1,"updated_at":"2026-05-08T20:57:18.878352+05:30"},{"city":"Kolkata","state":"West Bengal","latitude":22.5726,"longitude":88.3639,"temp":24.6,"humidity":90,"rain":0.0,"pressure":1009.0,"uv_index":8.9,"wind_gusts":29.2,"aqi":141,"pm10":85.4,"pm2_5":82.4,"no2":30.9,"co":590.0,"o3":115.0,"so2":21.3,"mosquito_risk":3,"arthritis_risk":0,"migraine_risk":4,"frizz_risk":1,"updated_at":"2026-05-08T20:57:18.878361+05:30"},{"city":"Pune","state":"Maharashtra","latitude":18.5204,"longitude":73.8567,"temp":29.9,"humidity":49,"rain":0.0,"pressure":947.5,"uv_index":8.45,"wind_gusts":40.7,"aqi":126,"pm10":61.2,"pm2_5":36.3,"no2":16.3,"co":421.0,"o3":111.0,"so2":10.2,"mosquito_risk":4,"arthritis_risk":5,"migraine_risk":7,"frizz_risk":1,"updated_at":"2026-05-08T20:57:18.878369+05:30"},{"city":"Ahmedabad","state":"Gujarat","latitude":23.0225,"longitude":72.5714,"temp":38.8,"humidity":14,"rain":0.0,"pressure":1000.0,"uv_index":8.1,"wind_gusts":27.7,"aqi":94,"pm10":63.6,"pm2_5":38.9,"no2":42.5,"co":471.0,"o3":73.0,"so2":14.6,"mosquito_risk":0,"arthritis_risk":5,"migraine_risk":7,"frizz_risk":0,"updated_at":"2026-05-08T20:57:18.878379+05:30"},{"city":"Jaipur","state":"Rajasthan","latitude":26.9124,"longitude":75.7873,"temp":30.9,"humidity":32,"rain":0.0,"pressure":959.3,"uv_index":8.1,"wind_gusts":36.4,"aqi":163,"pm10":312.0,"pm2_5":55.2,"no2":11.4,"co":308.0,"o3":111.0,"so2":5.7,"mosquito_risk":0,"arthritis_risk":5,"migraine_risk":7,"frizz_risk":0,"updated_at":"2026-05-08T20:57:18.878386+05:30"},{"city":"Lucknow","state":"Uttar Pradesh","latitude":26.8467,"longitude":80.9462,"temp":26.8,"humidity":58,"rain":0.0,"pressure":995.5,"uv_index":8.05,"wind_gusts":27.0,"aqi":154,"pm10":56.2,"pm2_5":33.8,"no2":12.8,"co":451.0,"o3":114.0,"so2":10.9,"mosquito_risk":4,"arthritis_risk":5,"migraine_risk":7,"frizz_risk":1,"updated_at":"2026-05-08T20:57:18.878393+05:30"},{"city":"Kanpur","state":"Uttar Pradesh","latitude":26.4499,"longitude":80.3319,"temp":28.5,"humidity":50,"rain":0.0,"pressure":992.8,"uv_index":8.05,"wind_gusts":27.7,"aqi":165,"pm10":421.9,"pm2_5":62.6,"no2":9.1,"co":354.0,"o3":127.0,"so2":8.9,"mosquito_risk":4,"arthritis_risk":5,"migraine_risk":7,"frizz_risk":1,"updated_at":"2026-05-08T20:57:18.878399+05:30"},{"city":"Chandigarh","state":"Chandigarh","latitude":30.7333,"longitude":76.7794,"temp":25.3,"humidity":54,"rain":0.0,"pressure":970.5,"uv_index":7.55,"wind_gusts":37.8,"aqi":151,"pm10":75.4,"pm2_5":39.8,"no2":32.5,"co":1269.0,"o3":82.0,"so2":7.5,"mosquito_risk":4,"arthritis_risk":5,"migraine_risk":7,"frizz_risk":0,"updated_at":"2026-05-08T20:57:18.878405+05:30"},{"city":"Srinagar","state":"Jammu and Kashmir","latitude":34.0837,"longitude":74.7973,"temp":17.4,"humidity":65,"rain":0.0,"pressure":840.3,"uv_index":8.8,"wind_gusts":28.1,"aqi":89,"pm10":65.7,"pm2_5":32.0,"no2":33.7,"co":1289.0,"o3":65.0,"so2":6.5,"mosquito_risk":3,"arthritis_risk":5,"migraine_risk":7,"frizz_risk":0,"updated_at":"2026-05-08T20:57:18.878412+05:30"},{"city":"Jammu","state":"Jammu and Kashmir","latitude":32.7266,"longitude":74.857,"temp":26.8,"humidity":55,"rain":0.0,"pressure":973.9,"uv_index":8.35,"wind_gusts":34.9,"aqi":158,"pm10":107.3,"pm2_5":47.3,"no2":27.2,"co":639.0,"o3":113.0,"so2":8.7,"mosquito_risk":4,"arthritis_risk":5,"migraine_risk":7,"frizz_risk":1,"updated_at":"2026-05-08T20:57:18.878419+05:30"},{"city":"Amritsar","state":"Punjab","latitude":31.634,"longitude":74.8723,"temp":28.1,"humidity":50,"rain":0.0,"pressure":981.8,"uv_index":8.2,"wind_gusts":31.3,"aqi":156,"pm10":169.5,"pm2_5":50.8,"no2":4.0,"co":564.0,"o3":153.0,"so2":10.3,"mosquito_risk":4,"arthritis_risk":5,"migraine_risk":7,"frizz_risk":1,"updated_at":"2026-05-08T20:57:18.878425+05:30"},{"city":"Ludhiana","state":"Punjab","latitude":30.901,"longitude":75.8573,"temp":27.4,"humidity":53,"rain":0.0,"pressure":979.7,"uv_index":7.8,"wind_gusts":30.6,"aqi":172,"pm10":86.1,"pm2_5":45.2,"no2":12.9,"co":510.0,"o3":125.0,"so2":19.7,"mosquito_risk":4,"arthritis_risk":5,"migraine_risk":7,"frizz_risk":1,"updated_at":"2026-05-08T20:57:18.878431+05:30"},{"city":"Jalandhar","state":"Punjab","latitude":31.326,"longitude":75.5762,"temp":26.2,"humidity":53,"rain":0.0,"pressure":980.8,"uv_index":8.0,"wind_gusts":31.7,"aqi":163,"pm10":152.7,"pm2_5":53.7,"no2":10.1,"co":477.0,"o3":144.0,"so2":22.4,"mosquito_risk":4,"arthritis_risk":5,"migraine_risk":7,"frizz_risk":0,"updated_at":"2026-05-08T20:57:18.878437+05:30"},{"city":"Dehradun","state":"Uttarakhand","latitude":30.6284,"longitude":78.0322,"temp":12.5,"humidity":88,"rain":0.0,"pressure":829.8,"uv_index":5.65,"wind_gusts":22.7,"aqi":106,"pm10":30.0,"pm2_5":14.1,"no2":25.4,"co":242.0,"o3":100.0,"so2":1.1,"mosquito_risk":3,"arthritis_risk":10,"migraine_risk":3,"frizz_risk":0,"updated_at":"2026-05-08T20:57:18.878445+05:30"},{"city":"Shimla","state":"Himachal Pradesh","latitude":31.1048,"longitude":77.1734,"temp":11.3,"humidity":79,"rain":0.0,"pressure":784.2,"uv_index":7.3,"wind_gusts":24.5,"aqi":115,"pm10":28.2,"pm2_5":14.9,"no2":16.6,"co":376.0,"o3":94.0,"so2":0.7,"mosquito_risk":3,"arthritis_risk":5,"migraine_risk":7,"frizz_risk":0,"updated_at":"2026-05-08T20:57:18.878452+05:30"},{"city":"Manali","state":"Himachal Pradesh","latitude":32.2396,"longitude":77.1887,"temp":11.0,"humidity":87,"rain":0.0,"pressure":817.2,"uv_index":9.9,"wind_gusts":33.1,"aqi":138,"pm10":32.2,"pm2_5":10.1,"no2":27.1,"co":369.0,"o3":127.0,"so2":0.9,"mosquito_risk":3,"arthritis_risk":10,"migraine_risk":7,"frizz_risk":0,"updated_at":"2026-05-08T20:57:18.878458+05:30"},{"city":"Gurgaon","state":"Haryana","latitude":28.4595,"longitude":77.0266,"temp":27.5,"humidity":51,"rain":0.0,"pressure":982.5,"uv_index":7.65,"wind_gusts":40.3,"aqi":1781,"pm10":1639.1,"pm2_5":193.2,"no2":24.8,"co":608.0,"o3":126.0,"so2":21.9,"mosquito_risk":4,"arthritis_risk":5,"migraine_risk":7,"frizz_risk":1,"updated_at":"2026-05-08T20:57:18.878464+05:30"},{"city":"Noida","state":"Uttar Pradesh","latitude":28.5355,"longitude":77.391,"temp":26.2,"humidity":58,"rain":0.0,"pressure":985.6,"uv_index":7.6,"wind_gusts":36.7,"aqi":1781,"pm10":1639.1,"pm2_5":193.2,"no2":24.8,"co":611.0,"o3":126.0,"so2":21.9,"mosquito_risk":4,"arthritis_risk":5,"migraine_risk":7,"frizz_risk":1,"updated_at":"2026-05-08T20:57:18.878470+05:30"},{"city":"Ghaziabad","state":"Uttar Pradesh","latitude":28.6692,"longitude":77.4538,"temp":26.1,"humidity":60,"rain":0.0,"pressure":983.9,"uv_index":7.55,"wind_gusts":40.0,"aqi":162,"pm10":198.4,"pm2_5":51.1,"no2":10.1,"co":445.0,"o3":132.0,"so2":12.5,"mosquito_risk":4,"arthritis_risk":5,"migraine_risk":7,"frizz_risk":1,"updated_at":"2026-05-08T20:57:18.878476+05:30"},{"city":"Faridabad","state":"Haryana","latitude":28.4089,"longitude":77.3178,"temp":27.1,"humidity":55,"rain":0.0,"pressure":984.9,"uv_index":7.6,"wind_gusts":38.9,"aqi":1781,"pm10":1639.1,"pm2_5":193.2,"no2":24.8,"co":613.0,"o3":126.0,"so2":21.9,"mosquito_risk":4,"arthritis_risk":5,"migraine_risk":7,"frizz_risk":1,"updated_at":"2026-05-08T20:57:18.878482+05:30"},{"city":"Meerut","state":"Uttar Pradesh","latitude":28.9845,"longitude":77.7064,"temp":25.2,"humidity":63,"rain":0.0,"pressure":983.0,"uv_index":7.5,"wind_gusts":40.7,"aqi":162,"pm10":198.4,"pm2_5":51.1,"no2":10.1,"co":668.0,"o3":132.0,"so2":12.5,"mosquito_risk":7,"arthritis_risk":5,"migraine_risk":7,"frizz_risk":1,"updated_at":"2026-05-08T20:57:18.878488+05:30"},{"city":"Agra","state":"Uttar Pradesh","latitude":27.1767,"longitude":78.0081,"temp":27.7,"humidity":50,"rain":0.0,"pressure":987.8,"uv_index":7.9,"wind_gusts":33.5,"aqi":1115,"pm10":1929.7,"pm2_5":208.2,"no2":7.5,"co":402.0,"o3":138.0,"so2":11.8,"mosquito_risk":4,"arthritis_risk":5,"migraine_risk":7,"frizz_risk":1,"updated_at":"2026-05-08T20:57:18.878493+05:30"},{"city":"Varanasi","state":"Uttar Pradesh","latitude":25.3176,"longitude":82.9739,"temp":27.6,"humidity":56,"rain":0.0,"pressure":999.7,"uv_index":8.55,"wind_gusts":32.8,"aqi":182,"pm10":63.3,"pm2_5":45.8,"no2":19.6,"co":525.0,"o3":122.0,"so2":18.2,"mosquito_risk":4,"arthritis_risk":5,"migraine_risk":7,"frizz_risk":1,"updated_at":"2026-05-08T20:57:18.878499+05:30"},{"city":"Prayagraj","state":"Uttar Pradesh","latitude":25.4358,"longitude":81.8463,"temp":29.1,"humidity":47,"rain":0.0,"pressure":997.4,"uv_index":8.45,"wind_gusts":33.5,"aqi":178,"pm10":64.3,"pm2_5":44.5,"no2":20.8,"co":768.0,"o3":110.0,"so2":14.1,"mosquito_risk":4,"arthritis_risk":5,"migraine_risk":7,"frizz_risk":1,"updated_at":"2026-05-08T20:57:18.878507+05:30"},{"city":"Gorakhpur","state":"Uttar Pradesh","latitude":26.7606,"longitude":83.3732,"temp":25.7,"humidity":62,"rain":0.0,"pressure":1000.1,"uv_index":8.4,"wind_gusts":29.5,"aqi":164,"pm10":42.1,"pm2_5":31.4,"no2":10.8,"co":450.0,"o3":129.0,"so2":8.0,"mosquito_risk":7,"arthritis_risk":5,"migraine_risk":4,"frizz_risk":1,"updated_at":"2026-05-08T20:57:18.878513+05:30"},{"city":"Bareilly","state":"Uttar Pradesh","latitude":28.367,"longitude":79.4304,"temp":25.6,"humidity":58,"rain":0.0,"pressure":988.2,"uv_index":7.85,"wind_gusts":34.9,"aqi":153,"pm10":68.7,"pm2_5":39.6,"no2":20.6,"co":405.0,"o3":89.0,"so2":8.7,"mosquito_risk":4,"arthritis_risk":5,"migraine_risk":7,"frizz_risk":1,"updated_at":"2026-05-08T20:57:18.878519+05:30"},{"city":"Aligarh","state":"Uttar Pradesh","latitude":27.8974,"longitude":78.088,"temp":27.0,"humidity":55,"rain":0.0,"pressure":986.0,"uv_index":7.7,"wind_gusts":38.9,"aqi":685,"pm10":875.4,"pm2_5":108.3,"no2":7.7,"co":385.0,"o3":140.0,"so2":12.7,"mosquito_risk":4,"arthritis_risk":5,"migraine_risk":7,"frizz_risk":1,"updated_at":"2026-05-08T20:57:18.878525+05:30"},{"city":"Moradabad","state":"Uttar Pradesh","latitude":28.8386,"longitude":78.7733,"temp":25.5,"humidity":68,"rain":0.0,"pressure":985.2,"uv_index":7.65,"wind_gusts":37.1,"aqi":161,"pm10":80.8,"pm2_5":43.8,"no2":19.3,"co":547.0,"o3":105.0,"so2":10.2,"mosquito_risk":7,"arthritis_risk":5,"migraine_risk":7,"frizz_risk":1,"updated_at":"2026-05-08T20:57:18.878532+05:30"},{"city":"Saharanpur","state":"Uttar Pradesh","latitude":29.9637,"longitude":77.546,"temp":24.1,"humidity":67,"rain":0.0,"pressure":977.5,"uv_index":7.25,"wind_gusts":36.4,"aqi":133,"pm10":85.0,"pm2_5":44.0,"no2":24.9,"co":696.0,"o3":93.0,"so2":11.7,"mosquito_risk":3,"arthritis_risk":5,"migraine_risk":7,"frizz_risk":1,"updated_at":"2026-05-08T20:57:18.878538+05:30"},{"city":"Jhansi","state":"Uttar Pradesh","latitude":25.4484,"longitude":78.5685,"temp":28.5,"humidity":43,"rain":0.0,"pressure":977.7,"uv_index":8.35,"wind_gusts":27.7,"aqi":114,"pm10":53.6,"pm2_5":22.8,"no2":8.6,"co":304.0,"o3":87.0,"so2":10.6,"mosquito_risk":4,"arthritis_risk":5,"migraine_risk":7,"frizz_risk":0,"updated_at":"2026-05-08T20:57:22.194086+05:30"},{"city":"Surat","state":"Gujarat","latitude":21.1702,"longitude":72.8311,"temp":30.2,"humidity":72,"rain":0.0,"pressure":1004.9,"uv_index":7.7,"wind_gusts":33.5,"aqi":107,"pm10":61.5,"pm2_5":37.4,"no2":58.6,"co":864.0,"o3":45.0,"so2":66.7,"mosquito_risk":3,"arthritis_risk":5,"migraine_risk":4,"frizz_risk":1,"updated_at":"2026-05-08T20:57:22.194118+05:30"},{"city":"Vadodara","state":"Gujarat","latitude":22.3072,"longitude":73.1812,"temp":36.0,"humidity":17,"rain":0.0,"pressure":1002.2,"uv_index":8.05,"wind_gusts":27.0,"aqi":132,"pm10":70.8,"pm2_5":39.0,"no2":37.1,"co":353.0,"o3":83.0,"so2":11.1,"mosquito_risk":0,"arthritis_risk":5,"migraine_risk":7,"frizz_risk":0,"updated_at":"2026-05-08T20:57:22.194128+05:30"},{"city":"Rajkot","state":"Gujarat","latitude":22.3039,"longitude":70.8022,"temp":30.2,"humidity":64,"rain":0.0,"pressure":993.3,"uv_index":7.7,"wind_gusts":46.8,"aqi":102,"pm10":25.8,"pm2_5":13.0,"no2":5.9,"co":172.0,"o3":96.0,"so2":7.1,"mosquito_risk":3,"arthritis_risk":5,"migraine_risk":7,"frizz_risk":1,"updated_at":"2026-05-08T20:57:22.194136+05:30"},{"city":"Thane","state":"Maharashtra","latitude":19.2183,"longitude":72.9781,"temp":30.1,"humidity":73,"rain":0.0,"pressure":1006.1,"uv_index":7.85,"wind_gusts":45.4,"aqi":92,"pm10":46.1,"pm2_5":20.8,"no2":12.2,"co":249.0,"o3":81.0,"so2":9.7,"mosquito_risk":3,"arthritis_risk":5,"migraine_risk":4,"frizz_risk":1,"updated_at":"2026-05-08T20:57:22.194144+05:30"},{"city":"Nagpur","state":"Maharashtra","latitude":21.1458,"longitude":79.0882,"temp":34.3,"humidity":23,"rain":0.0,"pressure":973.5,"uv_index":8.9,"wind_gusts":32.0,"aqi":191,"pm10":55.9,"pm2_5":41.7,"no2":21.1,"co":433.0,"o3":128.0,"so2":27.3,"mosquito_risk":0,"arthritis_risk":5,"migraine_risk":7,"frizz_risk":0,"updated_at":"2026-05-08T20:57:22.194152+05:30"},{"city":"Nashik","state":"Maharashtra","latitude":19.9975,"longitude":73.7898,"temp":29.9,"humidity":49,"rain":0.0,"pressure":944.9,"uv_index":8.15,"wind_gusts":40.3,"aqi":105,"pm10":33.9,"pm2_5":18.3,"no2":6.6,"co":213.0,"o3":114.0,"so2":7.0,"mosquito_risk":4,"arthritis_risk":5,"migraine_risk":7,"frizz_risk":1,"updated_at":"2026-05-08T20:57:22.194159+05:30"},{"city":"Aurangabad","state":"Maharashtra","latitude":19.8762,"longitude":75.3433,"temp":32.6,"humidity":23,"rain":0.0,"pressure":943.7,"uv_index":9.05,"wind_gusts":34.9,"aqi":142,"pm10":63.6,"pm2_5":36.3,"no2":16.9,"co":299.0,"o3":114.0,"so2":11.3,"mosquito_risk":0,"arthritis_risk":5,"migraine_risk":7,"frizz_risk":0,"updated_at":"2026-05-08T20:57:22.194167+05:30"},{"city":"Solapur","state":"Maharashtra","latitude":17.6599,"longitude":75.9064,"temp":33.0,"humidity":31,"rain":0.0,"pressure":956.2,"uv_index":9.05,"wind_gusts":32.4,"aqi":116,"pm10":34.1,"pm2_5":25.7,"no2":9.4,"co":425.0,"o3":110.0,"so2":4.4,"mosquito_risk":0,"arthritis_risk":5,"migraine_risk":7,"frizz_risk":0,"updated_at":"2026-05-08T20:57:22.194174+05:30"},{"city":"Kolhapur","state":"Maharashtra","latitude":16.705,"longitude":74.2433,"temp":28.8,"humidity":60,"rain":0.0,"pressure":947.2,"uv_index":8.9,"wind_gusts":38.9,"aqi":149,"pm10":76.6,"pm2_5":58.4,"no2":23.3,"co":423.0,"o3":94.0,"so2":8.1,"mosquito_risk":4,"arthritis_risk":5,"migraine_risk":7,"frizz_risk":1,"updated_at":"2026-05-08T20:57:22.194181+05:30"},{"city":"Goa","state":"Goa","latitude":15.2993,"longitude":74.124,"temp":30.8,"humidity":72,"rain":0.0,"pressure":995.9,"uv_index":8.8,"wind_gusts":41.4,"aqi":109,"pm10":65.2,"pm2_5":36.6,"no2":7.7,"co":244.0,"o3":95.0,"so2":4.2,"mosquito_risk":3,"arthritis_risk":5,"migraine_risk":7,"frizz_risk":1,"updated_at":"2026-05-08T20:57:22.194189+05:30"},{"city":"Jodhpur","state":"Rajasthan","latitude":26.2389,"longitude":73.0243,"temp":36.2,"humidity":16,"rain":0.0,"pressure":981.1,"uv_index":8.3,"wind_gusts":40.0,"aqi":117,"pm10":156.5,"pm2_5":27.8,"no2":13.5,"co":248.0,"o3":81.0,"so2":3.7,"mosquito_risk":0,"arthritis_risk":5,"migraine_risk":10,"frizz_risk":0,"updated_at":"2026-05-08T20:57:22.194196+05:30"},{"city":"Udaipur","state":"Rajasthan","latitude":24.5854,"longitude":73.7125,"temp":30.2,"humidity":24,"rain":0.0,"pressure":945.9,"uv_index":8.75,"wind_gusts":33.8,"aqi":93,"pm10":23.2,"pm2_5":9.7,"no2":2.6,"co":256.0,"o3":108.0,"so2":2.1,"mosquito_risk":0,"arthritis_risk":5,"migraine_risk":7,"frizz_risk":0,"updated_at":"2026-05-08T20:57:22.194203+05:30"},{"city":"Kota","state":"Rajasthan","latitude":25.2138,"longitude":75.8648,"temp":30.9,"humidity":32,"rain":0.0,"pressure":977.6,"uv_index":8.35,"wind_gusts":42.8,"aqi":94,"pm10":95.9,"pm2_5":30.2,"no2":14.6,"co":357.0,"o3":81.0,"so2":4.7,"mosquito_risk":0,"arthritis_risk":5,"migraine_risk":7,"frizz_risk":0,"updated_at":"2026-05-08T20:57:22.194211+05:30"},{"city":"Bikaner","state":"Rajasthan","latitude":28.0229,"longitude":73.3119,"temp":34.5,"humidity":22,"rain":0.0,"pressure":980.9,"uv_index":8.2,"wind_gusts":32.8,"aqi":137,"pm10":74.3,"pm2_5":29.6,"no2":2.6,"co":307.0,"o3":142.0,"so2":7.3,"mosquito_risk":0,"arthritis_risk":5,"migraine_risk":7,"frizz_risk":0,"updated_at":"2026-05-08T20:57:22.194218+05:30"},{"city":"Ajmer","state":"Rajasthan","latitude":26.4499,"longitude":74.6399,"temp":30.5,"humidity":26,"rain":0.0,"pressure":953.5,"uv_index":8.25,"wind_gusts":55.4,"aqi":84,"pm10":50.2,"pm2_5":22.1,"no2":10.8,"co":252.0,"o3":91.0,"so2":5.1,"mosquito_risk":0,"arthritis_risk":5,"migraine_risk":7,"frizz_risk":0,"updated_at":"2026-05-08T20:57:22.194225+05:30"},{"city":"Gwalior","state":"Madhya Pradesh","latitude":26.2183,"longitude":78.1828,"temp":26.2,"humidity":65,"rain":0.0,"pressure":982.7,"uv_index":8.15,"wind_gusts":34.6,"aqi":118,"pm10":90.1,"pm2_5":28.9,"no2":7.0,"co":369.0,"o3":109.0,"so2":7.9,"mosquito_risk":7,"arthritis_risk":5,"migraine_risk":7,"frizz_risk":1,"updated_at":"2026-05-08T20:57:22.194232+05:30"},{"city":"Indore","state":"Madhya Pradesh","latitude":22.7196,"longitude":75.8577,"temp":33.7,"humidity":16,"rain":0.0,"pressure":947.8,"uv_index":8.65,"wind_gusts":31.0,"aqi":124,"pm10":57.2,"pm2_5":31.7,"no2":19.6,"co":496.0,"o3":95.0,"so2":7.6,"mosquito_risk":0,"arthritis_risk":5,"migraine_risk":7,"frizz_risk":0,"updated_at":"2026-05-08T20:57:22.194239+05:30"},{"city":"Bhopal","state":"Madhya Pradesh","latitude":23.2599,"longitude":77.4126,"temp":33.3,"humidity":19,"rain":0.0,"pressure":953.4,"uv_index":8.65,"wind_gusts":38.9,"aqi":123,"pm10":47.5,"pm2_5":28.3,"no2":12.1,"co":561.0,"o3":95.0,"so2":5.9,"mosquito_risk":0,"arthritis_risk":5,"migraine_risk":7,"frizz_risk":0,"updated_at":"2026-05-08T20:57:22.194246+05:30"},{"city":"Jabalpur","state":"Madhya Pradesh","latitude":23.1815,"longitude":79.9864,"temp":29.9,"humidity":33,"rain":0.0,"pressure":961.6,"uv_index":8.75,"wind_gusts":35.6,"aqi":129,"pm10":51.8,"pm2_5":25.3,"no2":18.6,"co":244.0,"o3":101.0,"so2":6.0,"mosquito_risk":4,"arthritis_risk":5,"migraine_risk":7,"frizz_risk":0,"updated_at":"2026-05-08T20:57:22.194253+05:30"},{"city":"Ujjain","state":"Madhya Pradesh","latitude":23.1765,"longitude":75.7885,"temp":33.1,"humidity":18,"rain":0.0,"pressure":953.0,"uv_index":8.55,"wind_gusts":27.4,"aqi":103,"pm10":60.5,"pm2_5":38.9,"no2":17.3,"co":320.0,"o3":79.0,"so2":6.5,"mosquito_risk":0,"arthritis_risk":5,"migraine_risk":7,"frizz_risk":0,"updated_at":"2026-05-08T20:57:22.194261+05:30"},{"city":"Visakhapatnam","state":"Andhra Pradesh","latitude":17.6868,"longitude":83.2185,"temp":27.6,"humidity":78,"rain":0.0,"pressure":1005.2,"uv_index":9.15,"wind_gusts":37.4,"aqi":59,"pm10":17.5,"pm2_5":15.4,"no2":19.4,"co":478.0,"o3":26.0,"so2":9.0,"mosquito_risk":7,"arthritis_risk":5,"migraine_risk":4,"frizz_risk":1,"updated_at":"2026-05-08T20:57:22.194268+05:30"},{"city":"Vijayawada","state":"Andhra Pradesh","latitude":16.5062,"longitude":80.648,"temp":28.9,"humidity":72,"rain":0.0,"pressure":1003.6,"uv_index":9.2,"wind_gusts":43.9,"aqi":38,"pm10":10.9,"pm2_5":9.6,"no2":8.5,"co":159.0,"o3":39.0,"so2":6.3,"mosquito_risk":7,"arthritis_risk":5,"migraine_risk":4,"frizz_risk":1,"updated_at":"2026-05-08T20:57:22.194275+05:30"},{"city":"Guntur","state":"Andhra Pradesh","latitude":16.3067,"longitude":80.4365,"temp":28.9,"humidity":73,"rain":0.0,"pressure":1004.9,"uv_index":9.2,"wind_gusts":45.4,"aqi":42,"pm10":11.8,"pm2_5":10.3,"no2":8.6,"co":164.0,"o3":51.0,"so2":7.0,"mosquito_risk":7,"arthritis_risk":5,"migraine_risk":4,"frizz_risk":1,"updated_at":"2026-05-08T20:57:22.194282+05:30"},{"city":"Nellore","state":"Andhra Pradesh","latitude":14.4426,"longitude":79.9865,"temp":28.4,"humidity":77,"rain":0.0,"pressure":1006.6,"uv_index":8.95,"wind_gusts":40.0,"aqi":25,"pm10":4.7,"pm2_5":3.3,"no2":2.9,"co":157.0,"o3":38.0,"so2":2.0,"mosquito_risk":7,"arthritis_risk":5,"migraine_risk":4,"frizz_risk":1,"updated_at":"2026-05-08T20:57:22.194290+05:30"},{"city":"Kurnool","state":"Andhra Pradesh","latitude":15.8281,"longitude":78.0373,"temp":32.0,"humidity":44,"rain":0.0,"pressure":976.8,"uv_index":9.15,"wind_gusts":43.9,"aqi":49,"pm10":13.9,"pm2_5":11.6,"no2":4.5,"co":183.0,"o3":89.0,"so2":1.6,"mosquito_risk":0,"arthritis_risk":5,"migraine_risk":7,"frizz_risk":1,"updated_at":"2026-05-08T20:57:22.194298+05:30"},{"city":"Kakinada","state":"Andhra Pradesh","latitude":16.9891,"longitude":82.2475,"temp":27.0,"humidity":88,"rain":0.0,"pressure":1008.8,"uv_index":9.1,"wind_gusts":47.9,"aqi":23,"pm10":6.8,"pm2_5":4.5,"no2":1.4,"co":283.0,"o3":47.0,"so2":0.5,"mosquito_risk":7,"arthritis_risk":0,"migraine_risk":4,"frizz_risk":1,"updated_at":"2026-05-08T20:57:22.194305+05:30"},{"city":"Tirupati","state":"Andhra Pradesh","latitude":13.6288,"longitude":79.4192,"temp":27.5,"humidity":75,"rain":0.0,"pressure":991.9,"uv_index":8.4,"wind_gusts":44.6,"aqi":25,"pm10":5.8,"pm2_5":5.3,"no2":8.6,"co":147.0,"o3":30.0,"so2":1.9,"mosquito_risk":7,"arthritis_risk":5,"migraine_risk":7,"frizz_risk":1,"updated_at":"2026-05-08T20:57:22.194312+05:30"},{"city":"Warangal","state":"Telangana","latitude":17.9689,"longitude":79.5941,"temp":28.7,"humidity":62,"rain":0.0,"pressure":980.0,"uv_index":9.15,"wind_gusts":35.3,"aqi":89,"pm10":23.7,"pm2_5":20.7,"no2":8.5,"co":280.0,"o3":100.0,"so2":5.9,"mosquito_risk":7,"arthritis_risk":5,"migraine_risk":7,"frizz_risk":1,"updated_at":"2026-05-08T20:57:22.194319+05:30"},{"city":"Nizamabad","state":"Telangana","latitude":18.6725,"longitude":78.0941,"temp":31.0,"humidity":41,"rain":0.0,"pressure":964.8,"uv_index":9.1,"wind_gusts":31.0,"aqi":118,"pm10":36.2,"pm2_5":29.5,"no2":13.1,"co":380.0,"o3":108.0,"so2":8.7,"mosquito_risk":0,"arthritis_risk":5,"migraine_risk":7,"frizz_risk":1,"updated_at":"2026-05-08T20:57:22.194326+05:30"},{"city":"Mysore","state":"Karnataka","latitude":12.2958,"longitude":76.6396,"temp":24.8,"humidity":78,"rain":0.0,"pressure":928.0,"uv_index":8.9,"wind_gusts":38.5,"aqi":72,"pm10":20.4,"pm2_5":18.0,"no2":21.3,"co":306.0,"o3":74.0,"so2":6.9,"mosquito_risk":3,"arthritis_risk":5,"migraine_risk":7,"frizz_risk":1,"updated_at":"2026-05-08T20:57:22.194334+05:30"},{"city":"Mangalore","state":"Karnataka","latitude":12.9141,"longitude":74.856,"temp":29.6,"humidity":82,"rain":0.0,"pressure":1004.8,"uv_index":9.0,"wind_gusts":41.4,"aqi":92,"pm10":51.1,"pm2_5":31.5,"no2":4.7,"co":291.0,"o3":112.0,"so2":3.3,"mosquito_risk":7,"arthritis_risk":5,"migraine_risk":4,"frizz_risk":1,"updated_at":"2026-05-08T20:57:22.194341+05:30"},{"city":"Hubli-Dharwad","state":"Karnataka","latitude":15.3647,"longitude":75.124,"temp":30.9,"humidity":32,"rain":0.0,"pressure":940.0,"uv_index":9.05,"wind_gusts":37.4,"aqi":95,"pm10":33.4,"pm2_5":27.1,"no2":26.4,"co":229.0,"o3":82.0,"so2":5.1,"mosquito_risk":0,"arthritis_risk":5,"migraine_risk":7,"frizz_risk":0,"updated_at":"2026-05-08T20:57:22.194349+05:30"},{"city":"Belgaum","state":"Karnataka","latitude":15.8497,"longitude":74.4977,"temp":25.5,"humidity":70,"rain":0.0,"pressure":924.7,"uv_index":9.15,"wind_gusts":36.0,"aqi":121,"pm10":56.2,"pm2_5":43.8,"no2":16.6,"co":321.0,"o3":93.0,"so2":5.7,"mosquito_risk":7,"arthritis_risk":5,"migraine_risk":7,"frizz_risk":1,"updated_at":"2026-05-08T20:57:25.515051+05:30"},{"city":"Coimbatore","state":"Tamil Nadu","latitude":11.0168,"longitude":76.9558,"temp":24.4,"humidity":91,"rain":0.1,"pressure":961.7,"uv_index":9.05,"wind_gusts":44.3,"aqi":64,"pm10":19.2,"pm2_5":18.6,"no2":14.3,"co":365.0,"o3":76.0,"so2":6.8,"mosquito_risk":6,"arthritis_risk":5,"migraine_risk":7,"frizz_risk":1,"updated_at":"2026-05-08T20:57:25.515083+05:30"},{"city":"Madurai","state":"Tamil Nadu","latitude":9.9252,"longitude":78.1198,"temp":28.2,"humidity":79,"rain":0.0,"pressure":992.4,"uv_index":8.1,"wind_gusts":35.3,"aqi":51,"pm10":34.8,"pm2_5":34.7,"no2":56.1,"co":401.0,"o3":21.0,"so2":16.6,"mosquito_risk":7,"arthritis_risk":5,"migraine_risk":7,"frizz_risk":1,"updated_at":"2026-05-08T20:57:25.515093+05:30"},{"city":"Trichy","state":"Tamil Nadu","latitude":10.7905,"longitude":78.7047,"temp":29.4,"humidity":71,"rain":0.0,"pressure":999.3,"uv_index":8.55,"wind_gusts":39.6,"aqi":44,"pm10":11.6,"pm2_5":11.3,"no2":20.9,"co":212.0,"o3":27.0,"so2":14.6,"mosquito_risk":7,"arthritis_risk":5,"migraine_risk":7,"frizz_risk":1,"updated_at":"2026-05-08T20:57:25.515102+05:30"},{"city":"Salem","state":"Tamil Nadu","latitude":11.6643,"longitude":78.146,"temp":28.1,"humidity":73,"rain":0.0,"pressure":976.8,"uv_index":7.6,"wind_gusts":34.6,"aqi":57,"pm10":9.6,"pm2_5":9.4,"no2":12.4,"co":348.0,"o3":60.0,"so2":9.3,"mosquito_risk":7,"arthritis_risk":5,"migraine_risk":7,"frizz_risk":1,"updated_at":"2026-05-08T20:57:25.515111+05:30"},{"city":"Tirunelveli","state":"Tamil Nadu","latitude":8.7139,"longitude":77.7567,"temp":26.3,"humidity":93,"rain":0.1,"pressure":1003.1,"uv_index":8.7,"wind_gusts":36.0,"aqi":49,"pm10":10.1,"pm2_5":9.9,"no2":10.2,"co":268.0,"o3":66.0,"so2":3.8,"mosquito_risk":10,"arthritis_risk":5,"migraine_risk":4,"frizz_risk":1,"updated_at":"2026-05-08T20:57:25.515119+05:30"},{"city":"Vellore","state":"Tamil Nadu","latitude":12.9165,"longitude":79.1325,"temp":28.2,"humidity":69,"rain":0.0,"pressure":985.0,"uv_index":7.05,"wind_gusts":54.0,"aqi":43,"pm10":13.9,"pm2_5":13.5,"no2":15.2,"co":215.0,"o3":52.0,"so2":10.1,"mosquito_risk":7,"arthritis_risk":5,"migraine_risk":7,"frizz_risk":1,"updated_at":"2026-05-08T20:57:25.515127+05:30"},{"city":"Erode","state":"Tamil Nadu","latitude":11.341,"longitude":77.7172,"temp":26.7,"humidity":85,"rain":0.0,"pressure":988.4,"uv_index":8.2,"wind_gusts":35.6,"aqi":66,"pm10":17.2,"pm2_5":16.8,"no2":20.1,"co":445.0,"o3":59.0,"so2":7.6,"mosquito_risk":7,"arthritis_risk":5,"migraine_risk":7,"frizz_risk":1,"updated_at":"2026-05-08T20:57:25.515135+05:30"},{"city":"Kochi","state":"Kerala","latitude":9.9312,"longitude":76.2673,"temp":28.1,"humidity":92,"rain":0.0,"pressure":1007.0,"uv_index":4.45,"wind_gusts":25.2,"aqi":108,"pm10":29.2,"pm2_5":28.2,"no2":19.9,"co":360.0,"o3":70.0,"so2":5.3,"mosquito_risk":7,"arthritis_risk":5,"migraine_risk":0,"frizz_risk":1,"updated_at":"2026-05-08T20:57:25.515143+05:30"},{"city":"Thiruvananthapuram","state":"Kerala","latitude":8.5241,"longitude":76.9366,"temp":25.4,"humidity":95,"rain":0.0,"pressure":1007.3,"uv_index":8.3,"wind_gusts":24.1,"aqi":117,"pm10":12.0,"pm2_5":10.8,"no2":5.4,"co":687.0,"o3":111.0,"so2":2.8,"mosquito_risk":7,"arthritis_risk":5,"migraine_risk":4,"frizz_risk":1,"updated_at":"2026-05-08T20:57:25.515151+05:30"},{"city":"Kozhikode","state":"Kerala","latitude":11.2588,"longitude":75.7804,"temp":27.9,"humidity":90,"rain":0.0,"pressure":1006.5,"uv_index":9.0,"wind_gusts":31.7,"aqi":72,"pm10":35.5,"pm2_5":21.2,"no2":2.9,"co":445.0,"o3":101.0,"so2":1.6,"mosquito_risk":7,"arthritis_risk":5,"migraine_risk":4,"frizz_risk":1,"updated_at":"2026-05-08T20:57:25.515157+05:30"},{"city":"Thrissur","state":"Kerala","latitude":10.5276,"longitude":76.2144,"temp":27.1,"humidity":97,"rain":0.0,"pressure":1005.5,"uv_index":8.95,"wind_gusts":27.4,"aqi":83,"pm10":35.5,"pm2_5":33.3,"no2":20.3,"co":629.0,"o3":61.0,"so2":4.7,"mosquito_risk":7,"arthritis_risk":5,"migraine_risk":4,"frizz_risk":1,"updated_at":"2026-05-08T20:57:25.515164+05:30"},{"city":"Kannur","state":"Kerala","latitude":11.8745,"longitude":75.3704,"temp":28.4,"humidity":90,"rain":0.0,"pressure":1005.3,"uv_index":8.85,"wind_gusts":40.0,"aqi":78,"pm10":44.8,"pm2_5":30.2,"no2":9.6,"co":623.0,"o3":90.0,"so2":2.7,"mosquito_risk":7,"arthritis_risk":5,"migraine_risk":4,"frizz_risk":1,"updated_at":"2026-05-08T20:57:25.515170+05:30"},{"city":"Patna","state":"Bihar","latitude":25.5941,"longitude":85.1376,"temp":25.7,"humidity":73,"rain":0.0,"pressure":1003.2,"uv_index":8.65,"wind_gusts":29.9,"aqi":178,"pm10":68.0,"pm2_5":54.0,"no2":16.8,"co":499.0,"o3":134.0,"so2":16.9,"mosquito_risk":7,"arthritis_risk":5,"migraine_risk":4,"frizz_risk":1,"updated_at":"2026-05-08T20:57:25.515176+05:30"},{"city":"Gaya","state":"Bihar","latitude":24.7914,"longitude":85.0002,"temp":26.6,"humidity":60,"rain":0.0,"pressure":996.1,"uv_index":8.75,"wind_gusts":33.8,"aqi":186,"pm10":70.5,"pm2_5":55.5,"no2":16.2,"co":411.0,"o3":120.0,"so2":16.8,"mosquito_risk":4,"arthritis_risk":5,"migraine_risk":7,"frizz_risk":1,"updated_at":"2026-05-08T20:57:25.515182+05:30"},{"city":"Muzaffarpur","state":"Bihar","latitude":26.1209,"longitude":85.3647,"temp":25.3,"humidity":69,"rain":0.0,"pressure":1003.5,"uv_index":8.65,"wind_gusts":28.8,"aqi":184,"pm10":68.5,"pm2_5":58.0,"no2":19.0,"co":480.0,"o3":123.0,"so2":15.8,"mosquito_risk":7,"arthritis_risk":5,"migraine_risk":4,"frizz_risk":1,"updated_at":"2026-05-08T20:57:25.515187+05:30"},{"city":"Bhagalpur","state":"Bihar","latitude":25.2425,"longitude":87.0117,"temp":26.0,"humidity":69,"rain":0.0,"pressure":1004.1,"uv_index":8.6,"wind_gusts":31.0,"aqi":206,"pm10":60.5,"pm2_5":51.3,"no2":13.1,"co":670.0,"o3":139.0,"so2":12.8,"mosquito_risk":7,"arthritis_risk":5,"migraine_risk":4,"frizz_risk":1,"updated_at":"2026-05-08T20:57:25.515193+05:30"},{"city":"Ranchi","state":"Jharkhand","latitude":23.3441,"longitude":85.3096,"temp":22.6,"humidity":78,"rain":0.0,"pressure":939.8,"uv_index":9.2,"wind_gusts":50.4,"aqi":167,"pm10":50.9,"pm2_5":42.6,"no2":16.0,"co":384.0,"o3":130.0,"so2":16.4,"mosquito_risk":3,"arthritis_risk":5,"migraine_risk":7,"frizz_risk":1,"updated_at":"2026-05-08T20:57:25.515199+05:30"},{"city":"Jamshedpur","state":"Jharkhand","latitude":22.8046,"longitude":86.2029,"temp":23.8,"humidity":76,"rain":0.0,"pressure":994.0,"uv_index":9.0,"wind_gusts":49.7,"aqi":157,"pm10":45.3,"pm2_5":36.8,"no2":16.1,"co":582.0,"o3":113.0,"so2":19.4,"mosquito_risk":3,"arthritis_risk":5,"migraine_risk":7,"frizz_risk":1,"updated_at":"2026-05-08T20:57:25.515206+05:30"},{"city":"Dhanbad","state":"Jharkhand","latitude":23.7957,"longitude":86.4304,"temp":24.0,"humidity":86,"rain":0.0,"pressure":982.6,"uv_index":8.95,"wind_gusts":32.4,"aqi":180,"pm10":68.9,"pm2_5":64.0,"no2":41.6,"co":694.0,"o3":114.0,"so2":64.7,"mosquito_risk":3,"arthritis_risk":5,"migraine_risk":7,"frizz_risk":1,"updated_at":"2026-05-08T20:57:25.515211+05:30"},{"city":"Bokaro","state":"Jharkhand","latitude":23.6693,"longitude":86.1511,"temp":23.8,"humidity":84,"rain":0.0,"pressure":986.4,"uv_index":8.95,"wind_gusts":44.3,"aqi":158,"pm10":70.8,"pm2_5":63.8,"no2":38.0,"co":801.0,"o3":123.0,"so2":64.9,"mosquito_risk":3,"arthritis_risk":5,"migraine_risk":7,"frizz_risk":1,"updated_at":"2026-05-08T20:57:25.515218+05:30"},{"city":"Bhubaneswar","state":"Odisha","latitude":20.2961,"longitude":85.8245,"temp":26.5,"humidity":89,"rain":0.0,"pressure":1005.0,"uv_index":9.1,"wind_gusts":36.0,"aqi":42,"pm10":13.1,"pm2_5":11.3,"no2":9.3,"co":231.0,"o3":46.0,"so2":3.8,"mosquito_risk":7,"arthritis_risk":5,"migraine_risk":4,"frizz_risk":1,"updated_at":"2026-05-08T20:57:25.515224+05:30"},{"city":"Cuttack","state":"Odisha","latitude":20.4625,"longitude":85.8828,"temp":25.8,"humidity":86,"rain":0.0,"pressure":1007.1,"uv_index":9.15,"wind_gusts":36.0,"aqi":42,"pm10":13.1,"pm2_5":11.3,"no2":9.3,"co":251.0,"o3":46.0,"so2":3.8,"mosquito_risk":7,"arthritis_risk":5,"migraine_risk":4,"frizz_risk":1,"updated_at":"2026-05-08T20:57:25.515230+05:30"},{"city":"Rourkela","state":"Odisha","latitude":22.2604,"longitude":84.8536,"temp":24.1,"humidity":87,"rain":0.0,"pressure":987.2,"uv_index":8.85,"wind_gusts":34.6,"aqi":168,"pm10":55.6,"pm2_5":47.4,"no2":22.5,"co":471.0,"o3":113.0,"so2":34.6,"mosquito_risk":3,"arthritis_risk":5,"migraine_risk":7,"frizz_risk":1,"updated_at":"2026-05-08T20:57:25.515237+05:30"},{"city":"Raipur","state":"Chhattisgarh","latitude":21.2514,"longitude":81.6296,"temp":31.8,"humidity":33,"rain":0.0,"pressure":975.4,"uv_index":8.95,"wind_gusts":33.5,"aqi":200,"pm10":80.6,"pm2_5":67.3,"no2":49.1,"co":564.0,"o3":95.0,"so2":17.4,"mosquito_risk":0,"arthritis_risk":5,"migraine_risk":7,"frizz_risk":0,"updated_at":"2026-05-08T20:57:25.515243+05:30"},{"city":"Bhilai","state":"Chhattisgarh","latitude":21.1938,"longitude":81.3509,"temp":31.2,"humidity":35,"rain":0.0,"pressure":975.5,"uv_index":8.95,"wind_gusts":32.0,"aqi":168,"pm10":70.8,"pm2_5":56.0,"no2":45.7,"co":456.0,"o3":86.0,"so2":12.4,"mosquito_risk":0,"arthritis_risk":5,"migraine_risk":7,"frizz_risk":0,"updated_at":"2026-05-08T20:57:25.515249+05:30"},{"city":"Guwahati","state":"Assam","latitude":26.1158,"longitude":91.7086,"temp":23.4,"humidity":81,"rain":0.0,"pressure":1004.9,"uv_index":8.65,"wind_gusts":23.8,"aqi":107,"pm10":50.5,"pm2_5":44.0,"no2":15.1,"co":455.0,"o3":48.0,"so2":2.7,"mosquito_risk":3,"arthritis_risk":5,"migraine_risk":4,"frizz_risk":1,"updated_at":"2026-05-08T20:57:25.515255+05:30"},{"city":"Agartala","state":"Tripura","latitude":23.8315,"longitude":91.2868,"temp":25.7,"humidity":84,"rain":0.0,"pressure":1008.9,"uv_index":8.85,"wind_gusts":28.1,"aqi":176,"pm10":95.0,"pm2_5":87.8,"no2":44.9,"co":768.0,"o3":90.0,"so2":7.2,"mosquito_risk":7,"arthritis_risk":0,"migraine_risk":4,"frizz_risk":1,"updated_at":"2026-05-08T20:57:25.515261+05:30"},{"city":"Shillong","state":"Meghalaya","latitude":25.5788,"longitude":91.8933,"temp":15.9,"humidity":94,"rain":0.0,"pressure":859.6,"uv_index":8.0,"wind_gusts":25.6,"aqi":99,"pm10":36.4,"pm2_5":31.7,"no2":19.0,"co":434.0,"o3":56.0,"so2":2.6,"mosquito_risk":3,"arthritis_risk":10,"migraine_risk":7,"frizz_risk":0,"updated_at":"2026-05-08T20:57:25.515267+05:30"},{"city":"Imphal","state":"Manipur","latitude":24.817,"longitude":93.9368,"temp":19.2,"humidity":81,"rain":0.0,"pressure":924.6,"uv_index":9.2,"wind_gusts":31.7,"aqi":102,"pm10":47.6,"pm2_5":41.0,"no2":26.8,"co":798.0,"o3":69.0,"so2":7.0,"mosquito_risk":3,"arthritis_risk":10,"migraine_risk":7,"frizz_risk":0,"updated_at":"2026-05-08T20:57:25.515273+05:30"},{"city":"Aizawl","state":"Mizoram","latitude":23.7271,"longitude":92.7176,"temp":18.9,"humidity":76,"rain":0.0,"pressure":894.5,"uv_index":8.5,"wind_gusts":25.2,"aqi":81,"pm10":39.1,"pm2_5":32.0,"no2":12.8,"co":349.0,"o3":71.0,"so2":2.2,"mosquito_risk":3,"arthritis_risk":5,"migraine_risk":7,"frizz_risk":0,"updated_at":"2026-05-08T20:57:25.515279+05:30"},{"city":"Kohima","state":"Nagaland","latitude":25.6701,"longitude":94.1077,"temp":15.1,"humidity":92,"rain":0.0,"pressure":856.8,"uv_index":9.15,"wind_gusts":31.7,"aqi":82,"pm10":37.5,"pm2_5":28.7,"no2":12.8,"co":419.0,"o3":93.0,"so2":2.4,"mosquito_risk":3,"arthritis_risk":10,"migraine_risk":7,"frizz_risk":0,"updated_at":"2026-05-08T20:57:25.515285+05:30"},{"city":"Gangtok","state":"Sikkim","latitude":27.3314,"longitude":88.6138,"temp":11.5,"humidity":93,"rain":0.0,"pressure":838.0,"uv_index":8.95,"wind_gusts":36.4,"aqi":82,"pm10":36.6,"pm2_5":28.4,"no2":20.6,"co":477.0,"o3":91.0,"so2":2.1,"mosquito_risk":3,"arthritis_risk":10,"migraine_risk":7,"frizz_risk":0,"updated_at":"2026-05-08T20:57:25.515291+05:30"},{"city":"Siliguri","state":"West Bengal","latitude":26.7271,"longitude":88.3953,"temp":24.3,"humidity":68,"rain":0.0,"pressure":996.3,"uv_index":8.55,"wind_gusts":25.2,"aqi":117,"pm10":63.6,"pm2_5":53.3,"no2":30.4,"co":872.0,"o3":86.0,"so2":6.6,"mosquito_risk":3,"arthritis_risk":5,"migraine_risk":7,"frizz_risk":1,"updated_at":"2026-05-08T20:57:28.849213+05:30"},{"city":"Durgapur","state":"West Bengal","latitude":23.5204,"longitude":87.3119,"temp":23.5,"humidity":92,"rain":0.0,"pressure":997.8,"uv_index":8.9,"wind_gusts":25.6,"aqi":159,"pm10":74.0,"pm2_5":69.6,"no2":37.0,"co":888.0,"o3":109.0,"so2":58.5,"mosquito_risk":3,"arthritis_risk":5,"migraine_risk":7,"frizz_risk":1,"updated_at":"2026-05-08T20:57:28.849242+05:30"},{"city":"Asansol","state":"West Bengal","latitude":23.6739,"longitude":86.9524,"temp":22.7,"humidity":96,"rain":0.0,"pressure":996.4,"uv_index":8.95,"wind_gusts":30.2,"aqi":160,"pm10":69.8,"pm2_5":65.4,"no2":36.5,"co":591.0,"o3":113.0,"so2":59.6,"mosquito_risk":3,"arthritis_risk":5,"migraine_risk":7,"frizz_risk":1,"updated_at":"2026-05-08T20:57:28.849252+05:30"},{"city":"Pondicherry","state":"Puducherry","latitude":11.9139,"longitude":79.8145,"temp":28.5,"humidity":78,"rain":0.0,"pressure":1008.2,"uv_index":7.4,"wind_gusts":46.8,"aqi":22,"pm10":4.1,"pm2_5":2.9,"no2":2.7,"co":202.0,"o3":40.0,"so2":0.3,"mosquito_risk":7,"arthritis_risk":0,"migraine_risk":4,"frizz_risk":1,"updated_at":"2026-05-08T20:57:28.849260+05:30"},{"city":"Port Blair","state":"Andaman and Nicobar Islands","latitude":11.6234,"longitude":92.7265,"temp":26.9,"humidity":87,"rain":0.0,"pressure":1008.2,"uv_index":9.1,"wind_gusts":36.4,"aqi":30,"pm10":4.2,"pm2_5":3.1,"no2":0.5,"co":176.0,"o3":60.0,"so2":0.1,"mosquito_risk":7,"arthritis_risk":0,"migraine_risk":4,"frizz_risk":1,"updated_at":"2026-05-08T20:57:28.849267+05:30"},{"city":"Haridwar","state":"Uttarakhand","latitude":29.9457,"longitude":78.1642,"temp":22.5,"humidity":73,"rain":0.0,"pressure":975.5,"uv_index":7.4,"wind_gusts":32.8,"aqi":144,"pm10":62.2,"pm2_5":37.6,"no2":23.3,"co":475.0,"o3":82.0,"so2":7.4,"mosquito_risk":3,"arthritis_risk":5,"migraine_risk":7,"frizz_risk":1,"updated_at":"2026-05-08T20:57:28.849274+05:30"},{"city":"Rishikesh","state":"Uttarakhand","latitude":30.0869,"longitude":78.2676,"temp":20.9,"humidity":75,"rain":0.0,"pressure":968.2,"uv_index":7.45,"wind_gusts":22.0,"aqi":143,"pm10":45.1,"pm2_5":21.9,"no2":11.4,"co":470.0,"o3":102.0,"so2":2.2,"mosquito_risk":3,"arthritis_risk":5,"migraine_risk":7,"frizz_risk":1,"updated_at":"2026-05-08T20:57:28.849280+05:30"},{"city":"Nainital","state":"Uttarakhand","latitude":29.3919,"longitude":79.4542,"temp":11.3,"humidity":84,"rain":0.0,"pressure":804.9,"uv_index":8.2,"wind_gusts":31.7,"aqi":124,"pm10":51.0,"pm2_5":27.2,"no2":14.6,"co":357.0,"o3":116.0,"so2":4.9,"mosquito_risk":3,"arthritis_risk":10,"migraine_risk":7,"frizz_risk":0,"updated_at":"2026-05-08T20:57:28.849287+05:30"},{"city":"Mussoorie","state":"Uttarakhand","latitude":30.4599,"longitude":78.0664,"temp":10.4,"humidity":94,"rain":0.0,"pressure":801.4,"uv_index":6.3,"wind_gusts":28.8,"aqi":138,"pm10":59.6,"pm2_5":33.6,"no2":30.5,"co":333.0,"o3":102.0,"so2":11.1,"mosquito_risk":3,"arthritis_risk":10,"migraine_risk":7,"frizz_risk":0,"updated_at":"2026-05-08T20:57:28.849293+05:30"},{"city":"Dharamshala","state":"Himachal Pradesh","latitude":32.219,"longitude":76.3234,"temp":18.5,"humidity":66,"rain":0.0,"pressure":870.3,"uv_index":8.2,"wind_gusts":33.8,"aqi":103,"pm10":49.5,"pm2_5":25.1,"no2":12.3,"co":317.0,"o3":101.0,"so2":2.0,"mosquito_risk":3,"arthritis_risk":5,"migraine_risk":7,"frizz_risk":0,"updated_at":"2026-05-08T20:57:28.849299+05:30"},{"city":"Dalhousie","state":"Himachal Pradesh","latitude":32.5387,"longitude":75.971,"temp":11.8,"humidity":91,"rain":0.0,"pressure":804.1,"uv_index":8.45,"wind_gusts":37.8,"aqi":152,"pm10":88.7,"pm2_5":42.3,"no2":22.2,"co":525.0,"o3":125.0,"so2":6.1,"mosquito_risk":3,"arthritis_risk":10,"migraine_risk":7,"frizz_risk":0,"updated_at":"2026-05-08T20:57:28.849306+05:30"},{"city":"Patiala","state":"Punjab","latitude":30.3398,"longitude":76.3869,"temp":26.0,"humidity":57,"rain":0.0,"pressure":979.5,"uv_index":7.5,"wind_gusts":38.5,"aqi":550,"pm10":189.5,"pm2_5":47.5,"no2":10.8,"co":379.0,"o3":122.0,"so2":9.5,"mosquito_risk":4,"arthritis_risk":5,"migraine_risk":7,"frizz_risk":1,"updated_at":"2026-05-08T20:57:28.849312+05:30"},{"city":"Bhatinda","state":"Punjab","latitude":30.211,"longitude":74.9455,"temp":29.9,"humidity":38,"rain":0.0,"pressure":984.2,"uv_index":8.1,"wind_gusts":35.3,"aqi":741,"pm10":558.8,"pm2_5":101.5,"no2":7.8,"co":569.0,"o3":141.0,"so2":12.2,"mosquito_risk":4,"arthritis_risk":5,"migraine_risk":7,"frizz_risk":0,"updated_at":"2026-05-08T20:57:28.849318+05:30"},{"city":"Rohtak","state":"Haryana","latitude":28.8955,"longitude":76.6066,"temp":26.6,"humidity":54,"rain":0.0,"pressure":982.8,"uv_index":7.6,"wind_gusts":37.8,"aqi":720,"pm10":599.8,"pm2_5":89.2,"no2":19.5,"co":385.0,"o3":132.0,"so2":22.2,"mosquito_risk":4,"arthritis_risk":5,"migraine_risk":7,"frizz_risk":1,"updated_at":"2026-05-08T20:57:28.849324+05:30"},{"city":"Panipat","state":"Haryana","latitude":29.3909,"longitude":76.9635,"temp":25.5,"humidity":63,"rain":0.0,"pressure":981.9,"uv_index":7.45,"wind_gusts":40.3,"aqi":1254,"pm10":474.0,"pm2_5":81.0,"no2":16.5,"co":594.0,"o3":113.0,"so2":12.6,"mosquito_risk":7,"arthritis_risk":5,"migraine_risk":7,"frizz_risk":1,"updated_at":"2026-05-08T20:57:28.849330+05:30"},{"city":"Mathura","state":"Uttar Pradesh","latitude":27.4924,"longitude":77.6737,"temp":28.1,"humidity":46,"rain":0.0,"pressure":986.9,"uv_index":7.85,"wind_gusts":36.4,"aqi":1177,"pm10":1609.3,"pm2_5":175.1,"no2":9.0,"co":372.0,"o3":133.0,"so2":10.8,"mosquito_risk":4,"arthritis_risk":5,"migraine_risk":7,"frizz_risk":0,"updated_at":"2026-05-08T20:57:28.849336+05:30"},{"city":"Vrindavan","state":"Uttar Pradesh","latitude":27.5823,"longitude":77.7027,"temp":28.5,"humidity":45,"rain":0.0,"pressure":987.4,"uv_index":7.85,"wind_gusts":37.8,"aqi":1177,"pm10":1609.3,"pm2_5":175.1,"no2":9.0,"co":386.0,"o3":133.0,"so2":10.8,"mosquito_risk":4,"arthritis_risk":5,"migraine_risk":7,"frizz_risk":0,"updated_at":"2026-05-08T20:57:28.849342+05:30"},{"city":"Ayodhya","state":"Uttar Pradesh","latitude":26.7922,"longitude":82.1998,"temp":25.9,"humidity":55,"rain":0.0,"pressure":997.8,"uv_index":8.2,"wind_gusts":28.8,"aqi":143,"pm10":57.2,"pm2_5":32.5,"no2":15.3,"co":336.0,"o3":105.0,"so2":7.5,"mosquito_risk":4,"arthritis_risk":5,"migraine_risk":7,"frizz_risk":1,"updated_at":"2026-05-08T20:57:28.849347+05:30"},{"city":"Ratlam","state":"Madhya Pradesh","latitude":23.3315,"longitude":75.0367,"temp":30.2,"humidity":22,"rain":0.0,"pressure":953.5,"uv_index":8.5,"wind_gusts":27.4,"aqi":108,"pm10":53.2,"pm2_5":31.9,"no2":9.1,"co":217.0,"o3":99.0,"so2":6.1,"mosquito_risk":0,"arthritis_risk":5,"migraine_risk":7,"frizz_risk":0,"updated_at":"2026-05-08T20:57:28.849353+05:30"},{"city":"Sagar","state":"Madhya Pradesh","latitude":23.8388,"longitude":78.7378,"temp":29.6,"humidity":31,"rain":0.0,"pressure":950.5,"uv_index":8.65,"wind_gusts":38.5,"aqi":111,"pm10":52.0,"pm2_5":21.0,"no2":9.0,"co":213.0,"o3":98.0,"so2":4.2,"mosquito_risk":4,"arthritis_risk":5,"migraine_risk":7,"frizz_risk":0,"updated_at":"2026-05-08T20:57:28.849359+05:30"},{"city":"Satna","state":"Madhya Pradesh","latitude":24.6005,"longitude":80.8322,"temp":27.8,"humidity":47,"rain":0.0,"pressure":971.7,"uv_index":8.7,"wind_gusts":30.2,"aqi":138,"pm10":39.9,"pm2_5":24.0,"no2":8.5,"co":508.0,"o3":134.0,"so2":8.8,"mosquito_risk":4,"arthritis_risk":5,"migraine_risk":7,"frizz_risk":0,"updated_at":"2026-05-08T20:57:28.849365+05:30"},{"city":"Akola","state":"Maharashtra","latitude":20.7002,"longitude":77.0082,"temp":33.1,"humidity":29,"rain":0.0,"pressure":974.4,"uv_index":8.85,"wind_gusts":26.3,"aqi":150,"pm10":37.8,"pm2_5":26.6,"no2":12.2,"co":367.0,"o3":122.0,"so2":7.4,"mosquito_risk":0,"arthritis_risk":5,"migraine_risk":7,"frizz_risk":0,"updated_at":"2026-05-08T20:57:28.849371+05:30"},{"city":"Amravati","state":"Maharashtra","latitude":20.9374,"longitude":77.7796,"temp":32.1,"humidity":30,"rain":0.0,"pressure":967.3,"uv_index":8.85,"wind_gusts":27.0,"aqi":158,"pm10":41.2,"pm2_5":28.6,"no2":15.0,"co":313.0,"o3":121.0,"so2":6.1,"mosquito_risk":0,"arthritis_risk":5,"migraine_risk":7,"frizz_risk":0,"updated_at":"2026-05-08T20:57:28.849378+05:30"},{"city":"Latur","state":"Maharashtra","latitude":18.4088,"longitude":76.5604,"temp":31.6,"humidity":32,"rain":0.0,"pressure":940.0,"uv_index":9.05,"wind_gusts":27.4,"aqi":128,"pm10":37.3,"pm2_5":28.0,"no2":10.3,"co":263.0,"o3":111.0,"so2":7.0,"mosquito_risk":0,"arthritis_risk":5,"migraine_risk":7,"frizz_risk":0,"updated_at":"2026-05-08T20:57:28.849384+05:30"},{"city":"Nanded","state":"Maharashtra","latitude":19.1383,"longitude":77.3091,"temp":32.5,"humidity":31,"rain":0.0,"pressure":968.4,"uv_index":8.95,"wind_gusts":25.9,"aqi":122,"pm10":42.6,"pm2_5":31.7,"no2":14.9,"co":300.0,"o3":100.0,"so2":5.6,"mosquito_risk":0,"arthritis_risk":5,"migraine_risk":7,"frizz_risk":0,"updated_at":"2026-05-08T20:57:28.849390+05:30"},{"city":"Gulbarga","state":"Karnataka","latitude":17.3297,"longitude":76.8343,"temp":32.2,"humidity":38,"rain":0.0,"pressure":958.4,"uv_index":9.05,"wind_gusts":32.8,"aqi":101,"pm10":23.6,"pm2_5":19.2,"no2":10.0,"co":253.0,"o3":113.0,"so2":5.2,"mosquito_risk":0,"arthritis_risk":5,"migraine_risk":7,"frizz_risk":0,"updated_at":"2026-05-08T20:57:28.849395+05:30"},{"city":"Bidar","state":"Karnataka","latitude":17.9104,"longitude":77.5199,"temp":29.4,"humidity":44,"rain":0.0,"pressure":935.8,"uv_index":9.1,"wind_gusts":28.1,"aqi":106,"pm10":25.0,"pm2_5":21.0,"no2":11.2,"co":281.0,"o3":99.0,"so2":4.0,"mosquito_risk":4,"arthritis_risk":5,"migraine_risk":7,"frizz_risk":0,"updated_at":"2026-05-08T20:57:28.849401+05:30"},{"city":"Hospet","state":"Karnataka","latitude":15.2689,"longitude":76.3909,"temp":30.4,"humidity":41,"rain":0.0,"pressure":955.0,"uv_index":9.2,"wind_gusts":36.4,"aqi":85,"pm10":16.7,"pm2_5":14.1,"no2":12.6,"co":310.0,"o3":92.0,"so2":7.9,"mosquito_risk":0,"arthritis_risk":5,"migraine_risk":7,"frizz_risk":0,"updated_at":"2026-05-08T20:57:28.849407+05:30"},{"city":"Tirupur","state":"Tamil Nadu","latitude":11.1085,"longitude":77.3411,"temp":26.1,"humidity":91,"rain":0.1,"pressure":974.5,"uv_index":8.8,"wind_gusts":34.2,"aqi":91,"pm10":22.2,"pm2_5":21.7,"no2":17.1,"co":284.0,"o3":85.0,"so2":7.9,"mosquito_risk":10,"arthritis_risk":5,"migraine_risk":7,"frizz_risk":1,"updated_at":"2026-05-08T20:57:28.849412+05:30"},{"city":"Alappuzha","state":"Kerala","latitude":9.4981,"longitude":76.3388,"temp":28.1,"humidity":88,"rain":0.1,"pressure":1007.4,"uv_index":8.65,"wind_gusts":31.0,"aqi":147,"pm10":26.1,"pm2_5":24.6,"no2":14.9,"co":221.0,"o3":101.0,"so2":6.4,"mosquito_risk":10,"arthritis_risk":5,"migraine_risk":4,"frizz_risk":1,"updated_at":"2026-05-08T20:57:28.849418+05:30"},{"city":"Munnar","state":"Kerala","latitude":10.0889,"longitude":77.0595,"temp":18.5,"humidity":97,"rain":0.0,"pressure":856.1,"uv_index":9.5,"wind_gusts":23.0,"aqi":40,"pm10":15.1,"pm2_5":14.9,"no2":8.6,"co":367.0,"o3":60.0,"so2":2.6,"mosquito_risk":3,"arthritis_risk":10,"migraine_risk":7,"frizz_risk":1,"updated_at":"2026-05-08T20:57:28.849424+05:30"},{"city":"Silchar","state":"Assam","latitude":24.8333,"longitude":92.7789,"temp":24.9,"humidity":78,"rain":0.0,"pressure":1007.5,"uv_index":6.75,"wind_gusts":22.7,"aqi":125,"pm10":75.0,"pm2_5":65.9,"no2":21.4,"co":581.0,"o3":85.0,"so2":12.9,"mosquito_risk":3,"arthritis_risk":5,"migraine_risk":4,"frizz_risk":1,"updated_at":"2026-05-08T20:57:28.849429+05:30"},{"city":"Dibrugarh","state":"Assam","latitude":27.4728,"longitude":94.912,"temp":25.5,"humidity":76,"rain":0.0,"pressure":998.5,"uv_index":8.8,"wind_gusts":50.0,"aqi":68,"pm10":47.8,"pm2_5":42.8,"no2":24.8,"co":819.0,"o3":65.0,"so2":5.2,"mosquito_risk":7,"arthritis_risk":5,"migraine_risk":7,"frizz_risk":1,"updated_at":"2026-05-08T20:57:28.849435+05:30"}]