[{"city":"Delhi","state":"Delhi","latitude":28.6139,"longitude":77.209,"temp":29.6,"humidity":36,"rain":0.0,"pressure":975.8,"uv_index":7.75,"wind_gusts":42.8,"aqi":629,"pm10":642.6,"pm2_5":165.8,"no2":21.4,"co":346.0,"o3":52.0,"so2":13.4,"mosquito_risk":4,"arthritis_risk":5,"migraine_risk":7,"frizz_risk":0,"updated_at":"2026-05-18T04:34:09.559947+05:30"},{"city":"Mumbai","state":"Maharashtra","latitude":19.076,"longitude":72.8777,"temp":28.2,"humidity":88,"rain":0.0,"pressure":1003.9,"uv_index":7.65,"wind_gusts":46.4,"aqi":64,"pm10":48.8,"pm2_5":19.4,"no2":9.5,"co":245.0,"o3":54.0,"so2":4.5,"mosquito_risk":7,"arthritis_risk":5,"migraine_risk":4,"frizz_risk":1,"updated_at":"2026-05-18T04:34:09.559990+05:30"},{"city":"Bangalore","state":"Karnataka","latitude":12.9716,"longitude":77.5946,"temp":23.0,"humidity":85,"rain":0.0,"pressure":907.8,"uv_index":6.15,"wind_gusts":42.8,"aqi":85,"pm10":22.8,"pm2_5":18.9,"no2":11.9,"co":283.0,"o3":59.0,"so2":6.7,"mosquito_risk":3,"arthritis_risk":5,"migraine_risk":7,"frizz_risk":1,"updated_at":"2026-05-18T04:34:09.560003+05:30"},{"city":"Hyderabad","state":"Telangana","latitude":17.385,"longitude":78.4867,"temp":28.0,"humidity":64,"rain":0.0,"pressure":949.0,"uv_index":9.25,"wind_gusts":33.5,"aqi":65,"pm10":16.4,"pm2_5":14.6,"no2":11.2,"co":229.0,"o3":56.0,"so2":5.4,"mosquito_risk":7,"arthritis_risk":5,"migraine_risk":7,"frizz_risk":1,"updated_at":"2026-05-18T04:34:09.560011+05:30"},{"city":"Chennai","state":"Tamil Nadu","latitude":13.0827,"longitude":80.2707,"temp":28.1,"humidity":81,"rain":0.0,"pressure":1002.5,"uv_index":8.65,"wind_gusts":46.1,"aqi":70,"pm10":18.6,"pm2_5":13.9,"no2":10.5,"co":212.0,"o3":77.0,"so2":15.6,"mosquito_risk":7,"arthritis_risk":5,"migraine_risk":4,"frizz_risk":1,"updated_at":"2026-05-18T04:34:09.560019+05:30"},{"city":"Kolkata","state":"West Bengal","latitude":22.5726,"longitude":88.3639,"temp":28.5,"humidity":89,"rain":0.0,"pressure":1000.6,"uv_index":8.95,"wind_gusts":35.6,"aqi":62,"pm10":16.7,"pm2_5":12.8,"no2":8.0,"co":226.0,"o3":53.0,"so2":6.0,"mosquito_risk":7,"arthritis_risk":5,"migraine_risk":4,"frizz_risk":1,"updated_at":"2026-05-18T04:34:09.560026+05:30"},{"city":"Pune","state":"Maharashtra","latitude":18.5204,"longitude":73.8567,"temp":24.1,"humidity":86,"rain":0.0,"pressure":943.6,"uv_index":8.45,"wind_gusts":48.6,"aqi":70,"pm10":37.5,"pm2_5":25.9,"no2":21.1,"co":215.0,"o3":46.0,"so2":24.5,"mosquito_risk":3,"arthritis_risk":5,"migraine_risk":7,"frizz_risk":1,"updated_at":"2026-05-18T04:34:09.560031+05:30"},{"city":"Ahmedabad","state":"Gujarat","latitude":23.0225,"longitude":72.5714,"temp":31.9,"humidity":36,"rain":0.0,"pressure":997.4,"uv_index":8.15,"wind_gusts":36.0,"aqi":63,"pm10":28.8,"pm2_5":14.9,"no2":4.1,"co":134.0,"o3":60.0,"so2":4.2,"mosquito_risk":0,"arthritis_risk":5,"migraine_risk":7,"frizz_risk":0,"updated_at":"2026-05-18T04:34:09.560038+05:30"},{"city":"Jaipur","state":"Rajasthan","latitude":26.9124,"longitude":75.7873,"temp":31.1,"humidity":30,"rain":0.0,"pressure":954.2,"uv_index":8.25,"wind_gusts":43.6,"aqi":116,"pm10":232.4,"pm2_5":47.4,"no2":5.6,"co":185.0,"o3":57.0,"so2":4.2,"mosquito_risk":0,"arthritis_risk":5,"migraine_risk":7,"frizz_risk":0,"updated_at":"2026-05-18T04:34:09.560047+05:30"},{"city":"Lucknow","state":"Uttar Pradesh","latitude":26.8467,"longitude":80.9462,"temp":31.2,"humidity":36,"rain":0.0,"pressure":986.0,"uv_index":8.2,"wind_gusts":32.0,"aqi":163,"pm10":256.1,"pm2_5":83.1,"no2":15.9,"co":308.0,"o3":45.0,"so2":8.0,"mosquito_risk":0,"arthritis_risk":5,"migraine_risk":7,"frizz_risk":0,"updated_at":"2026-05-18T04:34:09.560053+05:30"},{"city":"Kanpur","state":"Uttar Pradesh","latitude":26.4499,"longitude":80.3319,"temp":31.5,"humidity":33,"rain":0.0,"pressure":984.7,"uv_index":8.25,"wind_gusts":40.0,"aqi":342,"pm10":215.6,"pm2_5":56.6,"no2":11.6,"co":273.0,"o3":48.0,"so2":6.1,"mosquito_risk":0,"arthritis_risk":5,"migraine_risk":7,"frizz_risk":0,"updated_at":"2026-05-18T04:34:09.560059+05:30"},{"city":"Chandigarh","state":"Chandigarh","latitude":30.7333,"longitude":76.7794,"temp":26.1,"humidity":44,"rain":0.0,"pressure":960.8,"uv_index":7.75,"wind_gusts":37.1,"aqi":65,"pm10":21.0,"pm2_5":20.1,"no2":13.1,"co":290.0,"o3":61.0,"so2":6.7,"mosquito_risk":4,"arthritis_risk":5,"migraine_risk":7,"frizz_risk":0,"updated_at":"2026-05-18T04:34:09.560065+05:30"},{"city":"Srinagar","state":"Jammu and Kashmir","latitude":34.0837,"longitude":74.7973,"temp":11.4,"humidity":86,"rain":0.0,"pressure":837.2,"uv_index":8.95,"wind_gusts":19.1,"aqi":80,"pm10":44.4,"pm2_5":40.6,"no2":20.8,"co":193.0,"o3":33.0,"so2":1.0,"mosquito_risk":3,"arthritis_risk":10,"migraine_risk":7,"frizz_risk":0,"updated_at":"2026-05-18T04:34:09.560072+05:30"},{"city":"Jammu","state":"Jammu and Kashmir","latitude":32.7266,"longitude":74.857,"temp":22.4,"humidity":61,"rain":0.0,"pressure":964.2,"uv_index":8.55,"wind_gusts":29.9,"aqi":70,"pm10":32.2,"pm2_5":30.2,"no2":26.9,"co":338.0,"o3":0.0,"so2":1.3,"mosquito_risk":3,"arthritis_risk":5,"migraine_risk":7,"frizz_risk":0,"updated_at":"2026-05-18T04:34:09.560078+05:30"},{"city":"Amritsar","state":"Punjab","latitude":31.634,"longitude":74.8723,"temp":27.4,"humidity":52,"rain":0.0,"pressure":973.0,"uv_index":8.45,"wind_gusts":24.5,"aqi":89,"pm10":45.8,"pm2_5":34.5,"no2":21.8,"co":478.0,"o3":45.0,"so2":7.9,"mosquito_risk":4,"arthritis_risk":5,"migraine_risk":7,"frizz_risk":1,"updated_at":"2026-05-18T04:34:09.560083+05:30"},{"city":"Ludhiana","state":"Punjab","latitude":30.901,"longitude":75.8573,"temp":26.5,"humidity":53,"rain":0.0,"pressure":971.2,"uv_index":8.0,"wind_gusts":27.4,"aqi":88,"pm10":59.1,"pm2_5":38.4,"no2":13.7,"co":502.0,"o3":55.0,"so2":8.2,"mosquito_risk":4,"arthritis_risk":5,"migraine_risk":7,"frizz_risk":0,"updated_at":"2026-05-18T04:34:09.560089+05:30"},{"city":"Jalandhar","state":"Punjab","latitude":31.326,"longitude":75.5762,"temp":26.0,"humidity":52,"rain":0.0,"pressure":972.1,"uv_index":8.2,"wind_gusts":25.6,"aqi":100,"pm10":80.8,"pm2_5":50.3,"no2":23.5,"co":484.0,"o3":34.0,"so2":8.9,"mosquito_risk":4,"arthritis_risk":5,"migraine_risk":7,"frizz_risk":0,"updated_at":"2026-05-18T04:34:09.560095+05:30"},{"city":"Dehradun","state":"Uttarakhand","latitude":30.6284,"longitude":78.0322,"temp":11.9,"humidity":80,"rain":0.0,"pressure":821.6,"uv_index":8.2,"wind_gusts":38.9,"aqi":49,"pm10":11.4,"pm2_5":9.5,"no2":20.5,"co":249.0,"o3":3.0,"so2":0.1,"mosquito_risk":3,"arthritis_risk":5,"migraine_risk":7,"frizz_risk":0,"updated_at":"2026-05-18T04:34:09.560100+05:30"},{"city":"Shimla","state":"Himachal Pradesh","latitude":31.1048,"longitude":77.1734,"temp":12.7,"humidity":56,"rain":0.0,"pressure":777.4,"uv_index":8.3,"wind_gusts":45.4,"aqi":54,"pm10":23.2,"pm2_5":17.4,"no2":16.8,"co":179.0,"o3":62.0,"so2":1.4,"mosquito_risk":0,"arthritis_risk":5,"migraine_risk":7,"frizz_risk":0,"updated_at":"2026-05-18T04:34:09.560108+05:30"},{"city":"Manali","state":"Himachal Pradesh","latitude":32.2396,"longitude":77.1887,"temp":9.2,"humidity":37,"rain":0.0,"pressure":808.9,"uv_index":9.6,"wind_gusts":47.5,"aqi":67,"pm10":3.3,"pm2_5":2.0,"no2":5.4,"co":158.0,"o3":121.0,"so2":0.0,"mosquito_risk":0,"arthritis_risk":5,"migraine_risk":7,"frizz_risk":1,"updated_at":"2026-05-18T04:34:09.560118+05:30"},{"city":"Gurgaon","state":"Haryana","latitude":28.4595,"longitude":77.0266,"temp":27.4,"humidity":43,"rain":0.0,"pressure":974.3,"uv_index":7.85,"wind_gusts":42.5,"aqi":1042,"pm10":910.8,"pm2_5":171.4,"no2":18.9,"co":322.0,"o3":47.0,"so2":12.2,"mosquito_risk":4,"arthritis_risk":5,"migraine_risk":7,"frizz_risk":0,"updated_at":"2026-05-18T04:34:09.560123+05:30"},{"city":"Noida","state":"Uttar Pradesh","latitude":28.5355,"longitude":77.391,"temp":28.0,"humidity":41,"rain":0.0,"pressure":976.9,"uv_index":7.75,"wind_gusts":33.5,"aqi":1042,"pm10":910.8,"pm2_5":171.4,"no2":18.9,"co":348.0,"o3":47.0,"so2":12.2,"mosquito_risk":4,"arthritis_risk":5,"migraine_risk":7,"frizz_risk":0,"updated_at":"2026-05-18T04:34:09.560128+05:30"},{"city":"Ghaziabad","state":"Uttar Pradesh","latitude":28.6692,"longitude":77.4538,"temp":27.9,"humidity":41,"rain":0.0,"pressure":975.2,"uv_index":7.75,"wind_gusts":35.6,"aqi":516,"pm10":586.7,"pm2_5":160.7,"no2":20.4,"co":387.0,"o3":55.0,"so2":14.8,"mosquito_risk":4,"arthritis_risk":5,"migraine_risk":7,"frizz_risk":0,"updated_at":"2026-05-18T04:34:09.560133+05:30"},{"city":"Faridabad","state":"Haryana","latitude":28.4089,"longitude":77.3178,"temp":29.6,"humidity":36,"rain":0.0,"pressure":976.4,"uv_index":7.8,"wind_gusts":43.6,"aqi":1042,"pm10":910.8,"pm2_5":171.4,"no2":18.9,"co":336.0,"o3":47.0,"so2":12.2,"mosquito_risk":4,"arthritis_risk":5,"migraine_risk":7,"frizz_risk":0,"updated_at":"2026-05-18T04:34:09.560139+05:30"},{"city":"Meerut","state":"Uttar Pradesh","latitude":28.9845,"longitude":77.7064,"temp":28.4,"humidity":39,"rain":0.0,"pressure":973.6,"uv_index":7.65,"wind_gusts":38.5,"aqi":516,"pm10":586.7,"pm2_5":160.7,"no2":20.4,"co":374.0,"o3":55.0,"so2":14.8,"mosquito_risk":4,"arthritis_risk":5,"migraine_risk":7,"frizz_risk":0,"updated_at":"2026-05-18T04:34:09.560144+05:30"},{"city":"Agra","state":"Uttar Pradesh","latitude":27.1767,"longitude":78.0081,"temp":29.1,"humidity":39,"rain":0.0,"pressure":980.7,"uv_index":8.1,"wind_gusts":40.7,"aqi":510,"pm10":202.6,"pm2_5":53.1,"no2":16.6,"co":304.0,"o3":24.0,"so2":6.0,"mosquito_risk":4,"arthritis_risk":5,"migraine_risk":7,"frizz_risk":0,"updated_at":"2026-05-18T04:34:09.560150+05:30"},{"city":"Varanasi","state":"Uttar Pradesh","latitude":25.3176,"longitude":82.9739,"temp":30.2,"humidity":39,"rain":0.0,"pressure":990.8,"uv_index":8.7,"wind_gusts":45.7,"aqi":129,"pm10":142.5,"pm2_5":46.8,"no2":22.3,"co":346.0,"o3":48.0,"so2":9.9,"mosquito_risk":0,"arthritis_risk":5,"migraine_risk":7,"frizz_risk":0,"updated_at":"2026-05-18T04:34:09.560155+05:30"},{"city":"Prayagraj","state":"Uttar Pradesh","latitude":25.4358,"longitude":81.8463,"temp":29.6,"humidity":41,"rain":0.0,"pressure":989.1,"uv_index":8.6,"wind_gusts":46.4,"aqi":140,"pm10":184.9,"pm2_5":57.4,"no2":25.1,"co":263.0,"o3":39.0,"so2":8.5,"mosquito_risk":4,"arthritis_risk":5,"migraine_risk":7,"frizz_risk":0,"updated_at":"2026-05-18T04:34:09.560160+05:30"},{"city":"Gorakhpur","state":"Uttar Pradesh","latitude":26.7606,"longitude":83.3732,"temp":25.9,"humidity":82,"rain":0.0,"pressure":990.6,"uv_index":8.6,"wind_gusts":31.7,"aqi":140,"pm10":136.4,"pm2_5":69.6,"no2":38.1,"co":578.0,"o3":28.0,"so2":11.8,"mosquito_risk":7,"arthritis_risk":5,"migraine_risk":7,"frizz_risk":1,"updated_at":"2026-05-18T04:34:09.560167+05:30"},{"city":"Bareilly","state":"Uttar Pradesh","latitude":28.367,"longitude":79.4304,"temp":25.3,"humidity":64,"rain":0.0,"pressure":978.7,"uv_index":8.05,"wind_gusts":35.6,"aqi":139,"pm10":336.2,"pm2_5":107.1,"no2":24.9,"co":390.0,"o3":35.0,"so2":11.6,"mosquito_risk":7,"arthritis_risk":5,"migraine_risk":7,"frizz_risk":1,"updated_at":"2026-05-18T04:34:09.560172+05:30"},{"city":"Aligarh","state":"Uttar Pradesh","latitude":27.8974,"longitude":78.088,"temp":27.1,"humidity":49,"rain":0.0,"pressure":978.0,"uv_index":7.9,"wind_gusts":37.8,"aqi":641,"pm10":605.4,"pm2_5":144.8,"no2":20.1,"co":383.0,"o3":38.0,"so2":11.9,"mosquito_risk":4,"arthritis_risk":5,"migraine_risk":7,"frizz_risk":0,"updated_at":"2026-05-18T04:34:09.560177+05:30"},{"city":"Moradabad","state":"Uttar Pradesh","latitude":28.8386,"longitude":78.7733,"temp":27.0,"humidity":45,"rain":0.0,"pressure":975.5,"uv_index":7.85,"wind_gusts":38.2,"aqi":156,"pm10":291.5,"pm2_5":107.6,"no2":21.8,"co":385.0,"o3":39.0,"so2":9.5,"mosquito_risk":4,"arthritis_risk":5,"migraine_risk":7,"frizz_risk":0,"updated_at":"2026-05-18T04:34:09.560183+05:30"},{"city":"Saharanpur","state":"Uttar Pradesh","latitude":29.9637,"longitude":77.546,"temp":26.9,"humidity":45,"rain":0.0,"pressure":967.5,"uv_index":7.4,"wind_gusts":36.4,"aqi":97,"pm10":94.8,"pm2_5":44.0,"no2":22.8,"co":350.0,"o3":52.0,"so2":9.5,"mosquito_risk":4,"arthritis_risk":5,"migraine_risk":7,"frizz_risk":0,"updated_at":"2026-05-18T04:34:09.560187+05:30"},{"city":"Jhansi","state":"Uttar Pradesh","latitude":25.4484,"longitude":78.5685,"temp":30.1,"humidity":33,"rain":0.0,"pressure":971.6,"uv_index":8.5,"wind_gusts":44.6,"aqi":117,"pm10":56.5,"pm2_5":23.7,"no2":4.1,"co":213.0,"o3":64.0,"so2":2.2,"mosquito_risk":0,"arthritis_risk":5,"migraine_risk":7,"frizz_risk":0,"updated_at":"2026-05-18T04:34:12.948322+05:30"},{"city":"Surat","state":"Gujarat","latitude":21.1702,"longitude":72.8311,"temp":28.1,"humidity":93,"rain":0.0,"pressure":1001.7,"uv_index":7.25,"wind_gusts":37.4,"aqi":91,"pm10":43.5,"pm2_5":29.6,"no2":29.6,"co":329.0,"o3":27.0,"so2":35.8,"mosquito_risk":7,"arthritis_risk":5,"migraine_risk":4,"frizz_risk":1,"updated_at":"2026-05-18T04:34:12.948353+05:30"},{"city":"Vadodara","state":"Gujarat","latitude":22.3072,"longitude":73.1812,"temp":31.6,"humidity":33,"rain":0.0,"pressure":999.3,"uv_index":8.1,"wind_gusts":35.6,"aqi":73,"pm10":29.7,"pm2_5":19.3,"no2":9.1,"co":170.0,"o3":50.0,"so2":7.4,"mosquito_risk":0,"arthritis_risk":5,"migraine_risk":7,"frizz_risk":0,"updated_at":"2026-05-18T04:34:12.948361+05:30"},{"city":"Rajkot","state":"Gujarat","latitude":22.3039,"longitude":70.8022,"temp":25.6,"humidity":91,"rain":0.0,"pressure":990.4,"uv_index":7.75,"wind_gusts":39.6,"aqi":59,"pm10":24.2,"pm2_5":10.2,"no2":6.3,"co":118.0,"o3":43.0,"so2":4.1,"mosquito_risk":7,"arthritis_risk":5,"migraine_risk":7,"frizz_risk":1,"updated_at":"2026-05-18T04:34:12.948368+05:30"},{"city":"Thane","state":"Maharashtra","latitude":19.2183,"longitude":72.9781,"temp":28.0,"humidity":88,"rain":0.0,"pressure":1003.3,"uv_index":7.55,"wind_gusts":40.3,"aqi":64,"pm10":48.8,"pm2_5":19.4,"no2":9.5,"co":191.0,"o3":54.0,"so2":4.5,"mosquito_risk":7,"arthritis_risk":5,"migraine_risk":4,"frizz_risk":1,"updated_at":"2026-05-18T04:34:12.948375+05:30"},{"city":"Nagpur","state":"Maharashtra","latitude":21.1458,"longitude":79.0882,"temp":32.6,"humidity":40,"rain":0.0,"pressure":968.2,"uv_index":8.95,"wind_gusts":36.4,"aqi":85,"pm10":39.9,"pm2_5":35.3,"no2":33.7,"co":283.0,"o3":37.0,"so2":16.5,"mosquito_risk":0,"arthritis_risk":5,"migraine_risk":7,"frizz_risk":1,"updated_at":"2026-05-18T04:34:12.948380+05:30"},{"city":"Nashik","state":"Maharashtra","latitude":19.9975,"longitude":73.7898,"temp":25.1,"humidity":63,"rain":0.0,"pressure":941.3,"uv_index":7.7,"wind_gusts":42.5,"aqi":63,"pm10":47.3,"pm2_5":24.4,"no2":20.8,"co":168.0,"o3":32.0,"so2":3.2,"mosquito_risk":7,"arthritis_risk":5,"migraine_risk":7,"frizz_risk":1,"updated_at":"2026-05-18T04:34:12.948386+05:30"},{"city":"Aurangabad","state":"Maharashtra","latitude":19.8762,"longitude":75.3433,"temp":29.9,"humidity":32,"rain":0.0,"pressure":939.4,"uv_index":9.05,"wind_gusts":32.4,"aqi":55,"pm10":32.2,"pm2_5":19.2,"no2":13.0,"co":195.0,"o3":73.0,"so2":6.2,"mosquito_risk":4,"arthritis_risk":5,"migraine_risk":7,"frizz_risk":0,"updated_at":"2026-05-18T04:34:12.948393+05:30"},{"city":"Solapur","state":"Maharashtra","latitude":17.6599,"longitude":75.9064,"temp":30.2,"humidity":51,"rain":0.0,"pressure":952.4,"uv_index":9.05,"wind_gusts":51.5,"aqi":72,"pm10":27.8,"pm2_5":23.7,"no2":13.7,"co":240.0,"o3":55.0,"so2":6.6,"mosquito_risk":0,"arthritis_risk":5,"migraine_risk":7,"frizz_risk":1,"updated_at":"2026-05-18T04:34:12.948399+05:30"},{"city":"Kolhapur","state":"Maharashtra","latitude":16.705,"longitude":74.2433,"temp":24.4,"humidity":95,"rain":0.0,"pressure":944.0,"uv_index":8.5,"wind_gusts":44.3,"aqi":58,"pm10":24.2,"pm2_5":15.7,"no2":7.5,"co":160.0,"o3":47.0,"so2":3.0,"mosquito_risk":3,"arthritis_risk":5,"migraine_risk":7,"frizz_risk":1,"updated_at":"2026-05-18T04:34:12.948406+05:30"},{"city":"Goa","state":"Goa","latitude":15.2993,"longitude":74.124,"temp":27.1,"humidity":95,"rain":0.0,"pressure":993.6,"uv_index":6.15,"wind_gusts":33.8,"aqi":60,"pm10":51.8,"pm2_5":27.6,"no2":7.9,"co":344.0,"o3":51.0,"so2":2.3,"mosquito_risk":7,"arthritis_risk":5,"migraine_risk":7,"frizz_risk":1,"updated_at":"2026-05-18T04:34:12.948412+05:30"},{"city":"Jodhpur","state":"Rajasthan","latitude":26.2389,"longitude":73.0243,"temp":31.6,"humidity":23,"rain":0.0,"pressure":977.9,"uv_index":8.35,"wind_gusts":42.8,"aqi":85,"pm10":278.5,"pm2_5":65.0,"no2":3.2,"co":153.0,"o3":64.0,"so2":3.1,"mosquito_risk":0,"arthritis_risk":5,"migraine_risk":7,"frizz_risk":0,"updated_at":"2026-05-18T04:34:12.948419+05:30"},{"city":"Udaipur","state":"Rajasthan","latitude":24.5854,"longitude":73.7125,"temp":31.3,"humidity":20,"rain":0.0,"pressure":942.5,"uv_index":8.85,"wind_gusts":45.0,"aqi":59,"pm10":39.0,"pm2_5":16.8,"no2":2.9,"co":134.0,"o3":63.0,"so2":3.4,"mosquito_risk":0,"arthritis_risk":5,"migraine_risk":7,"frizz_risk":0,"updated_at":"2026-05-18T04:34:12.948425+05:30"},{"city":"Kota","state":"Rajasthan","latitude":25.2138,"longitude":75.8648,"temp":33.0,"humidity":27,"rain":0.0,"pressure":972.9,"uv_index":8.4,"wind_gusts":36.7,"aqi":110,"pm10":100.6,"pm2_5":34.7,"no2":8.8,"co":186.0,"o3":50.0,"so2":4.4,"mosquito_risk":0,"arthritis_risk":5,"migraine_risk":7,"frizz_risk":0,"updated_at":"2026-05-18T04:34:12.948431+05:30"},{"city":"Bikaner","state":"Rajasthan","latitude":28.0229,"longitude":73.3119,"temp":32.2,"humidity":24,"rain":0.0,"pressure":975.8,"uv_index":8.4,"wind_gusts":42.5,"aqi":84,"pm10":170.0,"pm2_5":49.5,"no2":1.3,"co":136.0,"o3":78.0,"so2":2.2,"mosquito_risk":0,"arthritis_risk":5,"migraine_risk":7,"frizz_risk":0,"updated_at":"2026-05-18T04:34:12.948437+05:30"},{"city":"Ajmer","state":"Rajasthan","latitude":26.4499,"longitude":74.6399,"temp":30.4,"humidity":32,"rain":0.0,"pressure":950.0,"uv_index":8.4,"wind_gusts":41.8,"aqi":78,"pm10":71.2,"pm2_5":22.9,"no2":2.9,"co":177.0,"o3":82.0,"so2":5.4,"mosquito_risk":0,"arthritis_risk":5,"migraine_risk":7,"frizz_risk":0,"updated_at":"2026-05-18T04:34:12.948443+05:30"},{"city":"Gwalior","state":"Madhya Pradesh","latitude":26.2183,"longitude":78.1828,"temp":32.5,"humidity":27,"rain":0.0,"pressure":976.6,"uv_index":8.3,"wind_gusts":46.8,"aqi":163,"pm10":54.2,"pm2_5":23.6,"no2":5.6,"co":174.0,"o3":61.0,"so2":3.2,"mosquito_risk":0,"arthritis_risk":5,"migraine_risk":7,"frizz_risk":0,"updated_at":"2026-05-18T04:34:12.948449+05:30"},{"city":"Indore","state":"Madhya Pradesh","latitude":22.7196,"longitude":75.8577,"temp":30.9,"humidity":32,"rain":0.0,"pressure":943.4,"uv_index":8.5,"wind_gusts":37.8,"aqi":66,"pm10":34.6,"pm2_5":21.4,"no2":5.9,"co":232.0,"o3":58.0,"so2":5.2,"mosquito_risk":0,"arthritis_risk":5,"migraine_risk":7,"frizz_risk":0,"updated_at":"2026-05-18T04:34:12.948454+05:30"},{"city":"Bhopal","state":"Madhya Pradesh","latitude":23.2599,"longitude":77.4126,"temp":31.1,"humidity":28,"rain":0.0,"pressure":948.1,"uv_index":8.7,"wind_gusts":46.4,"aqi":62,"pm10":38.9,"pm2_5":29.7,"no2":14.7,"co":377.0,"o3":40.0,"so2":6.0,"mosquito_risk":0,"arthritis_risk":5,"migraine_risk":7,"frizz_risk":0,"updated_at":"2026-05-18T04:34:12.948460+05:30"},{"city":"Jabalpur","state":"Madhya Pradesh","latitude":23.1815,"longitude":79.9864,"temp":29.5,"humidity":44,"rain":0.0,"pressure":956.5,"uv_index":8.85,"wind_gusts":35.3,"aqi":84,"pm10":78.7,"pm2_5":40.7,"no2":36.9,"co":277.0,"o3":22.0,"so2":6.3,"mosquito_risk":4,"arthritis_risk":5,"migraine_risk":7,"frizz_risk":0,"updated_at":"2026-05-18T04:34:12.948466+05:30"},{"city":"Ujjain","state":"Madhya Pradesh","latitude":23.1765,"longitude":75.7885,"temp":30.2,"humidity":32,"rain":0.0,"pressure":948.8,"uv_index":8.6,"wind_gusts":37.8,"aqi":68,"pm10":32.5,"pm2_5":20.3,"no2":4.8,"co":338.0,"o3":56.0,"so2":4.2,"mosquito_risk":0,"arthritis_risk":5,"migraine_risk":7,"frizz_risk":0,"updated_at":"2026-05-18T04:34:12.948472+05:30"},{"city":"Visakhapatnam","state":"Andhra Pradesh","latitude":17.6868,"longitude":83.2185,"temp":28.6,"humidity":86,"rain":0.0,"pressure":999.7,"uv_index":9.0,"wind_gusts":47.5,"aqi":61,"pm10":26.9,"pm2_5":19.4,"no2":16.6,"co":322.0,"o3":57.0,"so2":30.2,"mosquito_risk":7,"arthritis_risk":5,"migraine_risk":7,"frizz_risk":1,"updated_at":"2026-05-18T04:34:12.948478+05:30"},{"city":"Vijayawada","state":"Andhra Pradesh","latitude":16.5062,"longitude":80.648,"temp":29.3,"humidity":81,"rain":0.0,"pressure":998.2,"uv_index":8.5,"wind_gusts":38.9,"aqi":55,"pm10":22.1,"pm2_5":16.8,"no2":6.5,"co":214.0,"o3":73.0,"so2":3.5,"mosquito_risk":7,"arthritis_risk":5,"migraine_risk":7,"frizz_risk":1,"updated_at":"2026-05-18T04:34:12.948483+05:30"},{"city":"Guntur","state":"Andhra Pradesh","latitude":16.3067,"longitude":80.4365,"temp":29.6,"humidity":79,"rain":0.0,"pressure":999.3,"uv_index":8.95,"wind_gusts":34.2,"aqi":53,"pm10":21.9,"pm2_5":16.6,"no2":5.8,"co":206.0,"o3":77.0,"so2":2.3,"mosquito_risk":7,"arthritis_risk":5,"migraine_risk":7,"frizz_risk":1,"updated_at":"2026-05-18T04:34:12.948489+05:30"},{"city":"Nellore","state":"Andhra Pradesh","latitude":14.4426,"longitude":79.9865,"temp":29.0,"humidity":82,"rain":0.0,"pressure":1000.8,"uv_index":9.15,"wind_gusts":41.0,"aqi":67,"pm10":22.9,"pm2_5":19.2,"no2":9.7,"co":224.0,"o3":76.0,"so2":16.5,"mosquito_risk":7,"arthritis_risk":5,"migraine_risk":4,"frizz_risk":1,"updated_at":"2026-05-18T04:34:12.948495+05:30"},{"city":"Kurnool","state":"Andhra Pradesh","latitude":15.8281,"longitude":78.0373,"temp":29.9,"humidity":62,"rain":0.0,"pressure":972.2,"uv_index":9.15,"wind_gusts":36.4,"aqi":60,"pm10":17.6,"pm2_5":15.9,"no2":4.9,"co":218.0,"o3":85.0,"so2":6.3,"mosquito_risk":7,"arthritis_risk":5,"migraine_risk":7,"frizz_risk":1,"updated_at":"2026-05-18T04:34:12.948502+05:30"},{"city":"Kakinada","state":"Andhra Pradesh","latitude":16.9891,"longitude":82.2475,"temp":29.1,"humidity":83,"rain":0.0,"pressure":1003.5,"uv_index":8.7,"wind_gusts":42.1,"aqi":53,"pm10":26.5,"pm2_5":16.8,"no2":1.9,"co":226.0,"o3":85.0,"so2":1.6,"mosquito_risk":7,"arthritis_risk":5,"migraine_risk":4,"frizz_risk":1,"updated_at":"2026-05-18T04:34:12.948508+05:30"},{"city":"Tirupati","state":"Andhra Pradesh","latitude":13.6288,"longitude":79.4192,"temp":27.1,"humidity":85,"rain":0.0,"pressure":986.5,"uv_index":9.1,"wind_gusts":34.2,"aqi":76,"pm10":24.3,"pm2_5":21.5,"no2":13.4,"co":291.0,"o3":59.0,"so2":16.7,"mosquito_risk":7,"arthritis_risk":5,"migraine_risk":7,"frizz_risk":1,"updated_at":"2026-05-18T04:34:12.948513+05:30"},{"city":"Warangal","state":"Telangana","latitude":17.9689,"longitude":79.5941,"temp":28.1,"humidity":73,"rain":0.0,"pressure":974.0,"uv_index":9.15,"wind_gusts":32.4,"aqi":67,"pm10":17.4,"pm2_5":14.8,"no2":9.0,"co":257.0,"o3":55.0,"so2":6.7,"mosquito_risk":7,"arthritis_risk":5,"migraine_risk":7,"frizz_risk":1,"updated_at":"2026-05-18T04:34:12.948519+05:30"},{"city":"Nizamabad","state":"Telangana","latitude":18.6725,"longitude":78.0941,"temp":29.7,"humidity":55,"rain":0.0,"pressure":960.4,"uv_index":9.15,"wind_gusts":32.0,"aqi":84,"pm10":25.6,"pm2_5":21.5,"no2":10.9,"co":285.0,"o3":69.0,"so2":5.9,"mosquito_risk":4,"arthritis_risk":5,"migraine_risk":7,"frizz_risk":1,"updated_at":"2026-05-18T04:34:12.948539+05:30"},{"city":"Mysore","state":"Karnataka","latitude":12.2958,"longitude":76.6396,"temp":22.9,"humidity":95,"rain":0.0,"pressure":924.5,"uv_index":4.15,"wind_gusts":38.9,"aqi":66,"pm10":7.4,"pm2_5":6.5,"no2":7.1,"co":217.0,"o3":55.0,"so2":2.6,"mosquito_risk":3,"arthritis_risk":5,"migraine_risk":3,"frizz_risk":1,"updated_at":"2026-05-18T04:34:12.948545+05:30"},{"city":"Mangalore","state":"Karnataka","latitude":12.9141,"longitude":74.856,"temp":25.1,"humidity":97,"rain":0.3,"pressure":1003.0,"uv_index":6.9,"wind_gusts":40.0,"aqi":57,"pm10":18.0,"pm2_5":12.2,"no2":6.8,"co":218.0,"o3":43.0,"so2":3.0,"mosquito_risk":10,"arthritis_risk":5,"migraine_risk":4,"frizz_risk":1,"updated_at":"2026-05-18T04:34:12.948552+05:30"},{"city":"Hubli-Dharwad","state":"Karnataka","latitude":15.3647,"longitude":75.124,"temp":24.4,"humidity":93,"rain":0.0,"pressure":936.6,"uv_index":8.85,"wind_gusts":40.3,"aqi":55,"pm10":19.8,"pm2_5":10.7,"no2":3.3,"co":150.0,"o3":51.0,"so2":1.8,"mosquito_risk":3,"arthritis_risk":5,"migraine_risk":7,"frizz_risk":1,"updated_at":"2026-05-18T04:34:12.948558+05:30"},{"city":"Belgaum","state":"Karnataka","latitude":15.8497,"longitude":74.4977,"temp":22.9,"humidity":98,"rain":0.0,"pressure":921.4,"uv_index":9.05,"wind_gusts":45.4,"aqi":56,"pm10":25.4,"pm2_5":14.4,"no2":5.5,"co":140.0,"o3":46.0,"so2":1.7,"mosquito_risk":3,"arthritis_risk":5,"migraine_risk":7,"frizz_risk":1,"updated_at":"2026-05-18T04:34:16.349052+05:30"},{"city":"Coimbatore","state":"Tamil Nadu","latitude":11.0168,"longitude":76.9558,"temp":23.8,"humidity":98,"rain":0.0,"pressure":957.6,"uv_index":7.65,"wind_gusts":48.6,"aqi":43,"pm10":4.7,"pm2_5":3.7,"no2":4.7,"co":172.0,"o3":58.0,"so2":2.6,"mosquito_risk":3,"arthritis_risk":5,"migraine_risk":7,"frizz_risk":1,"updated_at":"2026-05-18T04:34:16.349083+05:30"},{"city":"Madurai","state":"Tamil Nadu","latitude":9.9252,"longitude":78.1198,"temp":27.0,"humidity":80,"rain":0.0,"pressure":989.3,"uv_index":7.4,"wind_gusts":42.1,"aqi":81,"pm10":36.0,"pm2_5":32.4,"no2":40.7,"co":217.0,"o3":0.0,"so2":7.1,"mosquito_risk":7,"arthritis_risk":5,"migraine_risk":7,"frizz_risk":1,"updated_at":"2026-05-18T04:34:16.349092+05:30"},{"city":"Trichy","state":"Tamil Nadu","latitude":10.7905,"longitude":78.7047,"temp":26.5,"humidity":94,"rain":0.0,"pressure":995.8,"uv_index":7.7,"wind_gusts":31.0,"aqi":77,"pm10":22.6,"pm2_5":20.2,"no2":16.6,"co":259.0,"o3":45.0,"so2":4.5,"mosquito_risk":7,"arthritis_risk":5,"migraine_risk":7,"frizz_risk":1,"updated_at":"2026-05-18T04:34:16.349099+05:30"},{"city":"Salem","state":"Tamil Nadu","latitude":11.6643,"longitude":78.146,"temp":25.5,"humidity":95,"rain":0.0,"pressure":973.5,"uv_index":7.25,"wind_gusts":35.3,"aqi":80,"pm10":24.2,"pm2_5":21.2,"no2":14.3,"co":229.0,"o3":53.0,"so2":5.0,"mosquito_risk":7,"arthritis_risk":5,"migraine_risk":7,"frizz_risk":1,"updated_at":"2026-05-18T04:34:16.349107+05:30"},{"city":"Tirunelveli","state":"Tamil Nadu","latitude":8.7139,"longitude":77.7567,"temp":27.4,"humidity":81,"rain":0.0,"pressure":999.8,"uv_index":8.85,"wind_gusts":25.6,"aqi":27,"pm10":4.3,"pm2_5":3.9,"no2":4.1,"co":227.0,"o3":52.0,"so2":1.5,"mosquito_risk":7,"arthritis_risk":5,"migraine_risk":7,"frizz_risk":1,"updated_at":"2026-05-18T04:34:16.349113+05:30"},{"city":"Vellore","state":"Tamil Nadu","latitude":12.9165,"longitude":79.1325,"temp":26.9,"humidity":83,"rain":0.0,"pressure":979.8,"uv_index":7.9,"wind_gusts":34.6,"aqi":86,"pm10":28.0,"pm2_5":24.1,"no2":10.1,"co":321.0,"o3":58.0,"so2":6.3,"mosquito_risk":7,"arthritis_risk":5,"migraine_risk":7,"frizz_risk":1,"updated_at":"2026-05-18T04:34:16.349120+05:30"},{"city":"Erode","state":"Tamil Nadu","latitude":11.341,"longitude":77.7172,"temp":25.8,"humidity":93,"rain":0.0,"pressure":985.2,"uv_index":7.9,"wind_gusts":38.9,"aqi":62,"pm10":12.6,"pm2_5":11.2,"no2":13.7,"co":181.0,"o3":39.0,"so2":4.2,"mosquito_risk":7,"arthritis_risk":5,"migraine_risk":7,"frizz_risk":1,"updated_at":"2026-05-18T04:34:16.349126+05:30"},{"city":"Kochi","state":"Kerala","latitude":9.9312,"longitude":76.2673,"temp":25.3,"humidity":97,"rain":0.1,"pressure":1005.8,"uv_index":8.15,"wind_gusts":30.6,"aqi":51,"pm10":13.1,"pm2_5":11.4,"no2":11.9,"co":202.0,"o3":32.0,"so2":3.9,"mosquito_risk":10,"arthritis_risk":5,"migraine_risk":4,"frizz_risk":1,"updated_at":"2026-05-18T04:34:16.349133+05:30"},{"city":"Thiruvananthapuram","state":"Kerala","latitude":8.5241,"longitude":76.9366,"temp":24.0,"humidity":99,"rain":0.0,"pressure":1005.5,"uv_index":6.9,"wind_gusts":34.2,"aqi":34,"pm10":9.8,"pm2_5":6.3,"no2":2.6,"co":250.0,"o3":67.0,"so2":1.3,"mosquito_risk":3,"arthritis_risk":5,"migraine_risk":4,"frizz_risk":1,"updated_at":"2026-05-18T04:34:16.349139+05:30"},{"city":"Kozhikode","state":"Kerala","latitude":11.2588,"longitude":75.7804,"temp":24.4,"humidity":99,"rain":0.1,"pressure":1004.7,"uv_index":3.0,"wind_gusts":27.7,"aqi":46,"pm10":10.9,"pm2_5":6.4,"no2":1.3,"co":194.0,"o3":71.0,"so2":1.0,"mosquito_risk":6,"arthritis_risk":5,"migraine_risk":0,"frizz_risk":1,"updated_at":"2026-05-18T04:34:16.349145+05:30"},{"city":"Thrissur","state":"Kerala","latitude":10.5276,"longitude":76.2144,"temp":24.1,"humidity":99,"rain":0.4,"pressure":1004.1,"uv_index":6.25,"wind_gusts":28.4,"aqi":49,"pm10":12.0,"pm2_5":10.6,"no2":11.6,"co":226.0,"o3":33.0,"so2":4.1,"mosquito_risk":6,"arthritis_risk":5,"migraine_risk":4,"frizz_risk":1,"updated_at":"2026-05-18T04:34:16.349152+05:30"},{"city":"Kannur","state":"Kerala","latitude":11.8745,"longitude":75.3704,"temp":25.2,"humidity":98,"rain":0.1,"pressure":1003.9,"uv_index":2.4,"wind_gusts":31.7,"aqi":54,"pm10":9.4,"pm2_5":7.1,"no2":5.1,"co":226.0,"o3":55.0,"so2":2.2,"mosquito_risk":10,"arthritis_risk":5,"migraine_risk":0,"frizz_risk":1,"updated_at":"2026-05-18T04:34:16.349158+05:30"},{"city":"Patna","state":"Bihar","latitude":25.5941,"longitude":85.1376,"temp":27.1,"humidity":86,"rain":0.0,"pressure":994.1,"uv_index":8.8,"wind_gusts":27.7,"aqi":151,"pm10":73.3,"pm2_5":63.3,"no2":36.6,"co":505.0,"o3":25.0,"so2":14.7,"mosquito_risk":7,"arthritis_risk":5,"migraine_risk":7,"frizz_risk":1,"updated_at":"2026-05-18T04:34:16.349163+05:30"},{"city":"Gaya","state":"Bihar","latitude":24.7914,"longitude":85.0002,"temp":27.1,"humidity":45,"rain":0.0,"pressure":987.5,"uv_index":8.85,"wind_gusts":42.8,"aqi":132,"pm10":75.9,"pm2_5":39.2,"no2":19.2,"co":300.0,"o3":56.0,"so2":13.8,"mosquito_risk":4,"arthritis_risk":5,"migraine_risk":7,"frizz_risk":0,"updated_at":"2026-05-18T04:34:16.349169+05:30"},{"city":"Muzaffarpur","state":"Bihar","latitude":26.1209,"longitude":85.3647,"temp":26.0,"humidity":89,"rain":0.0,"pressure":994.4,"uv_index":8.85,"wind_gusts":35.6,"aqi":155,"pm10":57.2,"pm2_5":52.9,"no2":20.0,"co":495.0,"o3":57.0,"so2":13.2,"mosquito_risk":7,"arthritis_risk":5,"migraine_risk":7,"frizz_risk":1,"updated_at":"2026-05-18T04:34:16.349175+05:30"},{"city":"Bhagalpur","state":"Bihar","latitude":25.2425,"longitude":87.0117,"temp":26.2,"humidity":93,"rain":0.0,"pressure":995.3,"uv_index":8.8,"wind_gusts":34.9,"aqi":139,"pm10":58.8,"pm2_5":55.8,"no2":15.1,"co":570.0,"o3":56.0,"so2":6.8,"mosquito_risk":7,"arthritis_risk":5,"migraine_risk":7,"frizz_risk":1,"updated_at":"2026-05-18T04:34:16.349180+05:30"},{"city":"Ranchi","state":"Jharkhand","latitude":23.3441,"longitude":85.3096,"temp":24.5,"humidity":64,"rain":0.0,"pressure":933.2,"uv_index":9.25,"wind_gusts":39.2,"aqi":136,"pm10":72.9,"pm2_5":59.8,"no2":10.9,"co":334.0,"o3":104.0,"so2":14.3,"mosquito_risk":3,"arthritis_risk":5,"migraine_risk":7,"frizz_risk":1,"updated_at":"2026-05-18T04:34:16.349185+05:30"},{"city":"Jamshedpur","state":"Jharkhand","latitude":22.8046,"longitude":86.2029,"temp":27.0,"humidity":75,"rain":0.0,"pressure":985.8,"uv_index":9.05,"wind_gusts":37.4,"aqi":138,"pm10":56.1,"pm2_5":47.5,"no2":17.0,"co":291.0,"o3":83.0,"so2":28.0,"mosquito_risk":7,"arthritis_risk":5,"migraine_risk":7,"frizz_risk":1,"updated_at":"2026-05-18T04:34:16.349191+05:30"},{"city":"Dhanbad","state":"Jharkhand","latitude":23.7957,"longitude":86.4304,"temp":26.6,"humidity":65,"rain":0.0,"pressure":974.4,"uv_index":9.0,"wind_gusts":36.4,"aqi":152,"pm10":97.3,"pm2_5":82.2,"no2":44.4,"co":265.0,"o3":51.0,"so2":111.5,"mosquito_risk":7,"arthritis_risk":5,"migraine_risk":7,"frizz_risk":1,"updated_at":"2026-05-18T04:34:16.349197+05:30"},{"city":"Bokaro","state":"Jharkhand","latitude":23.6693,"longitude":86.1511,"temp":26.6,"humidity":63,"rain":0.0,"pressure":978.3,"uv_index":9.05,"wind_gusts":37.4,"aqi":148,"pm10":88.9,"pm2_5":71.2,"no2":40.0,"co":295.0,"o3":33.0,"so2":76.5,"mosquito_risk":7,"arthritis_risk":5,"migraine_risk":7,"frizz_risk":1,"updated_at":"2026-05-18T04:34:16.349202+05:30"},{"city":"Bhubaneswar","state":"Odisha","latitude":20.2961,"longitude":85.8245,"temp":28.5,"humidity":89,"rain":0.0,"pressure":997.8,"uv_index":9.1,"wind_gusts":43.6,"aqi":56,"pm10":15.0,"pm2_5":12.5,"no2":6.6,"co":193.0,"o3":57.0,"so2":5.3,"mosquito_risk":7,"arthritis_risk":5,"migraine_risk":7,"frizz_risk":1,"updated_at":"2026-05-18T04:34:16.349207+05:30"},{"city":"Cuttack","state":"Odisha","latitude":20.4625,"longitude":85.8828,"temp":28.5,"humidity":89,"rain":0.0,"pressure":999.5,"uv_index":9.15,"wind_gusts":41.8,"aqi":56,"pm10":15.0,"pm2_5":12.5,"no2":6.6,"co":202.0,"o3":57.0,"so2":5.3,"mosquito_risk":7,"arthritis_risk":5,"migraine_risk":7,"frizz_risk":1,"updated_at":"2026-05-18T04:34:16.349212+05:30"},{"city":"Rourkela","state":"Odisha","latitude":22.2604,"longitude":84.8536,"temp":27.4,"humidity":83,"rain":0.0,"pressure":980.7,"uv_index":8.95,"wind_gusts":38.9,"aqi":153,"pm10":81.0,"pm2_5":64.7,"no2":20.6,"co":269.0,"o3":70.0,"so2":17.9,"mosquito_risk":7,"arthritis_risk":5,"migraine_risk":7,"frizz_risk":1,"updated_at":"2026-05-18T04:34:16.349218+05:30"},{"city":"Raipur","state":"Chhattisgarh","latitude":21.2514,"longitude":81.6296,"temp":29.6,"humidity":54,"rain":0.0,"pressure":970.3,"uv_index":8.95,"wind_gusts":40.7,"aqi":115,"pm10":47.5,"pm2_5":40.3,"no2":28.6,"co":479.0,"o3":48.0,"so2":33.6,"mosquito_risk":4,"arthritis_risk":5,"migraine_risk":7,"frizz_risk":1,"updated_at":"2026-05-18T04:34:16.349223+05:30"},{"city":"Bhilai","state":"Chhattisgarh","latitude":21.1938,"longitude":81.3509,"temp":29.1,"humidity":62,"rain":0.0,"pressure":970.7,"uv_index":9.0,"wind_gusts":39.2,"aqi":100,"pm10":39.9,"pm2_5":34.2,"no2":24.9,"co":779.0,"o3":61.0,"so2":36.1,"mosquito_risk":7,"arthritis_risk":5,"migraine_risk":7,"frizz_risk":1,"updated_at":"2026-05-18T04:34:16.349227+05:30"},{"city":"Guwahati","state":"Assam","latitude":26.1158,"longitude":91.7086,"temp":22.1,"humidity":98,"rain":0.4,"pressure":998.7,"uv_index":8.6,"wind_gusts":33.1,"aqi":64,"pm10":18.8,"pm2_5":15.0,"no2":5.7,"co":290.0,"o3":84.0,"so2":3.0,"mosquito_risk":6,"arthritis_risk":5,"migraine_risk":7,"frizz_risk":1,"updated_at":"2026-05-18T04:34:16.349233+05:30"},{"city":"Agartala","state":"Tripura","latitude":23.8315,"longitude":91.2868,"temp":26.4,"humidity":92,"rain":0.0,"pressure":1002.2,"uv_index":8.9,"wind_gusts":41.4,"aqi":67,"pm10":17.8,"pm2_5":12.6,"no2":8.7,"co":180.0,"o3":40.0,"so2":1.9,"mosquito_risk":7,"arthritis_risk":5,"migraine_risk":4,"frizz_risk":1,"updated_at":"2026-05-18T04:34:16.349238+05:30"},{"city":"Shillong","state":"Meghalaya","latitude":25.5788,"longitude":91.8933,"temp":18.5,"humidity":93,"rain":0.0,"pressure":853.4,"uv_index":5.95,"wind_gusts":40.0,"aqi":48,"pm10":9.4,"pm2_5":5.5,"no2":3.8,"co":225.0,"o3":99.0,"so2":4.9,"mosquito_risk":3,"arthritis_risk":10,"migraine_risk":3,"frizz_risk":1,"updated_at":"2026-05-18T04:34:16.349242+05:30"},{"city":"Imphal","state":"Manipur","latitude":24.817,"longitude":93.9368,"temp":20.4,"humidity":94,"rain":0.0,"pressure":919.7,"uv_index":8.8,"wind_gusts":36.4,"aqi":62,"pm10":18.8,"pm2_5":16.3,"no2":9.9,"co":452.0,"o3":19.0,"so2":2.2,"mosquito_risk":3,"arthritis_risk":5,"migraine_risk":7,"frizz_risk":1,"updated_at":"2026-05-18T04:34:16.349248+05:30"},{"city":"Aizawl","state":"Mizoram","latitude":23.7271,"longitude":92.7176,"temp":17.8,"humidity":97,"rain":0.0,"pressure":889.0,"uv_index":9.05,"wind_gusts":39.6,"aqi":59,"pm10":26.8,"pm2_5":16.7,"no2":4.2,"co":150.0,"o3":53.0,"so2":3.2,"mosquito_risk":3,"arthritis_risk":10,"migraine_risk":7,"frizz_risk":1,"updated_at":"2026-05-18T04:34:16.349253+05:30"},{"city":"Kohima","state":"Nagaland","latitude":25.6701,"longitude":94.1077,"temp":16.2,"humidity":94,"rain":0.1,"pressure":850.6,"uv_index":5.7,"wind_gusts":29.5,"aqi":55,"pm10":16.8,"pm2_5":13.6,"no2":5.1,"co":215.0,"o3":36.0,"so2":1.4,"mosquito_risk":6,"arthritis_risk":10,"migraine_risk":3,"frizz_risk":0,"updated_at":"2026-05-18T04:34:16.349258+05:30"},{"city":"Gangtok","state":"Sikkim","latitude":27.3314,"longitude":88.6138,"temp":14.5,"humidity":84,"rain":0.0,"pressure":832.5,"uv_index":9.15,"wind_gusts":39.2,"aqi":65,"pm10":14.8,"pm2_5":13.2,"no2":10.6,"co":599.0,"o3":59.0,"so2":1.5,"mosquito_risk":3,"arthritis_risk":10,"migraine_risk":7,"frizz_risk":0,"updated_at":"2026-05-18T04:34:16.349263+05:30"},{"city":"Siliguri","state":"West Bengal","latitude":26.7271,"longitude":88.3953,"temp":22.0,"humidity":96,"rain":0.0,"pressure":989.6,"uv_index":8.75,"wind_gusts":29.9,"aqi":96,"pm10":50.2,"pm2_5":42.0,"no2":15.9,"co":345.0,"o3":80.0,"so2":6.9,"mosquito_risk":3,"arthritis_risk":5,"migraine_risk":7,"frizz_risk":1,"updated_at":"2026-05-18T04:34:19.738077+05:30"},{"city":"Durgapur","state":"West Bengal","latitude":23.5204,"longitude":87.3119,"temp":27.5,"humidity":85,"rain":0.0,"pressure":989.4,"uv_index":8.95,"wind_gusts":33.5,"aqi":145,"pm10":68.2,"pm2_5":61.2,"no2":31.1,"co":743.0,"o3":60.0,"so2":49.6,"mosquito_risk":7,"arthritis_risk":5,"migraine_risk":7,"frizz_risk":1,"updated_at":"2026-05-18T04:34:19.738110+05:30"},{"city":"Asansol","state":"West Bengal","latitude":23.6739,"longitude":86.9524,"temp":27.4,"humidity":76,"rain":0.0,"pressure":987.9,"uv_index":9.0,"wind_gusts":34.9,"aqi":145,"pm10":80.8,"pm2_5":70.1,"no2":34.3,"co":568.0,"o3":59.0,"so2":60.0,"mosquito_risk":7,"arthritis_risk":5,"migraine_risk":7,"frizz_risk":1,"updated_at":"2026-05-18T04:34:19.738119+05:30"},{"city":"Pondicherry","state":"Puducherry","latitude":11.9139,"longitude":79.8145,"temp":27.2,"humidity":89,"rain":0.0,"pressure":1004.0,"uv_index":8.4,"wind_gusts":40.0,"aqi":70,"pm10":15.4,"pm2_5":12.5,"no2":9.3,"co":273.0,"o3":70.0,"so2":10.4,"mosquito_risk":7,"arthritis_risk":5,"migraine_risk":4,"frizz_risk":1,"updated_at":"2026-05-18T04:34:19.738126+05:30"},{"city":"Port Blair","state":"Andaman and Nicobar Islands","latitude":11.6234,"longitude":92.7265,"temp":27.1,"humidity":90,"rain":0.0,"pressure":1003.9,"uv_index":8.95,"wind_gusts":45.7,"aqi":21,"pm10":7.3,"pm2_5":4.3,"no2":0.3,"co":96.0,"o3":46.0,"so2":0.2,"mosquito_risk":7,"arthritis_risk":5,"migraine_risk":4,"frizz_risk":1,"updated_at":"2026-05-18T04:34:19.738133+05:30"},{"city":"Haridwar","state":"Uttarakhand","latitude":29.9457,"longitude":78.1642,"temp":21.6,"humidity":76,"rain":0.0,"pressure":965.3,"uv_index":7.55,"wind_gusts":27.4,"aqi":79,"pm10":34.7,"pm2_5":33.6,"no2":35.4,"co":299.0,"o3":7.0,"so2":4.6,"mosquito_risk":3,"arthritis_risk":5,"migraine_risk":7,"frizz_risk":1,"updated_at":"2026-05-18T04:34:19.738140+05:30"},{"city":"Rishikesh","state":"Uttarakhand","latitude":30.0869,"longitude":78.2676,"temp":19.7,"humidity":76,"rain":0.0,"pressure":957.7,"uv_index":7.65,"wind_gusts":28.1,"aqi":67,"pm10":28.3,"pm2_5":25.4,"no2":21.0,"co":313.0,"o3":40.0,"so2":4.2,"mosquito_risk":3,"arthritis_risk":5,"migraine_risk":7,"frizz_risk":0,"updated_at":"2026-05-18T04:34:19.738146+05:30"},{"city":"Nainital","state":"Uttarakhand","latitude":29.3919,"longitude":79.4542,"temp":15.4,"humidity":57,"rain":0.0,"pressure":799.6,"uv_index":8.5,"wind_gusts":29.9,"aqi":67,"pm10":26.8,"pm2_5":22.4,"no2":19.8,"co":245.0,"o3":70.0,"so2":4.8,"mosquito_risk":0,"arthritis_risk":5,"migraine_risk":7,"frizz_risk":0,"updated_at":"2026-05-18T04:34:19.738152+05:30"},{"city":"Mussoorie","state":"Uttarakhand","latitude":30.4599,"longitude":78.0664,"temp":16.3,"humidity":54,"rain":0.0,"pressure":797.3,"uv_index":8.05,"wind_gusts":45.4,"aqi":68,"pm10":25.3,"pm2_5":23.5,"no2":33.1,"co":207.0,"o3":9.0,"so2":3.7,"mosquito_risk":0,"arthritis_risk":5,"migraine_risk":7,"frizz_risk":0,"updated_at":"2026-05-18T04:34:19.738159+05:30"},{"city":"Dharamshala","state":"Himachal Pradesh","latitude":32.219,"longitude":76.3234,"temp":22.2,"humidity":37,"rain":0.0,"pressure":863.4,"uv_index":8.45,"wind_gusts":41.4,"aqi":41,"pm10":4.6,"pm2_5":3.6,"no2":6.9,"co":174.0,"o3":61.0,"so2":0.0,"mosquito_risk":0,"arthritis_risk":5,"migraine_risk":7,"frizz_risk":0,"updated_at":"2026-05-18T04:34:19.738165+05:30"},{"city":"Dalhousie","state":"Himachal Pradesh","latitude":32.5387,"longitude":75.971,"temp":10.6,"humidity":74,"rain":0.0,"pressure":795.1,"uv_index":8.7,"wind_gusts":39.6,"aqi":63,"pm10":14.0,"pm2_5":12.6,"no2":11.5,"co":239.0,"o3":45.0,"so2":0.4,"mosquito_risk":3,"arthritis_risk":5,"migraine_risk":7,"frizz_risk":0,"updated_at":"2026-05-18T04:34:19.738171+05:30"},{"city":"Patiala","state":"Punjab","latitude":30.3398,"longitude":76.3869,"temp":27.5,"humidity":47,"rain":0.0,"pressure":970.5,"uv_index":7.65,"wind_gusts":33.8,"aqi":624,"pm10":696.6,"pm2_5":117.1,"no2":9.5,"co":439.0,"o3":68.0,"so2":8.2,"mosquito_risk":4,"arthritis_risk":5,"migraine_risk":7,"frizz_risk":0,"updated_at":"2026-05-18T04:34:19.738177+05:30"},{"city":"Bhatinda","state":"Punjab","latitude":30.211,"longitude":74.9455,"temp":28.7,"humidity":51,"rain":0.0,"pressure":976.2,"uv_index":8.3,"wind_gusts":40.3,"aqi":85,"pm10":55.2,"pm2_5":31.7,"no2":9.0,"co":382.0,"o3":82.0,"so2":7.0,"mosquito_risk":4,"arthritis_risk":5,"migraine_risk":7,"frizz_risk":1,"updated_at":"2026-05-18T04:34:19.738182+05:30"},{"city":"Rohtak","state":"Haryana","latitude":28.8955,"longitude":76.6066,"temp":26.6,"humidity":48,"rain":0.0,"pressure":974.5,"uv_index":7.75,"wind_gusts":41.8,"aqi":766,"pm10":631.4,"pm2_5":149.5,"no2":18.2,"co":338.0,"o3":47.0,"so2":7.2,"mosquito_risk":4,"arthritis_risk":5,"migraine_risk":7,"frizz_risk":0,"updated_at":"2026-05-18T04:34:19.738189+05:30"},{"city":"Panipat","state":"Haryana","latitude":29.3909,"longitude":76.9635,"temp":27.6,"humidity":46,"rain":0.0,"pressure":972.6,"uv_index":7.6,"wind_gusts":34.6,"aqi":1826,"pm10":1732.3,"pm2_5":294.3,"no2":10.9,"co":387.0,"o3":69.0,"so2":9.2,"mosquito_risk":4,"arthritis_risk":5,"migraine_risk":7,"frizz_risk":0,"updated_at":"2026-05-18T04:34:19.738194+05:30"},{"city":"Mathura","state":"Uttar Pradesh","latitude":27.4924,"longitude":77.6737,"temp":28.8,"humidity":40,"rain":0.0,"pressure":979.6,"uv_index":8.0,"wind_gusts":38.2,"aqi":498,"pm10":210.5,"pm2_5":53.9,"no2":12.9,"co":314.0,"o3":36.0,"so2":5.1,"mosquito_risk":4,"arthritis_risk":5,"migraine_risk":7,"frizz_risk":0,"updated_at":"2026-05-18T04:34:19.738201+05:30"},{"city":"Vrindavan","state":"Uttar Pradesh","latitude":27.5823,"longitude":77.7027,"temp":28.0,"humidity":44,"rain":0.0,"pressure":979.9,"uv_index":8.0,"wind_gusts":36.4,"aqi":498,"pm10":210.5,"pm2_5":53.9,"no2":12.9,"co":294.0,"o3":36.0,"so2":5.1,"mosquito_risk":4,"arthritis_risk":5,"migraine_risk":7,"frizz_risk":0,"updated_at":"2026-05-18T04:34:19.738207+05:30"},{"city":"Ayodhya","state":"Uttar Pradesh","latitude":26.7922,"longitude":82.1998,"temp":26.9,"humidity":66,"rain":0.0,"pressure":988.4,"uv_index":8.35,"wind_gusts":24.8,"aqi":152,"pm10":308.3,"pm2_5":96.4,"no2":27.8,"co":438.0,"o3":37.0,"so2":10.1,"mosquito_risk":7,"arthritis_risk":5,"migraine_risk":7,"frizz_risk":1,"updated_at":"2026-05-18T04:34:19.738213+05:30"},{"city":"Ratlam","state":"Madhya Pradesh","latitude":23.3315,"longitude":75.0367,"temp":29.0,"humidity":38,"rain":0.0,"pressure":949.9,"uv_index":8.55,"wind_gusts":44.6,"aqi":63,"pm10":30.5,"pm2_5":17.8,"no2":3.7,"co":218.0,"o3":59.0,"so2":3.6,"mosquito_risk":4,"arthritis_risk":5,"migraine_risk":7,"frizz_risk":0,"updated_at":"2026-05-18T04:34:19.738219+05:30"},{"city":"Sagar","state":"Madhya Pradesh","latitude":23.8388,"longitude":78.7378,"temp":30.1,"humidity":32,"rain":0.0,"pressure":945.0,"uv_index":8.75,"wind_gusts":42.8,"aqi":85,"pm10":84.5,"pm2_5":30.6,"no2":17.0,"co":257.0,"o3":56.0,"so2":3.9,"mosquito_risk":0,"arthritis_risk":5,"migraine_risk":7,"frizz_risk":0,"updated_at":"2026-05-18T04:34:19.738225+05:30"},{"city":"Satna","state":"Madhya Pradesh","latitude":24.6005,"longitude":80.8322,"temp":29.5,"humidity":34,"rain":0.0,"pressure":965.5,"uv_index":8.8,"wind_gusts":53.6,"aqi":101,"pm10":91.7,"pm2_5":35.9,"no2":25.8,"co":277.0,"o3":40.0,"so2":4.5,"mosquito_risk":4,"arthritis_risk":5,"migraine_risk":7,"frizz_risk":0,"updated_at":"2026-05-18T04:34:19.738231+05:30"},{"city":"Akola","state":"Maharashtra","latitude":20.7002,"longitude":77.0082,"temp":32.5,"humidity":30,"rain":0.0,"pressure":970.0,"uv_index":8.9,"wind_gusts":31.3,"aqi":53,"pm10":22.7,"pm2_5":13.9,"no2":8.9,"co":194.0,"o3":70.0,"so2":8.4,"mosquito_risk":0,"arthritis_risk":5,"migraine_risk":7,"frizz_risk":0,"updated_at":"2026-05-18T04:34:19.738238+05:30"},{"city":"Amravati","state":"Maharashtra","latitude":20.9374,"longitude":77.7796,"temp":31.9,"humidity":28,"rain":0.0,"pressure":962.4,"uv_index":8.9,"wind_gusts":28.4,"aqi":61,"pm10":23.2,"pm2_5":15.7,"no2":15.4,"co":252.0,"o3":54.0,"so2":7.4,"mosquito_risk":0,"arthritis_risk":5,"migraine_risk":7,"frizz_risk":0,"updated_at":"2026-05-18T04:34:19.738245+05:30"},{"city":"Latur","state":"Maharashtra","latitude":18.4088,"longitude":76.5604,"temp":29.9,"humidity":53,"rain":0.0,"pressure":935.9,"uv_index":8.9,"wind_gusts":34.9,"aqi":73,"pm10":33.6,"pm2_5":28.6,"no2":14.0,"co":255.0,"o3":66.0,"so2":8.0,"mosquito_risk":4,"arthritis_risk":5,"migraine_risk":7,"frizz_risk":1,"updated_at":"2026-05-18T04:34:19.738251+05:30"},{"city":"Nanded","state":"Maharashtra","latitude":19.1383,"longitude":77.3091,"temp":31.8,"humidity":48,"rain":0.0,"pressure":964.1,"uv_index":9.0,"wind_gusts":29.5,"aqi":74,"pm10":40.4,"pm2_5":34.3,"no2":22.0,"co":302.0,"o3":45.0,"so2":5.7,"mosquito_risk":0,"arthritis_risk":5,"migraine_risk":7,"frizz_risk":1,"updated_at":"2026-05-18T04:34:19.738257+05:30"},{"city":"Gulbarga","state":"Karnataka","latitude":17.3297,"longitude":76.8343,"temp":29.8,"humidity":55,"rain":0.0,"pressure":954.4,"uv_index":9.1,"wind_gusts":38.5,"aqi":87,"pm10":32.5,"pm2_5":27.2,"no2":13.2,"co":221.0,"o3":63.0,"so2":11.1,"mosquito_risk":4,"arthritis_risk":5,"migraine_risk":7,"frizz_risk":1,"updated_at":"2026-05-18T04:34:19.738262+05:30"},{"city":"Bidar","state":"Karnataka","latitude":17.9104,"longitude":77.5199,"temp":28.6,"humidity":54,"rain":0.0,"pressure":931.6,"uv_index":9.1,"wind_gusts":29.5,"aqi":87,"pm10":23.7,"pm2_5":19.7,"no2":10.6,"co":255.0,"o3":67.0,"so2":4.6,"mosquito_risk":4,"arthritis_risk":5,"migraine_risk":7,"frizz_risk":1,"updated_at":"2026-05-18T04:34:19.738267+05:30"},{"city":"Hospet","state":"Karnataka","latitude":15.2689,"longitude":76.3909,"temp":25.5,"humidity":93,"rain":0.0,"pressure":951.3,"uv_index":8.85,"wind_gusts":49.0,"aqi":69,"pm10":12.8,"pm2_5":10.0,"no2":9.4,"co":200.0,"o3":36.0,"so2":2.1,"mosquito_risk":7,"arthritis_risk":5,"migraine_risk":7,"frizz_risk":1,"updated_at":"2026-05-18T04:34:19.738273+05:30"},{"city":"Tirupur","state":"Tamil Nadu","latitude":11.1085,"longitude":77.3411,"temp":24.6,"humidity":92,"rain":0.0,"pressure":971.2,"uv_index":4.6,"wind_gusts":47.5,"aqi":64,"pm10":14.0,"pm2_5":12.4,"no2":13.8,"co":161.0,"o3":39.0,"so2":4.5,"mosquito_risk":3,"arthritis_risk":5,"migraine_risk":3,"frizz_risk":1,"updated_at":"2026-05-18T04:34:19.738278+05:30"},{"city":"Alappuzha","state":"Kerala","latitude":9.4981,"longitude":76.3388,"temp":25.0,"humidity":99,"rain":0.0,"pressure":1005.9,"uv_index":6.0,"wind_gusts":30.6,"aqi":44,"pm10":10.2,"pm2_5":7.5,"no2":5.8,"co":198.0,"o3":55.0,"so2":1.6,"mosquito_risk":7,"arthritis_risk":5,"migraine_risk":0,"frizz_risk":1,"updated_at":"2026-05-18T04:34:19.738283+05:30"},{"city":"Munnar","state":"Kerala","latitude":10.0889,"longitude":77.0595,"temp":18.0,"humidity":99,"rain":0.0,"pressure":853.8,"uv_index":5.8,"wind_gusts":25.2,"aqi":27,"pm10":5.4,"pm2_5":5.2,"no2":5.8,"co":173.0,"o3":36.0,"so2":1.4,"mosquito_risk":3,"arthritis_risk":10,"migraine_risk":3,"frizz_risk":1,"updated_at":"2026-05-18T04:34:19.738289+05:30"},{"city":"Silchar","state":"Assam","latitude":24.8333,"longitude":92.7789,"temp":24.4,"humidity":97,"rain":0.1,"pressure":1001.8,"uv_index":8.7,"wind_gusts":28.4,"aqi":54,"pm10":17.6,"pm2_5":12.0,"no2":7.7,"co":265.0,"o3":54.0,"so2":3.1,"mosquito_risk":6,"arthritis_risk":5,"migraine_risk":4,"frizz_risk":1,"updated_at":"2026-05-18T04:34:19.738294+05:30"},{"city":"Dibrugarh","state":"Assam","latitude":27.4728,"longitude":94.912,"temp":21.5,"humidity":99,"rain":0.4,"pressure":993.1,"uv_index":7.1,"wind_gusts":24.5,"aqi":67,"pm10":16.8,"pm2_5":12.6,"no2":9.8,"co":253.0,"o3":59.0,"so2":1.0,"mosquito_risk":6,"arthritis_risk":5,"migraine_risk":7,"frizz_risk":1,"updated_at":"2026-05-18T04:34:19.738300+05:30"}]