[{"city":"Delhi","state":"Delhi","latitude":28.6139,"longitude":77.209,"temp":17.8,"humidity":78,"rain":0.0,"pressure":986.7,"uv_index":5.85,"wind_gusts":37.1,"aqi":350,"pm10":292.4,"pm2_5":75.2,"mosquito_risk":3,"arthritis_risk":5,"migraine_risk":3,"frizz_risk":0,"updated_at":"2026-03-04T03:07:16.769705+05:30"},{"city":"Mumbai","state":"Maharashtra","latitude":19.076,"longitude":72.8777,"temp":28.0,"humidity":64,"rain":0.0,"pressure":1009.6,"uv_index":7.4,"wind_gusts":25.6,"aqi":117,"pm10":39.8,"pm2_5":39.2,"mosquito_risk":7,"arthritis_risk":0,"migraine_risk":4,"frizz_risk":1,"updated_at":"2026-03-04T03:07:16.769749+05:30"},{"city":"Bangalore","state":"Karnataka","latitude":12.9716,"longitude":77.5946,"temp":20.0,"humidity":70,"rain":0.0,"pressure":912.2,"uv_index":9.1,"wind_gusts":36.7,"aqi":97,"pm10":31.2,"pm2_5":30.2,"mosquito_risk":3,"arthritis_risk":5,"migraine_risk":7,"frizz_risk":0,"updated_at":"2026-03-04T03:07:16.769764+05:30"},{"city":"Hyderabad","state":"Telangana","latitude":17.385,"longitude":78.4867,"temp":23.6,"humidity":59,"rain":0.0,"pressure":955.1,"uv_index":8.4,"wind_gusts":24.5,"aqi":122,"pm10":48.8,"pm2_5":47.7,"mosquito_risk":0,"arthritis_risk":5,"migraine_risk":7,"frizz_risk":0,"updated_at":"2026-03-04T03:07:16.769774+05:30"},{"city":"Chennai","state":"Tamil Nadu","latitude":13.0827,"longitude":80.2707,"temp":23.8,"humidity":88,"rain":0.0,"pressure":1009.2,"uv_index":8.8,"wind_gusts":28.4,"aqi":102,"pm10":36.6,"pm2_5":32.7,"mosquito_risk":3,"arthritis_risk":0,"migraine_risk":4,"frizz_risk":1,"updated_at":"2026-03-04T03:07:16.769783+05:30"},{"city":"Kolkata","state":"West Bengal","latitude":22.5726,"longitude":88.3639,"temp":20.6,"humidity":75,"rain":0.0,"pressure":1009.6,"uv_index":7.75,"wind_gusts":18.7,"aqi":166,"pm10":138.8,"pm2_5":106.9,"mosquito_risk":3,"arthritis_risk":0,"migraine_risk":4,"frizz_risk":0,"updated_at":"2026-03-04T03:07:16.769792+05:30"},{"city":"Pune","state":"Maharashtra","latitude":18.5204,"longitude":73.8567,"temp":22.1,"humidity":73,"rain":0.0,"pressure":949.7,"uv_index":7.95,"wind_gusts":31.3,"aqi":83,"pm10":33.3,"pm2_5":32.4,"mosquito_risk":3,"arthritis_risk":5,"migraine_risk":7,"frizz_risk":1,"updated_at":"2026-03-04T03:07:16.769804+05:30"},{"city":"Ahmedabad","state":"Gujarat","latitude":23.0225,"longitude":72.5714,"temp":22.9,"humidity":63,"rain":0.0,"pressure":1006.0,"uv_index":7.2,"wind_gusts":19.1,"aqi":90,"pm10":49.7,"pm2_5":40.4,"mosquito_risk":3,"arthritis_risk":5,"migraine_risk":4,"frizz_risk":0,"updated_at":"2026-03-04T03:07:16.769812+05:30"},{"city":"Jaipur","state":"Rajasthan","latitude":26.9124,"longitude":75.7873,"temp":21.0,"humidity":36,"rain":0.0,"pressure":963.8,"uv_index":6.6,"wind_gusts":33.5,"aqi":110,"pm10":77.5,"pm2_5":45.9,"mosquito_risk":0,"arthritis_risk":5,"migraine_risk":7,"frizz_risk":0,"updated_at":"2026-03-04T03:07:16.769820+05:30"},{"city":"Lucknow","state":"Uttar Pradesh","latitude":26.8467,"longitude":80.9462,"temp":18.0,"humidity":76,"rain":0.0,"pressure":997.1,"uv_index":6.35,"wind_gusts":26.3,"aqi":153,"pm10":286.8,"pm2_5":66.8,"mosquito_risk":3,"arthritis_risk":5,"migraine_risk":7,"frizz_risk":0,"updated_at":"2026-03-04T03:07:16.769828+05:30"},{"city":"Kanpur","state":"Uttar Pradesh","latitude":26.4499,"longitude":80.3319,"temp":16.6,"humidity":84,"rain":0.0,"pressure":995.5,"uv_index":6.35,"wind_gusts":29.9,"aqi":181,"pm10":320.4,"pm2_5":63.1,"mosquito_risk":3,"arthritis_risk":10,"migraine_risk":7,"frizz_risk":0,"updated_at":"2026-03-04T03:07:16.769836+05:30"},{"city":"Chandigarh","state":"Chandigarh","latitude":30.7333,"longitude":76.7794,"temp":16.6,"humidity":77,"rain":0.0,"pressure":971.8,"uv_index":5.75,"wind_gusts":36.0,"aqi":88,"pm10":33.8,"pm2_5":30.5,"mosquito_risk":3,"arthritis_risk":5,"migraine_risk":3,"frizz_risk":0,"updated_at":"2026-03-04T03:07:16.769843+05:30"},{"city":"Srinagar","state":"Jammu and Kashmir","latitude":34.0837,"longitude":74.7973,"temp":4.5,"humidity":79,"rain":0.0,"pressure":841.2,"uv_index":6.45,"wind_gusts":15.8,"aqi":140,"pm10":80.3,"pm2_5":69.6,"mosquito_risk":3,"arthritis_risk":5,"migraine_risk":7,"frizz_risk":0,"updated_at":"2026-03-04T03:07:16.769850+05:30"},{"city":"Jammu","state":"Jammu and Kashmir","latitude":32.7266,"longitude":74.857,"temp":15.2,"humidity":84,"rain":0.0,"pressure":976.5,"uv_index":6.35,"wind_gusts":27.0,"aqi":109,"pm10":48.7,"pm2_5":44.9,"mosquito_risk":3,"arthritis_risk":10,"migraine_risk":7,"frizz_risk":0,"updated_at":"2026-03-04T03:07:16.769857+05:30"},{"city":"Amritsar","state":"Punjab","latitude":31.634,"longitude":74.8723,"temp":17.0,"humidity":70,"rain":0.0,"pressure":984.8,"uv_index":6.3,"wind_gusts":22.7,"aqi":110,"pm10":99.0,"pm2_5":84.1,"mosquito_risk":3,"arthritis_risk":5,"migraine_risk":7,"frizz_risk":0,"updated_at":"2026-03-04T03:07:16.769864+05:30"},{"city":"Ludhiana","state":"Punjab","latitude":30.901,"longitude":75.8573,"temp":18.7,"humidity":70,"rain":0.0,"pressure":982.6,"uv_index":6.0,"wind_gusts":32.4,"aqi":148,"pm10":95.0,"pm2_5":86.6,"mosquito_risk":3,"arthritis_risk":5,"migraine_risk":3,"frizz_risk":0,"updated_at":"2026-03-04T03:07:16.769871+05:30"},{"city":"Jalandhar","state":"Punjab","latitude":31.326,"longitude":75.5762,"temp":15.3,"humidity":88,"rain":0.0,"pressure":983.7,"uv_index":6.15,"wind_gusts":29.2,"aqi":146,"pm10":103.4,"pm2_5":91.7,"mosquito_risk":3,"arthritis_risk":10,"migraine_risk":7,"frizz_risk":0,"updated_at":"2026-03-04T03:07:16.769880+05:30"},{"city":"Dehradun","state":"Uttarakhand","latitude":30.6284,"longitude":78.0322,"temp":10.7,"humidity":47,"rain":0.0,"pressure":829.0,"uv_index":6.1,"wind_gusts":32.0,"aqi":62,"pm10":19.0,"pm2_5":17.8,"mosquito_risk":0,"arthritis_risk":5,"migraine_risk":7,"frizz_risk":1,"updated_at":"2026-03-04T03:07:16.769887+05:30"},{"city":"Shimla","state":"Himachal Pradesh","latitude":31.1048,"longitude":77.1734,"temp":9.6,"humidity":51,"rain":0.0,"pressure":783.6,"uv_index":6.15,"wind_gusts":55.1,"aqi":72,"pm10":35.9,"pm2_5":29.7,"mosquito_risk":0,"arthritis_risk":5,"migraine_risk":7,"frizz_risk":0,"updated_at":"2026-03-04T03:07:16.769895+05:30"},{"city":"Manali","state":"Himachal Pradesh","latitude":32.2396,"longitude":77.1887,"temp":16.9,"humidity":15,"rain":0.0,"pressure":821.8,"uv_index":7.35,"wind_gusts":32.4,"aqi":50,"pm10":18.3,"pm2_5":14.3,"mosquito_risk":0,"arthritis_risk":5,"migraine_risk":7,"frizz_risk":1,"updated_at":"2026-03-04T03:07:16.769904+05:30"},{"city":"Gurgaon","state":"Haryana","latitude":28.4595,"longitude":77.0266,"temp":15.1,"humidity":87,"rain":0.0,"pressure":985.2,"uv_index":5.95,"wind_gusts":36.0,"aqi":1221,"pm10":1002.1,"pm2_5":138.3,"mosquito_risk":3,"arthritis_risk":10,"migraine_risk":3,"frizz_risk":0,"updated_at":"2026-03-04T03:07:16.769911+05:30"},{"city":"Noida","state":"Uttar Pradesh","latitude":28.5355,"longitude":77.391,"temp":18.3,"humidity":75,"rain":0.0,"pressure":988.2,"uv_index":5.85,"wind_gusts":36.4,"aqi":1221,"pm10":1002.1,"pm2_5":138.3,"mosquito_risk":3,"arthritis_risk":5,"migraine_risk":3,"frizz_risk":0,"updated_at":"2026-03-04T03:07:16.769918+05:30"},{"city":"Ghaziabad","state":"Uttar Pradesh","latitude":28.6692,"longitude":77.4538,"temp":17.7,"humidity":79,"rain":0.0,"pressure":986.3,"uv_index":5.85,"wind_gusts":33.8,"aqi":268,"pm10":255.2,"pm2_5":75.9,"mosquito_risk":3,"arthritis_risk":5,"migraine_risk":3,"frizz_risk":0,"updated_at":"2026-03-04T03:07:16.769924+05:30"},{"city":"Faridabad","state":"Haryana","latitude":28.4089,"longitude":77.3178,"temp":17.2,"humidity":73,"rain":0.0,"pressure":987.4,"uv_index":5.9,"wind_gusts":34.6,"aqi":1221,"pm10":1002.1,"pm2_5":138.3,"mosquito_risk":3,"arthritis_risk":5,"migraine_risk":3,"frizz_risk":0,"updated_at":"2026-03-04T03:07:16.769931+05:30"},{"city":"Meerut","state":"Uttar Pradesh","latitude":28.9845,"longitude":77.7064,"temp":16.0,"humidity":88,"rain":0.0,"pressure":984.8,"uv_index":5.7,"wind_gusts":36.4,"aqi":268,"pm10":255.2,"pm2_5":75.9,"mosquito_risk":3,"arthritis_risk":10,"migraine_risk":3,"frizz_risk":0,"updated_at":"2026-03-04T03:07:16.769937+05:30"},{"city":"Agra","state":"Uttar Pradesh","latitude":27.1767,"longitude":78.0081,"temp":16.0,"humidity":70,"rain":0.0,"pressure":991.6,"uv_index":6.2,"wind_gusts":37.4,"aqi":410,"pm10":377.2,"pm2_5":70.1,"mosquito_risk":3,"arthritis_risk":5,"migraine_risk":7,"frizz_risk":0,"updated_at":"2026-03-04T03:07:16.769943+05:30"},{"city":"Varanasi","state":"Uttar Pradesh","latitude":25.3176,"longitude":82.9739,"temp":17.2,"humidity":76,"rain":0.0,"pressure":1001.6,"uv_index":7.0,"wind_gusts":19.8,"aqi":138,"pm10":97.8,"pm2_5":69.4,"mosquito_risk":3,"arthritis_risk":5,"migraine_risk":4,"frizz_risk":0,"updated_at":"2026-03-04T03:07:16.769952+05:30"},{"city":"Prayagraj","state":"Uttar Pradesh","latitude":25.4358,"longitude":81.8463,"temp":17.5,"humidity":81,"rain":0.0,"pressure":1000.1,"uv_index":6.9,"wind_gusts":26.6,"aqi":141,"pm10":157.4,"pm2_5":71.5,"mosquito_risk":3,"arthritis_risk":10,"migraine_risk":4,"frizz_risk":0,"updated_at":"2026-03-04T03:07:16.769960+05:30"},{"city":"Gorakhpur","state":"Uttar Pradesh","latitude":26.7606,"longitude":83.3732,"temp":16.7,"humidity":88,"rain":0.0,"pressure":1000.7,"uv_index":6.75,"wind_gusts":7.9,"aqi":158,"pm10":129.0,"pm2_5":105.9,"mosquito_risk":3,"arthritis_risk":10,"migraine_risk":4,"frizz_risk":0,"updated_at":"2026-03-04T03:07:16.769966+05:30"},{"city":"Bareilly","state":"Uttar Pradesh","latitude":28.367,"longitude":79.4304,"temp":15.3,"humidity":92,"rain":0.0,"pressure":989.9,"uv_index":6.05,"wind_gusts":16.2,"aqi":157,"pm10":390.2,"pm2_5":121.5,"mosquito_risk":3,"arthritis_risk":10,"migraine_risk":7,"frizz_risk":0,"updated_at":"2026-03-04T03:07:16.769975+05:30"},{"city":"Aligarh","state":"Uttar Pradesh","latitude":27.8974,"longitude":78.088,"temp":15.6,"humidity":73,"rain":0.0,"pressure":989.2,"uv_index":5.95,"wind_gusts":32.8,"aqi":689,"pm10":558.8,"pm2_5":108.5,"mosquito_risk":3,"arthritis_risk":5,"migraine_risk":3,"frizz_risk":0,"updated_at":"2026-03-04T03:07:16.769981+05:30"},{"city":"Moradabad","state":"Uttar Pradesh","latitude":28.8386,"longitude":78.7733,"temp":15.6,"humidity":87,"rain":0.0,"pressure":986.7,"uv_index":5.9,"wind_gusts":19.8,"aqi":153,"pm10":338.1,"pm2_5":102.4,"mosquito_risk":3,"arthritis_risk":10,"migraine_risk":3,"frizz_risk":0,"updated_at":"2026-03-04T03:07:16.769988+05:30"},{"city":"Saharanpur","state":"Uttar Pradesh","latitude":29.9637,"longitude":77.546,"temp":15.9,"humidity":80,"rain":0.0,"pressure":978.7,"uv_index":5.5,"wind_gusts":40.3,"aqi":150,"pm10":118.7,"pm2_5":81.7,"mosquito_risk":3,"arthritis_risk":5,"migraine_risk":3,"frizz_risk":0,"updated_at":"2026-03-04T03:07:16.769994+05:30"},{"city":"Jhansi","state":"Uttar Pradesh","latitude":25.4484,"longitude":78.5685,"temp":17.1,"humidity":75,"rain":0.0,"pressure":981.8,"uv_index":6.8,"wind_gusts":33.8,"aqi":78,"pm10":30.3,"pm2_5":22.6,"mosquito_risk":3,"arthritis_risk":5,"migraine_risk":7,"frizz_risk":0,"updated_at":"2026-03-04T03:07:19.997071+05:30"},{"city":"Surat","state":"Gujarat","latitude":21.1702,"longitude":72.8311,"temp":23.8,"humidity":66,"rain":0.0,"pressure":1009.6,"uv_index":7.1,"wind_gusts":27.7,"aqi":157,"pm10":48.7,"pm2_5":46.3,"mosquito_risk":3,"arthritis_risk":0,"migraine_risk":4,"frizz_risk":1,"updated_at":"2026-03-04T03:07:19.997103+05:30"},{"city":"Vadodara","state":"Gujarat","latitude":22.3072,"longitude":73.1812,"temp":22.8,"humidity":66,"rain":0.0,"pressure":1007.7,"uv_index":7.2,"wind_gusts":19.1,"aqi":151,"pm10":82.0,"pm2_5":78.2,"mosquito_risk":3,"arthritis_risk":5,"migraine_risk":4,"frizz_risk":1,"updated_at":"2026-03-04T03:07:19.997117+05:30"},{"city":"Rajkot","state":"Gujarat","latitude":22.3039,"longitude":70.8022,"temp":21.9,"humidity":76,"rain":0.0,"pressure":998.4,"uv_index":7.0,"wind_gusts":20.5,"aqi":62,"pm10":27.6,"pm2_5":22.1,"mosquito_risk":3,"arthritis_risk":5,"migraine_risk":7,"frizz_risk":1,"updated_at":"2026-03-04T03:07:19.997128+05:30"},{"city":"Thane","state":"Maharashtra","latitude":19.2183,"longitude":72.9781,"temp":25.9,"humidity":59,"rain":0.0,"pressure":1009.2,"uv_index":7.4,"wind_gusts":36.4,"aqi":117,"pm10":39.8,"pm2_5":39.2,"mosquito_risk":4,"arthritis_risk":0,"migraine_risk":4,"frizz_risk":1,"updated_at":"2026-03-04T03:07:19.997139+05:30"},{"city":"Nagpur","state":"Maharashtra","latitude":21.1458,"longitude":79.0882,"temp":21.6,"humidity":65,"rain":0.0,"pressure":976.3,"uv_index":7.75,"wind_gusts":22.3,"aqi":71,"pm10":25.3,"pm2_5":20.6,"mosquito_risk":3,"arthritis_risk":5,"migraine_risk":7,"frizz_risk":0,"updated_at":"2026-03-04T03:07:19.997150+05:30"},{"city":"Nashik","state":"Maharashtra","latitude":19.9975,"longitude":73.7898,"temp":23.1,"humidity":50,"rain":0.0,"pressure":947.7,"uv_index":7.55,"wind_gusts":24.1,"aqi":91,"pm10":28.0,"pm2_5":27.2,"mosquito_risk":0,"arthritis_risk":5,"migraine_risk":7,"frizz_risk":0,"updated_at":"2026-03-04T03:07:19.997160+05:30"},{"city":"Aurangabad","state":"Maharashtra","latitude":19.8762,"longitude":75.3433,"temp":22.1,"humidity":49,"rain":0.0,"pressure":946.0,"uv_index":8.1,"wind_gusts":29.5,"aqi":79,"pm10":37.0,"pm2_5":36.0,"mosquito_risk":0,"arthritis_risk":5,"migraine_risk":7,"frizz_risk":0,"updated_at":"2026-03-04T03:07:19.997170+05:30"},{"city":"Solapur","state":"Maharashtra","latitude":17.6599,"longitude":75.9064,"temp":22.8,"humidity":71,"rain":0.0,"pressure":958.2,"uv_index":8.35,"wind_gusts":18.7,"aqi":90,"pm10":23.0,"pm2_5":22.3,"mosquito_risk":3,"arthritis_risk":5,"migraine_risk":7,"frizz_risk":1,"updated_at":"2026-03-04T03:07:19.997180+05:30"},{"city":"Kolhapur","state":"Maharashtra","latitude":16.705,"longitude":74.2433,"temp":21.2,"humidity":81,"rain":0.0,"pressure":948.6,"uv_index":8.45,"wind_gusts":35.6,"aqi":153,"pm10":91.0,"pm2_5":90.1,"mosquito_risk":3,"arthritis_risk":5,"migraine_risk":7,"frizz_risk":1,"updated_at":"2026-03-04T03:07:19.997189+05:30"},{"city":"Goa","state":"Goa","latitude":15.2993,"longitude":74.124,"temp":26.1,"humidity":89,"rain":0.0,"pressure":998.8,"uv_index":8.5,"wind_gusts":36.7,"aqi":82,"pm10":42.1,"pm2_5":38.6,"mosquito_risk":7,"arthritis_risk":5,"migraine_risk":7,"frizz_risk":1,"updated_at":"2026-03-04T03:07:19.997199+05:30"},{"city":"Jodhpur","state":"Rajasthan","latitude":26.2389,"longitude":73.0243,"temp":20.6,"humidity":60,"rain":0.0,"pressure":987.4,"uv_index":6.9,"wind_gusts":13.3,"aqi":75,"pm10":69.4,"pm2_5":36.7,"mosquito_risk":0,"arthritis_risk":5,"migraine_risk":7,"frizz_risk":0,"updated_at":"2026-03-04T03:07:19.997209+05:30"},{"city":"Udaipur","state":"Rajasthan","latitude":24.5854,"longitude":73.7125,"temp":18.4,"humidity":52,"rain":0.0,"pressure":950.4,"uv_index":7.5,"wind_gusts":13.3,"aqi":65,"pm10":46.2,"pm2_5":23.1,"mosquito_risk":0,"arthritis_risk":5,"migraine_risk":7,"frizz_risk":0,"updated_at":"2026-03-04T03:07:19.997219+05:30"},{"city":"Kota","state":"Rajasthan","latitude":25.2138,"longitude":75.8648,"temp":15.7,"humidity":88,"rain":0.0,"pressure":982.8,"uv_index":6.9,"wind_gusts":15.5,"aqi":90,"pm10":56.0,"pm2_5":40.6,"mosquito_risk":3,"arthritis_risk":10,"migraine_risk":7,"frizz_risk":0,"updated_at":"2026-03-04T03:07:19.997228+05:30"},{"city":"Bikaner","state":"Rajasthan","latitude":28.0229,"longitude":73.3119,"temp":21.2,"humidity":50,"rain":0.0,"pressure":986.2,"uv_index":6.6,"wind_gusts":23.8,"aqi":68,"pm10":37.0,"pm2_5":19.7,"mosquito_risk":0,"arthritis_risk":5,"migraine_risk":7,"frizz_risk":0,"updated_at":"2026-03-04T03:07:19.997238+05:30"},{"city":"Ajmer","state":"Rajasthan","latitude":26.4499,"longitude":74.6399,"temp":20.5,"humidity":33,"rain":0.0,"pressure":958.6,"uv_index":6.85,"wind_gusts":21.2,"aqi":77,"pm10":55.1,"pm2_5":31.8,"mosquito_risk":0,"arthritis_risk":5,"migraine_risk":7,"frizz_risk":0,"updated_at":"2026-03-04T03:07:19.997247+05:30"},{"city":"Gwalior","state":"Madhya Pradesh","latitude":26.2183,"longitude":78.1828,"temp":17.8,"humidity":60,"rain":0.0,"pressure":987.0,"uv_index":6.55,"wind_gusts":31.7,"aqi":115,"pm10":51.0,"pm2_5":36.8,"mosquito_risk":0,"arthritis_risk":5,"migraine_risk":7,"frizz_risk":0,"updated_at":"2026-03-04T03:07:19.997257+05:30"},{"city":"Indore","state":"Madhya Pradesh","latitude":22.7196,"longitude":75.8577,"temp":19.7,"humidity":60,"rain":0.0,"pressure":951.0,"uv_index":7.45,"wind_gusts":18.4,"aqi":90,"pm10":41.0,"pm2_5":33.6,"mosquito_risk":0,"arthritis_risk":5,"migraine_risk":7,"frizz_risk":0,"updated_at":"2026-03-04T03:07:19.997267+05:30"},{"city":"Bhopal","state":"Madhya Pradesh","latitude":23.2599,"longitude":77.4126,"temp":20.1,"humidity":52,"rain":0.0,"pressure":956.8,"uv_index":7.35,"wind_gusts":22.7,"aqi":81,"pm10":47.3,"pm2_5":34.8,"mosquito_risk":0,"arthritis_risk":5,"migraine_risk":7,"frizz_risk":0,"updated_at":"2026-03-04T03:07:19.997276+05:30"},{"city":"Jabalpur","state":"Madhya Pradesh","latitude":23.1815,"longitude":79.9864,"temp":19.0,"humidity":64,"rain":0.0,"pressure":964.7,"uv_index":7.4,"wind_gusts":24.5,"aqi":78,"pm10":49.1,"pm2_5":34.1,"mosquito_risk":3,"arthritis_risk":5,"migraine_risk":7,"frizz_risk":0,"updated_at":"2026-03-04T03:07:19.997285+05:30"},{"city":"Ujjain","state":"Madhya Pradesh","latitude":23.1765,"longitude":75.7885,"temp":19.0,"humidity":64,"rain":0.0,"pressure":957.0,"uv_index":7.35,"wind_gusts":16.2,"aqi":111,"pm10":51.6,"pm2_5":45.5,"mosquito_risk":3,"arthritis_risk":5,"migraine_risk":7,"frizz_risk":0,"updated_at":"2026-03-04T03:07:19.997295+05:30"},{"city":"Visakhapatnam","state":"Andhra Pradesh","latitude":17.6868,"longitude":83.2185,"temp":23.2,"humidity":94,"rain":0.0,"pressure":1006.4,"uv_index":8.4,"wind_gusts":35.3,"aqi":134,"pm10":60.8,"pm2_5":56.6,"mosquito_risk":3,"arthritis_risk":5,"migraine_risk":4,"frizz_risk":1,"updated_at":"2026-03-04T03:07:19.997305+05:30"},{"city":"Vijayawada","state":"Andhra Pradesh","latitude":16.5062,"longitude":80.648,"temp":23.6,"humidity":88,"rain":0.0,"pressure":1005.3,"uv_index":8.45,"wind_gusts":19.8,"aqi":132,"pm10":40.3,"pm2_5":36.7,"mosquito_risk":3,"arthritis_risk":5,"migraine_risk":4,"frizz_risk":1,"updated_at":"2026-03-04T03:07:19.997314+05:30"},{"city":"Guntur","state":"Andhra Pradesh","latitude":16.3067,"longitude":80.4365,"temp":23.0,"humidity":88,"rain":0.0,"pressure":1006.5,"uv_index":8.45,"wind_gusts":24.8,"aqi":122,"pm10":32.9,"pm2_5":30.0,"mosquito_risk":3,"arthritis_risk":5,"migraine_risk":4,"frizz_risk":1,"updated_at":"2026-03-04T03:07:19.997324+05:30"},{"city":"Nellore","state":"Andhra Pradesh","latitude":14.4426,"longitude":79.9865,"temp":23.1,"humidity":91,"rain":0.0,"pressure":1008.1,"uv_index":8.65,"wind_gusts":28.8,"aqi":98,"pm10":29.9,"pm2_5":28.1,"mosquito_risk":3,"arthritis_risk":0,"migraine_risk":4,"frizz_risk":1,"updated_at":"2026-03-04T03:07:19.997335+05:30"},{"city":"Kurnool","state":"Andhra Pradesh","latitude":15.8281,"longitude":78.0373,"temp":25.9,"humidity":51,"rain":0.0,"pressure":978.4,"uv_index":8.45,"wind_gusts":28.4,"aqi":107,"pm10":36.7,"pm2_5":35.7,"mosquito_risk":4,"arthritis_risk":5,"migraine_risk":7,"frizz_risk":0,"updated_at":"2026-03-04T03:07:19.997346+05:30"},{"city":"Kakinada","state":"Andhra Pradesh","latitude":16.9891,"longitude":82.2475,"temp":22.4,"humidity":90,"rain":0.0,"pressure":1010.2,"uv_index":8.4,"wind_gusts":33.1,"aqi":116,"pm10":42.5,"pm2_5":36.3,"mosquito_risk":3,"arthritis_risk":0,"migraine_risk":4,"frizz_risk":1,"updated_at":"2026-03-04T03:07:19.997355+05:30"},{"city":"Tirupati","state":"Andhra Pradesh","latitude":13.6288,"longitude":79.4192,"temp":21.5,"humidity":64,"rain":0.0,"pressure":993.9,"uv_index":8.8,"wind_gusts":36.4,"aqi":144,"pm10":67.1,"pm2_5":65.4,"mosquito_risk":3,"arthritis_risk":5,"migraine_risk":7,"frizz_risk":0,"updated_at":"2026-03-04T03:07:19.997365+05:30"},{"city":"Warangal","state":"Telangana","latitude":17.9689,"longitude":79.5941,"temp":23.9,"humidity":57,"rain":0.0,"pressure":980.8,"uv_index":8.2,"wind_gusts":23.0,"aqi":121,"pm10":46.4,"pm2_5":45.3,"mosquito_risk":0,"arthritis_risk":5,"migraine_risk":7,"frizz_risk":0,"updated_at":"2026-03-04T03:07:19.997374+05:30"},{"city":"Nizamabad","state":"Telangana","latitude":18.6725,"longitude":78.0941,"temp":21.4,"humidity":69,"rain":0.0,"pressure":966.8,"uv_index":8.1,"wind_gusts":25.2,"aqi":87,"pm10":27.1,"pm2_5":23.9,"mosquito_risk":3,"arthritis_risk":5,"migraine_risk":7,"frizz_risk":0,"updated_at":"2026-03-04T03:07:19.997384+05:30"},{"city":"Mysore","state":"Karnataka","latitude":12.2958,"longitude":76.6396,"temp":20.8,"humidity":68,"rain":0.0,"pressure":928.6,"uv_index":9.15,"wind_gusts":40.7,"aqi":108,"pm10":31.1,"pm2_5":30.3,"mosquito_risk":3,"arthritis_risk":5,"migraine_risk":7,"frizz_risk":0,"updated_at":"2026-03-04T03:07:19.997393+05:30"},{"city":"Mangalore","state":"Karnataka","latitude":12.9141,"longitude":74.856,"temp":28.1,"humidity":80,"rain":0.0,"pressure":1007.4,"uv_index":8.75,"wind_gusts":30.2,"aqi":68,"pm10":27.9,"pm2_5":23.8,"mosquito_risk":7,"arthritis_risk":5,"migraine_risk":4,"frizz_risk":1,"updated_at":"2026-03-04T03:07:19.997403+05:30"},{"city":"Hubli-Dharwad","state":"Karnataka","latitude":15.3647,"longitude":75.124,"temp":21.9,"humidity":92,"rain":0.0,"pressure":941.2,"uv_index":8.65,"wind_gusts":24.5,"aqi":98,"pm10":36.1,"pm2_5":35.4,"mosquito_risk":3,"arthritis_risk":5,"migraine_risk":7,"frizz_risk":1,"updated_at":"2026-03-04T03:07:19.997413+05:30"},{"city":"Belgaum","state":"Karnataka","latitude":15.8497,"longitude":74.4977,"temp":21.3,"humidity":93,"rain":0.0,"pressure":926.1,"uv_index":8.7,"wind_gusts":28.8,"aqi":115,"pm10":58.6,"pm2_5":56.8,"mosquito_risk":3,"arthritis_risk":5,"migraine_risk":7,"frizz_risk":1,"updated_at":"2026-03-04T03:07:23.223567+05:30"},{"city":"Coimbatore","state":"Tamil Nadu","latitude":11.0168,"longitude":76.9558,"temp":21.4,"humidity":60,"rain":0.0,"pressure":962.5,"uv_index":9.15,"wind_gusts":42.5,"aqi":114,"pm10":37.3,"pm2_5":36.7,"mosquito_risk":0,"arthritis_risk":5,"migraine_risk":7,"frizz_risk":0,"updated_at":"2026-03-04T03:07:23.223602+05:30"},{"city":"Madurai","state":"Tamil Nadu","latitude":9.9252,"longitude":78.1198,"temp":22.9,"humidity":78,"rain":0.0,"pressure":994.5,"uv_index":9.1,"wind_gusts":25.6,"aqi":103,"pm10":42.5,"pm2_5":41.7,"mosquito_risk":3,"arthritis_risk":5,"migraine_risk":7,"frizz_risk":1,"updated_at":"2026-03-04T03:07:23.223617+05:30"},{"city":"Trichy","state":"Tamil Nadu","latitude":10.7905,"longitude":78.7047,"temp":21.7,"humidity":95,"rain":0.0,"pressure":1001.6,"uv_index":9.0,"wind_gusts":30.2,"aqi":97,"pm10":39.8,"pm2_5":37.7,"mosquito_risk":3,"arthritis_risk":5,"migraine_risk":4,"frizz_risk":1,"updated_at":"2026-03-04T03:07:23.223628+05:30"},{"city":"Salem","state":"Tamil Nadu","latitude":11.6643,"longitude":78.146,"temp":22.2,"humidity":78,"rain":0.0,"pressure":978.5,"uv_index":9.05,"wind_gusts":35.6,"aqi":128,"pm10":53.3,"pm2_5":52.3,"mosquito_risk":3,"arthritis_risk":5,"migraine_risk":7,"frizz_risk":1,"updated_at":"2026-03-04T03:07:23.223661+05:30"},{"city":"Tirunelveli","state":"Tamil Nadu","latitude":8.7139,"longitude":77.7567,"temp":20.5,"humidity":90,"rain":0.0,"pressure":1004.5,"uv_index":9.15,"wind_gusts":33.5,"aqi":90,"pm10":35.6,"pm2_5":34.9,"mosquito_risk":3,"arthritis_risk":5,"migraine_risk":4,"frizz_risk":1,"updated_at":"2026-03-04T03:07:23.223673+05:30"},{"city":"Vellore","state":"Tamil Nadu","latitude":12.9165,"longitude":79.1325,"temp":20.8,"humidity":88,"rain":0.0,"pressure":986.7,"uv_index":8.9,"wind_gusts":40.0,"aqi":132,"pm10":66.4,"pm2_5":64.7,"mosquito_risk":3,"arthritis_risk":5,"migraine_risk":7,"frizz_risk":1,"updated_at":"2026-03-04T03:07:23.223683+05:30"},{"city":"Erode","state":"Tamil Nadu","latitude":11.341,"longitude":77.7172,"temp":23.0,"humidity":89,"rain":0.0,"pressure":990.5,"uv_index":9.05,"wind_gusts":29.2,"aqi":109,"pm10":38.1,"pm2_5":37.1,"mosquito_risk":3,"arthritis_risk":5,"migraine_risk":7,"frizz_risk":1,"updated_at":"2026-03-04T03:07:23.223694+05:30"},{"city":"Kochi","state":"Kerala","latitude":9.9312,"longitude":76.2673,"temp":26.6,"humidity":81,"rain":0.0,"pressure":1009.5,"uv_index":8.95,"wind_gusts":33.5,"aqi":96,"pm10":23.3,"pm2_5":22.8,"mosquito_risk":7,"arthritis_risk":0,"migraine_risk":4,"frizz_risk":1,"updated_at":"2026-03-04T03:07:23.223705+05:30"},{"city":"Thiruvananthapuram","state":"Kerala","latitude":8.5241,"longitude":76.9366,"temp":27.9,"humidity":70,"rain":0.0,"pressure":1008.6,"uv_index":9.0,"wind_gusts":26.6,"aqi":116,"pm10":34.9,"pm2_5":32.7,"mosquito_risk":7,"arthritis_risk":0,"migraine_risk":4,"frizz_risk":1,"updated_at":"2026-03-04T03:07:23.223716+05:30"},{"city":"Kozhikode","state":"Kerala","latitude":11.2588,"longitude":75.7804,"temp":27.8,"humidity":81,"rain":0.0,"pressure":1008.4,"uv_index":8.85,"wind_gusts":30.6,"aqi":66,"pm10":29.0,"pm2_5":22.6,"mosquito_risk":7,"arthritis_risk":0,"migraine_risk":4,"frizz_risk":1,"updated_at":"2026-03-04T03:07:23.223727+05:30"},{"city":"Thrissur","state":"Kerala","latitude":10.5276,"longitude":76.2144,"temp":24.7,"humidity":92,"rain":0.0,"pressure":1007.8,"uv_index":8.9,"wind_gusts":38.5,"aqi":99,"pm10":38.9,"pm2_5":38.0,"mosquito_risk":3,"arthritis_risk":5,"migraine_risk":4,"frizz_risk":1,"updated_at":"2026-03-04T03:07:23.223739+05:30"},{"city":"Kannur","state":"Kerala","latitude":11.8745,"longitude":75.3704,"temp":26.9,"humidity":83,"rain":0.0,"pressure":1007.7,"uv_index":8.85,"wind_gusts":34.6,"aqi":65,"pm10":23.3,"pm2_5":19.8,"mosquito_risk":7,"arthritis_risk":5,"migraine_risk":4,"frizz_risk":1,"updated_at":"2026-03-04T03:07:23.223750+05:30"},{"city":"Patna","state":"Bihar","latitude":25.5941,"longitude":85.1376,"temp":19.8,"humidity":72,"rain":0.0,"pressure":1004.2,"uv_index":7.2,"wind_gusts":16.6,"aqi":152,"pm10":125.3,"pm2_5":97.1,"mosquito_risk":3,"arthritis_risk":5,"migraine_risk":4,"frizz_risk":0,"updated_at":"2026-03-04T03:07:23.223761+05:30"},{"city":"Gaya","state":"Bihar","latitude":24.7914,"longitude":85.0002,"temp":16.9,"humidity":65,"rain":0.0,"pressure":997.8,"uv_index":7.3,"wind_gusts":19.4,"aqi":120,"pm10":115.5,"pm2_5":76.4,"mosquito_risk":3,"arthritis_risk":5,"migraine_risk":7,"frizz_risk":0,"updated_at":"2026-03-04T03:07:23.223772+05:30"},{"city":"Muzaffarpur","state":"Bihar","latitude":26.1209,"longitude":85.3647,"temp":18.6,"humidity":71,"rain":0.0,"pressure":1004.2,"uv_index":7.15,"wind_gusts":13.7,"aqi":158,"pm10":146.2,"pm2_5":115.5,"mosquito_risk":3,"arthritis_risk":5,"migraine_risk":4,"frizz_risk":0,"updated_at":"2026-03-04T03:07:23.223782+05:30"},{"city":"Bhagalpur","state":"Bihar","latitude":25.2425,"longitude":87.0117,"temp":18.2,"humidity":77,"rain":0.0,"pressure":1005.1,"uv_index":7.2,"wind_gusts":10.1,"aqi":152,"pm10":139.7,"pm2_5":99.4,"mosquito_risk":3,"arthritis_risk":5,"migraine_risk":4,"frizz_risk":0,"updated_at":"2026-03-04T03:07:23.223793+05:30"},{"city":"Ranchi","state":"Jharkhand","latitude":23.3441,"longitude":85.3096,"temp":18.4,"humidity":52,"rain":0.0,"pressure":940.5,"uv_index":7.95,"wind_gusts":30.6,"aqi":79,"pm10":75.0,"pm2_5":42.8,"mosquito_risk":0,"arthritis_risk":5,"migraine_risk":7,"frizz_risk":0,"updated_at":"2026-03-04T03:07:23.223803+05:30"},{"city":"Jamshedpur","state":"Jharkhand","latitude":22.8046,"longitude":86.2029,"temp":18.1,"humidity":72,"rain":0.0,"pressure":994.4,"uv_index":7.85,"wind_gusts":22.3,"aqi":106,"pm10":79.4,"pm2_5":55.3,"mosquito_risk":3,"arthritis_risk":5,"migraine_risk":7,"frizz_risk":0,"updated_at":"2026-03-04T03:07:23.223814+05:30"},{"city":"Dhanbad","state":"Jharkhand","latitude":23.7957,"longitude":86.4304,"temp":17.2,"humidity":64,"rain":0.0,"pressure":983.4,"uv_index":7.7,"wind_gusts":24.5,"aqi":113,"pm10":81.5,"pm2_5":56.8,"mosquito_risk":3,"arthritis_risk":5,"migraine_risk":7,"frizz_risk":0,"updated_at":"2026-03-04T03:07:23.223824+05:30"},{"city":"Bokaro","state":"Jharkhand","latitude":23.6693,"longitude":86.1511,"temp":17.7,"humidity":54,"rain":0.0,"pressure":987.7,"uv_index":7.7,"wind_gusts":27.4,"aqi":117,"pm10":89.6,"pm2_5":62.6,"mosquito_risk":0,"arthritis_risk":5,"migraine_risk":7,"frizz_risk":0,"updated_at":"2026-03-04T03:07:23.223833+05:30"},{"city":"Bhubaneswar","state":"Odisha","latitude":20.2961,"longitude":85.8245,"temp":23.0,"humidity":96,"rain":0.0,"pressure":1005.3,"uv_index":8.1,"wind_gusts":29.5,"aqi":139,"pm10":50.4,"pm2_5":46.1,"mosquito_risk":3,"arthritis_risk":5,"migraine_risk":4,"frizz_risk":1,"updated_at":"2026-03-04T03:07:23.223841+05:30"},{"city":"Cuttack","state":"Odisha","latitude":20.4625,"longitude":85.8828,"temp":22.3,"humidity":98,"rain":0.0,"pressure":1007.5,"uv_index":8.15,"wind_gusts":28.8,"aqi":139,"pm10":50.4,"pm2_5":46.1,"mosquito_risk":3,"arthritis_risk":5,"migraine_risk":4,"frizz_risk":1,"updated_at":"2026-03-04T03:07:23.223850+05:30"},{"city":"Rourkela","state":"Odisha","latitude":22.2604,"longitude":84.8536,"temp":19.1,"humidity":66,"rain":0.0,"pressure":988.4,"uv_index":7.75,"wind_gusts":19.4,"aqi":93,"pm10":56.6,"pm2_5":38.1,"mosquito_risk":3,"arthritis_risk":5,"migraine_risk":7,"frizz_risk":0,"updated_at":"2026-03-04T03:07:23.223858+05:30"},{"city":"Raipur","state":"Chhattisgarh","latitude":21.2514,"longitude":81.6296,"temp":21.3,"humidity":53,"rain":0.0,"pressure":977.6,"uv_index":7.8,"wind_gusts":23.0,"aqi":136,"pm10":84.3,"pm2_5":75.7,"mosquito_risk":0,"arthritis_risk":5,"migraine_risk":7,"frizz_risk":0,"updated_at":"2026-03-04T03:07:23.223866+05:30"},{"city":"Bhilai","state":"Chhattisgarh","latitude":21.1938,"longitude":81.3509,"temp":20.5,"humidity":54,"rain":0.0,"pressure":977.8,"uv_index":7.8,"wind_gusts":20.9,"aqi":130,"pm10":72.4,"pm2_5":65.4,"mosquito_risk":0,"arthritis_risk":5,"migraine_risk":7,"frizz_risk":0,"updated_at":"2026-03-04T03:07:23.223875+05:30"},{"city":"Guwahati","state":"Assam","latitude":26.1158,"longitude":91.7086,"temp":20.7,"humidity":80,"rain":0.0,"pressure":1005.1,"uv_index":7.1,"wind_gusts":16.6,"aqi":157,"pm10":93.1,"pm2_5":82.0,"mosquito_risk":3,"arthritis_risk":5,"migraine_risk":4,"frizz_risk":1,"updated_at":"2026-03-04T03:07:23.223883+05:30"},{"city":"Agartala","state":"Tripura","latitude":23.8315,"longitude":91.2868,"temp":19.2,"humidity":89,"rain":0.0,"pressure":1009.4,"uv_index":7.5,"wind_gusts":22.7,"aqi":168,"pm10":106.9,"pm2_5":96.2,"mosquito_risk":3,"arthritis_risk":5,"migraine_risk":4,"frizz_risk":1,"updated_at":"2026-03-04T03:07:23.223891+05:30"},{"city":"Shillong","state":"Meghalaya","latitude":25.5788,"longitude":91.8933,"temp":10.1,"humidity":77,"rain":0.0,"pressure":855.6,"uv_index":7.5,"wind_gusts":25.2,"aqi":156,"pm10":77.8,"pm2_5":66.1,"mosquito_risk":3,"arthritis_risk":5,"migraine_risk":7,"frizz_risk":0,"updated_at":"2026-03-04T03:07:23.223900+05:30"},{"city":"Imphal","state":"Manipur","latitude":24.817,"longitude":93.9368,"temp":12.4,"humidity":82,"rain":0.0,"pressure":924.7,"uv_index":7.7,"wind_gusts":23.4,"aqi":156,"pm10":88.9,"pm2_5":80.8,"mosquito_risk":3,"arthritis_risk":10,"migraine_risk":7,"frizz_risk":0,"updated_at":"2026-03-04T03:07:23.223909+05:30"},{"city":"Aizawl","state":"Mizoram","latitude":23.7271,"longitude":92.7176,"temp":15.3,"humidity":72,"rain":0.0,"pressure":893.5,"uv_index":7.7,"wind_gusts":27.0,"aqi":156,"pm10":73.8,"pm2_5":64.3,"mosquito_risk":3,"arthritis_risk":5,"migraine_risk":7,"frizz_risk":0,"updated_at":"2026-03-04T03:07:23.223917+05:30"},{"city":"Kohima","state":"Nagaland","latitude":25.6701,"longitude":94.1077,"temp":10.8,"humidity":65,"rain":0.0,"pressure":854.5,"uv_index":7.55,"wind_gusts":36.0,"aqi":153,"pm10":82.2,"pm2_5":71.7,"mosquito_risk":3,"arthritis_risk":5,"migraine_risk":7,"frizz_risk":0,"updated_at":"2026-03-04T03:07:23.223925+05:30"},{"city":"Gangtok","state":"Sikkim","latitude":27.3314,"longitude":88.6138,"temp":10.7,"humidity":93,"rain":0.0,"pressure":837.4,"uv_index":7.45,"wind_gusts":20.9,"aqi":152,"pm10":52.0,"pm2_5":41.1,"mosquito_risk":3,"arthritis_risk":10,"migraine_risk":7,"frizz_risk":0,"updated_at":"2026-03-04T03:07:23.223934+05:30"},{"city":"Siliguri","state":"West Bengal","latitude":26.7271,"longitude":88.3953,"temp":19.4,"humidity":67,"rain":0.0,"pressure":997.6,"uv_index":7.15,"wind_gusts":21.6,"aqi":163,"pm10":101.0,"pm2_5":86.8,"mosquito_risk":3,"arthritis_risk":5,"migraine_risk":7,"frizz_risk":0,"updated_at":"2026-03-04T03:07:26.449047+05:30"},{"city":"Durgapur","state":"West Bengal","latitude":23.5204,"longitude":87.3119,"temp":21.0,"humidity":62,"rain":0.0,"pressure":998.8,"uv_index":7.7,"wind_gusts":24.1,"aqi":95,"pm10":83.6,"pm2_5":51.5,"mosquito_risk":3,"arthritis_risk":5,"migraine_risk":7,"frizz_risk":0,"updated_at":"2026-03-04T03:07:26.449076+05:30"},{"city":"Asansol","state":"West Bengal","latitude":23.6739,"longitude":86.9524,"temp":21.9,"humidity":61,"rain":0.0,"pressure":997.5,"uv_index":7.7,"wind_gusts":22.3,"aqi":91,"pm10":65.2,"pm2_5":36.0,"mosquito_risk":3,"arthritis_risk":5,"migraine_risk":7,"frizz_risk":0,"updated_at":"2026-03-04T03:07:26.449088+05:30"},{"city":"Pondicherry","state":"Puducherry","latitude":11.9139,"longitude":79.8145,"temp":21.9,"humidity":97,"rain":0.0,"pressure":1010.5,"uv_index":8.85,"wind_gusts":27.7,"aqi":96,"pm10":28.3,"pm2_5":24.6,"mosquito_risk":3,"arthritis_risk":0,"migraine_risk":4,"frizz_risk":1,"updated_at":"2026-03-04T03:07:26.449097+05:30"},{"city":"Port Blair","state":"Andaman and Nicobar Islands","latitude":11.6234,"longitude":92.7265,"temp":26.9,"humidity":76,"rain":0.0,"pressure":1008.4,"uv_index":8.8,"wind_gusts":27.0,"aqi":77,"pm10":36.6,"pm2_5":27.3,"mosquito_risk":7,"arthritis_risk":0,"migraine_risk":4,"frizz_risk":1,"updated_at":"2026-03-04T03:07:26.449106+05:30"},{"city":"Haridwar","state":"Uttarakhand","latitude":29.9457,"longitude":78.1642,"temp":15.6,"humidity":89,"rain":0.0,"pressure":977.2,"uv_index":5.6,"wind_gusts":19.8,"aqi":128,"pm10":74.3,"pm2_5":63.3,"mosquito_risk":3,"arthritis_risk":10,"migraine_risk":3,"frizz_risk":0,"updated_at":"2026-03-04T03:07:26.449115+05:30"},{"city":"Rishikesh","state":"Uttarakhand","latitude":30.0869,"longitude":78.2676,"temp":16.6,"humidity":86,"rain":0.0,"pressure":969.9,"uv_index":5.65,"wind_gusts":23.8,"aqi":92,"pm10":43.2,"pm2_5":40.2,"mosquito_risk":3,"arthritis_risk":10,"migraine_risk":3,"frizz_risk":0,"updated_at":"2026-03-04T03:07:26.449124+05:30"},{"city":"Nainital","state":"Uttarakhand","latitude":29.3919,"longitude":79.4542,"temp":14.2,"humidity":59,"rain":0.0,"pressure":805.7,"uv_index":6.5,"wind_gusts":53.3,"aqi":114,"pm10":63.3,"pm2_5":51.9,"mosquito_risk":0,"arthritis_risk":5,"migraine_risk":7,"frizz_risk":0,"updated_at":"2026-03-04T03:07:26.449132+05:30"},{"city":"Mussoorie","state":"Uttarakhand","latitude":30.4599,"longitude":78.0664,"temp":13.4,"humidity":62,"rain":0.0,"pressure":802.7,"uv_index":6.0,"wind_gusts":40.3,"aqi":94,"pm10":45.1,"pm2_5":40.9,"mosquito_risk":3,"arthritis_risk":5,"migraine_risk":3,"frizz_risk":0,"updated_at":"2026-03-04T03:07:26.449140+05:30"},{"city":"Dharamshala","state":"Himachal Pradesh","latitude":32.219,"longitude":76.3234,"temp":19.3,"humidity":28,"rain":0.0,"pressure":871.5,"uv_index":6.25,"wind_gusts":29.5,"aqi":50,"pm10":11.3,"pm2_5":7.1,"mosquito_risk":0,"arthritis_risk":5,"migraine_risk":7,"frizz_risk":0,"updated_at":"2026-03-04T03:07:26.449148+05:30"},{"city":"Dalhousie","state":"Himachal Pradesh","latitude":32.5387,"longitude":75.971,"temp":14.6,"humidity":27,"rain":0.0,"pressure":805.0,"uv_index":6.45,"wind_gusts":23.8,"aqi":86,"pm10":32.0,"pm2_5":29.6,"mosquito_risk":0,"arthritis_risk":5,"migraine_risk":7,"frizz_risk":1,"updated_at":"2026-03-04T03:07:26.449158+05:30"},{"city":"Patiala","state":"Punjab","latitude":30.3398,"longitude":76.3869,"temp":16.6,"humidity":83,"rain":0.0,"pressure":981.7,"uv_index":5.65,"wind_gusts":34.2,"aqi":238,"pm10":182.1,"pm2_5":70.8,"mosquito_risk":3,"arthritis_risk":10,"migraine_risk":3,"frizz_risk":0,"updated_at":"2026-03-04T03:07:26.449166+05:30"},{"city":"Bhatinda","state":"Punjab","latitude":30.211,"longitude":74.9455,"temp":18.0,"humidity":81,"rain":0.0,"pressure":987.8,"uv_index":6.3,"wind_gusts":25.9,"aqi":142,"pm10":88.7,"pm2_5":64.0,"mosquito_risk":3,"arthritis_risk":10,"migraine_risk":7,"frizz_risk":0,"updated_at":"2026-03-04T03:07:26.449175+05:30"},{"city":"Rohtak","state":"Haryana","latitude":28.8955,"longitude":76.6066,"temp":16.6,"humidity":86,"rain":0.0,"pressure":985.6,"uv_index":5.85,"wind_gusts":35.6,"aqi":473,"pm10":310.1,"pm2_5":72.2,"mosquito_risk":3,"arthritis_risk":10,"migraine_risk":3,"frizz_risk":0,"updated_at":"2026-03-04T03:07:26.449184+05:30"},{"city":"Panipat","state":"Haryana","latitude":29.3909,"longitude":76.9635,"temp":16.6,"humidity":86,"rain":0.0,"pressure":983.8,"uv_index":5.65,"wind_gusts":35.3,"aqi":1076,"pm10":722.7,"pm2_5":116.2,"mosquito_risk":3,"arthritis_risk":10,"migraine_risk":3,"frizz_risk":0,"updated_at":"2026-03-04T03:07:26.449192+05:30"},{"city":"Mathura","state":"Uttar Pradesh","latitude":27.4924,"longitude":77.6737,"temp":21.4,"humidity":44,"rain":0.0,"pressure":990.7,"uv_index":6.1,"wind_gusts":34.6,"aqi":459,"pm10":397.7,"pm2_5":71.7,"mosquito_risk":0,"arthritis_risk":5,"migraine_risk":7,"frizz_risk":0,"updated_at":"2026-03-04T03:07:26.449200+05:30"},{"city":"Vrindavan","state":"Uttar Pradesh","latitude":27.5823,"longitude":77.7027,"temp":16.6,"humidity":66,"rain":0.0,"pressure":991.0,"uv_index":6.1,"wind_gusts":36.4,"aqi":459,"pm10":397.7,"pm2_5":71.7,"mosquito_risk":3,"arthritis_risk":5,"migraine_risk":7,"frizz_risk":0,"updated_at":"2026-03-04T03:07:26.449208+05:30"},{"city":"Ayodhya","state":"Uttar Pradesh","latitude":26.7922,"longitude":82.1998,"temp":17.1,"humidity":88,"rain":0.0,"pressure":998.9,"uv_index":6.5,"wind_gusts":10.1,"aqi":152,"pm10":182.5,"pm2_5":82.7,"mosquito_risk":3,"arthritis_risk":10,"migraine_risk":7,"frizz_risk":0,"updated_at":"2026-03-04T03:07:26.449217+05:30"},{"city":"Ratlam","state":"Madhya Pradesh","latitude":23.3315,"longitude":75.0367,"temp":17.2,"humidity":90,"rain":0.0,"pressure":957.4,"uv_index":7.35,"wind_gusts":13.0,"aqi":95,"pm10":51.7,"pm2_5":45.5,"mosquito_risk":3,"arthritis_risk":10,"migraine_risk":7,"frizz_risk":0,"updated_at":"2026-03-04T03:07:26.449225+05:30"},{"city":"Sagar","state":"Madhya Pradesh","latitude":23.8388,"longitude":78.7378,"temp":19.2,"humidity":62,"rain":0.0,"pressure":953.3,"uv_index":7.3,"wind_gusts":24.5,"aqi":69,"pm10":37.7,"pm2_5":27.6,"mosquito_risk":3,"arthritis_risk":5,"migraine_risk":7,"frizz_risk":0,"updated_at":"2026-03-04T03:07:26.449233+05:30"},{"city":"Satna","state":"Madhya Pradesh","latitude":24.6005,"longitude":80.8322,"temp":17.5,"humidity":62,"rain":0.0,"pressure":974.8,"uv_index":7.25,"wind_gusts":36.4,"aqi":78,"pm10":41.7,"pm2_5":25.6,"mosquito_risk":3,"arthritis_risk":5,"migraine_risk":7,"frizz_risk":0,"updated_at":"2026-03-04T03:07:26.449241+05:30"},{"city":"Akola","state":"Maharashtra","latitude":20.7002,"longitude":77.0082,"temp":20.6,"humidity":66,"rain":0.0,"pressure":978.0,"uv_index":7.8,"wind_gusts":15.1,"aqi":77,"pm10":31.2,"pm2_5":26.4,"mosquito_risk":3,"arthritis_risk":5,"migraine_risk":7,"frizz_risk":0,"updated_at":"2026-03-04T03:07:26.449250+05:30"},{"city":"Amravati","state":"Maharashtra","latitude":20.9374,"longitude":77.7796,"temp":21.7,"humidity":51,"rain":0.0,"pressure":969.9,"uv_index":7.75,"wind_gusts":20.2,"aqi":73,"pm10":28.9,"pm2_5":22.6,"mosquito_risk":0,"arthritis_risk":5,"migraine_risk":7,"frizz_risk":0,"updated_at":"2026-03-04T03:07:26.449259+05:30"},{"city":"Latur","state":"Maharashtra","latitude":18.4088,"longitude":76.5604,"temp":23.3,"humidity":53,"rain":0.0,"pressure":941.5,"uv_index":8.25,"wind_gusts":23.8,"aqi":84,"pm10":33.6,"pm2_5":31.5,"mosquito_risk":0,"arthritis_risk":5,"migraine_risk":7,"frizz_risk":0,"updated_at":"2026-03-04T03:07:26.449267+05:30"},{"city":"Nanded","state":"Maharashtra","latitude":19.1383,"longitude":77.3091,"temp":22.5,"humidity":61,"rain":0.0,"pressure":970.9,"uv_index":8.0,"wind_gusts":17.3,"aqi":79,"pm10":33.5,"pm2_5":31.2,"mosquito_risk":3,"arthritis_risk":5,"migraine_risk":7,"frizz_risk":0,"updated_at":"2026-03-04T03:07:26.449275+05:30"},{"city":"Gulbarga","state":"Karnataka","latitude":17.3297,"longitude":76.8343,"temp":23.8,"humidity":52,"rain":0.0,"pressure":960.3,"uv_index":8.35,"wind_gusts":20.9,"aqi":100,"pm10":26.7,"pm2_5":26.1,"mosquito_risk":0,"arthritis_risk":5,"migraine_risk":7,"frizz_risk":0,"updated_at":"2026-03-04T03:07:26.449283+05:30"},{"city":"Bidar","state":"Karnataka","latitude":17.9104,"longitude":77.5199,"temp":22.0,"humidity":63,"rain":0.0,"pressure":936.9,"uv_index":8.3,"wind_gusts":26.6,"aqi":99,"pm10":42.7,"pm2_5":40.6,"mosquito_risk":3,"arthritis_risk":5,"migraine_risk":7,"frizz_risk":0,"updated_at":"2026-03-04T03:07:26.449292+05:30"},{"city":"Hospet","state":"Karnataka","latitude":15.2689,"longitude":76.3909,"temp":26.5,"humidity":50,"rain":0.0,"pressure":956.9,"uv_index":8.65,"wind_gusts":25.9,"aqi":114,"pm10":44.9,"pm2_5":44.2,"mosquito_risk":4,"arthritis_risk":5,"migraine_risk":7,"frizz_risk":0,"updated_at":"2026-03-04T03:07:26.449300+05:30"},{"city":"Tirupur","state":"Tamil Nadu","latitude":11.1085,"longitude":77.3411,"temp":23.1,"humidity":78,"rain":0.0,"pressure":976.6,"uv_index":9.15,"wind_gusts":32.0,"aqi":122,"pm10":42.7,"pm2_5":42.0,"mosquito_risk":3,"arthritis_risk":5,"migraine_risk":7,"frizz_risk":1,"updated_at":"2026-03-04T03:07:26.449308+05:30"},{"city":"Alappuzha","state":"Kerala","latitude":9.4981,"longitude":76.3388,"temp":26.6,"humidity":81,"rain":0.0,"pressure":1009.6,"uv_index":8.95,"wind_gusts":32.8,"aqi":93,"pm10":38.6,"pm2_5":36.9,"mosquito_risk":7,"arthritis_risk":0,"migraine_risk":4,"frizz_risk":1,"updated_at":"2026-03-04T03:07:26.449316+05:30"},{"city":"Munnar","state":"Kerala","latitude":10.0889,"longitude":77.0595,"temp":17.6,"humidity":56,"rain":0.0,"pressure":855.4,"uv_index":9.45,"wind_gusts":22.7,"aqi":100,"pm10":35.2,"pm2_5":34.2,"mosquito_risk":0,"arthritis_risk":5,"migraine_risk":7,"frizz_risk":0,"updated_at":"2026-03-04T03:07:26.449325+05:30"},{"city":"Silchar","state":"Assam","latitude":24.8333,"longitude":92.7789,"temp":20.2,"humidity":78,"rain":0.0,"pressure":1008.2,"uv_index":7.45,"wind_gusts":16.2,"aqi":161,"pm10":86.4,"pm2_5":75.9,"mosquito_risk":3,"arthritis_risk":0,"migraine_risk":4,"frizz_risk":1,"updated_at":"2026-03-04T03:07:26.449333+05:30"},{"city":"Dibrugarh","state":"Assam","latitude":27.4728,"longitude":94.912,"temp":20.1,"humidity":92,"rain":0.0,"pressure":999.6,"uv_index":7.15,"wind_gusts":9.7,"aqi":131,"pm10":44.9,"pm2_5":38.4,"mosquito_risk":3,"arthritis_risk":5,"migraine_risk":7,"frizz_risk":1,"updated_at":"2026-03-04T03:07:26.449341+05:30"}]