[{"city":"Delhi","state":"Delhi","latitude":28.6139,"longitude":77.209,"temp":31.0,"humidity":33,"rain":0.0,"pressure":979.3,"uv_index":6.15,"wind_gusts":21.6,"aqi":141,"pm10":174.6,"pm2_5":32.2,"mosquito_risk":0,"arthritis_risk":5,"migraine_risk":7,"frizz_risk":0,"updated_at":"2026-03-28T17:01:51.578503+05:30"},{"city":"Mumbai","state":"Maharashtra","latitude":19.076,"longitude":72.8777,"temp":27.4,"humidity":81,"rain":0.0,"pressure":1006.1,"uv_index":8.0,"wind_gusts":24.5,"aqi":112,"pm10":25.8,"pm2_5":16.6,"mosquito_risk":7,"arthritis_risk":5,"migraine_risk":4,"frizz_risk":1,"updated_at":"2026-03-28T17:01:51.578551+05:30"},{"city":"Bangalore","state":"Karnataka","latitude":12.9716,"longitude":77.5946,"temp":27.4,"humidity":56,"rain":0.0,"pressure":909.5,"uv_index":9.5,"wind_gusts":42.5,"aqi":145,"pm10":43.3,"pm2_5":35.0,"mosquito_risk":4,"arthritis_risk":5,"migraine_risk":7,"frizz_risk":1,"updated_at":"2026-03-28T17:01:51.578566+05:30"},{"city":"Hyderabad","state":"Telangana","latitude":17.385,"longitude":78.4867,"temp":37.1,"humidity":18,"rain":0.0,"pressure":949.0,"uv_index":9.0,"wind_gusts":24.8,"aqi":125,"pm10":30.5,"pm2_5":24.4,"mosquito_risk":0,"arthritis_risk":5,"migraine_risk":10,"frizz_risk":0,"updated_at":"2026-03-28T17:01:51.578576+05:30"},{"city":"Chennai","state":"Tamil Nadu","latitude":13.0827,"longitude":80.2707,"temp":30.9,"humidity":61,"rain":0.0,"pressure":1003.9,"uv_index":9.25,"wind_gusts":34.6,"aqi":68,"pm10":27.5,"pm2_5":19.5,"mosquito_risk":3,"arthritis_risk":5,"migraine_risk":4,"frizz_risk":1,"updated_at":"2026-03-28T17:01:51.578585+05:30"},{"city":"Kolkata","state":"West Bengal","latitude":22.5726,"longitude":88.3639,"temp":29.5,"humidity":64,"rain":0.0,"pressure":1002.7,"uv_index":8.4,"wind_gusts":31.7,"aqi":181,"pm10":61.5,"pm2_5":52.2,"mosquito_risk":7,"arthritis_risk":5,"migraine_risk":4,"frizz_risk":1,"updated_at":"2026-03-28T17:01:51.578594+05:30"},{"city":"Pune","state":"Maharashtra","latitude":18.5204,"longitude":73.8567,"temp":34.3,"humidity":23,"rain":0.0,"pressure":946.0,"uv_index":8.5,"wind_gusts":49.0,"aqi":91,"pm10":17.1,"pm2_5":14.2,"mosquito_risk":0,"arthritis_risk":5,"migraine_risk":7,"frizz_risk":0,"updated_at":"2026-03-28T17:01:51.578606+05:30"},{"city":"Ahmedabad","state":"Gujarat","latitude":23.0225,"longitude":72.5714,"temp":35.2,"humidity":35,"rain":0.0,"pressure":997.9,"uv_index":7.95,"wind_gusts":34.2,"aqi":38,"pm10":45.8,"pm2_5":10.2,"mosquito_risk":0,"arthritis_risk":5,"migraine_risk":10,"frizz_risk":1,"updated_at":"2026-03-28T17:01:51.578615+05:30"},{"city":"Jaipur","state":"Rajasthan","latitude":26.9124,"longitude":75.7873,"temp":33.5,"humidity":24,"rain":0.0,"pressure":955.7,"uv_index":7.25,"wind_gusts":32.4,"aqi":94,"pm10":164.4,"pm2_5":20.4,"mosquito_risk":0,"arthritis_risk":5,"migraine_risk":7,"frizz_risk":0,"updated_at":"2026-03-28T17:01:51.578623+05:30"},{"city":"Lucknow","state":"Uttar Pradesh","latitude":26.8467,"longitude":80.9462,"temp":32.2,"humidity":31,"rain":0.0,"pressure":989.3,"uv_index":7.15,"wind_gusts":28.1,"aqi":129,"pm10":178.3,"pm2_5":33.3,"mosquito_risk":0,"arthritis_risk":5,"migraine_risk":7,"frizz_risk":0,"updated_at":"2026-03-28T17:01:51.578630+05:30"},{"city":"Kanpur","state":"Uttar Pradesh","latitude":26.4499,"longitude":80.3319,"temp":31.3,"humidity":39,"rain":0.0,"pressure":987.9,"uv_index":6.95,"wind_gusts":25.2,"aqi":194,"pm10":351.1,"pm2_5":46.9,"mosquito_risk":0,"arthritis_risk":5,"migraine_risk":7,"frizz_risk":0,"updated_at":"2026-03-28T17:01:51.578639+05:30"},{"city":"Chandigarh","state":"Chandigarh","latitude":30.7333,"longitude":76.7794,"temp":28.4,"humidity":49,"rain":0.0,"pressure":965.1,"uv_index":5.25,"wind_gusts":23.4,"aqi":109,"pm10":18.6,"pm2_5":13.9,"mosquito_risk":4,"arthritis_risk":5,"migraine_risk":3,"frizz_risk":1,"updated_at":"2026-03-28T17:01:51.578646+05:30"},{"city":"Srinagar","state":"Jammu and Kashmir","latitude":34.0837,"longitude":74.7973,"temp":18.0,"humidity":57,"rain":0.0,"pressure":837.7,"uv_index":6.0,"wind_gusts":16.2,"aqi":98,"pm10":31.7,"pm2_5":13.2,"mosquito_risk":0,"arthritis_risk":5,"migraine_risk":3,"frizz_risk":0,"updated_at":"2026-03-28T17:01:51.578653+05:30"},{"city":"Jammu","state":"Jammu and Kashmir","latitude":32.7266,"longitude":74.857,"temp":28.3,"humidity":46,"rain":0.0,"pressure":969.0,"uv_index":6.85,"wind_gusts":16.6,"aqi":99,"pm10":13.9,"pm2_5":12.0,"mosquito_risk":4,"arthritis_risk":5,"migraine_risk":7,"frizz_risk":0,"updated_at":"2026-03-28T17:01:51.578661+05:30"},{"city":"Amritsar","state":"Punjab","latitude":31.634,"longitude":74.8723,"temp":28.7,"humidity":49,"rain":0.0,"pressure":977.0,"uv_index":6.15,"wind_gusts":14.0,"aqi":132,"pm10":19.0,"pm2_5":13.4,"mosquito_risk":4,"arthritis_risk":5,"migraine_risk":7,"frizz_risk":1,"updated_at":"2026-03-28T17:01:51.578668+05:30"},{"city":"Ludhiana","state":"Punjab","latitude":30.901,"longitude":75.8573,"temp":29.4,"humidity":41,"rain":0.0,"pressure":975.1,"uv_index":6.15,"wind_gusts":13.7,"aqi":94,"pm10":33.9,"pm2_5":14.0,"mosquito_risk":4,"arthritis_risk":5,"migraine_risk":7,"frizz_risk":0,"updated_at":"2026-03-28T17:01:51.578674+05:30"},{"city":"Jalandhar","state":"Punjab","latitude":31.326,"longitude":75.5762,"temp":28.9,"humidity":43,"rain":0.0,"pressure":976.3,"uv_index":6.25,"wind_gusts":11.5,"aqi":102,"pm10":28.8,"pm2_5":12.8,"mosquito_risk":4,"arthritis_risk":5,"migraine_risk":7,"frizz_risk":0,"updated_at":"2026-03-28T17:01:51.578683+05:30"},{"city":"Dehradun","state":"Uttarakhand","latitude":30.6284,"longitude":78.0322,"temp":18.2,"humidity":67,"rain":0.0,"pressure":827.2,"uv_index":5.8,"wind_gusts":22.3,"aqi":78,"pm10":24.8,"pm2_5":16.4,"mosquito_risk":3,"arthritis_risk":5,"migraine_risk":3,"frizz_risk":0,"updated_at":"2026-03-28T17:01:51.578690+05:30"},{"city":"Shimla","state":"Himachal Pradesh","latitude":31.1048,"longitude":77.1734,"temp":16.4,"humidity":67,"rain":0.0,"pressure":782.1,"uv_index":6.0,"wind_gusts":33.1,"aqi":97,"pm10":19.0,"pm2_5":13.6,"mosquito_risk":3,"arthritis_risk":5,"migraine_risk":3,"frizz_risk":0,"updated_at":"2026-03-28T17:01:51.578696+05:30"},{"city":"Manali","state":"Himachal Pradesh","latitude":32.2396,"longitude":77.1887,"temp":19.0,"humidity":61,"rain":0.0,"pressure":817.2,"uv_index":8.55,"wind_gusts":29.9,"aqi":118,"pm10":24.0,"pm2_5":7.5,"mosquito_risk":3,"arthritis_risk":5,"migraine_risk":7,"frizz_risk":0,"updated_at":"2026-03-28T17:01:51.578703+05:30"},{"city":"Gurgaon","state":"Haryana","latitude":28.4595,"longitude":77.0266,"temp":31.0,"humidity":33,"rain":0.0,"pressure":977.7,"uv_index":6.3,"wind_gusts":17.3,"aqi":440,"pm10":610.9,"pm2_5":67.8,"mosquito_risk":0,"arthritis_risk":5,"migraine_risk":7,"frizz_risk":0,"updated_at":"2026-03-28T17:01:51.578710+05:30"},{"city":"Noida","state":"Uttar Pradesh","latitude":28.5355,"longitude":77.391,"temp":31.1,"humidity":32,"rain":0.0,"pressure":980.8,"uv_index":6.05,"wind_gusts":21.6,"aqi":440,"pm10":610.9,"pm2_5":67.8,"mosquito_risk":0,"arthritis_risk":5,"migraine_risk":7,"frizz_risk":0,"updated_at":"2026-03-28T17:01:51.578716+05:30"},{"city":"Ghaziabad","state":"Uttar Pradesh","latitude":28.6692,"longitude":77.4538,"temp":30.5,"humidity":37,"rain":0.0,"pressure":979.1,"uv_index":5.8,"wind_gusts":20.5,"aqi":124,"pm10":111.1,"pm2_5":27.3,"mosquito_risk":0,"arthritis_risk":5,"migraine_risk":3,"frizz_risk":0,"updated_at":"2026-03-28T17:01:51.578723+05:30"},{"city":"Faridabad","state":"Haryana","latitude":28.4089,"longitude":77.3178,"temp":31.1,"humidity":30,"rain":0.0,"pressure":980.0,"uv_index":6.3,"wind_gusts":19.8,"aqi":440,"pm10":610.9,"pm2_5":67.8,"mosquito_risk":0,"arthritis_risk":5,"migraine_risk":7,"frizz_risk":0,"updated_at":"2026-03-28T17:01:51.578730+05:30"},{"city":"Meerut","state":"Uttar Pradesh","latitude":28.9845,"longitude":77.7064,"temp":29.9,"humidity":41,"rain":0.0,"pressure":977.7,"uv_index":5.85,"wind_gusts":23.0,"aqi":124,"pm10":111.1,"pm2_5":27.3,"mosquito_risk":4,"arthritis_risk":5,"migraine_risk":3,"frizz_risk":0,"updated_at":"2026-03-28T17:01:51.578739+05:30"},{"city":"Agra","state":"Uttar Pradesh","latitude":27.1767,"longitude":78.0081,"temp":34.0,"humidity":26,"rain":0.0,"pressure":983.5,"uv_index":6.35,"wind_gusts":25.6,"aqi":443,"pm10":711.5,"pm2_5":68.7,"mosquito_risk":0,"arthritis_risk":5,"migraine_risk":7,"frizz_risk":0,"updated_at":"2026-03-28T17:01:51.578746+05:30"},{"city":"Varanasi","state":"Uttar Pradesh","latitude":25.3176,"longitude":82.9739,"temp":32.3,"humidity":33,"rain":0.0,"pressure":993.5,"uv_index":7.8,"wind_gusts":37.4,"aqi":101,"pm10":72.9,"pm2_5":23.2,"mosquito_risk":0,"arthritis_risk":5,"migraine_risk":7,"frizz_risk":0,"updated_at":"2026-03-28T17:01:51.578756+05:30"},{"city":"Prayagraj","state":"Uttar Pradesh","latitude":25.4358,"longitude":81.8463,"temp":32.4,"humidity":34,"rain":0.0,"pressure":991.9,"uv_index":7.7,"wind_gusts":30.2,"aqi":98,"pm10":102.2,"pm2_5":25.8,"mosquito_risk":0,"arthritis_risk":5,"migraine_risk":7,"frizz_risk":0,"updated_at":"2026-03-28T17:01:51.578764+05:30"},{"city":"Gorakhpur","state":"Uttar Pradesh","latitude":26.7606,"longitude":83.3732,"temp":30.8,"humidity":39,"rain":0.0,"pressure":993.0,"uv_index":7.0,"wind_gusts":28.1,"aqi":92,"pm10":52.9,"pm2_5":21.7,"mosquito_risk":0,"arthritis_risk":5,"migraine_risk":7,"frizz_risk":0,"updated_at":"2026-03-28T17:01:51.578770+05:30"},{"city":"Bareilly","state":"Uttar Pradesh","latitude":28.367,"longitude":79.4304,"temp":30.0,"humidity":43,"rain":0.0,"pressure":982.8,"uv_index":6.35,"wind_gusts":24.5,"aqi":80,"pm10":29.9,"pm2_5":17.5,"mosquito_risk":4,"arthritis_risk":5,"migraine_risk":7,"frizz_risk":1,"updated_at":"2026-03-28T17:01:51.578779+05:30"},{"city":"Aligarh","state":"Uttar Pradesh","latitude":27.8974,"longitude":78.088,"temp":31.5,"humidity":36,"rain":0.0,"pressure":981.7,"uv_index":6.45,"wind_gusts":23.8,"aqi":227,"pm10":556.9,"pm2_5":63.8,"mosquito_risk":0,"arthritis_risk":5,"migraine_risk":7,"frizz_risk":0,"updated_at":"2026-03-28T17:01:51.578786+05:30"},{"city":"Moradabad","state":"Uttar Pradesh","latitude":28.8386,"longitude":78.7733,"temp":29.8,"humidity":45,"rain":0.0,"pressure":979.7,"uv_index":6.1,"wind_gusts":23.0,"aqi":87,"pm10":35.0,"pm2_5":20.4,"mosquito_risk":4,"arthritis_risk":5,"migraine_risk":7,"frizz_risk":1,"updated_at":"2026-03-28T17:01:51.578793+05:30"},{"city":"Saharanpur","state":"Uttar Pradesh","latitude":29.9637,"longitude":77.546,"temp":29.2,"humidity":45,"rain":0.0,"pressure":971.9,"uv_index":5.25,"wind_gusts":24.8,"aqi":107,"pm10":46.9,"pm2_5":19.4,"mosquito_risk":4,"arthritis_risk":5,"migraine_risk":3,"frizz_risk":1,"updated_at":"2026-03-28T17:01:51.578799+05:30"},{"city":"Jhansi","state":"Uttar Pradesh","latitude":25.4484,"longitude":78.5685,"temp":35.4,"humidity":23,"rain":0.0,"pressure":973.0,"uv_index":7.1,"wind_gusts":31.3,"aqi":94,"pm10":44.0,"pm2_5":11.1,"mosquito_risk":0,"arthritis_risk":5,"migraine_risk":10,"frizz_risk":0,"updated_at":"2026-03-28T17:01:54.909769+05:30"},{"city":"Surat","state":"Gujarat","latitude":21.1702,"longitude":72.8311,"temp":29.3,"humidity":61,"rain":0.0,"pressure":1003.8,"uv_index":7.75,"wind_gusts":30.6,"aqi":85,"pm10":28.6,"pm2_5":20.0,"mosquito_risk":7,"arthritis_risk":5,"migraine_risk":4,"frizz_risk":1,"updated_at":"2026-03-28T17:01:54.909798+05:30"},{"city":"Vadodara","state":"Gujarat","latitude":22.3072,"longitude":73.1812,"temp":36.0,"humidity":33,"rain":0.0,"pressure":1000.0,"uv_index":7.95,"wind_gusts":32.8,"aqi":60,"pm10":32.7,"pm2_5":10.9,"mosquito_risk":0,"arthritis_risk":5,"migraine_risk":7,"frizz_risk":1,"updated_at":"2026-03-28T17:01:54.909808+05:30"},{"city":"Rajkot","state":"Gujarat","latitude":22.3039,"longitude":70.8022,"temp":33.3,"humidity":41,"rain":0.0,"pressure":991.2,"uv_index":7.75,"wind_gusts":43.2,"aqi":37,"pm10":19.6,"pm2_5":8.6,"mosquito_risk":0,"arthritis_risk":5,"migraine_risk":7,"frizz_risk":1,"updated_at":"2026-03-28T17:01:54.909816+05:30"},{"city":"Thane","state":"Maharashtra","latitude":19.2183,"longitude":72.9781,"temp":29.5,"humidity":62,"rain":0.0,"pressure":1005.7,"uv_index":8.0,"wind_gusts":37.8,"aqi":112,"pm10":25.8,"pm2_5":16.6,"mosquito_risk":7,"arthritis_risk":5,"migraine_risk":4,"frizz_risk":1,"updated_at":"2026-03-28T17:01:54.909823+05:30"},{"city":"Nagpur","state":"Maharashtra","latitude":21.1458,"longitude":79.0882,"temp":36.5,"humidity":23,"rain":0.0,"pressure":967.9,"uv_index":8.5,"wind_gusts":31.3,"aqi":71,"pm10":14.1,"pm2_5":8.8,"mosquito_risk":0,"arthritis_risk":5,"migraine_risk":10,"frizz_risk":0,"updated_at":"2026-03-28T17:01:54.909831+05:30"},{"city":"Nashik","state":"Maharashtra","latitude":19.9975,"longitude":73.7898,"temp":32.2,"humidity":25,"rain":0.0,"pressure":943.2,"uv_index":8.2,"wind_gusts":43.6,"aqi":61,"pm10":26.6,"pm2_5":8.9,"mosquito_risk":0,"arthritis_risk":5,"migraine_risk":7,"frizz_risk":0,"updated_at":"2026-03-28T17:01:54.909838+05:30"},{"city":"Aurangabad","state":"Maharashtra","latitude":19.8762,"longitude":75.3433,"temp":36.1,"humidity":15,"rain":0.0,"pressure":940.3,"uv_index":8.75,"wind_gusts":43.6,"aqi":79,"pm10":10.4,"pm2_5":7.4,"mosquito_risk":0,"arthritis_risk":5,"migraine_risk":10,"frizz_risk":0,"updated_at":"2026-03-28T17:01:54.909844+05:30"},{"city":"Solapur","state":"Maharashtra","latitude":17.6599,"longitude":75.9064,"temp":37.7,"humidity":17,"rain":0.0,"pressure":953.0,"uv_index":8.85,"wind_gusts":31.7,"aqi":86,"pm10":18.6,"pm2_5":13.1,"mosquito_risk":0,"arthritis_risk":5,"migraine_risk":10,"frizz_risk":0,"updated_at":"2026-03-28T17:01:54.909851+05:30"},{"city":"Kolhapur","state":"Maharashtra","latitude":16.705,"longitude":74.2433,"temp":31.8,"humidity":40,"rain":0.0,"pressure":945.6,"uv_index":8.95,"wind_gusts":43.6,"aqi":128,"pm10":34.5,"pm2_5":28.5,"mosquito_risk":0,"arthritis_risk":5,"migraine_risk":7,"frizz_risk":1,"updated_at":"2026-03-28T17:01:54.909858+05:30"},{"city":"Goa","state":"Goa","latitude":15.2993,"longitude":74.124,"temp":30.9,"humidity":69,"rain":0.0,"pressure":995.5,"uv_index":8.95,"wind_gusts":28.4,"aqi":93,"pm10":38.8,"pm2_5":31.9,"mosquito_risk":3,"arthritis_risk":5,"migraine_risk":7,"frizz_risk":1,"updated_at":"2026-03-28T17:01:54.909865+05:30"},{"city":"Jodhpur","state":"Rajasthan","latitude":26.2389,"longitude":73.0243,"temp":34.4,"humidity":25,"rain":0.0,"pressure":978.4,"uv_index":7.8,"wind_gusts":31.0,"aqi":62,"pm10":231.9,"pm2_5":27.6,"mosquito_risk":0,"arthritis_risk":5,"migraine_risk":7,"frizz_risk":0,"updated_at":"2026-03-28T17:01:54.909872+05:30"},{"city":"Udaipur","state":"Rajasthan","latitude":24.5854,"longitude":73.7125,"temp":31.3,"humidity":34,"rain":0.0,"pressure":943.1,"uv_index":8.35,"wind_gusts":33.5,"aqi":42,"pm10":32.1,"pm2_5":8.1,"mosquito_risk":0,"arthritis_risk":5,"migraine_risk":7,"frizz_risk":0,"updated_at":"2026-03-28T17:01:54.909880+05:30"},{"city":"Kota","state":"Rajasthan","latitude":25.2138,"longitude":75.8648,"temp":36.7,"humidity":19,"rain":0.0,"pressure":973.5,"uv_index":7.65,"wind_gusts":24.5,"aqi":47,"pm10":103.6,"pm2_5":18.8,"mosquito_risk":0,"arthritis_risk":5,"migraine_risk":10,"frizz_risk":0,"updated_at":"2026-03-28T17:01:54.909887+05:30"},{"city":"Bikaner","state":"Rajasthan","latitude":28.0229,"longitude":73.3119,"temp":35.3,"humidity":25,"rain":0.0,"pressure":976.6,"uv_index":7.2,"wind_gusts":20.9,"aqi":44,"pm10":29.3,"pm2_5":8.7,"mosquito_risk":0,"arthritis_risk":5,"migraine_risk":10,"frizz_risk":0,"updated_at":"2026-03-28T17:01:54.909894+05:30"},{"city":"Ajmer","state":"Rajasthan","latitude":26.4499,"longitude":74.6399,"temp":33.0,"humidity":27,"rain":0.0,"pressure":950.4,"uv_index":7.65,"wind_gusts":30.6,"aqi":46,"pm10":46.1,"pm2_5":11.9,"mosquito_risk":0,"arthritis_risk":5,"migraine_risk":7,"frizz_risk":0,"updated_at":"2026-03-28T17:01:54.909900+05:30"},{"city":"Gwalior","state":"Madhya Pradesh","latitude":26.2183,"longitude":78.1828,"temp":34.3,"humidity":28,"rain":0.0,"pressure":978.8,"uv_index":6.95,"wind_gusts":36.4,"aqi":148,"pm10":73.8,"pm2_5":19.7,"mosquito_risk":0,"arthritis_risk":5,"migraine_risk":7,"frizz_risk":0,"updated_at":"2026-03-28T17:01:54.909907+05:30"},{"city":"Indore","state":"Madhya Pradesh","latitude":22.7196,"longitude":75.8577,"temp":33.3,"humidity":26,"rain":0.0,"pressure":944.4,"uv_index":8.2,"wind_gusts":37.1,"aqi":49,"pm10":14.5,"pm2_5":6.9,"mosquito_risk":0,"arthritis_risk":5,"migraine_risk":7,"frizz_risk":0,"updated_at":"2026-03-28T17:01:54.909913+05:30"},{"city":"Bhopal","state":"Madhya Pradesh","latitude":23.2599,"longitude":77.4126,"temp":34.7,"humidity":24,"rain":0.0,"pressure":949.5,"uv_index":8.15,"wind_gusts":31.3,"aqi":49,"pm10":26.7,"pm2_5":8.4,"mosquito_risk":0,"arthritis_risk":5,"migraine_risk":7,"frizz_risk":0,"updated_at":"2026-03-28T17:01:54.909919+05:30"},{"city":"Jabalpur","state":"Madhya Pradesh","latitude":23.1815,"longitude":79.9864,"temp":34.1,"humidity":26,"rain":0.0,"pressure":957.1,"uv_index":8.25,"wind_gusts":29.9,"aqi":55,"pm10":30.6,"pm2_5":10.3,"mosquito_risk":0,"arthritis_risk":5,"migraine_risk":7,"frizz_risk":0,"updated_at":"2026-03-28T17:01:54.909926+05:30"},{"city":"Ujjain","state":"Madhya Pradesh","latitude":23.1765,"longitude":75.7885,"temp":33.0,"humidity":29,"rain":0.0,"pressure":950.1,"uv_index":8.15,"wind_gusts":34.2,"aqi":44,"pm10":14.2,"pm2_5":5.7,"mosquito_risk":0,"arthritis_risk":5,"migraine_risk":7,"frizz_risk":0,"updated_at":"2026-03-28T17:01:54.909934+05:30"},{"city":"Visakhapatnam","state":"Andhra Pradesh","latitude":17.6868,"longitude":83.2185,"temp":30.1,"humidity":67,"rain":0.0,"pressure":1000.0,"uv_index":9.0,"wind_gusts":41.8,"aqi":95,"pm10":41.8,"pm2_5":29.1,"mosquito_risk":3,"arthritis_risk":5,"migraine_risk":4,"frizz_risk":1,"updated_at":"2026-03-28T17:01:54.909941+05:30"},{"city":"Vijayawada","state":"Andhra Pradesh","latitude":16.5062,"longitude":80.648,"temp":36.1,"humidity":36,"rain":0.0,"pressure":997.9,"uv_index":9.05,"wind_gusts":30.6,"aqi":81,"pm10":48.0,"pm2_5":36.7,"mosquito_risk":0,"arthritis_risk":5,"migraine_risk":10,"frizz_risk":1,"updated_at":"2026-03-28T17:01:54.909948+05:30"},{"city":"Guntur","state":"Andhra Pradesh","latitude":16.3067,"longitude":80.4365,"temp":34.3,"humidity":44,"rain":0.0,"pressure":999.5,"uv_index":9.05,"wind_gusts":33.1,"aqi":81,"pm10":48.5,"pm2_5":36.8,"mosquito_risk":0,"arthritis_risk":5,"migraine_risk":7,"frizz_risk":1,"updated_at":"2026-03-28T17:01:54.909954+05:30"},{"city":"Nellore","state":"Andhra Pradesh","latitude":14.4426,"longitude":79.9865,"temp":33.0,"humidity":50,"rain":0.0,"pressure":1002.0,"uv_index":9.2,"wind_gusts":34.6,"aqi":105,"pm10":40.6,"pm2_5":30.5,"mosquito_risk":0,"arthritis_risk":5,"migraine_risk":4,"frizz_risk":1,"updated_at":"2026-03-28T17:01:54.909961+05:30"},{"city":"Kurnool","state":"Andhra Pradesh","latitude":15.8281,"longitude":78.0373,"temp":38.2,"humidity":23,"rain":0.0,"pressure":972.2,"uv_index":9.0,"wind_gusts":33.5,"aqi":150,"pm10":51.0,"pm2_5":40.9,"mosquito_risk":0,"arthritis_risk":5,"migraine_risk":10,"frizz_risk":0,"updated_at":"2026-03-28T17:01:54.909968+05:30"},{"city":"Kakinada","state":"Andhra Pradesh","latitude":16.9891,"longitude":82.2475,"temp":34.0,"humidity":46,"rain":0.0,"pressure":1003.3,"uv_index":9.0,"wind_gusts":35.3,"aqi":73,"pm10":32.5,"pm2_5":19.2,"mosquito_risk":0,"arthritis_risk":5,"migraine_risk":4,"frizz_risk":1,"updated_at":"2026-03-28T17:01:54.909974+05:30"},{"city":"Tirupati","state":"Andhra Pradesh","latitude":13.6288,"longitude":79.4192,"temp":35.3,"humidity":31,"rain":0.0,"pressure":987.4,"uv_index":9.3,"wind_gusts":27.4,"aqi":101,"pm10":46.4,"pm2_5":34.8,"mosquito_risk":0,"arthritis_risk":5,"migraine_risk":10,"frizz_risk":0,"updated_at":"2026-03-28T17:01:54.909981+05:30"},{"city":"Warangal","state":"Telangana","latitude":17.9689,"longitude":79.5941,"temp":37.8,"humidity":22,"rain":0.0,"pressure":973.8,"uv_index":8.85,"wind_gusts":25.6,"aqi":116,"pm10":28.1,"pm2_5":23.9,"mosquito_risk":0,"arthritis_risk":5,"migraine_risk":10,"frizz_risk":0,"updated_at":"2026-03-28T17:01:54.909987+05:30"},{"city":"Nizamabad","state":"Telangana","latitude":18.6725,"longitude":78.0941,"temp":37.3,"humidity":17,"rain":0.0,"pressure":960.4,"uv_index":8.8,"wind_gusts":26.3,"aqi":92,"pm10":12.1,"pm2_5":9.1,"mosquito_risk":0,"arthritis_risk":5,"migraine_risk":10,"frizz_risk":0,"updated_at":"2026-03-28T17:01:54.909993+05:30"},{"city":"Mysore","state":"Karnataka","latitude":12.2958,"longitude":76.6396,"temp":28.5,"humidity":58,"rain":0.0,"pressure":925.9,"uv_index":9.45,"wind_gusts":45.7,"aqi":147,"pm10":37.6,"pm2_5":30.9,"mosquito_risk":4,"arthritis_risk":5,"migraine_risk":7,"frizz_risk":1,"updated_at":"2026-03-28T17:01:54.910000+05:30"},{"city":"Mangalore","state":"Karnataka","latitude":12.9141,"longitude":74.856,"temp":29.6,"humidity":81,"rain":0.0,"pressure":1004.0,"uv_index":9.1,"wind_gusts":23.8,"aqi":95,"pm10":37.3,"pm2_5":29.3,"mosquito_risk":7,"arthritis_risk":5,"migraine_risk":4,"frizz_risk":1,"updated_at":"2026-03-28T17:01:54.910006+05:30"},{"city":"Hubli-Dharwad","state":"Karnataka","latitude":15.3647,"longitude":75.124,"temp":29.8,"humidity":57,"rain":0.0,"pressure":938.7,"uv_index":9.1,"wind_gusts":44.3,"aqi":131,"pm10":48.9,"pm2_5":37.3,"mosquito_risk":4,"arthritis_risk":5,"migraine_risk":7,"frizz_risk":1,"updated_at":"2026-03-28T17:01:54.910013+05:30"},{"city":"Belgaum","state":"Karnataka","latitude":15.8497,"longitude":74.4977,"temp":28.8,"humidity":59,"rain":0.0,"pressure":924.3,"uv_index":9.2,"wind_gusts":36.4,"aqi":125,"pm10":39.8,"pm2_5":30.7,"mosquito_risk":4,"arthritis_risk":5,"migraine_risk":7,"frizz_risk":1,"updated_at":"2026-03-28T17:01:58.242793+05:30"},{"city":"Coimbatore","state":"Tamil Nadu","latitude":11.0168,"longitude":76.9558,"temp":31.7,"humidity":51,"rain":0.0,"pressure":958.6,"uv_index":9.45,"wind_gusts":54.4,"aqi":109,"pm10":33.1,"pm2_5":27.1,"mosquito_risk":0,"arthritis_risk":5,"migraine_risk":7,"frizz_risk":1,"updated_at":"2026-03-28T17:01:58.242823+05:30"},{"city":"Madurai","state":"Tamil Nadu","latitude":9.9252,"longitude":78.1198,"temp":36.4,"humidity":32,"rain":0.0,"pressure":988.7,"uv_index":9.4,"wind_gusts":38.5,"aqi":102,"pm10":25.3,"pm2_5":19.0,"mosquito_risk":0,"arthritis_risk":5,"migraine_risk":10,"frizz_risk":1,"updated_at":"2026-03-28T17:01:58.242833+05:30"},{"city":"Trichy","state":"Tamil Nadu","latitude":10.7905,"longitude":78.7047,"temp":35.7,"humidity":40,"rain":0.0,"pressure":995.4,"uv_index":9.35,"wind_gusts":25.9,"aqi":75,"pm10":21.8,"pm2_5":16.6,"mosquito_risk":0,"arthritis_risk":5,"migraine_risk":10,"frizz_risk":1,"updated_at":"2026-03-28T17:01:58.242841+05:30"},{"city":"Salem","state":"Tamil Nadu","latitude":11.6643,"longitude":78.146,"temp":36.8,"humidity":29,"rain":0.0,"pressure":973.0,"uv_index":9.4,"wind_gusts":30.6,"aqi":144,"pm10":42.4,"pm2_5":33.5,"mosquito_risk":0,"arthritis_risk":5,"migraine_risk":10,"frizz_risk":0,"updated_at":"2026-03-28T17:01:58.242848+05:30"},{"city":"Tirunelveli","state":"Tamil Nadu","latitude":8.7139,"longitude":77.7567,"temp":35.1,"humidity":45,"rain":0.0,"pressure":998.8,"uv_index":9.35,"wind_gusts":47.5,"aqi":89,"pm10":24.7,"pm2_5":20.5,"mosquito_risk":0,"arthritis_risk":5,"migraine_risk":10,"frizz_risk":1,"updated_at":"2026-03-28T17:01:58.242855+05:30"},{"city":"Vellore","state":"Tamil Nadu","latitude":12.9165,"longitude":79.1325,"temp":34.8,"humidity":30,"rain":0.0,"pressure":980.7,"uv_index":9.35,"wind_gusts":31.0,"aqi":125,"pm10":50.9,"pm2_5":40.3,"mosquito_risk":0,"arthritis_risk":5,"migraine_risk":7,"frizz_risk":0,"updated_at":"2026-03-28T17:01:58.242863+05:30"},{"city":"Erode","state":"Tamil Nadu","latitude":11.341,"longitude":77.7172,"temp":37.5,"humidity":28,"rain":0.0,"pressure":984.1,"uv_index":9.35,"wind_gusts":26.3,"aqi":137,"pm10":36.2,"pm2_5":28.2,"mosquito_risk":0,"arthritis_risk":5,"migraine_risk":10,"frizz_risk":0,"updated_at":"2026-03-28T17:01:58.242870+05:30"},{"city":"Kochi","state":"Kerala","latitude":9.9312,"longitude":76.2673,"temp":29.3,"humidity":80,"rain":0.0,"pressure":1005.6,"uv_index":8.8,"wind_gusts":31.7,"aqi":94,"pm10":31.2,"pm2_5":26.2,"mosquito_risk":7,"arthritis_risk":5,"migraine_risk":4,"frizz_risk":1,"updated_at":"2026-03-28T17:01:58.242878+05:30"},{"city":"Thiruvananthapuram","state":"Kerala","latitude":8.5241,"longitude":76.9366,"temp":29.2,"humidity":80,"rain":0.0,"pressure":1005.1,"uv_index":9.15,"wind_gusts":39.6,"aqi":65,"pm10":23.0,"pm2_5":17.9,"mosquito_risk":7,"arthritis_risk":5,"migraine_risk":4,"frizz_risk":1,"updated_at":"2026-03-28T17:01:58.242885+05:30"},{"city":"Kozhikode","state":"Kerala","latitude":11.2588,"longitude":75.7804,"temp":30.5,"humidity":74,"rain":0.0,"pressure":1004.8,"uv_index":9.1,"wind_gusts":31.0,"aqi":81,"pm10":27.2,"pm2_5":21.3,"mosquito_risk":3,"arthritis_risk":5,"migraine_risk":4,"frizz_risk":1,"updated_at":"2026-03-28T17:01:58.242891+05:30"},{"city":"Thrissur","state":"Kerala","latitude":10.5276,"longitude":76.2144,"temp":31.5,"humidity":68,"rain":0.0,"pressure":1004.0,"uv_index":9.15,"wind_gusts":36.4,"aqi":91,"pm10":30.6,"pm2_5":26.0,"mosquito_risk":3,"arthritis_risk":5,"migraine_risk":4,"frizz_risk":1,"updated_at":"2026-03-28T17:01:58.242898+05:30"},{"city":"Kannur","state":"Kerala","latitude":11.8745,"longitude":75.3704,"temp":30.6,"humidity":70,"rain":0.0,"pressure":1004.5,"uv_index":9.1,"wind_gusts":31.0,"aqi":90,"pm10":32.2,"pm2_5":25.7,"mosquito_risk":3,"arthritis_risk":5,"migraine_risk":4,"frizz_risk":1,"updated_at":"2026-03-28T17:01:58.242905+05:30"},{"city":"Patna","state":"Bihar","latitude":25.5941,"longitude":85.1376,"temp":29.8,"humidity":46,"rain":0.0,"pressure":997.2,"uv_index":7.9,"wind_gusts":29.5,"aqi":91,"pm10":56.1,"pm2_5":20.0,"mosquito_risk":4,"arthritis_risk":5,"migraine_risk":7,"frizz_risk":1,"updated_at":"2026-03-28T17:01:58.242911+05:30"},{"city":"Gaya","state":"Bihar","latitude":24.7914,"longitude":85.0002,"temp":29.1,"humidity":52,"rain":0.0,"pressure":990.3,"uv_index":7.7,"wind_gusts":24.1,"aqi":92,"pm10":52.7,"pm2_5":20.0,"mosquito_risk":4,"arthritis_risk":5,"migraine_risk":7,"frizz_risk":1,"updated_at":"2026-03-28T17:01:58.242918+05:30"},{"city":"Muzaffarpur","state":"Bihar","latitude":26.1209,"longitude":85.3647,"temp":29.0,"humidity":49,"rain":0.0,"pressure":997.3,"uv_index":7.85,"wind_gusts":20.5,"aqi":107,"pm10":56.2,"pm2_5":22.5,"mosquito_risk":4,"arthritis_risk":5,"migraine_risk":7,"frizz_risk":1,"updated_at":"2026-03-28T17:01:58.242924+05:30"},{"city":"Bhagalpur","state":"Bihar","latitude":25.2425,"longitude":87.0117,"temp":26.9,"humidity":64,"rain":0.0,"pressure":998.6,"uv_index":7.3,"wind_gusts":25.2,"aqi":107,"pm10":78.7,"pm2_5":27.7,"mosquito_risk":7,"arthritis_risk":5,"migraine_risk":7,"frizz_risk":1,"updated_at":"2026-03-28T17:01:58.242931+05:30"},{"city":"Ranchi","state":"Jharkhand","latitude":23.3441,"longitude":85.3096,"temp":28.7,"humidity":38,"rain":0.0,"pressure":934.4,"uv_index":8.7,"wind_gusts":31.7,"aqi":128,"pm10":40.4,"pm2_5":22.9,"mosquito_risk":4,"arthritis_risk":5,"migraine_risk":7,"frizz_risk":0,"updated_at":"2026-03-28T17:01:58.242938+05:30"},{"city":"Jamshedpur","state":"Jharkhand","latitude":22.8046,"longitude":86.2029,"temp":32.5,"humidity":44,"rain":0.0,"pressure":986.7,"uv_index":8.5,"wind_gusts":32.4,"aqi":157,"pm10":61.7,"pm2_5":44.0,"mosquito_risk":0,"arthritis_risk":5,"migraine_risk":7,"frizz_risk":1,"updated_at":"2026-03-28T17:01:58.242944+05:30"},{"city":"Dhanbad","state":"Jharkhand","latitude":23.7957,"longitude":86.4304,"temp":30.5,"humidity":44,"rain":0.0,"pressure":976.4,"uv_index":8.4,"wind_gusts":30.2,"aqi":150,"pm10":67.1,"pm2_5":46.6,"mosquito_risk":0,"arthritis_risk":5,"migraine_risk":7,"frizz_risk":1,"updated_at":"2026-03-28T17:01:58.242951+05:30"},{"city":"Bokaro","state":"Jharkhand","latitude":23.6693,"longitude":86.1511,"temp":28.2,"humidity":54,"rain":0.0,"pressure":980.5,"uv_index":8.45,"wind_gusts":31.0,"aqi":137,"pm10":61.9,"pm2_5":39.9,"mosquito_risk":4,"arthritis_risk":5,"migraine_risk":7,"frizz_risk":1,"updated_at":"2026-03-28T17:01:58.242958+05:30"},{"city":"Bhubaneswar","state":"Odisha","latitude":20.2961,"longitude":85.8245,"temp":31.0,"humidity":63,"rain":0.0,"pressure":999.2,"uv_index":8.8,"wind_gusts":31.7,"aqi":138,"pm10":44.8,"pm2_5":36.4,"mosquito_risk":3,"arthritis_risk":5,"migraine_risk":7,"frizz_risk":1,"updated_at":"2026-03-28T17:01:58.242965+05:30"},{"city":"Cuttack","state":"Odisha","latitude":20.4625,"longitude":85.8828,"temp":33.3,"humidity":51,"rain":0.0,"pressure":1000.3,"uv_index":8.85,"wind_gusts":30.6,"aqi":138,"pm10":44.8,"pm2_5":36.4,"mosquito_risk":0,"arthritis_risk":5,"migraine_risk":4,"frizz_risk":1,"updated_at":"2026-03-28T17:01:58.242971+05:30"},{"city":"Rourkela","state":"Odisha","latitude":22.2604,"longitude":84.8536,"temp":34.1,"humidity":35,"rain":0.0,"pressure":980.6,"uv_index":8.45,"wind_gusts":43.9,"aqi":156,"pm10":35.3,"pm2_5":24.7,"mosquito_risk":0,"arthritis_risk":5,"migraine_risk":7,"frizz_risk":1,"updated_at":"2026-03-28T17:01:58.242979+05:30"},{"city":"Raipur","state":"Chhattisgarh","latitude":21.2514,"longitude":81.6296,"temp":37.4,"humidity":18,"rain":0.0,"pressure":969.4,"uv_index":8.55,"wind_gusts":34.6,"aqi":95,"pm10":21.7,"pm2_5":12.3,"mosquito_risk":0,"arthritis_risk":5,"migraine_risk":10,"frizz_risk":0,"updated_at":"2026-03-28T17:01:58.242988+05:30"},{"city":"Bhilai","state":"Chhattisgarh","latitude":21.1938,"longitude":81.3509,"temp":37.3,"humidity":18,"rain":0.0,"pressure":969.8,"uv_index":8.6,"wind_gusts":33.8,"aqi":80,"pm10":18.5,"pm2_5":9.7,"mosquito_risk":0,"arthritis_risk":5,"migraine_risk":10,"frizz_risk":0,"updated_at":"2026-03-28T17:01:58.242994+05:30"},{"city":"Guwahati","state":"Assam","latitude":26.1158,"longitude":91.7086,"temp":22.3,"humidity":86,"rain":0.0,"pressure":1000.7,"uv_index":4.5,"wind_gusts":28.1,"aqi":151,"pm10":30.3,"pm2_5":26.0,"mosquito_risk":3,"arthritis_risk":5,"migraine_risk":0,"frizz_risk":1,"updated_at":"2026-03-28T17:01:58.243000+05:30"},{"city":"Agartala","state":"Tripura","latitude":23.8315,"longitude":91.2868,"temp":24.2,"humidity":80,"rain":0.0,"pressure":1004.8,"uv_index":6.4,"wind_gusts":38.5,"aqi":145,"pm10":51.2,"pm2_5":41.6,"mosquito_risk":3,"arthritis_risk":5,"migraine_risk":4,"frizz_risk":1,"updated_at":"2026-03-28T17:01:58.243027+05:30"},{"city":"Shillong","state":"Meghalaya","latitude":25.5788,"longitude":91.8933,"temp":12.5,"humidity":87,"rain":0.0,"pressure":852.4,"uv_index":4.85,"wind_gusts":43.9,"aqi":95,"pm10":23.3,"pm2_5":18.2,"mosquito_risk":3,"arthritis_risk":10,"migraine_risk":3,"frizz_risk":0,"updated_at":"2026-03-28T17:01:58.243068+05:30"},{"city":"Imphal","state":"Manipur","latitude":24.817,"longitude":93.9368,"temp":17.6,"humidity":85,"rain":0.0,"pressure":920.7,"uv_index":7.7,"wind_gusts":52.6,"aqi":147,"pm10":50.9,"pm2_5":39.6,"mosquito_risk":3,"arthritis_risk":10,"migraine_risk":7,"frizz_risk":0,"updated_at":"2026-03-28T17:01:58.243078+05:30"},{"city":"Aizawl","state":"Mizoram","latitude":23.7271,"longitude":92.7176,"temp":18.4,"humidity":86,"rain":0.1,"pressure":890.4,"uv_index":7.2,"wind_gusts":38.2,"aqi":115,"pm10":49.6,"pm2_5":38.3,"mosquito_risk":6,"arthritis_risk":10,"migraine_risk":7,"frizz_risk":0,"updated_at":"2026-03-28T17:01:58.243086+05:30"},{"city":"Kohima","state":"Nagaland","latitude":25.6701,"longitude":94.1077,"temp":13.8,"humidity":89,"rain":0.0,"pressure":851.5,"uv_index":4.95,"wind_gusts":71.3,"aqi":113,"pm10":44.8,"pm2_5":35.6,"mosquito_risk":3,"arthritis_risk":10,"migraine_risk":3,"frizz_risk":0,"updated_at":"2026-03-28T17:01:58.243092+05:30"},{"city":"Gangtok","state":"Sikkim","latitude":27.3314,"longitude":88.6138,"temp":13.5,"humidity":89,"rain":0.0,"pressure":833.4,"uv_index":7.6,"wind_gusts":17.3,"aqi":94,"pm10":9.7,"pm2_5":8.7,"mosquito_risk":3,"arthritis_risk":10,"migraine_risk":7,"frizz_risk":0,"updated_at":"2026-03-28T17:01:58.243099+05:30"},{"city":"Siliguri","state":"West Bengal","latitude":26.7271,"longitude":88.3953,"temp":19.9,"humidity":83,"rain":0.0,"pressure":992.1,"uv_index":7.35,"wind_gusts":26.3,"aqi":153,"pm10":46.9,"pm2_5":38.3,"mosquito_risk":3,"arthritis_risk":10,"migraine_risk":7,"frizz_risk":1,"updated_at":"2026-03-28T17:02:01.578157+05:30"},{"city":"Durgapur","state":"West Bengal","latitude":23.5204,"longitude":87.3119,"temp":29.4,"humidity":54,"rain":0.0,"pressure":991.8,"uv_index":8.35,"wind_gusts":28.4,"aqi":125,"pm10":81.3,"pm2_5":64.5,"mosquito_risk":4,"arthritis_risk":5,"migraine_risk":7,"frizz_risk":1,"updated_at":"2026-03-28T17:02:01.578188+05:30"},{"city":"Asansol","state":"West Bengal","latitude":23.6739,"longitude":86.9524,"temp":31.0,"humidity":43,"rain":0.0,"pressure":990.1,"uv_index":8.4,"wind_gusts":31.7,"aqi":128,"pm10":78.2,"pm2_5":59.0,"mosquito_risk":0,"arthritis_risk":5,"migraine_risk":7,"frizz_risk":1,"updated_at":"2026-03-28T17:02:01.578198+05:30"},{"city":"Pondicherry","state":"Puducherry","latitude":11.9139,"longitude":79.8145,"temp":31.7,"humidity":65,"rain":0.0,"pressure":1004.6,"uv_index":9.25,"wind_gusts":32.4,"aqi":62,"pm10":23.0,"pm2_5":17.8,"mosquito_risk":3,"arthritis_risk":5,"migraine_risk":4,"frizz_risk":1,"updated_at":"2026-03-28T17:02:01.578205+05:30"},{"city":"Port Blair","state":"Andaman and Nicobar Islands","latitude":11.6234,"longitude":92.7265,"temp":28.1,"humidity":80,"rain":0.0,"pressure":1004.8,"uv_index":9.15,"wind_gusts":27.0,"aqi":69,"pm10":27.1,"pm2_5":20.1,"mosquito_risk":7,"arthritis_risk":5,"migraine_risk":4,"frizz_risk":1,"updated_at":"2026-03-28T17:02:01.578213+05:30"},{"city":"Haridwar","state":"Uttarakhand","latitude":29.9457,"longitude":78.1642,"temp":30.0,"humidity":43,"rain":0.0,"pressure":970.3,"uv_index":5.7,"wind_gusts":27.0,"aqi":94,"pm10":21.2,"pm2_5":15.8,"mosquito_risk":4,"arthritis_risk":5,"migraine_risk":3,"frizz_risk":0,"updated_at":"2026-03-28T17:02:01.578221+05:30"},{"city":"Rishikesh","state":"Uttarakhand","latitude":30.0869,"longitude":78.2676,"temp":28.6,"humidity":46,"rain":0.0,"pressure":963.1,"uv_index":5.8,"wind_gusts":24.8,"aqi":81,"pm10":19.3,"pm2_5":13.2,"mosquito_risk":4,"arthritis_risk":5,"migraine_risk":3,"frizz_risk":0,"updated_at":"2026-03-28T17:02:01.578228+05:30"},{"city":"Nainital","state":"Uttarakhand","latitude":29.3919,"longitude":79.4542,"temp":20.9,"humidity":56,"rain":0.0,"pressure":803.8,"uv_index":4.8,"wind_gusts":25.9,"aqi":92,"pm10":27.3,"pm2_5":18.6,"mosquito_risk":0,"arthritis_risk":5,"migraine_risk":3,"frizz_risk":0,"updated_at":"2026-03-28T17:02:01.578235+05:30"},{"city":"Mussoorie","state":"Uttarakhand","latitude":30.4599,"longitude":78.0664,"temp":18.7,"humidity":64,"rain":0.0,"pressure":800.1,"uv_index":5.65,"wind_gusts":25.9,"aqi":86,"pm10":24.0,"pm2_5":19.0,"mosquito_risk":3,"arthritis_risk":5,"migraine_risk":3,"frizz_risk":0,"updated_at":"2026-03-28T17:02:01.578243+05:30"},{"city":"Dharamshala","state":"Himachal Pradesh","latitude":32.219,"longitude":76.3234,"temp":20.7,"humidity":74,"rain":0.0,"pressure":865.7,"uv_index":6.9,"wind_gusts":16.6,"aqi":97,"pm10":17.6,"pm2_5":10.1,"mosquito_risk":3,"arthritis_risk":5,"migraine_risk":7,"frizz_risk":0,"updated_at":"2026-03-28T17:02:01.578249+05:30"},{"city":"Dalhousie","state":"Himachal Pradesh","latitude":32.5387,"longitude":75.971,"temp":19.1,"humidity":60,"rain":0.0,"pressure":801.1,"uv_index":6.5,"wind_gusts":17.3,"aqi":103,"pm10":16.9,"pm2_5":11.6,"mosquito_risk":0,"arthritis_risk":5,"migraine_risk":7,"frizz_risk":0,"updated_at":"2026-03-28T17:02:01.578257+05:30"},{"city":"Patiala","state":"Punjab","latitude":30.3398,"longitude":76.3869,"temp":29.5,"humidity":41,"rain":0.0,"pressure":974.5,"uv_index":5.9,"wind_gusts":17.3,"aqi":96,"pm10":152.7,"pm2_5":27.3,"mosquito_risk":4,"arthritis_risk":5,"migraine_risk":3,"frizz_risk":0,"updated_at":"2026-03-28T17:02:01.578264+05:30"},{"city":"Bhatinda","state":"Punjab","latitude":30.211,"longitude":74.9455,"temp":31.8,"humidity":30,"rain":0.0,"pressure":979.6,"uv_index":6.9,"wind_gusts":17.3,"aqi":78,"pm10":41.8,"pm2_5":14.8,"mosquito_risk":0,"arthritis_risk":5,"migraine_risk":7,"frizz_risk":0,"updated_at":"2026-03-28T17:02:01.578271+05:30"},{"city":"Rohtak","state":"Haryana","latitude":28.8955,"longitude":76.6066,"temp":30.4,"humidity":38,"rain":0.0,"pressure":978.0,"uv_index":6.55,"wind_gusts":14.8,"aqi":149,"pm10":189.5,"pm2_5":28.7,"mosquito_risk":0,"arthritis_risk":5,"migraine_risk":7,"frizz_risk":0,"updated_at":"2026-03-28T17:02:01.578277+05:30"},{"city":"Panipat","state":"Haryana","latitude":29.3909,"longitude":76.9635,"temp":30.0,"humidity":39,"rain":0.0,"pressure":976.6,"uv_index":5.7,"wind_gusts":19.4,"aqi":309,"pm10":289.6,"pm2_5":39.2,"mosquito_risk":4,"arthritis_risk":5,"migraine_risk":3,"frizz_risk":0,"updated_at":"2026-03-28T17:02:01.578284+05:30"},{"city":"Mathura","state":"Uttar Pradesh","latitude":27.4924,"longitude":77.6737,"temp":32.7,"humidity":33,"rain":0.0,"pressure":982.8,"uv_index":6.35,"wind_gusts":20.9,"aqi":287,"pm10":501.1,"pm2_5":51.9,"mosquito_risk":0,"arthritis_risk":5,"migraine_risk":7,"frizz_risk":0,"updated_at":"2026-03-28T17:02:01.578290+05:30"},{"city":"Vrindavan","state":"Uttar Pradesh","latitude":27.5823,"longitude":77.7027,"temp":32.2,"humidity":33,"rain":0.0,"pressure":983.3,"uv_index":6.35,"wind_gusts":22.7,"aqi":287,"pm10":501.1,"pm2_5":51.9,"mosquito_risk":0,"arthritis_risk":5,"migraine_risk":7,"frizz_risk":0,"updated_at":"2026-03-28T17:02:01.578296+05:30"},{"city":"Ayodhya","state":"Uttar Pradesh","latitude":26.7922,"longitude":82.1998,"temp":31.3,"humidity":37,"rain":0.0,"pressure":991.1,"uv_index":6.85,"wind_gusts":31.7,"aqi":96,"pm10":68.0,"pm2_5":22.4,"mosquito_risk":0,"arthritis_risk":5,"migraine_risk":7,"frizz_risk":0,"updated_at":"2026-03-28T17:02:01.578303+05:30"},{"city":"Ratlam","state":"Madhya Pradesh","latitude":23.3315,"longitude":75.0367,"temp":32.1,"humidity":34,"rain":0.0,"pressure":951.3,"uv_index":8.1,"wind_gusts":37.1,"aqi":45,"pm10":15.8,"pm2_5":6.0,"mosquito_risk":0,"arthritis_risk":5,"migraine_risk":7,"frizz_risk":0,"updated_at":"2026-03-28T17:02:01.578309+05:30"},{"city":"Sagar","state":"Madhya Pradesh","latitude":23.8388,"longitude":78.7378,"temp":34.1,"humidity":25,"rain":0.0,"pressure":946.1,"uv_index":8.15,"wind_gusts":32.4,"aqi":54,"pm10":72.2,"pm2_5":13.7,"mosquito_risk":0,"arthritis_risk":5,"migraine_risk":7,"frizz_risk":0,"updated_at":"2026-03-28T17:02:01.578315+05:30"},{"city":"Satna","state":"Madhya Pradesh","latitude":24.6005,"longitude":80.8322,"temp":34.3,"humidity":22,"rain":0.0,"pressure":966.9,"uv_index":8.1,"wind_gusts":23.8,"aqi":98,"pm10":46.1,"pm2_5":13.4,"mosquito_risk":0,"arthritis_risk":5,"migraine_risk":7,"frizz_risk":0,"updated_at":"2026-03-28T17:02:01.578321+05:30"},{"city":"Akola","state":"Maharashtra","latitude":20.7002,"longitude":77.0082,"temp":36.9,"humidity":16,"rain":0.0,"pressure":970.7,"uv_index":8.5,"wind_gusts":37.1,"aqi":56,"pm10":16.2,"pm2_5":7.4,"mosquito_risk":0,"arthritis_risk":5,"migraine_risk":10,"frizz_risk":0,"updated_at":"2026-03-28T17:02:01.578328+05:30"},{"city":"Amravati","state":"Maharashtra","latitude":20.9374,"longitude":77.7796,"temp":36.7,"humidity":20,"rain":0.0,"pressure":962.8,"uv_index":8.45,"wind_gusts":33.5,"aqi":57,"pm10":15.9,"pm2_5":6.8,"mosquito_risk":0,"arthritis_risk":5,"migraine_risk":10,"frizz_risk":0,"updated_at":"2026-03-28T17:02:01.578335+05:30"},{"city":"Latur","state":"Maharashtra","latitude":18.4088,"longitude":76.5604,"temp":35.7,"humidity":18,"rain":0.0,"pressure":936.2,"uv_index":8.8,"wind_gusts":32.4,"aqi":78,"pm10":13.9,"pm2_5":10.4,"mosquito_risk":0,"arthritis_risk":5,"migraine_risk":10,"frizz_risk":0,"updated_at":"2026-03-28T17:02:01.578342+05:30"},{"city":"Nanded","state":"Maharashtra","latitude":19.1383,"longitude":77.3091,"temp":38.4,"humidity":14,"rain":0.0,"pressure":964.0,"uv_index":8.7,"wind_gusts":28.8,"aqi":74,"pm10":9.5,"pm2_5":7.5,"mosquito_risk":0,"arthritis_risk":5,"migraine_risk":10,"frizz_risk":0,"updated_at":"2026-03-28T17:02:01.578348+05:30"},{"city":"Gulbarga","state":"Karnataka","latitude":17.3297,"longitude":76.8343,"temp":38.1,"humidity":16,"rain":0.0,"pressure":954.4,"uv_index":8.9,"wind_gusts":31.7,"aqi":109,"pm10":25.0,"pm2_5":18.0,"mosquito_risk":0,"arthritis_risk":5,"migraine_risk":10,"frizz_risk":0,"updated_at":"2026-03-28T17:02:01.578354+05:30"},{"city":"Bidar","state":"Karnataka","latitude":17.9104,"longitude":77.5199,"temp":36.5,"humidity":17,"rain":0.0,"pressure":931.9,"uv_index":8.85,"wind_gusts":28.8,"aqi":105,"pm10":17.5,"pm2_5":13.6,"mosquito_risk":0,"arthritis_risk":5,"migraine_risk":10,"frizz_risk":0,"updated_at":"2026-03-28T17:02:01.578360+05:30"},{"city":"Hospet","state":"Karnataka","latitude":15.2689,"longitude":76.3909,"temp":35.5,"humidity":29,"rain":0.0,"pressure":952.2,"uv_index":9.1,"wind_gusts":45.0,"aqi":135,"pm10":52.0,"pm2_5":40.4,"mosquito_risk":0,"arthritis_risk":5,"migraine_risk":10,"frizz_risk":0,"updated_at":"2026-03-28T17:02:01.578366+05:30"},{"city":"Tirupur","state":"Tamil Nadu","latitude":11.1085,"longitude":77.3411,"temp":37.3,"humidity":24,"rain":0.0,"pressure":970.7,"uv_index":9.45,"wind_gusts":43.2,"aqi":131,"pm10":35.3,"pm2_5":27.4,"mosquito_risk":0,"arthritis_risk":5,"migraine_risk":10,"frizz_risk":0,"updated_at":"2026-03-28T17:02:01.578372+05:30"},{"city":"Alappuzha","state":"Kerala","latitude":9.4981,"longitude":76.3388,"temp":29.1,"humidity":82,"rain":0.0,"pressure":1005.8,"uv_index":9.15,"wind_gusts":31.3,"aqi":85,"pm10":29.0,"pm2_5":23.7,"mosquito_risk":7,"arthritis_risk":5,"migraine_risk":4,"frizz_risk":1,"updated_at":"2026-03-28T17:02:01.578378+05:30"},{"city":"Munnar","state":"Kerala","latitude":10.0889,"longitude":77.0595,"temp":23.6,"humidity":83,"rain":0.0,"pressure":855.6,"uv_index":9.7,"wind_gusts":40.7,"aqi":76,"pm10":27.2,"pm2_5":22.1,"mosquito_risk":3,"arthritis_risk":5,"migraine_risk":7,"frizz_risk":1,"updated_at":"2026-03-28T17:02:01.578385+05:30"},{"city":"Silchar","state":"Assam","latitude":24.8333,"longitude":92.7789,"temp":22.8,"humidity":81,"rain":0.0,"pressure":1004.0,"uv_index":3.4,"wind_gusts":30.2,"aqi":153,"pm10":57.5,"pm2_5":46.0,"mosquito_risk":3,"arthritis_risk":5,"migraine_risk":0,"frizz_risk":1,"updated_at":"2026-03-28T17:02:01.578391+05:30"},{"city":"Dibrugarh","state":"Assam","latitude":27.4728,"longitude":94.912,"temp":20.6,"humidity":86,"rain":0.1,"pressure":995.6,"uv_index":4.5,"wind_gusts":31.0,"aqi":119,"pm10":41.7,"pm2_5":32.1,"mosquito_risk":6,"arthritis_risk":5,"migraine_risk":3,"frizz_risk":1,"updated_at":"2026-03-28T17:02:01.578398+05:30"}]