[{"city":"Delhi","state":"Delhi","latitude":28.6139,"longitude":77.209,"temp":37.3,"humidity":20,"rain":0.0,"pressure":980.0,"uv_index":7.8,"wind_gusts":37.8,"aqi":539,"pm10":670.6,"pm2_5":138.3,"no2":29.7,"co":449.0,"o3":73.0,"so2":17.9,"mosquito_risk":0,"arthritis_risk":5,"migraine_risk":10,"frizz_risk":0,"updated_at":"2026-05-22T21:19:48.562006+05:30"},{"city":"Mumbai","state":"Maharashtra","latitude":19.076,"longitude":72.8777,"temp":30.5,"humidity":74,"rain":0.0,"pressure":1009.8,"uv_index":7.15,"wind_gusts":37.8,"aqi":62,"pm10":23.8,"pm2_5":16.5,"no2":14.3,"co":221.0,"o3":51.0,"so2":10.6,"mosquito_risk":3,"arthritis_risk":0,"migraine_risk":4,"frizz_risk":1,"updated_at":"2026-05-22T21:19:48.562041+05:30"},{"city":"Bangalore","state":"Karnataka","latitude":12.9716,"longitude":77.5946,"temp":21.0,"humidity":92,"rain":0.3,"pressure":914.4,"uv_index":7.45,"wind_gusts":36.4,"aqi":45,"pm10":16.9,"pm2_5":15.7,"no2":39.5,"co":419.0,"o3":45.0,"so2":8.6,"mosquito_risk":6,"arthritis_risk":5,"migraine_risk":7,"frizz_risk":1,"updated_at":"2026-05-22T21:19:48.562056+05:30"},{"city":"Hyderabad","state":"Telangana","latitude":17.385,"longitude":78.4867,"temp":32.3,"humidity":51,"rain":0.0,"pressure":953.4,"uv_index":7.45,"wind_gusts":49.3,"aqi":106,"pm10":57.3,"pm2_5":45.6,"no2":31.2,"co":421.0,"o3":72.0,"so2":11.3,"mosquito_risk":0,"arthritis_risk":5,"migraine_risk":7,"frizz_risk":1,"updated_at":"2026-05-22T21:19:48.562066+05:30"},{"city":"Chennai","state":"Tamil Nadu","latitude":13.0827,"longitude":80.2707,"temp":32.0,"humidity":69,"rain":0.0,"pressure":1006.8,"uv_index":9.05,"wind_gusts":41.8,"aqi":113,"pm10":26.4,"pm2_5":21.0,"no2":9.5,"co":258.0,"o3":125.0,"so2":7.2,"mosquito_risk":3,"arthritis_risk":5,"migraine_risk":4,"frizz_risk":1,"updated_at":"2026-05-22T21:19:48.562074+05:30"},{"city":"Kolkata","state":"West Bengal","latitude":22.5726,"longitude":88.3639,"temp":29.9,"humidity":87,"rain":0.0,"pressure":1003.1,"uv_index":8.95,"wind_gusts":36.4,"aqi":109,"pm10":33.4,"pm2_5":27.2,"no2":9.2,"co":401.0,"o3":65.0,"so2":7.7,"mosquito_risk":7,"arthritis_risk":5,"migraine_risk":4,"frizz_risk":1,"updated_at":"2026-05-22T21:19:48.562082+05:30"},{"city":"Pune","state":"Maharashtra","latitude":18.5204,"longitude":73.8567,"temp":26.7,"humidity":79,"rain":0.0,"pressure":950.1,"uv_index":8.45,"wind_gusts":41.0,"aqi":51,"pm10":10.3,"pm2_5":9.7,"no2":16.7,"co":218.0,"o3":57.0,"so2":8.0,"mosquito_risk":7,"arthritis_risk":5,"migraine_risk":7,"frizz_risk":1,"updated_at":"2026-05-22T21:19:48.562089+05:30"},{"city":"Ahmedabad","state":"Gujarat","latitude":23.0225,"longitude":72.5714,"temp":33.7,"humidity":54,"rain":0.0,"pressure":1001.0,"uv_index":8.15,"wind_gusts":36.4,"aqi":74,"pm10":37.5,"pm2_5":23.6,"no2":16.2,"co":184.0,"o3":62.0,"so2":5.6,"mosquito_risk":0,"arthritis_risk":5,"migraine_risk":4,"frizz_risk":1,"updated_at":"2026-05-22T21:19:48.562095+05:30"},{"city":"Jaipur","state":"Rajasthan","latitude":26.9124,"longitude":75.7873,"temp":34.9,"humidity":22,"rain":0.0,"pressure":958.0,"uv_index":8.25,"wind_gusts":42.1,"aqi":156,"pm10":241.2,"pm2_5":57.4,"no2":11.8,"co":279.0,"o3":69.0,"so2":5.4,"mosquito_risk":0,"arthritis_risk":5,"migraine_risk":7,"frizz_risk":0,"updated_at":"2026-05-22T21:19:48.562125+05:30"},{"city":"Lucknow","state":"Uttar Pradesh","latitude":26.8467,"longitude":80.9462,"temp":36.3,"humidity":41,"rain":0.0,"pressure":988.8,"uv_index":8.25,"wind_gusts":32.4,"aqi":162,"pm10":290.6,"pm2_5":81.5,"no2":25.1,"co":236.0,"o3":75.0,"so2":12.2,"mosquito_risk":0,"arthritis_risk":5,"migraine_risk":10,"frizz_risk":1,"updated_at":"2026-05-22T21:19:48.562135+05:30"},{"city":"Kanpur","state":"Uttar Pradesh","latitude":26.4499,"longitude":80.3319,"temp":37.0,"humidity":26,"rain":0.0,"pressure":987.2,"uv_index":8.25,"wind_gusts":38.2,"aqi":289,"pm10":445.2,"pm2_5":95.5,"no2":25.6,"co":457.0,"o3":66.0,"so2":10.7,"mosquito_risk":0,"arthritis_risk":5,"migraine_risk":10,"frizz_risk":0,"updated_at":"2026-05-22T21:19:48.562142+05:30"},{"city":"Chandigarh","state":"Chandigarh","latitude":30.7333,"longitude":76.7794,"temp":30.8,"humidity":33,"rain":0.0,"pressure":966.5,"uv_index":7.75,"wind_gusts":68.8,"aqi":92,"pm10":61.7,"pm2_5":31.2,"no2":14.5,"co":439.0,"o3":96.0,"so2":11.7,"mosquito_risk":0,"arthritis_risk":5,"migraine_risk":7,"frizz_risk":0,"updated_at":"2026-05-22T21:19:48.562149+05:30"},{"city":"Srinagar","state":"Jammu and Kashmir","latitude":34.0837,"longitude":74.7973,"temp":14.1,"humidity":91,"rain":0.0,"pressure":844.4,"uv_index":8.95,"wind_gusts":35.3,"aqi":62,"pm10":27.9,"pm2_5":17.2,"no2":22.3,"co":731.0,"o3":52.0,"so2":1.7,"mosquito_risk":3,"arthritis_risk":10,"migraine_risk":7,"frizz_risk":0,"updated_at":"2026-05-22T21:19:48.562156+05:30"},{"city":"Jammu","state":"Jammu and Kashmir","latitude":32.7266,"longitude":74.857,"temp":30.5,"humidity":34,"rain":0.0,"pressure":970.9,"uv_index":8.55,"wind_gusts":41.8,"aqi":77,"pm10":98.7,"pm2_5":47.0,"no2":28.7,"co":625.0,"o3":69.0,"so2":4.6,"mosquito_risk":0,"arthritis_risk":5,"migraine_risk":7,"frizz_risk":0,"updated_at":"2026-05-22T21:19:48.562162+05:30"},{"city":"Amritsar","state":"Punjab","latitude":31.634,"longitude":74.8723,"temp":33.0,"humidity":38,"rain":0.0,"pressure":978.5,"uv_index":8.45,"wind_gusts":56.2,"aqi":84,"pm10":102.4,"pm2_5":52.0,"no2":33.3,"co":647.0,"o3":66.0,"so2":9.1,"mosquito_risk":0,"arthritis_risk":5,"migraine_risk":7,"frizz_risk":1,"updated_at":"2026-05-22T21:19:48.562168+05:30"},{"city":"Ludhiana","state":"Punjab","latitude":30.901,"longitude":75.8573,"temp":31.9,"humidity":37,"rain":0.0,"pressure":976.4,"uv_index":8.05,"wind_gusts":45.7,"aqi":87,"pm10":72.9,"pm2_5":37.4,"no2":15.5,"co":385.0,"o3":81.0,"so2":5.1,"mosquito_risk":0,"arthritis_risk":5,"migraine_risk":7,"frizz_risk":0,"updated_at":"2026-05-22T21:19:48.562174+05:30"},{"city":"Jalandhar","state":"Punjab","latitude":31.326,"longitude":75.5762,"temp":31.9,"humidity":41,"rain":0.0,"pressure":977.3,"uv_index":8.2,"wind_gusts":47.5,"aqi":91,"pm10":86.4,"pm2_5":39.1,"no2":15.5,"co":510.0,"o3":79.0,"so2":4.3,"mosquito_risk":0,"arthritis_risk":5,"migraine_risk":7,"frizz_risk":1,"updated_at":"2026-05-22T21:19:48.562180+05:30"},{"city":"Dehradun","state":"Uttarakhand","latitude":30.6284,"longitude":78.0322,"temp":17.4,"humidity":61,"rain":0.0,"pressure":828.9,"uv_index":8.2,"wind_gusts":38.9,"aqi":86,"pm10":84.3,"pm2_5":29.7,"no2":29.4,"co":176.0,"o3":80.0,"so2":2.6,"mosquito_risk":3,"arthritis_risk":5,"migraine_risk":7,"frizz_risk":0,"updated_at":"2026-05-22T21:19:48.562186+05:30"},{"city":"Shimla","state":"Himachal Pradesh","latitude":31.1048,"longitude":77.1734,"temp":15.9,"humidity":49,"rain":0.0,"pressure":784.6,"uv_index":7.6,"wind_gusts":36.7,"aqi":78,"pm10":69.4,"pm2_5":25.3,"no2":19.1,"co":253.0,"o3":83.0,"so2":3.3,"mosquito_risk":0,"arthritis_risk":5,"migraine_risk":7,"frizz_risk":0,"updated_at":"2026-05-22T21:19:48.562195+05:30"},{"city":"Manali","state":"Himachal Pradesh","latitude":32.2396,"longitude":77.1887,"temp":15.5,"humidity":78,"rain":0.2,"pressure":819.1,"uv_index":8.05,"wind_gusts":51.8,"aqi":78,"pm10":7.7,"pm2_5":4.6,"no2":42.4,"co":278.0,"o3":79.0,"so2":0.5,"mosquito_risk":6,"arthritis_risk":5,"migraine_risk":7,"frizz_risk":0,"updated_at":"2026-05-22T21:19:48.562202+05:30"},{"city":"Gurgaon","state":"Haryana","latitude":28.4595,"longitude":77.0266,"temp":34.2,"humidity":28,"rain":0.0,"pressure":978.4,"uv_index":7.85,"wind_gusts":35.3,"aqi":1500,"pm10":1046.8,"pm2_5":202.6,"no2":39.7,"co":517.0,"o3":64.0,"so2":19.0,"mosquito_risk":0,"arthritis_risk":5,"migraine_risk":7,"frizz_risk":0,"updated_at":"2026-05-22T21:19:48.562208+05:30"},{"city":"Noida","state":"Uttar Pradesh","latitude":28.5355,"longitude":77.391,"temp":35.8,"humidity":26,"rain":0.0,"pressure":981.2,"uv_index":7.8,"wind_gusts":30.2,"aqi":1500,"pm10":1046.8,"pm2_5":202.6,"no2":39.7,"co":625.0,"o3":64.0,"so2":19.0,"mosquito_risk":0,"arthritis_risk":5,"migraine_risk":10,"frizz_risk":0,"updated_at":"2026-05-22T21:19:48.562214+05:30"},{"city":"Ghaziabad","state":"Uttar Pradesh","latitude":28.6692,"longitude":77.4538,"temp":33.0,"humidity":36,"rain":0.0,"pressure":979.6,"uv_index":7.8,"wind_gusts":38.5,"aqi":411,"pm10":371.6,"pm2_5":98.3,"no2":21.7,"co":372.0,"o3":92.0,"so2":18.2,"mosquito_risk":0,"arthritis_risk":5,"migraine_risk":7,"frizz_risk":0,"updated_at":"2026-05-22T21:19:48.562223+05:30"},{"city":"Faridabad","state":"Haryana","latitude":28.4089,"longitude":77.3178,"temp":37.2,"humidity":20,"rain":0.0,"pressure":980.6,"uv_index":7.85,"wind_gusts":36.7,"aqi":1500,"pm10":1046.8,"pm2_5":202.6,"no2":39.7,"co":565.0,"o3":64.0,"so2":19.0,"mosquito_risk":0,"arthritis_risk":5,"migraine_risk":10,"frizz_risk":0,"updated_at":"2026-05-22T21:19:48.562234+05:30"},{"city":"Meerut","state":"Uttar Pradesh","latitude":28.9845,"longitude":77.7064,"temp":33.7,"humidity":32,"rain":0.0,"pressure":978.2,"uv_index":7.7,"wind_gusts":33.5,"aqi":411,"pm10":371.6,"pm2_5":98.3,"no2":21.7,"co":342.0,"o3":92.0,"so2":18.2,"mosquito_risk":0,"arthritis_risk":5,"migraine_risk":7,"frizz_risk":0,"updated_at":"2026-05-22T21:19:48.562240+05:30"},{"city":"Agra","state":"Uttar Pradesh","latitude":27.1767,"longitude":78.0081,"temp":36.1,"humidity":22,"rain":0.0,"pressure":983.9,"uv_index":8.1,"wind_gusts":41.4,"aqi":912,"pm10":577.4,"pm2_5":123.4,"no2":27.9,"co":242.0,"o3":53.0,"so2":10.4,"mosquito_risk":0,"arthritis_risk":5,"migraine_risk":10,"frizz_risk":0,"updated_at":"2026-05-22T21:19:48.562246+05:30"},{"city":"Varanasi","state":"Uttar Pradesh","latitude":25.3176,"longitude":82.9739,"temp":35.8,"humidity":40,"rain":0.0,"pressure":993.1,"uv_index":8.75,"wind_gusts":32.0,"aqi":154,"pm10":174.6,"pm2_5":71.9,"no2":29.6,"co":827.0,"o3":80.0,"so2":16.6,"mosquito_risk":0,"arthritis_risk":5,"migraine_risk":10,"frizz_risk":1,"updated_at":"2026-05-22T21:19:48.562252+05:30"},{"city":"Prayagraj","state":"Uttar Pradesh","latitude":25.4358,"longitude":81.8463,"temp":36.2,"humidity":26,"rain":0.0,"pressure":991.5,"uv_index":8.65,"wind_gusts":38.9,"aqi":146,"pm10":118.7,"pm2_5":49.1,"no2":17.5,"co":401.0,"o3":83.0,"so2":10.8,"mosquito_risk":0,"arthritis_risk":5,"migraine_risk":10,"frizz_risk":0,"updated_at":"2026-05-22T21:19:48.562259+05:30"},{"city":"Gorakhpur","state":"Uttar Pradesh","latitude":26.7606,"longitude":83.3732,"temp":31.1,"humidity":73,"rain":0.0,"pressure":993.3,"uv_index":8.6,"wind_gusts":31.3,"aqi":168,"pm10":123.4,"pm2_5":77.5,"no2":24.6,"co":437.0,"o3":97.0,"so2":15.9,"mosquito_risk":3,"arthritis_risk":5,"migraine_risk":7,"frizz_risk":1,"updated_at":"2026-05-22T21:19:48.562267+05:30"},{"city":"Bareilly","state":"Uttar Pradesh","latitude":28.367,"longitude":79.4304,"temp":32.7,"humidity":45,"rain":0.0,"pressure":982.3,"uv_index":8.05,"wind_gusts":29.9,"aqi":169,"pm10":146.2,"pm2_5":71.5,"no2":20.0,"co":351.0,"o3":110.0,"so2":16.0,"mosquito_risk":0,"arthritis_risk":5,"migraine_risk":7,"frizz_risk":1,"updated_at":"2026-05-22T21:19:48.562274+05:30"},{"city":"Aligarh","state":"Uttar Pradesh","latitude":27.8974,"longitude":78.088,"temp":34.2,"humidity":28,"rain":0.0,"pressure":981.7,"uv_index":7.95,"wind_gusts":37.8,"aqi":810,"pm10":881.0,"pm2_5":172.3,"no2":22.4,"co":348.0,"o3":91.0,"so2":12.6,"mosquito_risk":0,"arthritis_risk":5,"migraine_risk":7,"frizz_risk":0,"updated_at":"2026-05-22T21:19:48.562279+05:30"},{"city":"Moradabad","state":"Uttar Pradesh","latitude":28.8386,"longitude":78.7733,"temp":33.5,"humidity":33,"rain":0.0,"pressure":979.4,"uv_index":7.9,"wind_gusts":32.4,"aqi":186,"pm10":170.4,"pm2_5":87.1,"no2":22.3,"co":432.0,"o3":91.0,"so2":12.3,"mosquito_risk":0,"arthritis_risk":5,"migraine_risk":7,"frizz_risk":0,"updated_at":"2026-05-22T21:19:48.562285+05:30"},{"city":"Saharanpur","state":"Uttar Pradesh","latitude":29.9637,"longitude":77.546,"temp":33.3,"humidity":26,"rain":0.0,"pressure":972.7,"uv_index":7.5,"wind_gusts":42.1,"aqi":165,"pm10":147.1,"pm2_5":61.5,"no2":28.9,"co":328.0,"o3":81.0,"so2":12.2,"mosquito_risk":0,"arthritis_risk":5,"migraine_risk":7,"frizz_risk":0,"updated_at":"2026-05-22T21:19:48.562291+05:30"},{"city":"Jhansi","state":"Uttar Pradesh","latitude":25.4484,"longitude":78.5685,"temp":34.1,"humidity":23,"rain":0.0,"pressure":975.1,"uv_index":8.5,"wind_gusts":42.1,"aqi":65,"pm10":70.5,"pm2_5":29.9,"no2":5.0,"co":162.0,"o3":73.0,"so2":3.0,"mosquito_risk":0,"arthritis_risk":5,"migraine_risk":7,"frizz_risk":0,"updated_at":"2026-05-22T21:19:51.882366+05:30"},{"city":"Surat","state":"Gujarat","latitude":21.1702,"longitude":72.8311,"temp":30.4,"humidity":75,"rain":0.0,"pressure":1007.2,"uv_index":7.75,"wind_gusts":42.1,"aqi":72,"pm10":29.2,"pm2_5":22.4,"no2":26.3,"co":230.0,"o3":29.0,"so2":42.6,"mosquito_risk":3,"arthritis_risk":5,"migraine_risk":4,"frizz_risk":1,"updated_at":"2026-05-22T21:19:51.882397+05:30"},{"city":"Vadodara","state":"Gujarat","latitude":22.3072,"longitude":73.1812,"temp":32.2,"humidity":56,"rain":0.0,"pressure":1003.8,"uv_index":8.15,"wind_gusts":41.4,"aqi":79,"pm10":33.6,"pm2_5":23.0,"no2":15.2,"co":227.0,"o3":69.0,"so2":18.4,"mosquito_risk":0,"arthritis_risk":5,"migraine_risk":4,"frizz_risk":1,"updated_at":"2026-05-22T21:19:51.882407+05:30"},{"city":"Rajkot","state":"Gujarat","latitude":22.3039,"longitude":70.8022,"temp":33.3,"humidity":52,"rain":0.0,"pressure":994.0,"uv_index":7.8,"wind_gusts":45.7,"aqi":75,"pm10":36.9,"pm2_5":21.9,"no2":4.5,"co":143.0,"o3":85.0,"so2":6.5,"mosquito_risk":0,"arthritis_risk":5,"migraine_risk":7,"frizz_risk":1,"updated_at":"2026-05-22T21:19:51.882416+05:30"},{"city":"Thane","state":"Maharashtra","latitude":19.2183,"longitude":72.9781,"temp":30.0,"humidity":78,"rain":0.0,"pressure":1009.2,"uv_index":7.15,"wind_gusts":32.8,"aqi":62,"pm10":23.8,"pm2_5":16.5,"no2":14.3,"co":278.0,"o3":51.0,"so2":10.6,"mosquito_risk":7,"arthritis_risk":0,"migraine_risk":4,"frizz_risk":1,"updated_at":"2026-05-22T21:19:51.882424+05:30"},{"city":"Nagpur","state":"Maharashtra","latitude":21.1458,"longitude":79.0882,"temp":39.3,"humidity":16,"rain":0.0,"pressure":970.8,"uv_index":8.75,"wind_gusts":42.8,"aqi":103,"pm10":25.6,"pm2_5":19.8,"no2":9.4,"co":225.0,"o3":105.0,"so2":10.7,"mosquito_risk":0,"arthritis_risk":5,"migraine_risk":10,"frizz_risk":0,"updated_at":"2026-05-22T21:19:51.882431+05:30"},{"city":"Nashik","state":"Maharashtra","latitude":19.9975,"longitude":73.7898,"temp":26.9,"humidity":78,"rain":0.0,"pressure":947.2,"uv_index":8.15,"wind_gusts":41.0,"aqi":51,"pm10":18.0,"pm2_5":12.2,"no2":4.1,"co":202.0,"o3":66.0,"so2":1.5,"mosquito_risk":7,"arthritis_risk":5,"migraine_risk":7,"frizz_risk":1,"updated_at":"2026-05-22T21:19:51.882439+05:30"},{"city":"Aurangabad","state":"Maharashtra","latitude":19.8762,"longitude":75.3433,"temp":30.9,"humidity":51,"rain":0.0,"pressure":945.7,"uv_index":3.15,"wind_gusts":38.5,"aqi":71,"pm10":27.2,"pm2_5":19.2,"no2":4.7,"co":196.0,"o3":98.0,"so2":4.4,"mosquito_risk":0,"arthritis_risk":5,"migraine_risk":3,"frizz_risk":1,"updated_at":"2026-05-22T21:19:51.882447+05:30"},{"city":"Solapur","state":"Maharashtra","latitude":17.6599,"longitude":75.9064,"temp":30.1,"humidity":57,"rain":0.0,"pressure":958.8,"uv_index":8.95,"wind_gusts":37.8,"aqi":85,"pm10":41.6,"pm2_5":30.4,"no2":7.1,"co":207.0,"o3":104.0,"so2":5.1,"mosquito_risk":0,"arthritis_risk":5,"migraine_risk":7,"frizz_risk":1,"updated_at":"2026-05-22T21:19:51.882454+05:30"},{"city":"Kolhapur","state":"Maharashtra","latitude":16.705,"longitude":74.2433,"temp":24.9,"humidity":91,"rain":0.0,"pressure":949.8,"uv_index":7.95,"wind_gusts":40.0,"aqi":42,"pm10":10.9,"pm2_5":8.9,"no2":6.7,"co":186.0,"o3":61.0,"so2":2.5,"mosquito_risk":3,"arthritis_risk":5,"migraine_risk":7,"frizz_risk":1,"updated_at":"2026-05-22T21:19:51.882462+05:30"},{"city":"Goa","state":"Goa","latitude":15.2993,"longitude":74.124,"temp":27.4,"humidity":88,"rain":0.0,"pressure":1000.6,"uv_index":6.55,"wind_gusts":32.8,"aqi":34,"pm10":13.4,"pm2_5":11.0,"no2":6.0,"co":336.0,"o3":48.0,"so2":1.1,"mosquito_risk":7,"arthritis_risk":5,"migraine_risk":4,"frizz_risk":1,"updated_at":"2026-05-22T21:19:51.882470+05:30"},{"city":"Jodhpur","state":"Rajasthan","latitude":26.2389,"longitude":73.0243,"temp":35.7,"humidity":25,"rain":0.0,"pressure":981.0,"uv_index":8.45,"wind_gusts":34.9,"aqi":154,"pm10":290.6,"pm2_5":65.7,"no2":12.6,"co":258.0,"o3":67.0,"so2":4.3,"mosquito_risk":0,"arthritis_risk":5,"migraine_risk":10,"frizz_risk":0,"updated_at":"2026-05-22T21:19:51.882477+05:30"},{"city":"Udaipur","state":"Rajasthan","latitude":24.5854,"longitude":73.7125,"temp":32.8,"humidity":23,"rain":0.0,"pressure":946.4,"uv_index":8.9,"wind_gusts":40.3,"aqi":65,"pm10":69.6,"pm2_5":27.6,"no2":3.3,"co":161.0,"o3":83.0,"so2":2.2,"mosquito_risk":0,"arthritis_risk":5,"migraine_risk":7,"frizz_risk":0,"updated_at":"2026-05-22T21:19:51.882485+05:30"},{"city":"Kota","state":"Rajasthan","latitude":25.2138,"longitude":75.8648,"temp":36.0,"humidity":15,"rain":0.0,"pressure":976.7,"uv_index":8.4,"wind_gusts":40.3,"aqi":65,"pm10":65.2,"pm2_5":30.6,"no2":11.9,"co":192.0,"o3":69.0,"so2":3.9,"mosquito_risk":0,"arthritis_risk":5,"migraine_risk":10,"frizz_risk":0,"updated_at":"2026-05-22T21:19:51.882492+05:30"},{"city":"Bikaner","state":"Rajasthan","latitude":28.0229,"longitude":73.3119,"temp":36.2,"humidity":21,"rain":0.0,"pressure":979.1,"uv_index":8.4,"wind_gusts":25.9,"aqi":165,"pm10":102.9,"pm2_5":41.4,"no2":3.6,"co":166.0,"o3":74.0,"so2":2.3,"mosquito_risk":0,"arthritis_risk":5,"migraine_risk":10,"frizz_risk":0,"updated_at":"2026-05-22T21:19:51.882499+05:30"},{"city":"Ajmer","state":"Rajasthan","latitude":26.4499,"longitude":74.6399,"temp":32.8,"humidity":22,"rain":0.0,"pressure":953.8,"uv_index":8.4,"wind_gusts":44.3,"aqi":80,"pm10":119.0,"pm2_5":41.6,"no2":5.8,"co":161.0,"o3":82.0,"so2":3.6,"mosquito_risk":0,"arthritis_risk":5,"migraine_risk":7,"frizz_risk":0,"updated_at":"2026-05-22T21:19:51.882507+05:30"},{"city":"Gwalior","state":"Madhya Pradesh","latitude":26.2183,"longitude":78.1828,"temp":36.1,"humidity":19,"rain":0.0,"pressure":979.9,"uv_index":8.3,"wind_gusts":44.6,"aqi":86,"pm10":88.0,"pm2_5":36.2,"no2":5.4,"co":162.0,"o3":78.0,"so2":3.4,"mosquito_risk":0,"arthritis_risk":5,"migraine_risk":10,"frizz_risk":0,"updated_at":"2026-05-22T21:19:51.882514+05:30"},{"city":"Indore","state":"Madhya Pradesh","latitude":22.7196,"longitude":75.8577,"temp":34.8,"humidity":25,"rain":0.0,"pressure":948.2,"uv_index":8.7,"wind_gusts":42.5,"aqi":68,"pm10":32.1,"pm2_5":22.2,"no2":4.8,"co":241.0,"o3":95.0,"so2":4.2,"mosquito_risk":0,"arthritis_risk":5,"migraine_risk":7,"frizz_risk":0,"updated_at":"2026-05-22T21:19:51.882521+05:30"},{"city":"Bhopal","state":"Madhya Pradesh","latitude":23.2599,"longitude":77.4126,"temp":36.0,"humidity":19,"rain":0.0,"pressure":952.3,"uv_index":8.7,"wind_gusts":40.7,"aqi":69,"pm10":24.0,"pm2_5":17.8,"no2":7.3,"co":383.0,"o3":81.0,"so2":4.2,"mosquito_risk":0,"arthritis_risk":5,"migraine_risk":10,"frizz_risk":0,"updated_at":"2026-05-22T21:19:51.882529+05:30"},{"city":"Jabalpur","state":"Madhya Pradesh","latitude":23.1815,"longitude":79.9864,"temp":34.6,"humidity":18,"rain":0.0,"pressure":959.3,"uv_index":8.9,"wind_gusts":40.0,"aqi":67,"pm10":33.2,"pm2_5":16.5,"no2":9.7,"co":167.0,"o3":80.0,"so2":3.2,"mosquito_risk":0,"arthritis_risk":5,"migraine_risk":7,"frizz_risk":0,"updated_at":"2026-05-22T21:19:51.882536+05:30"},{"city":"Ujjain","state":"Madhya Pradesh","latitude":23.1765,"longitude":75.7885,"temp":34.7,"humidity":25,"rain":0.0,"pressure":953.5,"uv_index":8.65,"wind_gusts":40.0,"aqi":66,"pm10":35.6,"pm2_5":23.3,"no2":3.0,"co":201.0,"o3":95.0,"so2":3.9,"mosquito_risk":0,"arthritis_risk":5,"migraine_risk":7,"frizz_risk":0,"updated_at":"2026-05-22T21:19:51.882544+05:30"},{"city":"Visakhapatnam","state":"Andhra Pradesh","latitude":17.6868,"longitude":83.2185,"temp":32.8,"humidity":70,"rain":0.0,"pressure":1000.3,"uv_index":9.0,"wind_gusts":45.0,"aqi":149,"pm10":65.7,"pm2_5":55.4,"no2":41.3,"co":543.0,"o3":102.0,"so2":60.3,"mosquito_risk":3,"arthritis_risk":5,"migraine_risk":4,"frizz_risk":1,"updated_at":"2026-05-22T21:19:51.882551+05:30"},{"city":"Vijayawada","state":"Andhra Pradesh","latitude":16.5062,"longitude":80.648,"temp":36.5,"humidity":41,"rain":0.0,"pressure":1000.3,"uv_index":9.1,"wind_gusts":52.9,"aqi":108,"pm10":43.0,"pm2_5":38.6,"no2":14.8,"co":324.0,"o3":93.0,"so2":8.3,"mosquito_risk":0,"arthritis_risk":5,"migraine_risk":7,"frizz_risk":1,"updated_at":"2026-05-22T21:19:51.882558+05:30"},{"city":"Guntur","state":"Andhra Pradesh","latitude":16.3067,"longitude":80.4365,"temp":35.7,"humidity":41,"rain":0.0,"pressure":1001.3,"uv_index":9.1,"wind_gusts":52.2,"aqi":116,"pm10":38.9,"pm2_5":34.5,"no2":12.2,"co":280.0,"o3":103.0,"so2":8.6,"mosquito_risk":0,"arthritis_risk":5,"migraine_risk":7,"frizz_risk":1,"updated_at":"2026-05-22T21:19:51.882565+05:30"},{"city":"Nellore","state":"Andhra Pradesh","latitude":14.4426,"longitude":79.9865,"temp":33.4,"humidity":47,"rain":0.0,"pressure":1004.5,"uv_index":8.2,"wind_gusts":50.0,"aqi":86,"pm10":50.4,"pm2_5":38.3,"no2":7.6,"co":335.0,"o3":106.0,"so2":7.2,"mosquito_risk":0,"arthritis_risk":5,"migraine_risk":4,"frizz_risk":1,"updated_at":"2026-05-22T21:19:51.882573+05:30"},{"city":"Kurnool","state":"Andhra Pradesh","latitude":15.8281,"longitude":78.0373,"temp":32.2,"humidity":50,"rain":0.0,"pressure":977.3,"uv_index":9.0,"wind_gusts":46.8,"aqi":98,"pm10":32.8,"pm2_5":26.4,"no2":9.8,"co":278.0,"o3":102.0,"so2":7.6,"mosquito_risk":0,"arthritis_risk":5,"migraine_risk":7,"frizz_risk":1,"updated_at":"2026-05-22T21:19:51.882581+05:30"},{"city":"Kakinada","state":"Andhra Pradesh","latitude":16.9891,"longitude":82.2475,"temp":33.1,"humidity":60,"rain":0.0,"pressure":1004.4,"uv_index":9.05,"wind_gusts":42.5,"aqi":148,"pm10":41.6,"pm2_5":31.9,"no2":8.3,"co":408.0,"o3":116.0,"so2":5.2,"mosquito_risk":0,"arthritis_risk":5,"migraine_risk":4,"frizz_risk":1,"updated_at":"2026-05-22T21:19:51.882588+05:30"},{"city":"Tirupati","state":"Andhra Pradesh","latitude":13.6288,"longitude":79.4192,"temp":31.0,"humidity":55,"rain":0.0,"pressure":991.0,"uv_index":7.75,"wind_gusts":32.0,"aqi":66,"pm10":25.6,"pm2_5":21.2,"no2":13.2,"co":314.0,"o3":82.0,"so2":4.6,"mosquito_risk":0,"arthritis_risk":5,"migraine_risk":7,"frizz_risk":1,"updated_at":"2026-05-22T21:19:51.882594+05:30"},{"city":"Warangal","state":"Telangana","latitude":17.9689,"longitude":79.5941,"temp":34.6,"humidity":34,"rain":0.0,"pressure":976.2,"uv_index":9.1,"wind_gusts":45.4,"aqi":139,"pm10":48.2,"pm2_5":42.6,"no2":16.5,"co":355.0,"o3":100.0,"so2":11.2,"mosquito_risk":0,"arthritis_risk":5,"migraine_risk":7,"frizz_risk":1,"updated_at":"2026-05-22T21:19:51.882601+05:30"},{"city":"Nizamabad","state":"Telangana","latitude":18.6725,"longitude":78.0941,"temp":35.1,"humidity":32,"rain":0.0,"pressure":964.0,"uv_index":9.05,"wind_gusts":41.8,"aqi":99,"pm10":44.1,"pm2_5":34.6,"no2":12.7,"co":237.0,"o3":89.0,"so2":6.6,"mosquito_risk":0,"arthritis_risk":5,"migraine_risk":10,"frizz_risk":0,"updated_at":"2026-05-22T21:19:51.882608+05:30"},{"city":"Mysore","state":"Karnataka","latitude":12.2958,"longitude":76.6396,"temp":23.7,"humidity":85,"rain":0.0,"pressure":931.7,"uv_index":8.65,"wind_gusts":46.8,"aqi":40,"pm10":8.5,"pm2_5":7.4,"no2":11.4,"co":179.0,"o3":58.0,"so2":2.5,"mosquito_risk":3,"arthritis_risk":5,"migraine_risk":7,"frizz_risk":1,"updated_at":"2026-05-22T21:19:51.882615+05:30"},{"city":"Mangalore","state":"Karnataka","latitude":12.9141,"longitude":74.856,"temp":25.1,"humidity":98,"rain":0.0,"pressure":1010.3,"uv_index":8.1,"wind_gusts":30.6,"aqi":36,"pm10":13.2,"pm2_5":11.2,"no2":12.6,"co":371.0,"o3":39.0,"so2":3.1,"mosquito_risk":7,"arthritis_risk":0,"migraine_risk":4,"frizz_risk":1,"updated_at":"2026-05-22T21:19:51.882623+05:30"},{"city":"Hubli-Dharwad","state":"Karnataka","latitude":15.3647,"longitude":75.124,"temp":24.3,"humidity":91,"rain":0.0,"pressure":943.3,"uv_index":8.25,"wind_gusts":34.9,"aqi":33,"pm10":5.7,"pm2_5":5.1,"no2":8.0,"co":183.0,"o3":52.0,"so2":1.3,"mosquito_risk":3,"arthritis_risk":5,"migraine_risk":7,"frizz_risk":1,"updated_at":"2026-05-22T21:19:51.882630+05:30"},{"city":"Belgaum","state":"Karnataka","latitude":15.8497,"longitude":74.4977,"temp":23.0,"humidity":95,"rain":0.0,"pressure":927.9,"uv_index":8.6,"wind_gusts":38.5,"aqi":35,"pm10":10.1,"pm2_5":8.7,"no2":11.0,"co":165.0,"o3":48.0,"so2":2.4,"mosquito_risk":3,"arthritis_risk":5,"migraine_risk":7,"frizz_risk":1,"updated_at":"2026-05-22T21:19:55.172543+05:30"},{"city":"Coimbatore","state":"Tamil Nadu","latitude":11.0168,"longitude":76.9558,"temp":24.9,"humidity":88,"rain":0.0,"pressure":964.2,"uv_index":8.25,"wind_gusts":52.9,"aqi":37,"pm10":7.0,"pm2_5":6.3,"no2":7.1,"co":196.0,"o3":56.0,"so2":2.6,"mosquito_risk":3,"arthritis_risk":5,"migraine_risk":7,"frizz_risk":1,"updated_at":"2026-05-22T21:19:55.172573+05:30"},{"city":"Madurai","state":"Tamil Nadu","latitude":9.9252,"longitude":78.1198,"temp":30.6,"humidity":57,"rain":0.0,"pressure":993.8,"uv_index":8.85,"wind_gusts":52.2,"aqi":60,"pm10":13.6,"pm2_5":10.3,"no2":12.8,"co":159.0,"o3":59.0,"so2":4.1,"mosquito_risk":0,"arthritis_risk":5,"migraine_risk":7,"frizz_risk":1,"updated_at":"2026-05-22T21:19:55.172584+05:30"},{"city":"Trichy","state":"Tamil Nadu","latitude":10.7905,"longitude":78.7047,"temp":29.9,"humidity":61,"rain":0.0,"pressure":1000.5,"uv_index":8.9,"wind_gusts":54.4,"aqi":44,"pm10":9.8,"pm2_5":8.6,"no2":11.5,"co":157.0,"o3":65.0,"so2":3.9,"mosquito_risk":7,"arthritis_risk":5,"migraine_risk":4,"frizz_risk":1,"updated_at":"2026-05-22T21:19:55.172593+05:30"},{"city":"Salem","state":"Tamil Nadu","latitude":11.6643,"longitude":78.146,"temp":28.3,"humidity":65,"rain":0.0,"pressure":979.9,"uv_index":8.85,"wind_gusts":37.4,"aqi":75,"pm10":21.4,"pm2_5":13.9,"no2":12.1,"co":173.0,"o3":74.0,"so2":5.6,"mosquito_risk":7,"arthritis_risk":5,"migraine_risk":7,"frizz_risk":1,"updated_at":"2026-05-22T21:19:55.172601+05:30"},{"city":"Tirunelveli","state":"Tamil Nadu","latitude":8.7139,"longitude":77.7567,"temp":29.7,"humidity":62,"rain":0.0,"pressure":1004.0,"uv_index":8.3,"wind_gusts":50.4,"aqi":34,"pm10":6.4,"pm2_5":5.3,"no2":4.9,"co":155.0,"o3":54.0,"so2":1.4,"mosquito_risk":7,"arthritis_risk":5,"migraine_risk":4,"frizz_risk":1,"updated_at":"2026-05-22T21:19:55.172609+05:30"},{"city":"Vellore","state":"Tamil Nadu","latitude":12.9165,"longitude":79.1325,"temp":29.9,"humidity":58,"rain":0.0,"pressure":985.0,"uv_index":8.4,"wind_gusts":46.8,"aqi":71,"pm10":29.6,"pm2_5":22.1,"no2":10.7,"co":254.0,"o3":79.0,"so2":3.3,"mosquito_risk":4,"arthritis_risk":5,"migraine_risk":7,"frizz_risk":1,"updated_at":"2026-05-22T21:19:55.172617+05:30"},{"city":"Erode","state":"Tamil Nadu","latitude":11.341,"longitude":77.7172,"temp":28.8,"humidity":67,"rain":0.0,"pressure":991.3,"uv_index":8.75,"wind_gusts":46.1,"aqi":45,"pm10":10.6,"pm2_5":8.8,"no2":12.0,"co":195.0,"o3":56.0,"so2":2.9,"mosquito_risk":7,"arthritis_risk":5,"migraine_risk":7,"frizz_risk":1,"updated_at":"2026-05-22T21:19:55.172624+05:30"},{"city":"Kochi","state":"Kerala","latitude":9.9312,"longitude":76.2673,"temp":25.6,"humidity":96,"rain":0.0,"pressure":1012.4,"uv_index":8.15,"wind_gusts":35.3,"aqi":47,"pm10":24.0,"pm2_5":22.0,"no2":31.1,"co":226.0,"o3":18.0,"so2":7.3,"mosquito_risk":7,"arthritis_risk":0,"migraine_risk":4,"frizz_risk":1,"updated_at":"2026-05-22T21:19:55.172632+05:30"},{"city":"Thiruvananthapuram","state":"Kerala","latitude":8.5241,"longitude":76.9366,"temp":25.4,"humidity":94,"rain":0.0,"pressure":1011.4,"uv_index":7.95,"wind_gusts":45.4,"aqi":31,"pm10":11.5,"pm2_5":7.1,"no2":1.7,"co":219.0,"o3":63.0,"so2":0.6,"mosquito_risk":7,"arthritis_risk":0,"migraine_risk":4,"frizz_risk":1,"updated_at":"2026-05-22T21:19:55.172640+05:30"},{"city":"Kozhikode","state":"Kerala","latitude":11.2588,"longitude":75.7804,"temp":25.3,"humidity":100,"rain":0.0,"pressure":1011.8,"uv_index":7.6,"wind_gusts":31.7,"aqi":29,"pm10":7.4,"pm2_5":5.0,"no2":1.8,"co":305.0,"o3":63.0,"so2":0.6,"mosquito_risk":7,"arthritis_risk":0,"migraine_risk":4,"frizz_risk":1,"updated_at":"2026-05-22T21:19:55.172647+05:30"},{"city":"Thrissur","state":"Kerala","latitude":10.5276,"longitude":76.2144,"temp":24.6,"humidity":97,"rain":0.0,"pressure":1010.9,"uv_index":8.05,"wind_gusts":37.4,"aqi":46,"pm10":17.1,"pm2_5":15.6,"no2":16.2,"co":372.0,"o3":34.0,"so2":4.5,"mosquito_risk":3,"arthritis_risk":0,"migraine_risk":4,"frizz_risk":1,"updated_at":"2026-05-22T21:19:55.172655+05:30"},{"city":"Kannur","state":"Kerala","latitude":11.8745,"longitude":75.3704,"temp":25.5,"humidity":96,"rain":0.0,"pressure":1010.9,"uv_index":7.9,"wind_gusts":32.4,"aqi":32,"pm10":12.4,"pm2_5":10.4,"no2":15.3,"co":319.0,"o3":35.0,"so2":2.6,"mosquito_risk":7,"arthritis_risk":0,"migraine_risk":4,"frizz_risk":1,"updated_at":"2026-05-22T21:19:55.172662+05:30"},{"city":"Patna","state":"Bihar","latitude":25.5941,"longitude":85.1376,"temp":30.9,"humidity":79,"rain":0.0,"pressure":996.7,"uv_index":8.85,"wind_gusts":28.8,"aqi":201,"pm10":74.3,"pm2_5":64.5,"no2":15.2,"co":488.0,"o3":146.0,"so2":22.1,"mosquito_risk":3,"arthritis_risk":5,"migraine_risk":7,"frizz_risk":1,"updated_at":"2026-05-22T21:19:55.172669+05:30"},{"city":"Gaya","state":"Bihar","latitude":24.7914,"longitude":85.0002,"temp":32.2,"humidity":60,"rain":0.0,"pressure":989.8,"uv_index":8.9,"wind_gusts":27.4,"aqi":155,"pm10":151.8,"pm2_5":82.7,"no2":28.4,"co":560.0,"o3":106.0,"so2":22.0,"mosquito_risk":0,"arthritis_risk":5,"migraine_risk":7,"frizz_risk":1,"updated_at":"2026-05-22T21:19:55.172677+05:30"},{"city":"Muzaffarpur","state":"Bihar","latitude":26.1209,"longitude":85.3647,"temp":28.6,"humidity":82,"rain":0.0,"pressure":997.0,"uv_index":8.85,"wind_gusts":33.5,"aqi":180,"pm10":79.6,"pm2_5":68.0,"no2":19.6,"co":474.0,"o3":122.0,"so2":21.2,"mosquito_risk":7,"arthritis_risk":5,"migraine_risk":7,"frizz_risk":1,"updated_at":"2026-05-22T21:19:55.172683+05:30"},{"city":"Bhagalpur","state":"Bihar","latitude":25.2425,"longitude":87.0117,"temp":30.2,"humidity":81,"rain":0.0,"pressure":998.0,"uv_index":8.8,"wind_gusts":37.1,"aqi":178,"pm10":50.3,"pm2_5":44.4,"no2":12.1,"co":426.0,"o3":131.0,"so2":16.8,"mosquito_risk":3,"arthritis_risk":5,"migraine_risk":7,"frizz_risk":1,"updated_at":"2026-05-22T21:19:55.172691+05:30"},{"city":"Ranchi","state":"Jharkhand","latitude":23.3441,"longitude":85.3096,"temp":28.0,"humidity":40,"rain":0.0,"pressure":934.9,"uv_index":9.3,"wind_gusts":27.7,"aqi":151,"pm10":111.1,"pm2_5":38.9,"no2":14.9,"co":311.0,"o3":81.0,"so2":6.0,"mosquito_risk":4,"arthritis_risk":5,"migraine_risk":7,"frizz_risk":0,"updated_at":"2026-05-22T21:19:55.172698+05:30"},{"city":"Jamshedpur","state":"Jharkhand","latitude":22.8046,"longitude":86.2029,"temp":31.9,"humidity":70,"rain":0.0,"pressure":987.3,"uv_index":9.1,"wind_gusts":34.6,"aqi":180,"pm10":81.3,"pm2_5":65.9,"no2":16.6,"co":877.0,"o3":121.0,"so2":33.1,"mosquito_risk":3,"arthritis_risk":5,"migraine_risk":7,"frizz_risk":1,"updated_at":"2026-05-22T21:19:55.172705+05:30"},{"city":"Dhanbad","state":"Jharkhand","latitude":23.7957,"longitude":86.4304,"temp":30.9,"humidity":76,"rain":0.0,"pressure":977.1,"uv_index":9.05,"wind_gusts":36.7,"aqi":162,"pm10":119.2,"pm2_5":99.2,"no2":63.1,"co":608.0,"o3":67.0,"so2":116.9,"mosquito_risk":3,"arthritis_risk":5,"migraine_risk":7,"frizz_risk":1,"updated_at":"2026-05-22T21:19:55.172712+05:30"},{"city":"Bokaro","state":"Jharkhand","latitude":23.6693,"longitude":86.1511,"temp":31.1,"humidity":76,"rain":0.0,"pressure":980.8,"uv_index":9.1,"wind_gusts":27.4,"aqi":160,"pm10":118.3,"pm2_5":70.3,"no2":39.3,"co":1597.0,"o3":74.0,"so2":85.0,"mosquito_risk":3,"arthritis_risk":5,"migraine_risk":7,"frizz_risk":1,"updated_at":"2026-05-22T21:19:55.172719+05:30"},{"city":"Bhubaneswar","state":"Odisha","latitude":20.2961,"longitude":85.8245,"temp":30.7,"humidity":85,"rain":0.0,"pressure":998.9,"uv_index":9.15,"wind_gusts":42.5,"aqi":105,"pm10":45.3,"pm2_5":36.4,"no2":9.9,"co":363.0,"o3":91.0,"so2":6.8,"mosquito_risk":3,"arthritis_risk":5,"migraine_risk":7,"frizz_risk":1,"updated_at":"2026-05-22T21:19:55.172725+05:30"},{"city":"Cuttack","state":"Odisha","latitude":20.4625,"longitude":85.8828,"temp":30.9,"humidity":84,"rain":0.0,"pressure":1000.8,"uv_index":9.2,"wind_gusts":35.3,"aqi":105,"pm10":45.3,"pm2_5":36.4,"no2":9.9,"co":444.0,"o3":91.0,"so2":6.8,"mosquito_risk":3,"arthritis_risk":5,"migraine_risk":4,"frizz_risk":1,"updated_at":"2026-05-22T21:19:55.172732+05:30"},{"city":"Rourkela","state":"Odisha","latitude":22.2604,"longitude":84.8536,"temp":31.4,"humidity":68,"rain":0.0,"pressure":981.6,"uv_index":9.0,"wind_gusts":35.3,"aqi":164,"pm10":90.3,"pm2_5":65.9,"no2":24.2,"co":402.0,"o3":91.0,"so2":11.8,"mosquito_risk":3,"arthritis_risk":5,"migraine_risk":7,"frizz_risk":1,"updated_at":"2026-05-22T21:19:55.172740+05:30"},{"city":"Raipur","state":"Chhattisgarh","latitude":21.2514,"longitude":81.6296,"temp":35.3,"humidity":27,"rain":0.0,"pressure":971.9,"uv_index":9.0,"wind_gusts":41.4,"aqi":145,"pm10":62.4,"pm2_5":56.5,"no2":56.8,"co":470.0,"o3":42.0,"so2":45.4,"mosquito_risk":0,"arthritis_risk":5,"migraine_risk":10,"frizz_risk":0,"updated_at":"2026-05-22T21:19:55.172747+05:30"},{"city":"Bhilai","state":"Chhattisgarh","latitude":21.1938,"longitude":81.3509,"temp":35.0,"humidity":26,"rain":0.0,"pressure":972.1,"uv_index":8.7,"wind_gusts":37.8,"aqi":95,"pm10":35.2,"pm2_5":31.5,"no2":35.9,"co":435.0,"o3":68.0,"so2":42.1,"mosquito_risk":0,"arthritis_risk":5,"migraine_risk":7,"frizz_risk":0,"updated_at":"2026-05-22T21:19:55.172753+05:30"},{"city":"Guwahati","state":"Assam","latitude":26.1158,"longitude":91.7086,"temp":25.5,"humidity":99,"rain":0.1,"pressure":999.9,"uv_index":8.8,"wind_gusts":27.4,"aqi":84,"pm10":28.5,"pm2_5":26.1,"no2":13.5,"co":431.0,"o3":46.0,"so2":2.3,"mosquito_risk":10,"arthritis_risk":5,"migraine_risk":7,"frizz_risk":1,"updated_at":"2026-05-22T21:19:55.172760+05:30"},{"city":"Agartala","state":"Tripura","latitude":23.8315,"longitude":91.2868,"temp":27.5,"humidity":88,"rain":0.0,"pressure":1004.7,"uv_index":8.85,"wind_gusts":31.3,"aqi":84,"pm10":39.0,"pm2_5":32.0,"no2":14.0,"co":254.0,"o3":61.0,"so2":2.8,"mosquito_risk":7,"arthritis_risk":5,"migraine_risk":4,"frizz_risk":1,"updated_at":"2026-05-22T21:19:55.172767+05:30"},{"city":"Shillong","state":"Meghalaya","latitude":25.5788,"longitude":91.8933,"temp":20.1,"humidity":92,"rain":0.0,"pressure":856.9,"uv_index":7.25,"wind_gusts":29.2,"aqi":65,"pm10":16.9,"pm2_5":13.9,"no2":9.3,"co":356.0,"o3":68.0,"so2":2.7,"mosquito_risk":3,"arthritis_risk":5,"migraine_risk":7,"frizz_risk":1,"updated_at":"2026-05-22T21:19:55.172774+05:30"},{"city":"Imphal","state":"Manipur","latitude":24.817,"longitude":93.9368,"temp":23.9,"humidity":94,"rain":0.0,"pressure":922.6,"uv_index":9.3,"wind_gusts":30.6,"aqi":85,"pm10":16.9,"pm2_5":13.9,"no2":9.6,"co":539.0,"o3":65.0,"so2":3.0,"mosquito_risk":3,"arthritis_risk":5,"migraine_risk":7,"frizz_risk":1,"updated_at":"2026-05-22T21:19:55.172781+05:30"},{"city":"Aizawl","state":"Mizoram","latitude":23.7271,"longitude":92.7176,"temp":19.4,"humidity":98,"rain":0.0,"pressure":891.9,"uv_index":8.35,"wind_gusts":31.0,"aqi":65,"pm10":17.2,"pm2_5":12.1,"no2":6.1,"co":240.0,"o3":63.0,"so2":1.5,"mosquito_risk":3,"arthritis_risk":10,"migraine_risk":7,"frizz_risk":1,"updated_at":"2026-05-22T21:19:55.172789+05:30"},{"city":"Kohima","state":"Nagaland","latitude":25.6701,"longitude":94.1077,"temp":18.6,"humidity":96,"rain":0.0,"pressure":854.3,"uv_index":9.2,"wind_gusts":27.0,"aqi":78,"pm10":26.5,"pm2_5":21.5,"no2":10.3,"co":390.0,"o3":56.0,"so2":2.0,"mosquito_risk":3,"arthritis_risk":10,"migraine_risk":7,"frizz_risk":1,"updated_at":"2026-05-22T21:19:55.172795+05:30"},{"city":"Gangtok","state":"Sikkim","latitude":27.3314,"longitude":88.6138,"temp":17.3,"humidity":91,"rain":0.3,"pressure":837.0,"uv_index":9.15,"wind_gusts":32.0,"aqi":79,"pm10":12.1,"pm2_5":9.8,"no2":10.2,"co":472.0,"o3":107.0,"so2":2.2,"mosquito_risk":6,"arthritis_risk":10,"migraine_risk":7,"frizz_risk":0,"updated_at":"2026-05-22T21:19:55.172802+05:30"},{"city":"Siliguri","state":"West Bengal","latitude":26.7271,"longitude":88.3953,"temp":26.2,"humidity":93,"rain":0.0,"pressure":991.1,"uv_index":8.7,"wind_gusts":21.2,"aqi":103,"pm10":42.8,"pm2_5":31.5,"no2":14.5,"co":872.0,"o3":111.0,"so2":5.1,"mosquito_risk":7,"arthritis_risk":5,"migraine_risk":7,"frizz_risk":1,"updated_at":"2026-05-22T21:19:58.462436+05:30"},{"city":"Durgapur","state":"West Bengal","latitude":23.5204,"longitude":87.3119,"temp":30.4,"humidity":90,"rain":0.0,"pressure":991.9,"uv_index":9.0,"wind_gusts":36.4,"aqi":156,"pm10":82.2,"pm2_5":69.2,"no2":26.6,"co":517.0,"o3":88.0,"so2":36.9,"mosquito_risk":3,"arthritis_risk":5,"migraine_risk":7,"frizz_risk":1,"updated_at":"2026-05-22T21:19:58.462464+05:30"},{"city":"Asansol","state":"West Bengal","latitude":23.6739,"longitude":86.9524,"temp":30.1,"humidity":90,"rain":0.0,"pressure":990.3,"uv_index":9.05,"wind_gusts":31.3,"aqi":156,"pm10":73.6,"pm2_5":61.9,"no2":27.8,"co":477.0,"o3":78.0,"so2":41.3,"mosquito_risk":3,"arthritis_risk":5,"migraine_risk":7,"frizz_risk":1,"updated_at":"2026-05-22T21:19:58.462475+05:30"},{"city":"Pondicherry","state":"Puducherry","latitude":11.9139,"longitude":79.8145,"temp":30.3,"humidity":78,"rain":0.0,"pressure":1008.1,"uv_index":8.95,"wind_gusts":43.9,"aqi":132,"pm10":21.2,"pm2_5":15.3,"no2":7.5,"co":207.0,"o3":86.0,"so2":3.5,"mosquito_risk":3,"arthritis_risk":0,"migraine_risk":4,"frizz_risk":1,"updated_at":"2026-05-22T21:19:58.462483+05:30"},{"city":"Port Blair","state":"Andaman and Nicobar Islands","latitude":11.6234,"longitude":92.7265,"temp":26.4,"humidity":91,"rain":0.1,"pressure":1008.4,"uv_index":1.35,"wind_gusts":35.6,"aqi":28,"pm10":3.6,"pm2_5":2.3,"no2":0.4,"co":113.0,"o3":63.0,"so2":0.2,"mosquito_risk":10,"arthritis_risk":0,"migraine_risk":0,"frizz_risk":1,"updated_at":"2026-05-22T21:19:58.462491+05:30"},{"city":"Haridwar","state":"Uttarakhand","latitude":29.9457,"longitude":78.1642,"temp":29.6,"humidity":43,"rain":0.0,"pressure":970.3,"uv_index":7.55,"wind_gusts":34.6,"aqi":154,"pm10":123.4,"pm2_5":55.2,"no2":24.6,"co":427.0,"o3":92.0,"so2":10.4,"mosquito_risk":4,"arthritis_risk":5,"migraine_risk":7,"frizz_risk":0,"updated_at":"2026-05-22T21:19:58.462502+05:30"},{"city":"Rishikesh","state":"Uttarakhand","latitude":30.0869,"longitude":78.2676,"temp":28.8,"humidity":40,"rain":0.0,"pressure":963.2,"uv_index":7.7,"wind_gusts":38.2,"aqi":136,"pm10":137.8,"pm2_5":42.7,"no2":10.8,"co":372.0,"o3":108.0,"so2":6.0,"mosquito_risk":4,"arthritis_risk":5,"migraine_risk":7,"frizz_risk":0,"updated_at":"2026-05-22T21:19:58.462513+05:30"},{"city":"Nainital","state":"Uttarakhand","latitude":29.3919,"longitude":79.4542,"temp":17.7,"humidity":61,"rain":0.0,"pressure":805.2,"uv_index":8.5,"wind_gusts":46.1,"aqi":158,"pm10":187.2,"pm2_5":68.0,"no2":9.2,"co":346.0,"o3":126.0,"so2":8.3,"mosquito_risk":3,"arthritis_risk":5,"migraine_risk":7,"frizz_risk":0,"updated_at":"2026-05-22T21:19:58.462527+05:30"},{"city":"Mussoorie","state":"Uttarakhand","latitude":30.4599,"longitude":78.0664,"temp":17.2,"humidity":53,"rain":0.0,"pressure":802.4,"uv_index":8.1,"wind_gusts":52.6,"aqi":113,"pm10":124.8,"pm2_5":37.5,"no2":15.4,"co":274.0,"o3":100.0,"so2":6.4,"mosquito_risk":0,"arthritis_risk":5,"migraine_risk":7,"frizz_risk":0,"updated_at":"2026-05-22T21:19:58.462534+05:30"},{"city":"Dharamshala","state":"Himachal Pradesh","latitude":32.219,"longitude":76.3234,"temp":21.8,"humidity":49,"rain":0.0,"pressure":869.0,"uv_index":8.25,"wind_gusts":40.0,"aqi":52,"pm10":35.7,"pm2_5":15.4,"no2":12.2,"co":236.0,"o3":60.0,"so2":1.3,"mosquito_risk":0,"arthritis_risk":5,"migraine_risk":7,"frizz_risk":0,"updated_at":"2026-05-22T21:19:58.462542+05:30"},{"city":"Dalhousie","state":"Himachal Pradesh","latitude":32.5387,"longitude":75.971,"temp":14.5,"humidity":67,"rain":0.0,"pressure":803.5,"uv_index":8.45,"wind_gusts":45.0,"aqi":68,"pm10":59.8,"pm2_5":24.9,"no2":27.2,"co":268.0,"o3":73.0,"so2":2.3,"mosquito_risk":3,"arthritis_risk":5,"migraine_risk":7,"frizz_risk":0,"updated_at":"2026-05-22T21:19:58.462550+05:30"},{"city":"Patiala","state":"Punjab","latitude":30.3398,"longitude":76.3869,"temp":33.2,"humidity":30,"rain":0.0,"pressure":975.8,"uv_index":7.65,"wind_gusts":52.9,"aqi":606,"pm10":907.1,"pm2_5":137.8,"no2":8.4,"co":271.0,"o3":93.0,"so2":6.0,"mosquito_risk":0,"arthritis_risk":5,"migraine_risk":7,"frizz_risk":0,"updated_at":"2026-05-22T21:19:58.462557+05:30"},{"city":"Bhatinda","state":"Punjab","latitude":30.211,"longitude":74.9455,"temp":34.2,"humidity":31,"rain":0.0,"pressure":981.2,"uv_index":8.3,"wind_gusts":40.0,"aqi":94,"pm10":64.5,"pm2_5":34.3,"no2":15.0,"co":277.0,"o3":80.0,"so2":6.4,"mosquito_risk":0,"arthritis_risk":5,"migraine_risk":7,"frizz_risk":0,"updated_at":"2026-05-22T21:19:58.462564+05:30"},{"city":"Rohtak","state":"Haryana","latitude":28.8955,"longitude":76.6066,"temp":34.5,"humidity":25,"rain":0.0,"pressure":978.9,"uv_index":7.8,"wind_gusts":35.6,"aqi":781,"pm10":814.0,"pm2_5":163.0,"no2":28.2,"co":395.0,"o3":63.0,"so2":9.2,"mosquito_risk":0,"arthritis_risk":5,"migraine_risk":7,"frizz_risk":0,"updated_at":"2026-05-22T21:19:58.462571+05:30"},{"city":"Panipat","state":"Haryana","latitude":29.3909,"longitude":76.9635,"temp":34.1,"humidity":27,"rain":0.0,"pressure":977.7,"uv_index":7.65,"wind_gusts":36.4,"aqi":1644,"pm10":1855.2,"pm2_5":270.1,"no2":13.9,"co":269.0,"o3":84.0,"so2":7.3,"mosquito_risk":0,"arthritis_risk":5,"migraine_risk":7,"frizz_risk":0,"updated_at":"2026-05-22T21:19:58.462578+05:30"},{"city":"Mathura","state":"Uttar Pradesh","latitude":27.4924,"longitude":77.6737,"temp":36.0,"humidity":23,"rain":0.0,"pressure":982.9,"uv_index":8.05,"wind_gusts":37.8,"aqi":751,"pm10":968.6,"pm2_5":170.4,"no2":21.1,"co":254.0,"o3":78.0,"so2":6.7,"mosquito_risk":0,"arthritis_risk":5,"migraine_risk":10,"frizz_risk":0,"updated_at":"2026-05-22T21:19:58.462586+05:30"},{"city":"Vrindavan","state":"Uttar Pradesh","latitude":27.5823,"longitude":77.7027,"temp":35.5,"humidity":25,"rain":0.0,"pressure":983.3,"uv_index":8.0,"wind_gusts":39.2,"aqi":751,"pm10":968.6,"pm2_5":170.4,"no2":21.1,"co":265.0,"o3":78.0,"so2":6.7,"mosquito_risk":0,"arthritis_risk":5,"migraine_risk":10,"frizz_risk":0,"updated_at":"2026-05-22T21:19:58.462593+05:30"},{"city":"Ayodhya","state":"Uttar Pradesh","latitude":26.7922,"longitude":82.1998,"temp":32.6,"humidity":65,"rain":0.0,"pressure":991.0,"uv_index":8.4,"wind_gusts":29.5,"aqi":154,"pm10":109.0,"pm2_5":60.3,"no2":14.8,"co":520.0,"o3":116.0,"so2":12.6,"mosquito_risk":3,"arthritis_risk":5,"migraine_risk":7,"frizz_risk":1,"updated_at":"2026-05-22T21:19:58.462600+05:30"},{"city":"Ratlam","state":"Madhya Pradesh","latitude":23.3315,"longitude":75.0367,"temp":33.6,"humidity":27,"rain":0.0,"pressure":954.3,"uv_index":8.6,"wind_gusts":37.8,"aqi":68,"pm10":38.4,"pm2_5":24.5,"no2":2.7,"co":183.0,"o3":94.0,"so2":4.2,"mosquito_risk":0,"arthritis_risk":5,"migraine_risk":7,"frizz_risk":0,"updated_at":"2026-05-22T21:19:58.462608+05:30"},{"city":"Sagar","state":"Madhya Pradesh","latitude":23.8388,"longitude":78.7378,"temp":34.7,"humidity":19,"rain":0.0,"pressure":948.7,"uv_index":8.75,"wind_gusts":39.6,"aqi":61,"pm10":34.1,"pm2_5":18.0,"no2":8.7,"co":171.0,"o3":75.0,"so2":3.3,"mosquito_risk":0,"arthritis_risk":5,"migraine_risk":7,"frizz_risk":0,"updated_at":"2026-05-22T21:19:58.462615+05:30"},{"city":"Satna","state":"Madhya Pradesh","latitude":24.6005,"longitude":80.8322,"temp":34.2,"humidity":20,"rain":0.0,"pressure":968.3,"uv_index":8.8,"wind_gusts":40.7,"aqi":64,"pm10":53.0,"pm2_5":20.8,"no2":15.1,"co":168.0,"o3":75.0,"so2":3.1,"mosquito_risk":0,"arthritis_risk":5,"migraine_risk":7,"frizz_risk":0,"updated_at":"2026-05-22T21:19:58.462622+05:30"},{"city":"Akola","state":"Maharashtra","latitude":20.7002,"longitude":77.0082,"temp":37.6,"humidity":25,"rain":0.0,"pressure":973.9,"uv_index":8.9,"wind_gusts":49.7,"aqi":81,"pm10":32.8,"pm2_5":24.1,"no2":11.4,"co":176.0,"o3":87.0,"so2":7.2,"mosquito_risk":0,"arthritis_risk":5,"migraine_risk":10,"frizz_risk":0,"updated_at":"2026-05-22T21:19:58.462630+05:30"},{"city":"Amravati","state":"Maharashtra","latitude":20.9374,"longitude":77.7796,"temp":38.0,"humidity":20,"rain":0.0,"pressure":966.0,"uv_index":8.85,"wind_gusts":45.4,"aqi":82,"pm10":31.8,"pm2_5":24.0,"no2":11.2,"co":196.0,"o3":89.0,"so2":7.6,"mosquito_risk":0,"arthritis_risk":5,"migraine_risk":10,"frizz_risk":0,"updated_at":"2026-05-22T21:19:58.462638+05:30"},{"city":"Latur","state":"Maharashtra","latitude":18.4088,"longitude":76.5604,"temp":26.8,"humidity":75,"rain":0.1,"pressure":940.8,"uv_index":9.0,"wind_gusts":45.0,"aqi":87,"pm10":37.8,"pm2_5":32.1,"no2":10.1,"co":245.0,"o3":91.0,"so2":4.8,"mosquito_risk":10,"arthritis_risk":5,"migraine_risk":7,"frizz_risk":1,"updated_at":"2026-05-22T21:19:58.462645+05:30"},{"city":"Nanded","state":"Maharashtra","latitude":19.1383,"longitude":77.3091,"temp":34.8,"humidity":37,"rain":0.0,"pressure":967.9,"uv_index":8.95,"wind_gusts":45.4,"aqi":98,"pm10":52.6,"pm2_5":36.1,"no2":10.8,"co":231.0,"o3":97.0,"so2":7.2,"mosquito_risk":0,"arthritis_risk":5,"migraine_risk":7,"frizz_risk":1,"updated_at":"2026-05-22T21:19:58.462652+05:30"},{"city":"Gulbarga","state":"Karnataka","latitude":17.3297,"longitude":76.8343,"temp":31.1,"humidity":53,"rain":0.0,"pressure":960.0,"uv_index":8.95,"wind_gusts":46.4,"aqi":91,"pm10":37.1,"pm2_5":29.0,"no2":10.1,"co":272.0,"o3":102.0,"so2":5.2,"mosquito_risk":0,"arthritis_risk":5,"migraine_risk":7,"frizz_risk":1,"updated_at":"2026-05-22T21:19:58.462659+05:30"},{"city":"Bidar","state":"Karnataka","latitude":17.9104,"longitude":77.5199,"temp":29.1,"humidity":61,"rain":0.0,"pressure":935.8,"uv_index":9.0,"wind_gusts":46.1,"aqi":105,"pm10":58.4,"pm2_5":44.4,"no2":19.4,"co":239.0,"o3":91.0,"so2":8.1,"mosquito_risk":7,"arthritis_risk":5,"migraine_risk":7,"frizz_risk":1,"updated_at":"2026-05-22T21:19:58.462667+05:30"},{"city":"Hospet","state":"Karnataka","latitude":15.2689,"longitude":76.3909,"temp":28.0,"humidity":69,"rain":0.0,"pressure":958.1,"uv_index":9.05,"wind_gusts":41.0,"aqi":43,"pm10":9.7,"pm2_5":8.8,"no2":10.0,"co":166.0,"o3":65.0,"so2":1.8,"mosquito_risk":7,"arthritis_risk":5,"migraine_risk":7,"frizz_risk":1,"updated_at":"2026-05-22T21:19:58.462674+05:30"},{"city":"Tirupur","state":"Tamil Nadu","latitude":11.1085,"longitude":77.3411,"temp":26.3,"humidity":81,"rain":0.0,"pressure":977.5,"uv_index":8.35,"wind_gusts":57.6,"aqi":43,"pm10":12.4,"pm2_5":10.3,"no2":13.5,"co":184.0,"o3":52.0,"so2":3.6,"mosquito_risk":7,"arthritis_risk":5,"migraine_risk":7,"frizz_risk":1,"updated_at":"2026-05-22T21:19:58.462681+05:30"},{"city":"Alappuzha","state":"Kerala","latitude":9.4981,"longitude":76.3388,"temp":26.2,"humidity":96,"rain":0.1,"pressure":1012.3,"uv_index":7.95,"wind_gusts":31.7,"aqi":35,"pm10":15.4,"pm2_5":12.0,"no2":11.5,"co":100.0,"o3":51.0,"so2":2.6,"mosquito_risk":10,"arthritis_risk":0,"migraine_risk":4,"frizz_risk":1,"updated_at":"2026-05-22T21:19:58.462688+05:30"},{"city":"Munnar","state":"Kerala","latitude":10.0889,"longitude":77.0595,"temp":17.6,"humidity":99,"rain":0.0,"pressure":859.1,"uv_index":5.1,"wind_gusts":32.0,"aqi":34,"pm10":6.4,"pm2_5":5.7,"no2":6.6,"co":124.0,"o3":58.0,"so2":2.0,"mosquito_risk":3,"arthritis_risk":10,"migraine_risk":3,"frizz_risk":1,"updated_at":"2026-05-22T21:19:58.462695+05:30"},{"city":"Silchar","state":"Assam","latitude":24.8333,"longitude":92.7789,"temp":25.5,"humidity":96,"rain":0.2,"pressure":1004.5,"uv_index":8.95,"wind_gusts":26.6,"aqi":85,"pm10":32.1,"pm2_5":23.0,"no2":7.1,"co":336.0,"o3":79.0,"so2":4.2,"mosquito_risk":10,"arthritis_risk":5,"migraine_risk":4,"frizz_risk":1,"updated_at":"2026-05-22T21:19:58.462703+05:30"},{"city":"Dibrugarh","state":"Assam","latitude":27.4728,"longitude":94.912,"temp":25.7,"humidity":96,"rain":0.3,"pressure":994.3,"uv_index":8.95,"wind_gusts":27.4,"aqi":87,"pm10":51.5,"pm2_5":45.8,"no2":20.2,"co":334.0,"o3":48.0,"so2":3.5,"mosquito_risk":10,"arthritis_risk":5,"migraine_risk":7,"frizz_risk":1,"updated_at":"2026-05-22T21:19:58.462710+05:30"}]