[{"city":"Delhi","state":"Delhi","latitude":28.6139,"longitude":77.209,"temp":37.5,"humidity":18,"rain":0.0,"pressure":978.2,"uv_index":7.7,"wind_gusts":42.1,"aqi":419,"pm10":763.7,"pm2_5":127.6,"no2":18.7,"co":399.0,"o3":96.0,"so2":10.9,"mosquito_risk":0,"arthritis_risk":5,"migraine_risk":10,"frizz_risk":0,"updated_at":"2026-05-16T19:07:44.994269+05:30"},{"city":"Mumbai","state":"Maharashtra","latitude":19.076,"longitude":72.8777,"temp":30.0,"humidity":74,"rain":0.0,"pressure":1003.4,"uv_index":7.85,"wind_gusts":50.0,"aqi":60,"pm10":42.1,"pm2_5":16.6,"no2":8.7,"co":210.0,"o3":63.0,"so2":4.7,"mosquito_risk":7,"arthritis_risk":5,"migraine_risk":4,"frizz_risk":1,"updated_at":"2026-05-16T19:07:44.994319+05:30"},{"city":"Bangalore","state":"Karnataka","latitude":12.9716,"longitude":77.5946,"temp":26.4,"humidity":67,"rain":0.0,"pressure":908.6,"uv_index":8.8,"wind_gusts":41.0,"aqi":151,"pm10":111.1,"pm2_5":71.9,"no2":44.1,"co":376.0,"o3":94.0,"so2":15.5,"mosquito_risk":7,"arthritis_risk":5,"migraine_risk":7,"frizz_risk":1,"updated_at":"2026-05-16T19:07:44.994333+05:30"},{"city":"Hyderabad","state":"Telangana","latitude":17.385,"longitude":78.4867,"temp":33.5,"humidity":44,"rain":0.0,"pressure":949.5,"uv_index":9.3,"wind_gusts":41.0,"aqi":152,"pm10":59.1,"pm2_5":40.7,"no2":8.3,"co":379.0,"o3":136.0,"so2":6.6,"mosquito_risk":0,"arthritis_risk":5,"migraine_risk":7,"frizz_risk":1,"updated_at":"2026-05-16T19:07:44.994344+05:30"},{"city":"Chennai","state":"Tamil Nadu","latitude":13.0827,"longitude":80.2707,"temp":30.0,"humidity":78,"rain":0.0,"pressure":1002.6,"uv_index":8.85,"wind_gusts":33.5,"aqi":42,"pm10":11.3,"pm2_5":7.7,"no2":8.0,"co":201.0,"o3":84.0,"so2":9.9,"mosquito_risk":7,"arthritis_risk":5,"migraine_risk":4,"frizz_risk":1,"updated_at":"2026-05-16T19:07:44.994352+05:30"},{"city":"Kolkata","state":"West Bengal","latitude":22.5726,"longitude":88.3639,"temp":27.6,"humidity":92,"rain":0.4,"pressure":1002.6,"uv_index":9.0,"wind_gusts":33.5,"aqi":60,"pm10":23.0,"pm2_5":14.6,"no2":6.0,"co":269.0,"o3":55.0,"so2":5.2,"mosquito_risk":10,"arthritis_risk":5,"migraine_risk":4,"frizz_risk":1,"updated_at":"2026-05-16T19:07:44.994360+05:30"},{"city":"Pune","state":"Maharashtra","latitude":18.5204,"longitude":73.8567,"temp":33.4,"humidity":43,"rain":0.0,"pressure":943.8,"uv_index":8.5,"wind_gusts":40.3,"aqi":101,"pm10":31.5,"pm2_5":20.7,"no2":5.3,"co":210.0,"o3":135.0,"so2":9.1,"mosquito_risk":0,"arthritis_risk":5,"migraine_risk":7,"frizz_risk":1,"updated_at":"2026-05-16T19:07:44.994367+05:30"},{"city":"Ahmedabad","state":"Gujarat","latitude":23.0225,"longitude":72.5714,"temp":39.2,"humidity":18,"rain":0.0,"pressure":996.2,"uv_index":8.15,"wind_gusts":32.4,"aqi":57,"pm10":52.5,"pm2_5":17.2,"no2":5.5,"co":205.0,"o3":90.0,"so2":3.2,"mosquito_risk":0,"arthritis_risk":5,"migraine_risk":10,"frizz_risk":0,"updated_at":"2026-05-16T19:07:44.994374+05:30"},{"city":"Jaipur","state":"Rajasthan","latitude":26.9124,"longitude":75.7873,"temp":37.0,"humidity":17,"rain":0.0,"pressure":955.6,"uv_index":8.25,"wind_gusts":35.6,"aqi":165,"pm10":163.4,"pm2_5":37.0,"no2":10.9,"co":282.0,"o3":108.0,"so2":5.6,"mosquito_risk":0,"arthritis_risk":5,"migraine_risk":10,"frizz_risk":0,"updated_at":"2026-05-16T19:07:44.994384+05:30"},{"city":"Lucknow","state":"Uttar Pradesh","latitude":26.8467,"longitude":80.9462,"temp":35.8,"humidity":28,"rain":0.0,"pressure":987.8,"uv_index":8.2,"wind_gusts":35.6,"aqi":154,"pm10":163.9,"pm2_5":55.3,"no2":12.8,"co":298.0,"o3":106.0,"so2":9.8,"mosquito_risk":0,"arthritis_risk":5,"migraine_risk":10,"frizz_risk":0,"updated_at":"2026-05-16T19:07:44.994390+05:30"},{"city":"Kanpur","state":"Uttar Pradesh","latitude":26.4499,"longitude":80.3319,"temp":36.4,"humidity":26,"rain":0.0,"pressure":986.1,"uv_index":8.2,"wind_gusts":36.0,"aqi":151,"pm10":314.8,"pm2_5":66.8,"no2":9.2,"co":267.0,"o3":108.0,"so2":8.2,"mosquito_risk":0,"arthritis_risk":5,"migraine_risk":10,"frizz_risk":0,"updated_at":"2026-05-16T19:07:44.994397+05:30"},{"city":"Chandigarh","state":"Chandigarh","latitude":30.7333,"longitude":76.7794,"temp":31.6,"humidity":32,"rain":0.0,"pressure":964.1,"uv_index":7.7,"wind_gusts":36.7,"aqi":143,"pm10":40.4,"pm2_5":22.4,"no2":7.8,"co":419.0,"o3":138.0,"so2":8.2,"mosquito_risk":0,"arthritis_risk":5,"migraine_risk":7,"frizz_risk":0,"updated_at":"2026-05-16T19:07:44.994403+05:30"},{"city":"Srinagar","state":"Jammu and Kashmir","latitude":34.0837,"longitude":74.7973,"temp":18.9,"humidity":67,"rain":0.0,"pressure":842.2,"uv_index":8.9,"wind_gusts":27.4,"aqi":95,"pm10":16.9,"pm2_5":12.9,"no2":9.4,"co":687.0,"o3":102.0,"so2":2.2,"mosquito_risk":3,"arthritis_risk":5,"migraine_risk":7,"frizz_risk":0,"updated_at":"2026-05-16T19:07:44.994410+05:30"},{"city":"Jammu","state":"Jammu and Kashmir","latitude":32.7266,"longitude":74.857,"temp":32.2,"humidity":38,"rain":0.0,"pressure":968.5,"uv_index":8.45,"wind_gusts":28.4,"aqi":122,"pm10":28.7,"pm2_5":17.3,"no2":13.5,"co":363.0,"o3":125.0,"so2":3.7,"mosquito_risk":0,"arthritis_risk":5,"migraine_risk":7,"frizz_risk":0,"updated_at":"2026-05-16T19:07:44.994416+05:30"},{"city":"Amritsar","state":"Punjab","latitude":31.634,"longitude":74.8723,"temp":32.2,"humidity":42,"rain":0.0,"pressure":976.2,"uv_index":8.35,"wind_gusts":28.4,"aqi":156,"pm10":50.8,"pm2_5":25.8,"no2":12.4,"co":408.0,"o3":136.0,"so2":8.2,"mosquito_risk":0,"arthritis_risk":5,"migraine_risk":7,"frizz_risk":1,"updated_at":"2026-05-16T19:07:44.994422+05:30"},{"city":"Ludhiana","state":"Punjab","latitude":30.901,"longitude":75.8573,"temp":33.5,"humidity":30,"rain":0.0,"pressure":974.1,"uv_index":7.95,"wind_gusts":42.8,"aqi":124,"pm10":66.4,"pm2_5":27.1,"no2":6.8,"co":321.0,"o3":129.0,"so2":5.1,"mosquito_risk":0,"arthritis_risk":5,"migraine_risk":7,"frizz_risk":0,"updated_at":"2026-05-16T19:07:44.994429+05:30"},{"city":"Jalandhar","state":"Punjab","latitude":31.326,"longitude":75.5762,"temp":32.8,"humidity":36,"rain":0.0,"pressure":975.1,"uv_index":8.15,"wind_gusts":36.4,"aqi":141,"pm10":65.4,"pm2_5":29.2,"no2":8.4,"co":397.0,"o3":138.0,"so2":6.6,"mosquito_risk":0,"arthritis_risk":5,"migraine_risk":7,"frizz_risk":0,"updated_at":"2026-05-16T19:07:44.994436+05:30"},{"city":"Dehradun","state":"Uttarakhand","latitude":30.6284,"longitude":78.0322,"temp":18.8,"humidity":65,"rain":0.0,"pressure":827.9,"uv_index":8.1,"wind_gusts":37.4,"aqi":89,"pm10":43.3,"pm2_5":19.7,"no2":12.2,"co":185.0,"o3":109.0,"so2":3.4,"mosquito_risk":3,"arthritis_risk":5,"migraine_risk":7,"frizz_risk":0,"updated_at":"2026-05-16T19:07:44.994442+05:30"},{"city":"Shimla","state":"Himachal Pradesh","latitude":31.1048,"longitude":77.1734,"temp":16.4,"humidity":52,"rain":0.0,"pressure":783.0,"uv_index":8.2,"wind_gusts":45.0,"aqi":93,"pm10":47.8,"pm2_5":19.3,"no2":4.4,"co":195.0,"o3":129.0,"so2":3.2,"mosquito_risk":0,"arthritis_risk":5,"migraine_risk":7,"frizz_risk":0,"updated_at":"2026-05-16T19:07:44.994465+05:30"},{"city":"Manali","state":"Himachal Pradesh","latitude":32.2396,"longitude":77.1887,"temp":13.5,"humidity":72,"rain":0.1,"pressure":816.1,"uv_index":9.9,"wind_gusts":38.2,"aqi":128,"pm10":20.7,"pm2_5":12.0,"no2":16.6,"co":184.0,"o3":141.0,"so2":0.4,"mosquito_risk":6,"arthritis_risk":5,"migraine_risk":7,"frizz_risk":0,"updated_at":"2026-05-16T19:07:44.994472+05:30"},{"city":"Gurgaon","state":"Haryana","latitude":28.4595,"longitude":77.0266,"temp":35.0,"humidity":25,"rain":0.0,"pressure":976.7,"uv_index":7.8,"wind_gusts":41.0,"aqi":665,"pm10":1039.4,"pm2_5":165.3,"no2":22.2,"co":431.0,"o3":97.0,"so2":11.1,"mosquito_risk":0,"arthritis_risk":5,"migraine_risk":7,"frizz_risk":0,"updated_at":"2026-05-16T19:07:44.994479+05:30"},{"city":"Noida","state":"Uttar Pradesh","latitude":28.5355,"longitude":77.391,"temp":35.2,"humidity":24,"rain":0.0,"pressure":979.2,"uv_index":7.7,"wind_gusts":31.3,"aqi":665,"pm10":1039.4,"pm2_5":165.3,"no2":22.2,"co":628.0,"o3":97.0,"so2":11.1,"mosquito_risk":0,"arthritis_risk":5,"migraine_risk":10,"frizz_risk":0,"updated_at":"2026-05-16T19:07:44.994497+05:30"},{"city":"Ghaziabad","state":"Uttar Pradesh","latitude":28.6692,"longitude":77.4538,"temp":34.0,"humidity":28,"rain":0.0,"pressure":977.4,"uv_index":7.7,"wind_gusts":38.9,"aqi":197,"pm10":493.6,"pm2_5":98.7,"no2":14.9,"co":283.0,"o3":103.0,"so2":12.3,"mosquito_risk":0,"arthritis_risk":5,"migraine_risk":7,"frizz_risk":0,"updated_at":"2026-05-16T19:07:44.994505+05:30"},{"city":"Faridabad","state":"Haryana","latitude":28.4089,"longitude":77.3178,"temp":37.0,"humidity":19,"rain":0.0,"pressure":978.7,"uv_index":7.75,"wind_gusts":41.0,"aqi":665,"pm10":1039.4,"pm2_5":165.3,"no2":22.2,"co":452.0,"o3":97.0,"so2":11.1,"mosquito_risk":0,"arthritis_risk":5,"migraine_risk":10,"frizz_risk":0,"updated_at":"2026-05-16T19:07:44.994512+05:30"},{"city":"Meerut","state":"Uttar Pradesh","latitude":28.9845,"longitude":77.7064,"temp":33.8,"humidity":35,"rain":0.0,"pressure":976.2,"uv_index":7.6,"wind_gusts":41.4,"aqi":197,"pm10":493.6,"pm2_5":98.7,"no2":14.9,"co":326.0,"o3":103.0,"so2":12.3,"mosquito_risk":0,"arthritis_risk":5,"migraine_risk":7,"frizz_risk":1,"updated_at":"2026-05-16T19:07:44.994519+05:30"},{"city":"Agra","state":"Uttar Pradesh","latitude":27.1767,"longitude":78.0081,"temp":36.6,"humidity":25,"rain":0.0,"pressure":982.2,"uv_index":8.05,"wind_gusts":32.4,"aqi":438,"pm10":555.1,"pm2_5":96.6,"no2":14.1,"co":279.0,"o3":106.0,"so2":8.6,"mosquito_risk":0,"arthritis_risk":5,"migraine_risk":10,"frizz_risk":0,"updated_at":"2026-05-16T19:07:44.994525+05:30"},{"city":"Varanasi","state":"Uttar Pradesh","latitude":25.3176,"longitude":82.9739,"temp":36.8,"humidity":25,"rain":0.0,"pressure":991.7,"uv_index":8.7,"wind_gusts":40.3,"aqi":157,"pm10":146.2,"pm2_5":54.5,"no2":16.6,"co":342.0,"o3":122.0,"so2":13.9,"mosquito_risk":0,"arthritis_risk":5,"migraine_risk":10,"frizz_risk":0,"updated_at":"2026-05-16T19:07:44.994532+05:30"},{"city":"Prayagraj","state":"Uttar Pradesh","latitude":25.4358,"longitude":81.8463,"temp":36.6,"humidity":26,"rain":0.0,"pressure":989.9,"uv_index":8.6,"wind_gusts":38.5,"aqi":155,"pm10":121.5,"pm2_5":46.7,"no2":13.6,"co":317.0,"o3":109.0,"so2":11.7,"mosquito_risk":0,"arthritis_risk":5,"migraine_risk":10,"frizz_risk":0,"updated_at":"2026-05-16T19:07:44.994542+05:30"},{"city":"Gorakhpur","state":"Uttar Pradesh","latitude":26.7606,"longitude":83.3732,"temp":32.3,"humidity":46,"rain":0.0,"pressure":991.1,"uv_index":8.6,"wind_gusts":31.3,"aqi":155,"pm10":91.7,"pm2_5":41.9,"no2":10.3,"co":350.0,"o3":126.0,"so2":11.1,"mosquito_risk":0,"arthritis_risk":5,"migraine_risk":7,"frizz_risk":1,"updated_at":"2026-05-16T19:07:44.994549+05:30"},{"city":"Bareilly","state":"Uttar Pradesh","latitude":28.367,"longitude":79.4304,"temp":31.0,"humidity":46,"rain":0.0,"pressure":981.2,"uv_index":8.0,"wind_gusts":29.2,"aqi":154,"pm10":57.4,"pm2_5":44.5,"no2":8.8,"co":308.0,"o3":143.0,"so2":11.9,"mosquito_risk":0,"arthritis_risk":5,"migraine_risk":7,"frizz_risk":1,"updated_at":"2026-05-16T19:07:44.994556+05:30"},{"city":"Aligarh","state":"Uttar Pradesh","latitude":27.8974,"longitude":78.088,"temp":32.9,"humidity":38,"rain":0.0,"pressure":980.3,"uv_index":7.85,"wind_gusts":35.6,"aqi":267,"pm10":678.0,"pm2_5":125.7,"no2":14.4,"co":398.0,"o3":126.0,"so2":12.5,"mosquito_risk":0,"arthritis_risk":5,"migraine_risk":7,"frizz_risk":1,"updated_at":"2026-05-16T19:07:44.994562+05:30"},{"city":"Moradabad","state":"Uttar Pradesh","latitude":28.8386,"longitude":78.7733,"temp":33.0,"humidity":35,"rain":0.0,"pressure":978.1,"uv_index":7.85,"wind_gusts":46.8,"aqi":154,"pm10":115.7,"pm2_5":53.7,"no2":14.1,"co":356.0,"o3":111.0,"so2":9.7,"mosquito_risk":0,"arthritis_risk":5,"migraine_risk":7,"frizz_risk":0,"updated_at":"2026-05-16T19:07:44.994568+05:30"},{"city":"Saharanpur","state":"Uttar Pradesh","latitude":29.9637,"longitude":77.546,"temp":31.4,"humidity":36,"rain":0.0,"pressure":970.3,"uv_index":7.4,"wind_gusts":40.7,"aqi":152,"pm10":124.8,"pm2_5":42.0,"no2":9.9,"co":281.0,"o3":119.0,"so2":9.7,"mosquito_risk":0,"arthritis_risk":5,"migraine_risk":7,"frizz_risk":0,"updated_at":"2026-05-16T19:07:44.994573+05:30"},{"city":"Jhansi","state":"Uttar Pradesh","latitude":25.4484,"longitude":78.5685,"temp":36.8,"humidity":24,"rain":0.0,"pressure":972.7,"uv_index":8.5,"wind_gusts":23.0,"aqi":102,"pm10":58.9,"pm2_5":24.9,"no2":4.2,"co":247.0,"o3":117.0,"so2":7.5,"mosquito_risk":0,"arthritis_risk":5,"migraine_risk":10,"frizz_risk":0,"updated_at":"2026-05-16T19:07:48.327547+05:30"},{"city":"Surat","state":"Gujarat","latitude":21.1702,"longitude":72.8311,"temp":32.8,"humidity":60,"rain":0.0,"pressure":1000.8,"uv_index":7.75,"wind_gusts":36.7,"aqi":81,"pm10":59.6,"pm2_5":36.1,"no2":32.7,"co":305.0,"o3":67.0,"so2":69.4,"mosquito_risk":0,"arthritis_risk":5,"migraine_risk":4,"frizz_risk":1,"updated_at":"2026-05-16T19:07:48.327580+05:30"},{"city":"Vadodara","state":"Gujarat","latitude":22.3072,"longitude":73.1812,"temp":39.0,"humidity":18,"rain":0.0,"pressure":998.0,"uv_index":8.1,"wind_gusts":31.7,"aqi":84,"pm10":59.8,"pm2_5":23.3,"no2":8.5,"co":211.0,"o3":121.0,"so2":9.6,"mosquito_risk":0,"arthritis_risk":5,"migraine_risk":10,"frizz_risk":0,"updated_at":"2026-05-16T19:07:48.327590+05:30"},{"city":"Rajkot","state":"Gujarat","latitude":22.3039,"longitude":70.8022,"temp":36.2,"humidity":29,"rain":0.0,"pressure":989.5,"uv_index":7.75,"wind_gusts":38.5,"aqi":52,"pm10":43.5,"pm2_5":16.3,"no2":2.8,"co":137.0,"o3":95.0,"so2":4.8,"mosquito_risk":0,"arthritis_risk":5,"migraine_risk":10,"frizz_risk":0,"updated_at":"2026-05-16T19:07:48.327598+05:30"},{"city":"Thane","state":"Maharashtra","latitude":19.2183,"longitude":72.9781,"temp":30.9,"humidity":69,"rain":0.0,"pressure":1002.7,"uv_index":7.9,"wind_gusts":44.3,"aqi":60,"pm10":42.1,"pm2_5":16.6,"no2":8.7,"co":176.0,"o3":63.0,"so2":4.7,"mosquito_risk":3,"arthritis_risk":5,"migraine_risk":4,"frizz_risk":1,"updated_at":"2026-05-16T19:07:48.327606+05:30"},{"city":"Nagpur","state":"Maharashtra","latitude":21.1458,"longitude":79.0882,"temp":39.5,"humidity":21,"rain":0.0,"pressure":967.4,"uv_index":8.95,"wind_gusts":38.2,"aqi":174,"pm10":57.7,"pm2_5":33.1,"no2":21.7,"co":210.0,"o3":141.0,"so2":27.6,"mosquito_risk":0,"arthritis_risk":5,"migraine_risk":10,"frizz_risk":0,"updated_at":"2026-05-16T19:07:48.327614+05:30"},{"city":"Nashik","state":"Maharashtra","latitude":19.9975,"longitude":73.7898,"temp":33.7,"humidity":38,"rain":0.0,"pressure":941.7,"uv_index":8.2,"wind_gusts":37.4,"aqi":50,"pm10":37.4,"pm2_5":19.5,"no2":3.0,"co":179.0,"o3":123.0,"so2":5.5,"mosquito_risk":0,"arthritis_risk":5,"migraine_risk":7,"frizz_risk":1,"updated_at":"2026-05-16T19:07:48.327621+05:30"},{"city":"Aurangabad","state":"Maharashtra","latitude":19.8762,"longitude":75.3433,"temp":36.2,"humidity":24,"rain":0.0,"pressure":940.2,"uv_index":9.1,"wind_gusts":37.1,"aqi":65,"pm10":31.4,"pm2_5":17.2,"no2":4.2,"co":209.0,"o3":111.0,"so2":3.8,"mosquito_risk":0,"arthritis_risk":5,"migraine_risk":10,"frizz_risk":0,"updated_at":"2026-05-16T19:07:48.327629+05:30"},{"city":"Solapur","state":"Maharashtra","latitude":17.6599,"longitude":75.9064,"temp":36.8,"humidity":24,"rain":0.0,"pressure":951.7,"uv_index":8.45,"wind_gusts":36.4,"aqi":124,"pm10":27.8,"pm2_5":18.9,"no2":10.3,"co":249.0,"o3":129.0,"so2":6.8,"mosquito_risk":0,"arthritis_risk":5,"migraine_risk":10,"frizz_risk":0,"updated_at":"2026-05-16T19:07:48.327637+05:30"},{"city":"Kolhapur","state":"Maharashtra","latitude":16.705,"longitude":74.2433,"temp":30.0,"humidity":67,"rain":0.0,"pressure":943.3,"uv_index":8.55,"wind_gusts":42.1,"aqi":123,"pm10":36.1,"pm2_5":24.2,"no2":4.6,"co":159.0,"o3":129.0,"so2":6.2,"mosquito_risk":7,"arthritis_risk":5,"migraine_risk":7,"frizz_risk":1,"updated_at":"2026-05-16T19:07:48.327645+05:30"},{"city":"Goa","state":"Goa","latitude":15.2993,"longitude":74.124,"temp":30.4,"humidity":74,"rain":0.0,"pressure":993.7,"uv_index":8.9,"wind_gusts":36.4,"aqi":65,"pm10":25.6,"pm2_5":14.8,"no2":1.8,"co":135.0,"o3":57.0,"so2":1.1,"mosquito_risk":3,"arthritis_risk":5,"migraine_risk":7,"frizz_risk":1,"updated_at":"2026-05-16T19:07:48.327652+05:30"},{"city":"Jodhpur","state":"Rajasthan","latitude":26.2389,"longitude":73.0243,"temp":38.8,"humidity":18,"rain":0.0,"pressure":977.9,"uv_index":8.4,"wind_gusts":31.0,"aqi":120,"pm10":143.4,"pm2_5":29.5,"no2":4.6,"co":184.0,"o3":97.0,"so2":2.5,"mosquito_risk":0,"arthritis_risk":5,"migraine_risk":10,"frizz_risk":0,"updated_at":"2026-05-16T19:07:48.327659+05:30"},{"city":"Udaipur","state":"Rajasthan","latitude":24.5854,"longitude":73.7125,"temp":34.9,"humidity":25,"rain":0.0,"pressure":942.6,"uv_index":8.85,"wind_gusts":31.3,"aqi":51,"pm10":39.1,"pm2_5":14.2,"no2":2.0,"co":147.0,"o3":96.0,"so2":2.6,"mosquito_risk":0,"arthritis_risk":5,"migraine_risk":7,"frizz_risk":0,"updated_at":"2026-05-16T19:07:48.327667+05:30"},{"city":"Kota","state":"Rajasthan","latitude":25.2138,"longitude":75.8648,"temp":39.0,"humidity":16,"rain":0.0,"pressure":972.9,"uv_index":8.45,"wind_gusts":29.5,"aqi":77,"pm10":81.0,"pm2_5":27.6,"no2":6.3,"co":168.0,"o3":114.0,"so2":5.6,"mosquito_risk":0,"arthritis_risk":5,"migraine_risk":10,"frizz_risk":0,"updated_at":"2026-05-16T19:07:48.327674+05:30"},{"city":"Bikaner","state":"Rajasthan","latitude":28.0229,"longitude":73.3119,"temp":38.2,"humidity":18,"rain":0.0,"pressure":976.9,"uv_index":8.4,"wind_gusts":25.9,"aqi":96,"pm10":141.6,"pm2_5":34.6,"no2":3.0,"co":208.0,"o3":100.0,"so2":3.1,"mosquito_risk":0,"arthritis_risk":5,"migraine_risk":10,"frizz_risk":0,"updated_at":"2026-05-16T19:07:48.327681+05:30"},{"city":"Ajmer","state":"Rajasthan","latitude":26.4499,"longitude":74.6399,"temp":35.3,"humidity":22,"rain":0.0,"pressure":950.7,"uv_index":8.4,"wind_gusts":34.2,"aqi":77,"pm10":98.3,"pm2_5":26.7,"no2":6.7,"co":198.0,"o3":105.0,"so2":2.9,"mosquito_risk":0,"arthritis_risk":5,"migraine_risk":10,"frizz_risk":0,"updated_at":"2026-05-16T19:07:48.327688+05:30"},{"city":"Gwalior","state":"Madhya Pradesh","latitude":26.2183,"longitude":78.1828,"temp":37.9,"humidity":18,"rain":0.0,"pressure":977.8,"uv_index":8.25,"wind_gusts":36.7,"aqi":110,"pm10":108.5,"pm2_5":34.7,"no2":6.1,"co":212.0,"o3":113.0,"so2":5.6,"mosquito_risk":0,"arthritis_risk":5,"migraine_risk":10,"frizz_risk":0,"updated_at":"2026-05-16T19:07:48.327696+05:30"},{"city":"Indore","state":"Madhya Pradesh","latitude":22.7196,"longitude":75.8577,"temp":36.1,"humidity":18,"rain":0.0,"pressure":944.1,"uv_index":8.7,"wind_gusts":37.4,"aqi":71,"pm10":23.6,"pm2_5":11.9,"no2":2.9,"co":215.0,"o3":114.0,"so2":2.7,"mosquito_risk":0,"arthritis_risk":5,"migraine_risk":10,"frizz_risk":0,"updated_at":"2026-05-16T19:07:48.327703+05:30"},{"city":"Bhopal","state":"Madhya Pradesh","latitude":23.2599,"longitude":77.4126,"temp":38.0,"humidity":16,"rain":0.0,"pressure":948.7,"uv_index":8.7,"wind_gusts":39.6,"aqi":81,"pm10":27.2,"pm2_5":14.2,"no2":4.1,"co":217.0,"o3":108.0,"so2":3.6,"mosquito_risk":0,"arthritis_risk":5,"migraine_risk":10,"frizz_risk":0,"updated_at":"2026-05-16T19:07:48.327710+05:30"},{"city":"Jabalpur","state":"Madhya Pradesh","latitude":23.1815,"longitude":79.9864,"temp":35.8,"humidity":26,"rain":0.0,"pressure":956.4,"uv_index":8.9,"wind_gusts":37.8,"aqi":120,"pm10":47.6,"pm2_5":26.3,"no2":7.6,"co":236.0,"o3":118.0,"so2":5.0,"mosquito_risk":0,"arthritis_risk":5,"migraine_risk":10,"frizz_risk":0,"updated_at":"2026-05-16T19:07:48.327717+05:30"},{"city":"Ujjain","state":"Madhya Pradesh","latitude":23.1765,"longitude":75.7885,"temp":36.0,"humidity":17,"rain":0.0,"pressure":949.6,"uv_index":8.65,"wind_gusts":38.2,"aqi":61,"pm10":26.0,"pm2_5":12.2,"no2":1.5,"co":179.0,"o3":109.0,"so2":2.2,"mosquito_risk":0,"arthritis_risk":5,"migraine_risk":10,"frizz_risk":0,"updated_at":"2026-05-16T19:07:48.327725+05:30"},{"city":"Visakhapatnam","state":"Andhra Pradesh","latitude":17.6868,"longitude":83.2185,"temp":30.3,"humidity":78,"rain":0.0,"pressure":999.9,"uv_index":9.15,"wind_gusts":39.6,"aqi":62,"pm10":16.5,"pm2_5":12.6,"no2":18.0,"co":294.0,"o3":55.0,"so2":35.6,"mosquito_risk":3,"arthritis_risk":5,"migraine_risk":7,"frizz_risk":1,"updated_at":"2026-05-16T19:07:48.327732+05:30"},{"city":"Vijayawada","state":"Andhra Pradesh","latitude":16.5062,"longitude":80.648,"temp":34.3,"humidity":52,"rain":0.0,"pressure":998.1,"uv_index":8.85,"wind_gusts":32.4,"aqi":54,"pm10":14.3,"pm2_5":10.9,"no2":5.2,"co":171.0,"o3":76.0,"so2":6.2,"mosquito_risk":0,"arthritis_risk":5,"migraine_risk":7,"frizz_risk":1,"updated_at":"2026-05-16T19:07:48.327740+05:30"},{"city":"Guntur","state":"Andhra Pradesh","latitude":16.3067,"longitude":80.4365,"temp":32.9,"humidity":57,"rain":0.0,"pressure":999.2,"uv_index":8.85,"wind_gusts":40.7,"aqi":59,"pm10":13.9,"pm2_5":10.2,"no2":3.9,"co":205.0,"o3":76.0,"so2":2.7,"mosquito_risk":0,"arthritis_risk":5,"migraine_risk":7,"frizz_risk":1,"updated_at":"2026-05-16T19:07:48.327747+05:30"},{"city":"Nellore","state":"Andhra Pradesh","latitude":14.4426,"longitude":79.9865,"temp":30.7,"humidity":73,"rain":0.0,"pressure":1001.3,"uv_index":8.25,"wind_gusts":33.8,"aqi":46,"pm10":12.5,"pm2_5":8.5,"no2":2.4,"co":160.0,"o3":94.0,"so2":3.7,"mosquito_risk":3,"arthritis_risk":5,"migraine_risk":4,"frizz_risk":1,"updated_at":"2026-05-16T19:07:48.327755+05:30"},{"city":"Kurnool","state":"Andhra Pradesh","latitude":15.8281,"longitude":78.0373,"temp":31.1,"humidity":59,"rain":0.0,"pressure":972.9,"uv_index":8.95,"wind_gusts":51.8,"aqi":136,"pm10":61.0,"pm2_5":38.0,"no2":2.9,"co":214.0,"o3":119.0,"so2":4.8,"mosquito_risk":0,"arthritis_risk":5,"migraine_risk":7,"frizz_risk":1,"updated_at":"2026-05-16T19:07:48.327763+05:30"},{"city":"Kakinada","state":"Andhra Pradesh","latitude":16.9891,"longitude":82.2475,"temp":31.0,"humidity":72,"rain":0.0,"pressure":1003.5,"uv_index":9.15,"wind_gusts":40.3,"aqi":36,"pm10":11.6,"pm2_5":7.5,"no2":1.9,"co":167.0,"o3":70.0,"so2":1.2,"mosquito_risk":3,"arthritis_risk":5,"migraine_risk":4,"frizz_risk":1,"updated_at":"2026-05-16T19:07:48.327770+05:30"},{"city":"Tirupati","state":"Andhra Pradesh","latitude":13.6288,"longitude":79.4192,"temp":31.7,"humidity":52,"rain":0.0,"pressure":986.5,"uv_index":9.25,"wind_gusts":33.1,"aqi":63,"pm10":18.1,"pm2_5":14.7,"no2":7.8,"co":185.0,"o3":119.0,"so2":11.1,"mosquito_risk":0,"arthritis_risk":5,"migraine_risk":7,"frizz_risk":1,"updated_at":"2026-05-16T19:07:48.327777+05:30"},{"city":"Warangal","state":"Telangana","latitude":17.9689,"longitude":79.5941,"temp":34.7,"humidity":45,"rain":0.0,"pressure":974.5,"uv_index":9.15,"wind_gusts":49.3,"aqi":122,"pm10":49.7,"pm2_5":36.0,"no2":4.8,"co":235.0,"o3":113.0,"so2":6.7,"mosquito_risk":0,"arthritis_risk":5,"migraine_risk":7,"frizz_risk":1,"updated_at":"2026-05-16T19:07:48.327784+05:30"},{"city":"Nizamabad","state":"Telangana","latitude":18.6725,"longitude":78.0941,"temp":35.0,"humidity":28,"rain":0.0,"pressure":959.2,"uv_index":9.05,"wind_gusts":33.1,"aqi":120,"pm10":34.5,"pm2_5":20.3,"no2":11.5,"co":227.0,"o3":122.0,"so2":5.9,"mosquito_risk":0,"arthritis_risk":5,"migraine_risk":7,"frizz_risk":0,"updated_at":"2026-05-16T19:07:48.327792+05:30"},{"city":"Mysore","state":"Karnataka","latitude":12.2958,"longitude":76.6396,"temp":25.4,"humidity":77,"rain":0.0,"pressure":925.1,"uv_index":7.2,"wind_gusts":40.0,"aqi":110,"pm10":87.1,"pm2_5":50.9,"no2":14.7,"co":333.0,"o3":122.0,"so2":6.7,"mosquito_risk":7,"arthritis_risk":5,"migraine_risk":7,"frizz_risk":1,"updated_at":"2026-05-16T19:07:48.327799+05:30"},{"city":"Mangalore","state":"Karnataka","latitude":12.9141,"longitude":74.856,"temp":26.7,"humidity":97,"rain":0.4,"pressure":1003.5,"uv_index":7.95,"wind_gusts":35.6,"aqi":61,"pm10":28.3,"pm2_5":18.6,"no2":5.0,"co":291.0,"o3":59.0,"so2":1.7,"mosquito_risk":10,"arthritis_risk":5,"migraine_risk":4,"frizz_risk":1,"updated_at":"2026-05-16T19:07:48.327806+05:30"},{"city":"Hubli-Dharwad","state":"Karnataka","latitude":15.3647,"longitude":75.124,"temp":25.5,"humidity":94,"rain":0.1,"pressure":937.1,"uv_index":7.8,"wind_gusts":46.1,"aqi":129,"pm10":27.0,"pm2_5":20.1,"no2":5.7,"co":252.0,"o3":125.0,"so2":3.7,"mosquito_risk":10,"arthritis_risk":5,"migraine_risk":7,"frizz_risk":1,"updated_at":"2026-05-16T19:07:48.327813+05:30"},{"city":"Belgaum","state":"Karnataka","latitude":15.8497,"longitude":74.4977,"temp":27.7,"humidity":71,"rain":0.0,"pressure":922.1,"uv_index":9.2,"wind_gusts":40.7,"aqi":100,"pm10":32.0,"pm2_5":20.9,"no2":4.9,"co":160.0,"o3":109.0,"so2":4.2,"mosquito_risk":7,"arthritis_risk":5,"migraine_risk":7,"frizz_risk":1,"updated_at":"2026-05-16T19:07:51.662116+05:30"},{"city":"Coimbatore","state":"Tamil Nadu","latitude":11.0168,"longitude":76.9558,"temp":26.2,"humidity":78,"rain":0.0,"pressure":957.6,"uv_index":9.0,"wind_gusts":45.7,"aqi":91,"pm10":63.6,"pm2_5":36.2,"no2":8.4,"co":306.0,"o3":106.0,"so2":5.2,"mosquito_risk":7,"arthritis_risk":5,"migraine_risk":7,"frizz_risk":1,"updated_at":"2026-05-16T19:07:51.662147+05:30"},{"city":"Madurai","state":"Tamil Nadu","latitude":9.9252,"longitude":78.1198,"temp":31.0,"humidity":58,"rain":0.0,"pressure":987.9,"uv_index":8.75,"wind_gusts":26.3,"aqi":90,"pm10":25.8,"pm2_5":20.2,"no2":21.2,"co":408.0,"o3":86.0,"so2":4.9,"mosquito_risk":0,"arthritis_risk":5,"migraine_risk":7,"frizz_risk":1,"updated_at":"2026-05-16T19:07:51.662157+05:30"},{"city":"Trichy","state":"Tamil Nadu","latitude":10.7905,"longitude":78.7047,"temp":29.1,"humidity":72,"rain":0.0,"pressure":994.7,"uv_index":3.75,"wind_gusts":28.8,"aqi":95,"pm10":24.4,"pm2_5":20.1,"no2":14.4,"co":324.0,"o3":93.0,"so2":5.1,"mosquito_risk":7,"arthritis_risk":5,"migraine_risk":3,"frizz_risk":1,"updated_at":"2026-05-16T19:07:51.662165+05:30"},{"city":"Salem","state":"Tamil Nadu","latitude":11.6643,"longitude":78.146,"temp":31.1,"humidity":56,"rain":0.0,"pressure":972.2,"uv_index":8.95,"wind_gusts":27.0,"aqi":134,"pm10":83.8,"pm2_5":49.7,"no2":24.4,"co":402.0,"o3":119.0,"so2":22.0,"mosquito_risk":0,"arthritis_risk":5,"migraine_risk":7,"frizz_risk":1,"updated_at":"2026-05-16T19:07:51.662173+05:30"},{"city":"Tirunelveli","state":"Tamil Nadu","latitude":8.7139,"longitude":77.7567,"temp":30.2,"humidity":60,"rain":0.0,"pressure":998.3,"uv_index":8.6,"wind_gusts":33.1,"aqi":61,"pm10":15.1,"pm2_5":10.4,"no2":5.8,"co":388.0,"o3":97.0,"so2":1.5,"mosquito_risk":0,"arthritis_risk":5,"migraine_risk":7,"frizz_risk":1,"updated_at":"2026-05-16T19:07:51.662181+05:30"},{"city":"Vellore","state":"Tamil Nadu","latitude":12.9165,"longitude":79.1325,"temp":30.8,"humidity":60,"rain":0.0,"pressure":979.6,"uv_index":9.25,"wind_gusts":28.8,"aqi":84,"pm10":24.3,"pm2_5":16.2,"no2":9.5,"co":251.0,"o3":91.0,"so2":5.3,"mosquito_risk":0,"arthritis_risk":5,"migraine_risk":7,"frizz_risk":1,"updated_at":"2026-05-16T19:07:51.662188+05:30"},{"city":"Erode","state":"Tamil Nadu","latitude":11.341,"longitude":77.7172,"temp":30.3,"humidity":58,"rain":0.0,"pressure":984.0,"uv_index":4.5,"wind_gusts":37.4,"aqi":117,"pm10":85.2,"pm2_5":47.4,"no2":28.1,"co":389.0,"o3":104.0,"so2":7.0,"mosquito_risk":0,"arthritis_risk":5,"migraine_risk":3,"frizz_risk":1,"updated_at":"2026-05-16T19:07:51.662196+05:30"},{"city":"Kochi","state":"Kerala","latitude":9.9312,"longitude":76.2673,"temp":27.2,"humidity":83,"rain":0.0,"pressure":1005.5,"uv_index":5.5,"wind_gusts":32.4,"aqi":67,"pm10":28.5,"pm2_5":21.5,"no2":15.3,"co":311.0,"o3":81.0,"so2":5.3,"mosquito_risk":7,"arthritis_risk":5,"migraine_risk":0,"frizz_risk":1,"updated_at":"2026-05-16T19:07:51.662203+05:30"},{"city":"Thiruvananthapuram","state":"Kerala","latitude":8.5241,"longitude":76.9366,"temp":25.2,"humidity":95,"rain":0.0,"pressure":1004.6,"uv_index":8.2,"wind_gusts":50.4,"aqi":51,"pm10":12.4,"pm2_5":7.1,"no2":2.9,"co":264.0,"o3":99.0,"so2":1.0,"mosquito_risk":7,"arthritis_risk":5,"migraine_risk":4,"frizz_risk":1,"updated_at":"2026-05-16T19:07:51.662211+05:30"},{"city":"Kozhikode","state":"Kerala","latitude":11.2588,"longitude":75.7804,"temp":25.1,"humidity":94,"rain":0.0,"pressure":1004.9,"uv_index":7.55,"wind_gusts":46.4,"aqi":64,"pm10":16.3,"pm2_5":11.1,"no2":1.8,"co":222.0,"o3":99.0,"so2":1.4,"mosquito_risk":7,"arthritis_risk":5,"migraine_risk":4,"frizz_risk":1,"updated_at":"2026-05-16T19:07:51.662218+05:30"},{"city":"Thrissur","state":"Kerala","latitude":10.5276,"longitude":76.2144,"temp":26.1,"humidity":85,"rain":0.0,"pressure":1003.9,"uv_index":8.0,"wind_gusts":33.1,"aqi":73,"pm10":33.6,"pm2_5":25.8,"no2":13.6,"co":272.0,"o3":81.0,"so2":4.0,"mosquito_risk":7,"arthritis_risk":5,"migraine_risk":4,"frizz_risk":1,"updated_at":"2026-05-16T19:07:51.662227+05:30"},{"city":"Kannur","state":"Kerala","latitude":11.8745,"longitude":75.3704,"temp":24.5,"humidity":98,"rain":0.1,"pressure":1004.5,"uv_index":8.7,"wind_gusts":36.4,"aqi":65,"pm10":23.1,"pm2_5":16.8,"no2":7.3,"co":282.0,"o3":78.0,"so2":1.9,"mosquito_risk":6,"arthritis_risk":5,"migraine_risk":4,"frizz_risk":1,"updated_at":"2026-05-16T19:07:51.662235+05:30"},{"city":"Patna","state":"Bihar","latitude":25.5941,"longitude":85.1376,"temp":32.2,"humidity":61,"rain":0.0,"pressure":994.5,"uv_index":8.8,"wind_gusts":23.4,"aqi":162,"pm10":98.0,"pm2_5":57.4,"no2":28.8,"co":547.0,"o3":105.0,"so2":14.1,"mosquito_risk":3,"arthritis_risk":5,"migraine_risk":7,"frizz_risk":1,"updated_at":"2026-05-16T19:07:51.662242+05:30"},{"city":"Gaya","state":"Bihar","latitude":24.7914,"longitude":85.0002,"temp":32.8,"humidity":44,"rain":0.0,"pressure":988.0,"uv_index":8.85,"wind_gusts":35.6,"aqi":152,"pm10":102.2,"pm2_5":44.8,"no2":13.2,"co":451.0,"o3":110.0,"so2":9.0,"mosquito_risk":0,"arthritis_risk":5,"migraine_risk":7,"frizz_risk":1,"updated_at":"2026-05-16T19:07:51.662249+05:30"},{"city":"Muzaffarpur","state":"Bihar","latitude":26.1209,"longitude":85.3647,"temp":31.6,"humidity":65,"rain":0.0,"pressure":994.4,"uv_index":8.8,"wind_gusts":33.5,"aqi":158,"pm10":94.5,"pm2_5":65.0,"no2":28.6,"co":521.0,"o3":102.0,"so2":13.5,"mosquito_risk":3,"arthritis_risk":5,"migraine_risk":7,"frizz_risk":1,"updated_at":"2026-05-16T19:07:51.662256+05:30"},{"city":"Bhagalpur","state":"Bihar","latitude":25.2425,"longitude":87.0117,"temp":30.9,"humidity":71,"rain":0.0,"pressure":995.6,"uv_index":8.8,"wind_gusts":29.9,"aqi":191,"pm10":68.7,"pm2_5":54.1,"no2":9.5,"co":390.0,"o3":160.0,"so2":16.8,"mosquito_risk":3,"arthritis_risk":5,"migraine_risk":7,"frizz_risk":1,"updated_at":"2026-05-16T19:07:51.662263+05:30"},{"city":"Ranchi","state":"Jharkhand","latitude":23.3441,"longitude":85.3096,"temp":28.9,"humidity":45,"rain":0.0,"pressure":933.9,"uv_index":9.25,"wind_gusts":36.7,"aqi":141,"pm10":61.5,"pm2_5":36.1,"no2":12.1,"co":399.0,"o3":104.0,"so2":8.4,"mosquito_risk":4,"arthritis_risk":5,"migraine_risk":7,"frizz_risk":0,"updated_at":"2026-05-16T19:07:51.662270+05:30"},{"city":"Jamshedpur","state":"Jharkhand","latitude":22.8046,"longitude":86.2029,"temp":31.5,"humidity":57,"rain":0.0,"pressure":985.8,"uv_index":9.1,"wind_gusts":28.1,"aqi":166,"pm10":74.5,"pm2_5":51.9,"no2":15.0,"co":409.0,"o3":120.0,"so2":17.2,"mosquito_risk":0,"arthritis_risk":5,"migraine_risk":7,"frizz_risk":1,"updated_at":"2026-05-16T19:07:51.662277+05:30"},{"city":"Dhanbad","state":"Jharkhand","latitude":23.7957,"longitude":86.4304,"temp":31.5,"humidity":45,"rain":0.0,"pressure":974.5,"uv_index":9.05,"wind_gusts":22.7,"aqi":165,"pm10":106.4,"pm2_5":71.5,"no2":50.2,"co":496.0,"o3":73.0,"so2":109.5,"mosquito_risk":0,"arthritis_risk":5,"migraine_risk":7,"frizz_risk":1,"updated_at":"2026-05-16T19:07:51.662284+05:30"},{"city":"Bokaro","state":"Jharkhand","latitude":23.6693,"longitude":86.1511,"temp":31.2,"humidity":49,"rain":0.0,"pressure":978.3,"uv_index":9.05,"wind_gusts":31.7,"aqi":157,"pm10":105.0,"pm2_5":67.5,"no2":36.3,"co":433.0,"o3":87.0,"so2":112.2,"mosquito_risk":0,"arthritis_risk":5,"migraine_risk":7,"frizz_risk":1,"updated_at":"2026-05-16T19:07:51.662292+05:30"},{"city":"Bhubaneswar","state":"Odisha","latitude":20.2961,"longitude":85.8245,"temp":30.1,"humidity":78,"rain":0.0,"pressure":999.2,"uv_index":9.2,"wind_gusts":43.6,"aqi":44,"pm10":16.4,"pm2_5":9.5,"no2":4.4,"co":173.0,"o3":47.0,"so2":2.3,"mosquito_risk":3,"arthritis_risk":5,"migraine_risk":7,"frizz_risk":1,"updated_at":"2026-05-16T19:07:51.662299+05:30"},{"city":"Cuttack","state":"Odisha","latitude":20.4625,"longitude":85.8828,"temp":30.8,"humidity":74,"rain":0.0,"pressure":1000.9,"uv_index":9.2,"wind_gusts":42.8,"aqi":44,"pm10":16.4,"pm2_5":9.5,"no2":4.4,"co":196.0,"o3":47.0,"so2":2.3,"mosquito_risk":3,"arthritis_risk":5,"migraine_risk":4,"frizz_risk":1,"updated_at":"2026-05-16T19:07:51.662306+05:30"},{"city":"Rourkela","state":"Odisha","latitude":22.2604,"longitude":84.8536,"temp":31.3,"humidity":59,"rain":0.0,"pressure":980.0,"uv_index":8.4,"wind_gusts":36.4,"aqi":169,"pm10":85.0,"pm2_5":61.5,"no2":16.1,"co":379.0,"o3":147.0,"so2":13.6,"mosquito_risk":0,"arthritis_risk":5,"migraine_risk":7,"frizz_risk":1,"updated_at":"2026-05-16T19:07:51.662313+05:30"},{"city":"Raipur","state":"Chhattisgarh","latitude":21.2514,"longitude":81.6296,"temp":35.1,"humidity":44,"rain":0.0,"pressure":970.1,"uv_index":9.05,"wind_gusts":28.4,"aqi":185,"pm10":114.8,"pm2_5":82.4,"no2":19.9,"co":254.0,"o3":158.0,"so2":38.6,"mosquito_risk":0,"arthritis_risk":5,"migraine_risk":10,"frizz_risk":1,"updated_at":"2026-05-16T19:07:51.662320+05:30"},{"city":"Bhilai","state":"Chhattisgarh","latitude":21.1938,"longitude":81.3509,"temp":33.6,"humidity":47,"rain":0.0,"pressure":970.1,"uv_index":9.05,"wind_gusts":36.4,"aqi":157,"pm10":108.3,"pm2_5":73.3,"no2":28.4,"co":463.0,"o3":127.0,"so2":42.5,"mosquito_risk":0,"arthritis_risk":5,"migraine_risk":7,"frizz_risk":1,"updated_at":"2026-05-16T19:07:51.662327+05:30"},{"city":"Guwahati","state":"Assam","latitude":26.1158,"longitude":91.7086,"temp":25.1,"humidity":93,"rain":0.1,"pressure":997.6,"uv_index":8.5,"wind_gusts":26.3,"aqi":75,"pm10":24.3,"pm2_5":21.0,"no2":7.1,"co":337.0,"o3":90.0,"so2":3.5,"mosquito_risk":10,"arthritis_risk":5,"migraine_risk":7,"frizz_risk":1,"updated_at":"2026-05-16T19:07:51.662334+05:30"},{"city":"Agartala","state":"Tripura","latitude":23.8315,"longitude":91.2868,"temp":27.6,"humidity":89,"rain":0.1,"pressure":1002.3,"uv_index":6.8,"wind_gusts":32.0,"aqi":70,"pm10":36.3,"pm2_5":28.7,"no2":17.4,"co":219.0,"o3":72.0,"so2":4.6,"mosquito_risk":10,"arthritis_risk":5,"migraine_risk":4,"frizz_risk":1,"updated_at":"2026-05-16T19:07:51.662342+05:30"},{"city":"Shillong","state":"Meghalaya","latitude":25.5788,"longitude":91.8933,"temp":17.7,"humidity":93,"rain":0.0,"pressure":853.9,"uv_index":8.05,"wind_gusts":40.3,"aqi":65,"pm10":19.9,"pm2_5":14.9,"no2":5.6,"co":310.0,"o3":96.0,"so2":3.6,"mosquito_risk":3,"arthritis_risk":10,"migraine_risk":7,"frizz_risk":1,"updated_at":"2026-05-16T19:07:51.662349+05:30"},{"city":"Imphal","state":"Manipur","latitude":24.817,"longitude":93.9368,"temp":23.2,"humidity":81,"rain":0.0,"pressure":920.4,"uv_index":8.75,"wind_gusts":31.7,"aqi":84,"pm10":28.3,"pm2_5":19.2,"no2":10.8,"co":331.0,"o3":72.0,"so2":3.9,"mosquito_risk":3,"arthritis_risk":5,"migraine_risk":7,"frizz_risk":1,"updated_at":"2026-05-16T19:07:51.662356+05:30"},{"city":"Aizawl","state":"Mizoram","latitude":23.7271,"longitude":92.7176,"temp":19.7,"humidity":97,"rain":0.0,"pressure":889.7,"uv_index":9.15,"wind_gusts":29.2,"aqi":58,"pm10":28.3,"pm2_5":17.5,"no2":4.2,"co":179.0,"o3":81.0,"so2":2.7,"mosquito_risk":3,"arthritis_risk":10,"migraine_risk":7,"frizz_risk":1,"updated_at":"2026-05-16T19:07:51.662364+05:30"},{"city":"Kohima","state":"Nagaland","latitude":25.6701,"longitude":94.1077,"temp":17.9,"humidity":98,"rain":0.0,"pressure":852.3,"uv_index":9.2,"wind_gusts":25.9,"aqi":57,"pm10":27.6,"pm2_5":17.8,"no2":9.0,"co":282.0,"o3":66.0,"so2":2.5,"mosquito_risk":3,"arthritis_risk":10,"migraine_risk":7,"frizz_risk":1,"updated_at":"2026-05-16T19:07:51.662371+05:30"},{"city":"Gangtok","state":"Sikkim","latitude":27.3314,"longitude":88.6138,"temp":16.0,"humidity":93,"rain":0.1,"pressure":833.8,"uv_index":9.1,"wind_gusts":36.4,"aqi":91,"pm10":13.2,"pm2_5":11.0,"no2":7.8,"co":371.0,"o3":111.0,"so2":1.5,"mosquito_risk":6,"arthritis_risk":10,"migraine_risk":7,"frizz_risk":0,"updated_at":"2026-05-16T19:07:51.662378+05:30"},{"city":"Siliguri","state":"West Bengal","latitude":26.7271,"longitude":88.3953,"temp":25.4,"humidity":86,"rain":0.0,"pressure":988.5,"uv_index":8.65,"wind_gusts":27.7,"aqi":109,"pm10":28.9,"pm2_5":22.9,"no2":9.5,"co":603.0,"o3":115.0,"so2":3.9,"mosquito_risk":7,"arthritis_risk":5,"migraine_risk":7,"frizz_risk":1,"updated_at":"2026-05-16T19:07:54.995357+05:30"},{"city":"Durgapur","state":"West Bengal","latitude":23.5204,"longitude":87.3119,"temp":29.9,"humidity":70,"rain":0.0,"pressure":989.8,"uv_index":9.0,"wind_gusts":33.8,"aqi":206,"pm10":110.1,"pm2_5":91.5,"no2":30.9,"co":609.0,"o3":125.0,"so2":39.2,"mosquito_risk":7,"arthritis_risk":5,"migraine_risk":7,"frizz_risk":1,"updated_at":"2026-05-16T19:07:54.995388+05:30"},{"city":"Asansol","state":"West Bengal","latitude":23.6739,"longitude":86.9524,"temp":30.9,"humidity":66,"rain":0.0,"pressure":988.3,"uv_index":9.05,"wind_gusts":32.0,"aqi":185,"pm10":93.1,"pm2_5":65.9,"no2":41.8,"co":621.0,"o3":89.0,"so2":28.4,"mosquito_risk":3,"arthritis_risk":5,"migraine_risk":7,"frizz_risk":1,"updated_at":"2026-05-16T19:07:54.995396+05:30"},{"city":"Pondicherry","state":"Puducherry","latitude":11.9139,"longitude":79.8145,"temp":29.0,"humidity":82,"rain":0.0,"pressure":1003.7,"uv_index":9.05,"wind_gusts":32.4,"aqi":72,"pm10":13.2,"pm2_5":10.5,"no2":2.8,"co":331.0,"o3":106.0,"so2":3.7,"mosquito_risk":7,"arthritis_risk":5,"migraine_risk":4,"frizz_risk":1,"updated_at":"2026-05-16T19:07:54.995404+05:30"},{"city":"Port Blair","state":"Andaman and Nicobar Islands","latitude":11.6234,"longitude":92.7265,"temp":28.6,"humidity":81,"rain":0.0,"pressure":1005.5,"uv_index":6.6,"wind_gusts":39.6,"aqi":26,"pm10":8.3,"pm2_5":5.1,"no2":0.6,"co":128.0,"o3":57.0,"so2":0.2,"mosquito_risk":7,"arthritis_risk":5,"migraine_risk":4,"frizz_risk":1,"updated_at":"2026-05-16T19:07:54.995411+05:30"},{"city":"Haridwar","state":"Uttarakhand","latitude":29.9457,"longitude":78.1642,"temp":30.2,"humidity":44,"rain":0.0,"pressure":968.4,"uv_index":7.5,"wind_gusts":35.6,"aqi":145,"pm10":67.8,"pm2_5":34.2,"no2":7.8,"co":275.0,"o3":138.0,"so2":11.0,"mosquito_risk":0,"arthritis_risk":5,"migraine_risk":7,"frizz_risk":1,"updated_at":"2026-05-16T19:07:54.995418+05:30"},{"city":"Rishikesh","state":"Uttarakhand","latitude":30.0869,"longitude":78.2676,"temp":30.1,"humidity":45,"rain":0.0,"pressure":961.5,"uv_index":7.6,"wind_gusts":29.9,"aqi":119,"pm10":48.9,"pm2_5":28.5,"no2":4.3,"co":238.0,"o3":152.0,"so2":8.8,"mosquito_risk":0,"arthritis_risk":5,"migraine_risk":7,"frizz_risk":1,"updated_at":"2026-05-16T19:07:54.995424+05:30"},{"city":"Nainital","state":"Uttarakhand","latitude":29.3919,"longitude":79.4542,"temp":17.3,"humidity":54,"rain":0.0,"pressure":802.8,"uv_index":8.45,"wind_gusts":47.2,"aqi":122,"pm10":47.7,"pm2_5":27.9,"no2":4.5,"co":231.0,"o3":135.0,"so2":6.1,"mosquito_risk":0,"arthritis_risk":5,"migraine_risk":7,"frizz_risk":0,"updated_at":"2026-05-16T19:07:54.995430+05:30"},{"city":"Mussoorie","state":"Uttarakhand","latitude":30.4599,"longitude":78.0664,"temp":17.2,"humidity":66,"rain":0.0,"pressure":800.6,"uv_index":8.0,"wind_gusts":45.7,"aqi":133,"pm10":49.7,"pm2_5":28.6,"no2":9.3,"co":244.0,"o3":140.0,"so2":9.1,"mosquito_risk":3,"arthritis_risk":5,"migraine_risk":7,"frizz_risk":0,"updated_at":"2026-05-16T19:07:54.995436+05:30"},{"city":"Dharamshala","state":"Himachal Pradesh","latitude":32.219,"longitude":76.3234,"temp":20.3,"humidity":69,"rain":0.0,"pressure":866.0,"uv_index":8.35,"wind_gusts":42.5,"aqi":87,"pm10":27.7,"pm2_5":12.3,"no2":4.6,"co":215.0,"o3":113.0,"so2":1.0,"mosquito_risk":3,"arthritis_risk":5,"migraine_risk":7,"frizz_risk":0,"updated_at":"2026-05-16T19:07:54.995442+05:30"},{"city":"Dalhousie","state":"Himachal Pradesh","latitude":32.5387,"longitude":75.971,"temp":15.4,"humidity":74,"rain":0.0,"pressure":802.7,"uv_index":8.6,"wind_gusts":41.0,"aqi":114,"pm10":34.8,"pm2_5":16.8,"no2":10.7,"co":299.0,"o3":132.0,"so2":2.1,"mosquito_risk":3,"arthritis_risk":5,"migraine_risk":7,"frizz_risk":0,"updated_at":"2026-05-16T19:07:54.995448+05:30"},{"city":"Patiala","state":"Punjab","latitude":30.3398,"longitude":76.3869,"temp":33.8,"humidity":27,"rain":0.0,"pressure":973.5,"uv_index":7.6,"wind_gusts":45.4,"aqi":274,"pm10":821.4,"pm2_5":112.7,"no2":4.9,"co":271.0,"o3":123.0,"so2":5.2,"mosquito_risk":0,"arthritis_risk":5,"migraine_risk":7,"frizz_risk":0,"updated_at":"2026-05-16T19:07:54.995455+05:30"},{"city":"Bhatinda","state":"Punjab","latitude":30.211,"longitude":74.9455,"temp":34.5,"humidity":32,"rain":0.0,"pressure":979.2,"uv_index":8.25,"wind_gusts":33.5,"aqi":115,"pm10":70.5,"pm2_5":26.5,"no2":4.7,"co":260.0,"o3":115.0,"so2":6.2,"mosquito_risk":0,"arthritis_risk":5,"migraine_risk":7,"frizz_risk":0,"updated_at":"2026-05-16T19:07:54.995461+05:30"},{"city":"Rohtak","state":"Haryana","latitude":28.8955,"longitude":76.6066,"temp":34.2,"humidity":27,"rain":0.0,"pressure":976.9,"uv_index":7.75,"wind_gusts":38.5,"aqi":570,"pm10":942.5,"pm2_5":144.8,"no2":12.8,"co":393.0,"o3":101.0,"so2":5.9,"mosquito_risk":0,"arthritis_risk":5,"migraine_risk":7,"frizz_risk":0,"updated_at":"2026-05-16T19:07:54.995466+05:30"},{"city":"Panipat","state":"Haryana","latitude":29.3909,"longitude":76.9635,"temp":33.8,"humidity":27,"rain":0.0,"pressure":975.4,"uv_index":7.55,"wind_gusts":41.4,"aqi":1076,"pm10":2145.8,"pm2_5":295.2,"no2":8.2,"co":281.0,"o3":105.0,"so2":7.4,"mosquito_risk":0,"arthritis_risk":5,"migraine_risk":7,"frizz_risk":0,"updated_at":"2026-05-16T19:07:54.995472+05:30"},{"city":"Mathura","state":"Uttar Pradesh","latitude":27.4924,"longitude":77.6737,"temp":35.2,"humidity":26,"rain":0.0,"pressure":981.5,"uv_index":8.0,"wind_gusts":36.4,"aqi":475,"pm10":719.0,"pm2_5":116.2,"no2":13.2,"co":306.0,"o3":105.0,"so2":4.9,"mosquito_risk":0,"arthritis_risk":5,"migraine_risk":10,"frizz_risk":0,"updated_at":"2026-05-16T19:07:54.995478+05:30"},{"city":"Vrindavan","state":"Uttar Pradesh","latitude":27.5823,"longitude":77.7027,"temp":34.3,"humidity":30,"rain":0.0,"pressure":981.9,"uv_index":7.95,"wind_gusts":34.9,"aqi":475,"pm10":719.0,"pm2_5":116.2,"no2":13.2,"co":309.0,"o3":105.0,"so2":4.9,"mosquito_risk":0,"arthritis_risk":5,"migraine_risk":7,"frizz_risk":0,"updated_at":"2026-05-16T19:07:54.995498+05:30"},{"city":"Ayodhya","state":"Uttar Pradesh","latitude":26.7922,"longitude":82.1998,"temp":32.5,"humidity":46,"rain":0.0,"pressure":989.1,"uv_index":8.35,"wind_gusts":33.5,"aqi":159,"pm10":115.9,"pm2_5":48.9,"no2":7.5,"co":318.0,"o3":132.0,"so2":12.2,"mosquito_risk":0,"arthritis_risk":5,"migraine_risk":7,"frizz_risk":1,"updated_at":"2026-05-16T19:07:54.995505+05:30"},{"city":"Ratlam","state":"Madhya Pradesh","latitude":23.3315,"longitude":75.0367,"temp":34.2,"humidity":26,"rain":0.0,"pressure":950.7,"uv_index":8.55,"wind_gusts":33.5,"aqi":54,"pm10":29.7,"pm2_5":13.2,"no2":1.2,"co":159.0,"o3":104.0,"so2":2.0,"mosquito_risk":0,"arthritis_risk":5,"migraine_risk":7,"frizz_risk":0,"updated_at":"2026-05-16T19:07:54.995512+05:30"},{"city":"Sagar","state":"Madhya Pradesh","latitude":23.8388,"longitude":78.7378,"temp":36.9,"humidity":17,"rain":0.0,"pressure":945.5,"uv_index":8.75,"wind_gusts":33.8,"aqi":98,"pm10":27.6,"pm2_5":14.8,"no2":3.7,"co":166.0,"o3":112.0,"so2":3.4,"mosquito_risk":0,"arthritis_risk":5,"migraine_risk":10,"frizz_risk":0,"updated_at":"2026-05-16T19:07:54.995518+05:30"},{"city":"Satna","state":"Madhya Pradesh","latitude":24.6005,"longitude":80.8322,"temp":35.5,"humidity":26,"rain":0.0,"pressure":966.6,"uv_index":8.75,"wind_gusts":33.1,"aqi":121,"pm10":57.7,"pm2_5":28.9,"no2":4.4,"co":210.0,"o3":113.0,"so2":4.9,"mosquito_risk":0,"arthritis_risk":5,"migraine_risk":10,"frizz_risk":0,"updated_at":"2026-05-16T19:07:54.995524+05:30"},{"city":"Akola","state":"Maharashtra","latitude":20.7002,"longitude":77.0082,"temp":39.5,"humidity":18,"rain":0.0,"pressure":969.1,"uv_index":8.2,"wind_gusts":42.1,"aqi":95,"pm10":21.0,"pm2_5":13.6,"no2":4.8,"co":182.0,"o3":118.0,"so2":5.0,"mosquito_risk":0,"arthritis_risk":5,"migraine_risk":10,"frizz_risk":0,"updated_at":"2026-05-16T19:07:54.995531+05:30"},{"city":"Amravati","state":"Maharashtra","latitude":20.9374,"longitude":77.7796,"temp":39.0,"humidity":14,"rain":0.0,"pressure":961.4,"uv_index":8.9,"wind_gusts":36.7,"aqi":101,"pm10":23.5,"pm2_5":14.3,"no2":9.2,"co":227.0,"o3":117.0,"so2":7.1,"mosquito_risk":0,"arthritis_risk":5,"migraine_risk":10,"frizz_risk":0,"updated_at":"2026-05-16T19:07:54.995538+05:30"},{"city":"Latur","state":"Maharashtra","latitude":18.4088,"longitude":76.5604,"temp":35.4,"humidity":24,"rain":0.0,"pressure":935.4,"uv_index":8.8,"wind_gusts":38.2,"aqi":123,"pm10":24.0,"pm2_5":15.7,"no2":5.1,"co":173.0,"o3":135.0,"so2":7.1,"mosquito_risk":0,"arthritis_risk":5,"migraine_risk":10,"frizz_risk":0,"updated_at":"2026-05-16T19:07:54.995544+05:30"},{"city":"Nanded","state":"Maharashtra","latitude":19.1383,"longitude":77.3091,"temp":37.0,"humidity":22,"rain":0.0,"pressure":962.7,"uv_index":8.25,"wind_gusts":30.6,"aqi":119,"pm10":29.7,"pm2_5":17.6,"no2":10.9,"co":301.0,"o3":119.0,"so2":5.9,"mosquito_risk":0,"arthritis_risk":5,"migraine_risk":10,"frizz_risk":0,"updated_at":"2026-05-16T19:07:54.995551+05:30"},{"city":"Gulbarga","state":"Karnataka","latitude":17.3297,"longitude":76.8343,"temp":35.6,"humidity":27,"rain":0.0,"pressure":953.4,"uv_index":8.6,"wind_gusts":46.8,"aqi":133,"pm10":23.8,"pm2_5":16.6,"no2":8.7,"co":237.0,"o3":130.0,"so2":5.9,"mosquito_risk":0,"arthritis_risk":5,"migraine_risk":10,"frizz_risk":0,"updated_at":"2026-05-16T19:07:54.995556+05:30"},{"city":"Bidar","state":"Karnataka","latitude":17.9104,"longitude":77.5199,"temp":34.0,"humidity":28,"rain":0.0,"pressure":931.4,"uv_index":8.9,"wind_gusts":33.5,"aqi":128,"pm10":28.1,"pm2_5":20.2,"no2":13.3,"co":331.0,"o3":120.0,"so2":5.6,"mosquito_risk":0,"arthritis_risk":5,"migraine_risk":7,"frizz_risk":0,"updated_at":"2026-05-16T19:07:54.995562+05:30"},{"city":"Hospet","state":"Karnataka","latitude":15.2689,"longitude":76.3909,"temp":28.4,"humidity":62,"rain":0.0,"pressure":952.0,"uv_index":8.6,"wind_gusts":48.6,"aqi":164,"pm10":76.4,"pm2_5":56.0,"no2":16.9,"co":303.0,"o3":142.0,"so2":17.0,"mosquito_risk":7,"arthritis_risk":5,"migraine_risk":7,"frizz_risk":1,"updated_at":"2026-05-16T19:07:54.995568+05:30"},{"city":"Tirupur","state":"Tamil Nadu","latitude":11.1085,"longitude":77.3411,"temp":27.9,"humidity":72,"rain":0.0,"pressure":970.6,"uv_index":7.6,"wind_gusts":42.8,"aqi":105,"pm10":87.5,"pm2_5":46.8,"no2":18.8,"co":293.0,"o3":112.0,"so2":6.9,"mosquito_risk":7,"arthritis_risk":5,"migraine_risk":7,"frizz_risk":1,"updated_at":"2026-05-16T19:07:54.995574+05:30"},{"city":"Alappuzha","state":"Kerala","latitude":9.4981,"longitude":76.3388,"temp":26.0,"humidity":94,"rain":0.1,"pressure":1005.7,"uv_index":7.9,"wind_gusts":38.9,"aqi":60,"pm10":23.4,"pm2_5":15.6,"no2":8.2,"co":164.0,"o3":96.0,"so2":3.2,"mosquito_risk":10,"arthritis_risk":5,"migraine_risk":4,"frizz_risk":1,"updated_at":"2026-05-16T19:07:54.995580+05:30"},{"city":"Munnar","state":"Kerala","latitude":10.0889,"longitude":77.0595,"temp":17.8,"humidity":100,"rain":0.0,"pressure":853.5,"uv_index":3.75,"wind_gusts":28.4,"aqi":65,"pm10":32.9,"pm2_5":19.7,"no2":12.8,"co":222.0,"o3":67.0,"so2":2.5,"mosquito_risk":3,"arthritis_risk":10,"migraine_risk":3,"frizz_risk":1,"updated_at":"2026-05-16T19:07:54.995586+05:30"},{"city":"Silchar","state":"Assam","latitude":24.8333,"longitude":92.7789,"temp":27.2,"humidity":89,"rain":0.0,"pressure":1001.5,"uv_index":8.75,"wind_gusts":28.4,"aqi":74,"pm10":38.0,"pm2_5":25.8,"no2":10.1,"co":320.0,"o3":79.0,"so2":5.7,"mosquito_risk":7,"arthritis_risk":5,"migraine_risk":4,"frizz_risk":1,"updated_at":"2026-05-16T19:07:54.995592+05:30"},{"city":"Dibrugarh","state":"Assam","latitude":27.4728,"longitude":94.912,"temp":25.0,"humidity":81,"rain":0.0,"pressure":992.5,"uv_index":8.9,"wind_gusts":22.3,"aqi":92,"pm10":29.2,"pm2_5":24.1,"no2":10.0,"co":270.0,"o3":76.0,"so2":2.1,"mosquito_risk":7,"arthritis_risk":5,"migraine_risk":7,"frizz_risk":1,"updated_at":"2026-05-16T19:07:54.995598+05:30"}]