[{"city":"Delhi","state":"Delhi","latitude":28.6139,"longitude":77.209,"temp":28.6,"humidity":45,"rain":0.0,"pressure":986.8,"uv_index":5.95,"wind_gusts":20.2,"aqi":195,"pm10":155.5,"pm2_5":71.7,"mosquito_risk":4,"arthritis_risk":5,"migraine_risk":3,"frizz_risk":0,"updated_at":"2026-03-07T19:57:50.595495+05:30"},{"city":"Mumbai","state":"Maharashtra","latitude":19.076,"longitude":72.8777,"temp":27.0,"humidity":81,"rain":0.0,"pressure":1009.3,"uv_index":7.5,"wind_gusts":24.8,"aqi":164,"pm10":42.1,"pm2_5":37.6,"mosquito_risk":7,"arthritis_risk":0,"migraine_risk":4,"frizz_risk":1,"updated_at":"2026-03-07T19:57:50.595544+05:30"},{"city":"Bangalore","state":"Karnataka","latitude":12.9716,"longitude":77.5946,"temp":27.5,"humidity":36,"rain":0.0,"pressure":912.1,"uv_index":9.2,"wind_gusts":24.8,"aqi":168,"pm10":44.5,"pm2_5":39.3,"mosquito_risk":4,"arthritis_risk":5,"migraine_risk":7,"frizz_risk":0,"updated_at":"2026-03-07T19:57:50.595560+05:30"},{"city":"Hyderabad","state":"Telangana","latitude":17.385,"longitude":78.4867,"temp":29.7,"humidity":32,"rain":0.0,"pressure":954.1,"uv_index":8.5,"wind_gusts":27.0,"aqi":151,"pm10":35.6,"pm2_5":29.5,"mosquito_risk":4,"arthritis_risk":5,"migraine_risk":7,"frizz_risk":0,"updated_at":"2026-03-07T19:57:50.595570+05:30"},{"city":"Chennai","state":"Tamil Nadu","latitude":13.0827,"longitude":80.2707,"temp":27.5,"humidity":75,"rain":0.0,"pressure":1008.6,"uv_index":8.9,"wind_gusts":34.6,"aqi":91,"pm10":25.9,"pm2_5":19.1,"mosquito_risk":7,"arthritis_risk":0,"migraine_risk":4,"frizz_risk":1,"updated_at":"2026-03-07T19:57:50.595579+05:30"},{"city":"Kolkata","state":"West Bengal","latitude":22.5726,"longitude":88.3639,"temp":24.7,"humidity":84,"rain":0.0,"pressure":1010.3,"uv_index":7.8,"wind_gusts":18.0,"aqi":142,"pm10":67.8,"pm2_5":59.1,"mosquito_risk":3,"arthritis_risk":0,"migraine_risk":4,"frizz_risk":1,"updated_at":"2026-03-07T19:57:50.595588+05:30"},{"city":"Pune","state":"Maharashtra","latitude":18.5204,"longitude":73.8567,"temp":30.0,"humidity":43,"rain":0.0,"pressure":949.5,"uv_index":8.05,"wind_gusts":24.8,"aqi":136,"pm10":21.1,"pm2_5":19.7,"mosquito_risk":4,"arthritis_risk":5,"migraine_risk":7,"frizz_risk":0,"updated_at":"2026-03-07T19:57:50.595600+05:30"},{"city":"Ahmedabad","state":"Gujarat","latitude":23.0225,"longitude":72.5714,"temp":30.4,"humidity":35,"rain":0.0,"pressure":1004.1,"uv_index":7.3,"wind_gusts":13.7,"aqi":125,"pm10":38.5,"pm2_5":32.7,"mosquito_risk":0,"arthritis_risk":5,"migraine_risk":4,"frizz_risk":0,"updated_at":"2026-03-07T19:57:50.595607+05:30"},{"city":"Jaipur","state":"Rajasthan","latitude":26.9124,"longitude":75.7873,"temp":29.3,"humidity":19,"rain":0.0,"pressure":963.1,"uv_index":6.7,"wind_gusts":20.2,"aqi":141,"pm10":44.6,"pm2_5":25.5,"mosquito_risk":4,"arthritis_risk":5,"migraine_risk":7,"frizz_risk":0,"updated_at":"2026-03-07T19:57:50.595615+05:30"},{"city":"Lucknow","state":"Uttar Pradesh","latitude":26.8467,"longitude":80.9462,"temp":28.5,"humidity":53,"rain":0.0,"pressure":997.8,"uv_index":6.45,"wind_gusts":16.9,"aqi":191,"pm10":129.0,"pm2_5":99.2,"mosquito_risk":4,"arthritis_risk":5,"migraine_risk":7,"frizz_risk":1,"updated_at":"2026-03-07T19:57:50.595622+05:30"},{"city":"Kanpur","state":"Uttar Pradesh","latitude":26.4499,"longitude":80.3319,"temp":26.4,"humidity":64,"rain":0.0,"pressure":995.9,"uv_index":6.5,"wind_gusts":14.4,"aqi":186,"pm10":136.9,"pm2_5":91.0,"mosquito_risk":7,"arthritis_risk":5,"migraine_risk":7,"frizz_risk":1,"updated_at":"2026-03-07T19:57:50.595629+05:30"},{"city":"Chandigarh","state":"Chandigarh","latitude":30.7333,"longitude":76.7794,"temp":24.7,"humidity":64,"rain":0.0,"pressure":972.6,"uv_index":5.85,"wind_gusts":19.1,"aqi":168,"pm10":90.3,"pm2_5":67.3,"mosquito_risk":3,"arthritis_risk":5,"migraine_risk":3,"frizz_risk":1,"updated_at":"2026-03-07T19:57:50.595637+05:30"},{"city":"Srinagar","state":"Jammu and Kashmir","latitude":34.0837,"longitude":74.7973,"temp":13.9,"humidity":65,"rain":0.0,"pressure":845.7,"uv_index":5.45,"wind_gusts":16.9,"aqi":110,"pm10":61.9,"pm2_5":46.8,"mosquito_risk":3,"arthritis_risk":5,"migraine_risk":3,"frizz_risk":0,"updated_at":"2026-03-07T19:57:50.595644+05:30"},{"city":"Jammu","state":"Jammu and Kashmir","latitude":32.7266,"longitude":74.857,"temp":24.8,"humidity":75,"rain":0.0,"pressure":976.8,"uv_index":5.85,"wind_gusts":11.5,"aqi":136,"pm10":79.4,"pm2_5":72.4,"mosquito_risk":3,"arthritis_risk":5,"migraine_risk":3,"frizz_risk":1,"updated_at":"2026-03-07T19:57:50.595652+05:30"},{"city":"Amritsar","state":"Punjab","latitude":31.634,"longitude":74.8723,"temp":24.5,"humidity":70,"rain":0.0,"pressure":984.8,"uv_index":6.4,"wind_gusts":18.7,"aqi":150,"pm10":99.0,"pm2_5":67.3,"mosquito_risk":3,"arthritis_risk":5,"migraine_risk":7,"frizz_risk":1,"updated_at":"2026-03-07T19:57:50.595660+05:30"},{"city":"Ludhiana","state":"Punjab","latitude":30.901,"longitude":75.8573,"temp":26.9,"humidity":58,"rain":0.0,"pressure":982.7,"uv_index":6.1,"wind_gusts":16.2,"aqi":168,"pm10":142.0,"pm2_5":101.5,"mosquito_risk":4,"arthritis_risk":5,"migraine_risk":7,"frizz_risk":1,"updated_at":"2026-03-07T19:57:50.595667+05:30"},{"city":"Jalandhar","state":"Punjab","latitude":31.326,"longitude":75.5762,"temp":26.2,"humidity":61,"rain":0.0,"pressure":983.9,"uv_index":6.25,"wind_gusts":18.4,"aqi":163,"pm10":126.2,"pm2_5":83.6,"mosquito_risk":7,"arthritis_risk":5,"migraine_risk":7,"frizz_risk":1,"updated_at":"2026-03-07T19:57:50.595677+05:30"},{"city":"Dehradun","state":"Uttarakhand","latitude":30.6284,"longitude":78.0322,"temp":17.1,"humidity":89,"rain":0.0,"pressure":834.2,"uv_index":6.2,"wind_gusts":27.0,"aqi":154,"pm10":74.5,"pm2_5":56.8,"mosquito_risk":3,"arthritis_risk":10,"migraine_risk":7,"frizz_risk":0,"updated_at":"2026-03-07T19:57:50.595684+05:30"},{"city":"Shimla","state":"Himachal Pradesh","latitude":31.1048,"longitude":77.1734,"temp":14.5,"humidity":81,"rain":0.0,"pressure":787.9,"uv_index":6.3,"wind_gusts":35.6,"aqi":153,"pm10":68.5,"pm2_5":56.1,"mosquito_risk":3,"arthritis_risk":10,"migraine_risk":7,"frizz_risk":0,"updated_at":"2026-03-07T19:57:50.595691+05:30"},{"city":"Manali","state":"Himachal Pradesh","latitude":32.2396,"longitude":77.1887,"temp":18.5,"humidity":34,"rain":0.0,"pressure":825.8,"uv_index":7.3,"wind_gusts":40.3,"aqi":99,"pm10":23.9,"pm2_5":13.3,"mosquito_risk":0,"arthritis_risk":5,"migraine_risk":7,"frizz_risk":0,"updated_at":"2026-03-07T19:57:50.595701+05:30"},{"city":"Gurgaon","state":"Haryana","latitude":28.4595,"longitude":77.0266,"temp":26.9,"humidity":50,"rain":0.0,"pressure":985.0,"uv_index":6.05,"wind_gusts":13.7,"aqi":190,"pm10":252.4,"pm2_5":76.8,"mosquito_risk":4,"arthritis_risk":5,"migraine_risk":7,"frizz_risk":0,"updated_at":"2026-03-07T19:57:50.595708+05:30"},{"city":"Noida","state":"Uttar Pradesh","latitude":28.5355,"longitude":77.391,"temp":28.3,"humidity":47,"rain":0.0,"pressure":988.3,"uv_index":5.95,"wind_gusts":19.1,"aqi":190,"pm10":252.4,"pm2_5":76.8,"mosquito_risk":4,"arthritis_risk":5,"migraine_risk":3,"frizz_risk":0,"updated_at":"2026-03-07T19:57:50.595715+05:30"},{"city":"Ghaziabad","state":"Uttar Pradesh","latitude":28.6692,"longitude":77.4538,"temp":27.4,"humidity":53,"rain":0.0,"pressure":986.4,"uv_index":5.9,"wind_gusts":17.6,"aqi":203,"pm10":178.8,"pm2_5":96.9,"mosquito_risk":4,"arthritis_risk":5,"migraine_risk":3,"frizz_risk":1,"updated_at":"2026-03-07T19:57:50.595721+05:30"},{"city":"Faridabad","state":"Haryana","latitude":28.4089,"longitude":77.3178,"temp":26.0,"humidity":51,"rain":0.0,"pressure":987.3,"uv_index":6.0,"wind_gusts":14.4,"aqi":190,"pm10":252.4,"pm2_5":76.8,"mosquito_risk":4,"arthritis_risk":5,"migraine_risk":3,"frizz_risk":0,"updated_at":"2026-03-07T19:57:50.595728+05:30"},{"city":"Meerut","state":"Uttar Pradesh","latitude":28.9845,"longitude":77.7064,"temp":27.1,"humidity":57,"rain":0.0,"pressure":985.3,"uv_index":5.8,"wind_gusts":20.2,"aqi":203,"pm10":178.8,"pm2_5":96.9,"mosquito_risk":4,"arthritis_risk":5,"migraine_risk":3,"frizz_risk":1,"updated_at":"2026-03-07T19:57:50.595735+05:30"},{"city":"Agra","state":"Uttar Pradesh","latitude":27.1767,"longitude":78.0081,"temp":26.4,"humidity":50,"rain":0.0,"pressure":991.4,"uv_index":6.3,"wind_gusts":15.8,"aqi":167,"pm10":203.0,"pm2_5":73.6,"mosquito_risk":4,"arthritis_risk":5,"migraine_risk":7,"frizz_risk":0,"updated_at":"2026-03-07T19:57:50.595741+05:30"},{"city":"Varanasi","state":"Uttar Pradesh","latitude":25.3176,"longitude":82.9739,"temp":26.0,"humidity":68,"rain":0.0,"pressure":1001.5,"uv_index":7.1,"wind_gusts":16.9,"aqi":183,"pm10":105.9,"pm2_5":95.2,"mosquito_risk":7,"arthritis_risk":5,"migraine_risk":4,"frizz_risk":1,"updated_at":"2026-03-07T19:57:50.595752+05:30"},{"city":"Prayagraj","state":"Uttar Pradesh","latitude":25.4358,"longitude":81.8463,"temp":26.4,"humidity":65,"rain":0.0,"pressure":1000.0,"uv_index":7.0,"wind_gusts":14.0,"aqi":183,"pm10":96.2,"pm2_5":84.1,"mosquito_risk":7,"arthritis_risk":5,"migraine_risk":4,"frizz_risk":1,"updated_at":"2026-03-07T19:57:50.595759+05:30"},{"city":"Gorakhpur","state":"Uttar Pradesh","latitude":26.7606,"longitude":83.3732,"temp":24.5,"humidity":75,"rain":0.0,"pressure":1001.4,"uv_index":6.85,"wind_gusts":9.4,"aqi":171,"pm10":103.8,"pm2_5":94.5,"mosquito_risk":3,"arthritis_risk":5,"migraine_risk":4,"frizz_risk":1,"updated_at":"2026-03-07T19:57:50.595766+05:30"},{"city":"Bareilly","state":"Uttar Pradesh","latitude":28.367,"longitude":79.4304,"temp":26.6,"humidity":65,"rain":0.0,"pressure":991.1,"uv_index":6.15,"wind_gusts":10.1,"aqi":182,"pm10":118.7,"pm2_5":91.7,"mosquito_risk":7,"arthritis_risk":5,"migraine_risk":7,"frizz_risk":1,"updated_at":"2026-03-07T19:57:50.595773+05:30"},{"city":"Aligarh","state":"Uttar Pradesh","latitude":27.8974,"longitude":78.088,"temp":25.7,"humidity":59,"rain":0.0,"pressure":989.2,"uv_index":6.05,"wind_gusts":17.6,"aqi":177,"pm10":214.2,"pm2_5":82.0,"mosquito_risk":4,"arthritis_risk":5,"migraine_risk":7,"frizz_risk":1,"updated_at":"2026-03-07T19:57:50.595780+05:30"},{"city":"Moradabad","state":"Uttar Pradesh","latitude":28.8386,"longitude":78.7733,"temp":27.2,"humidity":62,"rain":0.0,"pressure":987.8,"uv_index":5.95,"wind_gusts":12.2,"aqi":167,"pm10":149.5,"pm2_5":116.6,"mosquito_risk":7,"arthritis_risk":5,"migraine_risk":3,"frizz_risk":1,"updated_at":"2026-03-07T19:57:50.595786+05:30"},{"city":"Saharanpur","state":"Uttar Pradesh","latitude":29.9637,"longitude":77.546,"temp":25.3,"humidity":64,"rain":0.0,"pressure":979.5,"uv_index":5.6,"wind_gusts":23.0,"aqi":171,"pm10":115.5,"pm2_5":84.5,"mosquito_risk":7,"arthritis_risk":5,"migraine_risk":3,"frizz_risk":1,"updated_at":"2026-03-07T19:57:50.595792+05:30"},{"city":"Jhansi","state":"Uttar Pradesh","latitude":25.4484,"longitude":78.5685,"temp":25.5,"humidity":46,"rain":0.0,"pressure":981.4,"uv_index":6.95,"wind_gusts":25.6,"aqi":133,"pm10":91.5,"pm2_5":34.1,"mosquito_risk":4,"arthritis_risk":5,"migraine_risk":7,"frizz_risk":0,"updated_at":"2026-03-07T19:57:53.816845+05:30"},{"city":"Surat","state":"Gujarat","latitude":21.1702,"longitude":72.8311,"temp":27.3,"humidity":60,"rain":0.0,"pressure":1007.9,"uv_index":7.2,"wind_gusts":24.5,"aqi":154,"pm10":75.7,"pm2_5":74.5,"mosquito_risk":4,"arthritis_risk":5,"migraine_risk":4,"frizz_risk":1,"updated_at":"2026-03-07T19:57:53.816878+05:30"},{"city":"Vadodara","state":"Gujarat","latitude":22.3072,"longitude":73.1812,"temp":29.6,"humidity":44,"rain":0.0,"pressure":1005.9,"uv_index":7.3,"wind_gusts":18.4,"aqi":204,"pm10":50.5,"pm2_5":48.9,"mosquito_risk":4,"arthritis_risk":5,"migraine_risk":4,"frizz_risk":0,"updated_at":"2026-03-07T19:57:53.816890+05:30"},{"city":"Rajkot","state":"Gujarat","latitude":22.3039,"longitude":70.8022,"temp":29.9,"humidity":38,"rain":0.0,"pressure":996.4,"uv_index":7.15,"wind_gusts":23.4,"aqi":108,"pm10":37.0,"pm2_5":26.3,"mosquito_risk":4,"arthritis_risk":5,"migraine_risk":7,"frizz_risk":0,"updated_at":"2026-03-07T19:57:53.816899+05:30"},{"city":"Thane","state":"Maharashtra","latitude":19.2183,"longitude":72.9781,"temp":26.5,"humidity":77,"rain":0.0,"pressure":1008.8,"uv_index":7.5,"wind_gusts":33.8,"aqi":164,"pm10":42.1,"pm2_5":37.6,"mosquito_risk":7,"arthritis_risk":0,"migraine_risk":4,"frizz_risk":1,"updated_at":"2026-03-07T19:57:53.816908+05:30"},{"city":"Nagpur","state":"Maharashtra","latitude":21.1458,"longitude":79.0882,"temp":29.4,"humidity":37,"rain":0.0,"pressure":974.1,"uv_index":7.85,"wind_gusts":21.2,"aqi":116,"pm10":39.0,"pm2_5":27.6,"mosquito_risk":4,"arthritis_risk":5,"migraine_risk":7,"frizz_risk":0,"updated_at":"2026-03-07T19:57:53.816917+05:30"},{"city":"Nashik","state":"Maharashtra","latitude":19.9975,"longitude":73.7898,"temp":28.6,"humidity":40,"rain":0.0,"pressure":946.9,"uv_index":7.65,"wind_gusts":34.2,"aqi":142,"pm10":25.7,"pm2_5":24.8,"mosquito_risk":4,"arthritis_risk":5,"migraine_risk":7,"frizz_risk":0,"updated_at":"2026-03-07T19:57:53.816926+05:30"},{"city":"Aurangabad","state":"Maharashtra","latitude":19.8762,"longitude":75.3433,"temp":30.1,"humidity":33,"rain":0.0,"pressure":945.1,"uv_index":8.15,"wind_gusts":22.7,"aqi":151,"pm10":26.3,"pm2_5":25.1,"mosquito_risk":0,"arthritis_risk":5,"migraine_risk":7,"frizz_risk":0,"updated_at":"2026-03-07T19:57:53.816934+05:30"},{"city":"Solapur","state":"Maharashtra","latitude":17.6599,"longitude":75.9064,"temp":29.6,"humidity":39,"rain":0.0,"pressure":957.3,"uv_index":8.4,"wind_gusts":19.8,"aqi":145,"pm10":22.5,"pm2_5":19.2,"mosquito_risk":4,"arthritis_risk":5,"migraine_risk":7,"frizz_risk":0,"updated_at":"2026-03-07T19:57:53.816942+05:30"},{"city":"Kolhapur","state":"Maharashtra","latitude":16.705,"longitude":74.2433,"temp":26.4,"humidity":47,"rain":0.0,"pressure":948.2,"uv_index":8.55,"wind_gusts":29.2,"aqi":151,"pm10":34.3,"pm2_5":32.0,"mosquito_risk":4,"arthritis_risk":5,"migraine_risk":7,"frizz_risk":0,"updated_at":"2026-03-07T19:57:53.816950+05:30"},{"city":"Goa","state":"Goa","latitude":15.2993,"longitude":74.124,"temp":27.9,"humidity":77,"rain":0.0,"pressure":998.4,"uv_index":8.6,"wind_gusts":31.7,"aqi":153,"pm10":42.1,"pm2_5":39.0,"mosquito_risk":7,"arthritis_risk":5,"migraine_risk":7,"frizz_risk":1,"updated_at":"2026-03-07T19:57:53.816958+05:30"},{"city":"Jodhpur","state":"Rajasthan","latitude":26.2389,"longitude":73.0243,"temp":30.6,"humidity":31,"rain":0.0,"pressure":985.9,"uv_index":7.0,"wind_gusts":20.2,"aqi":84,"pm10":66.1,"pm2_5":18.9,"mosquito_risk":0,"arthritis_risk":5,"migraine_risk":7,"frizz_risk":0,"updated_at":"2026-03-07T19:57:53.816967+05:30"},{"city":"Udaipur","state":"Rajasthan","latitude":24.5854,"longitude":73.7125,"temp":28.9,"humidity":33,"rain":0.0,"pressure":950.0,"uv_index":7.65,"wind_gusts":19.4,"aqi":99,"pm10":9.9,"pm2_5":8.9,"mosquito_risk":4,"arthritis_risk":5,"migraine_risk":7,"frizz_risk":0,"updated_at":"2026-03-07T19:57:53.816975+05:30"},{"city":"Kota","state":"Rajasthan","latitude":25.2138,"longitude":75.8648,"temp":27.7,"humidity":40,"rain":0.0,"pressure":981.7,"uv_index":7.05,"wind_gusts":14.8,"aqi":123,"pm10":30.0,"pm2_5":28.1,"mosquito_risk":4,"arthritis_risk":5,"migraine_risk":7,"frizz_risk":0,"updated_at":"2026-03-07T19:57:53.816982+05:30"},{"city":"Bikaner","state":"Rajasthan","latitude":28.0229,"longitude":73.3119,"temp":32.1,"humidity":28,"rain":0.0,"pressure":984.5,"uv_index":6.75,"wind_gusts":19.4,"aqi":90,"pm10":27.5,"pm2_5":14.3,"mosquito_risk":0,"arthritis_risk":5,"migraine_risk":7,"frizz_risk":0,"updated_at":"2026-03-07T19:57:53.816988+05:30"},{"city":"Ajmer","state":"Rajasthan","latitude":26.4499,"longitude":74.6399,"temp":28.9,"humidity":26,"rain":0.0,"pressure":957.9,"uv_index":7.0,"wind_gusts":16.9,"aqi":102,"pm10":22.0,"pm2_5":20.8,"mosquito_risk":4,"arthritis_risk":5,"migraine_risk":7,"frizz_risk":0,"updated_at":"2026-03-07T19:57:53.816995+05:30"},{"city":"Gwalior","state":"Madhya Pradesh","latitude":26.2183,"longitude":78.1828,"temp":26.4,"humidity":55,"rain":0.0,"pressure":986.9,"uv_index":6.65,"wind_gusts":20.5,"aqi":125,"pm10":92.9,"pm2_5":31.9,"mosquito_risk":4,"arthritis_risk":5,"migraine_risk":7,"frizz_risk":1,"updated_at":"2026-03-07T19:57:53.817001+05:30"},{"city":"Indore","state":"Madhya Pradesh","latitude":22.7196,"longitude":75.8577,"temp":24.9,"humidity":45,"rain":0.0,"pressure":950.0,"uv_index":7.6,"wind_gusts":18.0,"aqi":108,"pm10":27.0,"pm2_5":24.6,"mosquito_risk":0,"arthritis_risk":5,"migraine_risk":7,"frizz_risk":0,"updated_at":"2026-03-07T19:57:53.817008+05:30"},{"city":"Bhopal","state":"Madhya Pradesh","latitude":23.2599,"longitude":77.4126,"temp":25.3,"humidity":44,"rain":0.0,"pressure":956.2,"uv_index":7.5,"wind_gusts":20.9,"aqi":106,"pm10":30.2,"pm2_5":17.3,"mosquito_risk":4,"arthritis_risk":5,"migraine_risk":7,"frizz_risk":0,"updated_at":"2026-03-07T19:57:53.817014+05:30"},{"city":"Jabalpur","state":"Madhya Pradesh","latitude":23.1815,"longitude":79.9864,"temp":28.4,"humidity":41,"rain":0.0,"pressure":964.0,"uv_index":7.55,"wind_gusts":26.3,"aqi":107,"pm10":61.9,"pm2_5":31.5,"mosquito_risk":4,"arthritis_risk":5,"migraine_risk":7,"frizz_risk":0,"updated_at":"2026-03-07T19:57:53.817021+05:30"},{"city":"Ujjain","state":"Madhya Pradesh","latitude":23.1765,"longitude":75.7885,"temp":26.0,"humidity":47,"rain":0.0,"pressure":956.1,"uv_index":7.5,"wind_gusts":13.7,"aqi":93,"pm10":32.7,"pm2_5":31.3,"mosquito_risk":4,"arthritis_risk":5,"migraine_risk":7,"frizz_risk":0,"updated_at":"2026-03-07T19:57:53.817028+05:30"},{"city":"Visakhapatnam","state":"Andhra Pradesh","latitude":17.6868,"longitude":83.2185,"temp":26.6,"humidity":80,"rain":0.0,"pressure":1006.2,"uv_index":7.7,"wind_gusts":38.9,"aqi":135,"pm10":43.4,"pm2_5":36.8,"mosquito_risk":7,"arthritis_risk":5,"migraine_risk":4,"frizz_risk":1,"updated_at":"2026-03-07T19:57:53.817034+05:30"},{"city":"Vijayawada","state":"Andhra Pradesh","latitude":16.5062,"longitude":80.648,"temp":28.3,"humidity":68,"rain":0.0,"pressure":1003.9,"uv_index":8.6,"wind_gusts":30.6,"aqi":147,"pm10":40.5,"pm2_5":37.0,"mosquito_risk":7,"arthritis_risk":5,"migraine_risk":4,"frizz_risk":1,"updated_at":"2026-03-07T19:57:53.817041+05:30"},{"city":"Guntur","state":"Andhra Pradesh","latitude":16.3067,"longitude":80.4365,"temp":26.7,"humidity":80,"rain":0.0,"pressure":1005.3,"uv_index":8.6,"wind_gusts":32.4,"aqi":149,"pm10":43.9,"pm2_5":39.9,"mosquito_risk":7,"arthritis_risk":5,"migraine_risk":4,"frizz_risk":1,"updated_at":"2026-03-07T19:57:53.817047+05:30"},{"city":"Nellore","state":"Andhra Pradesh","latitude":14.4426,"longitude":79.9865,"temp":26.7,"humidity":82,"rain":0.0,"pressure":1007.2,"uv_index":8.75,"wind_gusts":33.8,"aqi":153,"pm10":31.3,"pm2_5":26.6,"mosquito_risk":7,"arthritis_risk":5,"migraine_risk":4,"frizz_risk":1,"updated_at":"2026-03-07T19:57:53.817054+05:30"},{"city":"Kurnool","state":"Andhra Pradesh","latitude":15.8281,"longitude":78.0373,"temp":32.8,"humidity":24,"rain":0.0,"pressure":976.7,"uv_index":8.6,"wind_gusts":24.8,"aqi":129,"pm10":27.3,"pm2_5":20.8,"mosquito_risk":0,"arthritis_risk":5,"migraine_risk":7,"frizz_risk":0,"updated_at":"2026-03-07T19:57:53.817061+05:30"},{"city":"Kakinada","state":"Andhra Pradesh","latitude":16.9891,"longitude":82.2475,"temp":26.7,"humidity":80,"rain":0.0,"pressure":1009.6,"uv_index":8.5,"wind_gusts":32.0,"aqi":105,"pm10":38.8,"pm2_5":31.2,"mosquito_risk":7,"arthritis_risk":0,"migraine_risk":4,"frizz_risk":1,"updated_at":"2026-03-07T19:57:53.817068+05:30"},{"city":"Tirupati","state":"Andhra Pradesh","latitude":13.6288,"longitude":79.4192,"temp":29.1,"humidity":59,"rain":0.0,"pressure":992.6,"uv_index":8.9,"wind_gusts":32.8,"aqi":160,"pm10":44.2,"pm2_5":42.1,"mosquito_risk":4,"arthritis_risk":5,"migraine_risk":7,"frizz_risk":1,"updated_at":"2026-03-07T19:57:53.817075+05:30"},{"city":"Warangal","state":"Telangana","latitude":17.9689,"longitude":79.5941,"temp":30.1,"humidity":38,"rain":0.0,"pressure":979.0,"uv_index":8.3,"wind_gusts":22.0,"aqi":146,"pm10":39.2,"pm2_5":32.7,"mosquito_risk":0,"arthritis_risk":5,"migraine_risk":7,"frizz_risk":0,"updated_at":"2026-03-07T19:57:53.817082+05:30"},{"city":"Nizamabad","state":"Telangana","latitude":18.6725,"longitude":78.0941,"temp":30.4,"humidity":35,"rain":0.0,"pressure":965.7,"uv_index":8.2,"wind_gusts":22.3,"aqi":139,"pm10":47.8,"pm2_5":38.4,"mosquito_risk":0,"arthritis_risk":5,"migraine_risk":7,"frizz_risk":0,"updated_at":"2026-03-07T19:57:53.817088+05:30"},{"city":"Mysore","state":"Karnataka","latitude":12.2958,"longitude":76.6396,"temp":28.2,"humidity":39,"rain":0.0,"pressure":928.3,"uv_index":9.2,"wind_gusts":34.6,"aqi":156,"pm10":49.1,"pm2_5":45.2,"mosquito_risk":4,"arthritis_risk":5,"migraine_risk":7,"frizz_risk":0,"updated_at":"2026-03-07T19:57:53.817095+05:30"},{"city":"Mangalore","state":"Karnataka","latitude":12.9141,"longitude":74.856,"temp":28.7,"humidity":79,"rain":0.0,"pressure":1007.8,"uv_index":8.8,"wind_gusts":26.6,"aqi":152,"pm10":46.7,"pm2_5":42.5,"mosquito_risk":7,"arthritis_risk":5,"migraine_risk":4,"frizz_risk":1,"updated_at":"2026-03-07T19:57:53.817101+05:30"},{"city":"Hubli-Dharwad","state":"Karnataka","latitude":15.3647,"longitude":75.124,"temp":28.8,"humidity":36,"rain":0.0,"pressure":941.0,"uv_index":8.75,"wind_gusts":26.3,"aqi":183,"pm10":34.3,"pm2_5":30.2,"mosquito_risk":4,"arthritis_risk":5,"migraine_risk":7,"frizz_risk":0,"updated_at":"2026-03-07T19:57:53.817108+05:30"},{"city":"Belgaum","state":"Karnataka","latitude":15.8497,"longitude":74.4977,"temp":25.4,"humidity":77,"rain":0.0,"pressure":926.5,"uv_index":8.8,"wind_gusts":41.0,"aqi":179,"pm10":37.3,"pm2_5":34.6,"mosquito_risk":7,"arthritis_risk":5,"migraine_risk":7,"frizz_risk":1,"updated_at":"2026-03-07T19:57:57.028449+05:30"},{"city":"Coimbatore","state":"Tamil Nadu","latitude":11.0168,"longitude":76.9558,"temp":26.0,"humidity":77,"rain":0.0,"pressure":962.1,"uv_index":9.2,"wind_gusts":37.8,"aqi":155,"pm10":43.7,"pm2_5":41.2,"mosquito_risk":7,"arthritis_risk":5,"migraine_risk":7,"frizz_risk":1,"updated_at":"2026-03-07T19:57:57.028485+05:30"},{"city":"Madurai","state":"Tamil Nadu","latitude":9.9252,"longitude":78.1198,"temp":29.3,"humidity":59,"rain":0.0,"pressure":993.5,"uv_index":9.15,"wind_gusts":31.7,"aqi":160,"pm10":33.5,"pm2_5":30.5,"mosquito_risk":4,"arthritis_risk":5,"migraine_risk":7,"frizz_risk":1,"updated_at":"2026-03-07T19:57:57.028495+05:30"},{"city":"Trichy","state":"Tamil Nadu","latitude":10.7905,"longitude":78.7047,"temp":29.7,"humidity":60,"rain":0.0,"pressure":1000.2,"uv_index":9.05,"wind_gusts":27.0,"aqi":123,"pm10":34.6,"pm2_5":32.0,"mosquito_risk":4,"arthritis_risk":5,"migraine_risk":4,"frizz_risk":1,"updated_at":"2026-03-07T19:57:57.028504+05:30"},{"city":"Salem","state":"Tamil Nadu","latitude":11.6643,"longitude":78.146,"temp":31.3,"humidity":39,"rain":0.0,"pressure":977.2,"uv_index":9.05,"wind_gusts":20.2,"aqi":169,"pm10":34.1,"pm2_5":29.6,"mosquito_risk":0,"arthritis_risk":5,"migraine_risk":7,"frizz_risk":0,"updated_at":"2026-03-07T19:57:57.028511+05:30"},{"city":"Tirunelveli","state":"Tamil Nadu","latitude":8.7139,"longitude":77.7567,"temp":29.8,"humidity":55,"rain":0.0,"pressure":1003.3,"uv_index":9.15,"wind_gusts":50.0,"aqi":138,"pm10":33.9,"pm2_5":31.2,"mosquito_risk":4,"arthritis_risk":5,"migraine_risk":4,"frizz_risk":1,"updated_at":"2026-03-07T19:57:57.028519+05:30"},{"city":"Vellore","state":"Tamil Nadu","latitude":12.9165,"longitude":79.1325,"temp":28.9,"humidity":53,"rain":0.0,"pressure":985.1,"uv_index":8.95,"wind_gusts":35.3,"aqi":152,"pm10":41.2,"pm2_5":38.5,"mosquito_risk":4,"arthritis_risk":5,"migraine_risk":7,"frizz_risk":1,"updated_at":"2026-03-07T19:57:57.028526+05:30"},{"city":"Erode","state":"Tamil Nadu","latitude":11.341,"longitude":77.7172,"temp":32.4,"humidity":42,"rain":0.0,"pressure":988.3,"uv_index":9.05,"wind_gusts":24.5,"aqi":161,"pm10":37.3,"pm2_5":34.0,"mosquito_risk":0,"arthritis_risk":5,"migraine_risk":7,"frizz_risk":1,"updated_at":"2026-03-07T19:57:57.028533+05:30"},{"city":"Kochi","state":"Kerala","latitude":9.9312,"longitude":76.2673,"temp":28.0,"humidity":83,"rain":0.0,"pressure":1009.3,"uv_index":9.0,"wind_gusts":30.6,"aqi":131,"pm10":38.6,"pm2_5":37.5,"mosquito_risk":7,"arthritis_risk":0,"migraine_risk":4,"frizz_risk":1,"updated_at":"2026-03-07T19:57:57.028540+05:30"},{"city":"Thiruvananthapuram","state":"Kerala","latitude":8.5241,"longitude":76.9366,"temp":27.9,"humidity":79,"rain":0.0,"pressure":1008.9,"uv_index":8.95,"wind_gusts":33.8,"aqi":103,"pm10":30.6,"pm2_5":27.7,"mosquito_risk":7,"arthritis_risk":0,"migraine_risk":4,"frizz_risk":1,"updated_at":"2026-03-07T19:57:57.028551+05:30"},{"city":"Kozhikode","state":"Kerala","latitude":11.2588,"longitude":75.7804,"temp":28.7,"humidity":78,"rain":0.0,"pressure":1008.7,"uv_index":8.9,"wind_gusts":27.4,"aqi":139,"pm10":39.2,"pm2_5":35.9,"mosquito_risk":7,"arthritis_risk":0,"migraine_risk":4,"frizz_risk":1,"updated_at":"2026-03-07T19:57:57.028560+05:30"},{"city":"Thrissur","state":"Kerala","latitude":10.5276,"longitude":76.2144,"temp":27.8,"humidity":83,"rain":0.0,"pressure":1007.8,"uv_index":8.85,"wind_gusts":31.3,"aqi":126,"pm10":35.2,"pm2_5":34.0,"mosquito_risk":7,"arthritis_risk":5,"migraine_risk":4,"frizz_risk":1,"updated_at":"2026-03-07T19:57:57.028566+05:30"},{"city":"Kannur","state":"Kerala","latitude":11.8745,"longitude":75.3704,"temp":28.6,"humidity":74,"rain":0.0,"pressure":1008.2,"uv_index":8.9,"wind_gusts":32.0,"aqi":150,"pm10":47.8,"pm2_5":44.0,"mosquito_risk":7,"arthritis_risk":0,"migraine_risk":4,"frizz_risk":1,"updated_at":"2026-03-07T19:57:57.028573+05:30"},{"city":"Patna","state":"Bihar","latitude":25.5941,"longitude":85.1376,"temp":27.2,"humidity":62,"rain":0.0,"pressure":1004.5,"uv_index":7.3,"wind_gusts":20.2,"aqi":159,"pm10":87.1,"pm2_5":80.6,"mosquito_risk":7,"arthritis_risk":5,"migraine_risk":4,"frizz_risk":1,"updated_at":"2026-03-07T19:57:57.028580+05:30"},{"city":"Gaya","state":"Bihar","latitude":24.7914,"longitude":85.0002,"temp":25.0,"humidity":73,"rain":0.0,"pressure":997.3,"uv_index":7.4,"wind_gusts":25.2,"aqi":161,"pm10":72.6,"pm2_5":66.8,"mosquito_risk":7,"arthritis_risk":5,"migraine_risk":7,"frizz_risk":1,"updated_at":"2026-03-07T19:57:57.028586+05:30"},{"city":"Muzaffarpur","state":"Bihar","latitude":26.1209,"longitude":85.3647,"temp":25.9,"humidity":65,"rain":0.0,"pressure":1004.5,"uv_index":7.25,"wind_gusts":17.6,"aqi":168,"pm10":88.9,"pm2_5":82.9,"mosquito_risk":7,"arthritis_risk":5,"migraine_risk":4,"frizz_risk":1,"updated_at":"2026-03-07T19:57:57.028592+05:30"},{"city":"Bhagalpur","state":"Bihar","latitude":25.2425,"longitude":87.0117,"temp":25.7,"humidity":70,"rain":0.0,"pressure":1005.3,"uv_index":7.3,"wind_gusts":14.8,"aqi":163,"pm10":85.0,"pm2_5":75.0,"mosquito_risk":7,"arthritis_risk":5,"migraine_risk":4,"frizz_risk":1,"updated_at":"2026-03-07T19:57:57.028598+05:30"},{"city":"Ranchi","state":"Jharkhand","latitude":23.3441,"longitude":85.3096,"temp":23.5,"humidity":56,"rain":0.0,"pressure":940.4,"uv_index":8.0,"wind_gusts":28.8,"aqi":161,"pm10":90.8,"pm2_5":69.6,"mosquito_risk":0,"arthritis_risk":5,"migraine_risk":7,"frizz_risk":0,"updated_at":"2026-03-07T19:57:57.028604+05:30"},{"city":"Jamshedpur","state":"Jharkhand","latitude":22.8046,"longitude":86.2029,"temp":27.4,"humidity":62,"rain":0.0,"pressure":993.9,"uv_index":7.9,"wind_gusts":27.4,"aqi":154,"pm10":78.2,"pm2_5":63.6,"mosquito_risk":7,"arthritis_risk":5,"migraine_risk":7,"frizz_risk":1,"updated_at":"2026-03-07T19:57:57.028610+05:30"},{"city":"Dhanbad","state":"Jharkhand","latitude":23.7957,"longitude":86.4304,"temp":29.0,"humidity":42,"rain":0.0,"pressure":983.3,"uv_index":7.8,"wind_gusts":26.3,"aqi":177,"pm10":106.9,"pm2_5":91.3,"mosquito_risk":4,"arthritis_risk":5,"migraine_risk":7,"frizz_risk":0,"updated_at":"2026-03-07T19:57:57.028617+05:30"},{"city":"Bokaro","state":"Jharkhand","latitude":23.6693,"longitude":86.1511,"temp":27.5,"humidity":48,"rain":0.0,"pressure":987.2,"uv_index":7.8,"wind_gusts":25.9,"aqi":188,"pm10":115.9,"pm2_5":95.2,"mosquito_risk":4,"arthritis_risk":5,"migraine_risk":7,"frizz_risk":0,"updated_at":"2026-03-07T19:57:57.028623+05:30"},{"city":"Bhubaneswar","state":"Odisha","latitude":20.2961,"longitude":85.8245,"temp":26.7,"humidity":79,"rain":0.0,"pressure":1005.7,"uv_index":8.2,"wind_gusts":32.4,"aqi":148,"pm10":44.5,"pm2_5":40.4,"mosquito_risk":7,"arthritis_risk":5,"migraine_risk":4,"frizz_risk":1,"updated_at":"2026-03-07T19:57:57.028629+05:30"},{"city":"Cuttack","state":"Odisha","latitude":20.4625,"longitude":85.8828,"temp":27.5,"humidity":75,"rain":0.0,"pressure":1007.5,"uv_index":8.25,"wind_gusts":29.9,"aqi":148,"pm10":44.5,"pm2_5":40.4,"mosquito_risk":7,"arthritis_risk":5,"migraine_risk":4,"frizz_risk":1,"updated_at":"2026-03-07T19:57:57.028635+05:30"},{"city":"Rourkela","state":"Odisha","latitude":22.2604,"longitude":84.8536,"temp":28.8,"humidity":52,"rain":0.0,"pressure":987.0,"uv_index":7.8,"wind_gusts":20.2,"aqi":189,"pm10":118.0,"pm2_5":84.8,"mosquito_risk":4,"arthritis_risk":5,"migraine_risk":7,"frizz_risk":1,"updated_at":"2026-03-07T19:57:57.028641+05:30"},{"city":"Raipur","state":"Chhattisgarh","latitude":21.2514,"longitude":81.6296,"temp":29.9,"humidity":38,"rain":0.0,"pressure":975.8,"uv_index":7.95,"wind_gusts":22.3,"aqi":153,"pm10":96.4,"pm2_5":60.3,"mosquito_risk":4,"arthritis_risk":5,"migraine_risk":7,"frizz_risk":0,"updated_at":"2026-03-07T19:57:57.028648+05:30"},{"city":"Bhilai","state":"Chhattisgarh","latitude":21.1938,"longitude":81.3509,"temp":30.7,"humidity":38,"rain":0.0,"pressure":976.2,"uv_index":7.95,"wind_gusts":18.4,"aqi":135,"pm10":83.4,"pm2_5":54.4,"mosquito_risk":0,"arthritis_risk":5,"migraine_risk":7,"frizz_risk":0,"updated_at":"2026-03-07T19:57:57.028654+05:30"},{"city":"Guwahati","state":"Assam","latitude":26.1158,"longitude":91.7086,"temp":25.5,"humidity":73,"rain":0.0,"pressure":1004.9,"uv_index":7.25,"wind_gusts":20.2,"aqi":147,"pm10":81.5,"pm2_5":72.6,"mosquito_risk":7,"arthritis_risk":5,"migraine_risk":4,"frizz_risk":1,"updated_at":"2026-03-07T19:57:57.028659+05:30"},{"city":"Agartala","state":"Tripura","latitude":23.8315,"longitude":91.2868,"temp":24.7,"humidity":64,"rain":0.0,"pressure":1010.1,"uv_index":7.6,"wind_gusts":19.1,"aqi":152,"pm10":94.8,"pm2_5":80.6,"mosquito_risk":3,"arthritis_risk":0,"migraine_risk":4,"frizz_risk":1,"updated_at":"2026-03-07T19:57:57.028666+05:30"},{"city":"Shillong","state":"Meghalaya","latitude":25.5788,"longitude":91.8933,"temp":12.5,"humidity":80,"rain":0.0,"pressure":858.2,"uv_index":7.6,"wind_gusts":42.1,"aqi":98,"pm10":53.8,"pm2_5":47.4,"mosquito_risk":3,"arthritis_risk":5,"migraine_risk":7,"frizz_risk":0,"updated_at":"2026-03-07T19:57:57.028672+05:30"},{"city":"Imphal","state":"Manipur","latitude":24.817,"longitude":93.9368,"temp":18.9,"humidity":70,"rain":0.0,"pressure":926.5,"uv_index":7.85,"wind_gusts":40.3,"aqi":167,"pm10":78.5,"pm2_5":72.4,"mosquito_risk":3,"arthritis_risk":5,"migraine_risk":7,"frizz_risk":0,"updated_at":"2026-03-07T19:57:57.028679+05:30"},{"city":"Aizawl","state":"Mizoram","latitude":23.7271,"longitude":92.7176,"temp":20.1,"humidity":56,"rain":0.0,"pressure":895.8,"uv_index":7.8,"wind_gusts":31.0,"aqi":177,"pm10":139.2,"pm2_5":131.3,"mosquito_risk":0,"arthritis_risk":5,"migraine_risk":7,"frizz_risk":0,"updated_at":"2026-03-07T19:57:57.028685+05:30"},{"city":"Kohima","state":"Nagaland","latitude":25.6701,"longitude":94.1077,"temp":15.8,"humidity":77,"rain":0.0,"pressure":857.7,"uv_index":7.7,"wind_gusts":51.1,"aqi":157,"pm10":73.1,"pm2_5":66.6,"mosquito_risk":3,"arthritis_risk":5,"migraine_risk":7,"frizz_risk":0,"updated_at":"2026-03-07T19:57:57.028691+05:30"},{"city":"Gangtok","state":"Sikkim","latitude":27.3314,"longitude":88.6138,"temp":13.6,"humidity":89,"rain":0.1,"pressure":840.6,"uv_index":7.25,"wind_gusts":17.6,"aqi":154,"pm10":65.4,"pm2_5":56.5,"mosquito_risk":6,"arthritis_risk":10,"migraine_risk":7,"frizz_risk":0,"updated_at":"2026-03-07T19:57:57.028697+05:30"},{"city":"Siliguri","state":"West Bengal","latitude":26.7271,"longitude":88.3953,"temp":22.7,"humidity":65,"rain":0.0,"pressure":998.4,"uv_index":7.25,"wind_gusts":15.8,"aqi":153,"pm10":75.0,"pm2_5":63.6,"mosquito_risk":3,"arthritis_risk":5,"migraine_risk":7,"frizz_risk":0,"updated_at":"2026-03-07T19:58:00.243103+05:30"},{"city":"Durgapur","state":"West Bengal","latitude":23.5204,"longitude":87.3119,"temp":27.3,"humidity":59,"rain":0.0,"pressure":998.8,"uv_index":7.75,"wind_gusts":22.7,"aqi":167,"pm10":81.5,"pm2_5":71.0,"mosquito_risk":4,"arthritis_risk":5,"migraine_risk":7,"frizz_risk":1,"updated_at":"2026-03-07T19:58:00.243140+05:30"},{"city":"Asansol","state":"West Bengal","latitude":23.6739,"longitude":86.9524,"temp":27.5,"humidity":57,"rain":0.0,"pressure":997.1,"uv_index":7.75,"wind_gusts":19.1,"aqi":174,"pm10":88.7,"pm2_5":76.1,"mosquito_risk":4,"arthritis_risk":5,"migraine_risk":7,"frizz_risk":1,"updated_at":"2026-03-07T19:58:00.243151+05:30"},{"city":"Pondicherry","state":"Puducherry","latitude":11.9139,"longitude":79.8145,"temp":26.3,"humidity":82,"rain":0.0,"pressure":1009.5,"uv_index":8.9,"wind_gusts":33.1,"aqi":83,"pm10":27.6,"pm2_5":19.4,"mosquito_risk":7,"arthritis_risk":0,"migraine_risk":4,"frizz_risk":1,"updated_at":"2026-03-07T19:58:00.243158+05:30"},{"city":"Port Blair","state":"Andaman and Nicobar Islands","latitude":11.6234,"longitude":92.7265,"temp":27.9,"humidity":66,"rain":0.0,"pressure":1009.6,"uv_index":8.85,"wind_gusts":16.6,"aqi":95,"pm10":47.5,"pm2_5":31.4,"mosquito_risk":7,"arthritis_risk":0,"migraine_risk":4,"frizz_risk":1,"updated_at":"2026-03-07T19:58:00.243165+05:30"},{"city":"Haridwar","state":"Uttarakhand","latitude":29.9457,"longitude":78.1642,"temp":26.7,"humidity":66,"rain":0.0,"pressure":978.4,"uv_index":5.7,"wind_gusts":21.6,"aqi":171,"pm10":90.1,"pm2_5":72.2,"mosquito_risk":7,"arthritis_risk":5,"migraine_risk":3,"frizz_risk":1,"updated_at":"2026-03-07T19:58:00.243172+05:30"},{"city":"Rishikesh","state":"Uttarakhand","latitude":30.0869,"longitude":78.2676,"temp":25.9,"humidity":68,"rain":0.0,"pressure":971.4,"uv_index":5.75,"wind_gusts":23.8,"aqi":170,"pm10":90.3,"pm2_5":67.1,"mosquito_risk":7,"arthritis_risk":5,"migraine_risk":3,"frizz_risk":1,"updated_at":"2026-03-07T19:58:00.243179+05:30"},{"city":"Nainital","state":"Uttarakhand","latitude":29.3919,"longitude":79.4542,"temp":18.2,"humidity":75,"rain":0.0,"pressure":809.7,"uv_index":6.6,"wind_gusts":54.4,"aqi":177,"pm10":110.8,"pm2_5":84.5,"mosquito_risk":3,"arthritis_risk":5,"migraine_risk":7,"frizz_risk":0,"updated_at":"2026-03-07T19:58:00.243186+05:30"},{"city":"Mussoorie","state":"Uttarakhand","latitude":30.4599,"longitude":78.0664,"temp":17.2,"humidity":85,"rain":0.0,"pressure":806.5,"uv_index":6.1,"wind_gusts":41.8,"aqi":183,"pm10":100.1,"pm2_5":76.6,"mosquito_risk":3,"arthritis_risk":10,"migraine_risk":7,"frizz_risk":0,"updated_at":"2026-03-07T19:58:00.243194+05:30"},{"city":"Dharamshala","state":"Himachal Pradesh","latitude":32.219,"longitude":76.3234,"temp":22.0,"humidity":71,"rain":0.0,"pressure":873.6,"uv_index":6.2,"wind_gusts":21.6,"aqi":86,"pm10":33.5,"pm2_5":20.7,"mosquito_risk":3,"arthritis_risk":5,"migraine_risk":7,"frizz_risk":1,"updated_at":"2026-03-07T19:58:00.243201+05:30"},{"city":"Dalhousie","state":"Himachal Pradesh","latitude":32.5387,"longitude":75.971,"temp":18.5,"humidity":77,"rain":0.0,"pressure":807.6,"uv_index":6.6,"wind_gusts":17.3,"aqi":106,"pm10":55.4,"pm2_5":42.1,"mosquito_risk":3,"arthritis_risk":5,"migraine_risk":7,"frizz_risk":0,"updated_at":"2026-03-07T19:58:00.243209+05:30"},{"city":"Patiala","state":"Punjab","latitude":30.3398,"longitude":76.3869,"temp":25.2,"humidity":65,"rain":0.0,"pressure":982.0,"uv_index":5.75,"wind_gusts":16.9,"aqi":169,"pm10":147.1,"pm2_5":84.5,"mosquito_risk":7,"arthritis_risk":5,"migraine_risk":3,"frizz_risk":1,"updated_at":"2026-03-07T19:58:00.243216+05:30"},{"city":"Bhatinda","state":"Punjab","latitude":30.211,"longitude":74.9455,"temp":27.6,"humidity":47,"rain":0.0,"pressure":987.2,"uv_index":6.45,"wind_gusts":20.5,"aqi":138,"pm10":163.0,"pm2_5":62.2,"mosquito_risk":4,"arthritis_risk":5,"migraine_risk":7,"frizz_risk":0,"updated_at":"2026-03-07T19:58:00.243222+05:30"},{"city":"Rohtak","state":"Haryana","latitude":28.8955,"longitude":76.6066,"temp":26.6,"humidity":52,"rain":0.0,"pressure":985.3,"uv_index":5.95,"wind_gusts":13.3,"aqi":169,"pm10":178.3,"pm2_5":74.5,"mosquito_risk":4,"arthritis_risk":5,"migraine_risk":3,"frizz_risk":0,"updated_at":"2026-03-07T19:58:00.243229+05:30"},{"city":"Panipat","state":"Haryana","latitude":29.3909,"longitude":76.9635,"temp":25.9,"humidity":59,"rain":0.0,"pressure":984.1,"uv_index":5.75,"wind_gusts":18.7,"aqi":178,"pm10":230.0,"pm2_5":89.4,"mosquito_risk":4,"arthritis_risk":5,"migraine_risk":3,"frizz_risk":1,"updated_at":"2026-03-07T19:58:00.243236+05:30"},{"city":"Mathura","state":"Uttar Pradesh","latitude":27.4924,"longitude":77.6737,"temp":24.4,"humidity":49,"rain":0.0,"pressure":990.3,"uv_index":6.2,"wind_gusts":17.3,"aqi":168,"pm10":158.3,"pm2_5":62.2,"mosquito_risk":0,"arthritis_risk":5,"migraine_risk":7,"frizz_risk":0,"updated_at":"2026-03-07T19:58:00.243242+05:30"},{"city":"Vrindavan","state":"Uttar Pradesh","latitude":27.5823,"longitude":77.7027,"temp":25.6,"humidity":51,"rain":0.0,"pressure":990.8,"uv_index":6.2,"wind_gusts":18.0,"aqi":168,"pm10":158.3,"pm2_5":62.2,"mosquito_risk":4,"arthritis_risk":5,"migraine_risk":7,"frizz_risk":0,"updated_at":"2026-03-07T19:58:00.243249+05:30"},{"city":"Ayodhya","state":"Uttar Pradesh","latitude":26.7922,"longitude":82.1998,"temp":26.9,"humidity":61,"rain":0.0,"pressure":999.7,"uv_index":6.65,"wind_gusts":18.4,"aqi":173,"pm10":112.9,"pm2_5":97.6,"mosquito_risk":7,"arthritis_risk":5,"migraine_risk":7,"frizz_risk":1,"updated_at":"2026-03-07T19:58:00.243255+05:30"},{"city":"Ratlam","state":"Madhya Pradesh","latitude":23.3315,"longitude":75.0367,"temp":27.5,"humidity":48,"rain":0.0,"pressure":956.9,"uv_index":7.45,"wind_gusts":13.7,"aqi":103,"pm10":25.4,"pm2_5":24.4,"mosquito_risk":4,"arthritis_risk":5,"migraine_risk":7,"frizz_risk":0,"updated_at":"2026-03-07T19:58:00.243262+05:30"},{"city":"Sagar","state":"Madhya Pradesh","latitude":23.8388,"longitude":78.7378,"temp":26.5,"humidity":46,"rain":0.0,"pressure":952.9,"uv_index":7.4,"wind_gusts":22.7,"aqi":111,"pm10":42.0,"pm2_5":19.6,"mosquito_risk":4,"arthritis_risk":5,"migraine_risk":7,"frizz_risk":0,"updated_at":"2026-03-07T19:58:00.243268+05:30"},{"city":"Satna","state":"Madhya Pradesh","latitude":24.6005,"longitude":80.8322,"temp":27.4,"humidity":48,"rain":0.0,"pressure":975.0,"uv_index":7.4,"wind_gusts":21.2,"aqi":162,"pm10":75.9,"pm2_5":59.0,"mosquito_risk":4,"arthritis_risk":5,"migraine_risk":7,"frizz_risk":0,"updated_at":"2026-03-07T19:58:00.243274+05:30"},{"city":"Akola","state":"Maharashtra","latitude":20.7002,"longitude":77.0082,"temp":30.0,"humidity":36,"rain":0.0,"pressure":976.0,"uv_index":7.9,"wind_gusts":18.0,"aqi":147,"pm10":35.4,"pm2_5":29.6,"mosquito_risk":4,"arthritis_risk":5,"migraine_risk":7,"frizz_risk":0,"updated_at":"2026-03-07T19:58:00.243281+05:30"},{"city":"Amravati","state":"Maharashtra","latitude":20.9374,"longitude":77.7796,"temp":31.0,"humidity":35,"rain":0.0,"pressure":968.1,"uv_index":7.85,"wind_gusts":13.3,"aqi":142,"pm10":35.5,"pm2_5":27.2,"mosquito_risk":0,"arthritis_risk":5,"migraine_risk":7,"frizz_risk":0,"updated_at":"2026-03-07T19:58:00.243288+05:30"},{"city":"Latur","state":"Maharashtra","latitude":18.4088,"longitude":76.5604,"temp":29.2,"humidity":34,"rain":0.0,"pressure":940.7,"uv_index":8.3,"wind_gusts":28.4,"aqi":147,"pm10":29.1,"pm2_5":24.7,"mosquito_risk":4,"arthritis_risk":5,"migraine_risk":7,"frizz_risk":0,"updated_at":"2026-03-07T19:58:00.243294+05:30"},{"city":"Nanded","state":"Maharashtra","latitude":19.1383,"longitude":77.3091,"temp":29.0,"humidity":37,"rain":0.0,"pressure":969.1,"uv_index":8.1,"wind_gusts":19.8,"aqi":133,"pm10":38.3,"pm2_5":29.1,"mosquito_risk":4,"arthritis_risk":5,"migraine_risk":7,"frizz_risk":0,"updated_at":"2026-03-07T19:58:00.243300+05:30"},{"city":"Gulbarga","state":"Karnataka","latitude":17.3297,"longitude":76.8343,"temp":32.0,"humidity":26,"rain":0.0,"pressure":958.9,"uv_index":8.45,"wind_gusts":21.2,"aqi":147,"pm10":22.4,"pm2_5":19.0,"mosquito_risk":0,"arthritis_risk":5,"migraine_risk":7,"frizz_risk":0,"updated_at":"2026-03-07T19:58:00.243306+05:30"},{"city":"Bidar","state":"Karnataka","latitude":17.9104,"longitude":77.5199,"temp":29.1,"humidity":29,"rain":0.0,"pressure":936.3,"uv_index":8.4,"wind_gusts":20.9,"aqi":137,"pm10":32.9,"pm2_5":26.7,"mosquito_risk":4,"arthritis_risk":5,"migraine_risk":7,"frizz_risk":0,"updated_at":"2026-03-07T19:58:00.243312+05:30"},{"city":"Hospet","state":"Karnataka","latitude":15.2689,"longitude":76.3909,"temp":31.9,"humidity":29,"rain":0.0,"pressure":956.2,"uv_index":8.7,"wind_gusts":19.4,"aqi":186,"pm10":30.6,"pm2_5":26.4,"mosquito_risk":0,"arthritis_risk":5,"migraine_risk":7,"frizz_risk":0,"updated_at":"2026-03-07T19:58:00.243318+05:30"},{"city":"Tirupur","state":"Tamil Nadu","latitude":11.1085,"longitude":77.3411,"temp":31.9,"humidity":37,"rain":0.0,"pressure":974.8,"uv_index":9.2,"wind_gusts":30.6,"aqi":168,"pm10":50.9,"pm2_5":47.5,"mosquito_risk":0,"arthritis_risk":5,"migraine_risk":7,"frizz_risk":0,"updated_at":"2026-03-07T19:58:00.243325+05:30"},{"city":"Alappuzha","state":"Kerala","latitude":9.4981,"longitude":76.3388,"temp":28.1,"humidity":82,"rain":0.0,"pressure":1009.4,"uv_index":8.15,"wind_gusts":28.1,"aqi":124,"pm10":35.4,"pm2_5":33.4,"mosquito_risk":7,"arthritis_risk":0,"migraine_risk":4,"frizz_risk":1,"updated_at":"2026-03-07T19:58:00.243331+05:30"},{"city":"Munnar","state":"Kerala","latitude":10.0889,"longitude":77.0595,"temp":21.8,"humidity":90,"rain":0.0,"pressure":857.4,"uv_index":9.5,"wind_gusts":37.4,"aqi":109,"pm10":38.2,"pm2_5":35.7,"mosquito_risk":3,"arthritis_risk":5,"migraine_risk":7,"frizz_risk":1,"updated_at":"2026-03-07T19:58:00.243338+05:30"},{"city":"Silchar","state":"Assam","latitude":24.8333,"longitude":92.7789,"temp":26.7,"humidity":64,"rain":0.0,"pressure":1008.1,"uv_index":7.55,"wind_gusts":21.2,"aqi":160,"pm10":82.9,"pm2_5":78.5,"mosquito_risk":7,"arthritis_risk":0,"migraine_risk":4,"frizz_risk":1,"updated_at":"2026-03-07T19:58:00.243361+05:30"},{"city":"Dibrugarh","state":"Assam","latitude":27.4728,"longitude":94.912,"temp":25.8,"humidity":70,"rain":0.0,"pressure":998.6,"uv_index":7.3,"wind_gusts":14.8,"aqi":151,"pm10":108.0,"pm2_5":94.5,"mosquito_risk":7,"arthritis_risk":5,"migraine_risk":7,"frizz_risk":1,"updated_at":"2026-03-07T19:58:00.243368+05:30"}]