[{"city":"Delhi","state":"Delhi","latitude":28.6139,"longitude":77.209,"temp":29.0,"humidity":32,"rain":0.0,"pressure":985.7,"uv_index":5.75,"wind_gusts":37.4,"aqi":199,"pm10":556.9,"pm2_5":81.3,"mosquito_risk":4,"arthritis_risk":5,"migraine_risk":3,"frizz_risk":0,"updated_at":"2026-03-02T17:04:01.697157+05:30"},{"city":"Mumbai","state":"Maharashtra","latitude":19.076,"longitude":72.8777,"temp":26.5,"humidity":75,"rain":0.0,"pressure":1009.1,"uv_index":7.3,"wind_gusts":25.6,"aqi":111,"pm10":43.5,"pm2_5":26.5,"mosquito_risk":7,"arthritis_risk":0,"migraine_risk":4,"frizz_risk":1,"updated_at":"2026-03-02T17:04:01.697207+05:30"},{"city":"Bangalore","state":"Karnataka","latitude":12.9716,"longitude":77.5946,"temp":30.7,"humidity":28,"rain":0.0,"pressure":911.9,"uv_index":9.05,"wind_gusts":28.8,"aqi":136,"pm10":37.3,"pm2_5":36.4,"mosquito_risk":0,"arthritis_risk":5,"migraine_risk":7,"frizz_risk":0,"updated_at":"2026-03-02T17:04:01.697223+05:30"},{"city":"Hyderabad","state":"Telangana","latitude":17.385,"longitude":78.4867,"temp":33.2,"humidity":29,"rain":0.0,"pressure":953.9,"uv_index":8.3,"wind_gusts":16.6,"aqi":151,"pm10":40.4,"pm2_5":39.8,"mosquito_risk":0,"arthritis_risk":5,"migraine_risk":7,"frizz_risk":0,"updated_at":"2026-03-02T17:04:01.697232+05:30"},{"city":"Chennai","state":"Tamil Nadu","latitude":13.0827,"longitude":80.2707,"temp":29.9,"humidity":49,"rain":0.0,"pressure":1008.3,"uv_index":8.8,"wind_gusts":30.2,"aqi":132,"pm10":42.0,"pm2_5":38.1,"mosquito_risk":4,"arthritis_risk":0,"migraine_risk":4,"frizz_risk":1,"updated_at":"2026-03-02T17:04:01.697241+05:30"},{"city":"Kolkata","state":"West Bengal","latitude":22.5726,"longitude":88.3639,"temp":30.5,"humidity":52,"rain":0.0,"pressure":1006.8,"uv_index":7.65,"wind_gusts":16.6,"aqi":151,"pm10":73.3,"pm2_5":61.7,"mosquito_risk":0,"arthritis_risk":5,"migraine_risk":4,"frizz_risk":1,"updated_at":"2026-03-02T17:04:01.697250+05:30"},{"city":"Pune","state":"Maharashtra","latitude":18.5204,"longitude":73.8567,"temp":34.8,"humidity":25,"rain":0.0,"pressure":948.6,"uv_index":7.85,"wind_gusts":28.4,"aqi":111,"pm10":22.5,"pm2_5":21.5,"mosquito_risk":0,"arthritis_risk":5,"migraine_risk":7,"frizz_risk":0,"updated_at":"2026-03-02T17:04:01.697261+05:30"},{"city":"Ahmedabad","state":"Gujarat","latitude":23.0225,"longitude":72.5714,"temp":34.8,"humidity":25,"rain":0.0,"pressure":1003.3,"uv_index":7.1,"wind_gusts":15.5,"aqi":99,"pm10":33.5,"pm2_5":21.4,"mosquito_risk":0,"arthritis_risk":5,"migraine_risk":4,"frizz_risk":0,"updated_at":"2026-03-02T17:04:01.697269+05:30"},{"city":"Jaipur","state":"Rajasthan","latitude":26.9124,"longitude":75.7873,"temp":32.5,"humidity":19,"rain":0.0,"pressure":962.6,"uv_index":6.5,"wind_gusts":30.2,"aqi":97,"pm10":109.2,"pm2_5":24.4,"mosquito_risk":0,"arthritis_risk":5,"migraine_risk":7,"frizz_risk":0,"updated_at":"2026-03-02T17:04:01.697277+05:30"},{"city":"Lucknow","state":"Uttar Pradesh","latitude":26.8467,"longitude":80.9462,"temp":29.8,"humidity":27,"rain":0.0,"pressure":995.8,"uv_index":6.25,"wind_gusts":37.4,"aqi":138,"pm10":156.5,"pm2_5":48.7,"mosquito_risk":4,"arthritis_risk":5,"migraine_risk":7,"frizz_risk":0,"updated_at":"2026-03-02T17:04:01.697285+05:30"},{"city":"Kanpur","state":"Uttar Pradesh","latitude":26.4499,"longitude":80.3319,"temp":29.8,"humidity":37,"rain":0.0,"pressure":994.2,"uv_index":6.25,"wind_gusts":32.0,"aqi":149,"pm10":288.7,"pm2_5":58.1,"mosquito_risk":4,"arthritis_risk":5,"migraine_risk":7,"frizz_risk":0,"updated_at":"2026-03-02T17:04:01.697292+05:30"},{"city":"Chandigarh","state":"Chandigarh","latitude":30.7333,"longitude":76.7794,"temp":26.3,"humidity":39,"rain":0.0,"pressure":970.9,"uv_index":5.65,"wind_gusts":38.9,"aqi":90,"pm10":26.6,"pm2_5":20.1,"mosquito_risk":4,"arthritis_risk":5,"migraine_risk":3,"frizz_risk":0,"updated_at":"2026-03-02T17:04:01.697299+05:30"},{"city":"Srinagar","state":"Jammu and Kashmir","latitude":34.0837,"longitude":74.7973,"temp":19.0,"humidity":15,"rain":0.0,"pressure":844.6,"uv_index":6.55,"wind_gusts":17.6,"aqi":142,"pm10":26.2,"pm2_5":18.4,"mosquito_risk":0,"arthritis_risk":5,"migraine_risk":7,"frizz_risk":1,"updated_at":"2026-03-02T17:04:01.697307+05:30"},{"city":"Jammu","state":"Jammu and Kashmir","latitude":32.7266,"longitude":74.857,"temp":27.7,"humidity":42,"rain":0.0,"pressure":974.8,"uv_index":6.25,"wind_gusts":26.3,"aqi":104,"pm10":24.6,"pm2_5":16.9,"mosquito_risk":4,"arthritis_risk":5,"migraine_risk":7,"frizz_risk":0,"updated_at":"2026-03-02T17:04:01.697315+05:30"},{"city":"Amritsar","state":"Punjab","latitude":31.634,"longitude":74.8723,"temp":27.2,"humidity":43,"rain":0.0,"pressure":983.5,"uv_index":6.1,"wind_gusts":25.2,"aqi":146,"pm10":25.8,"pm2_5":17.4,"mosquito_risk":4,"arthritis_risk":5,"migraine_risk":7,"frizz_risk":0,"updated_at":"2026-03-02T17:04:01.697324+05:30"},{"city":"Ludhiana","state":"Punjab","latitude":30.901,"longitude":75.8573,"temp":27.7,"humidity":36,"rain":0.0,"pressure":981.5,"uv_index":5.85,"wind_gusts":32.4,"aqi":159,"pm10":48.8,"pm2_5":31.9,"mosquito_risk":4,"arthritis_risk":5,"migraine_risk":3,"frizz_risk":0,"updated_at":"2026-03-02T17:04:01.697331+05:30"},{"city":"Jalandhar","state":"Punjab","latitude":31.326,"longitude":75.5762,"temp":27.7,"humidity":38,"rain":0.0,"pressure":982.5,"uv_index":6.0,"wind_gusts":30.2,"aqi":160,"pm10":51.7,"pm2_5":26.3,"mosquito_risk":4,"arthritis_risk":5,"migraine_risk":3,"frizz_risk":0,"updated_at":"2026-03-02T17:04:01.697340+05:30"},{"city":"Dehradun","state":"Uttarakhand","latitude":30.6284,"longitude":78.0322,"temp":17.9,"humidity":54,"rain":0.0,"pressure":830.7,"uv_index":6.0,"wind_gusts":27.0,"aqi":64,"pm10":17.3,"pm2_5":11.8,"mosquito_risk":0,"arthritis_risk":5,"migraine_risk":3,"frizz_risk":0,"updated_at":"2026-03-02T17:04:01.697347+05:30"},{"city":"Shimla","state":"Himachal Pradesh","latitude":31.1048,"longitude":77.1734,"temp":15.4,"humidity":48,"rain":0.0,"pressure":785.7,"uv_index":6.0,"wind_gusts":56.5,"aqi":73,"pm10":19.3,"pm2_5":12.7,"mosquito_risk":0,"arthritis_risk":5,"migraine_risk":3,"frizz_risk":0,"updated_at":"2026-03-02T17:04:01.697355+05:30"},{"city":"Manali","state":"Himachal Pradesh","latitude":32.2396,"longitude":77.1887,"temp":19.4,"humidity":45,"rain":0.0,"pressure":820.9,"uv_index":7.7,"wind_gusts":36.7,"aqi":87,"pm10":15.5,"pm2_5":10.4,"mosquito_risk":0,"arthritis_risk":5,"migraine_risk":7,"frizz_risk":0,"updated_at":"2026-03-02T17:04:01.697361+05:30"},{"city":"Gurgaon","state":"Haryana","latitude":28.4595,"longitude":77.0266,"temp":28.4,"humidity":37,"rain":0.0,"pressure":984.2,"uv_index":5.85,"wind_gusts":35.3,"aqi":807,"pm10":1613.1,"pm2_5":177.9,"mosquito_risk":4,"arthritis_risk":5,"migraine_risk":3,"frizz_risk":0,"updated_at":"2026-03-02T17:04:01.697368+05:30"},{"city":"Noida","state":"Uttar Pradesh","latitude":28.5355,"longitude":77.391,"temp":29.4,"humidity":32,"rain":0.0,"pressure":987.2,"uv_index":5.75,"wind_gusts":37.1,"aqi":807,"pm10":1613.1,"pm2_5":177.9,"mosquito_risk":4,"arthritis_risk":5,"migraine_risk":3,"frizz_risk":0,"updated_at":"2026-03-02T17:04:01.697375+05:30"},{"city":"Ghaziabad","state":"Uttar Pradesh","latitude":28.6692,"longitude":77.4538,"temp":28.3,"humidity":35,"rain":0.0,"pressure":985.3,"uv_index":5.75,"wind_gusts":36.0,"aqi":173,"pm10":466.6,"pm2_5":70.8,"mosquito_risk":4,"arthritis_risk":5,"migraine_risk":3,"frizz_risk":0,"updated_at":"2026-03-02T17:04:01.697381+05:30"},{"city":"Faridabad","state":"Haryana","latitude":28.4089,"longitude":77.3178,"temp":28.3,"humidity":38,"rain":0.0,"pressure":986.5,"uv_index":5.8,"wind_gusts":33.1,"aqi":807,"pm10":1613.1,"pm2_5":177.9,"mosquito_risk":4,"arthritis_risk":5,"migraine_risk":3,"frizz_risk":0,"updated_at":"2026-03-02T17:04:01.697388+05:30"},{"city":"Meerut","state":"Uttar Pradesh","latitude":28.9845,"longitude":77.7064,"temp":27.7,"humidity":33,"rain":0.0,"pressure":983.9,"uv_index":5.6,"wind_gusts":38.9,"aqi":173,"pm10":466.6,"pm2_5":70.8,"mosquito_risk":4,"arthritis_risk":5,"migraine_risk":3,"frizz_risk":0,"updated_at":"2026-03-02T17:04:01.697395+05:30"},{"city":"Agra","state":"Uttar Pradesh","latitude":27.1767,"longitude":78.0081,"temp":30.9,"humidity":31,"rain":0.0,"pressure":990.4,"uv_index":6.1,"wind_gusts":35.3,"aqi":344,"pm10":556.9,"pm2_5":74.7,"mosquito_risk":0,"arthritis_risk":5,"migraine_risk":7,"frizz_risk":0,"updated_at":"2026-03-02T17:04:01.697402+05:30"},{"city":"Varanasi","state":"Uttar Pradesh","latitude":25.3176,"longitude":82.9739,"temp":28.0,"humidity":38,"rain":0.0,"pressure":1000.1,"uv_index":6.9,"wind_gusts":31.7,"aqi":92,"pm10":52.7,"pm2_5":27.1,"mosquito_risk":4,"arthritis_risk":5,"migraine_risk":4,"frizz_risk":0,"updated_at":"2026-03-02T17:04:01.697411+05:30"},{"city":"Prayagraj","state":"Uttar Pradesh","latitude":25.4358,"longitude":81.8463,"temp":28.4,"humidity":38,"rain":0.0,"pressure":998.7,"uv_index":6.75,"wind_gusts":29.9,"aqi":96,"pm10":58.4,"pm2_5":29.9,"mosquito_risk":4,"arthritis_risk":5,"migraine_risk":7,"frizz_risk":0,"updated_at":"2026-03-02T17:04:01.697418+05:30"},{"city":"Gorakhpur","state":"Uttar Pradesh","latitude":26.7606,"longitude":83.3732,"temp":27.3,"humidity":39,"rain":0.0,"pressure":999.0,"uv_index":6.6,"wind_gusts":25.2,"aqi":113,"pm10":67.5,"pm2_5":41.9,"mosquito_risk":4,"arthritis_risk":5,"migraine_risk":7,"frizz_risk":0,"updated_at":"2026-03-02T17:04:01.697425+05:30"},{"city":"Bareilly","state":"Uttar Pradesh","latitude":28.367,"longitude":79.4304,"temp":27.1,"humidity":39,"rain":0.0,"pressure":988.8,"uv_index":5.9,"wind_gusts":31.3,"aqi":132,"pm10":53.3,"pm2_5":34.2,"mosquito_risk":4,"arthritis_risk":5,"migraine_risk":3,"frizz_risk":0,"updated_at":"2026-03-02T17:04:01.697431+05:30"},{"city":"Aligarh","state":"Uttar Pradesh","latitude":27.8974,"longitude":78.088,"temp":29.1,"humidity":36,"rain":0.0,"pressure":988.2,"uv_index":5.85,"wind_gusts":34.2,"aqi":479,"pm10":881.0,"pm2_5":119.2,"mosquito_risk":4,"arthritis_risk":5,"migraine_risk":3,"frizz_risk":0,"updated_at":"2026-03-02T17:04:01.697438+05:30"},{"city":"Moradabad","state":"Uttar Pradesh","latitude":28.8386,"longitude":78.7733,"temp":27.3,"humidity":35,"rain":0.0,"pressure":985.6,"uv_index":5.75,"wind_gusts":35.6,"aqi":140,"pm10":49.5,"pm2_5":25.0,"mosquito_risk":4,"arthritis_risk":5,"migraine_risk":3,"frizz_risk":0,"updated_at":"2026-03-02T17:04:01.697444+05:30"},{"city":"Saharanpur","state":"Uttar Pradesh","latitude":29.9637,"longitude":77.546,"temp":26.8,"humidity":34,"rain":0.0,"pressure":977.3,"uv_index":5.4,"wind_gusts":52.9,"aqi":113,"pm10":49.5,"pm2_5":23.9,"mosquito_risk":4,"arthritis_risk":5,"migraine_risk":3,"frizz_risk":0,"updated_at":"2026-03-02T17:04:01.697453+05:30"},{"city":"Jhansi","state":"Uttar Pradesh","latitude":25.4484,"longitude":78.5685,"temp":31.9,"humidity":23,"rain":0.0,"pressure":980.7,"uv_index":6.7,"wind_gusts":29.2,"aqi":75,"pm10":39.3,"pm2_5":18.3,"mosquito_risk":0,"arthritis_risk":5,"migraine_risk":7,"frizz_risk":0,"updated_at":"2026-03-02T17:04:05.010061+05:30"},{"city":"Surat","state":"Gujarat","latitude":21.1702,"longitude":72.8311,"temp":29.8,"humidity":50,"rain":0.0,"pressure":1008.1,"uv_index":7.0,"wind_gusts":23.0,"aqi":145,"pm10":70.1,"pm2_5":61.0,"mosquito_risk":4,"arthritis_risk":0,"migraine_risk":4,"frizz_risk":1,"updated_at":"2026-03-02T17:04:05.010091+05:30"},{"city":"Vadodara","state":"Gujarat","latitude":22.3072,"longitude":73.1812,"temp":35.0,"humidity":26,"rain":0.0,"pressure":1005.4,"uv_index":7.1,"wind_gusts":13.0,"aqi":150,"pm10":37.1,"pm2_5":29.5,"mosquito_risk":0,"arthritis_risk":5,"migraine_risk":4,"frizz_risk":0,"updated_at":"2026-03-02T17:04:05.010102+05:30"},{"city":"Rajkot","state":"Gujarat","latitude":22.3039,"longitude":70.8022,"temp":33.5,"humidity":32,"rain":0.0,"pressure":995.4,"uv_index":6.9,"wind_gusts":21.2,"aqi":66,"pm10":32.1,"pm2_5":16.1,"mosquito_risk":0,"arthritis_risk":5,"migraine_risk":7,"frizz_risk":0,"updated_at":"2026-03-02T17:04:05.010109+05:30"},{"city":"Thane","state":"Maharashtra","latitude":19.2183,"longitude":72.9781,"temp":28.1,"humidity":64,"rain":0.0,"pressure":1008.7,"uv_index":7.3,"wind_gusts":35.6,"aqi":111,"pm10":43.5,"pm2_5":26.5,"mosquito_risk":7,"arthritis_risk":0,"migraine_risk":4,"frizz_risk":1,"updated_at":"2026-03-02T17:04:05.010117+05:30"},{"city":"Nagpur","state":"Maharashtra","latitude":21.1458,"longitude":79.0882,"temp":33.5,"humidity":25,"rain":0.0,"pressure":974.5,"uv_index":7.7,"wind_gusts":20.9,"aqi":89,"pm10":19.7,"pm2_5":17.1,"mosquito_risk":0,"arthritis_risk":5,"migraine_risk":7,"frizz_risk":0,"updated_at":"2026-03-02T17:04:05.010124+05:30"},{"city":"Nashik","state":"Maharashtra","latitude":19.9975,"longitude":73.7898,"temp":31.6,"humidity":31,"rain":0.0,"pressure":946.7,"uv_index":7.5,"wind_gusts":28.1,"aqi":104,"pm10":21.8,"pm2_5":19.4,"mosquito_risk":0,"arthritis_risk":5,"migraine_risk":7,"frizz_risk":0,"updated_at":"2026-03-02T17:04:05.010131+05:30"},{"city":"Aurangabad","state":"Maharashtra","latitude":19.8762,"longitude":75.3433,"temp":33.6,"humidity":25,"rain":0.0,"pressure":945.0,"uv_index":8.0,"wind_gusts":21.2,"aqi":108,"pm10":20.9,"pm2_5":20.2,"mosquito_risk":0,"arthritis_risk":5,"migraine_risk":7,"frizz_risk":0,"updated_at":"2026-03-02T17:04:05.010137+05:30"},{"city":"Solapur","state":"Maharashtra","latitude":17.6599,"longitude":75.9064,"temp":33.2,"humidity":33,"rain":0.0,"pressure":957.5,"uv_index":8.25,"wind_gusts":14.0,"aqi":136,"pm10":42.7,"pm2_5":42.0,"mosquito_risk":0,"arthritis_risk":5,"migraine_risk":7,"frizz_risk":0,"updated_at":"2026-03-02T17:04:05.010144+05:30"},{"city":"Kolhapur","state":"Maharashtra","latitude":16.705,"longitude":74.2433,"temp":33.2,"humidity":28,"rain":0.0,"pressure":947.9,"uv_index":8.35,"wind_gusts":37.4,"aqi":110,"pm10":31.7,"pm2_5":30.9,"mosquito_risk":0,"arthritis_risk":5,"migraine_risk":7,"frizz_risk":0,"updated_at":"2026-03-02T17:04:05.010151+05:30"},{"city":"Goa","state":"Goa","latitude":15.2993,"longitude":74.124,"temp":28.4,"humidity":71,"rain":0.0,"pressure":998.3,"uv_index":8.4,"wind_gusts":29.9,"aqi":70,"pm10":28.3,"pm2_5":17.6,"mosquito_risk":7,"arthritis_risk":5,"migraine_risk":7,"frizz_risk":1,"updated_at":"2026-03-02T17:04:05.010158+05:30"},{"city":"Jodhpur","state":"Rajasthan","latitude":26.2389,"longitude":73.0243,"temp":34.4,"humidity":22,"rain":0.0,"pressure":985.3,"uv_index":6.75,"wind_gusts":12.6,"aqi":85,"pm10":73.1,"pm2_5":21.8,"mosquito_risk":0,"arthritis_risk":5,"migraine_risk":7,"frizz_risk":0,"updated_at":"2026-03-02T17:04:05.010165+05:30"},{"city":"Udaipur","state":"Rajasthan","latitude":24.5854,"longitude":73.7125,"temp":30.9,"humidity":29,"rain":0.0,"pressure":949.0,"uv_index":7.4,"wind_gusts":15.5,"aqi":74,"pm10":31.9,"pm2_5":20.9,"mosquito_risk":0,"arthritis_risk":5,"migraine_risk":7,"frizz_risk":0,"updated_at":"2026-03-02T17:04:05.010172+05:30"},{"city":"Kota","state":"Rajasthan","latitude":25.2138,"longitude":75.8648,"temp":33.4,"humidity":24,"rain":0.0,"pressure":981.3,"uv_index":6.8,"wind_gusts":17.6,"aqi":89,"pm10":34.1,"pm2_5":17.6,"mosquito_risk":0,"arthritis_risk":5,"migraine_risk":7,"frizz_risk":0,"updated_at":"2026-03-02T17:04:05.010179+05:30"},{"city":"Bikaner","state":"Rajasthan","latitude":28.0229,"longitude":73.3119,"temp":33.2,"humidity":23,"rain":0.0,"pressure":984.6,"uv_index":6.5,"wind_gusts":20.2,"aqi":69,"pm10":51.3,"pm2_5":23.0,"mosquito_risk":0,"arthritis_risk":5,"migraine_risk":7,"frizz_risk":0,"updated_at":"2026-03-02T17:04:05.010186+05:30"},{"city":"Ajmer","state":"Rajasthan","latitude":26.4499,"longitude":74.6399,"temp":32.0,"humidity":23,"rain":0.0,"pressure":957.5,"uv_index":6.75,"wind_gusts":22.0,"aqi":81,"pm10":42.5,"pm2_5":17.7,"mosquito_risk":0,"arthritis_risk":5,"migraine_risk":7,"frizz_risk":0,"updated_at":"2026-03-02T17:04:05.010192+05:30"},{"city":"Gwalior","state":"Madhya Pradesh","latitude":26.2183,"longitude":78.1828,"temp":30.1,"humidity":35,"rain":0.0,"pressure":986.0,"uv_index":6.4,"wind_gusts":31.0,"aqi":90,"pm10":46.2,"pm2_5":22.7,"mosquito_risk":0,"arthritis_risk":5,"migraine_risk":7,"frizz_risk":0,"updated_at":"2026-03-02T17:04:05.010198+05:30"},{"city":"Indore","state":"Madhya Pradesh","latitude":22.7196,"longitude":75.8577,"temp":30.7,"humidity":31,"rain":0.0,"pressure":950.2,"uv_index":7.4,"wind_gusts":14.4,"aqi":91,"pm10":24.6,"pm2_5":19.7,"mosquito_risk":0,"arthritis_risk":5,"migraine_risk":7,"frizz_risk":0,"updated_at":"2026-03-02T17:04:05.010204+05:30"},{"city":"Bhopal","state":"Madhya Pradesh","latitude":23.2599,"longitude":77.4126,"temp":30.7,"humidity":31,"rain":0.0,"pressure":956.2,"uv_index":7.25,"wind_gusts":20.5,"aqi":81,"pm10":29.8,"pm2_5":19.3,"mosquito_risk":0,"arthritis_risk":5,"migraine_risk":7,"frizz_risk":0,"updated_at":"2026-03-02T17:04:05.010211+05:30"},{"city":"Jabalpur","state":"Madhya Pradesh","latitude":23.1815,"longitude":79.9864,"temp":30.8,"humidity":24,"rain":0.0,"pressure":964.2,"uv_index":7.35,"wind_gusts":20.9,"aqi":71,"pm10":27.0,"pm2_5":15.3,"mosquito_risk":0,"arthritis_risk":5,"migraine_risk":7,"frizz_risk":0,"updated_at":"2026-03-02T17:04:05.010217+05:30"},{"city":"Ujjain","state":"Madhya Pradesh","latitude":23.1765,"longitude":75.7885,"temp":30.8,"humidity":33,"rain":0.0,"pressure":956.1,"uv_index":7.25,"wind_gusts":11.5,"aqi":116,"pm10":28.2,"pm2_5":20.7,"mosquito_risk":0,"arthritis_risk":5,"migraine_risk":7,"frizz_risk":0,"updated_at":"2026-03-02T17:04:05.010224+05:30"},{"city":"Visakhapatnam","state":"Andhra Pradesh","latitude":17.6868,"longitude":83.2185,"temp":30.0,"humidity":46,"rain":0.0,"pressure":1004.6,"uv_index":8.35,"wind_gusts":37.8,"aqi":150,"pm10":50.1,"pm2_5":46.8,"mosquito_risk":4,"arthritis_risk":5,"migraine_risk":4,"frizz_risk":1,"updated_at":"2026-03-02T17:04:05.010231+05:30"},{"city":"Vijayawada","state":"Andhra Pradesh","latitude":16.5062,"longitude":80.648,"temp":33.9,"humidity":39,"rain":0.0,"pressure":1003.0,"uv_index":8.4,"wind_gusts":25.6,"aqi":145,"pm10":50.5,"pm2_5":48.5,"mosquito_risk":0,"arthritis_risk":5,"migraine_risk":4,"frizz_risk":1,"updated_at":"2026-03-02T17:04:05.010237+05:30"},{"city":"Guntur","state":"Andhra Pradesh","latitude":16.3067,"longitude":80.4365,"temp":33.2,"humidity":34,"rain":0.0,"pressure":1004.3,"uv_index":8.4,"wind_gusts":30.2,"aqi":136,"pm10":47.6,"pm2_5":46.0,"mosquito_risk":0,"arthritis_risk":5,"migraine_risk":4,"frizz_risk":0,"updated_at":"2026-03-02T17:04:05.010244+05:30"},{"city":"Nellore","state":"Andhra Pradesh","latitude":14.4426,"longitude":79.9865,"temp":31.8,"humidity":36,"rain":0.0,"pressure":1006.7,"uv_index":8.65,"wind_gusts":29.5,"aqi":128,"pm10":43.5,"pm2_5":40.9,"mosquito_risk":0,"arthritis_risk":5,"migraine_risk":4,"frizz_risk":0,"updated_at":"2026-03-02T17:04:05.010251+05:30"},{"city":"Kurnool","state":"Andhra Pradesh","latitude":15.8281,"longitude":78.0373,"temp":35.5,"humidity":23,"rain":0.0,"pressure":976.9,"uv_index":8.45,"wind_gusts":26.3,"aqi":124,"pm10":42.1,"pm2_5":41.3,"mosquito_risk":0,"arthritis_risk":5,"migraine_risk":10,"frizz_risk":0,"updated_at":"2026-03-02T17:04:05.010259+05:30"},{"city":"Kakinada","state":"Andhra Pradesh","latitude":16.9891,"longitude":82.2475,"temp":32.9,"humidity":33,"rain":0.0,"pressure":1007.9,"uv_index":8.35,"wind_gusts":29.2,"aqi":143,"pm10":42.1,"pm2_5":38.5,"mosquito_risk":0,"arthritis_risk":5,"migraine_risk":4,"frizz_risk":0,"updated_at":"2026-03-02T17:04:05.010266+05:30"},{"city":"Tirupati","state":"Andhra Pradesh","latitude":13.6288,"longitude":79.4192,"temp":33.7,"humidity":27,"rain":0.0,"pressure":991.5,"uv_index":8.75,"wind_gusts":32.4,"aqi":136,"pm10":48.1,"pm2_5":46.2,"mosquito_risk":0,"arthritis_risk":5,"migraine_risk":7,"frizz_risk":0,"updated_at":"2026-03-02T17:04:05.010272+05:30"},{"city":"Warangal","state":"Telangana","latitude":17.9689,"longitude":79.5941,"temp":33.7,"humidity":35,"rain":0.0,"pressure":979.5,"uv_index":8.15,"wind_gusts":17.3,"aqi":145,"pm10":38.1,"pm2_5":37.3,"mosquito_risk":0,"arthritis_risk":5,"migraine_risk":7,"frizz_risk":1,"updated_at":"2026-03-02T17:04:05.010278+05:30"},{"city":"Nizamabad","state":"Telangana","latitude":18.6725,"longitude":78.0941,"temp":33.7,"humidity":25,"rain":0.0,"pressure":965.9,"uv_index":8.05,"wind_gusts":25.6,"aqi":108,"pm10":21.3,"pm2_5":20.5,"mosquito_risk":0,"arthritis_risk":5,"migraine_risk":7,"frizz_risk":0,"updated_at":"2026-03-02T17:04:05.010284+05:30"},{"city":"Mysore","state":"Karnataka","latitude":12.2958,"longitude":76.6396,"temp":32.3,"humidity":25,"rain":0.0,"pressure":927.8,"uv_index":9.1,"wind_gusts":25.6,"aqi":151,"pm10":40.4,"pm2_5":39.2,"mosquito_risk":0,"arthritis_risk":5,"migraine_risk":7,"frizz_risk":0,"updated_at":"2026-03-02T17:04:05.010290+05:30"},{"city":"Mangalore","state":"Karnataka","latitude":12.9141,"longitude":74.856,"temp":28.2,"humidity":77,"rain":0.0,"pressure":1006.3,"uv_index":8.65,"wind_gusts":28.8,"aqi":62,"pm10":17.5,"pm2_5":14.0,"mosquito_risk":7,"arthritis_risk":5,"migraine_risk":4,"frizz_risk":1,"updated_at":"2026-03-02T17:04:05.010297+05:30"},{"city":"Hubli-Dharwad","state":"Karnataka","latitude":15.3647,"longitude":75.124,"temp":32.3,"humidity":31,"rain":0.0,"pressure":940.6,"uv_index":8.6,"wind_gusts":23.4,"aqi":114,"pm10":35.0,"pm2_5":34.2,"mosquito_risk":0,"arthritis_risk":5,"migraine_risk":7,"frizz_risk":0,"updated_at":"2026-03-02T17:04:05.010303+05:30"},{"city":"Belgaum","state":"Karnataka","latitude":15.8497,"longitude":74.4977,"temp":29.5,"humidity":46,"rain":0.0,"pressure":926.0,"uv_index":8.65,"wind_gusts":38.9,"aqi":133,"pm10":33.2,"pm2_5":32.0,"mosquito_risk":4,"arthritis_risk":5,"migraine_risk":7,"frizz_risk":1,"updated_at":"2026-03-02T17:04:08.323790+05:30"},{"city":"Coimbatore","state":"Tamil Nadu","latitude":11.0168,"longitude":76.9558,"temp":33.6,"humidity":26,"rain":0.0,"pressure":960.6,"uv_index":9.1,"wind_gusts":29.5,"aqi":148,"pm10":38.4,"pm2_5":37.1,"mosquito_risk":0,"arthritis_risk":5,"migraine_risk":7,"frizz_risk":0,"updated_at":"2026-03-02T17:04:08.323820+05:30"},{"city":"Madurai","state":"Tamil Nadu","latitude":9.9252,"longitude":78.1198,"temp":35.5,"humidity":25,"rain":0.0,"pressure":991.3,"uv_index":9.05,"wind_gusts":32.8,"aqi":124,"pm10":35.6,"pm2_5":34.2,"mosquito_risk":0,"arthritis_risk":5,"migraine_risk":10,"frizz_risk":0,"updated_at":"2026-03-02T17:04:08.323831+05:30"},{"city":"Trichy","state":"Tamil Nadu","latitude":10.7905,"longitude":78.7047,"temp":34.2,"humidity":30,"rain":0.0,"pressure":999.0,"uv_index":8.95,"wind_gusts":32.0,"aqi":140,"pm10":44.7,"pm2_5":42.8,"mosquito_risk":0,"arthritis_risk":5,"migraine_risk":7,"frizz_risk":0,"updated_at":"2026-03-02T17:04:08.323840+05:30"},{"city":"Salem","state":"Tamil Nadu","latitude":11.6643,"longitude":78.146,"temp":35.3,"humidity":23,"rain":0.0,"pressure":976.0,"uv_index":9.0,"wind_gusts":32.4,"aqi":137,"pm10":42.7,"pm2_5":41.3,"mosquito_risk":0,"arthritis_risk":5,"migraine_risk":10,"frizz_risk":0,"updated_at":"2026-03-02T17:04:08.323850+05:30"},{"city":"Tirunelveli","state":"Tamil Nadu","latitude":8.7139,"longitude":77.7567,"temp":34.6,"humidity":35,"rain":0.0,"pressure":1001.6,"uv_index":9.05,"wind_gusts":40.3,"aqi":137,"pm10":35.0,"pm2_5":33.6,"mosquito_risk":0,"arthritis_risk":5,"migraine_risk":4,"frizz_risk":1,"updated_at":"2026-03-02T17:04:08.323857+05:30"},{"city":"Vellore","state":"Tamil Nadu","latitude":12.9165,"longitude":79.1325,"temp":33.1,"humidity":27,"rain":0.0,"pressure":984.5,"uv_index":8.85,"wind_gusts":37.1,"aqi":147,"pm10":44.2,"pm2_5":42.5,"mosquito_risk":0,"arthritis_risk":5,"migraine_risk":7,"frizz_risk":0,"updated_at":"2026-03-02T17:04:08.323864+05:30"},{"city":"Erode","state":"Tamil Nadu","latitude":11.341,"longitude":77.7172,"temp":36.5,"humidity":26,"rain":0.0,"pressure":987.1,"uv_index":9.0,"wind_gusts":23.4,"aqi":123,"pm10":42.0,"pm2_5":40.5,"mosquito_risk":0,"arthritis_risk":5,"migraine_risk":10,"frizz_risk":0,"updated_at":"2026-03-02T17:04:08.323872+05:30"},{"city":"Kochi","state":"Kerala","latitude":9.9312,"longitude":76.2673,"temp":28.2,"humidity":77,"rain":0.0,"pressure":1007.3,"uv_index":8.9,"wind_gusts":35.6,"aqi":118,"pm10":31.5,"pm2_5":30.0,"mosquito_risk":7,"arthritis_risk":5,"migraine_risk":4,"frizz_risk":1,"updated_at":"2026-03-02T17:04:08.323879+05:30"},{"city":"Thiruvananthapuram","state":"Kerala","latitude":8.5241,"longitude":76.9366,"temp":28.5,"humidity":74,"rain":0.0,"pressure":1007.0,"uv_index":8.85,"wind_gusts":27.7,"aqi":112,"pm10":31.1,"pm2_5":28.6,"mosquito_risk":7,"arthritis_risk":5,"migraine_risk":4,"frizz_risk":1,"updated_at":"2026-03-02T17:04:08.323886+05:30"},{"city":"Kozhikode","state":"Kerala","latitude":11.2588,"longitude":75.7804,"temp":29.2,"humidity":72,"rain":0.0,"pressure":1006.9,"uv_index":8.75,"wind_gusts":31.7,"aqi":59,"pm10":19.8,"pm2_5":15.1,"mosquito_risk":7,"arthritis_risk":5,"migraine_risk":4,"frizz_risk":1,"updated_at":"2026-03-02T17:04:08.323892+05:30"},{"city":"Thrissur","state":"Kerala","latitude":10.5276,"longitude":76.2144,"temp":30.2,"humidity":64,"rain":0.0,"pressure":1005.6,"uv_index":8.85,"wind_gusts":38.5,"aqi":95,"pm10":34.7,"pm2_5":32.9,"mosquito_risk":3,"arthritis_risk":5,"migraine_risk":4,"frizz_risk":1,"updated_at":"2026-03-02T17:04:08.323899+05:30"},{"city":"Kannur","state":"Kerala","latitude":11.8745,"longitude":75.3704,"temp":29.4,"humidity":71,"rain":0.0,"pressure":1006.6,"uv_index":8.75,"wind_gusts":34.9,"aqi":55,"pm10":22.3,"pm2_5":18.8,"mosquito_risk":7,"arthritis_risk":5,"migraine_risk":4,"frizz_risk":1,"updated_at":"2026-03-02T17:04:08.323905+05:30"},{"city":"Patna","state":"Bihar","latitude":25.5941,"longitude":85.1376,"temp":28.6,"humidity":31,"rain":0.0,"pressure":1002.6,"uv_index":7.05,"wind_gusts":28.8,"aqi":129,"pm10":80.8,"pm2_5":32.9,"mosquito_risk":4,"arthritis_risk":5,"migraine_risk":4,"frizz_risk":0,"updated_at":"2026-03-02T17:04:08.323912+05:30"},{"city":"Gaya","state":"Bihar","latitude":24.7914,"longitude":85.0002,"temp":26.6,"humidity":42,"rain":0.0,"pressure":996.2,"uv_index":7.15,"wind_gusts":23.8,"aqi":125,"pm10":51.2,"pm2_5":21.0,"mosquito_risk":4,"arthritis_risk":5,"migraine_risk":7,"frizz_risk":0,"updated_at":"2026-03-02T17:04:08.323918+05:30"},{"city":"Muzaffarpur","state":"Bihar","latitude":26.1209,"longitude":85.3647,"temp":28.2,"humidity":29,"rain":0.0,"pressure":1002.4,"uv_index":7.0,"wind_gusts":27.0,"aqi":121,"pm10":69.6,"pm2_5":31.5,"mosquito_risk":4,"arthritis_risk":5,"migraine_risk":4,"frizz_risk":0,"updated_at":"2026-03-02T17:04:08.323924+05:30"},{"city":"Bhagalpur","state":"Bihar","latitude":25.2425,"longitude":87.0117,"temp":26.3,"humidity":53,"rain":0.0,"pressure":1003.4,"uv_index":7.1,"wind_gusts":19.4,"aqi":137,"pm10":70.3,"pm2_5":34.3,"mosquito_risk":4,"arthritis_risk":5,"migraine_risk":4,"frizz_risk":0,"updated_at":"2026-03-02T17:04:08.323931+05:30"},{"city":"Ranchi","state":"Jharkhand","latitude":23.3441,"longitude":85.3096,"temp":27.6,"humidity":20,"rain":0.0,"pressure":939.8,"uv_index":7.8,"wind_gusts":40.3,"aqi":92,"pm10":37.8,"pm2_5":15.6,"mosquito_risk":4,"arthritis_risk":5,"migraine_risk":7,"frizz_risk":0,"updated_at":"2026-03-02T17:04:08.323937+05:30"},{"city":"Jamshedpur","state":"Jharkhand","latitude":22.8046,"longitude":86.2029,"temp":32.7,"humidity":22,"rain":0.0,"pressure":991.6,"uv_index":7.75,"wind_gusts":18.7,"aqi":149,"pm10":38.2,"pm2_5":16.0,"mosquito_risk":0,"arthritis_risk":5,"migraine_risk":7,"frizz_risk":0,"updated_at":"2026-03-02T17:04:08.323943+05:30"},{"city":"Dhanbad","state":"Jharkhand","latitude":23.7957,"longitude":86.4304,"temp":31.8,"humidity":14,"rain":0.0,"pressure":981.4,"uv_index":7.6,"wind_gusts":33.8,"aqi":130,"pm10":48.5,"pm2_5":18.8,"mosquito_risk":0,"arthritis_risk":5,"migraine_risk":7,"frizz_risk":0,"updated_at":"2026-03-02T17:04:08.323950+05:30"},{"city":"Bokaro","state":"Jharkhand","latitude":23.6693,"longitude":86.1511,"temp":30.8,"humidity":16,"rain":0.0,"pressure":985.4,"uv_index":7.6,"wind_gusts":37.1,"aqi":134,"pm10":48.1,"pm2_5":18.7,"mosquito_risk":0,"arthritis_risk":5,"migraine_risk":7,"frizz_risk":0,"updated_at":"2026-03-02T17:04:08.323956+05:30"},{"city":"Bhubaneswar","state":"Odisha","latitude":20.2961,"longitude":85.8245,"temp":34.2,"humidity":34,"rain":0.0,"pressure":1002.8,"uv_index":8.05,"wind_gusts":28.4,"aqi":162,"pm10":48.9,"pm2_5":43.1,"mosquito_risk":0,"arthritis_risk":5,"migraine_risk":4,"frizz_risk":1,"updated_at":"2026-03-02T17:04:08.323963+05:30"},{"city":"Cuttack","state":"Odisha","latitude":20.4625,"longitude":85.8828,"temp":34.7,"humidity":27,"rain":0.0,"pressure":1004.5,"uv_index":8.1,"wind_gusts":21.2,"aqi":162,"pm10":48.9,"pm2_5":43.1,"mosquito_risk":0,"arthritis_risk":5,"migraine_risk":4,"frizz_risk":0,"updated_at":"2026-03-02T17:04:08.323970+05:30"},{"city":"Rourkela","state":"Odisha","latitude":22.2604,"longitude":84.8536,"temp":33.4,"humidity":16,"rain":0.0,"pressure":986.0,"uv_index":7.65,"wind_gusts":24.8,"aqi":128,"pm10":29.6,"pm2_5":13.9,"mosquito_risk":0,"arthritis_risk":5,"migraine_risk":7,"frizz_risk":0,"updated_at":"2026-03-02T17:04:08.323976+05:30"},{"city":"Raipur","state":"Chhattisgarh","latitude":21.2514,"longitude":81.6296,"temp":33.2,"humidity":27,"rain":0.0,"pressure":976.2,"uv_index":7.75,"wind_gusts":24.1,"aqi":95,"pm10":36.7,"pm2_5":24.8,"mosquito_risk":0,"arthritis_risk":5,"migraine_risk":7,"frizz_risk":0,"updated_at":"2026-03-02T17:04:08.323982+05:30"},{"city":"Bhilai","state":"Chhattisgarh","latitude":21.1938,"longitude":81.3509,"temp":33.3,"humidity":28,"rain":0.0,"pressure":976.4,"uv_index":7.8,"wind_gusts":22.7,"aqi":84,"pm10":38.4,"pm2_5":26.0,"mosquito_risk":0,"arthritis_risk":5,"migraine_risk":7,"frizz_risk":0,"updated_at":"2026-03-02T17:04:08.323988+05:30"},{"city":"Guwahati","state":"Assam","latitude":26.1158,"longitude":91.7086,"temp":25.6,"humidity":59,"rain":0.0,"pressure":1003.5,"uv_index":7.0,"wind_gusts":28.4,"aqi":153,"pm10":68.9,"pm2_5":50.9,"mosquito_risk":4,"arthritis_risk":5,"migraine_risk":4,"frizz_risk":1,"updated_at":"2026-03-02T17:04:08.323994+05:30"},{"city":"Agartala","state":"Tripura","latitude":23.8315,"longitude":91.2868,"temp":27.7,"humidity":59,"rain":0.0,"pressure":1007.4,"uv_index":7.3,"wind_gusts":18.0,"aqi":128,"pm10":92.9,"pm2_5":77.5,"mosquito_risk":4,"arthritis_risk":5,"migraine_risk":4,"frizz_risk":1,"updated_at":"2026-03-02T17:04:08.324000+05:30"},{"city":"Shillong","state":"Meghalaya","latitude":25.5788,"longitude":91.8933,"temp":14.7,"humidity":56,"rain":0.0,"pressure":856.3,"uv_index":7.35,"wind_gusts":66.2,"aqi":117,"pm10":45.9,"pm2_5":33.5,"mosquito_risk":0,"arthritis_risk":5,"migraine_risk":7,"frizz_risk":0,"updated_at":"2026-03-02T17:04:08.324006+05:30"},{"city":"Imphal","state":"Manipur","latitude":24.817,"longitude":93.9368,"temp":18.3,"humidity":60,"rain":0.0,"pressure":923.7,"uv_index":7.6,"wind_gusts":72.4,"aqi":148,"pm10":66.1,"pm2_5":50.1,"mosquito_risk":0,"arthritis_risk":5,"migraine_risk":7,"frizz_risk":0,"updated_at":"2026-03-02T17:04:08.324012+05:30"},{"city":"Aizawl","state":"Mizoram","latitude":23.7271,"longitude":92.7176,"temp":20.9,"humidity":65,"rain":0.0,"pressure":893.8,"uv_index":7.6,"wind_gusts":42.8,"aqi":135,"pm10":60.8,"pm2_5":56.3,"mosquito_risk":3,"arthritis_risk":5,"migraine_risk":7,"frizz_risk":0,"updated_at":"2026-03-02T17:04:08.324019+05:30"},{"city":"Kohima","state":"Nagaland","latitude":25.6701,"longitude":94.1077,"temp":13.8,"humidity":72,"rain":0.0,"pressure":854.9,"uv_index":7.45,"wind_gusts":82.8,"aqi":147,"pm10":61.0,"pm2_5":45.4,"mosquito_risk":3,"arthritis_risk":5,"migraine_risk":7,"frizz_risk":0,"updated_at":"2026-03-02T17:04:08.324025+05:30"},{"city":"Gangtok","state":"Sikkim","latitude":27.3314,"longitude":88.6138,"temp":14.5,"humidity":73,"rain":0.0,"pressure":837.1,"uv_index":5.8,"wind_gusts":19.4,"aqi":132,"pm10":62.6,"pm2_5":43.7,"mosquito_risk":3,"arthritis_risk":5,"migraine_risk":3,"frizz_risk":0,"updated_at":"2026-03-02T17:04:08.324031+05:30"},{"city":"Siliguri","state":"West Bengal","latitude":26.7271,"longitude":88.3953,"temp":21.3,"humidity":67,"rain":0.0,"pressure":995.8,"uv_index":7.0,"wind_gusts":20.5,"aqi":171,"pm10":85.4,"pm2_5":59.3,"mosquito_risk":3,"arthritis_risk":5,"migraine_risk":7,"frizz_risk":0,"updated_at":"2026-03-02T17:04:11.644674+05:30"},{"city":"Durgapur","state":"West Bengal","latitude":23.5204,"longitude":87.3119,"temp":32.5,"humidity":15,"rain":0.0,"pressure":996.1,"uv_index":7.6,"wind_gusts":26.3,"aqi":131,"pm10":54.2,"pm2_5":19.0,"mosquito_risk":0,"arthritis_risk":5,"migraine_risk":7,"frizz_risk":0,"updated_at":"2026-03-02T17:04:11.644707+05:30"},{"city":"Asansol","state":"West Bengal","latitude":23.6739,"longitude":86.9524,"temp":32.3,"humidity":15,"rain":0.0,"pressure":994.8,"uv_index":7.6,"wind_gusts":28.4,"aqi":109,"pm10":51.1,"pm2_5":18.5,"mosquito_risk":0,"arthritis_risk":5,"migraine_risk":7,"frizz_risk":0,"updated_at":"2026-03-02T17:04:11.644738+05:30"},{"city":"Pondicherry","state":"Puducherry","latitude":11.9139,"longitude":79.8145,"temp":30.1,"humidity":49,"rain":0.0,"pressure":1009.0,"uv_index":8.8,"wind_gusts":29.5,"aqi":125,"pm10":39.9,"pm2_5":35.6,"mosquito_risk":0,"arthritis_risk":0,"migraine_risk":4,"frizz_risk":1,"updated_at":"2026-03-02T17:04:11.644749+05:30"},{"city":"Port Blair","state":"Andaman and Nicobar Islands","latitude":11.6234,"longitude":92.7265,"temp":27.3,"humidity":77,"rain":0.0,"pressure":1007.3,"uv_index":8.75,"wind_gusts":16.2,"aqi":78,"pm10":33.9,"pm2_5":26.9,"mosquito_risk":7,"arthritis_risk":5,"migraine_risk":4,"frizz_risk":1,"updated_at":"2026-03-02T17:04:11.644759+05:30"},{"city":"Haridwar","state":"Uttarakhand","latitude":29.9457,"longitude":78.1642,"temp":27.3,"humidity":35,"rain":0.0,"pressure":975.7,"uv_index":5.55,"wind_gusts":41.8,"aqi":94,"pm10":22.6,"pm2_5":17.3,"mosquito_risk":4,"arthritis_risk":5,"migraine_risk":3,"frizz_risk":0,"updated_at":"2026-03-02T17:04:11.644768+05:30"},{"city":"Rishikesh","state":"Uttarakhand","latitude":30.0869,"longitude":78.2676,"temp":26.7,"humidity":38,"rain":0.0,"pressure":968.3,"uv_index":5.6,"wind_gusts":31.3,"aqi":89,"pm10":23.1,"pm2_5":17.8,"mosquito_risk":4,"arthritis_risk":5,"migraine_risk":3,"frizz_risk":0,"updated_at":"2026-03-02T17:04:11.644776+05:30"},{"city":"Nainital","state":"Uttarakhand","latitude":29.3919,"longitude":79.4542,"temp":18.4,"humidity":48,"rain":0.0,"pressure":806.7,"uv_index":6.4,"wind_gusts":45.7,"aqi":97,"pm10":25.5,"pm2_5":19.8,"mosquito_risk":0,"arthritis_risk":5,"migraine_risk":7,"frizz_risk":0,"updated_at":"2026-03-02T17:04:11.644785+05:30"},{"city":"Mussoorie","state":"Uttarakhand","latitude":30.4599,"longitude":78.0664,"temp":18.2,"humidity":48,"rain":0.0,"pressure":803.5,"uv_index":5.9,"wind_gusts":33.8,"aqi":86,"pm10":19.9,"pm2_5":15.1,"mosquito_risk":0,"arthritis_risk":5,"migraine_risk":3,"frizz_risk":0,"updated_at":"2026-03-02T17:04:11.644794+05:30"},{"city":"Dharamshala","state":"Himachal Pradesh","latitude":32.219,"longitude":76.3234,"temp":21.1,"humidity":47,"rain":0.0,"pressure":870.9,"uv_index":6.1,"wind_gusts":26.3,"aqi":85,"pm10":22.4,"pm2_5":14.8,"mosquito_risk":0,"arthritis_risk":5,"migraine_risk":7,"frizz_risk":0,"updated_at":"2026-03-02T17:04:11.644802+05:30"},{"city":"Dalhousie","state":"Himachal Pradesh","latitude":32.5387,"longitude":75.971,"temp":20.3,"humidity":33,"rain":0.0,"pressure":806.1,"uv_index":6.35,"wind_gusts":22.3,"aqi":102,"pm10":28.9,"pm2_5":20.1,"mosquito_risk":0,"arthritis_risk":5,"migraine_risk":7,"frizz_risk":0,"updated_at":"2026-03-02T17:04:11.644811+05:30"},{"city":"Patiala","state":"Punjab","latitude":30.3398,"longitude":76.3869,"temp":27.1,"humidity":36,"rain":0.0,"pressure":980.8,"uv_index":5.55,"wind_gusts":37.4,"aqi":158,"pm10":446.1,"pm2_5":68.0,"mosquito_risk":4,"arthritis_risk":5,"migraine_risk":3,"frizz_risk":0,"updated_at":"2026-03-02T17:04:11.644819+05:30"},{"city":"Bhatinda","state":"Punjab","latitude":30.211,"longitude":74.9455,"temp":28.4,"humidity":37,"rain":0.0,"pressure":986.9,"uv_index":6.2,"wind_gusts":24.8,"aqi":158,"pm10":47.0,"pm2_5":31.8,"mosquito_risk":4,"arthritis_risk":5,"migraine_risk":7,"frizz_risk":0,"updated_at":"2026-03-02T17:04:11.644827+05:30"},{"city":"Rohtak","state":"Haryana","latitude":28.8955,"longitude":76.6066,"temp":28.4,"humidity":34,"rain":0.0,"pressure":984.6,"uv_index":5.75,"wind_gusts":34.9,"aqi":270,"pm10":705.9,"pm2_5":91.3,"mosquito_risk":4,"arthritis_risk":5,"migraine_risk":3,"frizz_risk":0,"updated_at":"2026-03-02T17:04:11.644835+05:30"},{"city":"Panipat","state":"Haryana","latitude":29.3909,"longitude":76.9635,"temp":27.5,"humidity":36,"rain":0.0,"pressure":983.0,"uv_index":5.55,"wind_gusts":35.3,"aqi":665,"pm10":1385.8,"pm2_5":149.9,"mosquito_risk":4,"arthritis_risk":5,"migraine_risk":3,"frizz_risk":0,"updated_at":"2026-03-02T17:04:11.644843+05:30"},{"city":"Mathura","state":"Uttar Pradesh","latitude":27.4924,"longitude":77.6737,"temp":30.8,"humidity":31,"rain":0.0,"pressure":989.4,"uv_index":6.0,"wind_gusts":29.2,"aqi":401,"pm10":698.5,"pm2_5":92.0,"mosquito_risk":0,"arthritis_risk":5,"migraine_risk":3,"frizz_risk":0,"updated_at":"2026-03-02T17:04:11.644851+05:30"},{"city":"Vrindavan","state":"Uttar Pradesh","latitude":27.5823,"longitude":77.7027,"temp":30.1,"humidity":35,"rain":0.0,"pressure":989.9,"uv_index":5.95,"wind_gusts":31.3,"aqi":401,"pm10":698.5,"pm2_5":92.0,"mosquito_risk":0,"arthritis_risk":5,"migraine_risk":3,"frizz_risk":0,"updated_at":"2026-03-02T17:04:11.644859+05:30"},{"city":"Ayodhya","state":"Uttar Pradesh","latitude":26.7922,"longitude":82.1998,"temp":28.7,"humidity":25,"rain":0.0,"pressure":997.3,"uv_index":6.4,"wind_gusts":34.6,"aqi":118,"pm10":51.8,"pm2_5":35.3,"mosquito_risk":4,"arthritis_risk":5,"migraine_risk":7,"frizz_risk":0,"updated_at":"2026-03-02T17:04:11.644866+05:30"},{"city":"Ratlam","state":"Madhya Pradesh","latitude":23.3315,"longitude":75.0367,"temp":31.4,"humidity":31,"rain":0.0,"pressure":956.8,"uv_index":7.25,"wind_gusts":7.2,"aqi":104,"pm10":24.7,"pm2_5":19.0,"mosquito_risk":0,"arthritis_risk":5,"migraine_risk":7,"frizz_risk":0,"updated_at":"2026-03-02T17:04:11.644874+05:30"},{"city":"Sagar","state":"Madhya Pradesh","latitude":23.8388,"longitude":78.7378,"temp":30.0,"humidity":27,"rain":0.0,"pressure":953.1,"uv_index":7.2,"wind_gusts":25.2,"aqi":77,"pm10":26.5,"pm2_5":15.1,"mosquito_risk":4,"arthritis_risk":5,"migraine_risk":7,"frizz_risk":0,"updated_at":"2026-03-02T17:04:11.644881+05:30"},{"city":"Satna","state":"Madhya Pradesh","latitude":24.6005,"longitude":80.8322,"temp":31.0,"humidity":19,"rain":0.0,"pressure":974.1,"uv_index":7.15,"wind_gusts":38.2,"aqi":79,"pm10":35.3,"pm2_5":17.9,"mosquito_risk":0,"arthritis_risk":5,"migraine_risk":7,"frizz_risk":0,"updated_at":"2026-03-02T17:04:11.644889+05:30"},{"city":"Akola","state":"Maharashtra","latitude":20.7002,"longitude":77.0082,"temp":35.0,"humidity":24,"rain":0.0,"pressure":976.1,"uv_index":7.75,"wind_gusts":25.9,"aqi":92,"pm10":20.5,"pm2_5":18.9,"mosquito_risk":0,"arthritis_risk":5,"migraine_risk":7,"frizz_risk":0,"updated_at":"2026-03-02T17:04:11.644897+05:30"},{"city":"Amravati","state":"Maharashtra","latitude":20.9374,"longitude":77.7796,"temp":35.0,"humidity":19,"rain":0.0,"pressure":968.4,"uv_index":7.7,"wind_gusts":24.5,"aqi":85,"pm10":19.2,"pm2_5":17.3,"mosquito_risk":0,"arthritis_risk":5,"migraine_risk":7,"frizz_risk":0,"updated_at":"2026-03-02T17:04:11.644906+05:30"},{"city":"Latur","state":"Maharashtra","latitude":18.4088,"longitude":76.5604,"temp":32.4,"humidity":30,"rain":0.0,"pressure":940.8,"uv_index":8.15,"wind_gusts":26.3,"aqi":124,"pm10":29.4,"pm2_5":28.9,"mosquito_risk":0,"arthritis_risk":5,"migraine_risk":7,"frizz_risk":0,"updated_at":"2026-03-02T17:04:11.644913+05:30"},{"city":"Nanded","state":"Maharashtra","latitude":19.1383,"longitude":77.3091,"temp":34.4,"humidity":27,"rain":0.0,"pressure":969.5,"uv_index":7.95,"wind_gusts":17.3,"aqi":102,"pm10":22.6,"pm2_5":21.7,"mosquito_risk":0,"arthritis_risk":5,"migraine_risk":7,"frizz_risk":0,"updated_at":"2026-03-02T17:04:11.644921+05:30"},{"city":"Gulbarga","state":"Karnataka","latitude":17.3297,"longitude":76.8343,"temp":34.0,"humidity":28,"rain":0.0,"pressure":959.1,"uv_index":8.25,"wind_gusts":19.4,"aqi":132,"pm10":47.3,"pm2_5":46.6,"mosquito_risk":0,"arthritis_risk":5,"migraine_risk":7,"frizz_risk":0,"updated_at":"2026-03-02T17:04:11.644928+05:30"},{"city":"Bidar","state":"Karnataka","latitude":17.9104,"longitude":77.5199,"temp":32.8,"humidity":31,"rain":0.0,"pressure":936.3,"uv_index":8.2,"wind_gusts":16.2,"aqi":152,"pm10":31.7,"pm2_5":31.2,"mosquito_risk":0,"arthritis_risk":5,"migraine_risk":7,"frizz_risk":0,"updated_at":"2026-03-02T17:04:11.644935+05:30"},{"city":"Hospet","state":"Karnataka","latitude":15.2689,"longitude":76.3909,"temp":34.0,"humidity":27,"rain":0.0,"pressure":955.5,"uv_index":8.6,"wind_gusts":21.2,"aqi":121,"pm10":43.4,"pm2_5":42.7,"mosquito_risk":0,"arthritis_risk":5,"migraine_risk":7,"frizz_risk":0,"updated_at":"2026-03-02T17:04:11.644942+05:30"},{"city":"Tirupur","state":"Tamil Nadu","latitude":11.1085,"longitude":77.3411,"temp":35.6,"humidity":22,"rain":0.0,"pressure":973.8,"uv_index":9.1,"wind_gusts":33.5,"aqi":150,"pm10":42.3,"pm2_5":40.9,"mosquito_risk":0,"arthritis_risk":5,"migraine_risk":10,"frizz_risk":0,"updated_at":"2026-03-02T17:04:11.644949+05:30"},{"city":"Alappuzha","state":"Kerala","latitude":9.4981,"longitude":76.3388,"temp":28.1,"humidity":79,"rain":0.0,"pressure":1007.4,"uv_index":8.9,"wind_gusts":32.8,"aqi":149,"pm10":27.9,"pm2_5":26.1,"mosquito_risk":7,"arthritis_risk":5,"migraine_risk":4,"frizz_risk":1,"updated_at":"2026-03-02T17:04:11.644957+05:30"},{"city":"Munnar","state":"Kerala","latitude":10.0889,"longitude":77.0595,"temp":28.5,"humidity":42,"rain":0.0,"pressure":857.9,"uv_index":9.4,"wind_gusts":22.0,"aqi":129,"pm10":35.6,"pm2_5":34.3,"mosquito_risk":4,"arthritis_risk":5,"migraine_risk":7,"frizz_risk":0,"updated_at":"2026-03-02T17:04:11.644965+05:30"},{"city":"Silchar","state":"Assam","latitude":24.8333,"longitude":92.7789,"temp":27.0,"humidity":57,"rain":0.0,"pressure":1006.2,"uv_index":7.35,"wind_gusts":18.7,"aqi":153,"pm10":79.4,"pm2_5":59.3,"mosquito_risk":4,"arthritis_risk":5,"migraine_risk":4,"frizz_risk":1,"updated_at":"2026-03-02T17:04:11.644973+05:30"},{"city":"Dibrugarh","state":"Assam","latitude":27.4728,"longitude":94.912,"temp":22.8,"humidity":71,"rain":0.0,"pressure":998.4,"uv_index":7.05,"wind_gusts":12.6,"aqi":151,"pm10":88.9,"pm2_5":67.5,"mosquito_risk":3,"arthritis_risk":5,"migraine_risk":7,"frizz_risk":1,"updated_at":"2026-03-02T17:04:11.644980+05:30"}]