[{"city":"Delhi","state":"Delhi","latitude":28.6139,"longitude":77.209,"temp":34.1,"humidity":29,"rain":0.0,"pressure":985.8,"uv_index":6.0,"wind_gusts":24.8,"aqi":166,"pm10":205.4,"pm2_5":42.0,"mosquito_risk":0,"arthritis_risk":5,"migraine_risk":3,"frizz_risk":0,"updated_at":"2026-03-08T15:03:16.954460+05:30"},{"city":"Mumbai","state":"Maharashtra","latitude":19.076,"longitude":72.8777,"temp":27.9,"humidity":74,"rain":0.0,"pressure":1007.5,"uv_index":7.5,"wind_gusts":25.9,"aqi":148,"pm10":52.5,"pm2_5":50.2,"mosquito_risk":7,"arthritis_risk":5,"migraine_risk":4,"frizz_risk":1,"updated_at":"2026-03-08T15:03:16.954503+05:30"},{"city":"Bangalore","state":"Karnataka","latitude":12.9716,"longitude":77.5946,"temp":32.7,"humidity":24,"rain":0.0,"pressure":911.7,"uv_index":9.25,"wind_gusts":27.4,"aqi":109,"pm10":39.5,"pm2_5":30.9,"mosquito_risk":0,"arthritis_risk":5,"migraine_risk":7,"frizz_risk":0,"updated_at":"2026-03-08T15:03:16.954518+05:30"},{"city":"Hyderabad","state":"Telangana","latitude":17.385,"longitude":78.4867,"temp":35.9,"humidity":24,"rain":0.0,"pressure":953.5,"uv_index":8.55,"wind_gusts":25.6,"aqi":112,"pm10":35.2,"pm2_5":24.5,"mosquito_risk":0,"arthritis_risk":5,"migraine_risk":10,"frizz_risk":0,"updated_at":"2026-03-08T15:03:16.954528+05:30"},{"city":"Chennai","state":"Tamil Nadu","latitude":13.0827,"longitude":80.2707,"temp":31.6,"humidity":52,"rain":0.0,"pressure":1007.7,"uv_index":8.95,"wind_gusts":32.4,"aqi":78,"pm10":39.5,"pm2_5":26.3,"mosquito_risk":0,"arthritis_risk":5,"migraine_risk":4,"frizz_risk":1,"updated_at":"2026-03-08T15:03:16.954537+05:30"},{"city":"Kolkata","state":"West Bengal","latitude":22.5726,"longitude":88.3639,"temp":29.8,"humidity":57,"rain":0.0,"pressure":1008.7,"uv_index":7.25,"wind_gusts":15.8,"aqi":151,"pm10":65.4,"pm2_5":54.8,"mosquito_risk":4,"arthritis_risk":0,"migraine_risk":4,"frizz_risk":1,"updated_at":"2026-03-08T15:03:16.954545+05:30"},{"city":"Pune","state":"Maharashtra","latitude":18.5204,"longitude":73.8567,"temp":38.5,"humidity":17,"rain":0.0,"pressure":948.7,"uv_index":8.05,"wind_gusts":29.5,"aqi":109,"pm10":13.9,"pm2_5":12.4,"mosquito_risk":0,"arthritis_risk":5,"migraine_risk":10,"frizz_risk":0,"updated_at":"2026-03-08T15:03:16.954557+05:30"},{"city":"Ahmedabad","state":"Gujarat","latitude":23.0225,"longitude":72.5714,"temp":37.8,"humidity":20,"rain":0.0,"pressure":1003.8,"uv_index":7.35,"wind_gusts":16.6,"aqi":101,"pm10":15.1,"pm2_5":12.7,"mosquito_risk":0,"arthritis_risk":5,"migraine_risk":7,"frizz_risk":0,"updated_at":"2026-03-08T15:03:16.954565+05:30"},{"city":"Jaipur","state":"Rajasthan","latitude":26.9124,"longitude":75.7873,"temp":37.5,"humidity":11,"rain":0.0,"pressure":963.1,"uv_index":6.8,"wind_gusts":23.0,"aqi":84,"pm10":109.9,"pm2_5":17.5,"mosquito_risk":0,"arthritis_risk":5,"migraine_risk":10,"frizz_risk":0,"updated_at":"2026-03-08T15:03:16.954572+05:30"},{"city":"Lucknow","state":"Uttar Pradesh","latitude":26.8467,"longitude":80.9462,"temp":32.8,"humidity":40,"rain":0.0,"pressure":996.3,"uv_index":6.5,"wind_gusts":21.6,"aqi":181,"pm10":111.8,"pm2_5":69.4,"mosquito_risk":0,"arthritis_risk":5,"migraine_risk":7,"frizz_risk":1,"updated_at":"2026-03-08T15:03:16.954580+05:30"},{"city":"Kanpur","state":"Uttar Pradesh","latitude":26.4499,"longitude":80.3319,"temp":32.7,"humidity":42,"rain":0.0,"pressure":994.7,"uv_index":6.5,"wind_gusts":16.9,"aqi":175,"pm10":144.4,"pm2_5":64.7,"mosquito_risk":0,"arthritis_risk":5,"migraine_risk":7,"frizz_risk":1,"updated_at":"2026-03-08T15:03:16.954586+05:30"},{"city":"Chandigarh","state":"Chandigarh","latitude":30.7333,"longitude":76.7794,"temp":32.5,"humidity":33,"rain":0.0,"pressure":971.6,"uv_index":5.9,"wind_gusts":30.2,"aqi":153,"pm10":55.5,"pm2_5":36.7,"mosquito_risk":0,"arthritis_risk":5,"migraine_risk":3,"frizz_risk":0,"updated_at":"2026-03-08T15:03:16.954593+05:30"},{"city":"Srinagar","state":"Jammu and Kashmir","latitude":34.0837,"longitude":74.7973,"temp":21.9,"humidity":27,"rain":0.0,"pressure":848.3,"uv_index":6.8,"wind_gusts":16.2,"aqi":136,"pm10":40.3,"pm2_5":19.4,"mosquito_risk":0,"arthritis_risk":5,"migraine_risk":7,"frizz_risk":0,"updated_at":"2026-03-08T15:03:16.954601+05:30"},{"city":"Jammu","state":"Jammu and Kashmir","latitude":32.7266,"longitude":74.857,"temp":32.7,"humidity":37,"rain":0.0,"pressure":976.0,"uv_index":6.4,"wind_gusts":29.5,"aqi":128,"pm10":42.5,"pm2_5":23.1,"mosquito_risk":0,"arthritis_risk":5,"migraine_risk":7,"frizz_risk":1,"updated_at":"2026-03-08T15:03:16.954608+05:30"},{"city":"Amritsar","state":"Punjab","latitude":31.634,"longitude":74.8723,"temp":32.4,"humidity":42,"rain":0.0,"pressure":984.5,"uv_index":6.4,"wind_gusts":23.4,"aqi":165,"pm10":62.9,"pm2_5":39.2,"mosquito_risk":0,"arthritis_risk":5,"migraine_risk":7,"frizz_risk":1,"updated_at":"2026-03-08T15:03:16.954614+05:30"},{"city":"Ludhiana","state":"Punjab","latitude":30.901,"longitude":75.8573,"temp":33.2,"humidity":36,"rain":0.0,"pressure":981.9,"uv_index":6.15,"wind_gusts":27.7,"aqi":172,"pm10":70.3,"pm2_5":51.2,"mosquito_risk":0,"arthritis_risk":5,"migraine_risk":7,"frizz_risk":1,"updated_at":"2026-03-08T15:03:16.954621+05:30"},{"city":"Jalandhar","state":"Punjab","latitude":31.326,"longitude":75.5762,"temp":32.8,"humidity":38,"rain":0.0,"pressure":983.1,"uv_index":6.3,"wind_gusts":26.3,"aqi":171,"pm10":82.9,"pm2_5":47.0,"mosquito_risk":0,"arthritis_risk":5,"migraine_risk":7,"frizz_risk":1,"updated_at":"2026-03-08T15:03:16.954629+05:30"},{"city":"Dehradun","state":"Uttarakhand","latitude":30.6284,"longitude":78.0322,"temp":23.2,"humidity":54,"rain":0.0,"pressure":834.8,"uv_index":6.3,"wind_gusts":37.8,"aqi":102,"pm10":29.6,"pm2_5":15.8,"mosquito_risk":0,"arthritis_risk":5,"migraine_risk":7,"frizz_risk":0,"updated_at":"2026-03-08T15:03:16.954636+05:30"},{"city":"Shimla","state":"Himachal Pradesh","latitude":31.1048,"longitude":77.1734,"temp":21.9,"humidity":43,"rain":0.0,"pressure":790.7,"uv_index":6.35,"wind_gusts":51.8,"aqi":119,"pm10":27.9,"pm2_5":12.5,"mosquito_risk":0,"arthritis_risk":5,"migraine_risk":7,"frizz_risk":0,"updated_at":"2026-03-08T15:03:16.954643+05:30"},{"city":"Manali","state":"Himachal Pradesh","latitude":32.2396,"longitude":77.1887,"temp":24.6,"humidity":23,"rain":0.0,"pressure":826.0,"uv_index":8.05,"wind_gusts":30.6,"aqi":72,"pm10":22.1,"pm2_5":8.8,"mosquito_risk":0,"arthritis_risk":5,"migraine_risk":7,"frizz_risk":0,"updated_at":"2026-03-08T15:03:16.954649+05:30"},{"city":"Gurgaon","state":"Haryana","latitude":28.4595,"longitude":77.0266,"temp":34.5,"humidity":29,"rain":0.0,"pressure":984.3,"uv_index":6.1,"wind_gusts":19.8,"aqi":176,"pm10":774.9,"pm2_5":83.4,"mosquito_risk":0,"arthritis_risk":5,"migraine_risk":7,"frizz_risk":0,"updated_at":"2026-03-08T15:03:16.954656+05:30"},{"city":"Noida","state":"Uttar Pradesh","latitude":28.5355,"longitude":77.391,"temp":34.7,"humidity":27,"rain":0.0,"pressure":987.3,"uv_index":6.0,"wind_gusts":24.8,"aqi":176,"pm10":774.9,"pm2_5":83.4,"mosquito_risk":0,"arthritis_risk":5,"migraine_risk":3,"frizz_risk":0,"updated_at":"2026-03-08T15:03:16.954662+05:30"},{"city":"Ghaziabad","state":"Uttar Pradesh","latitude":28.6692,"longitude":77.4538,"temp":33.7,"humidity":34,"rain":0.0,"pressure":985.4,"uv_index":6.0,"wind_gusts":24.5,"aqi":168,"pm10":142.0,"pm2_5":46.2,"mosquito_risk":0,"arthritis_risk":5,"migraine_risk":3,"frizz_risk":0,"updated_at":"2026-03-08T15:03:16.954669+05:30"},{"city":"Faridabad","state":"Haryana","latitude":28.4089,"longitude":77.3178,"temp":34.3,"humidity":29,"rain":0.0,"pressure":986.6,"uv_index":6.05,"wind_gusts":21.6,"aqi":176,"pm10":774.9,"pm2_5":83.4,"mosquito_risk":0,"arthritis_risk":5,"migraine_risk":7,"frizz_risk":0,"updated_at":"2026-03-08T15:03:16.954676+05:30"},{"city":"Meerut","state":"Uttar Pradesh","latitude":28.9845,"longitude":77.7064,"temp":33.6,"humidity":38,"rain":0.0,"pressure":984.0,"uv_index":5.85,"wind_gusts":29.2,"aqi":168,"pm10":142.0,"pm2_5":46.2,"mosquito_risk":0,"arthritis_risk":5,"migraine_risk":3,"frizz_risk":1,"updated_at":"2026-03-08T15:03:16.954683+05:30"},{"city":"Agra","state":"Uttar Pradesh","latitude":27.1767,"longitude":78.0081,"temp":36.5,"humidity":26,"rain":0.0,"pressure":990.4,"uv_index":6.4,"wind_gusts":20.5,"aqi":157,"pm10":322.2,"pm2_5":44.0,"mosquito_risk":0,"arthritis_risk":5,"migraine_risk":10,"frizz_risk":0,"updated_at":"2026-03-08T15:03:16.954689+05:30"},{"city":"Varanasi","state":"Uttar Pradesh","latitude":25.3176,"longitude":82.9739,"temp":32.2,"humidity":49,"rain":0.0,"pressure":1000.1,"uv_index":7.2,"wind_gusts":11.5,"aqi":173,"pm10":83.1,"pm2_5":68.9,"mosquito_risk":0,"arthritis_risk":5,"migraine_risk":4,"frizz_risk":1,"updated_at":"2026-03-08T15:03:16.954698+05:30"},{"city":"Prayagraj","state":"Uttar Pradesh","latitude":25.4358,"longitude":81.8463,"temp":31.7,"humidity":49,"rain":0.0,"pressure":998.8,"uv_index":7.05,"wind_gusts":14.8,"aqi":179,"pm10":90.1,"pm2_5":73.1,"mosquito_risk":0,"arthritis_risk":5,"migraine_risk":7,"frizz_risk":1,"updated_at":"2026-03-08T15:03:16.954707+05:30"},{"city":"Gorakhpur","state":"Uttar Pradesh","latitude":26.7606,"longitude":83.3732,"temp":31.6,"humidity":47,"rain":0.0,"pressure":1000.1,"uv_index":6.9,"wind_gusts":16.2,"aqi":174,"pm10":78.2,"pm2_5":69.6,"mosquito_risk":0,"arthritis_risk":5,"migraine_risk":4,"frizz_risk":1,"updated_at":"2026-03-08T15:03:16.954714+05:30"},{"city":"Bareilly","state":"Uttar Pradesh","latitude":28.367,"longitude":79.4304,"temp":32.2,"humidity":45,"rain":0.0,"pressure":989.5,"uv_index":6.2,"wind_gusts":19.8,"aqi":173,"pm10":112.2,"pm2_5":56.6,"mosquito_risk":0,"arthritis_risk":5,"migraine_risk":7,"frizz_risk":1,"updated_at":"2026-03-08T15:03:16.954720+05:30"},{"city":"Aligarh","state":"Uttar Pradesh","latitude":27.8974,"longitude":78.088,"temp":34.8,"humidity":30,"rain":0.0,"pressure":988.2,"uv_index":6.1,"wind_gusts":23.4,"aqi":171,"pm10":285.0,"pm2_5":66.1,"mosquito_risk":0,"arthritis_risk":5,"migraine_risk":7,"frizz_risk":0,"updated_at":"2026-03-08T15:03:16.954726+05:30"},{"city":"Moradabad","state":"Uttar Pradesh","latitude":28.8386,"longitude":78.7733,"temp":32.7,"humidity":41,"rain":0.0,"pressure":986.1,"uv_index":6.05,"wind_gusts":23.8,"aqi":182,"pm10":108.5,"pm2_5":68.0,"mosquito_risk":0,"arthritis_risk":5,"migraine_risk":7,"frizz_risk":1,"updated_at":"2026-03-08T15:03:16.954732+05:30"},{"city":"Saharanpur","state":"Uttar Pradesh","latitude":29.9637,"longitude":77.546,"temp":33.4,"humidity":33,"rain":0.0,"pressure":977.9,"uv_index":5.65,"wind_gusts":36.7,"aqi":172,"pm10":90.1,"pm2_5":61.7,"mosquito_risk":0,"arthritis_risk":5,"migraine_risk":3,"frizz_risk":0,"updated_at":"2026-03-08T15:03:16.954738+05:30"},{"city":"Jhansi","state":"Uttar Pradesh","latitude":25.4484,"longitude":78.5685,"temp":36.2,"humidity":19,"rain":0.0,"pressure":980.8,"uv_index":7.0,"wind_gusts":26.3,"aqi":105,"pm10":50.9,"pm2_5":22.5,"mosquito_risk":0,"arthritis_risk":5,"migraine_risk":10,"frizz_risk":0,"updated_at":"2026-03-08T15:03:20.232409+05:30"},{"city":"Surat","state":"Gujarat","latitude":21.1702,"longitude":72.8311,"temp":36.9,"humidity":29,"rain":0.0,"pressure":1007.0,"uv_index":7.25,"wind_gusts":24.5,"aqi":151,"pm10":38.1,"pm2_5":36.4,"mosquito_risk":0,"arthritis_risk":5,"migraine_risk":7,"frizz_risk":0,"updated_at":"2026-03-08T15:03:20.232461+05:30"},{"city":"Vadodara","state":"Gujarat","latitude":22.3072,"longitude":73.1812,"temp":39.6,"humidity":20,"rain":0.0,"pressure":1005.3,"uv_index":7.35,"wind_gusts":16.6,"aqi":104,"pm10":10.2,"pm2_5":9.5,"mosquito_risk":0,"arthritis_risk":5,"migraine_risk":7,"frizz_risk":0,"updated_at":"2026-03-08T15:03:20.232472+05:30"},{"city":"Rajkot","state":"Gujarat","latitude":22.3039,"longitude":70.8022,"temp":35.8,"humidity":30,"rain":0.0,"pressure":996.2,"uv_index":7.15,"wind_gusts":20.9,"aqi":73,"pm10":24.9,"pm2_5":14.0,"mosquito_risk":0,"arthritis_risk":5,"migraine_risk":10,"frizz_risk":0,"updated_at":"2026-03-08T15:03:20.232480+05:30"},{"city":"Thane","state":"Maharashtra","latitude":19.2183,"longitude":72.9781,"temp":32.9,"humidity":51,"rain":0.0,"pressure":1007.4,"uv_index":7.5,"wind_gusts":33.1,"aqi":148,"pm10":52.5,"pm2_5":50.2,"mosquito_risk":0,"arthritis_risk":5,"migraine_risk":4,"frizz_risk":1,"updated_at":"2026-03-08T15:03:20.232487+05:30"},{"city":"Nagpur","state":"Maharashtra","latitude":21.1458,"longitude":79.0882,"temp":36.7,"humidity":18,"rain":0.0,"pressure":974.1,"uv_index":7.9,"wind_gusts":27.0,"aqi":85,"pm10":34.1,"pm2_5":22.4,"mosquito_risk":0,"arthritis_risk":5,"migraine_risk":10,"frizz_risk":0,"updated_at":"2026-03-08T15:03:20.232495+05:30"},{"city":"Nashik","state":"Maharashtra","latitude":19.9975,"longitude":73.7898,"temp":37.2,"humidity":17,"rain":0.0,"pressure":946.6,"uv_index":7.7,"wind_gusts":28.4,"aqi":86,"pm10":13.1,"pm2_5":12.2,"mosquito_risk":0,"arthritis_risk":5,"migraine_risk":10,"frizz_risk":0,"updated_at":"2026-03-08T15:03:20.232502+05:30"},{"city":"Aurangabad","state":"Maharashtra","latitude":19.8762,"longitude":75.3433,"temp":37.1,"humidity":15,"rain":0.0,"pressure":945.0,"uv_index":8.2,"wind_gusts":32.0,"aqi":85,"pm10":17.4,"pm2_5":11.5,"mosquito_risk":0,"arthritis_risk":5,"migraine_risk":10,"frizz_risk":0,"updated_at":"2026-03-08T15:03:20.232509+05:30"},{"city":"Solapur","state":"Maharashtra","latitude":17.6599,"longitude":75.9064,"temp":36.6,"humidity":20,"rain":0.0,"pressure":957.1,"uv_index":8.45,"wind_gusts":19.4,"aqi":94,"pm10":21.2,"pm2_5":15.8,"mosquito_risk":0,"arthritis_risk":5,"migraine_risk":10,"frizz_risk":0,"updated_at":"2026-03-08T15:03:20.232520+05:30"},{"city":"Kolhapur","state":"Maharashtra","latitude":16.705,"longitude":74.2433,"temp":36.4,"humidity":18,"rain":0.0,"pressure":947.6,"uv_index":8.6,"wind_gusts":34.6,"aqi":128,"pm10":26.3,"pm2_5":21.2,"mosquito_risk":0,"arthritis_risk":5,"migraine_risk":10,"frizz_risk":0,"updated_at":"2026-03-08T15:03:20.232527+05:30"},{"city":"Goa","state":"Goa","latitude":15.2993,"longitude":74.124,"temp":30.7,"humidity":65,"rain":0.0,"pressure":996.8,"uv_index":8.65,"wind_gusts":36.0,"aqi":132,"pm10":34.9,"pm2_5":32.2,"mosquito_risk":3,"arthritis_risk":5,"migraine_risk":7,"frizz_risk":1,"updated_at":"2026-03-08T15:03:20.232534+05:30"},{"city":"Jodhpur","state":"Rajasthan","latitude":26.2389,"longitude":73.0243,"temp":37.3,"humidity":17,"rain":0.0,"pressure":985.9,"uv_index":7.05,"wind_gusts":17.6,"aqi":64,"pm10":24.6,"pm2_5":7.3,"mosquito_risk":0,"arthritis_risk":5,"migraine_risk":10,"frizz_risk":0,"updated_at":"2026-03-08T15:03:20.232541+05:30"},{"city":"Udaipur","state":"Rajasthan","latitude":24.5854,"longitude":73.7125,"temp":36.3,"humidity":20,"rain":0.0,"pressure":949.8,"uv_index":7.7,"wind_gusts":17.6,"aqi":49,"pm10":5.2,"pm2_5":4.6,"mosquito_risk":0,"arthritis_risk":5,"migraine_risk":10,"frizz_risk":0,"updated_at":"2026-03-08T15:03:20.232548+05:30"},{"city":"Kota","state":"Rajasthan","latitude":25.2138,"longitude":75.8648,"temp":37.2,"humidity":18,"rain":0.0,"pressure":981.6,"uv_index":7.1,"wind_gusts":9.4,"aqi":89,"pm10":10.6,"pm2_5":9.2,"mosquito_risk":0,"arthritis_risk":5,"migraine_risk":10,"frizz_risk":0,"updated_at":"2026-03-08T15:03:20.232554+05:30"},{"city":"Bikaner","state":"Rajasthan","latitude":28.0229,"longitude":73.3119,"temp":36.3,"humidity":19,"rain":0.0,"pressure":984.9,"uv_index":6.75,"wind_gusts":18.0,"aqi":58,"pm10":119.7,"pm2_5":19.7,"mosquito_risk":0,"arthritis_risk":5,"migraine_risk":10,"frizz_risk":0,"updated_at":"2026-03-08T15:03:20.232561+05:30"},{"city":"Ajmer","state":"Rajasthan","latitude":26.4499,"longitude":74.6399,"temp":36.1,"humidity":13,"rain":0.0,"pressure":958.2,"uv_index":7.05,"wind_gusts":20.5,"aqi":68,"pm10":27.2,"pm2_5":7.9,"mosquito_risk":0,"arthritis_risk":5,"migraine_risk":10,"frizz_risk":0,"updated_at":"2026-03-08T15:03:20.232567+05:30"},{"city":"Gwalior","state":"Madhya Pradesh","latitude":26.2183,"longitude":78.1828,"temp":34.9,"humidity":23,"rain":0.0,"pressure":986.3,"uv_index":6.7,"wind_gusts":23.8,"aqi":98,"pm10":35.2,"pm2_5":14.2,"mosquito_risk":0,"arthritis_risk":5,"migraine_risk":7,"frizz_risk":0,"updated_at":"2026-03-08T15:03:20.232574+05:30"},{"city":"Indore","state":"Madhya Pradesh","latitude":22.7196,"longitude":75.8577,"temp":35.7,"humidity":17,"rain":0.0,"pressure":950.8,"uv_index":7.65,"wind_gusts":20.2,"aqi":76,"pm10":13.3,"pm2_5":11.5,"mosquito_risk":0,"arthritis_risk":5,"migraine_risk":10,"frizz_risk":0,"updated_at":"2026-03-08T15:03:20.232580+05:30"},{"city":"Bhopal","state":"Madhya Pradesh","latitude":23.2599,"longitude":77.4126,"temp":35.4,"humidity":20,"rain":0.0,"pressure":956.5,"uv_index":7.5,"wind_gusts":21.2,"aqi":69,"pm10":29.6,"pm2_5":13.6,"mosquito_risk":0,"arthritis_risk":5,"migraine_risk":10,"frizz_risk":0,"updated_at":"2026-03-08T15:03:20.232587+05:30"},{"city":"Jabalpur","state":"Madhya Pradesh","latitude":23.1815,"longitude":79.9864,"temp":33.6,"humidity":29,"rain":0.0,"pressure":963.8,"uv_index":7.6,"wind_gusts":25.2,"aqi":120,"pm10":66.6,"pm2_5":37.1,"mosquito_risk":0,"arthritis_risk":5,"migraine_risk":7,"frizz_risk":0,"updated_at":"2026-03-08T15:03:20.232593+05:30"},{"city":"Ujjain","state":"Madhya Pradesh","latitude":23.1765,"longitude":75.7885,"temp":35.2,"humidity":20,"rain":0.0,"pressure":956.6,"uv_index":7.55,"wind_gusts":15.8,"aqi":99,"pm10":14.1,"pm2_5":13.0,"mosquito_risk":0,"arthritis_risk":5,"migraine_risk":10,"frizz_risk":0,"updated_at":"2026-03-08T15:03:20.232601+05:30"},{"city":"Visakhapatnam","state":"Andhra Pradesh","latitude":17.6868,"longitude":83.2185,"temp":30.0,"humidity":60,"rain":0.0,"pressure":1005.0,"uv_index":8.2,"wind_gusts":37.4,"aqi":96,"pm10":36.3,"pm2_5":28.3,"mosquito_risk":4,"arthritis_risk":5,"migraine_risk":4,"frizz_risk":1,"updated_at":"2026-03-08T15:03:20.232608+05:30"},{"city":"Vijayawada","state":"Andhra Pradesh","latitude":16.5062,"longitude":80.648,"temp":34.3,"humidity":43,"rain":0.0,"pressure":1002.4,"uv_index":8.6,"wind_gusts":29.5,"aqi":99,"pm10":40.9,"pm2_5":31.1,"mosquito_risk":0,"arthritis_risk":5,"migraine_risk":4,"frizz_risk":1,"updated_at":"2026-03-08T15:03:20.232614+05:30"},{"city":"Guntur","state":"Andhra Pradesh","latitude":16.3067,"longitude":80.4365,"temp":33.5,"humidity":45,"rain":0.0,"pressure":1003.9,"uv_index":8.6,"wind_gusts":28.8,"aqi":97,"pm10":40.7,"pm2_5":30.6,"mosquito_risk":0,"arthritis_risk":5,"migraine_risk":4,"frizz_risk":1,"updated_at":"2026-03-08T15:03:20.232621+05:30"},{"city":"Nellore","state":"Andhra Pradesh","latitude":14.4426,"longitude":79.9865,"temp":33.1,"humidity":48,"rain":0.0,"pressure":1005.8,"uv_index":8.8,"wind_gusts":32.8,"aqi":88,"pm10":45.1,"pm2_5":33.6,"mosquito_risk":0,"arthritis_risk":5,"migraine_risk":4,"frizz_risk":1,"updated_at":"2026-03-08T15:03:20.232628+05:30"},{"city":"Kurnool","state":"Andhra Pradesh","latitude":15.8281,"longitude":78.0373,"temp":38.2,"humidity":17,"rain":0.0,"pressure":976.1,"uv_index":8.6,"wind_gusts":25.6,"aqi":106,"pm10":42.4,"pm2_5":30.6,"mosquito_risk":0,"arthritis_risk":5,"migraine_risk":10,"frizz_risk":0,"updated_at":"2026-03-08T15:03:20.232635+05:30"},{"city":"Kakinada","state":"Andhra Pradesh","latitude":16.9891,"longitude":82.2475,"temp":32.0,"humidity":52,"rain":0.0,"pressure":1008.0,"uv_index":8.55,"wind_gusts":34.6,"aqi":82,"pm10":34.8,"pm2_5":23.9,"mosquito_risk":0,"arthritis_risk":0,"migraine_risk":4,"frizz_risk":1,"updated_at":"2026-03-08T15:03:20.232641+05:30"},{"city":"Tirupati","state":"Andhra Pradesh","latitude":13.6288,"longitude":79.4192,"temp":35.1,"humidity":26,"rain":0.0,"pressure":990.7,"uv_index":8.95,"wind_gusts":33.1,"aqi":117,"pm10":44.9,"pm2_5":33.9,"mosquito_risk":0,"arthritis_risk":5,"migraine_risk":10,"frizz_risk":0,"updated_at":"2026-03-08T15:03:20.232648+05:30"},{"city":"Warangal","state":"Telangana","latitude":17.9689,"longitude":79.5941,"temp":34.4,"humidity":41,"rain":0.0,"pressure":978.9,"uv_index":8.35,"wind_gusts":27.7,"aqi":118,"pm10":50.5,"pm2_5":39.1,"mosquito_risk":0,"arthritis_risk":5,"migraine_risk":7,"frizz_risk":1,"updated_at":"2026-03-08T15:03:20.232655+05:30"},{"city":"Nizamabad","state":"Telangana","latitude":18.6725,"longitude":78.0941,"temp":35.6,"humidity":23,"rain":0.0,"pressure":965.5,"uv_index":8.25,"wind_gusts":33.8,"aqi":98,"pm10":33.5,"pm2_5":20.0,"mosquito_risk":0,"arthritis_risk":5,"migraine_risk":10,"frizz_risk":0,"updated_at":"2026-03-08T15:03:20.232661+05:30"},{"city":"Mysore","state":"Karnataka","latitude":12.2958,"longitude":76.6396,"temp":33.4,"humidity":27,"rain":0.0,"pressure":928.2,"uv_index":9.25,"wind_gusts":33.5,"aqi":131,"pm10":39.0,"pm2_5":31.1,"mosquito_risk":0,"arthritis_risk":5,"migraine_risk":7,"frizz_risk":0,"updated_at":"2026-03-08T15:03:20.232667+05:30"},{"city":"Mangalore","state":"Karnataka","latitude":12.9141,"longitude":74.856,"temp":28.6,"humidity":78,"rain":0.0,"pressure":1005.3,"uv_index":8.85,"wind_gusts":24.8,"aqi":110,"pm10":40.6,"pm2_5":36.8,"mosquito_risk":7,"arthritis_risk":5,"migraine_risk":4,"frizz_risk":1,"updated_at":"2026-03-08T15:03:20.232674+05:30"},{"city":"Hubli-Dharwad","state":"Karnataka","latitude":15.3647,"longitude":75.124,"temp":36.8,"humidity":17,"rain":0.0,"pressure":940.3,"uv_index":8.8,"wind_gusts":25.6,"aqi":101,"pm10":30.7,"pm2_5":24.6,"mosquito_risk":0,"arthritis_risk":5,"migraine_risk":10,"frizz_risk":0,"updated_at":"2026-03-08T15:03:20.232681+05:30"},{"city":"Belgaum","state":"Karnataka","latitude":15.8497,"longitude":74.4977,"temp":36.2,"humidity":17,"rain":0.0,"pressure":925.7,"uv_index":8.85,"wind_gusts":33.8,"aqi":122,"pm10":26.1,"pm2_5":21.4,"mosquito_risk":0,"arthritis_risk":5,"migraine_risk":10,"frizz_risk":0,"updated_at":"2026-03-08T15:03:23.516284+05:30"},{"city":"Coimbatore","state":"Tamil Nadu","latitude":11.0168,"longitude":76.9558,"temp":34.6,"humidity":27,"rain":0.0,"pressure":960.7,"uv_index":9.2,"wind_gusts":38.5,"aqi":130,"pm10":36.2,"pm2_5":28.4,"mosquito_risk":0,"arthritis_risk":5,"migraine_risk":7,"frizz_risk":0,"updated_at":"2026-03-08T15:03:23.516318+05:30"},{"city":"Madurai","state":"Tamil Nadu","latitude":9.9252,"longitude":78.1198,"temp":35.4,"humidity":31,"rain":0.0,"pressure":991.7,"uv_index":9.15,"wind_gusts":32.0,"aqi":101,"pm10":42.7,"pm2_5":33.2,"mosquito_risk":0,"arthritis_risk":5,"migraine_risk":10,"frizz_risk":0,"updated_at":"2026-03-08T15:03:23.516330+05:30"},{"city":"Trichy","state":"Tamil Nadu","latitude":10.7905,"longitude":78.7047,"temp":35.4,"humidity":37,"rain":0.0,"pressure":998.8,"uv_index":9.05,"wind_gusts":27.4,"aqi":97,"pm10":44.7,"pm2_5":33.2,"mosquito_risk":0,"arthritis_risk":5,"migraine_risk":10,"frizz_risk":1,"updated_at":"2026-03-08T15:03:23.516341+05:30"},{"city":"Salem","state":"Tamil Nadu","latitude":11.6643,"longitude":78.146,"temp":35.6,"humidity":29,"rain":0.0,"pressure":976.1,"uv_index":9.1,"wind_gusts":21.2,"aqi":107,"pm10":46.0,"pm2_5":35.9,"mosquito_risk":0,"arthritis_risk":5,"migraine_risk":10,"frizz_risk":0,"updated_at":"2026-03-08T15:03:23.516350+05:30"},{"city":"Tirunelveli","state":"Tamil Nadu","latitude":8.7139,"longitude":77.7567,"temp":34.7,"humidity":38,"rain":0.0,"pressure":1002.3,"uv_index":9.15,"wind_gusts":36.0,"aqi":107,"pm10":41.3,"pm2_5":32.6,"mosquito_risk":0,"arthritis_risk":5,"migraine_risk":4,"frizz_risk":1,"updated_at":"2026-03-08T15:03:23.516359+05:30"},{"city":"Vellore","state":"Tamil Nadu","latitude":12.9165,"longitude":79.1325,"temp":34.9,"humidity":25,"rain":0.0,"pressure":984.0,"uv_index":9.0,"wind_gusts":37.8,"aqi":139,"pm10":49.1,"pm2_5":38.2,"mosquito_risk":0,"arthritis_risk":5,"migraine_risk":7,"frizz_risk":0,"updated_at":"2026-03-08T15:03:23.516365+05:30"},{"city":"Erode","state":"Tamil Nadu","latitude":11.341,"longitude":77.7172,"temp":36.4,"humidity":28,"rain":0.0,"pressure":987.7,"uv_index":9.1,"wind_gusts":20.9,"aqi":90,"pm10":41.9,"pm2_5":33.1,"mosquito_risk":0,"arthritis_risk":5,"migraine_risk":10,"frizz_risk":0,"updated_at":"2026-03-08T15:03:23.516372+05:30"},{"city":"Kochi","state":"Kerala","latitude":9.9312,"longitude":76.2673,"temp":28.7,"humidity":80,"rain":0.0,"pressure":1007.1,"uv_index":8.9,"wind_gusts":35.6,"aqi":140,"pm10":47.5,"pm2_5":43.5,"mosquito_risk":7,"arthritis_risk":5,"migraine_risk":4,"frizz_risk":1,"updated_at":"2026-03-08T15:03:23.516379+05:30"},{"city":"Thiruvananthapuram","state":"Kerala","latitude":8.5241,"longitude":76.9366,"temp":28.6,"humidity":79,"rain":0.0,"pressure":1006.5,"uv_index":9.05,"wind_gusts":27.7,"aqi":84,"pm10":29.2,"pm2_5":27.3,"mosquito_risk":7,"arthritis_risk":5,"migraine_risk":4,"frizz_risk":1,"updated_at":"2026-03-08T15:03:23.516386+05:30"},{"city":"Kozhikode","state":"Kerala","latitude":11.2588,"longitude":75.7804,"temp":29.9,"humidity":72,"rain":0.0,"pressure":1006.7,"uv_index":8.95,"wind_gusts":28.1,"aqi":91,"pm10":23.5,"pm2_5":21.9,"mosquito_risk":7,"arthritis_risk":5,"migraine_risk":4,"frizz_risk":1,"updated_at":"2026-03-08T15:03:23.516393+05:30"},{"city":"Thrissur","state":"Kerala","latitude":10.5276,"longitude":76.2144,"temp":32.6,"humidity":61,"rain":0.0,"pressure":1005.5,"uv_index":9.0,"wind_gusts":37.8,"aqi":131,"pm10":40.5,"pm2_5":35.2,"mosquito_risk":3,"arthritis_risk":5,"migraine_risk":4,"frizz_risk":1,"updated_at":"2026-03-08T15:03:23.516401+05:30"},{"city":"Kannur","state":"Kerala","latitude":11.8745,"longitude":75.3704,"temp":30.7,"humidity":69,"rain":0.0,"pressure":1006.1,"uv_index":8.9,"wind_gusts":28.8,"aqi":111,"pm10":31.5,"pm2_5":29.2,"mosquito_risk":3,"arthritis_risk":5,"migraine_risk":4,"frizz_risk":1,"updated_at":"2026-03-08T15:03:23.516408+05:30"},{"city":"Patna","state":"Bihar","latitude":25.5941,"longitude":85.1376,"temp":32.1,"humidity":44,"rain":0.0,"pressure":1003.0,"uv_index":7.35,"wind_gusts":18.0,"aqi":172,"pm10":96.2,"pm2_5":80.8,"mosquito_risk":0,"arthritis_risk":5,"migraine_risk":4,"frizz_risk":1,"updated_at":"2026-03-08T15:03:23.516415+05:30"},{"city":"Gaya","state":"Bihar","latitude":24.7914,"longitude":85.0002,"temp":31.6,"humidity":52,"rain":0.0,"pressure":996.0,"uv_index":7.45,"wind_gusts":18.7,"aqi":159,"pm10":84.3,"pm2_5":71.0,"mosquito_risk":0,"arthritis_risk":5,"migraine_risk":7,"frizz_risk":1,"updated_at":"2026-03-08T15:03:23.516438+05:30"},{"city":"Muzaffarpur","state":"Bihar","latitude":26.1209,"longitude":85.3647,"temp":31.5,"humidity":45,"rain":0.0,"pressure":1003.4,"uv_index":7.3,"wind_gusts":19.1,"aqi":175,"pm10":95.7,"pm2_5":81.0,"mosquito_risk":0,"arthritis_risk":5,"migraine_risk":4,"frizz_risk":1,"updated_at":"2026-03-08T15:03:23.516446+05:30"},{"city":"Bhagalpur","state":"Bihar","latitude":25.2425,"longitude":87.0117,"temp":30.7,"humidity":50,"rain":0.0,"pressure":1004.1,"uv_index":7.35,"wind_gusts":15.8,"aqi":162,"pm10":97.6,"pm2_5":74.7,"mosquito_risk":0,"arthritis_risk":5,"migraine_risk":4,"frizz_risk":1,"updated_at":"2026-03-08T15:03:23.516452+05:30"},{"city":"Ranchi","state":"Jharkhand","latitude":23.3441,"longitude":85.3096,"temp":31.5,"humidity":32,"rain":0.0,"pressure":939.7,"uv_index":8.1,"wind_gusts":23.0,"aqi":160,"pm10":93.8,"pm2_5":68.5,"mosquito_risk":0,"arthritis_risk":5,"migraine_risk":7,"frizz_risk":0,"updated_at":"2026-03-08T15:03:23.516459+05:30"},{"city":"Jamshedpur","state":"Jharkhand","latitude":22.8046,"longitude":86.2029,"temp":32.4,"humidity":46,"rain":0.0,"pressure":992.4,"uv_index":8.0,"wind_gusts":23.8,"aqi":155,"pm10":99.0,"pm2_5":79.2,"mosquito_risk":0,"arthritis_risk":5,"migraine_risk":7,"frizz_risk":1,"updated_at":"2026-03-08T15:03:23.516465+05:30"},{"city":"Dhanbad","state":"Jharkhand","latitude":23.7957,"longitude":86.4304,"temp":32.3,"humidity":37,"rain":0.0,"pressure":981.9,"uv_index":7.85,"wind_gusts":22.7,"aqi":167,"pm10":104.1,"pm2_5":85.9,"mosquito_risk":0,"arthritis_risk":5,"migraine_risk":7,"frizz_risk":0,"updated_at":"2026-03-08T15:03:23.516472+05:30"},{"city":"Bokaro","state":"Jharkhand","latitude":23.6693,"longitude":86.1511,"temp":31.5,"humidity":43,"rain":0.0,"pressure":986.0,"uv_index":7.85,"wind_gusts":20.5,"aqi":169,"pm10":99.2,"pm2_5":79.9,"mosquito_risk":0,"arthritis_risk":5,"migraine_risk":7,"frizz_risk":1,"updated_at":"2026-03-08T15:03:23.516479+05:30"},{"city":"Bhubaneswar","state":"Odisha","latitude":20.2961,"longitude":85.8245,"temp":31.9,"humidity":51,"rain":0.0,"pressure":1004.2,"uv_index":8.2,"wind_gusts":33.1,"aqi":127,"pm10":49.2,"pm2_5":36.6,"mosquito_risk":0,"arthritis_risk":5,"migraine_risk":4,"frizz_risk":1,"updated_at":"2026-03-08T15:03:23.516486+05:30"},{"city":"Cuttack","state":"Odisha","latitude":20.4625,"longitude":85.8828,"temp":33.0,"humidity":47,"rain":0.0,"pressure":1005.8,"uv_index":8.3,"wind_gusts":28.4,"aqi":127,"pm10":49.2,"pm2_5":36.6,"mosquito_risk":0,"arthritis_risk":5,"migraine_risk":4,"frizz_risk":1,"updated_at":"2026-03-08T15:03:23.516492+05:30"},{"city":"Rourkela","state":"Odisha","latitude":22.2604,"longitude":84.8536,"temp":35.3,"humidity":29,"rain":0.0,"pressure":985.9,"uv_index":7.9,"wind_gusts":28.4,"aqi":164,"pm10":109.2,"pm2_5":77.5,"mosquito_risk":0,"arthritis_risk":5,"migraine_risk":10,"frizz_risk":0,"updated_at":"2026-03-08T15:03:23.516498+05:30"},{"city":"Raipur","state":"Chhattisgarh","latitude":21.2514,"longitude":81.6296,"temp":36.0,"humidity":23,"rain":0.0,"pressure":975.4,"uv_index":8.0,"wind_gusts":23.4,"aqi":155,"pm10":80.1,"pm2_5":61.5,"mosquito_risk":0,"arthritis_risk":5,"migraine_risk":10,"frizz_risk":0,"updated_at":"2026-03-08T15:03:23.516505+05:30"},{"city":"Bhilai","state":"Chhattisgarh","latitude":21.1938,"longitude":81.3509,"temp":36.4,"humidity":22,"rain":0.0,"pressure":975.7,"uv_index":8.0,"wind_gusts":23.4,"aqi":152,"pm10":70.8,"pm2_5":54.5,"mosquito_risk":0,"arthritis_risk":5,"migraine_risk":10,"frizz_risk":0,"updated_at":"2026-03-08T15:03:23.516511+05:30"},{"city":"Guwahati","state":"Assam","latitude":26.1158,"longitude":91.7086,"temp":30.7,"humidity":44,"rain":0.0,"pressure":1003.6,"uv_index":7.3,"wind_gusts":22.3,"aqi":153,"pm10":68.9,"pm2_5":52.5,"mosquito_risk":0,"arthritis_risk":5,"migraine_risk":4,"frizz_risk":1,"updated_at":"2026-03-08T15:03:23.516518+05:30"},{"city":"Agartala","state":"Tripura","latitude":23.8315,"longitude":91.2868,"temp":29.7,"humidity":53,"rain":0.0,"pressure":1008.9,"uv_index":7.6,"wind_gusts":18.7,"aqi":153,"pm10":60.8,"pm2_5":48.0,"mosquito_risk":4,"arthritis_risk":0,"migraine_risk":4,"frizz_risk":1,"updated_at":"2026-03-08T15:03:23.516525+05:30"},{"city":"Shillong","state":"Meghalaya","latitude":25.5788,"longitude":91.8933,"temp":17.3,"humidity":56,"rain":0.0,"pressure":858.6,"uv_index":7.35,"wind_gusts":26.6,"aqi":127,"pm10":47.6,"pm2_5":37.1,"mosquito_risk":0,"arthritis_risk":5,"migraine_risk":7,"frizz_risk":0,"updated_at":"2026-03-08T15:03:23.516531+05:30"},{"city":"Imphal","state":"Manipur","latitude":24.817,"longitude":93.9368,"temp":24.1,"humidity":53,"rain":0.0,"pressure":925.2,"uv_index":7.9,"wind_gusts":35.6,"aqi":161,"pm10":58.2,"pm2_5":51.1,"mosquito_risk":0,"arthritis_risk":5,"migraine_risk":7,"frizz_risk":0,"updated_at":"2026-03-08T15:03:23.516538+05:30"},{"city":"Aizawl","state":"Mizoram","latitude":23.7271,"longitude":92.7176,"temp":24.8,"humidity":49,"rain":0.0,"pressure":895.4,"uv_index":7.85,"wind_gusts":31.3,"aqi":154,"pm10":59.1,"pm2_5":50.3,"mosquito_risk":0,"arthritis_risk":5,"migraine_risk":7,"frizz_risk":0,"updated_at":"2026-03-08T15:03:23.516545+05:30"},{"city":"Kohima","state":"Nagaland","latitude":25.6701,"longitude":94.1077,"temp":17.8,"humidity":76,"rain":0.0,"pressure":857.3,"uv_index":7.0,"wind_gusts":49.3,"aqi":162,"pm10":79.2,"pm2_5":70.5,"mosquito_risk":3,"arthritis_risk":5,"migraine_risk":7,"frizz_risk":0,"updated_at":"2026-03-08T15:03:23.516551+05:30"},{"city":"Gangtok","state":"Sikkim","latitude":27.3314,"longitude":88.6138,"temp":17.3,"humidity":69,"rain":0.0,"pressure":840.6,"uv_index":5.1,"wind_gusts":15.1,"aqi":157,"pm10":49.2,"pm2_5":38.0,"mosquito_risk":3,"arthritis_risk":5,"migraine_risk":3,"frizz_risk":0,"updated_at":"2026-03-08T15:03:23.516558+05:30"},{"city":"Siliguri","state":"West Bengal","latitude":26.7271,"longitude":88.3953,"temp":24.1,"humidity":62,"rain":0.0,"pressure":997.8,"uv_index":7.3,"wind_gusts":16.6,"aqi":158,"pm10":73.1,"pm2_5":52.9,"mosquito_risk":3,"arthritis_risk":5,"migraine_risk":7,"frizz_risk":1,"updated_at":"2026-03-08T15:03:26.797823+05:30"},{"city":"Durgapur","state":"West Bengal","latitude":23.5204,"longitude":87.3119,"temp":32.4,"humidity":39,"rain":0.0,"pressure":997.4,"uv_index":7.85,"wind_gusts":20.9,"aqi":160,"pm10":102.2,"pm2_5":86.1,"mosquito_risk":0,"arthritis_risk":5,"migraine_risk":7,"frizz_risk":1,"updated_at":"2026-03-08T15:03:26.797852+05:30"},{"city":"Asansol","state":"West Bengal","latitude":23.6739,"longitude":86.9524,"temp":32.8,"humidity":37,"rain":0.0,"pressure":995.7,"uv_index":7.85,"wind_gusts":19.8,"aqi":159,"pm10":97.3,"pm2_5":81.3,"mosquito_risk":0,"arthritis_risk":5,"migraine_risk":7,"frizz_risk":1,"updated_at":"2026-03-08T15:03:26.797862+05:30"},{"city":"Pondicherry","state":"Puducherry","latitude":11.9139,"longitude":79.8145,"temp":33.6,"humidity":49,"rain":0.0,"pressure":1008.1,"uv_index":8.95,"wind_gusts":32.0,"aqi":76,"pm10":34.7,"pm2_5":21.8,"mosquito_risk":0,"arthritis_risk":0,"migraine_risk":4,"frizz_risk":1,"updated_at":"2026-03-08T15:03:26.797870+05:30"},{"city":"Port Blair","state":"Andaman and Nicobar Islands","latitude":11.6234,"longitude":92.7265,"temp":26.8,"humidity":80,"rain":0.0,"pressure":1007.8,"uv_index":8.9,"wind_gusts":27.0,"aqi":88,"pm10":35.9,"pm2_5":27.2,"mosquito_risk":7,"arthritis_risk":5,"migraine_risk":4,"frizz_risk":1,"updated_at":"2026-03-08T15:03:26.797878+05:30"},{"city":"Haridwar","state":"Uttarakhand","latitude":29.9457,"longitude":78.1642,"temp":32.5,"humidity":43,"rain":0.0,"pressure":976.6,"uv_index":5.8,"wind_gusts":28.4,"aqi":160,"pm10":73.6,"pm2_5":53.0,"mosquito_risk":0,"arthritis_risk":5,"migraine_risk":3,"frizz_risk":1,"updated_at":"2026-03-08T15:03:26.797885+05:30"},{"city":"Rishikesh","state":"Uttarakhand","latitude":30.0869,"longitude":78.2676,"temp":31.3,"humidity":47,"rain":0.0,"pressure":969.6,"uv_index":5.85,"wind_gusts":24.8,"aqi":158,"pm10":69.2,"pm2_5":46.4,"mosquito_risk":0,"arthritis_risk":5,"migraine_risk":3,"frizz_risk":1,"updated_at":"2026-03-08T15:03:26.797892+05:30"},{"city":"Nainital","state":"Uttarakhand","latitude":29.3919,"longitude":79.4542,"temp":23.0,"humidity":62,"rain":0.0,"pressure":810.5,"uv_index":6.65,"wind_gusts":67.3,"aqi":157,"pm10":86.4,"pm2_5":57.7,"mosquito_risk":3,"arthritis_risk":5,"migraine_risk":7,"frizz_risk":0,"updated_at":"2026-03-08T15:03:26.797899+05:30"},{"city":"Mussoorie","state":"Uttarakhand","latitude":30.4599,"longitude":78.0664,"temp":23.1,"humidity":55,"rain":0.0,"pressure":807.6,"uv_index":6.2,"wind_gusts":47.5,"aqi":157,"pm10":71.9,"pm2_5":53.8,"mosquito_risk":0,"arthritis_risk":5,"migraine_risk":7,"frizz_risk":0,"updated_at":"2026-03-08T15:03:26.797906+05:30"},{"city":"Dharamshala","state":"Himachal Pradesh","latitude":32.219,"longitude":76.3234,"temp":27.3,"humidity":36,"rain":0.0,"pressure":874.2,"uv_index":6.4,"wind_gusts":27.4,"aqi":61,"pm10":34.8,"pm2_5":13.4,"mosquito_risk":4,"arthritis_risk":5,"migraine_risk":7,"frizz_risk":0,"updated_at":"2026-03-08T15:03:26.797913+05:30"},{"city":"Dalhousie","state":"Himachal Pradesh","latitude":32.5387,"longitude":75.971,"temp":26.7,"humidity":28,"rain":0.0,"pressure":810.5,"uv_index":6.65,"wind_gusts":26.3,"aqi":107,"pm10":42.7,"pm2_5":22.1,"mosquito_risk":4,"arthritis_risk":5,"migraine_risk":7,"frizz_risk":0,"updated_at":"2026-03-08T15:03:26.797920+05:30"},{"city":"Patiala","state":"Punjab","latitude":30.3398,"longitude":76.3869,"temp":33.5,"humidity":37,"rain":0.0,"pressure":981.0,"uv_index":5.65,"wind_gusts":29.2,"aqi":166,"pm10":348.3,"pm2_5":71.7,"mosquito_risk":0,"arthritis_risk":5,"migraine_risk":3,"frizz_risk":1,"updated_at":"2026-03-08T15:03:26.797927+05:30"},{"city":"Bhatinda","state":"Punjab","latitude":30.211,"longitude":74.9455,"temp":34.6,"humidity":33,"rain":0.0,"pressure":987.0,"uv_index":6.5,"wind_gusts":17.3,"aqi":151,"pm10":85.9,"pm2_5":38.3,"mosquito_risk":0,"arthritis_risk":5,"migraine_risk":7,"frizz_risk":0,"updated_at":"2026-03-08T15:03:26.797934+05:30"},{"city":"Rohtak","state":"Haryana","latitude":28.8955,"longitude":76.6066,"temp":34.3,"humidity":30,"rain":0.0,"pressure":984.7,"uv_index":6.05,"wind_gusts":20.9,"aqi":169,"pm10":263.6,"pm2_5":40.5,"mosquito_risk":0,"arthritis_risk":5,"migraine_risk":7,"frizz_risk":0,"updated_at":"2026-03-08T15:03:26.797940+05:30"},{"city":"Panipat","state":"Haryana","latitude":29.3909,"longitude":76.9635,"temp":34.1,"humidity":34,"rain":0.0,"pressure":983.1,"uv_index":5.8,"wind_gusts":28.1,"aqi":168,"pm10":510.4,"pm2_5":66.6,"mosquito_risk":0,"arthritis_risk":5,"migraine_risk":3,"frizz_risk":1,"updated_at":"2026-03-08T15:03:26.797947+05:30"},{"city":"Mathura","state":"Uttar Pradesh","latitude":27.4924,"longitude":77.6737,"temp":36.1,"humidity":24,"rain":0.0,"pressure":989.5,"uv_index":6.3,"wind_gusts":22.3,"aqi":156,"pm10":252.4,"pm2_5":41.0,"mosquito_risk":0,"arthritis_risk":5,"migraine_risk":10,"frizz_risk":0,"updated_at":"2026-03-08T15:03:26.797954+05:30"},{"city":"Vrindavan","state":"Uttar Pradesh","latitude":27.5823,"longitude":77.7027,"temp":35.5,"humidity":26,"rain":0.0,"pressure":990.0,"uv_index":6.25,"wind_gusts":23.0,"aqi":156,"pm10":252.4,"pm2_5":41.0,"mosquito_risk":0,"arthritis_risk":5,"migraine_risk":10,"frizz_risk":0,"updated_at":"2026-03-08T15:03:26.797960+05:30"},{"city":"Ayodhya","state":"Uttar Pradesh","latitude":26.7922,"longitude":82.1998,"temp":31.9,"humidity":45,"rain":0.0,"pressure":998.3,"uv_index":6.65,"wind_gusts":10.4,"aqi":183,"pm10":99.2,"pm2_5":76.8,"mosquito_risk":0,"arthritis_risk":5,"migraine_risk":7,"frizz_risk":1,"updated_at":"2026-03-08T15:03:26.797966+05:30"},{"city":"Ratlam","state":"Madhya Pradesh","latitude":23.3315,"longitude":75.0367,"temp":35.4,"humidity":26,"rain":0.0,"pressure":957.2,"uv_index":7.5,"wind_gusts":19.1,"aqi":92,"pm10":12.0,"pm2_5":11.5,"mosquito_risk":0,"arthritis_risk":5,"migraine_risk":10,"frizz_risk":0,"updated_at":"2026-03-08T15:03:26.797973+05:30"},{"city":"Sagar","state":"Madhya Pradesh","latitude":23.8388,"longitude":78.7378,"temp":34.6,"humidity":26,"rain":0.0,"pressure":952.9,"uv_index":7.45,"wind_gusts":21.6,"aqi":81,"pm10":35.9,"pm2_5":16.5,"mosquito_risk":0,"arthritis_risk":5,"migraine_risk":7,"frizz_risk":0,"updated_at":"2026-03-08T15:03:26.797980+05:30"},{"city":"Satna","state":"Madhya Pradesh","latitude":24.6005,"longitude":80.8322,"temp":35.0,"humidity":24,"rain":0.0,"pressure":973.8,"uv_index":7.4,"wind_gusts":27.4,"aqi":160,"pm10":72.2,"pm2_5":47.7,"mosquito_risk":0,"arthritis_risk":5,"migraine_risk":7,"frizz_risk":0,"updated_at":"2026-03-08T15:03:26.797986+05:30"},{"city":"Akola","state":"Maharashtra","latitude":20.7002,"longitude":77.0082,"temp":38.1,"humidity":16,"rain":0.0,"pressure":975.8,"uv_index":7.95,"wind_gusts":15.5,"aqi":78,"pm10":25.3,"pm2_5":14.8,"mosquito_risk":0,"arthritis_risk":5,"migraine_risk":10,"frizz_risk":0,"updated_at":"2026-03-08T15:03:26.797993+05:30"},{"city":"Amravati","state":"Maharashtra","latitude":20.9374,"longitude":77.7796,"temp":37.8,"humidity":18,"rain":0.0,"pressure":968.2,"uv_index":7.9,"wind_gusts":21.6,"aqi":79,"pm10":25.0,"pm2_5":14.3,"mosquito_risk":0,"arthritis_risk":5,"migraine_risk":10,"frizz_risk":0,"updated_at":"2026-03-08T15:03:26.798000+05:30"},{"city":"Latur","state":"Maharashtra","latitude":18.4088,"longitude":76.5604,"temp":35.8,"humidity":20,"rain":0.0,"pressure":940.5,"uv_index":8.4,"wind_gusts":23.8,"aqi":108,"pm10":22.7,"pm2_5":18.2,"mosquito_risk":0,"arthritis_risk":5,"migraine_risk":10,"frizz_risk":0,"updated_at":"2026-03-08T15:03:26.798007+05:30"},{"city":"Nanded","state":"Maharashtra","latitude":19.1383,"longitude":77.3091,"temp":38.2,"humidity":18,"rain":0.0,"pressure":968.9,"uv_index":8.15,"wind_gusts":25.2,"aqi":89,"pm10":27.6,"pm2_5":16.8,"mosquito_risk":0,"arthritis_risk":5,"migraine_risk":10,"frizz_risk":0,"updated_at":"2026-03-08T15:03:26.798013+05:30"},{"city":"Gulbarga","state":"Karnataka","latitude":17.3297,"longitude":76.8343,"temp":38.3,"humidity":16,"rain":0.0,"pressure":958.5,"uv_index":8.5,"wind_gusts":28.8,"aqi":99,"pm10":28.9,"pm2_5":20.4,"mosquito_risk":0,"arthritis_risk":5,"migraine_risk":10,"frizz_risk":0,"updated_at":"2026-03-08T15:03:26.798019+05:30"},{"city":"Bidar","state":"Karnataka","latitude":17.9104,"longitude":77.5199,"temp":36.0,"humidity":18,"rain":0.0,"pressure":936.2,"uv_index":8.4,"wind_gusts":29.2,"aqi":110,"pm10":29.2,"pm2_5":19.4,"mosquito_risk":0,"arthritis_risk":5,"migraine_risk":10,"frizz_risk":0,"updated_at":"2026-03-08T15:03:26.798026+05:30"},{"city":"Hospet","state":"Karnataka","latitude":15.2689,"longitude":76.3909,"temp":36.3,"humidity":20,"rain":0.0,"pressure":955.2,"uv_index":8.75,"wind_gusts":24.5,"aqi":111,"pm10":37.0,"pm2_5":27.2,"mosquito_risk":0,"arthritis_risk":5,"migraine_risk":10,"frizz_risk":0,"updated_at":"2026-03-08T15:03:26.798032+05:30"},{"city":"Tirupur","state":"Tamil Nadu","latitude":11.1085,"longitude":77.3411,"temp":36.2,"humidity":25,"rain":0.0,"pressure":974.1,"uv_index":9.2,"wind_gusts":30.2,"aqi":117,"pm10":41.6,"pm2_5":32.8,"mosquito_risk":0,"arthritis_risk":5,"migraine_risk":10,"frizz_risk":0,"updated_at":"2026-03-08T15:03:26.798038+05:30"},{"city":"Alappuzha","state":"Kerala","latitude":9.4981,"longitude":76.3388,"temp":28.7,"humidity":80,"rain":0.0,"pressure":1007.2,"uv_index":8.95,"wind_gusts":29.2,"aqi":124,"pm10":47.4,"pm2_5":44.2,"mosquito_risk":7,"arthritis_risk":5,"migraine_risk":4,"frizz_risk":1,"updated_at":"2026-03-08T15:03:26.798045+05:30"},{"city":"Munnar","state":"Kerala","latitude":10.0889,"longitude":77.0595,"temp":29.4,"humidity":41,"rain":0.0,"pressure":858.3,"uv_index":9.5,"wind_gusts":24.5,"aqi":105,"pm10":39.0,"pm2_5":29.5,"mosquito_risk":4,"arthritis_risk":5,"migraine_risk":7,"frizz_risk":0,"updated_at":"2026-03-08T15:03:26.798052+05:30"},{"city":"Silchar","state":"Assam","latitude":24.8333,"longitude":92.7789,"temp":31.7,"humidity":45,"rain":0.0,"pressure":1006.3,"uv_index":7.6,"wind_gusts":20.9,"aqi":163,"pm10":66.4,"pm2_5":56.0,"mosquito_risk":0,"arthritis_risk":5,"migraine_risk":4,"frizz_risk":1,"updated_at":"2026-03-08T15:03:26.798058+05:30"},{"city":"Dibrugarh","state":"Assam","latitude":27.4728,"longitude":94.912,"temp":28.9,"humidity":55,"rain":0.0,"pressure":997.8,"uv_index":6.3,"wind_gusts":20.5,"aqi":164,"pm10":96.2,"pm2_5":76.4,"mosquito_risk":4,"arthritis_risk":5,"migraine_risk":7,"frizz_risk":1,"updated_at":"2026-03-08T15:03:26.798065+05:30"}]