[{"city":"Delhi","state":"Delhi","latitude":28.6139,"longitude":77.209,"temp":21.3,"humidity":70,"rain":0.0,"pressure":986.5,"uv_index":6.35,"wind_gusts":21.6,"aqi":174,"pm10":264.5,"pm2_5":67.5,"mosquito_risk":3,"arthritis_risk":5,"migraine_risk":7,"frizz_risk":0,"updated_at":"2026-03-26T04:10:17.001436+05:30"},{"city":"Mumbai","state":"Maharashtra","latitude":19.076,"longitude":72.8777,"temp":28.0,"humidity":80,"rain":0.0,"pressure":1008.5,"uv_index":7.95,"wind_gusts":27.7,"aqi":79,"pm10":35.5,"pm2_5":19.4,"mosquito_risk":7,"arthritis_risk":0,"migraine_risk":4,"frizz_risk":1,"updated_at":"2026-03-26T04:10:17.001477+05:30"},{"city":"Bangalore","state":"Karnataka","latitude":12.9716,"longitude":77.5946,"temp":21.5,"humidity":75,"rain":0.0,"pressure":911.0,"uv_index":9.45,"wind_gusts":35.6,"aqi":73,"pm10":29.6,"pm2_5":26.7,"mosquito_risk":3,"arthritis_risk":5,"migraine_risk":7,"frizz_risk":1,"updated_at":"2026-03-26T04:10:17.001494+05:30"},{"city":"Hyderabad","state":"Telangana","latitude":17.385,"longitude":78.4867,"temp":23.9,"humidity":75,"rain":0.0,"pressure":953.4,"uv_index":9.0,"wind_gusts":30.2,"aqi":97,"pm10":37.7,"pm2_5":30.4,"mosquito_risk":3,"arthritis_risk":5,"migraine_risk":7,"frizz_risk":1,"updated_at":"2026-03-26T04:10:17.001521+05:30"},{"city":"Chennai","state":"Tamil Nadu","latitude":13.0827,"longitude":80.2707,"temp":26.5,"humidity":81,"rain":0.0,"pressure":1008.0,"uv_index":9.2,"wind_gusts":30.2,"aqi":52,"pm10":24.9,"pm2_5":16.9,"mosquito_risk":7,"arthritis_risk":0,"migraine_risk":4,"frizz_risk":1,"updated_at":"2026-03-26T04:10:17.001536+05:30"},{"city":"Kolkata","state":"West Bengal","latitude":22.5726,"longitude":88.3639,"temp":24.6,"humidity":96,"rain":0.0,"pressure":1008.6,"uv_index":8.45,"wind_gusts":19.4,"aqi":94,"pm10":47.4,"pm2_5":39.7,"mosquito_risk":3,"arthritis_risk":0,"migraine_risk":4,"frizz_risk":1,"updated_at":"2026-03-26T04:10:17.001546+05:30"},{"city":"Pune","state":"Maharashtra","latitude":18.5204,"longitude":73.8567,"temp":24.4,"humidity":88,"rain":0.0,"pressure":948.6,"uv_index":8.5,"wind_gusts":31.7,"aqi":95,"pm10":50.8,"pm2_5":41.7,"mosquito_risk":3,"arthritis_risk":5,"migraine_risk":7,"frizz_risk":1,"updated_at":"2026-03-26T04:10:17.001554+05:30"},{"city":"Ahmedabad","state":"Gujarat","latitude":23.0225,"longitude":72.5714,"temp":23.7,"humidity":65,"rain":0.0,"pressure":1003.7,"uv_index":7.9,"wind_gusts":22.7,"aqi":62,"pm10":24.3,"pm2_5":19.3,"mosquito_risk":3,"arthritis_risk":5,"migraine_risk":4,"frizz_risk":1,"updated_at":"2026-03-26T04:10:17.001563+05:30"},{"city":"Jaipur","state":"Rajasthan","latitude":26.9124,"longitude":75.7873,"temp":23.1,"humidity":52,"rain":0.0,"pressure":962.2,"uv_index":7.35,"wind_gusts":30.2,"aqi":107,"pm10":121.5,"pm2_5":30.6,"mosquito_risk":0,"arthritis_risk":5,"migraine_risk":7,"frizz_risk":0,"updated_at":"2026-03-26T04:10:17.001570+05:30"},{"city":"Lucknow","state":"Uttar Pradesh","latitude":26.8467,"longitude":80.9462,"temp":20.9,"humidity":63,"rain":0.0,"pressure":996.5,"uv_index":7.15,"wind_gusts":34.2,"aqi":108,"pm10":219.8,"pm2_5":49.9,"mosquito_risk":3,"arthritis_risk":5,"migraine_risk":7,"frizz_risk":0,"updated_at":"2026-03-26T04:10:17.001578+05:30"},{"city":"Kanpur","state":"Uttar Pradesh","latitude":26.4499,"longitude":80.3319,"temp":20.5,"humidity":77,"rain":0.0,"pressure":994.7,"uv_index":7.15,"wind_gusts":28.4,"aqi":166,"pm10":309.2,"pm2_5":57.6,"mosquito_risk":3,"arthritis_risk":5,"migraine_risk":7,"frizz_risk":1,"updated_at":"2026-03-26T04:10:17.001585+05:30"},{"city":"Chandigarh","state":"Chandigarh","latitude":30.7333,"longitude":76.7794,"temp":18.6,"humidity":75,"rain":0.0,"pressure":971.9,"uv_index":6.5,"wind_gusts":33.1,"aqi":70,"pm10":22.9,"pm2_5":18.0,"mosquito_risk":3,"arthritis_risk":5,"migraine_risk":7,"frizz_risk":0,"updated_at":"2026-03-26T04:10:17.001592+05:30"},{"city":"Srinagar","state":"Jammu and Kashmir","latitude":34.0837,"longitude":74.7973,"temp":10.4,"humidity":83,"rain":0.0,"pressure":843.7,"uv_index":7.55,"wind_gusts":18.4,"aqi":94,"pm10":31.7,"pm2_5":26.4,"mosquito_risk":3,"arthritis_risk":10,"migraine_risk":7,"frizz_risk":0,"updated_at":"2026-03-26T04:10:17.001599+05:30"},{"city":"Jammu","state":"Jammu and Kashmir","latitude":32.7266,"longitude":74.857,"temp":20.1,"humidity":78,"rain":0.0,"pressure":977.6,"uv_index":6.8,"wind_gusts":29.5,"aqi":84,"pm10":35.3,"pm2_5":31.7,"mosquito_risk":3,"arthritis_risk":5,"migraine_risk":7,"frizz_risk":1,"updated_at":"2026-03-26T04:10:17.001607+05:30"},{"city":"Amritsar","state":"Punjab","latitude":31.634,"longitude":74.8723,"temp":19.2,"humidity":85,"rain":0.0,"pressure":985.2,"uv_index":6.15,"wind_gusts":35.3,"aqi":113,"pm10":37.4,"pm2_5":32.1,"mosquito_risk":3,"arthritis_risk":10,"migraine_risk":7,"frizz_risk":1,"updated_at":"2026-03-26T04:10:17.001616+05:30"},{"city":"Ludhiana","state":"Punjab","latitude":30.901,"longitude":75.8573,"temp":20.4,"humidity":74,"rain":0.0,"pressure":982.8,"uv_index":5.95,"wind_gusts":34.2,"aqi":104,"pm10":31.3,"pm2_5":28.5,"mosquito_risk":3,"arthritis_risk":5,"migraine_risk":3,"frizz_risk":0,"updated_at":"2026-03-26T04:10:17.001624+05:30"},{"city":"Jalandhar","state":"Punjab","latitude":31.326,"longitude":75.5762,"temp":20.0,"humidity":81,"rain":0.0,"pressure":984.2,"uv_index":6.4,"wind_gusts":32.4,"aqi":110,"pm10":37.1,"pm2_5":24.4,"mosquito_risk":3,"arthritis_risk":5,"migraine_risk":7,"frizz_risk":1,"updated_at":"2026-03-26T04:10:17.001631+05:30"},{"city":"Dehradun","state":"Uttarakhand","latitude":30.6284,"longitude":78.0322,"temp":12.9,"humidity":83,"rain":0.0,"pressure":831.1,"uv_index":6.85,"wind_gusts":32.8,"aqi":52,"pm10":14.8,"pm2_5":12.8,"mosquito_risk":3,"arthritis_risk":10,"migraine_risk":7,"frizz_risk":0,"updated_at":"2026-03-26T04:10:17.001638+05:30"},{"city":"Shimla","state":"Himachal Pradesh","latitude":31.1048,"longitude":77.1734,"temp":11.1,"humidity":74,"rain":0.0,"pressure":785.3,"uv_index":6.95,"wind_gusts":45.4,"aqi":59,"pm10":31.4,"pm2_5":21.3,"mosquito_risk":3,"arthritis_risk":5,"migraine_risk":7,"frizz_risk":0,"updated_at":"2026-03-26T04:10:17.001645+05:30"},{"city":"Manali","state":"Himachal Pradesh","latitude":32.2396,"longitude":77.1887,"temp":13.0,"humidity":58,"rain":0.0,"pressure":821.4,"uv_index":8.45,"wind_gusts":27.0,"aqi":45,"pm10":25.4,"pm2_5":17.8,"mosquito_risk":0,"arthritis_risk":5,"migraine_risk":7,"frizz_risk":0,"updated_at":"2026-03-26T04:10:17.001653+05:30"},{"city":"Gurgaon","state":"Haryana","latitude":28.4595,"longitude":77.0266,"temp":19.5,"humidity":79,"rain":0.0,"pressure":984.7,"uv_index":6.7,"wind_gusts":18.4,"aqi":418,"pm10":425.6,"pm2_5":88.5,"mosquito_risk":3,"arthritis_risk":5,"migraine_risk":7,"frizz_risk":0,"updated_at":"2026-03-26T04:10:17.001659+05:30"},{"city":"Noida","state":"Uttar Pradesh","latitude":28.5355,"longitude":77.391,"temp":20.7,"humidity":73,"rain":0.0,"pressure":988.0,"uv_index":6.4,"wind_gusts":20.9,"aqi":418,"pm10":425.6,"pm2_5":88.5,"mosquito_risk":3,"arthritis_risk":5,"migraine_risk":7,"frizz_risk":0,"updated_at":"2026-03-26T04:10:17.001666+05:30"},{"city":"Ghaziabad","state":"Uttar Pradesh","latitude":28.6692,"longitude":77.4538,"temp":19.4,"humidity":78,"rain":0.0,"pressure":986.2,"uv_index":6.5,"wind_gusts":23.4,"aqi":148,"pm10":191.4,"pm2_5":54.8,"mosquito_risk":3,"arthritis_risk":5,"migraine_risk":7,"frizz_risk":0,"updated_at":"2026-03-26T04:10:17.001672+05:30"},{"city":"Faridabad","state":"Haryana","latitude":28.4089,"longitude":77.3178,"temp":19.7,"humidity":75,"rain":0.0,"pressure":987.1,"uv_index":6.45,"wind_gusts":19.8,"aqi":418,"pm10":425.6,"pm2_5":88.5,"mosquito_risk":3,"arthritis_risk":5,"migraine_risk":7,"frizz_risk":0,"updated_at":"2026-03-26T04:10:17.001679+05:30"},{"city":"Meerut","state":"Uttar Pradesh","latitude":28.9845,"longitude":77.7064,"temp":18.5,"humidity":77,"rain":0.0,"pressure":984.7,"uv_index":6.45,"wind_gusts":29.5,"aqi":148,"pm10":191.4,"pm2_5":54.8,"mosquito_risk":3,"arthritis_risk":5,"migraine_risk":7,"frizz_risk":0,"updated_at":"2026-03-26T04:10:17.001688+05:30"},{"city":"Agra","state":"Uttar Pradesh","latitude":27.1767,"longitude":78.0081,"temp":20.2,"humidity":70,"rain":0.0,"pressure":991.1,"uv_index":6.95,"wind_gusts":21.2,"aqi":296,"pm10":349.2,"pm2_5":73.1,"mosquito_risk":3,"arthritis_risk":5,"migraine_risk":7,"frizz_risk":0,"updated_at":"2026-03-26T04:10:17.001694+05:30"},{"city":"Varanasi","state":"Uttar Pradesh","latitude":25.3176,"longitude":82.9739,"temp":18.5,"humidity":69,"rain":0.0,"pressure":1000.7,"uv_index":7.8,"wind_gusts":29.5,"aqi":102,"pm10":108.0,"pm2_5":41.6,"mosquito_risk":3,"arthritis_risk":5,"migraine_risk":4,"frizz_risk":0,"updated_at":"2026-03-26T04:10:17.001701+05:30"},{"city":"Prayagraj","state":"Uttar Pradesh","latitude":25.4358,"longitude":81.8463,"temp":21.9,"humidity":56,"rain":0.0,"pressure":999.2,"uv_index":7.65,"wind_gusts":27.4,"aqi":98,"pm10":144.8,"pm2_5":36.8,"mosquito_risk":0,"arthritis_risk":5,"migraine_risk":7,"frizz_risk":0,"updated_at":"2026-03-26T04:10:17.001711+05:30"},{"city":"Gorakhpur","state":"Uttar Pradesh","latitude":26.7606,"longitude":83.3732,"temp":17.6,"humidity":72,"rain":0.0,"pressure":999.8,"uv_index":7.55,"wind_gusts":16.6,"aqi":97,"pm10":47.5,"pm2_5":39.9,"mosquito_risk":3,"arthritis_risk":5,"migraine_risk":7,"frizz_risk":0,"updated_at":"2026-03-26T04:10:17.001717+05:30"},{"city":"Bareilly","state":"Uttar Pradesh","latitude":28.367,"longitude":79.4304,"temp":18.1,"humidity":88,"rain":0.0,"pressure":989.6,"uv_index":6.8,"wind_gusts":28.1,"aqi":87,"pm10":89.9,"pm2_5":36.7,"mosquito_risk":3,"arthritis_risk":10,"migraine_risk":7,"frizz_risk":1,"updated_at":"2026-03-26T04:10:17.001724+05:30"},{"city":"Aligarh","state":"Uttar Pradesh","latitude":27.8974,"longitude":78.088,"temp":18.4,"humidity":77,"rain":0.0,"pressure":988.8,"uv_index":6.75,"wind_gusts":23.8,"aqi":289,"pm10":380.9,"pm2_5":76.1,"mosquito_risk":3,"arthritis_risk":5,"migraine_risk":7,"frizz_risk":0,"updated_at":"2026-03-26T04:10:17.001731+05:30"},{"city":"Moradabad","state":"Uttar Pradesh","latitude":28.8386,"longitude":78.7733,"temp":18.2,"humidity":78,"rain":0.0,"pressure":986.5,"uv_index":6.65,"wind_gusts":33.1,"aqi":96,"pm10":124.8,"pm2_5":47.1,"mosquito_risk":3,"arthritis_risk":5,"migraine_risk":7,"frizz_risk":0,"updated_at":"2026-03-26T04:10:17.001737+05:30"},{"city":"Saharanpur","state":"Uttar Pradesh","latitude":29.9637,"longitude":77.546,"temp":17.8,"humidity":81,"rain":0.0,"pressure":978.6,"uv_index":6.25,"wind_gusts":39.2,"aqi":116,"pm10":49.4,"pm2_5":44.4,"mosquito_risk":3,"arthritis_risk":10,"migraine_risk":7,"frizz_risk":0,"updated_at":"2026-03-26T04:10:17.001743+05:30"},{"city":"Jhansi","state":"Uttar Pradesh","latitude":25.4484,"longitude":78.5685,"temp":21.6,"humidity":54,"rain":0.0,"pressure":980.7,"uv_index":7.6,"wind_gusts":27.4,"aqi":103,"pm10":92.2,"pm2_5":26.7,"mosquito_risk":0,"arthritis_risk":5,"migraine_risk":7,"frizz_risk":0,"updated_at":"2026-03-26T04:10:20.281442+05:30"},{"city":"Surat","state":"Gujarat","latitude":21.1702,"longitude":72.8311,"temp":25.3,"humidity":83,"rain":0.0,"pressure":1007.2,"uv_index":7.75,"wind_gusts":24.5,"aqi":90,"pm10":32.8,"pm2_5":25.3,"mosquito_risk":7,"arthritis_risk":5,"migraine_risk":4,"frizz_risk":1,"updated_at":"2026-03-26T04:10:20.281471+05:30"},{"city":"Vadodara","state":"Gujarat","latitude":22.3072,"longitude":73.1812,"temp":25.5,"humidity":60,"rain":0.0,"pressure":1005.5,"uv_index":7.9,"wind_gusts":26.3,"aqi":91,"pm10":56.9,"pm2_5":55.6,"mosquito_risk":4,"arthritis_risk":5,"migraine_risk":4,"frizz_risk":1,"updated_at":"2026-03-26T04:10:20.281481+05:30"},{"city":"Rajkot","state":"Gujarat","latitude":22.3039,"longitude":70.8022,"temp":22.3,"humidity":87,"rain":0.0,"pressure":996.2,"uv_index":7.75,"wind_gusts":30.2,"aqi":43,"pm10":40.3,"pm2_5":13.2,"mosquito_risk":3,"arthritis_risk":5,"migraine_risk":7,"frizz_risk":1,"updated_at":"2026-03-26T04:10:20.281490+05:30"},{"city":"Thane","state":"Maharashtra","latitude":19.2183,"longitude":72.9781,"temp":26.3,"humidity":79,"rain":0.0,"pressure":1008.0,"uv_index":7.95,"wind_gusts":40.3,"aqi":79,"pm10":35.5,"pm2_5":19.4,"mosquito_risk":7,"arthritis_risk":0,"migraine_risk":4,"frizz_risk":1,"updated_at":"2026-03-26T04:10:20.281525+05:30"},{"city":"Nagpur","state":"Maharashtra","latitude":21.1458,"longitude":79.0882,"temp":25.3,"humidity":61,"rain":0.0,"pressure":974.3,"uv_index":8.45,"wind_gusts":28.8,"aqi":81,"pm10":19.2,"pm2_5":15.5,"mosquito_risk":7,"arthritis_risk":5,"migraine_risk":7,"frizz_risk":1,"updated_at":"2026-03-26T04:10:20.281535+05:30"},{"city":"Nashik","state":"Maharashtra","latitude":19.9975,"longitude":73.7898,"temp":25.0,"humidity":55,"rain":0.0,"pressure":946.1,"uv_index":8.15,"wind_gusts":22.3,"aqi":75,"pm10":45.3,"pm2_5":36.6,"mosquito_risk":4,"arthritis_risk":5,"migraine_risk":7,"frizz_risk":0,"updated_at":"2026-03-26T04:10:20.281543+05:30"},{"city":"Aurangabad","state":"Maharashtra","latitude":19.8762,"longitude":75.3433,"temp":24.8,"humidity":48,"rain":0.0,"pressure":944.4,"uv_index":8.7,"wind_gusts":25.9,"aqi":55,"pm10":24.6,"pm2_5":18.7,"mosquito_risk":0,"arthritis_risk":5,"migraine_risk":7,"frizz_risk":0,"updated_at":"2026-03-26T04:10:20.281551+05:30"},{"city":"Solapur","state":"Maharashtra","latitude":17.6599,"longitude":75.9064,"temp":25.3,"humidity":69,"rain":0.0,"pressure":957.5,"uv_index":8.8,"wind_gusts":13.7,"aqi":99,"pm10":50.6,"pm2_5":45.3,"mosquito_risk":7,"arthritis_risk":5,"migraine_risk":7,"frizz_risk":1,"updated_at":"2026-03-26T04:10:20.281559+05:30"},{"city":"Kolhapur","state":"Maharashtra","latitude":16.705,"longitude":74.2433,"temp":22.5,"humidity":92,"rain":0.0,"pressure":947.8,"uv_index":8.95,"wind_gusts":25.2,"aqi":148,"pm10":87.5,"pm2_5":78.0,"mosquito_risk":3,"arthritis_risk":5,"migraine_risk":7,"frizz_risk":1,"updated_at":"2026-03-26T04:10:20.281567+05:30"},{"city":"Goa","state":"Goa","latitude":15.2993,"longitude":74.124,"temp":27.1,"humidity":87,"rain":0.0,"pressure":996.7,"uv_index":8.75,"wind_gusts":28.4,"aqi":94,"pm10":45.4,"pm2_5":36.9,"mosquito_risk":7,"arthritis_risk":5,"migraine_risk":7,"frizz_risk":1,"updated_at":"2026-03-26T04:10:20.281574+05:30"},{"city":"Jodhpur","state":"Rajasthan","latitude":26.2389,"longitude":73.0243,"temp":24.5,"humidity":51,"rain":0.0,"pressure":985.2,"uv_index":7.45,"wind_gusts":30.6,"aqi":66,"pm10":48.5,"pm2_5":22.1,"mosquito_risk":0,"arthritis_risk":5,"migraine_risk":7,"frizz_risk":0,"updated_at":"2026-03-26T04:10:20.281582+05:30"},{"city":"Udaipur","state":"Rajasthan","latitude":24.5854,"longitude":73.7125,"temp":21.7,"humidity":53,"rain":0.0,"pressure":948.3,"uv_index":8.3,"wind_gusts":28.8,"aqi":38,"pm10":8.1,"pm2_5":7.6,"mosquito_risk":0,"arthritis_risk":5,"migraine_risk":7,"frizz_risk":0,"updated_at":"2026-03-26T04:10:20.281590+05:30"},{"city":"Kota","state":"Rajasthan","latitude":25.2138,"longitude":75.8648,"temp":19.9,"humidity":87,"rain":0.0,"pressure":980.7,"uv_index":7.65,"wind_gusts":16.2,"aqi":75,"pm10":29.5,"pm2_5":24.3,"mosquito_risk":3,"arthritis_risk":10,"migraine_risk":7,"frizz_risk":1,"updated_at":"2026-03-26T04:10:20.281598+05:30"},{"city":"Bikaner","state":"Rajasthan","latitude":28.0229,"longitude":73.3119,"temp":24.0,"humidity":49,"rain":0.0,"pressure":983.6,"uv_index":6.45,"wind_gusts":27.4,"aqi":44,"pm10":33.8,"pm2_5":11.5,"mosquito_risk":0,"arthritis_risk":5,"migraine_risk":7,"frizz_risk":0,"updated_at":"2026-03-26T04:10:20.281606+05:30"},{"city":"Ajmer","state":"Rajasthan","latitude":26.4499,"longitude":74.6399,"temp":24.2,"humidity":48,"rain":0.0,"pressure":956.6,"uv_index":7.5,"wind_gusts":29.5,"aqi":60,"pm10":36.6,"pm2_5":14.4,"mosquito_risk":0,"arthritis_risk":5,"migraine_risk":7,"frizz_risk":0,"updated_at":"2026-03-26T04:10:20.281613+05:30"},{"city":"Gwalior","state":"Madhya Pradesh","latitude":26.2183,"longitude":78.1828,"temp":23.2,"humidity":58,"rain":0.0,"pressure":986.1,"uv_index":7.3,"wind_gusts":20.2,"aqi":144,"pm10":106.2,"pm2_5":27.0,"mosquito_risk":0,"arthritis_risk":5,"migraine_risk":7,"frizz_risk":0,"updated_at":"2026-03-26T04:10:20.281621+05:30"},{"city":"Indore","state":"Madhya Pradesh","latitude":22.7196,"longitude":75.8577,"temp":21.9,"humidity":61,"rain":0.0,"pressure":949.0,"uv_index":8.2,"wind_gusts":23.4,"aqi":82,"pm10":25.5,"pm2_5":22.8,"mosquito_risk":3,"arthritis_risk":5,"migraine_risk":7,"frizz_risk":0,"updated_at":"2026-03-26T04:10:20.281628+05:30"},{"city":"Bhopal","state":"Madhya Pradesh","latitude":23.2599,"longitude":77.4126,"temp":23.9,"humidity":54,"rain":0.0,"pressure":954.9,"uv_index":8.05,"wind_gusts":21.6,"aqi":55,"pm10":14.8,"pm2_5":8.7,"mosquito_risk":0,"arthritis_risk":5,"migraine_risk":7,"frizz_risk":0,"updated_at":"2026-03-26T04:10:20.281635+05:30"},{"city":"Jabalpur","state":"Madhya Pradesh","latitude":23.1815,"longitude":79.9864,"temp":22.9,"humidity":54,"rain":0.0,"pressure":963.1,"uv_index":8.2,"wind_gusts":23.4,"aqi":57,"pm10":36.3,"pm2_5":15.7,"mosquito_risk":0,"arthritis_risk":5,"migraine_risk":7,"frizz_risk":0,"updated_at":"2026-03-26T04:10:20.281643+05:30"},{"city":"Ujjain","state":"Madhya Pradesh","latitude":23.1765,"longitude":75.7885,"temp":22.9,"humidity":55,"rain":0.0,"pressure":955.0,"uv_index":8.1,"wind_gusts":25.9,"aqi":83,"pm10":12.1,"pm2_5":10.9,"mosquito_risk":0,"arthritis_risk":5,"migraine_risk":7,"frizz_risk":0,"updated_at":"2026-03-26T04:10:20.281651+05:30"},{"city":"Visakhapatnam","state":"Andhra Pradesh","latitude":17.6868,"longitude":83.2185,"temp":25.5,"humidity":90,"rain":0.0,"pressure":1005.4,"uv_index":8.95,"wind_gusts":31.3,"aqi":74,"pm10":39.5,"pm2_5":30.5,"mosquito_risk":7,"arthritis_risk":5,"migraine_risk":4,"frizz_risk":1,"updated_at":"2026-03-26T04:10:20.281658+05:30"},{"city":"Vijayawada","state":"Andhra Pradesh","latitude":16.5062,"longitude":80.648,"temp":24.3,"humidity":92,"rain":0.0,"pressure":1004.0,"uv_index":8.95,"wind_gusts":17.3,"aqi":63,"pm10":25.2,"pm2_5":19.4,"mosquito_risk":3,"arthritis_risk":5,"migraine_risk":4,"frizz_risk":1,"updated_at":"2026-03-26T04:10:20.281665+05:30"},{"city":"Guntur","state":"Andhra Pradesh","latitude":16.3067,"longitude":80.4365,"temp":24.3,"humidity":95,"rain":0.0,"pressure":1005.2,"uv_index":9.0,"wind_gusts":24.5,"aqi":58,"pm10":21.5,"pm2_5":16.8,"mosquito_risk":3,"arthritis_risk":5,"migraine_risk":4,"frizz_risk":1,"updated_at":"2026-03-26T04:10:20.281673+05:30"},{"city":"Nellore","state":"Andhra Pradesh","latitude":14.4426,"longitude":79.9865,"temp":25.1,"humidity":89,"rain":0.0,"pressure":1006.9,"uv_index":9.1,"wind_gusts":29.5,"aqi":50,"pm10":19.2,"pm2_5":13.1,"mosquito_risk":7,"arthritis_risk":5,"migraine_risk":4,"frizz_risk":1,"updated_at":"2026-03-26T04:10:20.281681+05:30"},{"city":"Kurnool","state":"Andhra Pradesh","latitude":15.8281,"longitude":78.0373,"temp":26.9,"humidity":64,"rain":0.0,"pressure":977.2,"uv_index":9.0,"wind_gusts":23.0,"aqi":88,"pm10":31.1,"pm2_5":25.6,"mosquito_risk":7,"arthritis_risk":5,"migraine_risk":7,"frizz_risk":1,"updated_at":"2026-03-26T04:10:20.281689+05:30"},{"city":"Kakinada","state":"Andhra Pradesh","latitude":16.9891,"longitude":82.2475,"temp":24.0,"humidity":91,"rain":0.0,"pressure":1009.2,"uv_index":8.95,"wind_gusts":23.0,"aqi":59,"pm10":31.5,"pm2_5":20.5,"mosquito_risk":3,"arthritis_risk":0,"migraine_risk":4,"frizz_risk":1,"updated_at":"2026-03-26T04:10:20.281697+05:30"},{"city":"Tirupati","state":"Andhra Pradesh","latitude":13.6288,"longitude":79.4192,"temp":22.7,"humidity":90,"rain":0.0,"pressure":992.7,"uv_index":9.2,"wind_gusts":32.8,"aqi":60,"pm10":35.2,"pm2_5":30.3,"mosquito_risk":3,"arthritis_risk":5,"migraine_risk":7,"frizz_risk":1,"updated_at":"2026-03-26T04:10:20.281705+05:30"},{"city":"Warangal","state":"Telangana","latitude":17.9689,"longitude":79.5941,"temp":25.0,"humidity":80,"rain":0.0,"pressure":979.4,"uv_index":8.8,"wind_gusts":24.8,"aqi":84,"pm10":26.0,"pm2_5":22.6,"mosquito_risk":7,"arthritis_risk":5,"migraine_risk":7,"frizz_risk":1,"updated_at":"2026-03-26T04:10:20.281712+05:30"},{"city":"Nizamabad","state":"Telangana","latitude":18.6725,"longitude":78.0941,"temp":26.8,"humidity":67,"rain":0.0,"pressure":965.6,"uv_index":8.7,"wind_gusts":23.0,"aqi":98,"pm10":48.4,"pm2_5":44.1,"mosquito_risk":7,"arthritis_risk":5,"migraine_risk":7,"frizz_risk":1,"updated_at":"2026-03-26T04:10:20.281720+05:30"},{"city":"Mysore","state":"Karnataka","latitude":12.2958,"longitude":76.6396,"temp":22.8,"humidity":64,"rain":0.0,"pressure":927.6,"uv_index":9.45,"wind_gusts":39.2,"aqi":76,"pm10":26.4,"pm2_5":23.8,"mosquito_risk":3,"arthritis_risk":5,"migraine_risk":7,"frizz_risk":0,"updated_at":"2026-03-26T04:10:20.281727+05:30"},{"city":"Mangalore","state":"Karnataka","latitude":12.9141,"longitude":74.856,"temp":29.3,"humidity":84,"rain":0.0,"pressure":1005.4,"uv_index":9.05,"wind_gusts":31.0,"aqi":102,"pm10":45.4,"pm2_5":40.3,"mosquito_risk":7,"arthritis_risk":5,"migraine_risk":4,"frizz_risk":1,"updated_at":"2026-03-26T04:10:20.281734+05:30"},{"city":"Hubli-Dharwad","state":"Karnataka","latitude":15.3647,"longitude":75.124,"temp":22.7,"humidity":86,"rain":0.0,"pressure":940.1,"uv_index":9.1,"wind_gusts":28.4,"aqi":126,"pm10":59.1,"pm2_5":53.2,"mosquito_risk":3,"arthritis_risk":5,"migraine_risk":7,"frizz_risk":1,"updated_at":"2026-03-26T04:10:20.281742+05:30"},{"city":"Belgaum","state":"Karnataka","latitude":15.8497,"longitude":74.4977,"temp":21.4,"humidity":94,"rain":0.0,"pressure":924.8,"uv_index":9.0,"wind_gusts":31.7,"aqi":129,"pm10":63.1,"pm2_5":52.4,"mosquito_risk":3,"arthritis_risk":5,"migraine_risk":7,"frizz_risk":1,"updated_at":"2026-03-26T04:10:23.557460+05:30"},{"city":"Coimbatore","state":"Tamil Nadu","latitude":11.0168,"longitude":76.9558,"temp":23.9,"humidity":79,"rain":0.0,"pressure":961.7,"uv_index":9.4,"wind_gusts":43.9,"aqi":53,"pm10":15.0,"pm2_5":14.0,"mosquito_risk":3,"arthritis_risk":5,"migraine_risk":7,"frizz_risk":1,"updated_at":"2026-03-26T04:10:23.557490+05:30"},{"city":"Madurai","state":"Tamil Nadu","latitude":9.9252,"longitude":78.1198,"temp":24.7,"humidity":88,"rain":0.0,"pressure":993.2,"uv_index":9.35,"wind_gusts":27.0,"aqi":56,"pm10":23.2,"pm2_5":21.5,"mosquito_risk":3,"arthritis_risk":5,"migraine_risk":7,"frizz_risk":1,"updated_at":"2026-03-26T04:10:23.557528+05:30"},{"city":"Trichy","state":"Tamil Nadu","latitude":10.7905,"longitude":78.7047,"temp":23.4,"humidity":95,"rain":0.0,"pressure":1000.3,"uv_index":9.3,"wind_gusts":25.9,"aqi":58,"pm10":23.2,"pm2_5":18.7,"mosquito_risk":3,"arthritis_risk":5,"migraine_risk":4,"frizz_risk":1,"updated_at":"2026-03-26T04:10:23.557538+05:30"},{"city":"Salem","state":"Tamil Nadu","latitude":11.6643,"longitude":78.146,"temp":23.7,"humidity":87,"rain":0.0,"pressure":977.4,"uv_index":9.35,"wind_gusts":33.5,"aqi":73,"pm10":38.5,"pm2_5":36.1,"mosquito_risk":3,"arthritis_risk":5,"migraine_risk":7,"frizz_risk":1,"updated_at":"2026-03-26T04:10:23.557545+05:30"},{"city":"Tirunelveli","state":"Tamil Nadu","latitude":8.7139,"longitude":77.7567,"temp":25.9,"humidity":80,"rain":0.0,"pressure":1003.4,"uv_index":9.35,"wind_gusts":37.4,"aqi":43,"pm10":15.1,"pm2_5":12.7,"mosquito_risk":7,"arthritis_risk":5,"migraine_risk":4,"frizz_risk":1,"updated_at":"2026-03-26T04:10:23.557552+05:30"},{"city":"Vellore","state":"Tamil Nadu","latitude":12.9165,"longitude":79.1325,"temp":22.0,"humidity":94,"rain":0.0,"pressure":985.5,"uv_index":9.3,"wind_gusts":32.4,"aqi":71,"pm10":41.9,"pm2_5":37.4,"mosquito_risk":3,"arthritis_risk":5,"migraine_risk":7,"frizz_risk":1,"updated_at":"2026-03-26T04:10:23.557559+05:30"},{"city":"Erode","state":"Tamil Nadu","latitude":11.341,"longitude":77.7172,"temp":24.8,"humidity":89,"rain":0.0,"pressure":989.4,"uv_index":9.35,"wind_gusts":19.8,"aqi":52,"pm10":18.2,"pm2_5":16.7,"mosquito_risk":3,"arthritis_risk":5,"migraine_risk":7,"frizz_risk":1,"updated_at":"2026-03-26T04:10:23.557565+05:30"},{"city":"Kochi","state":"Kerala","latitude":9.9312,"longitude":76.2673,"temp":28.7,"humidity":79,"rain":0.0,"pressure":1007.4,"uv_index":9.2,"wind_gusts":35.6,"aqi":87,"pm10":43.2,"pm2_5":40.3,"mosquito_risk":7,"arthritis_risk":5,"migraine_risk":4,"frizz_risk":1,"updated_at":"2026-03-26T04:10:23.557572+05:30"},{"city":"Thiruvananthapuram","state":"Kerala","latitude":8.5241,"longitude":76.9366,"temp":29.0,"humidity":79,"rain":0.0,"pressure":1006.5,"uv_index":9.2,"wind_gusts":30.6,"aqi":86,"pm10":19.6,"pm2_5":15.4,"mosquito_risk":7,"arthritis_risk":5,"migraine_risk":4,"frizz_risk":1,"updated_at":"2026-03-26T04:10:23.557578+05:30"},{"city":"Kozhikode","state":"Kerala","latitude":11.2588,"longitude":75.7804,"temp":29.0,"humidity":83,"rain":0.0,"pressure":1006.6,"uv_index":9.1,"wind_gusts":32.4,"aqi":96,"pm10":38.0,"pm2_5":28.5,"mosquito_risk":7,"arthritis_risk":5,"migraine_risk":4,"frizz_risk":1,"updated_at":"2026-03-26T04:10:23.557585+05:30"},{"city":"Thrissur","state":"Kerala","latitude":10.5276,"longitude":76.2144,"temp":27.3,"humidity":90,"rain":0.0,"pressure":1005.8,"uv_index":9.15,"wind_gusts":38.5,"aqi":89,"pm10":55.1,"pm2_5":47.7,"mosquito_risk":7,"arthritis_risk":5,"migraine_risk":4,"frizz_risk":1,"updated_at":"2026-03-26T04:10:23.557592+05:30"},{"city":"Kannur","state":"Kerala","latitude":11.8745,"longitude":75.3704,"temp":28.8,"humidity":82,"rain":0.0,"pressure":1005.9,"uv_index":9.1,"wind_gusts":34.9,"aqi":100,"pm10":43.3,"pm2_5":36.3,"mosquito_risk":7,"arthritis_risk":5,"migraine_risk":4,"frizz_risk":1,"updated_at":"2026-03-26T04:10:23.557598+05:30"},{"city":"Patna","state":"Bihar","latitude":25.5941,"longitude":85.1376,"temp":20.2,"humidity":77,"rain":0.0,"pressure":1003.2,"uv_index":8.0,"wind_gusts":25.2,"aqi":133,"pm10":141.6,"pm2_5":104.3,"mosquito_risk":3,"arthritis_risk":5,"migraine_risk":4,"frizz_risk":1,"updated_at":"2026-03-26T04:10:23.557608+05:30"},{"city":"Gaya","state":"Bihar","latitude":24.7914,"longitude":85.0002,"temp":19.5,"humidity":77,"rain":0.0,"pressure":996.6,"uv_index":8.1,"wind_gusts":24.1,"aqi":99,"pm10":51.9,"pm2_5":33.5,"mosquito_risk":3,"arthritis_risk":5,"migraine_risk":7,"frizz_risk":0,"updated_at":"2026-03-26T04:10:23.557615+05:30"},{"city":"Muzaffarpur","state":"Bihar","latitude":26.1209,"longitude":85.3647,"temp":19.3,"humidity":78,"rain":0.0,"pressure":1003.1,"uv_index":7.95,"wind_gusts":17.3,"aqi":144,"pm10":122.0,"pm2_5":100.6,"mosquito_risk":3,"arthritis_risk":5,"migraine_risk":4,"frizz_risk":0,"updated_at":"2026-03-26T04:10:23.557621+05:30"},{"city":"Bhagalpur","state":"Bihar","latitude":25.2425,"longitude":87.0117,"temp":21.8,"humidity":68,"rain":0.0,"pressure":1004.3,"uv_index":8.0,"wind_gusts":14.0,"aqi":137,"pm10":71.2,"pm2_5":57.6,"mosquito_risk":3,"arthritis_risk":5,"migraine_risk":4,"frizz_risk":0,"updated_at":"2026-03-26T04:10:23.557627+05:30"},{"city":"Ranchi","state":"Jharkhand","latitude":23.3441,"longitude":85.3096,"temp":20.9,"humidity":56,"rain":0.0,"pressure":940.1,"uv_index":8.7,"wind_gusts":36.0,"aqi":72,"pm10":41.9,"pm2_5":26.0,"mosquito_risk":0,"arthritis_risk":5,"migraine_risk":7,"frizz_risk":0,"updated_at":"2026-03-26T04:10:23.557634+05:30"},{"city":"Jamshedpur","state":"Jharkhand","latitude":22.8046,"longitude":86.2029,"temp":24.4,"humidity":83,"rain":0.0,"pressure":993.4,"uv_index":8.55,"wind_gusts":22.0,"aqi":158,"pm10":143.4,"pm2_5":121.5,"mosquito_risk":3,"arthritis_risk":5,"migraine_risk":7,"frizz_risk":1,"updated_at":"2026-03-26T04:10:23.557640+05:30"},{"city":"Dhanbad","state":"Jharkhand","latitude":23.7957,"longitude":86.4304,"temp":22.0,"humidity":63,"rain":0.0,"pressure":982.5,"uv_index":8.45,"wind_gusts":24.5,"aqi":148,"pm10":101.0,"pm2_5":87.3,"mosquito_risk":3,"arthritis_risk":5,"migraine_risk":7,"frizz_risk":0,"updated_at":"2026-03-26T04:10:23.557646+05:30"},{"city":"Bokaro","state":"Jharkhand","latitude":23.6693,"longitude":86.1511,"temp":22.2,"humidity":63,"rain":0.0,"pressure":987.0,"uv_index":8.45,"wind_gusts":21.2,"aqi":136,"pm10":93.1,"pm2_5":74.3,"mosquito_risk":3,"arthritis_risk":5,"migraine_risk":7,"frizz_risk":0,"updated_at":"2026-03-26T04:10:23.557652+05:30"},{"city":"Bhubaneswar","state":"Odisha","latitude":20.2961,"longitude":85.8245,"temp":24.9,"humidity":95,"rain":0.0,"pressure":1004.5,"uv_index":8.75,"wind_gusts":12.2,"aqi":84,"pm10":41.2,"pm2_5":31.4,"mosquito_risk":3,"arthritis_risk":5,"migraine_risk":4,"frizz_risk":1,"updated_at":"2026-03-26T04:10:23.557658+05:30"},{"city":"Cuttack","state":"Odisha","latitude":20.4625,"longitude":85.8828,"temp":24.8,"humidity":95,"rain":0.0,"pressure":1006.6,"uv_index":8.8,"wind_gusts":13.0,"aqi":84,"pm10":41.2,"pm2_5":31.4,"mosquito_risk":3,"arthritis_risk":5,"migraine_risk":4,"frizz_risk":1,"updated_at":"2026-03-26T04:10:23.557664+05:30"},{"city":"Rourkela","state":"Odisha","latitude":22.2604,"longitude":84.8536,"temp":23.6,"humidity":92,"rain":0.0,"pressure":987.6,"uv_index":8.45,"wind_gusts":34.6,"aqi":125,"pm10":47.0,"pm2_5":37.4,"mosquito_risk":3,"arthritis_risk":5,"migraine_risk":7,"frizz_risk":1,"updated_at":"2026-03-26T04:10:23.557670+05:30"},{"city":"Raipur","state":"Chhattisgarh","latitude":21.2514,"longitude":81.6296,"temp":24.0,"humidity":65,"rain":0.0,"pressure":976.1,"uv_index":8.5,"wind_gusts":24.5,"aqi":135,"pm10":73.8,"pm2_5":65.7,"mosquito_risk":3,"arthritis_risk":5,"migraine_risk":7,"frizz_risk":1,"updated_at":"2026-03-26T04:10:23.557677+05:30"},{"city":"Bhilai","state":"Chhattisgarh","latitude":21.1938,"longitude":81.3509,"temp":22.8,"humidity":66,"rain":0.0,"pressure":976.5,"uv_index":8.5,"wind_gusts":21.6,"aqi":126,"pm10":87.8,"pm2_5":78.2,"mosquito_risk":3,"arthritis_risk":5,"migraine_risk":7,"frizz_risk":1,"updated_at":"2026-03-26T04:10:23.557683+05:30"},{"city":"Guwahati","state":"Assam","latitude":26.1158,"longitude":91.7086,"temp":21.5,"humidity":89,"rain":0.0,"pressure":1006.1,"uv_index":7.9,"wind_gusts":25.9,"aqi":122,"pm10":60.3,"pm2_5":49.6,"mosquito_risk":3,"arthritis_risk":5,"migraine_risk":4,"frizz_risk":1,"updated_at":"2026-03-26T04:10:23.557689+05:30"},{"city":"Agartala","state":"Tripura","latitude":23.8315,"longitude":91.2868,"temp":21.7,"humidity":97,"rain":0.0,"pressure":1009.1,"uv_index":8.2,"wind_gusts":15.8,"aqi":156,"pm10":109.7,"pm2_5":98.3,"mosquito_risk":3,"arthritis_risk":0,"migraine_risk":4,"frizz_risk":1,"updated_at":"2026-03-26T04:10:23.557695+05:30"},{"city":"Shillong","state":"Meghalaya","latitude":25.5788,"longitude":91.8933,"temp":8.5,"humidity":84,"rain":0.0,"pressure":855.3,"uv_index":8.3,"wind_gusts":25.9,"aqi":103,"pm10":56.2,"pm2_5":39.9,"mosquito_risk":3,"arthritis_risk":10,"migraine_risk":7,"frizz_risk":0,"updated_at":"2026-03-26T04:10:23.557701+05:30"},{"city":"Imphal","state":"Manipur","latitude":24.817,"longitude":93.9368,"temp":15.6,"humidity":84,"rain":0.0,"pressure":925.4,"uv_index":8.55,"wind_gusts":45.0,"aqi":128,"pm10":76.6,"pm2_5":57.0,"mosquito_risk":3,"arthritis_risk":10,"migraine_risk":7,"frizz_risk":0,"updated_at":"2026-03-26T04:10:23.557708+05:30"},{"city":"Aizawl","state":"Mizoram","latitude":23.7271,"longitude":92.7176,"temp":15.9,"humidity":79,"rain":0.0,"pressure":893.8,"uv_index":8.45,"wind_gusts":41.0,"aqi":125,"pm10":75.4,"pm2_5":50.9,"mosquito_risk":3,"arthritis_risk":5,"migraine_risk":7,"frizz_risk":0,"updated_at":"2026-03-26T04:10:23.557714+05:30"},{"city":"Kohima","state":"Nagaland","latitude":25.6701,"longitude":94.1077,"temp":12.4,"humidity":64,"rain":0.0,"pressure":855.6,"uv_index":8.45,"wind_gusts":49.0,"aqi":106,"pm10":59.1,"pm2_5":44.6,"mosquito_risk":3,"arthritis_risk":5,"migraine_risk":7,"frizz_risk":0,"updated_at":"2026-03-26T04:10:23.557719+05:30"},{"city":"Gangtok","state":"Sikkim","latitude":27.3314,"longitude":88.6138,"temp":12.3,"humidity":84,"rain":0.0,"pressure":837.6,"uv_index":8.0,"wind_gusts":19.8,"aqi":79,"pm10":36.4,"pm2_5":29.6,"mosquito_risk":3,"arthritis_risk":10,"migraine_risk":7,"frizz_risk":0,"updated_at":"2026-03-26T04:10:23.557725+05:30"},{"city":"Siliguri","state":"West Bengal","latitude":26.7271,"longitude":88.3953,"temp":19.0,"humidity":75,"rain":0.0,"pressure":997.8,"uv_index":7.9,"wind_gusts":33.5,"aqi":151,"pm10":88.7,"pm2_5":70.3,"mosquito_risk":3,"arthritis_risk":5,"migraine_risk":7,"frizz_risk":0,"updated_at":"2026-03-26T04:10:26.841525+05:30"},{"city":"Durgapur","state":"West Bengal","latitude":23.5204,"longitude":87.3119,"temp":23.6,"humidity":84,"rain":0.0,"pressure":997.8,"uv_index":8.4,"wind_gusts":18.4,"aqi":154,"pm10":125.7,"pm2_5":110.8,"mosquito_risk":3,"arthritis_risk":5,"migraine_risk":7,"frizz_risk":1,"updated_at":"2026-03-26T04:10:26.841557+05:30"},{"city":"Asansol","state":"West Bengal","latitude":23.6739,"longitude":86.9524,"temp":24.2,"humidity":82,"rain":0.0,"pressure":996.4,"uv_index":8.4,"wind_gusts":19.8,"aqi":131,"pm10":90.6,"pm2_5":76.6,"mosquito_risk":3,"arthritis_risk":5,"migraine_risk":7,"frizz_risk":1,"updated_at":"2026-03-26T04:10:26.841568+05:30"},{"city":"Pondicherry","state":"Puducherry","latitude":11.9139,"longitude":79.8145,"temp":23.7,"humidity":96,"rain":0.0,"pressure":1009.2,"uv_index":9.2,"wind_gusts":27.4,"aqi":43,"pm10":22.4,"pm2_5":14.0,"mosquito_risk":3,"arthritis_risk":0,"migraine_risk":4,"frizz_risk":1,"updated_at":"2026-03-26T04:10:26.841577+05:30"},{"city":"Port Blair","state":"Andaman and Nicobar Islands","latitude":11.6234,"longitude":92.7265,"temp":27.5,"humidity":76,"rain":0.0,"pressure":1006.5,"uv_index":9.15,"wind_gusts":29.2,"aqi":57,"pm10":15.9,"pm2_5":10.4,"mosquito_risk":7,"arthritis_risk":5,"migraine_risk":4,"frizz_risk":1,"updated_at":"2026-03-26T04:10:26.841590+05:30"},{"city":"Haridwar","state":"Uttarakhand","latitude":29.9457,"longitude":78.1642,"temp":19.5,"humidity":78,"rain":0.0,"pressure":977.2,"uv_index":6.4,"wind_gusts":41.8,"aqi":90,"pm10":42.3,"pm2_5":35.3,"mosquito_risk":3,"arthritis_risk":5,"migraine_risk":7,"frizz_risk":0,"updated_at":"2026-03-26T04:10:26.841598+05:30"},{"city":"Rishikesh","state":"Uttarakhand","latitude":30.0869,"longitude":78.2676,"temp":19.9,"humidity":74,"rain":0.0,"pressure":970.0,"uv_index":6.45,"wind_gusts":38.2,"aqi":73,"pm10":29.3,"pm2_5":22.5,"mosquito_risk":3,"arthritis_risk":5,"migraine_risk":7,"frizz_risk":0,"updated_at":"2026-03-26T04:10:26.841606+05:30"},{"city":"Nainital","state":"Uttarakhand","latitude":29.3919,"longitude":79.4542,"temp":16.4,"humidity":63,"rain":0.0,"pressure":806.8,"uv_index":7.3,"wind_gusts":65.2,"aqi":69,"pm10":24.3,"pm2_5":20.5,"mosquito_risk":3,"arthritis_risk":5,"migraine_risk":7,"frizz_risk":0,"updated_at":"2026-03-26T04:10:26.841613+05:30"},{"city":"Mussoorie","state":"Uttarakhand","latitude":30.4599,"longitude":78.0664,"temp":14.6,"humidity":71,"rain":0.0,"pressure":803.8,"uv_index":6.8,"wind_gusts":42.1,"aqi":77,"pm10":27.1,"pm2_5":24.0,"mosquito_risk":3,"arthritis_risk":5,"migraine_risk":7,"frizz_risk":0,"updated_at":"2026-03-26T04:10:26.841622+05:30"},{"city":"Dharamshala","state":"Himachal Pradesh","latitude":32.219,"longitude":76.3234,"temp":18.7,"humidity":43,"rain":0.0,"pressure":871.8,"uv_index":7.05,"wind_gusts":23.8,"aqi":49,"pm10":21.5,"pm2_5":13.3,"mosquito_risk":0,"arthritis_risk":5,"migraine_risk":7,"frizz_risk":0,"updated_at":"2026-03-26T04:10:26.841629+05:30"},{"city":"Dalhousie","state":"Himachal Pradesh","latitude":32.5387,"longitude":75.971,"temp":15.1,"humidity":57,"rain":0.0,"pressure":805.7,"uv_index":7.25,"wind_gusts":22.3,"aqi":69,"pm10":29.1,"pm2_5":25.1,"mosquito_risk":0,"arthritis_risk":5,"migraine_risk":7,"frizz_risk":0,"updated_at":"2026-03-26T04:10:26.841636+05:30"},{"city":"Patiala","state":"Punjab","latitude":30.3398,"longitude":76.3869,"temp":19.1,"humidity":72,"rain":0.0,"pressure":981.7,"uv_index":6.05,"wind_gusts":32.8,"aqi":148,"pm10":402.3,"pm2_5":50.9,"mosquito_risk":3,"arthritis_risk":5,"migraine_risk":7,"frizz_risk":0,"updated_at":"2026-03-26T04:10:26.841643+05:30"},{"city":"Bhatinda","state":"Punjab","latitude":30.211,"longitude":74.9455,"temp":20.1,"humidity":78,"rain":0.0,"pressure":987.7,"uv_index":6.25,"wind_gusts":31.7,"aqi":111,"pm10":44.7,"pm2_5":26.1,"mosquito_risk":3,"arthritis_risk":5,"migraine_risk":7,"frizz_risk":1,"updated_at":"2026-03-26T04:10:26.841650+05:30"},{"city":"Rohtak","state":"Haryana","latitude":28.8955,"longitude":76.6066,"temp":19.1,"humidity":80,"rain":0.0,"pressure":985.1,"uv_index":6.5,"wind_gusts":22.3,"aqi":189,"pm10":429.3,"pm2_5":88.5,"mosquito_risk":3,"arthritis_risk":5,"migraine_risk":7,"frizz_risk":0,"updated_at":"2026-03-26T04:10:26.841657+05:30"},{"city":"Panipat","state":"Haryana","latitude":29.3909,"longitude":76.9635,"temp":19.0,"humidity":75,"rain":0.0,"pressure":983.6,"uv_index":6.2,"wind_gusts":25.2,"aqi":449,"pm10":605.4,"pm2_5":92.9,"mosquito_risk":3,"arthritis_risk":5,"migraine_risk":7,"frizz_risk":0,"updated_at":"2026-03-26T04:10:26.841663+05:30"},{"city":"Mathura","state":"Uttar Pradesh","latitude":27.4924,"longitude":77.6737,"temp":19.3,"humidity":76,"rain":0.0,"pressure":990.0,"uv_index":6.9,"wind_gusts":23.0,"aqi":270,"pm10":549.5,"pm2_5":92.4,"mosquito_risk":3,"arthritis_risk":5,"migraine_risk":7,"frizz_risk":0,"updated_at":"2026-03-26T04:10:26.841670+05:30"},{"city":"Vrindavan","state":"Uttar Pradesh","latitude":27.5823,"longitude":77.7027,"temp":19.0,"humidity":75,"rain":0.0,"pressure":990.5,"uv_index":6.85,"wind_gusts":26.6,"aqi":270,"pm10":549.5,"pm2_5":92.4,"mosquito_risk":3,"arthritis_risk":5,"migraine_risk":7,"frizz_risk":0,"updated_at":"2026-03-26T04:10:26.841676+05:30"},{"city":"Ayodhya","state":"Uttar Pradesh","latitude":26.7922,"longitude":82.1998,"temp":18.7,"humidity":66,"rain":0.0,"pressure":998.2,"uv_index":7.3,"wind_gusts":32.4,"aqi":93,"pm10":152.3,"pm2_5":40.7,"mosquito_risk":3,"arthritis_risk":5,"migraine_risk":7,"frizz_risk":0,"updated_at":"2026-03-26T04:10:26.841683+05:30"},{"city":"Ratlam","state":"Madhya Pradesh","latitude":23.3315,"longitude":75.0367,"temp":24.5,"humidity":49,"rain":0.0,"pressure":955.6,"uv_index":8.05,"wind_gusts":26.3,"aqi":59,"pm10":8.2,"pm2_5":7.3,"mosquito_risk":0,"arthritis_risk":5,"migraine_risk":7,"frizz_risk":0,"updated_at":"2026-03-26T04:10:26.841690+05:30"},{"city":"Sagar","state":"Madhya Pradesh","latitude":23.8388,"longitude":78.7378,"temp":24.0,"humidity":47,"rain":0.0,"pressure":951.8,"uv_index":8.05,"wind_gusts":21.6,"aqi":53,"pm10":43.1,"pm2_5":14.1,"mosquito_risk":0,"arthritis_risk":5,"migraine_risk":7,"frizz_risk":0,"updated_at":"2026-03-26T04:10:26.841697+05:30"},{"city":"Satna","state":"Madhya Pradesh","latitude":24.6005,"longitude":80.8322,"temp":22.8,"humidity":50,"rain":0.0,"pressure":974.1,"uv_index":8.05,"wind_gusts":26.3,"aqi":82,"pm10":107.1,"pm2_5":24.4,"mosquito_risk":0,"arthritis_risk":5,"migraine_risk":7,"frizz_risk":0,"updated_at":"2026-03-26T04:10:26.841704+05:30"},{"city":"Akola","state":"Maharashtra","latitude":20.7002,"longitude":77.0082,"temp":23.9,"humidity":70,"rain":0.0,"pressure":975.5,"uv_index":8.4,"wind_gusts":25.2,"aqi":49,"pm10":19.8,"pm2_5":17.2,"mosquito_risk":3,"arthritis_risk":5,"migraine_risk":7,"frizz_risk":1,"updated_at":"2026-03-26T04:10:26.841711+05:30"},{"city":"Amravati","state":"Maharashtra","latitude":20.9374,"longitude":77.7796,"temp":22.9,"humidity":65,"rain":0.0,"pressure":967.7,"uv_index":8.4,"wind_gusts":23.4,"aqi":53,"pm10":20.8,"pm2_5":18.5,"mosquito_risk":3,"arthritis_risk":5,"migraine_risk":7,"frizz_risk":0,"updated_at":"2026-03-26T04:10:26.841719+05:30"},{"city":"Latur","state":"Maharashtra","latitude":18.4088,"longitude":76.5604,"temp":23.9,"humidity":71,"rain":0.0,"pressure":940.1,"uv_index":8.75,"wind_gusts":28.1,"aqi":87,"pm10":40.3,"pm2_5":34.2,"mosquito_risk":3,"arthritis_risk":5,"migraine_risk":7,"frizz_risk":1,"updated_at":"2026-03-26T04:10:26.841727+05:30"},{"city":"Nanded","state":"Maharashtra","latitude":19.1383,"longitude":77.3091,"temp":26.8,"humidity":60,"rain":0.0,"pressure":969.0,"uv_index":8.6,"wind_gusts":24.1,"aqi":82,"pm10":26.9,"pm2_5":23.2,"mosquito_risk":4,"arthritis_risk":5,"migraine_risk":7,"frizz_risk":1,"updated_at":"2026-03-26T04:10:26.841733+05:30"},{"city":"Gulbarga","state":"Karnataka","latitude":17.3297,"longitude":76.8343,"temp":26.4,"humidity":65,"rain":0.0,"pressure":959.0,"uv_index":8.85,"wind_gusts":20.2,"aqi":96,"pm10":48.2,"pm2_5":41.1,"mosquito_risk":7,"arthritis_risk":5,"migraine_risk":7,"frizz_risk":1,"updated_at":"2026-03-26T04:10:26.841740+05:30"},{"city":"Bidar","state":"Karnataka","latitude":17.9104,"longitude":77.5199,"temp":25.6,"humidity":68,"rain":0.0,"pressure":935.7,"uv_index":8.85,"wind_gusts":22.7,"aqi":92,"pm10":43.2,"pm2_5":37.6,"mosquito_risk":7,"arthritis_risk":5,"migraine_risk":7,"frizz_risk":1,"updated_at":"2026-03-26T04:10:26.841746+05:30"},{"city":"Hospet","state":"Karnataka","latitude":15.2689,"longitude":76.3909,"temp":27.1,"humidity":72,"rain":0.0,"pressure":956.1,"uv_index":9.05,"wind_gusts":25.6,"aqi":111,"pm10":42.6,"pm2_5":36.2,"mosquito_risk":7,"arthritis_risk":5,"migraine_risk":7,"frizz_risk":1,"updated_at":"2026-03-26T04:10:26.841753+05:30"},{"city":"Tirupur","state":"Tamil Nadu","latitude":11.1085,"longitude":77.3411,"temp":24.7,"humidity":80,"rain":0.0,"pressure":975.5,"uv_index":9.4,"wind_gusts":32.0,"aqi":53,"pm10":21.5,"pm2_5":20.0,"mosquito_risk":3,"arthritis_risk":5,"migraine_risk":7,"frizz_risk":1,"updated_at":"2026-03-26T04:10:26.841759+05:30"},{"city":"Alappuzha","state":"Kerala","latitude":9.4981,"longitude":76.3388,"temp":28.4,"humidity":81,"rain":0.0,"pressure":1007.5,"uv_index":9.15,"wind_gusts":31.7,"aqi":82,"pm10":39.8,"pm2_5":34.0,"mosquito_risk":7,"arthritis_risk":5,"migraine_risk":4,"frizz_risk":1,"updated_at":"2026-03-26T04:10:26.841767+05:30"},{"city":"Munnar","state":"Kerala","latitude":10.0889,"longitude":77.0595,"temp":18.7,"humidity":60,"rain":0.0,"pressure":854.7,"uv_index":9.7,"wind_gusts":27.4,"aqi":56,"pm10":20.0,"pm2_5":17.8,"mosquito_risk":0,"arthritis_risk":5,"migraine_risk":7,"frizz_risk":0,"updated_at":"2026-03-26T04:10:26.841774+05:30"},{"city":"Silchar","state":"Assam","latitude":24.8333,"longitude":92.7789,"temp":21.1,"humidity":89,"rain":0.0,"pressure":1008.9,"uv_index":8.25,"wind_gusts":20.2,"aqi":160,"pm10":81.5,"pm2_5":63.1,"mosquito_risk":3,"arthritis_risk":0,"migraine_risk":4,"frizz_risk":1,"updated_at":"2026-03-26T04:10:26.841781+05:30"},{"city":"Dibrugarh","state":"Assam","latitude":27.4728,"longitude":94.912,"temp":19.8,"humidity":84,"rain":0.0,"pressure":1000.8,"uv_index":8.05,"wind_gusts":8.3,"aqi":86,"pm10":30.5,"pm2_5":27.8,"mosquito_risk":3,"arthritis_risk":10,"migraine_risk":4,"frizz_risk":1,"updated_at":"2026-03-26T04:10:26.841788+05:30"}]