[{"city":"Delhi","state":"Delhi","latitude":28.6139,"longitude":77.209,"temp":35.8,"humidity":30,"rain":0.0,"pressure":979.9,"uv_index":6.65,"wind_gusts":19.8,"aqi":192,"pm10":336.2,"pm2_5":57.0,"mosquito_risk":0,"arthritis_risk":5,"migraine_risk":10,"frizz_risk":0,"updated_at":"2026-04-18T18:38:43.046214+05:30"},{"city":"Mumbai","state":"Maharashtra","latitude":19.076,"longitude":72.8777,"temp":30.4,"humidity":67,"rain":0.0,"pressure":1005.9,"uv_index":7.75,"wind_gusts":22.7,"aqi":123,"pm10":42.8,"pm2_5":29.4,"mosquito_risk":3,"arthritis_risk":5,"migraine_risk":4,"frizz_risk":1,"updated_at":"2026-04-18T18:38:43.046254+05:30"},{"city":"Bangalore","state":"Karnataka","latitude":12.9716,"longitude":77.5946,"temp":32.6,"humidity":26,"rain":0.0,"pressure":910.7,"uv_index":9.0,"wind_gusts":35.3,"aqi":147,"pm10":25.3,"pm2_5":22.5,"mosquito_risk":0,"arthritis_risk":5,"migraine_risk":7,"frizz_risk":0,"updated_at":"2026-04-18T18:38:43.046294+05:30"},{"city":"Hyderabad","state":"Telangana","latitude":17.385,"longitude":78.4867,"temp":35.0,"humidity":35,"rain":0.0,"pressure":951.8,"uv_index":9.25,"wind_gusts":38.5,"aqi":153,"pm10":42.7,"pm2_5":35.4,"mosquito_risk":0,"arthritis_risk":5,"migraine_risk":7,"frizz_risk":1,"updated_at":"2026-04-18T18:38:43.046315+05:30"},{"city":"Chennai","state":"Tamil Nadu","latitude":13.0827,"longitude":80.2707,"temp":30.4,"humidity":68,"rain":0.0,"pressure":1005.3,"uv_index":8.55,"wind_gusts":32.0,"aqi":42,"pm10":11.4,"pm2_5":6.9,"mosquito_risk":3,"arthritis_risk":5,"migraine_risk":4,"frizz_risk":1,"updated_at":"2026-04-18T18:38:43.046330+05:30"},{"city":"Kolkata","state":"West Bengal","latitude":22.5726,"longitude":88.3639,"temp":30.0,"humidity":78,"rain":0.0,"pressure":1005.4,"uv_index":8.85,"wind_gusts":24.1,"aqi":76,"pm10":31.7,"pm2_5":26.7,"mosquito_risk":7,"arthritis_risk":5,"migraine_risk":4,"frizz_risk":1,"updated_at":"2026-04-18T18:38:43.046348+05:30"},{"city":"Pune","state":"Maharashtra","latitude":18.5204,"longitude":73.8567,"temp":35.1,"humidity":31,"rain":0.0,"pressure":947.1,"uv_index":8.45,"wind_gusts":45.0,"aqi":157,"pm10":58.9,"pm2_5":49.6,"mosquito_risk":0,"arthritis_risk":5,"migraine_risk":10,"frizz_risk":0,"updated_at":"2026-04-18T18:38:43.046357+05:30"},{"city":"Ahmedabad","state":"Gujarat","latitude":23.0225,"longitude":72.5714,"temp":39.0,"humidity":14,"rain":0.0,"pressure":999.1,"uv_index":8.15,"wind_gusts":27.7,"aqi":63,"pm10":29.2,"pm2_5":13.6,"mosquito_risk":0,"arthritis_risk":5,"migraine_risk":10,"frizz_risk":0,"updated_at":"2026-04-18T18:38:43.046364+05:30"},{"city":"Jaipur","state":"Rajasthan","latitude":26.9124,"longitude":75.7873,"temp":38.2,"humidity":13,"rain":0.0,"pressure":957.5,"uv_index":7.95,"wind_gusts":28.1,"aqi":220,"pm10":166.7,"pm2_5":27.1,"mosquito_risk":0,"arthritis_risk":5,"migraine_risk":10,"frizz_risk":0,"updated_at":"2026-04-18T18:38:43.046372+05:30"},{"city":"Lucknow","state":"Uttar Pradesh","latitude":26.8467,"longitude":80.9462,"temp":36.3,"humidity":29,"rain":0.0,"pressure":989.4,"uv_index":7.85,"wind_gusts":32.0,"aqi":129,"pm10":161.6,"pm2_5":37.8,"mosquito_risk":0,"arthritis_risk":5,"migraine_risk":10,"frizz_risk":0,"updated_at":"2026-04-18T18:38:43.046380+05:30"},{"city":"Kanpur","state":"Uttar Pradesh","latitude":26.4499,"longitude":80.3319,"temp":34.1,"humidity":42,"rain":0.0,"pressure":988.1,"uv_index":7.85,"wind_gusts":27.0,"aqi":138,"pm10":309.2,"pm2_5":49.8,"mosquito_risk":0,"arthritis_risk":5,"migraine_risk":7,"frizz_risk":1,"updated_at":"2026-04-18T18:38:43.046388+05:30"},{"city":"Chandigarh","state":"Chandigarh","latitude":30.7333,"longitude":76.7794,"temp":31.1,"humidity":34,"rain":0.0,"pressure":967.0,"uv_index":7.1,"wind_gusts":29.2,"aqi":105,"pm10":41.7,"pm2_5":19.3,"mosquito_risk":0,"arthritis_risk":5,"migraine_risk":7,"frizz_risk":0,"updated_at":"2026-04-18T18:38:43.046396+05:30"},{"city":"Srinagar","state":"Jammu and Kashmir","latitude":34.0837,"longitude":74.7973,"temp":14.4,"humidity":79,"rain":0.0,"pressure":844.4,"uv_index":5.85,"wind_gusts":30.6,"aqi":81,"pm10":28.2,"pm2_5":11.8,"mosquito_risk":3,"arthritis_risk":5,"migraine_risk":3,"frizz_risk":0,"updated_at":"2026-04-18T18:38:43.046403+05:30"},{"city":"Jammu","state":"Jammu and Kashmir","latitude":32.7266,"longitude":74.857,"temp":30.4,"humidity":34,"rain":0.0,"pressure":972.6,"uv_index":7.0,"wind_gusts":42.5,"aqi":88,"pm10":71.5,"pm2_5":26.0,"mosquito_risk":0,"arthritis_risk":5,"migraine_risk":7,"frizz_risk":0,"updated_at":"2026-04-18T18:38:43.046409+05:30"},{"city":"Amritsar","state":"Punjab","latitude":31.634,"longitude":74.8723,"temp":31.0,"humidity":34,"rain":0.0,"pressure":980.2,"uv_index":7.9,"wind_gusts":43.2,"aqi":95,"pm10":51.5,"pm2_5":20.3,"mosquito_risk":0,"arthritis_risk":5,"migraine_risk":7,"frizz_risk":0,"updated_at":"2026-04-18T18:38:43.046416+05:30"},{"city":"Ludhiana","state":"Punjab","latitude":30.901,"longitude":75.8573,"temp":34.7,"humidity":28,"rain":0.0,"pressure":977.2,"uv_index":7.45,"wind_gusts":32.4,"aqi":115,"pm10":60.1,"pm2_5":26.4,"mosquito_risk":0,"arthritis_risk":5,"migraine_risk":7,"frizz_risk":0,"updated_at":"2026-04-18T18:38:43.046425+05:30"},{"city":"Jalandhar","state":"Punjab","latitude":31.326,"longitude":75.5762,"temp":33.5,"humidity":29,"rain":0.0,"pressure":978.6,"uv_index":7.65,"wind_gusts":42.1,"aqi":109,"pm10":71.5,"pm2_5":24.7,"mosquito_risk":0,"arthritis_risk":5,"migraine_risk":7,"frizz_risk":0,"updated_at":"2026-04-18T18:38:43.046432+05:30"},{"city":"Dehradun","state":"Uttarakhand","latitude":30.6284,"longitude":78.0322,"temp":23.0,"humidity":38,"rain":0.0,"pressure":831.7,"uv_index":7.55,"wind_gusts":46.1,"aqi":81,"pm10":29.2,"pm2_5":10.1,"mosquito_risk":0,"arthritis_risk":5,"migraine_risk":7,"frizz_risk":0,"updated_at":"2026-04-18T18:38:43.046438+05:30"},{"city":"Shimla","state":"Himachal Pradesh","latitude":31.1048,"longitude":77.1734,"temp":21.1,"humidity":34,"rain":0.0,"pressure":787.8,"uv_index":7.7,"wind_gusts":47.9,"aqi":94,"pm10":45.8,"pm2_5":16.1,"mosquito_risk":0,"arthritis_risk":5,"migraine_risk":7,"frizz_risk":0,"updated_at":"2026-04-18T18:38:43.046445+05:30"},{"city":"Manali","state":"Himachal Pradesh","latitude":32.2396,"longitude":77.1887,"temp":19.8,"humidity":36,"rain":0.0,"pressure":823.9,"uv_index":8.9,"wind_gusts":25.2,"aqi":100,"pm10":30.4,"pm2_5":8.2,"mosquito_risk":0,"arthritis_risk":5,"migraine_risk":7,"frizz_risk":0,"updated_at":"2026-04-18T18:38:43.046452+05:30"},{"city":"Gurgaon","state":"Haryana","latitude":28.4595,"longitude":77.0266,"temp":33.8,"humidity":38,"rain":0.0,"pressure":978.2,"uv_index":6.9,"wind_gusts":15.8,"aqi":521,"pm10":685.5,"pm2_5":88.0,"mosquito_risk":0,"arthritis_risk":5,"migraine_risk":7,"frizz_risk":1,"updated_at":"2026-04-18T18:38:43.046459+05:30"},{"city":"Noida","state":"Uttar Pradesh","latitude":28.5355,"longitude":77.391,"temp":35.4,"humidity":32,"rain":0.0,"pressure":981.4,"uv_index":6.95,"wind_gusts":22.0,"aqi":521,"pm10":685.5,"pm2_5":88.0,"mosquito_risk":0,"arthritis_risk":5,"migraine_risk":10,"frizz_risk":1,"updated_at":"2026-04-18T18:38:43.046465+05:30"},{"city":"Ghaziabad","state":"Uttar Pradesh","latitude":28.6692,"longitude":77.4538,"temp":34.9,"humidity":36,"rain":0.0,"pressure":979.7,"uv_index":6.65,"wind_gusts":19.4,"aqi":176,"pm10":210.0,"pm2_5":53.2,"mosquito_risk":0,"arthritis_risk":5,"migraine_risk":7,"frizz_risk":1,"updated_at":"2026-04-18T18:38:43.046472+05:30"},{"city":"Faridabad","state":"Haryana","latitude":28.4089,"longitude":77.3178,"temp":35.1,"humidity":32,"rain":0.0,"pressure":980.7,"uv_index":7.25,"wind_gusts":25.2,"aqi":521,"pm10":685.5,"pm2_5":88.0,"mosquito_risk":0,"arthritis_risk":5,"migraine_risk":10,"frizz_risk":0,"updated_at":"2026-04-18T18:38:43.046478+05:30"},{"city":"Meerut","state":"Uttar Pradesh","latitude":28.9845,"longitude":77.7064,"temp":33.8,"humidity":37,"rain":0.0,"pressure":978.6,"uv_index":6.75,"wind_gusts":20.9,"aqi":176,"pm10":210.0,"pm2_5":53.2,"mosquito_risk":0,"arthritis_risk":5,"migraine_risk":7,"frizz_risk":1,"updated_at":"2026-04-18T18:38:43.046485+05:30"},{"city":"Agra","state":"Uttar Pradesh","latitude":27.1767,"longitude":78.0081,"temp":36.3,"humidity":32,"rain":0.0,"pressure":984.3,"uv_index":7.7,"wind_gusts":16.9,"aqi":654,"pm10":320.4,"pm2_5":51.2,"mosquito_risk":0,"arthritis_risk":5,"migraine_risk":10,"frizz_risk":1,"updated_at":"2026-04-18T18:38:43.046495+05:30"},{"city":"Varanasi","state":"Uttar Pradesh","latitude":25.3176,"longitude":82.9739,"temp":36.4,"humidity":27,"rain":0.0,"pressure":993.1,"uv_index":8.25,"wind_gusts":25.6,"aqi":163,"pm10":70.8,"pm2_5":33.2,"mosquito_risk":0,"arthritis_risk":5,"migraine_risk":10,"frizz_risk":0,"updated_at":"2026-04-18T18:38:43.046505+05:30"},{"city":"Prayagraj","state":"Uttar Pradesh","latitude":25.4358,"longitude":81.8463,"temp":36.1,"humidity":26,"rain":0.0,"pressure":991.7,"uv_index":7.85,"wind_gusts":28.8,"aqi":158,"pm10":71.7,"pm2_5":29.2,"mosquito_risk":0,"arthritis_risk":5,"migraine_risk":10,"frizz_risk":0,"updated_at":"2026-04-18T18:38:43.046513+05:30"},{"city":"Gorakhpur","state":"Uttar Pradesh","latitude":26.7606,"longitude":83.3732,"temp":35.5,"humidity":36,"rain":0.0,"pressure":992.5,"uv_index":8.1,"wind_gusts":28.4,"aqi":166,"pm10":36.3,"pm2_5":16.8,"mosquito_risk":0,"arthritis_risk":5,"migraine_risk":10,"frizz_risk":1,"updated_at":"2026-04-18T18:38:43.046519+05:30"},{"city":"Bareilly","state":"Uttar Pradesh","latitude":28.367,"longitude":79.4304,"temp":34.5,"humidity":31,"rain":0.0,"pressure":983.2,"uv_index":7.6,"wind_gusts":31.0,"aqi":143,"pm10":66.1,"pm2_5":26.7,"mosquito_risk":0,"arthritis_risk":5,"migraine_risk":7,"frizz_risk":0,"updated_at":"2026-04-18T18:38:43.046525+05:30"},{"city":"Aligarh","state":"Uttar Pradesh","latitude":27.8974,"longitude":78.088,"temp":36.8,"humidity":23,"rain":0.0,"pressure":982.2,"uv_index":7.35,"wind_gusts":25.6,"aqi":275,"pm10":336.2,"pm2_5":56.7,"mosquito_risk":0,"arthritis_risk":5,"migraine_risk":10,"frizz_risk":0,"updated_at":"2026-04-18T18:38:43.046531+05:30"},{"city":"Moradabad","state":"Uttar Pradesh","latitude":28.8386,"longitude":78.7733,"temp":34.0,"humidity":33,"rain":0.0,"pressure":980.4,"uv_index":7.4,"wind_gusts":28.8,"aqi":150,"pm10":108.7,"pm2_5":38.3,"mosquito_risk":0,"arthritis_risk":5,"migraine_risk":7,"frizz_risk":0,"updated_at":"2026-04-18T18:38:43.046537+05:30"},{"city":"Saharanpur","state":"Uttar Pradesh","latitude":29.9637,"longitude":77.546,"temp":31.7,"humidity":42,"rain":0.0,"pressure":973.3,"uv_index":7.0,"wind_gusts":23.4,"aqi":125,"pm10":99.0,"pm2_5":31.9,"mosquito_risk":0,"arthritis_risk":5,"migraine_risk":7,"frizz_risk":1,"updated_at":"2026-04-18T18:38:43.046543+05:30"},{"city":"Jhansi","state":"Uttar Pradesh","latitude":25.4484,"longitude":78.5685,"temp":36.7,"humidity":21,"rain":0.0,"pressure":974.6,"uv_index":7.85,"wind_gusts":27.0,"aqi":150,"pm10":72.2,"pm2_5":26.4,"mosquito_risk":0,"arthritis_risk":5,"migraine_risk":10,"frizz_risk":0,"updated_at":"2026-04-18T18:38:46.302184+05:30"},{"city":"Surat","state":"Gujarat","latitude":21.1702,"longitude":72.8311,"temp":31.3,"humidity":55,"rain":0.0,"pressure":1004.1,"uv_index":7.8,"wind_gusts":27.0,"aqi":112,"pm10":61.0,"pm2_5":50.6,"mosquito_risk":0,"arthritis_risk":5,"migraine_risk":4,"frizz_risk":1,"updated_at":"2026-04-18T18:38:46.302209+05:30"},{"city":"Vadodara","state":"Gujarat","latitude":22.3072,"longitude":73.1812,"temp":39.3,"humidity":22,"rain":0.0,"pressure":1000.7,"uv_index":8.15,"wind_gusts":19.4,"aqi":124,"pm10":33.9,"pm2_5":21.6,"mosquito_risk":0,"arthritis_risk":5,"migraine_risk":7,"frizz_risk":0,"updated_at":"2026-04-18T18:38:46.302218+05:30"},{"city":"Rajkot","state":"Gujarat","latitude":22.3039,"longitude":70.8022,"temp":36.7,"humidity":17,"rain":0.0,"pressure":992.2,"uv_index":7.8,"wind_gusts":28.1,"aqi":80,"pm10":36.2,"pm2_5":14.6,"mosquito_risk":0,"arthritis_risk":5,"migraine_risk":10,"frizz_risk":0,"updated_at":"2026-04-18T18:38:46.302225+05:30"},{"city":"Thane","state":"Maharashtra","latitude":19.2183,"longitude":72.9781,"temp":30.5,"humidity":60,"rain":0.0,"pressure":1005.4,"uv_index":7.85,"wind_gusts":33.5,"aqi":123,"pm10":42.8,"pm2_5":29.4,"mosquito_risk":0,"arthritis_risk":5,"migraine_risk":4,"frizz_risk":1,"updated_at":"2026-04-18T18:38:46.302232+05:30"},{"city":"Nagpur","state":"Maharashtra","latitude":21.1458,"longitude":79.0882,"temp":36.7,"humidity":26,"rain":0.0,"pressure":969.4,"uv_index":7.6,"wind_gusts":21.6,"aqi":172,"pm10":28.7,"pm2_5":25.2,"mosquito_risk":0,"arthritis_risk":5,"migraine_risk":10,"frizz_risk":0,"updated_at":"2026-04-18T18:38:46.302238+05:30"},{"city":"Nashik","state":"Maharashtra","latitude":19.9975,"longitude":73.7898,"temp":33.4,"humidity":29,"rain":0.0,"pressure":944.6,"uv_index":8.05,"wind_gusts":29.9,"aqi":120,"pm10":29.6,"pm2_5":22.5,"mosquito_risk":0,"arthritis_risk":5,"migraine_risk":7,"frizz_risk":0,"updated_at":"2026-04-18T18:38:46.302245+05:30"},{"city":"Aurangabad","state":"Maharashtra","latitude":19.8762,"longitude":75.3433,"temp":35.7,"humidity":15,"rain":0.0,"pressure":942.9,"uv_index":7.5,"wind_gusts":36.7,"aqi":115,"pm10":21.6,"pm2_5":16.9,"mosquito_risk":0,"arthritis_risk":5,"migraine_risk":10,"frizz_risk":0,"updated_at":"2026-04-18T18:38:46.302251+05:30"},{"city":"Solapur","state":"Maharashtra","latitude":17.6599,"longitude":75.9064,"temp":34.7,"humidity":35,"rain":0.0,"pressure":955.2,"uv_index":7.95,"wind_gusts":19.8,"aqi":172,"pm10":40.2,"pm2_5":34.6,"mosquito_risk":0,"arthritis_risk":5,"migraine_risk":7,"frizz_risk":1,"updated_at":"2026-04-18T18:38:46.302258+05:30"},{"city":"Kolhapur","state":"Maharashtra","latitude":16.705,"longitude":74.2433,"temp":29.8,"humidity":68,"rain":0.0,"pressure":946.5,"uv_index":8.65,"wind_gusts":44.6,"aqi":176,"pm10":40.5,"pm2_5":31.9,"mosquito_risk":7,"arthritis_risk":5,"migraine_risk":7,"frizz_risk":1,"updated_at":"2026-04-18T18:38:46.302264+05:30"},{"city":"Goa","state":"Goa","latitude":15.2993,"longitude":74.124,"temp":30.0,"humidity":74,"rain":0.0,"pressure":996.0,"uv_index":9.0,"wind_gusts":31.3,"aqi":75,"pm10":55.5,"pm2_5":23.2,"mosquito_risk":7,"arthritis_risk":5,"migraine_risk":7,"frizz_risk":1,"updated_at":"2026-04-18T18:38:46.302315+05:30"},{"city":"Jodhpur","state":"Rajasthan","latitude":26.2389,"longitude":73.0243,"temp":37.3,"humidity":15,"rain":0.0,"pressure":980.5,"uv_index":8.15,"wind_gusts":28.1,"aqi":99,"pm10":151.3,"pm2_5":20.4,"mosquito_risk":0,"arthritis_risk":5,"migraine_risk":10,"frizz_risk":0,"updated_at":"2026-04-18T18:38:46.302324+05:30"},{"city":"Udaipur","state":"Rajasthan","latitude":24.5854,"longitude":73.7125,"temp":35.2,"humidity":20,"rain":0.0,"pressure":945.5,"uv_index":8.75,"wind_gusts":29.5,"aqi":90,"pm10":39.8,"pm2_5":12.2,"mosquito_risk":0,"arthritis_risk":5,"migraine_risk":10,"frizz_risk":0,"updated_at":"2026-04-18T18:38:46.302331+05:30"},{"city":"Kota","state":"Rajasthan","latitude":25.2138,"longitude":75.8648,"temp":39.4,"humidity":14,"rain":0.0,"pressure":975.2,"uv_index":8.25,"wind_gusts":23.0,"aqi":175,"pm10":74.3,"pm2_5":28.6,"mosquito_risk":0,"arthritis_risk":5,"migraine_risk":10,"frizz_risk":0,"updated_at":"2026-04-18T18:38:46.302337+05:30"},{"city":"Bikaner","state":"Rajasthan","latitude":28.0229,"longitude":73.3119,"temp":38.5,"humidity":16,"rain":0.0,"pressure":979.0,"uv_index":7.8,"wind_gusts":29.9,"aqi":93,"pm10":48.4,"pm2_5":14.9,"mosquito_risk":0,"arthritis_risk":5,"migraine_risk":10,"frizz_risk":0,"updated_at":"2026-04-18T18:38:46.302343+05:30"},{"city":"Ajmer","state":"Rajasthan","latitude":26.4499,"longitude":74.6399,"temp":35.7,"humidity":18,"rain":0.0,"pressure":952.9,"uv_index":8.15,"wind_gusts":32.0,"aqi":85,"pm10":64.3,"pm2_5":15.7,"mosquito_risk":0,"arthritis_risk":5,"migraine_risk":10,"frizz_risk":0,"updated_at":"2026-04-18T18:38:46.302349+05:30"},{"city":"Gwalior","state":"Madhya Pradesh","latitude":26.2183,"longitude":78.1828,"temp":37.0,"humidity":24,"rain":0.0,"pressure":980.4,"uv_index":7.95,"wind_gusts":28.4,"aqi":127,"pm10":97.8,"pm2_5":26.3,"mosquito_risk":0,"arthritis_risk":5,"migraine_risk":10,"frizz_risk":0,"updated_at":"2026-04-18T18:38:46.302356+05:30"},{"city":"Indore","state":"Madhya Pradesh","latitude":22.7196,"longitude":75.8577,"temp":34.8,"humidity":19,"rain":0.0,"pressure":946.6,"uv_index":8.15,"wind_gusts":25.6,"aqi":99,"pm10":12.8,"pm2_5":10.9,"mosquito_risk":0,"arthritis_risk":5,"migraine_risk":7,"frizz_risk":0,"updated_at":"2026-04-18T18:38:46.302362+05:30"},{"city":"Bhopal","state":"Madhya Pradesh","latitude":23.2599,"longitude":77.4126,"temp":37.8,"humidity":12,"rain":0.0,"pressure":951.2,"uv_index":7.7,"wind_gusts":24.5,"aqi":130,"pm10":20.4,"pm2_5":16.6,"mosquito_risk":0,"arthritis_risk":5,"migraine_risk":10,"frizz_risk":0,"updated_at":"2026-04-18T18:38:46.302368+05:30"},{"city":"Jabalpur","state":"Madhya Pradesh","latitude":23.1815,"longitude":79.9864,"temp":34.9,"humidity":33,"rain":0.0,"pressure":958.6,"uv_index":7.45,"wind_gusts":24.5,"aqi":151,"pm10":26.0,"pm2_5":20.4,"mosquito_risk":0,"arthritis_risk":5,"migraine_risk":7,"frizz_risk":1,"updated_at":"2026-04-18T18:38:46.302374+05:30"},{"city":"Ujjain","state":"Madhya Pradesh","latitude":23.1765,"longitude":75.7885,"temp":35.5,"humidity":18,"rain":0.0,"pressure":952.2,"uv_index":8.5,"wind_gusts":24.1,"aqi":88,"pm10":18.1,"pm2_5":16.4,"mosquito_risk":0,"arthritis_risk":5,"migraine_risk":10,"frizz_risk":0,"updated_at":"2026-04-18T18:38:46.302381+05:30"},{"city":"Visakhapatnam","state":"Andhra Pradesh","latitude":17.6868,"longitude":83.2185,"temp":29.2,"humidity":78,"rain":0.0,"pressure":1002.3,"uv_index":9.15,"wind_gusts":34.2,"aqi":61,"pm10":25.0,"pm2_5":17.6,"mosquito_risk":7,"arthritis_risk":5,"migraine_risk":4,"frizz_risk":1,"updated_at":"2026-04-18T18:38:46.302387+05:30"},{"city":"Vijayawada","state":"Andhra Pradesh","latitude":16.5062,"longitude":80.648,"temp":33.1,"humidity":52,"rain":0.0,"pressure":1000.1,"uv_index":8.8,"wind_gusts":26.3,"aqi":57,"pm10":25.1,"pm2_5":19.3,"mosquito_risk":0,"arthritis_risk":5,"migraine_risk":4,"frizz_risk":1,"updated_at":"2026-04-18T18:38:46.302392+05:30"},{"city":"Guntur","state":"Andhra Pradesh","latitude":16.3067,"longitude":80.4365,"temp":31.4,"humidity":60,"rain":0.0,"pressure":1001.6,"uv_index":8.9,"wind_gusts":29.5,"aqi":64,"pm10":28.9,"pm2_5":22.5,"mosquito_risk":0,"arthritis_risk":5,"migraine_risk":4,"frizz_risk":1,"updated_at":"2026-04-18T18:38:46.302398+05:30"},{"city":"Nellore","state":"Andhra Pradesh","latitude":14.4426,"longitude":79.9865,"temp":31.1,"humidity":64,"rain":0.0,"pressure":1003.1,"uv_index":8.7,"wind_gusts":32.8,"aqi":76,"pm10":15.3,"pm2_5":11.5,"mosquito_risk":3,"arthritis_risk":5,"migraine_risk":4,"frizz_risk":1,"updated_at":"2026-04-18T18:38:46.302405+05:30"},{"city":"Kurnool","state":"Andhra Pradesh","latitude":15.8281,"longitude":78.0373,"temp":39.6,"humidity":18,"rain":0.0,"pressure":973.1,"uv_index":9.2,"wind_gusts":33.8,"aqi":146,"pm10":36.8,"pm2_5":30.7,"mosquito_risk":0,"arthritis_risk":5,"migraine_risk":10,"frizz_risk":0,"updated_at":"2026-04-18T18:38:46.302412+05:30"},{"city":"Kakinada","state":"Andhra Pradesh","latitude":16.9891,"longitude":82.2475,"temp":31.4,"humidity":63,"rain":0.0,"pressure":1005.7,"uv_index":9.1,"wind_gusts":29.9,"aqi":52,"pm10":19.2,"pm2_5":11.6,"mosquito_risk":3,"arthritis_risk":5,"migraine_risk":4,"frizz_risk":1,"updated_at":"2026-04-18T18:38:46.302417+05:30"},{"city":"Tirupati","state":"Andhra Pradesh","latitude":13.6288,"longitude":79.4192,"temp":33.1,"humidity":44,"rain":0.0,"pressure":989.5,"uv_index":9.0,"wind_gusts":32.0,"aqi":86,"pm10":20.4,"pm2_5":17.9,"mosquito_risk":0,"arthritis_risk":5,"migraine_risk":7,"frizz_risk":1,"updated_at":"2026-04-18T18:38:46.302423+05:30"},{"city":"Warangal","state":"Telangana","latitude":17.9689,"longitude":79.5941,"temp":36.9,"humidity":36,"rain":0.0,"pressure":975.5,"uv_index":8.8,"wind_gusts":26.6,"aqi":125,"pm10":41.6,"pm2_5":34.8,"mosquito_risk":0,"arthritis_risk":5,"migraine_risk":10,"frizz_risk":1,"updated_at":"2026-04-18T18:38:46.302429+05:30"},{"city":"Nizamabad","state":"Telangana","latitude":18.6725,"longitude":78.0941,"temp":34.5,"humidity":34,"rain":0.0,"pressure":963.0,"uv_index":8.85,"wind_gusts":37.8,"aqi":164,"pm10":44.5,"pm2_5":34.8,"mosquito_risk":0,"arthritis_risk":5,"migraine_risk":7,"frizz_risk":1,"updated_at":"2026-04-18T18:38:46.302434+05:30"},{"city":"Mysore","state":"Karnataka","latitude":12.2958,"longitude":76.6396,"temp":33.5,"humidity":22,"rain":0.0,"pressure":926.7,"uv_index":9.0,"wind_gusts":40.3,"aqi":143,"pm10":24.7,"pm2_5":21.8,"mosquito_risk":0,"arthritis_risk":5,"migraine_risk":7,"frizz_risk":0,"updated_at":"2026-04-18T18:38:46.302440+05:30"},{"city":"Mangalore","state":"Karnataka","latitude":12.9141,"longitude":74.856,"temp":30.4,"humidity":76,"rain":0.0,"pressure":1004.6,"uv_index":9.1,"wind_gusts":23.0,"aqi":63,"pm10":30.9,"pm2_5":17.2,"mosquito_risk":3,"arthritis_risk":5,"migraine_risk":4,"frizz_risk":1,"updated_at":"2026-04-18T18:38:46.302446+05:30"},{"city":"Hubli-Dharwad","state":"Karnataka","latitude":15.3647,"longitude":75.124,"temp":31.2,"humidity":54,"rain":0.0,"pressure":939.0,"uv_index":9.2,"wind_gusts":39.2,"aqi":128,"pm10":31.4,"pm2_5":26.1,"mosquito_risk":0,"arthritis_risk":5,"migraine_risk":7,"frizz_risk":1,"updated_at":"2026-04-18T18:38:46.302452+05:30"},{"city":"Belgaum","state":"Karnataka","latitude":15.8497,"longitude":74.4977,"temp":28.8,"humidity":71,"rain":0.0,"pressure":924.7,"uv_index":8.85,"wind_gusts":34.2,"aqi":159,"pm10":40.3,"pm2_5":27.1,"mosquito_risk":7,"arthritis_risk":5,"migraine_risk":7,"frizz_risk":1,"updated_at":"2026-04-18T18:38:49.553970+05:30"},{"city":"Coimbatore","state":"Tamil Nadu","latitude":11.0168,"longitude":76.9558,"temp":32.5,"humidity":42,"rain":0.0,"pressure":959.9,"uv_index":9.25,"wind_gusts":31.3,"aqi":145,"pm10":28.6,"pm2_5":22.9,"mosquito_risk":0,"arthritis_risk":5,"migraine_risk":7,"frizz_risk":1,"updated_at":"2026-04-18T18:38:49.554001+05:30"},{"city":"Madurai","state":"Tamil Nadu","latitude":9.9252,"longitude":78.1198,"temp":36.2,"humidity":32,"rain":0.0,"pressure":990.2,"uv_index":9.35,"wind_gusts":34.2,"aqi":111,"pm10":17.1,"pm2_5":13.5,"mosquito_risk":0,"arthritis_risk":5,"migraine_risk":10,"frizz_risk":1,"updated_at":"2026-04-18T18:38:49.554010+05:30"},{"city":"Trichy","state":"Tamil Nadu","latitude":10.7905,"longitude":78.7047,"temp":34.3,"humidity":50,"rain":0.0,"pressure":997.0,"uv_index":9.35,"wind_gusts":18.4,"aqi":73,"pm10":11.2,"pm2_5":9.8,"mosquito_risk":0,"arthritis_risk":5,"migraine_risk":7,"frizz_risk":1,"updated_at":"2026-04-18T18:38:49.554018+05:30"},{"city":"Salem","state":"Tamil Nadu","latitude":11.6643,"longitude":78.146,"temp":34.9,"humidity":33,"rain":0.0,"pressure":974.8,"uv_index":9.25,"wind_gusts":19.8,"aqi":112,"pm10":19.5,"pm2_5":14.6,"mosquito_risk":0,"arthritis_risk":5,"migraine_risk":7,"frizz_risk":1,"updated_at":"2026-04-18T18:38:49.554024+05:30"},{"city":"Tirunelveli","state":"Tamil Nadu","latitude":8.7139,"longitude":77.7567,"temp":32.6,"humidity":55,"rain":0.0,"pressure":1000.5,"uv_index":9.25,"wind_gusts":50.4,"aqi":123,"pm10":22.1,"pm2_5":19.8,"mosquito_risk":0,"arthritis_risk":5,"migraine_risk":4,"frizz_risk":1,"updated_at":"2026-04-18T18:38:49.554031+05:30"},{"city":"Vellore","state":"Tamil Nadu","latitude":12.9165,"longitude":79.1325,"temp":32.0,"humidity":49,"rain":0.0,"pressure":982.8,"uv_index":8.9,"wind_gusts":25.6,"aqi":93,"pm10":25.0,"pm2_5":22.8,"mosquito_risk":0,"arthritis_risk":5,"migraine_risk":7,"frizz_risk":1,"updated_at":"2026-04-18T18:38:49.554038+05:30"},{"city":"Erode","state":"Tamil Nadu","latitude":11.341,"longitude":77.7172,"temp":36.5,"humidity":35,"rain":0.0,"pressure":986.1,"uv_index":9.35,"wind_gusts":24.8,"aqi":101,"pm10":20.7,"pm2_5":15.5,"mosquito_risk":0,"arthritis_risk":5,"migraine_risk":10,"frizz_risk":1,"updated_at":"2026-04-18T18:38:49.554046+05:30"},{"city":"Kochi","state":"Kerala","latitude":9.9312,"longitude":76.2673,"temp":30.1,"humidity":81,"rain":0.0,"pressure":1006.5,"uv_index":9.15,"wind_gusts":31.3,"aqi":83,"pm10":28.2,"pm2_5":20.4,"mosquito_risk":3,"arthritis_risk":5,"migraine_risk":4,"frizz_risk":1,"updated_at":"2026-04-18T18:38:49.554053+05:30"},{"city":"Thiruvananthapuram","state":"Kerala","latitude":8.5241,"longitude":76.9366,"temp":29.4,"humidity":81,"rain":0.0,"pressure":1006.1,"uv_index":9.1,"wind_gusts":27.0,"aqi":78,"pm10":30.3,"pm2_5":19.3,"mosquito_risk":7,"arthritis_risk":5,"migraine_risk":4,"frizz_risk":1,"updated_at":"2026-04-18T18:38:49.554060+05:30"},{"city":"Kozhikode","state":"Kerala","latitude":11.2588,"longitude":75.7804,"temp":30.6,"humidity":79,"rain":0.0,"pressure":1005.5,"uv_index":9.05,"wind_gusts":33.1,"aqi":71,"pm10":22.7,"pm2_5":15.0,"mosquito_risk":3,"arthritis_risk":5,"migraine_risk":4,"frizz_risk":1,"updated_at":"2026-04-18T18:38:49.554067+05:30"},{"city":"Thrissur","state":"Kerala","latitude":10.5276,"longitude":76.2144,"temp":31.0,"humidity":74,"rain":0.0,"pressure":1004.8,"uv_index":8.65,"wind_gusts":36.4,"aqi":78,"pm10":23.3,"pm2_5":17.8,"mosquito_risk":3,"arthritis_risk":5,"migraine_risk":4,"frizz_risk":1,"updated_at":"2026-04-18T18:38:49.554073+05:30"},{"city":"Kannur","state":"Kerala","latitude":11.8745,"longitude":75.3704,"temp":30.9,"humidity":68,"rain":0.0,"pressure":1004.9,"uv_index":8.6,"wind_gusts":34.6,"aqi":69,"pm10":29.0,"pm2_5":18.9,"mosquito_risk":3,"arthritis_risk":5,"migraine_risk":4,"frizz_risk":1,"updated_at":"2026-04-18T18:38:49.554080+05:30"},{"city":"Patna","state":"Bihar","latitude":25.5941,"longitude":85.1376,"temp":35.4,"humidity":46,"rain":0.0,"pressure":995.8,"uv_index":8.6,"wind_gusts":24.5,"aqi":187,"pm10":56.6,"pm2_5":30.7,"mosquito_risk":0,"arthritis_risk":5,"migraine_risk":10,"frizz_risk":1,"updated_at":"2026-04-18T18:38:49.554086+05:30"},{"city":"Gaya","state":"Bihar","latitude":24.7914,"longitude":85.0002,"temp":35.5,"humidity":30,"rain":0.0,"pressure":989.6,"uv_index":8.65,"wind_gusts":28.4,"aqi":170,"pm10":61.5,"pm2_5":28.3,"mosquito_risk":0,"arthritis_risk":5,"migraine_risk":10,"frizz_risk":0,"updated_at":"2026-04-18T18:38:49.554093+05:30"},{"city":"Muzaffarpur","state":"Bihar","latitude":26.1209,"longitude":85.3647,"temp":32.0,"humidity":62,"rain":0.0,"pressure":996.4,"uv_index":8.6,"wind_gusts":31.0,"aqi":190,"pm10":68.9,"pm2_5":47.8,"mosquito_risk":3,"arthritis_risk":5,"migraine_risk":7,"frizz_risk":1,"updated_at":"2026-04-18T18:38:49.554100+05:30"},{"city":"Bhagalpur","state":"Bihar","latitude":25.2425,"longitude":87.0117,"temp":29.5,"humidity":81,"rain":0.0,"pressure":998.2,"uv_index":8.25,"wind_gusts":24.8,"aqi":176,"pm10":62.4,"pm2_5":53.0,"mosquito_risk":7,"arthritis_risk":5,"migraine_risk":7,"frizz_risk":1,"updated_at":"2026-04-18T18:38:49.554107+05:30"},{"city":"Ranchi","state":"Jharkhand","latitude":23.3441,"longitude":85.3096,"temp":34.2,"humidity":20,"rain":0.0,"pressure":936.0,"uv_index":9.15,"wind_gusts":42.1,"aqi":149,"pm10":47.8,"pm2_5":20.3,"mosquito_risk":0,"arthritis_risk":5,"migraine_risk":7,"frizz_risk":0,"updated_at":"2026-04-18T18:38:49.554112+05:30"},{"city":"Jamshedpur","state":"Jharkhand","latitude":22.8046,"longitude":86.2029,"temp":35.7,"humidity":41,"rain":0.0,"pressure":986.8,"uv_index":8.9,"wind_gusts":37.1,"aqi":197,"pm10":64.7,"pm2_5":41.2,"mosquito_risk":0,"arthritis_risk":5,"migraine_risk":10,"frizz_risk":1,"updated_at":"2026-04-18T18:38:49.554118+05:30"},{"city":"Dhanbad","state":"Jharkhand","latitude":23.7957,"longitude":86.4304,"temp":35.7,"humidity":37,"rain":0.0,"pressure":976.4,"uv_index":8.95,"wind_gusts":26.6,"aqi":206,"pm10":95.5,"pm2_5":65.4,"mosquito_risk":0,"arthritis_risk":5,"migraine_risk":10,"frizz_risk":1,"updated_at":"2026-04-18T18:38:49.554124+05:30"},{"city":"Bokaro","state":"Jharkhand","latitude":23.6693,"longitude":86.1511,"temp":33.4,"humidity":47,"rain":0.0,"pressure":980.5,"uv_index":8.95,"wind_gusts":40.0,"aqi":199,"pm10":80.8,"pm2_5":50.1,"mosquito_risk":0,"arthritis_risk":5,"migraine_risk":7,"frizz_risk":1,"updated_at":"2026-04-18T18:38:49.554130+05:30"},{"city":"Bhubaneswar","state":"Odisha","latitude":20.2961,"longitude":85.8245,"temp":28.6,"humidity":82,"rain":0.0,"pressure":1000.6,"uv_index":8.65,"wind_gusts":29.9,"aqi":58,"pm10":20.7,"pm2_5":16.8,"mosquito_risk":7,"arthritis_risk":5,"migraine_risk":4,"frizz_risk":1,"updated_at":"2026-04-18T18:38:49.554136+05:30"},{"city":"Cuttack","state":"Odisha","latitude":20.4625,"longitude":85.8828,"temp":30.4,"humidity":75,"rain":0.0,"pressure":1002.3,"uv_index":8.9,"wind_gusts":29.2,"aqi":58,"pm10":20.7,"pm2_5":16.8,"mosquito_risk":3,"arthritis_risk":5,"migraine_risk":4,"frizz_risk":1,"updated_at":"2026-04-18T18:38:49.554142+05:30"},{"city":"Rourkela","state":"Odisha","latitude":22.2604,"longitude":84.8536,"temp":35.8,"humidity":43,"rain":0.0,"pressure":981.4,"uv_index":8.65,"wind_gusts":28.1,"aqi":165,"pm10":74.0,"pm2_5":35.2,"mosquito_risk":0,"arthritis_risk":5,"migraine_risk":10,"frizz_risk":1,"updated_at":"2026-04-18T18:38:49.554148+05:30"},{"city":"Raipur","state":"Chhattisgarh","latitude":21.2514,"longitude":81.6296,"temp":37.1,"humidity":30,"rain":0.0,"pressure":971.8,"uv_index":8.85,"wind_gusts":31.3,"aqi":216,"pm10":79.6,"pm2_5":52.6,"mosquito_risk":0,"arthritis_risk":5,"migraine_risk":10,"frizz_risk":1,"updated_at":"2026-04-18T18:38:49.554154+05:30"},{"city":"Bhilai","state":"Chhattisgarh","latitude":21.1938,"longitude":81.3509,"temp":35.7,"humidity":35,"rain":0.0,"pressure":971.7,"uv_index":8.5,"wind_gusts":36.4,"aqi":218,"pm10":81.3,"pm2_5":50.1,"mosquito_risk":0,"arthritis_risk":5,"migraine_risk":10,"frizz_risk":1,"updated_at":"2026-04-18T18:38:49.554160+05:30"},{"city":"Guwahati","state":"Assam","latitude":26.1158,"longitude":91.7086,"temp":26.3,"humidity":87,"rain":0.0,"pressure":1001.3,"uv_index":8.5,"wind_gusts":22.7,"aqi":136,"pm10":62.2,"pm2_5":53.4,"mosquito_risk":7,"arthritis_risk":5,"migraine_risk":4,"frizz_risk":1,"updated_at":"2026-04-18T18:38:49.554166+05:30"},{"city":"Agartala","state":"Tripura","latitude":23.8315,"longitude":91.2868,"temp":28.9,"humidity":79,"rain":0.0,"pressure":1004.5,"uv_index":8.7,"wind_gusts":16.9,"aqi":136,"pm10":61.2,"pm2_5":53.1,"mosquito_risk":7,"arthritis_risk":5,"migraine_risk":4,"frizz_risk":1,"updated_at":"2026-04-18T18:38:49.554171+05:30"},{"city":"Shillong","state":"Meghalaya","latitude":25.5788,"longitude":91.8933,"temp":17.0,"humidity":83,"rain":0.0,"pressure":856.7,"uv_index":6.85,"wind_gusts":34.2,"aqi":126,"pm10":60.5,"pm2_5":49.0,"mosquito_risk":3,"arthritis_risk":10,"migraine_risk":7,"frizz_risk":0,"updated_at":"2026-04-18T18:38:49.554177+05:30"},{"city":"Imphal","state":"Manipur","latitude":24.817,"longitude":93.9368,"temp":21.8,"humidity":67,"rain":0.0,"pressure":922.9,"uv_index":9.1,"wind_gusts":46.4,"aqi":154,"pm10":59.4,"pm2_5":45.8,"mosquito_risk":3,"arthritis_risk":5,"migraine_risk":7,"frizz_risk":0,"updated_at":"2026-04-18T18:38:49.554184+05:30"},{"city":"Aizawl","state":"Mizoram","latitude":23.7271,"longitude":92.7176,"temp":23.9,"humidity":64,"rain":0.0,"pressure":892.7,"uv_index":8.95,"wind_gusts":34.6,"aqi":123,"pm10":64.5,"pm2_5":47.6,"mosquito_risk":3,"arthritis_risk":5,"migraine_risk":7,"frizz_risk":1,"updated_at":"2026-04-18T18:38:49.554190+05:30"},{"city":"Kohima","state":"Nagaland","latitude":25.6701,"longitude":94.1077,"temp":17.2,"humidity":97,"rain":0.0,"pressure":855.0,"uv_index":9.0,"wind_gusts":48.6,"aqi":138,"pm10":50.2,"pm2_5":37.6,"mosquito_risk":3,"arthritis_risk":10,"migraine_risk":7,"frizz_risk":1,"updated_at":"2026-04-18T18:38:49.554196+05:30"},{"city":"Gangtok","state":"Sikkim","latitude":27.3314,"longitude":88.6138,"temp":17.9,"humidity":89,"rain":0.0,"pressure":837.3,"uv_index":8.85,"wind_gusts":19.1,"aqi":121,"pm10":50.6,"pm2_5":38.0,"mosquito_risk":3,"arthritis_risk":10,"migraine_risk":7,"frizz_risk":1,"updated_at":"2026-04-18T18:38:49.554202+05:30"},{"city":"Siliguri","state":"West Bengal","latitude":26.7271,"longitude":88.3953,"temp":22.6,"humidity":92,"rain":0.0,"pressure":993.1,"uv_index":8.05,"wind_gusts":20.9,"aqi":160,"pm10":78.7,"pm2_5":59.0,"mosquito_risk":3,"arthritis_risk":5,"migraine_risk":7,"frizz_risk":1,"updated_at":"2026-04-18T18:38:52.810925+05:30"},{"city":"Durgapur","state":"West Bengal","latitude":23.5204,"longitude":87.3119,"temp":28.6,"humidity":73,"rain":0.0,"pressure":992.2,"uv_index":8.85,"wind_gusts":37.1,"aqi":173,"pm10":65.4,"pm2_5":58.6,"mosquito_risk":7,"arthritis_risk":5,"migraine_risk":7,"frizz_risk":1,"updated_at":"2026-04-18T18:38:52.810956+05:30"},{"city":"Asansol","state":"West Bengal","latitude":23.6739,"longitude":86.9524,"temp":30.3,"humidity":66,"rain":0.0,"pressure":990.6,"uv_index":8.9,"wind_gusts":30.6,"aqi":194,"pm10":79.4,"pm2_5":61.0,"mosquito_risk":3,"arthritis_risk":5,"migraine_risk":7,"frizz_risk":1,"updated_at":"2026-04-18T18:38:52.810969+05:30"},{"city":"Pondicherry","state":"Puducherry","latitude":11.9139,"longitude":79.8145,"temp":30.6,"humidity":66,"rain":0.0,"pressure":1006.3,"uv_index":9.25,"wind_gusts":27.0,"aqi":37,"pm10":10.1,"pm2_5":5.9,"mosquito_risk":3,"arthritis_risk":5,"migraine_risk":4,"frizz_risk":1,"updated_at":"2026-04-18T18:38:52.810978+05:30"},{"city":"Port Blair","state":"Andaman and Nicobar Islands","latitude":11.6234,"longitude":92.7265,"temp":29.3,"humidity":76,"rain":0.0,"pressure":1006.4,"uv_index":9.2,"wind_gusts":16.6,"aqi":52,"pm10":21.0,"pm2_5":16.0,"mosquito_risk":7,"arthritis_risk":5,"migraine_risk":4,"frizz_risk":1,"updated_at":"2026-04-18T18:38:52.810987+05:30"},{"city":"Haridwar","state":"Uttarakhand","latitude":29.9457,"longitude":78.1642,"temp":32.2,"humidity":39,"rain":0.0,"pressure":971.9,"uv_index":6.6,"wind_gusts":34.6,"aqi":106,"pm10":52.9,"pm2_5":21.4,"mosquito_risk":0,"arthritis_risk":5,"migraine_risk":7,"frizz_risk":1,"updated_at":"2026-04-18T18:38:52.810995+05:30"},{"city":"Rishikesh","state":"Uttarakhand","latitude":30.0869,"longitude":78.2676,"temp":30.4,"humidity":48,"rain":0.0,"pressure":965.0,"uv_index":6.85,"wind_gusts":38.2,"aqi":90,"pm10":39.0,"pm2_5":14.2,"mosquito_risk":0,"arthritis_risk":5,"migraine_risk":7,"frizz_risk":1,"updated_at":"2026-04-18T18:38:52.811004+05:30"},{"city":"Nainital","state":"Uttarakhand","latitude":29.3919,"longitude":79.4542,"temp":26.4,"humidity":27,"rain":0.0,"pressure":808.2,"uv_index":8.05,"wind_gusts":69.1,"aqi":109,"pm10":36.9,"pm2_5":17.1,"mosquito_risk":4,"arthritis_risk":5,"migraine_risk":7,"frizz_risk":0,"updated_at":"2026-04-18T18:38:52.811012+05:30"},{"city":"Mussoorie","state":"Uttarakhand","latitude":30.4599,"longitude":78.0664,"temp":23.1,"humidity":50,"rain":0.0,"pressure":804.6,"uv_index":7.4,"wind_gusts":51.5,"aqi":100,"pm10":45.1,"pm2_5":16.8,"mosquito_risk":0,"arthritis_risk":5,"migraine_risk":7,"frizz_risk":0,"updated_at":"2026-04-18T18:38:52.811020+05:30"},{"city":"Dharamshala","state":"Himachal Pradesh","latitude":32.219,"longitude":76.3234,"temp":26.1,"humidity":47,"rain":0.0,"pressure":870.8,"uv_index":7.45,"wind_gusts":38.9,"aqi":80,"pm10":40.3,"pm2_5":11.2,"mosquito_risk":4,"arthritis_risk":5,"migraine_risk":7,"frizz_risk":0,"updated_at":"2026-04-18T18:38:52.811028+05:30"},{"city":"Dalhousie","state":"Himachal Pradesh","latitude":32.5387,"longitude":75.971,"temp":22.4,"humidity":36,"rain":0.0,"pressure":806.1,"uv_index":6.8,"wind_gusts":39.6,"aqi":85,"pm10":54.1,"pm2_5":16.9,"mosquito_risk":0,"arthritis_risk":5,"migraine_risk":7,"frizz_risk":0,"updated_at":"2026-04-18T18:38:52.811037+05:30"},{"city":"Patiala","state":"Punjab","latitude":30.3398,"longitude":76.3869,"temp":33.3,"humidity":32,"rain":0.0,"pressure":976.0,"uv_index":7.1,"wind_gusts":19.4,"aqi":124,"pm10":160.2,"pm2_5":38.3,"mosquito_risk":0,"arthritis_risk":5,"migraine_risk":7,"frizz_risk":0,"updated_at":"2026-04-18T18:38:52.811044+05:30"},{"city":"Bhatinda","state":"Punjab","latitude":30.211,"longitude":74.9455,"temp":35.0,"humidity":24,"rain":0.0,"pressure":981.4,"uv_index":7.75,"wind_gusts":36.7,"aqi":143,"pm10":103.8,"pm2_5":28.8,"mosquito_risk":0,"arthritis_risk":5,"migraine_risk":7,"frizz_risk":0,"updated_at":"2026-04-18T18:38:52.811052+05:30"},{"city":"Rohtak","state":"Haryana","latitude":28.8955,"longitude":76.6066,"temp":32.4,"humidity":48,"rain":0.0,"pressure":978.6,"uv_index":6.95,"wind_gusts":14.4,"aqi":376,"pm10":412.6,"pm2_5":60.8,"mosquito_risk":0,"arthritis_risk":5,"migraine_risk":7,"frizz_risk":1,"updated_at":"2026-04-18T18:38:52.811060+05:30"},{"city":"Panipat","state":"Haryana","latitude":29.3909,"longitude":76.9635,"temp":33.4,"humidity":39,"rain":0.0,"pressure":977.7,"uv_index":6.6,"wind_gusts":12.2,"aqi":561,"pm10":510.4,"pm2_5":70.3,"mosquito_risk":0,"arthritis_risk":5,"migraine_risk":7,"frizz_risk":1,"updated_at":"2026-04-18T18:38:52.811068+05:30"},{"city":"Mathura","state":"Uttar Pradesh","latitude":27.4924,"longitude":77.6737,"temp":36.7,"humidity":30,"rain":0.0,"pressure":983.4,"uv_index":7.65,"wind_gusts":22.7,"aqi":533,"pm10":213.7,"pm2_5":41.9,"mosquito_risk":0,"arthritis_risk":5,"migraine_risk":10,"frizz_risk":1,"updated_at":"2026-04-18T18:38:52.811076+05:30"},{"city":"Vrindavan","state":"Uttar Pradesh","latitude":27.5823,"longitude":77.7027,"temp":36.3,"humidity":27,"rain":0.0,"pressure":983.8,"uv_index":7.6,"wind_gusts":24.8,"aqi":533,"pm10":213.7,"pm2_5":41.9,"mosquito_risk":0,"arthritis_risk":5,"migraine_risk":10,"frizz_risk":0,"updated_at":"2026-04-18T18:38:52.811085+05:30"},{"city":"Ayodhya","state":"Uttar Pradesh","latitude":26.7922,"longitude":82.1998,"temp":36.2,"humidity":27,"rain":0.0,"pressure":990.8,"uv_index":7.75,"wind_gusts":36.7,"aqi":131,"pm10":57.9,"pm2_5":21.6,"mosquito_risk":0,"arthritis_risk":5,"migraine_risk":10,"frizz_risk":0,"updated_at":"2026-04-18T18:38:52.811093+05:30"},{"city":"Ratlam","state":"Madhya Pradesh","latitude":23.3315,"longitude":75.0367,"temp":32.8,"humidity":41,"rain":0.0,"pressure":952.8,"uv_index":8.3,"wind_gusts":24.1,"aqi":86,"pm10":13.4,"pm2_5":10.5,"mosquito_risk":0,"arthritis_risk":5,"migraine_risk":7,"frizz_risk":1,"updated_at":"2026-04-18T18:38:52.811100+05:30"},{"city":"Sagar","state":"Madhya Pradesh","latitude":23.8388,"longitude":78.7378,"temp":37.3,"humidity":21,"rain":0.0,"pressure":947.7,"uv_index":7.85,"wind_gusts":29.9,"aqi":134,"pm10":18.6,"pm2_5":13.6,"mosquito_risk":0,"arthritis_risk":5,"migraine_risk":10,"frizz_risk":0,"updated_at":"2026-04-18T18:38:52.811106+05:30"},{"city":"Satna","state":"Madhya Pradesh","latitude":24.6005,"longitude":80.8322,"temp":38.4,"humidity":17,"rain":0.0,"pressure":967.9,"uv_index":8.5,"wind_gusts":28.8,"aqi":142,"pm10":56.8,"pm2_5":19.6,"mosquito_risk":0,"arthritis_risk":5,"migraine_risk":10,"frizz_risk":0,"updated_at":"2026-04-18T18:38:52.811112+05:30"},{"city":"Akola","state":"Maharashtra","latitude":20.7002,"longitude":77.0082,"temp":38.1,"humidity":16,"rain":0.0,"pressure":972.3,"uv_index":8.7,"wind_gusts":31.7,"aqi":121,"pm10":27.7,"pm2_5":22.9,"mosquito_risk":0,"arthritis_risk":5,"migraine_risk":10,"frizz_risk":0,"updated_at":"2026-04-18T18:38:52.811119+05:30"},{"city":"Amravati","state":"Maharashtra","latitude":20.9374,"longitude":77.7796,"temp":36.7,"humidity":20,"rain":0.0,"pressure":964.1,"uv_index":8.2,"wind_gusts":23.4,"aqi":123,"pm10":27.6,"pm2_5":22.6,"mosquito_risk":0,"arthritis_risk":5,"migraine_risk":10,"frizz_risk":0,"updated_at":"2026-04-18T18:38:52.811125+05:30"},{"city":"Latur","state":"Maharashtra","latitude":18.4088,"longitude":76.5604,"temp":33.9,"humidity":35,"rain":0.0,"pressure":938.3,"uv_index":9.1,"wind_gusts":16.6,"aqi":152,"pm10":33.9,"pm2_5":28.5,"mosquito_risk":0,"arthritis_risk":5,"migraine_risk":7,"frizz_risk":1,"updated_at":"2026-04-18T18:38:52.811131+05:30"},{"city":"Nanded","state":"Maharashtra","latitude":19.1383,"longitude":77.3091,"temp":35.3,"humidity":36,"rain":0.0,"pressure":966.0,"uv_index":8.85,"wind_gusts":18.0,"aqi":152,"pm10":36.8,"pm2_5":28.3,"mosquito_risk":0,"arthritis_risk":5,"migraine_risk":10,"frizz_risk":1,"updated_at":"2026-04-18T18:38:52.811137+05:30"},{"city":"Gulbarga","state":"Karnataka","latitude":17.3297,"longitude":76.8343,"temp":35.4,"humidity":31,"rain":0.0,"pressure":956.9,"uv_index":9.0,"wind_gusts":49.3,"aqi":176,"pm10":38.8,"pm2_5":33.6,"mosquito_risk":0,"arthritis_risk":5,"migraine_risk":10,"frizz_risk":0,"updated_at":"2026-04-18T18:38:52.811143+05:30"},{"city":"Bidar","state":"Karnataka","latitude":17.9104,"longitude":77.5199,"temp":31.1,"humidity":43,"rain":0.0,"pressure":934.3,"uv_index":9.0,"wind_gusts":28.1,"aqi":164,"pm10":41.3,"pm2_5":35.9,"mosquito_risk":0,"arthritis_risk":5,"migraine_risk":7,"frizz_risk":1,"updated_at":"2026-04-18T18:38:52.811148+05:30"},{"city":"Hospet","state":"Karnataka","latitude":15.2689,"longitude":76.3909,"temp":36.0,"humidity":32,"rain":0.0,"pressure":953.2,"uv_index":9.25,"wind_gusts":20.9,"aqi":154,"pm10":37.5,"pm2_5":32.1,"mosquito_risk":0,"arthritis_risk":5,"migraine_risk":10,"frizz_risk":1,"updated_at":"2026-04-18T18:38:52.811154+05:30"},{"city":"Tirupur","state":"Tamil Nadu","latitude":11.1085,"longitude":77.3411,"temp":36.6,"humidity":20,"rain":0.0,"pressure":972.6,"uv_index":9.3,"wind_gusts":31.3,"aqi":131,"pm10":25.0,"pm2_5":18.7,"mosquito_risk":0,"arthritis_risk":5,"migraine_risk":10,"frizz_risk":0,"updated_at":"2026-04-18T18:38:52.811159+05:30"},{"city":"Alappuzha","state":"Kerala","latitude":9.4981,"longitude":76.3388,"temp":30.2,"humidity":79,"rain":0.0,"pressure":1006.2,"uv_index":9.1,"wind_gusts":26.6,"aqi":90,"pm10":31.7,"pm2_5":20.7,"mosquito_risk":3,"arthritis_risk":5,"migraine_risk":4,"frizz_risk":1,"updated_at":"2026-04-18T18:38:52.811165+05:30"},{"city":"Munnar","state":"Kerala","latitude":10.0889,"longitude":77.0595,"temp":26.3,"humidity":70,"rain":0.0,"pressure":857.0,"uv_index":9.7,"wind_gusts":23.8,"aqi":91,"pm10":27.9,"pm2_5":22.3,"mosquito_risk":7,"arthritis_risk":5,"migraine_risk":7,"frizz_risk":1,"updated_at":"2026-04-18T18:38:52.811171+05:30"},{"city":"Silchar","state":"Assam","latitude":24.8333,"longitude":92.7789,"temp":29.4,"humidity":68,"rain":0.0,"pressure":1003.5,"uv_index":8.75,"wind_gusts":19.1,"aqi":158,"pm10":91.0,"pm2_5":71.5,"mosquito_risk":7,"arthritis_risk":5,"migraine_risk":4,"frizz_risk":1,"updated_at":"2026-04-18T18:38:52.811177+05:30"},{"city":"Dibrugarh","state":"Assam","latitude":27.4728,"longitude":94.912,"temp":28.9,"humidity":72,"rain":0.0,"pressure":994.2,"uv_index":8.65,"wind_gusts":13.7,"aqi":129,"pm10":68.9,"pm2_5":51.6,"mosquito_risk":7,"arthritis_risk":5,"migraine_risk":7,"frizz_risk":1,"updated_at":"2026-04-18T18:38:52.811182+05:30"}]