[{"city":"Delhi","state":"Delhi","latitude":28.6139,"longitude":77.209,"temp":26.6,"humidity":68,"rain":0.1,"pressure":983.2,"uv_index":7.6,"wind_gusts":50.8,"aqi":180,"pm10":312.0,"pm2_5":66.1,"no2":5.9,"co":417.0,"o3":189.0,"so2":23.7,"mosquito_risk":10,"arthritis_risk":5,"migraine_risk":7,"frizz_risk":1,"updated_at":"2026-05-31T14:19:51.590407+05:30"},{"city":"Mumbai","state":"Maharashtra","latitude":19.076,"longitude":72.8777,"temp":33.5,"humidity":60,"rain":0.0,"pressure":1008.1,"uv_index":7.8,"wind_gusts":40.3,"aqi":61,"pm10":32.0,"pm2_5":20.0,"no2":3.1,"co":147.0,"o3":95.0,"so2":5.1,"mosquito_risk":0,"arthritis_risk":0,"migraine_risk":4,"frizz_risk":1,"updated_at":"2026-05-31T14:19:51.590468+05:30"},{"city":"Bangalore","state":"Karnataka","latitude":12.9716,"longitude":77.5946,"temp":30.7,"humidity":51,"rain":0.0,"pressure":912.2,"uv_index":9.25,"wind_gusts":42.8,"aqi":82,"pm10":17.7,"pm2_5":13.1,"no2":1.5,"co":201.0,"o3":135.0,"so2":2.9,"mosquito_risk":0,"arthritis_risk":5,"migraine_risk":7,"frizz_risk":1,"updated_at":"2026-05-31T14:19:51.590485+05:30"},{"city":"Hyderabad","state":"Telangana","latitude":17.385,"longitude":78.4867,"temp":35.8,"humidity":33,"rain":0.0,"pressure":952.7,"uv_index":9.1,"wind_gusts":55.1,"aqi":69,"pm10":49.4,"pm2_5":27.2,"no2":1.3,"co":187.0,"o3":135.0,"so2":6.8,"mosquito_risk":0,"arthritis_risk":5,"migraine_risk":10,"frizz_risk":1,"updated_at":"2026-05-31T14:19:51.590494+05:30"},{"city":"Chennai","state":"Tamil Nadu","latitude":13.0827,"longitude":80.2707,"temp":36.2,"humidity":54,"rain":0.0,"pressure":1004.7,"uv_index":8.2,"wind_gusts":38.2,"aqi":84,"pm10":31.1,"pm2_5":24.0,"no2":3.1,"co":295.0,"o3":150.0,"so2":8.3,"mosquito_risk":0,"arthritis_risk":5,"migraine_risk":7,"frizz_risk":1,"updated_at":"2026-05-31T14:19:51.590502+05:30"},{"city":"Kolkata","state":"West Bengal","latitude":22.5726,"longitude":88.3639,"temp":34.6,"humidity":55,"rain":0.0,"pressure":1002.9,"uv_index":8.95,"wind_gusts":26.6,"aqi":152,"pm10":60.3,"pm2_5":36.3,"no2":1.7,"co":302.0,"o3":164.0,"so2":11.3,"mosquito_risk":0,"arthritis_risk":5,"migraine_risk":4,"frizz_risk":1,"updated_at":"2026-05-31T14:19:51.590509+05:30"},{"city":"Pune","state":"Maharashtra","latitude":18.5204,"longitude":73.8567,"temp":33.4,"humidity":43,"rain":0.1,"pressure":948.6,"uv_index":6.2,"wind_gusts":42.1,"aqi":52,"pm10":38.5,"pm2_5":17.8,"no2":1.2,"co":126.0,"o3":106.0,"so2":4.6,"mosquito_risk":3,"arthritis_risk":5,"migraine_risk":7,"frizz_risk":1,"updated_at":"2026-05-31T14:19:51.590516+05:30"},{"city":"Ahmedabad","state":"Gujarat","latitude":23.0225,"longitude":72.5714,"temp":38.8,"humidity":34,"rain":0.0,"pressure":999.4,"uv_index":8.1,"wind_gusts":53.3,"aqi":71,"pm10":72.6,"pm2_5":21.7,"no2":1.1,"co":128.0,"o3":88.0,"so2":4.0,"mosquito_risk":0,"arthritis_risk":5,"migraine_risk":10,"frizz_risk":1,"updated_at":"2026-05-31T14:19:51.590522+05:30"},{"city":"Jaipur","state":"Rajasthan","latitude":26.9124,"longitude":75.7873,"temp":36.6,"humidity":26,"rain":0.0,"pressure":959.1,"uv_index":8.15,"wind_gusts":41.4,"aqi":88,"pm10":121.5,"pm2_5":26.7,"no2":0.7,"co":156.0,"o3":120.0,"so2":3.7,"mosquito_risk":0,"arthritis_risk":5,"migraine_risk":10,"frizz_risk":0,"updated_at":"2026-05-31T14:19:51.590534+05:30"},{"city":"Lucknow","state":"Uttar Pradesh","latitude":26.8467,"longitude":80.9462,"temp":34.5,"humidity":47,"rain":0.0,"pressure":992.7,"uv_index":8.15,"wind_gusts":41.0,"aqi":100,"pm10":76.6,"pm2_5":26.8,"no2":1.1,"co":265.0,"o3":178.0,"so2":7.1,"mosquito_risk":0,"arthritis_risk":5,"migraine_risk":7,"frizz_risk":1,"updated_at":"2026-05-31T14:19:51.590541+05:30"},{"city":"Kanpur","state":"Uttar Pradesh","latitude":26.4499,"longitude":80.3319,"temp":35.2,"humidity":42,"rain":0.0,"pressure":991.1,"uv_index":8.15,"wind_gusts":54.7,"aqi":124,"pm10":115.3,"pm2_5":32.5,"no2":1.2,"co":274.0,"o3":185.0,"so2":8.7,"mosquito_risk":0,"arthritis_risk":5,"migraine_risk":10,"frizz_risk":1,"updated_at":"2026-05-31T14:19:51.590548+05:30"},{"city":"Chandigarh","state":"Chandigarh","latitude":30.7333,"longitude":76.7794,"temp":30.2,"humidity":41,"rain":0.0,"pressure":969.6,"uv_index":6.25,"wind_gusts":39.2,"aqi":85,"pm10":71.5,"pm2_5":26.3,"no2":2.0,"co":302.0,"o3":173.0,"so2":8.0,"mosquito_risk":0,"arthritis_risk":5,"migraine_risk":7,"frizz_risk":0,"updated_at":"2026-05-31T14:19:51.590554+05:30"},{"city":"Srinagar","state":"Jammu and Kashmir","latitude":34.0837,"longitude":74.7973,"temp":26.5,"humidity":38,"rain":0.0,"pressure":842.8,"uv_index":9.0,"wind_gusts":27.0,"aqi":118,"pm10":64.3,"pm2_5":26.0,"no2":0.7,"co":325.0,"o3":155.0,"so2":3.7,"mosquito_risk":4,"arthritis_risk":5,"migraine_risk":7,"frizz_risk":0,"updated_at":"2026-05-31T14:19:51.590562+05:30"},{"city":"Jammu","state":"Jammu and Kashmir","latitude":32.7266,"longitude":74.857,"temp":31.5,"humidity":38,"rain":0.0,"pressure":973.8,"uv_index":8.5,"wind_gusts":28.1,"aqi":119,"pm10":129.9,"pm2_5":42.5,"no2":1.2,"co":260.0,"o3":176.0,"so2":3.5,"mosquito_risk":0,"arthritis_risk":5,"migraine_risk":7,"frizz_risk":0,"updated_at":"2026-05-31T14:19:51.590569+05:30"},{"city":"Amritsar","state":"Punjab","latitude":31.634,"longitude":74.8723,"temp":32.7,"humidity":39,"rain":0.0,"pressure":981.3,"uv_index":8.3,"wind_gusts":35.6,"aqi":88,"pm10":135.0,"pm2_5":35.3,"no2":0.9,"co":260.0,"o3":164.0,"so2":5.4,"mosquito_risk":0,"arthritis_risk":5,"migraine_risk":7,"frizz_risk":1,"updated_at":"2026-05-31T14:19:51.590578+05:30"},{"city":"Ludhiana","state":"Punjab","latitude":30.901,"longitude":75.8573,"temp":32.2,"humidity":40,"rain":0.0,"pressure":979.0,"uv_index":7.85,"wind_gusts":38.5,"aqi":98,"pm10":198.4,"pm2_5":45.4,"no2":1.2,"co":266.0,"o3":160.0,"so2":6.8,"mosquito_risk":0,"arthritis_risk":5,"migraine_risk":7,"frizz_risk":1,"updated_at":"2026-05-31T14:19:51.590592+05:30"},{"city":"Jalandhar","state":"Punjab","latitude":31.326,"longitude":75.5762,"temp":32.4,"humidity":38,"rain":0.0,"pressure":980.1,"uv_index":8.05,"wind_gusts":38.2,"aqi":108,"pm10":236.1,"pm2_5":51.6,"no2":1.0,"co":256.0,"o3":167.0,"so2":7.6,"mosquito_risk":0,"arthritis_risk":5,"migraine_risk":7,"frizz_risk":1,"updated_at":"2026-05-31T14:19:51.590598+05:30"},{"city":"Dehradun","state":"Uttarakhand","latitude":30.6284,"longitude":78.0322,"temp":21.2,"humidity":45,"rain":0.0,"pressure":832.6,"uv_index":7.55,"wind_gusts":30.2,"aqi":75,"pm10":30.3,"pm2_5":15.9,"no2":0.7,"co":233.0,"o3":156.0,"so2":2.4,"mosquito_risk":0,"arthritis_risk":5,"migraine_risk":7,"frizz_risk":0,"updated_at":"2026-05-31T14:19:51.590604+05:30"},{"city":"Shimla","state":"Himachal Pradesh","latitude":31.1048,"longitude":77.1734,"temp":18.0,"humidity":55,"rain":0.1,"pressure":786.9,"uv_index":3.95,"wind_gusts":22.3,"aqi":85,"pm10":29.6,"pm2_5":16.2,"no2":1.8,"co":269.0,"o3":155.0,"so2":2.6,"mosquito_risk":3,"arthritis_risk":5,"migraine_risk":3,"frizz_risk":0,"updated_at":"2026-05-31T14:19:51.590613+05:30"},{"city":"Manali","state":"Himachal Pradesh","latitude":32.2396,"longitude":77.1887,"temp":19.6,"humidity":63,"rain":0.0,"pressure":820.1,"uv_index":6.85,"wind_gusts":33.5,"aqi":81,"pm10":15.0,"pm2_5":6.8,"no2":0.3,"co":157.0,"o3":165.0,"so2":0.2,"mosquito_risk":3,"arthritis_risk":5,"migraine_risk":7,"frizz_risk":0,"updated_at":"2026-05-31T14:19:51.590619+05:30"},{"city":"Gurgaon","state":"Haryana","latitude":28.4595,"longitude":77.0266,"temp":34.8,"humidity":34,"rain":0.0,"pressure":980.3,"uv_index":7.7,"wind_gusts":46.4,"aqi":982,"pm10":445.2,"pm2_5":73.8,"no2":3.6,"co":326.0,"o3":170.0,"so2":12.5,"mosquito_risk":0,"arthritis_risk":5,"migraine_risk":7,"frizz_risk":1,"updated_at":"2026-05-31T14:19:51.590625+05:30"},{"city":"Noida","state":"Uttar Pradesh","latitude":28.5355,"longitude":77.391,"temp":25.9,"humidity":76,"rain":0.1,"pressure":984.9,"uv_index":7.6,"wind_gusts":51.5,"aqi":982,"pm10":445.2,"pm2_5":73.8,"no2":3.6,"co":371.0,"o3":170.0,"so2":12.5,"mosquito_risk":10,"arthritis_risk":5,"migraine_risk":7,"frizz_risk":1,"updated_at":"2026-05-31T14:19:51.590632+05:30"},{"city":"Ghaziabad","state":"Uttar Pradesh","latitude":28.6692,"longitude":77.4538,"temp":23.7,"humidity":94,"rain":0.1,"pressure":982.9,"uv_index":7.6,"wind_gusts":54.4,"aqi":114,"pm10":149.0,"pm2_5":36.9,"no2":2.0,"co":335.0,"o3":167.0,"so2":10.2,"mosquito_risk":6,"arthritis_risk":5,"migraine_risk":7,"frizz_risk":1,"updated_at":"2026-05-31T14:19:51.590640+05:30"},{"city":"Faridabad","state":"Haryana","latitude":28.4089,"longitude":77.3178,"temp":28.9,"humidity":57,"rain":0.1,"pressure":983.7,"uv_index":7.65,"wind_gusts":49.7,"aqi":982,"pm10":445.2,"pm2_5":73.8,"no2":3.6,"co":337.0,"o3":170.0,"so2":12.5,"mosquito_risk":7,"arthritis_risk":5,"migraine_risk":7,"frizz_risk":1,"updated_at":"2026-05-31T14:19:51.590646+05:30"},{"city":"Meerut","state":"Uttar Pradesh","latitude":28.9845,"longitude":77.7064,"temp":24.0,"humidity":90,"rain":0.4,"pressure":982.6,"uv_index":6.9,"wind_gusts":35.6,"aqi":114,"pm10":149.0,"pm2_5":36.9,"no2":2.0,"co":303.0,"o3":167.0,"so2":10.2,"mosquito_risk":6,"arthritis_risk":5,"migraine_risk":7,"frizz_risk":1,"updated_at":"2026-05-31T14:19:51.590652+05:30"},{"city":"Agra","state":"Uttar Pradesh","latitude":27.1767,"longitude":78.0081,"temp":35.7,"humidity":33,"rain":0.0,"pressure":986.8,"uv_index":7.95,"wind_gusts":33.1,"aqi":580,"pm10":201.2,"pm2_5":38.5,"no2":1.0,"co":236.0,"o3":161.0,"so2":5.3,"mosquito_risk":0,"arthritis_risk":5,"migraine_risk":10,"frizz_risk":1,"updated_at":"2026-05-31T14:19:51.590658+05:30"},{"city":"Varanasi","state":"Uttar Pradesh","latitude":25.3176,"longitude":82.9739,"temp":35.5,"humidity":42,"rain":0.0,"pressure":995.8,"uv_index":8.7,"wind_gusts":31.0,"aqi":108,"pm10":49.0,"pm2_5":30.5,"no2":1.2,"co":339.0,"o3":186.0,"so2":8.4,"mosquito_risk":0,"arthritis_risk":5,"migraine_risk":10,"frizz_risk":1,"updated_at":"2026-05-31T14:19:51.590664+05:30"},{"city":"Prayagraj","state":"Uttar Pradesh","latitude":25.4358,"longitude":81.8463,"temp":37.0,"humidity":33,"rain":0.0,"pressure":994.2,"uv_index":8.55,"wind_gusts":25.2,"aqi":109,"pm10":50.2,"pm2_5":27.5,"no2":1.3,"co":285.0,"o3":186.0,"so2":8.0,"mosquito_risk":0,"arthritis_risk":5,"migraine_risk":10,"frizz_risk":1,"updated_at":"2026-05-31T14:19:51.590671+05:30"},{"city":"Gorakhpur","state":"Uttar Pradesh","latitude":26.7606,"longitude":83.3732,"temp":34.6,"humidity":45,"rain":0.0,"pressure":995.9,"uv_index":8.55,"wind_gusts":26.3,"aqi":114,"pm10":47.8,"pm2_5":32.9,"no2":1.5,"co":314.0,"o3":175.0,"so2":9.6,"mosquito_risk":0,"arthritis_risk":5,"migraine_risk":7,"frizz_risk":1,"updated_at":"2026-05-31T14:19:51.590680+05:30"},{"city":"Bareilly","state":"Uttar Pradesh","latitude":28.367,"longitude":79.4304,"temp":31.2,"humidity":54,"rain":0.0,"pressure":987.1,"uv_index":7.95,"wind_gusts":33.5,"aqi":86,"pm10":18.7,"pm2_5":13.6,"no2":1.0,"co":259.0,"o3":145.0,"so2":2.1,"mosquito_risk":0,"arthritis_risk":5,"migraine_risk":7,"frizz_risk":1,"updated_at":"2026-05-31T14:19:51.590686+05:30"},{"city":"Aligarh","state":"Uttar Pradesh","latitude":27.8974,"longitude":78.088,"temp":34.6,"humidity":38,"rain":0.0,"pressure":984.8,"uv_index":7.75,"wind_gusts":44.6,"aqi":179,"pm10":261.7,"pm2_5":46.7,"no2":1.5,"co":282.0,"o3":166.0,"so2":8.5,"mosquito_risk":0,"arthritis_risk":5,"migraine_risk":7,"frizz_risk":1,"updated_at":"2026-05-31T14:19:51.590692+05:30"},{"city":"Moradabad","state":"Uttar Pradesh","latitude":28.8386,"longitude":78.7733,"temp":31.5,"humidity":49,"rain":0.0,"pressure":984.1,"uv_index":7.75,"wind_gusts":30.2,"aqi":95,"pm10":23.2,"pm2_5":16.8,"no2":1.7,"co":279.0,"o3":155.0,"so2":6.2,"mosquito_risk":0,"arthritis_risk":5,"migraine_risk":7,"frizz_risk":1,"updated_at":"2026-05-31T14:19:51.590698+05:30"},{"city":"Saharanpur","state":"Uttar Pradesh","latitude":29.9637,"longitude":77.546,"temp":29.4,"humidity":51,"rain":0.0,"pressure":976.7,"uv_index":3.9,"wind_gusts":32.8,"aqi":83,"pm10":35.7,"pm2_5":24.9,"no2":1.5,"co":289.0,"o3":164.0,"so2":7.0,"mosquito_risk":4,"arthritis_risk":5,"migraine_risk":3,"frizz_risk":1,"updated_at":"2026-05-31T14:19:51.590704+05:30"},{"city":"Jhansi","state":"Uttar Pradesh","latitude":25.4484,"longitude":78.5685,"temp":35.5,"humidity":33,"rain":0.0,"pressure":977.2,"uv_index":8.4,"wind_gusts":19.4,"aqi":71,"pm10":19.2,"pm2_5":11.8,"no2":1.1,"co":228.0,"o3":158.0,"so2":8.7,"mosquito_risk":0,"arthritis_risk":5,"migraine_risk":10,"frizz_risk":1,"updated_at":"2026-05-31T14:19:54.902037+05:30"},{"city":"Surat","state":"Gujarat","latitude":21.1702,"longitude":72.8311,"temp":35.0,"humidity":51,"rain":0.0,"pressure":1005.8,"uv_index":7.7,"wind_gusts":49.7,"aqi":78,"pm10":40.5,"pm2_5":24.6,"no2":7.8,"co":233.0,"o3":68.0,"so2":29.1,"mosquito_risk":0,"arthritis_risk":5,"migraine_risk":4,"frizz_risk":1,"updated_at":"2026-05-31T14:19:54.902071+05:30"},{"city":"Vadodara","state":"Gujarat","latitude":22.3072,"longitude":73.1812,"temp":38.5,"humidity":33,"rain":0.0,"pressure":1001.9,"uv_index":8.05,"wind_gusts":43.6,"aqi":74,"pm10":57.2,"pm2_5":21.4,"no2":1.0,"co":130.0,"o3":89.0,"so2":2.5,"mosquito_risk":0,"arthritis_risk":5,"migraine_risk":7,"frizz_risk":1,"updated_at":"2026-05-31T14:19:54.902081+05:30"},{"city":"Rajkot","state":"Gujarat","latitude":22.3039,"longitude":70.8022,"temp":39.5,"humidity":32,"rain":0.0,"pressure":991.9,"uv_index":7.7,"wind_gusts":43.6,"aqi":66,"pm10":61.9,"pm2_5":25.4,"no2":0.7,"co":111.0,"o3":90.0,"so2":3.4,"mosquito_risk":0,"arthritis_risk":5,"migraine_risk":10,"frizz_risk":1,"updated_at":"2026-05-31T14:19:54.902090+05:30"},{"city":"Thane","state":"Maharashtra","latitude":19.2183,"longitude":72.9781,"temp":35.0,"humidity":51,"rain":0.0,"pressure":1007.1,"uv_index":7.8,"wind_gusts":37.1,"aqi":61,"pm10":32.0,"pm2_5":20.0,"no2":3.1,"co":141.0,"o3":95.0,"so2":5.1,"mosquito_risk":0,"arthritis_risk":5,"migraine_risk":4,"frizz_risk":1,"updated_at":"2026-05-31T14:19:54.902097+05:30"},{"city":"Nagpur","state":"Maharashtra","latitude":21.1458,"longitude":79.0882,"temp":39.9,"humidity":19,"rain":0.0,"pressure":971.0,"uv_index":8.8,"wind_gusts":39.6,"aqi":91,"pm10":48.4,"pm2_5":25.0,"no2":5.2,"co":170.0,"o3":161.0,"so2":27.5,"mosquito_risk":0,"arthritis_risk":5,"migraine_risk":10,"frizz_risk":0,"updated_at":"2026-05-31T14:19:54.902105+05:30"},{"city":"Nashik","state":"Maharashtra","latitude":19.9975,"longitude":73.7898,"temp":34.3,"humidity":44,"rain":0.0,"pressure":945.8,"uv_index":8.1,"wind_gusts":46.8,"aqi":57,"pm10":44.7,"pm2_5":16.9,"no2":0.6,"co":117.0,"o3":80.0,"so2":1.1,"mosquito_risk":0,"arthritis_risk":5,"migraine_risk":7,"frizz_risk":1,"updated_at":"2026-05-31T14:19:54.902112+05:30"},{"city":"Aurangabad","state":"Maharashtra","latitude":19.8762,"longitude":75.3433,"temp":38.6,"humidity":20,"rain":0.0,"pressure":943.4,"uv_index":8.9,"wind_gusts":51.8,"aqi":63,"pm10":57.9,"pm2_5":20.2,"no2":0.7,"co":123.0,"o3":99.0,"so2":2.5,"mosquito_risk":0,"arthritis_risk":5,"migraine_risk":10,"frizz_risk":0,"updated_at":"2026-05-31T14:19:54.902120+05:30"},{"city":"Solapur","state":"Maharashtra","latitude":17.6599,"longitude":75.9064,"temp":37.8,"humidity":27,"rain":0.0,"pressure":956.5,"uv_index":8.95,"wind_gusts":62.3,"aqi":61,"pm10":43.8,"pm2_5":17.5,"no2":0.9,"co":125.0,"o3":101.0,"so2":2.3,"mosquito_risk":0,"arthritis_risk":5,"migraine_risk":10,"frizz_risk":0,"updated_at":"2026-05-31T14:19:54.902127+05:30"},{"city":"Kolhapur","state":"Maharashtra","latitude":16.705,"longitude":74.2433,"temp":33.7,"humidity":42,"rain":0.0,"pressure":948.3,"uv_index":8.75,"wind_gusts":47.5,"aqi":39,"pm10":16.4,"pm2_5":8.1,"no2":0.8,"co":128.0,"o3":87.0,"so2":1.3,"mosquito_risk":0,"arthritis_risk":5,"migraine_risk":7,"frizz_risk":1,"updated_at":"2026-05-31T14:19:54.902134+05:30"},{"city":"Goa","state":"Goa","latitude":15.2993,"longitude":74.124,"temp":35.0,"humidity":52,"rain":0.0,"pressure":997.5,"uv_index":8.0,"wind_gusts":33.1,"aqi":51,"pm10":15.5,"pm2_5":9.8,"no2":0.4,"co":134.0,"o3":64.0,"so2":1.1,"mosquito_risk":0,"arthritis_risk":5,"migraine_risk":7,"frizz_risk":1,"updated_at":"2026-05-31T14:19:54.902140+05:30"},{"city":"Jodhpur","state":"Rajasthan","latitude":26.2389,"longitude":73.0243,"temp":37.7,"humidity":33,"rain":0.0,"pressure":981.6,"uv_index":8.4,"wind_gusts":39.6,"aqi":91,"pm10":179.3,"pm2_5":35.5,"no2":0.5,"co":117.0,"o3":89.0,"so2":1.8,"mosquito_risk":0,"arthritis_risk":5,"migraine_risk":10,"frizz_risk":1,"updated_at":"2026-05-31T14:19:54.902147+05:30"},{"city":"Udaipur","state":"Rajasthan","latitude":24.5854,"longitude":73.7125,"temp":35.3,"humidity":35,"rain":0.0,"pressure":946.1,"uv_index":8.8,"wind_gusts":36.7,"aqi":67,"pm10":66.4,"pm2_5":23.0,"no2":0.5,"co":126.0,"o3":95.0,"so2":3.0,"mosquito_risk":0,"arthritis_risk":5,"migraine_risk":10,"frizz_risk":1,"updated_at":"2026-05-31T14:19:54.902154+05:30"},{"city":"Kota","state":"Rajasthan","latitude":25.2138,"longitude":75.8648,"temp":37.5,"humidity":27,"rain":0.0,"pressure":977.5,"uv_index":8.3,"wind_gusts":28.8,"aqi":61,"pm10":43.0,"pm2_5":17.8,"no2":0.6,"co":138.0,"o3":129.0,"so2":5.7,"mosquito_risk":0,"arthritis_risk":5,"migraine_risk":10,"frizz_risk":0,"updated_at":"2026-05-31T14:19:54.902161+05:30"},{"city":"Bikaner","state":"Rajasthan","latitude":28.0229,"longitude":73.3119,"temp":37.0,"humidity":33,"rain":0.0,"pressure":980.4,"uv_index":8.35,"wind_gusts":28.1,"aqi":59,"pm10":206.3,"pm2_5":41.1,"no2":0.3,"co":132.0,"o3":100.0,"so2":3.3,"mosquito_risk":0,"arthritis_risk":5,"migraine_risk":10,"frizz_risk":1,"updated_at":"2026-05-31T14:19:54.902168+05:30"},{"city":"Ajmer","state":"Rajasthan","latitude":26.4499,"longitude":74.6399,"temp":34.0,"humidity":39,"rain":0.0,"pressure":954.4,"uv_index":8.3,"wind_gusts":40.3,"aqi":53,"pm10":76.4,"pm2_5":22.4,"no2":0.4,"co":123.0,"o3":103.0,"so2":2.2,"mosquito_risk":0,"arthritis_risk":5,"migraine_risk":7,"frizz_risk":1,"updated_at":"2026-05-31T14:19:54.902174+05:30"},{"city":"Gwalior","state":"Madhya Pradesh","latitude":26.2183,"longitude":78.1828,"temp":34.7,"humidity":36,"rain":0.0,"pressure":982.3,"uv_index":8.1,"wind_gusts":19.1,"aqi":83,"pm10":35.4,"pm2_5":15.5,"no2":0.6,"co":221.0,"o3":147.0,"so2":5.1,"mosquito_risk":0,"arthritis_risk":5,"migraine_risk":7,"frizz_risk":1,"updated_at":"2026-05-31T14:19:54.902181+05:30"},{"city":"Indore","state":"Madhya Pradesh","latitude":22.7196,"longitude":75.8577,"temp":36.1,"humidity":28,"rain":0.0,"pressure":947.8,"uv_index":8.35,"wind_gusts":67.7,"aqi":68,"pm10":45.6,"pm2_5":20.1,"no2":0.7,"co":151.0,"o3":103.0,"so2":3.3,"mosquito_risk":0,"arthritis_risk":5,"migraine_risk":10,"frizz_risk":0,"updated_at":"2026-05-31T14:19:54.902187+05:30"},{"city":"Bhopal","state":"Madhya Pradesh","latitude":23.2599,"longitude":77.4126,"temp":37.0,"humidity":24,"rain":0.0,"pressure":952.7,"uv_index":8.6,"wind_gusts":42.1,"aqi":59,"pm10":34.2,"pm2_5":14.4,"no2":0.6,"co":167.0,"o3":130.0,"so2":4.3,"mosquito_risk":0,"arthritis_risk":5,"migraine_risk":10,"frizz_risk":0,"updated_at":"2026-05-31T14:19:54.902194+05:30"},{"city":"Jabalpur","state":"Madhya Pradesh","latitude":23.1815,"longitude":79.9864,"temp":37.0,"humidity":23,"rain":0.0,"pressure":960.1,"uv_index":8.8,"wind_gusts":48.6,"aqi":68,"pm10":34.2,"pm2_5":14.7,"no2":0.7,"co":177.0,"o3":138.0,"so2":3.5,"mosquito_risk":0,"arthritis_risk":5,"migraine_risk":10,"frizz_risk":0,"updated_at":"2026-05-31T14:19:54.902200+05:30"},{"city":"Ujjain","state":"Madhya Pradesh","latitude":23.1765,"longitude":75.7885,"temp":35.9,"humidity":32,"rain":0.0,"pressure":953.2,"uv_index":8.45,"wind_gusts":52.6,"aqi":67,"pm10":50.1,"pm2_5":22.0,"no2":0.7,"co":139.0,"o3":104.0,"so2":4.2,"mosquito_risk":0,"arthritis_risk":5,"migraine_risk":10,"frizz_risk":1,"updated_at":"2026-05-31T14:19:54.902208+05:30"},{"city":"Visakhapatnam","state":"Andhra Pradesh","latitude":17.6868,"longitude":83.2185,"temp":33.7,"humidity":64,"rain":0.0,"pressure":999.6,"uv_index":8.9,"wind_gusts":44.6,"aqi":108,"pm10":51.9,"pm2_5":44.5,"no2":11.8,"co":515.0,"o3":166.0,"so2":46.1,"mosquito_risk":3,"arthritis_risk":5,"migraine_risk":7,"frizz_risk":1,"updated_at":"2026-05-31T14:19:54.902215+05:30"},{"city":"Vijayawada","state":"Andhra Pradesh","latitude":16.5062,"longitude":80.648,"temp":40.3,"humidity":30,"rain":0.0,"pressure":999.1,"uv_index":9.0,"wind_gusts":41.4,"aqi":76,"pm10":42.4,"pm2_5":25.1,"no2":1.1,"co":186.0,"o3":147.0,"so2":5.6,"mosquito_risk":0,"arthritis_risk":5,"migraine_risk":10,"frizz_risk":1,"updated_at":"2026-05-31T14:19:54.902221+05:30"},{"city":"Guntur","state":"Andhra Pradesh","latitude":16.3067,"longitude":80.4365,"temp":39.5,"humidity":33,"rain":0.0,"pressure":1000.3,"uv_index":8.55,"wind_gusts":45.0,"aqi":73,"pm10":46.7,"pm2_5":26.8,"no2":1.1,"co":174.0,"o3":142.0,"so2":4.8,"mosquito_risk":0,"arthritis_risk":5,"migraine_risk":7,"frizz_risk":1,"updated_at":"2026-05-31T14:19:54.902228+05:30"},{"city":"Nellore","state":"Andhra Pradesh","latitude":14.4426,"longitude":79.9865,"temp":39.8,"humidity":34,"rain":0.0,"pressure":1002.4,"uv_index":8.45,"wind_gusts":33.1,"aqi":69,"pm10":23.7,"pm2_5":18.6,"no2":2.0,"co":153.0,"o3":150.0,"so2":6.4,"mosquito_risk":0,"arthritis_risk":5,"migraine_risk":7,"frizz_risk":1,"updated_at":"2026-05-31T14:19:54.902237+05:30"},{"city":"Kurnool","state":"Andhra Pradesh","latitude":15.8281,"longitude":78.0373,"temp":37.4,"humidity":37,"rain":0.0,"pressure":975.6,"uv_index":9.0,"wind_gusts":55.1,"aqi":58,"pm10":38.6,"pm2_5":21.3,"no2":1.1,"co":139.0,"o3":122.0,"so2":7.3,"mosquito_risk":0,"arthritis_risk":5,"migraine_risk":10,"frizz_risk":1,"updated_at":"2026-05-31T14:19:54.902245+05:30"},{"city":"Kakinada","state":"Andhra Pradesh","latitude":16.9891,"longitude":82.2475,"temp":36.8,"humidity":51,"rain":0.0,"pressure":1003.5,"uv_index":9.0,"wind_gusts":37.8,"aqi":79,"pm10":30.2,"pm2_5":22.4,"no2":1.5,"co":245.0,"o3":139.0,"so2":3.7,"mosquito_risk":0,"arthritis_risk":5,"migraine_risk":7,"frizz_risk":1,"updated_at":"2026-05-31T14:19:54.902252+05:30"},{"city":"Tirupati","state":"Andhra Pradesh","latitude":13.6288,"longitude":79.4192,"temp":39.0,"humidity":32,"rain":0.0,"pressure":988.4,"uv_index":9.05,"wind_gusts":34.9,"aqi":71,"pm10":21.8,"pm2_5":15.1,"no2":0.4,"co":142.0,"o3":129.0,"so2":2.5,"mosquito_risk":0,"arthritis_risk":5,"migraine_risk":10,"frizz_risk":1,"updated_at":"2026-05-31T14:19:54.902259+05:30"},{"city":"Warangal","state":"Telangana","latitude":17.9689,"longitude":79.5941,"temp":37.8,"humidity":33,"rain":0.0,"pressure":976.6,"uv_index":8.6,"wind_gusts":59.0,"aqi":91,"pm10":53.2,"pm2_5":26.8,"no2":1.3,"co":168.0,"o3":140.0,"so2":7.8,"mosquito_risk":0,"arthritis_risk":5,"migraine_risk":10,"frizz_risk":1,"updated_at":"2026-05-31T14:19:54.902265+05:30"},{"city":"Nizamabad","state":"Telangana","latitude":18.6725,"longitude":78.0941,"temp":37.3,"humidity":32,"rain":0.0,"pressure":963.6,"uv_index":9.0,"wind_gusts":40.0,"aqi":84,"pm10":52.5,"pm2_5":24.0,"no2":0.7,"co":141.0,"o3":109.0,"so2":2.9,"mosquito_risk":0,"arthritis_risk":5,"migraine_risk":10,"frizz_risk":1,"updated_at":"2026-05-31T14:19:54.902272+05:30"},{"city":"Mysore","state":"Karnataka","latitude":12.2958,"longitude":76.6396,"temp":33.3,"humidity":42,"rain":0.0,"pressure":928.8,"uv_index":9.1,"wind_gusts":44.6,"aqi":53,"pm10":15.1,"pm2_5":10.1,"no2":1.0,"co":148.0,"o3":118.0,"so2":1.5,"mosquito_risk":0,"arthritis_risk":5,"migraine_risk":7,"frizz_risk":1,"updated_at":"2026-05-31T14:19:54.902279+05:30"},{"city":"Mangalore","state":"Karnataka","latitude":12.9141,"longitude":74.856,"temp":31.1,"humidity":72,"rain":0.1,"pressure":1007.1,"uv_index":8.6,"wind_gusts":29.5,"aqi":42,"pm10":10.1,"pm2_5":6.6,"no2":1.1,"co":122.0,"o3":80.0,"so2":1.6,"mosquito_risk":6,"arthritis_risk":5,"migraine_risk":4,"frizz_risk":1,"updated_at":"2026-05-31T14:19:54.902285+05:30"},{"city":"Hubli-Dharwad","state":"Karnataka","latitude":15.3647,"longitude":75.124,"temp":35.5,"humidity":40,"rain":0.0,"pressure":941.5,"uv_index":8.9,"wind_gusts":43.6,"aqi":37,"pm10":16.5,"pm2_5":8.4,"no2":0.8,"co":130.0,"o3":93.0,"so2":0.9,"mosquito_risk":0,"arthritis_risk":5,"migraine_risk":10,"frizz_risk":1,"updated_at":"2026-05-31T14:19:54.902292+05:30"},{"city":"Belgaum","state":"Karnataka","latitude":15.8497,"longitude":74.4977,"temp":33.3,"humidity":43,"rain":0.0,"pressure":927.0,"uv_index":7.55,"wind_gusts":44.6,"aqi":29,"pm10":16.8,"pm2_5":8.2,"no2":0.8,"co":126.0,"o3":82.0,"so2":1.3,"mosquito_risk":0,"arthritis_risk":5,"migraine_risk":7,"frizz_risk":1,"updated_at":"2026-05-31T14:19:58.212194+05:30"},{"city":"Coimbatore","state":"Tamil Nadu","latitude":11.0168,"longitude":76.9558,"temp":33.1,"humidity":45,"rain":0.2,"pressure":961.4,"uv_index":8.1,"wind_gusts":43.2,"aqi":37,"pm10":15.9,"pm2_5":8.9,"no2":1.4,"co":147.0,"o3":99.0,"so2":2.0,"mosquito_risk":3,"arthritis_risk":5,"migraine_risk":7,"frizz_risk":1,"updated_at":"2026-05-31T14:19:58.212230+05:30"},{"city":"Madurai","state":"Tamil Nadu","latitude":9.9252,"longitude":78.1198,"temp":38.2,"humidity":34,"rain":0.0,"pressure":991.2,"uv_index":8.7,"wind_gusts":33.1,"aqi":75,"pm10":29.0,"pm2_5":15.4,"no2":1.4,"co":163.0,"o3":152.0,"so2":3.0,"mosquito_risk":0,"arthritis_risk":5,"migraine_risk":10,"frizz_risk":1,"updated_at":"2026-05-31T14:19:58.212241+05:30"},{"city":"Trichy","state":"Tamil Nadu","latitude":10.7905,"longitude":78.7047,"temp":37.8,"humidity":39,"rain":0.0,"pressure":997.5,"uv_index":8.9,"wind_gusts":34.2,"aqi":53,"pm10":14.8,"pm2_5":9.7,"no2":0.9,"co":131.0,"o3":128.0,"so2":2.7,"mosquito_risk":0,"arthritis_risk":5,"migraine_risk":10,"frizz_risk":1,"updated_at":"2026-05-31T14:19:58.212250+05:30"},{"city":"Salem","state":"Tamil Nadu","latitude":11.6643,"longitude":78.146,"temp":38.1,"humidity":31,"rain":0.0,"pressure":975.9,"uv_index":8.95,"wind_gusts":47.9,"aqi":72,"pm10":27.9,"pm2_5":19.7,"no2":2.3,"co":157.0,"o3":175.0,"so2":10.0,"mosquito_risk":0,"arthritis_risk":5,"migraine_risk":10,"frizz_risk":1,"updated_at":"2026-05-31T14:19:58.212258+05:30"},{"city":"Tirunelveli","state":"Tamil Nadu","latitude":8.7139,"longitude":77.7567,"temp":36.9,"humidity":38,"rain":0.0,"pressure":1001.6,"uv_index":8.35,"wind_gusts":24.5,"aqi":29,"pm10":9.8,"pm2_5":5.4,"no2":0.9,"co":120.0,"o3":82.0,"so2":0.8,"mosquito_risk":0,"arthritis_risk":5,"migraine_risk":7,"frizz_risk":1,"updated_at":"2026-05-31T14:19:58.212265+05:30"},{"city":"Vellore","state":"Tamil Nadu","latitude":12.9165,"longitude":79.1325,"temp":37.6,"humidity":35,"rain":0.0,"pressure":982.1,"uv_index":8.7,"wind_gusts":37.1,"aqi":98,"pm10":25.6,"pm2_5":17.9,"no2":0.4,"co":162.0,"o3":147.0,"so2":2.5,"mosquito_risk":0,"arthritis_risk":5,"migraine_risk":10,"frizz_risk":1,"updated_at":"2026-05-31T14:19:58.212273+05:30"},{"city":"Erode","state":"Tamil Nadu","latitude":11.341,"longitude":77.7172,"temp":38.8,"humidity":31,"rain":0.0,"pressure":987.2,"uv_index":8.5,"wind_gusts":27.7,"aqi":52,"pm10":19.1,"pm2_5":11.3,"no2":1.2,"co":168.0,"o3":138.0,"so2":2.2,"mosquito_risk":0,"arthritis_risk":5,"migraine_risk":10,"frizz_risk":1,"updated_at":"2026-05-31T14:19:58.212280+05:30"},{"city":"Kochi","state":"Kerala","latitude":9.9312,"longitude":76.2673,"temp":30.4,"humidity":73,"rain":0.0,"pressure":1009.0,"uv_index":7.7,"wind_gusts":32.8,"aqi":61,"pm10":10.5,"pm2_5":7.0,"no2":1.8,"co":106.0,"o3":84.0,"so2":2.6,"mosquito_risk":3,"arthritis_risk":0,"migraine_risk":4,"frizz_risk":1,"updated_at":"2026-05-31T14:19:58.212287+05:30"},{"city":"Thiruvananthapuram","state":"Kerala","latitude":8.5241,"longitude":76.9366,"temp":29.5,"humidity":77,"rain":0.0,"pressure":1008.4,"uv_index":7.3,"wind_gusts":31.3,"aqi":29,"pm10":8.1,"pm2_5":4.9,"no2":0.6,"co":98.0,"o3":71.0,"so2":0.5,"mosquito_risk":7,"arthritis_risk":0,"migraine_risk":4,"frizz_risk":1,"updated_at":"2026-05-31T14:19:58.212294+05:30"},{"city":"Kozhikode","state":"Kerala","latitude":11.2588,"longitude":75.7804,"temp":29.2,"humidity":83,"rain":0.1,"pressure":1008.5,"uv_index":8.65,"wind_gusts":29.2,"aqi":29,"pm10":5.9,"pm2_5":3.4,"no2":0.3,"co":117.0,"o3":68.0,"so2":0.5,"mosquito_risk":10,"arthritis_risk":0,"migraine_risk":4,"frizz_risk":1,"updated_at":"2026-05-31T14:19:58.212302+05:30"},{"city":"Thrissur","state":"Kerala","latitude":10.5276,"longitude":76.2144,"temp":30.6,"humidity":73,"rain":0.1,"pressure":1007.3,"uv_index":7.95,"wind_gusts":32.4,"aqi":56,"pm10":9.9,"pm2_5":6.9,"no2":1.6,"co":109.0,"o3":81.0,"so2":2.0,"mosquito_risk":6,"arthritis_risk":5,"migraine_risk":4,"frizz_risk":1,"updated_at":"2026-05-31T14:19:58.212310+05:30"},{"city":"Kannur","state":"Kerala","latitude":11.8745,"longitude":75.3704,"temp":29.7,"humidity":81,"rain":0.0,"pressure":1008.0,"uv_index":7.2,"wind_gusts":31.0,"aqi":39,"pm10":7.9,"pm2_5":5.2,"no2":1.3,"co":110.0,"o3":70.0,"so2":1.0,"mosquito_risk":7,"arthritis_risk":0,"migraine_risk":4,"frizz_risk":1,"updated_at":"2026-05-31T14:19:58.212318+05:30"},{"city":"Patna","state":"Bihar","latitude":25.5941,"longitude":85.1376,"temp":34.3,"humidity":51,"rain":0.0,"pressure":998.5,"uv_index":8.8,"wind_gusts":33.5,"aqi":152,"pm10":85.9,"pm2_5":59.0,"no2":1.2,"co":345.0,"o3":219.0,"so2":17.1,"mosquito_risk":0,"arthritis_risk":5,"migraine_risk":7,"frizz_risk":1,"updated_at":"2026-05-31T14:19:58.212324+05:30"},{"city":"Gaya","state":"Bihar","latitude":24.7914,"longitude":85.0002,"temp":35.0,"humidity":48,"rain":0.0,"pressure":991.7,"uv_index":8.85,"wind_gusts":21.2,"aqi":152,"pm10":74.5,"pm2_5":56.0,"no2":1.3,"co":304.0,"o3":205.0,"so2":19.9,"mosquito_risk":0,"arthritis_risk":5,"migraine_risk":7,"frizz_risk":1,"updated_at":"2026-05-31T14:19:58.212331+05:30"},{"city":"Muzaffarpur","state":"Bihar","latitude":26.1209,"longitude":85.3647,"temp":34.0,"humidity":52,"rain":0.0,"pressure":998.6,"uv_index":8.8,"wind_gusts":33.5,"aqi":138,"pm10":84.5,"pm2_5":59.0,"no2":1.5,"co":380.0,"o3":217.0,"so2":18.0,"mosquito_risk":0,"arthritis_risk":5,"migraine_risk":7,"frizz_risk":1,"updated_at":"2026-05-31T14:19:58.212338+05:30"},{"city":"Bhagalpur","state":"Bihar","latitude":25.2425,"longitude":87.0117,"temp":34.6,"humidity":52,"rain":0.0,"pressure":998.5,"uv_index":8.8,"wind_gusts":25.9,"aqi":157,"pm10":100.1,"pm2_5":67.1,"no2":2.6,"co":306.0,"o3":230.0,"so2":30.2,"mosquito_risk":0,"arthritis_risk":5,"migraine_risk":7,"frizz_risk":1,"updated_at":"2026-05-31T14:19:58.212344+05:30"},{"city":"Ranchi","state":"Jharkhand","latitude":23.3441,"longitude":85.3096,"temp":25.9,"humidity":81,"rain":0.3,"pressure":936.8,"uv_index":9.25,"wind_gusts":32.4,"aqi":129,"pm10":53.4,"pm2_5":34.6,"no2":1.3,"co":228.0,"o3":147.0,"so2":6.4,"mosquito_risk":10,"arthritis_risk":5,"migraine_risk":7,"frizz_risk":1,"updated_at":"2026-05-31T14:19:58.212352+05:30"},{"city":"Jamshedpur","state":"Jharkhand","latitude":22.8046,"longitude":86.2029,"temp":34.5,"humidity":52,"rain":0.0,"pressure":988.3,"uv_index":5.55,"wind_gusts":36.7,"aqi":115,"pm10":57.5,"pm2_5":37.0,"no2":1.3,"co":369.0,"o3":164.0,"so2":12.6,"mosquito_risk":0,"arthritis_risk":5,"migraine_risk":3,"frizz_risk":1,"updated_at":"2026-05-31T14:19:58.212359+05:30"},{"city":"Dhanbad","state":"Jharkhand","latitude":23.7957,"longitude":86.4304,"temp":33.5,"humidity":51,"rain":0.0,"pressure":977.8,"uv_index":8.85,"wind_gusts":24.5,"aqi":164,"pm10":85.0,"pm2_5":66.6,"no2":10.9,"co":294.0,"o3":212.0,"so2":54.6,"mosquito_risk":0,"arthritis_risk":5,"migraine_risk":7,"frizz_risk":1,"updated_at":"2026-05-31T14:19:58.212366+05:30"},{"city":"Bokaro","state":"Jharkhand","latitude":23.6693,"longitude":86.1511,"temp":33.1,"humidity":57,"rain":0.0,"pressure":981.6,"uv_index":9.05,"wind_gusts":27.0,"aqi":172,"pm10":86.1,"pm2_5":67.1,"no2":13.5,"co":1278.0,"o3":214.0,"so2":62.9,"mosquito_risk":0,"arthritis_risk":5,"migraine_risk":7,"frizz_risk":1,"updated_at":"2026-05-31T14:19:58.212372+05:30"},{"city":"Bhubaneswar","state":"Odisha","latitude":20.2961,"longitude":85.8245,"temp":32.8,"humidity":66,"rain":0.0,"pressure":999.5,"uv_index":9.05,"wind_gusts":26.3,"aqi":104,"pm10":31.3,"pm2_5":22.5,"no2":2.5,"co":202.0,"o3":133.0,"so2":5.0,"mosquito_risk":3,"arthritis_risk":5,"migraine_risk":7,"frizz_risk":1,"updated_at":"2026-05-31T14:19:58.212379+05:30"},{"city":"Cuttack","state":"Odisha","latitude":20.4625,"longitude":85.8828,"temp":33.5,"humidity":67,"rain":0.0,"pressure":1001.2,"uv_index":9.1,"wind_gusts":24.5,"aqi":104,"pm10":31.3,"pm2_5":22.5,"no2":2.5,"co":214.0,"o3":133.0,"so2":5.0,"mosquito_risk":3,"arthritis_risk":5,"migraine_risk":4,"frizz_risk":1,"updated_at":"2026-05-31T14:19:58.212386+05:30"},{"city":"Rourkela","state":"Odisha","latitude":22.2604,"longitude":84.8536,"temp":33.2,"humidity":54,"rain":0.1,"pressure":982.6,"uv_index":8.35,"wind_gusts":37.1,"aqi":139,"pm10":65.9,"pm2_5":45.1,"no2":1.7,"co":246.0,"o3":187.0,"so2":17.4,"mosquito_risk":3,"arthritis_risk":5,"migraine_risk":7,"frizz_risk":1,"updated_at":"2026-05-31T14:19:58.212392+05:30"},{"city":"Raipur","state":"Chhattisgarh","latitude":21.2514,"longitude":81.6296,"temp":39.2,"humidity":24,"rain":0.0,"pressure":972.3,"uv_index":8.85,"wind_gusts":31.3,"aqi":126,"pm10":44.9,"pm2_5":28.0,"no2":5.3,"co":215.0,"o3":175.0,"so2":25.9,"mosquito_risk":0,"arthritis_risk":5,"migraine_risk":10,"frizz_risk":0,"updated_at":"2026-05-31T14:19:58.212399+05:30"},{"city":"Bhilai","state":"Chhattisgarh","latitude":21.1938,"longitude":81.3509,"temp":38.3,"humidity":27,"rain":0.0,"pressure":972.6,"uv_index":8.95,"wind_gusts":29.5,"aqi":131,"pm10":52.0,"pm2_5":32.8,"no2":7.7,"co":200.0,"o3":177.0,"so2":39.1,"mosquito_risk":0,"arthritis_risk":5,"migraine_risk":10,"frizz_risk":0,"updated_at":"2026-05-31T14:19:58.212405+05:30"},{"city":"Guwahati","state":"Assam","latitude":26.1158,"longitude":91.7086,"temp":33.3,"humidity":56,"rain":0.0,"pressure":998.1,"uv_index":8.75,"wind_gusts":29.9,"aqi":64,"pm10":37.1,"pm2_5":22.2,"no2":1.0,"co":310.0,"o3":127.0,"so2":2.4,"mosquito_risk":0,"arthritis_risk":5,"migraine_risk":7,"frizz_risk":1,"updated_at":"2026-05-31T14:19:58.212412+05:30"},{"city":"Agartala","state":"Tripura","latitude":23.8315,"longitude":91.2868,"temp":33.8,"humidity":54,"rain":0.0,"pressure":1002.7,"uv_index":8.85,"wind_gusts":23.8,"aqi":156,"pm10":57.3,"pm2_5":34.6,"no2":2.8,"co":289.0,"o3":204.0,"so2":8.4,"mosquito_risk":0,"arthritis_risk":5,"migraine_risk":4,"frizz_risk":1,"updated_at":"2026-05-31T14:19:58.212419+05:30"},{"city":"Shillong","state":"Meghalaya","latitude":25.5788,"longitude":91.8933,"temp":24.4,"humidity":72,"rain":0.0,"pressure":857.5,"uv_index":9.05,"wind_gusts":23.8,"aqi":64,"pm10":36.7,"pm2_5":20.2,"no2":1.4,"co":231.0,"o3":116.0,"so2":2.5,"mosquito_risk":3,"arthritis_risk":5,"migraine_risk":7,"frizz_risk":1,"updated_at":"2026-05-31T14:19:58.212425+05:30"},{"city":"Imphal","state":"Manipur","latitude":24.817,"longitude":93.9368,"temp":26.4,"humidity":79,"rain":0.0,"pressure":922.1,"uv_index":9.0,"wind_gusts":24.5,"aqi":74,"pm10":3.2,"pm2_5":2.8,"no2":0.8,"co":200.0,"o3":72.0,"so2":0.7,"mosquito_risk":7,"arthritis_risk":5,"migraine_risk":7,"frizz_risk":1,"updated_at":"2026-05-31T14:19:58.212432+05:30"},{"city":"Aizawl","state":"Mizoram","latitude":23.7271,"longitude":92.7176,"temp":25.2,"humidity":71,"rain":0.1,"pressure":891.3,"uv_index":8.2,"wind_gusts":27.7,"aqi":46,"pm10":16.8,"pm2_5":8.2,"no2":0.6,"co":212.0,"o3":79.0,"so2":0.5,"mosquito_risk":10,"arthritis_risk":5,"migraine_risk":7,"frizz_risk":1,"updated_at":"2026-05-31T14:19:58.212439+05:30"},{"city":"Kohima","state":"Nagaland","latitude":25.6701,"longitude":94.1077,"temp":22.5,"humidity":98,"rain":0.0,"pressure":855.2,"uv_index":2.15,"wind_gusts":23.0,"aqi":55,"pm10":16.8,"pm2_5":10.9,"no2":1.4,"co":190.0,"o3":78.0,"so2":0.6,"mosquito_risk":3,"arthritis_risk":5,"migraine_risk":3,"frizz_risk":1,"updated_at":"2026-05-31T14:19:58.212446+05:30"},{"city":"Gangtok","state":"Sikkim","latitude":27.3314,"longitude":88.6138,"temp":24.5,"humidity":52,"rain":0.1,"pressure":839.9,"uv_index":9.15,"wind_gusts":42.5,"aqi":67,"pm10":32.0,"pm2_5":18.2,"no2":0.5,"co":194.0,"o3":130.0,"so2":1.8,"mosquito_risk":3,"arthritis_risk":5,"migraine_risk":7,"frizz_risk":0,"updated_at":"2026-05-31T14:19:58.212470+05:30"},{"city":"Siliguri","state":"West Bengal","latitude":26.7271,"longitude":88.3953,"temp":33.2,"humidity":56,"rain":0.1,"pressure":990.5,"uv_index":8.65,"wind_gusts":20.2,"aqi":139,"pm10":61.7,"pm2_5":36.2,"no2":1.1,"co":286.0,"o3":165.0,"so2":4.4,"mosquito_risk":3,"arthritis_risk":5,"migraine_risk":7,"frizz_risk":1,"updated_at":"2026-05-31T14:20:19.197588+05:30"},{"city":"Durgapur","state":"West Bengal","latitude":23.5204,"longitude":87.3119,"temp":33.8,"humidity":60,"rain":0.0,"pressure":992.5,"uv_index":8.95,"wind_gusts":23.8,"aqi":160,"pm10":80.8,"pm2_5":64.5,"no2":8.7,"co":296.0,"o3":231.0,"so2":53.0,"mosquito_risk":0,"arthritis_risk":5,"migraine_risk":7,"frizz_risk":1,"updated_at":"2026-05-31T14:20:19.197624+05:30"},{"city":"Asansol","state":"West Bengal","latitude":23.6739,"longitude":86.9524,"temp":33.8,"humidity":58,"rain":0.0,"pressure":991.2,"uv_index":9.0,"wind_gusts":29.2,"aqi":156,"pm10":82.4,"pm2_5":65.9,"no2":8.0,"co":486.0,"o3":219.0,"so2":49.8,"mosquito_risk":0,"arthritis_risk":5,"migraine_risk":7,"frizz_risk":1,"updated_at":"2026-05-31T14:20:19.197635+05:30"},{"city":"Pondicherry","state":"Puducherry","latitude":11.9139,"longitude":79.8145,"temp":35.8,"humidity":53,"rain":0.0,"pressure":1005.9,"uv_index":8.8,"wind_gusts":38.9,"aqi":77,"pm10":37.8,"pm2_5":31.7,"no2":5.4,"co":249.0,"o3":192.0,"so2":12.0,"mosquito_risk":0,"arthritis_risk":5,"migraine_risk":7,"frizz_risk":1,"updated_at":"2026-05-31T14:20:19.197644+05:30"},{"city":"Port Blair","state":"Andaman and Nicobar Islands","latitude":11.6234,"longitude":92.7265,"temp":28.6,"humidity":81,"rain":0.0,"pressure":1005.5,"uv_index":8.0,"wind_gusts":36.0,"aqi":37,"pm10":7.5,"pm2_5":4.7,"no2":0.3,"co":119.0,"o3":75.0,"so2":0.4,"mosquito_risk":7,"arthritis_risk":5,"migraine_risk":4,"frizz_risk":1,"updated_at":"2026-05-31T14:20:19.197652+05:30"},{"city":"Haridwar","state":"Uttarakhand","latitude":29.9457,"longitude":78.1642,"temp":29.0,"humidity":55,"rain":0.1,"pressure":975.2,"uv_index":6.4,"wind_gusts":27.4,"aqi":89,"pm10":27.0,"pm2_5":21.6,"no2":1.1,"co":260.0,"o3":163.0,"so2":5.9,"mosquito_risk":7,"arthritis_risk":5,"migraine_risk":7,"frizz_risk":1,"updated_at":"2026-05-31T14:20:19.197660+05:30"},{"city":"Rishikesh","state":"Uttarakhand","latitude":30.0869,"longitude":78.2676,"temp":29.6,"humidity":43,"rain":0.1,"pressure":967.8,"uv_index":6.85,"wind_gusts":29.9,"aqi":104,"pm10":24.3,"pm2_5":18.0,"no2":0.7,"co":239.0,"o3":158.0,"so2":4.4,"mosquito_risk":7,"arthritis_risk":5,"migraine_risk":7,"frizz_risk":0,"updated_at":"2026-05-31T14:20:19.197668+05:30"},{"city":"Nainital","state":"Uttarakhand","latitude":29.3919,"longitude":79.4542,"temp":16.4,"humidity":85,"rain":0.1,"pressure":807.4,"uv_index":6.15,"wind_gusts":25.6,"aqi":75,"pm10":16.4,"pm2_5":9.6,"no2":0.6,"co":253.0,"o3":141.0,"so2":1.6,"mosquito_risk":6,"arthritis_risk":10,"migraine_risk":7,"frizz_risk":0,"updated_at":"2026-05-31T14:20:19.197675+05:30"},{"city":"Mussoorie","state":"Uttarakhand","latitude":30.4599,"longitude":78.0664,"temp":18.9,"humidity":47,"rain":0.0,"pressure":805.1,"uv_index":7.25,"wind_gusts":37.4,"aqi":83,"pm10":31.4,"pm2_5":18.7,"no2":0.8,"co":228.0,"o3":161.0,"so2":4.6,"mosquito_risk":0,"arthritis_risk":5,"migraine_risk":7,"frizz_risk":0,"updated_at":"2026-05-31T14:20:19.197683+05:30"},{"city":"Dharamshala","state":"Himachal Pradesh","latitude":32.219,"longitude":76.3234,"temp":22.0,"humidity":48,"rain":0.0,"pressure":871.1,"uv_index":7.85,"wind_gusts":36.7,"aqi":50,"pm10":24.3,"pm2_5":10.1,"no2":0.7,"co":220.0,"o3":144.0,"so2":0.9,"mosquito_risk":0,"arthritis_risk":5,"migraine_risk":7,"frizz_risk":0,"updated_at":"2026-05-31T14:20:19.197691+05:30"},{"city":"Dalhousie","state":"Himachal Pradesh","latitude":32.5387,"longitude":75.971,"temp":18.1,"humidity":76,"rain":0.0,"pressure":806.9,"uv_index":7.4,"wind_gusts":23.0,"aqi":86,"pm10":56.1,"pm2_5":18.9,"no2":1.1,"co":226.0,"o3":166.0,"so2":2.6,"mosquito_risk":3,"arthritis_risk":5,"migraine_risk":7,"frizz_risk":0,"updated_at":"2026-05-31T14:20:19.197698+05:30"},{"city":"Patiala","state":"Punjab","latitude":30.3398,"longitude":76.3869,"temp":31.0,"humidity":45,"rain":0.0,"pressure":978.6,"uv_index":7.5,"wind_gusts":44.6,"aqi":145,"pm10":163.0,"pm2_5":41.3,"no2":1.7,"co":282.0,"o3":158.0,"so2":9.0,"mosquito_risk":0,"arthritis_risk":5,"migraine_risk":7,"frizz_risk":1,"updated_at":"2026-05-31T14:20:19.197706+05:30"},{"city":"Bhatinda","state":"Punjab","latitude":30.211,"longitude":74.9455,"temp":33.8,"humidity":40,"rain":0.0,"pressure":983.3,"uv_index":8.2,"wind_gusts":33.5,"aqi":275,"pm10":410.7,"pm2_5":80.6,"no2":2.4,"co":253.0,"o3":184.0,"so2":17.5,"mosquito_risk":0,"arthritis_risk":5,"migraine_risk":7,"frizz_risk":1,"updated_at":"2026-05-31T14:20:19.197714+05:30"},{"city":"Rohtak","state":"Haryana","latitude":28.8955,"longitude":76.6066,"temp":32.3,"humidity":42,"rain":0.0,"pressure":981.4,"uv_index":7.6,"wind_gusts":47.5,"aqi":492,"pm10":375.3,"pm2_5":76.4,"no2":4.4,"co":267.0,"o3":188.0,"so2":18.3,"mosquito_risk":0,"arthritis_risk":5,"migraine_risk":7,"frizz_risk":1,"updated_at":"2026-05-31T14:20:19.197721+05:30"},{"city":"Panipat","state":"Haryana","latitude":29.3909,"longitude":76.9635,"temp":26.9,"humidity":69,"rain":0.1,"pressure":981.2,"uv_index":7.4,"wind_gusts":32.4,"aqi":698,"pm10":166.7,"pm2_5":45.3,"no2":5.7,"co":273.0,"o3":178.0,"so2":21.9,"mosquito_risk":10,"arthritis_risk":5,"migraine_risk":7,"frizz_risk":1,"updated_at":"2026-05-31T14:20:19.197728+05:30"},{"city":"Mathura","state":"Uttar Pradesh","latitude":27.4924,"longitude":77.6737,"temp":35.0,"humidity":35,"rain":0.0,"pressure":985.7,"uv_index":7.9,"wind_gusts":40.3,"aqi":562,"pm10":243.1,"pm2_5":43.1,"no2":1.0,"co":279.0,"o3":156.0,"so2":3.8,"mosquito_risk":0,"arthritis_risk":5,"migraine_risk":7,"frizz_risk":1,"updated_at":"2026-05-31T14:20:19.197736+05:30"},{"city":"Vrindavan","state":"Uttar Pradesh","latitude":27.5823,"longitude":77.7027,"temp":35.0,"humidity":35,"rain":0.0,"pressure":986.1,"uv_index":7.85,"wind_gusts":39.6,"aqi":562,"pm10":243.1,"pm2_5":43.1,"no2":1.0,"co":279.0,"o3":156.0,"so2":3.8,"mosquito_risk":0,"arthritis_risk":5,"migraine_risk":7,"frizz_risk":1,"updated_at":"2026-05-31T14:20:19.197743+05:30"},{"city":"Ayodhya","state":"Uttar Pradesh","latitude":26.7922,"longitude":82.1998,"temp":34.0,"humidity":46,"rain":0.0,"pressure":994.4,"uv_index":8.25,"wind_gusts":38.5,"aqi":103,"pm10":43.4,"pm2_5":26.4,"no2":0.9,"co":304.0,"o3":171.0,"so2":6.2,"mosquito_risk":0,"arthritis_risk":5,"migraine_risk":7,"frizz_risk":1,"updated_at":"2026-05-31T14:20:19.197750+05:30"},{"city":"Ratlam","state":"Madhya Pradesh","latitude":23.3315,"longitude":75.0367,"temp":36.2,"humidity":32,"rain":0.0,"pressure":954.2,"uv_index":8.45,"wind_gusts":47.2,"aqi":68,"pm10":50.2,"pm2_5":23.4,"no2":0.6,"co":127.0,"o3":102.0,"so2":4.5,"mosquito_risk":0,"arthritis_risk":5,"migraine_risk":10,"frizz_risk":1,"updated_at":"2026-05-31T14:20:19.197758+05:30"},{"city":"Sagar","state":"Madhya Pradesh","latitude":23.8388,"longitude":78.7378,"temp":32.7,"humidity":39,"rain":0.0,"pressure":949.9,"uv_index":8.65,"wind_gusts":49.0,"aqi":68,"pm10":21.2,"pm2_5":7.9,"no2":0.5,"co":150.0,"o3":135.0,"so2":2.7,"mosquito_risk":0,"arthritis_risk":5,"migraine_risk":7,"frizz_risk":1,"updated_at":"2026-05-31T14:20:19.197765+05:30"},{"city":"Satna","state":"Madhya Pradesh","latitude":24.6005,"longitude":80.8322,"temp":36.0,"humidity":28,"rain":0.1,"pressure":970.0,"uv_index":8.7,"wind_gusts":30.6,"aqi":90,"pm10":41.8,"pm2_5":18.8,"no2":0.7,"co":238.0,"o3":156.0,"so2":7.6,"mosquito_risk":3,"arthritis_risk":5,"migraine_risk":10,"frizz_risk":0,"updated_at":"2026-05-31T14:20:19.197772+05:30"},{"city":"Akola","state":"Maharashtra","latitude":20.7002,"longitude":77.0082,"temp":37.8,"humidity":24,"rain":0.0,"pressure":973.7,"uv_index":8.7,"wind_gusts":64.1,"aqi":73,"pm10":45.2,"pm2_5":19.8,"no2":1.3,"co":130.0,"o3":119.0,"so2":6.4,"mosquito_risk":0,"arthritis_risk":5,"migraine_risk":10,"frizz_risk":0,"updated_at":"2026-05-31T14:20:19.197781+05:30"},{"city":"Amravati","state":"Maharashtra","latitude":20.9374,"longitude":77.7796,"temp":36.8,"humidity":25,"rain":0.0,"pressure":966.3,"uv_index":8.75,"wind_gusts":48.6,"aqi":73,"pm10":39.7,"pm2_5":18.3,"no2":1.6,"co":149.0,"o3":127.0,"so2":7.7,"mosquito_risk":0,"arthritis_risk":5,"migraine_risk":10,"frizz_risk":0,"updated_at":"2026-05-31T14:20:19.197789+05:30"},{"city":"Latur","state":"Maharashtra","latitude":18.4088,"longitude":76.5604,"temp":37.7,"humidity":23,"rain":0.0,"pressure":939.6,"uv_index":8.95,"wind_gusts":44.3,"aqi":61,"pm10":69.6,"pm2_5":22.4,"no2":0.7,"co":132.0,"o3":99.0,"so2":2.5,"mosquito_risk":0,"arthritis_risk":5,"migraine_risk":10,"frizz_risk":0,"updated_at":"2026-05-31T14:20:19.197796+05:30"},{"city":"Nanded","state":"Maharashtra","latitude":19.1383,"longitude":77.3091,"temp":38.5,"humidity":26,"rain":0.0,"pressure":966.9,"uv_index":8.9,"wind_gusts":47.2,"aqi":73,"pm10":67.1,"pm2_5":24.7,"no2":0.8,"co":128.0,"o3":102.0,"so2":2.3,"mosquito_risk":0,"arthritis_risk":5,"migraine_risk":10,"frizz_risk":0,"updated_at":"2026-05-31T14:20:19.197803+05:30"},{"city":"Gulbarga","state":"Karnataka","latitude":17.3297,"longitude":76.8343,"temp":37.6,"humidity":26,"rain":0.0,"pressure":958.1,"uv_index":8.95,"wind_gusts":52.2,"aqi":56,"pm10":42.0,"pm2_5":18.0,"no2":1.0,"co":131.0,"o3":106.0,"so2":2.5,"mosquito_risk":0,"arthritis_risk":5,"migraine_risk":10,"frizz_risk":0,"updated_at":"2026-05-31T14:20:19.197810+05:30"},{"city":"Bidar","state":"Karnataka","latitude":17.9104,"longitude":77.5199,"temp":35.2,"humidity":33,"rain":0.0,"pressure":935.5,"uv_index":9.0,"wind_gusts":45.4,"aqi":70,"pm10":64.0,"pm2_5":27.4,"no2":1.0,"co":139.0,"o3":118.0,"so2":5.1,"mosquito_risk":0,"arthritis_risk":5,"migraine_risk":10,"frizz_risk":1,"updated_at":"2026-05-31T14:20:19.197817+05:30"},{"city":"Hospet","state":"Karnataka","latitude":15.2689,"longitude":76.3909,"temp":34.2,"humidity":48,"rain":0.0,"pressure":955.6,"uv_index":8.9,"wind_gusts":52.2,"aqi":47,"pm10":18.2,"pm2_5":10.0,"no2":1.2,"co":145.0,"o3":98.0,"so2":2.9,"mosquito_risk":0,"arthritis_risk":5,"migraine_risk":7,"frizz_risk":1,"updated_at":"2026-05-31T14:20:19.197824+05:30"},{"city":"Tirupur","state":"Tamil Nadu","latitude":11.1085,"longitude":77.3411,"temp":37.5,"humidity":33,"rain":0.0,"pressure":973.8,"uv_index":8.45,"wind_gusts":36.0,"aqi":53,"pm10":19.0,"pm2_5":11.3,"no2":1.3,"co":143.0,"o3":132.0,"so2":2.5,"mosquito_risk":0,"arthritis_risk":5,"migraine_risk":10,"frizz_risk":1,"updated_at":"2026-05-31T14:20:19.197831+05:30"},{"city":"Alappuzha","state":"Kerala","latitude":9.4981,"longitude":76.3388,"temp":29.5,"humidity":76,"rain":0.0,"pressure":1009.1,"uv_index":6.4,"wind_gusts":27.7,"aqi":41,"pm10":8.3,"pm2_5":5.1,"no2":1.2,"co":101.0,"o3":73.0,"so2":1.1,"mosquito_risk":7,"arthritis_risk":0,"migraine_risk":4,"frizz_risk":1,"updated_at":"2026-05-31T14:20:19.197838+05:30"},{"city":"Munnar","state":"Kerala","latitude":10.0889,"longitude":77.0595,"temp":21.5,"humidity":88,"rain":0.0,"pressure":858.3,"uv_index":7.8,"wind_gusts":25.9,"aqi":31,"pm10":29.5,"pm2_5":12.1,"no2":0.6,"co":117.0,"o3":102.0,"so2":1.6,"mosquito_risk":3,"arthritis_risk":5,"migraine_risk":7,"frizz_risk":1,"updated_at":"2026-05-31T14:20:19.197846+05:30"},{"city":"Silchar","state":"Assam","latitude":24.8333,"longitude":92.7789,"temp":33.5,"humidity":60,"rain":0.0,"pressure":1001.2,"uv_index":8.2,"wind_gusts":20.2,"aqi":117,"pm10":38.4,"pm2_5":21.0,"no2":1.3,"co":219.0,"o3":113.0,"so2":3.0,"mosquito_risk":0,"arthritis_risk":5,"migraine_risk":4,"frizz_risk":1,"updated_at":"2026-05-31T14:20:19.197853+05:30"},{"city":"Dibrugarh","state":"Assam","latitude":27.4728,"longitude":94.912,"temp":31.7,"humidity":71,"rain":0.0,"pressure":992.4,"uv_index":3.4,"wind_gusts":22.7,"aqi":119,"pm10":20.3,"pm2_5":15.5,"no2":0.8,"co":182.0,"o3":98.0,"so2":1.1,"mosquito_risk":3,"arthritis_risk":5,"migraine_risk":3,"frizz_risk":1,"updated_at":"2026-05-31T14:20:19.197860+05:30"}]