[{"city":"Delhi","state":"Delhi","latitude":28.6139,"longitude":77.209,"temp":23.0,"humidity":60,"rain":0.0,"pressure":988.7,"uv_index":6.3,"wind_gusts":21.6,"aqi":171,"pm10":173.2,"pm2_5":64.5,"mosquito_risk":0,"arthritis_risk":5,"migraine_risk":7,"frizz_risk":0,"updated_at":"2026-03-26T08:08:32.225696+05:30"},{"city":"Mumbai","state":"Maharashtra","latitude":19.076,"longitude":72.8777,"temp":28.0,"humidity":78,"rain":0.0,"pressure":1010.9,"uv_index":7.95,"wind_gusts":27.7,"aqi":81,"pm10":43.7,"pm2_5":26.7,"mosquito_risk":7,"arthritis_risk":0,"migraine_risk":4,"frizz_risk":1,"updated_at":"2026-03-26T08:08:32.225739+05:30"},{"city":"Bangalore","state":"Karnataka","latitude":12.9716,"longitude":77.5946,"temp":22.0,"humidity":81,"rain":0.0,"pressure":914.0,"uv_index":9.45,"wind_gusts":35.6,"aqi":75,"pm10":38.5,"pm2_5":35.2,"mosquito_risk":3,"arthritis_risk":5,"migraine_risk":7,"frizz_risk":1,"updated_at":"2026-03-26T08:08:32.225753+05:30"},{"city":"Hyderabad","state":"Telangana","latitude":17.385,"longitude":78.4867,"temp":25.3,"humidity":75,"rain":0.0,"pressure":957.0,"uv_index":9.0,"wind_gusts":30.2,"aqi":98,"pm10":46.7,"pm2_5":38.1,"mosquito_risk":7,"arthritis_risk":5,"migraine_risk":7,"frizz_risk":1,"updated_at":"2026-03-26T08:08:32.225762+05:30"},{"city":"Chennai","state":"Tamil Nadu","latitude":13.0827,"longitude":80.2707,"temp":28.2,"humidity":71,"rain":0.0,"pressure":1011.0,"uv_index":9.2,"wind_gusts":30.2,"aqi":55,"pm10":27.9,"pm2_5":19.8,"mosquito_risk":7,"arthritis_risk":0,"migraine_risk":4,"frizz_risk":1,"updated_at":"2026-03-26T08:08:32.225770+05:30"},{"city":"Kolkata","state":"West Bengal","latitude":22.5726,"longitude":88.3639,"temp":27.0,"humidity":88,"rain":0.0,"pressure":1011.8,"uv_index":8.45,"wind_gusts":19.4,"aqi":107,"pm10":74.0,"pm2_5":66.4,"mosquito_risk":7,"arthritis_risk":0,"migraine_risk":4,"frizz_risk":1,"updated_at":"2026-03-26T08:08:32.225777+05:30"},{"city":"Pune","state":"Maharashtra","latitude":18.5204,"longitude":73.8567,"temp":26.3,"humidity":74,"rain":0.0,"pressure":951.2,"uv_index":8.5,"wind_gusts":31.7,"aqi":94,"pm10":67.1,"pm2_5":56.2,"mosquito_risk":7,"arthritis_risk":5,"migraine_risk":7,"frizz_risk":1,"updated_at":"2026-03-26T08:08:32.225787+05:30"},{"city":"Ahmedabad","state":"Gujarat","latitude":23.0225,"longitude":72.5714,"temp":24.5,"humidity":69,"rain":0.0,"pressure":1006.9,"uv_index":7.9,"wind_gusts":22.7,"aqi":63,"pm10":30.9,"pm2_5":16.4,"mosquito_risk":3,"arthritis_risk":5,"migraine_risk":4,"frizz_risk":1,"updated_at":"2026-03-26T08:08:32.225793+05:30"},{"city":"Jaipur","state":"Rajasthan","latitude":26.9124,"longitude":75.7873,"temp":24.0,"humidity":53,"rain":0.0,"pressure":964.7,"uv_index":7.25,"wind_gusts":30.2,"aqi":96,"pm10":182.1,"pm2_5":36.4,"mosquito_risk":0,"arthritis_risk":5,"migraine_risk":7,"frizz_risk":0,"updated_at":"2026-03-26T08:08:32.225810+05:30"},{"city":"Lucknow","state":"Uttar Pradesh","latitude":26.8467,"longitude":80.9462,"temp":22.3,"humidity":61,"rain":0.0,"pressure":999.0,"uv_index":7.15,"wind_gusts":34.2,"aqi":109,"pm10":189.5,"pm2_5":58.6,"mosquito_risk":3,"arthritis_risk":5,"migraine_risk":7,"frizz_risk":0,"updated_at":"2026-03-26T08:08:32.225817+05:30"},{"city":"Kanpur","state":"Uttar Pradesh","latitude":26.4499,"longitude":80.3319,"temp":22.1,"humidity":77,"rain":0.0,"pressure":997.5,"uv_index":7.15,"wind_gusts":28.4,"aqi":168,"pm10":235.6,"pm2_5":61.7,"mosquito_risk":3,"arthritis_risk":5,"migraine_risk":7,"frizz_risk":1,"updated_at":"2026-03-26T08:08:32.225824+05:30"},{"city":"Chandigarh","state":"Chandigarh","latitude":30.7333,"longitude":76.7794,"temp":20.5,"humidity":73,"rain":0.0,"pressure":973.6,"uv_index":6.4,"wind_gusts":33.1,"aqi":69,"pm10":27.5,"pm2_5":23.9,"mosquito_risk":3,"arthritis_risk":5,"migraine_risk":7,"frizz_risk":0,"updated_at":"2026-03-26T08:08:32.225830+05:30"},{"city":"Srinagar","state":"Jammu and Kashmir","latitude":34.0837,"longitude":74.7973,"temp":10.3,"humidity":77,"rain":0.0,"pressure":845.8,"uv_index":7.5,"wind_gusts":18.4,"aqi":91,"pm10":34.1,"pm2_5":28.9,"mosquito_risk":3,"arthritis_risk":5,"migraine_risk":7,"frizz_risk":0,"updated_at":"2026-03-26T08:08:32.225836+05:30"},{"city":"Jammu","state":"Jammu and Kashmir","latitude":32.7266,"longitude":74.857,"temp":21.1,"humidity":66,"rain":0.0,"pressure":978.9,"uv_index":7.05,"wind_gusts":29.5,"aqi":83,"pm10":26.9,"pm2_5":24.9,"mosquito_risk":3,"arthritis_risk":5,"migraine_risk":7,"frizz_risk":0,"updated_at":"2026-03-26T08:08:32.225842+05:30"},{"city":"Amritsar","state":"Punjab","latitude":31.634,"longitude":74.8723,"temp":19.8,"humidity":83,"rain":0.0,"pressure":987.1,"uv_index":6.65,"wind_gusts":35.3,"aqi":98,"pm10":34.3,"pm2_5":29.5,"mosquito_risk":3,"arthritis_risk":10,"migraine_risk":7,"frizz_risk":1,"updated_at":"2026-03-26T08:08:32.225848+05:30"},{"city":"Ludhiana","state":"Punjab","latitude":30.901,"longitude":75.8573,"temp":21.1,"humidity":75,"rain":0.0,"pressure":984.3,"uv_index":5.95,"wind_gusts":34.2,"aqi":93,"pm10":38.1,"pm2_5":35.4,"mosquito_risk":3,"arthritis_risk":5,"migraine_risk":3,"frizz_risk":1,"updated_at":"2026-03-26T08:08:32.225854+05:30"},{"city":"Jalandhar","state":"Punjab","latitude":31.326,"longitude":75.5762,"temp":20.4,"humidity":83,"rain":0.0,"pressure":985.6,"uv_index":6.8,"wind_gusts":32.4,"aqi":94,"pm10":35.9,"pm2_5":25.7,"mosquito_risk":3,"arthritis_risk":5,"migraine_risk":7,"frizz_risk":1,"updated_at":"2026-03-26T08:08:32.225861+05:30"},{"city":"Dehradun","state":"Uttarakhand","latitude":30.6284,"longitude":78.0322,"temp":14.9,"humidity":69,"rain":0.0,"pressure":833.3,"uv_index":6.9,"wind_gusts":32.8,"aqi":52,"pm10":10.7,"pm2_5":9.0,"mosquito_risk":3,"arthritis_risk":5,"migraine_risk":7,"frizz_risk":0,"updated_at":"2026-03-26T08:08:32.225866+05:30"},{"city":"Shimla","state":"Himachal Pradesh","latitude":31.1048,"longitude":77.1734,"temp":13.0,"humidity":75,"rain":0.0,"pressure":787.4,"uv_index":6.95,"wind_gusts":45.4,"aqi":59,"pm10":27.5,"pm2_5":20.6,"mosquito_risk":3,"arthritis_risk":5,"migraine_risk":7,"frizz_risk":0,"updated_at":"2026-03-26T08:08:32.225872+05:30"},{"city":"Manali","state":"Himachal Pradesh","latitude":32.2396,"longitude":77.1887,"temp":14.7,"humidity":44,"rain":0.0,"pressure":822.9,"uv_index":8.5,"wind_gusts":27.0,"aqi":48,"pm10":23.2,"pm2_5":14.8,"mosquito_risk":0,"arthritis_risk":5,"migraine_risk":7,"frizz_risk":0,"updated_at":"2026-03-26T08:08:32.225877+05:30"},{"city":"Gurgaon","state":"Haryana","latitude":28.4595,"longitude":77.0266,"temp":21.8,"humidity":70,"rain":0.0,"pressure":987.3,"uv_index":6.45,"wind_gusts":18.4,"aqi":403,"pm10":193.2,"pm2_5":73.8,"mosquito_risk":3,"arthritis_risk":5,"migraine_risk":7,"frizz_risk":1,"updated_at":"2026-03-26T08:08:32.225882+05:30"},{"city":"Noida","state":"Uttar Pradesh","latitude":28.5355,"longitude":77.391,"temp":22.6,"humidity":64,"rain":0.0,"pressure":990.3,"uv_index":6.2,"wind_gusts":20.9,"aqi":403,"pm10":193.2,"pm2_5":73.8,"mosquito_risk":3,"arthritis_risk":5,"migraine_risk":7,"frizz_risk":0,"updated_at":"2026-03-26T08:08:32.225888+05:30"},{"city":"Ghaziabad","state":"Uttar Pradesh","latitude":28.6692,"longitude":77.4538,"temp":21.2,"humidity":71,"rain":0.0,"pressure":988.3,"uv_index":6.5,"wind_gusts":23.4,"aqi":145,"pm10":76.6,"pm2_5":47.6,"mosquito_risk":3,"arthritis_risk":5,"migraine_risk":7,"frizz_risk":0,"updated_at":"2026-03-26T08:08:32.225893+05:30"},{"city":"Faridabad","state":"Haryana","latitude":28.4089,"longitude":77.3178,"temp":21.6,"humidity":77,"rain":0.0,"pressure":989.6,"uv_index":6.0,"wind_gusts":19.8,"aqi":403,"pm10":193.2,"pm2_5":73.8,"mosquito_risk":3,"arthritis_risk":5,"migraine_risk":3,"frizz_risk":1,"updated_at":"2026-03-26T08:08:32.225898+05:30"},{"city":"Meerut","state":"Uttar Pradesh","latitude":28.9845,"longitude":77.7064,"temp":20.4,"humidity":74,"rain":0.0,"pressure":986.8,"uv_index":6.0,"wind_gusts":29.5,"aqi":145,"pm10":76.6,"pm2_5":47.6,"mosquito_risk":3,"arthritis_risk":5,"migraine_risk":3,"frizz_risk":0,"updated_at":"2026-03-26T08:08:32.225903+05:30"},{"city":"Agra","state":"Uttar Pradesh","latitude":27.1767,"longitude":78.0081,"temp":22.9,"humidity":60,"rain":0.0,"pressure":993.9,"uv_index":6.95,"wind_gusts":21.2,"aqi":244,"pm10":368.8,"pm2_5":89.9,"mosquito_risk":0,"arthritis_risk":5,"migraine_risk":7,"frizz_risk":0,"updated_at":"2026-03-26T08:08:32.225908+05:30"},{"city":"Varanasi","state":"Uttar Pradesh","latitude":25.3176,"longitude":82.9739,"temp":22.5,"humidity":62,"rain":0.0,"pressure":1003.6,"uv_index":7.8,"wind_gusts":29.5,"aqi":102,"pm10":105.0,"pm2_5":48.0,"mosquito_risk":3,"arthritis_risk":5,"migraine_risk":4,"frizz_risk":0,"updated_at":"2026-03-26T08:08:32.225915+05:30"},{"city":"Prayagraj","state":"Uttar Pradesh","latitude":25.4358,"longitude":81.8463,"temp":23.9,"humidity":57,"rain":0.0,"pressure":1002.1,"uv_index":7.65,"wind_gusts":27.4,"aqi":98,"pm10":152.7,"pm2_5":52.3,"mosquito_risk":0,"arthritis_risk":5,"migraine_risk":4,"frizz_risk":0,"updated_at":"2026-03-26T08:08:32.225922+05:30"},{"city":"Gorakhpur","state":"Uttar Pradesh","latitude":26.7606,"longitude":83.3732,"temp":21.0,"humidity":71,"rain":0.0,"pressure":1003.0,"uv_index":7.55,"wind_gusts":16.6,"aqi":96,"pm10":85.0,"pm2_5":53.6,"mosquito_risk":3,"arthritis_risk":5,"migraine_risk":4,"frizz_risk":0,"updated_at":"2026-03-26T08:08:32.225927+05:30"},{"city":"Bareilly","state":"Uttar Pradesh","latitude":28.367,"longitude":79.4304,"temp":20.1,"humidity":82,"rain":0.0,"pressure":992.1,"uv_index":6.8,"wind_gusts":28.1,"aqi":89,"pm10":85.7,"pm2_5":44.4,"mosquito_risk":3,"arthritis_risk":5,"migraine_risk":7,"frizz_risk":1,"updated_at":"2026-03-26T08:08:32.225932+05:30"},{"city":"Aligarh","state":"Uttar Pradesh","latitude":27.8974,"longitude":78.088,"temp":21.1,"humidity":72,"rain":0.0,"pressure":991.3,"uv_index":6.5,"wind_gusts":23.8,"aqi":284,"pm10":227.2,"pm2_5":64.0,"mosquito_risk":3,"arthritis_risk":5,"migraine_risk":7,"frizz_risk":0,"updated_at":"2026-03-26T08:08:32.225938+05:30"},{"city":"Moradabad","state":"Uttar Pradesh","latitude":28.8386,"longitude":78.7733,"temp":19.9,"humidity":78,"rain":0.0,"pressure":988.7,"uv_index":6.65,"wind_gusts":33.1,"aqi":98,"pm10":67.8,"pm2_5":48.2,"mosquito_risk":3,"arthritis_risk":5,"migraine_risk":7,"frizz_risk":0,"updated_at":"2026-03-26T08:08:32.225944+05:30"},{"city":"Saharanpur","state":"Uttar Pradesh","latitude":29.9637,"longitude":77.546,"temp":19.3,"humidity":82,"rain":0.0,"pressure":980.6,"uv_index":6.25,"wind_gusts":39.2,"aqi":105,"pm10":42.8,"pm2_5":37.0,"mosquito_risk":3,"arthritis_risk":10,"migraine_risk":7,"frizz_risk":1,"updated_at":"2026-03-26T08:08:32.225949+05:30"},{"city":"Jhansi","state":"Uttar Pradesh","latitude":25.4484,"longitude":78.5685,"temp":24.3,"humidity":49,"rain":0.0,"pressure":983.7,"uv_index":7.6,"wind_gusts":27.4,"aqi":96,"pm10":101.7,"pm2_5":31.1,"mosquito_risk":0,"arthritis_risk":5,"migraine_risk":7,"frizz_risk":0,"updated_at":"2026-03-26T08:08:35.528184+05:30"},{"city":"Surat","state":"Gujarat","latitude":21.1702,"longitude":72.8311,"temp":25.7,"humidity":78,"rain":0.0,"pressure":1010.5,"uv_index":7.7,"wind_gusts":24.5,"aqi":91,"pm10":40.5,"pm2_5":31.5,"mosquito_risk":7,"arthritis_risk":0,"migraine_risk":4,"frizz_risk":1,"updated_at":"2026-03-26T08:08:35.528212+05:30"},{"city":"Vadodara","state":"Gujarat","latitude":22.3072,"longitude":73.1812,"temp":25.1,"humidity":61,"rain":0.0,"pressure":1008.7,"uv_index":7.9,"wind_gusts":26.3,"aqi":95,"pm10":33.4,"pm2_5":29.7,"mosquito_risk":7,"arthritis_risk":0,"migraine_risk":4,"frizz_risk":1,"updated_at":"2026-03-26T08:08:35.528220+05:30"},{"city":"Rajkot","state":"Gujarat","latitude":22.3039,"longitude":70.8022,"temp":23.0,"humidity":84,"rain":0.0,"pressure":998.8,"uv_index":7.75,"wind_gusts":30.2,"aqi":47,"pm10":45.5,"pm2_5":15.8,"mosquito_risk":3,"arthritis_risk":5,"migraine_risk":7,"frizz_risk":1,"updated_at":"2026-03-26T08:08:35.528227+05:30"},{"city":"Thane","state":"Maharashtra","latitude":19.2183,"longitude":72.9781,"temp":27.2,"humidity":71,"rain":0.0,"pressure":1010.4,"uv_index":7.95,"wind_gusts":40.3,"aqi":81,"pm10":43.7,"pm2_5":26.7,"mosquito_risk":7,"arthritis_risk":0,"migraine_risk":4,"frizz_risk":1,"updated_at":"2026-03-26T08:08:35.528233+05:30"},{"city":"Nagpur","state":"Maharashtra","latitude":21.1458,"longitude":79.0882,"temp":26.8,"humidity":61,"rain":0.0,"pressure":977.7,"uv_index":8.45,"wind_gusts":28.8,"aqi":72,"pm10":27.5,"pm2_5":24.0,"mosquito_risk":7,"arthritis_risk":5,"migraine_risk":7,"frizz_risk":1,"updated_at":"2026-03-26T08:08:35.528239+05:30"},{"city":"Nashik","state":"Maharashtra","latitude":19.9975,"longitude":73.7898,"temp":25.6,"humidity":57,"rain":0.0,"pressure":948.9,"uv_index":8.15,"wind_gusts":22.3,"aqi":76,"pm10":53.0,"pm2_5":44.7,"mosquito_risk":4,"arthritis_risk":5,"migraine_risk":7,"frizz_risk":1,"updated_at":"2026-03-26T08:08:35.528245+05:30"},{"city":"Aurangabad","state":"Maharashtra","latitude":19.8762,"longitude":75.3433,"temp":25.2,"humidity":52,"rain":0.0,"pressure":947.4,"uv_index":8.65,"wind_gusts":25.9,"aqi":55,"pm10":31.1,"pm2_5":25.1,"mosquito_risk":4,"arthritis_risk":5,"migraine_risk":7,"frizz_risk":0,"updated_at":"2026-03-26T08:08:35.528251+05:30"},{"city":"Solapur","state":"Maharashtra","latitude":17.6599,"longitude":75.9064,"temp":26.8,"humidity":65,"rain":0.0,"pressure":960.2,"uv_index":8.85,"wind_gusts":13.7,"aqi":106,"pm10":62.9,"pm2_5":56.7,"mosquito_risk":7,"arthritis_risk":5,"migraine_risk":7,"frizz_risk":1,"updated_at":"2026-03-26T08:08:35.528257+05:30"},{"city":"Kolhapur","state":"Maharashtra","latitude":16.705,"longitude":74.2433,"temp":24.8,"humidity":82,"rain":0.0,"pressure":950.2,"uv_index":8.95,"wind_gusts":25.2,"aqi":151,"pm10":118.0,"pm2_5":109.0,"mosquito_risk":3,"arthritis_risk":5,"migraine_risk":7,"frizz_risk":1,"updated_at":"2026-03-26T08:08:35.528262+05:30"},{"city":"Goa","state":"Goa","latitude":15.2993,"longitude":74.124,"temp":28.1,"humidity":81,"rain":0.0,"pressure":999.6,"uv_index":8.75,"wind_gusts":28.4,"aqi":94,"pm10":47.6,"pm2_5":41.1,"mosquito_risk":7,"arthritis_risk":5,"migraine_risk":7,"frizz_risk":1,"updated_at":"2026-03-26T08:08:35.528268+05:30"},{"city":"Jodhpur","state":"Rajasthan","latitude":26.2389,"longitude":73.0243,"temp":25.0,"humidity":48,"rain":0.0,"pressure":987.9,"uv_index":7.65,"wind_gusts":30.6,"aqi":68,"pm10":150.4,"pm2_5":33.6,"mosquito_risk":4,"arthritis_risk":5,"migraine_risk":7,"frizz_risk":0,"updated_at":"2026-03-26T08:08:35.528274+05:30"},{"city":"Udaipur","state":"Rajasthan","latitude":24.5854,"longitude":73.7125,"temp":24.6,"humidity":44,"rain":0.0,"pressure":951.4,"uv_index":8.15,"wind_gusts":28.8,"aqi":33,"pm10":9.6,"pm2_5":8.1,"mosquito_risk":0,"arthritis_risk":5,"migraine_risk":7,"frizz_risk":0,"updated_at":"2026-03-26T08:08:35.528279+05:30"},{"city":"Kota","state":"Rajasthan","latitude":25.2138,"longitude":75.8648,"temp":22.9,"humidity":69,"rain":0.0,"pressure":983.8,"uv_index":7.65,"wind_gusts":16.2,"aqi":75,"pm10":45.8,"pm2_5":38.5,"mosquito_risk":3,"arthritis_risk":5,"migraine_risk":7,"frizz_risk":1,"updated_at":"2026-03-26T08:08:35.528284+05:30"},{"city":"Bikaner","state":"Rajasthan","latitude":28.0229,"longitude":73.3119,"temp":23.4,"humidity":54,"rain":0.0,"pressure":986.0,"uv_index":6.85,"wind_gusts":27.4,"aqi":43,"pm10":66.1,"pm2_5":19.7,"mosquito_risk":0,"arthritis_risk":5,"migraine_risk":7,"frizz_risk":0,"updated_at":"2026-03-26T08:08:35.528290+05:30"},{"city":"Ajmer","state":"Rajasthan","latitude":26.4499,"longitude":74.6399,"temp":23.8,"humidity":53,"rain":0.0,"pressure":959.2,"uv_index":7.55,"wind_gusts":29.5,"aqi":59,"pm10":62.2,"pm2_5":25.6,"mosquito_risk":0,"arthritis_risk":5,"migraine_risk":7,"frizz_risk":0,"updated_at":"2026-03-26T08:08:35.528295+05:30"},{"city":"Gwalior","state":"Madhya Pradesh","latitude":26.2183,"longitude":78.1828,"temp":25.1,"humidity":59,"rain":0.0,"pressure":989.1,"uv_index":7.3,"wind_gusts":20.2,"aqi":110,"pm10":115.7,"pm2_5":34.5,"mosquito_risk":4,"arthritis_risk":5,"migraine_risk":7,"frizz_risk":1,"updated_at":"2026-03-26T08:08:35.528300+05:30"},{"city":"Indore","state":"Madhya Pradesh","latitude":22.7196,"longitude":75.8577,"temp":24.1,"humidity":54,"rain":0.0,"pressure":952.0,"uv_index":8.15,"wind_gusts":23.4,"aqi":76,"pm10":13.9,"pm2_5":12.7,"mosquito_risk":0,"arthritis_risk":5,"migraine_risk":7,"frizz_risk":0,"updated_at":"2026-03-26T08:08:35.528306+05:30"},{"city":"Bhopal","state":"Madhya Pradesh","latitude":23.2599,"longitude":77.4126,"temp":25.7,"humidity":51,"rain":0.0,"pressure":958.2,"uv_index":8.1,"wind_gusts":21.6,"aqi":51,"pm10":22.2,"pm2_5":10.4,"mosquito_risk":4,"arthritis_risk":5,"migraine_risk":7,"frizz_risk":0,"updated_at":"2026-03-26T08:08:35.528311+05:30"},{"city":"Jabalpur","state":"Madhya Pradesh","latitude":23.1815,"longitude":79.9864,"temp":24.5,"humidity":54,"rain":0.0,"pressure":966.4,"uv_index":8.2,"wind_gusts":23.4,"aqi":58,"pm10":38.2,"pm2_5":16.4,"mosquito_risk":0,"arthritis_risk":5,"migraine_risk":7,"frizz_risk":0,"updated_at":"2026-03-26T08:08:35.528316+05:30"},{"city":"Ujjain","state":"Madhya Pradesh","latitude":23.1765,"longitude":75.7885,"temp":24.2,"humidity":57,"rain":0.0,"pressure":957.7,"uv_index":8.1,"wind_gusts":25.9,"aqi":73,"pm10":14.1,"pm2_5":13.1,"mosquito_risk":0,"arthritis_risk":5,"migraine_risk":7,"frizz_risk":0,"updated_at":"2026-03-26T08:08:35.528322+05:30"},{"city":"Visakhapatnam","state":"Andhra Pradesh","latitude":17.6868,"longitude":83.2185,"temp":27.7,"humidity":78,"rain":0.0,"pressure":1008.2,"uv_index":8.85,"wind_gusts":31.3,"aqi":78,"pm10":42.0,"pm2_5":32.6,"mosquito_risk":7,"arthritis_risk":0,"migraine_risk":4,"frizz_risk":1,"updated_at":"2026-03-26T08:08:35.528328+05:30"},{"city":"Vijayawada","state":"Andhra Pradesh","latitude":16.5062,"longitude":80.648,"temp":26.4,"humidity":84,"rain":0.0,"pressure":1007.2,"uv_index":9.0,"wind_gusts":17.3,"aqi":64,"pm10":30.9,"pm2_5":25.3,"mosquito_risk":7,"arthritis_risk":5,"migraine_risk":4,"frizz_risk":1,"updated_at":"2026-03-26T08:08:35.528333+05:30"},{"city":"Guntur","state":"Andhra Pradesh","latitude":16.3067,"longitude":80.4365,"temp":26.7,"humidity":84,"rain":0.0,"pressure":1008.1,"uv_index":9.0,"wind_gusts":24.5,"aqi":60,"pm10":25.8,"pm2_5":20.1,"mosquito_risk":7,"arthritis_risk":0,"migraine_risk":4,"frizz_risk":1,"updated_at":"2026-03-26T08:08:35.528339+05:30"},{"city":"Nellore","state":"Andhra Pradesh","latitude":14.4426,"longitude":79.9865,"temp":27.0,"humidity":79,"rain":0.0,"pressure":1010.1,"uv_index":9.1,"wind_gusts":29.5,"aqi":52,"pm10":21.4,"pm2_5":15.7,"mosquito_risk":7,"arthritis_risk":0,"migraine_risk":4,"frizz_risk":1,"updated_at":"2026-03-26T08:08:35.528345+05:30"},{"city":"Kurnool","state":"Andhra Pradesh","latitude":15.8281,"longitude":78.0373,"temp":27.9,"humidity":55,"rain":0.0,"pressure":980.2,"uv_index":9.0,"wind_gusts":23.0,"aqi":88,"pm10":23.3,"pm2_5":19.4,"mosquito_risk":4,"arthritis_risk":5,"migraine_risk":7,"frizz_risk":1,"updated_at":"2026-03-26T08:08:35.528352+05:30"},{"city":"Kakinada","state":"Andhra Pradesh","latitude":16.9891,"longitude":82.2475,"temp":27.5,"humidity":78,"rain":0.0,"pressure":1012.1,"uv_index":8.95,"wind_gusts":23.0,"aqi":61,"pm10":30.5,"pm2_5":20.4,"mosquito_risk":7,"arthritis_risk":0,"migraine_risk":4,"frizz_risk":1,"updated_at":"2026-03-26T08:08:35.528358+05:30"},{"city":"Tirupati","state":"Andhra Pradesh","latitude":13.6288,"longitude":79.4192,"temp":24.4,"humidity":85,"rain":0.0,"pressure":995.8,"uv_index":9.2,"wind_gusts":32.8,"aqi":69,"pm10":41.7,"pm2_5":38.1,"mosquito_risk":3,"arthritis_risk":5,"migraine_risk":7,"frizz_risk":1,"updated_at":"2026-03-26T08:08:35.528363+05:30"},{"city":"Warangal","state":"Telangana","latitude":17.9689,"longitude":79.5941,"temp":25.5,"humidity":79,"rain":0.0,"pressure":983.2,"uv_index":8.8,"wind_gusts":24.8,"aqi":85,"pm10":29.0,"pm2_5":25.4,"mosquito_risk":7,"arthritis_risk":5,"migraine_risk":7,"frizz_risk":1,"updated_at":"2026-03-26T08:08:35.528368+05:30"},{"city":"Nizamabad","state":"Telangana","latitude":18.6725,"longitude":78.0941,"temp":28.0,"humidity":65,"rain":0.0,"pressure":968.3,"uv_index":8.75,"wind_gusts":23.0,"aqi":103,"pm10":49.1,"pm2_5":44.9,"mosquito_risk":7,"arthritis_risk":5,"migraine_risk":7,"frizz_risk":1,"updated_at":"2026-03-26T08:08:35.528374+05:30"},{"city":"Mysore","state":"Karnataka","latitude":12.2958,"longitude":76.6396,"temp":23.7,"humidity":64,"rain":0.0,"pressure":930.5,"uv_index":9.4,"wind_gusts":39.2,"aqi":74,"pm10":39.2,"pm2_5":36.4,"mosquito_risk":3,"arthritis_risk":5,"migraine_risk":7,"frizz_risk":1,"updated_at":"2026-03-26T08:08:35.528379+05:30"},{"city":"Mangalore","state":"Karnataka","latitude":12.9141,"longitude":74.856,"temp":29.4,"humidity":84,"rain":0.0,"pressure":1008.0,"uv_index":9.1,"wind_gusts":31.0,"aqi":104,"pm10":56.5,"pm2_5":51.7,"mosquito_risk":7,"arthritis_risk":0,"migraine_risk":4,"frizz_risk":1,"updated_at":"2026-03-26T08:08:35.528384+05:30"},{"city":"Hubli-Dharwad","state":"Karnataka","latitude":15.3647,"longitude":75.124,"temp":24.5,"humidity":80,"rain":0.0,"pressure":943.2,"uv_index":9.0,"wind_gusts":28.4,"aqi":126,"pm10":49.1,"pm2_5":44.9,"mosquito_risk":3,"arthritis_risk":5,"migraine_risk":7,"frizz_risk":1,"updated_at":"2026-03-26T08:08:35.528390+05:30"},{"city":"Belgaum","state":"Karnataka","latitude":15.8497,"longitude":74.4977,"temp":23.3,"humidity":85,"rain":0.0,"pressure":927.7,"uv_index":9.0,"wind_gusts":31.7,"aqi":129,"pm10":61.9,"pm2_5":50.5,"mosquito_risk":3,"arthritis_risk":5,"migraine_risk":7,"frizz_risk":1,"updated_at":"2026-03-26T08:08:38.827436+05:30"},{"city":"Coimbatore","state":"Tamil Nadu","latitude":11.0168,"longitude":76.9558,"temp":24.9,"humidity":73,"rain":0.0,"pressure":964.8,"uv_index":9.4,"wind_gusts":43.9,"aqi":52,"pm10":17.9,"pm2_5":16.2,"mosquito_risk":3,"arthritis_risk":5,"migraine_risk":7,"frizz_risk":1,"updated_at":"2026-03-26T08:08:38.827464+05:30"},{"city":"Madurai","state":"Tamil Nadu","latitude":9.9252,"longitude":78.1198,"temp":25.8,"humidity":78,"rain":0.0,"pressure":996.5,"uv_index":9.35,"wind_gusts":27.0,"aqi":56,"pm10":34.5,"pm2_5":33.3,"mosquito_risk":7,"arthritis_risk":5,"migraine_risk":7,"frizz_risk":1,"updated_at":"2026-03-26T08:08:38.827472+05:30"},{"city":"Trichy","state":"Tamil Nadu","latitude":10.7905,"longitude":78.7047,"temp":25.3,"humidity":87,"rain":0.0,"pressure":1003.5,"uv_index":9.3,"wind_gusts":25.9,"aqi":58,"pm10":36.9,"pm2_5":31.7,"mosquito_risk":7,"arthritis_risk":5,"migraine_risk":4,"frizz_risk":1,"updated_at":"2026-03-26T08:08:38.827480+05:30"},{"city":"Salem","state":"Tamil Nadu","latitude":11.6643,"longitude":78.146,"temp":25.0,"humidity":83,"rain":0.0,"pressure":980.7,"uv_index":9.35,"wind_gusts":33.5,"aqi":78,"pm10":53.1,"pm2_5":51.0,"mosquito_risk":7,"arthritis_risk":5,"migraine_risk":7,"frizz_risk":1,"updated_at":"2026-03-26T08:08:38.827488+05:30"},{"city":"Tirunelveli","state":"Tamil Nadu","latitude":8.7139,"longitude":77.7567,"temp":27.2,"humidity":73,"rain":0.0,"pressure":1006.6,"uv_index":9.3,"wind_gusts":37.4,"aqi":41,"pm10":16.5,"pm2_5":13.6,"mosquito_risk":7,"arthritis_risk":5,"migraine_risk":4,"frizz_risk":1,"updated_at":"2026-03-26T08:08:38.827495+05:30"},{"city":"Vellore","state":"Tamil Nadu","latitude":12.9165,"longitude":79.1325,"temp":23.9,"humidity":86,"rain":0.0,"pressure":988.7,"uv_index":9.3,"wind_gusts":32.4,"aqi":77,"pm10":49.5,"pm2_5":45.9,"mosquito_risk":3,"arthritis_risk":5,"migraine_risk":7,"frizz_risk":1,"updated_at":"2026-03-26T08:08:38.827502+05:30"},{"city":"Erode","state":"Tamil Nadu","latitude":11.341,"longitude":77.7172,"temp":25.3,"humidity":85,"rain":0.0,"pressure":992.6,"uv_index":9.3,"wind_gusts":19.8,"aqi":54,"pm10":27.2,"pm2_5":23.5,"mosquito_risk":7,"arthritis_risk":5,"migraine_risk":7,"frizz_risk":1,"updated_at":"2026-03-26T08:08:38.827509+05:30"},{"city":"Kochi","state":"Kerala","latitude":9.9312,"longitude":76.2673,"temp":28.8,"humidity":79,"rain":0.0,"pressure":1010.2,"uv_index":9.2,"wind_gusts":35.6,"aqi":90,"pm10":44.2,"pm2_5":39.9,"mosquito_risk":7,"arthritis_risk":0,"migraine_risk":4,"frizz_risk":1,"updated_at":"2026-03-26T08:08:38.827516+05:30"},{"city":"Thiruvananthapuram","state":"Kerala","latitude":8.5241,"longitude":76.9366,"temp":28.2,"humidity":78,"rain":0.0,"pressure":1009.5,"uv_index":9.2,"wind_gusts":30.6,"aqi":71,"pm10":22.5,"pm2_5":19.8,"mosquito_risk":7,"arthritis_risk":0,"migraine_risk":4,"frizz_risk":1,"updated_at":"2026-03-26T08:08:38.827523+05:30"},{"city":"Kozhikode","state":"Kerala","latitude":11.2588,"longitude":75.7804,"temp":28.9,"humidity":83,"rain":0.0,"pressure":1009.4,"uv_index":9.1,"wind_gusts":32.4,"aqi":96,"pm10":55.2,"pm2_5":45.3,"mosquito_risk":7,"arthritis_risk":0,"migraine_risk":4,"frizz_risk":1,"updated_at":"2026-03-26T08:08:38.827529+05:30"},{"city":"Thrissur","state":"Kerala","latitude":10.5276,"longitude":76.2144,"temp":28.8,"humidity":80,"rain":0.0,"pressure":1008.6,"uv_index":9.15,"wind_gusts":38.5,"aqi":93,"pm10":53.2,"pm2_5":48.7,"mosquito_risk":7,"arthritis_risk":0,"migraine_risk":4,"frizz_risk":1,"updated_at":"2026-03-26T08:08:38.827537+05:30"},{"city":"Kannur","state":"Kerala","latitude":11.8745,"longitude":75.3704,"temp":28.7,"humidity":80,"rain":0.0,"pressure":1008.6,"uv_index":9.1,"wind_gusts":34.9,"aqi":100,"pm10":51.9,"pm2_5":45.5,"mosquito_risk":7,"arthritis_risk":0,"migraine_risk":4,"frizz_risk":1,"updated_at":"2026-03-26T08:08:38.827543+05:30"},{"city":"Patna","state":"Bihar","latitude":25.5941,"longitude":85.1376,"temp":22.7,"humidity":67,"rain":0.0,"pressure":1006.4,"uv_index":8.0,"wind_gusts":25.2,"aqi":152,"pm10":114.8,"pm2_5":90.3,"mosquito_risk":3,"arthritis_risk":5,"migraine_risk":4,"frizz_risk":1,"updated_at":"2026-03-26T08:08:38.827550+05:30"},{"city":"Gaya","state":"Bihar","latitude":24.7914,"longitude":85.0002,"temp":22.7,"humidity":76,"rain":0.0,"pressure":999.5,"uv_index":8.1,"wind_gusts":24.1,"aqi":91,"pm10":43.2,"pm2_5":29.4,"mosquito_risk":3,"arthritis_risk":5,"migraine_risk":7,"frizz_risk":1,"updated_at":"2026-03-26T08:08:38.827557+05:30"},{"city":"Muzaffarpur","state":"Bihar","latitude":26.1209,"longitude":85.3647,"temp":22.0,"humidity":75,"rain":0.0,"pressure":1006.5,"uv_index":7.95,"wind_gusts":17.3,"aqi":154,"pm10":115.5,"pm2_5":97.8,"mosquito_risk":3,"arthritis_risk":5,"migraine_risk":4,"frizz_risk":1,"updated_at":"2026-03-26T08:08:38.827563+05:30"},{"city":"Bhagalpur","state":"Bihar","latitude":25.2425,"longitude":87.0117,"temp":24.6,"humidity":69,"rain":0.0,"pressure":1007.2,"uv_index":8.0,"wind_gusts":14.0,"aqi":131,"pm10":70.3,"pm2_5":59.5,"mosquito_risk":3,"arthritis_risk":5,"migraine_risk":4,"frizz_risk":1,"updated_at":"2026-03-26T08:08:38.827570+05:30"},{"city":"Ranchi","state":"Jharkhand","latitude":23.3441,"longitude":85.3096,"temp":24.7,"humidity":47,"rain":0.0,"pressure":943.2,"uv_index":8.7,"wind_gusts":36.0,"aqi":71,"pm10":43.0,"pm2_5":26.7,"mosquito_risk":0,"arthritis_risk":5,"migraine_risk":7,"frizz_risk":0,"updated_at":"2026-03-26T08:08:38.827577+05:30"},{"city":"Jamshedpur","state":"Jharkhand","latitude":22.8046,"longitude":86.2029,"temp":26.8,"humidity":77,"rain":0.0,"pressure":996.6,"uv_index":8.55,"wind_gusts":22.0,"aqi":162,"pm10":140.2,"pm2_5":120.6,"mosquito_risk":7,"arthritis_risk":5,"migraine_risk":7,"frizz_risk":1,"updated_at":"2026-03-26T08:08:38.827583+05:30"},{"city":"Dhanbad","state":"Jharkhand","latitude":23.7957,"longitude":86.4304,"temp":25.9,"humidity":55,"rain":0.0,"pressure":985.5,"uv_index":8.45,"wind_gusts":24.5,"aqi":151,"pm10":80.1,"pm2_5":67.8,"mosquito_risk":4,"arthritis_risk":5,"migraine_risk":7,"frizz_risk":1,"updated_at":"2026-03-26T08:08:38.827590+05:30"},{"city":"Bokaro","state":"Jharkhand","latitude":23.6693,"longitude":86.1511,"temp":25.2,"humidity":62,"rain":0.0,"pressure":989.7,"uv_index":8.45,"wind_gusts":21.2,"aqi":137,"pm10":77.3,"pm2_5":62.2,"mosquito_risk":7,"arthritis_risk":5,"migraine_risk":7,"frizz_risk":1,"updated_at":"2026-03-26T08:08:38.827597+05:30"},{"city":"Bhubaneswar","state":"Odisha","latitude":20.2961,"longitude":85.8245,"temp":27.0,"humidity":87,"rain":0.0,"pressure":1008.0,"uv_index":8.75,"wind_gusts":12.2,"aqi":92,"pm10":44.4,"pm2_5":34.5,"mosquito_risk":7,"arthritis_risk":0,"migraine_risk":4,"frizz_risk":1,"updated_at":"2026-03-26T08:08:38.827604+05:30"},{"city":"Cuttack","state":"Odisha","latitude":20.4625,"longitude":85.8828,"temp":26.8,"humidity":87,"rain":0.0,"pressure":1010.0,"uv_index":8.8,"wind_gusts":13.0,"aqi":92,"pm10":44.4,"pm2_5":34.5,"mosquito_risk":7,"arthritis_risk":0,"migraine_risk":4,"frizz_risk":1,"updated_at":"2026-03-26T08:08:38.827611+05:30"},{"city":"Rourkela","state":"Odisha","latitude":22.2604,"longitude":84.8536,"temp":26.9,"humidity":76,"rain":0.0,"pressure":990.6,"uv_index":8.45,"wind_gusts":34.6,"aqi":116,"pm10":46.7,"pm2_5":38.9,"mosquito_risk":7,"arthritis_risk":5,"migraine_risk":7,"frizz_risk":1,"updated_at":"2026-03-26T08:08:38.827618+05:30"},{"city":"Raipur","state":"Chhattisgarh","latitude":21.2514,"longitude":81.6296,"temp":25.3,"humidity":58,"rain":0.0,"pressure":979.7,"uv_index":8.5,"wind_gusts":24.5,"aqi":139,"pm10":108.3,"pm2_5":101.3,"mosquito_risk":4,"arthritis_risk":5,"migraine_risk":7,"frizz_risk":1,"updated_at":"2026-03-26T08:08:38.827625+05:30"},{"city":"Bhilai","state":"Chhattisgarh","latitude":21.1938,"longitude":81.3509,"temp":25.4,"humidity":59,"rain":0.0,"pressure":979.9,"uv_index":8.5,"wind_gusts":21.6,"aqi":139,"pm10":102.0,"pm2_5":94.3,"mosquito_risk":4,"arthritis_risk":5,"migraine_risk":7,"frizz_risk":1,"updated_at":"2026-03-26T08:08:38.827631+05:30"},{"city":"Guwahati","state":"Assam","latitude":26.1158,"longitude":91.7086,"temp":23.2,"humidity":85,"rain":0.0,"pressure":1008.8,"uv_index":7.9,"wind_gusts":25.9,"aqi":130,"pm10":69.8,"pm2_5":54.0,"mosquito_risk":3,"arthritis_risk":0,"migraine_risk":4,"frizz_risk":1,"updated_at":"2026-03-26T08:08:38.827638+05:30"},{"city":"Agartala","state":"Tripura","latitude":23.8315,"longitude":91.2868,"temp":25.5,"humidity":86,"rain":0.0,"pressure":1012.3,"uv_index":8.2,"wind_gusts":15.8,"aqi":159,"pm10":102.7,"pm2_5":83.4,"mosquito_risk":7,"arthritis_risk":0,"migraine_risk":4,"frizz_risk":1,"updated_at":"2026-03-26T08:08:38.827645+05:30"},{"city":"Shillong","state":"Meghalaya","latitude":25.5788,"longitude":91.8933,"temp":15.4,"humidity":63,"rain":0.0,"pressure":860.7,"uv_index":8.3,"wind_gusts":25.9,"aqi":107,"pm10":72.4,"pm2_5":46.8,"mosquito_risk":3,"arthritis_risk":5,"migraine_risk":7,"frizz_risk":0,"updated_at":"2026-03-26T08:08:38.827651+05:30"},{"city":"Imphal","state":"Manipur","latitude":24.817,"longitude":93.9368,"temp":19.3,"humidity":77,"rain":0.0,"pressure":928.7,"uv_index":8.55,"wind_gusts":45.0,"aqi":129,"pm10":85.2,"pm2_5":54.4,"mosquito_risk":3,"arthritis_risk":5,"migraine_risk":7,"frizz_risk":0,"updated_at":"2026-03-26T08:08:38.827659+05:30"},{"city":"Aizawl","state":"Mizoram","latitude":23.7271,"longitude":92.7176,"temp":21.2,"humidity":69,"rain":0.0,"pressure":898.0,"uv_index":8.45,"wind_gusts":41.0,"aqi":127,"pm10":66.6,"pm2_5":44.2,"mosquito_risk":3,"arthritis_risk":5,"migraine_risk":7,"frizz_risk":0,"updated_at":"2026-03-26T08:08:38.827665+05:30"},{"city":"Kohima","state":"Nagaland","latitude":25.6701,"longitude":94.1077,"temp":16.0,"humidity":67,"rain":0.0,"pressure":859.5,"uv_index":8.45,"wind_gusts":49.0,"aqi":110,"pm10":53.6,"pm2_5":37.0,"mosquito_risk":3,"arthritis_risk":5,"migraine_risk":7,"frizz_risk":0,"updated_at":"2026-03-26T08:08:38.827671+05:30"},{"city":"Gangtok","state":"Sikkim","latitude":27.3314,"longitude":88.6138,"temp":14.4,"humidity":87,"rain":0.0,"pressure":841.1,"uv_index":7.4,"wind_gusts":19.8,"aqi":86,"pm10":41.0,"pm2_5":31.5,"mosquito_risk":3,"arthritis_risk":10,"migraine_risk":7,"frizz_risk":0,"updated_at":"2026-03-26T08:08:38.827679+05:30"},{"city":"Siliguri","state":"West Bengal","latitude":26.7271,"longitude":88.3953,"temp":20.6,"humidity":76,"rain":0.0,"pressure":1000.7,"uv_index":7.95,"wind_gusts":33.5,"aqi":152,"pm10":87.5,"pm2_5":67.1,"mosquito_risk":3,"arthritis_risk":5,"migraine_risk":4,"frizz_risk":1,"updated_at":"2026-03-26T08:08:42.131276+05:30"},{"city":"Durgapur","state":"West Bengal","latitude":23.5204,"longitude":87.3119,"temp":26.5,"humidity":74,"rain":0.0,"pressure":1001.1,"uv_index":8.4,"wind_gusts":18.4,"aqi":158,"pm10":142.5,"pm2_5":129.5,"mosquito_risk":7,"arthritis_risk":5,"migraine_risk":4,"frizz_risk":1,"updated_at":"2026-03-26T08:08:42.131304+05:30"},{"city":"Asansol","state":"West Bengal","latitude":23.6739,"longitude":86.9524,"temp":26.7,"humidity":76,"rain":0.0,"pressure":999.6,"uv_index":8.4,"wind_gusts":19.8,"aqi":139,"pm10":92.0,"pm2_5":78.7,"mosquito_risk":7,"arthritis_risk":5,"migraine_risk":7,"frizz_risk":1,"updated_at":"2026-03-26T08:08:42.131314+05:30"},{"city":"Pondicherry","state":"Puducherry","latitude":11.9139,"longitude":79.8145,"temp":26.5,"humidity":86,"rain":0.0,"pressure":1012.2,"uv_index":9.2,"wind_gusts":27.4,"aqi":48,"pm10":29.4,"pm2_5":20.6,"mosquito_risk":7,"arthritis_risk":0,"migraine_risk":4,"frizz_risk":1,"updated_at":"2026-03-26T08:08:42.131322+05:30"},{"city":"Port Blair","state":"Andaman and Nicobar Islands","latitude":11.6234,"longitude":92.7265,"temp":27.6,"humidity":80,"rain":0.0,"pressure":1009.9,"uv_index":9.15,"wind_gusts":29.2,"aqi":57,"pm10":14.6,"pm2_5":9.6,"mosquito_risk":7,"arthritis_risk":0,"migraine_risk":4,"frizz_risk":1,"updated_at":"2026-03-26T08:08:42.131330+05:30"},{"city":"Haridwar","state":"Uttarakhand","latitude":29.9457,"longitude":78.1642,"temp":21.8,"humidity":81,"rain":0.0,"pressure":979.1,"uv_index":6.4,"wind_gusts":41.8,"aqi":85,"pm10":27.2,"pm2_5":23.5,"mosquito_risk":3,"arthritis_risk":5,"migraine_risk":7,"frizz_risk":1,"updated_at":"2026-03-26T08:08:42.131338+05:30"},{"city":"Rishikesh","state":"Uttarakhand","latitude":30.0869,"longitude":78.2676,"temp":22.3,"humidity":72,"rain":0.0,"pressure":971.8,"uv_index":6.45,"wind_gusts":38.2,"aqi":69,"pm10":22.2,"pm2_5":19.2,"mosquito_risk":3,"arthritis_risk":5,"migraine_risk":7,"frizz_risk":1,"updated_at":"2026-03-26T08:08:42.131345+05:30"},{"city":"Nainital","state":"Uttarakhand","latitude":29.3919,"longitude":79.4542,"temp":18.5,"humidity":55,"rain":0.0,"pressure":809.8,"uv_index":7.3,"wind_gusts":65.2,"aqi":67,"pm10":24.2,"pm2_5":22.6,"mosquito_risk":0,"arthritis_risk":5,"migraine_risk":7,"frizz_risk":0,"updated_at":"2026-03-26T08:08:42.131352+05:30"},{"city":"Mussoorie","state":"Uttarakhand","latitude":30.4599,"longitude":78.0664,"temp":16.5,"humidity":69,"rain":0.0,"pressure":806.0,"uv_index":6.8,"wind_gusts":42.1,"aqi":75,"pm10":20.5,"pm2_5":18.5,"mosquito_risk":3,"arthritis_risk":5,"migraine_risk":7,"frizz_risk":0,"updated_at":"2026-03-26T08:08:42.131359+05:30"},{"city":"Dharamshala","state":"Himachal Pradesh","latitude":32.219,"longitude":76.3234,"temp":18.6,"humidity":48,"rain":0.0,"pressure":872.9,"uv_index":7.0,"wind_gusts":23.8,"aqi":51,"pm10":17.6,"pm2_5":10.9,"mosquito_risk":0,"arthritis_risk":5,"migraine_risk":7,"frizz_risk":0,"updated_at":"2026-03-26T08:08:42.131366+05:30"},{"city":"Dalhousie","state":"Himachal Pradesh","latitude":32.5387,"longitude":75.971,"temp":15.1,"humidity":52,"rain":0.0,"pressure":806.5,"uv_index":7.15,"wind_gusts":22.3,"aqi":69,"pm10":18.3,"pm2_5":15.3,"mosquito_risk":0,"arthritis_risk":5,"migraine_risk":7,"frizz_risk":0,"updated_at":"2026-03-26T08:08:42.131374+05:30"},{"city":"Patiala","state":"Punjab","latitude":30.3398,"longitude":76.3869,"temp":20.5,"humidity":76,"rain":0.0,"pressure":983.4,"uv_index":6.15,"wind_gusts":32.8,"aqi":160,"pm10":123.9,"pm2_5":42.3,"mosquito_risk":3,"arthritis_risk":5,"migraine_risk":7,"frizz_risk":1,"updated_at":"2026-03-26T08:08:42.131381+05:30"},{"city":"Bhatinda","state":"Punjab","latitude":30.211,"longitude":74.9455,"temp":21.3,"humidity":75,"rain":0.0,"pressure":989.7,"uv_index":6.2,"wind_gusts":31.7,"aqi":95,"pm10":33.1,"pm2_5":31.4,"mosquito_risk":3,"arthritis_risk":5,"migraine_risk":7,"frizz_risk":1,"updated_at":"2026-03-26T08:08:42.131387+05:30"},{"city":"Rohtak","state":"Haryana","latitude":28.8955,"longitude":76.6066,"temp":21.5,"humidity":70,"rain":0.0,"pressure":987.5,"uv_index":6.2,"wind_gusts":22.3,"aqi":189,"pm10":392.1,"pm2_5":93.1,"mosquito_risk":3,"arthritis_risk":5,"migraine_risk":7,"frizz_risk":0,"updated_at":"2026-03-26T08:08:42.131394+05:30"},{"city":"Panipat","state":"Haryana","latitude":29.3909,"longitude":76.9635,"temp":20.8,"humidity":70,"rain":0.0,"pressure":985.8,"uv_index":6.1,"wind_gusts":25.2,"aqi":484,"pm10":525.3,"pm2_5":95.0,"mosquito_risk":3,"arthritis_risk":5,"migraine_risk":7,"frizz_risk":0,"updated_at":"2026-03-26T08:08:42.131401+05:30"},{"city":"Mathura","state":"Uttar Pradesh","latitude":27.4924,"longitude":77.6737,"temp":21.2,"humidity":72,"rain":0.0,"pressure":993.0,"uv_index":6.85,"wind_gusts":23.0,"aqi":237,"pm10":386.5,"pm2_5":88.2,"mosquito_risk":3,"arthritis_risk":5,"migraine_risk":7,"frizz_risk":0,"updated_at":"2026-03-26T08:08:42.131408+05:30"},{"city":"Vrindavan","state":"Uttar Pradesh","latitude":27.5823,"longitude":77.7027,"temp":21.0,"humidity":73,"rain":0.0,"pressure":993.3,"uv_index":6.8,"wind_gusts":26.6,"aqi":237,"pm10":386.5,"pm2_5":88.2,"mosquito_risk":3,"arthritis_risk":5,"migraine_risk":7,"frizz_risk":0,"updated_at":"2026-03-26T08:08:42.131414+05:30"},{"city":"Ayodhya","state":"Uttar Pradesh","latitude":26.7922,"longitude":82.1998,"temp":22.5,"humidity":60,"rain":0.0,"pressure":1001.2,"uv_index":7.3,"wind_gusts":32.4,"aqi":92,"pm10":172.8,"pm2_5":55.4,"mosquito_risk":0,"arthritis_risk":5,"migraine_risk":4,"frizz_risk":0,"updated_at":"2026-03-26T08:08:42.131421+05:30"},{"city":"Ratlam","state":"Madhya Pradesh","latitude":23.3315,"longitude":75.0367,"temp":24.9,"humidity":56,"rain":0.0,"pressure":958.6,"uv_index":8.05,"wind_gusts":26.3,"aqi":51,"pm10":12.7,"pm2_5":11.8,"mosquito_risk":0,"arthritis_risk":5,"migraine_risk":7,"frizz_risk":0,"updated_at":"2026-03-26T08:08:42.131427+05:30"},{"city":"Sagar","state":"Madhya Pradesh","latitude":23.8388,"longitude":78.7378,"temp":25.0,"humidity":50,"rain":0.0,"pressure":955.0,"uv_index":8.05,"wind_gusts":21.6,"aqi":52,"pm10":44.7,"pm2_5":15.5,"mosquito_risk":4,"arthritis_risk":5,"migraine_risk":7,"frizz_risk":0,"updated_at":"2026-03-26T08:08:42.131434+05:30"},{"city":"Satna","state":"Madhya Pradesh","latitude":24.6005,"longitude":80.8322,"temp":24.8,"humidity":49,"rain":0.0,"pressure":977.1,"uv_index":8.05,"wind_gusts":26.3,"aqi":78,"pm10":105.5,"pm2_5":28.2,"mosquito_risk":0,"arthritis_risk":5,"migraine_risk":7,"frizz_risk":0,"updated_at":"2026-03-26T08:08:42.131440+05:30"},{"city":"Akola","state":"Maharashtra","latitude":20.7002,"longitude":77.0082,"temp":25.4,"humidity":67,"rain":0.0,"pressure":978.8,"uv_index":8.4,"wind_gusts":25.2,"aqi":52,"pm10":28.2,"pm2_5":25.3,"mosquito_risk":7,"arthritis_risk":5,"migraine_risk":7,"frizz_risk":1,"updated_at":"2026-03-26T08:08:42.131448+05:30"},{"city":"Amravati","state":"Maharashtra","latitude":20.9374,"longitude":77.7796,"temp":27.0,"humidity":51,"rain":0.0,"pressure":971.0,"uv_index":8.4,"wind_gusts":23.4,"aqi":55,"pm10":28.1,"pm2_5":25.3,"mosquito_risk":4,"arthritis_risk":5,"migraine_risk":7,"frizz_risk":0,"updated_at":"2026-03-26T08:08:42.131456+05:30"},{"city":"Latur","state":"Maharashtra","latitude":18.4088,"longitude":76.5604,"temp":25.6,"humidity":64,"rain":0.0,"pressure":943.0,"uv_index":8.75,"wind_gusts":28.1,"aqi":88,"pm10":56.9,"pm2_5":50.4,"mosquito_risk":7,"arthritis_risk":5,"migraine_risk":7,"frizz_risk":1,"updated_at":"2026-03-26T08:08:42.131462+05:30"},{"city":"Nanded","state":"Maharashtra","latitude":19.1383,"longitude":77.3091,"temp":27.6,"humidity":58,"rain":0.0,"pressure":972.1,"uv_index":8.6,"wind_gusts":24.1,"aqi":79,"pm10":42.6,"pm2_5":38.4,"mosquito_risk":4,"arthritis_risk":5,"migraine_risk":7,"frizz_risk":1,"updated_at":"2026-03-26T08:08:42.131469+05:30"},{"city":"Gulbarga","state":"Karnataka","latitude":17.3297,"longitude":76.8343,"temp":27.6,"humidity":63,"rain":0.0,"pressure":962.4,"uv_index":8.85,"wind_gusts":20.2,"aqi":99,"pm10":60.8,"pm2_5":53.7,"mosquito_risk":7,"arthritis_risk":5,"migraine_risk":7,"frizz_risk":1,"updated_at":"2026-03-26T08:08:42.131475+05:30"},{"city":"Bidar","state":"Karnataka","latitude":17.9104,"longitude":77.5199,"temp":25.7,"humidity":64,"rain":0.0,"pressure":939.2,"uv_index":8.85,"wind_gusts":22.7,"aqi":94,"pm10":48.9,"pm2_5":43.1,"mosquito_risk":7,"arthritis_risk":5,"migraine_risk":7,"frizz_risk":1,"updated_at":"2026-03-26T08:08:42.131482+05:30"},{"city":"Hospet","state":"Karnataka","latitude":15.2689,"longitude":76.3909,"temp":27.5,"humidity":63,"rain":0.0,"pressure":958.6,"uv_index":9.05,"wind_gusts":25.6,"aqi":103,"pm10":32.9,"pm2_5":29.9,"mosquito_risk":7,"arthritis_risk":5,"migraine_risk":7,"frizz_risk":1,"updated_at":"2026-03-26T08:08:42.131489+05:30"},{"city":"Tirupur","state":"Tamil Nadu","latitude":11.1085,"longitude":77.3411,"temp":25.0,"humidity":78,"rain":0.0,"pressure":978.6,"uv_index":9.4,"wind_gusts":32.0,"aqi":57,"pm10":29.9,"pm2_5":27.2,"mosquito_risk":7,"arthritis_risk":5,"migraine_risk":7,"frizz_risk":1,"updated_at":"2026-03-26T08:08:42.131495+05:30"},{"city":"Alappuzha","state":"Kerala","latitude":9.4981,"longitude":76.3388,"temp":28.4,"humidity":81,"rain":0.0,"pressure":1010.3,"uv_index":9.15,"wind_gusts":31.7,"aqi":84,"pm10":41.8,"pm2_5":36.8,"mosquito_risk":7,"arthritis_risk":0,"migraine_risk":4,"frizz_risk":1,"updated_at":"2026-03-26T08:08:42.131502+05:30"},{"city":"Munnar","state":"Kerala","latitude":10.0889,"longitude":77.0595,"temp":22.0,"humidity":52,"rain":0.0,"pressure":858.4,"uv_index":9.7,"wind_gusts":27.4,"aqi":56,"pm10":23.5,"pm2_5":22.0,"mosquito_risk":0,"arthritis_risk":5,"migraine_risk":7,"frizz_risk":0,"updated_at":"2026-03-26T08:08:42.131509+05:30"},{"city":"Silchar","state":"Assam","latitude":24.8333,"longitude":92.7789,"temp":24.6,"humidity":76,"rain":0.0,"pressure":1011.4,"uv_index":8.2,"wind_gusts":20.2,"aqi":158,"pm10":74.7,"pm2_5":61.2,"mosquito_risk":3,"arthritis_risk":0,"migraine_risk":4,"frizz_risk":1,"updated_at":"2026-03-26T08:08:42.131515+05:30"},{"city":"Dibrugarh","state":"Assam","latitude":27.4728,"longitude":94.912,"temp":21.6,"humidity":81,"rain":0.0,"pressure":1003.4,"uv_index":8.05,"wind_gusts":8.3,"aqi":88,"pm10":30.9,"pm2_5":27.1,"mosquito_risk":3,"arthritis_risk":5,"migraine_risk":4,"frizz_risk":1,"updated_at":"2026-03-26T08:08:42.131522+05:30"}]