[{"city":"Delhi","state":"Delhi","latitude":28.6139,"longitude":77.209,"temp":35.7,"humidity":52,"rain":0.0,"pressure":975.0,"uv_index":7.3,"wind_gusts":29.5,"aqi":135,"pm10":70.1,"pm2_5":36.8,"no2":6.4,"co":544.0,"o3":214.0,"so2":27.1,"mosquito_risk":0,"arthritis_risk":5,"migraine_risk":10,"frizz_risk":1,"updated_at":"2026-07-04T13:18:39.250473+05:30"},{"city":"Mumbai","state":"Maharashtra","latitude":19.076,"longitude":72.8777,"temp":26.2,"humidity":92,"rain":1.1,"pressure":1002.4,"uv_index":0.3,"wind_gusts":55.1,"aqi":39,"pm10":17.9,"pm2_5":9.4,"no2":7.2,"co":194.0,"o3":56.0,"so2":4.3,"mosquito_risk":10,"arthritis_risk":5,"migraine_risk":0,"frizz_risk":1,"updated_at":"2026-07-04T13:18:39.250524+05:30"},{"city":"Bangalore","state":"Karnataka","latitude":12.9716,"longitude":77.5946,"temp":28.6,"humidity":52,"rain":0.0,"pressure":910.6,"uv_index":5.55,"wind_gusts":77.8,"aqi":20,"pm10":11.1,"pm2_5":5.6,"no2":4.4,"co":214.0,"o3":57.0,"so2":2.3,"mosquito_risk":4,"arthritis_risk":5,"migraine_risk":3,"frizz_risk":1,"updated_at":"2026-07-04T13:18:39.250540+05:30"},{"city":"Hyderabad","state":"Telangana","latitude":17.385,"longitude":78.4867,"temp":25.0,"humidity":85,"rain":0.2,"pressure":947.2,"uv_index":2.4,"wind_gusts":65.9,"aqi":21,"pm10":5.0,"pm2_5":3.8,"no2":3.2,"co":224.0,"o3":62.0,"so2":2.8,"mosquito_risk":10,"arthritis_risk":5,"migraine_risk":3,"frizz_risk":1,"updated_at":"2026-07-04T13:18:39.250551+05:30"},{"city":"Chennai","state":"Tamil Nadu","latitude":13.0827,"longitude":80.2707,"temp":32.0,"humidity":55,"rain":0.0,"pressure":1003.3,"uv_index":1.45,"wind_gusts":48.6,"aqi":40,"pm10":13.6,"pm2_5":10.5,"no2":5.4,"co":277.0,"o3":85.0,"so2":7.7,"mosquito_risk":0,"arthritis_risk":5,"migraine_risk":0,"frizz_risk":1,"updated_at":"2026-07-04T13:18:39.250560+05:30"},{"city":"Kolkata","state":"West Bengal","latitude":22.5726,"longitude":88.3639,"temp":31.8,"humidity":73,"rain":0.0,"pressure":993.5,"uv_index":7.5,"wind_gusts":49.7,"aqi":40,"pm10":9.5,"pm2_5":8.6,"no2":3.5,"co":221.0,"o3":92.0,"so2":5.4,"mosquito_risk":3,"arthritis_risk":5,"migraine_risk":7,"frizz_risk":1,"updated_at":"2026-07-04T13:18:39.250569+05:30"},{"city":"Pune","state":"Maharashtra","latitude":18.5204,"longitude":73.8567,"temp":24.6,"humidity":89,"rain":0.0,"pressure":941.5,"uv_index":0.45,"wind_gusts":55.8,"aqi":21,"pm10":1.5,"pm2_5":1.5,"no2":4.9,"co":154.0,"o3":49.0,"so2":2.9,"mosquito_risk":3,"arthritis_risk":5,"migraine_risk":3,"frizz_risk":1,"updated_at":"2026-07-04T13:18:39.250577+05:30"},{"city":"Ahmedabad","state":"Gujarat","latitude":23.0225,"longitude":72.5714,"temp":32.0,"humidity":67,"rain":0.0,"pressure":994.2,"uv_index":5.85,"wind_gusts":39.6,"aqi":61,"pm10":53.8,"pm2_5":21.9,"no2":1.0,"co":138.0,"o3":79.0,"so2":3.3,"mosquito_risk":3,"arthritis_risk":5,"migraine_risk":3,"frizz_risk":1,"updated_at":"2026-07-04T13:18:39.250584+05:30"},{"city":"Jaipur","state":"Rajasthan","latitude":26.9124,"longitude":75.7873,"temp":33.3,"humidity":55,"rain":0.0,"pressure":952.5,"uv_index":7.4,"wind_gusts":19.8,"aqi":112,"pm10":65.9,"pm2_5":29.6,"no2":1.7,"co":221.0,"o3":144.0,"so2":5.3,"mosquito_risk":0,"arthritis_risk":5,"migraine_risk":7,"frizz_risk":1,"updated_at":"2026-07-04T13:18:39.250592+05:30"},{"city":"Lucknow","state":"Uttar Pradesh","latitude":26.8467,"longitude":80.9462,"temp":35.1,"humidity":60,"rain":0.0,"pressure":984.5,"uv_index":6.75,"wind_gusts":24.1,"aqi":85,"pm10":27.1,"pm2_5":26.3,"no2":1.5,"co":307.0,"o3":164.0,"so2":7.6,"mosquito_risk":0,"arthritis_risk":5,"migraine_risk":10,"frizz_risk":1,"updated_at":"2026-07-04T13:18:39.250604+05:30"},{"city":"Kanpur","state":"Uttar Pradesh","latitude":26.4499,"longitude":80.3319,"temp":35.6,"humidity":57,"rain":0.0,"pressure":982.5,"uv_index":7.95,"wind_gusts":25.2,"aqi":86,"pm10":29.2,"pm2_5":28.3,"no2":1.7,"co":264.0,"o3":177.0,"so2":9.2,"mosquito_risk":0,"arthritis_risk":5,"migraine_risk":10,"frizz_risk":1,"updated_at":"2026-07-04T13:18:39.250612+05:30"},{"city":"Chandigarh","state":"Chandigarh","latitude":30.7333,"longitude":76.7794,"temp":28.5,"humidity":93,"rain":0.2,"pressure":962.7,"uv_index":7.45,"wind_gusts":23.0,"aqi":85,"pm10":26.4,"pm2_5":25.4,"no2":2.1,"co":413.0,"o3":183.0,"so2":8.7,"mosquito_risk":10,"arthritis_risk":5,"migraine_risk":7,"frizz_risk":1,"updated_at":"2026-07-04T13:18:39.250620+05:30"},{"city":"Srinagar","state":"Jammu and Kashmir","latitude":34.0837,"longitude":74.7973,"temp":29.4,"humidity":45,"rain":0.0,"pressure":840.0,"uv_index":9.05,"wind_gusts":20.5,"aqi":79,"pm10":21.8,"pm2_5":14.8,"no2":1.0,"co":361.0,"o3":162.0,"so2":3.3,"mosquito_risk":4,"arthritis_risk":5,"migraine_risk":7,"frizz_risk":1,"updated_at":"2026-07-04T13:18:39.250627+05:30"},{"city":"Jammu","state":"Jammu and Kashmir","latitude":32.7266,"longitude":74.857,"temp":34.9,"humidity":54,"rain":0.0,"pressure":965.6,"uv_index":8.6,"wind_gusts":29.9,"aqi":100,"pm10":46.8,"pm2_5":34.6,"no2":1.7,"co":373.0,"o3":193.0,"so2":6.1,"mosquito_risk":0,"arthritis_risk":5,"migraine_risk":7,"frizz_risk":1,"updated_at":"2026-07-04T13:18:39.250633+05:30"},{"city":"Amritsar","state":"Punjab","latitude":31.634,"longitude":74.8723,"temp":35.3,"humidity":56,"rain":0.0,"pressure":973.7,"uv_index":8.45,"wind_gusts":35.6,"aqi":115,"pm10":44.8,"pm2_5":36.9,"no2":1.5,"co":361.0,"o3":174.0,"so2":5.8,"mosquito_risk":0,"arthritis_risk":5,"migraine_risk":10,"frizz_risk":1,"updated_at":"2026-07-04T13:18:39.250640+05:30"},{"city":"Ludhiana","state":"Punjab","latitude":30.901,"longitude":75.8573,"temp":29.8,"humidity":85,"rain":0.1,"pressure":972.3,"uv_index":7.95,"wind_gusts":33.5,"aqi":126,"pm10":44.2,"pm2_5":37.6,"no2":2.4,"co":384.0,"o3":200.0,"so2":12.8,"mosquito_risk":10,"arthritis_risk":5,"migraine_risk":7,"frizz_risk":1,"updated_at":"2026-07-04T13:18:39.250650+05:30"},{"city":"Jalandhar","state":"Punjab","latitude":31.326,"longitude":75.5762,"temp":32.2,"humidity":70,"rain":0.0,"pressure":973.0,"uv_index":8.2,"wind_gusts":31.7,"aqi":122,"pm10":48.9,"pm2_5":39.7,"no2":2.0,"co":393.0,"o3":193.0,"so2":11.4,"mosquito_risk":3,"arthritis_risk":5,"migraine_risk":7,"frizz_risk":1,"updated_at":"2026-07-04T13:18:39.250658+05:30"},{"city":"Dehradun","state":"Uttarakhand","latitude":30.6284,"longitude":78.0322,"temp":23.1,"humidity":79,"rain":0.1,"pressure":828.7,"uv_index":7.15,"wind_gusts":28.4,"aqi":39,"pm10":5.8,"pm2_5":5.6,"no2":0.8,"co":244.0,"o3":129.0,"so2":1.4,"mosquito_risk":6,"arthritis_risk":5,"migraine_risk":7,"frizz_risk":1,"updated_at":"2026-07-04T13:18:39.250665+05:30"},{"city":"Shimla","state":"Himachal Pradesh","latitude":31.1048,"longitude":77.1734,"temp":20.9,"humidity":79,"rain":0.1,"pressure":783.9,"uv_index":7.4,"wind_gusts":24.5,"aqi":48,"pm10":7.4,"pm2_5":7.2,"no2":1.1,"co":234.0,"o3":141.0,"so2":2.9,"mosquito_risk":6,"arthritis_risk":5,"migraine_risk":7,"frizz_risk":1,"updated_at":"2026-07-04T13:18:39.250672+05:30"},{"city":"Manali","state":"Himachal Pradesh","latitude":32.2396,"longitude":77.1887,"temp":26.4,"humidity":64,"rain":0.0,"pressure":818.1,"uv_index":9.55,"wind_gusts":36.4,"aqi":56,"pm10":10.6,"pm2_5":10.2,"no2":5.7,"co":199.0,"o3":147.0,"so2":0.9,"mosquito_risk":7,"arthritis_risk":5,"migraine_risk":7,"frizz_risk":1,"updated_at":"2026-07-04T13:18:39.250681+05:30"},{"city":"Gurgaon","state":"Haryana","latitude":28.4595,"longitude":77.0266,"temp":33.8,"humidity":58,"rain":0.1,"pressure":973.7,"uv_index":6.8,"wind_gusts":24.8,"aqi":146,"pm10":70.3,"pm2_5":29.3,"no2":4.7,"co":401.0,"o3":186.0,"so2":16.1,"mosquito_risk":3,"arthritis_risk":5,"migraine_risk":7,"frizz_risk":1,"updated_at":"2026-07-04T13:18:39.250687+05:30"},{"city":"Noida","state":"Uttar Pradesh","latitude":28.5355,"longitude":77.391,"temp":34.4,"humidity":59,"rain":0.1,"pressure":976.4,"uv_index":6.8,"wind_gusts":22.7,"aqi":146,"pm10":70.3,"pm2_5":29.3,"no2":4.7,"co":424.0,"o3":186.0,"so2":16.1,"mosquito_risk":3,"arthritis_risk":5,"migraine_risk":7,"frizz_risk":1,"updated_at":"2026-07-04T13:18:39.250694+05:30"},{"city":"Ghaziabad","state":"Uttar Pradesh","latitude":28.6692,"longitude":77.4538,"temp":34.2,"humidity":60,"rain":0.1,"pressure":974.9,"uv_index":7.35,"wind_gusts":21.6,"aqi":117,"pm10":28.1,"pm2_5":25.1,"no2":2.6,"co":313.0,"o3":181.0,"so2":16.0,"mosquito_risk":3,"arthritis_risk":5,"migraine_risk":7,"frizz_risk":1,"updated_at":"2026-07-04T13:18:39.250701+05:30"},{"city":"Faridabad","state":"Haryana","latitude":28.4089,"longitude":77.3178,"temp":35.7,"humidity":52,"rain":0.0,"pressure":975.7,"uv_index":6.75,"wind_gusts":26.3,"aqi":146,"pm10":70.3,"pm2_5":29.3,"no2":4.7,"co":412.0,"o3":186.0,"so2":16.1,"mosquito_risk":0,"arthritis_risk":5,"migraine_risk":10,"frizz_risk":1,"updated_at":"2026-07-04T13:18:39.250707+05:30"},{"city":"Meerut","state":"Uttar Pradesh","latitude":28.9845,"longitude":77.7064,"temp":33.5,"humidity":66,"rain":0.0,"pressure":973.7,"uv_index":7.5,"wind_gusts":22.0,"aqi":117,"pm10":28.1,"pm2_5":25.1,"no2":2.6,"co":303.0,"o3":181.0,"so2":16.0,"mosquito_risk":3,"arthritis_risk":5,"migraine_risk":7,"frizz_risk":1,"updated_at":"2026-07-04T13:18:39.250714+05:30"},{"city":"Agra","state":"Uttar Pradesh","latitude":27.1767,"longitude":78.0081,"temp":34.9,"humidity":58,"rain":0.0,"pressure":979.2,"uv_index":7.25,"wind_gusts":30.6,"aqi":96,"pm10":34.1,"pm2_5":25.7,"no2":1.6,"co":299.0,"o3":171.0,"so2":5.6,"mosquito_risk":0,"arthritis_risk":5,"migraine_risk":7,"frizz_risk":1,"updated_at":"2026-07-04T13:18:39.250721+05:30"},{"city":"Varanasi","state":"Uttar Pradesh","latitude":25.3176,"longitude":82.9739,"temp":36.0,"humidity":53,"rain":0.0,"pressure":987.5,"uv_index":8.65,"wind_gusts":30.2,"aqi":89,"pm10":14.8,"pm2_5":14.5,"no2":1.2,"co":230.0,"o3":134.0,"so2":5.4,"mosquito_risk":0,"arthritis_risk":5,"migraine_risk":10,"frizz_risk":1,"updated_at":"2026-07-04T13:18:39.250728+05:30"},{"city":"Prayagraj","state":"Uttar Pradesh","latitude":25.4358,"longitude":81.8463,"temp":35.8,"humidity":54,"rain":0.0,"pressure":986.1,"uv_index":8.15,"wind_gusts":29.5,"aqi":94,"pm10":17.6,"pm2_5":17.1,"no2":1.3,"co":285.0,"o3":150.0,"so2":6.4,"mosquito_risk":0,"arthritis_risk":5,"migraine_risk":10,"frizz_risk":1,"updated_at":"2026-07-04T13:18:39.250735+05:30"},{"city":"Gorakhpur","state":"Uttar Pradesh","latitude":26.7606,"longitude":83.3732,"temp":35.9,"humidity":57,"rain":0.0,"pressure":988.0,"uv_index":8.5,"wind_gusts":29.9,"aqi":95,"pm10":23.0,"pm2_5":22.5,"no2":1.5,"co":252.0,"o3":157.0,"so2":7.4,"mosquito_risk":0,"arthritis_risk":5,"migraine_risk":10,"frizz_risk":1,"updated_at":"2026-07-04T13:18:39.250741+05:30"},{"city":"Bareilly","state":"Uttar Pradesh","latitude":28.367,"longitude":79.4304,"temp":34.1,"humidity":62,"rain":0.0,"pressure":978.7,"uv_index":7.95,"wind_gusts":24.1,"aqi":83,"pm10":37.0,"pm2_5":31.1,"no2":1.8,"co":329.0,"o3":179.0,"so2":9.5,"mosquito_risk":3,"arthritis_risk":5,"migraine_risk":7,"frizz_risk":1,"updated_at":"2026-07-04T13:18:39.250750+05:30"},{"city":"Aligarh","state":"Uttar Pradesh","latitude":27.8974,"longitude":78.088,"temp":34.9,"humidity":60,"rain":0.0,"pressure":977.3,"uv_index":7.7,"wind_gusts":24.8,"aqi":116,"pm10":28.1,"pm2_5":25.7,"no2":1.8,"co":283.0,"o3":177.0,"so2":8.7,"mosquito_risk":0,"arthritis_risk":5,"migraine_risk":7,"frizz_risk":1,"updated_at":"2026-07-04T13:18:39.250756+05:30"},{"city":"Moradabad","state":"Uttar Pradesh","latitude":28.8386,"longitude":78.7733,"temp":32.1,"humidity":74,"rain":0.1,"pressure":976.0,"uv_index":7.6,"wind_gusts":24.5,"aqi":101,"pm10":26.4,"pm2_5":25.8,"no2":2.3,"co":315.0,"o3":198.0,"so2":13.5,"mosquito_risk":6,"arthritis_risk":5,"migraine_risk":7,"frizz_risk":1,"updated_at":"2026-07-04T13:18:39.250784+05:30"},{"city":"Saharanpur","state":"Uttar Pradesh","latitude":29.9637,"longitude":77.546,"temp":29.4,"humidity":83,"rain":0.0,"pressure":969.0,"uv_index":7.1,"wind_gusts":33.1,"aqi":99,"pm10":25.1,"pm2_5":25.0,"no2":1.9,"co":408.0,"o3":180.0,"so2":10.8,"mosquito_risk":7,"arthritis_risk":5,"migraine_risk":7,"frizz_risk":1,"updated_at":"2026-07-04T13:18:39.250791+05:30"},{"city":"Jhansi","state":"Uttar Pradesh","latitude":25.4484,"longitude":78.5685,"temp":34.7,"humidity":58,"rain":0.0,"pressure":969.3,"uv_index":7.45,"wind_gusts":29.9,"aqi":67,"pm10":23.2,"pm2_5":22.8,"no2":1.9,"co":242.0,"o3":156.0,"so2":10.5,"mosquito_risk":0,"arthritis_risk":5,"migraine_risk":7,"frizz_risk":1,"updated_at":"2026-07-04T13:18:42.619991+05:30"},{"city":"Surat","state":"Gujarat","latitude":21.1702,"longitude":72.8311,"temp":30.1,"humidity":75,"rain":0.0,"pressure":999.2,"uv_index":0.8,"wind_gusts":27.4,"aqi":63,"pm10":29.6,"pm2_5":22.5,"no2":25.5,"co":401.0,"o3":23.0,"so2":49.7,"mosquito_risk":3,"arthritis_risk":5,"migraine_risk":3,"frizz_risk":1,"updated_at":"2026-07-04T13:18:42.620023+05:30"},{"city":"Vadodara","state":"Gujarat","latitude":22.3072,"longitude":73.1812,"temp":28.2,"humidity":87,"rain":0.0,"pressure":996.7,"uv_index":1.05,"wind_gusts":30.2,"aqi":55,"pm10":22.1,"pm2_5":13.3,"no2":10.4,"co":159.0,"o3":49.0,"so2":9.3,"mosquito_risk":7,"arthritis_risk":5,"migraine_risk":3,"frizz_risk":1,"updated_at":"2026-07-04T13:18:42.620035+05:30"},{"city":"Rajkot","state":"Gujarat","latitude":22.3039,"longitude":70.8022,"temp":33.1,"humidity":62,"rain":0.0,"pressure":986.3,"uv_index":5.95,"wind_gusts":40.3,"aqi":56,"pm10":49.6,"pm2_5":20.5,"no2":0.9,"co":102.0,"o3":85.0,"so2":3.8,"mosquito_risk":3,"arthritis_risk":5,"migraine_risk":3,"frizz_risk":1,"updated_at":"2026-07-04T13:18:42.620044+05:30"},{"city":"Thane","state":"Maharashtra","latitude":19.2183,"longitude":72.9781,"temp":25.5,"humidity":96,"rain":0.7,"pressure":1001.7,"uv_index":0.4,"wind_gusts":42.5,"aqi":39,"pm10":17.9,"pm2_5":9.4,"no2":7.2,"co":193.0,"o3":56.0,"so2":4.3,"mosquito_risk":10,"arthritis_risk":5,"migraine_risk":0,"frizz_risk":1,"updated_at":"2026-07-04T13:18:42.620052+05:30"},{"city":"Nagpur","state":"Maharashtra","latitude":21.1458,"longitude":79.0882,"temp":31.9,"humidity":65,"rain":0.0,"pressure":963.9,"uv_index":8.05,"wind_gusts":28.4,"aqi":39,"pm10":16.5,"pm2_5":16.1,"no2":11.9,"co":271.0,"o3":129.0,"so2":37.7,"mosquito_risk":3,"arthritis_risk":5,"migraine_risk":7,"frizz_risk":1,"updated_at":"2026-07-04T13:18:42.620062+05:30"},{"city":"Nashik","state":"Maharashtra","latitude":19.9975,"longitude":73.7898,"temp":24.8,"humidity":90,"rain":0.3,"pressure":938.7,"uv_index":0.95,"wind_gusts":33.1,"aqi":21,"pm10":2.5,"pm2_5":2.1,"no2":4.9,"co":134.0,"o3":58.0,"so2":1.3,"mosquito_risk":6,"arthritis_risk":5,"migraine_risk":3,"frizz_risk":1,"updated_at":"2026-07-04T13:18:42.620070+05:30"},{"city":"Aurangabad","state":"Maharashtra","latitude":19.8762,"longitude":75.3433,"temp":25.2,"humidity":89,"rain":0.0,"pressure":937.5,"uv_index":1.2,"wind_gusts":36.7,"aqi":20,"pm10":3.0,"pm2_5":2.9,"no2":4.9,"co":167.0,"o3":57.0,"so2":3.6,"mosquito_risk":7,"arthritis_risk":5,"migraine_risk":3,"frizz_risk":1,"updated_at":"2026-07-04T13:18:42.620079+05:30"},{"city":"Solapur","state":"Maharashtra","latitude":17.6599,"longitude":75.9064,"temp":25.1,"humidity":89,"rain":0.1,"pressure":952.3,"uv_index":1.05,"wind_gusts":44.3,"aqi":22,"pm10":2.0,"pm2_5":1.7,"no2":1.7,"co":123.0,"o3":59.0,"so2":1.3,"mosquito_risk":10,"arthritis_risk":5,"migraine_risk":3,"frizz_risk":1,"updated_at":"2026-07-04T13:18:42.620087+05:30"},{"city":"Kolhapur","state":"Maharashtra","latitude":16.705,"longitude":74.2433,"temp":23.1,"humidity":95,"rain":0.3,"pressure":943.8,"uv_index":1.2,"wind_gusts":53.6,"aqi":21,"pm10":3.0,"pm2_5":2.4,"no2":3.9,"co":131.0,"o3":47.0,"so2":1.2,"mosquito_risk":6,"arthritis_risk":5,"migraine_risk":3,"frizz_risk":1,"updated_at":"2026-07-04T13:18:42.620096+05:30"},{"city":"Goa","state":"Goa","latitude":15.2993,"longitude":74.124,"temp":24.4,"humidity":98,"rain":0.5,"pressure":997.1,"uv_index":3.8,"wind_gusts":37.1,"aqi":51,"pm10":18.9,"pm2_5":10.0,"no2":1.1,"co":171.0,"o3":58.0,"so2":0.6,"mosquito_risk":6,"arthritis_risk":5,"migraine_risk":3,"frizz_risk":1,"updated_at":"2026-07-04T13:18:42.620103+05:30"},{"city":"Jodhpur","state":"Rajasthan","latitude":26.2389,"longitude":73.0243,"temp":33.2,"humidity":62,"rain":0.0,"pressure":975.0,"uv_index":8.35,"wind_gusts":27.4,"aqi":151,"pm10":358.6,"pm2_5":87.5,"no2":0.8,"co":149.0,"o3":106.0,"so2":3.6,"mosquito_risk":3,"arthritis_risk":5,"migraine_risk":7,"frizz_risk":1,"updated_at":"2026-07-04T13:18:42.620111+05:30"},{"city":"Udaipur","state":"Rajasthan","latitude":24.5854,"longitude":73.7125,"temp":30.8,"humidity":60,"rain":0.0,"pressure":939.4,"uv_index":5.9,"wind_gusts":32.8,"aqi":60,"pm10":69.4,"pm2_5":29.9,"no2":1.3,"co":124.0,"o3":84.0,"so2":5.1,"mosquito_risk":0,"arthritis_risk":5,"migraine_risk":3,"frizz_risk":1,"updated_at":"2026-07-04T13:18:42.620119+05:30"},{"city":"Kota","state":"Rajasthan","latitude":25.2138,"longitude":75.8648,"temp":33.0,"humidity":59,"rain":0.0,"pressure":970.8,"uv_index":7.3,"wind_gusts":28.1,"aqi":97,"pm10":86.4,"pm2_5":34.6,"no2":1.8,"co":158.0,"o3":110.0,"so2":4.0,"mosquito_risk":0,"arthritis_risk":5,"migraine_risk":7,"frizz_risk":1,"updated_at":"2026-07-04T13:18:42.620126+05:30"},{"city":"Bikaner","state":"Rajasthan","latitude":28.0229,"longitude":73.3119,"temp":40.3,"humidity":33,"rain":0.0,"pressure":973.0,"uv_index":7.4,"wind_gusts":33.5,"aqi":123,"pm10":85.0,"pm2_5":35.5,"no2":0.5,"co":227.0,"o3":148.0,"so2":7.4,"mosquito_risk":0,"arthritis_risk":5,"migraine_risk":10,"frizz_risk":1,"updated_at":"2026-07-04T13:18:42.620134+05:30"},{"city":"Ajmer","state":"Rajasthan","latitude":26.4499,"longitude":74.6399,"temp":32.4,"humidity":57,"rain":0.0,"pressure":947.6,"uv_index":7.5,"wind_gusts":33.5,"aqi":120,"pm10":121.5,"pm2_5":43.5,"no2":0.9,"co":162.0,"o3":118.0,"so2":3.4,"mosquito_risk":0,"arthritis_risk":5,"migraine_risk":7,"frizz_risk":1,"updated_at":"2026-07-04T13:18:42.620142+05:30"},{"city":"Gwalior","state":"Madhya Pradesh","latitude":26.2183,"longitude":78.1828,"temp":34.1,"humidity":60,"rain":0.0,"pressure":974.6,"uv_index":8.0,"wind_gusts":30.2,"aqi":74,"pm10":21.8,"pm2_5":20.8,"no2":1.0,"co":253.0,"o3":145.0,"so2":4.3,"mosquito_risk":0,"arthritis_risk":5,"migraine_risk":7,"frizz_risk":1,"updated_at":"2026-07-04T13:18:42.620149+05:30"},{"city":"Indore","state":"Madhya Pradesh","latitude":22.7196,"longitude":75.8577,"temp":29.4,"humidity":67,"rain":0.1,"pressure":940.4,"uv_index":7.9,"wind_gusts":32.4,"aqi":46,"pm10":43.2,"pm2_5":19.7,"no2":2.6,"co":236.0,"o3":98.0,"so2":3.9,"mosquito_risk":10,"arthritis_risk":5,"migraine_risk":7,"frizz_risk":1,"updated_at":"2026-07-04T13:18:42.620157+05:30"},{"city":"Bhopal","state":"Madhya Pradesh","latitude":23.2599,"longitude":77.4126,"temp":31.7,"humidity":64,"rain":0.0,"pressure":945.3,"uv_index":8.55,"wind_gusts":31.0,"aqi":58,"pm10":9.0,"pm2_5":8.8,"no2":1.2,"co":205.0,"o3":128.0,"so2":3.3,"mosquito_risk":3,"arthritis_risk":5,"migraine_risk":7,"frizz_risk":1,"updated_at":"2026-07-04T13:18:42.620165+05:30"},{"city":"Jabalpur","state":"Madhya Pradesh","latitude":23.1815,"longitude":79.9864,"temp":32.6,"humidity":61,"rain":0.0,"pressure":952.3,"uv_index":8.5,"wind_gusts":25.6,"aqi":63,"pm10":28.2,"pm2_5":27.9,"no2":1.5,"co":237.0,"o3":163.0,"so2":17.4,"mosquito_risk":3,"arthritis_risk":5,"migraine_risk":7,"frizz_risk":1,"updated_at":"2026-07-04T13:18:42.620172+05:30"},{"city":"Ujjain","state":"Madhya Pradesh","latitude":23.1765,"longitude":75.7885,"temp":30.0,"humidity":66,"rain":0.0,"pressure":945.9,"uv_index":7.4,"wind_gusts":30.6,"aqi":49,"pm10":58.3,"pm2_5":22.4,"no2":1.5,"co":171.0,"o3":89.0,"so2":3.3,"mosquito_risk":7,"arthritis_risk":5,"migraine_risk":7,"frizz_risk":1,"updated_at":"2026-07-04T13:18:42.620179+05:30"},{"city":"Visakhapatnam","state":"Andhra Pradesh","latitude":17.6868,"longitude":83.2185,"temp":30.1,"humidity":70,"rain":0.0,"pressure":993.1,"uv_index":3.65,"wind_gusts":54.4,"aqi":40,"pm10":8.0,"pm2_5":7.3,"no2":4.9,"co":264.0,"o3":90.0,"so2":16.3,"mosquito_risk":3,"arthritis_risk":5,"migraine_risk":3,"frizz_risk":1,"updated_at":"2026-07-04T13:18:42.620187+05:30"},{"city":"Vijayawada","state":"Andhra Pradesh","latitude":16.5062,"longitude":80.648,"temp":31.5,"humidity":63,"rain":0.1,"pressure":996.0,"uv_index":2.0,"wind_gusts":61.9,"aqi":37,"pm10":6.8,"pm2_5":5.0,"no2":1.5,"co":140.0,"o3":74.0,"so2":3.6,"mosquito_risk":6,"arthritis_risk":5,"migraine_risk":3,"frizz_risk":1,"updated_at":"2026-07-04T13:18:42.620194+05:30"},{"city":"Guntur","state":"Andhra Pradesh","latitude":16.3067,"longitude":80.4365,"temp":29.5,"humidity":69,"rain":0.1,"pressure":997.5,"uv_index":2.5,"wind_gusts":48.2,"aqi":32,"pm10":7.4,"pm2_5":5.0,"no2":1.3,"co":143.0,"o3":73.0,"so2":3.6,"mosquito_risk":10,"arthritis_risk":5,"migraine_risk":3,"frizz_risk":1,"updated_at":"2026-07-04T13:18:42.620202+05:30"},{"city":"Nellore","state":"Andhra Pradesh","latitude":14.4426,"longitude":79.9865,"temp":32.0,"humidity":56,"rain":0.0,"pressure":1001.1,"uv_index":1.5,"wind_gusts":46.1,"aqi":34,"pm10":6.3,"pm2_5":3.9,"no2":2.8,"co":100.0,"o3":66.0,"so2":4.0,"mosquito_risk":0,"arthritis_risk":5,"migraine_risk":0,"frizz_risk":1,"updated_at":"2026-07-04T13:18:42.620210+05:30"},{"city":"Kurnool","state":"Andhra Pradesh","latitude":15.8281,"longitude":78.0373,"temp":30.0,"humidity":57,"rain":0.0,"pressure":972.8,"uv_index":1.3,"wind_gusts":75.6,"aqi":20,"pm10":7.5,"pm2_5":4.4,"no2":1.6,"co":112.0,"o3":66.0,"so2":2.0,"mosquito_risk":4,"arthritis_risk":5,"migraine_risk":3,"frizz_risk":1,"updated_at":"2026-07-04T13:18:42.620219+05:30"},{"city":"Kakinada","state":"Andhra Pradesh","latitude":16.9891,"longitude":82.2475,"temp":30.7,"humidity":69,"rain":0.1,"pressure":998.7,"uv_index":1.75,"wind_gusts":67.3,"aqi":38,"pm10":6.8,"pm2_5":5.6,"no2":1.9,"co":155.0,"o3":82.0,"so2":3.9,"mosquito_risk":6,"arthritis_risk":5,"migraine_risk":3,"frizz_risk":1,"updated_at":"2026-07-04T13:18:42.620226+05:30"},{"city":"Tirupati","state":"Andhra Pradesh","latitude":13.6288,"longitude":79.4192,"temp":33.0,"humidity":46,"rain":0.0,"pressure":987.4,"uv_index":2.5,"wind_gusts":48.2,"aqi":32,"pm10":8.9,"pm2_5":4.5,"no2":1.3,"co":109.0,"o3":69.0,"so2":1.3,"mosquito_risk":0,"arthritis_risk":5,"migraine_risk":3,"frizz_risk":1,"updated_at":"2026-07-04T13:18:42.620234+05:30"},{"city":"Warangal","state":"Telangana","latitude":17.9689,"longitude":79.5941,"temp":29.2,"humidity":68,"rain":0.0,"pressure":971.6,"uv_index":2.0,"wind_gusts":52.9,"aqi":20,"pm10":4.9,"pm2_5":4.7,"no2":3.1,"co":141.0,"o3":59.0,"so2":1.8,"mosquito_risk":7,"arthritis_risk":5,"migraine_risk":3,"frizz_risk":1,"updated_at":"2026-07-04T13:18:42.620241+05:30"},{"city":"Nizamabad","state":"Telangana","latitude":18.6725,"longitude":78.0941,"temp":24.9,"humidity":91,"rain":0.0,"pressure":958.1,"uv_index":1.9,"wind_gusts":45.4,"aqi":20,"pm10":4.2,"pm2_5":4.0,"no2":3.5,"co":152.0,"o3":58.0,"so2":4.2,"mosquito_risk":3,"arthritis_risk":5,"migraine_risk":3,"frizz_risk":1,"updated_at":"2026-07-04T13:18:42.620249+05:30"},{"city":"Mysore","state":"Karnataka","latitude":12.2958,"longitude":76.6396,"temp":26.6,"humidity":66,"rain":0.1,"pressure":927.9,"uv_index":7.7,"wind_gusts":64.8,"aqi":22,"pm10":8.4,"pm2_5":4.0,"no2":2.4,"co":110.0,"o3":58.0,"so2":1.4,"mosquito_risk":10,"arthritis_risk":5,"migraine_risk":7,"frizz_risk":1,"updated_at":"2026-07-04T13:18:42.620256+05:30"},{"city":"Mangalore","state":"Karnataka","latitude":12.9141,"longitude":74.856,"temp":29.5,"humidity":73,"rain":0.0,"pressure":1006.8,"uv_index":7.75,"wind_gusts":59.8,"aqi":36,"pm10":20.7,"pm2_5":10.5,"no2":1.1,"co":97.0,"o3":56.0,"so2":1.3,"mosquito_risk":7,"arthritis_risk":5,"migraine_risk":4,"frizz_risk":1,"updated_at":"2026-07-04T13:18:42.620264+05:30"},{"city":"Hubli-Dharwad","state":"Karnataka","latitude":15.3647,"longitude":75.124,"temp":24.9,"humidity":81,"rain":0.1,"pressure":938.7,"uv_index":1.85,"wind_gusts":61.6,"aqi":22,"pm10":2.8,"pm2_5":1.8,"no2":2.0,"co":112.0,"o3":57.0,"so2":0.7,"mosquito_risk":6,"arthritis_risk":5,"migraine_risk":3,"frizz_risk":1,"updated_at":"2026-07-04T13:18:42.620272+05:30"},{"city":"Belgaum","state":"Karnataka","latitude":15.8497,"longitude":74.4977,"temp":22.2,"humidity":93,"rain":0.1,"pressure":922.8,"uv_index":2.0,"wind_gusts":60.1,"aqi":22,"pm10":2.7,"pm2_5":1.9,"no2":2.8,"co":102.0,"o3":49.0,"so2":0.9,"mosquito_risk":6,"arthritis_risk":5,"migraine_risk":3,"frizz_risk":1,"updated_at":"2026-07-04T13:18:46.006134+05:30"},{"city":"Coimbatore","state":"Tamil Nadu","latitude":11.0168,"longitude":76.9558,"temp":25.0,"humidity":86,"rain":0.0,"pressure":961.0,"uv_index":5.5,"wind_gusts":51.8,"aqi":21,"pm10":12.0,"pm2_5":5.4,"no2":1.5,"co":143.0,"o3":61.0,"so2":1.4,"mosquito_risk":7,"arthritis_risk":5,"migraine_risk":3,"frizz_risk":1,"updated_at":"2026-07-04T13:18:46.006168+05:30"},{"city":"Madurai","state":"Tamil Nadu","latitude":9.9252,"longitude":78.1198,"temp":31.7,"humidity":53,"rain":0.0,"pressure":992.1,"uv_index":2.15,"wind_gusts":46.1,"aqi":23,"pm10":10.5,"pm2_5":6.0,"no2":1.8,"co":113.0,"o3":84.0,"so2":2.0,"mosquito_risk":0,"arthritis_risk":5,"migraine_risk":3,"frizz_risk":1,"updated_at":"2026-07-04T13:18:46.006179+05:30"},{"city":"Trichy","state":"Tamil Nadu","latitude":10.7905,"longitude":78.7047,"temp":28.3,"humidity":77,"rain":0.1,"pressure":998.6,"uv_index":5.25,"wind_gusts":53.3,"aqi":22,"pm10":11.0,"pm2_5":5.9,"no2":1.8,"co":101.0,"o3":70.0,"so2":1.8,"mosquito_risk":10,"arthritis_risk":5,"migraine_risk":3,"frizz_risk":1,"updated_at":"2026-07-04T13:18:46.006188+05:30"},{"city":"Salem","state":"Tamil Nadu","latitude":11.6643,"longitude":78.146,"temp":29.9,"humidity":64,"rain":0.0,"pressure":976.0,"uv_index":7.25,"wind_gusts":38.9,"aqi":32,"pm10":11.1,"pm2_5":6.6,"no2":2.1,"co":130.0,"o3":90.0,"so2":5.2,"mosquito_risk":7,"arthritis_risk":5,"migraine_risk":7,"frizz_risk":1,"updated_at":"2026-07-04T13:18:46.006197+05:30"},{"city":"Tirunelveli","state":"Tamil Nadu","latitude":8.7139,"longitude":77.7567,"temp":32.8,"humidity":48,"rain":0.0,"pressure":1003.1,"uv_index":3.25,"wind_gusts":47.9,"aqi":28,"pm10":8.0,"pm2_5":4.2,"no2":1.1,"co":106.0,"o3":63.0,"so2":0.8,"mosquito_risk":0,"arthritis_risk":5,"migraine_risk":0,"frizz_risk":1,"updated_at":"2026-07-04T13:18:46.006207+05:30"},{"city":"Vellore","state":"Tamil Nadu","latitude":12.9165,"longitude":79.1325,"temp":30.0,"humidity":62,"rain":0.0,"pressure":981.4,"uv_index":2.85,"wind_gusts":51.5,"aqi":24,"pm10":5.9,"pm2_5":3.6,"no2":1.8,"co":119.0,"o3":70.0,"so2":1.8,"mosquito_risk":7,"arthritis_risk":5,"migraine_risk":3,"frizz_risk":1,"updated_at":"2026-07-04T13:18:46.006215+05:30"},{"city":"Erode","state":"Tamil Nadu","latitude":11.341,"longitude":77.7172,"temp":33.5,"humidity":49,"rain":0.0,"pressure":987.7,"uv_index":6.6,"wind_gusts":53.3,"aqi":25,"pm10":9.1,"pm2_5":5.0,"no2":1.6,"co":140.0,"o3":77.0,"so2":1.6,"mosquito_risk":0,"arthritis_risk":5,"migraine_risk":7,"frizz_risk":1,"updated_at":"2026-07-04T13:18:46.006223+05:30"},{"city":"Kochi","state":"Kerala","latitude":9.9312,"longitude":76.2673,"temp":26.8,"humidity":83,"rain":0.2,"pressure":1010.8,"uv_index":6.65,"wind_gusts":46.4,"aqi":41,"pm10":14.7,"pm2_5":8.2,"no2":2.5,"co":108.0,"o3":59.0,"so2":2.3,"mosquito_risk":10,"arthritis_risk":0,"migraine_risk":4,"frizz_risk":1,"updated_at":"2026-07-04T13:18:46.006232+05:30"},{"city":"Thiruvananthapuram","state":"Kerala","latitude":8.5241,"longitude":76.9366,"temp":25.8,"humidity":91,"rain":0.0,"pressure":1010.0,"uv_index":7.85,"wind_gusts":45.7,"aqi":39,"pm10":14.3,"pm2_5":7.3,"no2":1.0,"co":97.0,"o3":57.0,"so2":0.7,"mosquito_risk":7,"arthritis_risk":0,"migraine_risk":4,"frizz_risk":1,"updated_at":"2026-07-04T13:18:46.006240+05:30"},{"city":"Kozhikode","state":"Kerala","latitude":11.2588,"longitude":75.7804,"temp":26.0,"humidity":88,"rain":0.1,"pressure":1009.7,"uv_index":4.55,"wind_gusts":33.8,"aqi":30,"pm10":16.2,"pm2_5":7.5,"no2":0.6,"co":106.0,"o3":58.0,"so2":0.7,"mosquito_risk":10,"arthritis_risk":0,"migraine_risk":0,"frizz_risk":1,"updated_at":"2026-07-04T13:18:46.006247+05:30"},{"city":"Thrissur","state":"Kerala","latitude":10.5276,"longitude":76.2144,"temp":25.5,"humidity":93,"rain":0.1,"pressure":1008.8,"uv_index":8.1,"wind_gusts":42.1,"aqi":36,"pm10":12.7,"pm2_5":6.7,"no2":1.4,"co":109.0,"o3":56.0,"so2":1.3,"mosquito_risk":10,"arthritis_risk":0,"migraine_risk":4,"frizz_risk":1,"updated_at":"2026-07-04T13:18:46.006256+05:30"},{"city":"Kannur","state":"Kerala","latitude":11.8745,"longitude":75.3704,"temp":24.8,"humidity":96,"rain":0.3,"pressure":1008.9,"uv_index":8.2,"wind_gusts":37.8,"aqi":32,"pm10":15.3,"pm2_5":7.6,"no2":1.3,"co":102.0,"o3":56.0,"so2":0.9,"mosquito_risk":6,"arthritis_risk":0,"migraine_risk":4,"frizz_risk":1,"updated_at":"2026-07-04T13:18:46.006264+05:30"},{"city":"Patna","state":"Bihar","latitude":25.5941,"longitude":85.1376,"temp":34.5,"humidity":60,"rain":0.0,"pressure":990.7,"uv_index":8.5,"wind_gusts":35.6,"aqi":76,"pm10":16.8,"pm2_5":16.6,"no2":1.8,"co":221.0,"o3":158.0,"so2":8.3,"mosquito_risk":0,"arthritis_risk":5,"migraine_risk":7,"frizz_risk":1,"updated_at":"2026-07-04T13:18:46.006271+05:30"},{"city":"Gaya","state":"Bihar","latitude":24.7914,"longitude":85.0002,"temp":35.3,"humidity":52,"rain":0.0,"pressure":983.6,"uv_index":8.5,"wind_gusts":36.7,"aqi":61,"pm10":9.1,"pm2_5":8.4,"no2":1.1,"co":181.0,"o3":112.0,"so2":4.0,"mosquito_risk":0,"arthritis_risk":5,"migraine_risk":10,"frizz_risk":1,"updated_at":"2026-07-04T13:18:46.006279+05:30"},{"city":"Muzaffarpur","state":"Bihar","latitude":26.1209,"longitude":85.3647,"temp":34.3,"humidity":64,"rain":0.0,"pressure":991.0,"uv_index":8.1,"wind_gusts":34.2,"aqi":83,"pm10":17.3,"pm2_5":17.2,"no2":1.9,"co":226.0,"o3":166.0,"so2":7.4,"mosquito_risk":3,"arthritis_risk":5,"migraine_risk":7,"frizz_risk":1,"updated_at":"2026-07-04T13:18:46.006286+05:30"},{"city":"Bhagalpur","state":"Bihar","latitude":25.2425,"longitude":87.0117,"temp":34.8,"humidity":59,"rain":0.0,"pressure":991.4,"uv_index":7.6,"wind_gusts":38.5,"aqi":63,"pm10":10.3,"pm2_5":9.9,"no2":2.0,"co":155.0,"o3":128.0,"so2":8.2,"mosquito_risk":0,"arthritis_risk":5,"migraine_risk":7,"frizz_risk":1,"updated_at":"2026-07-04T13:18:46.006294+05:30"},{"city":"Ranchi","state":"Jharkhand","latitude":23.3441,"longitude":85.3096,"temp":26.8,"humidity":83,"rain":0.1,"pressure":928.3,"uv_index":7.15,"wind_gusts":50.0,"aqi":70,"pm10":12.5,"pm2_5":12.2,"no2":4.5,"co":229.0,"o3":95.0,"so2":17.8,"mosquito_risk":10,"arthritis_risk":5,"migraine_risk":7,"frizz_risk":1,"updated_at":"2026-07-04T13:18:46.006303+05:30"},{"city":"Jamshedpur","state":"Jharkhand","latitude":22.8046,"longitude":86.2029,"temp":29.1,"humidity":78,"rain":0.1,"pressure":979.4,"uv_index":7.1,"wind_gusts":46.1,"aqi":61,"pm10":9.8,"pm2_5":9.5,"no2":3.1,"co":167.0,"o3":95.0,"so2":6.1,"mosquito_risk":10,"arthritis_risk":5,"migraine_risk":7,"frizz_risk":1,"updated_at":"2026-07-04T13:18:46.006310+05:30"},{"city":"Dhanbad","state":"Jharkhand","latitude":23.7957,"longitude":86.4304,"temp":31.5,"humidity":68,"rain":0.0,"pressure":969.5,"uv_index":6.2,"wind_gusts":52.6,"aqi":88,"pm10":12.8,"pm2_5":12.4,"no2":7.5,"co":167.0,"o3":97.0,"so2":23.4,"mosquito_risk":3,"arthritis_risk":5,"migraine_risk":7,"frizz_risk":1,"updated_at":"2026-07-04T13:18:46.006318+05:30"},{"city":"Bokaro","state":"Jharkhand","latitude":23.6693,"longitude":86.1511,"temp":31.1,"humidity":70,"rain":0.0,"pressure":973.2,"uv_index":5.1,"wind_gusts":51.8,"aqi":95,"pm10":13.2,"pm2_5":12.7,"no2":8.0,"co":178.0,"o3":97.0,"so2":26.6,"mosquito_risk":3,"arthritis_risk":5,"migraine_risk":3,"frizz_risk":1,"updated_at":"2026-07-04T13:18:46.006325+05:30"},{"city":"Bhubaneswar","state":"Odisha","latitude":20.2961,"longitude":85.8245,"temp":28.7,"humidity":87,"rain":0.0,"pressure":988.8,"uv_index":2.95,"wind_gusts":34.9,"aqi":81,"pm10":8.9,"pm2_5":8.7,"no2":3.2,"co":213.0,"o3":87.0,"so2":3.7,"mosquito_risk":7,"arthritis_risk":5,"migraine_risk":3,"frizz_risk":1,"updated_at":"2026-07-04T13:18:46.006333+05:30"},{"city":"Cuttack","state":"Odisha","latitude":20.4625,"longitude":85.8828,"temp":30.4,"humidity":76,"rain":0.0,"pressure":990.5,"uv_index":2.3,"wind_gusts":32.4,"aqi":81,"pm10":8.9,"pm2_5":8.7,"no2":3.2,"co":216.0,"o3":87.0,"so2":3.7,"mosquito_risk":3,"arthritis_risk":5,"migraine_risk":3,"frizz_risk":1,"updated_at":"2026-07-04T13:18:46.006341+05:30"},{"city":"Rourkela","state":"Odisha","latitude":22.2604,"longitude":84.8536,"temp":27.9,"humidity":85,"rain":0.2,"pressure":973.8,"uv_index":6.7,"wind_gusts":49.7,"aqi":66,"pm10":9.5,"pm2_5":9.3,"no2":2.5,"co":193.0,"o3":104.0,"so2":9.8,"mosquito_risk":10,"arthritis_risk":5,"migraine_risk":7,"frizz_risk":1,"updated_at":"2026-07-04T13:18:46.006349+05:30"},{"city":"Raipur","state":"Chhattisgarh","latitude":21.2514,"longitude":81.6296,"temp":31.8,"humidity":66,"rain":0.0,"pressure":964.5,"uv_index":6.7,"wind_gusts":37.1,"aqi":72,"pm10":26.6,"pm2_5":26.4,"no2":12.1,"co":224.0,"o3":139.0,"so2":44.4,"mosquito_risk":3,"arthritis_risk":5,"migraine_risk":7,"frizz_risk":1,"updated_at":"2026-07-04T13:18:46.006356+05:30"},{"city":"Bhilai","state":"Chhattisgarh","latitude":21.1938,"longitude":81.3509,"temp":31.8,"humidity":66,"rain":0.1,"pressure":964.8,"uv_index":6.65,"wind_gusts":29.9,"aqi":64,"pm10":30.3,"pm2_5":30.0,"no2":19.1,"co":217.0,"o3":131.0,"so2":62.0,"mosquito_risk":6,"arthritis_risk":5,"migraine_risk":7,"frizz_risk":1,"updated_at":"2026-07-04T13:18:46.006364+05:30"},{"city":"Guwahati","state":"Assam","latitude":26.1158,"longitude":91.7086,"temp":35.2,"humidity":58,"rain":0.0,"pressure":991.3,"uv_index":8.7,"wind_gusts":31.7,"aqi":44,"pm10":6.3,"pm2_5":6.2,"no2":1.1,"co":188.0,"o3":107.0,"so2":1.2,"mosquito_risk":0,"arthritis_risk":5,"migraine_risk":10,"frizz_risk":1,"updated_at":"2026-07-04T13:18:46.006371+05:30"},{"city":"Agartala","state":"Tripura","latitude":23.8315,"longitude":91.2868,"temp":33.0,"humidity":67,"rain":0.0,"pressure":996.2,"uv_index":8.55,"wind_gusts":35.6,"aqi":52,"pm10":7.1,"pm2_5":7.1,"no2":2.4,"co":128.0,"o3":126.0,"so2":0.8,"mosquito_risk":3,"arthritis_risk":5,"migraine_risk":7,"frizz_risk":1,"updated_at":"2026-07-04T13:18:46.006379+05:30"},{"city":"Shillong","state":"Meghalaya","latitude":25.5788,"longitude":91.8933,"temp":24.2,"humidity":82,"rain":0.1,"pressure":852.8,"uv_index":8.3,"wind_gusts":32.8,"aqi":31,"pm10":3.7,"pm2_5":3.7,"no2":0.6,"co":141.0,"o3":84.0,"so2":0.9,"mosquito_risk":6,"arthritis_risk":5,"migraine_risk":7,"frizz_risk":1,"updated_at":"2026-07-04T13:18:46.006386+05:30"},{"city":"Imphal","state":"Manipur","latitude":24.817,"longitude":93.9368,"temp":27.2,"humidity":74,"rain":0.1,"pressure":917.8,"uv_index":6.95,"wind_gusts":26.3,"aqi":32,"pm10":1.5,"pm2_5":1.5,"no2":0.8,"co":161.0,"o3":69.0,"so2":0.7,"mosquito_risk":10,"arthritis_risk":5,"migraine_risk":7,"frizz_risk":1,"updated_at":"2026-07-04T13:18:46.006393+05:30"},{"city":"Aizawl","state":"Mizoram","latitude":23.7271,"longitude":92.7176,"temp":24.4,"humidity":88,"rain":0.2,"pressure":885.7,"uv_index":8.15,"wind_gusts":24.5,"aqi":32,"pm10":4.0,"pm2_5":3.7,"no2":0.8,"co":135.0,"o3":73.0,"so2":0.5,"mosquito_risk":6,"arthritis_risk":5,"migraine_risk":7,"frizz_risk":1,"updated_at":"2026-07-04T13:18:46.006401+05:30"},{"city":"Kohima","state":"Nagaland","latitude":25.6701,"longitude":94.1077,"temp":27.0,"humidity":65,"rain":0.0,"pressure":851.8,"uv_index":9.1,"wind_gusts":27.4,"aqi":31,"pm10":3.0,"pm2_5":3.0,"no2":0.6,"co":138.0,"o3":82.0,"so2":0.4,"mosquito_risk":7,"arthritis_risk":5,"migraine_risk":7,"frizz_risk":1,"updated_at":"2026-07-04T13:18:46.006408+05:30"},{"city":"Gangtok","state":"Sikkim","latitude":27.3314,"longitude":88.6138,"temp":25.4,"humidity":59,"rain":0.1,"pressure":835.4,"uv_index":8.85,"wind_gusts":32.0,"aqi":47,"pm10":7.6,"pm2_5":7.0,"no2":0.8,"co":188.0,"o3":117.0,"so2":0.8,"mosquito_risk":7,"arthritis_risk":5,"migraine_risk":7,"frizz_risk":1,"updated_at":"2026-07-04T13:18:46.006416+05:30"},{"city":"Siliguri","state":"West Bengal","latitude":26.7271,"longitude":88.3953,"temp":33.5,"humidity":66,"rain":0.0,"pressure":984.3,"uv_index":8.7,"wind_gusts":28.1,"aqi":68,"pm10":14.2,"pm2_5":13.5,"no2":1.3,"co":240.0,"o3":128.0,"so2":1.8,"mosquito_risk":3,"arthritis_risk":5,"migraine_risk":7,"frizz_risk":1,"updated_at":"2026-07-04T13:18:49.418841+05:30"},{"city":"Durgapur","state":"West Bengal","latitude":23.5204,"longitude":87.3119,"temp":33.2,"humidity":64,"rain":0.1,"pressure":983.6,"uv_index":6.95,"wind_gusts":55.4,"aqi":68,"pm10":9.1,"pm2_5":8.8,"no2":5.9,"co":187.0,"o3":102.0,"so2":13.8,"mosquito_risk":6,"arthritis_risk":5,"migraine_risk":7,"frizz_risk":1,"updated_at":"2026-07-04T13:18:49.418873+05:30"},{"city":"Asansol","state":"West Bengal","latitude":23.6739,"longitude":86.9524,"temp":32.7,"humidity":66,"rain":0.0,"pressure":982.5,"uv_index":7.25,"wind_gusts":49.3,"aqi":69,"pm10":10.3,"pm2_5":10.0,"no2":5.6,"co":182.0,"o3":103.0,"so2":13.8,"mosquito_risk":3,"arthritis_risk":5,"migraine_risk":7,"frizz_risk":1,"updated_at":"2026-07-04T13:18:49.418884+05:30"},{"city":"Pondicherry","state":"Puducherry","latitude":11.9139,"longitude":79.8145,"temp":29.7,"humidity":68,"rain":0.0,"pressure":1006.1,"uv_index":6.25,"wind_gusts":45.0,"aqi":47,"pm10":10.4,"pm2_5":8.0,"no2":9.4,"co":131.0,"o3":59.0,"so2":15.4,"mosquito_risk":7,"arthritis_risk":5,"migraine_risk":4,"frizz_risk":1,"updated_at":"2026-07-04T13:18:49.418893+05:30"},{"city":"Port Blair","state":"Andaman and Nicobar Islands","latitude":11.6234,"longitude":92.7265,"temp":29.6,"humidity":74,"rain":0.1,"pressure":1005.1,"uv_index":4.8,"wind_gusts":51.5,"aqi":49,"pm10":31.8,"pm2_5":15.2,"no2":0.2,"co":92.0,"o3":46.0,"so2":0.4,"mosquito_risk":10,"arthritis_risk":5,"migraine_risk":0,"frizz_risk":1,"updated_at":"2026-07-04T13:18:49.418902+05:30"},{"city":"Haridwar","state":"Uttarakhand","latitude":29.9457,"longitude":78.1642,"temp":34.6,"humidity":56,"rain":0.0,"pressure":966.9,"uv_index":6.55,"wind_gusts":21.6,"aqi":82,"pm10":19.3,"pm2_5":19.2,"no2":1.4,"co":341.0,"o3":162.0,"so2":8.6,"mosquito_risk":0,"arthritis_risk":5,"migraine_risk":7,"frizz_risk":1,"updated_at":"2026-07-04T13:18:49.418911+05:30"},{"city":"Rishikesh","state":"Uttarakhand","latitude":30.0869,"longitude":78.2676,"temp":32.9,"humidity":62,"rain":0.1,"pressure":959.9,"uv_index":6.7,"wind_gusts":19.1,"aqi":57,"pm10":14.6,"pm2_5":14.5,"no2":0.8,"co":304.0,"o3":144.0,"so2":6.1,"mosquito_risk":6,"arthritis_risk":5,"migraine_risk":7,"frizz_risk":1,"updated_at":"2026-07-04T13:18:49.418918+05:30"},{"city":"Nainital","state":"Uttarakhand","latitude":29.3919,"longitude":79.4542,"temp":24.3,"humidity":67,"rain":0.1,"pressure":804.8,"uv_index":6.65,"wind_gusts":28.4,"aqi":62,"pm10":12.9,"pm2_5":12.6,"no2":0.9,"co":245.0,"o3":130.0,"so2":1.7,"mosquito_risk":6,"arthritis_risk":5,"migraine_risk":7,"frizz_risk":1,"updated_at":"2026-07-04T13:18:49.418926+05:30"},{"city":"Mussoorie","state":"Uttarakhand","latitude":30.4599,"longitude":78.0664,"temp":20.5,"humidity":90,"rain":0.0,"pressure":801.3,"uv_index":6.25,"wind_gusts":32.4,"aqi":53,"pm10":12.0,"pm2_5":11.9,"no2":1.1,"co":263.0,"o3":147.0,"so2":4.5,"mosquito_risk":3,"arthritis_risk":5,"migraine_risk":7,"frizz_risk":1,"updated_at":"2026-07-04T13:18:49.418934+05:30"},{"city":"Dharamshala","state":"Himachal Pradesh","latitude":32.219,"longitude":76.3234,"temp":26.7,"humidity":64,"rain":0.0,"pressure":866.5,"uv_index":8.4,"wind_gusts":31.0,"aqi":46,"pm10":6.8,"pm2_5":6.1,"no2":1.0,"co":312.0,"o3":134.0,"so2":0.8,"mosquito_risk":7,"arthritis_risk":5,"migraine_risk":7,"frizz_risk":1,"updated_at":"2026-07-04T13:18:49.418941+05:30"},{"city":"Dalhousie","state":"Himachal Pradesh","latitude":32.5387,"longitude":75.971,"temp":20.9,"humidity":95,"rain":0.0,"pressure":803.3,"uv_index":8.45,"wind_gusts":28.8,"aqi":61,"pm10":18.0,"pm2_5":16.4,"no2":1.4,"co":290.0,"o3":180.0,"so2":2.7,"mosquito_risk":3,"arthritis_risk":5,"migraine_risk":7,"frizz_risk":1,"updated_at":"2026-07-04T13:18:49.418949+05:30"},{"city":"Patiala","state":"Punjab","latitude":30.3398,"longitude":76.3869,"temp":28.9,"humidity":89,"rain":0.3,"pressure":971.6,"uv_index":7.15,"wind_gusts":18.0,"aqi":111,"pm10":38.1,"pm2_5":34.5,"no2":2.4,"co":379.0,"o3":202.0,"so2":13.2,"mosquito_risk":10,"arthritis_risk":5,"migraine_risk":7,"frizz_risk":1,"updated_at":"2026-07-04T13:18:49.418956+05:30"},{"city":"Bhatinda","state":"Punjab","latitude":30.211,"longitude":74.9455,"temp":36.3,"humidity":48,"rain":0.0,"pressure":976.2,"uv_index":8.05,"wind_gusts":29.9,"aqi":113,"pm10":100.8,"pm2_5":53.9,"no2":3.3,"co":337.0,"o3":235.0,"so2":28.0,"mosquito_risk":0,"arthritis_risk":5,"migraine_risk":10,"frizz_risk":1,"updated_at":"2026-07-04T13:18:49.418964+05:30"},{"city":"Rohtak","state":"Haryana","latitude":28.8955,"longitude":76.6066,"temp":35.2,"humidity":56,"rain":0.0,"pressure":974.1,"uv_index":6.75,"wind_gusts":31.7,"aqi":153,"pm10":145.3,"pm2_5":43.4,"no2":3.9,"co":450.0,"o3":206.0,"so2":19.2,"mosquito_risk":0,"arthritis_risk":5,"migraine_risk":10,"frizz_risk":1,"updated_at":"2026-07-04T13:18:49.418971+05:30"},{"city":"Panipat","state":"Haryana","latitude":29.3909,"longitude":76.9635,"temp":29.4,"humidity":82,"rain":0.0,"pressure":973.7,"uv_index":6.5,"wind_gusts":30.6,"aqi":153,"pm10":133.2,"pm2_5":43.9,"no2":3.6,"co":395.0,"o3":209.0,"so2":22.9,"mosquito_risk":7,"arthritis_risk":5,"migraine_risk":7,"frizz_risk":1,"updated_at":"2026-07-04T13:18:49.418977+05:30"},{"city":"Mathura","state":"Uttar Pradesh","latitude":27.4924,"longitude":77.6737,"temp":35.1,"humidity":57,"rain":0.0,"pressure":978.5,"uv_index":6.7,"wind_gusts":22.3,"aqi":107,"pm10":27.9,"pm2_5":24.0,"no2":1.7,"co":299.0,"o3":172.0,"so2":4.0,"mosquito_risk":0,"arthritis_risk":5,"migraine_risk":10,"frizz_risk":1,"updated_at":"2026-07-04T13:18:49.418985+05:30"},{"city":"Vrindavan","state":"Uttar Pradesh","latitude":27.5823,"longitude":77.7027,"temp":35.3,"humidity":57,"rain":0.0,"pressure":979.0,"uv_index":7.7,"wind_gusts":24.1,"aqi":107,"pm10":27.9,"pm2_5":24.0,"no2":1.7,"co":300.0,"o3":172.0,"so2":4.0,"mosquito_risk":0,"arthritis_risk":5,"migraine_risk":10,"frizz_risk":1,"updated_at":"2026-07-04T13:18:49.418991+05:30"},{"city":"Ayodhya","state":"Uttar Pradesh","latitude":26.7922,"longitude":82.1998,"temp":35.3,"humidity":60,"rain":0.0,"pressure":986.2,"uv_index":7.45,"wind_gusts":26.6,"aqi":96,"pm10":23.1,"pm2_5":22.4,"no2":1.2,"co":277.0,"o3":152.0,"so2":6.7,"mosquito_risk":0,"arthritis_risk":5,"migraine_risk":10,"frizz_risk":1,"updated_at":"2026-07-04T13:18:49.418999+05:30"},{"city":"Ratlam","state":"Madhya Pradesh","latitude":23.3315,"longitude":75.0367,"temp":30.7,"humidity":63,"rain":0.0,"pressure":947.3,"uv_index":6.1,"wind_gusts":28.8,"aqi":43,"pm10":46.7,"pm2_5":17.2,"no2":1.5,"co":159.0,"o3":81.0,"so2":3.4,"mosquito_risk":3,"arthritis_risk":5,"migraine_risk":7,"frizz_risk":1,"updated_at":"2026-07-04T13:18:49.419006+05:30"},{"city":"Sagar","state":"Madhya Pradesh","latitude":23.8388,"longitude":78.7378,"temp":32.1,"humidity":63,"rain":0.1,"pressure":941.7,"uv_index":8.0,"wind_gusts":25.6,"aqi":58,"pm10":21.5,"pm2_5":21.3,"no2":1.1,"co":232.0,"o3":141.0,"so2":14.2,"mosquito_risk":6,"arthritis_risk":5,"migraine_risk":7,"frizz_risk":1,"updated_at":"2026-07-04T13:18:49.419013+05:30"},{"city":"Satna","state":"Madhya Pradesh","latitude":24.6005,"longitude":80.8322,"temp":34.6,"humidity":57,"rain":0.0,"pressure":961.9,"uv_index":7.0,"wind_gusts":47.2,"aqi":71,"pm10":20.6,"pm2_5":20.1,"no2":1.2,"co":206.0,"o3":153.0,"so2":8.8,"mosquito_risk":0,"arthritis_risk":5,"migraine_risk":7,"frizz_risk":1,"updated_at":"2026-07-04T13:18:49.419020+05:30"},{"city":"Akola","state":"Maharashtra","latitude":20.7002,"longitude":77.0082,"temp":28.2,"humidity":78,"rain":0.0,"pressure":967.5,"uv_index":5.2,"wind_gusts":38.2,"aqi":21,"pm10":2.1,"pm2_5":2.0,"no2":5.4,"co":149.0,"o3":60.0,"so2":5.9,"mosquito_risk":7,"arthritis_risk":5,"migraine_risk":3,"frizz_risk":1,"updated_at":"2026-07-04T13:18:49.419028+05:30"},{"city":"Amravati","state":"Maharashtra","latitude":20.9374,"longitude":77.7796,"temp":29.8,"humidity":68,"rain":0.1,"pressure":959.2,"uv_index":7.1,"wind_gusts":38.5,"aqi":22,"pm10":2.6,"pm2_5":2.4,"no2":5.0,"co":196.0,"o3":63.0,"so2":7.3,"mosquito_risk":10,"arthritis_risk":5,"migraine_risk":7,"frizz_risk":1,"updated_at":"2026-07-04T13:18:49.419035+05:30"},{"city":"Latur","state":"Maharashtra","latitude":18.4088,"longitude":76.5604,"temp":25.0,"humidity":85,"rain":0.0,"pressure":934.1,"uv_index":2.3,"wind_gusts":46.4,"aqi":22,"pm10":2.4,"pm2_5":1.8,"no2":1.3,"co":126.0,"o3":59.0,"so2":0.9,"mosquito_risk":7,"arthritis_risk":5,"migraine_risk":3,"frizz_risk":1,"updated_at":"2026-07-04T13:18:49.419043+05:30"},{"city":"Nanded","state":"Maharashtra","latitude":19.1383,"longitude":77.3091,"temp":27.3,"humidity":77,"rain":0.0,"pressure":961.9,"uv_index":1.5,"wind_gusts":42.1,"aqi":20,"pm10":3.9,"pm2_5":3.8,"no2":3.3,"co":155.0,"o3":60.0,"so2":3.1,"mosquito_risk":7,"arthritis_risk":5,"migraine_risk":3,"frizz_risk":1,"updated_at":"2026-07-04T13:18:49.419050+05:30"},{"city":"Gulbarga","state":"Karnataka","latitude":17.3297,"longitude":76.8343,"temp":25.2,"humidity":90,"rain":0.1,"pressure":953.8,"uv_index":1.45,"wind_gusts":59.4,"aqi":22,"pm10":2.9,"pm2_5":2.0,"no2":1.8,"co":132.0,"o3":64.0,"so2":1.7,"mosquito_risk":10,"arthritis_risk":5,"migraine_risk":3,"frizz_risk":1,"updated_at":"2026-07-04T13:18:49.419057+05:30"},{"city":"Bidar","state":"Karnataka","latitude":17.9104,"longitude":77.5199,"temp":25.0,"humidity":85,"rain":0.0,"pressure":929.7,"uv_index":1.15,"wind_gusts":56.5,"aqi":22,"pm10":2.6,"pm2_5":2.1,"no2":1.7,"co":126.0,"o3":66.0,"so2":1.3,"mosquito_risk":7,"arthritis_risk":5,"migraine_risk":3,"frizz_risk":1,"updated_at":"2026-07-04T13:18:49.419063+05:30"},{"city":"Hospet","state":"Karnataka","latitude":15.2689,"longitude":76.3909,"temp":26.4,"humidity":72,"rain":0.1,"pressure":953.0,"uv_index":1.5,"wind_gusts":72.4,"aqi":22,"pm10":2.2,"pm2_5":1.7,"no2":2.1,"co":106.0,"o3":59.0,"so2":1.5,"mosquito_risk":10,"arthritis_risk":5,"migraine_risk":3,"frizz_risk":1,"updated_at":"2026-07-04T13:18:49.419070+05:30"},{"city":"Tirupur","state":"Tamil Nadu","latitude":11.1085,"longitude":77.3411,"temp":29.0,"humidity":65,"rain":0.0,"pressure":974.1,"uv_index":7.75,"wind_gusts":64.1,"aqi":26,"pm10":9.8,"pm2_5":5.4,"no2":1.8,"co":123.0,"o3":73.0,"so2":2.0,"mosquito_risk":7,"arthritis_risk":5,"migraine_risk":7,"frizz_risk":1,"updated_at":"2026-07-04T13:18:49.419077+05:30"},{"city":"Alappuzha","state":"Kerala","latitude":9.4981,"longitude":76.3388,"temp":26.7,"humidity":85,"rain":0.1,"pressure":1010.8,"uv_index":6.8,"wind_gusts":47.2,"aqi":40,"pm10":15.3,"pm2_5":8.4,"no2":2.6,"co":87.0,"o3":58.0,"so2":1.8,"mosquito_risk":10,"arthritis_risk":0,"migraine_risk":4,"frizz_risk":1,"updated_at":"2026-07-04T13:18:49.419084+05:30"},{"city":"Munnar","state":"Kerala","latitude":10.0889,"longitude":77.0595,"temp":17.7,"humidity":96,"rain":0.5,"pressure":857.0,"uv_index":4.85,"wind_gusts":54.7,"aqi":17,"pm10":4.1,"pm2_5":2.9,"no2":1.7,"co":101.0,"o3":56.0,"so2":1.0,"mosquito_risk":6,"arthritis_risk":10,"migraine_risk":3,"frizz_risk":1,"updated_at":"2026-07-04T13:18:49.419091+05:30"},{"city":"Silchar","state":"Assam","latitude":24.8333,"longitude":92.7789,"temp":34.3,"humidity":63,"rain":0.0,"pressure":994.8,"uv_index":8.8,"wind_gusts":34.6,"aqi":55,"pm10":4.3,"pm2_5":4.2,"no2":0.9,"co":175.0,"o3":88.0,"so2":1.0,"mosquito_risk":3,"arthritis_risk":5,"migraine_risk":7,"frizz_risk":1,"updated_at":"2026-07-04T13:18:49.419098+05:30"},{"city":"Dibrugarh","state":"Assam","latitude":27.4728,"longitude":94.912,"temp":35.2,"humidity":58,"rain":0.0,"pressure":985.9,"uv_index":8.9,"wind_gusts":24.1,"aqi":56,"pm10":7.1,"pm2_5":6.9,"no2":1.1,"co":170.0,"o3":115.0,"so2":1.2,"mosquito_risk":0,"arthritis_risk":5,"migraine_risk":10,"frizz_risk":1,"updated_at":"2026-07-04T13:18:49.419105+05:30"}]