[{"city":"Delhi","state":"Delhi","latitude":28.6139,"longitude":77.209,"temp":33.6,"humidity":59,"rain":0.0,"pressure":977.1,"uv_index":7.65,"wind_gusts":34.2,"aqi":328,"pm10":774.9,"pm2_5":179.7,"no2":57.1,"co":1172.0,"o3":36.0,"so2":21.2,"mosquito_risk":0,"arthritis_risk":5,"migraine_risk":7,"frizz_risk":1,"updated_at":"2026-07-16T20:33:28.716524+05:30"},{"city":"Mumbai","state":"Maharashtra","latitude":19.076,"longitude":72.8777,"temp":27.8,"humidity":81,"rain":0.0,"pressure":1007.3,"uv_index":7.45,"wind_gusts":34.6,"aqi":69,"pm10":29.8,"pm2_5":16.5,"no2":15.5,"co":280.0,"o3":35.0,"so2":11.4,"mosquito_risk":7,"arthritis_risk":5,"migraine_risk":4,"frizz_risk":1,"updated_at":"2026-07-16T20:33:28.716565+05:30"},{"city":"Bangalore","state":"Karnataka","latitude":12.9716,"longitude":77.5946,"temp":24.9,"humidity":63,"rain":0.0,"pressure":912.6,"uv_index":8.9,"wind_gusts":41.8,"aqi":65,"pm10":24.0,"pm2_5":16.0,"no2":21.8,"co":439.0,"o3":52.0,"so2":6.0,"mosquito_risk":3,"arthritis_risk":5,"migraine_risk":7,"frizz_risk":1,"updated_at":"2026-07-16T20:33:28.716581+05:30"},{"city":"Hyderabad","state":"Telangana","latitude":17.385,"longitude":78.4867,"temp":28.7,"humidity":56,"rain":0.0,"pressure":952.0,"uv_index":8.3,"wind_gusts":47.9,"aqi":62,"pm10":46.4,"pm2_5":27.7,"no2":29.9,"co":337.0,"o3":41.0,"so2":8.2,"mosquito_risk":4,"arthritis_risk":5,"migraine_risk":7,"frizz_risk":1,"updated_at":"2026-07-16T20:33:28.716590+05:30"},{"city":"Chennai","state":"Tamil Nadu","latitude":13.0827,"longitude":80.2707,"temp":31.9,"humidity":57,"rain":0.0,"pressure":1005.6,"uv_index":7.9,"wind_gusts":42.8,"aqi":103,"pm10":41.8,"pm2_5":28.9,"no2":12.3,"co":291.0,"o3":123.0,"so2":9.1,"mosquito_risk":0,"arthritis_risk":5,"migraine_risk":4,"frizz_risk":1,"updated_at":"2026-07-16T20:33:28.716599+05:30"},{"city":"Kolkata","state":"West Bengal","latitude":22.5726,"longitude":88.3639,"temp":28.1,"humidity":84,"rain":0.0,"pressure":999.8,"uv_index":8.05,"wind_gusts":35.3,"aqi":62,"pm10":23.1,"pm2_5":18.7,"no2":8.4,"co":921.0,"o3":91.0,"so2":7.3,"mosquito_risk":7,"arthritis_risk":5,"migraine_risk":7,"frizz_risk":1,"updated_at":"2026-07-16T20:33:28.716607+05:30"},{"city":"Pune","state":"Maharashtra","latitude":18.5204,"longitude":73.8567,"temp":23.8,"humidity":85,"rain":0.0,"pressure":947.2,"uv_index":7.5,"wind_gusts":45.0,"aqi":50,"pm10":11.8,"pm2_5":7.6,"no2":11.6,"co":201.0,"o3":37.0,"so2":7.1,"mosquito_risk":3,"arthritis_risk":5,"migraine_risk":7,"frizz_risk":1,"updated_at":"2026-07-16T20:33:28.716614+05:30"},{"city":"Ahmedabad","state":"Gujarat","latitude":23.0225,"longitude":72.5714,"temp":29.6,"humidity":74,"rain":0.0,"pressure":999.0,"uv_index":7.0,"wind_gusts":40.0,"aqi":82,"pm10":48.0,"pm2_5":24.4,"no2":15.4,"co":199.0,"o3":49.0,"so2":6.8,"mosquito_risk":7,"arthritis_risk":5,"migraine_risk":7,"frizz_risk":1,"updated_at":"2026-07-16T20:33:28.716620+05:30"},{"city":"Jaipur","state":"Rajasthan","latitude":26.9124,"longitude":75.7873,"temp":33.0,"humidity":47,"rain":0.0,"pressure":955.9,"uv_index":8.15,"wind_gusts":40.0,"aqi":195,"pm10":361.4,"pm2_5":83.1,"no2":17.8,"co":216.0,"o3":57.0,"so2":6.3,"mosquito_risk":0,"arthritis_risk":5,"migraine_risk":7,"frizz_risk":1,"updated_at":"2026-07-16T20:33:28.716626+05:30"},{"city":"Lucknow","state":"Uttar Pradesh","latitude":26.8467,"longitude":80.9462,"temp":29.4,"humidity":91,"rain":0.0,"pressure":988.5,"uv_index":6.5,"wind_gusts":28.8,"aqi":162,"pm10":93.1,"pm2_5":59.6,"no2":15.9,"co":515.0,"o3":101.0,"so2":10.0,"mosquito_risk":7,"arthritis_risk":5,"migraine_risk":7,"frizz_risk":1,"updated_at":"2026-07-16T20:33:28.716637+05:30"},{"city":"Kanpur","state":"Uttar Pradesh","latitude":26.4499,"longitude":80.3319,"temp":29.4,"humidity":89,"rain":0.0,"pressure":986.8,"uv_index":7.5,"wind_gusts":33.8,"aqi":167,"pm10":126.2,"pm2_5":65.9,"no2":21.3,"co":336.0,"o3":79.0,"so2":8.5,"mosquito_risk":7,"arthritis_risk":5,"migraine_risk":7,"frizz_risk":1,"updated_at":"2026-07-16T20:33:28.716644+05:30"},{"city":"Chandigarh","state":"Chandigarh","latitude":30.7333,"longitude":76.7794,"temp":29.9,"humidity":76,"rain":0.0,"pressure":962.8,"uv_index":7.7,"wind_gusts":32.0,"aqi":175,"pm10":66.6,"pm2_5":56.2,"no2":26.8,"co":1068.0,"o3":121.0,"so2":14.2,"mosquito_risk":7,"arthritis_risk":5,"migraine_risk":7,"frizz_risk":1,"updated_at":"2026-07-16T20:33:28.716650+05:30"},{"city":"Srinagar","state":"Jammu and Kashmir","latitude":34.0837,"longitude":74.7973,"temp":27.3,"humidity":51,"rain":0.0,"pressure":837.7,"uv_index":9.0,"wind_gusts":16.6,"aqi":136,"pm10":33.8,"pm2_5":27.6,"no2":28.2,"co":1545.0,"o3":94.0,"so2":4.9,"mosquito_risk":4,"arthritis_risk":5,"migraine_risk":7,"frizz_risk":1,"updated_at":"2026-07-16T20:33:28.716657+05:30"},{"city":"Jammu","state":"Jammu and Kashmir","latitude":32.7266,"longitude":74.857,"temp":31.1,"humidity":70,"rain":0.0,"pressure":965.7,"uv_index":8.55,"wind_gusts":21.2,"aqi":155,"pm10":80.1,"pm2_5":63.1,"no2":43.5,"co":675.0,"o3":104.0,"so2":9.3,"mosquito_risk":3,"arthritis_risk":5,"migraine_risk":7,"frizz_risk":1,"updated_at":"2026-07-16T20:33:28.716663+05:30"},{"city":"Amritsar","state":"Punjab","latitude":31.634,"longitude":74.8723,"temp":31.8,"humidity":71,"rain":0.0,"pressure":974.0,"uv_index":8.2,"wind_gusts":19.8,"aqi":175,"pm10":99.9,"pm2_5":81.3,"no2":46.1,"co":1026.0,"o3":85.0,"so2":13.6,"mosquito_risk":3,"arthritis_risk":5,"migraine_risk":7,"frizz_risk":1,"updated_at":"2026-07-16T20:33:28.716669+05:30"},{"city":"Ludhiana","state":"Punjab","latitude":30.901,"longitude":75.8573,"temp":32.1,"humidity":68,"rain":0.0,"pressure":972.4,"uv_index":7.9,"wind_gusts":31.3,"aqi":171,"pm10":92.0,"pm2_5":78.5,"no2":40.9,"co":813.0,"o3":77.0,"so2":9.6,"mosquito_risk":3,"arthritis_risk":5,"migraine_risk":7,"frizz_risk":1,"updated_at":"2026-07-16T20:33:28.716675+05:30"},{"city":"Jalandhar","state":"Punjab","latitude":31.326,"longitude":75.5762,"temp":31.3,"humidity":76,"rain":0.0,"pressure":973.3,"uv_index":8.2,"wind_gusts":24.5,"aqi":180,"pm10":113.2,"pm2_5":92.2,"no2":49.6,"co":1402.0,"o3":84.0,"so2":11.3,"mosquito_risk":3,"arthritis_risk":5,"migraine_risk":7,"frizz_risk":1,"updated_at":"2026-07-16T20:33:28.716682+05:30"},{"city":"Dehradun","state":"Uttarakhand","latitude":30.6284,"longitude":78.0322,"temp":20.0,"humidity":97,"rain":0.0,"pressure":828.2,"uv_index":8.0,"wind_gusts":29.2,"aqi":133,"pm10":54.9,"pm2_5":41.2,"no2":19.1,"co":324.0,"o3":121.0,"so2":6.8,"mosquito_risk":3,"arthritis_risk":5,"migraine_risk":7,"frizz_risk":1,"updated_at":"2026-07-16T20:33:28.716688+05:30"},{"city":"Shimla","state":"Himachal Pradesh","latitude":31.1048,"longitude":77.1734,"temp":16.5,"humidity":96,"rain":0.0,"pressure":782.3,"uv_index":8.25,"wind_gusts":40.7,"aqi":128,"pm10":51.6,"pm2_5":36.8,"no2":13.1,"co":421.0,"o3":118.0,"so2":7.4,"mosquito_risk":3,"arthritis_risk":10,"migraine_risk":7,"frizz_risk":0,"updated_at":"2026-07-16T20:33:28.716694+05:30"},{"city":"Manali","state":"Himachal Pradesh","latitude":32.2396,"longitude":77.1887,"temp":20.3,"humidity":95,"rain":0.0,"pressure":817.7,"uv_index":9.55,"wind_gusts":33.1,"aqi":99,"pm10":21.8,"pm2_5":14.1,"no2":35.7,"co":228.0,"o3":80.0,"so2":1.6,"mosquito_risk":3,"arthritis_risk":5,"migraine_risk":7,"frizz_risk":1,"updated_at":"2026-07-16T20:33:28.716703+05:30"},{"city":"Gurgaon","state":"Haryana","latitude":28.4595,"longitude":77.0266,"temp":32.4,"humidity":63,"rain":0.0,"pressure":975.6,"uv_index":7.75,"wind_gusts":34.2,"aqi":332,"pm10":519.7,"pm2_5":142.0,"no2":56.4,"co":846.0,"o3":31.0,"so2":15.9,"mosquito_risk":3,"arthritis_risk":5,"migraine_risk":7,"frizz_risk":1,"updated_at":"2026-07-16T20:33:28.716711+05:30"},{"city":"Noida","state":"Uttar Pradesh","latitude":28.5355,"longitude":77.391,"temp":33.3,"humidity":59,"rain":0.0,"pressure":978.5,"uv_index":7.6,"wind_gusts":27.7,"aqi":332,"pm10":519.7,"pm2_5":142.0,"no2":56.4,"co":856.0,"o3":31.0,"so2":15.9,"mosquito_risk":0,"arthritis_risk":5,"migraine_risk":7,"frizz_risk":1,"updated_at":"2026-07-16T20:33:28.716717+05:30"},{"city":"Ghaziabad","state":"Uttar Pradesh","latitude":28.6692,"longitude":77.4538,"temp":32.1,"humidity":69,"rain":0.0,"pressure":976.7,"uv_index":7.6,"wind_gusts":33.5,"aqi":211,"pm10":638.9,"pm2_5":165.8,"no2":49.3,"co":887.0,"o3":53.0,"so2":22.7,"mosquito_risk":3,"arthritis_risk":5,"migraine_risk":7,"frizz_risk":1,"updated_at":"2026-07-16T20:33:28.716724+05:30"},{"city":"Faridabad","state":"Haryana","latitude":28.4089,"longitude":77.3178,"temp":33.1,"humidity":62,"rain":0.0,"pressure":977.8,"uv_index":7.6,"wind_gusts":33.8,"aqi":332,"pm10":519.7,"pm2_5":142.0,"no2":56.4,"co":824.0,"o3":31.0,"so2":15.9,"mosquito_risk":3,"arthritis_risk":5,"migraine_risk":7,"frizz_risk":1,"updated_at":"2026-07-16T20:33:28.716730+05:30"},{"city":"Meerut","state":"Uttar Pradesh","latitude":28.9845,"longitude":77.7064,"temp":31.3,"humidity":71,"rain":0.0,"pressure":975.4,"uv_index":7.6,"wind_gusts":38.2,"aqi":211,"pm10":638.9,"pm2_5":165.8,"no2":49.3,"co":716.0,"o3":53.0,"so2":22.7,"mosquito_risk":3,"arthritis_risk":5,"migraine_risk":7,"frizz_risk":1,"updated_at":"2026-07-16T20:33:28.716736+05:30"},{"city":"Agra","state":"Uttar Pradesh","latitude":27.1767,"longitude":78.0081,"temp":32.3,"humidity":68,"rain":0.0,"pressure":982.5,"uv_index":7.9,"wind_gusts":36.4,"aqi":150,"pm10":105.7,"pm2_5":51.6,"no2":26.1,"co":355.0,"o3":59.0,"so2":8.3,"mosquito_risk":3,"arthritis_risk":5,"migraine_risk":7,"frizz_risk":1,"updated_at":"2026-07-16T20:33:28.716745+05:30"},{"city":"Varanasi","state":"Uttar Pradesh","latitude":25.3176,"longitude":82.9739,"temp":29.1,"humidity":90,"rain":0.0,"pressure":992.5,"uv_index":7.55,"wind_gusts":28.8,"aqi":184,"pm10":85.9,"pm2_5":60.5,"no2":14.6,"co":625.0,"o3":107.0,"so2":8.9,"mosquito_risk":7,"arthritis_risk":5,"migraine_risk":7,"frizz_risk":1,"updated_at":"2026-07-16T20:33:28.716752+05:30"},{"city":"Prayagraj","state":"Uttar Pradesh","latitude":25.4358,"longitude":81.8463,"temp":29.3,"humidity":90,"rain":0.0,"pressure":991.3,"uv_index":6.75,"wind_gusts":31.7,"aqi":170,"pm10":96.2,"pm2_5":59.0,"no2":16.3,"co":619.0,"o3":94.0,"so2":9.9,"mosquito_risk":7,"arthritis_risk":5,"migraine_risk":7,"frizz_risk":1,"updated_at":"2026-07-16T20:33:28.716759+05:30"},{"city":"Gorakhpur","state":"Uttar Pradesh","latitude":26.7606,"longitude":83.3732,"temp":27.8,"humidity":93,"rain":0.0,"pressure":992.6,"uv_index":7.5,"wind_gusts":25.9,"aqi":147,"pm10":31.1,"pm2_5":29.1,"no2":13.5,"co":600.0,"o3":89.0,"so2":4.8,"mosquito_risk":7,"arthritis_risk":5,"migraine_risk":7,"frizz_risk":1,"updated_at":"2026-07-16T20:33:28.716765+05:30"},{"city":"Bareilly","state":"Uttar Pradesh","latitude":28.367,"longitude":79.4304,"temp":29.9,"humidity":88,"rain":0.0,"pressure":981.6,"uv_index":7.4,"wind_gusts":28.4,"aqi":178,"pm10":144.4,"pm2_5":92.7,"no2":28.3,"co":525.0,"o3":87.0,"so2":14.3,"mosquito_risk":7,"arthritis_risk":5,"migraine_risk":7,"frizz_risk":1,"updated_at":"2026-07-16T20:33:28.716773+05:30"},{"city":"Aligarh","state":"Uttar Pradesh","latitude":27.8974,"longitude":78.088,"temp":31.4,"humidity":70,"rain":0.0,"pressure":979.8,"uv_index":7.55,"wind_gusts":32.4,"aqi":222,"pm10":603.5,"pm2_5":153.2,"no2":27.1,"co":397.0,"o3":56.0,"so2":7.7,"mosquito_risk":3,"arthritis_risk":5,"migraine_risk":7,"frizz_risk":1,"updated_at":"2026-07-16T20:33:28.716779+05:30"},{"city":"Moradabad","state":"Uttar Pradesh","latitude":28.8386,"longitude":78.7733,"temp":31.3,"humidity":77,"rain":0.0,"pressure":977.9,"uv_index":7.8,"wind_gusts":33.1,"aqi":188,"pm10":241.2,"pm2_5":119.7,"no2":39.6,"co":716.0,"o3":62.0,"so2":16.0,"mosquito_risk":3,"arthritis_risk":5,"migraine_risk":7,"frizz_risk":1,"updated_at":"2026-07-16T20:33:28.716785+05:30"},{"city":"Saharanpur","state":"Uttar Pradesh","latitude":29.9637,"longitude":77.546,"temp":30.8,"humidity":74,"rain":0.0,"pressure":969.4,"uv_index":7.35,"wind_gusts":36.7,"aqi":168,"pm10":127.6,"pm2_5":68.5,"no2":20.4,"co":496.0,"o3":94.0,"so2":11.7,"mosquito_risk":3,"arthritis_risk":5,"migraine_risk":7,"frizz_risk":1,"updated_at":"2026-07-16T20:33:28.716791+05:30"},{"city":"Jhansi","state":"Uttar Pradesh","latitude":25.4484,"longitude":78.5685,"temp":31.3,"humidity":66,"rain":0.0,"pressure":973.7,"uv_index":4.05,"wind_gusts":38.5,"aqi":96,"pm10":45.4,"pm2_5":24.5,"no2":9.4,"co":277.0,"o3":63.0,"so2":3.0,"mosquito_risk":3,"arthritis_risk":5,"migraine_risk":3,"frizz_risk":1,"updated_at":"2026-07-16T20:33:32.096083+05:30"},{"city":"Surat","state":"Gujarat","latitude":21.1702,"longitude":72.8311,"temp":28.5,"humidity":81,"rain":0.0,"pressure":1004.7,"uv_index":7.7,"wind_gusts":41.8,"aqi":75,"pm10":27.2,"pm2_5":19.6,"no2":27.2,"co":311.0,"o3":22.0,"so2":41.1,"mosquito_risk":7,"arthritis_risk":5,"migraine_risk":4,"frizz_risk":1,"updated_at":"2026-07-16T20:33:32.096115+05:30"},{"city":"Vadodara","state":"Gujarat","latitude":22.3072,"longitude":73.1812,"temp":29.1,"humidity":79,"rain":0.0,"pressure":1001.7,"uv_index":6.5,"wind_gusts":37.8,"aqi":72,"pm10":25.4,"pm2_5":19.0,"no2":20.3,"co":184.0,"o3":48.0,"so2":23.2,"mosquito_risk":7,"arthritis_risk":5,"migraine_risk":4,"frizz_risk":1,"updated_at":"2026-07-16T20:33:32.096126+05:30"},{"city":"Rajkot","state":"Gujarat","latitude":22.3039,"longitude":70.8022,"temp":28.5,"humidity":76,"rain":0.0,"pressure":991.0,"uv_index":7.25,"wind_gusts":34.9,"aqi":68,"pm10":25.3,"pm2_5":15.0,"no2":10.5,"co":116.0,"o3":39.0,"so2":4.5,"mosquito_risk":7,"arthritis_risk":5,"migraine_risk":7,"frizz_risk":1,"updated_at":"2026-07-16T20:33:32.096136+05:30"},{"city":"Thane","state":"Maharashtra","latitude":19.2183,"longitude":72.9781,"temp":26.2,"humidity":94,"rain":0.1,"pressure":1006.8,"uv_index":6.75,"wind_gusts":32.0,"aqi":69,"pm10":29.8,"pm2_5":16.5,"no2":15.5,"co":316.0,"o3":35.0,"so2":11.4,"mosquito_risk":10,"arthritis_risk":5,"migraine_risk":4,"frizz_risk":1,"updated_at":"2026-07-16T20:33:32.096145+05:30"},{"city":"Nagpur","state":"Maharashtra","latitude":21.1458,"longitude":79.0882,"temp":31.1,"humidity":62,"rain":0.0,"pressure":970.1,"uv_index":8.2,"wind_gusts":41.4,"aqi":86,"pm10":49.8,"pm2_5":28.2,"no2":17.4,"co":489.0,"o3":58.0,"so2":14.9,"mosquito_risk":3,"arthritis_risk":5,"migraine_risk":7,"frizz_risk":1,"updated_at":"2026-07-16T20:33:32.096154+05:30"},{"city":"Nashik","state":"Maharashtra","latitude":19.9975,"longitude":73.7898,"temp":23.4,"humidity":91,"rain":0.0,"pressure":944.3,"uv_index":7.85,"wind_gusts":40.3,"aqi":58,"pm10":19.2,"pm2_5":12.3,"no2":9.6,"co":186.0,"o3":62.0,"so2":7.9,"mosquito_risk":3,"arthritis_risk":5,"migraine_risk":7,"frizz_risk":1,"updated_at":"2026-07-16T20:33:32.096163+05:30"},{"city":"Aurangabad","state":"Maharashtra","latitude":19.8762,"longitude":75.3433,"temp":25.9,"humidity":77,"rain":0.0,"pressure":942.9,"uv_index":8.05,"wind_gusts":39.6,"aqi":58,"pm10":23.4,"pm2_5":15.5,"no2":7.4,"co":194.0,"o3":76.0,"so2":7.3,"mosquito_risk":7,"arthritis_risk":5,"migraine_risk":7,"frizz_risk":1,"updated_at":"2026-07-16T20:33:32.096171+05:30"},{"city":"Solapur","state":"Maharashtra","latitude":17.6599,"longitude":75.9064,"temp":25.3,"humidity":84,"rain":0.1,"pressure":956.3,"uv_index":8.45,"wind_gusts":42.5,"aqi":55,"pm10":19.5,"pm2_5":11.2,"no2":5.2,"co":148.0,"o3":57.0,"so2":2.3,"mosquito_risk":10,"arthritis_risk":5,"migraine_risk":7,"frizz_risk":1,"updated_at":"2026-07-16T20:33:32.096179+05:30"},{"city":"Kolhapur","state":"Maharashtra","latitude":16.705,"longitude":74.2433,"temp":22.9,"humidity":91,"rain":0.0,"pressure":947.8,"uv_index":7.4,"wind_gusts":47.2,"aqi":50,"pm10":17.2,"pm2_5":11.1,"no2":9.7,"co":160.0,"o3":38.0,"so2":3.1,"mosquito_risk":3,"arthritis_risk":5,"migraine_risk":7,"frizz_risk":1,"updated_at":"2026-07-16T20:33:32.096187+05:30"},{"city":"Goa","state":"Goa","latitude":15.2993,"longitude":74.124,"temp":24.8,"humidity":99,"rain":0.2,"pressure":999.3,"uv_index":7.15,"wind_gusts":30.6,"aqi":71,"pm10":28.1,"pm2_5":13.5,"no2":4.0,"co":255.0,"o3":48.0,"so2":1.5,"mosquito_risk":6,"arthritis_risk":5,"migraine_risk":7,"frizz_risk":1,"updated_at":"2026-07-16T20:33:32.096195+05:30"},{"city":"Jodhpur","state":"Rajasthan","latitude":26.2389,"longitude":73.0243,"temp":33.7,"humidity":44,"rain":0.0,"pressure":978.4,"uv_index":8.4,"wind_gusts":34.6,"aqi":132,"pm10":247.7,"pm2_5":59.0,"no2":7.9,"co":146.0,"o3":60.0,"so2":2.2,"mosquito_risk":0,"arthritis_risk":5,"migraine_risk":7,"frizz_risk":1,"updated_at":"2026-07-16T20:33:32.096203+05:30"},{"city":"Udaipur","state":"Rajasthan","latitude":24.5854,"longitude":73.7125,"temp":28.1,"humidity":63,"rain":0.0,"pressure":943.6,"uv_index":8.8,"wind_gusts":30.6,"aqi":82,"pm10":49.2,"pm2_5":25.3,"no2":5.5,"co":161.0,"o3":75.0,"so2":3.6,"mosquito_risk":7,"arthritis_risk":5,"migraine_risk":7,"frizz_risk":1,"updated_at":"2026-07-16T20:33:32.096211+05:30"},{"city":"Kota","state":"Rajasthan","latitude":25.2138,"longitude":75.8648,"temp":32.2,"humidity":54,"rain":0.0,"pressure":974.8,"uv_index":8.3,"wind_gusts":31.7,"aqi":86,"pm10":46.8,"pm2_5":28.1,"no2":13.4,"co":282.0,"o3":66.0,"so2":6.0,"mosquito_risk":0,"arthritis_risk":5,"migraine_risk":7,"frizz_risk":1,"updated_at":"2026-07-16T20:33:32.096219+05:30"},{"city":"Bikaner","state":"Rajasthan","latitude":28.0229,"longitude":73.3119,"temp":35.8,"humidity":38,"rain":0.0,"pressure":976.0,"uv_index":8.4,"wind_gusts":37.4,"aqi":136,"pm10":114.1,"pm2_5":43.4,"no2":3.2,"co":128.0,"o3":65.0,"so2":2.4,"mosquito_risk":0,"arthritis_risk":5,"migraine_risk":10,"frizz_risk":1,"updated_at":"2026-07-16T20:33:32.096227+05:30"},{"city":"Ajmer","state":"Rajasthan","latitude":26.4499,"longitude":74.6399,"temp":30.2,"humidity":57,"rain":0.0,"pressure":951.0,"uv_index":8.35,"wind_gusts":43.6,"aqi":89,"pm10":59.6,"pm2_5":29.6,"no2":10.5,"co":241.0,"o3":61.0,"so2":3.6,"mosquito_risk":0,"arthritis_risk":5,"migraine_risk":7,"frizz_risk":1,"updated_at":"2026-07-16T20:33:32.096235+05:30"},{"city":"Gwalior","state":"Madhya Pradesh","latitude":26.2183,"longitude":78.1828,"temp":30.9,"humidity":70,"rain":0.0,"pressure":978.5,"uv_index":8.05,"wind_gusts":37.1,"aqi":109,"pm10":81.0,"pm2_5":36.0,"no2":10.9,"co":189.0,"o3":65.0,"so2":3.5,"mosquito_risk":3,"arthritis_risk":5,"migraine_risk":7,"frizz_risk":1,"updated_at":"2026-07-16T20:33:32.096243+05:30"},{"city":"Indore","state":"Madhya Pradesh","latitude":22.7196,"longitude":75.8577,"temp":28.6,"humidity":65,"rain":0.0,"pressure":945.9,"uv_index":7.75,"wind_gusts":39.2,"aqi":71,"pm10":44.1,"pm2_5":29.2,"no2":16.2,"co":394.0,"o3":59.0,"so2":6.7,"mosquito_risk":7,"arthritis_risk":5,"migraine_risk":7,"frizz_risk":1,"updated_at":"2026-07-16T20:33:32.096250+05:30"},{"city":"Bhopal","state":"Madhya Pradesh","latitude":23.2599,"longitude":77.4126,"temp":28.3,"humidity":79,"rain":0.0,"pressure":950.6,"uv_index":8.2,"wind_gusts":38.5,"aqi":83,"pm10":40.6,"pm2_5":24.9,"no2":11.7,"co":383.0,"o3":64.0,"so2":5.3,"mosquito_risk":7,"arthritis_risk":5,"migraine_risk":7,"frizz_risk":1,"updated_at":"2026-07-16T20:33:32.096258+05:30"},{"city":"Jabalpur","state":"Madhya Pradesh","latitude":23.1815,"longitude":79.9864,"temp":25.7,"humidity":99,"rain":0.0,"pressure":958.9,"uv_index":8.45,"wind_gusts":35.3,"aqi":100,"pm10":39.6,"pm2_5":23.6,"no2":7.3,"co":382.0,"o3":75.0,"so2":3.5,"mosquito_risk":7,"arthritis_risk":5,"migraine_risk":7,"frizz_risk":1,"updated_at":"2026-07-16T20:33:32.096266+05:30"},{"city":"Ujjain","state":"Madhya Pradesh","latitude":23.1765,"longitude":75.7885,"temp":28.0,"humidity":70,"rain":0.0,"pressure":951.1,"uv_index":8.4,"wind_gusts":36.0,"aqi":73,"pm10":45.5,"pm2_5":28.8,"no2":8.3,"co":352.0,"o3":71.0,"so2":4.9,"mosquito_risk":7,"arthritis_risk":5,"migraine_risk":7,"frizz_risk":1,"updated_at":"2026-07-16T20:33:32.096274+05:30"},{"city":"Visakhapatnam","state":"Andhra Pradesh","latitude":17.6868,"longitude":83.2185,"temp":30.1,"humidity":67,"rain":0.0,"pressure":999.7,"uv_index":6.6,"wind_gusts":34.9,"aqi":91,"pm10":34.0,"pm2_5":23.9,"no2":26.2,"co":583.0,"o3":65.0,"so2":44.6,"mosquito_risk":3,"arthritis_risk":5,"migraine_risk":7,"frizz_risk":1,"updated_at":"2026-07-16T20:33:32.096282+05:30"},{"city":"Vijayawada","state":"Andhra Pradesh","latitude":16.5062,"longitude":80.648,"temp":30.5,"humidity":66,"rain":0.0,"pressure":1000.5,"uv_index":7.0,"wind_gusts":46.8,"aqi":73,"pm10":35.3,"pm2_5":25.6,"no2":13.2,"co":368.0,"o3":62.0,"so2":6.9,"mosquito_risk":3,"arthritis_risk":5,"migraine_risk":4,"frizz_risk":1,"updated_at":"2026-07-16T20:33:32.096289+05:30"},{"city":"Guntur","state":"Andhra Pradesh","latitude":16.3067,"longitude":80.4365,"temp":31.5,"humidity":54,"rain":0.0,"pressure":1001.7,"uv_index":7.1,"wind_gusts":45.7,"aqi":70,"pm10":34.7,"pm2_5":25.7,"no2":14.9,"co":370.0,"o3":59.0,"so2":6.0,"mosquito_risk":0,"arthritis_risk":5,"migraine_risk":4,"frizz_risk":1,"updated_at":"2026-07-16T20:33:32.096297+05:30"},{"city":"Nellore","state":"Andhra Pradesh","latitude":14.4426,"longitude":79.9865,"temp":32.9,"humidity":46,"rain":0.0,"pressure":1004.0,"uv_index":7.95,"wind_gusts":43.2,"aqi":70,"pm10":38.2,"pm2_5":22.4,"no2":8.8,"co":192.0,"o3":80.0,"so2":4.4,"mosquito_risk":0,"arthritis_risk":5,"migraine_risk":4,"frizz_risk":1,"updated_at":"2026-07-16T20:33:32.096305+05:30"},{"city":"Kurnool","state":"Andhra Pradesh","latitude":15.8281,"longitude":78.0373,"temp":25.8,"humidity":80,"rain":0.1,"pressure":976.5,"uv_index":8.15,"wind_gusts":41.0,"aqi":64,"pm10":54.0,"pm2_5":23.1,"no2":7.0,"co":151.0,"o3":70.0,"so2":5.8,"mosquito_risk":10,"arthritis_risk":5,"migraine_risk":7,"frizz_risk":1,"updated_at":"2026-07-16T20:33:32.096313+05:30"},{"city":"Kakinada","state":"Andhra Pradesh","latitude":16.9891,"longitude":82.2475,"temp":29.5,"humidity":71,"rain":0.0,"pressure":1004.6,"uv_index":3.2,"wind_gusts":41.4,"aqi":77,"pm10":38.3,"pm2_5":24.4,"no2":8.4,"co":267.0,"o3":92.0,"so2":7.1,"mosquito_risk":7,"arthritis_risk":5,"migraine_risk":0,"frizz_risk":1,"updated_at":"2026-07-16T20:33:32.096321+05:30"},{"city":"Tirupati","state":"Andhra Pradesh","latitude":13.6288,"longitude":79.4192,"temp":31.6,"humidity":48,"rain":0.0,"pressure":990.0,"uv_index":8.1,"wind_gusts":30.2,"aqi":78,"pm10":60.8,"pm2_5":42.4,"no2":50.0,"co":259.0,"o3":19.0,"so2":5.7,"mosquito_risk":0,"arthritis_risk":5,"migraine_risk":7,"frizz_risk":1,"updated_at":"2026-07-16T20:33:32.096329+05:30"},{"city":"Warangal","state":"Telangana","latitude":17.9689,"longitude":79.5941,"temp":28.4,"humidity":74,"rain":0.0,"pressure":976.7,"uv_index":2.35,"wind_gusts":43.2,"aqi":66,"pm10":29.2,"pm2_5":20.3,"no2":9.3,"co":373.0,"o3":60.0,"so2":4.5,"mosquito_risk":7,"arthritis_risk":5,"migraine_risk":3,"frizz_risk":1,"updated_at":"2026-07-16T20:33:32.096336+05:30"},{"city":"Nizamabad","state":"Telangana","latitude":18.6725,"longitude":78.0941,"temp":27.3,"humidity":74,"rain":0.0,"pressure":963.1,"uv_index":5.65,"wind_gusts":41.8,"aqi":63,"pm10":36.4,"pm2_5":20.0,"no2":7.6,"co":281.0,"o3":72.0,"so2":4.8,"mosquito_risk":7,"arthritis_risk":5,"migraine_risk":3,"frizz_risk":1,"updated_at":"2026-07-16T20:33:32.096344+05:30"},{"city":"Mysore","state":"Karnataka","latitude":12.2958,"longitude":76.6396,"temp":22.9,"humidity":81,"rain":0.0,"pressure":929.5,"uv_index":8.8,"wind_gusts":42.8,"aqi":61,"pm10":23.4,"pm2_5":13.4,"no2":9.7,"co":148.0,"o3":51.0,"so2":2.5,"mosquito_risk":3,"arthritis_risk":5,"migraine_risk":7,"frizz_risk":1,"updated_at":"2026-07-16T20:33:32.096373+05:30"},{"city":"Mangalore","state":"Karnataka","latitude":12.9141,"longitude":74.856,"temp":25.3,"humidity":94,"rain":0.1,"pressure":1008.9,"uv_index":7.95,"wind_gusts":35.3,"aqi":70,"pm10":27.7,"pm2_5":15.0,"no2":9.6,"co":218.0,"o3":37.0,"so2":2.8,"mosquito_risk":10,"arthritis_risk":0,"migraine_risk":4,"frizz_risk":1,"updated_at":"2026-07-16T20:33:32.096381+05:30"},{"city":"Hubli-Dharwad","state":"Karnataka","latitude":15.3647,"longitude":75.124,"temp":23.0,"humidity":87,"rain":0.0,"pressure":941.3,"uv_index":7.5,"wind_gusts":46.1,"aqi":53,"pm10":10.9,"pm2_5":6.7,"no2":6.7,"co":150.0,"o3":44.0,"so2":1.5,"mosquito_risk":3,"arthritis_risk":5,"migraine_risk":7,"frizz_risk":1,"updated_at":"2026-07-16T20:33:32.096389+05:30"},{"city":"Belgaum","state":"Karnataka","latitude":15.8497,"longitude":74.4977,"temp":21.3,"humidity":95,"rain":0.0,"pressure":925.7,"uv_index":7.9,"wind_gusts":49.3,"aqi":48,"pm10":10.1,"pm2_5":6.2,"no2":7.2,"co":127.0,"o3":42.0,"so2":2.3,"mosquito_risk":3,"arthritis_risk":5,"migraine_risk":7,"frizz_risk":1,"updated_at":"2026-07-16T20:33:35.464605+05:30"},{"city":"Coimbatore","state":"Tamil Nadu","latitude":11.0168,"longitude":76.9558,"temp":24.9,"humidity":83,"rain":0.0,"pressure":962.3,"uv_index":8.5,"wind_gusts":52.6,"aqi":59,"pm10":22.4,"pm2_5":13.3,"no2":8.4,"co":191.0,"o3":47.0,"so2":3.6,"mosquito_risk":3,"arthritis_risk":5,"migraine_risk":7,"frizz_risk":1,"updated_at":"2026-07-16T20:33:35.464638+05:30"},{"city":"Madurai","state":"Tamil Nadu","latitude":9.9252,"longitude":78.1198,"temp":32.0,"humidity":50,"rain":0.0,"pressure":992.9,"uv_index":8.2,"wind_gusts":45.7,"aqi":83,"pm10":27.8,"pm2_5":19.5,"no2":18.6,"co":177.0,"o3":63.0,"so2":5.4,"mosquito_risk":0,"arthritis_risk":5,"migraine_risk":7,"frizz_risk":1,"updated_at":"2026-07-16T20:33:35.464649+05:30"},{"city":"Trichy","state":"Tamil Nadu","latitude":10.7905,"longitude":78.7047,"temp":31.0,"humidity":55,"rain":0.0,"pressure":999.8,"uv_index":8.1,"wind_gusts":45.7,"aqi":66,"pm10":29.6,"pm2_5":23.1,"no2":20.9,"co":150.0,"o3":52.0,"so2":5.8,"mosquito_risk":0,"arthritis_risk":5,"migraine_risk":7,"frizz_risk":1,"updated_at":"2026-07-16T20:33:35.464658+05:30"},{"city":"Salem","state":"Tamil Nadu","latitude":11.6643,"longitude":78.146,"temp":28.3,"humidity":66,"rain":0.0,"pressure":977.7,"uv_index":8.1,"wind_gusts":27.0,"aqi":76,"pm10":30.5,"pm2_5":21.1,"no2":21.9,"co":253.0,"o3":54.0,"so2":6.6,"mosquito_risk":7,"arthritis_risk":5,"migraine_risk":7,"frizz_risk":1,"updated_at":"2026-07-16T20:33:35.464667+05:30"},{"city":"Tirunelveli","state":"Tamil Nadu","latitude":8.7139,"longitude":77.7567,"temp":30.2,"humidity":60,"rain":0.0,"pressure":1003.2,"uv_index":7.95,"wind_gusts":41.0,"aqi":60,"pm10":22.3,"pm2_5":12.6,"no2":5.8,"co":143.0,"o3":55.0,"so2":2.2,"mosquito_risk":0,"arthritis_risk":5,"migraine_risk":4,"frizz_risk":1,"updated_at":"2026-07-16T20:33:35.464675+05:30"},{"city":"Vellore","state":"Tamil Nadu","latitude":12.9165,"longitude":79.1325,"temp":32.2,"humidity":40,"rain":0.0,"pressure":983.6,"uv_index":8.3,"wind_gusts":42.1,"aqi":79,"pm10":63.3,"pm2_5":41.0,"no2":27.4,"co":402.0,"o3":47.0,"so2":6.8,"mosquito_risk":0,"arthritis_risk":5,"migraine_risk":7,"frizz_risk":1,"updated_at":"2026-07-16T20:33:35.464683+05:30"},{"city":"Erode","state":"Tamil Nadu","latitude":11.341,"longitude":77.7172,"temp":28.4,"humidity":68,"rain":0.0,"pressure":989.3,"uv_index":8.35,"wind_gusts":41.8,"aqi":66,"pm10":25.7,"pm2_5":16.9,"no2":15.7,"co":186.0,"o3":48.0,"so2":3.7,"mosquito_risk":7,"arthritis_risk":5,"migraine_risk":7,"frizz_risk":1,"updated_at":"2026-07-16T20:33:35.464690+05:30"},{"city":"Kochi","state":"Kerala","latitude":9.9312,"longitude":76.2673,"temp":27.8,"humidity":80,"rain":0.0,"pressure":1010.8,"uv_index":8.45,"wind_gusts":28.4,"aqi":78,"pm10":34.3,"pm2_5":24.2,"no2":25.4,"co":175.0,"o3":19.0,"so2":5.8,"mosquito_risk":7,"arthritis_risk":0,"migraine_risk":4,"frizz_risk":1,"updated_at":"2026-07-16T20:33:35.464699+05:30"},{"city":"Thiruvananthapuram","state":"Kerala","latitude":8.5241,"longitude":76.9366,"temp":26.0,"humidity":88,"rain":0.0,"pressure":1010.3,"uv_index":7.6,"wind_gusts":39.2,"aqi":67,"pm10":33.6,"pm2_5":15.8,"no2":6.3,"co":141.0,"o3":50.0,"so2":1.8,"mosquito_risk":7,"arthritis_risk":0,"migraine_risk":4,"frizz_risk":1,"updated_at":"2026-07-16T20:33:35.464706+05:30"},{"city":"Kozhikode","state":"Kerala","latitude":11.2588,"longitude":75.7804,"temp":25.7,"humidity":90,"rain":0.0,"pressure":1010.0,"uv_index":8.2,"wind_gusts":32.4,"aqi":64,"pm10":28.2,"pm2_5":12.4,"no2":1.7,"co":224.0,"o3":56.0,"so2":1.2,"mosquito_risk":7,"arthritis_risk":0,"migraine_risk":4,"frizz_risk":1,"updated_at":"2026-07-16T20:33:35.464713+05:30"},{"city":"Thrissur","state":"Kerala","latitude":10.5276,"longitude":76.2144,"temp":26.3,"humidity":89,"rain":0.0,"pressure":1009.2,"uv_index":8.3,"wind_gusts":35.3,"aqi":72,"pm10":30.0,"pm2_5":19.0,"no2":12.8,"co":336.0,"o3":33.0,"so2":3.8,"mosquito_risk":7,"arthritis_risk":0,"migraine_risk":4,"frizz_risk":1,"updated_at":"2026-07-16T20:33:35.464721+05:30"},{"city":"Kannur","state":"Kerala","latitude":11.8745,"longitude":75.3704,"temp":24.5,"humidity":98,"rain":0.1,"pressure":1009.4,"uv_index":7.95,"wind_gusts":32.8,"aqi":67,"pm10":22.9,"pm2_5":12.8,"no2":10.9,"co":328.0,"o3":34.0,"so2":2.2,"mosquito_risk":6,"arthritis_risk":0,"migraine_risk":4,"frizz_risk":1,"updated_at":"2026-07-16T20:33:35.464728+05:30"},{"city":"Patna","state":"Bihar","latitude":25.5941,"longitude":85.1376,"temp":30.2,"humidity":84,"rain":0.0,"pressure":995.0,"uv_index":6.45,"wind_gusts":32.4,"aqi":118,"pm10":39.2,"pm2_5":38.8,"no2":22.5,"co":601.0,"o3":80.0,"so2":10.7,"mosquito_risk":3,"arthritis_risk":5,"migraine_risk":7,"frizz_risk":1,"updated_at":"2026-07-16T20:33:35.464736+05:30"},{"city":"Gaya","state":"Bihar","latitude":24.7914,"longitude":85.0002,"temp":27.3,"humidity":94,"rain":0.2,"pressure":988.7,"uv_index":8.45,"wind_gusts":25.2,"aqi":111,"pm10":30.0,"pm2_5":29.3,"no2":14.2,"co":448.0,"o3":73.0,"so2":6.5,"mosquito_risk":10,"arthritis_risk":5,"migraine_risk":7,"frizz_risk":1,"updated_at":"2026-07-16T20:33:35.464743+05:30"},{"city":"Muzaffarpur","state":"Bihar","latitude":26.1209,"longitude":85.3647,"temp":29.4,"humidity":83,"rain":0.0,"pressure":995.5,"uv_index":6.55,"wind_gusts":31.7,"aqi":108,"pm10":40.4,"pm2_5":40.3,"no2":24.6,"co":710.0,"o3":72.0,"so2":11.4,"mosquito_risk":7,"arthritis_risk":5,"migraine_risk":7,"frizz_risk":1,"updated_at":"2026-07-16T20:33:35.464750+05:30"},{"city":"Bhagalpur","state":"Bihar","latitude":25.2425,"longitude":87.0117,"temp":30.2,"humidity":79,"rain":0.0,"pressure":996.0,"uv_index":8.7,"wind_gusts":31.3,"aqi":92,"pm10":25.6,"pm2_5":23.5,"no2":15.6,"co":304.0,"o3":70.0,"so2":7.4,"mosquito_risk":3,"arthritis_risk":5,"migraine_risk":7,"frizz_risk":1,"updated_at":"2026-07-16T20:33:35.464757+05:30"},{"city":"Ranchi","state":"Jharkhand","latitude":23.3441,"longitude":85.3096,"temp":24.6,"humidity":94,"rain":0.0,"pressure":932.8,"uv_index":9.05,"wind_gusts":35.6,"aqi":74,"pm10":16.8,"pm2_5":16.5,"no2":12.0,"co":272.0,"o3":74.0,"so2":6.1,"mosquito_risk":3,"arthritis_risk":5,"migraine_risk":7,"frizz_risk":1,"updated_at":"2026-07-16T20:33:35.464764+05:30"},{"city":"Jamshedpur","state":"Jharkhand","latitude":22.8046,"longitude":86.2029,"temp":26.5,"humidity":97,"rain":0.1,"pressure":984.8,"uv_index":6.15,"wind_gusts":36.0,"aqi":83,"pm10":37.8,"pm2_5":36.8,"no2":30.6,"co":304.0,"o3":66.0,"so2":46.9,"mosquito_risk":10,"arthritis_risk":5,"migraine_risk":7,"frizz_risk":1,"updated_at":"2026-07-16T20:33:35.464771+05:30"},{"city":"Dhanbad","state":"Jharkhand","latitude":23.7957,"longitude":86.4304,"temp":28.9,"humidity":80,"rain":0.0,"pressure":974.1,"uv_index":8.05,"wind_gusts":33.8,"aqi":99,"pm10":44.4,"pm2_5":42.3,"no2":44.3,"co":229.0,"o3":56.0,"so2":101.0,"mosquito_risk":7,"arthritis_risk":5,"migraine_risk":7,"frizz_risk":1,"updated_at":"2026-07-16T20:33:35.464777+05:30"},{"city":"Bokaro","state":"Jharkhand","latitude":23.6693,"longitude":86.1511,"temp":28.7,"humidity":86,"rain":0.0,"pressure":977.9,"uv_index":8.8,"wind_gusts":33.5,"aqi":98,"pm10":42.3,"pm2_5":40.3,"no2":39.3,"co":271.0,"o3":49.0,"so2":98.9,"mosquito_risk":7,"arthritis_risk":5,"migraine_risk":7,"frizz_risk":1,"updated_at":"2026-07-16T20:33:35.464785+05:30"},{"city":"Bhubaneswar","state":"Odisha","latitude":20.2961,"longitude":85.8245,"temp":26.4,"humidity":96,"rain":0.1,"pressure":997.1,"uv_index":6.95,"wind_gusts":50.4,"aqi":78,"pm10":21.3,"pm2_5":16.9,"no2":11.8,"co":327.0,"o3":74.0,"so2":7.7,"mosquito_risk":10,"arthritis_risk":5,"migraine_risk":7,"frizz_risk":1,"updated_at":"2026-07-16T20:33:35.464791+05:30"},{"city":"Cuttack","state":"Odisha","latitude":20.4625,"longitude":85.8828,"temp":26.1,"humidity":95,"rain":0.1,"pressure":998.6,"uv_index":6.95,"wind_gusts":36.4,"aqi":78,"pm10":21.3,"pm2_5":16.9,"no2":11.8,"co":322.0,"o3":74.0,"so2":7.7,"mosquito_risk":10,"arthritis_risk":5,"migraine_risk":7,"frizz_risk":1,"updated_at":"2026-07-16T20:33:35.464799+05:30"},{"city":"Rourkela","state":"Odisha","latitude":22.2604,"longitude":84.8536,"temp":26.3,"humidity":97,"rain":0.0,"pressure":979.1,"uv_index":7.65,"wind_gusts":32.0,"aqi":76,"pm10":23.6,"pm2_5":21.9,"no2":15.1,"co":368.0,"o3":79.0,"so2":6.3,"mosquito_risk":7,"arthritis_risk":5,"migraine_risk":7,"frizz_risk":1,"updated_at":"2026-07-16T20:33:35.464805+05:30"},{"city":"Raipur","state":"Chhattisgarh","latitude":21.2514,"longitude":81.6296,"temp":26.7,"humidity":94,"rain":0.0,"pressure":971.2,"uv_index":6.7,"wind_gusts":35.6,"aqi":146,"pm10":51.9,"pm2_5":38.9,"no2":32.1,"co":587.0,"o3":65.0,"so2":58.5,"mosquito_risk":7,"arthritis_risk":5,"migraine_risk":7,"frizz_risk":1,"updated_at":"2026-07-16T20:33:35.464812+05:30"},{"city":"Bhilai","state":"Chhattisgarh","latitude":21.1938,"longitude":81.3509,"temp":26.4,"humidity":93,"rain":0.0,"pressure":971.7,"uv_index":4.2,"wind_gusts":37.4,"aqi":126,"pm10":51.5,"pm2_5":35.6,"no2":23.6,"co":730.0,"o3":76.0,"so2":43.1,"mosquito_risk":7,"arthritis_risk":5,"migraine_risk":3,"frizz_risk":1,"updated_at":"2026-07-16T20:33:35.464819+05:30"},{"city":"Guwahati","state":"Assam","latitude":26.1158,"longitude":91.7086,"temp":27.9,"humidity":93,"rain":0.0,"pressure":997.8,"uv_index":6.75,"wind_gusts":22.7,"aqi":58,"pm10":14.7,"pm2_5":14.1,"no2":14.3,"co":340.0,"o3":26.0,"so2":2.3,"mosquito_risk":7,"arthritis_risk":5,"migraine_risk":7,"frizz_risk":1,"updated_at":"2026-07-16T20:33:35.464825+05:30"},{"city":"Agartala","state":"Tripura","latitude":23.8315,"longitude":91.2868,"temp":27.9,"humidity":83,"rain":0.0,"pressure":1003.2,"uv_index":8.35,"wind_gusts":41.8,"aqi":61,"pm10":31.4,"pm2_5":22.2,"no2":6.4,"co":182.0,"o3":75.0,"so2":2.3,"mosquito_risk":7,"arthritis_risk":5,"migraine_risk":4,"frizz_risk":1,"updated_at":"2026-07-16T20:33:35.464832+05:30"},{"city":"Shillong","state":"Meghalaya","latitude":25.5788,"longitude":91.8933,"temp":21.4,"humidity":86,"rain":0.0,"pressure":856.6,"uv_index":8.5,"wind_gusts":33.5,"aqi":40,"pm10":11.5,"pm2_5":8.9,"no2":8.5,"co":231.0,"o3":63.0,"so2":3.0,"mosquito_risk":3,"arthritis_risk":5,"migraine_risk":7,"frizz_risk":1,"updated_at":"2026-07-16T20:33:35.464839+05:30"},{"city":"Imphal","state":"Manipur","latitude":24.817,"longitude":93.9368,"temp":23.4,"humidity":96,"rain":0.0,"pressure":921.7,"uv_index":8.35,"wind_gusts":24.5,"aqi":58,"pm10":22.6,"pm2_5":18.6,"no2":14.2,"co":405.0,"o3":39.0,"so2":3.0,"mosquito_risk":3,"arthritis_risk":5,"migraine_risk":7,"frizz_risk":1,"updated_at":"2026-07-16T20:33:35.464845+05:30"},{"city":"Aizawl","state":"Mizoram","latitude":23.7271,"longitude":92.7176,"temp":20.9,"humidity":90,"rain":0.0,"pressure":891.2,"uv_index":8.1,"wind_gusts":42.1,"aqi":55,"pm10":13.0,"pm2_5":7.7,"no2":2.7,"co":148.0,"o3":65.0,"so2":1.0,"mosquito_risk":3,"arthritis_risk":5,"migraine_risk":7,"frizz_risk":1,"updated_at":"2026-07-16T20:33:35.464852+05:30"},{"city":"Kohima","state":"Nagaland","latitude":25.6701,"longitude":94.1077,"temp":20.6,"humidity":98,"rain":0.0,"pressure":854.2,"uv_index":8.5,"wind_gusts":22.0,"aqi":44,"pm10":16.2,"pm2_5":13.6,"no2":16.4,"co":344.0,"o3":30.0,"so2":1.9,"mosquito_risk":3,"arthritis_risk":5,"migraine_risk":7,"frizz_risk":1,"updated_at":"2026-07-16T20:33:35.464859+05:30"},{"city":"Gangtok","state":"Sikkim","latitude":27.3314,"longitude":88.6138,"temp":19.9,"humidity":91,"rain":0.0,"pressure":837.4,"uv_index":6.65,"wind_gusts":34.2,"aqi":44,"pm10":7.0,"pm2_5":6.2,"no2":6.4,"co":375.0,"o3":91.0,"so2":1.8,"mosquito_risk":3,"arthritis_risk":10,"migraine_risk":7,"frizz_risk":1,"updated_at":"2026-07-16T20:33:35.464866+05:30"},{"city":"Siliguri","state":"West Bengal","latitude":26.7271,"longitude":88.3953,"temp":28.0,"humidity":87,"rain":0.0,"pressure":989.5,"uv_index":7.15,"wind_gusts":24.1,"aqi":64,"pm10":23.2,"pm2_5":20.8,"no2":12.8,"co":938.0,"o3":94.0,"so2":4.5,"mosquito_risk":7,"arthritis_risk":5,"migraine_risk":7,"frizz_risk":1,"updated_at":"2026-07-16T20:33:38.831180+05:30"},{"city":"Durgapur","state":"West Bengal","latitude":23.5204,"longitude":87.3119,"temp":27.0,"humidity":95,"rain":0.2,"pressure":989.1,"uv_index":7.05,"wind_gusts":36.4,"aqi":82,"pm10":31.4,"pm2_5":30.5,"no2":29.9,"co":483.0,"o3":55.0,"so2":28.7,"mosquito_risk":10,"arthritis_risk":5,"migraine_risk":7,"frizz_risk":1,"updated_at":"2026-07-16T20:33:38.831212+05:30"},{"city":"Asansol","state":"West Bengal","latitude":23.6739,"longitude":86.9524,"temp":28.3,"humidity":87,"rain":0.0,"pressure":987.9,"uv_index":8.05,"wind_gusts":32.8,"aqi":81,"pm10":28.8,"pm2_5":27.6,"no2":31.9,"co":321.0,"o3":62.0,"so2":29.2,"mosquito_risk":7,"arthritis_risk":5,"migraine_risk":7,"frizz_risk":1,"updated_at":"2026-07-16T20:33:38.831224+05:30"},{"city":"Pondicherry","state":"Puducherry","latitude":11.9139,"longitude":79.8145,"temp":29.5,"humidity":84,"rain":0.0,"pressure":1006.9,"uv_index":8.2,"wind_gusts":45.7,"aqi":102,"pm10":39.2,"pm2_5":28.1,"no2":17.8,"co":139.0,"o3":87.0,"so2":6.8,"mosquito_risk":7,"arthritis_risk":5,"migraine_risk":4,"frizz_risk":1,"updated_at":"2026-07-16T20:33:38.831233+05:30"},{"city":"Port Blair","state":"Andaman and Nicobar Islands","latitude":11.6234,"longitude":92.7265,"temp":27.6,"humidity":86,"rain":0.0,"pressure":1008.6,"uv_index":8.4,"wind_gusts":50.0,"aqi":50,"pm10":17.3,"pm2_5":8.5,"no2":0.3,"co":93.0,"o3":45.0,"so2":0.4,"mosquito_risk":7,"arthritis_risk":0,"migraine_risk":4,"frizz_risk":1,"updated_at":"2026-07-16T20:33:38.831242+05:30"},{"city":"Haridwar","state":"Uttarakhand","latitude":29.9457,"longitude":78.1642,"temp":30.8,"humidity":79,"rain":0.0,"pressure":968.1,"uv_index":7.5,"wind_gusts":32.0,"aqi":160,"pm10":78.0,"pm2_5":61.0,"no2":19.1,"co":537.0,"o3":108.0,"so2":13.0,"mosquito_risk":3,"arthritis_risk":5,"migraine_risk":7,"frizz_risk":1,"updated_at":"2026-07-16T20:33:38.831250+05:30"},{"city":"Rishikesh","state":"Uttarakhand","latitude":30.0869,"longitude":78.2676,"temp":29.0,"humidity":83,"rain":0.0,"pressure":961.1,"uv_index":7.6,"wind_gusts":27.0,"aqi":157,"pm10":79.9,"pm2_5":57.3,"no2":9.8,"co":423.0,"o3":141.0,"so2":11.3,"mosquito_risk":7,"arthritis_risk":5,"migraine_risk":7,"frizz_risk":1,"updated_at":"2026-07-16T20:33:38.831259+05:30"},{"city":"Nainital","state":"Uttarakhand","latitude":29.3919,"longitude":79.4542,"temp":18.5,"humidity":99,"rain":0.0,"pressure":804.3,"uv_index":6.45,"wind_gusts":26.6,"aqi":134,"pm10":86.8,"pm2_5":55.2,"no2":13.8,"co":378.0,"o3":104.0,"so2":9.1,"mosquito_risk":3,"arthritis_risk":10,"migraine_risk":7,"frizz_risk":1,"updated_at":"2026-07-16T20:33:38.831267+05:30"},{"city":"Mussoorie","state":"Uttarakhand","latitude":30.4599,"longitude":78.0664,"temp":18.4,"humidity":100,"rain":0.0,"pressure":801.2,"uv_index":7.3,"wind_gusts":42.1,"aqi":162,"pm10":68.7,"pm2_5":60.3,"no2":26.8,"co":438.0,"o3":104.0,"so2":12.0,"mosquito_risk":3,"arthritis_risk":10,"migraine_risk":7,"frizz_risk":1,"updated_at":"2026-07-16T20:33:38.831275+05:30"},{"city":"Dharamshala","state":"Himachal Pradesh","latitude":32.219,"longitude":76.3234,"temp":23.1,"humidity":91,"rain":0.0,"pressure":866.1,"uv_index":8.45,"wind_gusts":31.0,"aqi":111,"pm10":32.2,"pm2_5":24.9,"no2":11.3,"co":460.0,"o3":108.0,"so2":2.2,"mosquito_risk":3,"arthritis_risk":5,"migraine_risk":7,"frizz_risk":1,"updated_at":"2026-07-16T20:33:38.831282+05:30"},{"city":"Dalhousie","state":"Himachal Pradesh","latitude":32.5387,"longitude":75.971,"temp":17.9,"humidity":98,"rain":0.0,"pressure":802.0,"uv_index":8.0,"wind_gusts":28.8,"aqi":149,"pm10":55.4,"pm2_5":44.5,"no2":30.8,"co":556.0,"o3":113.0,"so2":4.4,"mosquito_risk":3,"arthritis_risk":10,"migraine_risk":7,"frizz_risk":1,"updated_at":"2026-07-16T20:33:38.831290+05:30"},{"city":"Patiala","state":"Punjab","latitude":30.3398,"longitude":76.3869,"temp":30.8,"humidity":74,"rain":0.0,"pressure":972.0,"uv_index":7.6,"wind_gusts":33.8,"aqi":182,"pm10":373.5,"pm2_5":116.4,"no2":29.2,"co":695.0,"o3":76.0,"so2":9.1,"mosquito_risk":3,"arthritis_risk":5,"migraine_risk":7,"frizz_risk":1,"updated_at":"2026-07-16T20:33:38.831298+05:30"},{"city":"Bhatinda","state":"Punjab","latitude":30.211,"longitude":74.9455,"temp":34.5,"humidity":52,"rain":0.0,"pressure":977.4,"uv_index":7.4,"wind_gusts":28.8,"aqi":176,"pm10":148.1,"pm2_5":78.0,"no2":34.3,"co":378.0,"o3":53.0,"so2":6.1,"mosquito_risk":0,"arthritis_risk":5,"migraine_risk":7,"frizz_risk":1,"updated_at":"2026-07-16T20:33:38.831304+05:30"},{"city":"Rohtak","state":"Haryana","latitude":28.8955,"longitude":76.6066,"temp":31.7,"humidity":71,"rain":0.0,"pressure":975.5,"uv_index":7.65,"wind_gusts":31.3,"aqi":559,"pm10":834.5,"pm2_5":183.0,"no2":56.2,"co":1158.0,"o3":27.0,"so2":10.3,"mosquito_risk":3,"arthritis_risk":5,"migraine_risk":7,"frizz_risk":1,"updated_at":"2026-07-16T20:33:38.831312+05:30"},{"city":"Panipat","state":"Haryana","latitude":29.3909,"longitude":76.9635,"temp":30.9,"humidity":71,"rain":0.0,"pressure":974.1,"uv_index":6.85,"wind_gusts":35.3,"aqi":1138,"pm10":1601.9,"pm2_5":289.6,"no2":32.3,"co":708.0,"o3":54.0,"so2":9.1,"mosquito_risk":3,"arthritis_risk":5,"migraine_risk":7,"frizz_risk":1,"updated_at":"2026-07-16T20:33:38.831318+05:30"},{"city":"Mathura","state":"Uttar Pradesh","latitude":27.4924,"longitude":77.6737,"temp":32.1,"humidity":61,"rain":0.0,"pressure":981.3,"uv_index":7.9,"wind_gusts":33.1,"aqi":425,"pm10":374.4,"pm2_5":84.3,"no2":33.5,"co":397.0,"o3":47.0,"so2":5.5,"mosquito_risk":3,"arthritis_risk":5,"migraine_risk":7,"frizz_risk":1,"updated_at":"2026-07-16T20:33:38.831326+05:30"},{"city":"Vrindavan","state":"Uttar Pradesh","latitude":27.5823,"longitude":77.7027,"temp":32.2,"humidity":59,"rain":0.0,"pressure":981.6,"uv_index":7.9,"wind_gusts":32.0,"aqi":425,"pm10":374.4,"pm2_5":84.3,"no2":33.5,"co":372.0,"o3":47.0,"so2":5.5,"mosquito_risk":0,"arthritis_risk":5,"migraine_risk":7,"frizz_risk":1,"updated_at":"2026-07-16T20:33:38.831333+05:30"},{"city":"Ayodhya","state":"Uttar Pradesh","latitude":26.7922,"longitude":82.1998,"temp":28.8,"humidity":91,"rain":0.0,"pressure":990.6,"uv_index":7.2,"wind_gusts":22.3,"aqi":176,"pm10":76.6,"pm2_5":52.4,"no2":11.4,"co":516.0,"o3":108.0,"so2":5.3,"mosquito_risk":7,"arthritis_risk":5,"migraine_risk":7,"frizz_risk":1,"updated_at":"2026-07-16T20:33:38.831340+05:30"},{"city":"Ratlam","state":"Madhya Pradesh","latitude":23.3315,"longitude":75.0367,"temp":28.3,"humidity":66,"rain":0.0,"pressure":952.3,"uv_index":7.8,"wind_gusts":32.8,"aqi":72,"pm10":40.4,"pm2_5":25.1,"no2":5.8,"co":172.0,"o3":81.0,"so2":4.9,"mosquito_risk":7,"arthritis_risk":5,"migraine_risk":7,"frizz_risk":1,"updated_at":"2026-07-16T20:33:38.831367+05:30"},{"city":"Sagar","state":"Madhya Pradesh","latitude":23.8388,"longitude":78.7378,"temp":26.5,"humidity":85,"rain":0.0,"pressure":947.0,"uv_index":8.3,"wind_gusts":38.9,"aqi":86,"pm10":34.3,"pm2_5":22.0,"no2":7.3,"co":217.0,"o3":70.0,"so2":3.2,"mosquito_risk":7,"arthritis_risk":5,"migraine_risk":7,"frizz_risk":1,"updated_at":"2026-07-16T20:33:38.831377+05:30"},{"city":"Satna","state":"Madhya Pradesh","latitude":24.6005,"longitude":80.8322,"temp":29.3,"humidity":80,"rain":0.0,"pressure":967.1,"uv_index":8.2,"wind_gusts":36.7,"aqi":137,"pm10":73.3,"pm2_5":40.3,"no2":9.8,"co":369.0,"o3":77.0,"so2":3.4,"mosquito_risk":7,"arthritis_risk":5,"migraine_risk":7,"frizz_risk":1,"updated_at":"2026-07-16T20:33:38.831385+05:30"},{"city":"Akola","state":"Maharashtra","latitude":20.7002,"longitude":77.0082,"temp":30.8,"humidity":60,"rain":0.0,"pressure":972.9,"uv_index":8.7,"wind_gusts":43.6,"aqi":64,"pm10":32.1,"pm2_5":18.2,"no2":8.1,"co":164.0,"o3":74.0,"so2":6.8,"mosquito_risk":0,"arthritis_risk":5,"migraine_risk":7,"frizz_risk":1,"updated_at":"2026-07-16T20:33:38.831393+05:30"},{"city":"Amravati","state":"Maharashtra","latitude":20.9374,"longitude":77.7796,"temp":30.8,"humidity":58,"rain":0.0,"pressure":964.8,"uv_index":8.75,"wind_gusts":42.5,"aqi":66,"pm10":34.2,"pm2_5":19.0,"no2":9.0,"co":191.0,"o3":69.0,"so2":6.9,"mosquito_risk":0,"arthritis_risk":5,"migraine_risk":7,"frizz_risk":1,"updated_at":"2026-07-16T20:33:38.831401+05:30"},{"city":"Latur","state":"Maharashtra","latitude":18.4088,"longitude":76.5604,"temp":24.0,"humidity":92,"rain":0.1,"pressure":938.6,"uv_index":2.45,"wind_gusts":37.4,"aqi":55,"pm10":34.6,"pm2_5":18.5,"no2":5.7,"co":170.0,"o3":64.0,"so2":2.2,"mosquito_risk":6,"arthritis_risk":5,"migraine_risk":3,"frizz_risk":1,"updated_at":"2026-07-16T20:33:38.831408+05:30"},{"city":"Nanded","state":"Maharashtra","latitude":19.1383,"longitude":77.3091,"temp":27.7,"humidity":73,"rain":0.0,"pressure":966.8,"uv_index":8.5,"wind_gusts":36.4,"aqi":62,"pm10":35.9,"pm2_5":20.0,"no2":10.3,"co":239.0,"o3":60.0,"so2":3.8,"mosquito_risk":7,"arthritis_risk":5,"migraine_risk":7,"frizz_risk":1,"updated_at":"2026-07-16T20:33:38.831416+05:30"},{"city":"Gulbarga","state":"Karnataka","latitude":17.3297,"longitude":76.8343,"temp":29.2,"humidity":56,"rain":0.0,"pressure":957.7,"uv_index":7.85,"wind_gusts":47.9,"aqi":55,"pm10":28.0,"pm2_5":14.1,"no2":6.2,"co":160.0,"o3":62.0,"so2":2.6,"mosquito_risk":4,"arthritis_risk":5,"migraine_risk":7,"frizz_risk":1,"updated_at":"2026-07-16T20:33:38.831423+05:30"},{"city":"Bidar","state":"Karnataka","latitude":17.9104,"longitude":77.5199,"temp":26.1,"humidity":81,"rain":0.1,"pressure":934.3,"uv_index":6.6,"wind_gusts":38.5,"aqi":59,"pm10":42.6,"pm2_5":22.2,"no2":14.4,"co":221.0,"o3":50.0,"so2":3.1,"mosquito_risk":10,"arthritis_risk":5,"migraine_risk":7,"frizz_risk":1,"updated_at":"2026-07-16T20:33:38.831430+05:30"},{"city":"Hospet","state":"Karnataka","latitude":15.2689,"longitude":76.3909,"temp":24.8,"humidity":85,"rain":0.0,"pressure":956.0,"uv_index":8.3,"wind_gusts":46.4,"aqi":56,"pm10":18.1,"pm2_5":11.1,"no2":8.0,"co":152.0,"o3":48.0,"so2":1.7,"mosquito_risk":3,"arthritis_risk":5,"migraine_risk":7,"frizz_risk":1,"updated_at":"2026-07-16T20:33:38.831437+05:30"},{"city":"Tirupur","state":"Tamil Nadu","latitude":11.1085,"longitude":77.3411,"temp":26.2,"humidity":78,"rain":0.0,"pressure":975.7,"uv_index":8.2,"wind_gusts":57.6,"aqi":69,"pm10":27.6,"pm2_5":19.0,"no2":19.4,"co":178.0,"o3":43.0,"so2":5.1,"mosquito_risk":7,"arthritis_risk":5,"migraine_risk":7,"frizz_risk":1,"updated_at":"2026-07-16T20:33:38.831444+05:30"},{"city":"Alappuzha","state":"Kerala","latitude":9.4981,"longitude":76.3388,"temp":27.5,"humidity":83,"rain":0.0,"pressure":1011.0,"uv_index":7.9,"wind_gusts":32.8,"aqi":71,"pm10":35.5,"pm2_5":18.9,"no2":13.8,"co":92.0,"o3":40.0,"so2":3.6,"mosquito_risk":7,"arthritis_risk":0,"migraine_risk":4,"frizz_risk":1,"updated_at":"2026-07-16T20:33:38.831450+05:30"},{"city":"Munnar","state":"Kerala","latitude":10.0889,"longitude":77.0595,"temp":17.2,"humidity":99,"rain":0.0,"pressure":858.1,"uv_index":8.65,"wind_gusts":31.7,"aqi":56,"pm10":16.9,"pm2_5":11.9,"no2":11.8,"co":122.0,"o3":37.0,"so2":2.5,"mosquito_risk":3,"arthritis_risk":10,"migraine_risk":7,"frizz_risk":1,"updated_at":"2026-07-16T20:33:38.831458+05:30"},{"city":"Silchar","state":"Assam","latitude":24.8333,"longitude":92.7789,"temp":27.1,"humidity":91,"rain":0.4,"pressure":1003.2,"uv_index":8.15,"wind_gusts":27.4,"aqi":60,"pm10":22.4,"pm2_5":16.8,"no2":6.4,"co":226.0,"o3":69.0,"so2":3.6,"mosquito_risk":10,"arthritis_risk":5,"migraine_risk":4,"frizz_risk":1,"updated_at":"2026-07-16T20:33:38.831465+05:30"},{"city":"Dibrugarh","state":"Assam","latitude":27.4728,"longitude":94.912,"temp":27.4,"humidity":90,"rain":0.0,"pressure":991.9,"uv_index":8.3,"wind_gusts":28.1,"aqi":49,"pm10":14.6,"pm2_5":14.1,"no2":10.0,"co":228.0,"o3":69.0,"so2":1.9,"mosquito_risk":7,"arthritis_risk":5,"migraine_risk":7,"frizz_risk":1,"updated_at":"2026-07-16T20:33:38.831472+05:30"}]