[{"city":"Delhi","state":"Delhi","latitude":28.6139,"longitude":77.209,"temp":35.2,"humidity":55,"rain":0.0,"pressure":970.7,"uv_index":7.7,"wind_gusts":29.5,"aqi":638,"pm10":851.2,"pm2_5":167.6,"no2":10.4,"co":246.0,"o3":110.0,"so2":10.5,"mosquito_risk":0,"arthritis_risk":5,"migraine_risk":10,"frizz_risk":1,"updated_at":"2026-07-12T16:42:15.238362+05:30"},{"city":"Mumbai","state":"Maharashtra","latitude":19.076,"longitude":72.8777,"temp":28.8,"humidity":80,"rain":0.0,"pressure":1004.6,"uv_index":7.55,"wind_gusts":57.6,"aqi":51,"pm10":35.6,"pm2_5":14.6,"no2":4.6,"co":135.0,"o3":56.0,"so2":5.3,"mosquito_risk":7,"arthritis_risk":5,"migraine_risk":4,"frizz_risk":1,"updated_at":"2026-07-12T16:42:15.238399+05:30"},{"city":"Bangalore","state":"Karnataka","latitude":12.9716,"longitude":77.5946,"temp":31.2,"humidity":44,"rain":0.0,"pressure":908.9,"uv_index":8.8,"wind_gusts":47.2,"aqi":51,"pm10":35.7,"pm2_5":14.3,"no2":2.9,"co":205.0,"o3":80.0,"so2":2.1,"mosquito_risk":0,"arthritis_risk":5,"migraine_risk":7,"frizz_risk":1,"updated_at":"2026-07-12T16:42:15.238414+05:30"},{"city":"Hyderabad","state":"Telangana","latitude":17.385,"longitude":78.4867,"temp":32.6,"humidity":41,"rain":0.0,"pressure":948.1,"uv_index":8.7,"wind_gusts":53.3,"aqi":60,"pm10":42.0,"pm2_5":17.1,"no2":2.2,"co":157.0,"o3":87.0,"so2":2.4,"mosquito_risk":0,"arthritis_risk":5,"migraine_risk":7,"frizz_risk":1,"updated_at":"2026-07-12T16:42:15.238423+05:30"},{"city":"Chennai","state":"Tamil Nadu","latitude":13.0827,"longitude":80.2707,"temp":34.0,"humidity":57,"rain":0.0,"pressure":1000.5,"uv_index":8.8,"wind_gusts":42.5,"aqi":76,"pm10":47.5,"pm2_5":24.0,"no2":4.8,"co":211.0,"o3":129.0,"so2":5.6,"mosquito_risk":0,"arthritis_risk":5,"migraine_risk":4,"frizz_risk":1,"updated_at":"2026-07-12T16:42:15.238430+05:30"},{"city":"Kolkata","state":"West Bengal","latitude":22.5726,"longitude":88.3639,"temp":31.5,"humidity":76,"rain":0.1,"pressure":994.3,"uv_index":8.65,"wind_gusts":24.1,"aqi":147,"pm10":65.2,"pm2_5":47.8,"no2":8.7,"co":424.0,"o3":109.0,"so2":10.8,"mosquito_risk":6,"arthritis_risk":5,"migraine_risk":7,"frizz_risk":1,"updated_at":"2026-07-12T16:42:15.238438+05:30"},{"city":"Pune","state":"Maharashtra","latitude":18.5204,"longitude":73.8567,"temp":27.8,"humidity":69,"rain":0.0,"pressure":944.1,"uv_index":8.35,"wind_gusts":55.4,"aqi":34,"pm10":29.1,"pm2_5":10.5,"no2":1.7,"co":118.0,"o3":57.0,"so2":3.1,"mosquito_risk":7,"arthritis_risk":5,"migraine_risk":7,"frizz_risk":1,"updated_at":"2026-07-12T16:42:15.238445+05:30"},{"city":"Ahmedabad","state":"Gujarat","latitude":23.0225,"longitude":72.5714,"temp":37.2,"humidity":40,"rain":0.0,"pressure":992.3,"uv_index":8.1,"wind_gusts":51.5,"aqi":66,"pm10":56.5,"pm2_5":22.9,"no2":2.0,"co":118.0,"o3":81.0,"so2":3.1,"mosquito_risk":0,"arthritis_risk":5,"migraine_risk":10,"frizz_risk":1,"updated_at":"2026-07-12T16:42:15.238452+05:30"},{"city":"Jaipur","state":"Rajasthan","latitude":26.9124,"longitude":75.7873,"temp":33.6,"humidity":49,"rain":0.0,"pressure":950.0,"uv_index":8.2,"wind_gusts":37.8,"aqi":374,"pm10":476.8,"pm2_5":78.9,"no2":1.3,"co":133.0,"o3":100.0,"so2":3.1,"mosquito_risk":0,"arthritis_risk":5,"migraine_risk":7,"frizz_risk":1,"updated_at":"2026-07-12T16:42:15.238459+05:30"},{"city":"Lucknow","state":"Uttar Pradesh","latitude":26.8467,"longitude":80.9462,"temp":34.1,"humidity":60,"rain":0.0,"pressure":980.9,"uv_index":8.2,"wind_gusts":38.2,"aqi":146,"pm10":136.4,"pm2_5":46.4,"no2":3.6,"co":168.0,"o3":100.0,"so2":3.8,"mosquito_risk":0,"arthritis_risk":5,"migraine_risk":7,"frizz_risk":1,"updated_at":"2026-07-12T16:42:15.238469+05:30"},{"city":"Kanpur","state":"Uttar Pradesh","latitude":26.4499,"longitude":80.3319,"temp":34.5,"humidity":55,"rain":0.0,"pressure":979.6,"uv_index":7.9,"wind_gusts":40.3,"aqi":124,"pm10":137.4,"pm2_5":40.5,"no2":3.0,"co":133.0,"o3":103.0,"so2":4.1,"mosquito_risk":0,"arthritis_risk":5,"migraine_risk":7,"frizz_risk":1,"updated_at":"2026-07-12T16:42:15.238476+05:30"},{"city":"Chandigarh","state":"Chandigarh","latitude":30.7333,"longitude":76.7794,"temp":33.2,"humidity":64,"rain":0.0,"pressure":956.8,"uv_index":7.7,"wind_gusts":25.9,"aqi":156,"pm10":192.8,"pm2_5":73.3,"no2":1.8,"co":554.0,"o3":162.0,"so2":13.5,"mosquito_risk":3,"arthritis_risk":5,"migraine_risk":7,"frizz_risk":1,"updated_at":"2026-07-12T16:42:15.238483+05:30"},{"city":"Srinagar","state":"Jammu and Kashmir","latitude":34.0837,"longitude":74.7973,"temp":19.4,"humidity":90,"rain":0.2,"pressure":835.6,"uv_index":8.3,"wind_gusts":24.8,"aqi":93,"pm10":9.8,"pm2_5":7.2,"no2":2.0,"co":291.0,"o3":136.0,"so2":1.7,"mosquito_risk":6,"arthritis_risk":10,"migraine_risk":7,"frizz_risk":1,"updated_at":"2026-07-12T16:42:15.238490+05:30"},{"city":"Jammu","state":"Jammu and Kashmir","latitude":32.7266,"longitude":74.857,"temp":33.1,"humidity":60,"rain":0.0,"pressure":961.4,"uv_index":8.6,"wind_gusts":27.7,"aqi":133,"pm10":119.2,"pm2_5":54.1,"no2":0.7,"co":299.0,"o3":164.0,"so2":3.4,"mosquito_risk":0,"arthritis_risk":5,"migraine_risk":7,"frizz_risk":1,"updated_at":"2026-07-12T16:42:15.238496+05:30"},{"city":"Amritsar","state":"Punjab","latitude":31.634,"longitude":74.8723,"temp":33.3,"humidity":65,"rain":0.0,"pressure":968.7,"uv_index":8.45,"wind_gusts":37.1,"aqi":162,"pm10":249.6,"pm2_5":79.9,"no2":1.5,"co":288.0,"o3":135.0,"so2":5.3,"mosquito_risk":3,"arthritis_risk":5,"migraine_risk":7,"frizz_risk":1,"updated_at":"2026-07-12T16:42:15.238502+05:30"},{"city":"Ludhiana","state":"Punjab","latitude":30.901,"longitude":75.8573,"temp":34.7,"humidity":61,"rain":0.0,"pressure":966.3,"uv_index":7.95,"wind_gusts":41.0,"aqi":171,"pm10":323.2,"pm2_5":104.8,"no2":2.0,"co":336.0,"o3":158.0,"so2":8.2,"mosquito_risk":3,"arthritis_risk":5,"migraine_risk":7,"frizz_risk":1,"updated_at":"2026-07-12T16:42:15.238508+05:30"},{"city":"Jalandhar","state":"Punjab","latitude":31.326,"longitude":75.5762,"temp":33.4,"humidity":64,"rain":0.0,"pressure":967.4,"uv_index":8.15,"wind_gusts":47.9,"aqi":165,"pm10":223.5,"pm2_5":80.8,"no2":2.0,"co":312.0,"o3":158.0,"so2":5.6,"mosquito_risk":3,"arthritis_risk":5,"migraine_risk":7,"frizz_risk":1,"updated_at":"2026-07-12T16:42:15.238513+05:30"},{"city":"Dehradun","state":"Uttarakhand","latitude":30.6284,"longitude":78.0322,"temp":23.4,"humidity":84,"rain":0.0,"pressure":824.0,"uv_index":8.05,"wind_gusts":29.9,"aqi":110,"pm10":86.1,"pm2_5":39.5,"no2":0.5,"co":219.0,"o3":143.0,"so2":4.8,"mosquito_risk":3,"arthritis_risk":5,"migraine_risk":7,"frizz_risk":1,"updated_at":"2026-07-12T16:42:15.238522+05:30"},{"city":"Shimla","state":"Himachal Pradesh","latitude":31.1048,"longitude":77.1734,"temp":22.1,"humidity":71,"rain":0.0,"pressure":780.3,"uv_index":8.25,"wind_gusts":40.3,"aqi":108,"pm10":75.9,"pm2_5":36.7,"no2":0.6,"co":192.0,"o3":146.0,"so2":7.3,"mosquito_risk":3,"arthritis_risk":5,"migraine_risk":7,"frizz_risk":1,"updated_at":"2026-07-12T16:42:15.238528+05:30"},{"city":"Manali","state":"Himachal Pradesh","latitude":32.2396,"longitude":77.1887,"temp":24.7,"humidity":60,"rain":0.0,"pressure":814.4,"uv_index":9.4,"wind_gusts":34.6,"aqi":107,"pm10":8.7,"pm2_5":6.0,"no2":0.8,"co":222.0,"o3":162.0,"so2":1.0,"mosquito_risk":0,"arthritis_risk":5,"migraine_risk":7,"frizz_risk":1,"updated_at":"2026-07-12T16:42:15.238536+05:30"},{"city":"Gurgaon","state":"Haryana","latitude":28.4595,"longitude":77.0266,"temp":35.4,"humidity":52,"rain":0.0,"pressure":969.3,"uv_index":7.7,"wind_gusts":32.4,"aqi":707,"pm10":730.2,"pm2_5":131.3,"no2":9.0,"co":254.0,"o3":105.0,"so2":7.2,"mosquito_risk":0,"arthritis_risk":5,"migraine_risk":10,"frizz_risk":1,"updated_at":"2026-07-12T16:42:15.238542+05:30"},{"city":"Noida","state":"Uttar Pradesh","latitude":28.5355,"longitude":77.391,"temp":35.6,"humidity":54,"rain":0.0,"pressure":972.1,"uv_index":7.7,"wind_gusts":28.1,"aqi":707,"pm10":730.2,"pm2_5":131.3,"no2":9.0,"co":235.0,"o3":105.0,"so2":7.2,"mosquito_risk":0,"arthritis_risk":5,"migraine_risk":10,"frizz_risk":1,"updated_at":"2026-07-12T16:42:15.238548+05:30"},{"city":"Ghaziabad","state":"Uttar Pradesh","latitude":28.6692,"longitude":77.4538,"temp":35.1,"humidity":57,"rain":0.0,"pressure":970.3,"uv_index":7.7,"wind_gusts":29.2,"aqi":510,"pm10":855.0,"pm2_5":182.1,"no2":6.8,"co":205.0,"o3":132.0,"so2":13.6,"mosquito_risk":0,"arthritis_risk":5,"migraine_risk":10,"frizz_risk":1,"updated_at":"2026-07-12T16:42:15.238554+05:30"},{"city":"Faridabad","state":"Haryana","latitude":28.4089,"longitude":77.3178,"temp":35.4,"humidity":54,"rain":0.0,"pressure":971.4,"uv_index":7.75,"wind_gusts":31.3,"aqi":707,"pm10":730.2,"pm2_5":131.3,"no2":9.0,"co":232.0,"o3":105.0,"so2":7.2,"mosquito_risk":0,"arthritis_risk":5,"migraine_risk":10,"frizz_risk":1,"updated_at":"2026-07-12T16:42:15.238560+05:30"},{"city":"Meerut","state":"Uttar Pradesh","latitude":28.9845,"longitude":77.7064,"temp":34.5,"humidity":59,"rain":0.0,"pressure":968.9,"uv_index":7.6,"wind_gusts":31.7,"aqi":510,"pm10":855.0,"pm2_5":182.1,"no2":6.8,"co":163.0,"o3":132.0,"so2":13.6,"mosquito_risk":0,"arthritis_risk":5,"migraine_risk":7,"frizz_risk":1,"updated_at":"2026-07-12T16:42:15.238565+05:30"},{"city":"Agra","state":"Uttar Pradesh","latitude":27.1767,"longitude":78.0081,"temp":34.8,"humidity":52,"rain":0.0,"pressure":976.1,"uv_index":8.0,"wind_gusts":38.2,"aqi":139,"pm10":228.6,"pm2_5":51.8,"no2":2.5,"co":138.0,"o3":99.0,"so2":2.8,"mosquito_risk":0,"arthritis_risk":5,"migraine_risk":7,"frizz_risk":1,"updated_at":"2026-07-12T16:42:15.238572+05:30"},{"city":"Varanasi","state":"Uttar Pradesh","latitude":25.3176,"longitude":82.9739,"temp":33.7,"humidity":61,"rain":0.0,"pressure":985.3,"uv_index":8.4,"wind_gusts":37.4,"aqi":96,"pm10":71.2,"pm2_5":34.3,"no2":3.8,"co":229.0,"o3":113.0,"so2":6.3,"mosquito_risk":3,"arthritis_risk":5,"migraine_risk":7,"frizz_risk":1,"updated_at":"2026-07-12T16:42:15.238578+05:30"},{"city":"Prayagraj","state":"Uttar Pradesh","latitude":25.4358,"longitude":81.8463,"temp":33.7,"humidity":59,"rain":0.0,"pressure":984.1,"uv_index":8.5,"wind_gusts":41.4,"aqi":99,"pm10":63.1,"pm2_5":33.2,"no2":4.3,"co":161.0,"o3":103.0,"so2":6.4,"mosquito_risk":0,"arthritis_risk":5,"migraine_risk":7,"frizz_risk":1,"updated_at":"2026-07-12T16:42:15.238584+05:30"},{"city":"Gorakhpur","state":"Uttar Pradesh","latitude":26.7606,"longitude":83.3732,"temp":33.3,"humidity":64,"rain":0.1,"pressure":984.1,"uv_index":6.8,"wind_gusts":38.9,"aqi":135,"pm10":75.7,"pm2_5":40.7,"no2":6.3,"co":238.0,"o3":113.0,"so2":7.2,"mosquito_risk":6,"arthritis_risk":5,"migraine_risk":7,"frizz_risk":1,"updated_at":"2026-07-12T16:42:15.238590+05:30"},{"city":"Bareilly","state":"Uttar Pradesh","latitude":28.367,"longitude":79.4304,"temp":34.8,"humidity":61,"rain":0.0,"pressure":973.9,"uv_index":8.0,"wind_gusts":33.8,"aqi":167,"pm10":280.3,"pm2_5":103.1,"no2":3.5,"co":199.0,"o3":122.0,"so2":6.5,"mosquito_risk":3,"arthritis_risk":5,"migraine_risk":7,"frizz_risk":1,"updated_at":"2026-07-12T16:42:15.238598+05:30"},{"city":"Aligarh","state":"Uttar Pradesh","latitude":27.8974,"longitude":78.088,"temp":34.8,"humidity":57,"rain":0.0,"pressure":973.6,"uv_index":7.85,"wind_gusts":36.0,"aqi":581,"pm10":800.9,"pm2_5":136.4,"no2":3.8,"co":156.0,"o3":99.0,"so2":4.6,"mosquito_risk":0,"arthritis_risk":5,"migraine_risk":7,"frizz_risk":1,"updated_at":"2026-07-12T16:42:15.238605+05:30"},{"city":"Moradabad","state":"Uttar Pradesh","latitude":28.8386,"longitude":78.7733,"temp":34.5,"humidity":62,"rain":0.0,"pressure":970.9,"uv_index":7.8,"wind_gusts":36.0,"aqi":179,"pm10":472.2,"pm2_5":143.9,"no2":3.3,"co":227.0,"o3":136.0,"so2":8.9,"mosquito_risk":3,"arthritis_risk":5,"migraine_risk":7,"frizz_risk":1,"updated_at":"2026-07-12T16:42:15.238611+05:30"},{"city":"Saharanpur","state":"Uttar Pradesh","latitude":29.9637,"longitude":77.546,"temp":33.9,"humidity":65,"rain":0.0,"pressure":963.1,"uv_index":7.35,"wind_gusts":25.9,"aqi":171,"pm10":277.5,"pm2_5":98.0,"no2":3.4,"co":288.0,"o3":133.0,"so2":9.7,"mosquito_risk":3,"arthritis_risk":5,"migraine_risk":7,"frizz_risk":1,"updated_at":"2026-07-12T16:42:15.238617+05:30"},{"city":"Jhansi","state":"Uttar Pradesh","latitude":25.4484,"longitude":78.5685,"temp":33.8,"humidity":52,"rain":0.0,"pressure":967.8,"uv_index":8.35,"wind_gusts":45.0,"aqi":84,"pm10":79.9,"pm2_5":34.3,"no2":2.2,"co":133.0,"o3":104.0,"so2":7.0,"mosquito_risk":0,"arthritis_risk":5,"migraine_risk":7,"frizz_risk":1,"updated_at":"2026-07-12T16:42:18.466403+05:30"},{"city":"Surat","state":"Gujarat","latitude":21.1702,"longitude":72.8311,"temp":30.1,"humidity":74,"rain":0.0,"pressure":1000.7,"uv_index":5.9,"wind_gusts":66.6,"aqi":57,"pm10":40.7,"pm2_5":19.3,"no2":7.2,"co":158.0,"o3":44.0,"so2":18.3,"mosquito_risk":3,"arthritis_risk":5,"migraine_risk":0,"frizz_risk":1,"updated_at":"2026-07-12T16:42:18.466434+05:30"},{"city":"Vadodara","state":"Gujarat","latitude":22.3072,"longitude":73.1812,"temp":32.2,"humidity":67,"rain":0.0,"pressure":996.2,"uv_index":8.05,"wind_gusts":59.0,"aqi":57,"pm10":49.4,"pm2_5":21.8,"no2":2.3,"co":114.0,"o3":76.0,"so2":4.4,"mosquito_risk":3,"arthritis_risk":5,"migraine_risk":7,"frizz_risk":1,"updated_at":"2026-07-12T16:42:18.466444+05:30"},{"city":"Rajkot","state":"Gujarat","latitude":22.3039,"longitude":70.8022,"temp":33.8,"humidity":51,"rain":0.0,"pressure":985.7,"uv_index":7.7,"wind_gusts":61.2,"aqi":60,"pm10":51.3,"pm2_5":20.0,"no2":1.0,"co":94.0,"o3":64.0,"so2":2.5,"mosquito_risk":0,"arthritis_risk":5,"migraine_risk":7,"frizz_risk":1,"updated_at":"2026-07-12T16:42:18.466452+05:30"},{"city":"Thane","state":"Maharashtra","latitude":19.2183,"longitude":72.9781,"temp":30.0,"humidity":72,"rain":0.0,"pressure":1003.8,"uv_index":7.0,"wind_gusts":50.4,"aqi":51,"pm10":35.6,"pm2_5":14.6,"no2":4.6,"co":131.0,"o3":56.0,"so2":5.3,"mosquito_risk":7,"arthritis_risk":5,"migraine_risk":4,"frizz_risk":1,"updated_at":"2026-07-12T16:42:18.466459+05:30"},{"city":"Nagpur","state":"Maharashtra","latitude":21.1458,"longitude":79.0882,"temp":32.3,"humidity":54,"rain":0.0,"pressure":965.9,"uv_index":8.45,"wind_gusts":42.1,"aqi":75,"pm10":61.0,"pm2_5":26.2,"no2":6.5,"co":141.0,"o3":78.0,"so2":13.4,"mosquito_risk":0,"arthritis_risk":5,"migraine_risk":7,"frizz_risk":1,"updated_at":"2026-07-12T16:42:18.466467+05:30"},{"city":"Nashik","state":"Maharashtra","latitude":19.9975,"longitude":73.7898,"temp":28.0,"humidity":67,"rain":0.0,"pressure":940.8,"uv_index":8.05,"wind_gusts":65.2,"aqi":35,"pm10":30.5,"pm2_5":12.7,"no2":1.8,"co":100.0,"o3":64.0,"so2":3.3,"mosquito_risk":7,"arthritis_risk":5,"migraine_risk":7,"frizz_risk":1,"updated_at":"2026-07-12T16:42:18.466474+05:30"},{"city":"Aurangabad","state":"Maharashtra","latitude":19.8762,"longitude":75.3433,"temp":31.3,"humidity":51,"rain":0.0,"pressure":938.6,"uv_index":8.95,"wind_gusts":55.4,"aqi":51,"pm10":52.4,"pm2_5":20.0,"no2":1.4,"co":116.0,"o3":93.0,"so2":4.8,"mosquito_risk":0,"arthritis_risk":5,"migraine_risk":7,"frizz_risk":1,"updated_at":"2026-07-12T16:42:18.466480+05:30"},{"city":"Solapur","state":"Maharashtra","latitude":17.6599,"longitude":75.9064,"temp":32.8,"humidity":44,"rain":0.0,"pressure":952.5,"uv_index":8.85,"wind_gusts":52.9,"aqi":50,"pm10":40.3,"pm2_5":14.7,"no2":1.1,"co":104.0,"o3":74.0,"so2":1.4,"mosquito_risk":0,"arthritis_risk":5,"migraine_risk":7,"frizz_risk":1,"updated_at":"2026-07-12T16:42:18.466488+05:30"},{"city":"Kolhapur","state":"Maharashtra","latitude":16.705,"longitude":74.2433,"temp":26.8,"humidity":72,"rain":0.0,"pressure":945.3,"uv_index":8.2,"wind_gusts":54.0,"aqi":35,"pm10":24.8,"pm2_5":10.1,"no2":1.7,"co":107.0,"o3":52.0,"so2":1.6,"mosquito_risk":7,"arthritis_risk":5,"migraine_risk":7,"frizz_risk":1,"updated_at":"2026-07-12T16:42:18.466495+05:30"},{"city":"Goa","state":"Goa","latitude":15.2993,"longitude":74.124,"temp":30.2,"humidity":68,"rain":0.0,"pressure":996.1,"uv_index":7.4,"wind_gusts":38.2,"aqi":55,"pm10":21.1,"pm2_5":9.7,"no2":0.9,"co":102.0,"o3":50.0,"so2":1.2,"mosquito_risk":3,"arthritis_risk":5,"migraine_risk":7,"frizz_risk":1,"updated_at":"2026-07-12T16:42:18.466503+05:30"},{"city":"Jodhpur","state":"Rajasthan","latitude":26.2389,"longitude":73.0243,"temp":37.2,"humidity":36,"rain":0.0,"pressure":971.5,"uv_index":8.45,"wind_gusts":52.9,"aqi":182,"pm10":330.6,"pm2_5":63.1,"no2":0.8,"co":102.0,"o3":82.0,"so2":1.9,"mosquito_risk":0,"arthritis_risk":5,"migraine_risk":10,"frizz_risk":1,"updated_at":"2026-07-12T16:42:18.466510+05:30"},{"city":"Udaipur","state":"Rajasthan","latitude":24.5854,"longitude":73.7125,"temp":31.8,"humidity":50,"rain":0.0,"pressure":937.7,"uv_index":8.8,"wind_gusts":51.8,"aqi":71,"pm10":74.5,"pm2_5":28.9,"no2":0.9,"co":107.0,"o3":88.0,"so2":3.2,"mosquito_risk":0,"arthritis_risk":5,"migraine_risk":7,"frizz_risk":1,"updated_at":"2026-07-12T16:42:18.466517+05:30"},{"city":"Kota","state":"Rajasthan","latitude":25.2138,"longitude":75.8648,"temp":34.8,"humidity":47,"rain":0.0,"pressure":968.9,"uv_index":8.3,"wind_gusts":37.1,"aqi":78,"pm10":73.3,"pm2_5":29.2,"no2":1.7,"co":133.0,"o3":101.0,"so2":5.3,"mosquito_risk":0,"arthritis_risk":5,"migraine_risk":7,"frizz_risk":1,"updated_at":"2026-07-12T16:42:18.466524+05:30"},{"city":"Bikaner","state":"Rajasthan","latitude":28.0229,"longitude":73.3119,"temp":38.1,"humidity":37,"rain":0.0,"pressure":969.4,"uv_index":8.45,"wind_gusts":41.0,"aqi":159,"pm10":146.2,"pm2_5":45.4,"no2":0.4,"co":105.0,"o3":90.0,"so2":3.0,"mosquito_risk":0,"arthritis_risk":5,"migraine_risk":10,"frizz_risk":1,"updated_at":"2026-07-12T16:42:18.466532+05:30"},{"city":"Ajmer","state":"Rajasthan","latitude":26.4499,"longitude":74.6399,"temp":32.7,"humidity":48,"rain":0.0,"pressure":945.0,"uv_index":8.35,"wind_gusts":48.2,"aqi":75,"pm10":69.4,"pm2_5":27.6,"no2":1.0,"co":111.0,"o3":96.0,"so2":2.7,"mosquito_risk":0,"arthritis_risk":5,"migraine_risk":7,"frizz_risk":1,"updated_at":"2026-07-12T16:42:18.466539+05:30"},{"city":"Gwalior","state":"Madhya Pradesh","latitude":26.2183,"longitude":78.1828,"temp":33.6,"humidity":54,"rain":0.0,"pressure":972.5,"uv_index":8.15,"wind_gusts":43.2,"aqi":83,"pm10":84.8,"pm2_5":33.8,"no2":1.1,"co":122.0,"o3":99.0,"so2":3.4,"mosquito_risk":0,"arthritis_risk":5,"migraine_risk":7,"frizz_risk":1,"updated_at":"2026-07-12T16:42:18.466546+05:30"},{"city":"Indore","state":"Madhya Pradesh","latitude":22.7196,"longitude":75.8577,"temp":30.3,"humidity":60,"rain":0.0,"pressure":940.9,"uv_index":8.55,"wind_gusts":52.9,"aqi":62,"pm10":67.8,"pm2_5":31.2,"no2":2.4,"co":157.0,"o3":90.0,"so2":5.1,"mosquito_risk":0,"arthritis_risk":5,"migraine_risk":7,"frizz_risk":1,"updated_at":"2026-07-12T16:42:18.466553+05:30"},{"city":"Bhopal","state":"Madhya Pradesh","latitude":23.2599,"longitude":77.4126,"temp":30.6,"humidity":61,"rain":0.0,"pressure":945.9,"uv_index":8.3,"wind_gusts":43.2,"aqi":69,"pm10":62.2,"pm2_5":27.8,"no2":2.1,"co":164.0,"o3":81.0,"so2":4.2,"mosquito_risk":3,"arthritis_risk":5,"migraine_risk":7,"frizz_risk":1,"updated_at":"2026-07-12T16:42:18.466560+05:30"},{"city":"Jabalpur","state":"Madhya Pradesh","latitude":23.1815,"longitude":79.9864,"temp":31.1,"humidity":60,"rain":0.0,"pressure":953.2,"uv_index":6.2,"wind_gusts":38.5,"aqi":75,"pm10":56.3,"pm2_5":23.2,"no2":1.5,"co":150.0,"o3":95.0,"so2":3.5,"mosquito_risk":0,"arthritis_risk":5,"migraine_risk":7,"frizz_risk":1,"updated_at":"2026-07-12T16:42:18.466567+05:30"},{"city":"Ujjain","state":"Madhya Pradesh","latitude":23.1765,"longitude":75.7885,"temp":31.2,"humidity":55,"rain":0.0,"pressure":946.3,"uv_index":8.45,"wind_gusts":51.5,"aqi":62,"pm10":65.4,"pm2_5":29.5,"no2":1.8,"co":139.0,"o3":85.0,"so2":3.9,"mosquito_risk":0,"arthritis_risk":5,"migraine_risk":7,"frizz_risk":1,"updated_at":"2026-07-12T16:42:18.466574+05:30"},{"city":"Visakhapatnam","state":"Andhra Pradesh","latitude":17.6868,"longitude":83.2185,"temp":36.2,"humidity":43,"rain":0.0,"pressure":993.7,"uv_index":8.6,"wind_gusts":41.4,"aqi":102,"pm10":59.6,"pm2_5":28.1,"no2":8.8,"co":266.0,"o3":126.0,"so2":24.0,"mosquito_risk":0,"arthritis_risk":5,"migraine_risk":10,"frizz_risk":1,"updated_at":"2026-07-12T16:42:18.466581+05:30"},{"city":"Vijayawada","state":"Andhra Pradesh","latitude":16.5062,"longitude":80.648,"temp":35.9,"humidity":41,"rain":0.0,"pressure":995.2,"uv_index":7.45,"wind_gusts":45.0,"aqi":89,"pm10":49.8,"pm2_5":21.1,"no2":2.3,"co":135.0,"o3":91.0,"so2":3.4,"mosquito_risk":0,"arthritis_risk":5,"migraine_risk":10,"frizz_risk":1,"updated_at":"2026-07-12T16:42:18.466588+05:30"},{"city":"Guntur","state":"Andhra Pradesh","latitude":16.3067,"longitude":80.4365,"temp":36.8,"humidity":36,"rain":0.0,"pressure":996.3,"uv_index":7.8,"wind_gusts":45.4,"aqi":82,"pm10":50.8,"pm2_5":20.8,"no2":2.0,"co":124.0,"o3":90.0,"so2":3.0,"mosquito_risk":0,"arthritis_risk":5,"migraine_risk":10,"frizz_risk":1,"updated_at":"2026-07-12T16:42:18.466596+05:30"},{"city":"Nellore","state":"Andhra Pradesh","latitude":14.4426,"longitude":79.9865,"temp":38.0,"humidity":30,"rain":0.0,"pressure":998.6,"uv_index":8.1,"wind_gusts":45.7,"aqi":71,"pm10":66.8,"pm2_5":24.2,"no2":3.1,"co":110.0,"o3":107.0,"so2":4.7,"mosquito_risk":0,"arthritis_risk":5,"migraine_risk":10,"frizz_risk":1,"updated_at":"2026-07-12T16:42:18.466603+05:30"},{"city":"Kurnool","state":"Andhra Pradesh","latitude":15.8281,"longitude":78.0373,"temp":36.1,"humidity":35,"rain":0.0,"pressure":971.2,"uv_index":8.1,"wind_gusts":48.2,"aqi":57,"pm10":41.0,"pm2_5":16.9,"no2":1.6,"co":112.0,"o3":96.0,"so2":4.9,"mosquito_risk":0,"arthritis_risk":5,"migraine_risk":10,"frizz_risk":1,"updated_at":"2026-07-12T16:42:18.466611+05:30"},{"city":"Kakinada","state":"Andhra Pradesh","latitude":16.9891,"longitude":82.2475,"temp":35.2,"humidity":46,"rain":0.0,"pressure":998.6,"uv_index":8.4,"wind_gusts":47.5,"aqi":92,"pm10":54.2,"pm2_5":21.9,"no2":2.4,"co":149.0,"o3":116.0,"so2":3.3,"mosquito_risk":0,"arthritis_risk":5,"migraine_risk":10,"frizz_risk":1,"updated_at":"2026-07-12T16:42:18.466618+05:30"},{"city":"Tirupati","state":"Andhra Pradesh","latitude":13.6288,"longitude":79.4192,"temp":37.6,"humidity":32,"rain":0.0,"pressure":984.6,"uv_index":8.7,"wind_gusts":33.1,"aqi":79,"pm10":68.2,"pm2_5":19.4,"no2":4.3,"co":97.0,"o3":88.0,"so2":1.6,"mosquito_risk":0,"arthritis_risk":5,"migraine_risk":10,"frizz_risk":1,"updated_at":"2026-07-12T16:42:18.466625+05:30"},{"city":"Warangal","state":"Telangana","latitude":17.9689,"longitude":79.5941,"temp":32.8,"humidity":47,"rain":0.0,"pressure":972.3,"uv_index":8.85,"wind_gusts":42.1,"aqi":75,"pm10":54.4,"pm2_5":22.6,"no2":1.9,"co":129.0,"o3":84.0,"so2":2.4,"mosquito_risk":0,"arthritis_risk":5,"migraine_risk":7,"frizz_risk":1,"updated_at":"2026-07-12T16:42:18.466632+05:30"},{"city":"Nizamabad","state":"Telangana","latitude":18.6725,"longitude":78.0941,"temp":31.9,"humidity":51,"rain":0.0,"pressure":959.0,"uv_index":8.9,"wind_gusts":45.7,"aqi":64,"pm10":46.3,"pm2_5":20.1,"no2":1.6,"co":125.0,"o3":87.0,"so2":3.9,"mosquito_risk":0,"arthritis_risk":5,"migraine_risk":7,"frizz_risk":1,"updated_at":"2026-07-12T16:42:18.466638+05:30"},{"city":"Mysore","state":"Karnataka","latitude":12.2958,"longitude":76.6396,"temp":27.9,"humidity":64,"rain":0.0,"pressure":926.0,"uv_index":8.5,"wind_gusts":47.2,"aqi":42,"pm10":29.4,"pm2_5":11.3,"no2":1.9,"co":114.0,"o3":71.0,"so2":1.5,"mosquito_risk":7,"arthritis_risk":5,"migraine_risk":7,"frizz_risk":1,"updated_at":"2026-07-12T16:42:18.466645+05:30"},{"city":"Mangalore","state":"Karnataka","latitude":12.9141,"longitude":74.856,"temp":28.5,"humidity":76,"rain":0.0,"pressure":1005.3,"uv_index":6.75,"wind_gusts":41.8,"aqi":42,"pm10":17.7,"pm2_5":8.7,"no2":1.0,"co":96.0,"o3":51.0,"so2":1.2,"mosquito_risk":7,"arthritis_risk":5,"migraine_risk":4,"frizz_risk":1,"updated_at":"2026-07-12T16:42:18.466651+05:30"},{"city":"Hubli-Dharwad","state":"Karnataka","latitude":15.3647,"longitude":75.124,"temp":28.2,"humidity":58,"rain":0.0,"pressure":938.3,"uv_index":8.85,"wind_gusts":51.1,"aqi":31,"pm10":21.4,"pm2_5":8.6,"no2":1.2,"co":100.0,"o3":54.0,"so2":1.1,"mosquito_risk":4,"arthritis_risk":5,"migraine_risk":7,"frizz_risk":1,"updated_at":"2026-07-12T16:42:18.466658+05:30"},{"city":"Belgaum","state":"Karnataka","latitude":15.8497,"longitude":74.4977,"temp":25.6,"humidity":75,"rain":0.0,"pressure":923.6,"uv_index":8.8,"wind_gusts":51.1,"aqi":32,"pm10":20.7,"pm2_5":8.7,"no2":1.4,"co":95.0,"o3":50.0,"so2":1.4,"mosquito_risk":7,"arthritis_risk":5,"migraine_risk":7,"frizz_risk":1,"updated_at":"2026-07-12T16:42:21.706100+05:30"},{"city":"Coimbatore","state":"Tamil Nadu","latitude":11.0168,"longitude":76.9558,"temp":29.9,"humidity":62,"rain":0.0,"pressure":958.4,"uv_index":8.2,"wind_gusts":56.5,"aqi":44,"pm10":19.4,"pm2_5":8.2,"no2":1.4,"co":116.0,"o3":65.0,"so2":1.7,"mosquito_risk":7,"arthritis_risk":5,"migraine_risk":7,"frizz_risk":1,"updated_at":"2026-07-12T16:42:21.706126+05:30"},{"city":"Madurai","state":"Tamil Nadu","latitude":9.9252,"longitude":78.1198,"temp":36.7,"humidity":37,"rain":0.0,"pressure":987.7,"uv_index":7.85,"wind_gusts":34.9,"aqi":65,"pm10":53.8,"pm2_5":16.0,"no2":2.0,"co":119.0,"o3":90.0,"so2":2.0,"mosquito_risk":0,"arthritis_risk":5,"migraine_risk":10,"frizz_risk":1,"updated_at":"2026-07-12T16:42:21.706136+05:30"},{"city":"Trichy","state":"Tamil Nadu","latitude":10.7905,"longitude":78.7047,"temp":38.3,"humidity":31,"rain":0.0,"pressure":993.8,"uv_index":8.4,"wind_gusts":55.8,"aqi":50,"pm10":47.0,"pm2_5":16.0,"no2":1.0,"co":115.0,"o3":84.0,"so2":1.7,"mosquito_risk":0,"arthritis_risk":5,"migraine_risk":10,"frizz_risk":1,"updated_at":"2026-07-12T16:42:21.706144+05:30"},{"city":"Salem","state":"Tamil Nadu","latitude":11.6643,"longitude":78.146,"temp":34.6,"humidity":45,"rain":0.0,"pressure":972.4,"uv_index":8.6,"wind_gusts":28.8,"aqi":63,"pm10":46.1,"pm2_5":16.9,"no2":2.9,"co":157.0,"o3":92.0,"so2":4.7,"mosquito_risk":0,"arthritis_risk":5,"migraine_risk":7,"frizz_risk":1,"updated_at":"2026-07-12T16:42:21.706151+05:30"},{"city":"Tirunelveli","state":"Tamil Nadu","latitude":8.7139,"longitude":77.7567,"temp":35.3,"humidity":42,"rain":0.0,"pressure":998.8,"uv_index":7.9,"wind_gusts":45.0,"aqi":33,"pm10":16.8,"pm2_5":7.8,"no2":1.5,"co":106.0,"o3":65.0,"so2":1.3,"mosquito_risk":0,"arthritis_risk":5,"migraine_risk":10,"frizz_risk":1,"updated_at":"2026-07-12T16:42:21.706157+05:30"},{"city":"Vellore","state":"Tamil Nadu","latitude":12.9165,"longitude":79.1325,"temp":38.4,"humidity":29,"rain":0.0,"pressure":978.0,"uv_index":8.25,"wind_gusts":41.0,"aqi":70,"pm10":69.4,"pm2_5":22.3,"no2":4.3,"co":124.0,"o3":94.0,"so2":2.4,"mosquito_risk":0,"arthritis_risk":5,"migraine_risk":10,"frizz_risk":1,"updated_at":"2026-07-12T16:42:21.706163+05:30"},{"city":"Erode","state":"Tamil Nadu","latitude":11.341,"longitude":77.7172,"temp":34.6,"humidity":46,"rain":0.0,"pressure":984.1,"uv_index":8.3,"wind_gusts":52.9,"aqi":54,"pm10":30.3,"pm2_5":11.8,"no2":2.2,"co":130.0,"o3":83.0,"so2":1.9,"mosquito_risk":0,"arthritis_risk":5,"migraine_risk":7,"frizz_risk":1,"updated_at":"2026-07-12T16:42:21.706170+05:30"},{"city":"Kochi","state":"Kerala","latitude":9.9312,"longitude":76.2673,"temp":28.7,"humidity":77,"rain":0.0,"pressure":1007.3,"uv_index":7.65,"wind_gusts":43.9,"aqi":50,"pm10":17.2,"pm2_5":9.0,"no2":1.8,"co":100.0,"o3":58.0,"so2":1.9,"mosquito_risk":7,"arthritis_risk":5,"migraine_risk":4,"frizz_risk":1,"updated_at":"2026-07-12T16:42:21.706177+05:30"},{"city":"Thiruvananthapuram","state":"Kerala","latitude":8.5241,"longitude":76.9366,"temp":28.3,"humidity":79,"rain":0.0,"pressure":1006.5,"uv_index":7.7,"wind_gusts":49.0,"aqi":36,"pm10":17.2,"pm2_5":9.3,"no2":2.1,"co":91.0,"o3":56.0,"so2":1.0,"mosquito_risk":7,"arthritis_risk":5,"migraine_risk":4,"frizz_risk":1,"updated_at":"2026-07-12T16:42:21.706183+05:30"},{"city":"Kozhikode","state":"Kerala","latitude":11.2588,"longitude":75.7804,"temp":28.9,"humidity":74,"rain":0.0,"pressure":1006.4,"uv_index":7.95,"wind_gusts":45.7,"aqi":35,"pm10":16.3,"pm2_5":7.6,"no2":0.5,"co":93.0,"o3":54.0,"so2":0.9,"mosquito_risk":7,"arthritis_risk":5,"migraine_risk":4,"frizz_risk":1,"updated_at":"2026-07-12T16:42:21.706190+05:30"},{"city":"Thrissur","state":"Kerala","latitude":10.5276,"longitude":76.2144,"temp":29.1,"humidity":74,"rain":0.0,"pressure":1005.5,"uv_index":7.7,"wind_gusts":41.0,"aqi":44,"pm10":15.4,"pm2_5":8.2,"no2":1.1,"co":96.0,"o3":56.0,"so2":1.4,"mosquito_risk":7,"arthritis_risk":5,"migraine_risk":4,"frizz_risk":1,"updated_at":"2026-07-12T16:42:21.706197+05:30"},{"city":"Kannur","state":"Kerala","latitude":11.8745,"longitude":75.3704,"temp":28.9,"humidity":74,"rain":0.0,"pressure":1005.8,"uv_index":8.2,"wind_gusts":46.4,"aqi":39,"pm10":18.9,"pm2_5":9.3,"no2":1.4,"co":95.0,"o3":50.0,"so2":1.1,"mosquito_risk":7,"arthritis_risk":5,"migraine_risk":4,"frizz_risk":1,"updated_at":"2026-07-12T16:42:21.706204+05:30"},{"city":"Patna","state":"Bihar","latitude":25.5941,"longitude":85.1376,"temp":34.1,"humidity":58,"rain":0.0,"pressure":987.2,"uv_index":8.6,"wind_gusts":39.6,"aqi":135,"pm10":121.5,"pm2_5":52.2,"no2":5.6,"co":220.0,"o3":112.0,"so2":6.1,"mosquito_risk":0,"arthritis_risk":5,"migraine_risk":7,"frizz_risk":1,"updated_at":"2026-07-12T16:42:21.706210+05:30"},{"city":"Gaya","state":"Bihar","latitude":24.7914,"longitude":85.0002,"temp":34.0,"humidity":58,"rain":0.0,"pressure":981.3,"uv_index":8.85,"wind_gusts":41.8,"aqi":113,"pm10":75.7,"pm2_5":39.5,"no2":3.7,"co":195.0,"o3":110.0,"so2":5.3,"mosquito_risk":0,"arthritis_risk":5,"migraine_risk":7,"frizz_risk":1,"updated_at":"2026-07-12T16:42:21.706216+05:30"},{"city":"Muzaffarpur","state":"Bihar","latitude":26.1209,"longitude":85.3647,"temp":32.9,"humidity":66,"rain":0.0,"pressure":987.0,"uv_index":7.2,"wind_gusts":42.5,"aqi":129,"pm10":143.0,"pm2_5":60.1,"no2":6.0,"co":278.0,"o3":116.0,"so2":7.1,"mosquito_risk":3,"arthritis_risk":5,"migraine_risk":7,"frizz_risk":1,"updated_at":"2026-07-12T16:42:21.706223+05:30"},{"city":"Bhagalpur","state":"Bihar","latitude":25.2425,"longitude":87.0117,"temp":33.7,"humidity":65,"rain":0.0,"pressure":987.8,"uv_index":8.45,"wind_gusts":40.3,"aqi":104,"pm10":83.8,"pm2_5":47.5,"no2":6.0,"co":229.0,"o3":122.0,"so2":9.9,"mosquito_risk":3,"arthritis_risk":5,"migraine_risk":7,"frizz_risk":1,"updated_at":"2026-07-12T16:42:21.706229+05:30"},{"city":"Ranchi","state":"Jharkhand","latitude":23.3441,"longitude":85.3096,"temp":28.0,"humidity":80,"rain":0.1,"pressure":928.0,"uv_index":9.2,"wind_gusts":37.8,"aqi":96,"pm10":46.6,"pm2_5":25.6,"no2":2.8,"co":178.0,"o3":112.0,"so2":7.0,"mosquito_risk":10,"arthritis_risk":5,"migraine_risk":7,"frizz_risk":1,"updated_at":"2026-07-12T16:42:21.706273+05:30"},{"city":"Jamshedpur","state":"Jharkhand","latitude":22.8046,"longitude":86.2029,"temp":33.3,"humidity":61,"rain":0.0,"pressure":979.3,"uv_index":9.1,"wind_gusts":29.2,"aqi":113,"pm10":57.3,"pm2_5":32.1,"no2":6.0,"co":212.0,"o3":112.0,"so2":10.5,"mosquito_risk":3,"arthritis_risk":5,"migraine_risk":7,"frizz_risk":1,"updated_at":"2026-07-12T16:42:21.706284+05:30"},{"city":"Dhanbad","state":"Jharkhand","latitude":23.7957,"longitude":86.4304,"temp":33.7,"humidity":60,"rain":0.0,"pressure":967.9,"uv_index":9.0,"wind_gusts":29.9,"aqi":148,"pm10":65.2,"pm2_5":40.6,"no2":15.9,"co":153.0,"o3":113.0,"so2":48.6,"mosquito_risk":0,"arthritis_risk":5,"migraine_risk":7,"frizz_risk":1,"updated_at":"2026-07-12T16:42:21.706291+05:30"},{"city":"Bokaro","state":"Jharkhand","latitude":23.6693,"longitude":86.1511,"temp":33.7,"humidity":61,"rain":0.0,"pressure":971.7,"uv_index":9.1,"wind_gusts":32.4,"aqi":141,"pm10":63.1,"pm2_5":38.9,"no2":14.6,"co":203.0,"o3":122.0,"so2":54.5,"mosquito_risk":3,"arthritis_risk":5,"migraine_risk":7,"frizz_risk":1,"updated_at":"2026-07-12T16:42:21.706298+05:30"},{"city":"Bhubaneswar","state":"Odisha","latitude":20.2961,"longitude":85.8245,"temp":32.8,"humidity":68,"rain":0.0,"pressure":992.1,"uv_index":8.5,"wind_gusts":37.1,"aqi":127,"pm10":47.0,"pm2_5":27.0,"no2":4.8,"co":191.0,"o3":108.0,"so2":7.2,"mosquito_risk":3,"arthritis_risk":5,"migraine_risk":7,"frizz_risk":1,"updated_at":"2026-07-12T16:42:21.706305+05:30"},{"city":"Cuttack","state":"Odisha","latitude":20.4625,"longitude":85.8828,"temp":33.6,"humidity":62,"rain":0.0,"pressure":993.6,"uv_index":8.5,"wind_gusts":39.6,"aqi":127,"pm10":47.0,"pm2_5":27.0,"no2":4.8,"co":179.0,"o3":108.0,"so2":7.2,"mosquito_risk":3,"arthritis_risk":5,"migraine_risk":7,"frizz_risk":1,"updated_at":"2026-07-12T16:42:21.706311+05:30"},{"city":"Rourkela","state":"Odisha","latitude":22.2604,"longitude":84.8536,"temp":32.6,"humidity":62,"rain":0.0,"pressure":974.2,"uv_index":8.8,"wind_gusts":32.8,"aqi":111,"pm10":45.1,"pm2_5":25.8,"no2":3.5,"co":292.0,"o3":119.0,"so2":6.6,"mosquito_risk":3,"arthritis_risk":5,"migraine_risk":7,"frizz_risk":1,"updated_at":"2026-07-12T16:42:21.706317+05:30"},{"city":"Raipur","state":"Chhattisgarh","latitude":21.2514,"longitude":81.6296,"temp":32.7,"humidity":55,"rain":0.0,"pressure":966.0,"uv_index":8.3,"wind_gusts":45.7,"aqi":100,"pm10":56.7,"pm2_5":29.2,"no2":8.0,"co":151.0,"o3":109.0,"so2":23.2,"mosquito_risk":0,"arthritis_risk":5,"migraine_risk":7,"frizz_risk":1,"updated_at":"2026-07-12T16:42:21.706323+05:30"},{"city":"Bhilai","state":"Chhattisgarh","latitude":21.1938,"longitude":81.3509,"temp":32.0,"humidity":56,"rain":0.0,"pressure":966.7,"uv_index":7.4,"wind_gusts":47.2,"aqi":94,"pm10":58.8,"pm2_5":28.8,"no2":6.9,"co":342.0,"o3":108.0,"so2":19.2,"mosquito_risk":0,"arthritis_risk":5,"migraine_risk":7,"frizz_risk":1,"updated_at":"2026-07-12T16:42:21.706330+05:30"},{"city":"Guwahati","state":"Assam","latitude":26.1158,"longitude":91.7086,"temp":28.1,"humidity":93,"rain":0.0,"pressure":989.2,"uv_index":3.65,"wind_gusts":16.2,"aqi":43,"pm10":6.5,"pm2_5":6.3,"no2":5.0,"co":313.0,"o3":82.0,"so2":2.1,"mosquito_risk":7,"arthritis_risk":5,"migraine_risk":3,"frizz_risk":1,"updated_at":"2026-07-12T16:42:21.706336+05:30"},{"city":"Agartala","state":"Tripura","latitude":23.8315,"longitude":91.2868,"temp":27.5,"humidity":97,"rain":0.2,"pressure":994.6,"uv_index":7.9,"wind_gusts":31.7,"aqi":88,"pm10":39.6,"pm2_5":35.2,"no2":11.8,"co":234.0,"o3":115.0,"so2":6.4,"mosquito_risk":10,"arthritis_risk":5,"migraine_risk":7,"frizz_risk":1,"updated_at":"2026-07-12T16:42:21.706343+05:30"},{"city":"Shillong","state":"Meghalaya","latitude":25.5788,"longitude":91.8933,"temp":23.4,"humidity":81,"rain":0.0,"pressure":849.4,"uv_index":3.3,"wind_gusts":37.1,"aqi":40,"pm10":5.0,"pm2_5":3.9,"no2":4.0,"co":268.0,"o3":86.0,"so2":3.6,"mosquito_risk":3,"arthritis_risk":5,"migraine_risk":3,"frizz_risk":1,"updated_at":"2026-07-12T16:42:21.706349+05:30"},{"city":"Imphal","state":"Manipur","latitude":24.817,"longitude":93.9368,"temp":24.6,"humidity":94,"rain":0.2,"pressure":913.8,"uv_index":7.15,"wind_gusts":24.8,"aqi":46,"pm10":17.1,"pm2_5":12.1,"no2":5.7,"co":252.0,"o3":78.0,"so2":3.3,"mosquito_risk":6,"arthritis_risk":5,"migraine_risk":7,"frizz_risk":1,"updated_at":"2026-07-12T16:42:21.706356+05:30"},{"city":"Aizawl","state":"Mizoram","latitude":23.7271,"longitude":92.7176,"temp":23.7,"humidity":83,"rain":0.1,"pressure":883.6,"uv_index":8.0,"wind_gusts":36.7,"aqi":47,"pm10":28.4,"pm2_5":16.5,"no2":1.4,"co":157.0,"o3":82.0,"so2":3.1,"mosquito_risk":6,"arthritis_risk":5,"migraine_risk":7,"frizz_risk":1,"updated_at":"2026-07-12T16:42:21.706362+05:30"},{"city":"Kohima","state":"Nagaland","latitude":25.6701,"longitude":94.1077,"temp":22.1,"humidity":97,"rain":0.1,"pressure":847.9,"uv_index":8.05,"wind_gusts":19.4,"aqi":45,"pm10":8.6,"pm2_5":6.7,"no2":3.3,"co":211.0,"o3":71.0,"so2":2.1,"mosquito_risk":6,"arthritis_risk":5,"migraine_risk":7,"frizz_risk":1,"updated_at":"2026-07-12T16:42:21.706368+05:30"},{"city":"Gangtok","state":"Sikkim","latitude":27.3314,"longitude":88.6138,"temp":21.2,"humidity":99,"rain":0.1,"pressure":829.6,"uv_index":4.55,"wind_gusts":30.2,"aqi":49,"pm10":1.5,"pm2_5":1.5,"no2":3.7,"co":250.0,"o3":103.0,"so2":0.9,"mosquito_risk":6,"arthritis_risk":5,"migraine_risk":3,"frizz_risk":1,"updated_at":"2026-07-12T16:42:21.706375+05:30"},{"city":"Siliguri","state":"West Bengal","latitude":26.7271,"longitude":88.3953,"temp":29.0,"humidity":85,"rain":0.1,"pressure":980.0,"uv_index":8.65,"wind_gusts":18.7,"aqi":58,"pm10":13.8,"pm2_5":12.3,"no2":7.0,"co":436.0,"o3":108.0,"so2":2.4,"mosquito_risk":10,"arthritis_risk":5,"migraine_risk":7,"frizz_risk":1,"updated_at":"2026-07-12T16:42:24.961080+05:30"},{"city":"Durgapur","state":"West Bengal","latitude":23.5204,"longitude":87.3119,"temp":33.8,"humidity":61,"rain":0.0,"pressure":982.5,"uv_index":5.2,"wind_gusts":28.1,"aqi":150,"pm10":66.1,"pm2_5":42.5,"no2":12.4,"co":573.0,"o3":120.0,"so2":27.8,"mosquito_risk":3,"arthritis_risk":5,"migraine_risk":3,"frizz_risk":1,"updated_at":"2026-07-12T16:42:24.961108+05:30"},{"city":"Asansol","state":"West Bengal","latitude":23.6739,"longitude":86.9524,"temp":33.8,"humidity":62,"rain":0.0,"pressure":981.2,"uv_index":8.15,"wind_gusts":29.5,"aqi":133,"pm10":64.3,"pm2_5":41.0,"no2":12.1,"co":290.0,"o3":117.0,"so2":25.2,"mosquito_risk":3,"arthritis_risk":5,"migraine_risk":7,"frizz_risk":1,"updated_at":"2026-07-12T16:42:24.961118+05:30"},{"city":"Pondicherry","state":"Puducherry","latitude":11.9139,"longitude":79.8145,"temp":33.1,"humidity":65,"rain":0.0,"pressure":1002.1,"uv_index":8.55,"wind_gusts":48.2,"aqi":68,"pm10":53.9,"pm2_5":29.0,"no2":8.7,"co":173.0,"o3":129.0,"so2":10.9,"mosquito_risk":3,"arthritis_risk":5,"migraine_risk":4,"frizz_risk":1,"updated_at":"2026-07-12T16:42:24.961126+05:30"},{"city":"Port Blair","state":"Andaman and Nicobar Islands","latitude":11.6234,"longitude":92.7265,"temp":27.7,"humidity":87,"rain":0.0,"pressure":1002.4,"uv_index":8.7,"wind_gusts":56.2,"aqi":52,"pm10":24.4,"pm2_5":11.7,"no2":0.3,"co":91.0,"o3":46.0,"so2":0.4,"mosquito_risk":7,"arthritis_risk":5,"migraine_risk":4,"frizz_risk":1,"updated_at":"2026-07-12T16:42:24.961134+05:30"},{"city":"Haridwar","state":"Uttarakhand","latitude":29.9457,"longitude":78.1642,"temp":34.3,"humidity":61,"rain":0.0,"pressure":961.5,"uv_index":7.45,"wind_gusts":37.4,"aqi":156,"pm10":203.5,"pm2_5":82.4,"no2":1.3,"co":243.0,"o3":155.0,"so2":10.8,"mosquito_risk":3,"arthritis_risk":5,"migraine_risk":7,"frizz_risk":1,"updated_at":"2026-07-12T16:42:24.961141+05:30"},{"city":"Rishikesh","state":"Uttarakhand","latitude":30.0869,"longitude":78.2676,"temp":32.6,"humidity":66,"rain":0.1,"pressure":954.5,"uv_index":7.6,"wind_gusts":24.8,"aqi":117,"pm10":153.2,"pm2_5":66.4,"no2":1.0,"co":215.0,"o3":155.0,"so2":9.9,"mosquito_risk":6,"arthritis_risk":5,"migraine_risk":7,"frizz_risk":1,"updated_at":"2026-07-12T16:42:24.961149+05:30"},{"city":"Nainital","state":"Uttarakhand","latitude":29.3919,"longitude":79.4542,"temp":23.2,"humidity":68,"rain":0.0,"pressure":800.2,"uv_index":6.3,"wind_gusts":32.4,"aqi":142,"pm10":203.0,"pm2_5":76.6,"no2":1.9,"co":201.0,"o3":150.0,"so2":8.8,"mosquito_risk":3,"arthritis_risk":5,"migraine_risk":7,"frizz_risk":1,"updated_at":"2026-07-12T16:42:24.961156+05:30"},{"city":"Mussoorie","state":"Uttarakhand","latitude":30.4599,"longitude":78.0664,"temp":21.7,"humidity":84,"rain":0.0,"pressure":797.3,"uv_index":8.0,"wind_gusts":43.6,"aqi":120,"pm10":163.9,"pm2_5":67.8,"no2":1.5,"co":209.0,"o3":149.0,"so2":8.3,"mosquito_risk":3,"arthritis_risk":5,"migraine_risk":7,"frizz_risk":1,"updated_at":"2026-07-12T16:42:24.961163+05:30"},{"city":"Dharamshala","state":"Himachal Pradesh","latitude":32.219,"longitude":76.3234,"temp":24.8,"humidity":75,"rain":0.0,"pressure":861.9,"uv_index":8.45,"wind_gusts":34.9,"aqi":99,"pm10":35.3,"pm2_5":18.4,"no2":0.2,"co":388.0,"o3":137.0,"so2":1.4,"mosquito_risk":3,"arthritis_risk":5,"migraine_risk":7,"frizz_risk":1,"updated_at":"2026-07-12T16:42:24.961169+05:30"},{"city":"Dalhousie","state":"Himachal Pradesh","latitude":32.5387,"longitude":75.971,"temp":21.5,"humidity":78,"rain":0.0,"pressure":799.8,"uv_index":8.65,"wind_gusts":25.6,"aqi":120,"pm10":62.4,"pm2_5":30.6,"no2":0.5,"co":350.0,"o3":153.0,"so2":2.1,"mosquito_risk":3,"arthritis_risk":5,"migraine_risk":7,"frizz_risk":1,"updated_at":"2026-07-12T16:42:24.961177+05:30"},{"city":"Patiala","state":"Punjab","latitude":30.3398,"longitude":76.3869,"temp":34.7,"humidity":60,"rain":0.0,"pressure":965.6,"uv_index":7.5,"wind_gusts":24.8,"aqi":165,"pm10":371.6,"pm2_5":113.2,"no2":2.2,"co":370.0,"o3":138.0,"so2":7.3,"mosquito_risk":0,"arthritis_risk":5,"migraine_risk":7,"frizz_risk":1,"updated_at":"2026-07-12T16:42:24.961184+05:30"},{"city":"Bhatinda","state":"Punjab","latitude":30.211,"longitude":74.9455,"temp":37.2,"humidity":47,"rain":0.0,"pressure":970.9,"uv_index":8.25,"wind_gusts":29.2,"aqi":344,"pm10":454.5,"pm2_5":149.5,"no2":1.7,"co":118.0,"o3":129.0,"so2":9.2,"mosquito_risk":0,"arthritis_risk":5,"migraine_risk":10,"frizz_risk":1,"updated_at":"2026-07-12T16:42:24.961190+05:30"},{"city":"Rohtak","state":"Haryana","latitude":28.8955,"longitude":76.6066,"temp":35.8,"humidity":52,"rain":0.0,"pressure":969.3,"uv_index":7.6,"wind_gusts":32.0,"aqi":1030,"pm10":1080.3,"pm2_5":166.7,"no2":4.9,"co":179.0,"o3":98.0,"so2":3.0,"mosquito_risk":0,"arthritis_risk":5,"migraine_risk":10,"frizz_risk":1,"updated_at":"2026-07-12T16:42:24.961197+05:30"},{"city":"Panipat","state":"Haryana","latitude":29.3909,"longitude":76.9635,"temp":35.3,"humidity":57,"rain":0.0,"pressure":967.7,"uv_index":7.45,"wind_gusts":30.2,"aqi":1294,"pm10":2637.5,"pm2_5":346.5,"no2":5.2,"co":154.0,"o3":103.0,"so2":8.3,"mosquito_risk":0,"arthritis_risk":5,"migraine_risk":10,"frizz_risk":1,"updated_at":"2026-07-12T16:42:24.961204+05:30"},{"city":"Mathura","state":"Uttar Pradesh","latitude":27.4924,"longitude":77.6737,"temp":35.0,"humidity":54,"rain":0.0,"pressure":975.1,"uv_index":7.95,"wind_gusts":36.7,"aqi":797,"pm10":890.3,"pm2_5":121.1,"no2":3.0,"co":148.0,"o3":99.0,"so2":2.6,"mosquito_risk":0,"arthritis_risk":5,"migraine_risk":7,"frizz_risk":1,"updated_at":"2026-07-12T16:42:24.961210+05:30"},{"city":"Vrindavan","state":"Uttar Pradesh","latitude":27.5823,"longitude":77.7027,"temp":35.1,"humidity":54,"rain":0.0,"pressure":975.4,"uv_index":7.9,"wind_gusts":36.0,"aqi":797,"pm10":890.3,"pm2_5":121.1,"no2":3.0,"co":151.0,"o3":99.0,"so2":2.6,"mosquito_risk":0,"arthritis_risk":5,"migraine_risk":10,"frizz_risk":1,"updated_at":"2026-07-12T16:42:24.961217+05:30"},{"city":"Ayodhya","state":"Uttar Pradesh","latitude":26.7922,"longitude":82.1998,"temp":29.9,"humidity":86,"rain":0.1,"pressure":982.9,"uv_index":7.05,"wind_gusts":35.6,"aqi":146,"pm10":109.0,"pm2_5":47.4,"no2":5.2,"co":189.0,"o3":98.0,"so2":4.2,"mosquito_risk":10,"arthritis_risk":5,"migraine_risk":7,"frizz_risk":1,"updated_at":"2026-07-12T16:42:24.961223+05:30"},{"city":"Ratlam","state":"Madhya Pradesh","latitude":23.3315,"longitude":75.0367,"temp":30.8,"humidity":57,"rain":0.0,"pressure":947.2,"uv_index":8.45,"wind_gusts":51.5,"aqi":61,"pm10":66.4,"pm2_5":29.0,"no2":1.3,"co":116.0,"o3":86.0,"so2":3.8,"mosquito_risk":0,"arthritis_risk":5,"migraine_risk":7,"frizz_risk":1,"updated_at":"2026-07-12T16:42:24.961230+05:30"},{"city":"Sagar","state":"Madhya Pradesh","latitude":23.8388,"longitude":78.7378,"temp":30.4,"humidity":57,"rain":0.0,"pressure":942.0,"uv_index":7.25,"wind_gusts":44.3,"aqi":73,"pm10":65.2,"pm2_5":27.3,"no2":1.3,"co":139.0,"o3":86.0,"so2":2.9,"mosquito_risk":0,"arthritis_risk":5,"migraine_risk":7,"frizz_risk":1,"updated_at":"2026-07-12T16:42:24.961236+05:30"},{"city":"Satna","state":"Madhya Pradesh","latitude":24.6005,"longitude":80.8322,"temp":33.3,"humidity":55,"rain":0.0,"pressure":961.0,"uv_index":8.2,"wind_gusts":45.7,"aqi":81,"pm10":56.8,"pm2_5":25.1,"no2":1.4,"co":133.0,"o3":96.0,"so2":3.2,"mosquito_risk":0,"arthritis_risk":5,"migraine_risk":7,"frizz_risk":1,"updated_at":"2026-07-12T16:42:24.961265+05:30"},{"city":"Akola","state":"Maharashtra","latitude":20.7002,"longitude":77.0082,"temp":33.5,"humidity":51,"rain":0.0,"pressure":968.0,"uv_index":7.9,"wind_gusts":45.0,"aqi":58,"pm10":50.2,"pm2_5":20.2,"no2":2.1,"co":115.0,"o3":89.0,"so2":6.3,"mosquito_risk":0,"arthritis_risk":5,"migraine_risk":7,"frizz_risk":1,"updated_at":"2026-07-12T16:42:24.961272+05:30"},{"city":"Amravati","state":"Maharashtra","latitude":20.9374,"longitude":77.7796,"temp":31.8,"humidity":55,"rain":0.0,"pressure":960.4,"uv_index":6.0,"wind_gusts":49.0,"aqi":60,"pm10":52.6,"pm2_5":21.3,"no2":2.6,"co":120.0,"o3":87.0,"so2":7.2,"mosquito_risk":0,"arthritis_risk":5,"migraine_risk":3,"frizz_risk":1,"updated_at":"2026-07-12T16:42:24.961279+05:30"},{"city":"Latur","state":"Maharashtra","latitude":18.4088,"longitude":76.5604,"temp":32.2,"humidity":46,"rain":0.0,"pressure":934.8,"uv_index":8.9,"wind_gusts":46.8,"aqi":52,"pm10":46.8,"pm2_5":17.5,"no2":1.2,"co":112.0,"o3":81.0,"so2":1.9,"mosquito_risk":0,"arthritis_risk":5,"migraine_risk":7,"frizz_risk":1,"updated_at":"2026-07-12T16:42:24.961287+05:30"},{"city":"Nanded","state":"Maharashtra","latitude":19.1383,"longitude":77.3091,"temp":32.6,"humidity":51,"rain":0.0,"pressure":962.5,"uv_index":8.85,"wind_gusts":40.3,"aqi":58,"pm10":45.5,"pm2_5":19.5,"no2":1.9,"co":135.0,"o3":81.0,"so2":2.3,"mosquito_risk":0,"arthritis_risk":5,"migraine_risk":7,"frizz_risk":1,"updated_at":"2026-07-12T16:42:24.961293+05:30"},{"city":"Gulbarga","state":"Karnataka","latitude":17.3297,"longitude":76.8343,"temp":33.6,"humidity":39,"rain":0.0,"pressure":953.5,"uv_index":8.7,"wind_gusts":49.3,"aqi":52,"pm10":39.1,"pm2_5":14.6,"no2":1.5,"co":118.0,"o3":80.0,"so2":1.7,"mosquito_risk":0,"arthritis_risk":5,"migraine_risk":7,"frizz_risk":1,"updated_at":"2026-07-12T16:42:24.961299+05:30"},{"city":"Bidar","state":"Karnataka","latitude":17.9104,"longitude":77.5199,"temp":30.9,"humidity":48,"rain":0.0,"pressure":930.8,"uv_index":8.95,"wind_gusts":50.4,"aqi":56,"pm10":40.0,"pm2_5":17.0,"no2":2.2,"co":126.0,"o3":80.0,"so2":1.7,"mosquito_risk":0,"arthritis_risk":5,"migraine_risk":7,"frizz_risk":1,"updated_at":"2026-07-12T16:42:24.961306+05:30"},{"city":"Hospet","state":"Karnataka","latitude":15.2689,"longitude":76.3909,"temp":32.6,"humidity":42,"rain":0.0,"pressure":952.0,"uv_index":8.55,"wind_gusts":51.8,"aqi":40,"pm10":27.6,"pm2_5":10.9,"no2":1.5,"co":107.0,"o3":66.0,"so2":1.7,"mosquito_risk":0,"arthritis_risk":5,"migraine_risk":7,"frizz_risk":1,"updated_at":"2026-07-12T16:42:24.961312+05:30"},{"city":"Tirupur","state":"Tamil Nadu","latitude":11.1085,"longitude":77.3411,"temp":32.0,"humidity":55,"rain":0.0,"pressure":970.9,"uv_index":8.3,"wind_gusts":64.1,"aqi":58,"pm10":29.2,"pm2_5":11.5,"no2":1.9,"co":117.0,"o3":79.0,"so2":2.2,"mosquito_risk":0,"arthritis_risk":5,"migraine_risk":7,"frizz_risk":1,"updated_at":"2026-07-12T16:42:24.961319+05:30"},{"city":"Alappuzha","state":"Kerala","latitude":9.4981,"longitude":76.3388,"temp":28.8,"humidity":77,"rain":0.0,"pressure":1007.4,"uv_index":7.8,"wind_gusts":43.9,"aqi":45,"pm10":17.2,"pm2_5":8.5,"no2":2.3,"co":84.0,"o3":58.0,"so2":1.7,"mosquito_risk":7,"arthritis_risk":5,"migraine_risk":4,"frizz_risk":1,"updated_at":"2026-07-12T16:42:24.961325+05:30"},{"city":"Munnar","state":"Kerala","latitude":10.0889,"longitude":77.0595,"temp":19.3,"humidity":91,"rain":0.0,"pressure":855.7,"uv_index":7.95,"wind_gusts":38.9,"aqi":34,"pm10":17.6,"pm2_5":8.0,"no2":1.1,"co":98.0,"o3":64.0,"so2":1.3,"mosquito_risk":3,"arthritis_risk":10,"migraine_risk":7,"frizz_risk":1,"updated_at":"2026-07-12T16:42:24.961333+05:30"},{"city":"Silchar","state":"Assam","latitude":24.8333,"longitude":92.7789,"temp":29.2,"humidity":85,"rain":0.2,"pressure":993.4,"uv_index":6.05,"wind_gusts":30.6,"aqi":68,"pm10":36.0,"pm2_5":20.0,"no2":3.0,"co":240.0,"o3":94.0,"so2":5.2,"mosquito_risk":10,"arthritis_risk":5,"migraine_risk":7,"frizz_risk":1,"updated_at":"2026-07-12T16:42:24.961339+05:30"},{"city":"Dibrugarh","state":"Assam","latitude":27.4728,"longitude":94.912,"temp":29.1,"humidity":95,"rain":0.3,"pressure":983.6,"uv_index":1.95,"wind_gusts":24.5,"aqi":68,"pm10":9.9,"pm2_5":9.7,"no2":4.7,"co":273.0,"o3":107.0,"so2":2.3,"mosquito_risk":10,"arthritis_risk":5,"migraine_risk":3,"frizz_risk":1,"updated_at":"2026-07-12T16:42:24.961346+05:30"}]