[{"city":"Delhi","state":"Delhi","latitude":28.6139,"longitude":77.209,"temp":30.6,"humidity":40,"rain":0.0,"pressure":985.1,"uv_index":6.5,"wind_gusts":36.0,"aqi":171,"pm10":249.6,"pm2_5":46.3,"mosquito_risk":0,"arthritis_risk":5,"migraine_risk":7,"frizz_risk":0,"updated_at":"2026-03-27T12:43:16.057902+05:30"},{"city":"Mumbai","state":"Maharashtra","latitude":19.076,"longitude":72.8777,"temp":29.8,"humidity":69,"rain":0.0,"pressure":1009.3,"uv_index":8.0,"wind_gusts":25.9,"aqi":104,"pm10":49.8,"pm2_5":43.7,"mosquito_risk":7,"arthritis_risk":0,"migraine_risk":4,"frizz_risk":1,"updated_at":"2026-03-27T12:43:16.057948+05:30"},{"city":"Bangalore","state":"Karnataka","latitude":12.9716,"longitude":77.5946,"temp":33.7,"humidity":21,"rain":0.0,"pressure":914.3,"uv_index":9.5,"wind_gusts":27.0,"aqi":71,"pm10":25.6,"pm2_5":19.0,"mosquito_risk":0,"arthritis_risk":5,"migraine_risk":7,"frizz_risk":0,"updated_at":"2026-03-27T12:43:16.057963+05:30"},{"city":"Hyderabad","state":"Telangana","latitude":17.385,"longitude":78.4867,"temp":36.0,"humidity":31,"rain":0.0,"pressure":955.7,"uv_index":9.0,"wind_gusts":39.2,"aqi":76,"pm10":26.8,"pm2_5":19.9,"mosquito_risk":0,"arthritis_risk":5,"migraine_risk":10,"frizz_risk":1,"updated_at":"2026-03-27T12:43:16.057972+05:30"},{"city":"Chennai","state":"Tamil Nadu","latitude":13.0827,"longitude":80.2707,"temp":33.8,"humidity":49,"rain":0.0,"pressure":1008.9,"uv_index":9.25,"wind_gusts":29.9,"aqi":69,"pm10":36.9,"pm2_5":21.6,"mosquito_risk":0,"arthritis_risk":0,"migraine_risk":4,"frizz_risk":1,"updated_at":"2026-03-27T12:43:16.057981+05:30"},{"city":"Kolkata","state":"West Bengal","latitude":22.5726,"longitude":88.3639,"temp":34.0,"humidity":55,"rain":0.0,"pressure":1006.2,"uv_index":8.45,"wind_gusts":24.5,"aqi":135,"pm10":55.3,"pm2_5":34.5,"mosquito_risk":0,"arthritis_risk":5,"migraine_risk":4,"frizz_risk":1,"updated_at":"2026-03-27T12:43:16.057989+05:30"},{"city":"Pune","state":"Maharashtra","latitude":18.5204,"longitude":73.8567,"temp":37.5,"humidity":23,"rain":0.0,"pressure":950.7,"uv_index":8.55,"wind_gusts":44.3,"aqi":110,"pm10":39.6,"pm2_5":27.5,"mosquito_risk":0,"arthritis_risk":5,"migraine_risk":10,"frizz_risk":0,"updated_at":"2026-03-27T12:43:16.057999+05:30"},{"city":"Ahmedabad","state":"Gujarat","latitude":23.0225,"longitude":72.5714,"temp":36.0,"humidity":31,"rain":0.0,"pressure":1004.8,"uv_index":7.9,"wind_gusts":31.3,"aqi":57,"pm10":35.7,"pm2_5":14.7,"mosquito_risk":0,"arthritis_risk":5,"migraine_risk":7,"frizz_risk":1,"updated_at":"2026-03-27T12:43:16.058005+05:30"},{"city":"Jaipur","state":"Rajasthan","latitude":26.9124,"longitude":75.7873,"temp":31.9,"humidity":32,"rain":0.0,"pressure":962.0,"uv_index":7.35,"wind_gusts":33.8,"aqi":93,"pm10":231.4,"pm2_5":33.8,"mosquito_risk":0,"arthritis_risk":5,"migraine_risk":7,"frizz_risk":0,"updated_at":"2026-03-27T12:43:16.058012+05:30"},{"city":"Lucknow","state":"Uttar Pradesh","latitude":26.8467,"longitude":80.9462,"temp":29.2,"humidity":40,"rain":0.0,"pressure":995.4,"uv_index":6.0,"wind_gusts":49.3,"aqi":86,"pm10":60.3,"pm2_5":16.5,"mosquito_risk":4,"arthritis_risk":5,"migraine_risk":3,"frizz_risk":0,"updated_at":"2026-03-27T12:43:16.058019+05:30"},{"city":"Kanpur","state":"Uttar Pradesh","latitude":26.4499,"longitude":80.3319,"temp":27.4,"humidity":52,"rain":0.0,"pressure":993.9,"uv_index":6.7,"wind_gusts":64.1,"aqi":146,"pm10":162.5,"pm2_5":26.8,"mosquito_risk":4,"arthritis_risk":5,"migraine_risk":7,"frizz_risk":1,"updated_at":"2026-03-27T12:43:16.058024+05:30"},{"city":"Chandigarh","state":"Chandigarh","latitude":30.7333,"longitude":76.7794,"temp":27.4,"humidity":50,"rain":0.0,"pressure":971.2,"uv_index":6.45,"wind_gusts":33.1,"aqi":70,"pm10":33.6,"pm2_5":17.8,"mosquito_risk":4,"arthritis_risk":5,"migraine_risk":7,"frizz_risk":0,"updated_at":"2026-03-27T12:43:16.058030+05:30"},{"city":"Srinagar","state":"Jammu and Kashmir","latitude":34.0837,"longitude":74.7973,"temp":18.8,"humidity":44,"rain":0.0,"pressure":843.5,"uv_index":7.5,"wind_gusts":16.6,"aqi":105,"pm10":29.0,"pm2_5":18.6,"mosquito_risk":0,"arthritis_risk":5,"migraine_risk":7,"frizz_risk":0,"updated_at":"2026-03-27T12:43:16.058037+05:30"},{"city":"Jammu","state":"Jammu and Kashmir","latitude":32.7266,"longitude":74.857,"temp":27.9,"humidity":53,"rain":0.0,"pressure":974.4,"uv_index":7.15,"wind_gusts":25.2,"aqi":86,"pm10":24.3,"pm2_5":18.2,"mosquito_risk":4,"arthritis_risk":5,"migraine_risk":7,"frizz_risk":1,"updated_at":"2026-03-27T12:43:16.058043+05:30"},{"city":"Amritsar","state":"Punjab","latitude":31.634,"longitude":74.8723,"temp":27.4,"humidity":49,"rain":0.0,"pressure":983.5,"uv_index":7.1,"wind_gusts":25.9,"aqi":81,"pm10":36.8,"pm2_5":23.7,"mosquito_risk":4,"arthritis_risk":5,"migraine_risk":7,"frizz_risk":0,"updated_at":"2026-03-27T12:43:16.058049+05:30"},{"city":"Ludhiana","state":"Punjab","latitude":30.901,"longitude":75.8573,"temp":28.5,"humidity":45,"rain":0.0,"pressure":981.2,"uv_index":6.6,"wind_gusts":27.4,"aqi":86,"pm10":38.4,"pm2_5":20.4,"mosquito_risk":4,"arthritis_risk":5,"migraine_risk":7,"frizz_risk":0,"updated_at":"2026-03-27T12:43:16.058055+05:30"},{"city":"Jalandhar","state":"Punjab","latitude":31.326,"longitude":75.5762,"temp":27.5,"humidity":48,"rain":0.0,"pressure":982.4,"uv_index":4.4,"wind_gusts":23.0,"aqi":86,"pm10":41.4,"pm2_5":17.1,"mosquito_risk":4,"arthritis_risk":5,"migraine_risk":3,"frizz_risk":0,"updated_at":"2026-03-27T12:43:16.058063+05:30"},{"city":"Dehradun","state":"Uttarakhand","latitude":30.6284,"longitude":78.0322,"temp":18.7,"humidity":60,"rain":0.0,"pressure":831.3,"uv_index":5.8,"wind_gusts":24.1,"aqi":50,"pm10":27.8,"pm2_5":13.7,"mosquito_risk":0,"arthritis_risk":5,"migraine_risk":3,"frizz_risk":0,"updated_at":"2026-03-27T12:43:16.058068+05:30"},{"city":"Shimla","state":"Himachal Pradesh","latitude":31.1048,"longitude":77.1734,"temp":15.7,"humidity":68,"rain":0.0,"pressure":786.1,"uv_index":6.0,"wind_gusts":40.0,"aqi":58,"pm10":24.3,"pm2_5":12.8,"mosquito_risk":3,"arthritis_risk":5,"migraine_risk":3,"frizz_risk":0,"updated_at":"2026-03-27T12:43:16.058074+05:30"},{"city":"Manali","state":"Himachal Pradesh","latitude":32.2396,"longitude":77.1887,"temp":21.1,"humidity":45,"rain":0.0,"pressure":820.8,"uv_index":8.7,"wind_gusts":26.6,"aqi":76,"pm10":16.4,"pm2_5":6.9,"mosquito_risk":0,"arthritis_risk":5,"migraine_risk":7,"frizz_risk":0,"updated_at":"2026-03-27T12:43:16.058080+05:30"},{"city":"Gurgaon","state":"Haryana","latitude":28.4595,"longitude":77.0266,"temp":30.8,"humidity":41,"rain":0.0,"pressure":983.7,"uv_index":6.65,"wind_gusts":37.4,"aqi":706,"pm10":1039.4,"pm2_5":113.9,"mosquito_risk":0,"arthritis_risk":5,"migraine_risk":7,"frizz_risk":0,"updated_at":"2026-03-27T12:43:16.058086+05:30"},{"city":"Noida","state":"Uttar Pradesh","latitude":28.5355,"longitude":77.391,"temp":30.8,"humidity":41,"rain":0.0,"pressure":986.5,"uv_index":6.5,"wind_gusts":34.6,"aqi":706,"pm10":1039.4,"pm2_5":113.9,"mosquito_risk":0,"arthritis_risk":5,"migraine_risk":7,"frizz_risk":0,"updated_at":"2026-03-27T12:43:16.058092+05:30"},{"city":"Ghaziabad","state":"Uttar Pradesh","latitude":28.6692,"longitude":77.4538,"temp":30.3,"humidity":42,"rain":0.0,"pressure":984.6,"uv_index":6.5,"wind_gusts":34.6,"aqi":132,"pm10":171.8,"pm2_5":37.6,"mosquito_risk":0,"arthritis_risk":5,"migraine_risk":7,"frizz_risk":0,"updated_at":"2026-03-27T12:43:16.058097+05:30"},{"city":"Faridabad","state":"Haryana","latitude":28.4089,"longitude":77.3178,"temp":31.1,"humidity":38,"rain":0.0,"pressure":986.0,"uv_index":6.6,"wind_gusts":33.1,"aqi":706,"pm10":1039.4,"pm2_5":113.9,"mosquito_risk":0,"arthritis_risk":5,"migraine_risk":7,"frizz_risk":0,"updated_at":"2026-03-27T12:43:16.058103+05:30"},{"city":"Meerut","state":"Uttar Pradesh","latitude":28.9845,"longitude":77.7064,"temp":30.5,"humidity":40,"rain":0.0,"pressure":983.2,"uv_index":6.35,"wind_gusts":42.1,"aqi":132,"pm10":171.8,"pm2_5":37.6,"mosquito_risk":0,"arthritis_risk":5,"migraine_risk":7,"frizz_risk":0,"updated_at":"2026-03-27T12:43:16.058109+05:30"},{"city":"Agra","state":"Uttar Pradesh","latitude":27.1767,"longitude":78.0081,"temp":31.2,"humidity":37,"rain":0.0,"pressure":991.1,"uv_index":6.8,"wind_gusts":47.5,"aqi":557,"pm10":414.4,"pm2_5":54.8,"mosquito_risk":0,"arthritis_risk":5,"migraine_risk":7,"frizz_risk":0,"updated_at":"2026-03-27T12:43:16.058114+05:30"},{"city":"Varanasi","state":"Uttar Pradesh","latitude":25.3176,"longitude":82.9739,"temp":34.1,"humidity":31,"rain":0.0,"pressure":998.4,"uv_index":7.3,"wind_gusts":52.2,"aqi":90,"pm10":96.9,"pm2_5":24.8,"mosquito_risk":0,"arthritis_risk":5,"migraine_risk":7,"frizz_risk":0,"updated_at":"2026-03-27T12:43:16.058121+05:30"},{"city":"Prayagraj","state":"Uttar Pradesh","latitude":25.4358,"longitude":81.8463,"temp":33.2,"humidity":38,"rain":0.0,"pressure":997.4,"uv_index":6.25,"wind_gusts":34.6,"aqi":87,"pm10":77.1,"pm2_5":21.1,"mosquito_risk":0,"arthritis_risk":5,"migraine_risk":7,"frizz_risk":1,"updated_at":"2026-03-27T12:43:16.058127+05:30"},{"city":"Gorakhpur","state":"Uttar Pradesh","latitude":26.7606,"longitude":83.3732,"temp":31.8,"humidity":40,"rain":0.0,"pressure":997.8,"uv_index":6.75,"wind_gusts":44.6,"aqi":97,"pm10":66.1,"pm2_5":31.0,"mosquito_risk":0,"arthritis_risk":5,"migraine_risk":7,"frizz_risk":1,"updated_at":"2026-03-27T12:43:16.058132+05:30"},{"city":"Bareilly","state":"Uttar Pradesh","latitude":28.367,"longitude":79.4304,"temp":28.1,"humidity":54,"rain":0.0,"pressure":988.3,"uv_index":5.75,"wind_gusts":51.5,"aqi":63,"pm10":32.1,"pm2_5":12.5,"mosquito_risk":4,"arthritis_risk":5,"migraine_risk":3,"frizz_risk":1,"updated_at":"2026-03-27T12:43:16.058139+05:30"},{"city":"Aligarh","state":"Uttar Pradesh","latitude":27.8974,"longitude":78.088,"temp":28.0,"humidity":48,"rain":0.0,"pressure":988.5,"uv_index":6.45,"wind_gusts":44.6,"aqi":316,"pm10":488.0,"pm2_5":63.3,"mosquito_risk":4,"arthritis_risk":5,"migraine_risk":7,"frizz_risk":0,"updated_at":"2026-03-27T12:43:16.058146+05:30"},{"city":"Moradabad","state":"Uttar Pradesh","latitude":28.8386,"longitude":78.7733,"temp":29.6,"humidity":45,"rain":0.0,"pressure":985.1,"uv_index":5.35,"wind_gusts":40.3,"aqi":73,"pm10":38.9,"pm2_5":16.9,"mosquito_risk":4,"arthritis_risk":5,"migraine_risk":3,"frizz_risk":1,"updated_at":"2026-03-27T12:43:16.058151+05:30"},{"city":"Saharanpur","state":"Uttar Pradesh","latitude":29.9637,"longitude":77.546,"temp":26.0,"humidity":53,"rain":0.0,"pressure":977.8,"uv_index":6.15,"wind_gusts":34.2,"aqi":86,"pm10":43.1,"pm2_5":22.1,"mosquito_risk":4,"arthritis_risk":5,"migraine_risk":7,"frizz_risk":0,"updated_at":"2026-03-27T12:43:16.058157+05:30"},{"city":"Jhansi","state":"Uttar Pradesh","latitude":25.4484,"longitude":78.5685,"temp":30.4,"humidity":42,"rain":0.0,"pressure":980.2,"uv_index":7.55,"wind_gusts":61.2,"aqi":84,"pm10":167.6,"pm2_5":41.8,"mosquito_risk":0,"arthritis_risk":5,"migraine_risk":7,"frizz_risk":1,"updated_at":"2026-03-27T12:43:19.441530+05:30"},{"city":"Surat","state":"Gujarat","latitude":21.1702,"longitude":72.8311,"temp":33.9,"humidity":42,"rain":0.0,"pressure":1008.9,"uv_index":7.75,"wind_gusts":27.7,"aqi":124,"pm10":35.0,"pm2_5":26.8,"mosquito_risk":0,"arthritis_risk":0,"migraine_risk":4,"frizz_risk":1,"updated_at":"2026-03-27T12:43:19.441564+05:30"},{"city":"Vadodara","state":"Gujarat","latitude":22.3072,"longitude":73.1812,"temp":37.1,"humidity":30,"rain":0.0,"pressure":1006.8,"uv_index":7.9,"wind_gusts":27.4,"aqi":75,"pm10":23.6,"pm2_5":13.4,"mosquito_risk":0,"arthritis_risk":5,"migraine_risk":7,"frizz_risk":1,"updated_at":"2026-03-27T12:43:19.441574+05:30"},{"city":"Rajkot","state":"Gujarat","latitude":22.3039,"longitude":70.8022,"temp":34.4,"humidity":39,"rain":0.0,"pressure":997.6,"uv_index":7.75,"wind_gusts":32.8,"aqi":51,"pm10":28.9,"pm2_5":12.7,"mosquito_risk":0,"arthritis_risk":5,"migraine_risk":7,"frizz_risk":1,"updated_at":"2026-03-27T12:43:19.441584+05:30"},{"city":"Thane","state":"Maharashtra","latitude":19.2183,"longitude":72.9781,"temp":36.8,"humidity":36,"rain":0.0,"pressure":1009.0,"uv_index":8.0,"wind_gusts":38.5,"aqi":104,"pm10":49.8,"pm2_5":43.7,"mosquito_risk":0,"arthritis_risk":0,"migraine_risk":7,"frizz_risk":1,"updated_at":"2026-03-27T12:43:19.441593+05:30"},{"city":"Nagpur","state":"Maharashtra","latitude":21.1458,"longitude":79.0882,"temp":37.7,"humidity":21,"rain":0.0,"pressure":973.9,"uv_index":8.25,"wind_gusts":50.0,"aqi":122,"pm10":24.9,"pm2_5":19.3,"mosquito_risk":0,"arthritis_risk":5,"migraine_risk":10,"frizz_risk":0,"updated_at":"2026-03-27T12:43:19.441603+05:30"},{"city":"Nashik","state":"Maharashtra","latitude":19.9975,"longitude":73.7898,"temp":35.8,"humidity":23,"rain":0.0,"pressure":948.0,"uv_index":8.2,"wind_gusts":43.6,"aqi":78,"pm10":31.2,"pm2_5":22.1,"mosquito_risk":0,"arthritis_risk":5,"migraine_risk":10,"frizz_risk":0,"updated_at":"2026-03-27T12:43:19.441611+05:30"},{"city":"Aurangabad","state":"Maharashtra","latitude":19.8762,"longitude":75.3433,"temp":36.6,"humidity":22,"rain":0.0,"pressure":946.5,"uv_index":8.75,"wind_gusts":39.2,"aqi":69,"pm10":31.5,"pm2_5":20.6,"mosquito_risk":0,"arthritis_risk":5,"migraine_risk":10,"frizz_risk":0,"updated_at":"2026-03-27T12:43:19.441619+05:30"},{"city":"Solapur","state":"Maharashtra","latitude":17.6599,"longitude":75.9064,"temp":37.2,"humidity":26,"rain":0.0,"pressure":959.3,"uv_index":8.85,"wind_gusts":30.2,"aqi":99,"pm10":41.6,"pm2_5":33.1,"mosquito_risk":0,"arthritis_risk":5,"migraine_risk":10,"frizz_risk":0,"updated_at":"2026-03-27T12:43:19.441628+05:30"},{"city":"Kolhapur","state":"Maharashtra","latitude":16.705,"longitude":74.2433,"temp":34.7,"humidity":35,"rain":0.0,"pressure":950.8,"uv_index":8.95,"wind_gusts":44.6,"aqi":156,"pm10":40.3,"pm2_5":32.8,"mosquito_risk":0,"arthritis_risk":5,"migraine_risk":7,"frizz_risk":1,"updated_at":"2026-03-27T12:43:19.441636+05:30"},{"city":"Goa","state":"Goa","latitude":15.2993,"longitude":74.124,"temp":33.1,"humidity":66,"rain":0.0,"pressure":999.7,"uv_index":8.9,"wind_gusts":32.0,"aqi":96,"pm10":34.2,"pm2_5":27.4,"mosquito_risk":3,"arthritis_risk":5,"migraine_risk":7,"frizz_risk":1,"updated_at":"2026-03-27T12:43:19.441645+05:30"},{"city":"Jodhpur","state":"Rajasthan","latitude":26.2389,"longitude":73.0243,"temp":34.0,"humidity":30,"rain":0.0,"pressure":986.2,"uv_index":7.7,"wind_gusts":30.6,"aqi":78,"pm10":88.0,"pm2_5":23.0,"mosquito_risk":0,"arthritis_risk":5,"migraine_risk":7,"frizz_risk":0,"updated_at":"2026-03-27T12:43:19.441654+05:30"},{"city":"Udaipur","state":"Rajasthan","latitude":24.5854,"longitude":73.7125,"temp":32.5,"humidity":27,"rain":0.0,"pressure":949.7,"uv_index":8.35,"wind_gusts":43.2,"aqi":31,"pm10":44.8,"pm2_5":13.1,"mosquito_risk":0,"arthritis_risk":5,"migraine_risk":7,"frizz_risk":0,"updated_at":"2026-03-27T12:43:19.441662+05:30"},{"city":"Kota","state":"Rajasthan","latitude":25.2138,"longitude":75.8648,"temp":37.2,"humidity":19,"rain":0.0,"pressure":979.8,"uv_index":7.7,"wind_gusts":39.6,"aqi":63,"pm10":116.4,"pm2_5":21.8,"mosquito_risk":0,"arthritis_risk":5,"migraine_risk":10,"frizz_risk":0,"updated_at":"2026-03-27T12:43:19.441671+05:30"},{"city":"Bikaner","state":"Rajasthan","latitude":28.0229,"longitude":73.3119,"temp":30.1,"humidity":39,"rain":0.0,"pressure":985.6,"uv_index":7.45,"wind_gusts":27.4,"aqi":71,"pm10":60.3,"pm2_5":25.1,"mosquito_risk":0,"arthritis_risk":5,"migraine_risk":7,"frizz_risk":0,"updated_at":"2026-03-27T12:43:19.441679+05:30"},{"city":"Ajmer","state":"Rajasthan","latitude":26.4499,"longitude":74.6399,"temp":32.0,"humidity":33,"rain":0.0,"pressure":957.2,"uv_index":7.65,"wind_gusts":36.0,"aqi":57,"pm10":71.0,"pm2_5":19.3,"mosquito_risk":0,"arthritis_risk":5,"migraine_risk":7,"frizz_risk":0,"updated_at":"2026-03-27T12:43:19.441688+05:30"},{"city":"Gwalior","state":"Madhya Pradesh","latitude":26.2183,"longitude":78.1828,"temp":30.1,"humidity":44,"rain":0.0,"pressure":985.9,"uv_index":7.2,"wind_gusts":55.8,"aqi":120,"pm10":132.2,"pm2_5":32.8,"mosquito_risk":0,"arthritis_risk":5,"migraine_risk":7,"frizz_risk":1,"updated_at":"2026-03-27T12:43:19.441696+05:30"},{"city":"Indore","state":"Madhya Pradesh","latitude":22.7196,"longitude":75.8577,"temp":34.8,"humidity":20,"rain":0.0,"pressure":950.4,"uv_index":8.2,"wind_gusts":38.9,"aqi":46,"pm10":27.9,"pm2_5":9.0,"mosquito_risk":0,"arthritis_risk":5,"migraine_risk":7,"frizz_risk":0,"updated_at":"2026-03-27T12:43:19.441704+05:30"},{"city":"Bhopal","state":"Madhya Pradesh","latitude":23.2599,"longitude":77.4126,"temp":36.5,"humidity":22,"rain":0.0,"pressure":955.0,"uv_index":8.1,"wind_gusts":44.3,"aqi":46,"pm10":16.1,"pm2_5":9.9,"mosquito_risk":0,"arthritis_risk":5,"migraine_risk":10,"frizz_risk":0,"updated_at":"2026-03-27T12:43:19.441712+05:30"},{"city":"Jabalpur","state":"Madhya Pradesh","latitude":23.1815,"longitude":79.9864,"temp":36.1,"humidity":31,"rain":0.0,"pressure":962.0,"uv_index":8.15,"wind_gusts":47.2,"aqi":58,"pm10":10.8,"pm2_5":8.6,"mosquito_risk":0,"arthritis_risk":5,"migraine_risk":10,"frizz_risk":1,"updated_at":"2026-03-27T12:43:19.441720+05:30"},{"city":"Ujjain","state":"Madhya Pradesh","latitude":23.1765,"longitude":75.7885,"temp":34.5,"humidity":23,"rain":0.0,"pressure":956.1,"uv_index":8.1,"wind_gusts":38.5,"aqi":39,"pm10":24.9,"pm2_5":8.0,"mosquito_risk":0,"arthritis_risk":5,"migraine_risk":7,"frizz_risk":0,"updated_at":"2026-03-27T12:43:19.441729+05:30"},{"city":"Visakhapatnam","state":"Andhra Pradesh","latitude":17.6868,"longitude":83.2185,"temp":36.2,"humidity":42,"rain":0.0,"pressure":1005.0,"uv_index":8.95,"wind_gusts":38.2,"aqi":83,"pm10":38.3,"pm2_5":26.2,"mosquito_risk":0,"arthritis_risk":5,"migraine_risk":7,"frizz_risk":1,"updated_at":"2026-03-27T12:43:19.441738+05:30"},{"city":"Vijayawada","state":"Andhra Pradesh","latitude":16.5062,"longitude":80.648,"temp":34.2,"humidity":49,"rain":0.0,"pressure":1004.4,"uv_index":9.05,"wind_gusts":25.6,"aqi":76,"pm10":35.2,"pm2_5":22.2,"mosquito_risk":0,"arthritis_risk":5,"migraine_risk":4,"frizz_risk":1,"updated_at":"2026-03-27T12:43:19.441746+05:30"},{"city":"Guntur","state":"Andhra Pradesh","latitude":16.3067,"longitude":80.4365,"temp":34.9,"humidity":44,"rain":0.0,"pressure":1005.5,"uv_index":9.05,"wind_gusts":30.2,"aqi":72,"pm10":32.9,"pm2_5":20.0,"mosquito_risk":0,"arthritis_risk":5,"migraine_risk":4,"frizz_risk":1,"updated_at":"2026-03-27T12:43:19.441771+05:30"},{"city":"Nellore","state":"Andhra Pradesh","latitude":14.4426,"longitude":79.9865,"temp":36.7,"humidity":32,"rain":0.0,"pressure":1007.1,"uv_index":9.15,"wind_gusts":29.9,"aqi":64,"pm10":38.0,"pm2_5":25.4,"mosquito_risk":0,"arthritis_risk":5,"migraine_risk":7,"frizz_risk":1,"updated_at":"2026-03-27T12:43:19.441781+05:30"},{"city":"Kurnool","state":"Andhra Pradesh","latitude":15.8281,"longitude":78.0373,"temp":38.2,"humidity":21,"rain":0.0,"pressure":978.6,"uv_index":9.05,"wind_gusts":16.2,"aqi":69,"pm10":29.0,"pm2_5":20.4,"mosquito_risk":0,"arthritis_risk":5,"migraine_risk":10,"frizz_risk":0,"updated_at":"2026-03-27T12:43:19.441789+05:30"},{"city":"Kakinada","state":"Andhra Pradesh","latitude":16.9891,"longitude":82.2475,"temp":36.7,"humidity":42,"rain":0.0,"pressure":1008.6,"uv_index":9.0,"wind_gusts":27.7,"aqi":68,"pm10":36.1,"pm2_5":22.0,"mosquito_risk":0,"arthritis_risk":0,"migraine_risk":7,"frizz_risk":1,"updated_at":"2026-03-27T12:43:19.441796+05:30"},{"city":"Tirupati","state":"Andhra Pradesh","latitude":13.6288,"longitude":79.4192,"temp":36.1,"humidity":26,"rain":0.0,"pressure":993.1,"uv_index":9.25,"wind_gusts":31.3,"aqi":96,"pm10":33.8,"pm2_5":23.6,"mosquito_risk":0,"arthritis_risk":5,"migraine_risk":10,"frizz_risk":0,"updated_at":"2026-03-27T12:43:19.441803+05:30"},{"city":"Warangal","state":"Telangana","latitude":17.9689,"longitude":79.5941,"temp":36.8,"humidity":27,"rain":0.0,"pressure":980.6,"uv_index":8.85,"wind_gusts":26.6,"aqi":83,"pm10":26.4,"pm2_5":19.5,"mosquito_risk":0,"arthritis_risk":5,"migraine_risk":10,"frizz_risk":0,"updated_at":"2026-03-27T12:43:19.441809+05:30"},{"city":"Nizamabad","state":"Telangana","latitude":18.6725,"longitude":78.0941,"temp":37.4,"humidity":28,"rain":0.0,"pressure":966.9,"uv_index":8.75,"wind_gusts":30.6,"aqi":99,"pm10":22.8,"pm2_5":16.6,"mosquito_risk":0,"arthritis_risk":5,"migraine_risk":10,"frizz_risk":0,"updated_at":"2026-03-27T12:43:19.441816+05:30"},{"city":"Mysore","state":"Karnataka","latitude":12.2958,"longitude":76.6396,"temp":35.0,"humidity":19,"rain":0.0,"pressure":930.8,"uv_index":9.45,"wind_gusts":41.0,"aqi":70,"pm10":28.5,"pm2_5":21.2,"mosquito_risk":0,"arthritis_risk":5,"migraine_risk":7,"frizz_risk":0,"updated_at":"2026-03-27T12:43:19.441824+05:30"},{"city":"Mangalore","state":"Karnataka","latitude":12.9141,"longitude":74.856,"temp":29.6,"humidity":81,"rain":0.0,"pressure":1008.0,"uv_index":9.1,"wind_gusts":24.8,"aqi":99,"pm10":39.2,"pm2_5":31.1,"mosquito_risk":7,"arthritis_risk":0,"migraine_risk":4,"frizz_risk":1,"updated_at":"2026-03-27T12:43:19.441832+05:30"},{"city":"Hubli-Dharwad","state":"Karnataka","latitude":15.3647,"longitude":75.124,"temp":34.1,"humidity":35,"rain":0.0,"pressure":943.7,"uv_index":9.1,"wind_gusts":41.8,"aqi":76,"pm10":23.8,"pm2_5":19.3,"mosquito_risk":0,"arthritis_risk":5,"migraine_risk":7,"frizz_risk":1,"updated_at":"2026-03-27T12:43:19.441839+05:30"},{"city":"Belgaum","state":"Karnataka","latitude":15.8497,"longitude":74.4977,"temp":34.6,"humidity":24,"rain":0.0,"pressure":928.6,"uv_index":9.15,"wind_gusts":37.8,"aqi":112,"pm10":30.0,"pm2_5":24.2,"mosquito_risk":0,"arthritis_risk":5,"migraine_risk":7,"frizz_risk":0,"updated_at":"2026-03-27T12:43:22.762181+05:30"},{"city":"Coimbatore","state":"Tamil Nadu","latitude":11.0168,"longitude":76.9558,"temp":35.5,"humidity":25,"rain":0.0,"pressure":963.5,"uv_index":9.4,"wind_gusts":40.7,"aqi":80,"pm10":28.3,"pm2_5":21.2,"mosquito_risk":0,"arthritis_risk":5,"migraine_risk":10,"frizz_risk":0,"updated_at":"2026-03-27T12:43:22.762215+05:30"},{"city":"Madurai","state":"Tamil Nadu","latitude":9.9252,"longitude":78.1198,"temp":33.7,"humidity":40,"rain":0.0,"pressure":994.4,"uv_index":9.35,"wind_gusts":21.6,"aqi":78,"pm10":33.2,"pm2_5":20.8,"mosquito_risk":0,"arthritis_risk":5,"migraine_risk":7,"frizz_risk":1,"updated_at":"2026-03-27T12:43:22.762225+05:30"},{"city":"Trichy","state":"Tamil Nadu","latitude":10.7905,"longitude":78.7047,"temp":32.7,"humidity":48,"rain":0.0,"pressure":1001.3,"uv_index":9.3,"wind_gusts":18.7,"aqi":87,"pm10":44.6,"pm2_5":30.4,"mosquito_risk":0,"arthritis_risk":5,"migraine_risk":4,"frizz_risk":1,"updated_at":"2026-03-27T12:43:22.762235+05:30"},{"city":"Salem","state":"Tamil Nadu","latitude":11.6643,"longitude":78.146,"temp":34.8,"humidity":38,"rain":0.0,"pressure":978.8,"uv_index":9.35,"wind_gusts":26.3,"aqi":94,"pm10":37.6,"pm2_5":29.7,"mosquito_risk":0,"arthritis_risk":5,"migraine_risk":7,"frizz_risk":1,"updated_at":"2026-03-27T12:43:22.762244+05:30"},{"city":"Tirunelveli","state":"Tamil Nadu","latitude":8.7139,"longitude":77.7567,"temp":35.3,"humidity":39,"rain":0.0,"pressure":1004.4,"uv_index":9.35,"wind_gusts":44.3,"aqi":59,"pm10":26.7,"pm2_5":16.5,"mosquito_risk":0,"arthritis_risk":5,"migraine_risk":7,"frizz_risk":1,"updated_at":"2026-03-27T12:43:22.762252+05:30"},{"city":"Vellore","state":"Tamil Nadu","latitude":12.9165,"longitude":79.1325,"temp":35.5,"humidity":26,"rain":0.0,"pressure":986.2,"uv_index":9.3,"wind_gusts":31.7,"aqi":95,"pm10":29.0,"pm2_5":19.5,"mosquito_risk":0,"arthritis_risk":5,"migraine_risk":10,"frizz_risk":0,"updated_at":"2026-03-27T12:43:22.762259+05:30"},{"city":"Erode","state":"Tamil Nadu","latitude":11.341,"longitude":77.7172,"temp":35.4,"humidity":35,"rain":0.0,"pressure":990.2,"uv_index":9.35,"wind_gusts":29.2,"aqi":88,"pm10":34.5,"pm2_5":25.8,"mosquito_risk":0,"arthritis_risk":5,"migraine_risk":10,"frizz_risk":1,"updated_at":"2026-03-27T12:43:22.762266+05:30"},{"city":"Kochi","state":"Kerala","latitude":9.9312,"longitude":76.2673,"temp":29.2,"humidity":78,"rain":0.0,"pressure":1009.4,"uv_index":9.2,"wind_gusts":37.8,"aqi":92,"pm10":34.2,"pm2_5":28.6,"mosquito_risk":7,"arthritis_risk":0,"migraine_risk":4,"frizz_risk":1,"updated_at":"2026-03-27T12:43:22.762273+05:30"},{"city":"Thiruvananthapuram","state":"Kerala","latitude":8.5241,"longitude":76.9366,"temp":29.5,"humidity":73,"rain":0.0,"pressure":1008.7,"uv_index":9.2,"wind_gusts":31.7,"aqi":82,"pm10":24.3,"pm2_5":19.4,"mosquito_risk":7,"arthritis_risk":0,"migraine_risk":4,"frizz_risk":1,"updated_at":"2026-03-27T12:43:22.762280+05:30"},{"city":"Kozhikode","state":"Kerala","latitude":11.2588,"longitude":75.7804,"temp":30.6,"humidity":74,"rain":0.0,"pressure":1008.9,"uv_index":9.1,"wind_gusts":31.3,"aqi":93,"pm10":37.6,"pm2_5":31.1,"mosquito_risk":3,"arthritis_risk":0,"migraine_risk":4,"frizz_risk":1,"updated_at":"2026-03-27T12:43:22.762287+05:30"},{"city":"Thrissur","state":"Kerala","latitude":10.5276,"longitude":76.2144,"temp":34.4,"humidity":54,"rain":0.0,"pressure":1007.7,"uv_index":9.15,"wind_gusts":40.7,"aqi":92,"pm10":34.3,"pm2_5":27.1,"mosquito_risk":0,"arthritis_risk":5,"migraine_risk":4,"frizz_risk":1,"updated_at":"2026-03-27T12:43:22.762294+05:30"},{"city":"Kannur","state":"Kerala","latitude":11.8745,"longitude":75.3704,"temp":31.9,"humidity":69,"rain":0.0,"pressure":1008.4,"uv_index":9.1,"wind_gusts":31.0,"aqi":104,"pm10":40.4,"pm2_5":32.8,"mosquito_risk":3,"arthritis_risk":0,"migraine_risk":4,"frizz_risk":1,"updated_at":"2026-03-27T12:43:22.762301+05:30"},{"city":"Patna","state":"Bihar","latitude":25.5941,"longitude":85.1376,"temp":33.0,"humidity":38,"rain":0.0,"pressure":1000.4,"uv_index":7.95,"wind_gusts":41.8,"aqi":150,"pm10":65.4,"pm2_5":27.8,"mosquito_risk":0,"arthritis_risk":5,"migraine_risk":4,"frizz_risk":1,"updated_at":"2026-03-27T12:43:22.762307+05:30"},{"city":"Gaya","state":"Bihar","latitude":24.7914,"longitude":85.0002,"temp":35.8,"humidity":25,"rain":0.0,"pressure":993.7,"uv_index":8.05,"wind_gusts":30.2,"aqi":70,"pm10":42.5,"pm2_5":12.5,"mosquito_risk":0,"arthritis_risk":5,"migraine_risk":10,"frizz_risk":0,"updated_at":"2026-03-27T12:43:22.762314+05:30"},{"city":"Muzaffarpur","state":"Bihar","latitude":26.1209,"longitude":85.3647,"temp":30.7,"humidity":50,"rain":0.0,"pressure":1000.7,"uv_index":7.6,"wind_gusts":44.6,"aqi":156,"pm10":73.8,"pm2_5":41.8,"mosquito_risk":0,"arthritis_risk":5,"migraine_risk":4,"frizz_risk":1,"updated_at":"2026-03-27T12:43:22.762320+05:30"},{"city":"Bhagalpur","state":"Bihar","latitude":25.2425,"longitude":87.0117,"temp":32.2,"humidity":48,"rain":0.0,"pressure":1001.4,"uv_index":8.0,"wind_gusts":28.8,"aqi":137,"pm10":69.6,"pm2_5":37.6,"mosquito_risk":0,"arthritis_risk":5,"migraine_risk":4,"frizz_risk":1,"updated_at":"2026-03-27T12:43:22.762327+05:30"},{"city":"Ranchi","state":"Jharkhand","latitude":23.3441,"longitude":85.3096,"temp":32.3,"humidity":27,"rain":0.0,"pressure":939.5,"uv_index":8.7,"wind_gusts":34.2,"aqi":68,"pm10":29.7,"pm2_5":8.6,"mosquito_risk":0,"arthritis_risk":5,"migraine_risk":7,"frizz_risk":0,"updated_at":"2026-03-27T12:43:22.762333+05:30"},{"city":"Jamshedpur","state":"Jharkhand","latitude":22.8046,"longitude":86.2029,"temp":36.3,"humidity":26,"rain":0.0,"pressure":991.4,"uv_index":8.55,"wind_gusts":24.5,"aqi":155,"pm10":46.7,"pm2_5":25.7,"mosquito_risk":0,"arthritis_risk":5,"migraine_risk":10,"frizz_risk":0,"updated_at":"2026-03-27T12:43:22.762340+05:30"},{"city":"Dhanbad","state":"Jharkhand","latitude":23.7957,"longitude":86.4304,"temp":35.9,"humidity":20,"rain":0.0,"pressure":980.4,"uv_index":8.4,"wind_gusts":25.6,"aqi":129,"pm10":51.9,"pm2_5":23.9,"mosquito_risk":0,"arthritis_risk":5,"migraine_risk":10,"frizz_risk":0,"updated_at":"2026-03-27T12:43:22.762346+05:30"},{"city":"Bokaro","state":"Jharkhand","latitude":23.6693,"longitude":86.1511,"temp":35.4,"humidity":22,"rain":0.0,"pressure":984.4,"uv_index":8.3,"wind_gusts":36.0,"aqi":119,"pm10":45.6,"pm2_5":16.8,"mosquito_risk":0,"arthritis_risk":5,"migraine_risk":10,"frizz_risk":0,"updated_at":"2026-03-27T12:43:22.762353+05:30"},{"city":"Bhubaneswar","state":"Odisha","latitude":20.2961,"longitude":85.8245,"temp":35.3,"humidity":51,"rain":0.0,"pressure":1003.5,"uv_index":8.75,"wind_gusts":25.2,"aqi":116,"pm10":51.7,"pm2_5":40.6,"mosquito_risk":0,"arthritis_risk":5,"migraine_risk":7,"frizz_risk":1,"updated_at":"2026-03-27T12:43:22.762359+05:30"},{"city":"Cuttack","state":"Odisha","latitude":20.4625,"longitude":85.8828,"temp":35.9,"humidity":49,"rain":0.0,"pressure":1005.3,"uv_index":8.8,"wind_gusts":31.7,"aqi":116,"pm10":51.7,"pm2_5":40.6,"mosquito_risk":0,"arthritis_risk":5,"migraine_risk":7,"frizz_risk":1,"updated_at":"2026-03-27T12:43:22.762366+05:30"},{"city":"Rourkela","state":"Odisha","latitude":22.2604,"longitude":84.8536,"temp":35.7,"humidity":31,"rain":0.0,"pressure":986.3,"uv_index":8.45,"wind_gusts":42.1,"aqi":72,"pm10":29.0,"pm2_5":16.5,"mosquito_risk":0,"arthritis_risk":5,"migraine_risk":10,"frizz_risk":0,"updated_at":"2026-03-27T12:43:22.762373+05:30"},{"city":"Raipur","state":"Chhattisgarh","latitude":21.2514,"longitude":81.6296,"temp":37.5,"humidity":31,"rain":0.0,"pressure":975.5,"uv_index":8.55,"wind_gusts":48.6,"aqi":127,"pm10":38.2,"pm2_5":31.9,"mosquito_risk":0,"arthritis_risk":5,"migraine_risk":10,"frizz_risk":1,"updated_at":"2026-03-27T12:43:22.762379+05:30"},{"city":"Bhilai","state":"Chhattisgarh","latitude":21.1938,"longitude":81.3509,"temp":37.7,"humidity":30,"rain":0.0,"pressure":975.8,"uv_index":8.55,"wind_gusts":45.0,"aqi":124,"pm10":34.1,"pm2_5":28.2,"mosquito_risk":0,"arthritis_risk":5,"migraine_risk":10,"frizz_risk":1,"updated_at":"2026-03-27T12:43:22.762385+05:30"},{"city":"Guwahati","state":"Assam","latitude":26.1158,"longitude":91.7086,"temp":26.7,"humidity":72,"rain":0.0,"pressure":1003.5,"uv_index":7.9,"wind_gusts":28.4,"aqi":152,"pm10":67.3,"pm2_5":43.4,"mosquito_risk":7,"arthritis_risk":5,"migraine_risk":4,"frizz_risk":1,"updated_at":"2026-03-27T12:43:22.762392+05:30"},{"city":"Agartala","state":"Tripura","latitude":23.8315,"longitude":91.2868,"temp":31.7,"humidity":52,"rain":0.0,"pressure":1006.6,"uv_index":8.2,"wind_gusts":24.5,"aqi":156,"pm10":70.8,"pm2_5":51.8,"mosquito_risk":0,"arthritis_risk":5,"migraine_risk":4,"frizz_risk":1,"updated_at":"2026-03-27T12:43:22.762398+05:30"},{"city":"Shillong","state":"Meghalaya","latitude":25.5788,"longitude":91.8933,"temp":18.3,"humidity":62,"rain":0.0,"pressure":857.6,"uv_index":8.15,"wind_gusts":42.1,"aqi":123,"pm10":58.9,"pm2_5":36.1,"mosquito_risk":3,"arthritis_risk":5,"migraine_risk":7,"frizz_risk":0,"updated_at":"2026-03-27T12:43:22.762405+05:30"},{"city":"Imphal","state":"Manipur","latitude":24.817,"longitude":93.9368,"temp":24.0,"humidity":47,"rain":0.0,"pressure":924.3,"uv_index":8.55,"wind_gusts":43.2,"aqi":125,"pm10":42.4,"pm2_5":25.9,"mosquito_risk":0,"arthritis_risk":5,"migraine_risk":7,"frizz_risk":0,"updated_at":"2026-03-27T12:43:22.762412+05:30"},{"city":"Aizawl","state":"Mizoram","latitude":23.7271,"longitude":92.7176,"temp":27.2,"humidity":36,"rain":0.0,"pressure":895.0,"uv_index":8.5,"wind_gusts":30.6,"aqi":99,"pm10":51.5,"pm2_5":28.9,"mosquito_risk":4,"arthritis_risk":5,"migraine_risk":7,"frizz_risk":0,"updated_at":"2026-03-27T12:43:22.762419+05:30"},{"city":"Kohima","state":"Nagaland","latitude":25.6701,"longitude":94.1077,"temp":18.6,"humidity":66,"rain":0.0,"pressure":856.6,"uv_index":8.45,"wind_gusts":71.6,"aqi":96,"pm10":34.9,"pm2_5":22.2,"mosquito_risk":3,"arthritis_risk":5,"migraine_risk":7,"frizz_risk":0,"updated_at":"2026-03-27T12:43:22.762425+05:30"},{"city":"Gangtok","state":"Sikkim","latitude":27.3314,"longitude":88.6138,"temp":18.9,"humidity":69,"rain":0.0,"pressure":838.1,"uv_index":7.65,"wind_gusts":21.2,"aqi":110,"pm10":45.8,"pm2_5":32.2,"mosquito_risk":3,"arthritis_risk":5,"migraine_risk":7,"frizz_risk":0,"updated_at":"2026-03-27T12:43:22.762432+05:30"},{"city":"Siliguri","state":"West Bengal","latitude":26.7271,"longitude":88.3953,"temp":22.1,"humidity":81,"rain":0.0,"pressure":995.6,"uv_index":7.8,"wind_gusts":33.1,"aqi":158,"pm10":84.3,"pm2_5":55.2,"mosquito_risk":3,"arthritis_risk":5,"migraine_risk":7,"frizz_risk":1,"updated_at":"2026-03-27T12:43:26.077012+05:30"},{"city":"Durgapur","state":"West Bengal","latitude":23.5204,"longitude":87.3119,"temp":36.2,"humidity":31,"rain":0.0,"pressure":995.2,"uv_index":8.4,"wind_gusts":19.8,"aqi":155,"pm10":61.2,"pm2_5":35.6,"mosquito_risk":0,"arthritis_risk":5,"migraine_risk":10,"frizz_risk":1,"updated_at":"2026-03-27T12:43:26.077046+05:30"},{"city":"Asansol","state":"West Bengal","latitude":23.6739,"longitude":86.9524,"temp":35.9,"humidity":29,"rain":0.0,"pressure":993.7,"uv_index":8.45,"wind_gusts":20.2,"aqi":118,"pm10":57.3,"pm2_5":30.0,"mosquito_risk":0,"arthritis_risk":5,"migraine_risk":10,"frizz_risk":0,"updated_at":"2026-03-27T12:43:26.077057+05:30"},{"city":"Pondicherry","state":"Puducherry","latitude":11.9139,"longitude":79.8145,"temp":32.9,"humidity":56,"rain":0.0,"pressure":1009.8,"uv_index":9.2,"wind_gusts":25.6,"aqi":68,"pm10":36.8,"pm2_5":20.0,"mosquito_risk":0,"arthritis_risk":0,"migraine_risk":4,"frizz_risk":1,"updated_at":"2026-03-27T12:43:26.077067+05:30"},{"city":"Port Blair","state":"Andaman and Nicobar Islands","latitude":11.6234,"longitude":92.7265,"temp":28.3,"humidity":78,"rain":0.0,"pressure":1007.3,"uv_index":9.15,"wind_gusts":23.0,"aqi":56,"pm10":36.0,"pm2_5":25.1,"mosquito_risk":7,"arthritis_risk":5,"migraine_risk":4,"frizz_risk":1,"updated_at":"2026-03-27T12:43:26.077077+05:30"},{"city":"Haridwar","state":"Uttarakhand","latitude":29.9457,"longitude":78.1642,"temp":26.4,"humidity":48,"rain":0.0,"pressure":975.8,"uv_index":5.5,"wind_gusts":38.5,"aqi":76,"pm10":34.2,"pm2_5":18.6,"mosquito_risk":4,"arthritis_risk":5,"migraine_risk":3,"frizz_risk":0,"updated_at":"2026-03-27T12:43:26.077086+05:30"},{"city":"Rishikesh","state":"Uttarakhand","latitude":30.0869,"longitude":78.2676,"temp":27.2,"humidity":45,"rain":0.0,"pressure":968.6,"uv_index":6.05,"wind_gusts":29.5,"aqi":59,"pm10":32.5,"pm2_5":12.7,"mosquito_risk":4,"arthritis_risk":5,"migraine_risk":7,"frizz_risk":0,"updated_at":"2026-03-27T12:43:26.077095+05:30"},{"city":"Nainital","state":"Uttarakhand","latitude":29.3919,"longitude":79.4542,"temp":22.9,"humidity":44,"rain":0.0,"pressure":808.3,"uv_index":6.5,"wind_gusts":58.0,"aqi":51,"pm10":24.0,"pm2_5":7.9,"mosquito_risk":0,"arthritis_risk":5,"migraine_risk":7,"frizz_risk":0,"updated_at":"2026-03-27T12:43:26.077104+05:30"},{"city":"Mussoorie","state":"Uttarakhand","latitude":30.4599,"longitude":78.0664,"temp":18.9,"humidity":59,"rain":0.0,"pressure":804.3,"uv_index":6.25,"wind_gusts":28.4,"aqi":68,"pm10":34.0,"pm2_5":16.6,"mosquito_risk":0,"arthritis_risk":5,"migraine_risk":7,"frizz_risk":0,"updated_at":"2026-03-27T12:43:26.077113+05:30"},{"city":"Dharamshala","state":"Himachal Pradesh","latitude":32.219,"longitude":76.3234,"temp":22.1,"humidity":65,"rain":0.0,"pressure":870.8,"uv_index":6.95,"wind_gusts":20.2,"aqi":46,"pm10":21.2,"pm2_5":10.9,"mosquito_risk":3,"arthritis_risk":5,"migraine_risk":7,"frizz_risk":0,"updated_at":"2026-03-27T12:43:26.077122+05:30"},{"city":"Dalhousie","state":"Himachal Pradesh","latitude":32.5387,"longitude":75.971,"temp":20.7,"humidity":46,"rain":0.0,"pressure":806.1,"uv_index":7.2,"wind_gusts":22.7,"aqi":68,"pm10":21.4,"pm2_5":14.8,"mosquito_risk":0,"arthritis_risk":5,"migraine_risk":7,"frizz_risk":0,"updated_at":"2026-03-27T12:43:26.077132+05:30"},{"city":"Patiala","state":"Punjab","latitude":30.3398,"longitude":76.3869,"temp":28.8,"humidity":45,"rain":0.0,"pressure":980.7,"uv_index":6.3,"wind_gusts":34.2,"aqi":173,"pm10":198.8,"pm2_5":32.7,"mosquito_risk":4,"arthritis_risk":5,"migraine_risk":7,"frizz_risk":0,"updated_at":"2026-03-27T12:43:26.077140+05:30"},{"city":"Bhatinda","state":"Punjab","latitude":30.211,"longitude":74.9455,"temp":29.4,"humidity":40,"rain":0.0,"pressure":986.5,"uv_index":7.0,"wind_gusts":29.9,"aqi":84,"pm10":44.9,"pm2_5":18.5,"mosquito_risk":4,"arthritis_risk":5,"migraine_risk":7,"frizz_risk":0,"updated_at":"2026-03-27T12:43:26.077148+05:30"},{"city":"Rohtak","state":"Haryana","latitude":28.8955,"longitude":76.6066,"temp":30.2,"humidity":41,"rain":0.0,"pressure":984.2,"uv_index":6.55,"wind_gusts":35.3,"aqi":179,"pm10":331.6,"pm2_5":52.5,"mosquito_risk":0,"arthritis_risk":5,"migraine_risk":7,"frizz_risk":0,"updated_at":"2026-03-27T12:43:26.077157+05:30"},{"city":"Panipat","state":"Haryana","latitude":29.3909,"longitude":76.9635,"temp":28.4,"humidity":47,"rain":0.0,"pressure":983.1,"uv_index":6.35,"wind_gusts":41.8,"aqi":325,"pm10":408.9,"pm2_5":55.9,"mosquito_risk":4,"arthritis_risk":5,"migraine_risk":7,"frizz_risk":0,"updated_at":"2026-03-27T12:43:26.077165+05:30"},{"city":"Mathura","state":"Uttar Pradesh","latitude":27.4924,"longitude":77.6737,"temp":29.7,"humidity":44,"rain":0.0,"pressure":989.6,"uv_index":6.75,"wind_gusts":36.0,"aqi":527,"pm10":274.7,"pm2_5":48.3,"mosquito_risk":4,"arthritis_risk":5,"migraine_risk":7,"frizz_risk":1,"updated_at":"2026-03-27T12:43:26.077174+05:30"},{"city":"Vrindavan","state":"Uttar Pradesh","latitude":27.5823,"longitude":77.7027,"temp":29.3,"humidity":45,"rain":0.0,"pressure":990.0,"uv_index":6.5,"wind_gusts":39.2,"aqi":527,"pm10":274.7,"pm2_5":48.3,"mosquito_risk":4,"arthritis_risk":5,"migraine_risk":7,"frizz_risk":1,"updated_at":"2026-03-27T12:43:26.077182+05:30"},{"city":"Ayodhya","state":"Uttar Pradesh","latitude":26.7922,"longitude":82.1998,"temp":32.2,"humidity":28,"rain":0.0,"pressure":996.5,"uv_index":5.5,"wind_gusts":52.6,"aqi":80,"pm10":61.2,"pm2_5":19.8,"mosquito_risk":0,"arthritis_risk":5,"migraine_risk":3,"frizz_risk":0,"updated_at":"2026-03-27T12:43:26.077191+05:30"},{"city":"Ratlam","state":"Madhya Pradesh","latitude":23.3315,"longitude":75.0367,"temp":33.2,"humidity":27,"rain":0.0,"pressure":957.3,"uv_index":8.05,"wind_gusts":33.8,"aqi":34,"pm10":15.0,"pm2_5":5.8,"mosquito_risk":0,"arthritis_risk":5,"migraine_risk":7,"frizz_risk":0,"updated_at":"2026-03-27T12:43:26.077200+05:30"},{"city":"Sagar","state":"Madhya Pradesh","latitude":23.8388,"longitude":78.7378,"temp":36.5,"humidity":24,"rain":0.0,"pressure":950.8,"uv_index":8.05,"wind_gusts":40.0,"aqi":45,"pm10":13.8,"pm2_5":5.7,"mosquito_risk":0,"arthritis_risk":5,"migraine_risk":10,"frizz_risk":0,"updated_at":"2026-03-27T12:43:26.077208+05:30"},{"city":"Satna","state":"Madhya Pradesh","latitude":24.6005,"longitude":80.8322,"temp":34.8,"humidity":25,"rain":0.0,"pressure":972.0,"uv_index":7.75,"wind_gusts":38.5,"aqi":65,"pm10":108.0,"pm2_5":22.4,"mosquito_risk":0,"arthritis_risk":5,"migraine_risk":7,"frizz_risk":0,"updated_at":"2026-03-27T12:43:26.077217+05:30"},{"city":"Akola","state":"Maharashtra","latitude":20.7002,"longitude":77.0082,"temp":36.4,"humidity":29,"rain":0.0,"pressure":976.7,"uv_index":8.45,"wind_gusts":41.4,"aqi":65,"pm10":11.6,"pm2_5":8.5,"mosquito_risk":0,"arthritis_risk":5,"migraine_risk":10,"frizz_risk":0,"updated_at":"2026-03-27T12:43:26.077226+05:30"},{"city":"Amravati","state":"Maharashtra","latitude":20.9374,"longitude":77.7796,"temp":37.2,"humidity":22,"rain":0.0,"pressure":968.8,"uv_index":8.45,"wind_gusts":40.3,"aqi":65,"pm10":10.9,"pm2_5":7.9,"mosquito_risk":0,"arthritis_risk":5,"migraine_risk":10,"frizz_risk":0,"updated_at":"2026-03-27T12:43:26.077235+05:30"},{"city":"Latur","state":"Maharashtra","latitude":18.4088,"longitude":76.5604,"temp":36.0,"humidity":24,"rain":0.0,"pressure":942.5,"uv_index":8.8,"wind_gusts":27.7,"aqi":90,"pm10":39.7,"pm2_5":29.2,"mosquito_risk":0,"arthritis_risk":5,"migraine_risk":10,"frizz_risk":0,"updated_at":"2026-03-27T12:43:26.077244+05:30"},{"city":"Nanded","state":"Maharashtra","latitude":19.1383,"longitude":77.3091,"temp":38.4,"humidity":21,"rain":0.0,"pressure":970.4,"uv_index":8.65,"wind_gusts":26.3,"aqi":87,"pm10":18.7,"pm2_5":14.4,"mosquito_risk":0,"arthritis_risk":5,"migraine_risk":10,"frizz_risk":0,"updated_at":"2026-03-27T12:43:26.077252+05:30"},{"city":"Gulbarga","state":"Karnataka","latitude":17.3297,"longitude":76.8343,"temp":37.1,"humidity":28,"rain":0.0,"pressure":961.0,"uv_index":8.85,"wind_gusts":32.0,"aqi":90,"pm10":33.5,"pm2_5":26.4,"mosquito_risk":0,"arthritis_risk":5,"migraine_risk":10,"frizz_risk":0,"updated_at":"2026-03-27T12:43:26.077260+05:30"},{"city":"Bidar","state":"Karnataka","latitude":17.9104,"longitude":77.5199,"temp":35.6,"humidity":30,"rain":0.0,"pressure":938.2,"uv_index":8.85,"wind_gusts":29.9,"aqi":88,"pm10":34.6,"pm2_5":27.6,"mosquito_risk":0,"arthritis_risk":5,"migraine_risk":10,"frizz_risk":0,"updated_at":"2026-03-27T12:43:26.077268+05:30"},{"city":"Hospet","state":"Karnataka","latitude":15.2689,"longitude":76.3909,"temp":34.5,"humidity":31,"rain":0.0,"pressure":958.4,"uv_index":9.1,"wind_gusts":23.8,"aqi":84,"pm10":28.5,"pm2_5":21.9,"mosquito_risk":0,"arthritis_risk":5,"migraine_risk":7,"frizz_risk":0,"updated_at":"2026-03-27T12:43:26.077275+05:30"},{"city":"Tirupur","state":"Tamil Nadu","latitude":11.1085,"longitude":77.3411,"temp":35.6,"humidity":29,"rain":0.0,"pressure":976.7,"uv_index":9.4,"wind_gusts":30.6,"aqi":94,"pm10":33.1,"pm2_5":25.0,"mosquito_risk":0,"arthritis_risk":5,"migraine_risk":10,"frizz_risk":0,"updated_at":"2026-03-27T12:43:26.077281+05:30"},{"city":"Alappuzha","state":"Kerala","latitude":9.4981,"longitude":76.3388,"temp":29.0,"humidity":78,"rain":0.0,"pressure":1009.5,"uv_index":9.15,"wind_gusts":34.9,"aqi":85,"pm10":34.5,"pm2_5":28.7,"mosquito_risk":7,"arthritis_risk":0,"migraine_risk":4,"frizz_risk":1,"updated_at":"2026-03-27T12:43:26.077288+05:30"},{"city":"Munnar","state":"Kerala","latitude":10.0889,"longitude":77.0595,"temp":31.4,"humidity":36,"rain":0.0,"pressure":860.8,"uv_index":9.65,"wind_gusts":33.8,"aqi":72,"pm10":23.2,"pm2_5":14.3,"mosquito_risk":0,"arthritis_risk":5,"migraine_risk":7,"frizz_risk":0,"updated_at":"2026-03-27T12:43:26.077295+05:30"},{"city":"Silchar","state":"Assam","latitude":24.8333,"longitude":92.7789,"temp":31.6,"humidity":43,"rain":0.0,"pressure":1005.6,"uv_index":8.25,"wind_gusts":16.9,"aqi":154,"pm10":66.6,"pm2_5":39.1,"mosquito_risk":0,"arthritis_risk":5,"migraine_risk":4,"frizz_risk":1,"updated_at":"2026-03-27T12:43:26.077301+05:30"},{"city":"Dibrugarh","state":"Assam","latitude":27.4728,"longitude":94.912,"temp":25.8,"humidity":67,"rain":0.0,"pressure":997.5,"uv_index":4.8,"wind_gusts":10.8,"aqi":121,"pm10":64.7,"pm2_5":42.0,"mosquito_risk":7,"arthritis_risk":5,"migraine_risk":3,"frizz_risk":1,"updated_at":"2026-03-27T12:43:26.077308+05:30"}]