[{"city":"Delhi","state":"Delhi","latitude":28.6139,"longitude":77.209,"temp":31.1,"humidity":40,"rain":0.0,"pressure":978.8,"uv_index":7.25,"wind_gusts":32.0,"aqi":612,"pm10":205.8,"pm2_5":42.6,"mosquito_risk":0,"arthritis_risk":5,"migraine_risk":7,"frizz_risk":0,"updated_at":"2026-04-28T22:24:36.589600+05:30"},{"city":"Mumbai","state":"Maharashtra","latitude":19.076,"longitude":72.8777,"temp":28.6,"humidity":82,"rain":0.0,"pressure":1007.6,"uv_index":8.0,"wind_gusts":40.3,"aqi":86,"pm10":35.3,"pm2_5":19.3,"mosquito_risk":7,"arthritis_risk":5,"migraine_risk":4,"frizz_risk":1,"updated_at":"2026-04-28T22:24:36.589652+05:30"},{"city":"Bangalore","state":"Karnataka","latitude":12.9716,"longitude":77.5946,"temp":29.6,"humidity":45,"rain":0.0,"pressure":912.4,"uv_index":9.0,"wind_gusts":36.7,"aqi":149,"pm10":35.0,"pm2_5":28.3,"mosquito_risk":4,"arthritis_risk":5,"migraine_risk":7,"frizz_risk":1,"updated_at":"2026-04-28T22:24:36.589668+05:30"},{"city":"Hyderabad","state":"Telangana","latitude":17.385,"longitude":78.4867,"temp":31.6,"humidity":43,"rain":0.0,"pressure":952.9,"uv_index":8.85,"wind_gusts":34.9,"aqi":158,"pm10":55.5,"pm2_5":47.4,"mosquito_risk":0,"arthritis_risk":5,"migraine_risk":7,"frizz_risk":1,"updated_at":"2026-04-28T22:24:36.589678+05:30"},{"city":"Chennai","state":"Tamil Nadu","latitude":13.0827,"longitude":80.2707,"temp":29.4,"humidity":80,"rain":0.0,"pressure":1006.7,"uv_index":8.25,"wind_gusts":52.9,"aqi":59,"pm10":14.1,"pm2_5":10.3,"mosquito_risk":7,"arthritis_risk":5,"migraine_risk":4,"frizz_risk":1,"updated_at":"2026-04-28T22:24:36.589686+05:30"},{"city":"Kolkata","state":"West Bengal","latitude":22.5726,"longitude":88.3639,"temp":26.4,"humidity":92,"rain":0.0,"pressure":1003.4,"uv_index":8.85,"wind_gusts":54.4,"aqi":80,"pm10":38.0,"pm2_5":30.7,"mosquito_risk":7,"arthritis_risk":5,"migraine_risk":4,"frizz_risk":1,"updated_at":"2026-04-28T22:24:36.589696+05:30"},{"city":"Pune","state":"Maharashtra","latitude":18.5204,"longitude":73.8567,"temp":27.9,"humidity":60,"rain":0.0,"pressure":947.5,"uv_index":8.6,"wind_gusts":43.9,"aqi":134,"pm10":35.0,"pm2_5":25.6,"mosquito_risk":4,"arthritis_risk":5,"migraine_risk":7,"frizz_risk":1,"updated_at":"2026-04-28T22:24:36.589708+05:30"},{"city":"Ahmedabad","state":"Gujarat","latitude":23.0225,"longitude":72.5714,"temp":34.3,"humidity":24,"rain":0.0,"pressure":999.0,"uv_index":8.2,"wind_gusts":50.4,"aqi":48,"pm10":30.6,"pm2_5":11.9,"mosquito_risk":0,"arthritis_risk":5,"migraine_risk":7,"frizz_risk":0,"updated_at":"2026-04-28T22:24:36.589717+05:30"},{"city":"Jaipur","state":"Rajasthan","latitude":26.9124,"longitude":75.7873,"temp":30.5,"humidity":32,"rain":0.0,"pressure":955.7,"uv_index":8.05,"wind_gusts":42.8,"aqi":90,"pm10":86.6,"pm2_5":22.6,"mosquito_risk":0,"arthritis_risk":5,"migraine_risk":7,"frizz_risk":0,"updated_at":"2026-04-28T22:24:36.589725+05:30"},{"city":"Lucknow","state":"Uttar Pradesh","latitude":26.8467,"longitude":80.9462,"temp":33.3,"humidity":31,"rain":0.0,"pressure":988.7,"uv_index":7.9,"wind_gusts":49.7,"aqi":151,"pm10":168.6,"pm2_5":61.0,"mosquito_risk":0,"arthritis_risk":5,"migraine_risk":7,"frizz_risk":0,"updated_at":"2026-04-28T22:24:36.589733+05:30"},{"city":"Kanpur","state":"Uttar Pradesh","latitude":26.4499,"longitude":80.3319,"temp":34.0,"humidity":27,"rain":0.0,"pressure":987.1,"uv_index":7.95,"wind_gusts":32.4,"aqi":198,"pm10":358.6,"pm2_5":74.5,"mosquito_risk":0,"arthritis_risk":5,"migraine_risk":7,"frizz_risk":0,"updated_at":"2026-04-28T22:24:36.589740+05:30"},{"city":"Chandigarh","state":"Chandigarh","latitude":30.7333,"longitude":76.7794,"temp":24.6,"humidity":55,"rain":0.0,"pressure":964.7,"uv_index":4.6,"wind_gusts":37.1,"aqi":61,"pm10":37.4,"pm2_5":23.9,"mosquito_risk":0,"arthritis_risk":5,"migraine_risk":3,"frizz_risk":0,"updated_at":"2026-04-28T22:24:36.589747+05:30"},{"city":"Srinagar","state":"Jammu and Kashmir","latitude":34.0837,"longitude":74.7973,"temp":12.5,"humidity":97,"rain":0.2,"pressure":840.2,"uv_index":5.1,"wind_gusts":18.0,"aqi":86,"pm10":48.7,"pm2_5":44.9,"mosquito_risk":6,"arthritis_risk":10,"migraine_risk":3,"frizz_risk":0,"updated_at":"2026-04-28T22:24:36.589756+05:30"},{"city":"Jammu","state":"Jammu and Kashmir","latitude":32.7266,"longitude":74.857,"temp":25.6,"humidity":56,"rain":0.0,"pressure":969.5,"uv_index":6.6,"wind_gusts":42.1,"aqi":73,"pm10":78.2,"pm2_5":48.3,"mosquito_risk":4,"arthritis_risk":5,"migraine_risk":7,"frizz_risk":1,"updated_at":"2026-04-28T22:24:36.589763+05:30"},{"city":"Amritsar","state":"Punjab","latitude":31.634,"longitude":74.8723,"temp":25.4,"humidity":59,"rain":0.0,"pressure":977.2,"uv_index":6.25,"wind_gusts":39.2,"aqi":78,"pm10":39.2,"pm2_5":25.5,"mosquito_risk":4,"arthritis_risk":5,"migraine_risk":7,"frizz_risk":1,"updated_at":"2026-04-28T22:24:36.589769+05:30"},{"city":"Ludhiana","state":"Punjab","latitude":30.901,"longitude":75.8573,"temp":28.3,"humidity":47,"rain":0.0,"pressure":974.9,"uv_index":6.75,"wind_gusts":37.1,"aqi":79,"pm10":63.6,"pm2_5":31.4,"mosquito_risk":4,"arthritis_risk":5,"migraine_risk":7,"frizz_risk":0,"updated_at":"2026-04-28T22:24:36.589775+05:30"},{"city":"Jalandhar","state":"Punjab","latitude":31.326,"longitude":75.5762,"temp":27.0,"humidity":47,"rain":0.0,"pressure":975.9,"uv_index":7.25,"wind_gusts":37.8,"aqi":80,"pm10":41.6,"pm2_5":24.9,"mosquito_risk":4,"arthritis_risk":5,"migraine_risk":7,"frizz_risk":0,"updated_at":"2026-04-28T22:24:36.589785+05:30"},{"city":"Dehradun","state":"Uttarakhand","latitude":30.6284,"longitude":78.0322,"temp":14.1,"humidity":72,"rain":0.0,"pressure":826.5,"uv_index":4.95,"wind_gusts":32.8,"aqi":63,"pm10":26.0,"pm2_5":11.5,"mosquito_risk":3,"arthritis_risk":5,"migraine_risk":3,"frizz_risk":0,"updated_at":"2026-04-28T22:24:36.589792+05:30"},{"city":"Shimla","state":"Himachal Pradesh","latitude":31.1048,"longitude":77.1734,"temp":10.5,"humidity":78,"rain":0.0,"pressure":779.9,"uv_index":3.75,"wind_gusts":40.3,"aqi":49,"pm10":18.5,"pm2_5":10.6,"mosquito_risk":3,"arthritis_risk":5,"migraine_risk":3,"frizz_risk":0,"updated_at":"2026-04-28T22:24:36.589798+05:30"},{"city":"Manali","state":"Himachal Pradesh","latitude":32.2396,"longitude":77.1887,"temp":10.6,"humidity":81,"rain":0.3,"pressure":815.0,"uv_index":9.85,"wind_gusts":40.7,"aqi":119,"pm10":11.6,"pm2_5":8.2,"mosquito_risk":6,"arthritis_risk":10,"migraine_risk":7,"frizz_risk":0,"updated_at":"2026-04-28T22:24:36.589807+05:30"},{"city":"Gurgaon","state":"Haryana","latitude":28.4595,"longitude":77.0266,"temp":27.9,"humidity":64,"rain":0.0,"pressure":977.1,"uv_index":7.6,"wind_gusts":36.0,"aqi":1241,"pm10":1214.4,"pm2_5":154.6,"mosquito_risk":7,"arthritis_risk":5,"migraine_risk":7,"frizz_risk":1,"updated_at":"2026-04-28T22:24:36.589814+05:30"},{"city":"Noida","state":"Uttar Pradesh","latitude":28.5355,"longitude":77.391,"temp":30.0,"humidity":40,"rain":0.0,"pressure":980.1,"uv_index":7.5,"wind_gusts":31.7,"aqi":1241,"pm10":1214.4,"pm2_5":154.6,"mosquito_risk":4,"arthritis_risk":5,"migraine_risk":7,"frizz_risk":0,"updated_at":"2026-04-28T22:24:36.589821+05:30"},{"city":"Ghaziabad","state":"Uttar Pradesh","latitude":28.6692,"longitude":77.4538,"temp":30.2,"humidity":38,"rain":0.0,"pressure":978.6,"uv_index":7.3,"wind_gusts":33.5,"aqi":522,"pm10":110.6,"pm2_5":34.5,"mosquito_risk":0,"arthritis_risk":5,"migraine_risk":7,"frizz_risk":0,"updated_at":"2026-04-28T22:24:36.589827+05:30"},{"city":"Faridabad","state":"Haryana","latitude":28.4089,"longitude":77.3178,"temp":31.9,"humidity":36,"rain":0.0,"pressure":979.6,"uv_index":7.55,"wind_gusts":37.4,"aqi":1241,"pm10":1214.4,"pm2_5":154.6,"mosquito_risk":0,"arthritis_risk":5,"migraine_risk":7,"frizz_risk":0,"updated_at":"2026-04-28T22:24:36.589834+05:30"},{"city":"Meerut","state":"Uttar Pradesh","latitude":28.9845,"longitude":77.7064,"temp":28.5,"humidity":45,"rain":0.0,"pressure":977.4,"uv_index":7.05,"wind_gusts":37.1,"aqi":522,"pm10":110.6,"pm2_5":34.5,"mosquito_risk":4,"arthritis_risk":5,"migraine_risk":7,"frizz_risk":0,"updated_at":"2026-04-28T22:24:36.589842+05:30"},{"city":"Agra","state":"Uttar Pradesh","latitude":27.1767,"longitude":78.0081,"temp":31.5,"humidity":35,"rain":0.0,"pressure":983.4,"uv_index":7.8,"wind_gusts":38.9,"aqi":707,"pm10":1438.0,"pm2_5":163.4,"mosquito_risk":0,"arthritis_risk":5,"migraine_risk":7,"frizz_risk":0,"updated_at":"2026-04-28T22:24:36.589848+05:30"},{"city":"Varanasi","state":"Uttar Pradesh","latitude":25.3176,"longitude":82.9739,"temp":32.0,"humidity":40,"rain":0.0,"pressure":993.3,"uv_index":8.5,"wind_gusts":48.2,"aqi":118,"pm10":140.6,"pm2_5":51.7,"mosquito_risk":0,"arthritis_risk":5,"migraine_risk":7,"frizz_risk":1,"updated_at":"2026-04-28T22:24:36.589857+05:30"},{"city":"Prayagraj","state":"Uttar Pradesh","latitude":25.4358,"longitude":81.8463,"temp":32.0,"humidity":37,"rain":0.0,"pressure":991.1,"uv_index":8.4,"wind_gusts":43.9,"aqi":124,"pm10":119.0,"pm2_5":48.7,"mosquito_risk":0,"arthritis_risk":5,"migraine_risk":7,"frizz_risk":0,"updated_at":"2026-04-28T22:24:36.589864+05:30"},{"city":"Gorakhpur","state":"Uttar Pradesh","latitude":26.7606,"longitude":83.3732,"temp":29.0,"humidity":63,"rain":0.0,"pressure":993.4,"uv_index":8.3,"wind_gusts":28.1,"aqi":158,"pm10":68.7,"pm2_5":42.6,"mosquito_risk":7,"arthritis_risk":5,"migraine_risk":7,"frizz_risk":1,"updated_at":"2026-04-28T22:24:36.589870+05:30"},{"city":"Bareilly","state":"Uttar Pradesh","latitude":28.367,"longitude":79.4304,"temp":30.0,"humidity":41,"rain":0.0,"pressure":982.3,"uv_index":7.7,"wind_gusts":33.1,"aqi":141,"pm10":63.6,"pm2_5":27.8,"mosquito_risk":4,"arthritis_risk":5,"migraine_risk":7,"frizz_risk":0,"updated_at":"2026-04-28T22:24:36.589876+05:30"},{"city":"Aligarh","state":"Uttar Pradesh","latitude":27.8974,"longitude":78.088,"temp":30.9,"humidity":35,"rain":0.0,"pressure":981.1,"uv_index":7.65,"wind_gusts":44.6,"aqi":812,"pm10":683.6,"pm2_5":89.6,"mosquito_risk":0,"arthritis_risk":5,"migraine_risk":7,"frizz_risk":0,"updated_at":"2026-04-28T22:24:36.589883+05:30"},{"city":"Moradabad","state":"Uttar Pradesh","latitude":28.8386,"longitude":78.7733,"temp":29.0,"humidity":50,"rain":0.0,"pressure":979.5,"uv_index":7.5,"wind_gusts":40.0,"aqi":155,"pm10":65.4,"pm2_5":28.4,"mosquito_risk":4,"arthritis_risk":5,"migraine_risk":7,"frizz_risk":1,"updated_at":"2026-04-28T22:24:36.589889+05:30"},{"city":"Saharanpur","state":"Uttar Pradesh","latitude":29.9637,"longitude":77.546,"temp":26.8,"humidity":55,"rain":0.0,"pressure":971.6,"uv_index":6.65,"wind_gusts":42.5,"aqi":70,"pm10":77.8,"pm2_5":28.5,"mosquito_risk":4,"arthritis_risk":5,"migraine_risk":7,"frizz_risk":1,"updated_at":"2026-04-28T22:24:36.589894+05:30"},{"city":"Jhansi","state":"Uttar Pradesh","latitude":25.4484,"longitude":78.5685,"temp":32.5,"humidity":24,"rain":0.0,"pressure":973.8,"uv_index":8.3,"wind_gusts":33.8,"aqi":85,"pm10":39.0,"pm2_5":22.4,"mosquito_risk":0,"arthritis_risk":5,"migraine_risk":7,"frizz_risk":0,"updated_at":"2026-04-28T22:24:39.983865+05:30"},{"city":"Surat","state":"Gujarat","latitude":21.1702,"longitude":72.8311,"temp":28.9,"humidity":81,"rain":0.0,"pressure":1004.6,"uv_index":7.9,"wind_gusts":44.3,"aqi":75,"pm10":24.6,"pm2_5":16.9,"mosquito_risk":7,"arthritis_risk":5,"migraine_risk":4,"frizz_risk":1,"updated_at":"2026-04-28T22:24:39.983895+05:30"},{"city":"Vadodara","state":"Gujarat","latitude":22.3072,"longitude":73.1812,"temp":30.6,"humidity":60,"rain":0.0,"pressure":1001.6,"uv_index":8.15,"wind_gusts":46.4,"aqi":65,"pm10":22.4,"pm2_5":15.0,"mosquito_risk":0,"arthritis_risk":5,"migraine_risk":4,"frizz_risk":1,"updated_at":"2026-04-28T22:24:39.983904+05:30"},{"city":"Rajkot","state":"Gujarat","latitude":22.3039,"longitude":70.8022,"temp":30.7,"humidity":45,"rain":0.0,"pressure":991.9,"uv_index":7.9,"wind_gusts":52.2,"aqi":47,"pm10":32.6,"pm2_5":14.1,"mosquito_risk":0,"arthritis_risk":5,"migraine_risk":7,"frizz_risk":1,"updated_at":"2026-04-28T22:24:39.983912+05:30"},{"city":"Thane","state":"Maharashtra","latitude":19.2183,"longitude":72.9781,"temp":28.6,"humidity":79,"rain":0.0,"pressure":1007.0,"uv_index":8.05,"wind_gusts":37.1,"aqi":86,"pm10":35.3,"pm2_5":19.3,"mosquito_risk":7,"arthritis_risk":5,"migraine_risk":4,"frizz_risk":1,"updated_at":"2026-04-28T22:24:39.983919+05:30"},{"city":"Nagpur","state":"Maharashtra","latitude":21.1458,"longitude":79.0882,"temp":36.1,"humidity":18,"rain":0.0,"pressure":970.3,"uv_index":8.85,"wind_gusts":54.0,"aqi":108,"pm10":37.8,"pm2_5":32.8,"mosquito_risk":0,"arthritis_risk":5,"migraine_risk":10,"frizz_risk":0,"updated_at":"2026-04-28T22:24:39.983926+05:30"},{"city":"Nashik","state":"Maharashtra","latitude":19.9975,"longitude":73.7898,"temp":27.0,"humidity":57,"rain":0.0,"pressure":945.0,"uv_index":8.3,"wind_gusts":45.7,"aqi":65,"pm10":23.4,"pm2_5":13.4,"mosquito_risk":4,"arthritis_risk":5,"migraine_risk":7,"frizz_risk":1,"updated_at":"2026-04-28T22:24:39.983934+05:30"},{"city":"Aurangabad","state":"Maharashtra","latitude":19.8762,"longitude":75.3433,"temp":32.8,"humidity":21,"rain":0.0,"pressure":943.0,"uv_index":9.0,"wind_gusts":42.1,"aqi":98,"pm10":18.6,"pm2_5":14.9,"mosquito_risk":0,"arthritis_risk":5,"migraine_risk":7,"frizz_risk":0,"updated_at":"2026-04-28T22:24:39.983941+05:30"},{"city":"Solapur","state":"Maharashtra","latitude":17.6599,"longitude":75.9064,"temp":34.0,"humidity":29,"rain":0.0,"pressure":955.8,"uv_index":9.05,"wind_gusts":37.8,"aqi":111,"pm10":58.7,"pm2_5":46.2,"mosquito_risk":0,"arthritis_risk":5,"migraine_risk":7,"frizz_risk":0,"updated_at":"2026-04-28T22:24:39.983948+05:30"},{"city":"Kolhapur","state":"Maharashtra","latitude":16.705,"longitude":74.2433,"temp":25.8,"humidity":84,"rain":0.0,"pressure":947.5,"uv_index":6.4,"wind_gusts":50.0,"aqi":73,"pm10":28.2,"pm2_5":19.0,"mosquito_risk":7,"arthritis_risk":5,"migraine_risk":7,"frizz_risk":1,"updated_at":"2026-04-28T22:24:39.983956+05:30"},{"city":"Goa","state":"Goa","latitude":15.2993,"longitude":74.124,"temp":30.0,"humidity":75,"rain":0.0,"pressure":997.7,"uv_index":8.95,"wind_gusts":41.4,"aqi":65,"pm10":53.6,"pm2_5":21.1,"mosquito_risk":7,"arthritis_risk":5,"migraine_risk":7,"frizz_risk":1,"updated_at":"2026-04-28T22:24:39.983962+05:30"},{"city":"Jodhpur","state":"Rajasthan","latitude":26.2389,"longitude":73.0243,"temp":33.2,"humidity":28,"rain":0.0,"pressure":978.2,"uv_index":8.3,"wind_gusts":49.7,"aqi":116,"pm10":264.5,"pm2_5":36.1,"mosquito_risk":0,"arthritis_risk":5,"migraine_risk":7,"frizz_risk":0,"updated_at":"2026-04-28T22:24:39.983969+05:30"},{"city":"Udaipur","state":"Rajasthan","latitude":24.5854,"longitude":73.7125,"temp":31.5,"humidity":24,"rain":0.0,"pressure":943.5,"uv_index":8.75,"wind_gusts":49.0,"aqi":46,"pm10":26.0,"pm2_5":10.4,"mosquito_risk":0,"arthritis_risk":5,"migraine_risk":7,"frizz_risk":0,"updated_at":"2026-04-28T22:24:39.983976+05:30"},{"city":"Kota","state":"Rajasthan","latitude":25.2138,"longitude":75.8648,"temp":32.5,"humidity":22,"rain":0.0,"pressure":974.1,"uv_index":8.3,"wind_gusts":40.7,"aqi":47,"pm10":27.2,"pm2_5":15.4,"mosquito_risk":0,"arthritis_risk":5,"migraine_risk":7,"frizz_risk":0,"updated_at":"2026-04-28T22:24:39.983982+05:30"},{"city":"Bikaner","state":"Rajasthan","latitude":28.0229,"longitude":73.3119,"temp":31.0,"humidity":33,"rain":0.0,"pressure":977.3,"uv_index":8.15,"wind_gusts":49.7,"aqi":59,"pm10":105.5,"pm2_5":28.2,"mosquito_risk":0,"arthritis_risk":5,"migraine_risk":7,"frizz_risk":0,"updated_at":"2026-04-28T22:24:39.983989+05:30"},{"city":"Ajmer","state":"Rajasthan","latitude":26.4499,"longitude":74.6399,"temp":32.9,"humidity":21,"rain":0.0,"pressure":950.8,"uv_index":8.25,"wind_gusts":43.6,"aqi":52,"pm10":54.4,"pm2_5":15.0,"mosquito_risk":0,"arthritis_risk":5,"migraine_risk":7,"frizz_risk":0,"updated_at":"2026-04-28T22:24:39.983996+05:30"},{"city":"Gwalior","state":"Madhya Pradesh","latitude":26.2183,"longitude":78.1828,"temp":33.0,"humidity":25,"rain":0.0,"pressure":979.0,"uv_index":8.05,"wind_gusts":39.6,"aqi":62,"pm10":143.0,"pm2_5":34.2,"mosquito_risk":0,"arthritis_risk":5,"migraine_risk":7,"frizz_risk":0,"updated_at":"2026-04-28T22:24:39.984002+05:30"},{"city":"Indore","state":"Madhya Pradesh","latitude":22.7196,"longitude":75.8577,"temp":31.5,"humidity":21,"rain":0.0,"pressure":946.3,"uv_index":8.6,"wind_gusts":56.9,"aqi":81,"pm10":23.1,"pm2_5":13.7,"mosquito_risk":0,"arthritis_risk":5,"migraine_risk":7,"frizz_risk":0,"updated_at":"2026-04-28T22:24:39.984009+05:30"},{"city":"Bhopal","state":"Madhya Pradesh","latitude":23.2599,"longitude":77.4126,"temp":33.6,"humidity":16,"rain":0.0,"pressure":951.4,"uv_index":8.6,"wind_gusts":52.6,"aqi":92,"pm10":16.2,"pm2_5":10.4,"mosquito_risk":0,"arthritis_risk":5,"migraine_risk":7,"frizz_risk":0,"updated_at":"2026-04-28T22:24:39.984015+05:30"},{"city":"Jabalpur","state":"Madhya Pradesh","latitude":23.1815,"longitude":79.9864,"temp":31.9,"humidity":23,"rain":0.0,"pressure":957.9,"uv_index":8.75,"wind_gusts":46.4,"aqi":93,"pm10":18.2,"pm2_5":16.4,"mosquito_risk":0,"arthritis_risk":5,"migraine_risk":7,"frizz_risk":0,"updated_at":"2026-04-28T22:24:39.984022+05:30"},{"city":"Ujjain","state":"Madhya Pradesh","latitude":23.1765,"longitude":75.7885,"temp":31.6,"humidity":20,"rain":0.0,"pressure":951.6,"uv_index":8.55,"wind_gusts":55.4,"aqi":63,"pm10":26.0,"pm2_5":15.9,"mosquito_risk":0,"arthritis_risk":5,"migraine_risk":7,"frizz_risk":0,"updated_at":"2026-04-28T22:24:39.984029+05:30"},{"city":"Visakhapatnam","state":"Andhra Pradesh","latitude":17.6868,"longitude":83.2185,"temp":26.9,"humidity":93,"rain":0.0,"pressure":1003.6,"uv_index":9.05,"wind_gusts":57.2,"aqi":68,"pm10":21.1,"pm2_5":15.7,"mosquito_risk":7,"arthritis_risk":5,"migraine_risk":4,"frizz_risk":1,"updated_at":"2026-04-28T22:24:39.984035+05:30"},{"city":"Vijayawada","state":"Andhra Pradesh","latitude":16.5062,"longitude":80.648,"temp":29.9,"humidity":75,"rain":0.0,"pressure":1002.5,"uv_index":9.2,"wind_gusts":41.0,"aqi":74,"pm10":20.9,"pm2_5":17.8,"mosquito_risk":7,"arthritis_risk":5,"migraine_risk":4,"frizz_risk":1,"updated_at":"2026-04-28T22:24:39.984042+05:30"},{"city":"Guntur","state":"Andhra Pradesh","latitude":16.3067,"longitude":80.4365,"temp":29.5,"humidity":82,"rain":0.0,"pressure":1003.8,"uv_index":9.25,"wind_gusts":43.6,"aqi":99,"pm10":23.3,"pm2_5":20.3,"mosquito_risk":7,"arthritis_risk":5,"migraine_risk":4,"frizz_risk":1,"updated_at":"2026-04-28T22:24:39.984048+05:30"},{"city":"Nellore","state":"Andhra Pradesh","latitude":14.4426,"longitude":79.9865,"temp":29.4,"humidity":78,"rain":0.0,"pressure":1004.9,"uv_index":9.25,"wind_gusts":48.2,"aqi":107,"pm10":13.5,"pm2_5":11.4,"mosquito_risk":7,"arthritis_risk":5,"migraine_risk":4,"frizz_risk":1,"updated_at":"2026-04-28T22:24:39.984055+05:30"},{"city":"Kurnool","state":"Andhra Pradesh","latitude":15.8281,"longitude":78.0373,"temp":31.7,"humidity":48,"rain":0.0,"pressure":975.9,"uv_index":9.2,"wind_gusts":33.1,"aqi":177,"pm10":64.7,"pm2_5":53.6,"mosquito_risk":0,"arthritis_risk":5,"migraine_risk":7,"frizz_risk":1,"updated_at":"2026-04-28T22:24:39.984086+05:30"},{"city":"Kakinada","state":"Andhra Pradesh","latitude":16.9891,"longitude":82.2475,"temp":27.5,"humidity":86,"rain":0.1,"pressure":1008.0,"uv_index":9.2,"wind_gusts":45.0,"aqi":59,"pm10":19.4,"pm2_5":13.4,"mosquito_risk":10,"arthritis_risk":0,"migraine_risk":4,"frizz_risk":1,"updated_at":"2026-04-28T22:24:39.984096+05:30"},{"city":"Tirupati","state":"Andhra Pradesh","latitude":13.6288,"longitude":79.4192,"temp":30.0,"humidity":64,"rain":0.0,"pressure":990.7,"uv_index":8.6,"wind_gusts":36.4,"aqi":93,"pm10":20.3,"pm2_5":19.5,"mosquito_risk":7,"arthritis_risk":5,"migraine_risk":7,"frizz_risk":1,"updated_at":"2026-04-28T22:24:39.984103+05:30"},{"city":"Warangal","state":"Telangana","latitude":17.9689,"longitude":79.5941,"temp":30.8,"humidity":57,"rain":0.0,"pressure":977.4,"uv_index":9.15,"wind_gusts":40.0,"aqi":134,"pm10":54.7,"pm2_5":46.8,"mosquito_risk":0,"arthritis_risk":5,"migraine_risk":7,"frizz_risk":1,"updated_at":"2026-04-28T22:24:39.984109+05:30"},{"city":"Nizamabad","state":"Telangana","latitude":18.6725,"longitude":78.0941,"temp":32.5,"humidity":33,"rain":0.0,"pressure":962.8,"uv_index":9.1,"wind_gusts":36.0,"aqi":113,"pm10":58.3,"pm2_5":49.4,"mosquito_risk":0,"arthritis_risk":5,"migraine_risk":7,"frizz_risk":0,"updated_at":"2026-04-28T22:24:39.984116+05:30"},{"city":"Mysore","state":"Karnataka","latitude":12.2958,"longitude":76.6396,"temp":25.2,"humidity":78,"rain":0.0,"pressure":928.6,"uv_index":8.35,"wind_gusts":38.5,"aqi":129,"pm10":52.6,"pm2_5":44.6,"mosquito_risk":7,"arthritis_risk":5,"migraine_risk":7,"frizz_risk":1,"updated_at":"2026-04-28T22:24:39.984123+05:30"},{"city":"Mangalore","state":"Karnataka","latitude":12.9141,"longitude":74.856,"temp":29.5,"humidity":73,"rain":0.0,"pressure":1006.6,"uv_index":8.7,"wind_gusts":42.8,"aqi":71,"pm10":35.9,"pm2_5":17.4,"mosquito_risk":7,"arthritis_risk":5,"migraine_risk":4,"frizz_risk":1,"updated_at":"2026-04-28T22:24:39.984129+05:30"},{"city":"Hubli-Dharwad","state":"Karnataka","latitude":15.3647,"longitude":75.124,"temp":26.4,"humidity":83,"rain":0.0,"pressure":941.0,"uv_index":9.2,"wind_gusts":38.2,"aqi":116,"pm10":40.2,"pm2_5":31.1,"mosquito_risk":7,"arthritis_risk":5,"migraine_risk":7,"frizz_risk":1,"updated_at":"2026-04-28T22:24:39.984136+05:30"},{"city":"Belgaum","state":"Karnataka","latitude":15.8497,"longitude":74.4977,"temp":24.1,"humidity":93,"rain":0.0,"pressure":925.8,"uv_index":9.25,"wind_gusts":36.0,"aqi":82,"pm10":33.5,"pm2_5":18.0,"mosquito_risk":3,"arthritis_risk":5,"migraine_risk":7,"frizz_risk":1,"updated_at":"2026-04-28T22:24:43.380896+05:30"},{"city":"Coimbatore","state":"Tamil Nadu","latitude":11.0168,"longitude":76.9558,"temp":27.0,"humidity":76,"rain":0.0,"pressure":961.2,"uv_index":8.2,"wind_gusts":49.0,"aqi":110,"pm10":24.0,"pm2_5":22.0,"mosquito_risk":7,"arthritis_risk":5,"migraine_risk":7,"frizz_risk":1,"updated_at":"2026-04-28T22:24:43.380933+05:30"},{"city":"Madurai","state":"Tamil Nadu","latitude":9.9252,"longitude":78.1198,"temp":30.2,"humidity":67,"rain":0.0,"pressure":993.1,"uv_index":9.2,"wind_gusts":41.4,"aqi":106,"pm10":15.3,"pm2_5":14.6,"mosquito_risk":3,"arthritis_risk":5,"migraine_risk":7,"frizz_risk":1,"updated_at":"2026-04-28T22:24:43.380946+05:30"},{"city":"Trichy","state":"Tamil Nadu","latitude":10.7905,"longitude":78.7047,"temp":30.3,"humidity":66,"rain":0.0,"pressure":999.3,"uv_index":8.25,"wind_gusts":43.2,"aqi":58,"pm10":10.1,"pm2_5":9.6,"mosquito_risk":3,"arthritis_risk":5,"migraine_risk":7,"frizz_risk":1,"updated_at":"2026-04-28T22:24:43.380957+05:30"},{"city":"Salem","state":"Tamil Nadu","latitude":11.6643,"longitude":78.146,"temp":32.1,"humidity":34,"rain":0.0,"pressure":976.8,"uv_index":8.25,"wind_gusts":26.6,"aqi":124,"pm10":16.2,"pm2_5":14.9,"mosquito_risk":0,"arthritis_risk":5,"migraine_risk":7,"frizz_risk":0,"updated_at":"2026-04-28T22:24:43.380966+05:30"},{"city":"Tirunelveli","state":"Tamil Nadu","latitude":8.7139,"longitude":77.7567,"temp":30.4,"humidity":66,"rain":0.0,"pressure":1002.8,"uv_index":9.15,"wind_gusts":43.9,"aqi":64,"pm10":16.4,"pm2_5":15.3,"mosquito_risk":3,"arthritis_risk":5,"migraine_risk":4,"frizz_risk":1,"updated_at":"2026-04-28T22:24:43.380976+05:30"},{"city":"Vellore","state":"Tamil Nadu","latitude":12.9165,"longitude":79.1325,"temp":29.0,"humidity":72,"rain":0.0,"pressure":983.8,"uv_index":8.35,"wind_gusts":37.8,"aqi":91,"pm10":23.7,"pm2_5":23.0,"mosquito_risk":7,"arthritis_risk":5,"migraine_risk":7,"frizz_risk":1,"updated_at":"2026-04-28T22:24:43.380986+05:30"},{"city":"Erode","state":"Tamil Nadu","latitude":11.341,"longitude":77.7172,"temp":31.3,"humidity":54,"rain":0.0,"pressure":988.3,"uv_index":8.35,"wind_gusts":36.4,"aqi":124,"pm10":23.7,"pm2_5":20.4,"mosquito_risk":0,"arthritis_risk":5,"migraine_risk":7,"frizz_risk":1,"updated_at":"2026-04-28T22:24:43.380996+05:30"},{"city":"Kochi","state":"Kerala","latitude":9.9312,"longitude":76.2673,"temp":28.5,"humidity":83,"rain":0.0,"pressure":1008.7,"uv_index":7.55,"wind_gusts":35.3,"aqi":71,"pm10":31.9,"pm2_5":28.7,"mosquito_risk":7,"arthritis_risk":0,"migraine_risk":4,"frizz_risk":1,"updated_at":"2026-04-28T22:24:43.381005+05:30"},{"city":"Thiruvananthapuram","state":"Kerala","latitude":8.5241,"longitude":76.9366,"temp":25.6,"humidity":92,"rain":0.0,"pressure":1008.5,"uv_index":7.7,"wind_gusts":29.9,"aqi":56,"pm10":14.4,"pm2_5":10.7,"mosquito_risk":7,"arthritis_risk":0,"migraine_risk":4,"frizz_risk":1,"updated_at":"2026-04-28T22:24:43.381014+05:30"},{"city":"Kozhikode","state":"Kerala","latitude":11.2588,"longitude":75.7804,"temp":27.6,"humidity":90,"rain":0.0,"pressure":1007.9,"uv_index":7.55,"wind_gusts":37.4,"aqi":62,"pm10":22.9,"pm2_5":16.5,"mosquito_risk":7,"arthritis_risk":5,"migraine_risk":4,"frizz_risk":1,"updated_at":"2026-04-28T22:24:43.381023+05:30"},{"city":"Thrissur","state":"Kerala","latitude":10.5276,"longitude":76.2144,"temp":26.8,"humidity":99,"rain":0.0,"pressure":1007.1,"uv_index":7.05,"wind_gusts":37.4,"aqi":71,"pm10":29.0,"pm2_5":26.5,"mosquito_risk":7,"arthritis_risk":5,"migraine_risk":4,"frizz_risk":1,"updated_at":"2026-04-28T22:24:43.381032+05:30"},{"city":"Kannur","state":"Kerala","latitude":11.8745,"longitude":75.3704,"temp":28.0,"humidity":88,"rain":0.0,"pressure":1007.1,"uv_index":7.3,"wind_gusts":45.0,"aqi":74,"pm10":29.9,"pm2_5":20.6,"mosquito_risk":7,"arthritis_risk":5,"migraine_risk":4,"frizz_risk":1,"updated_at":"2026-04-28T22:24:43.381039+05:30"},{"city":"Patna","state":"Bihar","latitude":25.5941,"longitude":85.1376,"temp":26.2,"humidity":85,"rain":0.0,"pressure":998.1,"uv_index":8.6,"wind_gusts":33.8,"aqi":157,"pm10":68.9,"pm2_5":50.2,"mosquito_risk":7,"arthritis_risk":5,"migraine_risk":7,"frizz_risk":1,"updated_at":"2026-04-28T22:24:43.381046+05:30"},{"city":"Gaya","state":"Bihar","latitude":24.7914,"longitude":85.0002,"temp":28.1,"humidity":66,"rain":0.0,"pressure":990.5,"uv_index":8.7,"wind_gusts":31.0,"aqi":132,"pm10":83.1,"pm2_5":47.4,"mosquito_risk":7,"arthritis_risk":5,"migraine_risk":7,"frizz_risk":1,"updated_at":"2026-04-28T22:24:43.381053+05:30"},{"city":"Muzaffarpur","state":"Bihar","latitude":26.1209,"longitude":85.3647,"temp":25.0,"humidity":84,"rain":0.0,"pressure":998.9,"uv_index":8.55,"wind_gusts":46.1,"aqi":140,"pm10":70.5,"pm2_5":50.6,"mosquito_risk":7,"arthritis_risk":5,"migraine_risk":7,"frizz_risk":1,"updated_at":"2026-04-28T22:24:43.381059+05:30"},{"city":"Bhagalpur","state":"Bihar","latitude":25.2425,"longitude":87.0117,"temp":25.1,"humidity":87,"rain":0.0,"pressure":999.9,"uv_index":8.55,"wind_gusts":35.3,"aqi":138,"pm10":56.9,"pm2_5":35.3,"mosquito_risk":7,"arthritis_risk":5,"migraine_risk":7,"frizz_risk":1,"updated_at":"2026-04-28T22:24:43.381087+05:30"},{"city":"Ranchi","state":"Jharkhand","latitude":23.3441,"longitude":85.3096,"temp":26.4,"humidity":47,"rain":0.0,"pressure":935.4,"uv_index":8.9,"wind_gusts":52.6,"aqi":84,"pm10":42.1,"pm2_5":23.9,"mosquito_risk":4,"arthritis_risk":5,"migraine_risk":7,"frizz_risk":0,"updated_at":"2026-04-28T22:24:43.381095+05:30"},{"city":"Jamshedpur","state":"Jharkhand","latitude":22.8046,"longitude":86.2029,"temp":29.0,"humidity":63,"rain":0.0,"pressure":989.0,"uv_index":8.8,"wind_gusts":37.8,"aqi":167,"pm10":45.2,"pm2_5":30.6,"mosquito_risk":7,"arthritis_risk":5,"migraine_risk":7,"frizz_risk":1,"updated_at":"2026-04-28T22:24:43.381101+05:30"},{"city":"Dhanbad","state":"Jharkhand","latitude":23.7957,"longitude":86.4304,"temp":26.0,"humidity":84,"rain":0.0,"pressure":978.0,"uv_index":8.75,"wind_gusts":37.8,"aqi":156,"pm10":111.8,"pm2_5":83.4,"mosquito_risk":7,"arthritis_risk":5,"migraine_risk":7,"frizz_risk":1,"updated_at":"2026-04-28T22:24:43.381108+05:30"},{"city":"Bokaro","state":"Jharkhand","latitude":23.6693,"longitude":86.1511,"temp":26.9,"humidity":74,"rain":0.0,"pressure":981.9,"uv_index":8.95,"wind_gusts":42.5,"aqi":178,"pm10":114.8,"pm2_5":69.4,"mosquito_risk":7,"arthritis_risk":5,"migraine_risk":7,"frizz_risk":1,"updated_at":"2026-04-28T22:24:43.381115+05:30"},{"city":"Bhubaneswar","state":"Odisha","latitude":20.2961,"longitude":85.8245,"temp":27.6,"humidity":80,"rain":0.0,"pressure":1001.1,"uv_index":9.1,"wind_gusts":46.1,"aqi":71,"pm10":21.8,"pm2_5":18.5,"mosquito_risk":7,"arthritis_risk":5,"migraine_risk":4,"frizz_risk":1,"updated_at":"2026-04-28T22:24:43.381122+05:30"},{"city":"Cuttack","state":"Odisha","latitude":20.4625,"longitude":85.8828,"temp":28.1,"humidity":77,"rain":0.0,"pressure":1002.8,"uv_index":9.1,"wind_gusts":45.0,"aqi":71,"pm10":21.8,"pm2_5":18.5,"mosquito_risk":7,"arthritis_risk":5,"migraine_risk":4,"frizz_risk":1,"updated_at":"2026-04-28T22:24:43.381129+05:30"},{"city":"Rourkela","state":"Odisha","latitude":22.2604,"longitude":84.8536,"temp":31.5,"humidity":42,"rain":0.0,"pressure":982.6,"uv_index":8.4,"wind_gusts":49.3,"aqi":106,"pm10":34.7,"pm2_5":27.6,"mosquito_risk":0,"arthritis_risk":5,"migraine_risk":7,"frizz_risk":1,"updated_at":"2026-04-28T22:24:43.381135+05:30"},{"city":"Raipur","state":"Chhattisgarh","latitude":21.2514,"longitude":81.6296,"temp":31.4,"humidity":40,"rain":0.0,"pressure":971.8,"uv_index":8.9,"wind_gusts":52.6,"aqi":127,"pm10":42.4,"pm2_5":39.1,"mosquito_risk":0,"arthritis_risk":5,"migraine_risk":7,"frizz_risk":1,"updated_at":"2026-04-28T22:24:43.381142+05:30"},{"city":"Bhilai","state":"Chhattisgarh","latitude":21.1938,"longitude":81.3509,"temp":30.2,"humidity":46,"rain":0.0,"pressure":972.4,"uv_index":8.9,"wind_gusts":59.8,"aqi":128,"pm10":41.6,"pm2_5":37.8,"mosquito_risk":0,"arthritis_risk":5,"migraine_risk":7,"frizz_risk":1,"updated_at":"2026-04-28T22:24:43.381149+05:30"},{"city":"Guwahati","state":"Assam","latitude":26.1158,"longitude":91.7086,"temp":22.5,"humidity":98,"rain":0.5,"pressure":1001.7,"uv_index":7.7,"wind_gusts":31.0,"aqi":69,"pm10":42.1,"pm2_5":34.3,"mosquito_risk":6,"arthritis_risk":5,"migraine_risk":4,"frizz_risk":1,"updated_at":"2026-04-28T22:24:43.381156+05:30"},{"city":"Agartala","state":"Tripura","latitude":23.8315,"longitude":91.2868,"temp":24.5,"humidity":96,"rain":0.0,"pressure":1005.1,"uv_index":4.35,"wind_gusts":45.0,"aqi":69,"pm10":33.2,"pm2_5":26.5,"mosquito_risk":3,"arthritis_risk":5,"migraine_risk":0,"frizz_risk":1,"updated_at":"2026-04-28T22:24:43.381163+05:30"},{"city":"Shillong","state":"Meghalaya","latitude":25.5788,"longitude":91.8933,"temp":16.6,"humidity":96,"rain":0.0,"pressure":855.6,"uv_index":8.85,"wind_gusts":37.1,"aqi":44,"pm10":6.0,"pm2_5":5.1,"mosquito_risk":3,"arthritis_risk":10,"migraine_risk":7,"frizz_risk":0,"updated_at":"2026-04-28T22:24:43.381170+05:30"},{"city":"Imphal","state":"Manipur","latitude":24.817,"longitude":93.9368,"temp":18.9,"humidity":98,"rain":0.1,"pressure":923.3,"uv_index":2.3,"wind_gusts":25.9,"aqi":81,"pm10":12.2,"pm2_5":10.4,"mosquito_risk":6,"arthritis_risk":10,"migraine_risk":3,"frizz_risk":1,"updated_at":"2026-04-28T22:24:43.381177+05:30"},{"city":"Aizawl","state":"Mizoram","latitude":23.7271,"longitude":92.7176,"temp":19.3,"humidity":80,"rain":0.0,"pressure":891.8,"uv_index":5.85,"wind_gusts":47.5,"aqi":80,"pm10":29.0,"pm2_5":19.5,"mosquito_risk":3,"arthritis_risk":5,"migraine_risk":3,"frizz_risk":0,"updated_at":"2026-04-28T22:24:43.381184+05:30"},{"city":"Kohima","state":"Nagaland","latitude":25.6701,"longitude":94.1077,"temp":17.4,"humidity":85,"rain":0.0,"pressure":854.5,"uv_index":8.45,"wind_gusts":30.2,"aqi":46,"pm10":7.5,"pm2_5":4.5,"mosquito_risk":3,"arthritis_risk":10,"migraine_risk":7,"frizz_risk":0,"updated_at":"2026-04-28T22:24:43.381190+05:30"},{"city":"Gangtok","state":"Sikkim","latitude":27.3314,"longitude":88.6138,"temp":14.2,"humidity":99,"rain":0.4,"pressure":835.9,"uv_index":8.45,"wind_gusts":43.6,"aqi":83,"pm10":24.6,"pm2_5":17.3,"mosquito_risk":6,"arthritis_risk":10,"migraine_risk":7,"frizz_risk":0,"updated_at":"2026-04-28T22:24:43.381197+05:30"},{"city":"Siliguri","state":"West Bengal","latitude":26.7271,"longitude":88.3953,"temp":21.8,"humidity":93,"rain":0.1,"pressure":992.9,"uv_index":8.0,"wind_gusts":33.1,"aqi":92,"pm10":57.6,"pm2_5":38.5,"mosquito_risk":6,"arthritis_risk":5,"migraine_risk":7,"frizz_risk":1,"updated_at":"2026-04-28T22:24:46.768764+05:30"},{"city":"Durgapur","state":"West Bengal","latitude":23.5204,"longitude":87.3119,"temp":25.4,"humidity":91,"rain":0.0,"pressure":992.7,"uv_index":8.85,"wind_gusts":31.7,"aqi":166,"pm10":84.3,"pm2_5":67.1,"mosquito_risk":7,"arthritis_risk":5,"migraine_risk":7,"frizz_risk":1,"updated_at":"2026-04-28T22:24:46.768797+05:30"},{"city":"Asansol","state":"West Bengal","latitude":23.6739,"longitude":86.9524,"temp":26.0,"humidity":89,"rain":0.0,"pressure":991.7,"uv_index":8.9,"wind_gusts":38.5,"aqi":157,"pm10":91.3,"pm2_5":73.6,"mosquito_risk":7,"arthritis_risk":5,"migraine_risk":7,"frizz_risk":1,"updated_at":"2026-04-28T22:24:46.768807+05:30"},{"city":"Pondicherry","state":"Puducherry","latitude":11.9139,"longitude":79.8145,"temp":29.6,"humidity":82,"rain":0.0,"pressure":1007.8,"uv_index":8.6,"wind_gusts":46.4,"aqi":47,"pm10":16.0,"pm2_5":12.0,"mosquito_risk":7,"arthritis_risk":5,"migraine_risk":4,"frizz_risk":1,"updated_at":"2026-04-28T22:24:46.768814+05:30"},{"city":"Port Blair","state":"Andaman and Nicobar Islands","latitude":11.6234,"longitude":92.7265,"temp":28.1,"humidity":84,"rain":0.0,"pressure":1008.5,"uv_index":9.1,"wind_gusts":32.0,"aqi":51,"pm10":13.6,"pm2_5":10.3,"mosquito_risk":7,"arthritis_risk":0,"migraine_risk":4,"frizz_risk":1,"updated_at":"2026-04-28T22:24:46.768822+05:30"},{"city":"Haridwar","state":"Uttarakhand","latitude":29.9457,"longitude":78.1642,"temp":23.6,"humidity":70,"rain":0.0,"pressure":969.5,"uv_index":7.0,"wind_gusts":32.0,"aqi":67,"pm10":59.8,"pm2_5":23.8,"mosquito_risk":3,"arthritis_risk":5,"migraine_risk":7,"frizz_risk":1,"updated_at":"2026-04-28T22:24:46.768830+05:30"},{"city":"Rishikesh","state":"Uttarakhand","latitude":30.0869,"longitude":78.2676,"temp":20.6,"humidity":84,"rain":0.0,"pressure":962.2,"uv_index":6.75,"wind_gusts":25.2,"aqi":66,"pm10":97.8,"pm2_5":23.2,"mosquito_risk":3,"arthritis_risk":5,"migraine_risk":7,"frizz_risk":1,"updated_at":"2026-04-28T22:24:46.768837+05:30"},{"city":"Nainital","state":"Uttarakhand","latitude":29.3919,"longitude":79.4542,"temp":13.4,"humidity":78,"rain":0.0,"pressure":801.7,"uv_index":7.8,"wind_gusts":54.4,"aqi":122,"pm10":84.8,"pm2_5":25.7,"mosquito_risk":3,"arthritis_risk":5,"migraine_risk":7,"frizz_risk":0,"updated_at":"2026-04-28T22:24:46.768845+05:30"},{"city":"Mussoorie","state":"Uttarakhand","latitude":30.4599,"longitude":78.0664,"temp":13.5,"humidity":69,"rain":0.0,"pressure":799.4,"uv_index":4.25,"wind_gusts":37.8,"aqi":63,"pm10":64.0,"pm2_5":23.0,"mosquito_risk":3,"arthritis_risk":5,"migraine_risk":3,"frizz_risk":0,"updated_at":"2026-04-28T22:24:46.768852+05:30"},{"city":"Dharamshala","state":"Himachal Pradesh","latitude":32.219,"longitude":76.3234,"temp":19.6,"humidity":52,"rain":0.0,"pressure":866.7,"uv_index":7.45,"wind_gusts":39.6,"aqi":64,"pm10":12.1,"pm2_5":9.3,"mosquito_risk":0,"arthritis_risk":5,"migraine_risk":7,"frizz_risk":0,"updated_at":"2026-04-28T22:24:46.768860+05:30"},{"city":"Dalhousie","state":"Himachal Pradesh","latitude":32.5387,"longitude":75.971,"temp":11.6,"humidity":88,"rain":0.0,"pressure":800.4,"uv_index":7.1,"wind_gusts":27.4,"aqi":65,"pm10":71.9,"pm2_5":39.1,"mosquito_risk":3,"arthritis_risk":10,"migraine_risk":7,"frizz_risk":0,"updated_at":"2026-04-28T22:24:46.768868+05:30"},{"city":"Patiala","state":"Punjab","latitude":30.3398,"longitude":76.3869,"temp":28.8,"humidity":40,"rain":0.0,"pressure":974.4,"uv_index":5.7,"wind_gusts":43.9,"aqi":198,"pm10":224.9,"pm2_5":48.0,"mosquito_risk":4,"arthritis_risk":5,"migraine_risk":3,"frizz_risk":0,"updated_at":"2026-04-28T22:24:46.768875+05:30"},{"city":"Bhatinda","state":"Punjab","latitude":30.211,"longitude":74.9455,"temp":30.0,"humidity":37,"rain":0.0,"pressure":979.9,"uv_index":7.3,"wind_gusts":40.7,"aqi":93,"pm10":90.6,"pm2_5":28.3,"mosquito_risk":4,"arthritis_risk":5,"migraine_risk":7,"frizz_risk":0,"updated_at":"2026-04-28T22:24:46.768882+05:30"},{"city":"Rohtak","state":"Haryana","latitude":28.8955,"longitude":76.6066,"temp":28.5,"humidity":45,"rain":0.0,"pressure":977.5,"uv_index":7.3,"wind_gusts":42.8,"aqi":709,"pm10":935.0,"pm2_5":122.5,"mosquito_risk":4,"arthritis_risk":5,"migraine_risk":7,"frizz_risk":0,"updated_at":"2026-04-28T22:24:46.768889+05:30"},{"city":"Panipat","state":"Haryana","latitude":29.3909,"longitude":76.9635,"temp":29.7,"humidity":36,"rain":0.0,"pressure":976.4,"uv_index":6.5,"wind_gusts":42.5,"aqi":1369,"pm10":1076.6,"pm2_5":139.7,"mosquito_risk":4,"arthritis_risk":5,"migraine_risk":7,"frizz_risk":0,"updated_at":"2026-04-28T22:24:46.768896+05:30"},{"city":"Mathura","state":"Uttar Pradesh","latitude":27.4924,"longitude":77.6737,"temp":30.0,"humidity":39,"rain":0.0,"pressure":982.2,"uv_index":7.75,"wind_gusts":41.4,"aqi":631,"pm10":2116.0,"pm2_5":237.5,"mosquito_risk":4,"arthritis_risk":5,"migraine_risk":7,"frizz_risk":0,"updated_at":"2026-04-28T22:24:46.768903+05:30"},{"city":"Vrindavan","state":"Uttar Pradesh","latitude":27.5823,"longitude":77.7027,"temp":29.5,"humidity":41,"rain":0.0,"pressure":982.6,"uv_index":7.75,"wind_gusts":43.9,"aqi":631,"pm10":2116.0,"pm2_5":237.5,"mosquito_risk":4,"arthritis_risk":5,"migraine_risk":7,"frizz_risk":0,"updated_at":"2026-04-28T22:24:46.768910+05:30"},{"city":"Ayodhya","state":"Uttar Pradesh","latitude":26.7922,"longitude":82.1998,"temp":29.9,"humidity":52,"rain":0.0,"pressure":990.6,"uv_index":8.1,"wind_gusts":37.8,"aqi":146,"pm10":119.7,"pm2_5":52.0,"mosquito_risk":4,"arthritis_risk":5,"migraine_risk":7,"frizz_risk":1,"updated_at":"2026-04-28T22:24:46.768917+05:30"},{"city":"Ratlam","state":"Madhya Pradesh","latitude":23.3315,"longitude":75.0367,"temp":29.6,"humidity":26,"rain":0.0,"pressure":951.7,"uv_index":8.45,"wind_gusts":50.0,"aqi":68,"pm10":26.7,"pm2_5":15.0,"mosquito_risk":4,"arthritis_risk":5,"migraine_risk":7,"frizz_risk":0,"updated_at":"2026-04-28T22:24:46.768924+05:30"},{"city":"Sagar","state":"Madhya Pradesh","latitude":23.8388,"longitude":78.7378,"temp":31.1,"humidity":16,"rain":0.0,"pressure":946.9,"uv_index":8.6,"wind_gusts":46.8,"aqi":92,"pm10":12.0,"pm2_5":9.3,"mosquito_risk":0,"arthritis_risk":5,"migraine_risk":7,"frizz_risk":0,"updated_at":"2026-04-28T22:24:46.768930+05:30"},{"city":"Satna","state":"Madhya Pradesh","latitude":24.6005,"longitude":80.8322,"temp":31.5,"humidity":29,"rain":0.0,"pressure":967.4,"uv_index":8.65,"wind_gusts":47.5,"aqi":96,"pm10":28.3,"pm2_5":17.3,"mosquito_risk":0,"arthritis_risk":5,"migraine_risk":7,"frizz_risk":0,"updated_at":"2026-04-28T22:24:46.768937+05:30"},{"city":"Akola","state":"Maharashtra","latitude":20.7002,"longitude":77.0082,"temp":35.6,"humidity":17,"rain":0.0,"pressure":972.5,"uv_index":8.85,"wind_gusts":40.3,"aqi":111,"pm10":22.5,"pm2_5":19.2,"mosquito_risk":0,"arthritis_risk":5,"migraine_risk":10,"frizz_risk":0,"updated_at":"2026-04-28T22:24:46.768945+05:30"},{"city":"Amravati","state":"Maharashtra","latitude":20.9374,"longitude":77.7796,"temp":35.1,"humidity":17,"rain":0.0,"pressure":965.1,"uv_index":8.85,"wind_gusts":50.0,"aqi":114,"pm10":21.6,"pm2_5":18.6,"mosquito_risk":0,"arthritis_risk":5,"migraine_risk":10,"frizz_risk":0,"updated_at":"2026-04-28T22:24:46.768952+05:30"},{"city":"Latur","state":"Maharashtra","latitude":18.4088,"longitude":76.5604,"temp":32.7,"humidity":23,"rain":0.0,"pressure":938.2,"uv_index":9.05,"wind_gusts":34.9,"aqi":96,"pm10":44.7,"pm2_5":34.7,"mosquito_risk":0,"arthritis_risk":5,"migraine_risk":7,"frizz_risk":0,"updated_at":"2026-04-28T22:24:46.768959+05:30"},{"city":"Nanded","state":"Maharashtra","latitude":19.1383,"longitude":77.3091,"temp":34.4,"humidity":22,"rain":0.0,"pressure":966.1,"uv_index":8.95,"wind_gusts":32.8,"aqi":98,"pm10":37.0,"pm2_5":29.5,"mosquito_risk":0,"arthritis_risk":5,"migraine_risk":7,"frizz_risk":0,"updated_at":"2026-04-28T22:24:46.768966+05:30"},{"city":"Gulbarga","state":"Karnataka","latitude":17.3297,"longitude":76.8343,"temp":32.7,"humidity":35,"rain":0.0,"pressure":957.5,"uv_index":9.1,"wind_gusts":33.5,"aqi":136,"pm10":41.4,"pm2_5":35.5,"mosquito_risk":0,"arthritis_risk":5,"migraine_risk":7,"frizz_risk":0,"updated_at":"2026-04-28T22:24:46.768972+05:30"},{"city":"Bidar","state":"Karnataka","latitude":17.9104,"longitude":77.5199,"temp":31.0,"humidity":33,"rain":0.0,"pressure":934.5,"uv_index":7.05,"wind_gusts":34.6,"aqi":116,"pm10":59.3,"pm2_5":49.8,"mosquito_risk":0,"arthritis_risk":5,"migraine_risk":7,"frizz_risk":0,"updated_at":"2026-04-28T22:24:46.768978+05:30"},{"city":"Hospet","state":"Karnataka","latitude":15.2689,"longitude":76.3909,"temp":28.4,"humidity":55,"rain":0.0,"pressure":955.6,"uv_index":9.25,"wind_gusts":36.4,"aqi":143,"pm10":48.1,"pm2_5":41.4,"mosquito_risk":4,"arthritis_risk":5,"migraine_risk":7,"frizz_risk":1,"updated_at":"2026-04-28T22:24:46.768985+05:30"},{"city":"Tirupur","state":"Tamil Nadu","latitude":11.1085,"longitude":77.3411,"temp":27.8,"humidity":75,"rain":0.0,"pressure":974.4,"uv_index":8.25,"wind_gusts":38.9,"aqi":128,"pm10":37.7,"pm2_5":32.1,"mosquito_risk":7,"arthritis_risk":5,"migraine_risk":7,"frizz_risk":1,"updated_at":"2026-04-28T22:24:46.768991+05:30"},{"city":"Alappuzha","state":"Kerala","latitude":9.4981,"longitude":76.3388,"temp":27.4,"humidity":90,"rain":0.0,"pressure":1009.0,"uv_index":7.65,"wind_gusts":33.8,"aqi":70,"pm10":31.0,"pm2_5":26.5,"mosquito_risk":7,"arthritis_risk":0,"migraine_risk":4,"frizz_risk":1,"updated_at":"2026-04-28T22:24:46.768998+05:30"},{"city":"Munnar","state":"Kerala","latitude":10.0889,"longitude":77.0595,"temp":18.3,"humidity":97,"rain":0.0,"pressure":857.1,"uv_index":8.75,"wind_gusts":27.7,"aqi":79,"pm10":30.6,"pm2_5":27.8,"mosquito_risk":3,"arthritis_risk":10,"migraine_risk":7,"frizz_risk":1,"updated_at":"2026-04-28T22:24:46.769004+05:30"},{"city":"Silchar","state":"Assam","latitude":24.8333,"longitude":92.7789,"temp":22.2,"humidity":93,"rain":0.2,"pressure":1005.7,"uv_index":1.95,"wind_gusts":34.2,"aqi":80,"pm10":17.7,"pm2_5":14.7,"mosquito_risk":6,"arthritis_risk":5,"migraine_risk":0,"frizz_risk":1,"updated_at":"2026-04-28T22:24:46.769011+05:30"},{"city":"Dibrugarh","state":"Assam","latitude":27.4728,"longitude":94.912,"temp":23.4,"humidity":86,"rain":0.0,"pressure":996.3,"uv_index":7.3,"wind_gusts":20.9,"aqi":97,"pm10":71.7,"pm2_5":60.5,"mosquito_risk":3,"arthritis_risk":5,"migraine_risk":7,"frizz_risk":1,"updated_at":"2026-04-28T22:24:46.769018+05:30"}]