[{"city":"Delhi","state":"Delhi","latitude":28.6139,"longitude":77.209,"temp":27.9,"humidity":87,"rain":0.0,"pressure":975.2,"uv_index":6.6,"wind_gusts":37.8,"aqi":157,"pm10":99.9,"pm2_5":70.5,"no2":68.9,"co":2141.0,"o3":32.0,"so2":31.5,"mosquito_risk":7,"arthritis_risk":5,"migraine_risk":7,"frizz_risk":1,"updated_at":"2026-07-10T23:56:21.987400+05:30"},{"city":"Mumbai","state":"Maharashtra","latitude":19.076,"longitude":72.8777,"temp":27.6,"humidity":88,"rain":0.0,"pressure":1008.9,"uv_index":5.4,"wind_gusts":44.6,"aqi":57,"pm10":34.2,"pm2_5":13.9,"no2":5.7,"co":163.0,"o3":43.0,"so2":4.3,"mosquito_risk":7,"arthritis_risk":0,"migraine_risk":0,"frizz_risk":1,"updated_at":"2026-07-10T23:56:21.987444+05:30"},{"city":"Bangalore","state":"Karnataka","latitude":12.9716,"longitude":77.5946,"temp":21.2,"humidity":95,"rain":0.0,"pressure":913.1,"uv_index":6.7,"wind_gusts":47.5,"aqi":36,"pm10":9.8,"pm2_5":7.5,"no2":16.6,"co":330.0,"o3":35.0,"so2":5.2,"mosquito_risk":3,"arthritis_risk":5,"migraine_risk":7,"frizz_risk":1,"updated_at":"2026-07-10T23:56:21.987460+05:30"},{"city":"Hyderabad","state":"Telangana","latitude":17.385,"longitude":78.4867,"temp":28.1,"humidity":61,"rain":0.0,"pressure":952.2,"uv_index":8.6,"wind_gusts":44.3,"aqi":61,"pm10":36.9,"pm2_5":21.4,"no2":15.8,"co":281.0,"o3":45.0,"so2":6.3,"mosquito_risk":7,"arthritis_risk":5,"migraine_risk":7,"frizz_risk":1,"updated_at":"2026-07-10T23:56:21.987469+05:30"},{"city":"Chennai","state":"Tamil Nadu","latitude":13.0827,"longitude":80.2707,"temp":26.7,"humidity":86,"rain":0.0,"pressure":1007.0,"uv_index":7.75,"wind_gusts":38.5,"aqi":69,"pm10":25.8,"pm2_5":18.5,"no2":13.8,"co":353.0,"o3":79.0,"so2":8.2,"mosquito_risk":7,"arthritis_risk":5,"migraine_risk":4,"frizz_risk":1,"updated_at":"2026-07-10T23:56:21.987478+05:30"},{"city":"Kolkata","state":"West Bengal","latitude":22.5726,"longitude":88.3639,"temp":27.6,"humidity":95,"rain":0.0,"pressure":999.9,"uv_index":8.0,"wind_gusts":31.0,"aqi":78,"pm10":41.9,"pm2_5":36.0,"no2":11.2,"co":385.0,"o3":86.0,"so2":11.9,"mosquito_risk":7,"arthritis_risk":5,"migraine_risk":7,"frizz_risk":1,"updated_at":"2026-07-10T23:56:21.987485+05:30"},{"city":"Pune","state":"Maharashtra","latitude":18.5204,"longitude":73.8567,"temp":23.2,"humidity":90,"rain":0.0,"pressure":948.3,"uv_index":7.7,"wind_gusts":46.4,"aqi":32,"pm10":11.4,"pm2_5":6.7,"no2":9.0,"co":136.0,"o3":32.0,"so2":6.4,"mosquito_risk":3,"arthritis_risk":5,"migraine_risk":7,"frizz_risk":1,"updated_at":"2026-07-10T23:56:21.987492+05:30"},{"city":"Ahmedabad","state":"Gujarat","latitude":23.0225,"longitude":72.5714,"temp":29.2,"humidity":70,"rain":0.0,"pressure":998.9,"uv_index":8.0,"wind_gusts":46.4,"aqi":70,"pm10":36.3,"pm2_5":19.4,"no2":7.1,"co":133.0,"o3":47.0,"so2":4.6,"mosquito_risk":7,"arthritis_risk":5,"migraine_risk":7,"frizz_risk":1,"updated_at":"2026-07-10T23:56:21.987498+05:30"},{"city":"Jaipur","state":"Rajasthan","latitude":26.9124,"longitude":75.7873,"temp":28.6,"humidity":66,"rain":0.0,"pressure":953.3,"uv_index":8.2,"wind_gusts":37.8,"aqi":380,"pm10":618.4,"pm2_5":111.5,"no2":7.8,"co":180.0,"o3":67.0,"so2":5.0,"mosquito_risk":7,"arthritis_risk":5,"migraine_risk":7,"frizz_risk":1,"updated_at":"2026-07-10T23:56:21.987509+05:30"},{"city":"Lucknow","state":"Uttar Pradesh","latitude":26.8467,"longitude":80.9462,"temp":26.1,"humidity":98,"rain":0.0,"pressure":986.3,"uv_index":7.75,"wind_gusts":40.3,"aqi":96,"pm10":90.1,"pm2_5":47.8,"no2":18.6,"co":243.0,"o3":60.0,"so2":7.6,"mosquito_risk":7,"arthritis_risk":5,"migraine_risk":7,"frizz_risk":1,"updated_at":"2026-07-10T23:56:21.987519+05:30"},{"city":"Kanpur","state":"Uttar Pradesh","latitude":26.4499,"longitude":80.3319,"temp":27.8,"humidity":85,"rain":0.0,"pressure":984.4,"uv_index":6.95,"wind_gusts":34.9,"aqi":99,"pm10":78.5,"pm2_5":41.0,"no2":15.3,"co":191.0,"o3":63.0,"so2":5.7,"mosquito_risk":7,"arthritis_risk":5,"migraine_risk":7,"frizz_risk":1,"updated_at":"2026-07-10T23:56:21.987525+05:30"},{"city":"Chandigarh","state":"Chandigarh","latitude":30.7333,"longitude":76.7794,"temp":26.0,"humidity":91,"rain":0.0,"pressure":961.1,"uv_index":0.5,"wind_gusts":20.5,"aqi":132,"pm10":82.7,"pm2_5":80.8,"no2":68.6,"co":1628.0,"o3":19.0,"so2":11.5,"mosquito_risk":7,"arthritis_risk":5,"migraine_risk":3,"frizz_risk":1,"updated_at":"2026-07-10T23:56:21.987532+05:30"},{"city":"Srinagar","state":"Jammu and Kashmir","latitude":34.0837,"longitude":74.7973,"temp":24.8,"humidity":61,"rain":0.0,"pressure":836.2,"uv_index":9.05,"wind_gusts":21.6,"aqi":88,"pm10":49.7,"pm2_5":45.9,"no2":39.6,"co":990.0,"o3":35.0,"so2":4.0,"mosquito_risk":3,"arthritis_risk":5,"migraine_risk":7,"frizz_risk":1,"updated_at":"2026-07-10T23:56:21.987539+05:30"},{"city":"Jammu","state":"Jammu and Kashmir","latitude":32.7266,"longitude":74.857,"temp":27.0,"humidity":92,"rain":0.0,"pressure":964.8,"uv_index":8.55,"wind_gusts":25.2,"aqi":164,"pm10":78.7,"pm2_5":70.3,"no2":28.3,"co":689.0,"o3":90.0,"so2":7.0,"mosquito_risk":7,"arthritis_risk":5,"migraine_risk":7,"frizz_risk":1,"updated_at":"2026-07-10T23:56:21.987545+05:30"},{"city":"Amritsar","state":"Punjab","latitude":31.634,"longitude":74.8723,"temp":26.7,"humidity":96,"rain":0.0,"pressure":972.7,"uv_index":8.4,"wind_gusts":41.4,"aqi":157,"pm10":90.1,"pm2_5":74.5,"no2":21.7,"co":727.0,"o3":90.0,"so2":8.8,"mosquito_risk":7,"arthritis_risk":5,"migraine_risk":7,"frizz_risk":1,"updated_at":"2026-07-10T23:56:21.987552+05:30"},{"city":"Ludhiana","state":"Punjab","latitude":30.901,"longitude":75.8573,"temp":28.1,"humidity":85,"rain":0.0,"pressure":970.5,"uv_index":7.95,"wind_gusts":24.8,"aqi":158,"pm10":90.3,"pm2_5":71.0,"no2":28.0,"co":879.0,"o3":80.0,"so2":12.4,"mosquito_risk":7,"arthritis_risk":5,"migraine_risk":7,"frizz_risk":1,"updated_at":"2026-07-10T23:56:21.987558+05:30"},{"city":"Jalandhar","state":"Punjab","latitude":31.326,"longitude":75.5762,"temp":28.1,"humidity":90,"rain":0.0,"pressure":971.8,"uv_index":8.15,"wind_gusts":21.2,"aqi":158,"pm10":116.9,"pm2_5":88.0,"no2":34.7,"co":717.0,"o3":74.0,"so2":8.8,"mosquito_risk":7,"arthritis_risk":5,"migraine_risk":7,"frizz_risk":1,"updated_at":"2026-07-10T23:56:21.987565+05:30"},{"city":"Dehradun","state":"Uttarakhand","latitude":30.6284,"longitude":78.0322,"temp":18.5,"humidity":95,"rain":0.0,"pressure":825.4,"uv_index":1.5,"wind_gusts":26.6,"aqi":46,"pm10":8.3,"pm2_5":8.2,"no2":30.7,"co":258.0,"o3":50.0,"so2":1.1,"mosquito_risk":3,"arthritis_risk":10,"migraine_risk":3,"frizz_risk":1,"updated_at":"2026-07-10T23:56:21.987572+05:30"},{"city":"Shimla","state":"Himachal Pradesh","latitude":31.1048,"longitude":77.1734,"temp":15.1,"humidity":99,"rain":0.0,"pressure":779.3,"uv_index":1.2,"wind_gusts":14.8,"aqi":55,"pm10":34.9,"pm2_5":32.5,"no2":27.2,"co":427.0,"o3":73.0,"so2":3.1,"mosquito_risk":3,"arthritis_risk":10,"migraine_risk":3,"frizz_risk":0,"updated_at":"2026-07-10T23:56:21.987578+05:30"},{"city":"Manali","state":"Himachal Pradesh","latitude":32.2396,"longitude":77.1887,"temp":19.7,"humidity":96,"rain":0.0,"pressure":815.0,"uv_index":8.25,"wind_gusts":32.8,"aqi":45,"pm10":18.9,"pm2_5":18.9,"no2":91.4,"co":373.0,"o3":7.0,"so2":0.2,"mosquito_risk":3,"arthritis_risk":10,"migraine_risk":7,"frizz_risk":1,"updated_at":"2026-07-10T23:56:21.987589+05:30"},{"city":"Gurgaon","state":"Haryana","latitude":28.4595,"longitude":77.0266,"temp":27.3,"humidity":94,"rain":0.0,"pressure":973.4,"uv_index":7.4,"wind_gusts":41.4,"aqi":167,"pm10":188.6,"pm2_5":93.1,"no2":61.9,"co":339.0,"o3":31.0,"so2":21.6,"mosquito_risk":7,"arthritis_risk":5,"migraine_risk":7,"frizz_risk":1,"updated_at":"2026-07-10T23:56:21.987596+05:30"},{"city":"Noida","state":"Uttar Pradesh","latitude":28.5355,"longitude":77.391,"temp":28.0,"humidity":87,"rain":0.0,"pressure":976.8,"uv_index":7.0,"wind_gusts":40.0,"aqi":167,"pm10":188.6,"pm2_5":93.1,"no2":61.9,"co":1084.0,"o3":31.0,"so2":21.6,"mosquito_risk":7,"arthritis_risk":5,"migraine_risk":7,"frizz_risk":1,"updated_at":"2026-07-10T23:56:21.987602+05:30"},{"city":"Ghaziabad","state":"Uttar Pradesh","latitude":28.6692,"longitude":77.4538,"temp":27.4,"humidity":90,"rain":0.2,"pressure":974.9,"uv_index":6.6,"wind_gusts":35.3,"aqi":119,"pm10":59.8,"pm2_5":49.2,"no2":33.8,"co":687.0,"o3":51.0,"so2":11.3,"mosquito_risk":10,"arthritis_risk":5,"migraine_risk":7,"frizz_risk":1,"updated_at":"2026-07-10T23:56:21.987608+05:30"},{"city":"Faridabad","state":"Haryana","latitude":28.4089,"longitude":77.3178,"temp":27.5,"humidity":90,"rain":0.1,"pressure":976.1,"uv_index":7.25,"wind_gusts":43.6,"aqi":167,"pm10":188.6,"pm2_5":93.1,"no2":61.9,"co":1795.0,"o3":31.0,"so2":21.6,"mosquito_risk":10,"arthritis_risk":5,"migraine_risk":7,"frizz_risk":1,"updated_at":"2026-07-10T23:56:21.987615+05:30"},{"city":"Meerut","state":"Uttar Pradesh","latitude":28.9845,"longitude":77.7064,"temp":26.5,"humidity":95,"rain":0.0,"pressure":973.8,"uv_index":4.4,"wind_gusts":35.6,"aqi":119,"pm10":59.8,"pm2_5":49.2,"no2":33.8,"co":782.0,"o3":51.0,"so2":11.3,"mosquito_risk":7,"arthritis_risk":5,"migraine_risk":3,"frizz_risk":1,"updated_at":"2026-07-10T23:56:21.987621+05:30"},{"city":"Agra","state":"Uttar Pradesh","latitude":27.1767,"longitude":78.0081,"temp":28.4,"humidity":81,"rain":0.0,"pressure":980.1,"uv_index":8.05,"wind_gusts":53.6,"aqi":158,"pm10":139.7,"pm2_5":62.4,"no2":23.4,"co":309.0,"o3":50.0,"so2":7.2,"mosquito_risk":7,"arthritis_risk":5,"migraine_risk":7,"frizz_risk":1,"updated_at":"2026-07-10T23:56:21.987627+05:30"},{"city":"Varanasi","state":"Uttar Pradesh","latitude":25.3176,"longitude":82.9739,"temp":28.9,"humidity":80,"rain":0.0,"pressure":990.7,"uv_index":7.5,"wind_gusts":41.4,"aqi":86,"pm10":62.2,"pm2_5":37.6,"no2":12.2,"co":313.0,"o3":68.0,"so2":7.6,"mosquito_risk":7,"arthritis_risk":5,"migraine_risk":7,"frizz_risk":1,"updated_at":"2026-07-10T23:56:21.987634+05:30"},{"city":"Prayagraj","state":"Uttar Pradesh","latitude":25.4358,"longitude":81.8463,"temp":29.7,"humidity":74,"rain":0.0,"pressure":989.3,"uv_index":8.35,"wind_gusts":35.6,"aqi":90,"pm10":56.8,"pm2_5":31.5,"no2":9.5,"co":214.0,"o3":79.0,"so2":4.6,"mosquito_risk":7,"arthritis_risk":5,"migraine_risk":7,"frizz_risk":1,"updated_at":"2026-07-10T23:56:21.987640+05:30"},{"city":"Gorakhpur","state":"Uttar Pradesh","latitude":26.7606,"longitude":83.3732,"temp":26.8,"humidity":97,"rain":0.1,"pressure":990.4,"uv_index":7.0,"wind_gusts":28.1,"aqi":81,"pm10":49.6,"pm2_5":37.3,"no2":17.0,"co":380.0,"o3":67.0,"so2":6.9,"mosquito_risk":10,"arthritis_risk":5,"migraine_risk":7,"frizz_risk":1,"updated_at":"2026-07-10T23:56:21.987647+05:30"},{"city":"Bareilly","state":"Uttar Pradesh","latitude":28.367,"longitude":79.4304,"temp":27.2,"humidity":97,"rain":0.0,"pressure":978.7,"uv_index":7.0,"wind_gusts":35.6,"aqi":75,"pm10":36.6,"pm2_5":35.0,"no2":31.5,"co":354.0,"o3":34.0,"so2":8.1,"mosquito_risk":7,"arthritis_risk":5,"migraine_risk":7,"frizz_risk":1,"updated_at":"2026-07-10T23:56:21.987656+05:30"},{"city":"Aligarh","state":"Uttar Pradesh","latitude":27.8974,"longitude":78.088,"temp":27.5,"humidity":90,"rain":0.0,"pressure":977.8,"uv_index":7.4,"wind_gusts":46.1,"aqi":157,"pm10":162.1,"pm2_5":76.4,"no2":24.7,"co":495.0,"o3":68.0,"so2":9.7,"mosquito_risk":7,"arthritis_risk":5,"migraine_risk":7,"frizz_risk":1,"updated_at":"2026-07-10T23:56:21.987662+05:30"},{"city":"Moradabad","state":"Uttar Pradesh","latitude":28.8386,"longitude":78.7733,"temp":26.1,"humidity":97,"rain":0.0,"pressure":976.2,"uv_index":5.5,"wind_gusts":36.7,"aqi":72,"pm10":51.8,"pm2_5":49.2,"no2":40.4,"co":394.0,"o3":34.0,"so2":15.8,"mosquito_risk":7,"arthritis_risk":5,"migraine_risk":3,"frizz_risk":1,"updated_at":"2026-07-10T23:56:21.987668+05:30"},{"city":"Saharanpur","state":"Uttar Pradesh","latitude":29.9637,"longitude":77.546,"temp":25.2,"humidity":94,"rain":0.0,"pressure":968.2,"uv_index":2.8,"wind_gusts":32.4,"aqi":69,"pm10":50.5,"pm2_5":49.5,"no2":49.4,"co":381.0,"o3":17.0,"so2":10.9,"mosquito_risk":7,"arthritis_risk":5,"migraine_risk":3,"frizz_risk":1,"updated_at":"2026-07-10T23:56:21.987675+05:30"},{"city":"Jhansi","state":"Uttar Pradesh","latitude":25.4484,"longitude":78.5685,"temp":30.4,"humidity":61,"rain":0.0,"pressure":971.8,"uv_index":8.25,"wind_gusts":44.3,"aqi":103,"pm10":47.4,"pm2_5":27.0,"no2":6.6,"co":149.0,"o3":83.0,"so2":9.0,"mosquito_risk":3,"arthritis_risk":5,"migraine_risk":7,"frizz_risk":1,"updated_at":"2026-07-10T23:56:25.348510+05:30"},{"city":"Surat","state":"Gujarat","latitude":21.1702,"longitude":72.8311,"temp":28.2,"humidity":88,"rain":0.0,"pressure":1005.3,"uv_index":6.7,"wind_gusts":56.5,"aqi":64,"pm10":25.3,"pm2_5":14.9,"no2":14.9,"co":245.0,"o3":33.0,"so2":25.0,"mosquito_risk":7,"arthritis_risk":5,"migraine_risk":4,"frizz_risk":1,"updated_at":"2026-07-10T23:56:25.348543+05:30"},{"city":"Vadodara","state":"Gujarat","latitude":22.3072,"longitude":73.1812,"temp":28.8,"humidity":80,"rain":0.0,"pressure":1001.7,"uv_index":6.0,"wind_gusts":49.7,"aqi":64,"pm10":29.2,"pm2_5":17.1,"no2":9.9,"co":153.0,"o3":40.0,"so2":7.9,"mosquito_risk":7,"arthritis_risk":5,"migraine_risk":0,"frizz_risk":1,"updated_at":"2026-07-10T23:56:25.348554+05:30"},{"city":"Rajkot","state":"Gujarat","latitude":22.3039,"longitude":70.8022,"temp":27.3,"humidity":84,"rain":0.0,"pressure":991.9,"uv_index":7.7,"wind_gusts":55.8,"aqi":61,"pm10":28.5,"pm2_5":14.2,"no2":4.3,"co":108.0,"o3":42.0,"so2":3.8,"mosquito_risk":7,"arthritis_risk":5,"migraine_risk":7,"frizz_risk":1,"updated_at":"2026-07-10T23:56:25.348563+05:30"},{"city":"Thane","state":"Maharashtra","latitude":19.2183,"longitude":72.9781,"temp":26.8,"humidity":90,"rain":0.1,"pressure":1008.2,"uv_index":5.8,"wind_gusts":37.4,"aqi":57,"pm10":34.2,"pm2_5":13.9,"no2":5.7,"co":171.0,"o3":43.0,"so2":4.3,"mosquito_risk":10,"arthritis_risk":0,"migraine_risk":0,"frizz_risk":1,"updated_at":"2026-07-10T23:56:25.348572+05:30"},{"city":"Nagpur","state":"Maharashtra","latitude":21.1458,"longitude":79.0882,"temp":27.6,"humidity":70,"rain":0.0,"pressure":970.1,"uv_index":7.3,"wind_gusts":46.1,"aqi":83,"pm10":40.4,"pm2_5":23.7,"no2":12.5,"co":212.0,"o3":57.0,"so2":11.4,"mosquito_risk":7,"arthritis_risk":5,"migraine_risk":7,"frizz_risk":1,"updated_at":"2026-07-10T23:56:25.348580+05:30"},{"city":"Nashik","state":"Maharashtra","latitude":19.9975,"longitude":73.7898,"temp":23.9,"humidity":93,"rain":0.0,"pressure":944.6,"uv_index":7.3,"wind_gusts":56.9,"aqi":37,"pm10":11.8,"pm2_5":6.5,"no2":8.3,"co":108.0,"o3":32.0,"so2":3.8,"mosquito_risk":3,"arthritis_risk":5,"migraine_risk":7,"frizz_risk":1,"updated_at":"2026-07-10T23:56:25.348588+05:30"},{"city":"Aurangabad","state":"Maharashtra","latitude":19.8762,"longitude":75.3433,"temp":24.1,"humidity":80,"rain":0.0,"pressure":943.2,"uv_index":8.6,"wind_gusts":55.8,"aqi":47,"pm10":23.9,"pm2_5":12.3,"no2":8.2,"co":157.0,"o3":42.0,"so2":8.7,"mosquito_risk":3,"arthritis_risk":5,"migraine_risk":7,"frizz_risk":1,"updated_at":"2026-07-10T23:56:25.348595+05:30"},{"city":"Solapur","state":"Maharashtra","latitude":17.6599,"longitude":75.9064,"temp":26.5,"humidity":72,"rain":0.0,"pressure":957.5,"uv_index":5.45,"wind_gusts":40.3,"aqi":47,"pm10":19.6,"pm2_5":11.1,"no2":6.0,"co":127.0,"o3":37.0,"so2":2.5,"mosquito_risk":7,"arthritis_risk":5,"migraine_risk":3,"frizz_risk":1,"updated_at":"2026-07-10T23:56:25.348603+05:30"},{"city":"Kolhapur","state":"Maharashtra","latitude":16.705,"longitude":74.2433,"temp":23.4,"humidity":93,"rain":0.0,"pressure":949.1,"uv_index":8.3,"wind_gusts":48.2,"aqi":33,"pm10":9.7,"pm2_5":6.1,"no2":5.4,"co":129.0,"o3":36.0,"so2":2.7,"mosquito_risk":3,"arthritis_risk":5,"migraine_risk":7,"frizz_risk":1,"updated_at":"2026-07-10T23:56:25.348611+05:30"},{"city":"Goa","state":"Goa","latitude":15.2993,"longitude":74.124,"temp":25.5,"humidity":99,"rain":0.0,"pressure":1000.6,"uv_index":7.9,"wind_gusts":35.3,"aqi":57,"pm10":30.2,"pm2_5":17.6,"no2":5.8,"co":468.0,"o3":35.0,"so2":1.7,"mosquito_risk":7,"arthritis_risk":5,"migraine_risk":4,"frizz_risk":1,"updated_at":"2026-07-10T23:56:25.348618+05:30"},{"city":"Jodhpur","state":"Rajasthan","latitude":26.2389,"longitude":73.0243,"temp":31.2,"humidity":58,"rain":0.0,"pressure":976.1,"uv_index":8.0,"wind_gusts":47.2,"aqi":191,"pm10":346.5,"pm2_5":81.5,"no2":3.8,"co":123.0,"o3":63.0,"so2":2.7,"mosquito_risk":0,"arthritis_risk":5,"migraine_risk":7,"frizz_risk":1,"updated_at":"2026-07-10T23:56:25.348625+05:30"},{"city":"Udaipur","state":"Rajasthan","latitude":24.5854,"longitude":73.7125,"temp":25.9,"humidity":70,"rain":0.0,"pressure":941.7,"uv_index":8.7,"wind_gusts":46.1,"aqi":74,"pm10":37.7,"pm2_5":21.0,"no2":4.4,"co":111.0,"o3":70.0,"so2":4.1,"mosquito_risk":7,"arthritis_risk":5,"migraine_risk":7,"frizz_risk":1,"updated_at":"2026-07-10T23:56:25.348633+05:30"},{"city":"Kota","state":"Rajasthan","latitude":25.2138,"longitude":75.8648,"temp":29.2,"humidity":64,"rain":0.0,"pressure":973.4,"uv_index":8.3,"wind_gusts":37.8,"aqi":91,"pm10":46.4,"pm2_5":27.2,"no2":6.2,"co":180.0,"o3":81.0,"so2":6.9,"mosquito_risk":7,"arthritis_risk":5,"migraine_risk":7,"frizz_risk":1,"updated_at":"2026-07-10T23:56:25.348640+05:30"},{"city":"Bikaner","state":"Rajasthan","latitude":28.0229,"longitude":73.3119,"temp":31.4,"humidity":56,"rain":0.0,"pressure":973.5,"uv_index":8.45,"wind_gusts":38.2,"aqi":157,"pm10":294.3,"pm2_5":94.1,"no2":2.6,"co":120.0,"o3":70.0,"so2":4.6,"mosquito_risk":0,"arthritis_risk":5,"migraine_risk":7,"frizz_risk":1,"updated_at":"2026-07-10T23:56:25.348647+05:30"},{"city":"Ajmer","state":"Rajasthan","latitude":26.4499,"longitude":74.6399,"temp":28.3,"humidity":66,"rain":0.0,"pressure":948.4,"uv_index":8.35,"wind_gusts":50.4,"aqi":87,"pm10":35.5,"pm2_5":21.2,"no2":5.4,"co":136.0,"o3":71.0,"so2":4.0,"mosquito_risk":7,"arthritis_risk":5,"migraine_risk":7,"frizz_risk":1,"updated_at":"2026-07-10T23:56:25.348654+05:30"},{"city":"Gwalior","state":"Madhya Pradesh","latitude":26.2183,"longitude":78.1828,"temp":29.7,"humidity":67,"rain":0.0,"pressure":976.1,"uv_index":8.0,"wind_gusts":47.2,"aqi":100,"pm10":40.0,"pm2_5":25.6,"no2":8.1,"co":176.0,"o3":74.0,"so2":6.6,"mosquito_risk":7,"arthritis_risk":5,"migraine_risk":7,"frizz_risk":1,"updated_at":"2026-07-10T23:56:25.348662+05:30"},{"city":"Indore","state":"Madhya Pradesh","latitude":22.7196,"longitude":75.8577,"temp":25.4,"humidity":82,"rain":0.0,"pressure":944.8,"uv_index":8.45,"wind_gusts":57.2,"aqi":73,"pm10":37.0,"pm2_5":22.9,"no2":7.4,"co":187.0,"o3":65.0,"so2":9.7,"mosquito_risk":7,"arthritis_risk":5,"migraine_risk":7,"frizz_risk":1,"updated_at":"2026-07-10T23:56:25.348669+05:30"},{"city":"Bhopal","state":"Madhya Pradesh","latitude":23.2599,"longitude":77.4126,"temp":26.5,"humidity":75,"rain":0.0,"pressure":950.0,"uv_index":8.25,"wind_gusts":52.6,"aqi":80,"pm10":44.2,"pm2_5":26.7,"no2":6.2,"co":264.0,"o3":71.0,"so2":5.4,"mosquito_risk":7,"arthritis_risk":5,"migraine_risk":7,"frizz_risk":1,"updated_at":"2026-07-10T23:56:25.348677+05:30"},{"city":"Jabalpur","state":"Madhya Pradesh","latitude":23.1815,"longitude":79.9864,"temp":26.9,"humidity":75,"rain":0.0,"pressure":957.5,"uv_index":7.45,"wind_gusts":42.5,"aqi":83,"pm10":41.9,"pm2_5":23.2,"no2":5.0,"co":209.0,"o3":72.0,"so2":5.0,"mosquito_risk":7,"arthritis_risk":5,"migraine_risk":7,"frizz_risk":1,"updated_at":"2026-07-10T23:56:25.348684+05:30"},{"city":"Ujjain","state":"Madhya Pradesh","latitude":23.1765,"longitude":75.7885,"temp":26.0,"humidity":82,"rain":0.0,"pressure":950.3,"uv_index":8.0,"wind_gusts":53.6,"aqi":73,"pm10":35.3,"pm2_5":22.1,"no2":6.3,"co":179.0,"o3":66.0,"so2":9.4,"mosquito_risk":7,"arthritis_risk":5,"migraine_risk":7,"frizz_risk":1,"updated_at":"2026-07-10T23:56:25.348692+05:30"},{"city":"Visakhapatnam","state":"Andhra Pradesh","latitude":17.6868,"longitude":83.2185,"temp":28.2,"humidity":86,"rain":0.0,"pressure":1000.6,"uv_index":8.9,"wind_gusts":45.0,"aqi":82,"pm10":38.3,"pm2_5":27.8,"no2":21.5,"co":295.0,"o3":63.0,"so2":32.7,"mosquito_risk":7,"arthritis_risk":5,"migraine_risk":4,"frizz_risk":1,"updated_at":"2026-07-10T23:56:25.348699+05:30"},{"city":"Vijayawada","state":"Andhra Pradesh","latitude":16.5062,"longitude":80.648,"temp":31.6,"humidity":54,"rain":0.0,"pressure":1000.5,"uv_index":7.45,"wind_gusts":43.2,"aqi":77,"pm10":49.4,"pm2_5":34.0,"no2":19.4,"co":418.0,"o3":35.0,"so2":7.6,"mosquito_risk":0,"arthritis_risk":5,"migraine_risk":4,"frizz_risk":1,"updated_at":"2026-07-10T23:56:25.348706+05:30"},{"city":"Guntur","state":"Andhra Pradesh","latitude":16.3067,"longitude":80.4365,"temp":32.0,"humidity":49,"rain":0.0,"pressure":1001.8,"uv_index":7.8,"wind_gusts":43.9,"aqi":76,"pm10":47.8,"pm2_5":30.6,"no2":18.6,"co":303.0,"o3":35.0,"so2":7.8,"mosquito_risk":0,"arthritis_risk":5,"migraine_risk":4,"frizz_risk":1,"updated_at":"2026-07-10T23:56:25.348714+05:30"},{"city":"Nellore","state":"Andhra Pradesh","latitude":14.4426,"longitude":79.9865,"temp":26.2,"humidity":92,"rain":0.0,"pressure":1005.1,"uv_index":6.25,"wind_gusts":57.2,"aqi":61,"pm10":51.7,"pm2_5":24.0,"no2":9.9,"co":178.0,"o3":50.0,"so2":4.2,"mosquito_risk":7,"arthritis_risk":5,"migraine_risk":4,"frizz_risk":1,"updated_at":"2026-07-10T23:56:25.348722+05:30"},{"city":"Kurnool","state":"Andhra Pradesh","latitude":15.8281,"longitude":78.0373,"temp":28.8,"humidity":63,"rain":0.0,"pressure":976.7,"uv_index":8.25,"wind_gusts":43.9,"aqi":57,"pm10":23.7,"pm2_5":14.5,"no2":9.9,"co":146.0,"o3":52.0,"so2":4.0,"mosquito_risk":7,"arthritis_risk":5,"migraine_risk":7,"frizz_risk":1,"updated_at":"2026-07-10T23:56:25.348730+05:30"},{"city":"Kakinada","state":"Andhra Pradesh","latitude":16.9891,"longitude":82.2475,"temp":28.8,"humidity":76,"rain":0.0,"pressure":1004.9,"uv_index":7.9,"wind_gusts":46.1,"aqi":71,"pm10":36.9,"pm2_5":24.7,"no2":7.8,"co":273.0,"o3":77.0,"so2":4.2,"mosquito_risk":7,"arthritis_risk":5,"migraine_risk":4,"frizz_risk":1,"updated_at":"2026-07-10T23:56:25.348738+05:30"},{"city":"Tirupati","state":"Andhra Pradesh","latitude":13.6288,"longitude":79.4192,"temp":26.1,"humidity":86,"rain":0.0,"pressure":990.7,"uv_index":6.1,"wind_gusts":56.9,"aqi":60,"pm10":24.6,"pm2_5":15.0,"no2":11.5,"co":153.0,"o3":44.0,"so2":2.4,"mosquito_risk":7,"arthritis_risk":5,"migraine_risk":7,"frizz_risk":1,"updated_at":"2026-07-10T23:56:25.348745+05:30"},{"city":"Warangal","state":"Telangana","latitude":17.9689,"longitude":79.5941,"temp":28.1,"humidity":67,"rain":0.0,"pressure":976.7,"uv_index":8.55,"wind_gusts":42.1,"aqi":72,"pm10":40.6,"pm2_5":26.0,"no2":13.9,"co":267.0,"o3":38.0,"so2":4.1,"mosquito_risk":7,"arthritis_risk":5,"migraine_risk":7,"frizz_risk":1,"updated_at":"2026-07-10T23:56:25.348752+05:30"},{"city":"Nizamabad","state":"Telangana","latitude":18.6725,"longitude":78.0941,"temp":27.4,"humidity":69,"rain":0.0,"pressure":963.1,"uv_index":8.6,"wind_gusts":42.5,"aqi":64,"pm10":34.1,"pm2_5":22.1,"no2":12.7,"co":223.0,"o3":43.0,"so2":6.4,"mosquito_risk":7,"arthritis_risk":5,"migraine_risk":7,"frizz_risk":1,"updated_at":"2026-07-10T23:56:25.348759+05:30"},{"city":"Mysore","state":"Karnataka","latitude":12.2958,"longitude":76.6396,"temp":21.7,"humidity":95,"rain":0.0,"pressure":930.7,"uv_index":7.85,"wind_gusts":43.6,"aqi":25,"pm10":7.0,"pm2_5":5.2,"no2":10.6,"co":158.0,"o3":34.0,"so2":2.5,"mosquito_risk":3,"arthritis_risk":5,"migraine_risk":7,"frizz_risk":1,"updated_at":"2026-07-10T23:56:25.348766+05:30"},{"city":"Mangalore","state":"Karnataka","latitude":12.9141,"longitude":74.856,"temp":24.7,"humidity":98,"rain":0.2,"pressure":1010.5,"uv_index":8.25,"wind_gusts":32.0,"aqi":54,"pm10":30.2,"pm2_5":19.1,"no2":15.8,"co":365.0,"o3":22.0,"so2":4.4,"mosquito_risk":6,"arthritis_risk":0,"migraine_risk":4,"frizz_risk":1,"updated_at":"2026-07-10T23:56:25.348773+05:30"},{"city":"Hubli-Dharwad","state":"Karnataka","latitude":15.3647,"longitude":75.124,"temp":22.8,"humidity":93,"rain":0.0,"pressure":942.5,"uv_index":6.9,"wind_gusts":49.7,"aqi":28,"pm10":9.5,"pm2_5":5.4,"no2":5.5,"co":118.0,"o3":35.0,"so2":1.8,"mosquito_risk":3,"arthritis_risk":5,"migraine_risk":7,"frizz_risk":1,"updated_at":"2026-07-10T23:56:25.348780+05:30"},{"city":"Belgaum","state":"Karnataka","latitude":15.8497,"longitude":74.4977,"temp":21.5,"humidity":97,"rain":0.0,"pressure":927.2,"uv_index":8.55,"wind_gusts":47.2,"aqi":27,"pm10":8.5,"pm2_5":4.7,"no2":4.9,"co":109.0,"o3":35.0,"so2":1.7,"mosquito_risk":3,"arthritis_risk":5,"migraine_risk":7,"frizz_risk":1,"updated_at":"2026-07-10T23:56:28.710949+05:30"},{"city":"Coimbatore","state":"Tamil Nadu","latitude":11.0168,"longitude":76.9558,"temp":23.3,"humidity":95,"rain":0.0,"pressure":964.0,"uv_index":8.5,"wind_gusts":41.8,"aqi":30,"pm10":9.3,"pm2_5":7.3,"no2":12.3,"co":213.0,"o3":27.0,"so2":3.7,"mosquito_risk":3,"arthritis_risk":5,"migraine_risk":7,"frizz_risk":1,"updated_at":"2026-07-10T23:56:28.710983+05:30"},{"city":"Madurai","state":"Tamil Nadu","latitude":9.9252,"longitude":78.1198,"temp":29.0,"humidity":67,"rain":0.0,"pressure":994.7,"uv_index":8.65,"wind_gusts":46.1,"aqi":57,"pm10":31.8,"pm2_5":26.5,"no2":42.9,"co":244.0,"o3":10.0,"so2":9.1,"mosquito_risk":7,"arthritis_risk":5,"migraine_risk":7,"frizz_risk":1,"updated_at":"2026-07-10T23:56:28.710994+05:30"},{"city":"Trichy","state":"Tamil Nadu","latitude":10.7905,"longitude":78.7047,"temp":28.6,"humidity":68,"rain":0.0,"pressure":1001.4,"uv_index":6.95,"wind_gusts":53.6,"aqi":43,"pm10":13.3,"pm2_5":10.0,"no2":12.2,"co":135.0,"o3":37.0,"so2":3.9,"mosquito_risk":7,"arthritis_risk":5,"migraine_risk":4,"frizz_risk":1,"updated_at":"2026-07-10T23:56:28.711004+05:30"},{"city":"Salem","state":"Tamil Nadu","latitude":11.6643,"longitude":78.146,"temp":25.6,"humidity":89,"rain":0.0,"pressure":979.4,"uv_index":8.35,"wind_gusts":43.2,"aqi":58,"pm10":20.5,"pm2_5":16.7,"no2":23.7,"co":658.0,"o3":31.0,"so2":7.0,"mosquito_risk":7,"arthritis_risk":5,"migraine_risk":7,"frizz_risk":1,"updated_at":"2026-07-10T23:56:28.711013+05:30"},{"city":"Tirunelveli","state":"Tamil Nadu","latitude":8.7139,"longitude":77.7567,"temp":28.4,"humidity":69,"rain":0.0,"pressure":1005.6,"uv_index":8.6,"wind_gusts":42.8,"aqi":29,"pm10":10.0,"pm2_5":7.3,"no2":7.3,"co":179.0,"o3":41.0,"so2":2.5,"mosquito_risk":7,"arthritis_risk":5,"migraine_risk":4,"frizz_risk":1,"updated_at":"2026-07-10T23:56:28.711022+05:30"},{"city":"Vellore","state":"Tamil Nadu","latitude":12.9165,"longitude":79.1325,"temp":26.3,"humidity":82,"rain":0.0,"pressure":985.0,"uv_index":7.8,"wind_gusts":38.9,"aqi":63,"pm10":20.4,"pm2_5":14.9,"no2":16.7,"co":271.0,"o3":41.0,"so2":5.0,"mosquito_risk":7,"arthritis_risk":5,"migraine_risk":7,"frizz_risk":1,"updated_at":"2026-07-10T23:56:28.711030+05:30"},{"city":"Erode","state":"Tamil Nadu","latitude":11.341,"longitude":77.7172,"temp":25.9,"humidity":81,"rain":0.0,"pressure":991.4,"uv_index":8.2,"wind_gusts":44.6,"aqi":48,"pm10":15.4,"pm2_5":12.7,"no2":18.4,"co":203.0,"o3":29.0,"so2":4.3,"mosquito_risk":7,"arthritis_risk":5,"migraine_risk":7,"frizz_risk":1,"updated_at":"2026-07-10T23:56:28.711038+05:30"},{"city":"Kochi","state":"Kerala","latitude":9.9312,"longitude":76.2673,"temp":25.9,"humidity":91,"rain":0.1,"pressure":1012.8,"uv_index":8.45,"wind_gusts":32.0,"aqi":47,"pm10":23.6,"pm2_5":19.6,"no2":23.7,"co":172.0,"o3":10.0,"so2":6.3,"mosquito_risk":10,"arthritis_risk":0,"migraine_risk":4,"frizz_risk":1,"updated_at":"2026-07-10T23:56:28.711047+05:30"},{"city":"Thiruvananthapuram","state":"Kerala","latitude":8.5241,"longitude":76.9366,"temp":24.8,"humidity":94,"rain":0.0,"pressure":1012.1,"uv_index":7.25,"wind_gusts":41.8,"aqi":41,"pm10":15.3,"pm2_5":9.3,"no2":5.6,"co":197.0,"o3":46.0,"so2":2.2,"mosquito_risk":3,"arthritis_risk":0,"migraine_risk":4,"frizz_risk":1,"updated_at":"2026-07-10T23:56:28.711055+05:30"},{"city":"Kozhikode","state":"Kerala","latitude":11.2588,"longitude":75.7804,"temp":24.1,"humidity":99,"rain":0.0,"pressure":1012.0,"uv_index":8.05,"wind_gusts":36.7,"aqi":36,"pm10":17.9,"pm2_5":8.7,"no2":2.8,"co":220.0,"o3":50.0,"so2":1.5,"mosquito_risk":3,"arthritis_risk":0,"migraine_risk":4,"frizz_risk":1,"updated_at":"2026-07-10T23:56:28.711062+05:30"},{"city":"Thrissur","state":"Kerala","latitude":10.5276,"longitude":76.2144,"temp":24.8,"humidity":99,"rain":0.0,"pressure":1011.2,"uv_index":7.5,"wind_gusts":35.6,"aqi":47,"pm10":23.2,"pm2_5":18.7,"no2":15.7,"co":455.0,"o3":25.0,"so2":5.1,"mosquito_risk":3,"arthritis_risk":0,"migraine_risk":4,"frizz_risk":1,"updated_at":"2026-07-10T23:56:28.711106+05:30"},{"city":"Kannur","state":"Kerala","latitude":11.8745,"longitude":75.3704,"temp":25.1,"humidity":97,"rain":0.1,"pressure":1011.2,"uv_index":8.5,"wind_gusts":32.4,"aqi":45,"pm10":22.4,"pm2_5":13.1,"no2":14.1,"co":477.0,"o3":26.0,"so2":3.3,"mosquito_risk":10,"arthritis_risk":0,"migraine_risk":4,"frizz_risk":1,"updated_at":"2026-07-10T23:56:28.711128+05:30"},{"city":"Patna","state":"Bihar","latitude":25.5941,"longitude":85.1376,"temp":26.9,"humidity":97,"rain":0.1,"pressure":994.4,"uv_index":8.4,"wind_gusts":32.4,"aqi":76,"pm10":44.5,"pm2_5":37.7,"no2":21.6,"co":654.0,"o3":54.0,"so2":10.5,"mosquito_risk":10,"arthritis_risk":5,"migraine_risk":7,"frizz_risk":1,"updated_at":"2026-07-10T23:56:28.711136+05:30"},{"city":"Gaya","state":"Bihar","latitude":24.7914,"longitude":85.0002,"temp":26.7,"humidity":94,"rain":0.0,"pressure":987.8,"uv_index":5.35,"wind_gusts":40.0,"aqi":71,"pm10":46.4,"pm2_5":37.3,"no2":17.4,"co":286.0,"o3":53.0,"so2":14.5,"mosquito_risk":7,"arthritis_risk":5,"migraine_risk":3,"frizz_risk":1,"updated_at":"2026-07-10T23:56:28.711143+05:30"},{"city":"Muzaffarpur","state":"Bihar","latitude":26.1209,"longitude":85.3647,"temp":26.5,"humidity":99,"rain":0.1,"pressure":994.0,"uv_index":8.05,"wind_gusts":23.4,"aqi":87,"pm10":45.8,"pm2_5":41.8,"no2":22.9,"co":394.0,"o3":58.0,"so2":9.1,"mosquito_risk":10,"arthritis_risk":5,"migraine_risk":7,"frizz_risk":1,"updated_at":"2026-07-10T23:56:28.711150+05:30"},{"city":"Bhagalpur","state":"Bihar","latitude":25.2425,"longitude":87.0117,"temp":26.9,"humidity":97,"rain":0.1,"pressure":994.3,"uv_index":8.15,"wind_gusts":25.6,"aqi":91,"pm10":26.1,"pm2_5":24.4,"no2":16.4,"co":354.0,"o3":61.0,"so2":6.0,"mosquito_risk":10,"arthritis_risk":5,"migraine_risk":7,"frizz_risk":1,"updated_at":"2026-07-10T23:56:28.711158+05:30"},{"city":"Ranchi","state":"Jharkhand","latitude":23.3441,"longitude":85.3096,"temp":23.7,"humidity":96,"rain":0.0,"pressure":932.6,"uv_index":7.4,"wind_gusts":41.8,"aqi":77,"pm10":43.1,"pm2_5":31.0,"no2":7.0,"co":202.0,"o3":83.0,"so2":9.0,"mosquito_risk":3,"arthritis_risk":5,"migraine_risk":7,"frizz_risk":1,"updated_at":"2026-07-10T23:56:28.711165+05:30"},{"city":"Jamshedpur","state":"Jharkhand","latitude":22.8046,"longitude":86.2029,"temp":25.9,"humidity":96,"rain":0.0,"pressure":985.6,"uv_index":8.25,"wind_gusts":29.5,"aqi":82,"pm10":50.2,"pm2_5":38.4,"no2":14.3,"co":270.0,"o3":82.0,"so2":32.6,"mosquito_risk":7,"arthritis_risk":5,"migraine_risk":7,"frizz_risk":1,"updated_at":"2026-07-10T23:56:28.711173+05:30"},{"city":"Dhanbad","state":"Jharkhand","latitude":23.7957,"longitude":86.4304,"temp":26.3,"humidity":96,"rain":0.1,"pressure":973.9,"uv_index":8.0,"wind_gusts":31.3,"aqi":111,"pm10":60.5,"pm2_5":53.4,"no2":41.5,"co":263.0,"o3":47.0,"so2":81.4,"mosquito_risk":10,"arthritis_risk":5,"migraine_risk":7,"frizz_risk":1,"updated_at":"2026-07-10T23:56:28.711180+05:30"},{"city":"Bokaro","state":"Jharkhand","latitude":23.6693,"longitude":86.1511,"temp":26.9,"humidity":91,"rain":0.0,"pressure":977.8,"uv_index":7.55,"wind_gusts":29.9,"aqi":97,"pm10":54.6,"pm2_5":44.2,"no2":22.9,"co":234.0,"o3":65.0,"so2":47.0,"mosquito_risk":7,"arthritis_risk":5,"migraine_risk":7,"frizz_risk":1,"updated_at":"2026-07-10T23:56:28.711187+05:30"},{"city":"Bhubaneswar","state":"Odisha","latitude":20.2961,"longitude":85.8245,"temp":27.1,"humidity":95,"rain":0.0,"pressure":998.2,"uv_index":7.95,"wind_gusts":36.7,"aqi":75,"pm10":24.8,"pm2_5":21.1,"no2":10.9,"co":297.0,"o3":62.0,"so2":5.3,"mosquito_risk":7,"arthritis_risk":5,"migraine_risk":7,"frizz_risk":1,"updated_at":"2026-07-10T23:56:28.711195+05:30"},{"city":"Cuttack","state":"Odisha","latitude":20.4625,"longitude":85.8828,"temp":27.3,"humidity":92,"rain":0.0,"pressure":1000.0,"uv_index":8.35,"wind_gusts":37.8,"aqi":75,"pm10":24.8,"pm2_5":21.1,"no2":10.9,"co":302.0,"o3":62.0,"so2":5.3,"mosquito_risk":7,"arthritis_risk":5,"migraine_risk":4,"frizz_risk":1,"updated_at":"2026-07-10T23:56:28.711205+05:30"},{"city":"Rourkela","state":"Odisha","latitude":22.2604,"longitude":84.8536,"temp":25.9,"humidity":97,"rain":0.0,"pressure":980.6,"uv_index":7.2,"wind_gusts":37.8,"aqi":101,"pm10":59.8,"pm2_5":37.8,"no2":12.6,"co":362.0,"o3":76.0,"so2":15.1,"mosquito_risk":7,"arthritis_risk":5,"migraine_risk":7,"frizz_risk":1,"updated_at":"2026-07-10T23:56:28.711212+05:30"},{"city":"Raipur","state":"Chhattisgarh","latitude":21.2514,"longitude":81.6296,"temp":28.1,"humidity":74,"rain":0.0,"pressure":971.0,"uv_index":8.55,"wind_gusts":40.7,"aqi":107,"pm10":70.5,"pm2_5":40.6,"no2":24.3,"co":462.0,"o3":61.0,"so2":44.3,"mosquito_risk":7,"arthritis_risk":5,"migraine_risk":7,"frizz_risk":1,"updated_at":"2026-07-10T23:56:28.711220+05:30"},{"city":"Bhilai","state":"Chhattisgarh","latitude":21.1938,"longitude":81.3509,"temp":27.6,"humidity":76,"rain":0.0,"pressure":971.4,"uv_index":8.55,"wind_gusts":42.1,"aqi":102,"pm10":66.6,"pm2_5":37.5,"no2":19.3,"co":673.0,"o3":65.0,"so2":34.7,"mosquito_risk":7,"arthritis_risk":5,"migraine_risk":7,"frizz_risk":1,"updated_at":"2026-07-10T23:56:28.711227+05:30"},{"city":"Guwahati","state":"Assam","latitude":26.1158,"longitude":91.7086,"temp":26.0,"humidity":99,"rain":0.0,"pressure":994.7,"uv_index":7.05,"wind_gusts":20.9,"aqi":47,"pm10":7.6,"pm2_5":7.5,"no2":5.0,"co":229.0,"o3":65.0,"so2":1.2,"mosquito_risk":7,"arthritis_risk":5,"migraine_risk":7,"frizz_risk":1,"updated_at":"2026-07-10T23:56:28.711234+05:30"},{"city":"Agartala","state":"Tripura","latitude":23.8315,"longitude":91.2868,"temp":25.3,"humidity":99,"rain":0.1,"pressure":1000.6,"uv_index":7.5,"wind_gusts":50.4,"aqi":41,"pm10":10.5,"pm2_5":10.3,"no2":9.6,"co":194.0,"o3":70.0,"so2":4.8,"mosquito_risk":10,"arthritis_risk":5,"migraine_risk":4,"frizz_risk":1,"updated_at":"2026-07-10T23:56:28.711241+05:30"},{"city":"Shillong","state":"Meghalaya","latitude":25.5788,"longitude":91.8933,"temp":20.8,"humidity":95,"rain":0.0,"pressure":852.5,"uv_index":3.15,"wind_gusts":42.5,"aqi":30,"pm10":1.9,"pm2_5":1.8,"no2":5.5,"co":190.0,"o3":62.0,"so2":1.6,"mosquito_risk":3,"arthritis_risk":5,"migraine_risk":3,"frizz_risk":1,"updated_at":"2026-07-10T23:56:28.711248+05:30"},{"city":"Imphal","state":"Manipur","latitude":24.817,"longitude":93.9368,"temp":23.3,"humidity":98,"rain":0.0,"pressure":918.6,"uv_index":2.0,"wind_gusts":29.9,"aqi":30,"pm10":6.1,"pm2_5":5.8,"no2":5.9,"co":512.0,"o3":54.0,"so2":2.2,"mosquito_risk":3,"arthritis_risk":5,"migraine_risk":3,"frizz_risk":1,"updated_at":"2026-07-10T23:56:28.711255+05:30"},{"city":"Aizawl","state":"Mizoram","latitude":23.7271,"longitude":92.7176,"temp":20.1,"humidity":94,"rain":0.1,"pressure":888.0,"uv_index":1.7,"wind_gusts":49.0,"aqi":27,"pm10":0.6,"pm2_5":0.6,"no2":2.4,"co":126.0,"o3":53.0,"so2":0.9,"mosquito_risk":6,"arthritis_risk":5,"migraine_risk":3,"frizz_risk":1,"updated_at":"2026-07-10T23:56:28.711262+05:30"},{"city":"Kohima","state":"Nagaland","latitude":25.6701,"longitude":94.1077,"temp":21.2,"humidity":94,"rain":0.0,"pressure":851.2,"uv_index":5.0,"wind_gusts":23.0,"aqi":26,"pm10":4.1,"pm2_5":4.0,"no2":5.3,"co":345.0,"o3":50.0,"so2":1.2,"mosquito_risk":3,"arthritis_risk":5,"migraine_risk":3,"frizz_risk":1,"updated_at":"2026-07-10T23:56:28.711269+05:30"},{"city":"Gangtok","state":"Sikkim","latitude":27.3314,"longitude":88.6138,"temp":19.1,"humidity":95,"rain":0.0,"pressure":833.3,"uv_index":5.5,"wind_gusts":30.6,"aqi":47,"pm10":6.0,"pm2_5":5.9,"no2":4.1,"co":285.0,"o3":111.0,"so2":1.4,"mosquito_risk":3,"arthritis_risk":10,"migraine_risk":3,"frizz_risk":1,"updated_at":"2026-07-10T23:56:28.711276+05:30"},{"city":"Siliguri","state":"West Bengal","latitude":26.7271,"longitude":88.3953,"temp":25.4,"humidity":95,"rain":0.0,"pressure":986.4,"uv_index":8.4,"wind_gusts":34.6,"aqi":70,"pm10":23.1,"pm2_5":22.7,"no2":9.4,"co":796.0,"o3":103.0,"so2":4.1,"mosquito_risk":7,"arthritis_risk":5,"migraine_risk":7,"frizz_risk":1,"updated_at":"2026-07-10T23:56:32.077508+05:30"},{"city":"Durgapur","state":"West Bengal","latitude":23.5204,"longitude":87.3119,"temp":26.7,"humidity":95,"rain":0.0,"pressure":988.7,"uv_index":6.75,"wind_gusts":32.0,"aqi":103,"pm10":61.2,"pm2_5":56.8,"no2":44.7,"co":316.0,"o3":46.0,"so2":69.1,"mosquito_risk":7,"arthritis_risk":5,"migraine_risk":7,"frizz_risk":1,"updated_at":"2026-07-10T23:56:32.077543+05:30"},{"city":"Asansol","state":"West Bengal","latitude":23.6739,"longitude":86.9524,"temp":26.7,"humidity":96,"rain":0.0,"pressure":987.3,"uv_index":7.15,"wind_gusts":27.7,"aqi":95,"pm10":56.9,"pm2_5":51.7,"no2":42.0,"co":1126.0,"o3":46.0,"so2":66.3,"mosquito_risk":7,"arthritis_risk":5,"migraine_risk":7,"frizz_risk":1,"updated_at":"2026-07-10T23:56:32.077554+05:30"},{"city":"Pondicherry","state":"Puducherry","latitude":11.9139,"longitude":79.8145,"temp":28.2,"humidity":77,"rain":0.0,"pressure":1009.2,"uv_index":5.85,"wind_gusts":37.4,"aqi":67,"pm10":24.9,"pm2_5":18.7,"no2":17.3,"co":433.0,"o3":60.0,"so2":9.3,"mosquito_risk":7,"arthritis_risk":0,"migraine_risk":0,"frizz_risk":1,"updated_at":"2026-07-10T23:56:32.077564+05:30"},{"city":"Port Blair","state":"Andaman and Nicobar Islands","latitude":11.6234,"longitude":92.7265,"temp":27.7,"humidity":81,"rain":0.1,"pressure":1007.8,"uv_index":8.75,"wind_gusts":46.1,"aqi":41,"pm10":13.4,"pm2_5":7.0,"no2":0.2,"co":86.0,"o3":44.0,"so2":0.3,"mosquito_risk":10,"arthritis_risk":5,"migraine_risk":4,"frizz_risk":1,"updated_at":"2026-07-10T23:56:32.077573+05:30"},{"city":"Haridwar","state":"Uttarakhand","latitude":29.9457,"longitude":78.1642,"temp":26.1,"humidity":90,"rain":0.1,"pressure":967.1,"uv_index":2.25,"wind_gusts":24.1,"aqi":59,"pm10":38.2,"pm2_5":37.6,"no2":36.1,"co":278.0,"o3":23.0,"so2":7.5,"mosquito_risk":10,"arthritis_risk":5,"migraine_risk":3,"frizz_risk":1,"updated_at":"2026-07-10T23:56:32.077581+05:30"},{"city":"Rishikesh","state":"Uttarakhand","latitude":30.0869,"longitude":78.2676,"temp":25.8,"humidity":91,"rain":0.2,"pressure":959.6,"uv_index":2.5,"wind_gusts":23.8,"aqi":47,"pm10":9.9,"pm2_5":9.5,"no2":7.8,"co":340.0,"o3":94.0,"so2":2.4,"mosquito_risk":10,"arthritis_risk":5,"migraine_risk":3,"frizz_risk":1,"updated_at":"2026-07-10T23:56:32.077590+05:30"},{"city":"Nainital","state":"Uttarakhand","latitude":29.3919,"longitude":79.4542,"temp":17.1,"humidity":100,"rain":0.0,"pressure":800.9,"uv_index":3.7,"wind_gusts":35.6,"aqi":38,"pm10":12.6,"pm2_5":11.9,"no2":16.5,"co":301.0,"o3":58.0,"so2":2.6,"mosquito_risk":3,"arthritis_risk":10,"migraine_risk":3,"frizz_risk":1,"updated_at":"2026-07-10T23:56:32.077599+05:30"},{"city":"Mussoorie","state":"Uttarakhand","latitude":30.4599,"longitude":78.0664,"temp":16.7,"humidity":100,"rain":0.1,"pressure":798.3,"uv_index":4.5,"wind_gusts":32.4,"aqi":55,"pm10":13.7,"pm2_5":13.5,"no2":28.8,"co":318.0,"o3":61.0,"so2":5.5,"mosquito_risk":6,"arthritis_risk":10,"migraine_risk":3,"frizz_risk":1,"updated_at":"2026-07-10T23:56:32.077606+05:30"},{"city":"Dharamshala","state":"Himachal Pradesh","latitude":32.219,"longitude":76.3234,"temp":21.6,"humidity":93,"rain":0.0,"pressure":863.9,"uv_index":8.2,"wind_gusts":29.5,"aqi":80,"pm10":14.8,"pm2_5":14.1,"no2":12.5,"co":595.0,"o3":78.0,"so2":0.4,"mosquito_risk":3,"arthritis_risk":5,"migraine_risk":7,"frizz_risk":1,"updated_at":"2026-07-10T23:56:32.077614+05:30"},{"city":"Dalhousie","state":"Himachal Pradesh","latitude":32.5387,"longitude":75.971,"temp":16.1,"humidity":100,"rain":0.0,"pressure":799.3,"uv_index":7.95,"wind_gusts":28.8,"aqi":151,"pm10":25.8,"pm2_5":23.9,"no2":24.2,"co":770.0,"o3":88.0,"so2":2.5,"mosquito_risk":3,"arthritis_risk":10,"migraine_risk":7,"frizz_risk":1,"updated_at":"2026-07-10T23:56:32.077623+05:30"},{"city":"Patiala","state":"Punjab","latitude":30.3398,"longitude":76.3869,"temp":27.6,"humidity":87,"rain":0.0,"pressure":970.0,"uv_index":7.15,"wind_gusts":22.0,"aqi":142,"pm10":57.5,"pm2_5":39.2,"no2":25.4,"co":687.0,"o3":67.0,"so2":13.8,"mosquito_risk":7,"arthritis_risk":5,"migraine_risk":7,"frizz_risk":1,"updated_at":"2026-07-10T23:56:32.077630+05:30"},{"city":"Bhatinda","state":"Punjab","latitude":30.211,"longitude":74.9455,"temp":30.4,"humidity":77,"rain":0.0,"pressure":975.3,"uv_index":7.85,"wind_gusts":22.0,"aqi":165,"pm10":161.6,"pm2_5":88.5,"no2":32.7,"co":451.0,"o3":55.0,"so2":11.3,"mosquito_risk":3,"arthritis_risk":5,"migraine_risk":7,"frizz_risk":1,"updated_at":"2026-07-10T23:56:32.077638+05:30"},{"city":"Rohtak","state":"Haryana","latitude":28.8955,"longitude":76.6066,"temp":28.6,"humidity":83,"rain":0.0,"pressure":973.6,"uv_index":7.0,"wind_gusts":32.0,"aqi":172,"pm10":244.0,"pm2_5":99.7,"no2":57.9,"co":616.0,"o3":39.0,"so2":22.0,"mosquito_risk":7,"arthritis_risk":5,"migraine_risk":7,"frizz_risk":1,"updated_at":"2026-07-10T23:56:32.077645+05:30"},{"city":"Panipat","state":"Haryana","latitude":29.3909,"longitude":76.9635,"temp":26.7,"humidity":92,"rain":0.0,"pressure":972.6,"uv_index":4.8,"wind_gusts":25.9,"aqi":476,"pm10":588.6,"pm2_5":140.2,"no2":31.4,"co":831.0,"o3":57.0,"so2":12.1,"mosquito_risk":7,"arthritis_risk":5,"migraine_risk":3,"frizz_risk":1,"updated_at":"2026-07-10T23:56:32.077653+05:30"},{"city":"Mathura","state":"Uttar Pradesh","latitude":27.4924,"longitude":77.6737,"temp":28.3,"humidity":85,"rain":0.0,"pressure":978.9,"uv_index":7.95,"wind_gusts":50.0,"aqi":304,"pm10":139.7,"pm2_5":60.5,"no2":21.2,"co":328.0,"o3":56.0,"so2":4.7,"mosquito_risk":7,"arthritis_risk":5,"migraine_risk":7,"frizz_risk":1,"updated_at":"2026-07-10T23:56:32.077660+05:30"},{"city":"Vrindavan","state":"Uttar Pradesh","latitude":27.5823,"longitude":77.7027,"temp":28.4,"humidity":89,"rain":0.0,"pressure":979.4,"uv_index":7.9,"wind_gusts":47.2,"aqi":304,"pm10":139.7,"pm2_5":60.5,"no2":21.2,"co":371.0,"o3":56.0,"so2":4.7,"mosquito_risk":7,"arthritis_risk":5,"migraine_risk":7,"frizz_risk":1,"updated_at":"2026-07-10T23:56:32.077668+05:30"},{"city":"Ayodhya","state":"Uttar Pradesh","latitude":26.7922,"longitude":82.1998,"temp":26.8,"humidity":96,"rain":0.1,"pressure":988.4,"uv_index":7.0,"wind_gusts":27.4,"aqi":86,"pm10":47.3,"pm2_5":31.4,"no2":11.1,"co":447.0,"o3":84.0,"so2":3.5,"mosquito_risk":10,"arthritis_risk":5,"migraine_risk":7,"frizz_risk":1,"updated_at":"2026-07-10T23:56:32.077675+05:30"},{"city":"Ratlam","state":"Madhya Pradesh","latitude":23.3315,"longitude":75.0367,"temp":25.6,"humidity":85,"rain":0.0,"pressure":951.2,"uv_index":8.45,"wind_gusts":51.5,"aqi":70,"pm10":30.9,"pm2_5":19.0,"no2":6.9,"co":144.0,"o3":58.0,"so2":10.8,"mosquito_risk":7,"arthritis_risk":5,"migraine_risk":7,"frizz_risk":1,"updated_at":"2026-07-10T23:56:32.077683+05:30"},{"city":"Sagar","state":"Madhya Pradesh","latitude":23.8388,"longitude":78.7378,"temp":27.2,"humidity":67,"rain":0.0,"pressure":945.7,"uv_index":8.6,"wind_gusts":48.2,"aqi":86,"pm10":44.4,"pm2_5":25.1,"no2":4.9,"co":173.0,"o3":74.0,"so2":4.0,"mosquito_risk":7,"arthritis_risk":5,"migraine_risk":7,"frizz_risk":1,"updated_at":"2026-07-10T23:56:32.077690+05:30"},{"city":"Satna","state":"Madhya Pradesh","latitude":24.6005,"longitude":80.8322,"temp":28.3,"humidity":74,"rain":0.0,"pressure":966.0,"uv_index":8.6,"wind_gusts":35.6,"aqi":95,"pm10":44.9,"pm2_5":25.6,"no2":5.3,"co":175.0,"o3":71.0,"so2":4.2,"mosquito_risk":7,"arthritis_risk":5,"migraine_risk":7,"frizz_risk":1,"updated_at":"2026-07-10T23:56:32.077698+05:30"},{"city":"Akola","state":"Maharashtra","latitude":20.7002,"longitude":77.0082,"temp":28.3,"humidity":65,"rain":0.0,"pressure":973.2,"uv_index":8.65,"wind_gusts":50.0,"aqi":62,"pm10":37.4,"pm2_5":18.7,"no2":7.9,"co":127.0,"o3":44.0,"so2":7.2,"mosquito_risk":7,"arthritis_risk":5,"migraine_risk":7,"frizz_risk":1,"updated_at":"2026-07-10T23:56:32.077706+05:30"},{"city":"Amravati","state":"Maharashtra","latitude":20.9374,"longitude":77.7796,"temp":28.0,"humidity":63,"rain":0.0,"pressure":965.0,"uv_index":5.85,"wind_gusts":52.2,"aqi":64,"pm10":39.8,"pm2_5":20.1,"no2":9.2,"co":183.0,"o3":47.0,"so2":8.8,"mosquito_risk":7,"arthritis_risk":5,"migraine_risk":3,"frizz_risk":1,"updated_at":"2026-07-10T23:56:32.077715+05:30"},{"city":"Latur","state":"Maharashtra","latitude":18.4088,"longitude":76.5604,"temp":25.7,"humidity":73,"rain":0.0,"pressure":939.2,"uv_index":8.7,"wind_gusts":42.8,"aqi":49,"pm10":21.0,"pm2_5":11.4,"no2":4.9,"co":144.0,"o3":47.0,"so2":3.3,"mosquito_risk":7,"arthritis_risk":5,"migraine_risk":7,"frizz_risk":1,"updated_at":"2026-07-10T23:56:32.077722+05:30"},{"city":"Nanded","state":"Maharashtra","latitude":19.1383,"longitude":77.3091,"temp":28.1,"humidity":65,"rain":0.0,"pressure":967.2,"uv_index":8.4,"wind_gusts":40.7,"aqi":58,"pm10":27.2,"pm2_5":17.6,"no2":7.1,"co":168.0,"o3":63.0,"so2":5.5,"mosquito_risk":7,"arthritis_risk":5,"migraine_risk":7,"frizz_risk":1,"updated_at":"2026-07-10T23:56:32.077729+05:30"},{"city":"Gulbarga","state":"Karnataka","latitude":17.3297,"longitude":76.8343,"temp":27.2,"humidity":68,"rain":0.0,"pressure":958.7,"uv_index":6.9,"wind_gusts":41.8,"aqi":53,"pm10":19.6,"pm2_5":11.4,"no2":6.4,"co":131.0,"o3":43.0,"so2":2.8,"mosquito_risk":7,"arthritis_risk":5,"migraine_risk":7,"frizz_risk":1,"updated_at":"2026-07-10T23:56:32.077736+05:30"},{"city":"Bidar","state":"Karnataka","latitude":17.9104,"longitude":77.5199,"temp":26.4,"humidity":67,"rain":0.0,"pressure":934.9,"uv_index":8.8,"wind_gusts":43.2,"aqi":56,"pm10":25.4,"pm2_5":14.9,"no2":8.0,"co":155.0,"o3":53.0,"so2":2.8,"mosquito_risk":7,"arthritis_risk":5,"migraine_risk":7,"frizz_risk":1,"updated_at":"2026-07-10T23:56:32.077743+05:30"},{"city":"Hospet","state":"Karnataka","latitude":15.2689,"longitude":76.3909,"temp":24.7,"humidity":81,"rain":0.0,"pressure":957.5,"uv_index":6.05,"wind_gusts":44.6,"aqi":36,"pm10":13.0,"pm2_5":7.3,"no2":6.2,"co":129.0,"o3":35.0,"so2":2.0,"mosquito_risk":3,"arthritis_risk":5,"migraine_risk":7,"frizz_risk":1,"updated_at":"2026-07-10T23:56:32.077750+05:30"},{"city":"Tirupur","state":"Tamil Nadu","latitude":11.1085,"longitude":77.3411,"temp":24.0,"humidity":92,"rain":0.0,"pressure":977.5,"uv_index":8.5,"wind_gusts":41.4,"aqi":52,"pm10":18.0,"pm2_5":15.5,"no2":23.4,"co":160.0,"o3":22.0,"so2":5.7,"mosquito_risk":3,"arthritis_risk":5,"migraine_risk":7,"frizz_risk":1,"updated_at":"2026-07-10T23:56:32.077757+05:30"},{"city":"Alappuzha","state":"Kerala","latitude":9.4981,"longitude":76.3388,"temp":25.7,"humidity":94,"rain":0.1,"pressure":1012.9,"uv_index":7.9,"wind_gusts":36.0,"aqi":43,"pm10":18.6,"pm2_5":12.9,"no2":14.0,"co":83.0,"o3":32.0,"so2":4.5,"mosquito_risk":10,"arthritis_risk":0,"migraine_risk":4,"frizz_risk":1,"updated_at":"2026-07-10T23:56:32.077765+05:30"},{"city":"Munnar","state":"Kerala","latitude":10.0889,"longitude":77.0595,"temp":16.7,"humidity":99,"rain":0.0,"pressure":859.0,"uv_index":8.2,"wind_gusts":39.2,"aqi":21,"pm10":8.4,"pm2_5":6.2,"no2":8.0,"co":103.0,"o3":25.0,"so2":1.6,"mosquito_risk":3,"arthritis_risk":10,"migraine_risk":7,"frizz_risk":1,"updated_at":"2026-07-10T23:56:32.077772+05:30"},{"city":"Silchar","state":"Assam","latitude":24.8333,"longitude":92.7789,"temp":26.4,"humidity":98,"rain":0.1,"pressure":999.1,"uv_index":3.2,"wind_gusts":29.2,"aqi":32,"pm10":7.6,"pm2_5":7.1,"no2":5.9,"co":255.0,"o3":57.0,"so2":2.7,"mosquito_risk":10,"arthritis_risk":5,"migraine_risk":3,"frizz_risk":1,"updated_at":"2026-07-10T23:56:32.077780+05:30"},{"city":"Dibrugarh","state":"Assam","latitude":27.4728,"longitude":94.912,"temp":26.1,"humidity":97,"rain":0.1,"pressure":988.9,"uv_index":5.05,"wind_gusts":29.9,"aqi":58,"pm10":10.3,"pm2_5":9.9,"no2":7.7,"co":211.0,"o3":67.0,"so2":1.6,"mosquito_risk":10,"arthritis_risk":5,"migraine_risk":3,"frizz_risk":1,"updated_at":"2026-07-10T23:56:32.077787+05:30"}]