[{"city":"Delhi","state":"Delhi","latitude":28.6139,"longitude":77.209,"temp":34.2,"humidity":24,"rain":0.0,"pressure":976.2,"uv_index":7.75,"wind_gusts":41.0,"aqi":234,"pm10":221.2,"pm2_5":66.1,"no2":44.9,"co":457.0,"o3":39.0,"so2":18.8,"mosquito_risk":0,"arthritis_risk":5,"migraine_risk":7,"frizz_risk":0,"updated_at":"2026-05-21T00:57:26.787798+05:30"},{"city":"Mumbai","state":"Maharashtra","latitude":19.076,"longitude":72.8777,"temp":29.9,"humidity":72,"rain":0.0,"pressure":1006.0,"uv_index":7.85,"wind_gusts":39.2,"aqi":60,"pm10":19.1,"pm2_5":11.2,"no2":8.3,"co":165.0,"o3":44.0,"so2":6.2,"mosquito_risk":7,"arthritis_risk":5,"migraine_risk":4,"frizz_risk":1,"updated_at":"2026-05-21T00:57:26.787865+05:30"},{"city":"Bangalore","state":"Karnataka","latitude":12.9716,"longitude":77.5946,"temp":23.2,"humidity":89,"rain":0.0,"pressure":910.6,"uv_index":9.2,"wind_gusts":37.8,"aqi":38,"pm10":10.0,"pm2_5":9.5,"no2":19.7,"co":433.0,"o3":46.0,"so2":6.1,"mosquito_risk":3,"arthritis_risk":5,"migraine_risk":7,"frizz_risk":1,"updated_at":"2026-05-21T00:57:26.787881+05:30"},{"city":"Hyderabad","state":"Telangana","latitude":17.385,"longitude":78.4867,"temp":31.9,"humidity":42,"rain":0.0,"pressure":949.5,"uv_index":8.5,"wind_gusts":34.6,"aqi":101,"pm10":45.6,"pm2_5":36.2,"no2":15.3,"co":401.0,"o3":91.0,"so2":9.5,"mosquito_risk":0,"arthritis_risk":5,"migraine_risk":7,"frizz_risk":1,"updated_at":"2026-05-21T00:57:26.787892+05:30"},{"city":"Chennai","state":"Tamil Nadu","latitude":13.0827,"longitude":80.2707,"temp":32.8,"humidity":54,"rain":0.0,"pressure":1002.4,"uv_index":8.4,"wind_gusts":41.4,"aqi":63,"pm10":20.4,"pm2_5":18.7,"no2":21.0,"co":359.0,"o3":55.0,"so2":8.7,"mosquito_risk":0,"arthritis_risk":5,"migraine_risk":4,"frizz_risk":1,"updated_at":"2026-05-21T00:57:26.787900+05:30"},{"city":"Kolkata","state":"West Bengal","latitude":22.5726,"longitude":88.3639,"temp":29.1,"humidity":92,"rain":0.0,"pressure":999.4,"uv_index":8.95,"wind_gusts":41.0,"aqi":94,"pm10":33.4,"pm2_5":27.5,"no2":9.4,"co":379.0,"o3":67.0,"so2":6.7,"mosquito_risk":7,"arthritis_risk":5,"migraine_risk":7,"frizz_risk":1,"updated_at":"2026-05-21T00:57:26.787909+05:30"},{"city":"Pune","state":"Maharashtra","latitude":18.5204,"longitude":73.8567,"temp":25.4,"humidity":80,"rain":0.0,"pressure":946.2,"uv_index":5.85,"wind_gusts":38.2,"aqi":66,"pm10":17.0,"pm2_5":11.6,"no2":8.9,"co":157.0,"o3":48.0,"so2":8.3,"mosquito_risk":7,"arthritis_risk":5,"migraine_risk":3,"frizz_risk":1,"updated_at":"2026-05-21T00:57:26.787916+05:30"},{"city":"Ahmedabad","state":"Gujarat","latitude":23.0225,"longitude":72.5714,"temp":31.0,"humidity":71,"rain":0.0,"pressure":998.5,"uv_index":8.15,"wind_gusts":33.8,"aqi":64,"pm10":46.0,"pm2_5":21.9,"no2":7.0,"co":185.0,"o3":58.0,"so2":4.3,"mosquito_risk":3,"arthritis_risk":5,"migraine_risk":7,"frizz_risk":1,"updated_at":"2026-05-21T00:57:26.787924+05:30"},{"city":"Jaipur","state":"Rajasthan","latitude":26.9124,"longitude":75.7873,"temp":32.8,"humidity":29,"rain":0.0,"pressure":955.1,"uv_index":8.3,"wind_gusts":50.4,"aqi":124,"pm10":341.8,"pm2_5":67.3,"no2":7.5,"co":205.0,"o3":67.0,"so2":5.2,"mosquito_risk":0,"arthritis_risk":5,"migraine_risk":7,"frizz_risk":0,"updated_at":"2026-05-21T00:57:26.787937+05:30"},{"city":"Lucknow","state":"Uttar Pradesh","latitude":26.8467,"longitude":80.9462,"temp":33.2,"humidity":54,"rain":0.0,"pressure":986.0,"uv_index":8.2,"wind_gusts":30.2,"aqi":150,"pm10":328.8,"pm2_5":81.3,"no2":29.3,"co":389.0,"o3":72.0,"so2":12.1,"mosquito_risk":0,"arthritis_risk":5,"migraine_risk":7,"frizz_risk":1,"updated_at":"2026-05-21T00:57:26.787945+05:30"},{"city":"Kanpur","state":"Uttar Pradesh","latitude":26.4499,"longitude":80.3319,"temp":34.7,"humidity":33,"rain":0.0,"pressure":984.9,"uv_index":8.25,"wind_gusts":36.7,"aqi":179,"pm10":461.9,"pm2_5":101.7,"no2":33.8,"co":488.0,"o3":60.0,"so2":16.2,"mosquito_risk":0,"arthritis_risk":5,"migraine_risk":7,"frizz_risk":0,"updated_at":"2026-05-21T00:57:26.787952+05:30"},{"city":"Chandigarh","state":"Chandigarh","latitude":30.7333,"longitude":76.7794,"temp":28.0,"humidity":38,"rain":0.0,"pressure":961.4,"uv_index":7.75,"wind_gusts":31.7,"aqi":108,"pm10":59.4,"pm2_5":40.5,"no2":36.8,"co":947.0,"o3":47.0,"so2":14.3,"mosquito_risk":4,"arthritis_risk":5,"migraine_risk":7,"frizz_risk":0,"updated_at":"2026-05-21T00:57:26.787960+05:30"},{"city":"Srinagar","state":"Jammu and Kashmir","latitude":34.0837,"longitude":74.7973,"temp":15.9,"humidity":87,"rain":0.0,"pressure":841.1,"uv_index":8.55,"wind_gusts":29.9,"aqi":81,"pm10":43.7,"pm2_5":22.7,"no2":22.4,"co":1007.0,"o3":37.0,"so2":2.5,"mosquito_risk":3,"arthritis_risk":10,"migraine_risk":7,"frizz_risk":0,"updated_at":"2026-05-21T00:57:26.787968+05:30"},{"city":"Jammu","state":"Jammu and Kashmir","latitude":32.7266,"longitude":74.857,"temp":30.5,"humidity":27,"rain":0.0,"pressure":965.6,"uv_index":8.55,"wind_gusts":40.3,"aqi":87,"pm10":34.5,"pm2_5":21.2,"no2":18.2,"co":297.0,"o3":60.0,"so2":3.7,"mosquito_risk":0,"arthritis_risk":5,"migraine_risk":7,"frizz_risk":0,"updated_at":"2026-05-21T00:57:26.787975+05:30"},{"city":"Amritsar","state":"Punjab","latitude":31.634,"longitude":74.8723,"temp":33.0,"humidity":29,"rain":0.0,"pressure":973.3,"uv_index":8.45,"wind_gusts":77.0,"aqi":121,"pm10":56.7,"pm2_5":41.2,"no2":36.3,"co":386.0,"o3":45.0,"so2":12.9,"mosquito_risk":0,"arthritis_risk":5,"migraine_risk":7,"frizz_risk":0,"updated_at":"2026-05-21T00:57:26.787982+05:30"},{"city":"Ludhiana","state":"Punjab","latitude":30.901,"longitude":75.8573,"temp":31.4,"humidity":32,"rain":0.0,"pressure":971.0,"uv_index":8.05,"wind_gusts":54.0,"aqi":153,"pm10":91.3,"pm2_5":53.6,"no2":27.1,"co":435.0,"o3":50.0,"so2":10.9,"mosquito_risk":0,"arthritis_risk":5,"migraine_risk":7,"frizz_risk":0,"updated_at":"2026-05-21T00:57:26.787990+05:30"},{"city":"Jalandhar","state":"Punjab","latitude":31.326,"longitude":75.5762,"temp":30.5,"humidity":31,"rain":0.0,"pressure":972.0,"uv_index":8.2,"wind_gusts":54.0,"aqi":127,"pm10":66.8,"pm2_5":40.2,"no2":20.4,"co":466.0,"o3":58.0,"so2":9.5,"mosquito_risk":0,"arthritis_risk":5,"migraine_risk":7,"frizz_risk":0,"updated_at":"2026-05-21T00:57:26.787997+05:30"},{"city":"Dehradun","state":"Uttarakhand","latitude":30.6284,"longitude":78.0322,"temp":16.3,"humidity":55,"rain":0.0,"pressure":826.0,"uv_index":8.1,"wind_gusts":45.7,"aqi":72,"pm10":45.6,"pm2_5":24.2,"no2":34.1,"co":215.0,"o3":50.0,"so2":3.8,"mosquito_risk":0,"arthritis_risk":5,"migraine_risk":7,"frizz_risk":0,"updated_at":"2026-05-21T00:57:26.788005+05:30"},{"city":"Shimla","state":"Himachal Pradesh","latitude":31.1048,"longitude":77.1734,"temp":16.3,"humidity":37,"rain":0.0,"pressure":781.8,"uv_index":8.3,"wind_gusts":48.2,"aqi":102,"pm10":50.1,"pm2_5":27.1,"no2":22.2,"co":255.0,"o3":96.0,"so2":11.1,"mosquito_risk":0,"arthritis_risk":5,"migraine_risk":7,"frizz_risk":0,"updated_at":"2026-05-21T00:57:26.788014+05:30"},{"city":"Manali","state":"Himachal Pradesh","latitude":32.2396,"longitude":77.1887,"temp":13.5,"humidity":60,"rain":0.0,"pressure":816.0,"uv_index":9.65,"wind_gusts":52.2,"aqi":46,"pm10":9.2,"pm2_5":5.3,"no2":51.1,"co":268.0,"o3":67.0,"so2":0.0,"mosquito_risk":0,"arthritis_risk":5,"migraine_risk":7,"frizz_risk":0,"updated_at":"2026-05-21T00:57:26.788021+05:30"},{"city":"Gurgaon","state":"Haryana","latitude":28.4595,"longitude":77.0266,"temp":32.7,"humidity":26,"rain":0.0,"pressure":974.5,"uv_index":7.85,"wind_gusts":42.5,"aqi":784,"pm10":879.2,"pm2_5":149.9,"no2":59.2,"co":366.0,"o3":20.0,"so2":18.1,"mosquito_risk":0,"arthritis_risk":5,"migraine_risk":7,"frizz_risk":0,"updated_at":"2026-05-21T00:57:26.788028+05:30"},{"city":"Noida","state":"Uttar Pradesh","latitude":28.5355,"longitude":77.391,"temp":31.6,"humidity":33,"rain":0.0,"pressure":977.3,"uv_index":7.75,"wind_gusts":37.1,"aqi":784,"pm10":879.2,"pm2_5":149.9,"no2":59.2,"co":478.0,"o3":20.0,"so2":18.1,"mosquito_risk":0,"arthritis_risk":5,"migraine_risk":7,"frizz_risk":0,"updated_at":"2026-05-21T00:57:26.788038+05:30"},{"city":"Ghaziabad","state":"Uttar Pradesh","latitude":28.6692,"longitude":77.4538,"temp":33.2,"humidity":28,"rain":0.0,"pressure":975.7,"uv_index":7.75,"wind_gusts":38.2,"aqi":198,"pm10":210.0,"pm2_5":71.7,"no2":49.1,"co":778.0,"o3":33.0,"so2":26.7,"mosquito_risk":0,"arthritis_risk":5,"migraine_risk":7,"frizz_risk":0,"updated_at":"2026-05-21T00:57:26.788044+05:30"},{"city":"Faridabad","state":"Haryana","latitude":28.4089,"longitude":77.3178,"temp":33.7,"humidity":25,"rain":0.0,"pressure":976.8,"uv_index":7.75,"wind_gusts":43.9,"aqi":784,"pm10":879.2,"pm2_5":149.9,"no2":59.2,"co":510.0,"o3":20.0,"so2":18.1,"mosquito_risk":0,"arthritis_risk":5,"migraine_risk":7,"frizz_risk":0,"updated_at":"2026-05-21T00:57:26.788051+05:30"},{"city":"Meerut","state":"Uttar Pradesh","latitude":28.9845,"longitude":77.7064,"temp":32.3,"humidity":37,"rain":0.0,"pressure":974.4,"uv_index":7.65,"wind_gusts":31.7,"aqi":198,"pm10":210.0,"pm2_5":71.7,"no2":49.1,"co":607.0,"o3":33.0,"so2":26.7,"mosquito_risk":0,"arthritis_risk":5,"migraine_risk":7,"frizz_risk":0,"updated_at":"2026-05-21T00:57:26.788058+05:30"},{"city":"Agra","state":"Uttar Pradesh","latitude":27.1767,"longitude":78.0081,"temp":33.6,"humidity":24,"rain":0.0,"pressure":981.3,"uv_index":8.1,"wind_gusts":43.2,"aqi":536,"pm10":1143.7,"pm2_5":145.3,"no2":9.2,"co":233.0,"o3":71.0,"so2":4.5,"mosquito_risk":0,"arthritis_risk":5,"migraine_risk":7,"frizz_risk":0,"updated_at":"2026-05-21T00:57:26.788067+05:30"},{"city":"Varanasi","state":"Uttar Pradesh","latitude":25.3176,"longitude":82.9739,"temp":33.0,"humidity":55,"rain":0.0,"pressure":990.1,"uv_index":8.75,"wind_gusts":36.7,"aqi":153,"pm10":118.5,"pm2_5":66.1,"no2":44.6,"co":900.0,"o3":43.0,"so2":19.2,"mosquito_risk":0,"arthritis_risk":5,"migraine_risk":7,"frizz_risk":1,"updated_at":"2026-05-21T00:57:26.788074+05:30"},{"city":"Prayagraj","state":"Uttar Pradesh","latitude":25.4358,"longitude":81.8463,"temp":34.0,"humidity":40,"rain":0.0,"pressure":988.5,"uv_index":8.65,"wind_gusts":38.5,"aqi":145,"pm10":122.0,"pm2_5":54.2,"no2":28.4,"co":621.0,"o3":55.0,"so2":12.9,"mosquito_risk":0,"arthritis_risk":5,"migraine_risk":7,"frizz_risk":1,"updated_at":"2026-05-21T00:57:26.788081+05:30"},{"city":"Gorakhpur","state":"Uttar Pradesh","latitude":26.7606,"longitude":83.3732,"temp":29.9,"humidity":72,"rain":0.0,"pressure":990.3,"uv_index":8.65,"wind_gusts":30.6,"aqi":155,"pm10":78.5,"pm2_5":60.8,"no2":15.4,"co":501.0,"o3":85.0,"so2":12.4,"mosquito_risk":7,"arthritis_risk":5,"migraine_risk":7,"frizz_risk":1,"updated_at":"2026-05-21T00:57:26.788090+05:30"},{"city":"Bareilly","state":"Uttar Pradesh","latitude":28.367,"longitude":79.4304,"temp":31.1,"humidity":45,"rain":0.0,"pressure":979.7,"uv_index":8.05,"wind_gusts":19.1,"aqi":151,"pm10":219.3,"pm2_5":78.9,"no2":40.4,"co":514.0,"o3":55.0,"so2":15.1,"mosquito_risk":0,"arthritis_risk":5,"migraine_risk":7,"frizz_risk":1,"updated_at":"2026-05-21T00:57:26.788097+05:30"},{"city":"Aligarh","state":"Uttar Pradesh","latitude":27.8974,"longitude":78.088,"temp":32.6,"humidity":24,"rain":0.0,"pressure":978.7,"uv_index":7.9,"wind_gusts":40.7,"aqi":453,"pm10":949.9,"pm2_5":138.3,"no2":19.3,"co":220.0,"o3":56.0,"so2":5.1,"mosquito_risk":0,"arthritis_risk":5,"migraine_risk":7,"frizz_risk":0,"updated_at":"2026-05-21T00:57:26.788103+05:30"},{"city":"Moradabad","state":"Uttar Pradesh","latitude":28.8386,"longitude":78.7733,"temp":32.0,"humidity":46,"rain":0.0,"pressure":976.7,"uv_index":7.75,"wind_gusts":25.9,"aqi":170,"pm10":257.0,"pm2_5":135.5,"no2":92.9,"co":902.0,"o3":14.0,"so2":28.7,"mosquito_risk":0,"arthritis_risk":5,"migraine_risk":7,"frizz_risk":1,"updated_at":"2026-05-21T00:57:26.788110+05:30"},{"city":"Saharanpur","state":"Uttar Pradesh","latitude":29.9637,"longitude":77.546,"temp":30.5,"humidity":45,"rain":0.0,"pressure":968.8,"uv_index":7.2,"wind_gusts":34.2,"aqi":154,"pm10":170.4,"pm2_5":96.2,"no2":64.2,"co":783.0,"o3":5.0,"so2":17.2,"mosquito_risk":0,"arthritis_risk":5,"migraine_risk":7,"frizz_risk":1,"updated_at":"2026-05-21T00:57:26.788116+05:30"},{"city":"Jhansi","state":"Uttar Pradesh","latitude":25.4484,"longitude":78.5685,"temp":34.1,"humidity":20,"rain":0.0,"pressure":972.2,"uv_index":8.5,"wind_gusts":52.6,"aqi":54,"pm10":25.7,"pm2_5":17.6,"no2":5.5,"co":155.0,"o3":71.0,"so2":3.9,"mosquito_risk":0,"arthritis_risk":5,"migraine_risk":7,"frizz_risk":0,"updated_at":"2026-05-21T00:57:30.063447+05:30"},{"city":"Surat","state":"Gujarat","latitude":21.1702,"longitude":72.8311,"temp":29.4,"humidity":78,"rain":0.0,"pressure":1003.9,"uv_index":7.75,"wind_gusts":37.4,"aqi":68,"pm10":27.4,"pm2_5":15.5,"no2":17.7,"co":229.0,"o3":38.0,"so2":30.0,"mosquito_risk":7,"arthritis_risk":5,"migraine_risk":4,"frizz_risk":1,"updated_at":"2026-05-21T00:57:30.063482+05:30"},{"city":"Vadodara","state":"Gujarat","latitude":22.3072,"longitude":73.1812,"temp":29.5,"humidity":78,"rain":0.0,"pressure":1000.9,"uv_index":8.1,"wind_gusts":36.0,"aqi":68,"pm10":24.4,"pm2_5":15.8,"no2":20.6,"co":223.0,"o3":29.0,"so2":23.4,"mosquito_risk":7,"arthritis_risk":5,"migraine_risk":4,"frizz_risk":1,"updated_at":"2026-05-21T00:57:30.063495+05:30"},{"city":"Rajkot","state":"Gujarat","latitude":22.3039,"longitude":70.8022,"temp":28.6,"humidity":74,"rain":0.0,"pressure":991.4,"uv_index":7.75,"wind_gusts":46.8,"aqi":61,"pm10":35.3,"pm2_5":16.8,"no2":7.1,"co":151.0,"o3":46.0,"so2":7.1,"mosquito_risk":7,"arthritis_risk":5,"migraine_risk":7,"frizz_risk":1,"updated_at":"2026-05-21T00:57:30.063505+05:30"},{"city":"Thane","state":"Maharashtra","latitude":19.2183,"longitude":72.9781,"temp":30.2,"humidity":69,"rain":0.0,"pressure":1005.4,"uv_index":7.85,"wind_gusts":33.5,"aqi":60,"pm10":19.1,"pm2_5":11.2,"no2":8.3,"co":178.0,"o3":44.0,"so2":6.2,"mosquito_risk":3,"arthritis_risk":5,"migraine_risk":4,"frizz_risk":1,"updated_at":"2026-05-21T00:57:30.063514+05:30"},{"city":"Nagpur","state":"Maharashtra","latitude":21.1458,"longitude":79.0882,"temp":36.0,"humidity":23,"rain":0.0,"pressure":967.6,"uv_index":8.95,"wind_gusts":42.5,"aqi":78,"pm10":31.9,"pm2_5":23.1,"no2":9.6,"co":457.0,"o3":89.0,"so2":12.6,"mosquito_risk":0,"arthritis_risk":5,"migraine_risk":10,"frizz_risk":0,"updated_at":"2026-05-21T00:57:30.063523+05:30"},{"city":"Nashik","state":"Maharashtra","latitude":19.9975,"longitude":73.7898,"temp":24.9,"humidity":85,"rain":0.0,"pressure":943.3,"uv_index":5.85,"wind_gusts":39.2,"aqi":56,"pm10":14.5,"pm2_5":9.9,"no2":8.9,"co":147.0,"o3":43.0,"so2":5.4,"mosquito_risk":3,"arthritis_risk":5,"migraine_risk":3,"frizz_risk":1,"updated_at":"2026-05-21T00:57:30.063531+05:30"},{"city":"Aurangabad","state":"Maharashtra","latitude":19.8762,"longitude":75.3433,"temp":30.0,"humidity":55,"rain":0.0,"pressure":941.5,"uv_index":5.1,"wind_gusts":45.0,"aqi":65,"pm10":20.3,"pm2_5":14.3,"no2":8.6,"co":148.0,"o3":61.0,"so2":4.6,"mosquito_risk":4,"arthritis_risk":5,"migraine_risk":3,"frizz_risk":1,"updated_at":"2026-05-21T00:57:30.063539+05:30"},{"city":"Solapur","state":"Maharashtra","latitude":17.6599,"longitude":75.9064,"temp":30.4,"humidity":52,"rain":0.0,"pressure":954.8,"uv_index":9.0,"wind_gusts":38.5,"aqi":78,"pm10":24.5,"pm2_5":19.3,"no2":5.8,"co":176.0,"o3":90.0,"so2":5.3,"mosquito_risk":0,"arthritis_risk":5,"migraine_risk":7,"frizz_risk":1,"updated_at":"2026-05-21T00:57:30.063548+05:30"},{"city":"Kolhapur","state":"Maharashtra","latitude":16.705,"longitude":74.2433,"temp":24.1,"humidity":85,"rain":0.0,"pressure":946.1,"uv_index":8.6,"wind_gusts":44.3,"aqi":72,"pm10":21.9,"pm2_5":13.4,"no2":5.7,"co":162.0,"o3":48.0,"so2":2.5,"mosquito_risk":3,"arthritis_risk":5,"migraine_risk":7,"frizz_risk":1,"updated_at":"2026-05-21T00:57:30.063557+05:30"},{"city":"Goa","state":"Goa","latitude":15.2993,"longitude":74.124,"temp":26.5,"humidity":97,"rain":0.0,"pressure":996.4,"uv_index":2.6,"wind_gusts":31.3,"aqi":41,"pm10":12.7,"pm2_5":10.4,"no2":6.0,"co":426.0,"o3":66.0,"so2":1.9,"mosquito_risk":7,"arthritis_risk":5,"migraine_risk":3,"frizz_risk":1,"updated_at":"2026-05-21T00:57:30.063566+05:30"},{"city":"Jodhpur","state":"Rajasthan","latitude":26.2389,"longitude":73.0243,"temp":33.9,"humidity":25,"rain":0.0,"pressure":977.9,"uv_index":8.45,"wind_gusts":45.0,"aqi":150,"pm10":237.5,"pm2_5":52.7,"no2":5.9,"co":149.0,"o3":60.0,"so2":3.1,"mosquito_risk":0,"arthritis_risk":5,"migraine_risk":7,"frizz_risk":0,"updated_at":"2026-05-21T00:57:30.063574+05:30"},{"city":"Udaipur","state":"Rajasthan","latitude":24.5854,"longitude":73.7125,"temp":29.8,"humidity":27,"rain":0.0,"pressure":943.2,"uv_index":8.85,"wind_gusts":40.3,"aqi":68,"pm10":47.7,"pm2_5":19.2,"no2":3.5,"co":222.0,"o3":68.0,"so2":2.7,"mosquito_risk":4,"arthritis_risk":5,"migraine_risk":7,"frizz_risk":0,"updated_at":"2026-05-21T00:57:30.063582+05:30"},{"city":"Kota","state":"Rajasthan","latitude":25.2138,"longitude":75.8648,"temp":34.2,"humidity":21,"rain":0.0,"pressure":974.3,"uv_index":8.4,"wind_gusts":46.1,"aqi":59,"pm10":36.2,"pm2_5":20.7,"no2":8.2,"co":175.0,"o3":55.0,"so2":4.2,"mosquito_risk":0,"arthritis_risk":5,"migraine_risk":7,"frizz_risk":0,"updated_at":"2026-05-21T00:57:30.063590+05:30"},{"city":"Bikaner","state":"Rajasthan","latitude":28.0229,"longitude":73.3119,"temp":34.6,"humidity":30,"rain":0.0,"pressure":975.4,"uv_index":8.4,"wind_gusts":34.2,"aqi":102,"pm10":283.1,"pm2_5":72.9,"no2":2.8,"co":149.0,"o3":71.0,"so2":2.2,"mosquito_risk":0,"arthritis_risk":5,"migraine_risk":7,"frizz_risk":0,"updated_at":"2026-05-21T00:57:30.063598+05:30"},{"city":"Ajmer","state":"Rajasthan","latitude":26.4499,"longitude":74.6399,"temp":31.6,"humidity":27,"rain":0.0,"pressure":950.6,"uv_index":8.45,"wind_gusts":58.3,"aqi":67,"pm10":118.7,"pm2_5":31.9,"no2":6.0,"co":178.0,"o3":64.0,"so2":4.6,"mosquito_risk":0,"arthritis_risk":5,"migraine_risk":7,"frizz_risk":0,"updated_at":"2026-05-21T00:57:30.063606+05:30"},{"city":"Gwalior","state":"Madhya Pradesh","latitude":26.2183,"longitude":78.1828,"temp":33.9,"humidity":24,"rain":0.0,"pressure":977.2,"uv_index":8.3,"wind_gusts":51.1,"aqi":60,"pm10":24.7,"pm2_5":14.8,"no2":5.5,"co":165.0,"o3":74.0,"so2":2.9,"mosquito_risk":0,"arthritis_risk":5,"migraine_risk":7,"frizz_risk":0,"updated_at":"2026-05-21T00:57:30.063614+05:30"},{"city":"Indore","state":"Madhya Pradesh","latitude":22.7196,"longitude":75.8577,"temp":32.1,"humidity":27,"rain":0.0,"pressure":945.2,"uv_index":8.7,"wind_gusts":39.2,"aqi":66,"pm10":46.4,"pm2_5":24.4,"no2":6.2,"co":285.0,"o3":83.0,"so2":5.4,"mosquito_risk":0,"arthritis_risk":5,"migraine_risk":7,"frizz_risk":0,"updated_at":"2026-05-21T00:57:30.063622+05:30"},{"city":"Bhopal","state":"Madhya Pradesh","latitude":23.2599,"longitude":77.4126,"temp":33.5,"humidity":24,"rain":0.0,"pressure":949.8,"uv_index":8.7,"wind_gusts":42.5,"aqi":57,"pm10":32.1,"pm2_5":21.2,"no2":5.1,"co":180.0,"o3":76.0,"so2":4.1,"mosquito_risk":0,"arthritis_risk":5,"migraine_risk":7,"frizz_risk":0,"updated_at":"2026-05-21T00:57:30.063630+05:30"},{"city":"Jabalpur","state":"Madhya Pradesh","latitude":23.1815,"longitude":79.9864,"temp":34.7,"humidity":21,"rain":0.0,"pressure":956.1,"uv_index":8.9,"wind_gusts":35.6,"aqi":85,"pm10":32.8,"pm2_5":21.0,"no2":17.3,"co":257.0,"o3":61.0,"so2":5.7,"mosquito_risk":0,"arthritis_risk":5,"migraine_risk":7,"frizz_risk":0,"updated_at":"2026-05-21T00:57:30.063638+05:30"},{"city":"Ujjain","state":"Madhya Pradesh","latitude":23.1765,"longitude":75.7885,"temp":32.0,"humidity":28,"rain":0.0,"pressure":950.6,"uv_index":8.6,"wind_gusts":38.5,"aqi":68,"pm10":52.0,"pm2_5":26.5,"no2":5.1,"co":267.0,"o3":78.0,"so2":5.4,"mosquito_risk":0,"arthritis_risk":5,"migraine_risk":7,"frizz_risk":0,"updated_at":"2026-05-21T00:57:30.063646+05:30"},{"city":"Visakhapatnam","state":"Andhra Pradesh","latitude":17.6868,"longitude":83.2185,"temp":30.5,"humidity":88,"rain":0.0,"pressure":997.6,"uv_index":9.1,"wind_gusts":29.5,"aqi":103,"pm10":45.1,"pm2_5":37.6,"no2":38.7,"co":452.0,"o3":78.0,"so2":44.2,"mosquito_risk":3,"arthritis_risk":5,"migraine_risk":7,"frizz_risk":1,"updated_at":"2026-05-21T00:57:30.063654+05:30"},{"city":"Vijayawada","state":"Andhra Pradesh","latitude":16.5062,"longitude":80.648,"temp":33.2,"humidity":62,"rain":0.0,"pressure":996.5,"uv_index":9.15,"wind_gusts":38.9,"aqi":120,"pm10":46.6,"pm2_5":41.4,"no2":21.5,"co":510.0,"o3":76.0,"so2":8.1,"mosquito_risk":3,"arthritis_risk":5,"migraine_risk":7,"frizz_risk":1,"updated_at":"2026-05-21T00:57:30.063663+05:30"},{"city":"Guntur","state":"Andhra Pradesh","latitude":16.3067,"longitude":80.4365,"temp":33.6,"humidity":56,"rain":0.0,"pressure":997.8,"uv_index":9.15,"wind_gusts":40.3,"aqi":113,"pm10":54.6,"pm2_5":46.9,"no2":28.5,"co":289.0,"o3":59.0,"so2":8.6,"mosquito_risk":0,"arthritis_risk":5,"migraine_risk":7,"frizz_risk":1,"updated_at":"2026-05-21T00:57:30.063671+05:30"},{"city":"Nellore","state":"Andhra Pradesh","latitude":14.4426,"longitude":79.9865,"temp":31.9,"humidity":71,"rain":0.0,"pressure":1000.5,"uv_index":8.5,"wind_gusts":54.0,"aqi":109,"pm10":26.4,"pm2_5":22.1,"no2":6.7,"co":193.0,"o3":97.0,"so2":7.8,"mosquito_risk":3,"arthritis_risk":5,"migraine_risk":4,"frizz_risk":1,"updated_at":"2026-05-21T00:57:30.063680+05:30"},{"city":"Kurnool","state":"Andhra Pradesh","latitude":15.8281,"longitude":78.0373,"temp":32.2,"humidity":52,"rain":0.0,"pressure":973.7,"uv_index":8.1,"wind_gusts":44.6,"aqi":83,"pm10":16.1,"pm2_5":13.9,"no2":8.6,"co":204.0,"o3":84.0,"so2":5.3,"mosquito_risk":0,"arthritis_risk":5,"migraine_risk":7,"frizz_risk":1,"updated_at":"2026-05-21T00:57:30.063689+05:30"},{"city":"Kakinada","state":"Andhra Pradesh","latitude":16.9891,"longitude":82.2475,"temp":31.7,"humidity":72,"rain":0.0,"pressure":1001.2,"uv_index":9.1,"wind_gusts":35.3,"aqi":91,"pm10":40.0,"pm2_5":30.9,"no2":4.2,"co":441.0,"o3":129.0,"so2":4.8,"mosquito_risk":3,"arthritis_risk":5,"migraine_risk":4,"frizz_risk":1,"updated_at":"2026-05-21T00:57:30.063698+05:30"},{"city":"Tirupati","state":"Andhra Pradesh","latitude":13.6288,"longitude":79.4192,"temp":31.8,"humidity":48,"rain":0.0,"pressure":987.0,"uv_index":8.55,"wind_gusts":58.0,"aqi":59,"pm10":21.0,"pm2_5":18.9,"no2":14.2,"co":231.0,"o3":61.0,"so2":2.9,"mosquito_risk":0,"arthritis_risk":5,"migraine_risk":7,"frizz_risk":1,"updated_at":"2026-05-21T00:57:30.063705+05:30"},{"city":"Warangal","state":"Telangana","latitude":17.9689,"longitude":79.5941,"temp":32.7,"humidity":39,"rain":0.0,"pressure":973.1,"uv_index":8.4,"wind_gusts":40.0,"aqi":131,"pm10":63.8,"pm2_5":53.1,"no2":28.4,"co":424.0,"o3":51.0,"so2":7.2,"mosquito_risk":0,"arthritis_risk":5,"migraine_risk":7,"frizz_risk":1,"updated_at":"2026-05-21T00:57:30.063713+05:30"},{"city":"Nizamabad","state":"Telangana","latitude":18.6725,"longitude":78.0941,"temp":33.3,"humidity":36,"rain":0.0,"pressure":960.2,"uv_index":9.1,"wind_gusts":36.4,"aqi":90,"pm10":49.6,"pm2_5":36.1,"no2":20.4,"co":394.0,"o3":59.0,"so2":7.3,"mosquito_risk":0,"arthritis_risk":5,"migraine_risk":7,"frizz_risk":1,"updated_at":"2026-05-21T00:57:30.063720+05:30"},{"city":"Mysore","state":"Karnataka","latitude":12.2958,"longitude":76.6396,"temp":23.1,"humidity":90,"rain":0.0,"pressure":927.6,"uv_index":8.75,"wind_gusts":47.5,"aqi":30,"pm10":8.2,"pm2_5":7.5,"no2":9.4,"co":179.0,"o3":45.0,"so2":2.5,"mosquito_risk":3,"arthritis_risk":5,"migraine_risk":7,"frizz_risk":1,"updated_at":"2026-05-21T00:57:30.063728+05:30"},{"city":"Mangalore","state":"Karnataka","latitude":12.9141,"longitude":74.856,"temp":28.0,"humidity":86,"rain":0.0,"pressure":1005.7,"uv_index":8.6,"wind_gusts":36.4,"aqi":36,"pm10":11.9,"pm2_5":9.9,"no2":8.5,"co":453.0,"o3":44.0,"so2":3.0,"mosquito_risk":7,"arthritis_risk":5,"migraine_risk":4,"frizz_risk":1,"updated_at":"2026-05-21T00:57:30.063735+05:30"},{"city":"Hubli-Dharwad","state":"Karnataka","latitude":15.3647,"longitude":75.124,"temp":23.8,"humidity":96,"rain":0.0,"pressure":939.5,"uv_index":8.8,"wind_gusts":47.5,"aqi":32,"pm10":5.6,"pm2_5":4.6,"no2":6.4,"co":186.0,"o3":51.0,"so2":1.2,"mosquito_risk":3,"arthritis_risk":5,"migraine_risk":7,"frizz_risk":1,"updated_at":"2026-05-21T00:57:30.063743+05:30"},{"city":"Belgaum","state":"Karnataka","latitude":15.8497,"longitude":74.4977,"temp":22.5,"humidity":97,"rain":0.0,"pressure":924.2,"uv_index":7.25,"wind_gusts":42.8,"aqi":63,"pm10":14.2,"pm2_5":8.7,"no2":4.9,"co":135.0,"o3":63.0,"so2":2.3,"mosquito_risk":3,"arthritis_risk":5,"migraine_risk":7,"frizz_risk":1,"updated_at":"2026-05-21T00:57:33.340762+05:30"},{"city":"Coimbatore","state":"Tamil Nadu","latitude":11.0168,"longitude":76.9558,"temp":26.0,"humidity":84,"rain":0.0,"pressure":960.3,"uv_index":8.1,"wind_gusts":58.0,"aqi":28,"pm10":7.2,"pm2_5":6.2,"no2":6.1,"co":168.0,"o3":51.0,"so2":2.7,"mosquito_risk":7,"arthritis_risk":5,"migraine_risk":7,"frizz_risk":1,"updated_at":"2026-05-21T00:57:33.340795+05:30"},{"city":"Madurai","state":"Tamil Nadu","latitude":9.9252,"longitude":78.1198,"temp":29.5,"humidity":65,"rain":0.0,"pressure":991.0,"uv_index":9.0,"wind_gusts":50.0,"aqi":64,"pm10":34.0,"pm2_5":32.9,"no2":50.8,"co":167.0,"o3":1.0,"so2":12.6,"mosquito_risk":7,"arthritis_risk":5,"migraine_risk":7,"frizz_risk":1,"updated_at":"2026-05-21T00:57:33.340808+05:30"},{"city":"Trichy","state":"Tamil Nadu","latitude":10.7905,"longitude":78.7047,"temp":29.4,"humidity":65,"rain":0.0,"pressure":997.3,"uv_index":9.0,"wind_gusts":43.6,"aqi":39,"pm10":10.2,"pm2_5":9.3,"no2":13.7,"co":164.0,"o3":47.0,"so2":4.6,"mosquito_risk":7,"arthritis_risk":5,"migraine_risk":7,"frizz_risk":1,"updated_at":"2026-05-21T00:57:33.340845+05:30"},{"city":"Salem","state":"Tamil Nadu","latitude":11.6643,"longitude":78.146,"temp":28.5,"humidity":69,"rain":0.0,"pressure":975.7,"uv_index":9.1,"wind_gusts":45.4,"aqi":48,"pm10":14.9,"pm2_5":13.8,"no2":20.6,"co":205.0,"o3":44.0,"so2":8.6,"mosquito_risk":7,"arthritis_risk":5,"migraine_risk":7,"frizz_risk":1,"updated_at":"2026-05-21T00:57:33.340856+05:30"},{"city":"Tirunelveli","state":"Tamil Nadu","latitude":8.7139,"longitude":77.7567,"temp":29.2,"humidity":70,"rain":0.0,"pressure":1002.0,"uv_index":8.2,"wind_gusts":37.8,"aqi":24,"pm10":7.9,"pm2_5":6.6,"no2":7.8,"co":167.0,"o3":36.0,"so2":2.0,"mosquito_risk":7,"arthritis_risk":5,"migraine_risk":4,"frizz_risk":1,"updated_at":"2026-05-21T00:57:33.340865+05:30"},{"city":"Vellore","state":"Tamil Nadu","latitude":12.9165,"longitude":79.1325,"temp":30.8,"humidity":56,"rain":0.0,"pressure":981.1,"uv_index":9.05,"wind_gusts":46.4,"aqi":51,"pm10":19.3,"pm2_5":18.5,"no2":19.0,"co":253.0,"o3":40.0,"so2":6.4,"mosquito_risk":0,"arthritis_risk":5,"migraine_risk":7,"frizz_risk":1,"updated_at":"2026-05-21T00:57:33.340874+05:30"},{"city":"Erode","state":"Tamil Nadu","latitude":11.341,"longitude":77.7172,"temp":28.0,"humidity":74,"rain":0.0,"pressure":987.2,"uv_index":8.95,"wind_gusts":54.4,"aqi":37,"pm10":14.3,"pm2_5":12.9,"no2":18.2,"co":179.0,"o3":37.0,"so2":4.1,"mosquito_risk":7,"arthritis_risk":5,"migraine_risk":7,"frizz_risk":1,"updated_at":"2026-05-21T00:57:33.340883+05:30"},{"city":"Kochi","state":"Kerala","latitude":9.9312,"longitude":76.2673,"temp":28.0,"humidity":89,"rain":0.0,"pressure":1008.1,"uv_index":8.2,"wind_gusts":37.4,"aqi":53,"pm10":24.6,"pm2_5":23.0,"no2":29.5,"co":331.0,"o3":11.0,"so2":6.8,"mosquito_risk":7,"arthritis_risk":0,"migraine_risk":4,"frizz_risk":1,"updated_at":"2026-05-21T00:57:33.340892+05:30"},{"city":"Thiruvananthapuram","state":"Kerala","latitude":8.5241,"longitude":76.9366,"temp":26.5,"humidity":92,"rain":0.1,"pressure":1008.1,"uv_index":8.5,"wind_gusts":38.5,"aqi":25,"pm10":8.3,"pm2_5":4.7,"no2":1.5,"co":132.0,"o3":49.0,"so2":0.5,"mosquito_risk":10,"arthritis_risk":0,"migraine_risk":4,"frizz_risk":1,"updated_at":"2026-05-21T00:57:33.340900+05:30"},{"city":"Kozhikode","state":"Kerala","latitude":11.2588,"longitude":75.7804,"temp":26.8,"humidity":90,"rain":0.0,"pressure":1007.1,"uv_index":8.75,"wind_gusts":42.1,"aqi":30,"pm10":8.2,"pm2_5":5.6,"no2":2.0,"co":406.0,"o3":60.0,"so2":0.7,"mosquito_risk":7,"arthritis_risk":5,"migraine_risk":4,"frizz_risk":1,"updated_at":"2026-05-21T00:57:33.340908+05:30"},{"city":"Thrissur","state":"Kerala","latitude":10.5276,"longitude":76.2144,"temp":26.5,"humidity":93,"rain":0.0,"pressure":1006.5,"uv_index":8.6,"wind_gusts":34.6,"aqi":48,"pm10":23.6,"pm2_5":22.3,"no2":23.9,"co":413.0,"o3":14.0,"so2":5.9,"mosquito_risk":7,"arthritis_risk":5,"migraine_risk":4,"frizz_risk":1,"updated_at":"2026-05-21T00:57:33.340917+05:30"},{"city":"Kannur","state":"Kerala","latitude":11.8745,"longitude":75.3704,"temp":28.2,"humidity":81,"rain":0.1,"pressure":1006.2,"uv_index":8.75,"wind_gusts":38.9,"aqi":31,"pm10":12.5,"pm2_5":10.7,"no2":11.4,"co":299.0,"o3":36.0,"so2":2.7,"mosquito_risk":10,"arthritis_risk":5,"migraine_risk":4,"frizz_risk":1,"updated_at":"2026-05-21T00:57:33.340925+05:30"},{"city":"Patna","state":"Bihar","latitude":25.5941,"longitude":85.1376,"temp":29.8,"humidity":76,"rain":0.0,"pressure":993.5,"uv_index":8.85,"wind_gusts":28.1,"aqi":156,"pm10":74.5,"pm2_5":63.3,"no2":15.9,"co":435.0,"o3":97.0,"so2":18.3,"mosquito_risk":7,"arthritis_risk":5,"migraine_risk":7,"frizz_risk":1,"updated_at":"2026-05-21T00:57:33.340933+05:30"},{"city":"Gaya","state":"Bihar","latitude":24.7914,"longitude":85.0002,"temp":30.4,"humidity":69,"rain":0.0,"pressure":986.6,"uv_index":8.9,"wind_gusts":29.2,"aqi":158,"pm10":90.6,"pm2_5":70.8,"no2":15.2,"co":443.0,"o3":95.0,"so2":16.8,"mosquito_risk":3,"arthritis_risk":5,"migraine_risk":7,"frizz_risk":1,"updated_at":"2026-05-21T00:57:33.340941+05:30"},{"city":"Muzaffarpur","state":"Bihar","latitude":26.1209,"longitude":85.3647,"temp":29.0,"humidity":77,"rain":0.0,"pressure":993.9,"uv_index":8.85,"wind_gusts":31.7,"aqi":154,"pm10":76.1,"pm2_5":64.0,"no2":18.8,"co":475.0,"o3":85.0,"so2":15.7,"mosquito_risk":7,"arthritis_risk":5,"migraine_risk":7,"frizz_risk":1,"updated_at":"2026-05-21T00:57:33.340948+05:30"},{"city":"Bhagalpur","state":"Bihar","latitude":25.2425,"longitude":87.0117,"temp":28.6,"humidity":85,"rain":0.0,"pressure":994.6,"uv_index":8.85,"wind_gusts":35.6,"aqi":152,"pm10":49.5,"pm2_5":43.4,"no2":15.6,"co":419.0,"o3":84.0,"so2":11.3,"mosquito_risk":7,"arthritis_risk":5,"migraine_risk":7,"frizz_risk":1,"updated_at":"2026-05-21T00:57:33.340956+05:30"},{"city":"Ranchi","state":"Jharkhand","latitude":23.3441,"longitude":85.3096,"temp":26.8,"humidity":58,"rain":0.0,"pressure":931.9,"uv_index":9.3,"wind_gusts":36.4,"aqi":146,"pm10":176.5,"pm2_5":66.4,"no2":23.9,"co":582.0,"o3":85.0,"so2":13.4,"mosquito_risk":4,"arthritis_risk":5,"migraine_risk":7,"frizz_risk":1,"updated_at":"2026-05-21T00:57:33.340964+05:30"},{"city":"Jamshedpur","state":"Jharkhand","latitude":22.8046,"longitude":86.2029,"temp":28.7,"humidity":87,"rain":0.0,"pressure":984.4,"uv_index":9.1,"wind_gusts":29.9,"aqi":151,"pm10":133.6,"pm2_5":89.2,"no2":49.4,"co":1077.0,"o3":43.0,"so2":48.2,"mosquito_risk":7,"arthritis_risk":5,"migraine_risk":7,"frizz_risk":1,"updated_at":"2026-05-21T00:57:33.340972+05:30"},{"city":"Dhanbad","state":"Jharkhand","latitude":23.7957,"longitude":86.4304,"temp":29.9,"humidity":78,"rain":0.0,"pressure":973.6,"uv_index":9.1,"wind_gusts":33.1,"aqi":168,"pm10":193.7,"pm2_5":147.1,"no2":50.5,"co":429.0,"o3":47.0,"so2":188.1,"mosquito_risk":7,"arthritis_risk":5,"migraine_risk":7,"frizz_risk":1,"updated_at":"2026-05-21T00:57:33.340980+05:30"},{"city":"Bokaro","state":"Jharkhand","latitude":23.6693,"longitude":86.1511,"temp":28.7,"humidity":73,"rain":0.0,"pressure":977.1,"uv_index":9.1,"wind_gusts":30.6,"aqi":169,"pm10":220.3,"pm2_5":138.3,"no2":53.7,"co":433.0,"o3":42.0,"so2":181.3,"mosquito_risk":7,"arthritis_risk":5,"migraine_risk":7,"frizz_risk":1,"updated_at":"2026-05-21T00:57:33.340987+05:30"},{"city":"Bhubaneswar","state":"Odisha","latitude":20.2961,"longitude":85.8245,"temp":29.8,"humidity":79,"rain":0.0,"pressure":995.4,"uv_index":9.15,"wind_gusts":27.4,"aqi":100,"pm10":64.0,"pm2_5":53.7,"no2":20.2,"co":426.0,"o3":89.0,"so2":12.8,"mosquito_risk":7,"arthritis_risk":5,"migraine_risk":7,"frizz_risk":1,"updated_at":"2026-05-21T00:57:33.340994+05:30"},{"city":"Cuttack","state":"Odisha","latitude":20.4625,"longitude":85.8828,"temp":29.5,"humidity":82,"rain":0.0,"pressure":997.1,"uv_index":9.2,"wind_gusts":21.6,"aqi":100,"pm10":64.0,"pm2_5":53.7,"no2":20.2,"co":542.0,"o3":89.0,"so2":12.8,"mosquito_risk":7,"arthritis_risk":5,"migraine_risk":7,"frizz_risk":1,"updated_at":"2026-05-21T00:57:33.341002+05:30"},{"city":"Rourkela","state":"Odisha","latitude":22.2604,"longitude":84.8536,"temp":29.5,"humidity":53,"rain":0.0,"pressure":978.2,"uv_index":9.0,"wind_gusts":32.8,"aqi":150,"pm10":146.7,"pm2_5":61.9,"no2":35.4,"co":663.0,"o3":40.0,"so2":15.4,"mosquito_risk":4,"arthritis_risk":5,"migraine_risk":7,"frizz_risk":1,"updated_at":"2026-05-21T00:57:33.341009+05:30"},{"city":"Raipur","state":"Chhattisgarh","latitude":21.2514,"longitude":81.6296,"temp":33.1,"humidity":35,"rain":0.0,"pressure":967.7,"uv_index":9.0,"wind_gusts":38.2,"aqi":151,"pm10":79.6,"pm2_5":64.5,"no2":47.4,"co":492.0,"o3":42.0,"so2":43.9,"mosquito_risk":0,"arthritis_risk":5,"migraine_risk":7,"frizz_risk":0,"updated_at":"2026-05-21T00:57:33.341016+05:30"},{"city":"Bhilai","state":"Chhattisgarh","latitude":21.1938,"longitude":81.3509,"temp":33.2,"humidity":35,"rain":0.0,"pressure":968.2,"uv_index":9.0,"wind_gusts":42.8,"aqi":136,"pm10":69.8,"pm2_5":53.9,"no2":42.4,"co":653.0,"o3":51.0,"so2":44.9,"mosquito_risk":0,"arthritis_risk":5,"migraine_risk":7,"frizz_risk":0,"updated_at":"2026-05-21T00:57:33.341023+05:30"},{"city":"Guwahati","state":"Assam","latitude":26.1158,"longitude":91.7086,"temp":25.7,"humidity":95,"rain":0.0,"pressure":996.2,"uv_index":8.75,"wind_gusts":25.2,"aqi":130,"pm10":42.4,"pm2_5":37.6,"no2":16.8,"co":463.0,"o3":24.0,"so2":2.4,"mosquito_risk":7,"arthritis_risk":5,"migraine_risk":7,"frizz_risk":1,"updated_at":"2026-05-21T00:57:33.341031+05:30"},{"city":"Agartala","state":"Tripura","latitude":23.8315,"longitude":91.2868,"temp":26.9,"humidity":90,"rain":0.0,"pressure":1001.1,"uv_index":8.8,"wind_gusts":27.4,"aqi":81,"pm10":21.3,"pm2_5":17.7,"no2":11.6,"co":230.0,"o3":31.0,"so2":2.8,"mosquito_risk":7,"arthritis_risk":5,"migraine_risk":4,"frizz_risk":1,"updated_at":"2026-05-21T00:57:33.341040+05:30"},{"city":"Shillong","state":"Meghalaya","latitude":25.5788,"longitude":91.8933,"temp":16.9,"humidity":98,"rain":0.0,"pressure":852.7,"uv_index":8.5,"wind_gusts":22.0,"aqi":81,"pm10":34.6,"pm2_5":28.9,"no2":10.0,"co":250.0,"o3":57.0,"so2":3.7,"mosquito_risk":3,"arthritis_risk":10,"migraine_risk":7,"frizz_risk":1,"updated_at":"2026-05-21T00:57:33.341047+05:30"},{"city":"Imphal","state":"Manipur","latitude":24.817,"longitude":93.9368,"temp":22.4,"humidity":97,"rain":0.0,"pressure":919.4,"uv_index":9.25,"wind_gusts":33.8,"aqi":110,"pm10":72.9,"pm2_5":56.6,"no2":28.9,"co":724.0,"o3":26.0,"so2":6.2,"mosquito_risk":3,"arthritis_risk":5,"migraine_risk":7,"frizz_risk":1,"updated_at":"2026-05-21T00:57:33.341056+05:30"},{"city":"Aizawl","state":"Mizoram","latitude":23.7271,"longitude":92.7176,"temp":20.4,"humidity":94,"rain":0.0,"pressure":888.6,"uv_index":9.1,"wind_gusts":27.7,"aqi":86,"pm10":35.9,"pm2_5":26.3,"no2":6.5,"co":228.0,"o3":56.0,"so2":2.7,"mosquito_risk":3,"arthritis_risk":5,"migraine_risk":7,"frizz_risk":1,"updated_at":"2026-05-21T00:57:33.341063+05:30"},{"city":"Kohima","state":"Nagaland","latitude":25.6701,"longitude":94.1077,"temp":17.9,"humidity":98,"rain":0.0,"pressure":851.5,"uv_index":9.2,"wind_gusts":25.2,"aqi":99,"pm10":41.1,"pm2_5":29.0,"no2":17.6,"co":293.0,"o3":34.0,"so2":1.5,"mosquito_risk":3,"arthritis_risk":10,"migraine_risk":7,"frizz_risk":1,"updated_at":"2026-05-21T00:57:33.341072+05:30"},{"city":"Gangtok","state":"Sikkim","latitude":27.3314,"longitude":88.6138,"temp":14.9,"humidity":85,"rain":0.0,"pressure":832.6,"uv_index":9.15,"wind_gusts":36.4,"aqi":76,"pm10":30.9,"pm2_5":22.0,"no2":19.2,"co":730.0,"o3":64.0,"so2":2.5,"mosquito_risk":3,"arthritis_risk":10,"migraine_risk":7,"frizz_risk":0,"updated_at":"2026-05-21T00:57:33.341080+05:30"},{"city":"Siliguri","state":"West Bengal","latitude":26.7271,"longitude":88.3953,"temp":26.4,"humidity":78,"rain":0.2,"pressure":987.3,"uv_index":8.75,"wind_gusts":27.7,"aqi":133,"pm10":89.6,"pm2_5":67.3,"no2":33.9,"co":762.0,"o3":59.0,"so2":8.4,"mosquito_risk":10,"arthritis_risk":5,"migraine_risk":7,"frizz_risk":1,"updated_at":"2026-05-21T00:57:36.632262+05:30"},{"city":"Durgapur","state":"West Bengal","latitude":23.5204,"longitude":87.3119,"temp":29.6,"humidity":85,"rain":0.0,"pressure":988.7,"uv_index":9.0,"wind_gusts":22.7,"aqi":161,"pm10":129.5,"pm2_5":109.0,"no2":40.8,"co":704.0,"o3":59.0,"so2":37.1,"mosquito_risk":7,"arthritis_risk":5,"migraine_risk":7,"frizz_risk":1,"updated_at":"2026-05-21T00:57:36.632295+05:30"},{"city":"Asansol","state":"West Bengal","latitude":23.6739,"longitude":86.9524,"temp":30.0,"humidity":79,"rain":0.0,"pressure":987.1,"uv_index":9.05,"wind_gusts":42.1,"aqi":161,"pm10":133.2,"pm2_5":112.9,"no2":44.0,"co":594.0,"o3":58.0,"so2":43.3,"mosquito_risk":7,"arthritis_risk":5,"migraine_risk":7,"frizz_risk":1,"updated_at":"2026-05-21T00:57:36.632307+05:30"},{"city":"Pondicherry","state":"Puducherry","latitude":11.9139,"longitude":79.8145,"temp":30.2,"humidity":71,"rain":0.0,"pressure":1004.3,"uv_index":7.35,"wind_gusts":35.3,"aqi":65,"pm10":18.3,"pm2_5":16.4,"no2":17.1,"co":351.0,"o3":61.0,"so2":8.7,"mosquito_risk":3,"arthritis_risk":5,"migraine_risk":4,"frizz_risk":1,"updated_at":"2026-05-21T00:57:36.632317+05:30"},{"city":"Port Blair","state":"Andaman and Nicobar Islands","latitude":11.6234,"longitude":92.7265,"temp":25.4,"humidity":95,"rain":0.3,"pressure":1004.1,"uv_index":8.8,"wind_gusts":38.9,"aqi":24,"pm10":4.9,"pm2_5":3.0,"no2":0.3,"co":104.0,"o3":58.0,"so2":0.3,"mosquito_risk":10,"arthritis_risk":5,"migraine_risk":4,"frizz_risk":1,"updated_at":"2026-05-21T00:57:36.632326+05:30"},{"city":"Haridwar","state":"Uttarakhand","latitude":29.9457,"longitude":78.1642,"temp":26.5,"humidity":53,"rain":0.0,"pressure":967.0,"uv_index":7.25,"wind_gusts":26.3,"aqi":114,"pm10":94.1,"pm2_5":57.0,"no2":36.9,"co":333.0,"o3":30.0,"so2":10.2,"mosquito_risk":4,"arthritis_risk":5,"migraine_risk":7,"frizz_risk":1,"updated_at":"2026-05-21T00:57:36.632334+05:30"},{"city":"Rishikesh","state":"Uttarakhand","latitude":30.0869,"longitude":78.2676,"temp":23.4,"humidity":58,"rain":0.0,"pressure":959.6,"uv_index":7.4,"wind_gusts":29.9,"aqi":92,"pm10":71.5,"pm2_5":34.5,"no2":19.8,"co":355.0,"o3":66.0,"so2":6.5,"mosquito_risk":0,"arthritis_risk":5,"migraine_risk":7,"frizz_risk":0,"updated_at":"2026-05-21T00:57:36.632342+05:30"},{"city":"Nainital","state":"Uttarakhand","latitude":29.3919,"longitude":79.4542,"temp":17.1,"humidity":63,"rain":0.0,"pressure":802.4,"uv_index":8.5,"wind_gusts":35.3,"aqi":104,"pm10":122.0,"pm2_5":36.6,"no2":12.6,"co":231.0,"o3":97.0,"so2":4.8,"mosquito_risk":3,"arthritis_risk":5,"migraine_risk":7,"frizz_risk":0,"updated_at":"2026-05-21T00:57:36.632349+05:30"},{"city":"Mussoorie","state":"Uttarakhand","latitude":30.4599,"longitude":78.0664,"temp":20.1,"humidity":37,"rain":0.0,"pressure":801.9,"uv_index":8.0,"wind_gusts":52.9,"aqi":96,"pm10":76.8,"pm2_5":45.6,"no2":45.6,"co":234.0,"o3":41.0,"so2":10.1,"mosquito_risk":0,"arthritis_risk":5,"migraine_risk":7,"frizz_risk":0,"updated_at":"2026-05-21T00:57:36.632357+05:30"},{"city":"Dharamshala","state":"Himachal Pradesh","latitude":32.219,"longitude":76.3234,"temp":25.7,"humidity":30,"rain":0.0,"pressure":866.5,"uv_index":8.45,"wind_gusts":52.6,"aqi":57,"pm10":25.3,"pm2_5":13.8,"no2":15.3,"co":203.0,"o3":30.0,"so2":0.3,"mosquito_risk":4,"arthritis_risk":5,"migraine_risk":7,"frizz_risk":0,"updated_at":"2026-05-21T00:57:36.632365+05:30"},{"city":"Dalhousie","state":"Himachal Pradesh","latitude":32.5387,"longitude":75.971,"temp":15.4,"humidity":61,"rain":0.0,"pressure":800.7,"uv_index":8.7,"wind_gusts":37.1,"aqi":76,"pm10":37.5,"pm2_5":26.4,"no2":51.8,"co":318.0,"o3":1.0,"so2":2.2,"mosquito_risk":3,"arthritis_risk":5,"migraine_risk":7,"frizz_risk":0,"updated_at":"2026-05-21T00:57:36.632373+05:30"},{"city":"Patiala","state":"Punjab","latitude":30.3398,"longitude":76.3869,"temp":32.6,"humidity":24,"rain":0.0,"pressure":970.5,"uv_index":7.65,"wind_gusts":39.2,"aqi":387,"pm10":132.2,"pm2_5":75.2,"no2":36.1,"co":389.0,"o3":41.0,"so2":14.2,"mosquito_risk":0,"arthritis_risk":5,"migraine_risk":7,"frizz_risk":0,"updated_at":"2026-05-21T00:57:36.632380+05:30"},{"city":"Bhatinda","state":"Punjab","latitude":30.211,"longitude":74.9455,"temp":33.9,"humidity":31,"rain":0.0,"pressure":976.3,"uv_index":8.3,"wind_gusts":35.6,"aqi":108,"pm10":51.5,"pm2_5":34.1,"no2":18.1,"co":357.0,"o3":46.0,"so2":7.0,"mosquito_risk":0,"arthritis_risk":5,"migraine_risk":7,"frizz_risk":0,"updated_at":"2026-05-21T00:57:36.632387+05:30"},{"city":"Rohtak","state":"Haryana","latitude":28.8955,"longitude":76.6066,"temp":32.5,"humidity":29,"rain":0.0,"pressure":974.7,"uv_index":7.7,"wind_gusts":42.1,"aqi":380,"pm10":315.7,"pm2_5":74.0,"no2":44.8,"co":218.0,"o3":30.0,"so2":7.2,"mosquito_risk":0,"arthritis_risk":5,"migraine_risk":7,"frizz_risk":0,"updated_at":"2026-05-21T00:57:36.632395+05:30"},{"city":"Panipat","state":"Haryana","latitude":29.3909,"longitude":76.9635,"temp":32.0,"humidity":36,"rain":0.0,"pressure":972.9,"uv_index":7.45,"wind_gusts":35.3,"aqi":799,"pm10":311.1,"pm2_5":82.2,"no2":35.5,"co":775.0,"o3":27.0,"so2":5.9,"mosquito_risk":0,"arthritis_risk":5,"migraine_risk":7,"frizz_risk":0,"updated_at":"2026-05-21T00:57:36.632402+05:30"},{"city":"Mathura","state":"Uttar Pradesh","latitude":27.4924,"longitude":77.6737,"temp":33.0,"humidity":24,"rain":0.0,"pressure":980.2,"uv_index":8.05,"wind_gusts":43.2,"aqi":488,"pm10":1035.6,"pm2_5":128.1,"no2":9.3,"co":213.0,"o3":72.0,"so2":4.0,"mosquito_risk":0,"arthritis_risk":5,"migraine_risk":7,"frizz_risk":0,"updated_at":"2026-05-21T00:57:36.632409+05:30"},{"city":"Vrindavan","state":"Uttar Pradesh","latitude":27.5823,"longitude":77.7027,"temp":32.7,"humidity":25,"rain":0.0,"pressure":980.5,"uv_index":8.0,"wind_gusts":42.1,"aqi":488,"pm10":1035.6,"pm2_5":128.1,"no2":9.3,"co":212.0,"o3":72.0,"so2":4.0,"mosquito_risk":0,"arthritis_risk":5,"migraine_risk":7,"frizz_risk":0,"updated_at":"2026-05-21T00:57:36.632416+05:30"},{"city":"Ayodhya","state":"Uttar Pradesh","latitude":26.7922,"longitude":82.1998,"temp":30.4,"humidity":71,"rain":0.0,"pressure":988.1,"uv_index":8.4,"wind_gusts":25.6,"aqi":154,"pm10":162.5,"pm2_5":63.1,"no2":30.2,"co":567.0,"o3":73.0,"so2":14.0,"mosquito_risk":3,"arthritis_risk":5,"migraine_risk":7,"frizz_risk":1,"updated_at":"2026-05-21T00:57:36.632424+05:30"},{"city":"Ratlam","state":"Madhya Pradesh","latitude":23.3315,"longitude":75.0367,"temp":30.8,"humidity":33,"rain":0.0,"pressure":951.8,"uv_index":8.55,"wind_gusts":37.1,"aqi":68,"pm10":51.1,"pm2_5":25.8,"no2":5.1,"co":226.0,"o3":77.0,"so2":7.4,"mosquito_risk":0,"arthritis_risk":5,"migraine_risk":7,"frizz_risk":0,"updated_at":"2026-05-21T00:57:36.632431+05:30"},{"city":"Sagar","state":"Madhya Pradesh","latitude":23.8388,"longitude":78.7378,"temp":33.0,"humidity":24,"rain":0.0,"pressure":945.8,"uv_index":8.75,"wind_gusts":41.4,"aqi":51,"pm10":25.4,"pm2_5":17.4,"no2":5.7,"co":168.0,"o3":87.0,"so2":3.4,"mosquito_risk":0,"arthritis_risk":5,"migraine_risk":7,"frizz_risk":0,"updated_at":"2026-05-21T00:57:36.632438+05:30"},{"city":"Satna","state":"Madhya Pradesh","latitude":24.6005,"longitude":80.8322,"temp":32.8,"humidity":31,"rain":0.0,"pressure":965.1,"uv_index":8.8,"wind_gusts":39.6,"aqi":101,"pm10":54.4,"pm2_5":24.4,"no2":21.7,"co":254.0,"o3":52.0,"so2":4.1,"mosquito_risk":0,"arthritis_risk":5,"migraine_risk":7,"frizz_risk":0,"updated_at":"2026-05-21T00:57:36.632445+05:30"},{"city":"Akola","state":"Maharashtra","latitude":20.7002,"longitude":77.0082,"temp":34.6,"humidity":39,"rain":0.0,"pressure":970.6,"uv_index":8.9,"wind_gusts":40.7,"aqi":67,"pm10":36.4,"pm2_5":25.1,"no2":8.7,"co":186.0,"o3":91.0,"so2":10.2,"mosquito_risk":0,"arthritis_risk":5,"migraine_risk":7,"frizz_risk":1,"updated_at":"2026-05-21T00:57:36.632453+05:30"},{"city":"Amravati","state":"Maharashtra","latitude":20.9374,"longitude":77.7796,"temp":35.6,"humidity":25,"rain":0.0,"pressure":962.5,"uv_index":8.9,"wind_gusts":33.8,"aqi":65,"pm10":37.0,"pm2_5":25.8,"no2":9.2,"co":198.0,"o3":86.0,"so2":7.9,"mosquito_risk":0,"arthritis_risk":5,"migraine_risk":10,"frizz_risk":0,"updated_at":"2026-05-21T00:57:36.632462+05:30"},{"city":"Latur","state":"Maharashtra","latitude":18.4088,"longitude":76.5604,"temp":30.5,"humidity":47,"rain":0.0,"pressure":937.0,"uv_index":9.05,"wind_gusts":38.5,"aqi":86,"pm10":40.5,"pm2_5":33.1,"no2":17.3,"co":183.0,"o3":82.0,"so2":7.9,"mosquito_risk":0,"arthritis_risk":5,"migraine_risk":7,"frizz_risk":1,"updated_at":"2026-05-21T00:57:36.632469+05:30"},{"city":"Nanded","state":"Maharashtra","latitude":19.1383,"longitude":77.3091,"temp":34.1,"humidity":34,"rain":0.0,"pressure":964.1,"uv_index":9.0,"wind_gusts":47.5,"aqi":85,"pm10":39.5,"pm2_5":29.0,"no2":15.0,"co":314.0,"o3":68.0,"so2":6.1,"mosquito_risk":0,"arthritis_risk":5,"migraine_risk":7,"frizz_risk":0,"updated_at":"2026-05-21T00:57:36.632477+05:30"},{"city":"Gulbarga","state":"Karnataka","latitude":17.3297,"longitude":76.8343,"temp":29.8,"humidity":55,"rain":0.0,"pressure":955.7,"uv_index":8.95,"wind_gusts":45.7,"aqi":85,"pm10":32.8,"pm2_5":24.2,"no2":8.3,"co":214.0,"o3":89.0,"so2":4.7,"mosquito_risk":4,"arthritis_risk":5,"migraine_risk":7,"frizz_risk":1,"updated_at":"2026-05-21T00:57:36.632484+05:30"},{"city":"Bidar","state":"Karnataka","latitude":17.9104,"longitude":77.5199,"temp":29.9,"humidity":47,"rain":0.0,"pressure":932.3,"uv_index":9.1,"wind_gusts":43.9,"aqi":89,"pm10":53.0,"pm2_5":43.2,"no2":38.0,"co":230.0,"o3":45.0,"so2":7.3,"mosquito_risk":4,"arthritis_risk":5,"migraine_risk":7,"frizz_risk":1,"updated_at":"2026-05-21T00:57:36.632492+05:30"},{"city":"Hospet","state":"Karnataka","latitude":15.2689,"longitude":76.3909,"temp":25.9,"humidity":83,"rain":0.0,"pressure":954.4,"uv_index":9.0,"wind_gusts":51.5,"aqi":39,"pm10":6.2,"pm2_5":5.4,"no2":6.8,"co":163.0,"o3":56.0,"so2":1.5,"mosquito_risk":7,"arthritis_risk":5,"migraine_risk":7,"frizz_risk":1,"updated_at":"2026-05-21T00:57:36.632499+05:30"},{"city":"Tirupur","state":"Tamil Nadu","latitude":11.1085,"longitude":77.3411,"temp":27.0,"humidity":79,"rain":0.0,"pressure":973.6,"uv_index":9.1,"wind_gusts":55.8,"aqi":40,"pm10":16.5,"pm2_5":15.2,"no2":21.8,"co":162.0,"o3":32.0,"so2":4.8,"mosquito_risk":7,"arthritis_risk":5,"migraine_risk":7,"frizz_risk":1,"updated_at":"2026-05-21T00:57:36.632506+05:30"},{"city":"Alappuzha","state":"Kerala","latitude":9.4981,"longitude":76.3388,"temp":28.8,"humidity":83,"rain":0.0,"pressure":1008.2,"uv_index":8.65,"wind_gusts":39.2,"aqi":36,"pm10":17.5,"pm2_5":15.1,"no2":11.5,"co":90.0,"o3":35.0,"so2":2.6,"mosquito_risk":7,"arthritis_risk":0,"migraine_risk":4,"frizz_risk":1,"updated_at":"2026-05-21T00:57:36.632513+05:30"},{"city":"Munnar","state":"Kerala","latitude":10.0889,"longitude":77.0595,"temp":17.7,"humidity":99,"rain":0.0,"pressure":856.4,"uv_index":9.25,"wind_gusts":31.7,"aqi":25,"pm10":8.3,"pm2_5":7.4,"no2":9.1,"co":118.0,"o3":34.0,"so2":2.0,"mosquito_risk":3,"arthritis_risk":10,"migraine_risk":7,"frizz_risk":1,"updated_at":"2026-05-21T00:57:36.632521+05:30"},{"city":"Silchar","state":"Assam","latitude":24.8333,"longitude":92.7789,"temp":25.6,"humidity":94,"rain":0.1,"pressure":1000.9,"uv_index":8.45,"wind_gusts":24.5,"aqi":143,"pm10":77.5,"pm2_5":56.5,"no2":18.6,"co":241.0,"o3":72.0,"so2":9.9,"mosquito_risk":10,"arthritis_risk":5,"migraine_risk":4,"frizz_risk":1,"updated_at":"2026-05-21T00:57:36.632528+05:30"},{"city":"Dibrugarh","state":"Assam","latitude":27.4728,"longitude":94.912,"temp":27.2,"humidity":86,"rain":0.0,"pressure":990.5,"uv_index":8.9,"wind_gusts":22.0,"aqi":77,"pm10":12.1,"pm2_5":11.2,"no2":17.1,"co":618.0,"o3":26.0,"so2":0.8,"mosquito_risk":7,"arthritis_risk":5,"migraine_risk":7,"frizz_risk":1,"updated_at":"2026-05-21T00:57:36.632535+05:30"}]