[{"city":"Delhi","state":"Delhi","latitude":28.6139,"longitude":77.209,"temp":17.5,"humidity":81,"rain":0.0,"pressure":988.7,"uv_index":5.85,"wind_gusts":37.1,"aqi":327,"pm10":279.4,"pm2_5":77.1,"mosquito_risk":3,"arthritis_risk":10,"migraine_risk":3,"frizz_risk":0,"updated_at":"2026-03-04T07:52:54.635067+05:30"},{"city":"Mumbai","state":"Maharashtra","latitude":19.076,"longitude":72.8777,"temp":27.5,"humidity":65,"rain":0.0,"pressure":1011.5,"uv_index":7.4,"wind_gusts":25.6,"aqi":130,"pm10":45.2,"pm2_5":44.6,"mosquito_risk":7,"arthritis_risk":0,"migraine_risk":4,"frizz_risk":1,"updated_at":"2026-03-04T07:52:54.635114+05:30"},{"city":"Bangalore","state":"Karnataka","latitude":12.9716,"longitude":77.5946,"temp":19.9,"humidity":58,"rain":0.0,"pressure":914.5,"uv_index":9.1,"wind_gusts":36.7,"aqi":96,"pm10":44.0,"pm2_5":42.1,"mosquito_risk":0,"arthritis_risk":5,"migraine_risk":7,"frizz_risk":0,"updated_at":"2026-03-04T07:52:54.635129+05:30"},{"city":"Hyderabad","state":"Telangana","latitude":17.385,"longitude":78.4867,"temp":21.6,"humidity":69,"rain":0.0,"pressure":957.1,"uv_index":8.4,"wind_gusts":24.5,"aqi":118,"pm10":66.1,"pm2_5":65.0,"mosquito_risk":3,"arthritis_risk":5,"migraine_risk":7,"frizz_risk":0,"updated_at":"2026-03-04T07:52:54.635138+05:30"},{"city":"Chennai","state":"Tamil Nadu","latitude":13.0827,"longitude":80.2707,"temp":23.2,"humidity":90,"rain":0.0,"pressure":1012.2,"uv_index":8.8,"wind_gusts":28.4,"aqi":115,"pm10":50.5,"pm2_5":45.6,"mosquito_risk":3,"arthritis_risk":0,"migraine_risk":4,"frizz_risk":1,"updated_at":"2026-03-04T07:52:54.635146+05:30"},{"city":"Kolkata","state":"West Bengal","latitude":22.5726,"longitude":88.3639,"temp":22.2,"humidity":74,"rain":0.0,"pressure":1011.7,"uv_index":7.75,"wind_gusts":18.7,"aqi":163,"pm10":167.2,"pm2_5":145.8,"mosquito_risk":3,"arthritis_risk":0,"migraine_risk":4,"frizz_risk":1,"updated_at":"2026-03-04T07:52:54.635153+05:30"},{"city":"Pune","state":"Maharashtra","latitude":18.5204,"longitude":73.8567,"temp":24.5,"humidity":52,"rain":0.0,"pressure":952.3,"uv_index":7.95,"wind_gusts":31.3,"aqi":79,"pm10":31.7,"pm2_5":31.1,"mosquito_risk":0,"arthritis_risk":5,"migraine_risk":7,"frizz_risk":0,"updated_at":"2026-03-04T07:52:54.635162+05:30"},{"city":"Ahmedabad","state":"Gujarat","latitude":23.0225,"longitude":72.5714,"temp":21.6,"humidity":63,"rain":0.0,"pressure":1008.0,"uv_index":7.2,"wind_gusts":19.1,"aqi":80,"pm10":28.8,"pm2_5":23.4,"mosquito_risk":3,"arthritis_risk":0,"migraine_risk":4,"frizz_risk":0,"updated_at":"2026-03-04T07:52:54.635169+05:30"},{"city":"Jaipur","state":"Rajasthan","latitude":26.9124,"longitude":75.7873,"temp":21.5,"humidity":36,"rain":0.0,"pressure":966.0,"uv_index":6.6,"wind_gusts":33.5,"aqi":97,"pm10":78.9,"pm2_5":33.9,"mosquito_risk":0,"arthritis_risk":5,"migraine_risk":7,"frizz_risk":0,"updated_at":"2026-03-04T07:52:54.635175+05:30"},{"city":"Lucknow","state":"Uttar Pradesh","latitude":26.8467,"longitude":80.9462,"temp":17.5,"humidity":72,"rain":0.0,"pressure":999.4,"uv_index":6.35,"wind_gusts":26.3,"aqi":153,"pm10":283.1,"pm2_5":85.9,"mosquito_risk":3,"arthritis_risk":5,"migraine_risk":7,"frizz_risk":0,"updated_at":"2026-03-04T07:52:54.635181+05:30"},{"city":"Kanpur","state":"Uttar Pradesh","latitude":26.4499,"longitude":80.3319,"temp":16.7,"humidity":76,"rain":0.0,"pressure":997.9,"uv_index":6.35,"wind_gusts":29.9,"aqi":176,"pm10":320.4,"pm2_5":74.0,"mosquito_risk":3,"arthritis_risk":5,"migraine_risk":7,"frizz_risk":0,"updated_at":"2026-03-04T07:52:54.635187+05:30"},{"city":"Chandigarh","state":"Chandigarh","latitude":30.7333,"longitude":76.7794,"temp":16.8,"humidity":71,"rain":0.0,"pressure":973.5,"uv_index":5.75,"wind_gusts":36.0,"aqi":86,"pm10":32.7,"pm2_5":29.8,"mosquito_risk":3,"arthritis_risk":5,"migraine_risk":3,"frizz_risk":0,"updated_at":"2026-03-04T07:52:54.635193+05:30"},{"city":"Srinagar","state":"Jammu and Kashmir","latitude":34.0837,"longitude":74.7973,"temp":5.5,"humidity":74,"rain":0.0,"pressure":844.1,"uv_index":6.4,"wind_gusts":15.8,"aqi":137,"pm10":70.3,"pm2_5":59.0,"mosquito_risk":3,"arthritis_risk":5,"migraine_risk":7,"frizz_risk":0,"updated_at":"2026-03-04T07:52:54.635199+05:30"},{"city":"Jammu","state":"Jammu and Kashmir","latitude":32.7266,"longitude":74.857,"temp":14.0,"humidity":70,"rain":0.0,"pressure":977.5,"uv_index":6.35,"wind_gusts":27.0,"aqi":97,"pm10":38.3,"pm2_5":34.9,"mosquito_risk":3,"arthritis_risk":5,"migraine_risk":7,"frizz_risk":0,"updated_at":"2026-03-04T07:52:54.635206+05:30"},{"city":"Amritsar","state":"Punjab","latitude":31.634,"longitude":74.8723,"temp":16.9,"humidity":72,"rain":0.0,"pressure":986.2,"uv_index":6.3,"wind_gusts":22.7,"aqi":117,"pm10":97.6,"pm2_5":82.0,"mosquito_risk":3,"arthritis_risk":5,"migraine_risk":7,"frizz_risk":0,"updated_at":"2026-03-04T07:52:54.635211+05:30"},{"city":"Ludhiana","state":"Punjab","latitude":30.901,"longitude":75.8573,"temp":17.9,"humidity":74,"rain":0.0,"pressure":984.3,"uv_index":6.0,"wind_gusts":32.4,"aqi":150,"pm10":80.3,"pm2_5":74.7,"mosquito_risk":3,"arthritis_risk":5,"migraine_risk":3,"frizz_risk":0,"updated_at":"2026-03-04T07:52:54.635218+05:30"},{"city":"Jalandhar","state":"Punjab","latitude":31.326,"longitude":75.5762,"temp":15.7,"humidity":86,"rain":0.0,"pressure":985.4,"uv_index":6.15,"wind_gusts":29.2,"aqi":151,"pm10":95.9,"pm2_5":89.6,"mosquito_risk":3,"arthritis_risk":10,"migraine_risk":7,"frizz_risk":0,"updated_at":"2026-03-04T07:52:54.635225+05:30"},{"city":"Dehradun","state":"Uttarakhand","latitude":30.6284,"longitude":78.0322,"temp":12.8,"humidity":48,"rain":0.0,"pressure":831.1,"uv_index":6.1,"wind_gusts":32.0,"aqi":59,"pm10":13.4,"pm2_5":12.3,"mosquito_risk":0,"arthritis_risk":5,"migraine_risk":7,"frizz_risk":0,"updated_at":"2026-03-04T07:52:54.635231+05:30"},{"city":"Shimla","state":"Himachal Pradesh","latitude":31.1048,"longitude":77.1734,"temp":11.0,"humidity":46,"rain":0.0,"pressure":785.4,"uv_index":6.15,"wind_gusts":55.1,"aqi":70,"pm10":27.0,"pm2_5":23.6,"mosquito_risk":0,"arthritis_risk":5,"migraine_risk":7,"frizz_risk":1,"updated_at":"2026-03-04T07:52:54.635236+05:30"},{"city":"Manali","state":"Himachal Pradesh","latitude":32.2396,"longitude":77.1887,"temp":17.4,"humidity":17,"rain":0.0,"pressure":824.1,"uv_index":7.35,"wind_gusts":32.4,"aqi":49,"pm10":21.0,"pm2_5":13.0,"mosquito_risk":0,"arthritis_risk":5,"migraine_risk":7,"frizz_risk":1,"updated_at":"2026-03-04T07:52:54.635242+05:30"},{"city":"Gurgaon","state":"Haryana","latitude":28.4595,"longitude":77.0266,"temp":15.6,"humidity":88,"rain":0.0,"pressure":987.3,"uv_index":5.95,"wind_gusts":36.0,"aqi":1204,"pm10":925.7,"pm2_5":132.7,"mosquito_risk":3,"arthritis_risk":10,"migraine_risk":3,"frizz_risk":0,"updated_at":"2026-03-04T07:52:54.635248+05:30"},{"city":"Noida","state":"Uttar Pradesh","latitude":28.5355,"longitude":77.391,"temp":18.0,"humidity":80,"rain":0.0,"pressure":990.2,"uv_index":5.85,"wind_gusts":36.4,"aqi":1204,"pm10":925.7,"pm2_5":132.7,"mosquito_risk":3,"arthritis_risk":5,"migraine_risk":3,"frizz_risk":0,"updated_at":"2026-03-04T07:52:54.635253+05:30"},{"city":"Ghaziabad","state":"Uttar Pradesh","latitude":28.6692,"longitude":77.4538,"temp":17.3,"humidity":84,"rain":0.0,"pressure":988.2,"uv_index":5.85,"wind_gusts":33.8,"aqi":254,"pm10":235.2,"pm2_5":71.9,"mosquito_risk":3,"arthritis_risk":10,"migraine_risk":3,"frizz_risk":0,"updated_at":"2026-03-04T07:52:54.635259+05:30"},{"city":"Faridabad","state":"Haryana","latitude":28.4089,"longitude":77.3178,"temp":18.1,"humidity":77,"rain":0.0,"pressure":989.5,"uv_index":5.9,"wind_gusts":34.6,"aqi":1204,"pm10":925.7,"pm2_5":132.7,"mosquito_risk":3,"arthritis_risk":5,"migraine_risk":3,"frizz_risk":0,"updated_at":"2026-03-04T07:52:54.635264+05:30"},{"city":"Meerut","state":"Uttar Pradesh","latitude":28.9845,"longitude":77.7064,"temp":15.8,"humidity":87,"rain":0.0,"pressure":986.7,"uv_index":5.7,"wind_gusts":36.4,"aqi":254,"pm10":235.2,"pm2_5":71.9,"mosquito_risk":3,"arthritis_risk":10,"migraine_risk":3,"frizz_risk":0,"updated_at":"2026-03-04T07:52:54.635270+05:30"},{"city":"Agra","state":"Uttar Pradesh","latitude":27.1767,"longitude":78.0081,"temp":16.3,"humidity":69,"rain":0.0,"pressure":993.9,"uv_index":6.2,"wind_gusts":37.4,"aqi":382,"pm10":223.5,"pm2_5":61.7,"mosquito_risk":3,"arthritis_risk":5,"migraine_risk":7,"frizz_risk":0,"updated_at":"2026-03-04T07:52:54.635275+05:30"},{"city":"Varanasi","state":"Uttar Pradesh","latitude":25.3176,"longitude":82.9739,"temp":18.8,"humidity":74,"rain":0.0,"pressure":1003.8,"uv_index":7.0,"wind_gusts":19.8,"aqi":142,"pm10":67.8,"pm2_5":45.4,"mosquito_risk":3,"arthritis_risk":5,"migraine_risk":4,"frizz_risk":0,"updated_at":"2026-03-04T07:52:54.635282+05:30"},{"city":"Prayagraj","state":"Uttar Pradesh","latitude":25.4358,"longitude":81.8463,"temp":17.9,"humidity":79,"rain":0.0,"pressure":1002.5,"uv_index":6.9,"wind_gusts":26.6,"aqi":143,"pm10":144.8,"pm2_5":52.2,"mosquito_risk":3,"arthritis_risk":5,"migraine_risk":4,"frizz_risk":0,"updated_at":"2026-03-04T07:52:54.635288+05:30"},{"city":"Gorakhpur","state":"Uttar Pradesh","latitude":26.7606,"longitude":83.3732,"temp":17.6,"humidity":88,"rain":0.0,"pressure":1003.5,"uv_index":6.75,"wind_gusts":7.9,"aqi":163,"pm10":111.1,"pm2_5":99.2,"mosquito_risk":3,"arthritis_risk":10,"migraine_risk":4,"frizz_risk":0,"updated_at":"2026-03-04T07:52:54.635294+05:30"},{"city":"Bareilly","state":"Uttar Pradesh","latitude":28.367,"longitude":79.4304,"temp":15.5,"humidity":88,"rain":0.0,"pressure":992.1,"uv_index":6.05,"wind_gusts":16.2,"aqi":157,"pm10":212.3,"pm2_5":99.4,"mosquito_risk":3,"arthritis_risk":10,"migraine_risk":7,"frizz_risk":0,"updated_at":"2026-03-04T07:52:54.635301+05:30"},{"city":"Aligarh","state":"Uttar Pradesh","latitude":27.8974,"longitude":78.088,"temp":16.4,"humidity":79,"rain":0.0,"pressure":991.4,"uv_index":5.95,"wind_gusts":32.8,"aqi":697,"pm10":491.7,"pm2_5":102.0,"mosquito_risk":3,"arthritis_risk":5,"migraine_risk":3,"frizz_risk":0,"updated_at":"2026-03-04T07:52:54.635306+05:30"},{"city":"Moradabad","state":"Uttar Pradesh","latitude":28.8386,"longitude":78.7733,"temp":14.9,"humidity":91,"rain":0.0,"pressure":988.9,"uv_index":5.85,"wind_gusts":19.8,"aqi":153,"pm10":157.9,"pm2_5":82.7,"mosquito_risk":3,"arthritis_risk":10,"migraine_risk":3,"frizz_risk":0,"updated_at":"2026-03-04T07:52:54.635311+05:30"},{"city":"Saharanpur","state":"Uttar Pradesh","latitude":29.9637,"longitude":77.546,"temp":14.4,"humidity":89,"rain":0.0,"pressure":980.4,"uv_index":5.5,"wind_gusts":40.3,"aqi":143,"pm10":103.1,"pm2_5":75.4,"mosquito_risk":3,"arthritis_risk":10,"migraine_risk":3,"frizz_risk":0,"updated_at":"2026-03-04T07:52:54.635317+05:30"},{"city":"Jhansi","state":"Uttar Pradesh","latitude":25.4484,"longitude":78.5685,"temp":17.8,"humidity":70,"rain":0.0,"pressure":984.1,"uv_index":6.8,"wind_gusts":33.8,"aqi":67,"pm10":19.6,"pm2_5":13.1,"mosquito_risk":3,"arthritis_risk":5,"migraine_risk":7,"frizz_risk":0,"updated_at":"2026-03-04T07:52:57.941158+05:30"},{"city":"Surat","state":"Gujarat","latitude":21.1702,"longitude":72.8311,"temp":23.1,"humidity":71,"rain":0.0,"pressure":1011.7,"uv_index":7.1,"wind_gusts":27.7,"aqi":155,"pm10":60.5,"pm2_5":58.1,"mosquito_risk":3,"arthritis_risk":0,"migraine_risk":4,"frizz_risk":1,"updated_at":"2026-03-04T07:52:57.941187+05:30"},{"city":"Vadodara","state":"Gujarat","latitude":22.3072,"longitude":73.1812,"temp":22.0,"humidity":69,"rain":0.0,"pressure":1010.0,"uv_index":7.2,"wind_gusts":19.1,"aqi":150,"pm10":48.7,"pm2_5":43.7,"mosquito_risk":3,"arthritis_risk":0,"migraine_risk":4,"frizz_risk":1,"updated_at":"2026-03-04T07:52:57.941197+05:30"},{"city":"Rajkot","state":"Gujarat","latitude":22.3039,"longitude":70.8022,"temp":20.9,"humidity":75,"rain":0.0,"pressure":1000.0,"uv_index":7.0,"wind_gusts":20.5,"aqi":62,"pm10":24.9,"pm2_5":18.2,"mosquito_risk":3,"arthritis_risk":5,"migraine_risk":4,"frizz_risk":1,"updated_at":"2026-03-04T07:52:57.941205+05:30"},{"city":"Thane","state":"Maharashtra","latitude":19.2183,"longitude":72.9781,"temp":24.8,"humidity":62,"rain":0.0,"pressure":1011.1,"uv_index":7.4,"wind_gusts":36.4,"aqi":130,"pm10":45.2,"pm2_5":44.6,"mosquito_risk":3,"arthritis_risk":0,"migraine_risk":4,"frizz_risk":1,"updated_at":"2026-03-04T07:52:57.941213+05:30"},{"city":"Nagpur","state":"Maharashtra","latitude":21.1458,"longitude":79.0882,"temp":20.3,"humidity":62,"rain":0.0,"pressure":978.6,"uv_index":7.75,"wind_gusts":22.3,"aqi":69,"pm10":24.2,"pm2_5":19.7,"mosquito_risk":3,"arthritis_risk":5,"migraine_risk":7,"frizz_risk":0,"updated_at":"2026-03-04T07:52:57.941220+05:30"},{"city":"Nashik","state":"Maharashtra","latitude":19.9975,"longitude":73.7898,"temp":22.2,"humidity":51,"rain":0.0,"pressure":949.6,"uv_index":7.55,"wind_gusts":24.1,"aqi":86,"pm10":32.5,"pm2_5":31.7,"mosquito_risk":0,"arthritis_risk":5,"migraine_risk":7,"frizz_risk":0,"updated_at":"2026-03-04T07:52:57.941227+05:30"},{"city":"Aurangabad","state":"Maharashtra","latitude":19.8762,"longitude":75.3433,"temp":20.5,"humidity":59,"rain":0.0,"pressure":948.1,"uv_index":8.1,"wind_gusts":29.5,"aqi":75,"pm10":31.4,"pm2_5":31.0,"mosquito_risk":0,"arthritis_risk":5,"migraine_risk":7,"frizz_risk":0,"updated_at":"2026-03-04T07:52:57.941234+05:30"},{"city":"Solapur","state":"Maharashtra","latitude":17.6599,"longitude":75.9064,"temp":22.4,"humidity":68,"rain":0.0,"pressure":961.0,"uv_index":8.35,"wind_gusts":18.7,"aqi":78,"pm10":24.7,"pm2_5":23.9,"mosquito_risk":3,"arthritis_risk":5,"migraine_risk":7,"frizz_risk":1,"updated_at":"2026-03-04T07:52:57.941241+05:30"},{"city":"Kolhapur","state":"Maharashtra","latitude":16.705,"longitude":74.2433,"temp":23.1,"humidity":57,"rain":0.0,"pressure":950.4,"uv_index":8.45,"wind_gusts":35.6,"aqi":158,"pm10":89.4,"pm2_5":88.9,"mosquito_risk":0,"arthritis_risk":5,"migraine_risk":7,"frizz_risk":0,"updated_at":"2026-03-04T07:52:57.941248+05:30"},{"city":"Goa","state":"Goa","latitude":15.2993,"longitude":74.124,"temp":25.6,"humidity":88,"rain":0.0,"pressure":1000.6,"uv_index":8.5,"wind_gusts":36.7,"aqi":97,"pm10":56.7,"pm2_5":54.0,"mosquito_risk":7,"arthritis_risk":5,"migraine_risk":4,"frizz_risk":1,"updated_at":"2026-03-04T07:52:57.941256+05:30"},{"city":"Jodhpur","state":"Rajasthan","latitude":26.2389,"longitude":73.0243,"temp":17.9,"humidity":63,"rain":0.0,"pressure":989.2,"uv_index":6.9,"wind_gusts":13.3,"aqi":76,"pm10":62.2,"pm2_5":33.4,"mosquito_risk":3,"arthritis_risk":5,"migraine_risk":7,"frizz_risk":0,"updated_at":"2026-03-04T07:52:57.941263+05:30"},{"city":"Udaipur","state":"Rajasthan","latitude":24.5854,"longitude":73.7125,"temp":17.4,"humidity":52,"rain":0.0,"pressure":951.8,"uv_index":7.5,"wind_gusts":13.3,"aqi":59,"pm10":33.8,"pm2_5":16.2,"mosquito_risk":0,"arthritis_risk":5,"migraine_risk":7,"frizz_risk":0,"updated_at":"2026-03-04T07:52:57.941269+05:30"},{"city":"Kota","state":"Rajasthan","latitude":25.2138,"longitude":75.8648,"temp":15.4,"humidity":79,"rain":0.0,"pressure":985.1,"uv_index":6.9,"wind_gusts":15.5,"aqi":85,"pm10":42.6,"pm2_5":35.0,"mosquito_risk":3,"arthritis_risk":5,"migraine_risk":7,"frizz_risk":0,"updated_at":"2026-03-04T07:52:57.941276+05:30"},{"city":"Bikaner","state":"Rajasthan","latitude":28.0229,"longitude":73.3119,"temp":20.1,"humidity":50,"rain":0.0,"pressure":988.0,"uv_index":6.6,"wind_gusts":23.8,"aqi":68,"pm10":36.9,"pm2_5":18.9,"mosquito_risk":0,"arthritis_risk":5,"migraine_risk":7,"frizz_risk":0,"updated_at":"2026-03-04T07:52:57.941283+05:30"},{"city":"Ajmer","state":"Rajasthan","latitude":26.4499,"longitude":74.6399,"temp":20.3,"humidity":36,"rain":0.0,"pressure":960.4,"uv_index":6.85,"wind_gusts":21.2,"aqi":71,"pm10":44.4,"pm2_5":24.1,"mosquito_risk":0,"arthritis_risk":5,"migraine_risk":7,"frizz_risk":0,"updated_at":"2026-03-04T07:52:57.941289+05:30"},{"city":"Gwalior","state":"Madhya Pradesh","latitude":26.2183,"longitude":78.1828,"temp":17.0,"humidity":72,"rain":0.0,"pressure":989.3,"uv_index":6.55,"wind_gusts":31.7,"aqi":88,"pm10":28.6,"pm2_5":23.9,"mosquito_risk":3,"arthritis_risk":5,"migraine_risk":7,"frizz_risk":0,"updated_at":"2026-03-04T07:52:57.941296+05:30"},{"city":"Indore","state":"Madhya Pradesh","latitude":22.7196,"longitude":75.8577,"temp":17.9,"humidity":69,"rain":0.0,"pressure":953.1,"uv_index":7.45,"wind_gusts":18.4,"aqi":84,"pm10":49.0,"pm2_5":41.7,"mosquito_risk":3,"arthritis_risk":5,"migraine_risk":7,"frizz_risk":0,"updated_at":"2026-03-04T07:52:57.941302+05:30"},{"city":"Bhopal","state":"Madhya Pradesh","latitude":23.2599,"longitude":77.4126,"temp":18.2,"humidity":56,"rain":0.0,"pressure":959.0,"uv_index":7.35,"wind_gusts":22.7,"aqi":76,"pm10":43.9,"pm2_5":34.8,"mosquito_risk":0,"arthritis_risk":5,"migraine_risk":7,"frizz_risk":0,"updated_at":"2026-03-04T07:52:57.941309+05:30"},{"city":"Jabalpur","state":"Madhya Pradesh","latitude":23.1815,"longitude":79.9864,"temp":19.0,"humidity":71,"rain":0.0,"pressure":967.4,"uv_index":7.45,"wind_gusts":24.5,"aqi":72,"pm10":43.2,"pm2_5":34.0,"mosquito_risk":3,"arthritis_risk":5,"migraine_risk":7,"frizz_risk":0,"updated_at":"2026-03-04T07:52:57.941316+05:30"},{"city":"Ujjain","state":"Madhya Pradesh","latitude":23.1765,"longitude":75.7885,"temp":17.9,"humidity":70,"rain":0.0,"pressure":959.1,"uv_index":7.4,"wind_gusts":16.2,"aqi":104,"pm10":63.1,"pm2_5":55.3,"mosquito_risk":3,"arthritis_risk":5,"migraine_risk":7,"frizz_risk":0,"updated_at":"2026-03-04T07:52:57.941324+05:30"},{"city":"Visakhapatnam","state":"Andhra Pradesh","latitude":17.6868,"longitude":83.2185,"temp":23.6,"humidity":92,"rain":0.0,"pressure":1009.1,"uv_index":8.4,"wind_gusts":35.3,"aqi":137,"pm10":60.1,"pm2_5":58.0,"mosquito_risk":3,"arthritis_risk":0,"migraine_risk":4,"frizz_risk":1,"updated_at":"2026-03-04T07:52:57.941330+05:30"},{"city":"Vijayawada","state":"Andhra Pradesh","latitude":16.5062,"longitude":80.648,"temp":24.3,"humidity":86,"rain":0.0,"pressure":1007.8,"uv_index":8.45,"wind_gusts":19.8,"aqi":132,"pm10":75.7,"pm2_5":71.7,"mosquito_risk":3,"arthritis_risk":5,"migraine_risk":4,"frizz_risk":1,"updated_at":"2026-03-04T07:52:57.941337+05:30"},{"city":"Guntur","state":"Andhra Pradesh","latitude":16.3067,"longitude":80.4365,"temp":24.0,"humidity":84,"rain":0.0,"pressure":1009.0,"uv_index":8.45,"wind_gusts":24.8,"aqi":121,"pm10":58.9,"pm2_5":55.2,"mosquito_risk":3,"arthritis_risk":0,"migraine_risk":4,"frizz_risk":1,"updated_at":"2026-03-04T07:52:57.941345+05:30"},{"city":"Nellore","state":"Andhra Pradesh","latitude":14.4426,"longitude":79.9865,"temp":24.2,"humidity":81,"rain":0.0,"pressure":1010.5,"uv_index":8.7,"wind_gusts":28.8,"aqi":112,"pm10":56.2,"pm2_5":52.7,"mosquito_risk":3,"arthritis_risk":0,"migraine_risk":4,"frizz_risk":1,"updated_at":"2026-03-04T07:52:57.941353+05:30"},{"city":"Kurnool","state":"Andhra Pradesh","latitude":15.8281,"longitude":78.0373,"temp":25.3,"humidity":55,"rain":0.0,"pressure":981.0,"uv_index":8.5,"wind_gusts":28.4,"aqi":100,"pm10":47.4,"pm2_5":44.5,"mosquito_risk":4,"arthritis_risk":5,"migraine_risk":7,"frizz_risk":0,"updated_at":"2026-03-04T07:52:57.941360+05:30"},{"city":"Kakinada","state":"Andhra Pradesh","latitude":16.9891,"longitude":82.2475,"temp":23.7,"humidity":85,"rain":0.0,"pressure":1012.9,"uv_index":8.4,"wind_gusts":33.1,"aqi":113,"pm10":49.8,"pm2_5":44.4,"mosquito_risk":3,"arthritis_risk":0,"migraine_risk":4,"frizz_risk":1,"updated_at":"2026-03-04T07:52:57.941367+05:30"},{"city":"Tirupati","state":"Andhra Pradesh","latitude":13.6288,"longitude":79.4192,"temp":22.0,"humidity":69,"rain":0.0,"pressure":996.3,"uv_index":8.8,"wind_gusts":36.4,"aqi":150,"pm10":76.6,"pm2_5":73.3,"mosquito_risk":3,"arthritis_risk":5,"migraine_risk":7,"frizz_risk":0,"updated_at":"2026-03-04T07:52:57.941373+05:30"},{"city":"Warangal","state":"Telangana","latitude":17.9689,"longitude":79.5941,"temp":22.2,"humidity":73,"rain":0.0,"pressure":983.3,"uv_index":8.25,"wind_gusts":23.0,"aqi":118,"pm10":65.7,"pm2_5":64.7,"mosquito_risk":3,"arthritis_risk":5,"migraine_risk":7,"frizz_risk":1,"updated_at":"2026-03-04T07:52:57.941380+05:30"},{"city":"Nizamabad","state":"Telangana","latitude":18.6725,"longitude":78.0941,"temp":20.8,"humidity":78,"rain":0.0,"pressure":969.1,"uv_index":8.1,"wind_gusts":25.2,"aqi":77,"pm10":32.0,"pm2_5":29.9,"mosquito_risk":3,"arthritis_risk":5,"migraine_risk":7,"frizz_risk":1,"updated_at":"2026-03-04T07:52:57.941387+05:30"},{"city":"Mysore","state":"Karnataka","latitude":12.2958,"longitude":76.6396,"temp":20.0,"humidity":73,"rain":0.0,"pressure":931.0,"uv_index":9.15,"wind_gusts":40.7,"aqi":102,"pm10":52.3,"pm2_5":50.2,"mosquito_risk":3,"arthritis_risk":5,"migraine_risk":7,"frizz_risk":0,"updated_at":"2026-03-04T07:52:57.941393+05:30"},{"city":"Mangalore","state":"Karnataka","latitude":12.9141,"longitude":74.856,"temp":27.3,"humidity":87,"rain":0.0,"pressure":1009.8,"uv_index":8.75,"wind_gusts":30.2,"aqi":77,"pm10":38.5,"pm2_5":35.4,"mosquito_risk":7,"arthritis_risk":0,"migraine_risk":4,"frizz_risk":1,"updated_at":"2026-03-04T07:52:57.941400+05:30"},{"city":"Hubli-Dharwad","state":"Karnataka","latitude":15.3647,"longitude":75.124,"temp":21.0,"humidity":95,"rain":0.0,"pressure":943.3,"uv_index":8.7,"wind_gusts":24.5,"aqi":94,"pm10":32.1,"pm2_5":31.8,"mosquito_risk":3,"arthritis_risk":5,"migraine_risk":7,"frizz_risk":1,"updated_at":"2026-03-04T07:52:57.941408+05:30"},{"city":"Belgaum","state":"Karnataka","latitude":15.8497,"longitude":74.4977,"temp":22.3,"humidity":80,"rain":0.0,"pressure":927.9,"uv_index":8.75,"wind_gusts":28.8,"aqi":131,"pm10":57.5,"pm2_5":56.1,"mosquito_risk":3,"arthritis_risk":5,"migraine_risk":7,"frizz_risk":1,"updated_at":"2026-03-04T07:53:01.249480+05:30"},{"city":"Coimbatore","state":"Tamil Nadu","latitude":11.0168,"longitude":76.9558,"temp":22.2,"humidity":82,"rain":0.0,"pressure":965.5,"uv_index":9.15,"wind_gusts":42.5,"aqi":104,"pm10":42.3,"pm2_5":41.2,"mosquito_risk":3,"arthritis_risk":5,"migraine_risk":7,"frizz_risk":1,"updated_at":"2026-03-04T07:53:01.249508+05:30"},{"city":"Madurai","state":"Tamil Nadu","latitude":9.9252,"longitude":78.1198,"temp":22.4,"humidity":87,"rain":0.0,"pressure":997.7,"uv_index":9.1,"wind_gusts":25.6,"aqi":99,"pm10":54.7,"pm2_5":53.8,"mosquito_risk":3,"arthritis_risk":5,"migraine_risk":7,"frizz_risk":1,"updated_at":"2026-03-04T07:53:01.249516+05:30"},{"city":"Trichy","state":"Tamil Nadu","latitude":10.7905,"longitude":78.7047,"temp":22.1,"humidity":93,"rain":0.0,"pressure":1004.8,"uv_index":9.0,"wind_gusts":30.2,"aqi":102,"pm10":69.6,"pm2_5":65.9,"mosquito_risk":3,"arthritis_risk":5,"migraine_risk":4,"frizz_risk":1,"updated_at":"2026-03-04T07:53:01.249522+05:30"},{"city":"Salem","state":"Tamil Nadu","latitude":11.6643,"longitude":78.146,"temp":21.6,"humidity":79,"rain":0.0,"pressure":981.6,"uv_index":9.05,"wind_gusts":35.6,"aqi":123,"pm10":69.2,"pm2_5":66.8,"mosquito_risk":3,"arthritis_risk":5,"migraine_risk":7,"frizz_risk":1,"updated_at":"2026-03-04T07:53:01.249528+05:30"},{"city":"Tirunelveli","state":"Tamil Nadu","latitude":8.7139,"longitude":77.7567,"temp":21.9,"humidity":78,"rain":0.0,"pressure":1007.7,"uv_index":9.15,"wind_gusts":33.5,"aqi":90,"pm10":39.5,"pm2_5":38.2,"mosquito_risk":3,"arthritis_risk":5,"migraine_risk":4,"frizz_risk":1,"updated_at":"2026-03-04T07:53:01.249535+05:30"},{"city":"Vellore","state":"Tamil Nadu","latitude":12.9165,"longitude":79.1325,"temp":20.8,"humidity":88,"rain":0.0,"pressure":989.5,"uv_index":8.85,"wind_gusts":40.0,"aqi":140,"pm10":86.4,"pm2_5":83.4,"mosquito_risk":3,"arthritis_risk":5,"migraine_risk":7,"frizz_risk":1,"updated_at":"2026-03-04T07:53:01.249541+05:30"},{"city":"Erode","state":"Tamil Nadu","latitude":11.341,"longitude":77.7172,"temp":22.4,"humidity":92,"rain":0.0,"pressure":993.6,"uv_index":9.05,"wind_gusts":29.2,"aqi":103,"pm10":48.0,"pm2_5":46.0,"mosquito_risk":3,"arthritis_risk":5,"migraine_risk":7,"frizz_risk":1,"updated_at":"2026-03-04T07:53:01.249547+05:30"},{"city":"Kochi","state":"Kerala","latitude":9.9312,"longitude":76.2673,"temp":26.7,"humidity":82,"rain":0.0,"pressure":1011.9,"uv_index":8.95,"wind_gusts":33.5,"aqi":104,"pm10":40.2,"pm2_5":38.6,"mosquito_risk":7,"arthritis_risk":0,"migraine_risk":4,"frizz_risk":1,"updated_at":"2026-03-04T07:53:01.249553+05:30"},{"city":"Thiruvananthapuram","state":"Kerala","latitude":8.5241,"longitude":76.9366,"temp":26.3,"humidity":82,"rain":0.0,"pressure":1011.2,"uv_index":9.0,"wind_gusts":26.6,"aqi":96,"pm10":42.4,"pm2_5":40.7,"mosquito_risk":7,"arthritis_risk":0,"migraine_risk":4,"frizz_risk":1,"updated_at":"2026-03-04T07:53:01.249559+05:30"},{"city":"Kozhikode","state":"Kerala","latitude":11.2588,"longitude":75.7804,"temp":26.7,"humidity":82,"rain":0.0,"pressure":1011.0,"uv_index":8.85,"wind_gusts":30.6,"aqi":78,"pm10":43.1,"pm2_5":39.2,"mosquito_risk":7,"arthritis_risk":0,"migraine_risk":4,"frizz_risk":1,"updated_at":"2026-03-04T07:53:01.249565+05:30"},{"city":"Thrissur","state":"Kerala","latitude":10.5276,"longitude":76.2144,"temp":25.0,"humidity":90,"rain":0.0,"pressure":1010.4,"uv_index":8.95,"wind_gusts":38.5,"aqi":109,"pm10":52.7,"pm2_5":51.1,"mosquito_risk":7,"arthritis_risk":0,"migraine_risk":4,"frizz_risk":1,"updated_at":"2026-03-04T07:53:01.249572+05:30"},{"city":"Kannur","state":"Kerala","latitude":11.8745,"longitude":75.3704,"temp":26.4,"humidity":81,"rain":0.0,"pressure":1010.1,"uv_index":8.8,"wind_gusts":34.6,"aqi":73,"pm10":34.3,"pm2_5":32.1,"mosquito_risk":7,"arthritis_risk":0,"migraine_risk":4,"frizz_risk":1,"updated_at":"2026-03-04T07:53:01.249578+05:30"},{"city":"Patna","state":"Bihar","latitude":25.5941,"longitude":85.1376,"temp":19.5,"humidity":72,"rain":0.0,"pressure":1007.1,"uv_index":7.2,"wind_gusts":16.6,"aqi":160,"pm10":157.9,"pm2_5":135.5,"mosquito_risk":3,"arthritis_risk":5,"migraine_risk":4,"frizz_risk":0,"updated_at":"2026-03-04T07:53:01.249583+05:30"},{"city":"Gaya","state":"Bihar","latitude":24.7914,"longitude":85.0002,"temp":19.1,"humidity":61,"rain":0.0,"pressure":1000.3,"uv_index":7.25,"wind_gusts":19.4,"aqi":134,"pm10":74.7,"pm2_5":58.0,"mosquito_risk":3,"arthritis_risk":5,"migraine_risk":4,"frizz_risk":0,"updated_at":"2026-03-04T07:53:01.249589+05:30"},{"city":"Muzaffarpur","state":"Bihar","latitude":26.1209,"longitude":85.3647,"temp":18.9,"humidity":78,"rain":0.0,"pressure":1006.9,"uv_index":7.15,"wind_gusts":13.7,"aqi":164,"pm10":143.0,"pm2_5":122.0,"mosquito_risk":3,"arthritis_risk":5,"migraine_risk":4,"frizz_risk":0,"updated_at":"2026-03-04T07:53:01.249594+05:30"},{"city":"Bhagalpur","state":"Bihar","latitude":25.2425,"longitude":87.0117,"temp":19.2,"humidity":83,"rain":0.0,"pressure":1007.8,"uv_index":7.2,"wind_gusts":10.1,"aqi":157,"pm10":146.2,"pm2_5":101.5,"mosquito_risk":3,"arthritis_risk":10,"migraine_risk":4,"frizz_risk":1,"updated_at":"2026-03-04T07:53:01.249600+05:30"},{"city":"Ranchi","state":"Jharkhand","latitude":23.3441,"longitude":85.3096,"temp":19.9,"humidity":45,"rain":0.0,"pressure":942.9,"uv_index":7.95,"wind_gusts":30.6,"aqi":84,"pm10":68.5,"pm2_5":41.4,"mosquito_risk":0,"arthritis_risk":5,"migraine_risk":7,"frizz_risk":0,"updated_at":"2026-03-04T07:53:01.249605+05:30"},{"city":"Jamshedpur","state":"Jharkhand","latitude":22.8046,"longitude":86.2029,"temp":18.7,"humidity":75,"rain":0.0,"pressure":997.1,"uv_index":7.85,"wind_gusts":22.3,"aqi":112,"pm10":94.3,"pm2_5":73.8,"mosquito_risk":3,"arthritis_risk":5,"migraine_risk":7,"frizz_risk":0,"updated_at":"2026-03-04T07:53:01.249611+05:30"},{"city":"Dhanbad","state":"Jharkhand","latitude":23.7957,"longitude":86.4304,"temp":20.1,"humidity":54,"rain":0.0,"pressure":986.1,"uv_index":7.7,"wind_gusts":24.5,"aqi":121,"pm10":99.2,"pm2_5":80.1,"mosquito_risk":0,"arthritis_risk":5,"migraine_risk":7,"frizz_risk":0,"updated_at":"2026-03-04T07:53:01.249616+05:30"},{"city":"Bokaro","state":"Jharkhand","latitude":23.6693,"longitude":86.1511,"temp":19.6,"humidity":60,"rain":0.0,"pressure":990.3,"uv_index":7.7,"wind_gusts":27.4,"aqi":127,"pm10":102.4,"pm2_5":85.0,"mosquito_risk":0,"arthritis_risk":5,"migraine_risk":7,"frizz_risk":0,"updated_at":"2026-03-04T07:53:01.249622+05:30"},{"city":"Bhubaneswar","state":"Odisha","latitude":20.2961,"longitude":85.8245,"temp":22.9,"humidity":96,"rain":0.0,"pressure":1008.3,"uv_index":8.15,"wind_gusts":29.5,"aqi":152,"pm10":91.7,"pm2_5":85.2,"mosquito_risk":3,"arthritis_risk":0,"migraine_risk":4,"frizz_risk":1,"updated_at":"2026-03-04T07:53:01.249628+05:30"},{"city":"Cuttack","state":"Odisha","latitude":20.4625,"longitude":85.8828,"temp":23.5,"humidity":92,"rain":0.0,"pressure":1010.2,"uv_index":8.15,"wind_gusts":28.8,"aqi":152,"pm10":91.7,"pm2_5":85.2,"mosquito_risk":3,"arthritis_risk":0,"migraine_risk":4,"frizz_risk":1,"updated_at":"2026-03-04T07:53:01.249633+05:30"},{"city":"Rourkela","state":"Odisha","latitude":22.2604,"longitude":84.8536,"temp":20.0,"humidity":71,"rain":0.0,"pressure":991.2,"uv_index":7.75,"wind_gusts":19.4,"aqi":94,"pm10":45.5,"pm2_5":33.6,"mosquito_risk":3,"arthritis_risk":5,"migraine_risk":7,"frizz_risk":0,"updated_at":"2026-03-04T07:53:01.249638+05:30"},{"city":"Raipur","state":"Chhattisgarh","latitude":21.2514,"longitude":81.6296,"temp":21.5,"humidity":55,"rain":0.0,"pressure":980.4,"uv_index":7.8,"wind_gusts":23.0,"aqi":137,"pm10":84.5,"pm2_5":78.7,"mosquito_risk":0,"arthritis_risk":5,"migraine_risk":7,"frizz_risk":0,"updated_at":"2026-03-04T07:53:01.249644+05:30"},{"city":"Bhilai","state":"Chhattisgarh","latitude":21.1938,"longitude":81.3509,"temp":21.1,"humidity":58,"rain":0.0,"pressure":980.7,"uv_index":7.8,"wind_gusts":20.9,"aqi":126,"pm10":59.8,"pm2_5":53.6,"mosquito_risk":0,"arthritis_risk":5,"migraine_risk":7,"frizz_risk":0,"updated_at":"2026-03-04T07:53:01.249649+05:30"},{"city":"Guwahati","state":"Assam","latitude":26.1158,"longitude":91.7086,"temp":23.0,"humidity":70,"rain":0.0,"pressure":1008.4,"uv_index":7.1,"wind_gusts":16.6,"aqi":154,"pm10":80.3,"pm2_5":73.3,"mosquito_risk":3,"arthritis_risk":0,"migraine_risk":4,"frizz_risk":1,"updated_at":"2026-03-04T07:53:01.249654+05:30"},{"city":"Agartala","state":"Tripura","latitude":23.8315,"longitude":91.2868,"temp":22.5,"humidity":87,"rain":0.0,"pressure":1011.8,"uv_index":7.5,"wind_gusts":22.7,"aqi":164,"pm10":91.5,"pm2_5":83.6,"mosquito_risk":3,"arthritis_risk":0,"migraine_risk":4,"frizz_risk":1,"updated_at":"2026-03-04T07:53:01.249659+05:30"},{"city":"Shillong","state":"Meghalaya","latitude":25.5788,"longitude":91.8933,"temp":14.2,"humidity":69,"rain":0.0,"pressure":859.8,"uv_index":7.5,"wind_gusts":25.2,"aqi":152,"pm10":69.8,"pm2_5":59.5,"mosquito_risk":3,"arthritis_risk":5,"migraine_risk":7,"frizz_risk":0,"updated_at":"2026-03-04T07:53:01.249665+05:30"},{"city":"Imphal","state":"Manipur","latitude":24.817,"longitude":93.9368,"temp":18.0,"humidity":63,"rain":0.0,"pressure":927.9,"uv_index":7.7,"wind_gusts":23.4,"aqi":147,"pm10":64.5,"pm2_5":59.6,"mosquito_risk":3,"arthritis_risk":5,"migraine_risk":7,"frizz_risk":0,"updated_at":"2026-03-04T07:53:01.249670+05:30"},{"city":"Aizawl","state":"Mizoram","latitude":23.7271,"longitude":92.7176,"temp":18.1,"humidity":70,"rain":0.0,"pressure":896.4,"uv_index":7.7,"wind_gusts":27.0,"aqi":156,"pm10":76.8,"pm2_5":73.3,"mosquito_risk":3,"arthritis_risk":5,"migraine_risk":7,"frizz_risk":0,"updated_at":"2026-03-04T07:53:01.249676+05:30"},{"city":"Kohima","state":"Nagaland","latitude":25.6701,"longitude":94.1077,"temp":15.6,"humidity":56,"rain":0.0,"pressure":858.9,"uv_index":7.55,"wind_gusts":36.0,"aqi":150,"pm10":62.9,"pm2_5":56.7,"mosquito_risk":0,"arthritis_risk":5,"migraine_risk":7,"frizz_risk":0,"updated_at":"2026-03-04T07:53:01.249681+05:30"},{"city":"Gangtok","state":"Sikkim","latitude":27.3314,"longitude":88.6138,"temp":12.8,"humidity":83,"rain":0.0,"pressure":840.7,"uv_index":7.45,"wind_gusts":20.9,"aqi":151,"pm10":60.5,"pm2_5":47.0,"mosquito_risk":3,"arthritis_risk":10,"migraine_risk":7,"frizz_risk":0,"updated_at":"2026-03-04T07:53:01.249686+05:30"},{"city":"Siliguri","state":"West Bengal","latitude":26.7271,"longitude":88.3953,"temp":21.1,"humidity":70,"rain":0.0,"pressure":1000.3,"uv_index":7.1,"wind_gusts":21.6,"aqi":161,"pm10":107.8,"pm2_5":93.4,"mosquito_risk":3,"arthritis_risk":5,"migraine_risk":4,"frizz_risk":0,"updated_at":"2026-03-04T07:53:04.574969+05:30"},{"city":"Durgapur","state":"West Bengal","latitude":23.5204,"longitude":87.3119,"temp":22.1,"humidity":59,"rain":0.0,"pressure":1001.2,"uv_index":7.7,"wind_gusts":24.1,"aqi":100,"pm10":90.3,"pm2_5":60.1,"mosquito_risk":0,"arthritis_risk":5,"migraine_risk":4,"frizz_risk":0,"updated_at":"2026-03-04T07:53:04.575000+05:30"},{"city":"Asansol","state":"West Bengal","latitude":23.6739,"longitude":86.9524,"temp":22.9,"humidity":59,"rain":0.0,"pressure":1000.0,"uv_index":7.7,"wind_gusts":22.3,"aqi":93,"pm10":69.4,"pm2_5":49.5,"mosquito_risk":0,"arthritis_risk":5,"migraine_risk":4,"frizz_risk":0,"updated_at":"2026-03-04T07:53:04.575009+05:30"},{"city":"Pondicherry","state":"Puducherry","latitude":11.9139,"longitude":79.8145,"temp":23.5,"humidity":91,"rain":0.0,"pressure":1013.4,"uv_index":8.85,"wind_gusts":27.7,"aqi":108,"pm10":45.9,"pm2_5":41.2,"mosquito_risk":3,"arthritis_risk":0,"migraine_risk":4,"frizz_risk":1,"updated_at":"2026-03-04T07:53:04.575017+05:30"},{"city":"Port Blair","state":"Andaman and Nicobar Islands","latitude":11.6234,"longitude":92.7265,"temp":27.0,"humidity":75,"rain":0.0,"pressure":1011.1,"uv_index":8.85,"wind_gusts":27.0,"aqi":80,"pm10":46.0,"pm2_5":36.0,"mosquito_risk":7,"arthritis_risk":0,"migraine_risk":4,"frizz_risk":1,"updated_at":"2026-03-04T07:53:04.575026+05:30"},{"city":"Haridwar","state":"Uttarakhand","latitude":29.9457,"longitude":78.1642,"temp":15.8,"humidity":90,"rain":0.0,"pressure":979.1,"uv_index":5.6,"wind_gusts":19.8,"aqi":122,"pm10":55.2,"pm2_5":49.7,"mosquito_risk":3,"arthritis_risk":10,"migraine_risk":3,"frizz_risk":0,"updated_at":"2026-03-04T07:53:04.575034+05:30"},{"city":"Rishikesh","state":"Uttarakhand","latitude":30.0869,"longitude":78.2676,"temp":16.7,"humidity":76,"rain":0.0,"pressure":971.4,"uv_index":5.65,"wind_gusts":23.8,"aqi":95,"pm10":37.3,"pm2_5":34.2,"mosquito_risk":3,"arthritis_risk":5,"migraine_risk":3,"frizz_risk":0,"updated_at":"2026-03-04T07:53:04.575042+05:30"},{"city":"Nainital","state":"Uttarakhand","latitude":29.3919,"longitude":79.4542,"temp":15.3,"humidity":59,"rain":0.0,"pressure":807.6,"uv_index":6.5,"wind_gusts":53.3,"aqi":129,"pm10":66.8,"pm2_5":54.9,"mosquito_risk":0,"arthritis_risk":5,"migraine_risk":7,"frizz_risk":0,"updated_at":"2026-03-04T07:53:04.575049+05:30"},{"city":"Mussoorie","state":"Uttarakhand","latitude":30.4599,"longitude":78.0664,"temp":14.9,"humidity":41,"rain":0.0,"pressure":804.4,"uv_index":6.0,"wind_gusts":40.3,"aqi":92,"pm10":32.0,"pm2_5":28.9,"mosquito_risk":0,"arthritis_risk":5,"migraine_risk":3,"frizz_risk":0,"updated_at":"2026-03-04T07:53:04.575057+05:30"},{"city":"Dharamshala","state":"Himachal Pradesh","latitude":32.219,"longitude":76.3234,"temp":20.1,"humidity":28,"rain":0.0,"pressure":872.7,"uv_index":6.25,"wind_gusts":29.5,"aqi":46,"pm10":19.0,"pm2_5":8.8,"mosquito_risk":0,"arthritis_risk":5,"migraine_risk":7,"frizz_risk":0,"updated_at":"2026-03-04T07:53:04.575064+05:30"},{"city":"Dalhousie","state":"Himachal Pradesh","latitude":32.5387,"longitude":75.971,"temp":15.5,"humidity":23,"rain":0.0,"pressure":806.4,"uv_index":6.45,"wind_gusts":23.8,"aqi":83,"pm10":26.9,"pm2_5":22.8,"mosquito_risk":0,"arthritis_risk":5,"migraine_risk":7,"frizz_risk":1,"updated_at":"2026-03-04T07:53:04.575072+05:30"},{"city":"Patiala","state":"Punjab","latitude":30.3398,"longitude":76.3869,"temp":16.6,"humidity":82,"rain":0.0,"pressure":983.4,"uv_index":5.65,"wind_gusts":34.2,"aqi":233,"pm10":273.8,"pm2_5":71.0,"mosquito_risk":3,"arthritis_risk":10,"migraine_risk":3,"frizz_risk":0,"updated_at":"2026-03-04T07:53:04.575080+05:30"},{"city":"Bhatinda","state":"Punjab","latitude":30.211,"longitude":74.9455,"temp":17.6,"humidity":85,"rain":0.0,"pressure":989.7,"uv_index":6.3,"wind_gusts":25.9,"aqi":148,"pm10":112.5,"pm2_5":87.8,"mosquito_risk":3,"arthritis_risk":10,"migraine_risk":7,"frizz_risk":0,"updated_at":"2026-03-04T07:53:04.575087+05:30"},{"city":"Rohtak","state":"Haryana","latitude":28.8955,"longitude":76.6066,"temp":16.4,"humidity":88,"rain":0.0,"pressure":987.6,"uv_index":5.85,"wind_gusts":35.6,"aqi":434,"pm10":268.2,"pm2_5":70.3,"mosquito_risk":3,"arthritis_risk":10,"migraine_risk":3,"frizz_risk":0,"updated_at":"2026-03-04T07:53:04.575095+05:30"},{"city":"Panipat","state":"Haryana","latitude":29.3909,"longitude":76.9635,"temp":16.6,"humidity":84,"rain":0.0,"pressure":985.7,"uv_index":5.65,"wind_gusts":35.3,"aqi":1036,"pm10":720.8,"pm2_5":120.6,"mosquito_risk":3,"arthritis_risk":10,"migraine_risk":3,"frizz_risk":0,"updated_at":"2026-03-04T07:53:04.575102+05:30"},{"city":"Mathura","state":"Uttar Pradesh","latitude":27.4924,"longitude":77.6737,"temp":20.0,"humidity":52,"rain":0.0,"pressure":992.9,"uv_index":6.1,"wind_gusts":34.6,"aqi":449,"pm10":311.1,"pm2_5":66.6,"mosquito_risk":0,"arthritis_risk":5,"migraine_risk":7,"frizz_risk":0,"updated_at":"2026-03-04T07:53:04.575109+05:30"},{"city":"Vrindavan","state":"Uttar Pradesh","latitude":27.5823,"longitude":77.7027,"temp":17.4,"humidity":69,"rain":0.0,"pressure":993.2,"uv_index":6.1,"wind_gusts":36.4,"aqi":449,"pm10":311.1,"pm2_5":66.6,"mosquito_risk":3,"arthritis_risk":5,"migraine_risk":7,"frizz_risk":0,"updated_at":"2026-03-04T07:53:04.575116+05:30"},{"city":"Ayodhya","state":"Uttar Pradesh","latitude":26.7922,"longitude":82.1998,"temp":17.6,"humidity":85,"rain":0.0,"pressure":1001.5,"uv_index":6.5,"wind_gusts":10.1,"aqi":156,"pm10":209.1,"pm2_5":109.4,"mosquito_risk":3,"arthritis_risk":10,"migraine_risk":4,"frizz_risk":0,"updated_at":"2026-03-04T07:53:04.575123+05:30"},{"city":"Ratlam","state":"Madhya Pradesh","latitude":23.3315,"longitude":75.0367,"temp":15.7,"humidity":94,"rain":0.0,"pressure":959.5,"uv_index":7.35,"wind_gusts":13.0,"aqi":99,"pm10":63.8,"pm2_5":56.8,"mosquito_risk":3,"arthritis_risk":10,"migraine_risk":7,"frizz_risk":0,"updated_at":"2026-03-04T07:53:04.575130+05:30"},{"city":"Sagar","state":"Madhya Pradesh","latitude":23.8388,"longitude":78.7378,"temp":17.7,"humidity":71,"rain":0.0,"pressure":955.6,"uv_index":7.3,"wind_gusts":24.5,"aqi":65,"pm10":29.6,"pm2_5":22.5,"mosquito_risk":3,"arthritis_risk":5,"migraine_risk":7,"frizz_risk":0,"updated_at":"2026-03-04T07:53:04.575137+05:30"},{"city":"Satna","state":"Madhya Pradesh","latitude":24.6005,"longitude":80.8322,"temp":19.2,"humidity":54,"rain":0.0,"pressure":977.4,"uv_index":7.25,"wind_gusts":36.4,"aqi":72,"pm10":28.2,"pm2_5":21.1,"mosquito_risk":0,"arthritis_risk":5,"migraine_risk":7,"frizz_risk":0,"updated_at":"2026-03-04T07:53:04.575143+05:30"},{"city":"Akola","state":"Maharashtra","latitude":20.7002,"longitude":77.0082,"temp":20.2,"humidity":66,"rain":0.0,"pressure":980.6,"uv_index":7.8,"wind_gusts":15.1,"aqi":73,"pm10":33.5,"pm2_5":29.5,"mosquito_risk":3,"arthritis_risk":5,"migraine_risk":7,"frizz_risk":0,"updated_at":"2026-03-04T07:53:04.575151+05:30"},{"city":"Amravati","state":"Maharashtra","latitude":20.9374,"longitude":77.7796,"temp":20.8,"humidity":59,"rain":0.0,"pressure":972.5,"uv_index":7.75,"wind_gusts":20.2,"aqi":69,"pm10":30.3,"pm2_5":25.7,"mosquito_risk":0,"arthritis_risk":5,"migraine_risk":7,"frizz_risk":0,"updated_at":"2026-03-04T07:53:04.575158+05:30"},{"city":"Latur","state":"Maharashtra","latitude":18.4088,"longitude":76.5604,"temp":21.3,"humidity":62,"rain":0.0,"pressure":943.7,"uv_index":8.25,"wind_gusts":23.8,"aqi":81,"pm10":41.2,"pm2_5":39.6,"mosquito_risk":3,"arthritis_risk":5,"migraine_risk":7,"frizz_risk":0,"updated_at":"2026-03-04T07:53:04.575165+05:30"},{"city":"Nanded","state":"Maharashtra","latitude":19.1383,"longitude":77.3091,"temp":22.9,"humidity":54,"rain":0.0,"pressure":973.4,"uv_index":8.0,"wind_gusts":17.3,"aqi":77,"pm10":48.9,"pm2_5":47.4,"mosquito_risk":0,"arthritis_risk":5,"migraine_risk":7,"frizz_risk":0,"updated_at":"2026-03-04T07:53:04.575172+05:30"},{"city":"Gulbarga","state":"Karnataka","latitude":17.3297,"longitude":76.8343,"temp":23.5,"humidity":58,"rain":0.0,"pressure":962.9,"uv_index":8.35,"wind_gusts":20.9,"aqi":90,"pm10":34.0,"pm2_5":33.2,"mosquito_risk":0,"arthritis_risk":5,"migraine_risk":7,"frizz_risk":0,"updated_at":"2026-03-04T07:53:04.575178+05:30"},{"city":"Bidar","state":"Karnataka","latitude":17.9104,"longitude":77.5199,"temp":22.5,"humidity":66,"rain":0.0,"pressure":939.2,"uv_index":8.3,"wind_gusts":26.6,"aqi":96,"pm10":41.8,"pm2_5":40.5,"mosquito_risk":3,"arthritis_risk":5,"migraine_risk":7,"frizz_risk":0,"updated_at":"2026-03-04T07:53:04.575185+05:30"},{"city":"Hospet","state":"Karnataka","latitude":15.2689,"longitude":76.3909,"temp":24.5,"humidity":54,"rain":0.0,"pressure":959.3,"uv_index":8.65,"wind_gusts":25.9,"aqi":103,"pm10":43.2,"pm2_5":41.8,"mosquito_risk":0,"arthritis_risk":5,"migraine_risk":7,"frizz_risk":0,"updated_at":"2026-03-04T07:53:04.575191+05:30"},{"city":"Tirupur","state":"Tamil Nadu","latitude":11.1085,"longitude":77.3411,"temp":22.3,"humidity":88,"rain":0.0,"pressure":979.6,"uv_index":9.15,"wind_gusts":32.0,"aqi":111,"pm10":53.8,"pm2_5":52.3,"mosquito_risk":3,"arthritis_risk":5,"migraine_risk":7,"frizz_risk":1,"updated_at":"2026-03-04T07:53:04.575198+05:30"},{"city":"Alappuzha","state":"Kerala","latitude":9.4981,"longitude":76.3388,"temp":26.5,"humidity":84,"rain":0.0,"pressure":1012.1,"uv_index":9.0,"wind_gusts":32.8,"aqi":101,"pm10":41.9,"pm2_5":40.3,"mosquito_risk":7,"arthritis_risk":0,"migraine_risk":4,"frizz_risk":1,"updated_at":"2026-03-04T07:53:04.575205+05:30"},{"city":"Munnar","state":"Kerala","latitude":10.0889,"longitude":77.0595,"temp":18.6,"humidity":57,"rain":0.0,"pressure":858.0,"uv_index":9.45,"wind_gusts":22.7,"aqi":91,"pm10":32.2,"pm2_5":31.4,"mosquito_risk":0,"arthritis_risk":5,"migraine_risk":7,"frizz_risk":0,"updated_at":"2026-03-04T07:53:04.575212+05:30"},{"city":"Silchar","state":"Assam","latitude":24.8333,"longitude":92.7789,"temp":22.4,"humidity":73,"rain":0.0,"pressure":1011.0,"uv_index":7.45,"wind_gusts":16.2,"aqi":155,"pm10":57.9,"pm2_5":53.3,"mosquito_risk":3,"arthritis_risk":0,"migraine_risk":4,"frizz_risk":1,"updated_at":"2026-03-04T07:53:04.575218+05:30"},{"city":"Dibrugarh","state":"Assam","latitude":27.4728,"longitude":94.912,"temp":20.8,"humidity":88,"rain":0.0,"pressure":1002.4,"uv_index":7.15,"wind_gusts":9.7,"aqi":131,"pm10":50.9,"pm2_5":44.0,"mosquito_risk":3,"arthritis_risk":5,"migraine_risk":4,"frizz_risk":1,"updated_at":"2026-03-04T07:53:04.575225+05:30"}]