[{"city":"Delhi","state":"Delhi","latitude":28.6139,"longitude":77.209,"temp":28.3,"humidity":56,"rain":0.0,"pressure":984.5,"uv_index":5.5,"wind_gusts":34.9,"aqi":145,"pm10":211.9,"pm2_5":40.6,"mosquito_risk":4,"arthritis_risk":5,"migraine_risk":3,"frizz_risk":1,"updated_at":"2026-04-04T15:11:54.639927+05:30"},{"city":"Mumbai","state":"Maharashtra","latitude":19.076,"longitude":72.8777,"temp":28.0,"humidity":75,"rain":0.0,"pressure":1009.1,"uv_index":7.9,"wind_gusts":19.8,"aqi":70,"pm10":43.5,"pm2_5":20.7,"mosquito_risk":7,"arthritis_risk":0,"migraine_risk":4,"frizz_risk":1,"updated_at":"2026-04-04T15:11:54.639976+05:30"},{"city":"Bangalore","state":"Karnataka","latitude":12.9716,"longitude":77.5946,"temp":29.7,"humidity":50,"rain":0.0,"pressure":911.4,"uv_index":9.1,"wind_gusts":25.9,"aqi":82,"pm10":26.1,"pm2_5":22.8,"mosquito_risk":4,"arthritis_risk":5,"migraine_risk":7,"frizz_risk":1,"updated_at":"2026-04-04T15:11:54.639991+05:30"},{"city":"Hyderabad","state":"Telangana","latitude":17.385,"longitude":78.4867,"temp":35.0,"humidity":26,"rain":0.0,"pressure":951.5,"uv_index":7.85,"wind_gusts":30.6,"aqi":72,"pm10":27.6,"pm2_5":21.1,"mosquito_risk":0,"arthritis_risk":5,"migraine_risk":7,"frizz_risk":0,"updated_at":"2026-04-04T15:11:54.640002+05:30"},{"city":"Chennai","state":"Tamil Nadu","latitude":13.0827,"longitude":80.2707,"temp":34.2,"humidity":61,"rain":0.0,"pressure":1005.3,"uv_index":8.8,"wind_gusts":33.8,"aqi":50,"pm10":21.4,"pm2_5":17.3,"mosquito_risk":3,"arthritis_risk":5,"migraine_risk":4,"frizz_risk":1,"updated_at":"2026-04-04T15:11:54.640012+05:30"},{"city":"Kolkata","state":"West Bengal","latitude":22.5726,"longitude":88.3639,"temp":34.7,"humidity":53,"rain":0.0,"pressure":1002.5,"uv_index":8.55,"wind_gusts":20.2,"aqi":149,"pm10":30.4,"pm2_5":26.2,"mosquito_risk":0,"arthritis_risk":5,"migraine_risk":4,"frizz_risk":1,"updated_at":"2026-04-04T15:11:54.640021+05:30"},{"city":"Pune","state":"Maharashtra","latitude":18.5204,"longitude":73.8567,"temp":34.2,"humidity":32,"rain":0.0,"pressure":948.5,"uv_index":8.5,"wind_gusts":40.0,"aqi":90,"pm10":27.0,"pm2_5":15.1,"mosquito_risk":0,"arthritis_risk":5,"migraine_risk":7,"frizz_risk":0,"updated_at":"2026-04-04T15:11:54.640033+05:30"},{"city":"Ahmedabad","state":"Gujarat","latitude":23.0225,"longitude":72.5714,"temp":33.7,"humidity":22,"rain":0.0,"pressure":1002.5,"uv_index":7.6,"wind_gusts":24.5,"aqi":53,"pm10":25.1,"pm2_5":10.0,"mosquito_risk":0,"arthritis_risk":5,"migraine_risk":4,"frizz_risk":0,"updated_at":"2026-04-04T15:11:54.640041+05:30"},{"city":"Jaipur","state":"Rajasthan","latitude":26.9124,"longitude":75.7873,"temp":30.2,"humidity":36,"rain":0.0,"pressure":960.2,"uv_index":7.4,"wind_gusts":30.6,"aqi":84,"pm10":151.8,"pm2_5":28.3,"mosquito_risk":0,"arthritis_risk":5,"migraine_risk":7,"frizz_risk":0,"updated_at":"2026-04-04T15:11:54.640049+05:30"},{"city":"Lucknow","state":"Uttar Pradesh","latitude":26.8467,"longitude":80.9462,"temp":34.0,"humidity":31,"rain":0.0,"pressure":992.5,"uv_index":6.35,"wind_gusts":37.1,"aqi":153,"pm10":134.6,"pm2_5":36.7,"mosquito_risk":0,"arthritis_risk":5,"migraine_risk":7,"frizz_risk":0,"updated_at":"2026-04-04T15:11:54.640057+05:30"},{"city":"Kanpur","state":"Uttar Pradesh","latitude":26.4499,"longitude":80.3319,"temp":33.0,"humidity":41,"rain":0.0,"pressure":991.1,"uv_index":6.5,"wind_gusts":31.0,"aqi":234,"pm10":326.9,"pm2_5":57.3,"mosquito_risk":0,"arthritis_risk":5,"migraine_risk":7,"frizz_risk":1,"updated_at":"2026-04-04T15:11:54.640065+05:30"},{"city":"Chandigarh","state":"Chandigarh","latitude":30.7333,"longitude":76.7794,"temp":24.2,"humidity":57,"rain":0.0,"pressure":970.7,"uv_index":5.9,"wind_gusts":36.7,"aqi":102,"pm10":137.8,"pm2_5":35.4,"mosquito_risk":0,"arthritis_risk":5,"migraine_risk":3,"frizz_risk":0,"updated_at":"2026-04-04T15:11:54.640072+05:30"},{"city":"Srinagar","state":"Jammu and Kashmir","latitude":34.0837,"longitude":74.7973,"temp":10.7,"humidity":85,"rain":0.1,"pressure":840.6,"uv_index":5.35,"wind_gusts":26.3,"aqi":65,"pm10":7.3,"pm2_5":6.7,"mosquito_risk":6,"arthritis_risk":10,"migraine_risk":3,"frizz_risk":0,"updated_at":"2026-04-04T15:11:54.640080+05:30"},{"city":"Jammu","state":"Jammu and Kashmir","latitude":32.7266,"longitude":74.857,"temp":20.4,"humidity":84,"rain":0.0,"pressure":975.9,"uv_index":6.8,"wind_gusts":30.6,"aqi":54,"pm10":44.2,"pm2_5":11.6,"mosquito_risk":3,"arthritis_risk":5,"migraine_risk":7,"frizz_risk":1,"updated_at":"2026-04-04T15:11:54.640088+05:30"},{"city":"Amritsar","state":"Punjab","latitude":31.634,"longitude":74.8723,"temp":23.8,"humidity":72,"rain":0.0,"pressure":983.5,"uv_index":6.15,"wind_gusts":21.2,"aqi":83,"pm10":81.3,"pm2_5":23.2,"mosquito_risk":3,"arthritis_risk":5,"migraine_risk":7,"frizz_risk":1,"updated_at":"2026-04-04T15:11:54.640095+05:30"},{"city":"Ludhiana","state":"Punjab","latitude":30.901,"longitude":75.8573,"temp":22.4,"humidity":49,"rain":0.0,"pressure":980.3,"uv_index":5.9,"wind_gusts":28.1,"aqi":139,"pm10":95.5,"pm2_5":29.0,"mosquito_risk":0,"arthritis_risk":5,"migraine_risk":3,"frizz_risk":0,"updated_at":"2026-04-04T15:11:54.640103+05:30"},{"city":"Jalandhar","state":"Punjab","latitude":31.326,"longitude":75.5762,"temp":23.1,"humidity":55,"rain":0.0,"pressure":981.5,"uv_index":6.45,"wind_gusts":25.2,"aqi":110,"pm10":106.9,"pm2_5":28.4,"mosquito_risk":0,"arthritis_risk":5,"migraine_risk":7,"frizz_risk":0,"updated_at":"2026-04-04T15:11:54.640112+05:30"},{"city":"Dehradun","state":"Uttarakhand","latitude":30.6284,"longitude":78.0322,"temp":17.8,"humidity":58,"rain":0.0,"pressure":831.4,"uv_index":4.35,"wind_gusts":35.3,"aqi":45,"pm10":17.9,"pm2_5":5.6,"mosquito_risk":0,"arthritis_risk":5,"migraine_risk":3,"frizz_risk":0,"updated_at":"2026-04-04T15:11:54.640119+05:30"},{"city":"Shimla","state":"Himachal Pradesh","latitude":31.1048,"longitude":77.1734,"temp":15.0,"humidity":65,"rain":0.0,"pressure":784.9,"uv_index":4.5,"wind_gusts":50.4,"aqi":55,"pm10":34.0,"pm2_5":10.9,"mosquito_risk":3,"arthritis_risk":5,"migraine_risk":3,"frizz_risk":0,"updated_at":"2026-04-04T15:11:54.640126+05:30"},{"city":"Manali","state":"Himachal Pradesh","latitude":32.2396,"longitude":77.1887,"temp":14.0,"humidity":77,"rain":0.0,"pressure":819.0,"uv_index":7.3,"wind_gusts":30.2,"aqi":61,"pm10":10.7,"pm2_5":4.4,"mosquito_risk":3,"arthritis_risk":5,"migraine_risk":7,"frizz_risk":0,"updated_at":"2026-04-04T15:11:54.640134+05:30"},{"city":"Gurgaon","state":"Haryana","latitude":28.4595,"longitude":77.0266,"temp":28.3,"humidity":53,"rain":0.0,"pressure":982.6,"uv_index":5.45,"wind_gusts":34.2,"aqi":326,"pm10":317.6,"pm2_5":49.2,"mosquito_risk":4,"arthritis_risk":5,"migraine_risk":3,"frizz_risk":1,"updated_at":"2026-04-04T15:11:54.640141+05:30"},{"city":"Noida","state":"Uttar Pradesh","latitude":28.5355,"longitude":77.391,"temp":28.5,"humidity":51,"rain":0.0,"pressure":986.0,"uv_index":5.5,"wind_gusts":31.7,"aqi":326,"pm10":317.6,"pm2_5":49.2,"mosquito_risk":4,"arthritis_risk":5,"migraine_risk":3,"frizz_risk":1,"updated_at":"2026-04-04T15:11:54.640147+05:30"},{"city":"Ghaziabad","state":"Uttar Pradesh","latitude":28.6692,"longitude":77.4538,"temp":28.5,"humidity":69,"rain":0.0,"pressure":984.7,"uv_index":5.55,"wind_gusts":27.0,"aqi":160,"pm10":173.2,"pm2_5":38.3,"mosquito_risk":7,"arthritis_risk":5,"migraine_risk":3,"frizz_risk":1,"updated_at":"2026-04-04T15:11:54.640154+05:30"},{"city":"Faridabad","state":"Haryana","latitude":28.4089,"longitude":77.3178,"temp":28.1,"humidity":53,"rain":0.0,"pressure":985.3,"uv_index":5.7,"wind_gusts":35.3,"aqi":326,"pm10":317.6,"pm2_5":49.2,"mosquito_risk":4,"arthritis_risk":5,"migraine_risk":3,"frizz_risk":1,"updated_at":"2026-04-04T15:11:54.640161+05:30"},{"city":"Meerut","state":"Uttar Pradesh","latitude":28.9845,"longitude":77.7064,"temp":25.2,"humidity":68,"rain":0.0,"pressure":983.3,"uv_index":5.85,"wind_gusts":32.4,"aqi":160,"pm10":173.2,"pm2_5":38.3,"mosquito_risk":7,"arthritis_risk":5,"migraine_risk":3,"frizz_risk":1,"updated_at":"2026-04-04T15:11:54.640167+05:30"},{"city":"Agra","state":"Uttar Pradesh","latitude":27.1767,"longitude":78.0081,"temp":29.9,"humidity":43,"rain":0.0,"pressure":988.4,"uv_index":6.55,"wind_gusts":34.6,"aqi":565,"pm10":397.7,"pm2_5":56.3,"mosquito_risk":4,"arthritis_risk":5,"migraine_risk":7,"frizz_risk":0,"updated_at":"2026-04-04T15:11:54.640175+05:30"},{"city":"Varanasi","state":"Uttar Pradesh","latitude":25.3176,"longitude":82.9739,"temp":34.8,"humidity":40,"rain":0.0,"pressure":996.0,"uv_index":6.05,"wind_gusts":33.1,"aqi":83,"pm10":62.6,"pm2_5":25.0,"mosquito_risk":0,"arthritis_risk":5,"migraine_risk":7,"frizz_risk":1,"updated_at":"2026-04-04T15:11:54.640184+05:30"},{"city":"Prayagraj","state":"Uttar Pradesh","latitude":25.4358,"longitude":81.8463,"temp":34.4,"humidity":41,"rain":0.0,"pressure":995.3,"uv_index":5.45,"wind_gusts":32.8,"aqi":86,"pm10":106.6,"pm2_5":34.7,"mosquito_risk":0,"arthritis_risk":5,"migraine_risk":3,"frizz_risk":1,"updated_at":"2026-04-04T15:11:54.640192+05:30"},{"city":"Gorakhpur","state":"Uttar Pradesh","latitude":26.7606,"longitude":83.3732,"temp":37.5,"humidity":25,"rain":0.0,"pressure":994.5,"uv_index":6.8,"wind_gusts":45.7,"aqi":95,"pm10":47.0,"pm2_5":20.8,"mosquito_risk":0,"arthritis_risk":5,"migraine_risk":10,"frizz_risk":0,"updated_at":"2026-04-04T15:11:54.640199+05:30"},{"city":"Bareilly","state":"Uttar Pradesh","latitude":28.367,"longitude":79.4304,"temp":30.5,"humidity":36,"rain":0.0,"pressure":986.8,"uv_index":5.3,"wind_gusts":30.6,"aqi":119,"pm10":56.5,"pm2_5":20.1,"mosquito_risk":0,"arthritis_risk":5,"migraine_risk":3,"frizz_risk":0,"updated_at":"2026-04-04T15:11:54.640206+05:30"},{"city":"Aligarh","state":"Uttar Pradesh","latitude":27.8974,"longitude":78.088,"temp":28.0,"humidity":55,"rain":0.0,"pressure":986.7,"uv_index":5.3,"wind_gusts":29.2,"aqi":469,"pm10":244.0,"pm2_5":44.0,"mosquito_risk":4,"arthritis_risk":5,"migraine_risk":3,"frizz_risk":1,"updated_at":"2026-04-04T15:11:54.640213+05:30"},{"city":"Moradabad","state":"Uttar Pradesh","latitude":28.8386,"longitude":78.7733,"temp":29.0,"humidity":53,"rain":0.0,"pressure":984.3,"uv_index":5.75,"wind_gusts":30.6,"aqi":142,"pm10":78.7,"pm2_5":26.0,"mosquito_risk":4,"arthritis_risk":5,"migraine_risk":3,"frizz_risk":1,"updated_at":"2026-04-04T15:11:54.640220+05:30"},{"city":"Saharanpur","state":"Uttar Pradesh","latitude":29.9637,"longitude":77.546,"temp":24.2,"humidity":67,"rain":0.0,"pressure":977.5,"uv_index":6.15,"wind_gusts":38.5,"aqi":156,"pm10":103.1,"pm2_5":30.5,"mosquito_risk":3,"arthritis_risk":5,"migraine_risk":7,"frizz_risk":1,"updated_at":"2026-04-04T15:11:54.640227+05:30"},{"city":"Jhansi","state":"Uttar Pradesh","latitude":25.4484,"longitude":78.5685,"temp":31.6,"humidity":43,"rain":0.0,"pressure":978.2,"uv_index":6.6,"wind_gusts":38.2,"aqi":72,"pm10":70.1,"pm2_5":26.0,"mosquito_risk":0,"arthritis_risk":5,"migraine_risk":7,"frizz_risk":1,"updated_at":"2026-04-04T15:11:57.935225+05:30"},{"city":"Surat","state":"Gujarat","latitude":21.1702,"longitude":72.8311,"temp":30.4,"humidity":49,"rain":0.0,"pressure":1007.7,"uv_index":7.6,"wind_gusts":25.6,"aqi":78,"pm10":66.1,"pm2_5":31.4,"mosquito_risk":0,"arthritis_risk":5,"migraine_risk":4,"frizz_risk":1,"updated_at":"2026-04-04T15:11:57.935256+05:30"},{"city":"Vadodara","state":"Gujarat","latitude":22.3072,"longitude":73.1812,"temp":33.5,"humidity":35,"rain":0.0,"pressure":1004.6,"uv_index":7.6,"wind_gusts":25.9,"aqi":73,"pm10":46.7,"pm2_5":18.3,"mosquito_risk":0,"arthritis_risk":5,"migraine_risk":4,"frizz_risk":0,"updated_at":"2026-04-04T15:11:57.935266+05:30"},{"city":"Rajkot","state":"Gujarat","latitude":22.3039,"longitude":70.8022,"temp":32.9,"humidity":30,"rain":0.0,"pressure":994.7,"uv_index":7.55,"wind_gusts":32.0,"aqi":48,"pm10":24.9,"pm2_5":11.8,"mosquito_risk":0,"arthritis_risk":5,"migraine_risk":7,"frizz_risk":0,"updated_at":"2026-04-04T15:11:57.935296+05:30"},{"city":"Thane","state":"Maharashtra","latitude":19.2183,"longitude":72.9781,"temp":31.0,"humidity":60,"rain":0.0,"pressure":1008.7,"uv_index":7.9,"wind_gusts":35.6,"aqi":70,"pm10":43.5,"pm2_5":20.7,"mosquito_risk":0,"arthritis_risk":0,"migraine_risk":4,"frizz_risk":1,"updated_at":"2026-04-04T15:11:57.935304+05:30"},{"city":"Nagpur","state":"Maharashtra","latitude":21.1458,"longitude":79.0882,"temp":33.1,"humidity":43,"rain":0.0,"pressure":972.7,"uv_index":8.15,"wind_gusts":29.5,"aqi":94,"pm10":40.3,"pm2_5":33.6,"mosquito_risk":0,"arthritis_risk":5,"migraine_risk":7,"frizz_risk":1,"updated_at":"2026-04-04T15:11:57.935312+05:30"},{"city":"Nashik","state":"Maharashtra","latitude":19.9975,"longitude":73.7898,"temp":29.9,"humidity":43,"rain":0.0,"pressure":946.0,"uv_index":8.15,"wind_gusts":37.8,"aqi":56,"pm10":20.4,"pm2_5":8.7,"mosquito_risk":4,"arthritis_risk":5,"migraine_risk":7,"frizz_risk":0,"updated_at":"2026-04-04T15:11:57.935319+05:30"},{"city":"Aurangabad","state":"Maharashtra","latitude":19.8762,"longitude":75.3433,"temp":34.8,"humidity":21,"rain":0.0,"pressure":943.8,"uv_index":8.85,"wind_gusts":35.6,"aqi":66,"pm10":30.2,"pm2_5":14.5,"mosquito_risk":0,"arthritis_risk":5,"migraine_risk":7,"frizz_risk":0,"updated_at":"2026-04-04T15:11:57.935326+05:30"},{"city":"Solapur","state":"Maharashtra","latitude":17.6599,"longitude":75.9064,"temp":34.6,"humidity":32,"rain":0.0,"pressure":956.3,"uv_index":8.9,"wind_gusts":22.7,"aqi":103,"pm10":37.4,"pm2_5":30.0,"mosquito_risk":0,"arthritis_risk":5,"migraine_risk":7,"frizz_risk":0,"updated_at":"2026-04-04T15:11:57.935333+05:30"},{"city":"Kolhapur","state":"Maharashtra","latitude":16.705,"longitude":74.2433,"temp":32.8,"humidity":34,"rain":0.0,"pressure":947.8,"uv_index":8.95,"wind_gusts":41.0,"aqi":97,"pm10":23.7,"pm2_5":19.2,"mosquito_risk":0,"arthritis_risk":5,"migraine_risk":7,"frizz_risk":0,"updated_at":"2026-04-04T15:11:57.935340+05:30"},{"city":"Goa","state":"Goa","latitude":15.2993,"longitude":74.124,"temp":31.1,"humidity":61,"rain":0.0,"pressure":997.7,"uv_index":8.25,"wind_gusts":33.8,"aqi":70,"pm10":24.6,"pm2_5":15.8,"mosquito_risk":3,"arthritis_risk":5,"migraine_risk":7,"frizz_risk":1,"updated_at":"2026-04-04T15:11:57.935347+05:30"},{"city":"Jodhpur","state":"Rajasthan","latitude":26.2389,"longitude":73.0243,"temp":30.7,"humidity":28,"rain":0.0,"pressure":983.9,"uv_index":7.35,"wind_gusts":28.8,"aqi":99,"pm10":85.7,"pm2_5":14.7,"mosquito_risk":0,"arthritis_risk":5,"migraine_risk":7,"frizz_risk":0,"updated_at":"2026-04-04T15:11:57.935354+05:30"},{"city":"Udaipur","state":"Rajasthan","latitude":24.5854,"longitude":73.7125,"temp":29.2,"humidity":25,"rain":0.0,"pressure":947.0,"uv_index":7.6,"wind_gusts":37.4,"aqi":55,"pm10":20.0,"pm2_5":7.6,"mosquito_risk":4,"arthritis_risk":5,"migraine_risk":7,"frizz_risk":0,"updated_at":"2026-04-04T15:11:57.935361+05:30"},{"city":"Kota","state":"Rajasthan","latitude":25.2138,"longitude":75.8648,"temp":32.0,"humidity":34,"rain":0.0,"pressure":979.2,"uv_index":7.8,"wind_gusts":40.7,"aqi":65,"pm10":43.3,"pm2_5":14.8,"mosquito_risk":0,"arthritis_risk":5,"migraine_risk":7,"frizz_risk":0,"updated_at":"2026-04-04T15:11:57.935368+05:30"},{"city":"Bikaner","state":"Rajasthan","latitude":28.0229,"longitude":73.3119,"temp":29.7,"humidity":26,"rain":0.0,"pressure":983.1,"uv_index":7.0,"wind_gusts":29.9,"aqi":73,"pm10":45.8,"pm2_5":12.3,"mosquito_risk":4,"arthritis_risk":5,"migraine_risk":7,"frizz_risk":0,"updated_at":"2026-04-04T15:11:57.935375+05:30"},{"city":"Ajmer","state":"Rajasthan","latitude":26.4499,"longitude":74.6399,"temp":29.2,"humidity":30,"rain":0.0,"pressure":954.9,"uv_index":7.45,"wind_gusts":36.7,"aqi":74,"pm10":31.3,"pm2_5":11.4,"mosquito_risk":4,"arthritis_risk":5,"migraine_risk":7,"frizz_risk":0,"updated_at":"2026-04-04T15:11:57.935381+05:30"},{"city":"Gwalior","state":"Madhya Pradesh","latitude":26.2183,"longitude":78.1828,"temp":29.2,"humidity":49,"rain":0.0,"pressure":983.7,"uv_index":7.15,"wind_gusts":33.1,"aqi":109,"pm10":121.1,"pm2_5":29.2,"mosquito_risk":4,"arthritis_risk":5,"migraine_risk":7,"frizz_risk":1,"updated_at":"2026-04-04T15:11:57.935388+05:30"},{"city":"Indore","state":"Madhya Pradesh","latitude":22.7196,"longitude":75.8577,"temp":29.0,"humidity":39,"rain":0.0,"pressure":948.2,"uv_index":8.3,"wind_gusts":43.9,"aqi":63,"pm10":35.5,"pm2_5":19.8,"mosquito_risk":4,"arthritis_risk":5,"migraine_risk":7,"frizz_risk":0,"updated_at":"2026-04-04T15:11:57.935394+05:30"},{"city":"Bhopal","state":"Madhya Pradesh","latitude":23.2599,"longitude":77.4126,"temp":33.0,"humidity":32,"rain":0.0,"pressure":953.6,"uv_index":8.25,"wind_gusts":40.0,"aqi":65,"pm10":29.3,"pm2_5":17.3,"mosquito_risk":0,"arthritis_risk":5,"migraine_risk":7,"frizz_risk":0,"updated_at":"2026-04-04T15:11:57.935400+05:30"},{"city":"Jabalpur","state":"Madhya Pradesh","latitude":23.1815,"longitude":79.9864,"temp":32.2,"humidity":48,"rain":0.0,"pressure":962.3,"uv_index":6.45,"wind_gusts":30.6,"aqi":78,"pm10":17.6,"pm2_5":14.1,"mosquito_risk":0,"arthritis_risk":5,"migraine_risk":7,"frizz_risk":1,"updated_at":"2026-04-04T15:11:57.935407+05:30"},{"city":"Ujjain","state":"Madhya Pradesh","latitude":23.1765,"longitude":75.7885,"temp":28.3,"humidity":51,"rain":0.0,"pressure":954.4,"uv_index":8.2,"wind_gusts":37.4,"aqi":63,"pm10":30.2,"pm2_5":14.3,"mosquito_risk":4,"arthritis_risk":5,"migraine_risk":7,"frizz_risk":1,"updated_at":"2026-04-04T15:11:57.935414+05:30"},{"city":"Visakhapatnam","state":"Andhra Pradesh","latitude":17.6868,"longitude":83.2185,"temp":32.7,"humidity":58,"rain":0.0,"pressure":1001.6,"uv_index":8.25,"wind_gusts":38.2,"aqi":63,"pm10":34.7,"pm2_5":31.8,"mosquito_risk":0,"arthritis_risk":5,"migraine_risk":4,"frizz_risk":1,"updated_at":"2026-04-04T15:11:57.935420+05:30"},{"city":"Vijayawada","state":"Andhra Pradesh","latitude":16.5062,"longitude":80.648,"temp":35.1,"humidity":44,"rain":0.0,"pressure":1000.5,"uv_index":9.0,"wind_gusts":19.8,"aqi":47,"pm10":26.5,"pm2_5":21.4,"mosquito_risk":0,"arthritis_risk":5,"migraine_risk":7,"frizz_risk":1,"updated_at":"2026-04-04T15:11:57.935427+05:30"},{"city":"Guntur","state":"Andhra Pradesh","latitude":16.3067,"longitude":80.4365,"temp":35.3,"humidity":41,"rain":0.0,"pressure":1001.7,"uv_index":8.85,"wind_gusts":26.3,"aqi":45,"pm10":26.1,"pm2_5":20.5,"mosquito_risk":0,"arthritis_risk":5,"migraine_risk":7,"frizz_risk":1,"updated_at":"2026-04-04T15:11:57.935434+05:30"},{"city":"Nellore","state":"Andhra Pradesh","latitude":14.4426,"longitude":79.9865,"temp":37.4,"humidity":36,"rain":0.0,"pressure":1003.4,"uv_index":8.55,"wind_gusts":31.3,"aqi":48,"pm10":21.0,"pm2_5":18.7,"mosquito_risk":0,"arthritis_risk":5,"migraine_risk":7,"frizz_risk":1,"updated_at":"2026-04-04T15:11:57.935440+05:30"},{"city":"Kurnool","state":"Andhra Pradesh","latitude":15.8281,"longitude":78.0373,"temp":37.5,"humidity":30,"rain":0.0,"pressure":974.9,"uv_index":8.0,"wind_gusts":22.0,"aqi":61,"pm10":17.1,"pm2_5":12.8,"mosquito_risk":0,"arthritis_risk":5,"migraine_risk":10,"frizz_risk":1,"updated_at":"2026-04-04T15:11:57.935448+05:30"},{"city":"Kakinada","state":"Andhra Pradesh","latitude":16.9891,"longitude":82.2475,"temp":37.5,"humidity":42,"rain":0.0,"pressure":1004.7,"uv_index":8.8,"wind_gusts":33.5,"aqi":32,"pm10":11.4,"pm2_5":8.0,"mosquito_risk":0,"arthritis_risk":5,"migraine_risk":7,"frizz_risk":1,"updated_at":"2026-04-04T15:11:57.935455+05:30"},{"city":"Tirupati","state":"Andhra Pradesh","latitude":13.6288,"longitude":79.4192,"temp":36.0,"humidity":32,"rain":0.0,"pressure":989.0,"uv_index":8.5,"wind_gusts":23.4,"aqi":59,"pm10":20.3,"pm2_5":17.8,"mosquito_risk":0,"arthritis_risk":5,"migraine_risk":10,"frizz_risk":1,"updated_at":"2026-04-04T15:11:57.935462+05:30"},{"city":"Warangal","state":"Telangana","latitude":17.9689,"longitude":79.5941,"temp":34.2,"humidity":44,"rain":0.0,"pressure":976.9,"uv_index":8.05,"wind_gusts":28.8,"aqi":80,"pm10":35.2,"pm2_5":28.1,"mosquito_risk":0,"arthritis_risk":5,"migraine_risk":7,"frizz_risk":1,"updated_at":"2026-04-04T15:11:57.935468+05:30"},{"city":"Nizamabad","state":"Telangana","latitude":18.6725,"longitude":78.0941,"temp":33.2,"humidity":43,"rain":0.0,"pressure":964.0,"uv_index":8.55,"wind_gusts":27.0,"aqi":122,"pm10":38.9,"pm2_5":30.6,"mosquito_risk":0,"arthritis_risk":5,"migraine_risk":7,"frizz_risk":1,"updated_at":"2026-04-04T15:11:57.935474+05:30"},{"city":"Mysore","state":"Karnataka","latitude":12.2958,"longitude":76.6396,"temp":28.7,"humidity":59,"rain":0.0,"pressure":928.1,"uv_index":9.05,"wind_gusts":31.7,"aqi":84,"pm10":23.3,"pm2_5":20.1,"mosquito_risk":4,"arthritis_risk":5,"migraine_risk":7,"frizz_risk":1,"updated_at":"2026-04-04T15:11:57.935480+05:30"},{"city":"Mangalore","state":"Karnataka","latitude":12.9141,"longitude":74.856,"temp":28.7,"humidity":81,"rain":0.0,"pressure":1006.1,"uv_index":8.2,"wind_gusts":19.8,"aqi":61,"pm10":15.8,"pm2_5":12.0,"mosquito_risk":7,"arthritis_risk":5,"migraine_risk":4,"frizz_risk":1,"updated_at":"2026-04-04T15:11:57.935487+05:30"},{"city":"Hubli-Dharwad","state":"Karnataka","latitude":15.3647,"longitude":75.124,"temp":33.5,"humidity":34,"rain":0.0,"pressure":940.2,"uv_index":8.6,"wind_gusts":37.1,"aqi":70,"pm10":24.9,"pm2_5":20.3,"mosquito_risk":0,"arthritis_risk":5,"migraine_risk":7,"frizz_risk":0,"updated_at":"2026-04-04T15:11:57.935493+05:30"},{"city":"Belgaum","state":"Karnataka","latitude":15.8497,"longitude":74.4977,"temp":30.3,"humidity":50,"rain":0.0,"pressure":926.0,"uv_index":9.15,"wind_gusts":35.6,"aqi":77,"pm10":23.5,"pm2_5":18.8,"mosquito_risk":0,"arthritis_risk":5,"migraine_risk":7,"frizz_risk":1,"updated_at":"2026-04-04T15:12:01.227612+05:30"},{"city":"Coimbatore","state":"Tamil Nadu","latitude":11.0168,"longitude":76.9558,"temp":31.8,"humidity":53,"rain":0.0,"pressure":961.1,"uv_index":9.15,"wind_gusts":48.6,"aqi":84,"pm10":16.5,"pm2_5":15.1,"mosquito_risk":0,"arthritis_risk":5,"migraine_risk":7,"frizz_risk":1,"updated_at":"2026-04-04T15:12:01.227643+05:30"},{"city":"Madurai","state":"Tamil Nadu","latitude":9.9252,"longitude":78.1198,"temp":36.6,"humidity":32,"rain":0.0,"pressure":990.3,"uv_index":8.7,"wind_gusts":26.3,"aqi":81,"pm10":18.9,"pm2_5":17.6,"mosquito_risk":0,"arthritis_risk":5,"migraine_risk":10,"frizz_risk":1,"updated_at":"2026-04-04T15:12:01.227654+05:30"},{"city":"Trichy","state":"Tamil Nadu","latitude":10.7905,"longitude":78.7047,"temp":35.6,"humidity":40,"rain":0.0,"pressure":997.0,"uv_index":9.3,"wind_gusts":18.7,"aqi":52,"pm10":20.0,"pm2_5":18.7,"mosquito_risk":0,"arthritis_risk":5,"migraine_risk":10,"frizz_risk":1,"updated_at":"2026-04-04T15:12:01.227663+05:30"},{"city":"Salem","state":"Tamil Nadu","latitude":11.6643,"longitude":78.146,"temp":34.8,"humidity":42,"rain":0.0,"pressure":975.3,"uv_index":8.65,"wind_gusts":29.9,"aqi":98,"pm10":26.0,"pm2_5":23.9,"mosquito_risk":0,"arthritis_risk":5,"migraine_risk":7,"frizz_risk":1,"updated_at":"2026-04-04T15:12:01.227671+05:30"},{"city":"Tirunelveli","state":"Tamil Nadu","latitude":8.7139,"longitude":77.7567,"temp":35.5,"humidity":38,"rain":0.0,"pressure":1000.8,"uv_index":8.45,"wind_gusts":21.2,"aqi":63,"pm10":10.9,"pm2_5":10.0,"mosquito_risk":0,"arthritis_risk":5,"migraine_risk":7,"frizz_risk":1,"updated_at":"2026-04-04T15:12:01.227679+05:30"},{"city":"Vellore","state":"Tamil Nadu","latitude":12.9165,"longitude":79.1325,"temp":35.1,"humidity":40,"rain":0.0,"pressure":982.4,"uv_index":8.7,"wind_gusts":26.6,"aqi":70,"pm10":24.3,"pm2_5":21.6,"mosquito_risk":0,"arthritis_risk":5,"migraine_risk":10,"frizz_risk":1,"updated_at":"2026-04-04T15:12:01.227686+05:30"},{"city":"Erode","state":"Tamil Nadu","latitude":11.341,"longitude":77.7172,"temp":36.5,"humidity":41,"rain":0.0,"pressure":986.4,"uv_index":8.95,"wind_gusts":24.1,"aqi":93,"pm10":22.2,"pm2_5":20.4,"mosquito_risk":0,"arthritis_risk":5,"migraine_risk":10,"frizz_risk":1,"updated_at":"2026-04-04T15:12:01.227694+05:30"},{"city":"Kochi","state":"Kerala","latitude":9.9312,"longitude":76.2673,"temp":28.8,"humidity":78,"rain":0.0,"pressure":1007.9,"uv_index":8.9,"wind_gusts":20.5,"aqi":68,"pm10":16.0,"pm2_5":14.7,"mosquito_risk":7,"arthritis_risk":5,"migraine_risk":4,"frizz_risk":1,"updated_at":"2026-04-04T15:12:01.227701+05:30"},{"city":"Thiruvananthapuram","state":"Kerala","latitude":8.5241,"longitude":76.9366,"temp":28.9,"humidity":79,"rain":0.0,"pressure":1007.0,"uv_index":8.05,"wind_gusts":26.3,"aqi":61,"pm10":14.9,"pm2_5":11.3,"mosquito_risk":7,"arthritis_risk":5,"migraine_risk":4,"frizz_risk":1,"updated_at":"2026-04-04T15:12:01.227708+05:30"},{"city":"Kozhikode","state":"Kerala","latitude":11.2588,"longitude":75.7804,"temp":29.9,"humidity":78,"rain":0.0,"pressure":1007.6,"uv_index":8.25,"wind_gusts":24.5,"aqi":54,"pm10":9.8,"pm2_5":7.8,"mosquito_risk":7,"arthritis_risk":5,"migraine_risk":4,"frizz_risk":1,"updated_at":"2026-04-04T15:12:01.227714+05:30"},{"city":"Thrissur","state":"Kerala","latitude":10.5276,"longitude":76.2144,"temp":31.6,"humidity":66,"rain":0.0,"pressure":1006.4,"uv_index":8.3,"wind_gusts":28.1,"aqi":59,"pm10":13.9,"pm2_5":12.8,"mosquito_risk":3,"arthritis_risk":5,"migraine_risk":4,"frizz_risk":1,"updated_at":"2026-04-04T15:12:01.227721+05:30"},{"city":"Kannur","state":"Kerala","latitude":11.8745,"longitude":75.3704,"temp":29.9,"humidity":73,"rain":0.0,"pressure":1007.0,"uv_index":7.6,"wind_gusts":23.0,"aqi":58,"pm10":14.3,"pm2_5":11.5,"mosquito_risk":7,"arthritis_risk":5,"migraine_risk":4,"frizz_risk":1,"updated_at":"2026-04-04T15:12:01.227728+05:30"},{"city":"Patna","state":"Bihar","latitude":25.5941,"longitude":85.1376,"temp":37.0,"humidity":30,"rain":0.0,"pressure":997.5,"uv_index":7.95,"wind_gusts":39.6,"aqi":88,"pm10":68.2,"pm2_5":24.7,"mosquito_risk":0,"arthritis_risk":5,"migraine_risk":10,"frizz_risk":1,"updated_at":"2026-04-04T15:12:01.227735+05:30"},{"city":"Gaya","state":"Bihar","latitude":24.7914,"longitude":85.0002,"temp":36.3,"humidity":30,"rain":0.0,"pressure":991.5,"uv_index":8.45,"wind_gusts":27.4,"aqi":79,"pm10":48.7,"pm2_5":18.3,"mosquito_risk":0,"arthritis_risk":5,"migraine_risk":10,"frizz_risk":0,"updated_at":"2026-04-04T15:12:01.227741+05:30"},{"city":"Muzaffarpur","state":"Bihar","latitude":26.1209,"longitude":85.3647,"temp":37.6,"humidity":26,"rain":0.0,"pressure":997.1,"uv_index":7.9,"wind_gusts":40.3,"aqi":86,"pm10":48.5,"pm2_5":20.8,"mosquito_risk":0,"arthritis_risk":5,"migraine_risk":10,"frizz_risk":0,"updated_at":"2026-04-04T15:12:01.227747+05:30"},{"city":"Bhagalpur","state":"Bihar","latitude":25.2425,"longitude":87.0117,"temp":36.2,"humidity":32,"rain":0.0,"pressure":997.8,"uv_index":8.25,"wind_gusts":31.7,"aqi":102,"pm10":48.5,"pm2_5":24.0,"mosquito_risk":0,"arthritis_risk":5,"migraine_risk":10,"frizz_risk":1,"updated_at":"2026-04-04T15:12:01.227754+05:30"},{"city":"Ranchi","state":"Jharkhand","latitude":23.3441,"longitude":85.3096,"temp":32.6,"humidity":30,"rain":0.0,"pressure":936.7,"uv_index":8.2,"wind_gusts":41.0,"aqi":86,"pm10":26.7,"pm2_5":22.5,"mosquito_risk":0,"arthritis_risk":5,"migraine_risk":7,"frizz_risk":0,"updated_at":"2026-04-04T15:12:01.227760+05:30"},{"city":"Jamshedpur","state":"Jharkhand","latitude":22.8046,"longitude":86.2029,"temp":37.1,"humidity":31,"rain":0.0,"pressure":987.8,"uv_index":8.5,"wind_gusts":20.5,"aqi":103,"pm10":28.8,"pm2_5":24.2,"mosquito_risk":0,"arthritis_risk":5,"migraine_risk":10,"frizz_risk":1,"updated_at":"2026-04-04T15:12:01.227766+05:30"},{"city":"Dhanbad","state":"Jharkhand","latitude":23.7957,"longitude":86.4304,"temp":38.0,"humidity":24,"rain":0.0,"pressure":977.0,"uv_index":8.65,"wind_gusts":25.9,"aqi":96,"pm10":25.3,"pm2_5":16.4,"mosquito_risk":0,"arthritis_risk":5,"migraine_risk":10,"frizz_risk":0,"updated_at":"2026-04-04T15:12:01.227773+05:30"},{"city":"Bokaro","state":"Jharkhand","latitude":23.6693,"longitude":86.1511,"temp":37.4,"humidity":22,"rain":0.0,"pressure":980.9,"uv_index":8.55,"wind_gusts":28.8,"aqi":99,"pm10":26.5,"pm2_5":19.0,"mosquito_risk":0,"arthritis_risk":5,"migraine_risk":10,"frizz_risk":0,"updated_at":"2026-04-04T15:12:01.227780+05:30"},{"city":"Bhubaneswar","state":"Odisha","latitude":20.2961,"longitude":85.8245,"temp":35.6,"humidity":49,"rain":0.0,"pressure":999.7,"uv_index":8.95,"wind_gusts":25.2,"aqi":116,"pm10":60.5,"pm2_5":52.6,"mosquito_risk":0,"arthritis_risk":5,"migraine_risk":10,"frizz_risk":1,"updated_at":"2026-04-04T15:12:01.227787+05:30"},{"city":"Cuttack","state":"Odisha","latitude":20.4625,"longitude":85.8828,"temp":37.1,"humidity":38,"rain":0.0,"pressure":1000.9,"uv_index":9.0,"wind_gusts":32.8,"aqi":116,"pm10":60.5,"pm2_5":52.6,"mosquito_risk":0,"arthritis_risk":5,"migraine_risk":7,"frizz_risk":1,"updated_at":"2026-04-04T15:12:01.227793+05:30"},{"city":"Rourkela","state":"Odisha","latitude":22.2604,"longitude":84.8536,"temp":36.7,"humidity":28,"rain":0.0,"pressure":982.3,"uv_index":8.35,"wind_gusts":39.6,"aqi":115,"pm10":39.1,"pm2_5":32.4,"mosquito_risk":0,"arthritis_risk":5,"migraine_risk":10,"frizz_risk":0,"updated_at":"2026-04-04T15:12:01.227800+05:30"},{"city":"Raipur","state":"Chhattisgarh","latitude":21.2514,"longitude":81.6296,"temp":35.5,"humidity":34,"rain":0.0,"pressure":973.3,"uv_index":8.15,"wind_gusts":41.4,"aqi":116,"pm10":44.1,"pm2_5":36.0,"mosquito_risk":0,"arthritis_risk":5,"migraine_risk":10,"frizz_risk":1,"updated_at":"2026-04-04T15:12:01.227806+05:30"},{"city":"Bhilai","state":"Chhattisgarh","latitude":21.1938,"longitude":81.3509,"temp":35.4,"humidity":35,"rain":0.0,"pressure":973.7,"uv_index":8.2,"wind_gusts":37.8,"aqi":98,"pm10":46.1,"pm2_5":36.9,"mosquito_risk":0,"arthritis_risk":5,"migraine_risk":10,"frizz_risk":1,"updated_at":"2026-04-04T15:12:01.227812+05:30"},{"city":"Guwahati","state":"Assam","latitude":26.1158,"longitude":91.7086,"temp":30.5,"humidity":68,"rain":0.0,"pressure":997.5,"uv_index":8.25,"wind_gusts":38.2,"aqi":126,"pm10":44.7,"pm2_5":35.4,"mosquito_risk":3,"arthritis_risk":5,"migraine_risk":7,"frizz_risk":1,"updated_at":"2026-04-04T15:12:01.227818+05:30"},{"city":"Agartala","state":"Tripura","latitude":23.8315,"longitude":91.2868,"temp":33.6,"humidity":52,"rain":0.0,"pressure":1002.6,"uv_index":8.45,"wind_gusts":28.1,"aqi":71,"pm10":45.9,"pm2_5":39.9,"mosquito_risk":0,"arthritis_risk":5,"migraine_risk":4,"frizz_risk":1,"updated_at":"2026-04-04T15:12:01.227824+05:30"},{"city":"Shillong","state":"Meghalaya","latitude":25.5788,"longitude":91.8933,"temp":21.3,"humidity":47,"rain":0.0,"pressure":855.5,"uv_index":8.4,"wind_gusts":56.5,"aqi":100,"pm10":34.5,"pm2_5":28.3,"mosquito_risk":0,"arthritis_risk":5,"migraine_risk":7,"frizz_risk":0,"updated_at":"2026-04-04T15:12:01.227831+05:30"},{"city":"Imphal","state":"Manipur","latitude":24.817,"longitude":93.9368,"temp":23.4,"humidity":67,"rain":0.0,"pressure":920.9,"uv_index":8.75,"wind_gusts":78.1,"aqi":131,"pm10":41.2,"pm2_5":32.2,"mosquito_risk":3,"arthritis_risk":5,"migraine_risk":7,"frizz_risk":1,"updated_at":"2026-04-04T15:12:01.227837+05:30"},{"city":"Aizawl","state":"Mizoram","latitude":23.7271,"longitude":92.7176,"temp":27.7,"humidity":55,"rain":0.0,"pressure":892.4,"uv_index":8.6,"wind_gusts":55.1,"aqi":104,"pm10":42.1,"pm2_5":31.4,"mosquito_risk":4,"arthritis_risk":5,"migraine_risk":7,"frizz_risk":1,"updated_at":"2026-04-04T15:12:01.227843+05:30"},{"city":"Kohima","state":"Nagaland","latitude":25.6701,"longitude":94.1077,"temp":20.5,"humidity":69,"rain":0.0,"pressure":853.5,"uv_index":8.3,"wind_gusts":79.9,"aqi":115,"pm10":35.9,"pm2_5":26.4,"mosquito_risk":3,"arthritis_risk":5,"migraine_risk":7,"frizz_risk":0,"updated_at":"2026-04-04T15:12:01.227850+05:30"},{"city":"Gangtok","state":"Sikkim","latitude":27.3314,"longitude":88.6138,"temp":21.5,"humidity":70,"rain":0.0,"pressure":836.7,"uv_index":8.4,"wind_gusts":17.6,"aqi":132,"pm10":57.2,"pm2_5":45.8,"mosquito_risk":3,"arthritis_risk":5,"migraine_risk":7,"frizz_risk":0,"updated_at":"2026-04-04T15:12:01.227856+05:30"},{"city":"Siliguri","state":"West Bengal","latitude":26.7271,"longitude":88.3953,"temp":27.3,"humidity":68,"rain":0.0,"pressure":990.6,"uv_index":8.2,"wind_gusts":27.0,"aqi":161,"pm10":71.0,"pm2_5":54.1,"mosquito_risk":7,"arthritis_risk":5,"migraine_risk":7,"frizz_risk":1,"updated_at":"2026-04-04T15:12:04.534419+05:30"},{"city":"Durgapur","state":"West Bengal","latitude":23.5204,"longitude":87.3119,"temp":37.6,"humidity":26,"rain":0.0,"pressure":991.8,"uv_index":8.55,"wind_gusts":16.2,"aqi":122,"pm10":23.2,"pm2_5":13.4,"mosquito_risk":0,"arthritis_risk":5,"migraine_risk":10,"frizz_risk":0,"updated_at":"2026-04-04T15:12:04.534452+05:30"},{"city":"Asansol","state":"West Bengal","latitude":23.6739,"longitude":86.9524,"temp":37.4,"humidity":26,"rain":0.0,"pressure":990.4,"uv_index":8.7,"wind_gusts":17.6,"aqi":96,"pm10":23.7,"pm2_5":14.2,"mosquito_risk":0,"arthritis_risk":5,"migraine_risk":10,"frizz_risk":0,"updated_at":"2026-04-04T15:12:04.534464+05:30"},{"city":"Pondicherry","state":"Puducherry","latitude":11.9139,"longitude":79.8145,"temp":34.7,"humidity":52,"rain":0.0,"pressure":1005.7,"uv_index":8.8,"wind_gusts":21.6,"aqi":48,"pm10":17.5,"pm2_5":14.6,"mosquito_risk":0,"arthritis_risk":5,"migraine_risk":4,"frizz_risk":1,"updated_at":"2026-04-04T15:12:04.534473+05:30"},{"city":"Port Blair","state":"Andaman and Nicobar Islands","latitude":11.6234,"longitude":92.7265,"temp":29.1,"humidity":71,"rain":0.0,"pressure":1005.5,"uv_index":8.75,"wind_gusts":16.9,"aqi":42,"pm10":19.4,"pm2_5":10.7,"mosquito_risk":7,"arthritis_risk":5,"migraine_risk":4,"frizz_risk":1,"updated_at":"2026-04-04T15:12:04.534482+05:30"},{"city":"Haridwar","state":"Uttarakhand","latitude":29.9457,"longitude":78.1642,"temp":27.8,"humidity":43,"rain":0.0,"pressure":975.1,"uv_index":5.0,"wind_gusts":34.6,"aqi":103,"pm10":95.7,"pm2_5":29.5,"mosquito_risk":4,"arthritis_risk":5,"migraine_risk":3,"frizz_risk":0,"updated_at":"2026-04-04T15:12:04.534490+05:30"},{"city":"Rishikesh","state":"Uttarakhand","latitude":30.0869,"longitude":78.2676,"temp":28.2,"humidity":37,"rain":0.0,"pressure":968.1,"uv_index":4.5,"wind_gusts":31.0,"aqi":68,"pm10":36.1,"pm2_5":9.8,"mosquito_risk":4,"arthritis_risk":5,"migraine_risk":3,"frizz_risk":0,"updated_at":"2026-04-04T15:12:04.534498+05:30"},{"city":"Nainital","state":"Uttarakhand","latitude":29.3919,"longitude":79.4542,"temp":21.2,"humidity":45,"rain":0.0,"pressure":807.4,"uv_index":4.25,"wind_gusts":39.2,"aqi":63,"pm10":30.3,"pm2_5":10.2,"mosquito_risk":0,"arthritis_risk":5,"migraine_risk":3,"frizz_risk":0,"updated_at":"2026-04-04T15:12:04.534506+05:30"},{"city":"Mussoorie","state":"Uttarakhand","latitude":30.4599,"longitude":78.0664,"temp":19.2,"humidity":47,"rain":0.0,"pressure":804.5,"uv_index":4.95,"wind_gusts":46.4,"aqi":69,"pm10":42.4,"pm2_5":12.9,"mosquito_risk":0,"arthritis_risk":5,"migraine_risk":3,"frizz_risk":0,"updated_at":"2026-04-04T15:12:04.534514+05:30"},{"city":"Dharamshala","state":"Himachal Pradesh","latitude":32.219,"longitude":76.3234,"temp":18.1,"humidity":68,"rain":0.0,"pressure":869.4,"uv_index":5.8,"wind_gusts":49.3,"aqi":47,"pm10":13.9,"pm2_5":5.1,"mosquito_risk":3,"arthritis_risk":5,"migraine_risk":3,"frizz_risk":0,"updated_at":"2026-04-04T15:12:04.534522+05:30"},{"city":"Dalhousie","state":"Himachal Pradesh","latitude":32.5387,"longitude":75.971,"temp":15.2,"humidity":64,"rain":0.0,"pressure":803.6,"uv_index":5.65,"wind_gusts":52.6,"aqi":61,"pm10":44.4,"pm2_5":12.1,"mosquito_risk":3,"arthritis_risk":5,"migraine_risk":3,"frizz_risk":0,"updated_at":"2026-04-04T15:12:04.534532+05:30"},{"city":"Patiala","state":"Punjab","latitude":30.3398,"longitude":76.3869,"temp":23.8,"humidity":53,"rain":0.0,"pressure":980.2,"uv_index":4.7,"wind_gusts":25.2,"aqi":186,"pm10":194.2,"pm2_5":36.7,"mosquito_risk":0,"arthritis_risk":5,"migraine_risk":3,"frizz_risk":0,"updated_at":"2026-04-04T15:12:04.534540+05:30"},{"city":"Bhatinda","state":"Punjab","latitude":30.211,"longitude":74.9455,"temp":26.9,"humidity":56,"rain":0.0,"pressure":985.1,"uv_index":6.9,"wind_gusts":45.0,"aqi":78,"pm10":99.7,"pm2_5":25.1,"mosquito_risk":4,"arthritis_risk":5,"migraine_risk":7,"frizz_risk":1,"updated_at":"2026-04-04T15:12:04.534547+05:30"},{"city":"Rohtak","state":"Haryana","latitude":28.8955,"longitude":76.6066,"temp":27.7,"humidity":46,"rain":0.0,"pressure":983.0,"uv_index":6.3,"wind_gusts":31.0,"aqi":113,"pm10":218.4,"pm2_5":33.5,"mosquito_risk":4,"arthritis_risk":5,"migraine_risk":7,"frizz_risk":0,"updated_at":"2026-04-04T15:12:04.534555+05:30"},{"city":"Panipat","state":"Haryana","latitude":29.3909,"longitude":76.9635,"temp":25.6,"humidity":49,"rain":0.0,"pressure":981.8,"uv_index":5.2,"wind_gusts":28.8,"aqi":181,"pm10":324.1,"pm2_5":40.6,"mosquito_risk":4,"arthritis_risk":5,"migraine_risk":3,"frizz_risk":0,"updated_at":"2026-04-04T15:12:04.534562+05:30"},{"city":"Mathura","state":"Uttar Pradesh","latitude":27.4924,"longitude":77.6737,"temp":29.1,"humidity":56,"rain":0.0,"pressure":988.3,"uv_index":5.15,"wind_gusts":38.5,"aqi":272,"pm10":215.6,"pm2_5":36.4,"mosquito_risk":4,"arthritis_risk":5,"migraine_risk":3,"frizz_risk":1,"updated_at":"2026-04-04T15:12:04.534569+05:30"},{"city":"Vrindavan","state":"Uttar Pradesh","latitude":27.5823,"longitude":77.7027,"temp":29.1,"humidity":62,"rain":0.0,"pressure":989.3,"uv_index":5.25,"wind_gusts":29.5,"aqi":272,"pm10":215.6,"pm2_5":36.4,"mosquito_risk":7,"arthritis_risk":5,"migraine_risk":3,"frizz_risk":1,"updated_at":"2026-04-04T15:12:04.534577+05:30"},{"city":"Ayodhya","state":"Uttar Pradesh","latitude":26.7922,"longitude":82.1998,"temp":35.6,"humidity":31,"rain":0.0,"pressure":993.7,"uv_index":7.2,"wind_gusts":40.3,"aqi":108,"pm10":69.6,"pm2_5":25.3,"mosquito_risk":0,"arthritis_risk":5,"migraine_risk":10,"frizz_risk":0,"updated_at":"2026-04-04T15:12:04.534585+05:30"},{"city":"Ratlam","state":"Madhya Pradesh","latitude":23.3315,"longitude":75.0367,"temp":28.4,"humidity":48,"rain":0.0,"pressure":955.5,"uv_index":8.1,"wind_gusts":36.7,"aqi":58,"pm10":30.7,"pm2_5":11.6,"mosquito_risk":4,"arthritis_risk":5,"migraine_risk":7,"frizz_risk":1,"updated_at":"2026-04-04T15:12:04.534593+05:30"},{"city":"Sagar","state":"Madhya Pradesh","latitude":23.8388,"longitude":78.7378,"temp":34.2,"humidity":42,"rain":0.0,"pressure":951.3,"uv_index":7.2,"wind_gusts":39.6,"aqi":64,"pm10":24.4,"pm2_5":17.4,"mosquito_risk":0,"arthritis_risk":5,"migraine_risk":7,"frizz_risk":1,"updated_at":"2026-04-04T15:12:04.534600+05:30"},{"city":"Satna","state":"Madhya Pradesh","latitude":24.6005,"longitude":80.8322,"temp":30.3,"humidity":39,"rain":0.0,"pressure":971.1,"uv_index":5.05,"wind_gusts":37.1,"aqi":73,"pm10":24.2,"pm2_5":17.6,"mosquito_risk":0,"arthritis_risk":5,"migraine_risk":3,"frizz_risk":0,"updated_at":"2026-04-04T15:12:04.534608+05:30"},{"city":"Akola","state":"Maharashtra","latitude":20.7002,"longitude":77.0082,"temp":35.5,"humidity":36,"rain":0.0,"pressure":974.9,"uv_index":7.95,"wind_gusts":25.6,"aqi":89,"pm10":38.9,"pm2_5":29.9,"mosquito_risk":0,"arthritis_risk":5,"migraine_risk":10,"frizz_risk":1,"updated_at":"2026-04-04T15:12:04.534616+05:30"},{"city":"Amravati","state":"Maharashtra","latitude":20.9374,"longitude":77.7796,"temp":34.4,"humidity":38,"rain":0.0,"pressure":967.2,"uv_index":7.7,"wind_gusts":24.5,"aqi":90,"pm10":32.5,"pm2_5":26.0,"mosquito_risk":0,"arthritis_risk":5,"migraine_risk":7,"frizz_risk":1,"updated_at":"2026-04-04T15:12:04.534624+05:30"},{"city":"Latur","state":"Maharashtra","latitude":18.4088,"longitude":76.5604,"temp":31.8,"humidity":41,"rain":0.0,"pressure":940.0,"uv_index":8.85,"wind_gusts":29.5,"aqi":101,"pm10":46.8,"pm2_5":37.7,"mosquito_risk":0,"arthritis_risk":5,"migraine_risk":7,"frizz_risk":1,"updated_at":"2026-04-04T15:12:04.534632+05:30"},{"city":"Nanded","state":"Maharashtra","latitude":19.1383,"longitude":77.3091,"temp":33.6,"humidity":38,"rain":0.0,"pressure":968.4,"uv_index":8.15,"wind_gusts":19.8,"aqi":98,"pm10":39.0,"pm2_5":30.9,"mosquito_risk":0,"arthritis_risk":5,"migraine_risk":7,"frizz_risk":1,"updated_at":"2026-04-04T15:12:04.534639+05:30"},{"city":"Gulbarga","state":"Karnataka","latitude":17.3297,"longitude":76.8343,"temp":34.8,"humidity":36,"rain":0.0,"pressure":957.7,"uv_index":8.9,"wind_gusts":32.0,"aqi":85,"pm10":26.3,"pm2_5":21.5,"mosquito_risk":0,"arthritis_risk":5,"migraine_risk":7,"frizz_risk":1,"updated_at":"2026-04-04T15:12:04.534645+05:30"},{"city":"Bidar","state":"Karnataka","latitude":17.9104,"longitude":77.5199,"temp":32.9,"humidity":41,"rain":0.0,"pressure":935.1,"uv_index":8.55,"wind_gusts":31.3,"aqi":94,"pm10":34.0,"pm2_5":26.6,"mosquito_risk":0,"arthritis_risk":5,"migraine_risk":7,"frizz_risk":1,"updated_at":"2026-04-04T15:12:04.534653+05:30"},{"city":"Hospet","state":"Karnataka","latitude":15.2689,"longitude":76.3909,"temp":33.6,"humidity":39,"rain":0.0,"pressure":954.7,"uv_index":7.95,"wind_gusts":33.5,"aqi":92,"pm10":29.3,"pm2_5":24.9,"mosquito_risk":0,"arthritis_risk":5,"migraine_risk":7,"frizz_risk":1,"updated_at":"2026-04-04T15:12:04.534659+05:30"},{"city":"Tirupur","state":"Tamil Nadu","latitude":11.1085,"longitude":77.3411,"temp":34.9,"humidity":41,"rain":0.0,"pressure":973.4,"uv_index":8.8,"wind_gusts":39.6,"aqi":91,"pm10":20.7,"pm2_5":19.1,"mosquito_risk":0,"arthritis_risk":5,"migraine_risk":7,"frizz_risk":1,"updated_at":"2026-04-04T15:12:04.534667+05:30"},{"city":"Alappuzha","state":"Kerala","latitude":9.4981,"longitude":76.3388,"temp":28.7,"humidity":81,"rain":0.0,"pressure":1008.0,"uv_index":9.05,"wind_gusts":22.0,"aqi":64,"pm10":14.8,"pm2_5":13.5,"mosquito_risk":7,"arthritis_risk":0,"migraine_risk":4,"frizz_risk":1,"updated_at":"2026-04-04T15:12:04.534674+05:30"},{"city":"Munnar","state":"Kerala","latitude":10.0889,"longitude":77.0595,"temp":25.8,"humidity":78,"rain":0.0,"pressure":858.1,"uv_index":6.2,"wind_gusts":32.8,"aqi":58,"pm10":14.7,"pm2_5":13.6,"mosquito_risk":7,"arthritis_risk":5,"migraine_risk":7,"frizz_risk":1,"updated_at":"2026-04-04T15:12:04.534682+05:30"},{"city":"Silchar","state":"Assam","latitude":24.8333,"longitude":92.7789,"temp":29.7,"humidity":67,"rain":0.0,"pressure":1001.9,"uv_index":8.45,"wind_gusts":37.4,"aqi":131,"pm10":44.7,"pm2_5":37.4,"mosquito_risk":7,"arthritis_risk":5,"migraine_risk":4,"frizz_risk":1,"updated_at":"2026-04-04T15:12:04.534689+05:30"},{"city":"Dibrugarh","state":"Assam","latitude":27.4728,"longitude":94.912,"temp":27.7,"humidity":73,"rain":0.0,"pressure":992.3,"uv_index":8.3,"wind_gusts":14.4,"aqi":111,"pm10":43.3,"pm2_5":33.9,"mosquito_risk":7,"arthritis_risk":5,"migraine_risk":7,"frizz_risk":1,"updated_at":"2026-04-04T15:12:04.534697+05:30"}]