[{"city":"Delhi","state":"Delhi","latitude":28.6139,"longitude":77.209,"temp":33.2,"humidity":67,"rain":0.1,"pressure":974.2,"uv_index":7.65,"wind_gusts":26.6,"aqi":148,"pm10":91.5,"pm2_5":46.3,"no2":20.7,"co":533.0,"o3":159.0,"so2":23.1,"mosquito_risk":6,"arthritis_risk":5,"migraine_risk":7,"frizz_risk":1,"updated_at":"2026-07-07T13:54:33.891873+05:30"},{"city":"Mumbai","state":"Maharashtra","latitude":19.076,"longitude":72.8777,"temp":26.7,"humidity":89,"rain":0.1,"pressure":1001.1,"uv_index":1.35,"wind_gusts":61.9,"aqi":49,"pm10":36.0,"pm2_5":16.6,"no2":5.8,"co":245.0,"o3":60.0,"so2":3.6,"mosquito_risk":10,"arthritis_risk":5,"migraine_risk":0,"frizz_risk":1,"updated_at":"2026-07-07T13:54:33.891931+05:30"},{"city":"Bangalore","state":"Karnataka","latitude":12.9716,"longitude":77.5946,"temp":28.6,"humidity":53,"rain":0.1,"pressure":910.2,"uv_index":8.05,"wind_gusts":72.4,"aqi":27,"pm10":13.7,"pm2_5":6.4,"no2":2.2,"co":196.0,"o3":75.0,"so2":2.1,"mosquito_risk":7,"arthritis_risk":5,"migraine_risk":7,"frizz_risk":1,"updated_at":"2026-07-07T13:54:33.891948+05:30"},{"city":"Hyderabad","state":"Telangana","latitude":17.385,"longitude":78.4867,"temp":29.6,"humidity":60,"rain":0.1,"pressure":946.4,"uv_index":7.05,"wind_gusts":64.1,"aqi":26,"pm10":7.1,"pm2_5":4.1,"no2":1.4,"co":169.0,"o3":80.0,"so2":2.7,"mosquito_risk":7,"arthritis_risk":5,"migraine_risk":7,"frizz_risk":1,"updated_at":"2026-07-07T13:54:33.891960+05:30"},{"city":"Chennai","state":"Tamil Nadu","latitude":13.0827,"longitude":80.2707,"temp":38.5,"humidity":34,"rain":0.0,"pressure":1002.5,"uv_index":8.6,"wind_gusts":58.0,"aqi":58,"pm10":31.4,"pm2_5":19.8,"no2":2.6,"co":155.0,"o3":117.0,"so2":5.6,"mosquito_risk":0,"arthritis_risk":5,"migraine_risk":7,"frizz_risk":1,"updated_at":"2026-07-07T13:54:33.891970+05:30"},{"city":"Kolkata","state":"West Bengal","latitude":22.5726,"longitude":88.3639,"temp":31.1,"humidity":78,"rain":0.0,"pressure":998.4,"uv_index":8.7,"wind_gusts":46.4,"aqi":63,"pm10":20.6,"pm2_5":15.4,"no2":4.8,"co":222.0,"o3":77.0,"so2":5.0,"mosquito_risk":3,"arthritis_risk":5,"migraine_risk":7,"frizz_risk":1,"updated_at":"2026-07-07T13:54:33.891980+05:30"},{"city":"Pune","state":"Maharashtra","latitude":18.5204,"longitude":73.8567,"temp":24.7,"humidity":86,"rain":0.1,"pressure":940.9,"uv_index":2.65,"wind_gusts":51.8,"aqi":19,"pm10":2.9,"pm2_5":2.7,"no2":4.7,"co":155.0,"o3":54.0,"so2":3.6,"mosquito_risk":6,"arthritis_risk":5,"migraine_risk":3,"frizz_risk":1,"updated_at":"2026-07-07T13:54:33.891989+05:30"},{"city":"Ahmedabad","state":"Gujarat","latitude":23.0225,"longitude":72.5714,"temp":30.7,"humidity":82,"rain":0.4,"pressure":992.9,"uv_index":5.25,"wind_gusts":30.6,"aqi":101,"pm10":62.6,"pm2_5":32.0,"no2":4.4,"co":168.0,"o3":76.0,"so2":4.5,"mosquito_risk":6,"arthritis_risk":5,"migraine_risk":3,"frizz_risk":1,"updated_at":"2026-07-07T13:54:33.891998+05:30"},{"city":"Jaipur","state":"Rajasthan","latitude":26.9124,"longitude":75.7873,"temp":32.6,"humidity":59,"rain":0.0,"pressure":951.1,"uv_index":7.6,"wind_gusts":22.3,"aqi":66,"pm10":36.3,"pm2_5":20.5,"no2":1.8,"co":288.0,"o3":131.0,"so2":4.4,"mosquito_risk":0,"arthritis_risk":5,"migraine_risk":7,"frizz_risk":1,"updated_at":"2026-07-07T13:54:33.892006+05:30"},{"city":"Lucknow","state":"Uttar Pradesh","latitude":26.8467,"longitude":80.9462,"temp":27.8,"humidity":87,"rain":0.1,"pressure":982.2,"uv_index":5.35,"wind_gusts":51.8,"aqi":58,"pm10":12.0,"pm2_5":12.0,"no2":1.8,"co":245.0,"o3":129.0,"so2":4.3,"mosquito_risk":10,"arthritis_risk":5,"migraine_risk":3,"frizz_risk":1,"updated_at":"2026-07-07T13:54:33.892019+05:30"},{"city":"Kanpur","state":"Uttar Pradesh","latitude":26.4499,"longitude":80.3319,"temp":28.1,"humidity":83,"rain":0.1,"pressure":980.0,"uv_index":4.6,"wind_gusts":47.2,"aqi":66,"pm10":28.0,"pm2_5":13.9,"no2":2.1,"co":238.0,"o3":129.0,"so2":4.8,"mosquito_risk":10,"arthritis_risk":5,"migraine_risk":3,"frizz_risk":1,"updated_at":"2026-07-07T13:54:33.892028+05:30"},{"city":"Chandigarh","state":"Chandigarh","latitude":30.7333,"longitude":76.7794,"temp":32.9,"humidity":63,"rain":0.1,"pressure":960.6,"uv_index":7.75,"wind_gusts":21.2,"aqi":132,"pm10":42.3,"pm2_5":33.6,"no2":2.4,"co":369.0,"o3":197.0,"so2":12.9,"mosquito_risk":6,"arthritis_risk":5,"migraine_risk":7,"frizz_risk":1,"updated_at":"2026-07-07T13:54:33.892037+05:30"},{"city":"Srinagar","state":"Jammu and Kashmir","latitude":34.0837,"longitude":74.7973,"temp":28.7,"humidity":50,"rain":0.0,"pressure":838.8,"uv_index":9.1,"wind_gusts":18.0,"aqi":76,"pm10":25.6,"pm2_5":19.2,"no2":1.2,"co":325.0,"o3":169.0,"so2":3.1,"mosquito_risk":4,"arthritis_risk":5,"migraine_risk":7,"frizz_risk":1,"updated_at":"2026-07-07T13:54:33.892046+05:30"},{"city":"Jammu","state":"Jammu and Kashmir","latitude":32.7266,"longitude":74.857,"temp":33.6,"humidity":54,"rain":0.0,"pressure":963.6,"uv_index":8.65,"wind_gusts":24.1,"aqi":96,"pm10":20.7,"pm2_5":17.4,"no2":1.8,"co":325.0,"o3":176.0,"so2":2.8,"mosquito_risk":0,"arthritis_risk":5,"migraine_risk":7,"frizz_risk":1,"updated_at":"2026-07-07T13:54:33.892053+05:30"},{"city":"Amritsar","state":"Punjab","latitude":31.634,"longitude":74.8723,"temp":34.7,"humidity":60,"rain":0.0,"pressure":971.9,"uv_index":8.3,"wind_gusts":24.8,"aqi":154,"pm10":51.7,"pm2_5":46.0,"no2":1.8,"co":413.0,"o3":188.0,"so2":8.4,"mosquito_risk":0,"arthritis_risk":5,"migraine_risk":7,"frizz_risk":1,"updated_at":"2026-07-07T13:54:33.892061+05:30"},{"city":"Ludhiana","state":"Punjab","latitude":30.901,"longitude":75.8573,"temp":33.4,"humidity":62,"rain":0.0,"pressure":969.6,"uv_index":7.2,"wind_gusts":24.8,"aqi":153,"pm10":82.0,"pm2_5":46.4,"no2":2.3,"co":428.0,"o3":180.0,"so2":11.0,"mosquito_risk":3,"arthritis_risk":5,"migraine_risk":7,"frizz_risk":1,"updated_at":"2026-07-07T13:54:33.892069+05:30"},{"city":"Jalandhar","state":"Punjab","latitude":31.326,"longitude":75.5762,"temp":33.7,"humidity":63,"rain":0.0,"pressure":970.7,"uv_index":8.0,"wind_gusts":28.1,"aqi":153,"pm10":66.6,"pm2_5":45.6,"no2":1.9,"co":388.0,"o3":173.0,"so2":7.1,"mosquito_risk":3,"arthritis_risk":5,"migraine_risk":7,"frizz_risk":1,"updated_at":"2026-07-07T13:54:33.892077+05:30"},{"city":"Dehradun","state":"Uttarakhand","latitude":30.6284,"longitude":78.0322,"temp":23.3,"humidity":81,"rain":0.1,"pressure":828.3,"uv_index":7.9,"wind_gusts":29.2,"aqi":51,"pm10":15.2,"pm2_5":14.8,"no2":1.5,"co":241.0,"o3":135.0,"so2":2.4,"mosquito_risk":6,"arthritis_risk":5,"migraine_risk":7,"frizz_risk":1,"updated_at":"2026-07-07T13:54:33.892085+05:30"},{"city":"Shimla","state":"Himachal Pradesh","latitude":31.1048,"longitude":77.1734,"temp":23.2,"humidity":66,"rain":0.0,"pressure":783.8,"uv_index":5.7,"wind_gusts":28.4,"aqi":72,"pm10":20.6,"pm2_5":18.9,"no2":0.8,"co":253.0,"o3":157.0,"so2":7.1,"mosquito_risk":3,"arthritis_risk":5,"migraine_risk":3,"frizz_risk":1,"updated_at":"2026-07-07T13:54:33.892092+05:30"},{"city":"Manali","state":"Himachal Pradesh","latitude":32.2396,"longitude":77.1887,"temp":25.8,"humidity":60,"rain":0.1,"pressure":816.4,"uv_index":9.55,"wind_gusts":32.8,"aqi":47,"pm10":10.9,"pm2_5":10.3,"no2":4.7,"co":200.0,"o3":154.0,"so2":1.1,"mosquito_risk":7,"arthritis_risk":5,"migraine_risk":7,"frizz_risk":1,"updated_at":"2026-07-07T13:54:33.892103+05:30"},{"city":"Gurgaon","state":"Haryana","latitude":28.4595,"longitude":77.0266,"temp":33.7,"humidity":61,"rain":0.0,"pressure":972.5,"uv_index":7.7,"wind_gusts":28.4,"aqi":147,"pm10":202.6,"pm2_5":55.9,"no2":13.3,"co":367.0,"o3":142.0,"so2":12.5,"mosquito_risk":3,"arthritis_risk":5,"migraine_risk":7,"frizz_risk":1,"updated_at":"2026-07-07T13:54:33.892111+05:30"},{"city":"Noida","state":"Uttar Pradesh","latitude":28.5355,"longitude":77.391,"temp":34.4,"humidity":69,"rain":0.3,"pressure":975.8,"uv_index":7.05,"wind_gusts":27.0,"aqi":147,"pm10":202.6,"pm2_5":55.9,"no2":13.3,"co":404.0,"o3":142.0,"so2":12.5,"mosquito_risk":6,"arthritis_risk":5,"migraine_risk":7,"frizz_risk":1,"updated_at":"2026-07-07T13:54:33.892118+05:30"},{"city":"Ghaziabad","state":"Uttar Pradesh","latitude":28.6692,"longitude":77.4538,"temp":33.5,"humidity":71,"rain":0.3,"pressure":974.1,"uv_index":7.05,"wind_gusts":22.7,"aqi":150,"pm10":114.1,"pm2_5":51.0,"no2":9.9,"co":277.0,"o3":178.0,"so2":18.3,"mosquito_risk":6,"arthritis_risk":5,"migraine_risk":7,"frizz_risk":1,"updated_at":"2026-07-07T13:54:33.892126+05:30"},{"city":"Faridabad","state":"Haryana","latitude":28.4089,"longitude":77.3178,"temp":34.3,"humidity":65,"rain":0.2,"pressure":975.0,"uv_index":6.55,"wind_gusts":24.5,"aqi":147,"pm10":202.6,"pm2_5":55.9,"no2":13.3,"co":339.0,"o3":142.0,"so2":12.5,"mosquito_risk":6,"arthritis_risk":5,"migraine_risk":7,"frizz_risk":1,"updated_at":"2026-07-07T13:54:33.892136+05:30"},{"city":"Meerut","state":"Uttar Pradesh","latitude":28.9845,"longitude":77.7064,"temp":33.0,"humidity":68,"rain":0.5,"pressure":973.7,"uv_index":6.8,"wind_gusts":23.4,"aqi":150,"pm10":114.1,"pm2_5":51.0,"no2":9.9,"co":262.0,"o3":178.0,"so2":18.3,"mosquito_risk":6,"arthritis_risk":5,"migraine_risk":7,"frizz_risk":1,"updated_at":"2026-07-07T13:54:33.892144+05:30"},{"city":"Agra","state":"Uttar Pradesh","latitude":27.1767,"longitude":78.0081,"temp":30.4,"humidity":75,"rain":0.0,"pressure":977.5,"uv_index":1.65,"wind_gusts":34.6,"aqi":117,"pm10":197.0,"pm2_5":38.0,"no2":4.0,"co":240.0,"o3":130.0,"so2":5.4,"mosquito_risk":3,"arthritis_risk":5,"migraine_risk":3,"frizz_risk":1,"updated_at":"2026-07-07T13:54:33.892173+05:30"},{"city":"Varanasi","state":"Uttar Pradesh","latitude":25.3176,"longitude":82.9739,"temp":31.3,"humidity":77,"rain":0.2,"pressure":986.9,"uv_index":4.0,"wind_gusts":36.7,"aqi":59,"pm10":12.2,"pm2_5":12.2,"no2":8.8,"co":433.0,"o3":92.0,"so2":12.5,"mosquito_risk":6,"arthritis_risk":5,"migraine_risk":3,"frizz_risk":1,"updated_at":"2026-07-07T13:54:33.892184+05:30"},{"city":"Prayagraj","state":"Uttar Pradesh","latitude":25.4358,"longitude":81.8463,"temp":28.9,"humidity":86,"rain":0.0,"pressure":984.3,"uv_index":3.75,"wind_gusts":31.7,"aqi":56,"pm10":14.6,"pm2_5":14.6,"no2":4.2,"co":322.0,"o3":125.0,"so2":10.8,"mosquito_risk":7,"arthritis_risk":5,"migraine_risk":3,"frizz_risk":1,"updated_at":"2026-07-07T13:54:33.892193+05:30"},{"city":"Gorakhpur","state":"Uttar Pradesh","latitude":26.7606,"longitude":83.3732,"temp":31.3,"humidity":73,"rain":0.0,"pressure":986.4,"uv_index":8.6,"wind_gusts":50.4,"aqi":45,"pm10":11.3,"pm2_5":11.3,"no2":1.9,"co":256.0,"o3":139.0,"so2":9.7,"mosquito_risk":3,"arthritis_risk":5,"migraine_risk":7,"frizz_risk":1,"updated_at":"2026-07-07T13:54:33.892201+05:30"},{"city":"Bareilly","state":"Uttar Pradesh","latitude":28.367,"longitude":79.4304,"temp":31.5,"humidity":73,"rain":0.0,"pressure":977.4,"uv_index":6.1,"wind_gusts":24.5,"aqi":138,"pm10":32.7,"pm2_5":17.8,"no2":3.2,"co":213.0,"o3":142.0,"so2":9.4,"mosquito_risk":3,"arthritis_risk":5,"migraine_risk":7,"frizz_risk":1,"updated_at":"2026-07-07T13:54:33.892211+05:30"},{"city":"Aligarh","state":"Uttar Pradesh","latitude":27.8974,"longitude":78.088,"temp":29.3,"humidity":84,"rain":0.1,"pressure":976.1,"uv_index":5.65,"wind_gusts":34.9,"aqi":113,"pm10":49.7,"pm2_5":22.9,"no2":2.6,"co":233.0,"o3":156.0,"so2":10.6,"mosquito_risk":10,"arthritis_risk":5,"migraine_risk":3,"frizz_risk":1,"updated_at":"2026-07-07T13:54:33.892219+05:30"},{"city":"Moradabad","state":"Uttar Pradesh","latitude":28.8386,"longitude":78.7733,"temp":31.2,"humidity":75,"rain":0.0,"pressure":975.0,"uv_index":5.95,"wind_gusts":21.6,"aqi":157,"pm10":40.7,"pm2_5":39.7,"no2":3.0,"co":254.0,"o3":181.0,"so2":17.0,"mosquito_risk":3,"arthritis_risk":5,"migraine_risk":3,"frizz_risk":1,"updated_at":"2026-07-07T13:54:33.892226+05:30"},{"city":"Saharanpur","state":"Uttar Pradesh","latitude":29.9637,"longitude":77.546,"temp":29.8,"humidity":81,"rain":0.4,"pressure":968.2,"uv_index":6.75,"wind_gusts":28.4,"aqi":147,"pm10":41.0,"pm2_5":34.0,"no2":2.9,"co":349.0,"o3":199.0,"so2":13.9,"mosquito_risk":10,"arthritis_risk":5,"migraine_risk":7,"frizz_risk":1,"updated_at":"2026-07-07T13:54:33.892233+05:30"},{"city":"Jhansi","state":"Uttar Pradesh","latitude":25.4484,"longitude":78.5685,"temp":26.5,"humidity":95,"rain":0.2,"pressure":966.7,"uv_index":5.6,"wind_gusts":35.6,"aqi":59,"pm10":23.9,"pm2_5":14.3,"no2":2.2,"co":231.0,"o3":131.0,"so2":5.6,"mosquito_risk":10,"arthritis_risk":5,"migraine_risk":3,"frizz_risk":1,"updated_at":"2026-07-07T13:54:37.289591+05:30"},{"city":"Surat","state":"Gujarat","latitude":21.1702,"longitude":72.8311,"temp":27.6,"humidity":91,"rain":0.4,"pressure":997.1,"uv_index":1.85,"wind_gusts":33.1,"aqi":98,"pm10":32.5,"pm2_5":25.1,"no2":30.0,"co":465.0,"o3":30.0,"so2":55.4,"mosquito_risk":10,"arthritis_risk":5,"migraine_risk":3,"frizz_risk":1,"updated_at":"2026-07-07T13:54:37.289624+05:30"},{"city":"Vadodara","state":"Gujarat","latitude":22.3072,"longitude":73.1812,"temp":30.5,"humidity":79,"rain":0.1,"pressure":994.4,"uv_index":1.8,"wind_gusts":30.6,"aqi":78,"pm10":43.7,"pm2_5":25.7,"no2":14.0,"co":209.0,"o3":55.0,"so2":10.3,"mosquito_risk":6,"arthritis_risk":5,"migraine_risk":3,"frizz_risk":1,"updated_at":"2026-07-07T13:54:37.289634+05:30"},{"city":"Rajkot","state":"Gujarat","latitude":22.3039,"longitude":70.8022,"temp":29.3,"humidity":87,"rain":0.4,"pressure":985.4,"uv_index":0.9,"wind_gusts":32.0,"aqi":77,"pm10":61.7,"pm2_5":28.2,"no2":3.9,"co":112.0,"o3":81.0,"so2":7.6,"mosquito_risk":10,"arthritis_risk":5,"migraine_risk":3,"frizz_risk":1,"updated_at":"2026-07-07T13:54:37.289643+05:30"},{"city":"Thane","state":"Maharashtra","latitude":19.2183,"longitude":72.9781,"temp":26.1,"humidity":92,"rain":0.1,"pressure":1000.2,"uv_index":1.1,"wind_gusts":43.2,"aqi":49,"pm10":36.0,"pm2_5":16.6,"no2":5.8,"co":182.0,"o3":60.0,"so2":3.6,"mosquito_risk":10,"arthritis_risk":5,"migraine_risk":0,"frizz_risk":1,"updated_at":"2026-07-07T13:54:37.289651+05:30"},{"city":"Nagpur","state":"Maharashtra","latitude":21.1458,"longitude":79.0882,"temp":28.1,"humidity":77,"rain":0.1,"pressure":962.3,"uv_index":7.75,"wind_gusts":56.2,"aqi":43,"pm10":5.5,"pm2_5":5.5,"no2":6.4,"co":191.0,"o3":65.0,"so2":17.0,"mosquito_risk":10,"arthritis_risk":5,"migraine_risk":7,"frizz_risk":1,"updated_at":"2026-07-07T13:54:37.289659+05:30"},{"city":"Nashik","state":"Maharashtra","latitude":19.9975,"longitude":73.7898,"temp":23.6,"humidity":99,"rain":0.1,"pressure":936.9,"uv_index":1.05,"wind_gusts":49.3,"aqi":24,"pm10":3.9,"pm2_5":2.9,"no2":6.4,"co":153.0,"o3":45.0,"so2":0.4,"mosquito_risk":6,"arthritis_risk":5,"migraine_risk":3,"frizz_risk":1,"updated_at":"2026-07-07T13:54:37.289667+05:30"},{"city":"Aurangabad","state":"Maharashtra","latitude":19.8762,"longitude":75.3433,"temp":25.0,"humidity":86,"rain":0.5,"pressure":935.5,"uv_index":4.55,"wind_gusts":63.4,"aqi":30,"pm10":3.0,"pm2_5":2.9,"no2":3.4,"co":176.0,"o3":67.0,"so2":2.9,"mosquito_risk":10,"arthritis_risk":5,"migraine_risk":3,"frizz_risk":1,"updated_at":"2026-07-07T13:54:37.289674+05:30"},{"city":"Solapur","state":"Maharashtra","latitude":17.6599,"longitude":75.9064,"temp":28.7,"humidity":68,"rain":0.1,"pressure":949.9,"uv_index":5.8,"wind_gusts":73.8,"aqi":24,"pm10":2.9,"pm2_5":2.3,"no2":2.7,"co":115.0,"o3":56.0,"so2":1.4,"mosquito_risk":10,"arthritis_risk":5,"migraine_risk":3,"frizz_risk":1,"updated_at":"2026-07-07T13:54:37.289682+05:30"},{"city":"Kolhapur","state":"Maharashtra","latitude":16.705,"longitude":74.2433,"temp":23.8,"humidity":92,"rain":0.1,"pressure":942.9,"uv_index":3.45,"wind_gusts":57.6,"aqi":22,"pm10":8.8,"pm2_5":5.3,"no2":2.9,"co":123.0,"o3":53.0,"so2":1.5,"mosquito_risk":6,"arthritis_risk":5,"migraine_risk":3,"frizz_risk":1,"updated_at":"2026-07-07T13:54:37.289690+05:30"},{"city":"Goa","state":"Goa","latitude":15.2993,"longitude":74.124,"temp":25.3,"humidity":100,"rain":0.0,"pressure":995.4,"uv_index":6.15,"wind_gusts":47.5,"aqi":60,"pm10":37.6,"pm2_5":17.8,"no2":0.8,"co":155.0,"o3":57.0,"so2":0.7,"mosquito_risk":7,"arthritis_risk":5,"migraine_risk":7,"frizz_risk":1,"updated_at":"2026-07-07T13:54:37.289699+05:30"},{"city":"Jodhpur","state":"Rajasthan","latitude":26.2389,"longitude":73.0243,"temp":34.9,"humidity":61,"rain":0.4,"pressure":975.0,"uv_index":8.25,"wind_gusts":19.8,"aqi":82,"pm10":31.0,"pm2_5":17.2,"no2":0.9,"co":157.0,"o3":131.0,"so2":2.3,"mosquito_risk":6,"arthritis_risk":5,"migraine_risk":7,"frizz_risk":1,"updated_at":"2026-07-07T13:54:37.289707+05:30"},{"city":"Udaipur","state":"Rajasthan","latitude":24.5854,"longitude":73.7125,"temp":32.1,"humidity":65,"rain":0.1,"pressure":939.2,"uv_index":8.8,"wind_gusts":35.6,"aqi":62,"pm10":14.5,"pm2_5":13.0,"no2":0.7,"co":182.0,"o3":120.0,"so2":3.5,"mosquito_risk":6,"arthritis_risk":5,"migraine_risk":7,"frizz_risk":1,"updated_at":"2026-07-07T13:54:37.289715+05:30"},{"city":"Kota","state":"Rajasthan","latitude":25.2138,"longitude":75.8648,"temp":34.4,"humidity":58,"rain":0.0,"pressure":968.6,"uv_index":5.1,"wind_gusts":40.3,"aqi":69,"pm10":15.2,"pm2_5":12.9,"no2":1.8,"co":205.0,"o3":125.0,"so2":6.1,"mosquito_risk":0,"arthritis_risk":5,"migraine_risk":3,"frizz_risk":1,"updated_at":"2026-07-07T13:54:37.289722+05:30"},{"city":"Bikaner","state":"Rajasthan","latitude":28.0229,"longitude":73.3119,"temp":37.4,"humidity":38,"rain":0.0,"pressure":971.5,"uv_index":8.45,"wind_gusts":28.1,"aqi":87,"pm10":140.2,"pm2_5":44.1,"no2":0.4,"co":170.0,"o3":112.0,"so2":4.4,"mosquito_risk":0,"arthritis_risk":5,"migraine_risk":10,"frizz_risk":1,"updated_at":"2026-07-07T13:54:37.289730+05:30"},{"city":"Ajmer","state":"Rajasthan","latitude":26.4499,"longitude":74.6399,"temp":30.9,"humidity":66,"rain":0.0,"pressure":946.5,"uv_index":8.4,"wind_gusts":24.1,"aqi":61,"pm10":21.6,"pm2_5":13.9,"no2":1.0,"co":237.0,"o3":117.0,"so2":1.4,"mosquito_risk":3,"arthritis_risk":5,"migraine_risk":7,"frizz_risk":1,"updated_at":"2026-07-07T13:54:37.289737+05:30"},{"city":"Gwalior","state":"Madhya Pradesh","latitude":26.2183,"longitude":78.1828,"temp":30.1,"humidity":73,"rain":0.0,"pressure":971.9,"uv_index":4.35,"wind_gusts":52.9,"aqi":75,"pm10":47.8,"pm2_5":21.0,"no2":2.2,"co":215.0,"o3":128.0,"so2":3.9,"mosquito_risk":3,"arthritis_risk":5,"migraine_risk":3,"frizz_risk":1,"updated_at":"2026-07-07T13:54:37.289744+05:30"},{"city":"Indore","state":"Madhya Pradesh","latitude":22.7196,"longitude":75.8577,"temp":27.6,"humidity":85,"rain":0.0,"pressure":937.3,"uv_index":7.95,"wind_gusts":30.6,"aqi":77,"pm10":8.7,"pm2_5":8.7,"no2":5.7,"co":339.0,"o3":93.0,"so2":2.4,"mosquito_risk":7,"arthritis_risk":5,"migraine_risk":7,"frizz_risk":1,"updated_at":"2026-07-07T13:54:37.289752+05:30"},{"city":"Bhopal","state":"Madhya Pradesh","latitude":23.2599,"longitude":77.4126,"temp":25.3,"humidity":92,"rain":0.0,"pressure":941.5,"uv_index":8.35,"wind_gusts":19.4,"aqi":48,"pm10":2.5,"pm2_5":2.5,"no2":2.2,"co":295.0,"o3":108.0,"so2":1.5,"mosquito_risk":7,"arthritis_risk":5,"migraine_risk":7,"frizz_risk":1,"updated_at":"2026-07-07T13:54:37.289759+05:30"},{"city":"Jabalpur","state":"Madhya Pradesh","latitude":23.1815,"longitude":79.9864,"temp":31.4,"humidity":65,"rain":0.1,"pressure":950.1,"uv_index":8.0,"wind_gusts":39.2,"aqi":46,"pm10":9.6,"pm2_5":8.4,"no2":1.9,"co":194.0,"o3":89.0,"so2":5.9,"mosquito_risk":6,"arthritis_risk":5,"migraine_risk":7,"frizz_risk":1,"updated_at":"2026-07-07T13:54:37.289767+05:30"},{"city":"Ujjain","state":"Madhya Pradesh","latitude":23.1765,"longitude":75.7885,"temp":28.0,"humidity":77,"rain":0.1,"pressure":942.4,"uv_index":7.75,"wind_gusts":37.1,"aqi":78,"pm10":10.8,"pm2_5":10.7,"no2":4.7,"co":229.0,"o3":96.0,"so2":4.0,"mosquito_risk":10,"arthritis_risk":5,"migraine_risk":7,"frizz_risk":1,"updated_at":"2026-07-07T13:54:37.289775+05:30"},{"city":"Visakhapatnam","state":"Andhra Pradesh","latitude":17.6868,"longitude":83.2185,"temp":31.6,"humidity":64,"rain":0.0,"pressure":997.5,"uv_index":8.65,"wind_gusts":59.4,"aqi":69,"pm10":27.6,"pm2_5":16.9,"no2":3.3,"co":240.0,"o3":93.0,"so2":12.8,"mosquito_risk":3,"arthritis_risk":5,"migraine_risk":7,"frizz_risk":1,"updated_at":"2026-07-07T13:54:37.289783+05:30"},{"city":"Vijayawada","state":"Andhra Pradesh","latitude":16.5062,"longitude":80.648,"temp":36.3,"humidity":43,"rain":0.1,"pressure":995.8,"uv_index":6.4,"wind_gusts":52.9,"aqi":46,"pm10":16.2,"pm2_5":8.1,"no2":1.4,"co":108.0,"o3":76.0,"so2":3.2,"mosquito_risk":3,"arthritis_risk":5,"migraine_risk":10,"frizz_risk":1,"updated_at":"2026-07-07T13:54:37.289790+05:30"},{"city":"Guntur","state":"Andhra Pradesh","latitude":16.3067,"longitude":80.4365,"temp":37.1,"humidity":40,"rain":0.0,"pressure":997.0,"uv_index":5.2,"wind_gusts":56.9,"aqi":36,"pm10":13.3,"pm2_5":6.4,"no2":1.2,"co":105.0,"o3":73.0,"so2":2.6,"mosquito_risk":0,"arthritis_risk":5,"migraine_risk":6,"frizz_risk":1,"updated_at":"2026-07-07T13:54:37.289798+05:30"},{"city":"Nellore","state":"Andhra Pradesh","latitude":14.4426,"longitude":79.9865,"temp":38.3,"humidity":35,"rain":0.0,"pressure":999.8,"uv_index":7.55,"wind_gusts":52.6,"aqi":29,"pm10":15.4,"pm2_5":6.7,"no2":1.3,"co":100.0,"o3":83.0,"so2":2.3,"mosquito_risk":0,"arthritis_risk":5,"migraine_risk":10,"frizz_risk":1,"updated_at":"2026-07-07T13:54:37.289806+05:30"},{"city":"Kurnool","state":"Andhra Pradesh","latitude":15.8281,"longitude":78.0373,"temp":34.0,"humidity":47,"rain":0.0,"pressure":971.4,"uv_index":4.45,"wind_gusts":70.2,"aqi":27,"pm10":11.8,"pm2_5":5.4,"no2":0.7,"co":105.0,"o3":76.0,"so2":1.6,"mosquito_risk":0,"arthritis_risk":5,"migraine_risk":3,"frizz_risk":1,"updated_at":"2026-07-07T13:54:37.289814+05:30"},{"city":"Kakinada","state":"Andhra Pradesh","latitude":16.9891,"longitude":82.2475,"temp":34.1,"humidity":52,"rain":0.0,"pressure":1001.4,"uv_index":7.95,"wind_gusts":55.1,"aqi":62,"pm10":26.5,"pm2_5":14.8,"no2":1.2,"co":127.0,"o3":84.0,"so2":2.4,"mosquito_risk":0,"arthritis_risk":5,"migraine_risk":4,"frizz_risk":1,"updated_at":"2026-07-07T13:54:37.289822+05:30"},{"city":"Tirupati","state":"Andhra Pradesh","latitude":13.6288,"longitude":79.4192,"temp":36.8,"humidity":35,"rain":0.0,"pressure":986.4,"uv_index":7.7,"wind_gusts":55.1,"aqi":31,"pm10":12.6,"pm2_5":6.0,"no2":0.9,"co":111.0,"o3":81.0,"so2":1.4,"mosquito_risk":0,"arthritis_risk":5,"migraine_risk":10,"frizz_risk":1,"updated_at":"2026-07-07T13:54:37.289829+05:30"},{"city":"Warangal","state":"Telangana","latitude":17.9689,"longitude":79.5941,"temp":32.5,"humidity":57,"rain":0.1,"pressure":971.5,"uv_index":6.8,"wind_gusts":56.2,"aqi":30,"pm10":6.9,"pm2_5":4.6,"no2":1.3,"co":134.0,"o3":81.0,"so2":2.9,"mosquito_risk":3,"arthritis_risk":5,"migraine_risk":7,"frizz_risk":1,"updated_at":"2026-07-07T13:54:37.289836+05:30"},{"city":"Nizamabad","state":"Telangana","latitude":18.6725,"longitude":78.0941,"temp":31.5,"humidity":59,"rain":0.0,"pressure":957.2,"uv_index":8.65,"wind_gusts":63.4,"aqi":25,"pm10":2.4,"pm2_5":2.4,"no2":2.1,"co":119.0,"o3":58.0,"so2":1.6,"mosquito_risk":0,"arthritis_risk":5,"migraine_risk":7,"frizz_risk":1,"updated_at":"2026-07-07T13:54:37.289842+05:30"},{"city":"Mysore","state":"Karnataka","latitude":12.2958,"longitude":76.6396,"temp":27.2,"humidity":61,"rain":0.0,"pressure":927.6,"uv_index":7.9,"wind_gusts":72.0,"aqi":27,"pm10":13.4,"pm2_5":6.3,"no2":1.3,"co":106.0,"o3":72.0,"so2":1.2,"mosquito_risk":7,"arthritis_risk":5,"migraine_risk":7,"frizz_risk":1,"updated_at":"2026-07-07T13:54:37.289849+05:30"},{"city":"Mangalore","state":"Karnataka","latitude":12.9141,"longitude":74.856,"temp":28.9,"humidity":73,"rain":0.1,"pressure":1006.5,"uv_index":8.6,"wind_gusts":62.3,"aqi":64,"pm10":46.1,"pm2_5":24.2,"no2":0.8,"co":105.0,"o3":57.0,"so2":1.1,"mosquito_risk":10,"arthritis_risk":5,"migraine_risk":4,"frizz_risk":1,"updated_at":"2026-07-07T13:54:37.289856+05:30"},{"city":"Hubli-Dharwad","state":"Karnataka","latitude":15.3647,"longitude":75.124,"temp":24.3,"humidity":87,"rain":0.1,"pressure":937.6,"uv_index":6.0,"wind_gusts":64.4,"aqi":24,"pm10":12.2,"pm2_5":5.6,"no2":1.3,"co":108.0,"o3":58.0,"so2":0.8,"mosquito_risk":6,"arthritis_risk":5,"migraine_risk":3,"frizz_risk":1,"updated_at":"2026-07-07T13:54:37.289863+05:30"},{"city":"Belgaum","state":"Karnataka","latitude":15.8497,"longitude":74.4977,"temp":23.2,"humidity":94,"rain":0.2,"pressure":921.8,"uv_index":1.35,"wind_gusts":62.6,"aqi":23,"pm10":4.8,"pm2_5":2.6,"no2":3.0,"co":113.0,"o3":50.0,"so2":1.1,"mosquito_risk":6,"arthritis_risk":5,"migraine_risk":3,"frizz_risk":1,"updated_at":"2026-07-07T13:54:40.681471+05:30"},{"city":"Coimbatore","state":"Tamil Nadu","latitude":11.0168,"longitude":76.9558,"temp":29.5,"humidity":64,"rain":0.1,"pressure":961.1,"uv_index":8.45,"wind_gusts":75.2,"aqi":27,"pm10":20.0,"pm2_5":7.9,"no2":1.2,"co":128.0,"o3":69.0,"so2":1.4,"mosquito_risk":10,"arthritis_risk":5,"migraine_risk":7,"frizz_risk":1,"updated_at":"2026-07-07T13:54:40.681507+05:30"},{"city":"Madurai","state":"Tamil Nadu","latitude":9.9252,"longitude":78.1198,"temp":38.8,"humidity":30,"rain":0.0,"pressure":990.5,"uv_index":8.65,"wind_gusts":63.4,"aqi":55,"pm10":34.3,"pm2_5":14.3,"no2":1.6,"co":110.0,"o3":93.0,"so2":1.9,"mosquito_risk":0,"arthritis_risk":5,"migraine_risk":10,"frizz_risk":1,"updated_at":"2026-07-07T13:54:40.681521+05:30"},{"city":"Trichy","state":"Tamil Nadu","latitude":10.7905,"longitude":78.7047,"temp":37.7,"humidity":33,"rain":0.0,"pressure":997.0,"uv_index":8.45,"wind_gusts":75.2,"aqi":44,"pm10":26.7,"pm2_5":11.9,"no2":1.1,"co":103.0,"o3":81.0,"so2":1.4,"mosquito_risk":0,"arthritis_risk":5,"migraine_risk":10,"frizz_risk":1,"updated_at":"2026-07-07T13:54:40.681532+05:30"},{"city":"Salem","state":"Tamil Nadu","latitude":11.6643,"longitude":78.146,"temp":34.7,"humidity":46,"rain":0.0,"pressure":975.6,"uv_index":8.5,"wind_gusts":36.0,"aqi":51,"pm10":21.9,"pm2_5":10.9,"no2":1.6,"co":133.0,"o3":96.0,"so2":4.2,"mosquito_risk":0,"arthritis_risk":5,"migraine_risk":7,"frizz_risk":1,"updated_at":"2026-07-07T13:54:40.681543+05:30"},{"city":"Tirunelveli","state":"Tamil Nadu","latitude":8.7139,"longitude":77.7567,"temp":36.6,"humidity":32,"rain":0.0,"pressure":1002.1,"uv_index":8.55,"wind_gusts":49.7,"aqi":48,"pm10":29.0,"pm2_5":14.3,"no2":0.9,"co":108.0,"o3":74.0,"so2":1.1,"mosquito_risk":0,"arthritis_risk":5,"migraine_risk":7,"frizz_risk":1,"updated_at":"2026-07-07T13:54:40.681552+05:30"},{"city":"Vellore","state":"Tamil Nadu","latitude":12.9165,"longitude":79.1325,"temp":36.4,"humidity":36,"rain":0.0,"pressure":980.7,"uv_index":8.15,"wind_gusts":58.7,"aqi":31,"pm10":10.7,"pm2_5":5.3,"no2":1.1,"co":108.0,"o3":81.0,"so2":1.7,"mosquito_risk":0,"arthritis_risk":5,"migraine_risk":10,"frizz_risk":1,"updated_at":"2026-07-07T13:54:40.681560+05:30"},{"city":"Erode","state":"Tamil Nadu","latitude":11.341,"longitude":77.7172,"temp":35.1,"humidity":41,"rain":0.1,"pressure":987.0,"uv_index":8.2,"wind_gusts":61.2,"aqi":47,"pm10":18.1,"pm2_5":9.7,"no2":1.3,"co":127.0,"o3":85.0,"so2":1.7,"mosquito_risk":3,"arthritis_risk":5,"migraine_risk":10,"frizz_risk":1,"updated_at":"2026-07-07T13:54:40.681567+05:30"},{"city":"Kochi","state":"Kerala","latitude":9.9312,"longitude":76.2673,"temp":29.8,"humidity":73,"rain":0.0,"pressure":1009.7,"uv_index":8.2,"wind_gusts":42.8,"aqi":63,"pm10":36.2,"pm2_5":18.2,"no2":1.3,"co":117.0,"o3":73.0,"so2":2.2,"mosquito_risk":7,"arthritis_risk":0,"migraine_risk":4,"frizz_risk":1,"updated_at":"2026-07-07T13:54:40.681575+05:30"},{"city":"Thiruvananthapuram","state":"Kerala","latitude":8.5241,"longitude":76.9366,"temp":29.3,"humidity":75,"rain":0.0,"pressure":1008.8,"uv_index":8.3,"wind_gusts":48.2,"aqi":54,"pm10":22.2,"pm2_5":13.1,"no2":1.4,"co":94.0,"o3":63.0,"so2":1.0,"mosquito_risk":7,"arthritis_risk":0,"migraine_risk":4,"frizz_risk":1,"updated_at":"2026-07-07T13:54:40.681582+05:30"},{"city":"Kozhikode","state":"Kerala","latitude":11.2588,"longitude":75.7804,"temp":29.2,"humidity":78,"rain":0.1,"pressure":1009.0,"uv_index":8.25,"wind_gusts":37.1,"aqi":61,"pm10":38.8,"pm2_5":18.5,"no2":0.5,"co":114.0,"o3":60.0,"so2":0.8,"mosquito_risk":10,"arthritis_risk":0,"migraine_risk":4,"frizz_risk":1,"updated_at":"2026-07-07T13:54:40.681589+05:30"},{"city":"Thrissur","state":"Kerala","latitude":10.5276,"longitude":76.2144,"temp":29.9,"humidity":70,"rain":0.0,"pressure":1007.8,"uv_index":8.55,"wind_gusts":49.3,"aqi":58,"pm10":31.7,"pm2_5":15.8,"no2":0.9,"co":104.0,"o3":66.0,"so2":1.4,"mosquito_risk":7,"arthritis_risk":5,"migraine_risk":4,"frizz_risk":1,"updated_at":"2026-07-07T13:54:40.681597+05:30"},{"city":"Kannur","state":"Kerala","latitude":11.8745,"longitude":75.3704,"temp":28.0,"humidity":89,"rain":0.1,"pressure":1007.8,"uv_index":7.85,"wind_gusts":51.5,"aqi":58,"pm10":38.3,"pm2_5":18.7,"no2":1.0,"co":114.0,"o3":63.0,"so2":1.1,"mosquito_risk":10,"arthritis_risk":5,"migraine_risk":4,"frizz_risk":1,"updated_at":"2026-07-07T13:54:40.681604+05:30"},{"city":"Patna","state":"Bihar","latitude":25.5941,"longitude":85.1376,"temp":30.9,"humidity":71,"rain":0.0,"pressure":990.1,"uv_index":4.7,"wind_gusts":39.6,"aqi":52,"pm10":11.1,"pm2_5":11.0,"no2":10.7,"co":266.0,"o3":81.0,"so2":11.7,"mosquito_risk":3,"arthritis_risk":5,"migraine_risk":3,"frizz_risk":1,"updated_at":"2026-07-07T13:54:40.681611+05:30"},{"city":"Gaya","state":"Bihar","latitude":24.7914,"longitude":85.0002,"temp":28.7,"humidity":89,"rain":0.2,"pressure":984.2,"uv_index":8.7,"wind_gusts":35.6,"aqi":51,"pm10":8.4,"pm2_5":8.3,"no2":4.9,"co":207.0,"o3":85.0,"so2":10.1,"mosquito_risk":10,"arthritis_risk":5,"migraine_risk":7,"frizz_risk":1,"updated_at":"2026-07-07T13:54:40.681618+05:30"},{"city":"Muzaffarpur","state":"Bihar","latitude":26.1209,"longitude":85.3647,"temp":30.0,"humidity":76,"rain":0.1,"pressure":990.0,"uv_index":7.3,"wind_gusts":48.2,"aqi":48,"pm10":12.1,"pm2_5":12.1,"no2":8.9,"co":251.0,"o3":96.0,"so2":12.7,"mosquito_risk":10,"arthritis_risk":5,"migraine_risk":7,"frizz_risk":1,"updated_at":"2026-07-07T13:54:40.681625+05:30"},{"city":"Bhagalpur","state":"Bihar","latitude":25.2425,"longitude":87.0117,"temp":30.2,"humidity":76,"rain":0.0,"pressure":991.7,"uv_index":8.25,"wind_gusts":42.1,"aqi":55,"pm10":18.6,"pm2_5":18.0,"no2":6.0,"co":297.0,"o3":120.0,"so2":18.7,"mosquito_risk":3,"arthritis_risk":5,"migraine_risk":7,"frizz_risk":1,"updated_at":"2026-07-07T13:54:40.681632+05:30"},{"city":"Ranchi","state":"Jharkhand","latitude":23.3441,"longitude":85.3096,"temp":27.8,"humidity":71,"rain":0.0,"pressure":930.1,"uv_index":6.75,"wind_gusts":51.8,"aqi":29,"pm10":19.1,"pm2_5":11.4,"no2":2.1,"co":151.0,"o3":88.0,"so2":6.6,"mosquito_risk":7,"arthritis_risk":5,"migraine_risk":7,"frizz_risk":1,"updated_at":"2026-07-07T13:54:40.681639+05:30"},{"city":"Jamshedpur","state":"Jharkhand","latitude":22.8046,"longitude":86.2029,"temp":31.4,"humidity":65,"rain":0.0,"pressure":982.7,"uv_index":4.85,"wind_gusts":49.3,"aqi":55,"pm10":27.2,"pm2_5":21.4,"no2":3.6,"co":125.0,"o3":127.0,"so2":21.1,"mosquito_risk":3,"arthritis_risk":5,"migraine_risk":3,"frizz_risk":1,"updated_at":"2026-07-07T13:54:40.681646+05:30"},{"city":"Dhanbad","state":"Jharkhand","latitude":23.7957,"longitude":86.4304,"temp":30.9,"humidity":68,"rain":0.1,"pressure":971.2,"uv_index":6.2,"wind_gusts":47.2,"aqi":77,"pm10":30.6,"pm2_5":28.3,"no2":17.3,"co":289.0,"o3":110.0,"so2":60.4,"mosquito_risk":6,"arthritis_risk":5,"migraine_risk":7,"frizz_risk":1,"updated_at":"2026-07-07T13:54:40.681653+05:30"},{"city":"Bokaro","state":"Jharkhand","latitude":23.6693,"longitude":86.1511,"temp":31.4,"humidity":66,"rain":0.0,"pressure":974.9,"uv_index":6.1,"wind_gusts":48.6,"aqi":69,"pm10":21.2,"pm2_5":19.4,"no2":12.6,"co":120.0,"o3":100.0,"so2":44.6,"mosquito_risk":3,"arthritis_risk":5,"migraine_risk":7,"frizz_risk":1,"updated_at":"2026-07-07T13:54:40.681660+05:30"},{"city":"Bhubaneswar","state":"Odisha","latitude":20.2961,"longitude":85.8245,"temp":31.1,"humidity":72,"rain":0.0,"pressure":995.5,"uv_index":8.85,"wind_gusts":58.7,"aqi":60,"pm10":26.5,"pm2_5":17.9,"no2":1.9,"co":136.0,"o3":90.0,"so2":3.7,"mosquito_risk":3,"arthritis_risk":5,"migraine_risk":7,"frizz_risk":1,"updated_at":"2026-07-07T13:54:40.681667+05:30"},{"city":"Cuttack","state":"Odisha","latitude":20.4625,"longitude":85.8828,"temp":29.7,"humidity":80,"rain":0.0,"pressure":997.2,"uv_index":8.85,"wind_gusts":50.4,"aqi":60,"pm10":26.5,"pm2_5":17.9,"no2":1.9,"co":139.0,"o3":90.0,"so2":3.7,"mosquito_risk":7,"arthritis_risk":5,"migraine_risk":7,"frizz_risk":1,"updated_at":"2026-07-07T13:54:40.681674+05:30"},{"city":"Rourkela","state":"Odisha","latitude":22.2604,"longitude":84.8536,"temp":29.6,"humidity":74,"rain":0.0,"pressure":977.1,"uv_index":7.4,"wind_gusts":47.9,"aqi":36,"pm10":27.6,"pm2_5":16.2,"no2":1.9,"co":142.0,"o3":101.0,"so2":5.3,"mosquito_risk":7,"arthritis_risk":5,"migraine_risk":7,"frizz_risk":1,"updated_at":"2026-07-07T13:54:40.681681+05:30"},{"city":"Raipur","state":"Chhattisgarh","latitude":21.2514,"longitude":81.6296,"temp":30.9,"humidity":61,"rain":0.0,"pressure":965.4,"uv_index":5.9,"wind_gusts":51.1,"aqi":52,"pm10":9.5,"pm2_5":8.7,"no2":5.0,"co":145.0,"o3":88.0,"so2":18.7,"mosquito_risk":3,"arthritis_risk":5,"migraine_risk":3,"frizz_risk":1,"updated_at":"2026-07-07T13:54:40.681687+05:30"},{"city":"Bhilai","state":"Chhattisgarh","latitude":21.1938,"longitude":81.3509,"temp":30.5,"humidity":61,"rain":0.1,"pressure":965.4,"uv_index":7.35,"wind_gusts":51.8,"aqi":51,"pm10":8.3,"pm2_5":7.8,"no2":5.4,"co":249.0,"o3":81.0,"so2":19.2,"mosquito_risk":6,"arthritis_risk":5,"migraine_risk":7,"frizz_risk":1,"updated_at":"2026-07-07T13:54:40.681694+05:30"},{"city":"Guwahati","state":"Assam","latitude":26.1158,"longitude":91.7086,"temp":29.7,"humidity":87,"rain":0.0,"pressure":993.6,"uv_index":7.15,"wind_gusts":21.6,"aqi":33,"pm10":5.9,"pm2_5":5.7,"no2":1.2,"co":190.0,"o3":87.0,"so2":0.9,"mosquito_risk":7,"arthritis_risk":5,"migraine_risk":7,"frizz_risk":1,"updated_at":"2026-07-07T13:54:40.681701+05:30"},{"city":"Agartala","state":"Tripura","latitude":23.8315,"longitude":91.2868,"temp":26.9,"humidity":95,"rain":0.2,"pressure":1000.3,"uv_index":5.95,"wind_gusts":36.4,"aqi":34,"pm10":11.4,"pm2_5":10.1,"no2":3.4,"co":148.0,"o3":94.0,"so2":2.3,"mosquito_risk":10,"arthritis_risk":5,"migraine_risk":0,"frizz_risk":1,"updated_at":"2026-07-07T13:54:40.681707+05:30"},{"city":"Shillong","state":"Meghalaya","latitude":25.5788,"longitude":91.8933,"temp":24.6,"humidity":72,"rain":0.0,"pressure":853.2,"uv_index":2.55,"wind_gusts":36.0,"aqi":28,"pm10":3.4,"pm2_5":3.3,"no2":2.3,"co":131.0,"o3":75.0,"so2":1.5,"mosquito_risk":3,"arthritis_risk":5,"migraine_risk":3,"frizz_risk":1,"updated_at":"2026-07-07T13:54:40.681714+05:30"},{"city":"Imphal","state":"Manipur","latitude":24.817,"longitude":93.9368,"temp":25.2,"humidity":88,"rain":0.0,"pressure":918.7,"uv_index":8.05,"wind_gusts":32.0,"aqi":26,"pm10":3.2,"pm2_5":2.5,"no2":0.7,"co":125.0,"o3":64.0,"so2":0.8,"mosquito_risk":7,"arthritis_risk":5,"migraine_risk":7,"frizz_risk":1,"updated_at":"2026-07-07T13:54:40.681722+05:30"},{"city":"Aizawl","state":"Mizoram","latitude":23.7271,"longitude":92.7176,"temp":20.8,"humidity":96,"rain":0.1,"pressure":888.2,"uv_index":1.9,"wind_gusts":48.2,"aqi":26,"pm10":1.2,"pm2_5":1.1,"no2":1.7,"co":112.0,"o3":53.0,"so2":0.5,"mosquito_risk":6,"arthritis_risk":5,"migraine_risk":3,"frizz_risk":1,"updated_at":"2026-07-07T13:54:40.681729+05:30"},{"city":"Kohima","state":"Nagaland","latitude":25.6701,"longitude":94.1077,"temp":22.7,"humidity":92,"rain":0.1,"pressure":851.3,"uv_index":4.45,"wind_gusts":20.2,"aqi":27,"pm10":2.8,"pm2_5":2.1,"no2":0.5,"co":133.0,"o3":63.0,"so2":0.6,"mosquito_risk":6,"arthritis_risk":5,"migraine_risk":3,"frizz_risk":1,"updated_at":"2026-07-07T13:54:40.681736+05:30"},{"city":"Gangtok","state":"Sikkim","latitude":27.3314,"longitude":88.6138,"temp":21.9,"humidity":85,"rain":0.2,"pressure":834.4,"uv_index":3.2,"wind_gusts":25.6,"aqi":33,"pm10":1.4,"pm2_5":1.4,"no2":2.1,"co":173.0,"o3":80.0,"so2":1.3,"mosquito_risk":6,"arthritis_risk":5,"migraine_risk":3,"frizz_risk":1,"updated_at":"2026-07-07T13:54:40.681743+05:30"},{"city":"Siliguri","state":"West Bengal","latitude":26.7271,"longitude":88.3953,"temp":28.0,"humidity":93,"rain":0.2,"pressure":985.2,"uv_index":8.4,"wind_gusts":31.7,"aqi":34,"pm10":6.3,"pm2_5":6.3,"no2":2.2,"co":251.0,"o3":102.0,"so2":2.9,"mosquito_risk":10,"arthritis_risk":5,"migraine_risk":7,"frizz_risk":1,"updated_at":"2026-07-07T13:54:44.069204+05:30"},{"city":"Durgapur","state":"West Bengal","latitude":23.5204,"longitude":87.3119,"temp":31.2,"humidity":77,"rain":0.2,"pressure":987.0,"uv_index":7.8,"wind_gusts":47.2,"aqi":73,"pm10":26.5,"pm2_5":23.8,"no2":9.7,"co":372.0,"o3":119.0,"so2":35.1,"mosquito_risk":6,"arthritis_risk":5,"migraine_risk":7,"frizz_risk":1,"updated_at":"2026-07-07T13:54:44.069237+05:30"},{"city":"Asansol","state":"West Bengal","latitude":23.6739,"longitude":86.9524,"temp":32.3,"humidity":67,"rain":0.2,"pressure":985.1,"uv_index":7.5,"wind_gusts":47.2,"aqi":67,"pm10":25.6,"pm2_5":22.9,"no2":9.9,"co":156.0,"o3":116.0,"so2":34.2,"mosquito_risk":6,"arthritis_risk":5,"migraine_risk":7,"frizz_risk":1,"updated_at":"2026-07-07T13:54:44.069248+05:30"},{"city":"Pondicherry","state":"Puducherry","latitude":11.9139,"longitude":79.8145,"temp":36.6,"humidity":40,"rain":0.1,"pressure":1004.8,"uv_index":8.55,"wind_gusts":43.6,"aqi":61,"pm10":33.8,"pm2_5":20.0,"no2":2.6,"co":153.0,"o3":111.0,"so2":9.9,"mosquito_risk":3,"arthritis_risk":5,"migraine_risk":7,"frizz_risk":1,"updated_at":"2026-07-07T13:54:44.069257+05:30"},{"city":"Port Blair","state":"Andaman and Nicobar Islands","latitude":11.6234,"longitude":92.7265,"temp":30.7,"humidity":67,"rain":0.0,"pressure":1007.1,"uv_index":8.05,"wind_gusts":41.4,"aqi":56,"pm10":32.6,"pm2_5":18.0,"no2":0.2,"co":95.0,"o3":70.0,"so2":0.7,"mosquito_risk":3,"arthritis_risk":5,"migraine_risk":4,"frizz_risk":1,"updated_at":"2026-07-07T13:54:44.069266+05:30"},{"city":"Haridwar","state":"Uttarakhand","latitude":29.9457,"longitude":78.1642,"temp":29.1,"humidity":87,"rain":0.0,"pressure":965.9,"uv_index":7.25,"wind_gusts":31.3,"aqi":106,"pm10":37.0,"pm2_5":30.6,"no2":1.7,"co":273.0,"o3":172.0,"so2":7.9,"mosquito_risk":7,"arthritis_risk":5,"migraine_risk":7,"frizz_risk":1,"updated_at":"2026-07-07T13:54:44.069274+05:30"},{"city":"Rishikesh","state":"Uttarakhand","latitude":30.0869,"longitude":78.2676,"temp":27.9,"humidity":90,"rain":0.1,"pressure":958.6,"uv_index":6.9,"wind_gusts":30.6,"aqi":76,"pm10":26.7,"pm2_5":23.9,"no2":1.0,"co":261.0,"o3":154.0,"so2":7.1,"mosquito_risk":10,"arthritis_risk":5,"migraine_risk":7,"frizz_risk":1,"updated_at":"2026-07-07T13:54:44.069282+05:30"},{"city":"Nainital","state":"Uttarakhand","latitude":29.3919,"longitude":79.4542,"temp":21.6,"humidity":74,"rain":0.1,"pressure":802.1,"uv_index":5.9,"wind_gusts":29.9,"aqi":73,"pm10":18.9,"pm2_5":18.6,"no2":1.2,"co":184.0,"o3":148.0,"so2":6.4,"mosquito_risk":6,"arthritis_risk":5,"migraine_risk":3,"frizz_risk":1,"updated_at":"2026-07-07T13:54:44.069289+05:30"},{"city":"Mussoorie","state":"Uttarakhand","latitude":30.4599,"longitude":78.0664,"temp":19.5,"humidity":99,"rain":0.1,"pressure":799.7,"uv_index":7.45,"wind_gusts":32.8,"aqi":76,"pm10":24.3,"pm2_5":23.1,"no2":1.3,"co":254.0,"o3":164.0,"so2":6.7,"mosquito_risk":6,"arthritis_risk":10,"migraine_risk":7,"frizz_risk":1,"updated_at":"2026-07-07T13:54:44.069298+05:30"},{"city":"Dharamshala","state":"Himachal Pradesh","latitude":32.219,"longitude":76.3234,"temp":26.3,"humidity":73,"rain":0.0,"pressure":864.6,"uv_index":8.4,"wind_gusts":32.8,"aqi":48,"pm10":13.5,"pm2_5":12.5,"no2":1.0,"co":275.0,"o3":136.0,"so2":1.3,"mosquito_risk":7,"arthritis_risk":5,"migraine_risk":7,"frizz_risk":1,"updated_at":"2026-07-07T13:54:44.069306+05:30"},{"city":"Dalhousie","state":"Himachal Pradesh","latitude":32.5387,"longitude":75.971,"temp":23.8,"humidity":67,"rain":0.0,"pressure":802.1,"uv_index":8.65,"wind_gusts":26.3,"aqi":92,"pm10":23.7,"pm2_5":21.4,"no2":1.4,"co":284.0,"o3":168.0,"so2":3.7,"mosquito_risk":3,"arthritis_risk":5,"migraine_risk":7,"frizz_risk":1,"updated_at":"2026-07-07T13:54:44.069314+05:30"},{"city":"Patiala","state":"Punjab","latitude":30.3398,"longitude":76.3869,"temp":32.5,"humidity":69,"rain":0.0,"pressure":969.8,"uv_index":7.55,"wind_gusts":24.1,"aqi":148,"pm10":58.8,"pm2_5":37.0,"no2":2.4,"co":313.0,"o3":176.0,"so2":9.1,"mosquito_risk":3,"arthritis_risk":5,"migraine_risk":7,"frizz_risk":1,"updated_at":"2026-07-07T13:54:44.069321+05:30"},{"city":"Bhatinda","state":"Punjab","latitude":30.211,"longitude":74.9455,"temp":37.3,"humidity":49,"rain":0.0,"pressure":974.5,"uv_index":8.0,"wind_gusts":22.7,"aqi":156,"pm10":174.6,"pm2_5":75.9,"no2":3.5,"co":423.0,"o3":215.0,"so2":25.1,"mosquito_risk":0,"arthritis_risk":5,"migraine_risk":10,"frizz_risk":1,"updated_at":"2026-07-07T13:54:44.069329+05:30"},{"city":"Rohtak","state":"Haryana","latitude":28.8955,"longitude":76.6066,"temp":30.4,"humidity":77,"rain":0.0,"pressure":972.7,"uv_index":7.0,"wind_gusts":23.0,"aqi":145,"pm10":60.1,"pm2_5":32.6,"no2":8.5,"co":296.0,"o3":163.0,"so2":7.5,"mosquito_risk":3,"arthritis_risk":5,"migraine_risk":7,"frizz_risk":1,"updated_at":"2026-07-07T13:54:44.069336+05:30"},{"city":"Panipat","state":"Haryana","latitude":29.3909,"longitude":76.9635,"temp":31.4,"humidity":66,"rain":0.1,"pressure":971.9,"uv_index":5.0,"wind_gusts":26.3,"aqi":141,"pm10":52.7,"pm2_5":38.6,"no2":7.5,"co":255.0,"o3":189.0,"so2":23.4,"mosquito_risk":6,"arthritis_risk":5,"migraine_risk":3,"frizz_risk":1,"updated_at":"2026-07-07T13:54:44.069342+05:30"},{"city":"Mathura","state":"Uttar Pradesh","latitude":27.4924,"longitude":77.6737,"temp":31.3,"humidity":73,"rain":0.0,"pressure":977.2,"uv_index":3.95,"wind_gusts":24.8,"aqi":113,"pm10":63.6,"pm2_5":24.0,"no2":2.6,"co":234.0,"o3":146.0,"so2":4.6,"mosquito_risk":3,"arthritis_risk":5,"migraine_risk":3,"frizz_risk":1,"updated_at":"2026-07-07T13:54:44.069350+05:30"},{"city":"Vrindavan","state":"Uttar Pradesh","latitude":27.5823,"longitude":77.7027,"temp":32.0,"humidity":70,"rain":0.0,"pressure":977.8,"uv_index":4.7,"wind_gusts":25.9,"aqi":113,"pm10":63.6,"pm2_5":24.0,"no2":2.6,"co":225.0,"o3":146.0,"so2":4.6,"mosquito_risk":3,"arthritis_risk":5,"migraine_risk":3,"frizz_risk":1,"updated_at":"2026-07-07T13:54:44.069357+05:30"},{"city":"Ayodhya","state":"Uttar Pradesh","latitude":26.7922,"longitude":82.1998,"temp":30.0,"humidity":82,"rain":0.0,"pressure":984.6,"uv_index":6.9,"wind_gusts":46.8,"aqi":51,"pm10":10.4,"pm2_5":10.3,"no2":1.8,"co":244.0,"o3":129.0,"so2":6.4,"mosquito_risk":7,"arthritis_risk":5,"migraine_risk":7,"frizz_risk":1,"updated_at":"2026-07-07T13:54:44.069363+05:30"},{"city":"Ratlam","state":"Madhya Pradesh","latitude":23.3315,"longitude":75.0367,"temp":31.4,"humidity":63,"rain":0.0,"pressure":944.3,"uv_index":7.8,"wind_gusts":35.3,"aqi":75,"pm10":14.0,"pm2_5":13.9,"no2":5.3,"co":218.0,"o3":96.0,"so2":7.3,"mosquito_risk":3,"arthritis_risk":5,"migraine_risk":7,"frizz_risk":1,"updated_at":"2026-07-07T13:54:44.069370+05:30"},{"city":"Sagar","state":"Madhya Pradesh","latitude":23.8388,"longitude":78.7378,"temp":27.3,"humidity":83,"rain":0.2,"pressure":938.7,"uv_index":3.1,"wind_gusts":24.1,"aqi":43,"pm10":6.1,"pm2_5":6.0,"no2":2.8,"co":225.0,"o3":108.0,"so2":3.5,"mosquito_risk":10,"arthritis_risk":5,"migraine_risk":3,"frizz_risk":1,"updated_at":"2026-07-07T13:54:44.069377+05:30"},{"city":"Satna","state":"Madhya Pradesh","latitude":24.6005,"longitude":80.8322,"temp":31.4,"humidity":68,"rain":0.1,"pressure":959.8,"uv_index":5.2,"wind_gusts":40.3,"aqi":51,"pm10":10.6,"pm2_5":10.6,"no2":2.7,"co":224.0,"o3":126.0,"so2":14.1,"mosquito_risk":6,"arthritis_risk":5,"migraine_risk":3,"frizz_risk":1,"updated_at":"2026-07-07T13:54:44.069385+05:30"},{"city":"Akola","state":"Maharashtra","latitude":20.7002,"longitude":77.0082,"temp":29.8,"humidity":70,"rain":0.0,"pressure":964.5,"uv_index":7.35,"wind_gusts":48.6,"aqi":29,"pm10":8.5,"pm2_5":8.3,"no2":2.9,"co":229.0,"o3":112.0,"so2":7.7,"mosquito_risk":7,"arthritis_risk":5,"migraine_risk":7,"frizz_risk":1,"updated_at":"2026-07-07T13:54:44.069392+05:30"},{"city":"Amravati","state":"Maharashtra","latitude":20.9374,"longitude":77.7796,"temp":27.6,"humidity":79,"rain":0.1,"pressure":956.2,"uv_index":6.2,"wind_gusts":48.6,"aqi":32,"pm10":8.7,"pm2_5":8.4,"no2":3.5,"co":201.0,"o3":99.0,"so2":9.4,"mosquito_risk":10,"arthritis_risk":5,"migraine_risk":7,"frizz_risk":1,"updated_at":"2026-07-07T13:54:44.069400+05:30"},{"city":"Latur","state":"Maharashtra","latitude":18.4088,"longitude":76.5604,"temp":29.3,"humidity":62,"rain":0.1,"pressure":932.4,"uv_index":7.55,"wind_gusts":67.0,"aqi":23,"pm10":2.0,"pm2_5":2.0,"no2":3.2,"co":121.0,"o3":48.0,"so2":0.3,"mosquito_risk":10,"arthritis_risk":5,"migraine_risk":7,"frizz_risk":1,"updated_at":"2026-07-07T13:54:44.069408+05:30"},{"city":"Nanded","state":"Maharashtra","latitude":19.1383,"longitude":77.3091,"temp":30.9,"humidity":61,"rain":0.0,"pressure":960.3,"uv_index":6.9,"wind_gusts":65.5,"aqi":29,"pm10":2.8,"pm2_5":2.8,"no2":4.0,"co":136.0,"o3":54.0,"so2":2.6,"mosquito_risk":3,"arthritis_risk":5,"migraine_risk":7,"frizz_risk":1,"updated_at":"2026-07-07T13:54:44.069415+05:30"},{"city":"Gulbarga","state":"Karnataka","latitude":17.3297,"longitude":76.8343,"temp":30.8,"humidity":56,"rain":0.0,"pressure":952.0,"uv_index":8.4,"wind_gusts":72.0,"aqi":26,"pm10":6.1,"pm2_5":3.4,"no2":1.5,"co":113.0,"o3":71.0,"so2":1.8,"mosquito_risk":0,"arthritis_risk":5,"migraine_risk":7,"frizz_risk":1,"updated_at":"2026-07-07T13:54:44.069422+05:30"},{"city":"Bidar","state":"Karnataka","latitude":17.9104,"longitude":77.5199,"temp":27.6,"humidity":68,"rain":0.0,"pressure":928.4,"uv_index":7.5,"wind_gusts":69.8,"aqi":25,"pm10":2.0,"pm2_5":1.9,"no2":2.0,"co":111.0,"o3":66.0,"so2":1.4,"mosquito_risk":7,"arthritis_risk":5,"migraine_risk":7,"frizz_risk":1,"updated_at":"2026-07-07T13:54:44.069428+05:30"},{"city":"Hospet","state":"Karnataka","latitude":15.2689,"longitude":76.3909,"temp":30.1,"humidity":59,"rain":0.1,"pressure":952.1,"uv_index":5.75,"wind_gusts":77.8,"aqi":27,"pm10":15.7,"pm2_5":5.7,"no2":0.9,"co":106.0,"o3":66.0,"so2":1.2,"mosquito_risk":3,"arthritis_risk":5,"migraine_risk":3,"frizz_risk":1,"updated_at":"2026-07-07T13:54:44.069435+05:30"},{"city":"Tirupur","state":"Tamil Nadu","latitude":11.1085,"longitude":77.3411,"temp":32.0,"humidity":53,"rain":0.0,"pressure":973.9,"uv_index":8.4,"wind_gusts":74.5,"aqi":50,"pm10":18.3,"pm2_5":9.2,"no2":1.4,"co":127.0,"o3":83.0,"so2":1.9,"mosquito_risk":0,"arthritis_risk":5,"migraine_risk":7,"frizz_risk":1,"updated_at":"2026-07-07T13:54:44.069443+05:30"},{"city":"Alappuzha","state":"Kerala","latitude":9.4981,"longitude":76.3388,"temp":29.8,"humidity":73,"rain":0.0,"pressure":1009.8,"uv_index":8.25,"wind_gusts":42.8,"aqi":64,"pm10":30.9,"pm2_5":17.5,"no2":2.0,"co":90.0,"o3":70.0,"so2":2.2,"mosquito_risk":7,"arthritis_risk":0,"migraine_risk":4,"frizz_risk":1,"updated_at":"2026-07-07T13:54:44.069452+05:30"},{"city":"Munnar","state":"Kerala","latitude":10.0889,"longitude":77.0595,"temp":17.1,"humidity":95,"rain":0.2,"pressure":856.8,"uv_index":5.6,"wind_gusts":62.3,"aqi":30,"pm10":17.8,"pm2_5":9.2,"no2":1.1,"co":97.0,"o3":74.0,"so2":1.3,"mosquito_risk":6,"arthritis_risk":10,"migraine_risk":3,"frizz_risk":1,"updated_at":"2026-07-07T13:54:44.069459+05:30"},{"city":"Silchar","state":"Assam","latitude":24.8333,"longitude":92.7789,"temp":29.0,"humidity":85,"rain":0.2,"pressure":999.3,"uv_index":1.0,"wind_gusts":31.0,"aqi":38,"pm10":7.4,"pm2_5":5.9,"no2":1.2,"co":131.0,"o3":72.0,"so2":1.9,"mosquito_risk":10,"arthritis_risk":5,"migraine_risk":3,"frizz_risk":1,"updated_at":"2026-07-07T13:54:44.069467+05:30"},{"city":"Dibrugarh","state":"Assam","latitude":27.4728,"longitude":94.912,"temp":30.6,"humidity":80,"rain":0.2,"pressure":987.4,"uv_index":2.95,"wind_gusts":42.1,"aqi":38,"pm10":7.4,"pm2_5":6.5,"no2":1.3,"co":173.0,"o3":90.0,"so2":1.6,"mosquito_risk":6,"arthritis_risk":5,"migraine_risk":3,"frizz_risk":1,"updated_at":"2026-07-07T13:54:44.069474+05:30"}]