[{"city":"Delhi","state":"Delhi","latitude":28.6139,"longitude":77.209,"temp":34.8,"humidity":23,"rain":0.0,"pressure":985.3,"uv_index":6.15,"wind_gusts":25.6,"aqi":174,"pm10":379.0,"pm2_5":54.5,"mosquito_risk":0,"arthritis_risk":5,"migraine_risk":7,"frizz_risk":0,"updated_at":"2026-03-11T16:13:22.707310+05:30"},{"city":"Mumbai","state":"Maharashtra","latitude":19.076,"longitude":72.8777,"temp":27.4,"humidity":90,"rain":0.0,"pressure":1009.2,"uv_index":7.6,"wind_gusts":23.4,"aqi":208,"pm10":73.6,"pm2_5":65.4,"mosquito_risk":7,"arthritis_risk":0,"migraine_risk":4,"frizz_risk":1,"updated_at":"2026-03-11T16:13:22.707371+05:30"},{"city":"Bangalore","state":"Karnataka","latitude":12.9716,"longitude":77.5946,"temp":31.3,"humidity":27,"rain":0.0,"pressure":913.4,"uv_index":9.25,"wind_gusts":27.7,"aqi":66,"pm10":10.6,"pm2_5":9.4,"mosquito_risk":0,"arthritis_risk":5,"migraine_risk":7,"frizz_risk":0,"updated_at":"2026-03-11T16:13:22.707387+05:30"},{"city":"Hyderabad","state":"Telangana","latitude":17.385,"longitude":78.4867,"temp":34.9,"humidity":20,"rain":0.0,"pressure":955.4,"uv_index":8.6,"wind_gusts":24.8,"aqi":87,"pm10":34.9,"pm2_5":25.8,"mosquito_risk":0,"arthritis_risk":5,"migraine_risk":7,"frizz_risk":0,"updated_at":"2026-03-11T16:13:22.707398+05:30"},{"city":"Chennai","state":"Tamil Nadu","latitude":13.0827,"longitude":80.2707,"temp":31.2,"humidity":54,"rain":0.0,"pressure":1009.5,"uv_index":9.0,"wind_gusts":31.7,"aqi":67,"pm10":19.7,"pm2_5":16.0,"mosquito_risk":0,"arthritis_risk":0,"migraine_risk":4,"frizz_risk":1,"updated_at":"2026-03-11T16:13:22.707407+05:30"},{"city":"Kolkata","state":"West Bengal","latitude":22.5726,"longitude":88.3639,"temp":28.0,"humidity":73,"rain":0.0,"pressure":1008.1,"uv_index":6.85,"wind_gusts":22.0,"aqi":149,"pm10":56.9,"pm2_5":48.3,"mosquito_risk":7,"arthritis_risk":0,"migraine_risk":4,"frizz_risk":1,"updated_at":"2026-03-11T16:13:22.707417+05:30"},{"city":"Pune","state":"Maharashtra","latitude":18.5204,"longitude":73.8567,"temp":37.1,"humidity":20,"rain":0.0,"pressure":949.9,"uv_index":8.15,"wind_gusts":31.3,"aqi":122,"pm10":27.7,"pm2_5":22.9,"mosquito_risk":0,"arthritis_risk":5,"migraine_risk":10,"frizz_risk":0,"updated_at":"2026-03-11T16:13:22.707428+05:30"},{"city":"Ahmedabad","state":"Gujarat","latitude":23.0225,"longitude":72.5714,"temp":40.6,"humidity":13,"rain":0.0,"pressure":1003.2,"uv_index":7.4,"wind_gusts":25.9,"aqi":89,"pm10":17.3,"pm2_5":15.0,"mosquito_risk":0,"arthritis_risk":5,"migraine_risk":7,"frizz_risk":0,"updated_at":"2026-03-11T16:13:22.707436+05:30"},{"city":"Jaipur","state":"Rajasthan","latitude":26.9124,"longitude":75.7873,"temp":36.7,"humidity":11,"rain":0.0,"pressure":962.7,"uv_index":6.8,"wind_gusts":33.1,"aqi":99,"pm10":163.4,"pm2_5":28.2,"mosquito_risk":0,"arthritis_risk":5,"migraine_risk":10,"frizz_risk":0,"updated_at":"2026-03-11T16:13:22.707442+05:30"},{"city":"Lucknow","state":"Uttar Pradesh","latitude":26.8467,"longitude":80.9462,"temp":33.3,"humidity":36,"rain":0.0,"pressure":995.5,"uv_index":6.6,"wind_gusts":28.8,"aqi":189,"pm10":138.8,"pm2_5":46.8,"mosquito_risk":0,"arthritis_risk":5,"migraine_risk":7,"frizz_risk":1,"updated_at":"2026-03-11T16:13:22.707450+05:30"},{"city":"Kanpur","state":"Uttar Pradesh","latitude":26.4499,"longitude":80.3319,"temp":33.8,"humidity":33,"rain":0.0,"pressure":993.9,"uv_index":6.65,"wind_gusts":23.8,"aqi":176,"pm10":294.3,"pm2_5":53.9,"mosquito_risk":0,"arthritis_risk":5,"migraine_risk":7,"frizz_risk":0,"updated_at":"2026-03-11T16:13:22.707457+05:30"},{"city":"Chandigarh","state":"Chandigarh","latitude":30.7333,"longitude":76.7794,"temp":31.4,"humidity":36,"rain":0.0,"pressure":971.6,"uv_index":5.35,"wind_gusts":24.5,"aqi":151,"pm10":46.7,"pm2_5":28.1,"mosquito_risk":0,"arthritis_risk":5,"migraine_risk":3,"frizz_risk":0,"updated_at":"2026-03-11T16:13:22.707464+05:30"},{"city":"Srinagar","state":"Jammu and Kashmir","latitude":34.0837,"longitude":74.7973,"temp":10.5,"humidity":92,"rain":0.3,"pressure":845.8,"uv_index":4.1,"wind_gusts":28.1,"aqi":124,"pm10":25.5,"pm2_5":16.5,"mosquito_risk":6,"arthritis_risk":10,"migraine_risk":3,"frizz_risk":0,"updated_at":"2026-03-11T16:13:22.707471+05:30"},{"city":"Jammu","state":"Jammu and Kashmir","latitude":32.7266,"longitude":74.857,"temp":28.2,"humidity":43,"rain":0.0,"pressure":976.1,"uv_index":5.6,"wind_gusts":27.0,"aqi":111,"pm10":30.7,"pm2_5":17.3,"mosquito_risk":4,"arthritis_risk":5,"migraine_risk":3,"frizz_risk":0,"updated_at":"2026-03-11T16:13:22.707478+05:30"},{"city":"Amritsar","state":"Punjab","latitude":31.634,"longitude":74.8723,"temp":29.1,"humidity":56,"rain":0.0,"pressure":984.0,"uv_index":6.45,"wind_gusts":23.8,"aqi":158,"pm10":79.4,"pm2_5":43.3,"mosquito_risk":4,"arthritis_risk":5,"migraine_risk":7,"frizz_risk":1,"updated_at":"2026-03-11T16:13:22.707485+05:30"},{"city":"Ludhiana","state":"Punjab","latitude":30.901,"longitude":75.8573,"temp":32.9,"humidity":28,"rain":0.0,"pressure":981.5,"uv_index":6.3,"wind_gusts":14.8,"aqi":176,"pm10":75.0,"pm2_5":47.6,"mosquito_risk":0,"arthritis_risk":5,"migraine_risk":7,"frizz_risk":0,"updated_at":"2026-03-11T16:13:22.707493+05:30"},{"city":"Jalandhar","state":"Punjab","latitude":31.326,"longitude":75.5762,"temp":32.3,"humidity":33,"rain":0.0,"pressure":982.6,"uv_index":6.5,"wind_gusts":17.6,"aqi":168,"pm10":66.8,"pm2_5":35.2,"mosquito_risk":0,"arthritis_risk":5,"migraine_risk":7,"frizz_risk":0,"updated_at":"2026-03-11T16:13:22.707501+05:30"},{"city":"Dehradun","state":"Uttarakhand","latitude":30.6284,"longitude":78.0322,"temp":21.9,"humidity":58,"rain":0.0,"pressure":834.6,"uv_index":5.9,"wind_gusts":28.8,"aqi":83,"pm10":21.5,"pm2_5":14.5,"mosquito_risk":0,"arthritis_risk":5,"migraine_risk":3,"frizz_risk":0,"updated_at":"2026-03-11T16:13:22.707507+05:30"},{"city":"Shimla","state":"Himachal Pradesh","latitude":31.1048,"longitude":77.1734,"temp":19.9,"humidity":48,"rain":0.0,"pressure":789.8,"uv_index":5.85,"wind_gusts":46.8,"aqi":111,"pm10":20.3,"pm2_5":14.5,"mosquito_risk":0,"arthritis_risk":5,"migraine_risk":3,"frizz_risk":0,"updated_at":"2026-03-11T16:13:22.707514+05:30"},{"city":"Manali","state":"Himachal Pradesh","latitude":32.2396,"longitude":77.1887,"temp":18.5,"humidity":39,"rain":0.0,"pressure":825.4,"uv_index":6.7,"wind_gusts":42.5,"aqi":65,"pm10":26.0,"pm2_5":11.8,"mosquito_risk":0,"arthritis_risk":5,"migraine_risk":7,"frizz_risk":0,"updated_at":"2026-03-11T16:13:22.707520+05:30"},{"city":"Gurgaon","state":"Haryana","latitude":28.4595,"longitude":77.0266,"temp":35.1,"humidity":22,"rain":0.0,"pressure":983.7,"uv_index":6.15,"wind_gusts":24.5,"aqi":403,"pm10":1493.8,"pm2_5":143.4,"mosquito_risk":0,"arthritis_risk":5,"migraine_risk":10,"frizz_risk":0,"updated_at":"2026-03-11T16:13:22.707526+05:30"},{"city":"Noida","state":"Uttar Pradesh","latitude":28.5355,"longitude":77.391,"temp":35.2,"humidity":22,"rain":0.0,"pressure":986.7,"uv_index":6.15,"wind_gusts":25.9,"aqi":403,"pm10":1493.8,"pm2_5":143.4,"mosquito_risk":0,"arthritis_risk":5,"migraine_risk":10,"frizz_risk":0,"updated_at":"2026-03-11T16:13:22.707533+05:30"},{"city":"Ghaziabad","state":"Uttar Pradesh","latitude":28.6692,"longitude":77.4538,"temp":34.2,"humidity":25,"rain":0.0,"pressure":985.0,"uv_index":6.1,"wind_gusts":24.5,"aqi":169,"pm10":256.1,"pm2_5":47.4,"mosquito_risk":0,"arthritis_risk":5,"migraine_risk":7,"frizz_risk":0,"updated_at":"2026-03-11T16:13:22.707538+05:30"},{"city":"Faridabad","state":"Haryana","latitude":28.4089,"longitude":77.3178,"temp":35.0,"humidity":21,"rain":0.0,"pressure":986.0,"uv_index":6.15,"wind_gusts":23.0,"aqi":403,"pm10":1493.8,"pm2_5":143.4,"mosquito_risk":0,"arthritis_risk":5,"migraine_risk":7,"frizz_risk":0,"updated_at":"2026-03-11T16:13:22.707544+05:30"},{"city":"Meerut","state":"Uttar Pradesh","latitude":28.9845,"longitude":77.7064,"temp":33.8,"humidity":26,"rain":0.0,"pressure":983.7,"uv_index":5.5,"wind_gusts":29.2,"aqi":169,"pm10":256.1,"pm2_5":47.4,"mosquito_risk":0,"arthritis_risk":5,"migraine_risk":3,"frizz_risk":0,"updated_at":"2026-03-11T16:13:22.707550+05:30"},{"city":"Agra","state":"Uttar Pradesh","latitude":27.1767,"longitude":78.0081,"temp":37.3,"humidity":22,"rain":0.0,"pressure":989.5,"uv_index":6.5,"wind_gusts":18.4,"aqi":258,"pm10":609.1,"pm2_5":65.2,"mosquito_risk":0,"arthritis_risk":5,"migraine_risk":10,"frizz_risk":0,"updated_at":"2026-03-11T16:13:22.707555+05:30"},{"city":"Varanasi","state":"Uttar Pradesh","latitude":25.3176,"longitude":82.9739,"temp":31.7,"humidity":48,"rain":0.0,"pressure":999.6,"uv_index":7.3,"wind_gusts":23.0,"aqi":192,"pm10":129.0,"pm2_5":88.2,"mosquito_risk":0,"arthritis_risk":5,"migraine_risk":7,"frizz_risk":1,"updated_at":"2026-03-11T16:13:22.707563+05:30"},{"city":"Prayagraj","state":"Uttar Pradesh","latitude":25.4358,"longitude":81.8463,"temp":32.5,"humidity":35,"rain":0.0,"pressure":998.5,"uv_index":7.15,"wind_gusts":23.8,"aqi":190,"pm10":106.4,"pm2_5":68.5,"mosquito_risk":0,"arthritis_risk":5,"migraine_risk":7,"frizz_risk":0,"updated_at":"2026-03-11T16:13:22.707569+05:30"},{"city":"Gorakhpur","state":"Uttar Pradesh","latitude":26.7606,"longitude":83.3732,"temp":30.9,"humidity":54,"rain":0.0,"pressure":998.9,"uv_index":7.0,"wind_gusts":22.0,"aqi":214,"pm10":152.3,"pm2_5":128.1,"mosquito_risk":0,"arthritis_risk":5,"migraine_risk":7,"frizz_risk":1,"updated_at":"2026-03-11T16:13:22.707577+05:30"},{"city":"Bareilly","state":"Uttar Pradesh","latitude":28.367,"longitude":79.4304,"temp":32.8,"humidity":35,"rain":0.0,"pressure":988.4,"uv_index":6.35,"wind_gusts":30.6,"aqi":203,"pm10":80.3,"pm2_5":58.3,"mosquito_risk":0,"arthritis_risk":5,"migraine_risk":7,"frizz_risk":0,"updated_at":"2026-03-11T16:13:22.707584+05:30"},{"city":"Aligarh","state":"Uttar Pradesh","latitude":27.8974,"longitude":78.088,"temp":35.8,"humidity":21,"rain":0.0,"pressure":987.6,"uv_index":6.25,"wind_gusts":25.6,"aqi":180,"pm10":568.1,"pm2_5":72.9,"mosquito_risk":0,"arthritis_risk":5,"migraine_risk":10,"frizz_risk":0,"updated_at":"2026-03-11T16:13:22.707590+05:30"},{"city":"Moradabad","state":"Uttar Pradesh","latitude":28.8386,"longitude":78.7733,"temp":33.3,"humidity":28,"rain":0.0,"pressure":985.4,"uv_index":6.15,"wind_gusts":34.6,"aqi":195,"pm10":84.5,"pm2_5":51.6,"mosquito_risk":0,"arthritis_risk":5,"migraine_risk":7,"frizz_risk":0,"updated_at":"2026-03-11T16:13:22.707595+05:30"},{"city":"Saharanpur","state":"Uttar Pradesh","latitude":29.9637,"longitude":77.546,"temp":32.4,"humidity":29,"rain":0.0,"pressure":978.1,"uv_index":5.4,"wind_gusts":36.0,"aqi":170,"pm10":64.0,"pm2_5":32.9,"mosquito_risk":0,"arthritis_risk":5,"migraine_risk":3,"frizz_risk":0,"updated_at":"2026-03-11T16:13:22.707601+05:30"},{"city":"Jhansi","state":"Uttar Pradesh","latitude":25.4484,"longitude":78.5685,"temp":37.1,"humidity":14,"rain":0.0,"pressure":980.3,"uv_index":7.1,"wind_gusts":27.7,"aqi":92,"pm10":38.8,"pm2_5":12.5,"mosquito_risk":0,"arthritis_risk":5,"migraine_risk":10,"frizz_risk":0,"updated_at":"2026-03-11T16:13:25.994281+05:30"},{"city":"Surat","state":"Gujarat","latitude":21.1702,"longitude":72.8311,"temp":38.1,"humidity":27,"rain":0.0,"pressure":1007.2,"uv_index":7.3,"wind_gusts":27.4,"aqi":111,"pm10":42.7,"pm2_5":37.5,"mosquito_risk":0,"arthritis_risk":5,"migraine_risk":7,"frizz_risk":0,"updated_at":"2026-03-11T16:13:25.994317+05:30"},{"city":"Vadodara","state":"Gujarat","latitude":22.3072,"longitude":73.1812,"temp":41.9,"humidity":12,"rain":0.0,"pressure":1004.8,"uv_index":7.45,"wind_gusts":20.2,"aqi":79,"pm10":19.3,"pm2_5":10.9,"mosquito_risk":0,"arthritis_risk":5,"migraine_risk":7,"frizz_risk":0,"updated_at":"2026-03-11T16:13:25.994326+05:30"},{"city":"Rajkot","state":"Gujarat","latitude":22.3039,"longitude":70.8022,"temp":38.7,"humidity":14,"rain":0.0,"pressure":996.4,"uv_index":7.25,"wind_gusts":32.4,"aqi":78,"pm10":18.1,"pm2_5":16.4,"mosquito_risk":0,"arthritis_risk":5,"migraine_risk":10,"frizz_risk":0,"updated_at":"2026-03-11T16:13:25.994334+05:30"},{"city":"Thane","state":"Maharashtra","latitude":19.2183,"longitude":72.9781,"temp":31.2,"humidity":65,"rain":0.0,"pressure":1008.9,"uv_index":7.6,"wind_gusts":40.7,"aqi":208,"pm10":73.6,"pm2_5":65.4,"mosquito_risk":3,"arthritis_risk":0,"migraine_risk":4,"frizz_risk":1,"updated_at":"2026-03-11T16:13:25.994342+05:30"},{"city":"Nagpur","state":"Maharashtra","latitude":21.1458,"longitude":79.0882,"temp":37.1,"humidity":18,"rain":0.0,"pressure":974.8,"uv_index":8.0,"wind_gusts":12.6,"aqi":98,"pm10":46.7,"pm2_5":22.8,"mosquito_risk":0,"arthritis_risk":5,"migraine_risk":10,"frizz_risk":0,"updated_at":"2026-03-11T16:13:25.994349+05:30"},{"city":"Nashik","state":"Maharashtra","latitude":19.9975,"longitude":73.7898,"temp":36.9,"humidity":17,"rain":0.0,"pressure":947.3,"uv_index":7.75,"wind_gusts":25.6,"aqi":119,"pm10":26.8,"pm2_5":22.0,"mosquito_risk":0,"arthritis_risk":5,"migraine_risk":10,"frizz_risk":0,"updated_at":"2026-03-11T16:13:25.994355+05:30"},{"city":"Aurangabad","state":"Maharashtra","latitude":19.8762,"longitude":75.3433,"temp":36.7,"humidity":18,"rain":0.0,"pressure":945.8,"uv_index":8.3,"wind_gusts":18.4,"aqi":129,"pm10":32.2,"pm2_5":25.3,"mosquito_risk":0,"arthritis_risk":5,"migraine_risk":10,"frizz_risk":0,"updated_at":"2026-03-11T16:13:25.994360+05:30"},{"city":"Solapur","state":"Maharashtra","latitude":17.6599,"longitude":75.9064,"temp":35.0,"humidity":26,"rain":0.0,"pressure":958.7,"uv_index":8.5,"wind_gusts":20.5,"aqi":116,"pm10":32.9,"pm2_5":26.4,"mosquito_risk":0,"arthritis_risk":5,"migraine_risk":7,"frizz_risk":0,"updated_at":"2026-03-11T16:13:25.994367+05:30"},{"city":"Kolhapur","state":"Maharashtra","latitude":16.705,"longitude":74.2433,"temp":34.4,"humidity":25,"rain":0.0,"pressure":949.2,"uv_index":8.65,"wind_gusts":32.4,"aqi":152,"pm10":35.0,"pm2_5":28.6,"mosquito_risk":0,"arthritis_risk":5,"migraine_risk":7,"frizz_risk":0,"updated_at":"2026-03-11T16:13:25.994373+05:30"},{"city":"Goa","state":"Goa","latitude":15.2993,"longitude":74.124,"temp":31.3,"humidity":64,"rain":0.0,"pressure":998.1,"uv_index":8.7,"wind_gusts":39.6,"aqi":153,"pm10":56.0,"pm2_5":47.3,"mosquito_risk":3,"arthritis_risk":5,"migraine_risk":7,"frizz_risk":1,"updated_at":"2026-03-11T16:13:25.994378+05:30"},{"city":"Jodhpur","state":"Rajasthan","latitude":26.2389,"longitude":73.0243,"temp":37.2,"humidity":14,"rain":0.0,"pressure":985.7,"uv_index":7.2,"wind_gusts":31.7,"aqi":86,"pm10":68.2,"pm2_5":16.7,"mosquito_risk":0,"arthritis_risk":5,"migraine_risk":10,"frizz_risk":0,"updated_at":"2026-03-11T16:13:25.994384+05:30"},{"city":"Udaipur","state":"Rajasthan","latitude":24.5854,"longitude":73.7125,"temp":36.0,"humidity":13,"rain":0.0,"pressure":950.0,"uv_index":7.8,"wind_gusts":26.3,"aqi":85,"pm10":12.7,"pm2_5":8.9,"mosquito_risk":0,"arthritis_risk":5,"migraine_risk":10,"frizz_risk":0,"updated_at":"2026-03-11T16:13:25.994390+05:30"},{"city":"Kota","state":"Rajasthan","latitude":25.2138,"longitude":75.8648,"temp":38.1,"humidity":13,"rain":0.0,"pressure":981.1,"uv_index":7.2,"wind_gusts":18.7,"aqi":75,"pm10":50.5,"pm2_5":14.9,"mosquito_risk":0,"arthritis_risk":5,"migraine_risk":10,"frizz_risk":0,"updated_at":"2026-03-11T16:13:25.994395+05:30"},{"city":"Bikaner","state":"Rajasthan","latitude":28.0229,"longitude":73.3119,"temp":36.5,"humidity":12,"rain":0.0,"pressure":984.4,"uv_index":6.2,"wind_gusts":27.7,"aqi":88,"pm10":11.7,"pm2_5":7.8,"mosquito_risk":0,"arthritis_risk":5,"migraine_risk":10,"frizz_risk":0,"updated_at":"2026-03-11T16:13:25.994400+05:30"},{"city":"Ajmer","state":"Rajasthan","latitude":26.4499,"longitude":74.6399,"temp":35.4,"humidity":16,"rain":0.0,"pressure":957.9,"uv_index":7.15,"wind_gusts":27.7,"aqi":84,"pm10":36.9,"pm2_5":14.8,"mosquito_risk":0,"arthritis_risk":5,"migraine_risk":10,"frizz_risk":0,"updated_at":"2026-03-11T16:13:25.994406+05:30"},{"city":"Gwalior","state":"Madhya Pradesh","latitude":26.2183,"longitude":78.1828,"temp":35.9,"humidity":16,"rain":0.0,"pressure":985.6,"uv_index":6.8,"wind_gusts":29.9,"aqi":106,"pm10":53.1,"pm2_5":14.8,"mosquito_risk":0,"arthritis_risk":5,"migraine_risk":10,"frizz_risk":0,"updated_at":"2026-03-11T16:13:25.994411+05:30"},{"city":"Indore","state":"Madhya Pradesh","latitude":22.7196,"longitude":75.8577,"temp":35.9,"humidity":13,"rain":0.0,"pressure":951.2,"uv_index":7.7,"wind_gusts":20.9,"aqi":80,"pm10":23.4,"pm2_5":12.1,"mosquito_risk":0,"arthritis_risk":5,"migraine_risk":10,"frizz_risk":0,"updated_at":"2026-03-11T16:13:25.994416+05:30"},{"city":"Bhopal","state":"Madhya Pradesh","latitude":23.2599,"longitude":77.4126,"temp":36.1,"humidity":15,"rain":0.0,"pressure":956.6,"uv_index":7.55,"wind_gusts":24.8,"aqi":86,"pm10":36.4,"pm2_5":14.1,"mosquito_risk":0,"arthritis_risk":5,"migraine_risk":10,"frizz_risk":0,"updated_at":"2026-03-11T16:13:25.994422+05:30"},{"city":"Jabalpur","state":"Madhya Pradesh","latitude":23.1815,"longitude":79.9864,"temp":35.7,"humidity":15,"rain":0.0,"pressure":964.1,"uv_index":7.7,"wind_gusts":24.5,"aqi":86,"pm10":72.9,"pm2_5":22.0,"mosquito_risk":0,"arthritis_risk":5,"migraine_risk":10,"frizz_risk":0,"updated_at":"2026-03-11T16:13:25.994427+05:30"},{"city":"Ujjain","state":"Madhya Pradesh","latitude":23.1765,"longitude":75.7885,"temp":35.4,"humidity":18,"rain":0.0,"pressure":956.8,"uv_index":7.65,"wind_gusts":14.8,"aqi":77,"pm10":22.9,"pm2_5":11.0,"mosquito_risk":0,"arthritis_risk":5,"migraine_risk":10,"frizz_risk":0,"updated_at":"2026-03-11T16:13:25.994433+05:30"},{"city":"Visakhapatnam","state":"Andhra Pradesh","latitude":17.6868,"longitude":83.2185,"temp":31.5,"humidity":42,"rain":0.0,"pressure":1005.4,"uv_index":8.6,"wind_gusts":39.2,"aqi":99,"pm10":31.3,"pm2_5":27.1,"mosquito_risk":0,"arthritis_risk":5,"migraine_risk":4,"frizz_risk":1,"updated_at":"2026-03-11T16:13:25.994438+05:30"},{"city":"Vijayawada","state":"Andhra Pradesh","latitude":16.5062,"longitude":80.648,"temp":34.9,"humidity":30,"rain":0.0,"pressure":1004.0,"uv_index":8.7,"wind_gusts":19.1,"aqi":90,"pm10":19.1,"pm2_5":15.9,"mosquito_risk":0,"arthritis_risk":5,"migraine_risk":4,"frizz_risk":0,"updated_at":"2026-03-11T16:13:25.994444+05:30"},{"city":"Guntur","state":"Andhra Pradesh","latitude":16.3067,"longitude":80.4365,"temp":35.0,"humidity":31,"rain":0.0,"pressure":1005.2,"uv_index":8.7,"wind_gusts":20.2,"aqi":77,"pm10":19.3,"pm2_5":14.8,"mosquito_risk":0,"arthritis_risk":5,"migraine_risk":4,"frizz_risk":0,"updated_at":"2026-03-11T16:13:25.994449+05:30"},{"city":"Nellore","state":"Andhra Pradesh","latitude":14.4426,"longitude":79.9865,"temp":33.0,"humidity":43,"rain":0.0,"pressure":1007.9,"uv_index":8.9,"wind_gusts":28.4,"aqi":67,"pm10":14.6,"pm2_5":12.6,"mosquito_risk":0,"arthritis_risk":5,"migraine_risk":4,"frizz_risk":1,"updated_at":"2026-03-11T16:13:25.994456+05:30"},{"city":"Kurnool","state":"Andhra Pradesh","latitude":15.8281,"longitude":78.0373,"temp":36.3,"humidity":20,"rain":0.0,"pressure":978.2,"uv_index":8.7,"wind_gusts":25.2,"aqi":62,"pm10":23.2,"pm2_5":17.2,"mosquito_risk":0,"arthritis_risk":5,"migraine_risk":10,"frizz_risk":0,"updated_at":"2026-03-11T16:13:25.994462+05:30"},{"city":"Kakinada","state":"Andhra Pradesh","latitude":16.9891,"longitude":82.2475,"temp":35.4,"humidity":34,"rain":0.0,"pressure":1008.6,"uv_index":8.65,"wind_gusts":26.3,"aqi":88,"pm10":20.3,"pm2_5":16.9,"mosquito_risk":0,"arthritis_risk":0,"migraine_risk":7,"frizz_risk":1,"updated_at":"2026-03-11T16:13:25.994467+05:30"},{"city":"Tirupati","state":"Andhra Pradesh","latitude":13.6288,"longitude":79.4192,"temp":33.6,"humidity":34,"rain":0.0,"pressure":993.0,"uv_index":9.0,"wind_gusts":32.4,"aqi":81,"pm10":13.5,"pm2_5":12.2,"mosquito_risk":0,"arthritis_risk":5,"migraine_risk":7,"frizz_risk":0,"updated_at":"2026-03-11T16:13:25.994472+05:30"},{"city":"Warangal","state":"Telangana","latitude":17.9689,"longitude":79.5941,"temp":34.5,"humidity":29,"rain":0.0,"pressure":980.7,"uv_index":8.45,"wind_gusts":23.4,"aqi":91,"pm10":34.0,"pm2_5":25.6,"mosquito_risk":0,"arthritis_risk":5,"migraine_risk":7,"frizz_risk":0,"updated_at":"2026-03-11T16:13:25.994477+05:30"},{"city":"Nizamabad","state":"Telangana","latitude":18.6725,"longitude":78.0941,"temp":35.4,"humidity":21,"rain":0.0,"pressure":966.9,"uv_index":8.35,"wind_gusts":26.6,"aqi":122,"pm10":38.8,"pm2_5":30.6,"mosquito_risk":0,"arthritis_risk":5,"migraine_risk":10,"frizz_risk":0,"updated_at":"2026-03-11T16:13:25.994482+05:30"},{"city":"Mysore","state":"Karnataka","latitude":12.2958,"longitude":76.6396,"temp":31.8,"humidity":28,"rain":0.0,"pressure":929.6,"uv_index":9.25,"wind_gusts":28.8,"aqi":63,"pm10":12.5,"pm2_5":10.7,"mosquito_risk":0,"arthritis_risk":5,"migraine_risk":7,"frizz_risk":0,"updated_at":"2026-03-11T16:13:25.994488+05:30"},{"city":"Mangalore","state":"Karnataka","latitude":12.9141,"longitude":74.856,"temp":28.8,"humidity":83,"rain":0.0,"pressure":1006.4,"uv_index":8.9,"wind_gusts":29.5,"aqi":111,"pm10":35.3,"pm2_5":30.4,"mosquito_risk":7,"arthritis_risk":5,"migraine_risk":4,"frizz_risk":1,"updated_at":"2026-03-11T16:13:25.994493+05:30"},{"city":"Hubli-Dharwad","state":"Karnataka","latitude":15.3647,"longitude":75.124,"temp":34.6,"humidity":21,"rain":0.0,"pressure":942.0,"uv_index":8.85,"wind_gusts":37.1,"aqi":93,"pm10":26.9,"pm2_5":20.8,"mosquito_risk":0,"arthritis_risk":5,"migraine_risk":7,"frizz_risk":0,"updated_at":"2026-03-11T16:13:25.994499+05:30"},{"city":"Belgaum","state":"Karnataka","latitude":15.8497,"longitude":74.4977,"temp":34.0,"humidity":22,"rain":0.0,"pressure":927.2,"uv_index":8.9,"wind_gusts":41.0,"aqi":117,"pm10":41.7,"pm2_5":33.2,"mosquito_risk":0,"arthritis_risk":5,"migraine_risk":7,"frizz_risk":0,"updated_at":"2026-03-11T16:13:29.274763+05:30"},{"city":"Coimbatore","state":"Tamil Nadu","latitude":11.0168,"longitude":76.9558,"temp":33.4,"humidity":29,"rain":0.0,"pressure":962.3,"uv_index":9.25,"wind_gusts":35.6,"aqi":71,"pm10":16.4,"pm2_5":14.3,"mosquito_risk":0,"arthritis_risk":5,"migraine_risk":7,"frizz_risk":0,"updated_at":"2026-03-11T16:13:29.274799+05:30"},{"city":"Madurai","state":"Tamil Nadu","latitude":9.9252,"longitude":78.1198,"temp":34.0,"humidity":39,"rain":0.0,"pressure":993.0,"uv_index":8.3,"wind_gusts":32.8,"aqi":66,"pm10":17.3,"pm2_5":15.4,"mosquito_risk":0,"arthritis_risk":5,"migraine_risk":7,"frizz_risk":1,"updated_at":"2026-03-11T16:13:29.274808+05:30"},{"city":"Trichy","state":"Tamil Nadu","latitude":10.7905,"longitude":78.7047,"temp":34.4,"humidity":37,"rain":0.0,"pressure":1000.2,"uv_index":9.15,"wind_gusts":29.9,"aqi":66,"pm10":20.4,"pm2_5":18.9,"mosquito_risk":0,"arthritis_risk":5,"migraine_risk":4,"frizz_risk":1,"updated_at":"2026-03-11T16:13:29.274817+05:30"},{"city":"Salem","state":"Tamil Nadu","latitude":11.6643,"longitude":78.146,"temp":33.8,"humidity":37,"rain":0.0,"pressure":978.1,"uv_index":9.15,"wind_gusts":20.2,"aqi":73,"pm10":17.1,"pm2_5":15.1,"mosquito_risk":0,"arthritis_risk":5,"migraine_risk":7,"frizz_risk":1,"updated_at":"2026-03-11T16:13:29.274825+05:30"},{"city":"Tirunelveli","state":"Tamil Nadu","latitude":8.7139,"longitude":77.7567,"temp":32.9,"humidity":52,"rain":0.0,"pressure":1003.4,"uv_index":6.2,"wind_gusts":25.9,"aqi":55,"pm10":12.2,"pm2_5":10.7,"mosquito_risk":0,"arthritis_risk":5,"migraine_risk":4,"frizz_risk":1,"updated_at":"2026-03-11T16:13:29.274834+05:30"},{"city":"Vellore","state":"Tamil Nadu","latitude":12.9165,"longitude":79.1325,"temp":32.7,"humidity":38,"rain":0.0,"pressure":986.0,"uv_index":9.1,"wind_gusts":34.6,"aqi":90,"pm10":20.5,"pm2_5":18.9,"mosquito_risk":0,"arthritis_risk":5,"migraine_risk":7,"frizz_risk":1,"updated_at":"2026-03-11T16:13:29.274842+05:30"},{"city":"Erode","state":"Tamil Nadu","latitude":11.341,"longitude":77.7172,"temp":34.8,"humidity":31,"rain":0.0,"pressure":989.5,"uv_index":9.15,"wind_gusts":18.7,"aqi":76,"pm10":18.9,"pm2_5":16.6,"mosquito_risk":0,"arthritis_risk":5,"migraine_risk":7,"frizz_risk":0,"updated_at":"2026-03-11T16:13:29.274850+05:30"},{"city":"Kochi","state":"Kerala","latitude":9.9312,"longitude":76.2673,"temp":28.6,"humidity":80,"rain":0.0,"pressure":1008.0,"uv_index":8.25,"wind_gusts":38.9,"aqi":120,"pm10":36.0,"pm2_5":31.2,"mosquito_risk":7,"arthritis_risk":0,"migraine_risk":4,"frizz_risk":1,"updated_at":"2026-03-11T16:13:29.274858+05:30"},{"city":"Thiruvananthapuram","state":"Kerala","latitude":8.5241,"longitude":76.9366,"temp":28.6,"humidity":75,"rain":0.0,"pressure":1007.9,"uv_index":7.3,"wind_gusts":25.6,"aqi":67,"pm10":20.1,"pm2_5":17.9,"mosquito_risk":7,"arthritis_risk":5,"migraine_risk":4,"frizz_risk":1,"updated_at":"2026-03-11T16:13:29.274865+05:30"},{"city":"Kozhikode","state":"Kerala","latitude":11.2588,"longitude":75.7804,"temp":29.4,"humidity":75,"rain":0.0,"pressure":1007.9,"uv_index":8.95,"wind_gusts":31.3,"aqi":123,"pm10":37.3,"pm2_5":32.0,"mosquito_risk":7,"arthritis_risk":5,"migraine_risk":4,"frizz_risk":1,"updated_at":"2026-03-11T16:13:29.274872+05:30"},{"city":"Thrissur","state":"Kerala","latitude":10.5276,"longitude":76.2144,"temp":32.1,"humidity":58,"rain":0.0,"pressure":1006.6,"uv_index":9.05,"wind_gusts":39.2,"aqi":91,"pm10":18.5,"pm2_5":16.2,"mosquito_risk":0,"arthritis_risk":5,"migraine_risk":4,"frizz_risk":1,"updated_at":"2026-03-11T16:13:29.274881+05:30"},{"city":"Kannur","state":"Kerala","latitude":11.8745,"longitude":75.3704,"temp":29.7,"humidity":75,"rain":0.0,"pressure":1007.4,"uv_index":8.95,"wind_gusts":38.9,"aqi":138,"pm10":50.8,"pm2_5":43.0,"mosquito_risk":7,"arthritis_risk":5,"migraine_risk":4,"frizz_risk":1,"updated_at":"2026-03-11T16:13:29.274888+05:30"},{"city":"Patna","state":"Bihar","latitude":25.5941,"longitude":85.1376,"temp":30.8,"humidity":56,"rain":0.0,"pressure":1002.0,"uv_index":6.85,"wind_gusts":24.8,"aqi":198,"pm10":149.9,"pm2_5":130.9,"mosquito_risk":0,"arthritis_risk":5,"migraine_risk":4,"frizz_risk":1,"updated_at":"2026-03-11T16:13:29.274895+05:30"},{"city":"Gaya","state":"Bihar","latitude":24.7914,"longitude":85.0002,"temp":30.5,"humidity":58,"rain":0.0,"pressure":995.5,"uv_index":7.5,"wind_gusts":21.6,"aqi":173,"pm10":110.1,"pm2_5":97.3,"mosquito_risk":0,"arthritis_risk":5,"migraine_risk":7,"frizz_risk":1,"updated_at":"2026-03-11T16:13:29.274901+05:30"},{"city":"Muzaffarpur","state":"Bihar","latitude":26.1209,"longitude":85.3647,"temp":29.9,"humidity":59,"rain":0.0,"pressure":1002.1,"uv_index":7.4,"wind_gusts":22.0,"aqi":215,"pm10":149.9,"pm2_5":130.4,"mosquito_risk":4,"arthritis_risk":5,"migraine_risk":4,"frizz_risk":1,"updated_at":"2026-03-11T16:13:29.274908+05:30"},{"city":"Bhagalpur","state":"Bihar","latitude":25.2425,"longitude":87.0117,"temp":29.0,"humidity":66,"rain":0.0,"pressure":1002.8,"uv_index":7.15,"wind_gusts":18.4,"aqi":173,"pm10":84.5,"pm2_5":73.8,"mosquito_risk":7,"arthritis_risk":5,"migraine_risk":4,"frizz_risk":1,"updated_at":"2026-03-11T16:13:29.274914+05:30"},{"city":"Ranchi","state":"Jharkhand","latitude":23.3441,"longitude":85.3096,"temp":30.2,"humidity":39,"rain":0.0,"pressure":939.5,"uv_index":8.15,"wind_gusts":28.1,"aqi":171,"pm10":94.1,"pm2_5":73.8,"mosquito_risk":0,"arthritis_risk":5,"migraine_risk":7,"frizz_risk":0,"updated_at":"2026-03-11T16:13:29.274922+05:30"},{"city":"Jamshedpur","state":"Jharkhand","latitude":22.8046,"longitude":86.2029,"temp":29.7,"humidity":65,"rain":0.0,"pressure":992.2,"uv_index":8.05,"wind_gusts":24.1,"aqi":159,"pm10":108.3,"pm2_5":88.7,"mosquito_risk":7,"arthritis_risk":5,"migraine_risk":7,"frizz_risk":1,"updated_at":"2026-03-11T16:13:29.274928+05:30"},{"city":"Dhanbad","state":"Jharkhand","latitude":23.7957,"longitude":86.4304,"temp":29.5,"humidity":54,"rain":0.0,"pressure":981.5,"uv_index":7.6,"wind_gusts":23.8,"aqi":190,"pm10":123.4,"pm2_5":107.1,"mosquito_risk":4,"arthritis_risk":5,"migraine_risk":7,"frizz_risk":1,"updated_at":"2026-03-11T16:13:29.274935+05:30"},{"city":"Bokaro","state":"Jharkhand","latitude":23.6693,"longitude":86.1511,"temp":29.0,"humidity":62,"rain":0.0,"pressure":985.3,"uv_index":7.75,"wind_gusts":37.8,"aqi":192,"pm10":132.7,"pm2_5":114.8,"mosquito_risk":7,"arthritis_risk":5,"migraine_risk":7,"frizz_risk":1,"updated_at":"2026-03-11T16:13:29.274942+05:30"},{"city":"Bhubaneswar","state":"Odisha","latitude":20.2961,"longitude":85.8245,"temp":32.0,"humidity":57,"rain":0.0,"pressure":1003.5,"uv_index":8.35,"wind_gusts":28.4,"aqi":118,"pm10":40.5,"pm2_5":33.4,"mosquito_risk":0,"arthritis_risk":5,"migraine_risk":4,"frizz_risk":1,"updated_at":"2026-03-11T16:13:29.274950+05:30"},{"city":"Cuttack","state":"Odisha","latitude":20.4625,"longitude":85.8828,"temp":33.9,"humidity":48,"rain":0.0,"pressure":1005.0,"uv_index":8.4,"wind_gusts":27.4,"aqi":118,"pm10":40.5,"pm2_5":33.4,"mosquito_risk":0,"arthritis_risk":5,"migraine_risk":4,"frizz_risk":1,"updated_at":"2026-03-11T16:13:29.274957+05:30"},{"city":"Rourkela","state":"Odisha","latitude":22.2604,"longitude":84.8536,"temp":34.7,"humidity":36,"rain":0.0,"pressure":985.6,"uv_index":7.95,"wind_gusts":27.4,"aqi":163,"pm10":85.7,"pm2_5":61.9,"mosquito_risk":0,"arthritis_risk":5,"migraine_risk":7,"frizz_risk":1,"updated_at":"2026-03-11T16:13:29.274965+05:30"},{"city":"Raipur","state":"Chhattisgarh","latitude":21.2514,"longitude":81.6296,"temp":36.9,"humidity":19,"rain":0.0,"pressure":976.0,"uv_index":8.05,"wind_gusts":24.1,"aqi":153,"pm10":67.3,"pm2_5":43.8,"mosquito_risk":0,"arthritis_risk":5,"migraine_risk":10,"frizz_risk":0,"updated_at":"2026-03-11T16:13:29.274972+05:30"},{"city":"Bhilai","state":"Chhattisgarh","latitude":21.1938,"longitude":81.3509,"temp":37.3,"humidity":21,"rain":0.0,"pressure":976.3,"uv_index":8.05,"wind_gusts":19.1,"aqi":150,"pm10":68.5,"pm2_5":42.7,"mosquito_risk":0,"arthritis_risk":5,"migraine_risk":10,"frizz_risk":0,"updated_at":"2026-03-11T16:13:29.274979+05:30"},{"city":"Guwahati","state":"Assam","latitude":26.1158,"longitude":91.7086,"temp":30.5,"humidity":54,"rain":0.0,"pressure":1001.5,"uv_index":7.35,"wind_gusts":23.0,"aqi":154,"pm10":67.3,"pm2_5":59.4,"mosquito_risk":0,"arthritis_risk":5,"migraine_risk":4,"frizz_risk":1,"updated_at":"2026-03-11T16:13:29.274985+05:30"},{"city":"Agartala","state":"Tripura","latitude":23.8315,"longitude":91.2868,"temp":30.2,"humidity":57,"rain":0.0,"pressure":1007.0,"uv_index":7.75,"wind_gusts":15.8,"aqi":170,"pm10":77.1,"pm2_5":67.3,"mosquito_risk":0,"arthritis_risk":5,"migraine_risk":4,"frizz_risk":1,"updated_at":"2026-03-11T16:13:29.274992+05:30"},{"city":"Shillong","state":"Meghalaya","latitude":25.5788,"longitude":91.8933,"temp":19.0,"humidity":60,"rain":0.0,"pressure":858.0,"uv_index":6.65,"wind_gusts":19.1,"aqi":135,"pm10":48.8,"pm2_5":43.3,"mosquito_risk":0,"arthritis_risk":5,"migraine_risk":7,"frizz_risk":0,"updated_at":"2026-03-11T16:13:29.274998+05:30"},{"city":"Imphal","state":"Manipur","latitude":24.817,"longitude":93.9368,"temp":23.1,"humidity":58,"rain":0.0,"pressure":924.2,"uv_index":7.95,"wind_gusts":40.3,"aqi":153,"pm10":55.2,"pm2_5":48.7,"mosquito_risk":0,"arthritis_risk":5,"migraine_risk":7,"frizz_risk":0,"updated_at":"2026-03-11T16:13:29.275005+05:30"},{"city":"Aizawl","state":"Mizoram","latitude":23.7271,"longitude":92.7176,"temp":23.7,"humidity":56,"rain":0.0,"pressure":894.2,"uv_index":7.9,"wind_gusts":27.4,"aqi":180,"pm10":99.4,"pm2_5":90.3,"mosquito_risk":0,"arthritis_risk":5,"migraine_risk":7,"frizz_risk":0,"updated_at":"2026-03-11T16:13:29.275012+05:30"},{"city":"Kohima","state":"Nagaland","latitude":25.6701,"longitude":94.1077,"temp":18.3,"humidity":76,"rain":0.0,"pressure":856.2,"uv_index":7.05,"wind_gusts":32.8,"aqi":140,"pm10":58.9,"pm2_5":52.4,"mosquito_risk":3,"arthritis_risk":5,"migraine_risk":7,"frizz_risk":0,"updated_at":"2026-03-11T16:13:29.275019+05:30"},{"city":"Gangtok","state":"Sikkim","latitude":27.3314,"longitude":88.6138,"temp":19.7,"humidity":64,"rain":0.0,"pressure":839.5,"uv_index":6.3,"wind_gusts":19.8,"aqi":133,"pm10":53.9,"pm2_5":47.3,"mosquito_risk":3,"arthritis_risk":5,"migraine_risk":7,"frizz_risk":0,"updated_at":"2026-03-11T16:13:29.275026+05:30"},{"city":"Siliguri","state":"West Bengal","latitude":26.7271,"longitude":88.3953,"temp":25.0,"humidity":73,"rain":0.0,"pressure":995.1,"uv_index":5.75,"wind_gusts":21.2,"aqi":166,"pm10":92.4,"pm2_5":80.6,"mosquito_risk":7,"arthritis_risk":5,"migraine_risk":3,"frizz_risk":1,"updated_at":"2026-03-11T16:13:32.591118+05:30"},{"city":"Durgapur","state":"West Bengal","latitude":23.5204,"longitude":87.3119,"temp":30.9,"humidity":56,"rain":0.0,"pressure":996.3,"uv_index":7.6,"wind_gusts":20.5,"aqi":163,"pm10":90.1,"pm2_5":78.5,"mosquito_risk":0,"arthritis_risk":5,"migraine_risk":7,"frizz_risk":1,"updated_at":"2026-03-11T16:13:32.591157+05:30"},{"city":"Asansol","state":"West Bengal","latitude":23.6739,"longitude":86.9524,"temp":30.9,"humidity":55,"rain":0.0,"pressure":994.8,"uv_index":7.85,"wind_gusts":20.2,"aqi":168,"pm10":102.4,"pm2_5":88.0,"mosquito_risk":0,"arthritis_risk":5,"migraine_risk":7,"frizz_risk":1,"updated_at":"2026-03-11T16:13:32.591167+05:30"},{"city":"Pondicherry","state":"Puducherry","latitude":11.9139,"longitude":79.8145,"temp":31.8,"humidity":56,"rain":0.0,"pressure":1010.0,"uv_index":9.0,"wind_gusts":31.3,"aqi":60,"pm10":20.8,"pm2_5":16.1,"mosquito_risk":0,"arthritis_risk":0,"migraine_risk":4,"frizz_risk":1,"updated_at":"2026-03-11T16:13:32.591176+05:30"},{"city":"Port Blair","state":"Andaman and Nicobar Islands","latitude":11.6234,"longitude":92.7265,"temp":28.4,"humidity":78,"rain":0.0,"pressure":1007.9,"uv_index":8.95,"wind_gusts":20.2,"aqi":61,"pm10":21.1,"pm2_5":18.6,"mosquito_risk":7,"arthritis_risk":5,"migraine_risk":4,"frizz_risk":1,"updated_at":"2026-03-11T16:13:32.591185+05:30"},{"city":"Haridwar","state":"Uttarakhand","latitude":29.9457,"longitude":78.1642,"temp":32.7,"humidity":28,"rain":0.0,"pressure":976.4,"uv_index":5.9,"wind_gusts":38.5,"aqi":157,"pm10":47.3,"pm2_5":26.0,"mosquito_risk":0,"arthritis_risk":5,"migraine_risk":3,"frizz_risk":0,"updated_at":"2026-03-11T16:13:32.591193+05:30"},{"city":"Rishikesh","state":"Uttarakhand","latitude":30.0869,"longitude":78.2676,"temp":31.6,"humidity":37,"rain":0.0,"pressure":969.2,"uv_index":5.9,"wind_gusts":36.4,"aqi":153,"pm10":42.6,"pm2_5":22.3,"mosquito_risk":0,"arthritis_risk":5,"migraine_risk":3,"frizz_risk":0,"updated_at":"2026-03-11T16:13:32.591219+05:30"},{"city":"Nainital","state":"Uttarakhand","latitude":29.3919,"longitude":79.4542,"temp":23.8,"humidity":51,"rain":0.0,"pressure":810.1,"uv_index":6.8,"wind_gusts":64.4,"aqi":172,"pm10":77.8,"pm2_5":57.9,"mosquito_risk":0,"arthritis_risk":5,"migraine_risk":7,"frizz_risk":0,"updated_at":"2026-03-11T16:13:32.591228+05:30"},{"city":"Mussoorie","state":"Uttarakhand","latitude":30.4599,"longitude":78.0664,"temp":22.7,"humidity":53,"rain":0.0,"pressure":807.4,"uv_index":5.6,"wind_gusts":38.9,"aqi":150,"pm10":45.4,"pm2_5":30.4,"mosquito_risk":0,"arthritis_risk":5,"migraine_risk":3,"frizz_risk":0,"updated_at":"2026-03-11T16:13:32.591237+05:30"},{"city":"Dharamshala","state":"Himachal Pradesh","latitude":32.219,"longitude":76.3234,"temp":24.6,"humidity":43,"rain":0.0,"pressure":873.5,"uv_index":5.5,"wind_gusts":25.9,"aqi":64,"pm10":30.9,"pm2_5":16.2,"mosquito_risk":0,"arthritis_risk":5,"migraine_risk":3,"frizz_risk":0,"updated_at":"2026-03-11T16:13:32.591245+05:30"},{"city":"Dalhousie","state":"Himachal Pradesh","latitude":32.5387,"longitude":75.971,"temp":22.5,"humidity":26,"rain":0.0,"pressure":808.9,"uv_index":4.75,"wind_gusts":23.0,"aqi":94,"pm10":14.0,"pm2_5":7.7,"mosquito_risk":0,"arthritis_risk":5,"migraine_risk":3,"frizz_risk":0,"updated_at":"2026-03-11T16:13:32.591254+05:30"},{"city":"Patiala","state":"Punjab","latitude":30.3398,"longitude":76.3869,"temp":32.6,"humidity":31,"rain":0.0,"pressure":980.9,"uv_index":5.3,"wind_gusts":19.1,"aqi":169,"pm10":102.9,"pm2_5":42.4,"mosquito_risk":0,"arthritis_risk":5,"migraine_risk":3,"frizz_risk":0,"updated_at":"2026-03-11T16:13:32.591261+05:30"},{"city":"Bhatinda","state":"Punjab","latitude":30.211,"longitude":74.9455,"temp":33.7,"humidity":26,"rain":0.0,"pressure":986.1,"uv_index":6.6,"wind_gusts":25.2,"aqi":152,"pm10":83.8,"pm2_5":36.8,"mosquito_risk":0,"arthritis_risk":5,"migraine_risk":7,"frizz_risk":0,"updated_at":"2026-03-11T16:13:32.591268+05:30"},{"city":"Rohtak","state":"Haryana","latitude":28.8955,"longitude":76.6066,"temp":34.6,"humidity":21,"rain":0.0,"pressure":984.2,"uv_index":6.1,"wind_gusts":27.4,"aqi":177,"pm10":473.1,"pm2_5":57.7,"mosquito_risk":0,"arthritis_risk":5,"migraine_risk":7,"frizz_risk":0,"updated_at":"2026-03-11T16:13:32.591275+05:30"},{"city":"Panipat","state":"Haryana","latitude":29.3909,"longitude":76.9635,"temp":33.8,"humidity":26,"rain":0.0,"pressure":982.8,"uv_index":5.35,"wind_gusts":24.8,"aqi":197,"pm10":646.3,"pm2_5":71.0,"mosquito_risk":0,"arthritis_risk":5,"migraine_risk":3,"frizz_risk":0,"updated_at":"2026-03-11T16:13:32.591282+05:30"},{"city":"Mathura","state":"Uttar Pradesh","latitude":27.4924,"longitude":77.6737,"temp":36.9,"humidity":19,"rain":0.0,"pressure":988.6,"uv_index":6.4,"wind_gusts":21.2,"aqi":199,"pm10":486.2,"pm2_5":59.5,"mosquito_risk":0,"arthritis_risk":5,"migraine_risk":10,"frizz_risk":0,"updated_at":"2026-03-11T16:13:32.591288+05:30"},{"city":"Vrindavan","state":"Uttar Pradesh","latitude":27.5823,"longitude":77.7027,"temp":36.5,"humidity":18,"rain":0.0,"pressure":989.3,"uv_index":6.4,"wind_gusts":23.0,"aqi":199,"pm10":486.2,"pm2_5":59.5,"mosquito_risk":0,"arthritis_risk":5,"migraine_risk":10,"frizz_risk":0,"updated_at":"2026-03-11T16:13:32.591293+05:30"},{"city":"Ayodhya","state":"Uttar Pradesh","latitude":26.7922,"longitude":82.1998,"temp":31.8,"humidity":45,"rain":0.0,"pressure":997.3,"uv_index":6.8,"wind_gusts":25.2,"aqi":198,"pm10":116.9,"pm2_5":80.1,"mosquito_risk":0,"arthritis_risk":5,"migraine_risk":7,"frizz_risk":1,"updated_at":"2026-03-11T16:13:32.591299+05:30"},{"city":"Ratlam","state":"Madhya Pradesh","latitude":23.3315,"longitude":75.0367,"temp":36.6,"humidity":16,"rain":0.0,"pressure":957.4,"uv_index":7.6,"wind_gusts":19.8,"aqi":80,"pm10":22.1,"pm2_5":11.0,"mosquito_risk":0,"arthritis_risk":5,"migraine_risk":10,"frizz_risk":0,"updated_at":"2026-03-11T16:13:32.591306+05:30"},{"city":"Sagar","state":"Madhya Pradesh","latitude":23.8388,"longitude":78.7378,"temp":35.6,"humidity":12,"rain":0.0,"pressure":953.2,"uv_index":7.55,"wind_gusts":24.8,"aqi":91,"pm10":54.4,"pm2_5":15.3,"mosquito_risk":0,"arthritis_risk":5,"migraine_risk":10,"frizz_risk":0,"updated_at":"2026-03-11T16:13:32.591313+05:30"},{"city":"Satna","state":"Madhya Pradesh","latitude":24.6005,"longitude":80.8322,"temp":35.5,"humidity":15,"rain":0.0,"pressure":973.9,"uv_index":7.55,"wind_gusts":34.2,"aqi":149,"pm10":61.9,"pm2_5":22.6,"mosquito_risk":0,"arthritis_risk":5,"migraine_risk":10,"frizz_risk":0,"updated_at":"2026-03-11T16:13:32.591320+05:30"},{"city":"Akola","state":"Maharashtra","latitude":20.7002,"longitude":77.0082,"temp":38.7,"humidity":17,"rain":0.0,"pressure":976.1,"uv_index":8.0,"wind_gusts":18.4,"aqi":97,"pm10":29.2,"pm2_5":16.4,"mosquito_risk":0,"arthritis_risk":5,"migraine_risk":10,"frizz_risk":0,"updated_at":"2026-03-11T16:13:32.591327+05:30"},{"city":"Amravati","state":"Maharashtra","latitude":20.9374,"longitude":77.7796,"temp":38.2,"humidity":17,"rain":0.0,"pressure":968.7,"uv_index":8.0,"wind_gusts":11.9,"aqi":101,"pm10":32.6,"pm2_5":17.2,"mosquito_risk":0,"arthritis_risk":5,"migraine_risk":10,"frizz_risk":0,"updated_at":"2026-03-11T16:13:32.591334+05:30"},{"city":"Latur","state":"Maharashtra","latitude":18.4088,"longitude":76.5604,"temp":34.2,"humidity":24,"rain":0.0,"pressure":941.9,"uv_index":8.45,"wind_gusts":24.5,"aqi":107,"pm10":26.4,"pm2_5":22.0,"mosquito_risk":0,"arthritis_risk":5,"migraine_risk":7,"frizz_risk":0,"updated_at":"2026-03-11T16:13:32.591340+05:30"},{"city":"Nanded","state":"Maharashtra","latitude":19.1383,"longitude":77.3091,"temp":37.1,"humidity":21,"rain":0.0,"pressure":970.1,"uv_index":8.25,"wind_gusts":18.0,"aqi":126,"pm10":33.4,"pm2_5":27.3,"mosquito_risk":0,"arthritis_risk":5,"migraine_risk":10,"frizz_risk":0,"updated_at":"2026-03-11T16:13:32.591345+05:30"},{"city":"Gulbarga","state":"Karnataka","latitude":17.3297,"longitude":76.8343,"temp":36.2,"humidity":21,"rain":0.0,"pressure":960.3,"uv_index":8.5,"wind_gusts":21.6,"aqi":102,"pm10":37.1,"pm2_5":28.7,"mosquito_risk":0,"arthritis_risk":5,"migraine_risk":10,"frizz_risk":0,"updated_at":"2026-03-11T16:13:32.591351+05:30"},{"city":"Bidar","state":"Karnataka","latitude":17.9104,"longitude":77.5199,"temp":34.9,"humidity":21,"rain":0.0,"pressure":937.6,"uv_index":8.5,"wind_gusts":24.8,"aqi":106,"pm10":34.8,"pm2_5":27.4,"mosquito_risk":0,"arthritis_risk":5,"migraine_risk":7,"frizz_risk":0,"updated_at":"2026-03-11T16:13:32.591356+05:30"},{"city":"Hospet","state":"Karnataka","latitude":15.2689,"longitude":76.3909,"temp":34.5,"humidity":23,"rain":0.0,"pressure":957.0,"uv_index":8.8,"wind_gusts":28.4,"aqi":75,"pm10":23.3,"pm2_5":18.9,"mosquito_risk":0,"arthritis_risk":5,"migraine_risk":7,"frizz_risk":0,"updated_at":"2026-03-11T16:13:32.591361+05:30"},{"city":"Tirupur","state":"Tamil Nadu","latitude":11.1085,"longitude":77.3411,"temp":34.5,"humidity":28,"rain":0.0,"pressure":975.8,"uv_index":9.3,"wind_gusts":29.5,"aqi":84,"pm10":20.1,"pm2_5":17.8,"mosquito_risk":0,"arthritis_risk":5,"migraine_risk":7,"frizz_risk":0,"updated_at":"2026-03-11T16:13:32.591366+05:30"},{"city":"Alappuzha","state":"Kerala","latitude":9.4981,"longitude":76.3388,"temp":28.5,"humidity":79,"rain":0.0,"pressure":1008.1,"uv_index":8.6,"wind_gusts":37.8,"aqi":127,"pm10":37.6,"pm2_5":31.7,"mosquito_risk":7,"arthritis_risk":0,"migraine_risk":4,"frizz_risk":1,"updated_at":"2026-03-11T16:13:32.591372+05:30"},{"city":"Munnar","state":"Kerala","latitude":10.0889,"longitude":77.0595,"temp":29.1,"humidity":39,"rain":0.0,"pressure":859.0,"uv_index":8.0,"wind_gusts":27.4,"aqi":63,"pm10":14.9,"pm2_5":12.8,"mosquito_risk":4,"arthritis_risk":5,"migraine_risk":7,"frizz_risk":0,"updated_at":"2026-03-11T16:13:32.591378+05:30"},{"city":"Silchar","state":"Assam","latitude":24.8333,"longitude":92.7789,"temp":30.4,"humidity":56,"rain":0.0,"pressure":1005.3,"uv_index":7.65,"wind_gusts":13.7,"aqi":169,"pm10":89.2,"pm2_5":77.5,"mosquito_risk":0,"arthritis_risk":5,"migraine_risk":4,"frizz_risk":1,"updated_at":"2026-03-11T16:13:32.591384+05:30"},{"city":"Dibrugarh","state":"Assam","latitude":27.4728,"longitude":94.912,"temp":28.7,"humidity":58,"rain":0.0,"pressure":996.1,"uv_index":7.45,"wind_gusts":21.6,"aqi":163,"pm10":71.2,"pm2_5":63.8,"mosquito_risk":4,"arthritis_risk":5,"migraine_risk":7,"frizz_risk":1,"updated_at":"2026-03-11T16:13:32.591389+05:30"}]