[{"city":"Delhi","state":"Delhi","latitude":28.6139,"longitude":77.209,"temp":26.2,"humidity":46,"rain":0.0,"pressure":980.5,"uv_index":7.3,"wind_gusts":25.6,"aqi":163,"pm10":241.2,"pm2_5":56.5,"mosquito_risk":4,"arthritis_risk":5,"migraine_risk":7,"frizz_risk":0,"updated_at":"2026-04-15T03:29:08.253345+05:30"},{"city":"Mumbai","state":"Maharashtra","latitude":19.076,"longitude":72.8777,"temp":29.3,"humidity":78,"rain":0.0,"pressure":1006.3,"uv_index":8.0,"wind_gusts":20.5,"aqi":122,"pm10":68.5,"pm2_5":24.7,"mosquito_risk":7,"arthritis_risk":5,"migraine_risk":4,"frizz_risk":1,"updated_at":"2026-04-15T03:29:08.253395+05:30"},{"city":"Bangalore","state":"Karnataka","latitude":12.9716,"longitude":77.5946,"temp":24.1,"humidity":51,"rain":0.0,"pressure":910.1,"uv_index":9.65,"wind_gusts":26.6,"aqi":80,"pm10":27.8,"pm2_5":22.1,"mosquito_risk":0,"arthritis_risk":5,"migraine_risk":7,"frizz_risk":0,"updated_at":"2026-04-15T03:29:08.253411+05:30"},{"city":"Hyderabad","state":"Telangana","latitude":17.385,"longitude":78.4867,"temp":28.0,"humidity":56,"rain":0.0,"pressure":951.0,"uv_index":9.25,"wind_gusts":27.0,"aqi":97,"pm10":27.2,"pm2_5":22.8,"mosquito_risk":4,"arthritis_risk":5,"migraine_risk":7,"frizz_risk":1,"updated_at":"2026-04-15T03:29:08.253421+05:30"},{"city":"Chennai","state":"Tamil Nadu","latitude":13.0827,"longitude":80.2707,"temp":27.7,"humidity":87,"rain":0.0,"pressure":1005.3,"uv_index":9.35,"wind_gusts":36.0,"aqi":38,"pm10":9.9,"pm2_5":6.9,"mosquito_risk":7,"arthritis_risk":5,"migraine_risk":4,"frizz_risk":1,"updated_at":"2026-04-15T03:29:08.253430+05:30"},{"city":"Kolkata","state":"West Bengal","latitude":22.5726,"longitude":88.3639,"temp":26.9,"humidity":90,"rain":0.0,"pressure":1003.3,"uv_index":8.85,"wind_gusts":30.2,"aqi":95,"pm10":29.5,"pm2_5":22.5,"mosquito_risk":7,"arthritis_risk":5,"migraine_risk":4,"frizz_risk":1,"updated_at":"2026-04-15T03:29:08.253439+05:30"},{"city":"Pune","state":"Maharashtra","latitude":18.5204,"longitude":73.8567,"temp":24.4,"humidity":57,"rain":0.0,"pressure":946.4,"uv_index":8.6,"wind_gusts":39.6,"aqi":75,"pm10":64.7,"pm2_5":31.4,"mosquito_risk":0,"arthritis_risk":5,"migraine_risk":7,"frizz_risk":0,"updated_at":"2026-04-15T03:29:08.253453+05:30"},{"city":"Ahmedabad","state":"Gujarat","latitude":23.0225,"longitude":72.5714,"temp":26.5,"humidity":54,"rain":0.0,"pressure":999.5,"uv_index":8.15,"wind_gusts":20.9,"aqi":62,"pm10":59.3,"pm2_5":20.1,"mosquito_risk":4,"arthritis_risk":5,"migraine_risk":7,"frizz_risk":1,"updated_at":"2026-04-15T03:29:08.253461+05:30"},{"city":"Jaipur","state":"Rajasthan","latitude":26.9124,"longitude":75.7873,"temp":25.6,"humidity":43,"rain":0.0,"pressure":956.6,"uv_index":7.95,"wind_gusts":25.9,"aqi":99,"pm10":364.1,"pm2_5":58.4,"mosquito_risk":4,"arthritis_risk":5,"migraine_risk":7,"frizz_risk":0,"updated_at":"2026-04-15T03:29:08.253471+05:30"},{"city":"Lucknow","state":"Uttar Pradesh","latitude":26.8467,"longitude":80.9462,"temp":26.0,"humidity":56,"rain":0.0,"pressure":990.0,"uv_index":7.8,"wind_gusts":26.3,"aqi":123,"pm10":236.6,"pm2_5":46.7,"mosquito_risk":4,"arthritis_risk":5,"migraine_risk":7,"frizz_risk":1,"updated_at":"2026-04-15T03:29:08.253480+05:30"},{"city":"Kanpur","state":"Uttar Pradesh","latitude":26.4499,"longitude":80.3319,"temp":24.6,"humidity":60,"rain":0.0,"pressure":988.1,"uv_index":7.8,"wind_gusts":21.2,"aqi":181,"pm10":285.9,"pm2_5":52.9,"mosquito_risk":0,"arthritis_risk":5,"migraine_risk":7,"frizz_risk":1,"updated_at":"2026-04-15T03:29:08.253488+05:30"},{"city":"Chandigarh","state":"Chandigarh","latitude":30.7333,"longitude":76.7794,"temp":19.2,"humidity":66,"rain":0.0,"pressure":966.3,"uv_index":7.25,"wind_gusts":29.2,"aqi":59,"pm10":21.5,"pm2_5":19.2,"mosquito_risk":3,"arthritis_risk":5,"migraine_risk":7,"frizz_risk":0,"updated_at":"2026-04-15T03:29:08.253495+05:30"},{"city":"Srinagar","state":"Jammu and Kashmir","latitude":34.0837,"longitude":74.7973,"temp":8.5,"humidity":80,"rain":0.0,"pressure":838.7,"uv_index":7.95,"wind_gusts":15.5,"aqi":81,"pm10":45.6,"pm2_5":37.0,"mosquito_risk":3,"arthritis_risk":5,"migraine_risk":7,"frizz_risk":0,"updated_at":"2026-04-15T03:29:08.253502+05:30"},{"city":"Jammu","state":"Jammu and Kashmir","latitude":32.7266,"longitude":74.857,"temp":19.4,"humidity":74,"rain":0.0,"pressure":971.4,"uv_index":7.95,"wind_gusts":29.5,"aqi":67,"pm10":27.2,"pm2_5":24.9,"mosquito_risk":3,"arthritis_risk":5,"migraine_risk":7,"frizz_risk":0,"updated_at":"2026-04-15T03:29:08.253509+05:30"},{"city":"Amritsar","state":"Punjab","latitude":31.634,"longitude":74.8723,"temp":20.0,"humidity":63,"rain":0.0,"pressure":979.3,"uv_index":7.75,"wind_gusts":25.9,"aqi":86,"pm10":63.6,"pm2_5":58.6,"mosquito_risk":3,"arthritis_risk":5,"migraine_risk":7,"frizz_risk":0,"updated_at":"2026-04-15T03:29:08.253515+05:30"},{"city":"Ludhiana","state":"Punjab","latitude":30.901,"longitude":75.8573,"temp":21.4,"humidity":58,"rain":0.0,"pressure":977.0,"uv_index":7.3,"wind_gusts":25.2,"aqi":72,"pm10":37.3,"pm2_5":35.2,"mosquito_risk":0,"arthritis_risk":5,"migraine_risk":7,"frizz_risk":0,"updated_at":"2026-04-15T03:29:08.253522+05:30"},{"city":"Jalandhar","state":"Punjab","latitude":31.326,"longitude":75.5762,"temp":19.8,"humidity":66,"rain":0.0,"pressure":978.2,"uv_index":7.6,"wind_gusts":24.5,"aqi":68,"pm10":32.0,"pm2_5":28.0,"mosquito_risk":3,"arthritis_risk":5,"migraine_risk":7,"frizz_risk":0,"updated_at":"2026-04-15T03:29:08.253530+05:30"},{"city":"Dehradun","state":"Uttarakhand","latitude":30.6284,"longitude":78.0322,"temp":13.8,"humidity":61,"rain":0.0,"pressure":827.5,"uv_index":7.7,"wind_gusts":27.4,"aqi":49,"pm10":16.6,"pm2_5":13.0,"mosquito_risk":3,"arthritis_risk":5,"migraine_risk":7,"frizz_risk":0,"updated_at":"2026-04-15T03:29:08.253537+05:30"},{"city":"Shimla","state":"Himachal Pradesh","latitude":31.1048,"longitude":77.1734,"temp":11.6,"humidity":69,"rain":0.0,"pressure":781.4,"uv_index":7.75,"wind_gusts":45.0,"aqi":61,"pm10":23.1,"pm2_5":16.1,"mosquito_risk":3,"arthritis_risk":5,"migraine_risk":7,"frizz_risk":0,"updated_at":"2026-04-15T03:29:08.253544+05:30"},{"city":"Manali","state":"Himachal Pradesh","latitude":32.2396,"longitude":77.1887,"temp":14.8,"humidity":46,"rain":0.0,"pressure":818.3,"uv_index":9.0,"wind_gusts":34.2,"aqi":68,"pm10":28.9,"pm2_5":16.3,"mosquito_risk":0,"arthritis_risk":5,"migraine_risk":7,"frizz_risk":0,"updated_at":"2026-04-15T03:29:08.253551+05:30"},{"city":"Gurgaon","state":"Haryana","latitude":28.4595,"longitude":77.0266,"temp":23.8,"humidity":59,"rain":0.0,"pressure":978.9,"uv_index":7.4,"wind_gusts":23.4,"aqi":484,"pm10":601.6,"pm2_5":95.0,"mosquito_risk":0,"arthritis_risk":5,"migraine_risk":7,"frizz_risk":0,"updated_at":"2026-04-15T03:29:08.253559+05:30"},{"city":"Noida","state":"Uttar Pradesh","latitude":28.5355,"longitude":77.391,"temp":25.7,"humidity":49,"rain":0.0,"pressure":981.9,"uv_index":7.35,"wind_gusts":25.9,"aqi":484,"pm10":601.6,"pm2_5":95.0,"mosquito_risk":4,"arthritis_risk":5,"migraine_risk":7,"frizz_risk":0,"updated_at":"2026-04-15T03:29:08.253566+05:30"},{"city":"Ghaziabad","state":"Uttar Pradesh","latitude":28.6692,"longitude":77.4538,"temp":23.7,"humidity":54,"rain":0.0,"pressure":980.0,"uv_index":7.3,"wind_gusts":24.8,"aqi":128,"pm10":127.6,"pm2_5":38.9,"mosquito_risk":0,"arthritis_risk":5,"migraine_risk":7,"frizz_risk":0,"updated_at":"2026-04-15T03:29:08.253572+05:30"},{"city":"Faridabad","state":"Haryana","latitude":28.4089,"longitude":77.3178,"temp":24.6,"humidity":51,"rain":0.0,"pressure":981.1,"uv_index":7.35,"wind_gusts":25.6,"aqi":484,"pm10":601.6,"pm2_5":95.0,"mosquito_risk":0,"arthritis_risk":5,"migraine_risk":7,"frizz_risk":0,"updated_at":"2026-04-15T03:29:08.253579+05:30"},{"city":"Meerut","state":"Uttar Pradesh","latitude":28.9845,"longitude":77.7064,"temp":21.9,"humidity":58,"rain":0.0,"pressure":978.7,"uv_index":7.2,"wind_gusts":30.2,"aqi":128,"pm10":127.6,"pm2_5":38.9,"mosquito_risk":0,"arthritis_risk":5,"migraine_risk":7,"frizz_risk":0,"updated_at":"2026-04-15T03:29:08.253585+05:30"},{"city":"Agra","state":"Uttar Pradesh","latitude":27.1767,"longitude":78.0081,"temp":26.3,"humidity":48,"rain":0.0,"pressure":984.8,"uv_index":7.65,"wind_gusts":19.8,"aqi":406,"pm10":343.7,"pm2_5":86.6,"mosquito_risk":4,"arthritis_risk":5,"migraine_risk":7,"frizz_risk":0,"updated_at":"2026-04-15T03:29:08.253592+05:30"},{"city":"Varanasi","state":"Uttar Pradesh","latitude":25.3176,"longitude":82.9739,"temp":24.8,"humidity":45,"rain":0.0,"pressure":993.9,"uv_index":8.4,"wind_gusts":26.6,"aqi":103,"pm10":119.7,"pm2_5":42.0,"mosquito_risk":0,"arthritis_risk":5,"migraine_risk":7,"frizz_risk":0,"updated_at":"2026-04-15T03:29:08.253601+05:30"},{"city":"Prayagraj","state":"Uttar Pradesh","latitude":25.4358,"longitude":81.8463,"temp":26.7,"humidity":46,"rain":0.0,"pressure":992.3,"uv_index":8.25,"wind_gusts":22.3,"aqi":106,"pm10":126.2,"pm2_5":41.9,"mosquito_risk":4,"arthritis_risk":5,"migraine_risk":7,"frizz_risk":0,"updated_at":"2026-04-15T03:29:08.253609+05:30"},{"city":"Gorakhpur","state":"Uttar Pradesh","latitude":26.7606,"longitude":83.3732,"temp":21.5,"humidity":56,"rain":0.0,"pressure":993.1,"uv_index":8.2,"wind_gusts":26.6,"aqi":84,"pm10":93.8,"pm2_5":29.7,"mosquito_risk":0,"arthritis_risk":5,"migraine_risk":7,"frizz_risk":0,"updated_at":"2026-04-15T03:29:08.253615+05:30"},{"city":"Bareilly","state":"Uttar Pradesh","latitude":28.367,"longitude":79.4304,"temp":22.1,"humidity":63,"rain":0.0,"pressure":983.5,"uv_index":7.55,"wind_gusts":27.4,"aqi":75,"pm10":77.3,"pm2_5":33.4,"mosquito_risk":3,"arthritis_risk":5,"migraine_risk":7,"frizz_risk":0,"updated_at":"2026-04-15T03:29:08.253622+05:30"},{"city":"Aligarh","state":"Uttar Pradesh","latitude":27.8974,"longitude":78.088,"temp":23.6,"humidity":53,"rain":0.0,"pressure":982.3,"uv_index":7.45,"wind_gusts":32.0,"aqi":233,"pm10":400.5,"pm2_5":74.3,"mosquito_risk":0,"arthritis_risk":5,"migraine_risk":7,"frizz_risk":0,"updated_at":"2026-04-15T03:29:08.253631+05:30"},{"city":"Moradabad","state":"Uttar Pradesh","latitude":28.8386,"longitude":78.7733,"temp":22.7,"humidity":62,"rain":0.0,"pressure":980.5,"uv_index":7.4,"wind_gusts":29.5,"aqi":85,"pm10":81.0,"pm2_5":40.4,"mosquito_risk":3,"arthritis_risk":5,"migraine_risk":7,"frizz_risk":0,"updated_at":"2026-04-15T03:29:08.253639+05:30"},{"city":"Saharanpur","state":"Uttar Pradesh","latitude":29.9637,"longitude":77.546,"temp":18.7,"humidity":74,"rain":0.0,"pressure":972.9,"uv_index":7.0,"wind_gusts":30.2,"aqi":83,"pm10":41.6,"pm2_5":40.2,"mosquito_risk":3,"arthritis_risk":5,"migraine_risk":7,"frizz_risk":0,"updated_at":"2026-04-15T03:29:08.253645+05:30"},{"city":"Jhansi","state":"Uttar Pradesh","latitude":25.4484,"longitude":78.5685,"temp":26.3,"humidity":40,"rain":0.0,"pressure":974.7,"uv_index":8.2,"wind_gusts":26.6,"aqi":65,"pm10":75.9,"pm2_5":21.5,"mosquito_risk":4,"arthritis_risk":5,"migraine_risk":7,"frizz_risk":0,"updated_at":"2026-04-15T03:29:11.553109+05:30"},{"city":"Surat","state":"Gujarat","latitude":21.1702,"longitude":72.8311,"temp":27.8,"humidity":82,"rain":0.0,"pressure":1004.3,"uv_index":7.85,"wind_gusts":27.0,"aqi":106,"pm10":44.4,"pm2_5":27.9,"mosquito_risk":7,"arthritis_risk":5,"migraine_risk":4,"frizz_risk":1,"updated_at":"2026-04-15T03:29:11.553145+05:30"},{"city":"Vadodara","state":"Gujarat","latitude":22.3072,"longitude":73.1812,"temp":27.2,"humidity":72,"rain":0.0,"pressure":1001.8,"uv_index":8.1,"wind_gusts":27.7,"aqi":80,"pm10":44.0,"pm2_5":25.8,"mosquito_risk":7,"arthritis_risk":5,"migraine_risk":4,"frizz_risk":1,"updated_at":"2026-04-15T03:29:11.553159+05:30"},{"city":"Rajkot","state":"Gujarat","latitude":22.3039,"longitude":70.8022,"temp":24.1,"humidity":74,"rain":0.0,"pressure":992.9,"uv_index":7.85,"wind_gusts":29.5,"aqi":64,"pm10":62.4,"pm2_5":20.7,"mosquito_risk":3,"arthritis_risk":5,"migraine_risk":7,"frizz_risk":1,"updated_at":"2026-04-15T03:29:11.553170+05:30"},{"city":"Thane","state":"Maharashtra","latitude":19.2183,"longitude":72.9781,"temp":26.8,"humidity":82,"rain":0.0,"pressure":1005.8,"uv_index":8.0,"wind_gusts":32.8,"aqi":122,"pm10":68.5,"pm2_5":24.7,"mosquito_risk":7,"arthritis_risk":5,"migraine_risk":4,"frizz_risk":1,"updated_at":"2026-04-15T03:29:11.553180+05:30"},{"city":"Nagpur","state":"Maharashtra","latitude":21.1458,"longitude":79.0882,"temp":25.6,"humidity":47,"rain":0.0,"pressure":969.6,"uv_index":8.85,"wind_gusts":26.3,"aqi":85,"pm10":44.2,"pm2_5":32.5,"mosquito_risk":4,"arthritis_risk":5,"migraine_risk":7,"frizz_risk":0,"updated_at":"2026-04-15T03:29:11.553189+05:30"},{"city":"Nashik","state":"Maharashtra","latitude":19.9975,"longitude":73.7898,"temp":25.5,"humidity":36,"rain":0.0,"pressure":943.9,"uv_index":8.3,"wind_gusts":34.2,"aqi":74,"pm10":95.5,"pm2_5":25.4,"mosquito_risk":4,"arthritis_risk":5,"migraine_risk":7,"frizz_risk":0,"updated_at":"2026-04-15T03:29:11.553197+05:30"},{"city":"Aurangabad","state":"Maharashtra","latitude":19.8762,"longitude":75.3433,"temp":28.0,"humidity":43,"rain":0.0,"pressure":942.1,"uv_index":8.95,"wind_gusts":30.6,"aqi":66,"pm10":55.4,"pm2_5":23.7,"mosquito_risk":4,"arthritis_risk":5,"migraine_risk":7,"frizz_risk":0,"updated_at":"2026-04-15T03:29:11.553205+05:30"},{"city":"Solapur","state":"Maharashtra","latitude":17.6599,"longitude":75.9064,"temp":28.6,"humidity":42,"rain":0.0,"pressure":954.2,"uv_index":9.05,"wind_gusts":28.8,"aqi":61,"pm10":22.1,"pm2_5":19.8,"mosquito_risk":4,"arthritis_risk":5,"migraine_risk":7,"frizz_risk":0,"updated_at":"2026-04-15T03:29:11.553214+05:30"},{"city":"Kolhapur","state":"Maharashtra","latitude":16.705,"longitude":74.2433,"temp":22.1,"humidity":93,"rain":0.0,"pressure":945.6,"uv_index":9.05,"wind_gusts":42.1,"aqi":87,"pm10":48.4,"pm2_5":38.1,"mosquito_risk":3,"arthritis_risk":5,"migraine_risk":7,"frizz_risk":1,"updated_at":"2026-04-15T03:29:11.553222+05:30"},{"city":"Goa","state":"Goa","latitude":15.2993,"longitude":74.124,"temp":28.3,"humidity":81,"rain":0.0,"pressure":995.9,"uv_index":9.0,"wind_gusts":31.0,"aqi":87,"pm10":63.6,"pm2_5":39.9,"mosquito_risk":7,"arthritis_risk":5,"migraine_risk":7,"frizz_risk":1,"updated_at":"2026-04-15T03:29:11.553230+05:30"},{"city":"Jodhpur","state":"Rajasthan","latitude":26.2389,"longitude":73.0243,"temp":27.9,"humidity":35,"rain":0.0,"pressure":979.7,"uv_index":8.15,"wind_gusts":23.4,"aqi":70,"pm10":115.5,"pm2_5":26.4,"mosquito_risk":4,"arthritis_risk":5,"migraine_risk":7,"frizz_risk":0,"updated_at":"2026-04-15T03:29:11.553237+05:30"},{"city":"Udaipur","state":"Rajasthan","latitude":24.5854,"longitude":73.7125,"temp":26.3,"humidity":46,"rain":0.0,"pressure":944.6,"uv_index":8.7,"wind_gusts":32.0,"aqi":59,"pm10":115.9,"pm2_5":26.1,"mosquito_risk":4,"arthritis_risk":5,"migraine_risk":7,"frizz_risk":0,"updated_at":"2026-04-15T03:29:11.553245+05:30"},{"city":"Kota","state":"Rajasthan","latitude":25.2138,"longitude":75.8648,"temp":25.9,"humidity":43,"rain":0.0,"pressure":975.0,"uv_index":8.2,"wind_gusts":22.3,"aqi":70,"pm10":25.1,"pm2_5":13.3,"mosquito_risk":4,"arthritis_risk":5,"migraine_risk":7,"frizz_risk":0,"updated_at":"2026-04-15T03:29:11.553252+05:30"},{"city":"Bikaner","state":"Rajasthan","latitude":28.0229,"longitude":73.3119,"temp":28.4,"humidity":37,"rain":0.0,"pressure":979.7,"uv_index":7.95,"wind_gusts":15.1,"aqi":67,"pm10":49.7,"pm2_5":17.5,"mosquito_risk":4,"arthritis_risk":5,"migraine_risk":7,"frizz_risk":0,"updated_at":"2026-04-15T03:29:11.553259+05:30"},{"city":"Ajmer","state":"Rajasthan","latitude":26.4499,"longitude":74.6399,"temp":24.8,"humidity":48,"rain":0.0,"pressure":951.5,"uv_index":8.15,"wind_gusts":25.6,"aqi":58,"pm10":63.8,"pm2_5":23.7,"mosquito_risk":0,"arthritis_risk":5,"migraine_risk":7,"frizz_risk":0,"updated_at":"2026-04-15T03:29:11.553267+05:30"},{"city":"Gwalior","state":"Madhya Pradesh","latitude":26.2183,"longitude":78.1828,"temp":28.3,"humidity":47,"rain":0.0,"pressure":980.0,"uv_index":7.95,"wind_gusts":29.5,"aqi":114,"pm10":170.0,"pm2_5":35.2,"mosquito_risk":4,"arthritis_risk":5,"migraine_risk":7,"frizz_risk":0,"updated_at":"2026-04-15T03:29:11.553273+05:30"},{"city":"Indore","state":"Madhya Pradesh","latitude":22.7196,"longitude":75.8577,"temp":24.3,"humidity":52,"rain":0.0,"pressure":945.5,"uv_index":8.55,"wind_gusts":31.3,"aqi":74,"pm10":25.8,"pm2_5":17.2,"mosquito_risk":0,"arthritis_risk":5,"migraine_risk":7,"frizz_risk":0,"updated_at":"2026-04-15T03:29:11.553281+05:30"},{"city":"Bhopal","state":"Madhya Pradesh","latitude":23.2599,"longitude":77.4126,"temp":25.0,"humidity":45,"rain":0.0,"pressure":950.7,"uv_index":8.55,"wind_gusts":31.7,"aqi":72,"pm10":29.2,"pm2_5":22.2,"mosquito_risk":4,"arthritis_risk":5,"migraine_risk":7,"frizz_risk":0,"updated_at":"2026-04-15T03:29:11.553289+05:30"},{"city":"Jabalpur","state":"Madhya Pradesh","latitude":23.1815,"longitude":79.9864,"temp":26.2,"humidity":56,"rain":0.0,"pressure":957.9,"uv_index":8.7,"wind_gusts":35.6,"aqi":79,"pm10":80.8,"pm2_5":32.9,"mosquito_risk":4,"arthritis_risk":5,"migraine_risk":7,"frizz_risk":1,"updated_at":"2026-04-15T03:29:11.553296+05:30"},{"city":"Ujjain","state":"Madhya Pradesh","latitude":23.1765,"longitude":75.7885,"temp":24.6,"humidity":54,"rain":0.0,"pressure":951.2,"uv_index":8.45,"wind_gusts":29.5,"aqi":76,"pm10":30.6,"pm2_5":21.2,"mosquito_risk":0,"arthritis_risk":5,"migraine_risk":7,"frizz_risk":0,"updated_at":"2026-04-15T03:29:11.553304+05:30"},{"city":"Visakhapatnam","state":"Andhra Pradesh","latitude":17.6868,"longitude":83.2185,"temp":27.1,"humidity":87,"rain":0.0,"pressure":1001.5,"uv_index":9.15,"wind_gusts":44.3,"aqi":65,"pm10":21.4,"pm2_5":15.8,"mosquito_risk":7,"arthritis_risk":5,"migraine_risk":4,"frizz_risk":1,"updated_at":"2026-04-15T03:29:11.553311+05:30"},{"city":"Vijayawada","state":"Andhra Pradesh","latitude":16.5062,"longitude":80.648,"temp":26.2,"humidity":92,"rain":0.0,"pressure":1000.6,"uv_index":9.2,"wind_gusts":28.8,"aqi":54,"pm10":12.9,"pm2_5":9.7,"mosquito_risk":7,"arthritis_risk":5,"migraine_risk":4,"frizz_risk":1,"updated_at":"2026-04-15T03:29:11.553319+05:30"},{"city":"Guntur","state":"Andhra Pradesh","latitude":16.3067,"longitude":80.4365,"temp":26.7,"humidity":88,"rain":0.0,"pressure":1001.5,"uv_index":9.2,"wind_gusts":31.0,"aqi":55,"pm10":12.3,"pm2_5":9.2,"mosquito_risk":7,"arthritis_risk":5,"migraine_risk":4,"frizz_risk":1,"updated_at":"2026-04-15T03:29:11.553326+05:30"},{"city":"Nellore","state":"Andhra Pradesh","latitude":14.4426,"longitude":79.9865,"temp":26.4,"humidity":89,"rain":0.0,"pressure":1003.3,"uv_index":9.3,"wind_gusts":35.6,"aqi":51,"pm10":10.7,"pm2_5":8.8,"mosquito_risk":7,"arthritis_risk":5,"migraine_risk":4,"frizz_risk":1,"updated_at":"2026-04-15T03:29:11.553333+05:30"},{"city":"Kurnool","state":"Andhra Pradesh","latitude":15.8281,"longitude":78.0373,"temp":31.2,"humidity":44,"rain":0.0,"pressure":974.5,"uv_index":9.2,"wind_gusts":25.6,"aqi":83,"pm10":24.4,"pm2_5":21.7,"mosquito_risk":0,"arthritis_risk":5,"migraine_risk":7,"frizz_risk":1,"updated_at":"2026-04-15T03:29:11.553341+05:30"},{"city":"Kakinada","state":"Andhra Pradesh","latitude":16.9891,"longitude":82.2475,"temp":26.2,"humidity":92,"rain":0.0,"pressure":1005.4,"uv_index":9.15,"wind_gusts":31.0,"aqi":55,"pm10":20.1,"pm2_5":13.2,"mosquito_risk":7,"arthritis_risk":5,"migraine_risk":4,"frizz_risk":1,"updated_at":"2026-04-15T03:29:11.553348+05:30"},{"city":"Tirupati","state":"Andhra Pradesh","latitude":13.6288,"longitude":79.4192,"temp":25.3,"humidity":83,"rain":0.0,"pressure":990.0,"uv_index":9.4,"wind_gusts":32.0,"aqi":69,"pm10":26.1,"pm2_5":24.7,"mosquito_risk":7,"arthritis_risk":5,"migraine_risk":7,"frizz_risk":1,"updated_at":"2026-04-15T03:29:11.553355+05:30"},{"city":"Warangal","state":"Telangana","latitude":17.9689,"longitude":79.5941,"temp":27.5,"humidity":59,"rain":0.0,"pressure":975.8,"uv_index":9.1,"wind_gusts":28.8,"aqi":78,"pm10":20.0,"pm2_5":16.6,"mosquito_risk":4,"arthritis_risk":5,"migraine_risk":7,"frizz_risk":1,"updated_at":"2026-04-15T03:29:11.553362+05:30"},{"city":"Nizamabad","state":"Telangana","latitude":18.6725,"longitude":78.0941,"temp":30.6,"humidity":46,"rain":0.0,"pressure":961.8,"uv_index":9.05,"wind_gusts":27.0,"aqi":89,"pm10":46.4,"pm2_5":38.4,"mosquito_risk":0,"arthritis_risk":5,"migraine_risk":7,"frizz_risk":1,"updated_at":"2026-04-15T03:29:11.553369+05:30"},{"city":"Mysore","state":"Karnataka","latitude":12.2958,"longitude":76.6396,"temp":23.8,"humidity":91,"rain":0.0,"pressure":926.9,"uv_index":9.55,"wind_gusts":45.4,"aqi":88,"pm10":31.8,"pm2_5":28.3,"mosquito_risk":3,"arthritis_risk":5,"migraine_risk":7,"frizz_risk":1,"updated_at":"2026-04-15T03:29:11.553376+05:30"},{"city":"Mangalore","state":"Karnataka","latitude":12.9141,"longitude":74.856,"temp":29.7,"humidity":81,"rain":0.0,"pressure":1005.0,"uv_index":9.15,"wind_gusts":23.0,"aqi":81,"pm10":45.6,"pm2_5":27.3,"mosquito_risk":7,"arthritis_risk":5,"migraine_risk":4,"frizz_risk":1,"updated_at":"2026-04-15T03:29:11.553384+05:30"},{"city":"Hubli-Dharwad","state":"Karnataka","latitude":15.3647,"longitude":75.124,"temp":24.6,"humidity":79,"rain":0.0,"pressure":938.9,"uv_index":9.2,"wind_gusts":32.4,"aqi":69,"pm10":29.6,"pm2_5":21.4,"mosquito_risk":3,"arthritis_risk":5,"migraine_risk":7,"frizz_risk":1,"updated_at":"2026-04-15T03:29:11.553391+05:30"},{"city":"Belgaum","state":"Karnataka","latitude":15.8497,"longitude":74.4977,"temp":21.9,"humidity":88,"rain":0.0,"pressure":923.3,"uv_index":9.25,"wind_gusts":38.9,"aqi":76,"pm10":43.5,"pm2_5":29.9,"mosquito_risk":3,"arthritis_risk":5,"migraine_risk":7,"frizz_risk":1,"updated_at":"2026-04-15T03:29:14.855772+05:30"},{"city":"Coimbatore","state":"Tamil Nadu","latitude":11.0168,"longitude":76.9558,"temp":25.4,"humidity":88,"rain":0.0,"pressure":960.3,"uv_index":9.5,"wind_gusts":49.3,"aqi":88,"pm10":40.0,"pm2_5":34.3,"mosquito_risk":7,"arthritis_risk":5,"migraine_risk":7,"frizz_risk":1,"updated_at":"2026-04-15T03:29:14.855801+05:30"},{"city":"Madurai","state":"Tamil Nadu","latitude":9.9252,"longitude":78.1198,"temp":26.8,"humidity":85,"rain":0.0,"pressure":991.3,"uv_index":9.35,"wind_gusts":39.6,"aqi":66,"pm10":25.5,"pm2_5":22.5,"mosquito_risk":7,"arthritis_risk":5,"migraine_risk":7,"frizz_risk":1,"updated_at":"2026-04-15T03:29:14.855811+05:30"},{"city":"Trichy","state":"Tamil Nadu","latitude":10.7905,"longitude":78.7047,"temp":26.3,"humidity":90,"rain":0.0,"pressure":998.2,"uv_index":9.4,"wind_gusts":19.8,"aqi":56,"pm10":15.3,"pm2_5":14.0,"mosquito_risk":7,"arthritis_risk":5,"migraine_risk":7,"frizz_risk":1,"updated_at":"2026-04-15T03:29:14.855820+05:30"},{"city":"Salem","state":"Tamil Nadu","latitude":11.6643,"longitude":78.146,"temp":25.7,"humidity":77,"rain":0.0,"pressure":975.8,"uv_index":9.45,"wind_gusts":15.8,"aqi":69,"pm10":21.3,"pm2_5":19.4,"mosquito_risk":7,"arthritis_risk":5,"migraine_risk":7,"frizz_risk":1,"updated_at":"2026-04-15T03:29:14.855828+05:30"},{"city":"Tirunelveli","state":"Tamil Nadu","latitude":8.7139,"longitude":77.7567,"temp":27.1,"humidity":80,"rain":0.0,"pressure":1001.3,"uv_index":9.2,"wind_gusts":49.0,"aqi":72,"pm10":26.4,"pm2_5":21.3,"mosquito_risk":7,"arthritis_risk":5,"migraine_risk":4,"frizz_risk":1,"updated_at":"2026-04-15T03:29:14.855835+05:30"},{"city":"Vellore","state":"Tamil Nadu","latitude":12.9165,"longitude":79.1325,"temp":24.5,"humidity":83,"rain":0.0,"pressure":983.0,"uv_index":9.45,"wind_gusts":27.7,"aqi":94,"pm10":52.7,"pm2_5":50.6,"mosquito_risk":3,"arthritis_risk":5,"migraine_risk":7,"frizz_risk":1,"updated_at":"2026-04-15T03:29:14.855843+05:30"},{"city":"Erode","state":"Tamil Nadu","latitude":11.341,"longitude":77.7172,"temp":27.6,"humidity":77,"rain":0.0,"pressure":987.4,"uv_index":9.4,"wind_gusts":25.2,"aqi":58,"pm10":13.4,"pm2_5":12.9,"mosquito_risk":7,"arthritis_risk":5,"migraine_risk":7,"frizz_risk":1,"updated_at":"2026-04-15T03:29:14.855850+05:30"},{"city":"Kochi","state":"Kerala","latitude":9.9312,"longitude":76.2673,"temp":28.5,"humidity":82,"rain":0.0,"pressure":1006.7,"uv_index":9.2,"wind_gusts":32.0,"aqi":98,"pm10":32.5,"pm2_5":27.9,"mosquito_risk":7,"arthritis_risk":5,"migraine_risk":4,"frizz_risk":1,"updated_at":"2026-04-15T03:29:14.855857+05:30"},{"city":"Thiruvananthapuram","state":"Kerala","latitude":8.5241,"longitude":76.9366,"temp":28.3,"humidity":83,"rain":0.0,"pressure":1005.9,"uv_index":9.15,"wind_gusts":33.8,"aqi":68,"pm10":26.7,"pm2_5":16.7,"mosquito_risk":7,"arthritis_risk":5,"migraine_risk":4,"frizz_risk":1,"updated_at":"2026-04-15T03:29:14.855865+05:30"},{"city":"Kozhikode","state":"Kerala","latitude":11.2588,"longitude":75.7804,"temp":28.5,"humidity":81,"rain":0.0,"pressure":1006.1,"uv_index":9.15,"wind_gusts":29.5,"aqi":90,"pm10":45.2,"pm2_5":29.3,"mosquito_risk":7,"arthritis_risk":5,"migraine_risk":4,"frizz_risk":1,"updated_at":"2026-04-15T03:29:14.855872+05:30"},{"city":"Thrissur","state":"Kerala","latitude":10.5276,"longitude":76.2144,"temp":27.6,"humidity":87,"rain":0.0,"pressure":1005.2,"uv_index":9.2,"wind_gusts":35.3,"aqi":99,"pm10":49.7,"pm2_5":42.3,"mosquito_risk":7,"arthritis_risk":5,"migraine_risk":4,"frizz_risk":1,"updated_at":"2026-04-15T03:29:14.855880+05:30"},{"city":"Kannur","state":"Kerala","latitude":11.8745,"longitude":75.3704,"temp":28.7,"humidity":82,"rain":0.0,"pressure":1005.4,"uv_index":9.15,"wind_gusts":32.4,"aqi":91,"pm10":42.1,"pm2_5":28.1,"mosquito_risk":7,"arthritis_risk":5,"migraine_risk":4,"frizz_risk":1,"updated_at":"2026-04-15T03:29:14.855888+05:30"},{"city":"Patna","state":"Bihar","latitude":25.5941,"longitude":85.1376,"temp":24.1,"humidity":74,"rain":0.0,"pressure":996.7,"uv_index":8.55,"wind_gusts":18.0,"aqi":118,"pm10":101.3,"pm2_5":59.1,"mosquito_risk":3,"arthritis_risk":5,"migraine_risk":7,"frizz_risk":1,"updated_at":"2026-04-15T03:29:14.855895+05:30"},{"city":"Gaya","state":"Bihar","latitude":24.7914,"longitude":85.0002,"temp":23.2,"humidity":47,"rain":0.0,"pressure":990.3,"uv_index":8.6,"wind_gusts":20.2,"aqi":95,"pm10":81.7,"pm2_5":31.1,"mosquito_risk":0,"arthritis_risk":5,"migraine_risk":7,"frizz_risk":0,"updated_at":"2026-04-15T03:29:14.855903+05:30"},{"city":"Muzaffarpur","state":"Bihar","latitude":26.1209,"longitude":85.3647,"temp":22.5,"humidity":83,"rain":0.0,"pressure":996.7,"uv_index":8.55,"wind_gusts":23.0,"aqi":143,"pm10":114.8,"pm2_5":70.8,"mosquito_risk":3,"arthritis_risk":5,"migraine_risk":7,"frizz_risk":1,"updated_at":"2026-04-15T03:29:14.855910+05:30"},{"city":"Bhagalpur","state":"Bihar","latitude":25.2425,"longitude":87.0117,"temp":23.4,"humidity":81,"rain":0.0,"pressure":997.8,"uv_index":8.55,"wind_gusts":19.4,"aqi":132,"pm10":63.6,"pm2_5":54.5,"mosquito_risk":3,"arthritis_risk":5,"migraine_risk":7,"frizz_risk":1,"updated_at":"2026-04-15T03:29:14.855917+05:30"},{"city":"Ranchi","state":"Jharkhand","latitude":23.3441,"longitude":85.3096,"temp":22.8,"humidity":38,"rain":0.0,"pressure":935.1,"uv_index":9.15,"wind_gusts":34.2,"aqi":72,"pm10":103.8,"pm2_5":27.0,"mosquito_risk":0,"arthritis_risk":5,"migraine_risk":7,"frizz_risk":0,"updated_at":"2026-04-15T03:29:14.855924+05:30"},{"city":"Jamshedpur","state":"Jharkhand","latitude":22.8046,"longitude":86.2029,"temp":25.1,"humidity":94,"rain":0.0,"pressure":988.3,"uv_index":8.95,"wind_gusts":41.0,"aqi":126,"pm10":80.8,"pm2_5":41.3,"mosquito_risk":7,"arthritis_risk":5,"migraine_risk":7,"frizz_risk":1,"updated_at":"2026-04-15T03:29:14.855932+05:30"},{"city":"Dhanbad","state":"Jharkhand","latitude":23.7957,"longitude":86.4304,"temp":22.8,"humidity":64,"rain":0.0,"pressure":976.7,"uv_index":8.9,"wind_gusts":30.6,"aqi":145,"pm10":188.6,"pm2_5":89.9,"mosquito_risk":3,"arthritis_risk":5,"migraine_risk":7,"frizz_risk":0,"updated_at":"2026-04-15T03:29:14.855939+05:30"},{"city":"Bokaro","state":"Jharkhand","latitude":23.6693,"longitude":86.1511,"temp":21.9,"humidity":55,"rain":0.0,"pressure":981.1,"uv_index":8.9,"wind_gusts":35.6,"aqi":138,"pm10":148.5,"pm2_5":77.8,"mosquito_risk":0,"arthritis_risk":5,"migraine_risk":7,"frizz_risk":0,"updated_at":"2026-04-15T03:29:14.855946+05:30"},{"city":"Bhubaneswar","state":"Odisha","latitude":20.2961,"longitude":85.8245,"temp":27.1,"humidity":88,"rain":0.0,"pressure":1000.1,"uv_index":9.1,"wind_gusts":34.6,"aqi":78,"pm10":22.7,"pm2_5":16.8,"mosquito_risk":7,"arthritis_risk":5,"migraine_risk":4,"frizz_risk":1,"updated_at":"2026-04-15T03:29:14.855953+05:30"},{"city":"Cuttack","state":"Odisha","latitude":20.4625,"longitude":85.8828,"temp":27.0,"humidity":91,"rain":0.0,"pressure":1001.9,"uv_index":9.15,"wind_gusts":30.2,"aqi":78,"pm10":22.7,"pm2_5":16.8,"mosquito_risk":7,"arthritis_risk":5,"migraine_risk":4,"frizz_risk":1,"updated_at":"2026-04-15T03:29:14.855960+05:30"},{"city":"Rourkela","state":"Odisha","latitude":22.2604,"longitude":84.8536,"temp":25.5,"humidity":89,"rain":0.0,"pressure":982.4,"uv_index":8.9,"wind_gusts":38.2,"aqi":85,"pm10":90.3,"pm2_5":39.7,"mosquito_risk":7,"arthritis_risk":5,"migraine_risk":7,"frizz_risk":1,"updated_at":"2026-04-15T03:29:14.855966+05:30"},{"city":"Raipur","state":"Chhattisgarh","latitude":21.2514,"longitude":81.6296,"temp":26.8,"humidity":55,"rain":0.0,"pressure":971.3,"uv_index":8.95,"wind_gusts":43.6,"aqi":131,"pm10":103.4,"pm2_5":65.4,"mosquito_risk":4,"arthritis_risk":5,"migraine_risk":7,"frizz_risk":1,"updated_at":"2026-04-15T03:29:14.855973+05:30"},{"city":"Bhilai","state":"Chhattisgarh","latitude":21.1938,"longitude":81.3509,"temp":25.3,"humidity":58,"rain":0.0,"pressure":971.6,"uv_index":8.95,"wind_gusts":43.2,"aqi":138,"pm10":113.6,"pm2_5":80.1,"mosquito_risk":4,"arthritis_risk":5,"migraine_risk":7,"frizz_risk":1,"updated_at":"2026-04-15T03:29:14.855980+05:30"},{"city":"Guwahati","state":"Assam","latitude":26.1158,"longitude":91.7086,"temp":23.9,"humidity":88,"rain":0.0,"pressure":999.1,"uv_index":8.45,"wind_gusts":34.6,"aqi":122,"pm10":64.5,"pm2_5":53.9,"mosquito_risk":3,"arthritis_risk":5,"migraine_risk":7,"frizz_risk":1,"updated_at":"2026-04-15T03:29:14.855987+05:30"},{"city":"Agartala","state":"Tripura","latitude":23.8315,"longitude":91.2868,"temp":23.5,"humidity":94,"rain":0.0,"pressure":1004.7,"uv_index":8.7,"wind_gusts":34.2,"aqi":105,"pm10":32.6,"pm2_5":29.4,"mosquito_risk":3,"arthritis_risk":5,"migraine_risk":4,"frizz_risk":1,"updated_at":"2026-04-15T03:29:14.855993+05:30"},{"city":"Shillong","state":"Meghalaya","latitude":25.5788,"longitude":91.8933,"temp":14.8,"humidity":81,"rain":0.0,"pressure":853.7,"uv_index":7.7,"wind_gusts":58.7,"aqi":99,"pm10":44.1,"pm2_5":36.7,"mosquito_risk":3,"arthritis_risk":10,"migraine_risk":7,"frizz_risk":0,"updated_at":"2026-04-15T03:29:14.856000+05:30"},{"city":"Imphal","state":"Manipur","latitude":24.817,"longitude":93.9368,"temp":17.8,"humidity":92,"rain":0.0,"pressure":921.9,"uv_index":9.05,"wind_gusts":72.7,"aqi":128,"pm10":41.4,"pm2_5":33.4,"mosquito_risk":3,"arthritis_risk":10,"migraine_risk":7,"frizz_risk":1,"updated_at":"2026-04-15T03:29:14.856008+05:30"},{"city":"Aizawl","state":"Mizoram","latitude":23.7271,"longitude":92.7176,"temp":18.2,"humidity":93,"rain":0.0,"pressure":891.4,"uv_index":8.9,"wind_gusts":51.1,"aqi":110,"pm10":41.0,"pm2_5":32.9,"mosquito_risk":3,"arthritis_risk":10,"migraine_risk":7,"frizz_risk":1,"updated_at":"2026-04-15T03:29:14.856015+05:30"},{"city":"Kohima","state":"Nagaland","latitude":25.6701,"longitude":94.1077,"temp":15.3,"humidity":92,"rain":0.0,"pressure":853.1,"uv_index":8.95,"wind_gusts":72.0,"aqi":111,"pm10":60.1,"pm2_5":42.8,"mosquito_risk":3,"arthritis_risk":10,"migraine_risk":7,"frizz_risk":0,"updated_at":"2026-04-15T03:29:14.856021+05:30"},{"city":"Gangtok","state":"Sikkim","latitude":27.3314,"longitude":88.6138,"temp":13.3,"humidity":93,"rain":0.0,"pressure":833.6,"uv_index":8.75,"wind_gusts":19.4,"aqi":109,"pm10":47.5,"pm2_5":31.7,"mosquito_risk":3,"arthritis_risk":10,"migraine_risk":7,"frizz_risk":0,"updated_at":"2026-04-15T03:29:14.856028+05:30"},{"city":"Siliguri","state":"West Bengal","latitude":26.7271,"longitude":88.3953,"temp":20.2,"humidity":74,"rain":0.0,"pressure":991.3,"uv_index":8.4,"wind_gusts":31.7,"aqi":154,"pm10":122.0,"pm2_5":78.2,"mosquito_risk":3,"arthritis_risk":5,"migraine_risk":7,"frizz_risk":0,"updated_at":"2026-04-15T03:29:18.162702+05:30"},{"city":"Durgapur","state":"West Bengal","latitude":23.5204,"longitude":87.3119,"temp":25.2,"humidity":95,"rain":0.0,"pressure":992.0,"uv_index":8.85,"wind_gusts":25.2,"aqi":152,"pm10":88.5,"pm2_5":60.1,"mosquito_risk":7,"arthritis_risk":5,"migraine_risk":7,"frizz_risk":1,"updated_at":"2026-04-15T03:29:18.162769+05:30"},{"city":"Asansol","state":"West Bengal","latitude":23.6739,"longitude":86.9524,"temp":25.1,"humidity":88,"rain":0.0,"pressure":990.4,"uv_index":8.85,"wind_gusts":23.8,"aqi":120,"pm10":125.3,"pm2_5":54.5,"mosquito_risk":7,"arthritis_risk":5,"migraine_risk":7,"frizz_risk":1,"updated_at":"2026-04-15T03:29:18.162782+05:30"},{"city":"Pondicherry","state":"Puducherry","latitude":11.9139,"longitude":79.8145,"temp":26.5,"humidity":97,"rain":0.0,"pressure":1006.8,"uv_index":9.3,"wind_gusts":26.6,"aqi":35,"pm10":7.9,"pm2_5":5.5,"mosquito_risk":7,"arthritis_risk":5,"migraine_risk":4,"frizz_risk":1,"updated_at":"2026-04-15T03:29:18.162791+05:30"},{"city":"Port Blair","state":"Andaman and Nicobar Islands","latitude":11.6234,"longitude":92.7265,"temp":28.9,"humidity":75,"rain":0.0,"pressure":1005.6,"uv_index":9.2,"wind_gusts":18.4,"aqi":65,"pm10":33.3,"pm2_5":22.6,"mosquito_risk":7,"arthritis_risk":5,"migraine_risk":4,"frizz_risk":1,"updated_at":"2026-04-15T03:29:18.162800+05:30"},{"city":"Haridwar","state":"Uttarakhand","latitude":29.9457,"longitude":78.1642,"temp":19.6,"humidity":74,"rain":0.0,"pressure":971.6,"uv_index":7.05,"wind_gusts":29.2,"aqi":64,"pm10":29.3,"pm2_5":26.0,"mosquito_risk":3,"arthritis_risk":5,"migraine_risk":7,"frizz_risk":0,"updated_at":"2026-04-15T03:29:18.162808+05:30"},{"city":"Rishikesh","state":"Uttarakhand","latitude":30.0869,"longitude":78.2676,"temp":19.8,"humidity":71,"rain":0.0,"pressure":964.6,"uv_index":7.2,"wind_gusts":30.6,"aqi":60,"pm10":24.9,"pm2_5":18.5,"mosquito_risk":3,"arthritis_risk":5,"migraine_risk":7,"frizz_risk":0,"updated_at":"2026-04-15T03:29:18.162817+05:30"},{"city":"Nainital","state":"Uttarakhand","latitude":29.3919,"longitude":79.4542,"temp":19.5,"humidity":33,"rain":0.0,"pressure":804.3,"uv_index":8.0,"wind_gusts":53.6,"aqi":66,"pm10":32.6,"pm2_5":12.9,"mosquito_risk":0,"arthritis_risk":5,"migraine_risk":7,"frizz_risk":0,"updated_at":"2026-04-15T03:29:18.162824+05:30"},{"city":"Mussoorie","state":"Uttarakhand","latitude":30.4599,"longitude":78.0664,"temp":16.5,"humidity":55,"rain":0.0,"pressure":800.7,"uv_index":7.55,"wind_gusts":33.8,"aqi":59,"pm10":25.1,"pm2_5":22.7,"mosquito_risk":0,"arthritis_risk":5,"migraine_risk":7,"frizz_risk":0,"updated_at":"2026-04-15T03:29:18.162832+05:30"},{"city":"Dharamshala","state":"Himachal Pradesh","latitude":32.219,"longitude":76.3234,"temp":20.1,"humidity":29,"rain":0.0,"pressure":867.6,"uv_index":7.8,"wind_gusts":22.7,"aqi":54,"pm10":17.1,"pm2_5":9.0,"mosquito_risk":0,"arthritis_risk":5,"migraine_risk":7,"frizz_risk":0,"updated_at":"2026-04-15T03:29:18.162840+05:30"},{"city":"Dalhousie","state":"Himachal Pradesh","latitude":32.5387,"longitude":75.971,"temp":16.3,"humidity":38,"rain":0.0,"pressure":802.1,"uv_index":7.95,"wind_gusts":22.0,"aqi":60,"pm10":25.2,"pm2_5":21.7,"mosquito_risk":0,"arthritis_risk":5,"migraine_risk":7,"frizz_risk":0,"updated_at":"2026-04-15T03:29:18.162853+05:30"},{"city":"Patiala","state":"Punjab","latitude":30.3398,"longitude":76.3869,"temp":19.5,"humidity":61,"rain":0.0,"pressure":975.9,"uv_index":7.15,"wind_gusts":26.3,"aqi":175,"pm10":99.0,"pm2_5":45.1,"mosquito_risk":3,"arthritis_risk":5,"migraine_risk":7,"frizz_risk":0,"updated_at":"2026-04-15T03:29:18.162861+05:30"},{"city":"Bhatinda","state":"Punjab","latitude":30.211,"longitude":74.9455,"temp":21.8,"humidity":60,"rain":0.0,"pressure":982.0,"uv_index":7.85,"wind_gusts":29.9,"aqi":62,"pm10":39.3,"pm2_5":25.3,"mosquito_risk":0,"arthritis_risk":5,"migraine_risk":7,"frizz_risk":0,"updated_at":"2026-04-15T03:29:18.162868+05:30"},{"city":"Rohtak","state":"Haryana","latitude":28.8955,"longitude":76.6066,"temp":21.7,"humidity":63,"rain":0.0,"pressure":979.4,"uv_index":7.35,"wind_gusts":28.4,"aqi":202,"pm10":374.4,"pm2_5":74.5,"mosquito_risk":3,"arthritis_risk":5,"migraine_risk":7,"frizz_risk":0,"updated_at":"2026-04-15T03:29:18.162875+05:30"},{"city":"Panipat","state":"Haryana","latitude":29.3909,"longitude":76.9635,"temp":20.6,"humidity":62,"rain":0.0,"pressure":977.8,"uv_index":7.15,"wind_gusts":29.2,"aqi":520,"pm10":312.0,"pm2_5":66.1,"mosquito_risk":3,"arthritis_risk":5,"migraine_risk":7,"frizz_risk":0,"updated_at":"2026-04-15T03:29:18.162883+05:30"},{"city":"Mathura","state":"Uttar Pradesh","latitude":27.4924,"longitude":77.6737,"temp":24.0,"humidity":57,"rain":0.0,"pressure":984.0,"uv_index":7.6,"wind_gusts":24.1,"aqi":311,"pm10":430.3,"pm2_5":88.7,"mosquito_risk":0,"arthritis_risk":5,"migraine_risk":7,"frizz_risk":0,"updated_at":"2026-04-15T03:29:18.162892+05:30"},{"city":"Vrindavan","state":"Uttar Pradesh","latitude":27.5823,"longitude":77.7027,"temp":25.2,"humidity":55,"rain":0.0,"pressure":984.4,"uv_index":7.6,"wind_gusts":25.2,"aqi":311,"pm10":430.3,"pm2_5":88.7,"mosquito_risk":4,"arthritis_risk":5,"migraine_risk":7,"frizz_risk":0,"updated_at":"2026-04-15T03:29:18.162900+05:30"},{"city":"Ayodhya","state":"Uttar Pradesh","latitude":26.7922,"longitude":82.1998,"temp":24.7,"humidity":46,"rain":0.0,"pressure":991.4,"uv_index":7.95,"wind_gusts":31.7,"aqi":87,"pm10":149.9,"pm2_5":34.7,"mosquito_risk":0,"arthritis_risk":5,"migraine_risk":7,"frizz_risk":0,"updated_at":"2026-04-15T03:29:18.162908+05:30"},{"city":"Ratlam","state":"Madhya Pradesh","latitude":23.3315,"longitude":75.0367,"temp":24.4,"humidity":62,"rain":0.0,"pressure":951.9,"uv_index":8.4,"wind_gusts":28.8,"aqi":57,"pm10":32.1,"pm2_5":19.2,"mosquito_risk":3,"arthritis_risk":5,"migraine_risk":7,"frizz_risk":1,"updated_at":"2026-04-15T03:29:18.162915+05:30"},{"city":"Sagar","state":"Madhya Pradesh","latitude":23.8388,"longitude":78.7378,"temp":24.9,"humidity":51,"rain":0.0,"pressure":947.0,"uv_index":8.6,"wind_gusts":31.0,"aqi":68,"pm10":42.7,"pm2_5":22.4,"mosquito_risk":0,"arthritis_risk":5,"migraine_risk":7,"frizz_risk":0,"updated_at":"2026-04-15T03:29:18.162923+05:30"},{"city":"Satna","state":"Madhya Pradesh","latitude":24.6005,"longitude":80.8322,"temp":25.7,"humidity":47,"rain":0.0,"pressure":968.5,"uv_index":8.6,"wind_gusts":25.2,"aqi":64,"pm10":102.0,"pm2_5":25.3,"mosquito_risk":4,"arthritis_risk":5,"migraine_risk":7,"frizz_risk":0,"updated_at":"2026-04-15T03:29:18.162931+05:30"},{"city":"Akola","state":"Maharashtra","latitude":20.7002,"longitude":77.0082,"temp":26.0,"humidity":58,"rain":0.0,"pressure":972.1,"uv_index":8.8,"wind_gusts":27.7,"aqi":62,"pm10":24.4,"pm2_5":15.0,"mosquito_risk":4,"arthritis_risk":5,"migraine_risk":7,"frizz_risk":1,"updated_at":"2026-04-15T03:29:18.162939+05:30"},{"city":"Amravati","state":"Maharashtra","latitude":20.9374,"longitude":77.7796,"temp":25.4,"humidity":56,"rain":0.0,"pressure":964.1,"uv_index":8.8,"wind_gusts":25.9,"aqi":67,"pm10":21.8,"pm2_5":15.4,"mosquito_risk":4,"arthritis_risk":5,"migraine_risk":7,"frizz_risk":0,"updated_at":"2026-04-15T03:29:18.162948+05:30"},{"city":"Latur","state":"Maharashtra","latitude":18.4088,"longitude":76.5604,"temp":25.5,"humidity":46,"rain":0.0,"pressure":937.3,"uv_index":9.05,"wind_gusts":29.9,"aqi":65,"pm10":31.9,"pm2_5":26.2,"mosquito_risk":4,"arthritis_risk":5,"migraine_risk":7,"frizz_risk":0,"updated_at":"2026-04-15T03:29:18.162956+05:30"},{"city":"Nanded","state":"Maharashtra","latitude":19.1383,"longitude":77.3091,"temp":26.5,"humidity":52,"rain":0.0,"pressure":965.6,"uv_index":8.95,"wind_gusts":17.3,"aqi":66,"pm10":30.0,"pm2_5":26.4,"mosquito_risk":4,"arthritis_risk":5,"migraine_risk":7,"frizz_risk":0,"updated_at":"2026-04-15T03:29:18.162963+05:30"},{"city":"Gulbarga","state":"Karnataka","latitude":17.3297,"longitude":76.8343,"temp":30.6,"humidity":44,"rain":0.0,"pressure":955.9,"uv_index":9.1,"wind_gusts":33.8,"aqi":88,"pm10":45.2,"pm2_5":38.1,"mosquito_risk":0,"arthritis_risk":5,"migraine_risk":7,"frizz_risk":1,"updated_at":"2026-04-15T03:29:18.162970+05:30"},{"city":"Bidar","state":"Karnataka","latitude":17.9104,"longitude":77.5199,"temp":28.2,"humidity":48,"rain":0.0,"pressure":932.9,"uv_index":9.1,"wind_gusts":20.9,"aqi":89,"pm10":34.5,"pm2_5":29.0,"mosquito_risk":4,"arthritis_risk":5,"migraine_risk":7,"frizz_risk":1,"updated_at":"2026-04-15T03:29:18.162978+05:30"},{"city":"Hospet","state":"Karnataka","latitude":15.2689,"longitude":76.3909,"temp":27.2,"humidity":77,"rain":0.0,"pressure":954.4,"uv_index":9.3,"wind_gusts":29.5,"aqi":103,"pm10":33.6,"pm2_5":28.9,"mosquito_risk":7,"arthritis_risk":5,"migraine_risk":7,"frizz_risk":1,"updated_at":"2026-04-15T03:29:18.162986+05:30"},{"city":"Tirupur","state":"Tamil Nadu","latitude":11.1085,"longitude":77.3411,"temp":26.9,"humidity":82,"rain":0.0,"pressure":973.6,"uv_index":9.5,"wind_gusts":33.5,"aqi":75,"pm10":32.7,"pm2_5":28.8,"mosquito_risk":7,"arthritis_risk":5,"migraine_risk":7,"frizz_risk":1,"updated_at":"2026-04-15T03:29:18.162994+05:30"},{"city":"Alappuzha","state":"Kerala","latitude":9.4981,"longitude":76.3388,"temp":28.3,"humidity":82,"rain":0.0,"pressure":1006.8,"uv_index":9.15,"wind_gusts":30.6,"aqi":96,"pm10":42.5,"pm2_5":30.5,"mosquito_risk":7,"arthritis_risk":5,"migraine_risk":4,"frizz_risk":1,"updated_at":"2026-04-15T03:29:18.163001+05:30"},{"city":"Munnar","state":"Kerala","latitude":10.0889,"longitude":77.0595,"temp":20.9,"humidity":85,"rain":0.0,"pressure":855.2,"uv_index":9.75,"wind_gusts":37.8,"aqi":77,"pm10":39.1,"pm2_5":34.1,"mosquito_risk":3,"arthritis_risk":5,"migraine_risk":7,"frizz_risk":1,"updated_at":"2026-04-15T03:29:18.163009+05:30"},{"city":"Silchar","state":"Assam","latitude":24.8333,"longitude":92.7789,"temp":22.4,"humidity":92,"rain":0.0,"pressure":1004.8,"uv_index":8.7,"wind_gusts":31.0,"aqi":144,"pm10":57.0,"pm2_5":43.3,"mosquito_risk":3,"arthritis_risk":5,"migraine_risk":4,"frizz_risk":1,"updated_at":"2026-04-15T03:29:18.163017+05:30"},{"city":"Dibrugarh","state":"Assam","latitude":27.4728,"longitude":94.912,"temp":21.4,"humidity":85,"rain":0.0,"pressure":995.5,"uv_index":6.5,"wind_gusts":24.1,"aqi":84,"pm10":35.9,"pm2_5":18.0,"mosquito_risk":3,"arthritis_risk":5,"migraine_risk":7,"frizz_risk":1,"updated_at":"2026-04-15T03:29:18.163025+05:30"}]