[{"city":"Delhi","state":"Delhi","latitude":28.6139,"longitude":77.209,"temp":24.5,"humidity":67,"rain":0.0,"pressure":984.7,"uv_index":6.6,"wind_gusts":30.6,"aqi":137,"pm10":244.0,"pm2_5":75.4,"mosquito_risk":3,"arthritis_risk":5,"migraine_risk":7,"frizz_risk":1,"updated_at":"2026-04-03T08:08:26.485419+05:30"},{"city":"Mumbai","state":"Maharashtra","latitude":19.076,"longitude":72.8777,"temp":27.1,"humidity":79,"rain":0.0,"pressure":1011.1,"uv_index":7.2,"wind_gusts":23.8,"aqi":71,"pm10":44.7,"pm2_5":25.7,"mosquito_risk":7,"arthritis_risk":0,"migraine_risk":4,"frizz_risk":1,"updated_at":"2026-04-03T08:08:26.485460+05:30"},{"city":"Bangalore","state":"Karnataka","latitude":12.9716,"longitude":77.5946,"temp":22.9,"humidity":84,"rain":0.0,"pressure":914.7,"uv_index":9.6,"wind_gusts":19.8,"aqi":61,"pm10":46.4,"pm2_5":45.4,"mosquito_risk":3,"arthritis_risk":5,"migraine_risk":7,"frizz_risk":1,"updated_at":"2026-04-03T08:08:26.485476+05:30"},{"city":"Hyderabad","state":"Telangana","latitude":17.385,"longitude":78.4867,"temp":26.0,"humidity":70,"rain":0.0,"pressure":957.0,"uv_index":8.9,"wind_gusts":23.4,"aqi":69,"pm10":32.2,"pm2_5":29.5,"mosquito_risk":7,"arthritis_risk":5,"migraine_risk":7,"frizz_risk":1,"updated_at":"2026-04-03T08:08:26.485486+05:30"},{"city":"Chennai","state":"Tamil Nadu","latitude":13.0827,"longitude":80.2707,"temp":28.2,"humidity":77,"rain":0.0,"pressure":1011.2,"uv_index":9.3,"wind_gusts":34.9,"aqi":44,"pm10":15.9,"pm2_5":12.9,"mosquito_risk":7,"arthritis_risk":0,"migraine_risk":4,"frizz_risk":1,"updated_at":"2026-04-03T08:08:26.485495+05:30"},{"city":"Kolkata","state":"West Bengal","latitude":22.5726,"longitude":88.3639,"temp":28.7,"humidity":79,"rain":0.0,"pressure":1008.6,"uv_index":8.65,"wind_gusts":19.8,"aqi":67,"pm10":21.7,"pm2_5":20.4,"mosquito_risk":7,"arthritis_risk":0,"migraine_risk":4,"frizz_risk":1,"updated_at":"2026-04-03T08:08:26.485504+05:30"},{"city":"Pune","state":"Maharashtra","latitude":18.5204,"longitude":73.8567,"temp":22.9,"humidity":95,"rain":0.0,"pressure":950.6,"uv_index":8.35,"wind_gusts":37.4,"aqi":130,"pm10":74.3,"pm2_5":70.3,"mosquito_risk":3,"arthritis_risk":5,"migraine_risk":7,"frizz_risk":1,"updated_at":"2026-04-03T08:08:26.485516+05:30"},{"city":"Ahmedabad","state":"Gujarat","latitude":23.0225,"longitude":72.5714,"temp":23.8,"humidity":73,"rain":0.0,"pressure":1005.4,"uv_index":7.6,"wind_gusts":40.7,"aqi":59,"pm10":54.2,"pm2_5":31.3,"mosquito_risk":3,"arthritis_risk":5,"migraine_risk":4,"frizz_risk":1,"updated_at":"2026-04-03T08:08:26.485523+05:30"},{"city":"Jaipur","state":"Rajasthan","latitude":26.9124,"longitude":75.7873,"temp":23.8,"humidity":60,"rain":0.0,"pressure":962.2,"uv_index":7.5,"wind_gusts":52.6,"aqi":122,"pm10":240.3,"pm2_5":52.5,"mosquito_risk":0,"arthritis_risk":5,"migraine_risk":7,"frizz_risk":0,"updated_at":"2026-04-03T08:08:26.485530+05:30"},{"city":"Lucknow","state":"Uttar Pradesh","latitude":26.8467,"longitude":80.9462,"temp":26.4,"humidity":61,"rain":0.0,"pressure":995.1,"uv_index":6.55,"wind_gusts":28.1,"aqi":81,"pm10":64.7,"pm2_5":36.2,"mosquito_risk":7,"arthritis_risk":5,"migraine_risk":7,"frizz_risk":1,"updated_at":"2026-04-03T08:08:26.485537+05:30"},{"city":"Kanpur","state":"Uttar Pradesh","latitude":26.4499,"longitude":80.3319,"temp":26.6,"humidity":69,"rain":0.0,"pressure":993.3,"uv_index":6.95,"wind_gusts":25.2,"aqi":100,"pm10":141.1,"pm2_5":46.1,"mosquito_risk":7,"arthritis_risk":5,"migraine_risk":7,"frizz_risk":1,"updated_at":"2026-04-03T08:08:26.485544+05:30"},{"city":"Chandigarh","state":"Chandigarh","latitude":30.7333,"longitude":76.7794,"temp":21.3,"humidity":71,"rain":0.0,"pressure":970.1,"uv_index":6.7,"wind_gusts":58.7,"aqi":66,"pm10":19.6,"pm2_5":15.4,"mosquito_risk":3,"arthritis_risk":5,"migraine_risk":7,"frizz_risk":0,"updated_at":"2026-04-03T08:08:26.485551+05:30"},{"city":"Srinagar","state":"Jammu and Kashmir","latitude":34.0837,"longitude":74.7973,"temp":11.4,"humidity":84,"rain":0.0,"pressure":841.4,"uv_index":6.15,"wind_gusts":32.8,"aqi":103,"pm10":47.3,"pm2_5":37.0,"mosquito_risk":3,"arthritis_risk":10,"migraine_risk":7,"frizz_risk":0,"updated_at":"2026-04-03T08:08:26.485558+05:30"},{"city":"Jammu","state":"Jammu and Kashmir","latitude":32.7266,"longitude":74.857,"temp":20.6,"humidity":85,"rain":0.0,"pressure":974.9,"uv_index":5.3,"wind_gusts":49.7,"aqi":68,"pm10":24.7,"pm2_5":18.9,"mosquito_risk":3,"arthritis_risk":5,"migraine_risk":3,"frizz_risk":1,"updated_at":"2026-04-03T08:08:26.485565+05:30"},{"city":"Amritsar","state":"Punjab","latitude":31.634,"longitude":74.8723,"temp":19.7,"humidity":86,"rain":0.0,"pressure":983.1,"uv_index":4.4,"wind_gusts":44.3,"aqi":91,"pm10":53.4,"pm2_5":29.6,"mosquito_risk":3,"arthritis_risk":10,"migraine_risk":3,"frizz_risk":1,"updated_at":"2026-04-03T08:08:26.485572+05:30"},{"city":"Ludhiana","state":"Punjab","latitude":30.901,"longitude":75.8573,"temp":20.8,"humidity":82,"rain":0.0,"pressure":981.1,"uv_index":3.65,"wind_gusts":41.4,"aqi":109,"pm10":225.8,"pm2_5":55.8,"mosquito_risk":3,"arthritis_risk":5,"migraine_risk":3,"frizz_risk":1,"updated_at":"2026-04-03T08:08:26.485579+05:30"},{"city":"Jalandhar","state":"Punjab","latitude":31.326,"longitude":75.5762,"temp":20.5,"humidity":83,"rain":0.0,"pressure":982.3,"uv_index":4.55,"wind_gusts":48.6,"aqi":89,"pm10":139.2,"pm2_5":40.7,"mosquito_risk":3,"arthritis_risk":5,"migraine_risk":3,"frizz_risk":1,"updated_at":"2026-04-03T08:08:26.485587+05:30"},{"city":"Dehradun","state":"Uttarakhand","latitude":30.6284,"longitude":78.0322,"temp":17.7,"humidity":46,"rain":0.0,"pressure":832.7,"uv_index":6.45,"wind_gusts":49.7,"aqi":29,"pm10":3.8,"pm2_5":2.3,"mosquito_risk":0,"arthritis_risk":5,"migraine_risk":7,"frizz_risk":0,"updated_at":"2026-04-03T08:08:26.485595+05:30"},{"city":"Shimla","state":"Himachal Pradesh","latitude":31.1048,"longitude":77.1734,"temp":16.3,"humidity":54,"rain":0.0,"pressure":786.3,"uv_index":7.05,"wind_gusts":58.3,"aqi":54,"pm10":11.2,"pm2_5":8.4,"mosquito_risk":0,"arthritis_risk":5,"migraine_risk":7,"frizz_risk":0,"updated_at":"2026-04-03T08:08:26.485603+05:30"},{"city":"Manali","state":"Himachal Pradesh","latitude":32.2396,"longitude":77.1887,"temp":18.0,"humidity":38,"rain":0.0,"pressure":822.5,"uv_index":7.1,"wind_gusts":49.7,"aqi":46,"pm10":4.2,"pm2_5":1.7,"mosquito_risk":0,"arthritis_risk":5,"migraine_risk":7,"frizz_risk":0,"updated_at":"2026-04-03T08:08:26.485609+05:30"},{"city":"Gurgaon","state":"Haryana","latitude":28.4595,"longitude":77.0266,"temp":23.4,"humidity":72,"rain":0.0,"pressure":983.2,"uv_index":6.75,"wind_gusts":32.8,"aqi":258,"pm10":1646.6,"pm2_5":197.0,"mosquito_risk":3,"arthritis_risk":5,"migraine_risk":7,"frizz_risk":1,"updated_at":"2026-04-03T08:08:26.485616+05:30"},{"city":"Noida","state":"Uttar Pradesh","latitude":28.5355,"longitude":77.391,"temp":24.7,"humidity":66,"rain":0.0,"pressure":986.2,"uv_index":6.6,"wind_gusts":32.8,"aqi":258,"pm10":1646.6,"pm2_5":197.0,"mosquito_risk":3,"arthritis_risk":5,"migraine_risk":7,"frizz_risk":1,"updated_at":"2026-04-03T08:08:26.485622+05:30"},{"city":"Ghaziabad","state":"Uttar Pradesh","latitude":28.6692,"longitude":77.4538,"temp":23.9,"humidity":74,"rain":0.0,"pressure":984.3,"uv_index":6.6,"wind_gusts":32.0,"aqi":121,"pm10":96.2,"pm2_5":56.3,"mosquito_risk":3,"arthritis_risk":5,"migraine_risk":7,"frizz_risk":1,"updated_at":"2026-04-03T08:08:26.485629+05:30"},{"city":"Faridabad","state":"Haryana","latitude":28.4089,"longitude":77.3178,"temp":24.6,"humidity":65,"rain":0.0,"pressure":985.6,"uv_index":6.65,"wind_gusts":35.3,"aqi":258,"pm10":1646.6,"pm2_5":197.0,"mosquito_risk":3,"arthritis_risk":5,"migraine_risk":7,"frizz_risk":1,"updated_at":"2026-04-03T08:08:26.485637+05:30"},{"city":"Meerut","state":"Uttar Pradesh","latitude":28.9845,"longitude":77.7064,"temp":23.0,"humidity":70,"rain":0.0,"pressure":982.9,"uv_index":5.55,"wind_gusts":30.2,"aqi":121,"pm10":96.2,"pm2_5":56.3,"mosquito_risk":3,"arthritis_risk":5,"migraine_risk":3,"frizz_risk":1,"updated_at":"2026-04-03T08:08:26.485643+05:30"},{"city":"Agra","state":"Uttar Pradesh","latitude":27.1767,"longitude":78.0081,"temp":27.6,"humidity":56,"rain":0.0,"pressure":989.7,"uv_index":6.9,"wind_gusts":38.2,"aqi":184,"pm10":629.6,"pm2_5":78.5,"mosquito_risk":4,"arthritis_risk":5,"migraine_risk":7,"frizz_risk":1,"updated_at":"2026-04-03T08:08:26.485649+05:30"},{"city":"Varanasi","state":"Uttar Pradesh","latitude":25.3176,"longitude":82.9739,"temp":28.7,"humidity":60,"rain":0.0,"pressure":999.4,"uv_index":7.8,"wind_gusts":37.4,"aqi":90,"pm10":43.2,"pm2_5":38.1,"mosquito_risk":4,"arthritis_risk":5,"migraine_risk":7,"frizz_risk":1,"updated_at":"2026-04-03T08:08:26.485658+05:30"},{"city":"Prayagraj","state":"Uttar Pradesh","latitude":25.4358,"longitude":81.8463,"temp":28.5,"humidity":60,"rain":0.0,"pressure":997.9,"uv_index":7.15,"wind_gusts":39.2,"aqi":87,"pm10":69.4,"pm2_5":48.7,"mosquito_risk":4,"arthritis_risk":5,"migraine_risk":7,"frizz_risk":1,"updated_at":"2026-04-03T08:08:26.485664+05:30"},{"city":"Gorakhpur","state":"Uttar Pradesh","latitude":26.7606,"longitude":83.3732,"temp":25.9,"humidity":58,"rain":0.0,"pressure":998.8,"uv_index":7.35,"wind_gusts":39.2,"aqi":61,"pm10":27.0,"pm2_5":20.0,"mosquito_risk":4,"arthritis_risk":5,"migraine_risk":7,"frizz_risk":1,"updated_at":"2026-04-03T08:08:26.485670+05:30"},{"city":"Bareilly","state":"Uttar Pradesh","latitude":28.367,"longitude":79.4304,"temp":23.2,"humidity":69,"rain":0.0,"pressure":988.2,"uv_index":6.45,"wind_gusts":20.2,"aqi":65,"pm10":54.8,"pm2_5":39.7,"mosquito_risk":3,"arthritis_risk":5,"migraine_risk":7,"frizz_risk":1,"updated_at":"2026-04-03T08:08:26.485679+05:30"},{"city":"Aligarh","state":"Uttar Pradesh","latitude":27.8974,"longitude":78.088,"temp":26.1,"humidity":63,"rain":0.0,"pressure":987.3,"uv_index":6.7,"wind_gusts":36.0,"aqi":113,"pm10":201.6,"pm2_5":56.8,"mosquito_risk":7,"arthritis_risk":5,"migraine_risk":7,"frizz_risk":1,"updated_at":"2026-04-03T08:08:26.485686+05:30"},{"city":"Moradabad","state":"Uttar Pradesh","latitude":28.8386,"longitude":78.7733,"temp":23.6,"humidity":57,"rain":0.0,"pressure":984.8,"uv_index":6.8,"wind_gusts":23.8,"aqi":88,"pm10":65.0,"pm2_5":53.7,"mosquito_risk":0,"arthritis_risk":5,"migraine_risk":7,"frizz_risk":0,"updated_at":"2026-04-03T08:08:26.485692+05:30"},{"city":"Saharanpur","state":"Uttar Pradesh","latitude":29.9637,"longitude":77.546,"temp":23.3,"humidity":60,"rain":0.0,"pressure":976.4,"uv_index":6.55,"wind_gusts":40.7,"aqi":83,"pm10":23.7,"pm2_5":20.8,"mosquito_risk":0,"arthritis_risk":5,"migraine_risk":7,"frizz_risk":0,"updated_at":"2026-04-03T08:08:26.485698+05:30"},{"city":"Jhansi","state":"Uttar Pradesh","latitude":25.4484,"longitude":78.5685,"temp":27.7,"humidity":39,"rain":0.0,"pressure":980.7,"uv_index":7.9,"wind_gusts":38.9,"aqi":63,"pm10":20.5,"pm2_5":11.5,"mosquito_risk":4,"arthritis_risk":5,"migraine_risk":7,"frizz_risk":0,"updated_at":"2026-04-03T08:08:29.706013+05:30"},{"city":"Surat","state":"Gujarat","latitude":21.1702,"longitude":72.8311,"temp":27.2,"humidity":74,"rain":0.0,"pressure":1009.4,"uv_index":7.65,"wind_gusts":26.3,"aqi":96,"pm10":54.6,"pm2_5":42.7,"mosquito_risk":7,"arthritis_risk":0,"migraine_risk":4,"frizz_risk":1,"updated_at":"2026-04-03T08:08:29.706043+05:30"},{"city":"Vadodara","state":"Gujarat","latitude":22.3072,"longitude":73.1812,"temp":25.0,"humidity":63,"rain":0.0,"pressure":1007.9,"uv_index":7.85,"wind_gusts":26.6,"aqi":76,"pm10":46.9,"pm2_5":37.7,"mosquito_risk":7,"arthritis_risk":5,"migraine_risk":4,"frizz_risk":1,"updated_at":"2026-04-03T08:08:29.706053+05:30"},{"city":"Rajkot","state":"Gujarat","latitude":22.3039,"longitude":70.8022,"temp":22.0,"humidity":84,"rain":0.0,"pressure":997.4,"uv_index":7.55,"wind_gusts":48.2,"aqi":65,"pm10":51.9,"pm2_5":22.6,"mosquito_risk":3,"arthritis_risk":5,"migraine_risk":7,"frizz_risk":1,"updated_at":"2026-04-03T08:08:29.706062+05:30"},{"city":"Thane","state":"Maharashtra","latitude":19.2183,"longitude":72.9781,"temp":25.8,"humidity":81,"rain":0.0,"pressure":1010.7,"uv_index":7.15,"wind_gusts":34.9,"aqi":71,"pm10":44.7,"pm2_5":25.7,"mosquito_risk":7,"arthritis_risk":0,"migraine_risk":4,"frizz_risk":1,"updated_at":"2026-04-03T08:08:29.706069+05:30"},{"city":"Nagpur","state":"Maharashtra","latitude":21.1458,"longitude":79.0882,"temp":26.3,"humidity":67,"rain":0.0,"pressure":976.5,"uv_index":8.7,"wind_gusts":32.0,"aqi":87,"pm10":25.5,"pm2_5":23.4,"mosquito_risk":7,"arthritis_risk":5,"migraine_risk":7,"frizz_risk":1,"updated_at":"2026-04-03T08:08:29.706078+05:30"},{"city":"Nashik","state":"Maharashtra","latitude":19.9975,"longitude":73.7898,"temp":22.1,"humidity":90,"rain":0.0,"pressure":947.9,"uv_index":7.55,"wind_gusts":32.8,"aqi":76,"pm10":36.3,"pm2_5":27.4,"mosquito_risk":3,"arthritis_risk":5,"migraine_risk":7,"frizz_risk":1,"updated_at":"2026-04-03T08:08:29.706085+05:30"},{"city":"Aurangabad","state":"Maharashtra","latitude":19.8762,"longitude":75.3433,"temp":23.6,"humidity":79,"rain":0.0,"pressure":946.8,"uv_index":7.45,"wind_gusts":31.7,"aqi":108,"pm10":49.9,"pm2_5":46.6,"mosquito_risk":3,"arthritis_risk":5,"migraine_risk":7,"frizz_risk":1,"updated_at":"2026-04-03T08:08:29.706092+05:30"},{"city":"Solapur","state":"Maharashtra","latitude":17.6599,"longitude":75.9064,"temp":25.8,"humidity":71,"rain":0.0,"pressure":959.9,"uv_index":8.95,"wind_gusts":31.0,"aqi":106,"pm10":46.8,"pm2_5":42.7,"mosquito_risk":7,"arthritis_risk":5,"migraine_risk":7,"frizz_risk":1,"updated_at":"2026-04-03T08:08:29.706099+05:30"},{"city":"Kolhapur","state":"Maharashtra","latitude":16.705,"longitude":74.2433,"temp":23.5,"humidity":90,"rain":0.0,"pressure":950.4,"uv_index":8.9,"wind_gusts":35.6,"aqi":143,"pm10":95.0,"pm2_5":92.4,"mosquito_risk":3,"arthritis_risk":5,"migraine_risk":7,"frizz_risk":1,"updated_at":"2026-04-03T08:08:29.706106+05:30"},{"city":"Goa","state":"Goa","latitude":15.2993,"longitude":74.124,"temp":28.3,"humidity":79,"rain":0.0,"pressure":1000.3,"uv_index":9.0,"wind_gusts":29.9,"aqi":77,"pm10":33.9,"pm2_5":31.2,"mosquito_risk":7,"arthritis_risk":5,"migraine_risk":4,"frizz_risk":1,"updated_at":"2026-04-03T08:08:29.706114+05:30"},{"city":"Jodhpur","state":"Rajasthan","latitude":26.2389,"longitude":73.0243,"temp":22.5,"humidity":66,"rain":0.0,"pressure":985.3,"uv_index":7.4,"wind_gusts":54.0,"aqi":119,"pm10":180.2,"pm2_5":51.1,"mosquito_risk":3,"arthritis_risk":5,"migraine_risk":7,"frizz_risk":0,"updated_at":"2026-04-03T08:08:29.706121+05:30"},{"city":"Udaipur","state":"Rajasthan","latitude":24.5854,"longitude":73.7125,"temp":21.5,"humidity":59,"rain":0.0,"pressure":948.4,"uv_index":8.2,"wind_gusts":56.9,"aqi":40,"pm10":39.0,"pm2_5":15.1,"mosquito_risk":0,"arthritis_risk":5,"migraine_risk":7,"frizz_risk":0,"updated_at":"2026-04-03T08:08:29.706129+05:30"},{"city":"Kota","state":"Rajasthan","latitude":25.2138,"longitude":75.8648,"temp":25.9,"humidity":54,"rain":0.0,"pressure":982.1,"uv_index":7.85,"wind_gusts":43.6,"aqi":53,"pm10":49.7,"pm2_5":18.5,"mosquito_risk":4,"arthritis_risk":5,"migraine_risk":7,"frizz_risk":0,"updated_at":"2026-04-03T08:08:29.706136+05:30"},{"city":"Bikaner","state":"Rajasthan","latitude":28.0229,"longitude":73.3119,"temp":23.2,"humidity":72,"rain":0.0,"pressure":983.7,"uv_index":6.75,"wind_gusts":48.2,"aqi":63,"pm10":33.5,"pm2_5":17.2,"mosquito_risk":3,"arthritis_risk":5,"migraine_risk":7,"frizz_risk":1,"updated_at":"2026-04-03T08:08:29.706143+05:30"},{"city":"Ajmer","state":"Rajasthan","latitude":26.4499,"longitude":74.6399,"temp":22.9,"humidity":61,"rain":0.0,"pressure":956.6,"uv_index":7.6,"wind_gusts":54.7,"aqi":65,"pm10":215.1,"pm2_5":53.6,"mosquito_risk":3,"arthritis_risk":5,"migraine_risk":7,"frizz_risk":0,"updated_at":"2026-04-03T08:08:29.706149+05:30"},{"city":"Gwalior","state":"Madhya Pradesh","latitude":26.2183,"longitude":78.1828,"temp":27.5,"humidity":44,"rain":0.0,"pressure":985.8,"uv_index":7.55,"wind_gusts":38.5,"aqi":63,"pm10":52.6,"pm2_5":16.5,"mosquito_risk":4,"arthritis_risk":5,"migraine_risk":7,"frizz_risk":0,"updated_at":"2026-04-03T08:08:29.706156+05:30"},{"city":"Indore","state":"Madhya Pradesh","latitude":22.7196,"longitude":75.8577,"temp":23.6,"humidity":56,"rain":0.0,"pressure":951.2,"uv_index":8.3,"wind_gusts":39.6,"aqi":82,"pm10":32.7,"pm2_5":29.6,"mosquito_risk":0,"arthritis_risk":5,"migraine_risk":7,"frizz_risk":0,"updated_at":"2026-04-03T08:08:29.706163+05:30"},{"city":"Bhopal","state":"Madhya Pradesh","latitude":23.2599,"longitude":77.4126,"temp":25.7,"humidity":65,"rain":0.0,"pressure":956.8,"uv_index":8.2,"wind_gusts":32.8,"aqi":77,"pm10":26.0,"pm2_5":23.3,"mosquito_risk":7,"arthritis_risk":5,"migraine_risk":7,"frizz_risk":1,"updated_at":"2026-04-03T08:08:29.706170+05:30"},{"city":"Jabalpur","state":"Madhya Pradesh","latitude":23.1815,"longitude":79.9864,"temp":26.1,"humidity":61,"rain":0.0,"pressure":965.1,"uv_index":7.9,"wind_gusts":22.0,"aqi":77,"pm10":25.8,"pm2_5":23.5,"mosquito_risk":7,"arthritis_risk":5,"migraine_risk":7,"frizz_risk":1,"updated_at":"2026-04-03T08:08:29.706177+05:30"},{"city":"Ujjain","state":"Madhya Pradesh","latitude":23.1765,"longitude":75.7885,"temp":23.0,"humidity":63,"rain":0.0,"pressure":956.9,"uv_index":8.2,"wind_gusts":34.6,"aqi":76,"pm10":32.4,"pm2_5":29.7,"mosquito_risk":3,"arthritis_risk":5,"migraine_risk":7,"frizz_risk":0,"updated_at":"2026-04-03T08:08:29.706184+05:30"},{"city":"Visakhapatnam","state":"Andhra Pradesh","latitude":17.6868,"longitude":83.2185,"temp":28.7,"humidity":73,"rain":0.0,"pressure":1007.1,"uv_index":8.8,"wind_gusts":41.8,"aqi":53,"pm10":22.5,"pm2_5":20.4,"mosquito_risk":7,"arthritis_risk":5,"migraine_risk":4,"frizz_risk":1,"updated_at":"2026-04-03T08:08:29.706191+05:30"},{"city":"Vijayawada","state":"Andhra Pradesh","latitude":16.5062,"longitude":80.648,"temp":27.4,"humidity":83,"rain":0.0,"pressure":1006.8,"uv_index":8.65,"wind_gusts":25.6,"aqi":50,"pm10":15.2,"pm2_5":13.3,"mosquito_risk":7,"arthritis_risk":5,"migraine_risk":4,"frizz_risk":1,"updated_at":"2026-04-03T08:08:29.706198+05:30"},{"city":"Guntur","state":"Andhra Pradesh","latitude":16.3067,"longitude":80.4365,"temp":27.7,"humidity":81,"rain":0.0,"pressure":1007.9,"uv_index":8.5,"wind_gusts":31.0,"aqi":45,"pm10":13.3,"pm2_5":11.3,"mosquito_risk":7,"arthritis_risk":5,"migraine_risk":4,"frizz_risk":1,"updated_at":"2026-04-03T08:08:29.706206+05:30"},{"city":"Nellore","state":"Andhra Pradesh","latitude":14.4426,"longitude":79.9865,"temp":28.0,"humidity":78,"rain":0.0,"pressure":1009.8,"uv_index":9.15,"wind_gusts":33.1,"aqi":40,"pm10":15.8,"pm2_5":12.8,"mosquito_risk":7,"arthritis_risk":0,"migraine_risk":4,"frizz_risk":1,"updated_at":"2026-04-03T08:08:29.706214+05:30"},{"city":"Kurnool","state":"Andhra Pradesh","latitude":15.8281,"longitude":78.0373,"temp":28.5,"humidity":58,"rain":0.0,"pressure":980.4,"uv_index":8.85,"wind_gusts":19.8,"aqi":51,"pm10":11.0,"pm2_5":10.0,"mosquito_risk":4,"arthritis_risk":5,"migraine_risk":7,"frizz_risk":1,"updated_at":"2026-04-03T08:08:29.706221+05:30"},{"city":"Kakinada","state":"Andhra Pradesh","latitude":16.9891,"longitude":82.2475,"temp":28.7,"humidity":76,"rain":0.0,"pressure":1011.3,"uv_index":8.85,"wind_gusts":37.8,"aqi":36,"pm10":14.6,"pm2_5":12.4,"mosquito_risk":7,"arthritis_risk":0,"migraine_risk":4,"frizz_risk":1,"updated_at":"2026-04-03T08:08:29.706228+05:30"},{"city":"Tirupati","state":"Andhra Pradesh","latitude":13.6288,"longitude":79.4192,"temp":26.1,"humidity":77,"rain":0.0,"pressure":995.8,"uv_index":9.35,"wind_gusts":27.7,"aqi":53,"pm10":21.7,"pm2_5":19.4,"mosquito_risk":7,"arthritis_risk":5,"migraine_risk":7,"frizz_risk":1,"updated_at":"2026-04-03T08:08:29.706235+05:30"},{"city":"Warangal","state":"Telangana","latitude":17.9689,"longitude":79.5941,"temp":27.1,"humidity":73,"rain":0.0,"pressure":982.5,"uv_index":8.8,"wind_gusts":16.2,"aqi":71,"pm10":17.2,"pm2_5":16.5,"mosquito_risk":7,"arthritis_risk":5,"migraine_risk":7,"frizz_risk":1,"updated_at":"2026-04-03T08:08:29.706242+05:30"},{"city":"Nizamabad","state":"Telangana","latitude":18.6725,"longitude":78.0941,"temp":25.9,"humidity":79,"rain":0.0,"pressure":968.0,"uv_index":8.8,"wind_gusts":33.8,"aqi":117,"pm10":53.7,"pm2_5":49.4,"mosquito_risk":7,"arthritis_risk":5,"migraine_risk":7,"frizz_risk":1,"updated_at":"2026-04-03T08:08:29.706248+05:30"},{"city":"Mysore","state":"Karnataka","latitude":12.2958,"longitude":76.6396,"temp":23.4,"humidity":83,"rain":0.0,"pressure":931.6,"uv_index":9.5,"wind_gusts":40.7,"aqi":84,"pm10":29.9,"pm2_5":27.4,"mosquito_risk":3,"arthritis_risk":5,"migraine_risk":7,"frizz_risk":1,"updated_at":"2026-04-03T08:08:29.706255+05:30"},{"city":"Mangalore","state":"Karnataka","latitude":12.9141,"longitude":74.856,"temp":28.1,"humidity":83,"rain":0.0,"pressure":1009.5,"uv_index":9.2,"wind_gusts":24.8,"aqi":73,"pm10":32.5,"pm2_5":30.2,"mosquito_risk":7,"arthritis_risk":0,"migraine_risk":4,"frizz_risk":1,"updated_at":"2026-04-03T08:08:29.706261+05:30"},{"city":"Hubli-Dharwad","state":"Karnataka","latitude":15.3647,"longitude":75.124,"temp":24.0,"humidity":87,"rain":0.0,"pressure":943.6,"uv_index":9.2,"wind_gusts":37.1,"aqi":80,"pm10":33.3,"pm2_5":31.7,"mosquito_risk":3,"arthritis_risk":5,"migraine_risk":7,"frizz_risk":1,"updated_at":"2026-04-03T08:08:29.706268+05:30"},{"city":"Belgaum","state":"Karnataka","latitude":15.8497,"longitude":74.4977,"temp":22.9,"humidity":89,"rain":0.0,"pressure":928.0,"uv_index":9.25,"wind_gusts":36.0,"aqi":95,"pm10":39.0,"pm2_5":36.7,"mosquito_risk":3,"arthritis_risk":5,"migraine_risk":7,"frizz_risk":1,"updated_at":"2026-04-03T08:08:32.923444+05:30"},{"city":"Coimbatore","state":"Tamil Nadu","latitude":11.0168,"longitude":76.9558,"temp":25.6,"humidity":77,"rain":0.0,"pressure":965.4,"uv_index":9.5,"wind_gusts":45.7,"aqi":65,"pm10":23.7,"pm2_5":21.2,"mosquito_risk":7,"arthritis_risk":5,"migraine_risk":7,"frizz_risk":1,"updated_at":"2026-04-03T08:08:32.923486+05:30"},{"city":"Madurai","state":"Tamil Nadu","latitude":9.9252,"longitude":78.1198,"temp":26.4,"humidity":84,"rain":0.0,"pressure":996.7,"uv_index":8.95,"wind_gusts":20.9,"aqi":49,"pm10":20.3,"pm2_5":19.5,"mosquito_risk":7,"arthritis_risk":5,"migraine_risk":7,"frizz_risk":1,"updated_at":"2026-04-03T08:08:32.923500+05:30"},{"city":"Trichy","state":"Tamil Nadu","latitude":10.7905,"longitude":78.7047,"temp":26.7,"humidity":83,"rain":0.0,"pressure":1003.5,"uv_index":9.35,"wind_gusts":22.3,"aqi":55,"pm10":24.7,"pm2_5":21.8,"mosquito_risk":7,"arthritis_risk":5,"migraine_risk":4,"frizz_risk":1,"updated_at":"2026-04-03T08:08:32.923510+05:30"},{"city":"Salem","state":"Tamil Nadu","latitude":11.6643,"longitude":78.146,"temp":27.0,"humidity":70,"rain":0.0,"pressure":981.2,"uv_index":9.3,"wind_gusts":26.6,"aqi":63,"pm10":21.5,"pm2_5":20.2,"mosquito_risk":7,"arthritis_risk":5,"migraine_risk":7,"frizz_risk":1,"updated_at":"2026-04-03T08:08:32.923519+05:30"},{"city":"Tirunelveli","state":"Tamil Nadu","latitude":8.7139,"longitude":77.7567,"temp":27.9,"humidity":73,"rain":0.0,"pressure":1006.7,"uv_index":9.35,"wind_gusts":34.2,"aqi":54,"pm10":22.9,"pm2_5":20.3,"mosquito_risk":7,"arthritis_risk":5,"migraine_risk":4,"frizz_risk":1,"updated_at":"2026-04-03T08:08:32.923528+05:30"},{"city":"Vellore","state":"Tamil Nadu","latitude":12.9165,"longitude":79.1325,"temp":24.8,"humidity":67,"rain":0.0,"pressure":988.9,"uv_index":9.4,"wind_gusts":29.2,"aqi":61,"pm10":36.7,"pm2_5":34.6,"mosquito_risk":3,"arthritis_risk":5,"migraine_risk":7,"frizz_risk":1,"updated_at":"2026-04-03T08:08:32.923537+05:30"},{"city":"Erode","state":"Tamil Nadu","latitude":11.341,"longitude":77.7172,"temp":27.2,"humidity":76,"rain":0.0,"pressure":992.9,"uv_index":9.4,"wind_gusts":29.9,"aqi":43,"pm10":15.7,"pm2_5":13.9,"mosquito_risk":7,"arthritis_risk":5,"migraine_risk":7,"frizz_risk":1,"updated_at":"2026-04-03T08:08:32.923545+05:30"},{"city":"Kochi","state":"Kerala","latitude":9.9312,"longitude":76.2673,"temp":27.9,"humidity":80,"rain":0.0,"pressure":1011.7,"uv_index":9.25,"wind_gusts":21.2,"aqi":68,"pm10":19.3,"pm2_5":18.2,"mosquito_risk":7,"arthritis_risk":0,"migraine_risk":4,"frizz_risk":1,"updated_at":"2026-04-03T08:08:32.923553+05:30"},{"city":"Thiruvananthapuram","state":"Kerala","latitude":8.5241,"longitude":76.9366,"temp":27.8,"humidity":81,"rain":0.0,"pressure":1010.9,"uv_index":9.2,"wind_gusts":17.6,"aqi":59,"pm10":24.3,"pm2_5":20.1,"mosquito_risk":7,"arthritis_risk":0,"migraine_risk":4,"frizz_risk":1,"updated_at":"2026-04-03T08:08:32.923562+05:30"},{"city":"Kozhikode","state":"Kerala","latitude":11.2588,"longitude":75.7804,"temp":27.7,"humidity":83,"rain":0.0,"pressure":1011.1,"uv_index":9.15,"wind_gusts":24.8,"aqi":58,"pm10":12.7,"pm2_5":10.9,"mosquito_risk":7,"arthritis_risk":0,"migraine_risk":4,"frizz_risk":1,"updated_at":"2026-04-03T08:08:32.923570+05:30"},{"city":"Thrissur","state":"Kerala","latitude":10.5276,"longitude":76.2144,"temp":26.8,"humidity":86,"rain":0.0,"pressure":1010.4,"uv_index":9.2,"wind_gusts":29.9,"aqi":64,"pm10":18.6,"pm2_5":17.2,"mosquito_risk":7,"arthritis_risk":0,"migraine_risk":4,"frizz_risk":1,"updated_at":"2026-04-03T08:08:32.923579+05:30"},{"city":"Kannur","state":"Kerala","latitude":11.8745,"longitude":75.3704,"temp":27.6,"humidity":83,"rain":0.0,"pressure":1010.2,"uv_index":8.75,"wind_gusts":25.9,"aqi":72,"pm10":31.2,"pm2_5":29.5,"mosquito_risk":7,"arthritis_risk":0,"migraine_risk":4,"frizz_risk":1,"updated_at":"2026-04-03T08:08:32.923588+05:30"},{"city":"Patna","state":"Bihar","latitude":25.5941,"longitude":85.1376,"temp":27.5,"humidity":62,"rain":0.0,"pressure":1002.3,"uv_index":8.3,"wind_gusts":33.8,"aqi":75,"pm10":41.3,"pm2_5":34.2,"mosquito_risk":7,"arthritis_risk":5,"migraine_risk":4,"frizz_risk":1,"updated_at":"2026-04-03T08:08:32.923595+05:30"},{"city":"Gaya","state":"Bihar","latitude":24.7914,"longitude":85.0002,"temp":28.4,"humidity":62,"rain":0.0,"pressure":995.8,"uv_index":8.4,"wind_gusts":34.6,"aqi":73,"pm10":28.3,"pm2_5":23.9,"mosquito_risk":7,"arthritis_risk":5,"migraine_risk":7,"frizz_risk":1,"updated_at":"2026-04-03T08:08:32.923604+05:30"},{"city":"Muzaffarpur","state":"Bihar","latitude":26.1209,"longitude":85.3647,"temp":26.1,"humidity":65,"rain":0.0,"pressure":1002.1,"uv_index":8.25,"wind_gusts":31.3,"aqi":72,"pm10":44.1,"pm2_5":31.1,"mosquito_risk":7,"arthritis_risk":5,"migraine_risk":4,"frizz_risk":1,"updated_at":"2026-04-03T08:08:32.923611+05:30"},{"city":"Bhagalpur","state":"Bihar","latitude":25.2425,"longitude":87.0117,"temp":27.8,"humidity":65,"rain":0.0,"pressure":1003.1,"uv_index":8.3,"wind_gusts":25.9,"aqi":65,"pm10":32.5,"pm2_5":27.0,"mosquito_risk":7,"arthritis_risk":5,"migraine_risk":4,"frizz_risk":1,"updated_at":"2026-04-03T08:08:32.923618+05:30"},{"city":"Ranchi","state":"Jharkhand","latitude":23.3441,"longitude":85.3096,"temp":27.6,"humidity":54,"rain":0.0,"pressure":941.3,"uv_index":8.95,"wind_gusts":31.7,"aqi":64,"pm10":22.1,"pm2_5":19.9,"mosquito_risk":4,"arthritis_risk":5,"migraine_risk":7,"frizz_risk":1,"updated_at":"2026-04-03T08:08:32.923625+05:30"},{"city":"Jamshedpur","state":"Jharkhand","latitude":22.8046,"longitude":86.2029,"temp":28.8,"humidity":70,"rain":0.0,"pressure":993.8,"uv_index":8.8,"wind_gusts":23.4,"aqi":103,"pm10":42.1,"pm2_5":35.7,"mosquito_risk":7,"arthritis_risk":5,"migraine_risk":7,"frizz_risk":1,"updated_at":"2026-04-03T08:08:32.923632+05:30"},{"city":"Dhanbad","state":"Jharkhand","latitude":23.7957,"longitude":86.4304,"temp":29.3,"humidity":54,"rain":0.0,"pressure":982.4,"uv_index":8.7,"wind_gusts":21.6,"aqi":144,"pm10":65.4,"pm2_5":61.5,"mosquito_risk":4,"arthritis_risk":5,"migraine_risk":7,"frizz_risk":1,"updated_at":"2026-04-03T08:08:32.923640+05:30"},{"city":"Bokaro","state":"Jharkhand","latitude":23.6693,"longitude":86.1511,"temp":29.2,"humidity":56,"rain":0.0,"pressure":986.8,"uv_index":8.75,"wind_gusts":24.8,"aqi":143,"pm10":70.3,"pm2_5":66.8,"mosquito_risk":4,"arthritis_risk":5,"migraine_risk":7,"frizz_risk":1,"updated_at":"2026-04-03T08:08:32.923647+05:30"},{"city":"Bhubaneswar","state":"Odisha","latitude":20.2961,"longitude":85.8245,"temp":28.4,"humidity":81,"rain":0.0,"pressure":1005.7,"uv_index":8.95,"wind_gusts":28.1,"aqi":51,"pm10":14.4,"pm2_5":12.5,"mosquito_risk":7,"arthritis_risk":5,"migraine_risk":4,"frizz_risk":1,"updated_at":"2026-04-03T08:08:32.923654+05:30"},{"city":"Cuttack","state":"Odisha","latitude":20.4625,"longitude":85.8828,"temp":28.1,"humidity":80,"rain":0.0,"pressure":1007.6,"uv_index":9.0,"wind_gusts":35.3,"aqi":51,"pm10":14.4,"pm2_5":12.5,"mosquito_risk":7,"arthritis_risk":5,"migraine_risk":4,"frizz_risk":1,"updated_at":"2026-04-03T08:08:32.923660+05:30"},{"city":"Rourkela","state":"Odisha","latitude":22.2604,"longitude":84.8536,"temp":29.0,"humidity":74,"rain":0.0,"pressure":988.4,"uv_index":8.7,"wind_gusts":23.8,"aqi":119,"pm10":55.4,"pm2_5":47.5,"mosquito_risk":7,"arthritis_risk":5,"migraine_risk":7,"frizz_risk":1,"updated_at":"2026-04-03T08:08:32.923667+05:30"},{"city":"Raipur","state":"Chhattisgarh","latitude":21.2514,"longitude":81.6296,"temp":29.1,"humidity":58,"rain":0.0,"pressure":978.3,"uv_index":8.8,"wind_gusts":29.5,"aqi":145,"pm10":56.9,"pm2_5":54.4,"mosquito_risk":4,"arthritis_risk":5,"migraine_risk":7,"frizz_risk":1,"updated_at":"2026-04-03T08:08:32.923673+05:30"},{"city":"Bhilai","state":"Chhattisgarh","latitude":21.1938,"longitude":81.3509,"temp":28.8,"humidity":62,"rain":0.0,"pressure":978.6,"uv_index":8.8,"wind_gusts":22.7,"aqi":125,"pm10":46.0,"pm2_5":43.8,"mosquito_risk":7,"arthritis_risk":5,"migraine_risk":7,"frizz_risk":1,"updated_at":"2026-04-03T08:08:32.923679+05:30"},{"city":"Guwahati","state":"Assam","latitude":26.1158,"longitude":91.7086,"temp":24.4,"humidity":89,"rain":0.0,"pressure":1004.9,"uv_index":8.25,"wind_gusts":43.6,"aqi":121,"pm10":52.4,"pm2_5":44.8,"mosquito_risk":3,"arthritis_risk":5,"migraine_risk":4,"frizz_risk":1,"updated_at":"2026-04-03T08:08:32.923685+05:30"},{"city":"Agartala","state":"Tripura","latitude":23.8315,"longitude":91.2868,"temp":27.7,"humidity":84,"rain":0.0,"pressure":1009.3,"uv_index":8.45,"wind_gusts":26.3,"aqi":92,"pm10":12.9,"pm2_5":10.5,"mosquito_risk":7,"arthritis_risk":0,"migraine_risk":4,"frizz_risk":1,"updated_at":"2026-04-03T08:08:32.923691+05:30"},{"city":"Shillong","state":"Meghalaya","latitude":25.5788,"longitude":91.8933,"temp":19.3,"humidity":65,"rain":0.0,"pressure":859.6,"uv_index":8.55,"wind_gusts":51.5,"aqi":109,"pm10":54.6,"pm2_5":43.2,"mosquito_risk":3,"arthritis_risk":5,"migraine_risk":7,"frizz_risk":0,"updated_at":"2026-04-03T08:08:32.923698+05:30"},{"city":"Imphal","state":"Manipur","latitude":24.817,"longitude":93.9368,"temp":20.1,"humidity":87,"rain":0.0,"pressure":926.5,"uv_index":8.8,"wind_gusts":62.6,"aqi":112,"pm10":28.3,"pm2_5":23.3,"mosquito_risk":3,"arthritis_risk":5,"migraine_risk":7,"frizz_risk":1,"updated_at":"2026-04-03T08:08:32.923705+05:30"},{"city":"Aizawl","state":"Mizoram","latitude":23.7271,"longitude":92.7176,"temp":23.6,"humidity":70,"rain":0.0,"pressure":896.8,"uv_index":8.7,"wind_gusts":42.1,"aqi":113,"pm10":57.3,"pm2_5":41.0,"mosquito_risk":3,"arthritis_risk":5,"migraine_risk":7,"frizz_risk":1,"updated_at":"2026-04-03T08:08:32.923712+05:30"},{"city":"Kohima","state":"Nagaland","latitude":25.6701,"longitude":94.1077,"temp":19.6,"humidity":68,"rain":0.0,"pressure":858.5,"uv_index":8.65,"wind_gusts":84.6,"aqi":104,"pm10":36.0,"pm2_5":28.3,"mosquito_risk":3,"arthritis_risk":5,"migraine_risk":7,"frizz_risk":0,"updated_at":"2026-04-03T08:08:32.923719+05:30"},{"city":"Gangtok","state":"Sikkim","latitude":27.3314,"longitude":88.6138,"temp":18.3,"humidity":84,"rain":0.0,"pressure":840.5,"uv_index":8.55,"wind_gusts":21.6,"aqi":90,"pm10":30.3,"pm2_5":23.5,"mosquito_risk":3,"arthritis_risk":10,"migraine_risk":7,"frizz_risk":0,"updated_at":"2026-04-03T08:08:32.923726+05:30"},{"city":"Siliguri","state":"West Bengal","latitude":26.7271,"longitude":88.3953,"temp":25.2,"humidity":67,"rain":0.0,"pressure":996.0,"uv_index":8.25,"wind_gusts":20.2,"aqi":144,"pm10":74.0,"pm2_5":55.5,"mosquito_risk":7,"arthritis_risk":5,"migraine_risk":7,"frizz_risk":1,"updated_at":"2026-04-03T08:08:36.144940+05:30"},{"city":"Durgapur","state":"West Bengal","latitude":23.5204,"longitude":87.3119,"temp":29.9,"humidity":61,"rain":0.0,"pressure":997.4,"uv_index":8.65,"wind_gusts":17.6,"aqi":154,"pm10":93.4,"pm2_5":87.8,"mosquito_risk":7,"arthritis_risk":5,"migraine_risk":7,"frizz_risk":1,"updated_at":"2026-04-03T08:08:36.144970+05:30"},{"city":"Asansol","state":"West Bengal","latitude":23.6739,"longitude":86.9524,"temp":30.2,"humidity":57,"rain":0.0,"pressure":996.0,"uv_index":8.7,"wind_gusts":18.0,"aqi":130,"pm10":56.5,"pm2_5":53.0,"mosquito_risk":0,"arthritis_risk":5,"migraine_risk":7,"frizz_risk":1,"updated_at":"2026-04-03T08:08:36.144980+05:30"},{"city":"Pondicherry","state":"Puducherry","latitude":11.9139,"longitude":79.8145,"temp":26.1,"humidity":86,"rain":0.0,"pressure":1012.7,"uv_index":9.2,"wind_gusts":32.8,"aqi":39,"pm10":15.4,"pm2_5":12.5,"mosquito_risk":7,"arthritis_risk":0,"migraine_risk":4,"frizz_risk":1,"updated_at":"2026-04-03T08:08:36.144988+05:30"},{"city":"Port Blair","state":"Andaman and Nicobar Islands","latitude":11.6234,"longitude":92.7265,"temp":28.7,"humidity":82,"rain":0.0,"pressure":1009.9,"uv_index":9.25,"wind_gusts":25.6,"aqi":35,"pm10":15.7,"pm2_5":7.8,"mosquito_risk":7,"arthritis_risk":0,"migraine_risk":4,"frizz_risk":1,"updated_at":"2026-04-03T08:08:36.144995+05:30"},{"city":"Haridwar","state":"Uttarakhand","latitude":29.9457,"longitude":78.1642,"temp":25.3,"humidity":51,"rain":0.0,"pressure":975.5,"uv_index":5.9,"wind_gusts":41.4,"aqi":58,"pm10":14.8,"pm2_5":13.0,"mosquito_risk":4,"arthritis_risk":5,"migraine_risk":3,"frizz_risk":0,"updated_at":"2026-04-03T08:08:36.145003+05:30"},{"city":"Rishikesh","state":"Uttarakhand","latitude":30.0869,"longitude":78.2676,"temp":25.9,"humidity":46,"rain":0.0,"pressure":968.7,"uv_index":5.65,"wind_gusts":37.1,"aqi":41,"pm10":11.0,"pm2_5":8.6,"mosquito_risk":4,"arthritis_risk":5,"migraine_risk":3,"frizz_risk":0,"updated_at":"2026-04-03T08:08:36.145010+05:30"},{"city":"Nainital","state":"Uttarakhand","latitude":29.3919,"longitude":79.4542,"temp":23.3,"humidity":39,"rain":0.0,"pressure":810.2,"uv_index":5.25,"wind_gusts":38.2,"aqi":51,"pm10":12.7,"pm2_5":10.5,"mosquito_risk":0,"arthritis_risk":5,"migraine_risk":3,"frizz_risk":0,"updated_at":"2026-04-03T08:08:36.145017+05:30"},{"city":"Mussoorie","state":"Uttarakhand","latitude":30.4599,"longitude":78.0664,"temp":20.5,"humidity":39,"rain":0.0,"pressure":806.0,"uv_index":6.25,"wind_gusts":62.3,"aqi":53,"pm10":11.0,"pm2_5":9.2,"mosquito_risk":0,"arthritis_risk":5,"migraine_risk":7,"frizz_risk":0,"updated_at":"2026-04-03T08:08:36.145024+05:30"},{"city":"Dharamshala","state":"Himachal Pradesh","latitude":32.219,"longitude":76.3234,"temp":20.6,"humidity":59,"rain":0.0,"pressure":869.7,"uv_index":5.45,"wind_gusts":48.2,"aqi":37,"pm10":7.7,"pm2_5":4.9,"mosquito_risk":0,"arthritis_risk":5,"migraine_risk":3,"frizz_risk":0,"updated_at":"2026-04-03T08:08:36.145031+05:30"},{"city":"Dalhousie","state":"Himachal Pradesh","latitude":32.5387,"longitude":75.971,"temp":17.0,"humidity":53,"rain":0.0,"pressure":803.9,"uv_index":5.95,"wind_gusts":52.9,"aqi":57,"pm10":12.1,"pm2_5":9.4,"mosquito_risk":0,"arthritis_risk":5,"migraine_risk":3,"frizz_risk":0,"updated_at":"2026-04-03T08:08:36.145039+05:30"},{"city":"Patiala","state":"Punjab","latitude":30.3398,"longitude":76.3869,"temp":21.6,"humidity":77,"rain":0.0,"pressure":979.9,"uv_index":5.85,"wind_gusts":48.6,"aqi":100,"pm10":745.1,"pm2_5":95.2,"mosquito_risk":3,"arthritis_risk":5,"migraine_risk":3,"frizz_risk":1,"updated_at":"2026-04-03T08:08:36.145046+05:30"},{"city":"Bhatinda","state":"Punjab","latitude":30.211,"longitude":74.9455,"temp":19.8,"humidity":91,"rain":0.0,"pressure":985.8,"uv_index":5.1,"wind_gusts":42.8,"aqi":93,"pm10":70.1,"pm2_5":23.0,"mosquito_risk":3,"arthritis_risk":10,"migraine_risk":3,"frizz_risk":1,"updated_at":"2026-04-03T08:08:36.145052+05:30"},{"city":"Rohtak","state":"Haryana","latitude":28.8955,"longitude":76.6066,"temp":22.1,"humidity":80,"rain":0.0,"pressure":983.4,"uv_index":5.9,"wind_gusts":40.7,"aqi":151,"pm10":583.0,"pm2_5":102.4,"mosquito_risk":3,"arthritis_risk":5,"migraine_risk":3,"frizz_risk":1,"updated_at":"2026-04-03T08:08:36.145058+05:30"},{"city":"Panipat","state":"Haryana","latitude":29.3909,"longitude":76.9635,"temp":23.0,"humidity":76,"rain":0.0,"pressure":981.7,"uv_index":6.25,"wind_gusts":39.2,"aqi":144,"pm10":692.9,"pm2_5":103.4,"mosquito_risk":3,"arthritis_risk":5,"migraine_risk":7,"frizz_risk":1,"updated_at":"2026-04-03T08:08:36.145065+05:30"},{"city":"Mathura","state":"Uttar Pradesh","latitude":27.4924,"longitude":77.6737,"temp":26.1,"humidity":64,"rain":0.0,"pressure":988.6,"uv_index":7.05,"wind_gusts":39.6,"aqi":239,"pm10":810.3,"pm2_5":95.2,"mosquito_risk":7,"arthritis_risk":5,"migraine_risk":7,"frizz_risk":1,"updated_at":"2026-04-03T08:08:36.145071+05:30"},{"city":"Vrindavan","state":"Uttar Pradesh","latitude":27.5823,"longitude":77.7027,"temp":26.2,"humidity":61,"rain":0.0,"pressure":989.0,"uv_index":6.95,"wind_gusts":40.0,"aqi":239,"pm10":810.3,"pm2_5":95.2,"mosquito_risk":7,"arthritis_risk":5,"migraine_risk":7,"frizz_risk":1,"updated_at":"2026-04-03T08:08:36.145078+05:30"},{"city":"Ayodhya","state":"Uttar Pradesh","latitude":26.7922,"longitude":82.1998,"temp":25.6,"humidity":64,"rain":0.0,"pressure":997.0,"uv_index":6.15,"wind_gusts":25.9,"aqi":66,"pm10":31.9,"pm2_5":22.5,"mosquito_risk":7,"arthritis_risk":5,"migraine_risk":7,"frizz_risk":1,"updated_at":"2026-04-03T08:08:36.145084+05:30"},{"city":"Ratlam","state":"Madhya Pradesh","latitude":23.3315,"longitude":75.0367,"temp":23.1,"humidity":68,"rain":0.0,"pressure":957.7,"uv_index":8.15,"wind_gusts":36.0,"aqi":71,"pm10":28.3,"pm2_5":25.4,"mosquito_risk":3,"arthritis_risk":5,"migraine_risk":7,"frizz_risk":1,"updated_at":"2026-04-03T08:08:36.145090+05:30"},{"city":"Sagar","state":"Madhya Pradesh","latitude":23.8388,"longitude":78.7378,"temp":26.6,"humidity":56,"rain":0.0,"pressure":953.6,"uv_index":7.55,"wind_gusts":29.5,"aqi":72,"pm10":21.1,"pm2_5":18.8,"mosquito_risk":4,"arthritis_risk":5,"migraine_risk":7,"frizz_risk":1,"updated_at":"2026-04-03T08:08:36.145096+05:30"},{"city":"Satna","state":"Madhya Pradesh","latitude":24.6005,"longitude":80.8322,"temp":29.0,"humidity":49,"rain":0.0,"pressure":974.1,"uv_index":6.85,"wind_gusts":37.4,"aqi":68,"pm10":23.7,"pm2_5":20.3,"mosquito_risk":4,"arthritis_risk":5,"migraine_risk":7,"frizz_risk":1,"updated_at":"2026-04-03T08:08:36.145103+05:30"},{"city":"Akola","state":"Maharashtra","latitude":20.7002,"longitude":77.0082,"temp":25.5,"humidity":79,"rain":0.0,"pressure":978.6,"uv_index":8.5,"wind_gusts":31.7,"aqi":89,"pm10":41.9,"pm2_5":37.6,"mosquito_risk":7,"arthritis_risk":5,"migraine_risk":7,"frizz_risk":1,"updated_at":"2026-04-03T08:08:36.145110+05:30"},{"city":"Amravati","state":"Maharashtra","latitude":20.9374,"longitude":77.7796,"temp":25.7,"humidity":75,"rain":0.0,"pressure":970.5,"uv_index":8.35,"wind_gusts":37.8,"aqi":84,"pm10":40.6,"pm2_5":36.1,"mosquito_risk":7,"arthritis_risk":5,"migraine_risk":7,"frizz_risk":1,"updated_at":"2026-04-03T08:08:36.145116+05:30"},{"city":"Latur","state":"Maharashtra","latitude":18.4088,"longitude":76.5604,"temp":24.0,"humidity":80,"rain":0.0,"pressure":942.5,"uv_index":8.55,"wind_gusts":31.0,"aqi":108,"pm10":58.0,"pm2_5":52.2,"mosquito_risk":3,"arthritis_risk":5,"migraine_risk":7,"frizz_risk":1,"updated_at":"2026-04-03T08:08:36.145123+05:30"},{"city":"Nanded","state":"Maharashtra","latitude":19.1383,"longitude":77.3091,"temp":25.8,"humidity":83,"rain":0.0,"pressure":971.9,"uv_index":8.35,"wind_gusts":23.0,"aqi":108,"pm10":46.3,"pm2_5":41.9,"mosquito_risk":7,"arthritis_risk":5,"migraine_risk":7,"frizz_risk":1,"updated_at":"2026-04-03T08:08:36.145129+05:30"},{"city":"Gulbarga","state":"Karnataka","latitude":17.3297,"longitude":76.8343,"temp":26.7,"humidity":66,"rain":0.0,"pressure":961.9,"uv_index":8.55,"wind_gusts":41.4,"aqi":82,"pm10":42.8,"pm2_5":39.5,"mosquito_risk":7,"arthritis_risk":5,"migraine_risk":7,"frizz_risk":1,"updated_at":"2026-04-03T08:08:36.145135+05:30"},{"city":"Bidar","state":"Karnataka","latitude":17.9104,"longitude":77.5199,"temp":24.7,"humidity":79,"rain":0.0,"pressure":938.6,"uv_index":8.5,"wind_gusts":39.2,"aqi":96,"pm10":54.6,"pm2_5":48.9,"mosquito_risk":3,"arthritis_risk":5,"migraine_risk":7,"frizz_risk":1,"updated_at":"2026-04-03T08:08:36.145141+05:30"},{"city":"Hospet","state":"Karnataka","latitude":15.2689,"longitude":76.3909,"temp":26.2,"humidity":80,"rain":0.0,"pressure":959.0,"uv_index":9.15,"wind_gusts":37.1,"aqi":78,"pm10":46.9,"pm2_5":44.1,"mosquito_risk":7,"arthritis_risk":5,"migraine_risk":7,"frizz_risk":1,"updated_at":"2026-04-03T08:08:36.145147+05:30"},{"city":"Tirupur","state":"Tamil Nadu","latitude":11.1085,"longitude":77.3411,"temp":26.4,"humidity":81,"rain":0.0,"pressure":979.0,"uv_index":9.5,"wind_gusts":31.7,"aqi":59,"pm10":24.3,"pm2_5":22.3,"mosquito_risk":7,"arthritis_risk":5,"migraine_risk":7,"frizz_risk":1,"updated_at":"2026-04-03T08:08:36.145153+05:30"},{"city":"Alappuzha","state":"Kerala","latitude":9.4981,"longitude":76.3388,"temp":27.7,"humidity":82,"rain":0.0,"pressure":1011.8,"uv_index":9.2,"wind_gusts":19.1,"aqi":70,"pm10":21.0,"pm2_5":18.9,"mosquito_risk":7,"arthritis_risk":0,"migraine_risk":4,"frizz_risk":1,"updated_at":"2026-04-03T08:08:36.145159+05:30"},{"city":"Munnar","state":"Kerala","latitude":10.0889,"longitude":77.0595,"temp":22.4,"humidity":78,"rain":0.0,"pressure":859.7,"uv_index":8.85,"wind_gusts":30.2,"aqi":66,"pm10":27.0,"pm2_5":25.7,"mosquito_risk":3,"arthritis_risk":5,"migraine_risk":7,"frizz_risk":1,"updated_at":"2026-04-03T08:08:36.145166+05:30"},{"city":"Silchar","state":"Assam","latitude":24.8333,"longitude":92.7789,"temp":23.9,"humidity":90,"rain":0.0,"pressure":1009.2,"uv_index":8.5,"wind_gusts":29.2,"aqi":149,"pm10":43.7,"pm2_5":36.0,"mosquito_risk":3,"arthritis_risk":0,"migraine_risk":4,"frizz_risk":1,"updated_at":"2026-04-03T08:08:36.145173+05:30"},{"city":"Dibrugarh","state":"Assam","latitude":27.4728,"longitude":94.912,"temp":22.6,"humidity":89,"rain":0.0,"pressure":999.7,"uv_index":8.3,"wind_gusts":13.0,"aqi":98,"pm10":39.2,"pm2_5":32.4,"mosquito_risk":3,"arthritis_risk":5,"migraine_risk":7,"frizz_risk":1,"updated_at":"2026-04-03T08:08:36.145179+05:30"}]