[{"city":"Delhi","state":"Delhi","latitude":28.6139,"longitude":77.209,"temp":31.7,"humidity":46,"rain":0.0,"pressure":987.7,"uv_index":5.95,"wind_gusts":18.7,"aqi":169,"pm10":238.4,"pm2_5":76.1,"mosquito_risk":0,"arthritis_risk":5,"migraine_risk":3,"frizz_risk":1,"updated_at":"2026-03-07T13:01:20.806070+05:30"},{"city":"Mumbai","state":"Maharashtra","latitude":19.076,"longitude":72.8777,"temp":27.0,"humidity":79,"rain":0.0,"pressure":1010.3,"uv_index":7.5,"wind_gusts":24.8,"aqi":99,"pm10":50.8,"pm2_5":47.7,"mosquito_risk":7,"arthritis_risk":0,"migraine_risk":4,"frizz_risk":1,"updated_at":"2026-03-07T13:01:20.806121+05:30"},{"city":"Bangalore","state":"Karnataka","latitude":12.9716,"longitude":77.5946,"temp":30.7,"humidity":37,"rain":0.0,"pressure":913.7,"uv_index":9.2,"wind_gusts":24.8,"aqi":114,"pm10":36.3,"pm2_5":32.1,"mosquito_risk":0,"arthritis_risk":5,"migraine_risk":7,"frizz_risk":0,"updated_at":"2026-03-07T13:01:20.806137+05:30"},{"city":"Hyderabad","state":"Telangana","latitude":17.385,"longitude":78.4867,"temp":36.3,"humidity":17,"rain":0.0,"pressure":955.2,"uv_index":8.5,"wind_gusts":28.1,"aqi":98,"pm10":23.5,"pm2_5":16.1,"mosquito_risk":0,"arthritis_risk":5,"migraine_risk":10,"frizz_risk":0,"updated_at":"2026-03-07T13:01:20.806147+05:30"},{"city":"Chennai","state":"Tamil Nadu","latitude":13.0827,"longitude":80.2707,"temp":33.9,"humidity":49,"rain":0.0,"pressure":1008.8,"uv_index":8.9,"wind_gusts":34.9,"aqi":95,"pm10":40.7,"pm2_5":34.0,"mosquito_risk":0,"arthritis_risk":0,"migraine_risk":4,"frizz_risk":1,"updated_at":"2026-03-07T13:01:20.806156+05:30"},{"city":"Kolkata","state":"West Bengal","latitude":22.5726,"longitude":88.3639,"temp":31.2,"humidity":53,"rain":0.0,"pressure":1009.1,"uv_index":7.85,"wind_gusts":23.4,"aqi":139,"pm10":71.7,"pm2_5":54.1,"mosquito_risk":0,"arthritis_risk":0,"migraine_risk":4,"frizz_risk":1,"updated_at":"2026-03-07T13:01:20.806165+05:30"},{"city":"Pune","state":"Maharashtra","latitude":18.5204,"longitude":73.8567,"temp":36.5,"humidity":18,"rain":0.0,"pressure":950.8,"uv_index":8.05,"wind_gusts":25.2,"aqi":108,"pm10":19.6,"pm2_5":16.6,"mosquito_risk":0,"arthritis_risk":5,"migraine_risk":10,"frizz_risk":0,"updated_at":"2026-03-07T13:01:20.806178+05:30"},{"city":"Ahmedabad","state":"Gujarat","latitude":23.0225,"longitude":72.5714,"temp":33.7,"humidity":33,"rain":0.0,"pressure":1005.8,"uv_index":7.3,"wind_gusts":13.0,"aqi":106,"pm10":26.5,"pm2_5":19.0,"mosquito_risk":0,"arthritis_risk":5,"migraine_risk":4,"frizz_risk":0,"updated_at":"2026-03-07T13:01:20.806186+05:30"},{"city":"Jaipur","state":"Rajasthan","latitude":26.9124,"longitude":75.7873,"temp":35.4,"humidity":20,"rain":0.0,"pressure":964.5,"uv_index":6.75,"wind_gusts":18.4,"aqi":89,"pm10":43.1,"pm2_5":15.1,"mosquito_risk":0,"arthritis_risk":5,"migraine_risk":10,"frizz_risk":0,"updated_at":"2026-03-07T13:01:20.806193+05:30"},{"city":"Lucknow","state":"Uttar Pradesh","latitude":26.8467,"longitude":80.9462,"temp":31.5,"humidity":43,"rain":0.0,"pressure":997.9,"uv_index":6.5,"wind_gusts":16.9,"aqi":162,"pm10":98.0,"pm2_5":69.2,"mosquito_risk":0,"arthritis_risk":5,"migraine_risk":7,"frizz_risk":1,"updated_at":"2026-03-07T13:01:20.806202+05:30"},{"city":"Kanpur","state":"Uttar Pradesh","latitude":26.4499,"longitude":80.3319,"temp":31.2,"humidity":48,"rain":0.0,"pressure":996.2,"uv_index":6.5,"wind_gusts":13.7,"aqi":161,"pm10":120.1,"pm2_5":69.4,"mosquito_risk":0,"arthritis_risk":5,"migraine_risk":7,"frizz_risk":1,"updated_at":"2026-03-07T13:01:20.806209+05:30"},{"city":"Chandigarh","state":"Chandigarh","latitude":30.7333,"longitude":76.7794,"temp":30.3,"humidity":55,"rain":0.0,"pressure":973.5,"uv_index":5.9,"wind_gusts":21.2,"aqi":157,"pm10":102.9,"pm2_5":66.6,"mosquito_risk":0,"arthritis_risk":5,"migraine_risk":3,"frizz_risk":1,"updated_at":"2026-03-07T13:01:20.806217+05:30"},{"city":"Srinagar","state":"Jammu and Kashmir","latitude":34.0837,"longitude":74.7973,"temp":15.8,"humidity":68,"rain":0.0,"pressure":847.4,"uv_index":5.6,"wind_gusts":15.8,"aqi":117,"pm10":40.9,"pm2_5":21.5,"mosquito_risk":3,"arthritis_risk":5,"migraine_risk":3,"frizz_risk":0,"updated_at":"2026-03-07T13:01:20.806225+05:30"},{"city":"Jammu","state":"Jammu and Kashmir","latitude":32.7266,"longitude":74.857,"temp":28.4,"humidity":64,"rain":0.0,"pressure":977.6,"uv_index":5.35,"wind_gusts":14.4,"aqi":131,"pm10":52.4,"pm2_5":37.8,"mosquito_risk":7,"arthritis_risk":5,"migraine_risk":3,"frizz_risk":1,"updated_at":"2026-03-07T13:01:20.806235+05:30"},{"city":"Amritsar","state":"Punjab","latitude":31.634,"longitude":74.8723,"temp":30.7,"humidity":49,"rain":0.0,"pressure":985.4,"uv_index":6.3,"wind_gusts":18.7,"aqi":153,"pm10":71.7,"pm2_5":40.5,"mosquito_risk":0,"arthritis_risk":5,"migraine_risk":7,"frizz_risk":1,"updated_at":"2026-03-07T13:01:20.806243+05:30"},{"city":"Ludhiana","state":"Punjab","latitude":30.901,"longitude":75.8573,"temp":30.9,"humidity":50,"rain":0.0,"pressure":983.4,"uv_index":6.1,"wind_gusts":16.2,"aqi":169,"pm10":139.7,"pm2_5":77.3,"mosquito_risk":0,"arthritis_risk":5,"migraine_risk":7,"frizz_risk":1,"updated_at":"2026-03-07T13:01:20.806249+05:30"},{"city":"Jalandhar","state":"Punjab","latitude":31.326,"longitude":75.5762,"temp":30.8,"humidity":52,"rain":0.0,"pressure":984.6,"uv_index":6.3,"wind_gusts":18.4,"aqi":165,"pm10":111.1,"pm2_5":61.7,"mosquito_risk":0,"arthritis_risk":5,"migraine_risk":7,"frizz_risk":1,"updated_at":"2026-03-07T13:01:20.806258+05:30"},{"city":"Dehradun","state":"Uttarakhand","latitude":30.6284,"longitude":78.0322,"temp":22.4,"humidity":60,"rain":0.0,"pressure":836.0,"uv_index":6.2,"wind_gusts":28.8,"aqi":104,"pm10":40.5,"pm2_5":28.9,"mosquito_risk":0,"arthritis_risk":5,"migraine_risk":7,"frizz_risk":0,"updated_at":"2026-03-07T13:01:20.806265+05:30"},{"city":"Shimla","state":"Himachal Pradesh","latitude":31.1048,"longitude":77.1734,"temp":21.9,"humidity":55,"rain":0.0,"pressure":791.7,"uv_index":6.3,"wind_gusts":40.0,"aqi":121,"pm10":36.6,"pm2_5":24.1,"mosquito_risk":0,"arthritis_risk":5,"migraine_risk":7,"frizz_risk":0,"updated_at":"2026-03-07T13:01:20.806272+05:30"},{"city":"Manali","state":"Himachal Pradesh","latitude":32.2396,"longitude":77.1887,"temp":24.7,"humidity":20,"rain":0.0,"pressure":826.9,"uv_index":7.2,"wind_gusts":46.4,"aqi":58,"pm10":18.1,"pm2_5":9.6,"mosquito_risk":0,"arthritis_risk":5,"migraine_risk":7,"frizz_risk":0,"updated_at":"2026-03-07T13:01:20.806279+05:30"},{"city":"Gurgaon","state":"Haryana","latitude":28.4595,"longitude":77.0266,"temp":32.0,"humidity":44,"rain":0.0,"pressure":986.1,"uv_index":6.05,"wind_gusts":11.5,"aqi":214,"pm10":605.4,"pm2_5":90.6,"mosquito_risk":0,"arthritis_risk":5,"migraine_risk":7,"frizz_risk":1,"updated_at":"2026-03-07T13:01:20.806286+05:30"},{"city":"Noida","state":"Uttar Pradesh","latitude":28.5355,"longitude":77.391,"temp":32.0,"humidity":45,"rain":0.0,"pressure":989.2,"uv_index":5.95,"wind_gusts":17.6,"aqi":214,"pm10":605.4,"pm2_5":90.6,"mosquito_risk":0,"arthritis_risk":5,"migraine_risk":3,"frizz_risk":1,"updated_at":"2026-03-07T13:01:20.806293+05:30"},{"city":"Ghaziabad","state":"Uttar Pradesh","latitude":28.6692,"longitude":77.4538,"temp":30.8,"humidity":53,"rain":0.0,"pressure":987.5,"uv_index":5.95,"wind_gusts":16.9,"aqi":169,"pm10":220.3,"pm2_5":75.7,"mosquito_risk":0,"arthritis_risk":5,"migraine_risk":3,"frizz_risk":1,"updated_at":"2026-03-07T13:01:20.806300+05:30"},{"city":"Faridabad","state":"Haryana","latitude":28.4089,"longitude":77.3178,"temp":31.4,"humidity":48,"rain":0.0,"pressure":988.4,"uv_index":6.0,"wind_gusts":13.3,"aqi":214,"pm10":605.4,"pm2_5":90.6,"mosquito_risk":0,"arthritis_risk":5,"migraine_risk":3,"frizz_risk":1,"updated_at":"2026-03-07T13:01:20.806306+05:30"},{"city":"Meerut","state":"Uttar Pradesh","latitude":28.9845,"longitude":77.7064,"temp":31.1,"humidity":52,"rain":0.0,"pressure":986.2,"uv_index":5.8,"wind_gusts":20.2,"aqi":169,"pm10":220.3,"pm2_5":75.7,"mosquito_risk":0,"arthritis_risk":5,"migraine_risk":3,"frizz_risk":1,"updated_at":"2026-03-07T13:01:20.806313+05:30"},{"city":"Agra","state":"Uttar Pradesh","latitude":27.1767,"longitude":78.0081,"temp":33.5,"humidity":38,"rain":0.0,"pressure":992.3,"uv_index":6.3,"wind_gusts":15.5,"aqi":168,"pm10":302.7,"pm2_5":71.2,"mosquito_risk":0,"arthritis_risk":5,"migraine_risk":7,"frizz_risk":1,"updated_at":"2026-03-07T13:01:20.806320+05:30"},{"city":"Varanasi","state":"Uttar Pradesh","latitude":25.3176,"longitude":82.9739,"temp":32.0,"humidity":47,"rain":0.0,"pressure":1001.4,"uv_index":7.15,"wind_gusts":15.5,"aqi":177,"pm10":87.3,"pm2_5":75.9,"mosquito_risk":0,"arthritis_risk":5,"migraine_risk":4,"frizz_risk":1,"updated_at":"2026-03-07T13:01:20.806330+05:30"},{"city":"Prayagraj","state":"Uttar Pradesh","latitude":25.4358,"longitude":81.8463,"temp":30.6,"humidity":53,"rain":0.0,"pressure":1000.1,"uv_index":7.0,"wind_gusts":13.3,"aqi":171,"pm10":85.2,"pm2_5":68.7,"mosquito_risk":0,"arthritis_risk":5,"migraine_risk":4,"frizz_risk":1,"updated_at":"2026-03-07T13:01:20.806338+05:30"},{"city":"Gorakhpur","state":"Uttar Pradesh","latitude":26.7606,"longitude":83.3732,"temp":31.7,"humidity":45,"rain":0.0,"pressure":1001.5,"uv_index":6.85,"wind_gusts":11.2,"aqi":169,"pm10":78.7,"pm2_5":65.9,"mosquito_risk":0,"arthritis_risk":5,"migraine_risk":4,"frizz_risk":1,"updated_at":"2026-03-07T13:01:20.806345+05:30"},{"city":"Bareilly","state":"Uttar Pradesh","latitude":28.367,"longitude":79.4304,"temp":30.4,"humidity":51,"rain":0.0,"pressure":991.4,"uv_index":6.15,"wind_gusts":13.0,"aqi":165,"pm10":123.9,"pm2_5":78.2,"mosquito_risk":0,"arthritis_risk":5,"migraine_risk":7,"frizz_risk":1,"updated_at":"2026-03-07T13:01:20.806351+05:30"},{"city":"Aligarh","state":"Uttar Pradesh","latitude":27.8974,"longitude":78.088,"temp":31.9,"humidity":47,"rain":0.0,"pressure":990.2,"uv_index":6.1,"wind_gusts":16.6,"aqi":179,"pm10":266.4,"pm2_5":75.7,"mosquito_risk":0,"arthritis_risk":5,"migraine_risk":7,"frizz_risk":1,"updated_at":"2026-03-07T13:01:20.806358+05:30"},{"city":"Moradabad","state":"Uttar Pradesh","latitude":28.8386,"longitude":78.7733,"temp":30.6,"humidity":51,"rain":0.0,"pressure":988.3,"uv_index":5.95,"wind_gusts":14.8,"aqi":167,"pm10":118.3,"pm2_5":78.7,"mosquito_risk":0,"arthritis_risk":5,"migraine_risk":3,"frizz_risk":1,"updated_at":"2026-03-07T13:01:20.806365+05:30"},{"city":"Saharanpur","state":"Uttar Pradesh","latitude":29.9637,"longitude":77.546,"temp":30.0,"humidity":56,"rain":0.0,"pressure":980.4,"uv_index":5.6,"wind_gusts":24.5,"aqi":170,"pm10":122.0,"pm2_5":77.8,"mosquito_risk":4,"arthritis_risk":5,"migraine_risk":3,"frizz_risk":1,"updated_at":"2026-03-07T13:01:20.806371+05:30"},{"city":"Jhansi","state":"Uttar Pradesh","latitude":25.4484,"longitude":78.5685,"temp":34.5,"humidity":29,"rain":0.0,"pressure":982.0,"uv_index":6.95,"wind_gusts":26.6,"aqi":96,"pm10":136.0,"pm2_5":47.5,"mosquito_risk":0,"arthritis_risk":5,"migraine_risk":7,"frizz_risk":0,"updated_at":"2026-03-07T13:01:24.018488+05:30"},{"city":"Surat","state":"Gujarat","latitude":21.1702,"longitude":72.8311,"temp":32.6,"humidity":46,"rain":0.0,"pressure":1009.5,"uv_index":7.2,"wind_gusts":24.8,"aqi":152,"pm10":63.8,"pm2_5":62.6,"mosquito_risk":0,"arthritis_risk":0,"migraine_risk":4,"frizz_risk":1,"updated_at":"2026-03-07T13:01:24.018517+05:30"},{"city":"Vadodara","state":"Gujarat","latitude":22.3072,"longitude":73.1812,"temp":35.1,"humidity":31,"rain":0.0,"pressure":1007.7,"uv_index":7.35,"wind_gusts":16.9,"aqi":148,"pm10":29.3,"pm2_5":27.4,"mosquito_risk":0,"arthritis_risk":5,"migraine_risk":7,"frizz_risk":0,"updated_at":"2026-03-07T13:01:24.018527+05:30"},{"city":"Rajkot","state":"Gujarat","latitude":22.3039,"longitude":70.8022,"temp":32.6,"humidity":39,"rain":0.0,"pressure":997.8,"uv_index":7.15,"wind_gusts":17.6,"aqi":66,"pm10":40.4,"pm2_5":19.2,"mosquito_risk":0,"arthritis_risk":5,"migraine_risk":7,"frizz_risk":1,"updated_at":"2026-03-07T13:01:24.018536+05:30"},{"city":"Thane","state":"Maharashtra","latitude":19.2183,"longitude":72.9781,"temp":32.3,"humidity":49,"rain":0.0,"pressure":1009.8,"uv_index":7.5,"wind_gusts":33.5,"aqi":99,"pm10":50.8,"pm2_5":47.7,"mosquito_risk":0,"arthritis_risk":0,"migraine_risk":4,"frizz_risk":1,"updated_at":"2026-03-07T13:01:24.018542+05:30"},{"city":"Nagpur","state":"Maharashtra","latitude":21.1458,"longitude":79.0882,"temp":36.2,"humidity":23,"rain":0.0,"pressure":975.8,"uv_index":7.85,"wind_gusts":21.2,"aqi":67,"pm10":44.9,"pm2_5":19.7,"mosquito_risk":0,"arthritis_risk":5,"migraine_risk":10,"frizz_risk":0,"updated_at":"2026-03-07T13:01:24.018550+05:30"},{"city":"Nashik","state":"Maharashtra","latitude":19.9975,"longitude":73.7898,"temp":34.6,"humidity":19,"rain":0.0,"pressure":948.5,"uv_index":7.65,"wind_gusts":22.3,"aqi":101,"pm10":19.4,"pm2_5":17.9,"mosquito_risk":0,"arthritis_risk":5,"migraine_risk":7,"frizz_risk":0,"updated_at":"2026-03-07T13:01:24.018557+05:30"},{"city":"Aurangabad","state":"Maharashtra","latitude":19.8762,"longitude":75.3433,"temp":35.4,"humidity":20,"rain":0.0,"pressure":947.0,"uv_index":8.2,"wind_gusts":22.7,"aqi":76,"pm10":18.2,"pm2_5":16.6,"mosquito_risk":0,"arthritis_risk":5,"migraine_risk":10,"frizz_risk":0,"updated_at":"2026-03-07T13:01:24.018564+05:30"},{"city":"Solapur","state":"Maharashtra","latitude":17.6599,"longitude":75.9064,"temp":36.2,"humidity":20,"rain":0.0,"pressure":959.0,"uv_index":8.4,"wind_gusts":22.7,"aqi":71,"pm10":19.7,"pm2_5":13.6,"mosquito_risk":0,"arthritis_risk":5,"migraine_risk":10,"frizz_risk":0,"updated_at":"2026-03-07T13:01:24.018572+05:30"},{"city":"Kolhapur","state":"Maharashtra","latitude":16.705,"longitude":74.2433,"temp":34.6,"humidity":23,"rain":0.0,"pressure":949.8,"uv_index":8.55,"wind_gusts":28.8,"aqi":151,"pm10":21.5,"pm2_5":18.5,"mosquito_risk":0,"arthritis_risk":5,"migraine_risk":7,"frizz_risk":0,"updated_at":"2026-03-07T13:01:24.018579+05:30"},{"city":"Goa","state":"Goa","latitude":15.2993,"longitude":74.124,"temp":31.6,"humidity":60,"rain":0.0,"pressure":999.1,"uv_index":8.6,"wind_gusts":31.3,"aqi":154,"pm10":53.2,"pm2_5":49.6,"mosquito_risk":0,"arthritis_risk":5,"migraine_risk":7,"frizz_risk":1,"updated_at":"2026-03-07T13:01:24.018586+05:30"},{"city":"Jodhpur","state":"Rajasthan","latitude":26.2389,"longitude":73.0243,"temp":33.5,"humidity":29,"rain":0.0,"pressure":987.5,"uv_index":7.0,"wind_gusts":20.2,"aqi":66,"pm10":35.4,"pm2_5":12.1,"mosquito_risk":0,"arthritis_risk":5,"migraine_risk":7,"frizz_risk":0,"updated_at":"2026-03-07T13:01:24.018593+05:30"},{"city":"Udaipur","state":"Rajasthan","latitude":24.5854,"longitude":73.7125,"temp":34.1,"humidity":24,"rain":0.0,"pressure":951.2,"uv_index":7.65,"wind_gusts":20.2,"aqi":51,"pm10":13.0,"pm2_5":11.1,"mosquito_risk":0,"arthritis_risk":5,"migraine_risk":7,"frizz_risk":0,"updated_at":"2026-03-07T13:01:24.018600+05:30"},{"city":"Kota","state":"Rajasthan","latitude":25.2138,"longitude":75.8648,"temp":35.3,"humidity":25,"rain":0.0,"pressure":983.0,"uv_index":7.05,"wind_gusts":14.4,"aqi":80,"pm10":39.5,"pm2_5":25.7,"mosquito_risk":0,"arthritis_risk":5,"migraine_risk":10,"frizz_risk":0,"updated_at":"2026-03-07T13:01:24.018607+05:30"},{"city":"Bikaner","state":"Rajasthan","latitude":28.0229,"longitude":73.3119,"temp":34.1,"humidity":25,"rain":0.0,"pressure":985.9,"uv_index":6.75,"wind_gusts":20.5,"aqi":51,"pm10":89.6,"pm2_5":20.9,"mosquito_risk":0,"arthritis_risk":5,"migraine_risk":7,"frizz_risk":0,"updated_at":"2026-03-07T13:01:24.018613+05:30"},{"city":"Ajmer","state":"Rajasthan","latitude":26.4499,"longitude":74.6399,"temp":33.7,"humidity":24,"rain":0.0,"pressure":959.4,"uv_index":7.0,"wind_gusts":18.0,"aqi":63,"pm10":21.7,"pm2_5":13.4,"mosquito_risk":0,"arthritis_risk":5,"migraine_risk":7,"frizz_risk":0,"updated_at":"2026-03-07T13:01:24.018620+05:30"},{"city":"Gwalior","state":"Madhya Pradesh","latitude":26.2183,"longitude":78.1828,"temp":32.9,"humidity":39,"rain":0.0,"pressure":987.6,"uv_index":6.65,"wind_gusts":20.9,"aqi":113,"pm10":146.7,"pm2_5":41.0,"mosquito_risk":0,"arthritis_risk":5,"migraine_risk":7,"frizz_risk":1,"updated_at":"2026-03-07T13:01:24.018626+05:30"},{"city":"Indore","state":"Madhya Pradesh","latitude":22.7196,"longitude":75.8577,"temp":34.3,"humidity":23,"rain":0.0,"pressure":952.0,"uv_index":7.6,"wind_gusts":16.2,"aqi":83,"pm10":23.4,"pm2_5":18.9,"mosquito_risk":0,"arthritis_risk":5,"migraine_risk":7,"frizz_risk":0,"updated_at":"2026-03-07T13:01:24.018632+05:30"},{"city":"Bhopal","state":"Madhya Pradesh","latitude":23.2599,"longitude":77.4126,"temp":34.6,"humidity":25,"rain":0.0,"pressure":957.7,"uv_index":7.5,"wind_gusts":18.7,"aqi":71,"pm10":41.7,"pm2_5":15.9,"mosquito_risk":0,"arthritis_risk":5,"migraine_risk":7,"frizz_risk":0,"updated_at":"2026-03-07T13:01:24.018639+05:30"},{"city":"Jabalpur","state":"Madhya Pradesh","latitude":23.1815,"longitude":79.9864,"temp":32.9,"humidity":33,"rain":0.0,"pressure":965.0,"uv_index":7.55,"wind_gusts":25.6,"aqi":83,"pm10":83.8,"pm2_5":31.8,"mosquito_risk":0,"arthritis_risk":5,"migraine_risk":7,"frizz_risk":0,"updated_at":"2026-03-07T13:01:24.018645+05:30"},{"city":"Ujjain","state":"Madhya Pradesh","latitude":23.1765,"longitude":75.7885,"temp":33.7,"humidity":27,"rain":0.0,"pressure":957.7,"uv_index":7.5,"wind_gusts":13.7,"aqi":91,"pm10":20.7,"pm2_5":18.3,"mosquito_risk":0,"arthritis_risk":5,"migraine_risk":7,"frizz_risk":0,"updated_at":"2026-03-07T13:01:24.018652+05:30"},{"city":"Visakhapatnam","state":"Andhra Pradesh","latitude":17.6868,"longitude":83.2185,"temp":31.5,"humidity":58,"rain":0.0,"pressure":1006.0,"uv_index":8.45,"wind_gusts":36.7,"aqi":136,"pm10":54.8,"pm2_5":46.2,"mosquito_risk":0,"arthritis_risk":5,"migraine_risk":4,"frizz_risk":1,"updated_at":"2026-03-07T13:01:24.018659+05:30"},{"city":"Vijayawada","state":"Andhra Pradesh","latitude":16.5062,"longitude":80.648,"temp":33.8,"humidity":51,"rain":0.0,"pressure":1004.1,"uv_index":8.6,"wind_gusts":27.0,"aqi":135,"pm10":48.1,"pm2_5":40.0,"mosquito_risk":0,"arthritis_risk":5,"migraine_risk":4,"frizz_risk":1,"updated_at":"2026-03-07T13:01:24.018665+05:30"},{"city":"Guntur","state":"Andhra Pradesh","latitude":16.3067,"longitude":80.4365,"temp":33.9,"humidity":51,"rain":0.0,"pressure":1005.2,"uv_index":8.6,"wind_gusts":30.6,"aqi":132,"pm10":49.7,"pm2_5":40.9,"mosquito_risk":0,"arthritis_risk":5,"migraine_risk":4,"frizz_risk":1,"updated_at":"2026-03-07T13:01:24.018672+05:30"},{"city":"Nellore","state":"Andhra Pradesh","latitude":14.4426,"longitude":79.9865,"temp":36.4,"humidity":35,"rain":0.0,"pressure":1006.8,"uv_index":8.75,"wind_gusts":34.9,"aqi":105,"pm10":50.8,"pm2_5":44.2,"mosquito_risk":0,"arthritis_risk":5,"migraine_risk":7,"frizz_risk":1,"updated_at":"2026-03-07T13:01:24.018679+05:30"},{"city":"Kurnool","state":"Andhra Pradesh","latitude":15.8281,"longitude":78.0373,"temp":38.4,"humidity":16,"rain":0.0,"pressure":978.0,"uv_index":8.6,"wind_gusts":27.0,"aqi":73,"pm10":35.9,"pm2_5":23.0,"mosquito_risk":0,"arthritis_risk":5,"migraine_risk":10,"frizz_risk":0,"updated_at":"2026-03-07T13:01:24.018687+05:30"},{"city":"Kakinada","state":"Andhra Pradesh","latitude":16.9891,"longitude":82.2475,"temp":32.6,"humidity":53,"rain":0.0,"pressure":1009.5,"uv_index":8.5,"wind_gusts":33.1,"aqi":103,"pm10":41.4,"pm2_5":32.9,"mosquito_risk":0,"arthritis_risk":0,"migraine_risk":4,"frizz_risk":1,"updated_at":"2026-03-07T13:01:24.018694+05:30"},{"city":"Tirupati","state":"Andhra Pradesh","latitude":13.6288,"longitude":79.4192,"temp":36.0,"humidity":28,"rain":0.0,"pressure":992.5,"uv_index":8.9,"wind_gusts":31.7,"aqi":141,"pm10":51.1,"pm2_5":45.5,"mosquito_risk":0,"arthritis_risk":5,"migraine_risk":10,"frizz_risk":0,"updated_at":"2026-03-07T13:01:24.018700+05:30"},{"city":"Warangal","state":"Telangana","latitude":17.9689,"longitude":79.5941,"temp":36.0,"humidity":27,"rain":0.0,"pressure":980.3,"uv_index":8.35,"wind_gusts":19.1,"aqi":86,"pm10":34.0,"pm2_5":25.3,"mosquito_risk":0,"arthritis_risk":5,"migraine_risk":10,"frizz_risk":0,"updated_at":"2026-03-07T13:01:24.018707+05:30"},{"city":"Nizamabad","state":"Telangana","latitude":18.6725,"longitude":78.0941,"temp":36.2,"humidity":20,"rain":0.0,"pressure":967.1,"uv_index":8.2,"wind_gusts":25.2,"aqi":104,"pm10":31.0,"pm2_5":18.4,"mosquito_risk":0,"arthritis_risk":5,"migraine_risk":10,"frizz_risk":0,"updated_at":"2026-03-07T13:01:24.018713+05:30"},{"city":"Mysore","state":"Karnataka","latitude":12.2958,"longitude":76.6396,"temp":32.0,"humidity":37,"rain":0.0,"pressure":930.1,"uv_index":9.2,"wind_gusts":38.2,"aqi":120,"pm10":36.1,"pm2_5":33.5,"mosquito_risk":0,"arthritis_risk":5,"migraine_risk":7,"frizz_risk":0,"updated_at":"2026-03-07T13:01:24.018719+05:30"},{"city":"Mangalore","state":"Karnataka","latitude":12.9141,"longitude":74.856,"temp":28.7,"humidity":77,"rain":0.0,"pressure":1007.6,"uv_index":8.8,"wind_gusts":25.6,"aqi":153,"pm10":62.9,"pm2_5":58.8,"mosquito_risk":7,"arthritis_risk":5,"migraine_risk":4,"frizz_risk":1,"updated_at":"2026-03-07T13:01:24.018726+05:30"},{"city":"Hubli-Dharwad","state":"Karnataka","latitude":15.3647,"longitude":75.124,"temp":35.5,"humidity":19,"rain":0.0,"pressure":942.4,"uv_index":8.8,"wind_gusts":25.2,"aqi":123,"pm10":32.5,"pm2_5":30.3,"mosquito_risk":0,"arthritis_risk":5,"migraine_risk":10,"frizz_risk":0,"updated_at":"2026-03-07T13:01:24.018732+05:30"},{"city":"Belgaum","state":"Karnataka","latitude":15.8497,"longitude":74.4977,"temp":34.3,"humidity":19,"rain":0.0,"pressure":927.8,"uv_index":8.8,"wind_gusts":41.4,"aqi":111,"pm10":18.8,"pm2_5":16.0,"mosquito_risk":0,"arthritis_risk":5,"migraine_risk":7,"frizz_risk":0,"updated_at":"2026-03-07T13:01:27.225740+05:30"},{"city":"Coimbatore","state":"Tamil Nadu","latitude":11.0168,"longitude":76.9558,"temp":33.1,"humidity":42,"rain":0.0,"pressure":963.2,"uv_index":9.2,"wind_gusts":38.2,"aqi":101,"pm10":34.3,"pm2_5":31.4,"mosquito_risk":0,"arthritis_risk":5,"migraine_risk":7,"frizz_risk":1,"updated_at":"2026-03-07T13:01:27.225772+05:30"},{"city":"Madurai","state":"Tamil Nadu","latitude":9.9252,"longitude":78.1198,"temp":34.8,"humidity":33,"rain":0.0,"pressure":994.2,"uv_index":9.15,"wind_gusts":27.7,"aqi":94,"pm10":37.4,"pm2_5":31.8,"mosquito_risk":0,"arthritis_risk":5,"migraine_risk":7,"frizz_risk":1,"updated_at":"2026-03-07T13:01:27.225782+05:30"},{"city":"Trichy","state":"Tamil Nadu","latitude":10.7905,"longitude":78.7047,"temp":35.6,"humidity":33,"rain":0.0,"pressure":1000.7,"uv_index":9.05,"wind_gusts":25.9,"aqi":92,"pm10":38.3,"pm2_5":32.7,"mosquito_risk":0,"arthritis_risk":5,"migraine_risk":7,"frizz_risk":1,"updated_at":"2026-03-07T13:01:27.225791+05:30"},{"city":"Salem","state":"Tamil Nadu","latitude":11.6643,"longitude":78.146,"temp":34.8,"humidity":35,"rain":0.0,"pressure":978.2,"uv_index":9.1,"wind_gusts":19.8,"aqi":104,"pm10":39.8,"pm2_5":35.9,"mosquito_risk":0,"arthritis_risk":5,"migraine_risk":7,"frizz_risk":1,"updated_at":"2026-03-07T13:01:27.225798+05:30"},{"city":"Tirunelveli","state":"Tamil Nadu","latitude":8.7139,"longitude":77.7567,"temp":37.6,"humidity":24,"rain":0.0,"pressure":1003.8,"uv_index":9.15,"wind_gusts":49.3,"aqi":97,"pm10":33.3,"pm2_5":28.1,"mosquito_risk":0,"arthritis_risk":5,"migraine_risk":7,"frizz_risk":0,"updated_at":"2026-03-07T13:01:27.225806+05:30"},{"city":"Vellore","state":"Tamil Nadu","latitude":12.9165,"longitude":79.1325,"temp":36.1,"humidity":25,"rain":0.0,"pressure":985.5,"uv_index":9.0,"wind_gusts":33.5,"aqi":150,"pm10":46.2,"pm2_5":40.2,"mosquito_risk":0,"arthritis_risk":5,"migraine_risk":10,"frizz_risk":0,"updated_at":"2026-03-07T13:01:27.225813+05:30"},{"city":"Erode","state":"Tamil Nadu","latitude":11.341,"longitude":77.7172,"temp":35.7,"humidity":38,"rain":0.0,"pressure":989.7,"uv_index":9.1,"wind_gusts":20.2,"aqi":113,"pm10":38.5,"pm2_5":35.2,"mosquito_risk":0,"arthritis_risk":5,"migraine_risk":10,"frizz_risk":1,"updated_at":"2026-03-07T13:01:27.225820+05:30"},{"city":"Kochi","state":"Kerala","latitude":9.9312,"longitude":76.2673,"temp":27.7,"humidity":82,"rain":0.0,"pressure":1009.9,"uv_index":8.6,"wind_gusts":26.6,"aqi":125,"pm10":26.5,"pm2_5":25.2,"mosquito_risk":7,"arthritis_risk":0,"migraine_risk":4,"frizz_risk":1,"updated_at":"2026-03-07T13:01:27.225827+05:30"},{"city":"Thiruvananthapuram","state":"Kerala","latitude":8.5241,"longitude":76.9366,"temp":27.7,"humidity":81,"rain":0.0,"pressure":1009.2,"uv_index":9.0,"wind_gusts":33.1,"aqi":99,"pm10":33.3,"pm2_5":30.9,"mosquito_risk":7,"arthritis_risk":0,"migraine_risk":4,"frizz_risk":1,"updated_at":"2026-03-07T13:01:27.225834+05:30"},{"city":"Kozhikode","state":"Kerala","latitude":11.2588,"longitude":75.7804,"temp":29.1,"humidity":76,"rain":0.0,"pressure":1009.0,"uv_index":8.9,"wind_gusts":27.0,"aqi":129,"pm10":26.4,"pm2_5":25.0,"mosquito_risk":7,"arthritis_risk":0,"migraine_risk":4,"frizz_risk":1,"updated_at":"2026-03-07T13:01:27.225841+05:30"},{"city":"Thrissur","state":"Kerala","latitude":10.5276,"longitude":76.2144,"temp":31.6,"humidity":64,"rain":0.0,"pressure":1008.2,"uv_index":8.95,"wind_gusts":32.8,"aqi":121,"pm10":28.8,"pm2_5":27.2,"mosquito_risk":3,"arthritis_risk":0,"migraine_risk":4,"frizz_risk":1,"updated_at":"2026-03-07T13:01:27.225848+05:30"},{"city":"Kannur","state":"Kerala","latitude":11.8745,"longitude":75.3704,"temp":30.3,"humidity":69,"rain":0.0,"pressure":1008.3,"uv_index":8.9,"wind_gusts":30.6,"aqi":149,"pm10":51.0,"pm2_5":47.6,"mosquito_risk":3,"arthritis_risk":0,"migraine_risk":4,"frizz_risk":1,"updated_at":"2026-03-07T13:01:27.225855+05:30"},{"city":"Patna","state":"Bihar","latitude":25.5941,"longitude":85.1376,"temp":32.0,"humidity":43,"rain":0.0,"pressure":1004.4,"uv_index":7.3,"wind_gusts":20.2,"aqi":159,"pm10":87.8,"pm2_5":70.3,"mosquito_risk":0,"arthritis_risk":5,"migraine_risk":4,"frizz_risk":1,"updated_at":"2026-03-07T13:01:27.225862+05:30"},{"city":"Gaya","state":"Bihar","latitude":24.7914,"longitude":85.0002,"temp":30.4,"humidity":61,"rain":0.0,"pressure":997.2,"uv_index":7.4,"wind_gusts":23.4,"aqi":153,"pm10":89.4,"pm2_5":67.5,"mosquito_risk":3,"arthritis_risk":5,"migraine_risk":7,"frizz_risk":1,"updated_at":"2026-03-07T13:01:27.225868+05:30"},{"city":"Muzaffarpur","state":"Bihar","latitude":26.1209,"longitude":85.3647,"temp":32.7,"humidity":39,"rain":0.0,"pressure":1004.4,"uv_index":7.25,"wind_gusts":17.6,"aqi":168,"pm10":85.9,"pm2_5":71.7,"mosquito_risk":0,"arthritis_risk":5,"migraine_risk":4,"frizz_risk":1,"updated_at":"2026-03-07T13:01:27.225874+05:30"},{"city":"Bhagalpur","state":"Bihar","latitude":25.2425,"longitude":87.0117,"temp":31.2,"humidity":49,"rain":0.0,"pressure":1005.2,"uv_index":7.3,"wind_gusts":14.4,"aqi":163,"pm10":84.8,"pm2_5":67.5,"mosquito_risk":0,"arthritis_risk":5,"migraine_risk":4,"frizz_risk":1,"updated_at":"2026-03-07T13:01:27.225881+05:30"},{"city":"Ranchi","state":"Jharkhand","latitude":23.3441,"longitude":85.3096,"temp":30.3,"humidity":34,"rain":0.0,"pressure":940.9,"uv_index":8.05,"wind_gusts":23.8,"aqi":152,"pm10":94.3,"pm2_5":60.5,"mosquito_risk":0,"arthritis_risk":5,"migraine_risk":7,"frizz_risk":0,"updated_at":"2026-03-07T13:01:27.225887+05:30"},{"city":"Jamshedpur","state":"Jharkhand","latitude":22.8046,"longitude":86.2029,"temp":33.0,"humidity":43,"rain":0.0,"pressure":993.4,"uv_index":7.95,"wind_gusts":22.7,"aqi":140,"pm10":98.3,"pm2_5":61.7,"mosquito_risk":0,"arthritis_risk":5,"migraine_risk":7,"frizz_risk":1,"updated_at":"2026-03-07T13:01:27.225893+05:30"},{"city":"Dhanbad","state":"Jharkhand","latitude":23.7957,"longitude":86.4304,"temp":33.8,"humidity":32,"rain":0.0,"pressure":982.9,"uv_index":7.8,"wind_gusts":24.8,"aqi":164,"pm10":97.1,"pm2_5":71.0,"mosquito_risk":0,"arthritis_risk":5,"migraine_risk":7,"frizz_risk":0,"updated_at":"2026-03-07T13:01:27.225900+05:30"},{"city":"Bokaro","state":"Jharkhand","latitude":23.6693,"longitude":86.1511,"temp":32.8,"humidity":35,"rain":0.0,"pressure":986.8,"uv_index":7.8,"wind_gusts":16.9,"aqi":166,"pm10":102.4,"pm2_5":71.0,"mosquito_risk":0,"arthritis_risk":5,"migraine_risk":7,"frizz_risk":0,"updated_at":"2026-03-07T13:01:27.225906+05:30"},{"city":"Bhubaneswar","state":"Odisha","latitude":20.2961,"longitude":85.8245,"temp":32.7,"humidity":49,"rain":0.0,"pressure":1004.9,"uv_index":8.25,"wind_gusts":31.0,"aqi":150,"pm10":64.3,"pm2_5":51.9,"mosquito_risk":0,"arthritis_risk":5,"migraine_risk":4,"frizz_risk":1,"updated_at":"2026-03-07T13:01:27.225912+05:30"},{"city":"Cuttack","state":"Odisha","latitude":20.4625,"longitude":85.8828,"temp":33.9,"humidity":45,"rain":0.0,"pressure":1006.6,"uv_index":8.25,"wind_gusts":29.9,"aqi":150,"pm10":64.3,"pm2_5":51.9,"mosquito_risk":0,"arthritis_risk":5,"migraine_risk":4,"frizz_risk":1,"updated_at":"2026-03-07T13:01:27.225918+05:30"},{"city":"Rourkela","state":"Odisha","latitude":22.2604,"longitude":84.8536,"temp":34.4,"humidity":37,"rain":0.0,"pressure":987.2,"uv_index":7.85,"wind_gusts":19.8,"aqi":159,"pm10":111.5,"pm2_5":75.2,"mosquito_risk":0,"arthritis_risk":5,"migraine_risk":7,"frizz_risk":1,"updated_at":"2026-03-07T13:01:27.225925+05:30"},{"city":"Raipur","state":"Chhattisgarh","latitude":21.2514,"longitude":81.6296,"temp":35.0,"humidity":25,"rain":0.0,"pressure":977.0,"uv_index":7.95,"wind_gusts":20.9,"aqi":141,"pm10":98.7,"pm2_5":40.4,"mosquito_risk":0,"arthritis_risk":5,"migraine_risk":7,"frizz_risk":0,"updated_at":"2026-03-07T13:01:27.225931+05:30"},{"city":"Bhilai","state":"Chhattisgarh","latitude":21.1938,"longitude":81.3509,"temp":35.6,"humidity":25,"rain":0.0,"pressure":977.4,"uv_index":7.95,"wind_gusts":18.4,"aqi":117,"pm10":92.4,"pm2_5":38.6,"mosquito_risk":0,"arthritis_risk":5,"migraine_risk":10,"frizz_risk":0,"updated_at":"2026-03-07T13:01:27.225937+05:30"},{"city":"Guwahati","state":"Assam","latitude":26.1158,"longitude":91.7086,"temp":31.5,"humidity":49,"rain":0.0,"pressure":1004.5,"uv_index":7.3,"wind_gusts":21.6,"aqi":145,"pm10":60.3,"pm2_5":51.8,"mosquito_risk":0,"arthritis_risk":5,"migraine_risk":4,"frizz_risk":1,"updated_at":"2026-03-07T13:01:27.225943+05:30"},{"city":"Agartala","state":"Tripura","latitude":23.8315,"longitude":91.2868,"temp":32.0,"humidity":45,"rain":0.0,"pressure":1009.2,"uv_index":7.6,"wind_gusts":18.7,"aqi":152,"pm10":64.5,"pm2_5":46.6,"mosquito_risk":0,"arthritis_risk":0,"migraine_risk":4,"frizz_risk":1,"updated_at":"2026-03-07T13:01:27.225949+05:30"},{"city":"Shillong","state":"Meghalaya","latitude":25.5788,"longitude":91.8933,"temp":20.7,"humidity":38,"rain":0.0,"pressure":860.6,"uv_index":7.45,"wind_gusts":42.1,"aqi":98,"pm10":49.0,"pm2_5":41.1,"mosquito_risk":0,"arthritis_risk":5,"migraine_risk":7,"frizz_risk":0,"updated_at":"2026-03-07T13:01:27.225956+05:30"},{"city":"Imphal","state":"Manipur","latitude":24.817,"longitude":93.9368,"temp":25.7,"humidity":44,"rain":0.0,"pressure":926.7,"uv_index":7.85,"wind_gusts":40.7,"aqi":157,"pm10":53.9,"pm2_5":47.3,"mosquito_risk":4,"arthritis_risk":5,"migraine_risk":7,"frizz_risk":0,"updated_at":"2026-03-07T13:01:27.225962+05:30"},{"city":"Aizawl","state":"Mizoram","latitude":23.7271,"longitude":92.7176,"temp":27.5,"humidity":34,"rain":0.0,"pressure":896.9,"uv_index":7.8,"wind_gusts":31.0,"aqi":174,"pm10":83.4,"pm2_5":75.0,"mosquito_risk":4,"arthritis_risk":5,"migraine_risk":7,"frizz_risk":0,"updated_at":"2026-03-07T13:01:27.225968+05:30"},{"city":"Kohima","state":"Nagaland","latitude":25.6701,"longitude":94.1077,"temp":19.6,"humidity":73,"rain":0.0,"pressure":858.8,"uv_index":7.7,"wind_gusts":56.5,"aqi":159,"pm10":49.9,"pm2_5":43.1,"mosquito_risk":3,"arthritis_risk":5,"migraine_risk":7,"frizz_risk":0,"updated_at":"2026-03-07T13:01:27.225974+05:30"},{"city":"Gangtok","state":"Sikkim","latitude":27.3314,"longitude":88.6138,"temp":16.3,"humidity":79,"rain":0.0,"pressure":841.4,"uv_index":7.25,"wind_gusts":15.1,"aqi":155,"pm10":63.6,"pm2_5":55.9,"mosquito_risk":3,"arthritis_risk":5,"migraine_risk":7,"frizz_risk":0,"updated_at":"2026-03-07T13:01:27.225980+05:30"},{"city":"Siliguri","state":"West Bengal","latitude":26.7271,"longitude":88.3953,"temp":23.3,"humidity":74,"rain":0.0,"pressure":998.8,"uv_index":7.25,"wind_gusts":14.8,"aqi":153,"pm10":65.4,"pm2_5":53.3,"mosquito_risk":3,"arthritis_risk":5,"migraine_risk":7,"frizz_risk":1,"updated_at":"2026-03-07T13:01:30.442379+05:30"},{"city":"Durgapur","state":"West Bengal","latitude":23.5204,"longitude":87.3119,"temp":32.8,"humidity":39,"rain":0.0,"pressure":998.2,"uv_index":7.8,"wind_gusts":23.0,"aqi":158,"pm10":89.4,"pm2_5":69.8,"mosquito_risk":0,"arthritis_risk":5,"migraine_risk":7,"frizz_risk":1,"updated_at":"2026-03-07T13:01:30.442416+05:30"},{"city":"Asansol","state":"West Bengal","latitude":23.6739,"longitude":86.9524,"temp":32.2,"humidity":37,"rain":0.0,"pressure":996.6,"uv_index":7.8,"wind_gusts":19.1,"aqi":158,"pm10":89.9,"pm2_5":69.2,"mosquito_risk":0,"arthritis_risk":5,"migraine_risk":7,"frizz_risk":0,"updated_at":"2026-03-07T13:01:30.442429+05:30"},{"city":"Pondicherry","state":"Puducherry","latitude":11.9139,"longitude":79.8145,"temp":35.1,"humidity":42,"rain":0.0,"pressure":1009.4,"uv_index":8.9,"wind_gusts":31.3,"aqi":88,"pm10":36.1,"pm2_5":30.2,"mosquito_risk":0,"arthritis_risk":0,"migraine_risk":7,"frizz_risk":1,"updated_at":"2026-03-07T13:01:30.442441+05:30"},{"city":"Port Blair","state":"Andaman and Nicobar Islands","latitude":11.6234,"longitude":92.7265,"temp":28.7,"humidity":60,"rain":0.0,"pressure":1008.8,"uv_index":8.85,"wind_gusts":16.2,"aqi":91,"pm10":56.2,"pm2_5":36.7,"mosquito_risk":4,"arthritis_risk":0,"migraine_risk":4,"frizz_risk":1,"updated_at":"2026-03-07T13:01:30.442452+05:30"},{"city":"Haridwar","state":"Uttarakhand","latitude":29.9457,"longitude":78.1642,"temp":30.3,"humidity":53,"rain":0.0,"pressure":978.9,"uv_index":5.75,"wind_gusts":23.8,"aqi":162,"pm10":114.6,"pm2_5":75.9,"mosquito_risk":0,"arthritis_risk":5,"migraine_risk":3,"frizz_risk":1,"updated_at":"2026-03-07T13:01:30.442462+05:30"},{"city":"Rishikesh","state":"Uttarakhand","latitude":30.0869,"longitude":78.2676,"temp":30.2,"humidity":51,"rain":0.0,"pressure":971.6,"uv_index":5.8,"wind_gusts":24.5,"aqi":159,"pm10":112.0,"pm2_5":71.5,"mosquito_risk":0,"arthritis_risk":5,"migraine_risk":3,"frizz_risk":1,"updated_at":"2026-03-07T13:01:30.442471+05:30"},{"city":"Nainital","state":"Uttarakhand","latitude":29.3919,"longitude":79.4542,"temp":22.3,"humidity":60,"rain":0.0,"pressure":811.5,"uv_index":6.6,"wind_gusts":54.7,"aqi":158,"pm10":94.8,"pm2_5":61.9,"mosquito_risk":0,"arthritis_risk":5,"migraine_risk":7,"frizz_risk":0,"updated_at":"2026-03-07T13:01:30.442481+05:30"},{"city":"Mussoorie","state":"Uttarakhand","latitude":30.4599,"longitude":78.0664,"temp":21.9,"humidity":64,"rain":0.0,"pressure":808.6,"uv_index":6.1,"wind_gusts":40.7,"aqi":159,"pm10":110.1,"pm2_5":67.5,"mosquito_risk":3,"arthritis_risk":5,"migraine_risk":7,"frizz_risk":0,"updated_at":"2026-03-07T13:01:30.442491+05:30"},{"city":"Dharamshala","state":"Himachal Pradesh","latitude":32.219,"longitude":76.3234,"temp":25.7,"humidity":60,"rain":0.0,"pressure":875.0,"uv_index":6.1,"wind_gusts":20.9,"aqi":53,"pm10":21.5,"pm2_5":8.6,"mosquito_risk":4,"arthritis_risk":5,"migraine_risk":7,"frizz_risk":1,"updated_at":"2026-03-07T13:01:30.442500+05:30"},{"city":"Dalhousie","state":"Himachal Pradesh","latitude":32.5387,"longitude":75.971,"temp":23.5,"humidity":43,"rain":0.0,"pressure":810.2,"uv_index":6.55,"wind_gusts":16.2,"aqi":101,"pm10":36.2,"pm2_5":21.7,"mosquito_risk":0,"arthritis_risk":5,"migraine_risk":7,"frizz_risk":0,"updated_at":"2026-03-07T13:01:30.442511+05:30"},{"city":"Patiala","state":"Punjab","latitude":30.3398,"longitude":76.3869,"temp":30.8,"humidity":52,"rain":0.0,"pressure":982.9,"uv_index":5.8,"wind_gusts":16.9,"aqi":171,"pm10":142.0,"pm2_5":79.2,"mosquito_risk":0,"arthritis_risk":5,"migraine_risk":3,"frizz_risk":1,"updated_at":"2026-03-07T13:01:30.442519+05:30"},{"city":"Bhatinda","state":"Punjab","latitude":30.211,"longitude":74.9455,"temp":32.6,"humidity":37,"rain":0.0,"pressure":988.0,"uv_index":6.45,"wind_gusts":20.2,"aqi":132,"pm10":106.4,"pm2_5":40.9,"mosquito_risk":0,"arthritis_risk":5,"migraine_risk":7,"frizz_risk":0,"updated_at":"2026-03-07T13:01:30.442526+05:30"},{"city":"Rohtak","state":"Haryana","latitude":28.8955,"longitude":76.6066,"temp":31.9,"humidity":42,"rain":0.0,"pressure":986.5,"uv_index":5.95,"wind_gusts":13.3,"aqi":174,"pm10":238.0,"pm2_5":60.1,"mosquito_risk":0,"arthritis_risk":5,"migraine_risk":3,"frizz_risk":1,"updated_at":"2026-03-07T13:01:30.442533+05:30"},{"city":"Panipat","state":"Haryana","latitude":29.3909,"longitude":76.9635,"temp":31.3,"humidity":49,"rain":0.0,"pressure":985.1,"uv_index":5.75,"wind_gusts":18.0,"aqi":212,"pm10":213.7,"pm2_5":70.1,"mosquito_risk":0,"arthritis_risk":5,"migraine_risk":3,"frizz_risk":1,"updated_at":"2026-03-07T13:01:30.442540+05:30"},{"city":"Mathura","state":"Uttar Pradesh","latitude":27.4924,"longitude":77.6737,"temp":33.3,"humidity":38,"rain":0.0,"pressure":991.3,"uv_index":6.2,"wind_gusts":15.8,"aqi":167,"pm10":335.3,"pm2_5":70.8,"mosquito_risk":0,"arthritis_risk":5,"migraine_risk":7,"frizz_risk":1,"updated_at":"2026-03-07T13:01:30.442546+05:30"},{"city":"Vrindavan","state":"Uttar Pradesh","latitude":27.5823,"longitude":77.7027,"temp":32.6,"humidity":43,"rain":0.0,"pressure":991.8,"uv_index":6.2,"wind_gusts":15.5,"aqi":167,"pm10":335.3,"pm2_5":70.8,"mosquito_risk":0,"arthritis_risk":5,"migraine_risk":7,"frizz_risk":1,"updated_at":"2026-03-07T13:01:30.442553+05:30"},{"city":"Ayodhya","state":"Uttar Pradesh","latitude":26.7922,"longitude":82.1998,"temp":31.3,"humidity":47,"rain":0.0,"pressure":999.8,"uv_index":6.65,"wind_gusts":18.7,"aqi":172,"pm10":85.0,"pm2_5":67.3,"mosquito_risk":0,"arthritis_risk":5,"migraine_risk":7,"frizz_risk":1,"updated_at":"2026-03-07T13:01:30.442559+05:30"},{"city":"Ratlam","state":"Madhya Pradesh","latitude":23.3315,"longitude":75.0367,"temp":33.2,"humidity":29,"rain":0.0,"pressure":958.6,"uv_index":7.45,"wind_gusts":10.8,"aqi":77,"pm10":17.2,"pm2_5":15.3,"mosquito_risk":0,"arthritis_risk":5,"migraine_risk":7,"frizz_risk":0,"updated_at":"2026-03-07T13:01:30.442566+05:30"},{"city":"Sagar","state":"Madhya Pradesh","latitude":23.8388,"longitude":78.7378,"temp":34.0,"humidity":27,"rain":0.0,"pressure":954.1,"uv_index":7.4,"wind_gusts":22.3,"aqi":69,"pm10":56.9,"pm2_5":18.9,"mosquito_risk":0,"arthritis_risk":5,"migraine_risk":7,"frizz_risk":0,"updated_at":"2026-03-07T13:01:30.442573+05:30"},{"city":"Satna","state":"Madhya Pradesh","latitude":24.6005,"longitude":80.8322,"temp":33.3,"humidity":34,"rain":0.0,"pressure":975.0,"uv_index":7.4,"wind_gusts":20.2,"aqi":152,"pm10":105.9,"pm2_5":58.4,"mosquito_risk":0,"arthritis_risk":5,"migraine_risk":7,"frizz_risk":0,"updated_at":"2026-03-07T13:01:30.442580+05:30"},{"city":"Akola","state":"Maharashtra","latitude":20.7002,"longitude":77.0082,"temp":37.0,"humidity":21,"rain":0.0,"pressure":977.8,"uv_index":7.9,"wind_gusts":18.0,"aqi":77,"pm10":30.7,"pm2_5":21.1,"mosquito_risk":0,"arthritis_risk":5,"migraine_risk":10,"frizz_risk":0,"updated_at":"2026-03-07T13:01:30.442588+05:30"},{"city":"Amravati","state":"Maharashtra","latitude":20.9374,"longitude":77.7796,"temp":37.3,"humidity":19,"rain":0.0,"pressure":970.1,"uv_index":7.85,"wind_gusts":15.1,"aqi":81,"pm10":33.1,"pm2_5":19.4,"mosquito_risk":0,"arthritis_risk":5,"migraine_risk":10,"frizz_risk":0,"updated_at":"2026-03-07T13:01:30.442595+05:30"},{"city":"Latur","state":"Maharashtra","latitude":18.4088,"longitude":76.5604,"temp":35.0,"humidity":18,"rain":0.0,"pressure":942.5,"uv_index":8.35,"wind_gusts":28.4,"aqi":78,"pm10":21.8,"pm2_5":16.3,"mosquito_risk":0,"arthritis_risk":5,"migraine_risk":7,"frizz_risk":0,"updated_at":"2026-03-07T13:01:30.442602+05:30"},{"city":"Nanded","state":"Maharashtra","latitude":19.1383,"longitude":77.3091,"temp":38.0,"humidity":19,"rain":0.0,"pressure":970.7,"uv_index":8.1,"wind_gusts":20.5,"aqi":95,"pm10":27.6,"pm2_5":18.3,"mosquito_risk":0,"arthritis_risk":5,"migraine_risk":10,"frizz_risk":0,"updated_at":"2026-03-07T13:01:30.442609+05:30"},{"city":"Gulbarga","state":"Karnataka","latitude":17.3297,"longitude":76.8343,"temp":37.5,"humidity":15,"rain":0.0,"pressure":960.5,"uv_index":8.45,"wind_gusts":24.1,"aqi":68,"pm10":22.5,"pm2_5":14.5,"mosquito_risk":0,"arthritis_risk":5,"migraine_risk":10,"frizz_risk":0,"updated_at":"2026-03-07T13:01:30.442615+05:30"},{"city":"Bidar","state":"Karnataka","latitude":17.9104,"longitude":77.5199,"temp":36.1,"humidity":16,"rain":0.0,"pressure":937.9,"uv_index":8.4,"wind_gusts":22.3,"aqi":76,"pm10":22.8,"pm2_5":15.0,"mosquito_risk":0,"arthritis_risk":5,"migraine_risk":10,"frizz_risk":0,"updated_at":"2026-03-07T13:01:30.442622+05:30"},{"city":"Hospet","state":"Karnataka","latitude":15.2689,"longitude":76.3909,"temp":34.2,"humidity":29,"rain":0.0,"pressure":957.6,"uv_index":8.75,"wind_gusts":20.5,"aqi":86,"pm10":33.8,"pm2_5":28.4,"mosquito_risk":0,"arthritis_risk":5,"migraine_risk":7,"frizz_risk":0,"updated_at":"2026-03-07T13:01:30.442628+05:30"},{"city":"Tirupur","state":"Tamil Nadu","latitude":11.1085,"longitude":77.3411,"temp":34.9,"humidity":36,"rain":0.0,"pressure":976.2,"uv_index":9.2,"wind_gusts":30.2,"aqi":121,"pm10":38.1,"pm2_5":34.9,"mosquito_risk":0,"arthritis_risk":5,"migraine_risk":7,"frizz_risk":1,"updated_at":"2026-03-07T13:01:30.442634+05:30"},{"city":"Alappuzha","state":"Kerala","latitude":9.4981,"longitude":76.3388,"temp":27.6,"humidity":82,"rain":0.0,"pressure":1010.1,"uv_index":9.0,"wind_gusts":24.5,"aqi":117,"pm10":32.2,"pm2_5":30.2,"mosquito_risk":7,"arthritis_risk":0,"migraine_risk":4,"frizz_risk":1,"updated_at":"2026-03-07T13:01:30.442640+05:30"},{"city":"Munnar","state":"Kerala","latitude":10.0889,"longitude":77.0595,"temp":28.1,"humidity":49,"rain":0.0,"pressure":859.7,"uv_index":9.5,"wind_gusts":34.9,"aqi":99,"pm10":26.7,"pm2_5":23.5,"mosquito_risk":4,"arthritis_risk":5,"migraine_risk":7,"frizz_risk":1,"updated_at":"2026-03-07T13:01:30.442647+05:30"},{"city":"Silchar","state":"Assam","latitude":24.8333,"longitude":92.7789,"temp":33.7,"humidity":39,"rain":0.0,"pressure":1007.4,"uv_index":7.55,"wind_gusts":21.2,"aqi":162,"pm10":59.5,"pm2_5":52.7,"mosquito_risk":0,"arthritis_risk":5,"migraine_risk":4,"frizz_risk":1,"updated_at":"2026-03-07T13:01:30.442653+05:30"},{"city":"Dibrugarh","state":"Assam","latitude":27.4728,"longitude":94.912,"temp":29.3,"humidity":54,"rain":0.0,"pressure":998.7,"uv_index":7.3,"wind_gusts":23.4,"aqi":138,"pm10":67.1,"pm2_5":55.5,"mosquito_risk":4,"arthritis_risk":5,"migraine_risk":7,"frizz_risk":1,"updated_at":"2026-03-07T13:01:30.442660+05:30"}]