[{"city":"Delhi","state":"Delhi","latitude":28.6139,"longitude":77.209,"temp":18.1,"humidity":94,"rain":0.0,"pressure":986.9,"uv_index":7.05,"wind_gusts":24.1,"aqi":131,"pm10":82.7,"pm2_5":46.6,"mosquito_risk":3,"arthritis_risk":10,"migraine_risk":7,"frizz_risk":1,"updated_at":"2026-04-09T03:13:01.673691+05:30"},{"city":"Mumbai","state":"Maharashtra","latitude":19.076,"longitude":72.8777,"temp":27.6,"humidity":80,"rain":0.0,"pressure":1009.1,"uv_index":7.95,"wind_gusts":20.5,"aqi":76,"pm10":80.1,"pm2_5":19.3,"mosquito_risk":7,"arthritis_risk":0,"migraine_risk":4,"frizz_risk":1,"updated_at":"2026-04-09T03:13:01.673735+05:30"},{"city":"Bangalore","state":"Karnataka","latitude":12.9716,"longitude":77.5946,"temp":23.4,"humidity":81,"rain":0.0,"pressure":911.6,"uv_index":9.6,"wind_gusts":27.0,"aqi":73,"pm10":32.2,"pm2_5":30.2,"mosquito_risk":3,"arthritis_risk":5,"migraine_risk":7,"frizz_risk":1,"updated_at":"2026-04-09T03:13:01.673751+05:30"},{"city":"Hyderabad","state":"Telangana","latitude":17.385,"longitude":78.4867,"temp":26.4,"humidity":76,"rain":0.0,"pressure":951.8,"uv_index":9.2,"wind_gusts":36.4,"aqi":91,"pm10":51.0,"pm2_5":36.2,"mosquito_risk":7,"arthritis_risk":5,"migraine_risk":7,"frizz_risk":1,"updated_at":"2026-04-09T03:13:01.673761+05:30"},{"city":"Chennai","state":"Tamil Nadu","latitude":13.0827,"longitude":80.2707,"temp":28.7,"humidity":83,"rain":0.0,"pressure":1007.0,"uv_index":9.35,"wind_gusts":40.0,"aqi":75,"pm10":20.5,"pm2_5":15.3,"mosquito_risk":7,"arthritis_risk":5,"migraine_risk":4,"frizz_risk":1,"updated_at":"2026-04-09T03:13:01.673770+05:30"},{"city":"Kolkata","state":"West Bengal","latitude":22.5726,"longitude":88.3639,"temp":23.8,"humidity":94,"rain":0.0,"pressure":1006.7,"uv_index":8.65,"wind_gusts":18.0,"aqi":77,"pm10":17.9,"pm2_5":16.3,"mosquito_risk":3,"arthritis_risk":5,"migraine_risk":4,"frizz_risk":1,"updated_at":"2026-04-09T03:13:01.673778+05:30"},{"city":"Pune","state":"Maharashtra","latitude":18.5204,"longitude":73.8567,"temp":21.2,"humidity":88,"rain":0.0,"pressure":948.8,"uv_index":8.55,"wind_gusts":32.4,"aqi":72,"pm10":42.5,"pm2_5":19.5,"mosquito_risk":3,"arthritis_risk":5,"migraine_risk":7,"frizz_risk":1,"updated_at":"2026-04-09T03:13:01.673790+05:30"},{"city":"Ahmedabad","state":"Gujarat","latitude":23.0225,"longitude":72.5714,"temp":24.4,"humidity":51,"rain":0.0,"pressure":1002.6,"uv_index":8.0,"wind_gusts":20.2,"aqi":62,"pm10":26.6,"pm2_5":21.0,"mosquito_risk":0,"arthritis_risk":5,"migraine_risk":4,"frizz_risk":0,"updated_at":"2026-04-09T03:13:01.673799+05:30"},{"city":"Jaipur","state":"Rajasthan","latitude":26.9124,"longitude":75.7873,"temp":20.3,"humidity":67,"rain":0.0,"pressure":961.5,"uv_index":7.7,"wind_gusts":29.5,"aqi":137,"pm10":437.7,"pm2_5":71.0,"mosquito_risk":3,"arthritis_risk":5,"migraine_risk":7,"frizz_risk":0,"updated_at":"2026-04-09T03:13:01.673807+05:30"},{"city":"Lucknow","state":"Uttar Pradesh","latitude":26.8467,"longitude":80.9462,"temp":18.5,"humidity":87,"rain":0.0,"pressure":997.2,"uv_index":7.55,"wind_gusts":31.0,"aqi":104,"pm10":66.4,"pm2_5":47.4,"mosquito_risk":3,"arthritis_risk":10,"migraine_risk":7,"frizz_risk":1,"updated_at":"2026-04-09T03:13:01.673814+05:30"},{"city":"Kanpur","state":"Uttar Pradesh","latitude":26.4499,"longitude":80.3319,"temp":18.7,"humidity":88,"rain":0.0,"pressure":995.1,"uv_index":7.6,"wind_gusts":29.5,"aqi":120,"pm10":78.9,"pm2_5":36.3,"mosquito_risk":3,"arthritis_risk":10,"migraine_risk":7,"frizz_risk":1,"updated_at":"2026-04-09T03:13:01.673821+05:30"},{"city":"Chandigarh","state":"Chandigarh","latitude":30.7333,"longitude":76.7794,"temp":15.8,"humidity":86,"rain":0.0,"pressure":972.3,"uv_index":7.05,"wind_gusts":25.6,"aqi":73,"pm10":25.6,"pm2_5":23.3,"mosquito_risk":3,"arthritis_risk":10,"migraine_risk":7,"frizz_risk":0,"updated_at":"2026-04-09T03:13:01.673829+05:30"},{"city":"Srinagar","state":"Jammu and Kashmir","latitude":34.0837,"longitude":74.7973,"temp":5.8,"humidity":90,"rain":0.0,"pressure":839.5,"uv_index":8.0,"wind_gusts":16.9,"aqi":42,"pm10":12.0,"pm2_5":11.7,"mosquito_risk":3,"arthritis_risk":10,"migraine_risk":7,"frizz_risk":0,"updated_at":"2026-04-09T03:13:01.673836+05:30"},{"city":"Jammu","state":"Jammu and Kashmir","latitude":32.7266,"longitude":74.857,"temp":14.1,"humidity":94,"rain":0.0,"pressure":976.9,"uv_index":7.65,"wind_gusts":22.3,"aqi":65,"pm10":33.3,"pm2_5":31.3,"mosquito_risk":3,"arthritis_risk":10,"migraine_risk":7,"frizz_risk":0,"updated_at":"2026-04-09T03:13:01.673844+05:30"},{"city":"Amritsar","state":"Punjab","latitude":31.634,"longitude":74.8723,"temp":14.9,"humidity":95,"rain":0.0,"pressure":985.4,"uv_index":7.6,"wind_gusts":24.8,"aqi":86,"pm10":45.4,"pm2_5":34.8,"mosquito_risk":3,"arthritis_risk":10,"migraine_risk":7,"frizz_risk":0,"updated_at":"2026-04-09T03:13:01.673850+05:30"},{"city":"Ludhiana","state":"Punjab","latitude":30.901,"longitude":75.8573,"temp":15.8,"humidity":95,"rain":0.0,"pressure":983.0,"uv_index":7.25,"wind_gusts":22.7,"aqi":89,"pm10":60.3,"pm2_5":47.7,"mosquito_risk":3,"arthritis_risk":10,"migraine_risk":7,"frizz_risk":0,"updated_at":"2026-04-09T03:13:01.673857+05:30"},{"city":"Jalandhar","state":"Punjab","latitude":31.326,"longitude":75.5762,"temp":15.2,"humidity":95,"rain":0.0,"pressure":984.2,"uv_index":7.4,"wind_gusts":27.0,"aqi":85,"pm10":53.9,"pm2_5":40.9,"mosquito_risk":3,"arthritis_risk":10,"migraine_risk":7,"frizz_risk":0,"updated_at":"2026-04-09T03:13:01.673866+05:30"},{"city":"Dehradun","state":"Uttarakhand","latitude":30.6284,"longitude":78.0322,"temp":7.1,"humidity":84,"rain":0.0,"pressure":827.8,"uv_index":7.4,"wind_gusts":23.0,"aqi":46,"pm10":6.8,"pm2_5":4.6,"mosquito_risk":3,"arthritis_risk":10,"migraine_risk":7,"frizz_risk":0,"updated_at":"2026-04-09T03:13:01.673873+05:30"},{"city":"Shimla","state":"Himachal Pradesh","latitude":31.1048,"longitude":77.1734,"temp":5.8,"humidity":84,"rain":0.0,"pressure":780.9,"uv_index":7.5,"wind_gusts":28.4,"aqi":47,"pm10":4.3,"pm2_5":4.1,"mosquito_risk":3,"arthritis_risk":10,"migraine_risk":7,"frizz_risk":0,"updated_at":"2026-04-09T03:13:01.673880+05:30"},{"city":"Manali","state":"Himachal Pradesh","latitude":32.2396,"longitude":77.1887,"temp":7.4,"humidity":64,"rain":0.0,"pressure":814.7,"uv_index":9.75,"wind_gusts":22.3,"aqi":81,"pm10":2.4,"pm2_5":2.3,"mosquito_risk":3,"arthritis_risk":5,"migraine_risk":7,"frizz_risk":0,"updated_at":"2026-04-09T03:13:01.673887+05:30"},{"city":"Gurgaon","state":"Haryana","latitude":28.4595,"longitude":77.0266,"temp":18.0,"humidity":94,"rain":0.0,"pressure":985.0,"uv_index":7.2,"wind_gusts":19.4,"aqi":362,"pm10":288.7,"pm2_5":68.0,"mosquito_risk":3,"arthritis_risk":10,"migraine_risk":7,"frizz_risk":1,"updated_at":"2026-04-09T03:13:01.673893+05:30"},{"city":"Noida","state":"Uttar Pradesh","latitude":28.5355,"longitude":77.391,"temp":18.0,"humidity":95,"rain":0.0,"pressure":988.5,"uv_index":7.1,"wind_gusts":22.7,"aqi":362,"pm10":288.7,"pm2_5":68.0,"mosquito_risk":3,"arthritis_risk":10,"migraine_risk":7,"frizz_risk":1,"updated_at":"2026-04-09T03:13:01.673900+05:30"},{"city":"Ghaziabad","state":"Uttar Pradesh","latitude":28.6692,"longitude":77.4538,"temp":17.3,"humidity":97,"rain":0.0,"pressure":986.7,"uv_index":7.05,"wind_gusts":22.7,"aqi":107,"pm10":54.6,"pm2_5":42.6,"mosquito_risk":3,"arthritis_risk":10,"migraine_risk":7,"frizz_risk":1,"updated_at":"2026-04-09T03:13:01.673907+05:30"},{"city":"Faridabad","state":"Haryana","latitude":28.4089,"longitude":77.3178,"temp":18.0,"humidity":93,"rain":0.0,"pressure":987.6,"uv_index":7.15,"wind_gusts":22.3,"aqi":362,"pm10":288.7,"pm2_5":68.0,"mosquito_risk":3,"arthritis_risk":10,"migraine_risk":7,"frizz_risk":1,"updated_at":"2026-04-09T03:13:01.673913+05:30"},{"city":"Meerut","state":"Uttar Pradesh","latitude":28.9845,"longitude":77.7064,"temp":16.6,"humidity":98,"rain":0.0,"pressure":985.6,"uv_index":6.95,"wind_gusts":27.0,"aqi":107,"pm10":54.6,"pm2_5":42.6,"mosquito_risk":3,"arthritis_risk":10,"migraine_risk":7,"frizz_risk":1,"updated_at":"2026-04-09T03:13:01.673919+05:30"},{"city":"Agra","state":"Uttar Pradesh","latitude":27.1767,"longitude":78.0081,"temp":17.7,"humidity":94,"rain":0.0,"pressure":991.4,"uv_index":7.45,"wind_gusts":20.2,"aqi":484,"pm10":713.4,"pm2_5":101.0,"mosquito_risk":3,"arthritis_risk":10,"migraine_risk":7,"frizz_risk":1,"updated_at":"2026-04-09T03:13:01.673926+05:30"},{"city":"Varanasi","state":"Uttar Pradesh","latitude":25.3176,"longitude":82.9739,"temp":20.0,"humidity":80,"rain":0.0,"pressure":1000.2,"uv_index":8.2,"wind_gusts":25.6,"aqi":97,"pm10":50.8,"pm2_5":41.0,"mosquito_risk":3,"arthritis_risk":5,"migraine_risk":4,"frizz_risk":1,"updated_at":"2026-04-09T03:13:01.673936+05:30"},{"city":"Prayagraj","state":"Uttar Pradesh","latitude":25.4358,"longitude":81.8463,"temp":20.6,"humidity":78,"rain":0.0,"pressure":999.0,"uv_index":8.05,"wind_gusts":25.2,"aqi":94,"pm10":45.5,"pm2_5":36.3,"mosquito_risk":3,"arthritis_risk":5,"migraine_risk":7,"frizz_risk":1,"updated_at":"2026-04-09T03:13:01.673943+05:30"},{"city":"Gorakhpur","state":"Uttar Pradesh","latitude":26.7606,"longitude":83.3732,"temp":17.5,"humidity":83,"rain":0.0,"pressure":1000.4,"uv_index":7.95,"wind_gusts":34.2,"aqi":105,"pm10":94.5,"pm2_5":77.1,"mosquito_risk":3,"arthritis_risk":10,"migraine_risk":4,"frizz_risk":0,"updated_at":"2026-04-09T03:13:01.673951+05:30"},{"city":"Bareilly","state":"Uttar Pradesh","latitude":28.367,"longitude":79.4304,"temp":15.8,"humidity":96,"rain":0.0,"pressure":991.1,"uv_index":7.3,"wind_gusts":33.1,"aqi":94,"pm10":61.7,"pm2_5":34.3,"mosquito_risk":3,"arthritis_risk":10,"migraine_risk":7,"frizz_risk":0,"updated_at":"2026-04-09T03:13:01.673957+05:30"},{"city":"Aligarh","state":"Uttar Pradesh","latitude":27.8974,"longitude":78.088,"temp":17.1,"humidity":98,"rain":0.0,"pressure":989.3,"uv_index":7.2,"wind_gusts":27.7,"aqi":139,"pm10":175.6,"pm2_5":52.7,"mosquito_risk":3,"arthritis_risk":10,"migraine_risk":7,"frizz_risk":1,"updated_at":"2026-04-09T03:13:01.673964+05:30"},{"city":"Moradabad","state":"Uttar Pradesh","latitude":28.8386,"longitude":78.7733,"temp":15.8,"humidity":97,"rain":0.0,"pressure":988.0,"uv_index":7.15,"wind_gusts":31.7,"aqi":102,"pm10":64.0,"pm2_5":39.6,"mosquito_risk":3,"arthritis_risk":10,"migraine_risk":7,"frizz_risk":0,"updated_at":"2026-04-09T03:13:01.673972+05:30"},{"city":"Saharanpur","state":"Uttar Pradesh","latitude":29.9637,"longitude":77.546,"temp":15.4,"humidity":95,"rain":0.0,"pressure":979.7,"uv_index":6.75,"wind_gusts":26.3,"aqi":102,"pm10":50.3,"pm2_5":44.8,"mosquito_risk":3,"arthritis_risk":10,"migraine_risk":7,"frizz_risk":0,"updated_at":"2026-04-09T03:13:01.673978+05:30"},{"city":"Jhansi","state":"Uttar Pradesh","latitude":25.4484,"longitude":78.5685,"temp":19.9,"humidity":84,"rain":0.0,"pressure":980.6,"uv_index":8.0,"wind_gusts":25.2,"aqi":78,"pm10":109.0,"pm2_5":42.7,"mosquito_risk":3,"arthritis_risk":10,"migraine_risk":7,"frizz_risk":1,"updated_at":"2026-04-09T03:13:04.898149+05:30"},{"city":"Surat","state":"Gujarat","latitude":21.1702,"longitude":72.8311,"temp":26.3,"humidity":76,"rain":0.0,"pressure":1007.4,"uv_index":7.7,"wind_gusts":26.3,"aqi":70,"pm10":46.2,"pm2_5":24.3,"mosquito_risk":7,"arthritis_risk":5,"migraine_risk":4,"frizz_risk":1,"updated_at":"2026-04-09T03:13:04.898179+05:30"},{"city":"Vadodara","state":"Gujarat","latitude":22.3072,"longitude":73.1812,"temp":25.6,"humidity":75,"rain":0.0,"pressure":1004.5,"uv_index":8.0,"wind_gusts":20.2,"aqi":63,"pm10":22.8,"pm2_5":15.4,"mosquito_risk":7,"arthritis_risk":5,"migraine_risk":4,"frizz_risk":1,"updated_at":"2026-04-09T03:13:04.898190+05:30"},{"city":"Rajkot","state":"Gujarat","latitude":22.3039,"longitude":70.8022,"temp":22.4,"humidity":85,"rain":0.0,"pressure":994.7,"uv_index":7.7,"wind_gusts":22.0,"aqi":51,"pm10":27.2,"pm2_5":15.0,"mosquito_risk":3,"arthritis_risk":5,"migraine_risk":7,"frizz_risk":1,"updated_at":"2026-04-09T03:13:04.898197+05:30"},{"city":"Thane","state":"Maharashtra","latitude":19.2183,"longitude":72.9781,"temp":27.0,"humidity":81,"rain":0.0,"pressure":1008.6,"uv_index":7.95,"wind_gusts":33.5,"aqi":76,"pm10":80.1,"pm2_5":19.3,"mosquito_risk":7,"arthritis_risk":0,"migraine_risk":4,"frizz_risk":1,"updated_at":"2026-04-09T03:13:04.898204+05:30"},{"city":"Nagpur","state":"Maharashtra","latitude":21.1458,"longitude":79.0882,"temp":24.3,"humidity":58,"rain":0.0,"pressure":972.6,"uv_index":8.75,"wind_gusts":20.5,"aqi":84,"pm10":61.9,"pm2_5":30.9,"mosquito_risk":0,"arthritis_risk":5,"migraine_risk":7,"frizz_risk":0,"updated_at":"2026-04-09T03:13:04.898211+05:30"},{"city":"Nashik","state":"Maharashtra","latitude":19.9975,"longitude":73.7898,"temp":21.8,"humidity":90,"rain":0.0,"pressure":945.9,"uv_index":8.2,"wind_gusts":25.2,"aqi":65,"pm10":43.1,"pm2_5":16.1,"mosquito_risk":3,"arthritis_risk":5,"migraine_risk":7,"frizz_risk":1,"updated_at":"2026-04-09T03:13:04.898219+05:30"},{"city":"Aurangabad","state":"Maharashtra","latitude":19.8762,"longitude":75.3433,"temp":22.3,"humidity":81,"rain":0.0,"pressure":944.3,"uv_index":8.9,"wind_gusts":32.4,"aqi":64,"pm10":34.8,"pm2_5":16.0,"mosquito_risk":3,"arthritis_risk":5,"migraine_risk":7,"frizz_risk":1,"updated_at":"2026-04-09T03:13:04.898226+05:30"},{"city":"Solapur","state":"Maharashtra","latitude":17.6599,"longitude":75.9064,"temp":25.5,"humidity":50,"rain":0.0,"pressure":956.9,"uv_index":9.0,"wind_gusts":24.5,"aqi":73,"pm10":36.3,"pm2_5":19.5,"mosquito_risk":4,"arthritis_risk":5,"migraine_risk":7,"frizz_risk":0,"updated_at":"2026-04-09T03:13:04.898233+05:30"},{"city":"Kolhapur","state":"Maharashtra","latitude":16.705,"longitude":74.2433,"temp":19.7,"humidity":91,"rain":0.0,"pressure":947.5,"uv_index":9.0,"wind_gusts":36.7,"aqi":79,"pm10":49.9,"pm2_5":22.7,"mosquito_risk":3,"arthritis_risk":10,"migraine_risk":7,"frizz_risk":1,"updated_at":"2026-04-09T03:13:04.898240+05:30"},{"city":"Goa","state":"Goa","latitude":15.2993,"longitude":74.124,"temp":27.1,"humidity":78,"rain":0.0,"pressure":998.2,"uv_index":9.0,"wind_gusts":35.6,"aqi":70,"pm10":64.7,"pm2_5":24.0,"mosquito_risk":7,"arthritis_risk":5,"migraine_risk":7,"frizz_risk":1,"updated_at":"2026-04-09T03:13:04.898247+05:30"},{"city":"Jodhpur","state":"Rajasthan","latitude":26.2389,"longitude":73.0243,"temp":23.2,"humidity":42,"rain":0.0,"pressure":984.0,"uv_index":8.0,"wind_gusts":26.3,"aqi":97,"pm10":123.4,"pm2_5":25.1,"mosquito_risk":0,"arthritis_risk":5,"migraine_risk":7,"frizz_risk":0,"updated_at":"2026-04-09T03:13:04.898254+05:30"},{"city":"Udaipur","state":"Rajasthan","latitude":24.5854,"longitude":73.7125,"temp":19.8,"humidity":54,"rain":0.0,"pressure":946.5,"uv_index":8.5,"wind_gusts":38.2,"aqi":59,"pm10":60.8,"pm2_5":18.0,"mosquito_risk":0,"arthritis_risk":5,"migraine_risk":7,"frizz_risk":0,"updated_at":"2026-04-09T03:13:04.898261+05:30"},{"city":"Kota","state":"Rajasthan","latitude":25.2138,"longitude":75.8648,"temp":22.1,"humidity":67,"rain":0.0,"pressure":980.0,"uv_index":8.0,"wind_gusts":20.9,"aqi":105,"pm10":86.4,"pm2_5":35.9,"mosquito_risk":3,"arthritis_risk":5,"migraine_risk":7,"frizz_risk":0,"updated_at":"2026-04-09T03:13:04.898268+05:30"},{"city":"Bikaner","state":"Rajasthan","latitude":28.0229,"longitude":73.3119,"temp":22.7,"humidity":41,"rain":0.0,"pressure":983.9,"uv_index":7.8,"wind_gusts":22.3,"aqi":60,"pm10":59.0,"pm2_5":20.0,"mosquito_risk":0,"arthritis_risk":5,"migraine_risk":7,"frizz_risk":0,"updated_at":"2026-04-09T03:13:04.898276+05:30"},{"city":"Ajmer","state":"Rajasthan","latitude":26.4499,"longitude":74.6399,"temp":21.5,"humidity":50,"rain":0.0,"pressure":955.2,"uv_index":7.95,"wind_gusts":25.2,"aqi":82,"pm10":80.6,"pm2_5":27.4,"mosquito_risk":0,"arthritis_risk":5,"migraine_risk":7,"frizz_risk":0,"updated_at":"2026-04-09T03:13:04.898282+05:30"},{"city":"Gwalior","state":"Madhya Pradesh","latitude":26.2183,"longitude":78.1828,"temp":19.0,"humidity":89,"rain":0.0,"pressure":986.3,"uv_index":7.75,"wind_gusts":25.9,"aqi":86,"pm10":220.7,"pm2_5":60.3,"mosquito_risk":3,"arthritis_risk":10,"migraine_risk":7,"frizz_risk":1,"updated_at":"2026-04-09T03:13:04.898289+05:30"},{"city":"Indore","state":"Madhya Pradesh","latitude":22.7196,"longitude":75.8577,"temp":21.1,"humidity":65,"rain":0.0,"pressure":948.0,"uv_index":8.4,"wind_gusts":23.4,"aqi":72,"pm10":44.0,"pm2_5":28.8,"mosquito_risk":3,"arthritis_risk":5,"migraine_risk":7,"frizz_risk":0,"updated_at":"2026-04-09T03:13:04.898295+05:30"},{"city":"Bhopal","state":"Madhya Pradesh","latitude":23.2599,"longitude":77.4126,"temp":22.3,"humidity":53,"rain":0.0,"pressure":953.8,"uv_index":8.4,"wind_gusts":24.1,"aqi":70,"pm10":42.4,"pm2_5":23.7,"mosquito_risk":0,"arthritis_risk":5,"migraine_risk":7,"frizz_risk":0,"updated_at":"2026-04-09T03:13:04.898302+05:30"},{"city":"Jabalpur","state":"Madhya Pradesh","latitude":23.1815,"longitude":79.9864,"temp":23.2,"humidity":65,"rain":0.0,"pressure":961.6,"uv_index":8.55,"wind_gusts":25.9,"aqi":106,"pm10":102.7,"pm2_5":61.7,"mosquito_risk":3,"arthritis_risk":5,"migraine_risk":7,"frizz_risk":1,"updated_at":"2026-04-09T03:13:04.898308+05:30"},{"city":"Ujjain","state":"Madhya Pradesh","latitude":23.1765,"longitude":75.7885,"temp":22.3,"humidity":58,"rain":0.0,"pressure":953.8,"uv_index":8.35,"wind_gusts":20.9,"aqi":67,"pm10":42.6,"pm2_5":28.5,"mosquito_risk":0,"arthritis_risk":5,"migraine_risk":7,"frizz_risk":0,"updated_at":"2026-04-09T03:13:04.898316+05:30"},{"city":"Visakhapatnam","state":"Andhra Pradesh","latitude":17.6868,"longitude":83.2185,"temp":27.2,"humidity":93,"rain":0.0,"pressure":1003.0,"uv_index":9.15,"wind_gusts":43.6,"aqi":86,"pm10":33.1,"pm2_5":30.4,"mosquito_risk":7,"arthritis_risk":5,"migraine_risk":4,"frizz_risk":1,"updated_at":"2026-04-09T03:13:04.898323+05:30"},{"city":"Vijayawada","state":"Andhra Pradesh","latitude":16.5062,"longitude":80.648,"temp":27.7,"humidity":88,"rain":0.0,"pressure":1001.9,"uv_index":9.2,"wind_gusts":34.2,"aqi":94,"pm10":22.4,"pm2_5":19.4,"mosquito_risk":7,"arthritis_risk":5,"migraine_risk":4,"frizz_risk":1,"updated_at":"2026-04-09T03:13:04.898330+05:30"},{"city":"Guntur","state":"Andhra Pradesh","latitude":16.3067,"longitude":80.4365,"temp":28.0,"humidity":87,"rain":0.0,"pressure":1003.0,"uv_index":9.2,"wind_gusts":31.0,"aqi":91,"pm10":23.1,"pm2_5":20.2,"mosquito_risk":7,"arthritis_risk":5,"migraine_risk":4,"frizz_risk":1,"updated_at":"2026-04-09T03:13:04.898336+05:30"},{"city":"Nellore","state":"Andhra Pradesh","latitude":14.4426,"longitude":79.9865,"temp":28.0,"humidity":88,"rain":0.0,"pressure":1004.9,"uv_index":9.3,"wind_gusts":36.4,"aqi":89,"pm10":27.1,"pm2_5":24.2,"mosquito_risk":7,"arthritis_risk":5,"migraine_risk":4,"frizz_risk":1,"updated_at":"2026-04-09T03:13:04.898344+05:30"},{"city":"Kurnool","state":"Andhra Pradesh","latitude":15.8281,"longitude":78.0373,"temp":28.3,"humidity":63,"rain":0.0,"pressure":975.4,"uv_index":9.2,"wind_gusts":32.4,"aqi":77,"pm10":40.0,"pm2_5":31.8,"mosquito_risk":7,"arthritis_risk":5,"migraine_risk":7,"frizz_risk":1,"updated_at":"2026-04-09T03:13:04.898351+05:30"},{"city":"Kakinada","state":"Andhra Pradesh","latitude":16.9891,"longitude":82.2475,"temp":26.9,"humidity":94,"rain":0.0,"pressure":1007.0,"uv_index":9.15,"wind_gusts":28.1,"aqi":78,"pm10":31.2,"pm2_5":25.2,"mosquito_risk":7,"arthritis_risk":5,"migraine_risk":4,"frizz_risk":1,"updated_at":"2026-04-09T03:13:04.898358+05:30"},{"city":"Tirupati","state":"Andhra Pradesh","latitude":13.6288,"longitude":79.4192,"temp":27.1,"humidity":88,"rain":0.0,"pressure":991.9,"uv_index":9.35,"wind_gusts":33.1,"aqi":106,"pm10":32.5,"pm2_5":29.7,"mosquito_risk":7,"arthritis_risk":5,"migraine_risk":7,"frizz_risk":1,"updated_at":"2026-04-09T03:13:04.898364+05:30"},{"city":"Warangal","state":"Telangana","latitude":17.9689,"longitude":79.5941,"temp":27.3,"humidity":80,"rain":0.0,"pressure":977.5,"uv_index":9.05,"wind_gusts":23.8,"aqi":104,"pm10":37.6,"pm2_5":36.7,"mosquito_risk":7,"arthritis_risk":5,"migraine_risk":7,"frizz_risk":1,"updated_at":"2026-04-09T03:13:04.898370+05:30"},{"city":"Nizamabad","state":"Telangana","latitude":18.6725,"longitude":78.0941,"temp":25.6,"humidity":58,"rain":0.0,"pressure":964.2,"uv_index":9.0,"wind_gusts":28.1,"aqi":103,"pm10":73.3,"pm2_5":41.0,"mosquito_risk":4,"arthritis_risk":5,"migraine_risk":7,"frizz_risk":1,"updated_at":"2026-04-09T03:13:04.898376+05:30"},{"city":"Mysore","state":"Karnataka","latitude":12.2958,"longitude":76.6396,"temp":22.7,"humidity":89,"rain":0.0,"pressure":928.4,"uv_index":9.55,"wind_gusts":35.3,"aqi":50,"pm10":21.7,"pm2_5":17.0,"mosquito_risk":3,"arthritis_risk":5,"migraine_risk":7,"frizz_risk":1,"updated_at":"2026-04-09T03:13:04.898383+05:30"},{"city":"Mangalore","state":"Karnataka","latitude":12.9141,"longitude":74.856,"temp":28.8,"humidity":79,"rain":0.0,"pressure":1007.0,"uv_index":9.15,"wind_gusts":35.3,"aqi":66,"pm10":63.8,"pm2_5":26.4,"mosquito_risk":7,"arthritis_risk":5,"migraine_risk":4,"frizz_risk":1,"updated_at":"2026-04-09T03:13:04.898389+05:30"},{"city":"Hubli-Dharwad","state":"Karnataka","latitude":15.3647,"longitude":75.124,"temp":21.4,"humidity":94,"rain":0.0,"pressure":940.3,"uv_index":9.2,"wind_gusts":40.0,"aqi":65,"pm10":40.2,"pm2_5":18.7,"mosquito_risk":3,"arthritis_risk":5,"migraine_risk":7,"frizz_risk":1,"updated_at":"2026-04-09T03:13:04.898396+05:30"},{"city":"Belgaum","state":"Karnataka","latitude":15.8497,"longitude":74.4977,"temp":18.9,"humidity":97,"rain":0.0,"pressure":924.7,"uv_index":9.25,"wind_gusts":36.0,"aqi":75,"pm10":62.4,"pm2_5":26.3,"mosquito_risk":3,"arthritis_risk":10,"migraine_risk":7,"frizz_risk":1,"updated_at":"2026-04-09T03:13:08.124779+05:30"},{"city":"Coimbatore","state":"Tamil Nadu","latitude":11.0168,"longitude":76.9558,"temp":24.6,"humidity":75,"rain":0.0,"pressure":962.4,"uv_index":9.45,"wind_gusts":49.0,"aqi":54,"pm10":20.5,"pm2_5":17.1,"mosquito_risk":3,"arthritis_risk":5,"migraine_risk":7,"frizz_risk":1,"updated_at":"2026-04-09T03:13:08.124811+05:30"},{"city":"Madurai","state":"Tamil Nadu","latitude":9.9252,"longitude":78.1198,"temp":26.8,"humidity":80,"rain":0.0,"pressure":993.4,"uv_index":9.4,"wind_gusts":41.0,"aqi":104,"pm10":41.3,"pm2_5":37.5,"mosquito_risk":7,"arthritis_risk":5,"migraine_risk":7,"frizz_risk":1,"updated_at":"2026-04-09T03:13:08.124821+05:30"},{"city":"Trichy","state":"Tamil Nadu","latitude":10.7905,"longitude":78.7047,"temp":27.4,"humidity":88,"rain":0.0,"pressure":1000.2,"uv_index":9.4,"wind_gusts":28.1,"aqi":93,"pm10":27.5,"pm2_5":24.8,"mosquito_risk":7,"arthritis_risk":5,"migraine_risk":4,"frizz_risk":1,"updated_at":"2026-04-09T03:13:08.124830+05:30"},{"city":"Salem","state":"Tamil Nadu","latitude":11.6643,"longitude":78.146,"temp":24.9,"humidity":87,"rain":0.0,"pressure":978.2,"uv_index":9.0,"wind_gusts":22.3,"aqi":73,"pm10":32.0,"pm2_5":28.9,"mosquito_risk":3,"arthritis_risk":5,"migraine_risk":7,"frizz_risk":1,"updated_at":"2026-04-09T03:13:08.124838+05:30"},{"city":"Tirunelveli","state":"Tamil Nadu","latitude":8.7139,"longitude":77.7567,"temp":27.1,"humidity":80,"rain":0.0,"pressure":1003.3,"uv_index":9.0,"wind_gusts":41.0,"aqi":71,"pm10":20.1,"pm2_5":15.7,"mosquito_risk":7,"arthritis_risk":5,"migraine_risk":4,"frizz_risk":1,"updated_at":"2026-04-09T03:13:08.124847+05:30"},{"city":"Vellore","state":"Tamil Nadu","latitude":12.9165,"longitude":79.1325,"temp":27.2,"humidity":86,"rain":0.0,"pressure":984.7,"uv_index":9.45,"wind_gusts":23.8,"aqi":109,"pm10":38.9,"pm2_5":35.3,"mosquito_risk":7,"arthritis_risk":5,"migraine_risk":7,"frizz_risk":1,"updated_at":"2026-04-09T03:13:08.124855+05:30"},{"city":"Erode","state":"Tamil Nadu","latitude":11.341,"longitude":77.7172,"temp":26.7,"humidity":79,"rain":0.0,"pressure":989.8,"uv_index":9.45,"wind_gusts":27.7,"aqi":60,"pm10":21.0,"pm2_5":17.5,"mosquito_risk":7,"arthritis_risk":5,"migraine_risk":7,"frizz_risk":1,"updated_at":"2026-04-09T03:13:08.124863+05:30"},{"city":"Kochi","state":"Kerala","latitude":9.9312,"longitude":76.2673,"temp":29.0,"humidity":77,"rain":0.0,"pressure":1009.2,"uv_index":9.0,"wind_gusts":33.8,"aqi":66,"pm10":42.0,"pm2_5":37.4,"mosquito_risk":7,"arthritis_risk":0,"migraine_risk":4,"frizz_risk":1,"updated_at":"2026-04-09T03:13:08.124871+05:30"},{"city":"Thiruvananthapuram","state":"Kerala","latitude":8.5241,"longitude":76.9366,"temp":29.0,"humidity":76,"rain":0.0,"pressure":1008.3,"uv_index":9.15,"wind_gusts":39.6,"aqi":55,"pm10":25.3,"pm2_5":14.1,"mosquito_risk":7,"arthritis_risk":0,"migraine_risk":4,"frizz_risk":1,"updated_at":"2026-04-09T03:13:08.124879+05:30"},{"city":"Kozhikode","state":"Kerala","latitude":11.2588,"longitude":75.7804,"temp":29.0,"humidity":78,"rain":0.0,"pressure":1008.3,"uv_index":9.15,"wind_gusts":30.6,"aqi":52,"pm10":52.5,"pm2_5":21.0,"mosquito_risk":7,"arthritis_risk":0,"migraine_risk":4,"frizz_risk":1,"updated_at":"2026-04-09T03:13:08.124886+05:30"},{"city":"Thrissur","state":"Kerala","latitude":10.5276,"longitude":76.2144,"temp":27.6,"humidity":84,"rain":0.0,"pressure":1007.5,"uv_index":9.15,"wind_gusts":34.6,"aqi":63,"pm10":34.3,"pm2_5":30.0,"mosquito_risk":7,"arthritis_risk":5,"migraine_risk":4,"frizz_risk":1,"updated_at":"2026-04-09T03:13:08.124895+05:30"},{"city":"Kannur","state":"Kerala","latitude":11.8745,"longitude":75.3704,"temp":27.9,"humidity":81,"rain":0.0,"pressure":1007.5,"uv_index":9.15,"wind_gusts":39.2,"aqi":57,"pm10":57.3,"pm2_5":24.4,"mosquito_risk":7,"arthritis_risk":5,"migraine_risk":4,"frizz_risk":1,"updated_at":"2026-04-09T03:13:08.124902+05:30"},{"city":"Patna","state":"Bihar","latitude":25.5941,"longitude":85.1376,"temp":21.1,"humidity":80,"rain":0.0,"pressure":1002.8,"uv_index":8.3,"wind_gusts":27.0,"aqi":95,"pm10":42.1,"pm2_5":31.3,"mosquito_risk":3,"arthritis_risk":5,"migraine_risk":4,"frizz_risk":1,"updated_at":"2026-04-09T03:13:08.124910+05:30"},{"city":"Gaya","state":"Bihar","latitude":24.7914,"longitude":85.0002,"temp":22.1,"humidity":92,"rain":0.0,"pressure":995.9,"uv_index":8.4,"wind_gusts":22.3,"aqi":100,"pm10":52.5,"pm2_5":45.4,"mosquito_risk":3,"arthritis_risk":5,"migraine_risk":7,"frizz_risk":1,"updated_at":"2026-04-09T03:13:08.124917+05:30"},{"city":"Muzaffarpur","state":"Bihar","latitude":26.1209,"longitude":85.3647,"temp":19.4,"humidity":82,"rain":0.0,"pressure":1003.0,"uv_index":8.3,"wind_gusts":25.9,"aqi":106,"pm10":47.5,"pm2_5":33.5,"mosquito_risk":3,"arthritis_risk":10,"migraine_risk":4,"frizz_risk":1,"updated_at":"2026-04-09T03:13:08.124924+05:30"},{"city":"Bhagalpur","state":"Bihar","latitude":25.2425,"longitude":87.0117,"temp":21.3,"humidity":91,"rain":0.0,"pressure":1003.6,"uv_index":8.3,"wind_gusts":21.2,"aqi":122,"pm10":41.1,"pm2_5":34.1,"mosquito_risk":3,"arthritis_risk":5,"migraine_risk":4,"frizz_risk":1,"updated_at":"2026-04-09T03:13:08.124932+05:30"},{"city":"Ranchi","state":"Jharkhand","latitude":23.3441,"longitude":85.3096,"temp":20.2,"humidity":95,"rain":0.0,"pressure":937.9,"uv_index":8.8,"wind_gusts":27.4,"aqi":112,"pm10":88.7,"pm2_5":56.1,"mosquito_risk":3,"arthritis_risk":5,"migraine_risk":7,"frizz_risk":1,"updated_at":"2026-04-09T03:13:08.124939+05:30"},{"city":"Jamshedpur","state":"Jharkhand","latitude":22.8046,"longitude":86.2029,"temp":22.3,"humidity":89,"rain":0.0,"pressure":991.9,"uv_index":8.6,"wind_gusts":15.1,"aqi":125,"pm10":62.9,"pm2_5":58.0,"mosquito_risk":3,"arthritis_risk":5,"migraine_risk":7,"frizz_risk":1,"updated_at":"2026-04-09T03:13:08.124946+05:30"},{"city":"Dhanbad","state":"Jharkhand","latitude":23.7957,"longitude":86.4304,"temp":22.5,"humidity":89,"rain":0.0,"pressure":981.0,"uv_index":8.7,"wind_gusts":20.9,"aqi":156,"pm10":105.7,"pm2_5":96.9,"mosquito_risk":3,"arthritis_risk":5,"migraine_risk":7,"frizz_risk":1,"updated_at":"2026-04-09T03:13:08.124953+05:30"},{"city":"Bokaro","state":"Jharkhand","latitude":23.6693,"longitude":86.1511,"temp":22.2,"humidity":91,"rain":0.0,"pressure":985.3,"uv_index":8.7,"wind_gusts":23.8,"aqi":159,"pm10":113.4,"pm2_5":94.8,"mosquito_risk":3,"arthritis_risk":5,"migraine_risk":7,"frizz_risk":1,"updated_at":"2026-04-09T03:13:08.124960+05:30"},{"city":"Bhubaneswar","state":"Odisha","latitude":20.2961,"longitude":85.8245,"temp":26.3,"humidity":94,"rain":0.0,"pressure":1001.8,"uv_index":9.0,"wind_gusts":29.9,"aqi":71,"pm10":29.8,"pm2_5":27.8,"mosquito_risk":7,"arthritis_risk":5,"migraine_risk":4,"frizz_risk":1,"updated_at":"2026-04-09T03:13:08.124967+05:30"},{"city":"Cuttack","state":"Odisha","latitude":20.4625,"longitude":85.8828,"temp":25.8,"humidity":96,"rain":0.0,"pressure":1003.9,"uv_index":9.05,"wind_gusts":27.7,"aqi":71,"pm10":29.8,"pm2_5":27.8,"mosquito_risk":7,"arthritis_risk":5,"migraine_risk":4,"frizz_risk":1,"updated_at":"2026-04-09T03:13:08.124974+05:30"},{"city":"Rourkela","state":"Odisha","latitude":22.2604,"longitude":84.8536,"temp":22.7,"humidity":89,"rain":0.0,"pressure":985.9,"uv_index":8.4,"wind_gusts":17.3,"aqi":123,"pm10":59.8,"pm2_5":45.2,"mosquito_risk":3,"arthritis_risk":5,"migraine_risk":7,"frizz_risk":1,"updated_at":"2026-04-09T03:13:08.124981+05:30"},{"city":"Raipur","state":"Chhattisgarh","latitude":21.2514,"longitude":81.6296,"temp":26.3,"humidity":56,"rain":0.0,"pressure":974.1,"uv_index":8.85,"wind_gusts":29.9,"aqi":110,"pm10":83.1,"pm2_5":47.8,"mosquito_risk":4,"arthritis_risk":5,"migraine_risk":7,"frizz_risk":1,"updated_at":"2026-04-09T03:13:08.124989+05:30"},{"city":"Bhilai","state":"Chhattisgarh","latitude":21.1938,"longitude":81.3509,"temp":26.1,"humidity":59,"rain":0.0,"pressure":974.5,"uv_index":8.85,"wind_gusts":25.2,"aqi":99,"pm10":69.2,"pm2_5":39.5,"mosquito_risk":4,"arthritis_risk":5,"migraine_risk":7,"frizz_risk":1,"updated_at":"2026-04-09T03:13:08.124996+05:30"},{"city":"Guwahati","state":"Assam","latitude":26.1158,"longitude":91.7086,"temp":22.4,"humidity":88,"rain":0.0,"pressure":1003.0,"uv_index":8.0,"wind_gusts":25.2,"aqi":79,"pm10":37.0,"pm2_5":33.2,"mosquito_risk":3,"arthritis_risk":5,"migraine_risk":4,"frizz_risk":1,"updated_at":"2026-04-09T03:13:08.125003+05:30"},{"city":"Agartala","state":"Tripura","latitude":23.8315,"longitude":91.2868,"temp":21.7,"humidity":96,"rain":0.4,"pressure":1008.5,"uv_index":7.8,"wind_gusts":25.9,"aqi":90,"pm10":36.2,"pm2_5":33.2,"mosquito_risk":6,"arthritis_risk":0,"migraine_risk":4,"frizz_risk":1,"updated_at":"2026-04-09T03:13:08.125010+05:30"},{"city":"Shillong","state":"Meghalaya","latitude":25.5788,"longitude":91.8933,"temp":12.0,"humidity":88,"rain":0.2,"pressure":855.3,"uv_index":7.85,"wind_gusts":42.1,"aqi":61,"pm10":19.0,"pm2_5":15.4,"mosquito_risk":6,"arthritis_risk":10,"migraine_risk":7,"frizz_risk":0,"updated_at":"2026-04-09T03:13:08.125018+05:30"},{"city":"Imphal","state":"Manipur","latitude":24.817,"longitude":93.9368,"temp":16.1,"humidity":79,"rain":0.0,"pressure":923.7,"uv_index":8.8,"wind_gusts":54.0,"aqi":71,"pm10":43.4,"pm2_5":40.2,"mosquito_risk":3,"arthritis_risk":5,"migraine_risk":7,"frizz_risk":0,"updated_at":"2026-04-09T03:13:08.125025+05:30"},{"city":"Aizawl","state":"Mizoram","latitude":23.7271,"longitude":92.7176,"temp":17.1,"humidity":82,"rain":0.0,"pressure":893.0,"uv_index":3.3,"wind_gusts":50.8,"aqi":64,"pm10":27.5,"pm2_5":24.3,"mosquito_risk":3,"arthritis_risk":10,"migraine_risk":3,"frizz_risk":0,"updated_at":"2026-04-09T03:13:08.125032+05:30"},{"city":"Kohima","state":"Nagaland","latitude":25.6701,"longitude":94.1077,"temp":13.5,"humidity":74,"rain":0.0,"pressure":854.5,"uv_index":8.65,"wind_gusts":68.4,"aqi":54,"pm10":23.7,"pm2_5":20.4,"mosquito_risk":3,"arthritis_risk":5,"migraine_risk":7,"frizz_risk":0,"updated_at":"2026-04-09T03:13:08.125039+05:30"},{"city":"Gangtok","state":"Sikkim","latitude":27.3314,"longitude":88.6138,"temp":11.1,"humidity":85,"rain":0.0,"pressure":835.7,"uv_index":5.6,"wind_gusts":16.9,"aqi":59,"pm10":25.5,"pm2_5":20.2,"mosquito_risk":3,"arthritis_risk":10,"migraine_risk":3,"frizz_risk":0,"updated_at":"2026-04-09T03:13:08.125046+05:30"},{"city":"Siliguri","state":"West Bengal","latitude":26.7271,"longitude":88.3953,"temp":18.0,"humidity":78,"rain":0.0,"pressure":995.9,"uv_index":7.7,"wind_gusts":31.3,"aqi":89,"pm10":46.2,"pm2_5":38.2,"mosquito_risk":3,"arthritis_risk":5,"migraine_risk":7,"frizz_risk":0,"updated_at":"2026-04-09T03:13:11.366374+05:30"},{"city":"Durgapur","state":"West Bengal","latitude":23.5204,"longitude":87.3119,"temp":22.7,"humidity":94,"rain":0.0,"pressure":996.4,"uv_index":8.7,"wind_gusts":14.8,"aqi":136,"pm10":70.1,"pm2_5":65.9,"mosquito_risk":3,"arthritis_risk":5,"migraine_risk":7,"frizz_risk":1,"updated_at":"2026-04-09T03:13:11.366403+05:30"},{"city":"Asansol","state":"West Bengal","latitude":23.6739,"longitude":86.9524,"temp":22.9,"humidity":92,"rain":0.0,"pressure":994.8,"uv_index":8.7,"wind_gusts":18.7,"aqi":140,"pm10":81.0,"pm2_5":75.0,"mosquito_risk":3,"arthritis_risk":5,"migraine_risk":7,"frizz_risk":1,"updated_at":"2026-04-09T03:13:11.366413+05:30"},{"city":"Pondicherry","state":"Puducherry","latitude":11.9139,"longitude":79.8145,"temp":27.7,"humidity":93,"rain":0.0,"pressure":1008.7,"uv_index":9.3,"wind_gusts":34.6,"aqi":74,"pm10":19.2,"pm2_5":13.3,"mosquito_risk":7,"arthritis_risk":0,"migraine_risk":4,"frizz_risk":1,"updated_at":"2026-04-09T03:13:11.366422+05:30"},{"city":"Port Blair","state":"Andaman and Nicobar Islands","latitude":11.6234,"longitude":92.7265,"temp":28.7,"humidity":78,"rain":0.0,"pressure":1007.2,"uv_index":9.25,"wind_gusts":12.2,"aqi":30,"pm10":10.0,"pm2_5":7.0,"mosquito_risk":7,"arthritis_risk":5,"migraine_risk":4,"frizz_risk":1,"updated_at":"2026-04-09T03:13:11.366430+05:30"},{"city":"Haridwar","state":"Uttarakhand","latitude":29.9457,"longitude":78.1642,"temp":14.4,"humidity":94,"rain":0.0,"pressure":978.2,"uv_index":6.9,"wind_gusts":30.2,"aqi":79,"pm10":33.4,"pm2_5":29.8,"mosquito_risk":3,"arthritis_risk":10,"migraine_risk":7,"frizz_risk":0,"updated_at":"2026-04-09T03:13:11.366438+05:30"},{"city":"Rishikesh","state":"Uttarakhand","latitude":30.0869,"longitude":78.2676,"temp":13.3,"humidity":90,"rain":0.0,"pressure":970.6,"uv_index":6.95,"wind_gusts":31.3,"aqi":57,"pm10":19.1,"pm2_5":13.3,"mosquito_risk":3,"arthritis_risk":10,"migraine_risk":7,"frizz_risk":0,"updated_at":"2026-04-09T03:13:11.366446+05:30"},{"city":"Nainital","state":"Uttarakhand","latitude":29.3919,"longitude":79.4542,"temp":10.6,"humidity":71,"rain":0.0,"pressure":803.9,"uv_index":7.8,"wind_gusts":41.0,"aqi":64,"pm10":11.5,"pm2_5":10.2,"mosquito_risk":3,"arthritis_risk":5,"migraine_risk":7,"frizz_risk":0,"updated_at":"2026-04-09T03:13:11.366453+05:30"},{"city":"Mussoorie","state":"Uttarakhand","latitude":30.4599,"longitude":78.0664,"temp":8.4,"humidity":80,"rain":0.0,"pressure":800.2,"uv_index":7.3,"wind_gusts":28.1,"aqi":63,"pm10":19.4,"pm2_5":15.9,"mosquito_risk":3,"arthritis_risk":5,"migraine_risk":7,"frizz_risk":0,"updated_at":"2026-04-09T03:13:11.366460+05:30"},{"city":"Dharamshala","state":"Himachal Pradesh","latitude":32.219,"longitude":76.3234,"temp":12.4,"humidity":64,"rain":0.0,"pressure":868.5,"uv_index":7.5,"wind_gusts":24.1,"aqi":55,"pm10":2.3,"pm2_5":2.0,"mosquito_risk":3,"arthritis_risk":5,"migraine_risk":7,"frizz_risk":0,"updated_at":"2026-04-09T03:13:11.366467+05:30"},{"city":"Dalhousie","state":"Himachal Pradesh","latitude":32.5387,"longitude":75.971,"temp":8.5,"humidity":62,"rain":0.0,"pressure":801.2,"uv_index":7.75,"wind_gusts":18.4,"aqi":59,"pm10":22.7,"pm2_5":17.9,"mosquito_risk":3,"arthritis_risk":5,"migraine_risk":7,"frizz_risk":0,"updated_at":"2026-04-09T03:13:11.366475+05:30"},{"city":"Patiala","state":"Punjab","latitude":30.3398,"longitude":76.3869,"temp":15.8,"humidity":95,"rain":0.0,"pressure":982.3,"uv_index":6.9,"wind_gusts":25.2,"aqi":86,"pm10":43.7,"pm2_5":33.5,"mosquito_risk":3,"arthritis_risk":10,"migraine_risk":7,"frizz_risk":0,"updated_at":"2026-04-09T03:13:11.366483+05:30"},{"city":"Bhatinda","state":"Punjab","latitude":30.211,"longitude":74.9455,"temp":17.0,"humidity":90,"rain":0.0,"pressure":987.6,"uv_index":7.6,"wind_gusts":22.0,"aqi":96,"pm10":54.7,"pm2_5":31.3,"mosquito_risk":3,"arthritis_risk":10,"migraine_risk":7,"frizz_risk":0,"updated_at":"2026-04-09T03:13:11.366490+05:30"},{"city":"Rohtak","state":"Haryana","latitude":28.8955,"longitude":76.6066,"temp":17.1,"humidity":96,"rain":0.0,"pressure":985.4,"uv_index":7.1,"wind_gusts":21.2,"aqi":141,"pm10":91.0,"pm2_5":46.0,"mosquito_risk":3,"arthritis_risk":10,"migraine_risk":7,"frizz_risk":1,"updated_at":"2026-04-09T03:13:11.366498+05:30"},{"city":"Panipat","state":"Haryana","latitude":29.3909,"longitude":76.9635,"temp":16.2,"humidity":98,"rain":0.0,"pressure":984.3,"uv_index":6.9,"wind_gusts":24.8,"aqi":121,"pm10":57.4,"pm2_5":39.1,"mosquito_risk":3,"arthritis_risk":10,"migraine_risk":7,"frizz_risk":0,"updated_at":"2026-04-09T03:13:11.366504+05:30"},{"city":"Mathura","state":"Uttar Pradesh","latitude":27.4924,"longitude":77.6737,"temp":17.4,"humidity":94,"rain":0.0,"pressure":990.5,"uv_index":7.4,"wind_gusts":19.4,"aqi":311,"pm10":434.9,"pm2_5":76.4,"mosquito_risk":3,"arthritis_risk":10,"migraine_risk":7,"frizz_risk":1,"updated_at":"2026-04-09T03:13:11.366511+05:30"},{"city":"Vrindavan","state":"Uttar Pradesh","latitude":27.5823,"longitude":77.7027,"temp":17.2,"humidity":95,"rain":0.0,"pressure":990.9,"uv_index":7.35,"wind_gusts":20.9,"aqi":311,"pm10":434.9,"pm2_5":76.4,"mosquito_risk":3,"arthritis_risk":10,"migraine_risk":7,"frizz_risk":1,"updated_at":"2026-04-09T03:13:11.366518+05:30"},{"city":"Ayodhya","state":"Uttar Pradesh","latitude":26.7922,"longitude":82.1998,"temp":17.7,"humidity":87,"rain":0.0,"pressure":998.8,"uv_index":7.7,"wind_gusts":31.3,"aqi":99,"pm10":65.0,"pm2_5":50.8,"mosquito_risk":3,"arthritis_risk":10,"migraine_risk":7,"frizz_risk":0,"updated_at":"2026-04-09T03:13:11.366526+05:30"},{"city":"Ratlam","state":"Madhya Pradesh","latitude":23.3315,"longitude":75.0367,"temp":22.8,"humidity":62,"rain":0.0,"pressure":954.7,"uv_index":8.3,"wind_gusts":24.8,"aqi":62,"pm10":37.4,"pm2_5":21.9,"mosquito_risk":3,"arthritis_risk":5,"migraine_risk":7,"frizz_risk":0,"updated_at":"2026-04-09T03:13:11.366532+05:30"},{"city":"Sagar","state":"Madhya Pradesh","latitude":23.8388,"longitude":78.7378,"temp":21.5,"humidity":67,"rain":0.0,"pressure":950.7,"uv_index":8.4,"wind_gusts":25.2,"aqi":73,"pm10":63.3,"pm2_5":26.7,"mosquito_risk":3,"arthritis_risk":5,"migraine_risk":7,"frizz_risk":0,"updated_at":"2026-04-09T03:13:11.366539+05:30"},{"city":"Satna","state":"Madhya Pradesh","latitude":24.6005,"longitude":80.8322,"temp":21.4,"humidity":75,"rain":0.0,"pressure":973.2,"uv_index":8.4,"wind_gusts":26.6,"aqi":78,"pm10":46.4,"pm2_5":35.3,"mosquito_risk":3,"arthritis_risk":5,"migraine_risk":7,"frizz_risk":1,"updated_at":"2026-04-09T03:13:11.366570+05:30"},{"city":"Akola","state":"Maharashtra","latitude":20.7002,"longitude":77.0082,"temp":23.6,"humidity":62,"rain":0.0,"pressure":975.3,"uv_index":8.7,"wind_gusts":32.8,"aqi":67,"pm10":39.0,"pm2_5":22.3,"mosquito_risk":3,"arthritis_risk":5,"migraine_risk":7,"frizz_risk":0,"updated_at":"2026-04-09T03:13:11.366580+05:30"},{"city":"Amravati","state":"Maharashtra","latitude":20.9374,"longitude":77.7796,"temp":23.9,"humidity":60,"rain":0.0,"pressure":967.0,"uv_index":8.75,"wind_gusts":20.5,"aqi":68,"pm10":36.1,"pm2_5":21.1,"mosquito_risk":0,"arthritis_risk":5,"migraine_risk":7,"frizz_risk":0,"updated_at":"2026-04-09T03:13:11.366587+05:30"},{"city":"Latur","state":"Maharashtra","latitude":18.4088,"longitude":76.5604,"temp":22.4,"humidity":61,"rain":0.0,"pressure":939.3,"uv_index":8.95,"wind_gusts":29.2,"aqi":72,"pm10":41.6,"pm2_5":22.8,"mosquito_risk":3,"arthritis_risk":5,"migraine_risk":7,"frizz_risk":0,"updated_at":"2026-04-09T03:13:11.366594+05:30"},{"city":"Nanded","state":"Maharashtra","latitude":19.1383,"longitude":77.3091,"temp":24.2,"humidity":66,"rain":0.0,"pressure":968.5,"uv_index":8.9,"wind_gusts":22.0,"aqi":75,"pm10":32.4,"pm2_5":20.1,"mosquito_risk":3,"arthritis_risk":5,"migraine_risk":7,"frizz_risk":1,"updated_at":"2026-04-09T03:13:11.366600+05:30"},{"city":"Gulbarga","state":"Karnataka","latitude":17.3297,"longitude":76.8343,"temp":27.2,"humidity":43,"rain":0.0,"pressure":958.3,"uv_index":9.05,"wind_gusts":31.3,"aqi":76,"pm10":29.3,"pm2_5":19.3,"mosquito_risk":4,"arthritis_risk":5,"migraine_risk":7,"frizz_risk":0,"updated_at":"2026-04-09T03:13:11.366607+05:30"},{"city":"Bidar","state":"Karnataka","latitude":17.9104,"longitude":77.5199,"temp":25.3,"humidity":52,"rain":0.0,"pressure":934.8,"uv_index":9.05,"wind_gusts":34.2,"aqi":89,"pm10":89.4,"pm2_5":43.1,"mosquito_risk":4,"arthritis_risk":5,"migraine_risk":7,"frizz_risk":0,"updated_at":"2026-04-09T03:13:11.366614+05:30"},{"city":"Hospet","state":"Karnataka","latitude":15.2689,"longitude":76.3909,"temp":26.8,"humidity":71,"rain":0.0,"pressure":955.6,"uv_index":9.2,"wind_gusts":20.9,"aqi":65,"pm10":33.3,"pm2_5":19.6,"mosquito_risk":7,"arthritis_risk":5,"migraine_risk":7,"frizz_risk":1,"updated_at":"2026-04-09T03:13:11.366621+05:30"},{"city":"Tirupur","state":"Tamil Nadu","latitude":11.1085,"longitude":77.3411,"temp":25.8,"humidity":79,"rain":0.0,"pressure":975.8,"uv_index":9.45,"wind_gusts":36.7,"aqi":59,"pm10":23.4,"pm2_5":20.1,"mosquito_risk":7,"arthritis_risk":5,"migraine_risk":7,"frizz_risk":1,"updated_at":"2026-04-09T03:13:11.366628+05:30"},{"city":"Alappuzha","state":"Kerala","latitude":9.4981,"longitude":76.3388,"temp":29.3,"humidity":75,"rain":0.0,"pressure":1009.0,"uv_index":8.7,"wind_gusts":29.5,"aqi":60,"pm10":27.0,"pm2_5":19.4,"mosquito_risk":7,"arthritis_risk":0,"migraine_risk":4,"frizz_risk":1,"updated_at":"2026-04-09T03:13:11.366635+05:30"},{"city":"Munnar","state":"Kerala","latitude":10.0889,"longitude":77.0595,"temp":20.6,"humidity":96,"rain":0.0,"pressure":857.0,"uv_index":9.45,"wind_gusts":35.3,"aqi":59,"pm10":15.9,"pm2_5":13.4,"mosquito_risk":3,"arthritis_risk":5,"migraine_risk":7,"frizz_risk":1,"updated_at":"2026-04-09T03:13:11.366642+05:30"},{"city":"Silchar","state":"Assam","latitude":24.8333,"longitude":92.7789,"temp":22.0,"humidity":82,"rain":0.0,"pressure":1007.4,"uv_index":6.3,"wind_gusts":28.1,"aqi":90,"pm10":46.0,"pm2_5":42.6,"mosquito_risk":3,"arthritis_risk":5,"migraine_risk":4,"frizz_risk":1,"updated_at":"2026-04-09T03:13:11.366649+05:30"},{"city":"Dibrugarh","state":"Assam","latitude":27.4728,"longitude":94.912,"temp":20.8,"humidity":85,"rain":0.0,"pressure":998.5,"uv_index":5.05,"wind_gusts":26.3,"aqi":70,"pm10":26.3,"pm2_5":22.9,"mosquito_risk":3,"arthritis_risk":5,"migraine_risk":3,"frizz_risk":1,"updated_at":"2026-04-09T03:13:11.366656+05:30"}]