[{"city":"Delhi","state":"Delhi","latitude":28.6139,"longitude":77.209,"temp":26.0,"humidity":40,"rain":0.0,"pressure":986.6,"uv_index":7.15,"wind_gusts":38.5,"aqi":562,"pm10":1378.4,"pm2_5":183.5,"mosquito_risk":4,"arthritis_risk":5,"migraine_risk":7,"frizz_risk":0,"updated_at":"2026-04-10T20:24:35.794816+05:30"},{"city":"Mumbai","state":"Maharashtra","latitude":19.076,"longitude":72.8777,"temp":28.6,"humidity":75,"rain":0.0,"pressure":1010.3,"uv_index":7.95,"wind_gusts":25.2,"aqi":97,"pm10":63.8,"pm2_5":35.4,"mosquito_risk":7,"arthritis_risk":0,"migraine_risk":4,"frizz_risk":1,"updated_at":"2026-04-10T20:24:35.794862+05:30"},{"city":"Bangalore","state":"Karnataka","latitude":12.9716,"longitude":77.5946,"temp":27.3,"humidity":61,"rain":0.0,"pressure":914.2,"uv_index":9.65,"wind_gusts":42.8,"aqi":187,"pm10":43.7,"pm2_5":37.7,"mosquito_risk":7,"arthritis_risk":5,"migraine_risk":7,"frizz_risk":1,"updated_at":"2026-04-10T20:24:35.794887+05:30"},{"city":"Hyderabad","state":"Telangana","latitude":17.385,"longitude":78.4867,"temp":33.4,"humidity":30,"rain":0.0,"pressure":955.1,"uv_index":9.15,"wind_gusts":19.4,"aqi":154,"pm10":65.2,"pm2_5":37.6,"mosquito_risk":0,"arthritis_risk":5,"migraine_risk":7,"frizz_risk":0,"updated_at":"2026-04-10T20:24:35.794897+05:30"},{"city":"Chennai","state":"Tamil Nadu","latitude":13.0827,"longitude":80.2707,"temp":29.4,"humidity":78,"rain":0.0,"pressure":1009.8,"uv_index":9.4,"wind_gusts":36.4,"aqi":65,"pm10":22.2,"pm2_5":16.0,"mosquito_risk":7,"arthritis_risk":0,"migraine_risk":4,"frizz_risk":1,"updated_at":"2026-04-10T20:24:35.794905+05:30"},{"city":"Kolkata","state":"West Bengal","latitude":22.5726,"longitude":88.3639,"temp":26.7,"humidity":71,"rain":0.0,"pressure":1008.1,"uv_index":8.7,"wind_gusts":21.2,"aqi":155,"pm10":105.2,"pm2_5":78.9,"mosquito_risk":7,"arthritis_risk":0,"migraine_risk":4,"frizz_risk":1,"updated_at":"2026-04-10T20:24:35.794912+05:30"},{"city":"Pune","state":"Maharashtra","latitude":18.5204,"longitude":73.8567,"temp":30.1,"humidity":58,"rain":0.0,"pressure":950.5,"uv_index":8.5,"wind_gusts":31.3,"aqi":128,"pm10":41.4,"pm2_5":24.5,"mosquito_risk":0,"arthritis_risk":5,"migraine_risk":7,"frizz_risk":1,"updated_at":"2026-04-10T20:24:35.794924+05:30"},{"city":"Ahmedabad","state":"Gujarat","latitude":23.0225,"longitude":72.5714,"temp":32.4,"humidity":24,"rain":0.0,"pressure":1005.1,"uv_index":8.0,"wind_gusts":36.7,"aqi":137,"pm10":52.3,"pm2_5":28.3,"mosquito_risk":0,"arthritis_risk":5,"migraine_risk":4,"frizz_risk":0,"updated_at":"2026-04-10T20:24:35.794931+05:30"},{"city":"Jaipur","state":"Rajasthan","latitude":26.9124,"longitude":75.7873,"temp":28.0,"humidity":28,"rain":0.0,"pressure":964.5,"uv_index":7.75,"wind_gusts":28.4,"aqi":160,"pm10":184.9,"pm2_5":34.7,"mosquito_risk":4,"arthritis_risk":5,"migraine_risk":7,"frizz_risk":0,"updated_at":"2026-04-10T20:24:35.794937+05:30"},{"city":"Lucknow","state":"Uttar Pradesh","latitude":26.8467,"longitude":80.9462,"temp":25.8,"humidity":37,"rain":0.0,"pressure":996.3,"uv_index":7.65,"wind_gusts":40.0,"aqi":130,"pm10":575.6,"pm2_5":93.4,"mosquito_risk":4,"arthritis_risk":5,"migraine_risk":7,"frizz_risk":0,"updated_at":"2026-04-10T20:24:35.794945+05:30"},{"city":"Kanpur","state":"Uttar Pradesh","latitude":26.4499,"longitude":80.3319,"temp":24.4,"humidity":50,"rain":0.0,"pressure":994.9,"uv_index":7.65,"wind_gusts":35.3,"aqi":254,"pm10":812.1,"pm2_5":110.1,"mosquito_risk":0,"arthritis_risk":5,"migraine_risk":7,"frizz_risk":0,"updated_at":"2026-04-10T20:24:35.794951+05:30"},{"city":"Chandigarh","state":"Chandigarh","latitude":30.7333,"longitude":76.7794,"temp":22.5,"humidity":50,"rain":0.0,"pressure":972.6,"uv_index":7.15,"wind_gusts":42.1,"aqi":136,"pm10":13.8,"pm2_5":12.4,"mosquito_risk":0,"arthritis_risk":5,"migraine_risk":7,"frizz_risk":0,"updated_at":"2026-04-10T20:24:35.794958+05:30"},{"city":"Srinagar","state":"Jammu and Kashmir","latitude":34.0837,"longitude":74.7973,"temp":13.3,"humidity":67,"rain":0.0,"pressure":843.1,"uv_index":8.1,"wind_gusts":12.6,"aqi":123,"pm10":53.6,"pm2_5":34.3,"mosquito_risk":3,"arthritis_risk":5,"migraine_risk":7,"frizz_risk":0,"updated_at":"2026-04-10T20:24:35.794964+05:30"},{"city":"Jammu","state":"Jammu and Kashmir","latitude":32.7266,"longitude":74.857,"temp":22.1,"humidity":53,"rain":0.0,"pressure":977.0,"uv_index":7.75,"wind_gusts":34.2,"aqi":108,"pm10":28.5,"pm2_5":19.4,"mosquito_risk":0,"arthritis_risk":5,"migraine_risk":7,"frizz_risk":0,"updated_at":"2026-04-10T20:24:35.794969+05:30"},{"city":"Amritsar","state":"Punjab","latitude":31.634,"longitude":74.8723,"temp":22.9,"humidity":51,"rain":0.0,"pressure":985.8,"uv_index":7.7,"wind_gusts":29.2,"aqi":140,"pm10":22.4,"pm2_5":18.5,"mosquito_risk":0,"arthritis_risk":5,"migraine_risk":7,"frizz_risk":0,"updated_at":"2026-04-10T20:24:35.794975+05:30"},{"city":"Ludhiana","state":"Punjab","latitude":30.901,"longitude":75.8573,"temp":24.9,"humidity":40,"rain":0.0,"pressure":983.4,"uv_index":7.3,"wind_gusts":32.8,"aqi":121,"pm10":50.8,"pm2_5":22.1,"mosquito_risk":0,"arthritis_risk":5,"migraine_risk":7,"frizz_risk":0,"updated_at":"2026-04-10T20:24:35.794980+05:30"},{"city":"Jalandhar","state":"Punjab","latitude":31.326,"longitude":75.5762,"temp":23.8,"humidity":46,"rain":0.0,"pressure":984.7,"uv_index":7.5,"wind_gusts":29.9,"aqi":133,"pm10":56.6,"pm2_5":21.5,"mosquito_risk":0,"arthritis_risk":5,"migraine_risk":7,"frizz_risk":0,"updated_at":"2026-04-10T20:24:35.794987+05:30"},{"city":"Dehradun","state":"Uttarakhand","latitude":30.6284,"longitude":78.0322,"temp":13.3,"humidity":64,"rain":0.0,"pressure":829.5,"uv_index":7.55,"wind_gusts":29.5,"aqi":139,"pm10":9.8,"pm2_5":8.6,"mosquito_risk":3,"arthritis_risk":5,"migraine_risk":7,"frizz_risk":0,"updated_at":"2026-04-10T20:24:35.794993+05:30"},{"city":"Shimla","state":"Himachal Pradesh","latitude":31.1048,"longitude":77.1734,"temp":10.9,"humidity":52,"rain":0.0,"pressure":784.7,"uv_index":7.6,"wind_gusts":50.8,"aqi":120,"pm10":12.1,"pm2_5":9.7,"mosquito_risk":0,"arthritis_risk":5,"migraine_risk":7,"frizz_risk":0,"updated_at":"2026-04-10T20:24:35.794999+05:30"},{"city":"Manali","state":"Himachal Pradesh","latitude":32.2396,"longitude":77.1887,"temp":13.6,"humidity":88,"rain":0.0,"pressure":820.6,"uv_index":9.9,"wind_gusts":32.4,"aqi":177,"pm10":15.5,"pm2_5":8.3,"mosquito_risk":3,"arthritis_risk":10,"migraine_risk":7,"frizz_risk":0,"updated_at":"2026-04-10T20:24:35.795004+05:30"},{"city":"Gurgaon","state":"Haryana","latitude":28.4595,"longitude":77.0266,"temp":23.7,"humidity":51,"rain":0.0,"pressure":985.2,"uv_index":7.25,"wind_gusts":35.6,"aqi":1676,"pm10":3151.6,"pm2_5":354.8,"mosquito_risk":0,"arthritis_risk":5,"migraine_risk":7,"frizz_risk":0,"updated_at":"2026-04-10T20:24:35.795010+05:30"},{"city":"Noida","state":"Uttar Pradesh","latitude":28.5355,"longitude":77.391,"temp":25.5,"humidity":43,"rain":0.0,"pressure":988.1,"uv_index":7.15,"wind_gusts":37.8,"aqi":1676,"pm10":3151.6,"pm2_5":354.8,"mosquito_risk":4,"arthritis_risk":5,"migraine_risk":7,"frizz_risk":0,"updated_at":"2026-04-10T20:24:35.795015+05:30"},{"city":"Ghaziabad","state":"Uttar Pradesh","latitude":28.6692,"longitude":77.4538,"temp":24.5,"humidity":45,"rain":0.0,"pressure":986.1,"uv_index":7.15,"wind_gusts":37.8,"aqi":373,"pm10":1184.6,"pm2_5":165.8,"mosquito_risk":0,"arthritis_risk":5,"migraine_risk":7,"frizz_risk":0,"updated_at":"2026-04-10T20:24:35.795021+05:30"},{"city":"Faridabad","state":"Haryana","latitude":28.4089,"longitude":77.3178,"temp":25.7,"humidity":40,"rain":0.0,"pressure":987.5,"uv_index":7.2,"wind_gusts":36.4,"aqi":1676,"pm10":3151.6,"pm2_5":354.8,"mosquito_risk":4,"arthritis_risk":5,"migraine_risk":7,"frizz_risk":0,"updated_at":"2026-04-10T20:24:35.795026+05:30"},{"city":"Meerut","state":"Uttar Pradesh","latitude":28.9845,"longitude":77.7064,"temp":22.9,"humidity":48,"rain":0.0,"pressure":984.4,"uv_index":7.05,"wind_gusts":42.5,"aqi":373,"pm10":1184.6,"pm2_5":165.8,"mosquito_risk":0,"arthritis_risk":5,"migraine_risk":7,"frizz_risk":0,"updated_at":"2026-04-10T20:24:35.795031+05:30"},{"city":"Agra","state":"Uttar Pradesh","latitude":27.1767,"longitude":78.0081,"temp":24.4,"humidity":46,"rain":0.0,"pressure":991.5,"uv_index":7.5,"wind_gusts":36.0,"aqi":897,"pm10":1557.2,"pm2_5":174.2,"mosquito_risk":0,"arthritis_risk":5,"migraine_risk":7,"frizz_risk":0,"updated_at":"2026-04-10T20:24:35.795038+05:30"},{"city":"Varanasi","state":"Uttar Pradesh","latitude":25.3176,"longitude":82.9739,"temp":25.4,"humidity":38,"rain":0.0,"pressure":1000.3,"uv_index":8.2,"wind_gusts":39.2,"aqi":154,"pm10":65.2,"pm2_5":27.9,"mosquito_risk":4,"arthritis_risk":5,"migraine_risk":4,"frizz_risk":0,"updated_at":"2026-04-10T20:24:35.795046+05:30"},{"city":"Prayagraj","state":"Uttar Pradesh","latitude":25.4358,"longitude":81.8463,"temp":26.4,"humidity":43,"rain":0.0,"pressure":999.1,"uv_index":8.05,"wind_gusts":31.7,"aqi":149,"pm10":97.3,"pm2_5":30.7,"mosquito_risk":4,"arthritis_risk":5,"migraine_risk":7,"frizz_risk":0,"updated_at":"2026-04-10T20:24:35.795052+05:30"},{"city":"Gorakhpur","state":"Uttar Pradesh","latitude":26.7606,"longitude":83.3732,"temp":25.6,"humidity":29,"rain":0.0,"pressure":999.1,"uv_index":8.05,"wind_gusts":43.2,"aqi":135,"pm10":53.6,"pm2_5":19.4,"mosquito_risk":4,"arthritis_risk":5,"migraine_risk":7,"frizz_risk":0,"updated_at":"2026-04-10T20:24:35.795057+05:30"},{"city":"Bareilly","state":"Uttar Pradesh","latitude":28.367,"longitude":79.4304,"temp":22.4,"humidity":55,"rain":0.0,"pressure":989.2,"uv_index":7.4,"wind_gusts":38.2,"aqi":129,"pm10":222.6,"pm2_5":53.8,"mosquito_risk":0,"arthritis_risk":5,"migraine_risk":7,"frizz_risk":0,"updated_at":"2026-04-10T20:24:35.795063+05:30"},{"city":"Aligarh","state":"Uttar Pradesh","latitude":27.8974,"longitude":78.088,"temp":23.4,"humidity":47,"rain":0.0,"pressure":988.9,"uv_index":7.3,"wind_gusts":38.9,"aqi":824,"pm10":2048.9,"pm2_5":263.6,"mosquito_risk":0,"arthritis_risk":5,"migraine_risk":7,"frizz_risk":0,"updated_at":"2026-04-10T20:24:35.795068+05:30"},{"city":"Moradabad","state":"Uttar Pradesh","latitude":28.8386,"longitude":78.7733,"temp":22.2,"humidity":54,"rain":0.0,"pressure":986.2,"uv_index":7.25,"wind_gusts":38.2,"aqi":114,"pm10":397.7,"pm2_5":80.8,"mosquito_risk":0,"arthritis_risk":5,"migraine_risk":7,"frizz_risk":0,"updated_at":"2026-04-10T20:24:35.795073+05:30"},{"city":"Saharanpur","state":"Uttar Pradesh","latitude":29.9637,"longitude":77.546,"temp":23.3,"humidity":43,"rain":0.0,"pressure":978.3,"uv_index":6.85,"wind_gusts":50.4,"aqi":128,"pm10":170.9,"pm2_5":34.5,"mosquito_risk":0,"arthritis_risk":5,"migraine_risk":7,"frizz_risk":0,"updated_at":"2026-04-10T20:24:35.795079+05:30"},{"city":"Jhansi","state":"Uttar Pradesh","latitude":25.4484,"longitude":78.5685,"temp":27.1,"humidity":33,"rain":0.0,"pressure":982.4,"uv_index":8.0,"wind_gusts":33.5,"aqi":135,"pm10":23.1,"pm2_5":13.7,"mosquito_risk":4,"arthritis_risk":5,"migraine_risk":7,"frizz_risk":0,"updated_at":"2026-04-10T20:24:39.055608+05:30"},{"city":"Surat","state":"Gujarat","latitude":21.1702,"longitude":72.8311,"temp":29.4,"humidity":56,"rain":0.0,"pressure":1008.6,"uv_index":7.75,"wind_gusts":19.4,"aqi":139,"pm10":67.5,"pm2_5":52.0,"mosquito_risk":4,"arthritis_risk":0,"migraine_risk":4,"frizz_risk":1,"updated_at":"2026-04-10T20:24:39.055638+05:30"},{"city":"Vadodara","state":"Gujarat","latitude":22.3072,"longitude":73.1812,"temp":31.4,"humidity":29,"rain":0.0,"pressure":1006.7,"uv_index":8.0,"wind_gusts":31.7,"aqi":129,"pm10":39.0,"pm2_5":24.9,"mosquito_risk":0,"arthritis_risk":5,"migraine_risk":4,"frizz_risk":0,"updated_at":"2026-04-10T20:24:39.055649+05:30"},{"city":"Rajkot","state":"Gujarat","latitude":22.3039,"longitude":70.8022,"temp":33.0,"humidity":25,"rain":0.0,"pressure":996.9,"uv_index":7.7,"wind_gusts":25.9,"aqi":151,"pm10":41.3,"pm2_5":21.7,"mosquito_risk":0,"arthritis_risk":5,"migraine_risk":7,"frizz_risk":0,"updated_at":"2026-04-10T20:24:39.055657+05:30"},{"city":"Thane","state":"Maharashtra","latitude":19.2183,"longitude":72.9781,"temp":28.1,"humidity":73,"rain":0.0,"pressure":1009.6,"uv_index":7.95,"wind_gusts":37.8,"aqi":97,"pm10":63.8,"pm2_5":35.4,"mosquito_risk":7,"arthritis_risk":0,"migraine_risk":4,"frizz_risk":1,"updated_at":"2026-04-10T20:24:39.055665+05:30"},{"city":"Nagpur","state":"Maharashtra","latitude":21.1458,"longitude":79.0882,"temp":29.5,"humidity":52,"rain":0.0,"pressure":975.4,"uv_index":8.75,"wind_gusts":24.1,"aqi":159,"pm10":60.1,"pm2_5":31.0,"mosquito_risk":4,"arthritis_risk":5,"migraine_risk":7,"frizz_risk":1,"updated_at":"2026-04-10T20:24:39.055672+05:30"},{"city":"Nashik","state":"Maharashtra","latitude":19.9975,"longitude":73.7898,"temp":29.9,"humidity":39,"rain":0.0,"pressure":947.9,"uv_index":8.2,"wind_gusts":28.1,"aqi":158,"pm10":41.3,"pm2_5":31.1,"mosquito_risk":4,"arthritis_risk":5,"migraine_risk":7,"frizz_risk":0,"updated_at":"2026-04-10T20:24:39.055680+05:30"},{"city":"Aurangabad","state":"Maharashtra","latitude":19.8762,"longitude":75.3433,"temp":31.6,"humidity":26,"rain":0.0,"pressure":946.4,"uv_index":8.85,"wind_gusts":28.4,"aqi":141,"pm10":33.5,"pm2_5":22.9,"mosquito_risk":0,"arthritis_risk":5,"migraine_risk":7,"frizz_risk":0,"updated_at":"2026-04-10T20:24:39.055687+05:30"},{"city":"Solapur","state":"Maharashtra","latitude":17.6599,"longitude":75.9064,"temp":34.4,"humidity":28,"rain":0.0,"pressure":958.2,"uv_index":9.0,"wind_gusts":23.4,"aqi":128,"pm10":45.3,"pm2_5":25.6,"mosquito_risk":0,"arthritis_risk":5,"migraine_risk":7,"frizz_risk":0,"updated_at":"2026-04-10T20:24:39.055694+05:30"},{"city":"Kolhapur","state":"Maharashtra","latitude":16.705,"longitude":74.2433,"temp":28.0,"humidity":56,"rain":0.0,"pressure":949.4,"uv_index":9.0,"wind_gusts":34.6,"aqi":101,"pm10":51.7,"pm2_5":33.1,"mosquito_risk":4,"arthritis_risk":5,"migraine_risk":7,"frizz_risk":1,"updated_at":"2026-04-10T20:24:39.055701+05:30"},{"city":"Goa","state":"Goa","latitude":15.2993,"longitude":74.124,"temp":28.3,"humidity":76,"rain":0.0,"pressure":999.2,"uv_index":9.0,"wind_gusts":37.1,"aqi":77,"pm10":98.7,"pm2_5":37.5,"mosquito_risk":7,"arthritis_risk":5,"migraine_risk":7,"frizz_risk":1,"updated_at":"2026-04-10T20:24:39.055708+05:30"},{"city":"Jodhpur","state":"Rajasthan","latitude":26.2389,"longitude":73.0243,"temp":28.8,"humidity":33,"rain":0.0,"pressure":987.2,"uv_index":8.0,"wind_gusts":22.7,"aqi":115,"pm10":73.8,"pm2_5":20.8,"mosquito_risk":4,"arthritis_risk":5,"migraine_risk":7,"frizz_risk":0,"updated_at":"2026-04-10T20:24:39.055716+05:30"},{"city":"Udaipur","state":"Rajasthan","latitude":24.5854,"longitude":73.7125,"temp":28.1,"humidity":27,"rain":0.0,"pressure":950.9,"uv_index":8.55,"wind_gusts":29.9,"aqi":113,"pm10":30.7,"pm2_5":11.2,"mosquito_risk":4,"arthritis_risk":5,"migraine_risk":7,"frizz_risk":0,"updated_at":"2026-04-10T20:24:39.055723+05:30"},{"city":"Kota","state":"Rajasthan","latitude":25.2138,"longitude":75.8648,"temp":28.1,"humidity":39,"rain":0.0,"pressure":983.5,"uv_index":8.0,"wind_gusts":23.8,"aqi":120,"pm10":58.9,"pm2_5":26.7,"mosquito_risk":4,"arthritis_risk":5,"migraine_risk":7,"frizz_risk":0,"updated_at":"2026-04-10T20:24:39.055730+05:30"},{"city":"Bikaner","state":"Rajasthan","latitude":28.0229,"longitude":73.3119,"temp":30.9,"humidity":25,"rain":0.0,"pressure":986.3,"uv_index":7.8,"wind_gusts":19.8,"aqi":131,"pm10":59.0,"pm2_5":16.5,"mosquito_risk":0,"arthritis_risk":5,"migraine_risk":7,"frizz_risk":0,"updated_at":"2026-04-10T20:24:39.055737+05:30"},{"city":"Ajmer","state":"Rajasthan","latitude":26.4499,"longitude":74.6399,"temp":26.2,"humidity":39,"rain":0.0,"pressure":958.9,"uv_index":7.95,"wind_gusts":20.2,"aqi":108,"pm10":48.1,"pm2_5":19.2,"mosquito_risk":4,"arthritis_risk":5,"migraine_risk":7,"frizz_risk":0,"updated_at":"2026-04-10T20:24:39.055744+05:30"},{"city":"Gwalior","state":"Madhya Pradesh","latitude":26.2183,"longitude":78.1828,"temp":25.6,"humidity":49,"rain":0.0,"pressure":987.5,"uv_index":7.75,"wind_gusts":33.1,"aqi":125,"pm10":48.8,"pm2_5":16.3,"mosquito_risk":4,"arthritis_risk":5,"migraine_risk":7,"frizz_risk":0,"updated_at":"2026-04-10T20:24:39.055750+05:30"},{"city":"Indore","state":"Madhya Pradesh","latitude":22.7196,"longitude":75.8577,"temp":27.4,"humidity":37,"rain":0.0,"pressure":951.5,"uv_index":8.45,"wind_gusts":31.0,"aqi":137,"pm10":26.1,"pm2_5":15.0,"mosquito_risk":4,"arthritis_risk":5,"migraine_risk":7,"frizz_risk":0,"updated_at":"2026-04-10T20:24:39.055757+05:30"},{"city":"Bhopal","state":"Madhya Pradesh","latitude":23.2599,"longitude":77.4126,"temp":28.9,"humidity":19,"rain":0.0,"pressure":957.5,"uv_index":8.45,"wind_gusts":30.2,"aqi":128,"pm10":19.7,"pm2_5":10.0,"mosquito_risk":4,"arthritis_risk":5,"migraine_risk":7,"frizz_risk":0,"updated_at":"2026-04-10T20:24:39.055764+05:30"},{"city":"Jabalpur","state":"Madhya Pradesh","latitude":23.1815,"longitude":79.9864,"temp":29.2,"humidity":35,"rain":0.0,"pressure":964.5,"uv_index":8.55,"wind_gusts":24.5,"aqi":127,"pm10":58.2,"pm2_5":23.3,"mosquito_risk":4,"arthritis_risk":5,"migraine_risk":7,"frizz_risk":0,"updated_at":"2026-04-10T20:24:39.055771+05:30"},{"city":"Ujjain","state":"Madhya Pradesh","latitude":23.1765,"longitude":75.7885,"temp":27.9,"humidity":34,"rain":0.0,"pressure":957.5,"uv_index":8.35,"wind_gusts":29.5,"aqi":131,"pm10":36.3,"pm2_5":20.0,"mosquito_risk":4,"arthritis_risk":5,"migraine_risk":7,"frizz_risk":0,"updated_at":"2026-04-10T20:24:39.055778+05:30"},{"city":"Visakhapatnam","state":"Andhra Pradesh","latitude":17.6868,"longitude":83.2185,"temp":28.4,"humidity":84,"rain":0.0,"pressure":1006.5,"uv_index":9.1,"wind_gusts":37.1,"aqi":97,"pm10":29.3,"pm2_5":22.6,"mosquito_risk":7,"arthritis_risk":5,"migraine_risk":4,"frizz_risk":1,"updated_at":"2026-04-10T20:24:39.055785+05:30"},{"city":"Vijayawada","state":"Andhra Pradesh","latitude":16.5062,"longitude":80.648,"temp":30.5,"humidity":69,"rain":0.0,"pressure":1004.4,"uv_index":9.2,"wind_gusts":35.6,"aqi":87,"pm10":23.6,"pm2_5":21.3,"mosquito_risk":3,"arthritis_risk":5,"migraine_risk":4,"frizz_risk":1,"updated_at":"2026-04-10T20:24:39.055791+05:30"},{"city":"Guntur","state":"Andhra Pradesh","latitude":16.3067,"longitude":80.4365,"temp":28.9,"humidity":82,"rain":0.0,"pressure":1006.0,"uv_index":9.2,"wind_gusts":33.8,"aqi":97,"pm10":30.0,"pm2_5":26.3,"mosquito_risk":7,"arthritis_risk":5,"migraine_risk":4,"frizz_risk":1,"updated_at":"2026-04-10T20:24:39.055799+05:30"},{"city":"Nellore","state":"Andhra Pradesh","latitude":14.4426,"longitude":79.9865,"temp":28.9,"humidity":82,"rain":0.0,"pressure":1008.3,"uv_index":9.3,"wind_gusts":34.9,"aqi":96,"pm10":22.5,"pm2_5":17.9,"mosquito_risk":7,"arthritis_risk":0,"migraine_risk":4,"frizz_risk":1,"updated_at":"2026-04-10T20:24:39.055807+05:30"},{"city":"Kurnool","state":"Andhra Pradesh","latitude":15.8281,"longitude":78.0373,"temp":35.2,"humidity":37,"rain":0.0,"pressure":977.5,"uv_index":9.15,"wind_gusts":25.2,"aqi":125,"pm10":44.0,"pm2_5":28.0,"mosquito_risk":0,"arthritis_risk":5,"migraine_risk":10,"frizz_risk":1,"updated_at":"2026-04-10T20:24:39.055815+05:30"},{"city":"Kakinada","state":"Andhra Pradesh","latitude":16.9891,"longitude":82.2475,"temp":29.0,"humidity":81,"rain":0.0,"pressure":1010.0,"uv_index":9.15,"wind_gusts":37.1,"aqi":74,"pm10":22.9,"pm2_5":16.0,"mosquito_risk":7,"arthritis_risk":0,"migraine_risk":4,"frizz_risk":1,"updated_at":"2026-04-10T20:24:39.055822+05:30"},{"city":"Tirupati","state":"Andhra Pradesh","latitude":13.6288,"longitude":79.4192,"temp":30.4,"humidity":67,"rain":0.0,"pressure":994.2,"uv_index":9.05,"wind_gusts":30.6,"aqi":141,"pm10":34.9,"pm2_5":31.9,"mosquito_risk":3,"arthritis_risk":5,"migraine_risk":7,"frizz_risk":1,"updated_at":"2026-04-10T20:24:39.055829+05:30"},{"city":"Warangal","state":"Telangana","latitude":17.9689,"longitude":79.5941,"temp":32.8,"humidity":37,"rain":0.0,"pressure":980.1,"uv_index":9.0,"wind_gusts":23.4,"aqi":145,"pm10":65.4,"pm2_5":42.6,"mosquito_risk":0,"arthritis_risk":5,"migraine_risk":7,"frizz_risk":1,"updated_at":"2026-04-10T20:24:39.055836+05:30"},{"city":"Nizamabad","state":"Telangana","latitude":18.6725,"longitude":78.0941,"temp":31.3,"humidity":41,"rain":0.0,"pressure":966.7,"uv_index":8.95,"wind_gusts":29.5,"aqi":139,"pm10":49.2,"pm2_5":32.5,"mosquito_risk":0,"arthritis_risk":5,"migraine_risk":7,"frizz_risk":1,"updated_at":"2026-04-10T20:24:39.055843+05:30"},{"city":"Mysore","state":"Karnataka","latitude":12.2958,"longitude":76.6396,"temp":26.7,"humidity":73,"rain":0.0,"pressure":930.5,"uv_index":9.55,"wind_gusts":37.4,"aqi":162,"pm10":48.7,"pm2_5":39.0,"mosquito_risk":7,"arthritis_risk":5,"migraine_risk":7,"frizz_risk":1,"updated_at":"2026-04-10T20:24:39.055849+05:30"},{"city":"Mangalore","state":"Karnataka","latitude":12.9141,"longitude":74.856,"temp":29.6,"humidity":78,"rain":0.0,"pressure":1007.9,"uv_index":9.15,"wind_gusts":32.4,"aqi":66,"pm10":75.0,"pm2_5":25.0,"mosquito_risk":7,"arthritis_risk":5,"migraine_risk":4,"frizz_risk":1,"updated_at":"2026-04-10T20:24:39.055856+05:30"},{"city":"Hubli-Dharwad","state":"Karnataka","latitude":15.3647,"longitude":75.124,"temp":29.0,"humidity":58,"rain":0.0,"pressure":942.0,"uv_index":9.2,"wind_gusts":36.0,"aqi":128,"pm10":54.5,"pm2_5":29.9,"mosquito_risk":4,"arthritis_risk":5,"migraine_risk":7,"frizz_risk":1,"updated_at":"2026-04-10T20:24:39.055863+05:30"},{"city":"Belgaum","state":"Karnataka","latitude":15.8497,"longitude":74.4977,"temp":26.7,"humidity":65,"rain":0.0,"pressure":927.4,"uv_index":9.25,"wind_gusts":35.3,"aqi":125,"pm10":51.9,"pm2_5":29.6,"mosquito_risk":7,"arthritis_risk":5,"migraine_risk":7,"frizz_risk":1,"updated_at":"2026-04-10T20:24:42.322964+05:30"},{"city":"Coimbatore","state":"Tamil Nadu","latitude":11.0168,"longitude":76.9558,"temp":28.3,"humidity":70,"rain":0.0,"pressure":963.7,"uv_index":9.5,"wind_gusts":36.7,"aqi":142,"pm10":33.6,"pm2_5":27.6,"mosquito_risk":7,"arthritis_risk":5,"migraine_risk":7,"frizz_risk":1,"updated_at":"2026-04-10T20:24:42.322994+05:30"},{"city":"Madurai","state":"Tamil Nadu","latitude":9.9252,"longitude":78.1198,"temp":30.6,"humidity":64,"rain":0.0,"pressure":995.2,"uv_index":9.4,"wind_gusts":41.0,"aqi":127,"pm10":21.4,"pm2_5":19.0,"mosquito_risk":3,"arthritis_risk":5,"migraine_risk":7,"frizz_risk":1,"updated_at":"2026-04-10T20:24:42.323004+05:30"},{"city":"Trichy","state":"Tamil Nadu","latitude":10.7905,"longitude":78.7047,"temp":30.7,"humidity":66,"rain":0.0,"pressure":1001.8,"uv_index":9.4,"wind_gusts":31.7,"aqi":107,"pm10":20.9,"pm2_5":18.7,"mosquito_risk":3,"arthritis_risk":5,"migraine_risk":4,"frizz_risk":1,"updated_at":"2026-04-10T20:24:42.323012+05:30"},{"city":"Salem","state":"Tamil Nadu","latitude":11.6643,"longitude":78.146,"temp":32.3,"humidity":54,"rain":0.0,"pressure":978.8,"uv_index":9.3,"wind_gusts":24.1,"aqi":163,"pm10":37.1,"pm2_5":33.8,"mosquito_risk":0,"arthritis_risk":5,"migraine_risk":7,"frizz_risk":1,"updated_at":"2026-04-10T20:24:42.323019+05:30"},{"city":"Tirunelveli","state":"Tamil Nadu","latitude":8.7139,"longitude":77.7567,"temp":29.6,"humidity":68,"rain":0.0,"pressure":1005.3,"uv_index":9.35,"wind_gusts":38.2,"aqi":140,"pm10":25.3,"pm2_5":22.1,"mosquito_risk":7,"arthritis_risk":5,"migraine_risk":4,"frizz_risk":1,"updated_at":"2026-04-10T20:24:42.323026+05:30"},{"city":"Vellore","state":"Tamil Nadu","latitude":12.9165,"longitude":79.1325,"temp":30.2,"humidity":64,"rain":0.0,"pressure":987.0,"uv_index":9.45,"wind_gusts":35.3,"aqi":139,"pm10":32.1,"pm2_5":29.9,"mosquito_risk":3,"arthritis_risk":5,"migraine_risk":7,"frizz_risk":1,"updated_at":"2026-04-10T20:24:42.323033+05:30"},{"city":"Erode","state":"Tamil Nadu","latitude":11.341,"longitude":77.7172,"temp":33.7,"humidity":47,"rain":0.0,"pressure":989.9,"uv_index":9.45,"wind_gusts":34.9,"aqi":153,"pm10":32.8,"pm2_5":29.3,"mosquito_risk":0,"arthritis_risk":5,"migraine_risk":7,"frizz_risk":1,"updated_at":"2026-04-10T20:24:42.323041+05:30"},{"city":"Kochi","state":"Kerala","latitude":9.9312,"longitude":76.2673,"temp":29.2,"humidity":80,"rain":0.0,"pressure":1010.7,"uv_index":9.25,"wind_gusts":31.7,"aqi":81,"pm10":32.0,"pm2_5":22.5,"mosquito_risk":7,"arthritis_risk":0,"migraine_risk":4,"frizz_risk":1,"updated_at":"2026-04-10T20:24:42.323048+05:30"},{"city":"Thiruvananthapuram","state":"Kerala","latitude":8.5241,"longitude":76.9366,"temp":27.8,"humidity":83,"rain":0.0,"pressure":1010.6,"uv_index":9.2,"wind_gusts":28.1,"aqi":66,"pm10":37.1,"pm2_5":19.1,"mosquito_risk":7,"arthritis_risk":0,"migraine_risk":4,"frizz_risk":1,"updated_at":"2026-04-10T20:24:42.323055+05:30"},{"city":"Kozhikode","state":"Kerala","latitude":11.2588,"longitude":75.7804,"temp":29.8,"humidity":80,"rain":0.0,"pressure":1009.3,"uv_index":9.15,"wind_gusts":30.2,"aqi":68,"pm10":54.9,"pm2_5":17.1,"mosquito_risk":7,"arthritis_risk":0,"migraine_risk":4,"frizz_risk":1,"updated_at":"2026-04-10T20:24:42.323062+05:30"},{"city":"Thrissur","state":"Kerala","latitude":10.5276,"longitude":76.2144,"temp":29.7,"humidity":79,"rain":0.0,"pressure":1008.6,"uv_index":9.2,"wind_gusts":36.0,"aqi":92,"pm10":39.0,"pm2_5":21.5,"mosquito_risk":7,"arthritis_risk":0,"migraine_risk":4,"frizz_risk":1,"updated_at":"2026-04-10T20:24:42.323069+05:30"},{"city":"Kannur","state":"Kerala","latitude":11.8745,"longitude":75.3704,"temp":29.4,"humidity":77,"rain":0.0,"pressure":1008.5,"uv_index":9.15,"wind_gusts":36.4,"aqi":68,"pm10":62.6,"pm2_5":19.6,"mosquito_risk":7,"arthritis_risk":0,"migraine_risk":4,"frizz_risk":1,"updated_at":"2026-04-10T20:24:42.323076+05:30"},{"city":"Patna","state":"Bihar","latitude":25.5941,"longitude":85.1376,"temp":26.8,"humidity":37,"rain":0.0,"pressure":1002.3,"uv_index":8.35,"wind_gusts":38.9,"aqi":135,"pm10":47.1,"pm2_5":24.4,"mosquito_risk":4,"arthritis_risk":5,"migraine_risk":4,"frizz_risk":0,"updated_at":"2026-04-10T20:24:42.323082+05:30"},{"city":"Gaya","state":"Bihar","latitude":24.7914,"longitude":85.0002,"temp":25.8,"humidity":41,"rain":0.0,"pressure":996.2,"uv_index":8.45,"wind_gusts":37.8,"aqi":148,"pm10":48.4,"pm2_5":24.6,"mosquito_risk":4,"arthritis_risk":5,"migraine_risk":7,"frizz_risk":0,"updated_at":"2026-04-10T20:24:42.323089+05:30"},{"city":"Muzaffarpur","state":"Bihar","latitude":26.1209,"longitude":85.3647,"temp":25.5,"humidity":38,"rain":0.0,"pressure":1001.9,"uv_index":8.35,"wind_gusts":36.0,"aqi":131,"pm10":43.0,"pm2_5":22.5,"mosquito_risk":4,"arthritis_risk":5,"migraine_risk":4,"frizz_risk":0,"updated_at":"2026-04-10T20:24:42.323095+05:30"},{"city":"Bhagalpur","state":"Bihar","latitude":25.2425,"longitude":87.0117,"temp":25.1,"humidity":53,"rain":0.0,"pressure":1002.7,"uv_index":8.35,"wind_gusts":34.2,"aqi":144,"pm10":34.5,"pm2_5":21.1,"mosquito_risk":4,"arthritis_risk":5,"migraine_risk":4,"frizz_risk":0,"updated_at":"2026-04-10T20:24:42.323102+05:30"},{"city":"Ranchi","state":"Jharkhand","latitude":23.3441,"longitude":85.3096,"temp":24.1,"humidity":36,"rain":0.0,"pressure":940.2,"uv_index":9.0,"wind_gusts":37.4,"aqi":124,"pm10":39.9,"pm2_5":19.7,"mosquito_risk":0,"arthritis_risk":5,"migraine_risk":7,"frizz_risk":0,"updated_at":"2026-04-10T20:24:42.323108+05:30"},{"city":"Jamshedpur","state":"Jharkhand","latitude":22.8046,"longitude":86.2029,"temp":27.0,"humidity":60,"rain":0.0,"pressure":993.0,"uv_index":8.85,"wind_gusts":16.9,"aqi":138,"pm10":71.0,"pm2_5":34.8,"mosquito_risk":4,"arthritis_risk":5,"migraine_risk":7,"frizz_risk":1,"updated_at":"2026-04-10T20:24:42.323115+05:30"},{"city":"Dhanbad","state":"Jharkhand","latitude":23.7957,"longitude":86.4304,"temp":25.8,"humidity":43,"rain":0.0,"pressure":982.0,"uv_index":8.75,"wind_gusts":31.0,"aqi":148,"pm10":57.9,"pm2_5":36.1,"mosquito_risk":4,"arthritis_risk":5,"migraine_risk":7,"frizz_risk":0,"updated_at":"2026-04-10T20:24:42.323121+05:30"},{"city":"Bokaro","state":"Jharkhand","latitude":23.6693,"longitude":86.1511,"temp":25.9,"humidity":42,"rain":0.0,"pressure":986.3,"uv_index":8.8,"wind_gusts":32.8,"aqi":132,"pm10":58.7,"pm2_5":33.4,"mosquito_risk":4,"arthritis_risk":5,"migraine_risk":7,"frizz_risk":0,"updated_at":"2026-04-10T20:24:42.323128+05:30"},{"city":"Bhubaneswar","state":"Odisha","latitude":20.2961,"longitude":85.8245,"temp":27.6,"humidity":89,"rain":0.0,"pressure":1005.3,"uv_index":9.0,"wind_gusts":24.5,"aqi":150,"pm10":43.1,"pm2_5":35.7,"mosquito_risk":7,"arthritis_risk":5,"migraine_risk":4,"frizz_risk":1,"updated_at":"2026-04-10T20:24:42.323135+05:30"},{"city":"Cuttack","state":"Odisha","latitude":20.4625,"longitude":85.8828,"temp":28.4,"humidity":82,"rain":0.0,"pressure":1007.0,"uv_index":9.0,"wind_gusts":22.7,"aqi":150,"pm10":43.1,"pm2_5":35.7,"mosquito_risk":7,"arthritis_risk":5,"migraine_risk":4,"frizz_risk":1,"updated_at":"2026-04-10T20:24:42.323142+05:30"},{"city":"Rourkela","state":"Odisha","latitude":22.2604,"longitude":84.8536,"temp":26.2,"humidity":60,"rain":0.0,"pressure":987.1,"uv_index":8.75,"wind_gusts":20.2,"aqi":118,"pm10":60.5,"pm2_5":31.7,"mosquito_risk":4,"arthritis_risk":5,"migraine_risk":7,"frizz_risk":1,"updated_at":"2026-04-10T20:24:42.323149+05:30"},{"city":"Raipur","state":"Chhattisgarh","latitude":21.2514,"longitude":81.6296,"temp":31.8,"humidity":34,"rain":0.0,"pressure":976.6,"uv_index":8.8,"wind_gusts":24.1,"aqi":177,"pm10":88.9,"pm2_5":57.4,"mosquito_risk":0,"arthritis_risk":5,"migraine_risk":7,"frizz_risk":0,"updated_at":"2026-04-10T20:24:42.323156+05:30"},{"city":"Bhilai","state":"Chhattisgarh","latitude":21.1938,"longitude":81.3509,"temp":30.2,"humidity":33,"rain":0.0,"pressure":976.9,"uv_index":8.8,"wind_gusts":22.3,"aqi":177,"pm10":81.0,"pm2_5":54.4,"mosquito_risk":0,"arthritis_risk":5,"migraine_risk":7,"frizz_risk":0,"updated_at":"2026-04-10T20:24:42.323163+05:30"},{"city":"Guwahati","state":"Assam","latitude":26.1158,"longitude":91.7086,"temp":23.0,"humidity":85,"rain":0.0,"pressure":1004.0,"uv_index":8.2,"wind_gusts":32.4,"aqi":109,"pm10":45.3,"pm2_5":37.6,"mosquito_risk":3,"arthritis_risk":5,"migraine_risk":4,"frizz_risk":1,"updated_at":"2026-04-10T20:24:42.323169+05:30"},{"city":"Agartala","state":"Tripura","latitude":23.8315,"longitude":91.2868,"temp":24.4,"humidity":81,"rain":0.0,"pressure":1008.2,"uv_index":8.55,"wind_gusts":28.8,"aqi":166,"pm10":65.4,"pm2_5":51.1,"mosquito_risk":3,"arthritis_risk":0,"migraine_risk":4,"frizz_risk":1,"updated_at":"2026-04-10T20:24:42.323176+05:30"},{"city":"Shillong","state":"Meghalaya","latitude":25.5788,"longitude":91.8933,"temp":11.8,"humidity":88,"rain":0.0,"pressure":855.7,"uv_index":7.05,"wind_gusts":50.4,"aqi":108,"pm10":36.0,"pm2_5":29.0,"mosquito_risk":3,"arthritis_risk":10,"migraine_risk":7,"frizz_risk":0,"updated_at":"2026-04-10T20:24:42.323182+05:30"},{"city":"Imphal","state":"Manipur","latitude":24.817,"longitude":93.9368,"temp":15.6,"humidity":77,"rain":0.0,"pressure":924.2,"uv_index":8.9,"wind_gusts":57.6,"aqi":104,"pm10":42.3,"pm2_5":31.4,"mosquito_risk":3,"arthritis_risk":5,"migraine_risk":7,"frizz_risk":0,"updated_at":"2026-04-10T20:24:42.323189+05:30"},{"city":"Aizawl","state":"Mizoram","latitude":23.7271,"longitude":92.7176,"temp":17.5,"humidity":75,"rain":0.0,"pressure":893.9,"uv_index":8.8,"wind_gusts":58.0,"aqi":86,"pm10":52.5,"pm2_5":27.4,"mosquito_risk":3,"arthritis_risk":5,"migraine_risk":7,"frizz_risk":0,"updated_at":"2026-04-10T20:24:42.323196+05:30"},{"city":"Kohima","state":"Nagaland","latitude":25.6701,"longitude":94.1077,"temp":12.7,"humidity":89,"rain":0.0,"pressure":854.8,"uv_index":8.4,"wind_gusts":72.0,"aqi":90,"pm10":32.5,"pm2_5":24.4,"mosquito_risk":3,"arthritis_risk":10,"migraine_risk":7,"frizz_risk":0,"updated_at":"2026-04-10T20:24:42.323203+05:30"},{"city":"Gangtok","state":"Sikkim","latitude":27.3314,"longitude":88.6138,"temp":12.8,"humidity":95,"rain":0.1,"pressure":836.6,"uv_index":8.5,"wind_gusts":15.1,"aqi":99,"pm10":40.6,"pm2_5":30.6,"mosquito_risk":6,"arthritis_risk":10,"migraine_risk":7,"frizz_risk":0,"updated_at":"2026-04-10T20:24:42.323210+05:30"},{"city":"Siliguri","state":"West Bengal","latitude":26.7271,"longitude":88.3953,"temp":20.6,"humidity":64,"rain":0.0,"pressure":995.4,"uv_index":8.2,"wind_gusts":26.6,"aqi":106,"pm10":55.5,"pm2_5":44.5,"mosquito_risk":3,"arthritis_risk":5,"migraine_risk":7,"frizz_risk":0,"updated_at":"2026-04-10T20:24:45.582990+05:30"},{"city":"Durgapur","state":"West Bengal","latitude":23.5204,"longitude":87.3119,"temp":26.6,"humidity":56,"rain":0.0,"pressure":997.4,"uv_index":8.7,"wind_gusts":20.9,"aqi":145,"pm10":54.8,"pm2_5":34.3,"mosquito_risk":4,"arthritis_risk":5,"migraine_risk":7,"frizz_risk":1,"updated_at":"2026-04-10T20:24:45.583021+05:30"},{"city":"Asansol","state":"West Bengal","latitude":23.6739,"longitude":86.9524,"temp":27.0,"humidity":47,"rain":0.0,"pressure":995.9,"uv_index":8.75,"wind_gusts":23.0,"aqi":130,"pm10":49.9,"pm2_5":29.0,"mosquito_risk":4,"arthritis_risk":5,"migraine_risk":7,"frizz_risk":0,"updated_at":"2026-04-10T20:24:45.583030+05:30"},{"city":"Pondicherry","state":"Puducherry","latitude":11.9139,"longitude":79.8145,"temp":28.7,"humidity":85,"rain":0.0,"pressure":1010.9,"uv_index":8.85,"wind_gusts":33.8,"aqi":62,"pm10":20.6,"pm2_5":14.4,"mosquito_risk":7,"arthritis_risk":0,"migraine_risk":4,"frizz_risk":1,"updated_at":"2026-04-10T20:24:45.583038+05:30"},{"city":"Port Blair","state":"Andaman and Nicobar Islands","latitude":11.6234,"longitude":92.7265,"temp":29.1,"humidity":75,"rain":0.0,"pressure":1010.1,"uv_index":9.15,"wind_gusts":16.6,"aqi":39,"pm10":3.0,"pm2_5":2.4,"mosquito_risk":7,"arthritis_risk":0,"migraine_risk":4,"frizz_risk":1,"updated_at":"2026-04-10T20:24:45.583047+05:30"},{"city":"Haridwar","state":"Uttarakhand","latitude":29.9457,"longitude":78.1642,"temp":22.5,"humidity":48,"rain":0.0,"pressure":976.6,"uv_index":6.95,"wind_gusts":45.4,"aqi":139,"pm10":88.2,"pm2_5":23.5,"mosquito_risk":0,"arthritis_risk":5,"migraine_risk":7,"frizz_risk":0,"updated_at":"2026-04-10T20:24:45.583054+05:30"},{"city":"Rishikesh","state":"Uttarakhand","latitude":30.0869,"longitude":78.2676,"temp":21.5,"humidity":51,"rain":0.0,"pressure":969.2,"uv_index":7.0,"wind_gusts":37.1,"aqi":149,"pm10":36.9,"pm2_5":16.1,"mosquito_risk":0,"arthritis_risk":5,"migraine_risk":7,"frizz_risk":0,"updated_at":"2026-04-10T20:24:45.583062+05:30"},{"city":"Nainital","state":"Uttarakhand","latitude":29.3919,"longitude":79.4542,"temp":16.7,"humidity":45,"rain":0.0,"pressure":806.6,"uv_index":7.9,"wind_gusts":57.2,"aqi":139,"pm10":64.5,"pm2_5":23.2,"mosquito_risk":0,"arthritis_risk":5,"migraine_risk":7,"frizz_risk":0,"updated_at":"2026-04-10T20:24:45.583069+05:30"},{"city":"Mussoorie","state":"Uttarakhand","latitude":30.4599,"longitude":78.0664,"temp":14.2,"humidity":58,"rain":0.0,"pressure":802.3,"uv_index":7.4,"wind_gusts":37.8,"aqi":142,"pm10":20.1,"pm2_5":16.1,"mosquito_risk":0,"arthritis_risk":5,"migraine_risk":7,"frizz_risk":0,"updated_at":"2026-04-10T20:24:45.583076+05:30"},{"city":"Dharamshala","state":"Himachal Pradesh","latitude":32.219,"longitude":76.3234,"temp":17.7,"humidity":57,"rain":0.0,"pressure":871.6,"uv_index":7.6,"wind_gusts":24.8,"aqi":151,"pm10":16.8,"pm2_5":11.8,"mosquito_risk":0,"arthritis_risk":5,"migraine_risk":7,"frizz_risk":0,"updated_at":"2026-04-10T20:24:45.583083+05:30"},{"city":"Dalhousie","state":"Himachal Pradesh","latitude":32.5387,"longitude":75.971,"temp":14.7,"humidity":55,"rain":0.0,"pressure":805.2,"uv_index":7.85,"wind_gusts":19.4,"aqi":130,"pm10":21.9,"pm2_5":17.8,"mosquito_risk":0,"arthritis_risk":5,"migraine_risk":7,"frizz_risk":0,"updated_at":"2026-04-10T20:24:45.583090+05:30"},{"city":"Patiala","state":"Punjab","latitude":30.3398,"longitude":76.3869,"temp":23.6,"humidity":44,"rain":0.0,"pressure":982.3,"uv_index":7.0,"wind_gusts":38.5,"aqi":656,"pm10":1009.6,"pm2_5":109.7,"mosquito_risk":0,"arthritis_risk":5,"migraine_risk":7,"frizz_risk":0,"updated_at":"2026-04-10T20:24:45.583097+05:30"},{"city":"Bhatinda","state":"Punjab","latitude":30.211,"longitude":74.9455,"temp":24.9,"humidity":44,"rain":0.0,"pressure":988.6,"uv_index":7.65,"wind_gusts":31.7,"aqi":142,"pm10":40.5,"pm2_5":18.7,"mosquito_risk":0,"arthritis_risk":5,"migraine_risk":7,"frizz_risk":0,"updated_at":"2026-04-10T20:24:45.583104+05:30"},{"city":"Rohtak","state":"Haryana","latitude":28.8955,"longitude":76.6066,"temp":24.7,"humidity":43,"rain":0.0,"pressure":985.7,"uv_index":7.15,"wind_gusts":38.5,"aqi":911,"pm10":1743.4,"pm2_5":206.8,"mosquito_risk":0,"arthritis_risk":5,"migraine_risk":7,"frizz_risk":0,"updated_at":"2026-04-10T20:24:45.583111+05:30"},{"city":"Panipat","state":"Haryana","latitude":29.3909,"longitude":76.9635,"temp":23.7,"humidity":42,"rain":0.0,"pressure":984.0,"uv_index":7.0,"wind_gusts":41.0,"aqi":1749,"pm10":2816.3,"pm2_5":306.4,"mosquito_risk":0,"arthritis_risk":5,"migraine_risk":7,"frizz_risk":0,"updated_at":"2026-04-10T20:24:45.583118+05:30"},{"city":"Mathura","state":"Uttar Pradesh","latitude":27.4924,"longitude":77.6737,"temp":25.9,"humidity":40,"rain":0.0,"pressure":990.6,"uv_index":7.45,"wind_gusts":34.2,"aqi":979,"pm10":1806.8,"pm2_5":205.8,"mosquito_risk":4,"arthritis_risk":5,"migraine_risk":7,"frizz_risk":0,"updated_at":"2026-04-10T20:24:45.583124+05:30"},{"city":"Vrindavan","state":"Uttar Pradesh","latitude":27.5823,"longitude":77.7027,"temp":24.0,"humidity":47,"rain":0.0,"pressure":990.9,"uv_index":7.4,"wind_gusts":37.4,"aqi":979,"pm10":1806.8,"pm2_5":205.8,"mosquito_risk":0,"arthritis_risk":5,"migraine_risk":7,"frizz_risk":0,"updated_at":"2026-04-10T20:24:45.583131+05:30"},{"city":"Ayodhya","state":"Uttar Pradesh","latitude":26.7922,"longitude":82.1998,"temp":25.4,"humidity":36,"rain":0.0,"pressure":997.7,"uv_index":7.8,"wind_gusts":49.7,"aqi":128,"pm10":178.3,"pm2_5":37.5,"mosquito_risk":4,"arthritis_risk":5,"migraine_risk":7,"frizz_risk":0,"updated_at":"2026-04-10T20:24:45.583137+05:30"},{"city":"Ratlam","state":"Madhya Pradesh","latitude":23.3315,"longitude":75.0367,"temp":27.1,"humidity":44,"rain":0.0,"pressure":958.1,"uv_index":8.3,"wind_gusts":32.4,"aqi":128,"pm10":30.6,"pm2_5":15.8,"mosquito_risk":4,"arthritis_risk":5,"migraine_risk":7,"frizz_risk":0,"updated_at":"2026-04-10T20:24:45.583144+05:30"},{"city":"Sagar","state":"Madhya Pradesh","latitude":23.8388,"longitude":78.7378,"temp":28.4,"humidity":22,"rain":0.0,"pressure":954.0,"uv_index":8.4,"wind_gusts":29.9,"aqi":126,"pm10":26.3,"pm2_5":11.1,"mosquito_risk":4,"arthritis_risk":5,"migraine_risk":7,"frizz_risk":0,"updated_at":"2026-04-10T20:24:45.583151+05:30"},{"city":"Satna","state":"Madhya Pradesh","latitude":24.6005,"longitude":80.8322,"temp":27.8,"humidity":29,"rain":0.0,"pressure":974.7,"uv_index":8.45,"wind_gusts":34.6,"aqi":133,"pm10":29.2,"pm2_5":14.4,"mosquito_risk":4,"arthritis_risk":5,"migraine_risk":7,"frizz_risk":0,"updated_at":"2026-04-10T20:24:45.583157+05:30"},{"city":"Akola","state":"Maharashtra","latitude":20.7002,"longitude":77.0082,"temp":32.9,"humidity":19,"rain":0.0,"pressure":976.9,"uv_index":8.7,"wind_gusts":24.5,"aqi":151,"pm10":64.5,"pm2_5":34.2,"mosquito_risk":0,"arthritis_risk":5,"migraine_risk":7,"frizz_risk":0,"updated_at":"2026-04-10T20:24:45.583164+05:30"},{"city":"Amravati","state":"Maharashtra","latitude":20.9374,"longitude":77.7796,"temp":32.5,"humidity":40,"rain":0.0,"pressure":969.2,"uv_index":8.7,"wind_gusts":28.4,"aqi":146,"pm10":60.5,"pm2_5":30.7,"mosquito_risk":0,"arthritis_risk":5,"migraine_risk":7,"frizz_risk":1,"updated_at":"2026-04-10T20:24:45.583172+05:30"},{"city":"Latur","state":"Maharashtra","latitude":18.4088,"longitude":76.5604,"temp":29.5,"humidity":48,"rain":0.0,"pressure":941.8,"uv_index":8.95,"wind_gusts":30.2,"aqi":135,"pm10":35.5,"pm2_5":23.7,"mosquito_risk":4,"arthritis_risk":5,"migraine_risk":7,"frizz_risk":1,"updated_at":"2026-04-10T20:24:45.583178+05:30"},{"city":"Nanded","state":"Maharashtra","latitude":19.1383,"longitude":77.3091,"temp":31.1,"humidity":42,"rain":0.0,"pressure":970.4,"uv_index":8.85,"wind_gusts":19.4,"aqi":135,"pm10":46.4,"pm2_5":29.7,"mosquito_risk":0,"arthritis_risk":5,"migraine_risk":7,"frizz_risk":1,"updated_at":"2026-04-10T20:24:45.583185+05:30"},{"city":"Gulbarga","state":"Karnataka","latitude":17.3297,"longitude":76.8343,"temp":34.3,"humidity":29,"rain":0.0,"pressure":960.1,"uv_index":9.05,"wind_gusts":26.3,"aqi":134,"pm10":35.6,"pm2_5":21.9,"mosquito_risk":0,"arthritis_risk":5,"migraine_risk":7,"frizz_risk":0,"updated_at":"2026-04-10T20:24:45.583192+05:30"},{"city":"Bidar","state":"Karnataka","latitude":17.9104,"longitude":77.5199,"temp":31.3,"humidity":36,"rain":0.0,"pressure":937.7,"uv_index":9.05,"wind_gusts":28.8,"aqi":133,"pm10":37.7,"pm2_5":24.4,"mosquito_risk":0,"arthritis_risk":5,"migraine_risk":7,"frizz_risk":0,"updated_at":"2026-04-10T20:24:45.583198+05:30"},{"city":"Hospet","state":"Karnataka","latitude":15.2689,"longitude":76.3909,"temp":34.6,"humidity":36,"rain":0.0,"pressure":956.7,"uv_index":9.25,"wind_gusts":23.4,"aqi":174,"pm10":40.3,"pm2_5":28.7,"mosquito_risk":0,"arthritis_risk":5,"migraine_risk":7,"frizz_risk":1,"updated_at":"2026-04-10T20:24:45.583205+05:30"},{"city":"Tirupur","state":"Tamil Nadu","latitude":11.1085,"longitude":77.3411,"temp":32.7,"humidity":47,"rain":0.0,"pressure":976.8,"uv_index":9.5,"wind_gusts":30.2,"aqi":166,"pm10":38.6,"pm2_5":33.3,"mosquito_risk":0,"arthritis_risk":5,"migraine_risk":7,"frizz_risk":1,"updated_at":"2026-04-10T20:24:45.583211+05:30"},{"city":"Alappuzha","state":"Kerala","latitude":9.4981,"longitude":76.3388,"temp":28.2,"humidity":83,"rain":0.0,"pressure":1011.2,"uv_index":9.2,"wind_gusts":26.6,"aqi":75,"pm10":41.6,"pm2_5":24.0,"mosquito_risk":7,"arthritis_risk":0,"migraine_risk":4,"frizz_risk":1,"updated_at":"2026-04-10T20:24:45.583218+05:30"},{"city":"Munnar","state":"Kerala","latitude":10.0889,"longitude":77.0595,"temp":23.2,"humidity":92,"rain":0.0,"pressure":859.5,"uv_index":8.1,"wind_gusts":31.3,"aqi":117,"pm10":36.2,"pm2_5":33.2,"mosquito_risk":3,"arthritis_risk":5,"migraine_risk":7,"frizz_risk":1,"updated_at":"2026-04-10T20:24:45.583225+05:30"},{"city":"Silchar","state":"Assam","latitude":24.8333,"longitude":92.7789,"temp":22.5,"humidity":79,"rain":0.0,"pressure":1007.6,"uv_index":8.55,"wind_gusts":25.9,"aqi":128,"pm10":71.7,"pm2_5":58.1,"mosquito_risk":3,"arthritis_risk":5,"migraine_risk":4,"frizz_risk":1,"updated_at":"2026-04-10T20:24:45.583231+05:30"},{"city":"Dibrugarh","state":"Assam","latitude":27.4728,"longitude":94.912,"temp":20.9,"humidity":89,"rain":0.0,"pressure":999.0,"uv_index":8.35,"wind_gusts":16.2,"aqi":96,"pm10":47.4,"pm2_5":40.9,"mosquito_risk":3,"arthritis_risk":5,"migraine_risk":7,"frizz_risk":1,"updated_at":"2026-04-10T20:24:45.583238+05:30"}]