[{"city":"Delhi","state":"Delhi","latitude":28.6139,"longitude":77.209,"temp":29.7,"humidity":33,"rain":0.0,"pressure":986.0,"uv_index":5.8,"wind_gusts":36.7,"aqi":314,"pm10":715.3,"pm2_5":103.1,"mosquito_risk":4,"arthritis_risk":5,"migraine_risk":3,"frizz_risk":0,"updated_at":"2026-03-03T17:05:46.228955+05:30"},{"city":"Mumbai","state":"Maharashtra","latitude":19.076,"longitude":72.8777,"temp":27.6,"humidity":72,"rain":0.0,"pressure":1008.6,"uv_index":7.35,"wind_gusts":25.9,"aqi":149,"pm10":54.9,"pm2_5":49.7,"mosquito_risk":7,"arthritis_risk":0,"migraine_risk":4,"frizz_risk":1,"updated_at":"2026-03-03T17:05:46.229002+05:30"},{"city":"Bangalore","state":"Karnataka","latitude":12.9716,"longitude":77.5946,"temp":30.7,"humidity":28,"rain":0.0,"pressure":912.6,"uv_index":9.1,"wind_gusts":36.0,"aqi":108,"pm10":31.8,"pm2_5":31.2,"mosquito_risk":0,"arthritis_risk":5,"migraine_risk":7,"frizz_risk":0,"updated_at":"2026-03-03T17:05:46.229017+05:30"},{"city":"Hyderabad","state":"Telangana","latitude":17.385,"longitude":78.4867,"temp":32.7,"humidity":33,"rain":0.0,"pressure":954.6,"uv_index":8.35,"wind_gusts":23.4,"aqi":136,"pm10":25.3,"pm2_5":24.4,"mosquito_risk":0,"arthritis_risk":5,"migraine_risk":7,"frizz_risk":0,"updated_at":"2026-03-03T17:05:46.229027+05:30"},{"city":"Chennai","state":"Tamil Nadu","latitude":13.0827,"longitude":80.2707,"temp":30.1,"humidity":49,"rain":0.0,"pressure":1009.0,"uv_index":8.8,"wind_gusts":30.2,"aqi":115,"pm10":35.4,"pm2_5":30.9,"mosquito_risk":0,"arthritis_risk":0,"migraine_risk":4,"frizz_risk":1,"updated_at":"2026-03-03T17:05:46.229036+05:30"},{"city":"Kolkata","state":"West Bengal","latitude":22.5726,"longitude":88.3639,"temp":29.8,"humidity":39,"rain":0.0,"pressure":1008.6,"uv_index":7.7,"wind_gusts":16.2,"aqi":177,"pm10":85.7,"pm2_5":48.1,"mosquito_risk":4,"arthritis_risk":0,"migraine_risk":4,"frizz_risk":0,"updated_at":"2026-03-03T17:05:46.229045+05:30"},{"city":"Pune","state":"Maharashtra","latitude":18.5204,"longitude":73.8567,"temp":36.0,"humidity":24,"rain":0.0,"pressure":949.1,"uv_index":7.9,"wind_gusts":32.8,"aqi":114,"pm10":20.6,"pm2_5":20.3,"mosquito_risk":0,"arthritis_risk":5,"migraine_risk":10,"frizz_risk":0,"updated_at":"2026-03-03T17:05:46.229062+05:30"},{"city":"Ahmedabad","state":"Gujarat","latitude":23.0225,"longitude":72.5714,"temp":36.5,"humidity":21,"rain":0.0,"pressure":1003.8,"uv_index":7.15,"wind_gusts":14.4,"aqi":100,"pm10":24.7,"pm2_5":15.7,"mosquito_risk":0,"arthritis_risk":5,"migraine_risk":7,"frizz_risk":0,"updated_at":"2026-03-03T17:05:46.229072+05:30"},{"city":"Jaipur","state":"Rajasthan","latitude":26.9124,"longitude":75.7873,"temp":33.5,"humidity":11,"rain":0.0,"pressure":963.5,"uv_index":6.55,"wind_gusts":29.9,"aqi":102,"pm10":107.3,"pm2_5":24.2,"mosquito_risk":0,"arthritis_risk":5,"migraine_risk":7,"frizz_risk":1,"updated_at":"2026-03-03T17:05:46.229080+05:30"},{"city":"Lucknow","state":"Uttar Pradesh","latitude":26.8467,"longitude":80.9462,"temp":30.2,"humidity":31,"rain":0.0,"pressure":996.5,"uv_index":6.3,"wind_gusts":35.6,"aqi":152,"pm10":154.1,"pm2_5":42.0,"mosquito_risk":0,"arthritis_risk":5,"migraine_risk":7,"frizz_risk":0,"updated_at":"2026-03-03T17:05:46.229088+05:30"},{"city":"Kanpur","state":"Uttar Pradesh","latitude":26.4499,"longitude":80.3319,"temp":30.4,"humidity":33,"rain":0.0,"pressure":994.8,"uv_index":6.3,"wind_gusts":28.4,"aqi":181,"pm10":309.2,"pm2_5":52.5,"mosquito_risk":0,"arthritis_risk":5,"migraine_risk":7,"frizz_risk":0,"updated_at":"2026-03-03T17:05:46.229096+05:30"},{"city":"Chandigarh","state":"Chandigarh","latitude":30.7333,"longitude":76.7794,"temp":27.0,"humidity":40,"rain":0.0,"pressure":971.5,"uv_index":5.7,"wind_gusts":33.5,"aqi":106,"pm10":29.7,"pm2_5":26.7,"mosquito_risk":4,"arthritis_risk":5,"migraine_risk":3,"frizz_risk":0,"updated_at":"2026-03-03T17:05:46.229105+05:30"},{"city":"Srinagar","state":"Jammu and Kashmir","latitude":34.0837,"longitude":74.7973,"temp":20.6,"humidity":17,"rain":0.0,"pressure":845.5,"uv_index":6.6,"wind_gusts":18.0,"aqi":140,"pm10":24.2,"pm2_5":17.1,"mosquito_risk":0,"arthritis_risk":5,"migraine_risk":7,"frizz_risk":1,"updated_at":"2026-03-03T17:05:46.229113+05:30"},{"city":"Jammu","state":"Jammu and Kashmir","latitude":32.7266,"longitude":74.857,"temp":28.1,"humidity":48,"rain":0.0,"pressure":975.3,"uv_index":6.3,"wind_gusts":20.9,"aqi":102,"pm10":28.7,"pm2_5":20.4,"mosquito_risk":4,"arthritis_risk":5,"migraine_risk":7,"frizz_risk":1,"updated_at":"2026-03-03T17:05:46.229120+05:30"},{"city":"Amritsar","state":"Punjab","latitude":31.634,"longitude":74.8723,"temp":28.5,"humidity":40,"rain":0.0,"pressure":983.7,"uv_index":6.25,"wind_gusts":25.9,"aqi":85,"pm10":23.9,"pm2_5":16.5,"mosquito_risk":4,"arthritis_risk":5,"migraine_risk":7,"frizz_risk":0,"updated_at":"2026-03-03T17:05:46.229128+05:30"},{"city":"Ludhiana","state":"Punjab","latitude":30.901,"longitude":75.8573,"temp":28.7,"humidity":37,"rain":0.0,"pressure":981.9,"uv_index":5.9,"wind_gusts":29.9,"aqi":137,"pm10":61.5,"pm2_5":34.5,"mosquito_risk":4,"arthritis_risk":5,"migraine_risk":3,"frizz_risk":0,"updated_at":"2026-03-03T17:05:46.229135+05:30"},{"city":"Jalandhar","state":"Punjab","latitude":31.326,"longitude":75.5762,"temp":28.6,"humidity":38,"rain":0.0,"pressure":982.9,"uv_index":6.05,"wind_gusts":25.9,"aqi":138,"pm10":45.8,"pm2_5":24.6,"mosquito_risk":4,"arthritis_risk":5,"migraine_risk":7,"frizz_risk":0,"updated_at":"2026-03-03T17:05:46.229146+05:30"},{"city":"Dehradun","state":"Uttarakhand","latitude":30.6284,"longitude":78.0322,"temp":18.5,"humidity":56,"rain":0.0,"pressure":832.1,"uv_index":6.05,"wind_gusts":31.0,"aqi":74,"pm10":16.4,"pm2_5":12.3,"mosquito_risk":0,"arthritis_risk":5,"migraine_risk":7,"frizz_risk":0,"updated_at":"2026-03-03T17:05:46.229153+05:30"},{"city":"Shimla","state":"Himachal Pradesh","latitude":31.1048,"longitude":77.1734,"temp":17.4,"humidity":50,"rain":0.0,"pressure":787.6,"uv_index":6.1,"wind_gusts":44.6,"aqi":78,"pm10":17.0,"pm2_5":11.0,"mosquito_risk":0,"arthritis_risk":5,"migraine_risk":7,"frizz_risk":0,"updated_at":"2026-03-03T17:05:46.229160+05:30"},{"city":"Manali","state":"Himachal Pradesh","latitude":32.2396,"longitude":77.1887,"temp":21.9,"humidity":32,"rain":0.0,"pressure":823.4,"uv_index":7.7,"wind_gusts":34.6,"aqi":78,"pm10":11.0,"pm2_5":7.3,"mosquito_risk":0,"arthritis_risk":5,"migraine_risk":7,"frizz_risk":0,"updated_at":"2026-03-03T17:05:46.229167+05:30"},{"city":"Gurgaon","state":"Haryana","latitude":28.4595,"longitude":77.0266,"temp":28.9,"humidity":37,"rain":0.0,"pressure":984.6,"uv_index":5.9,"wind_gusts":33.8,"aqi":1138,"pm10":1836.6,"pm2_5":198.8,"mosquito_risk":4,"arthritis_risk":5,"migraine_risk":3,"frizz_risk":0,"updated_at":"2026-03-03T17:05:46.229173+05:30"},{"city":"Noida","state":"Uttar Pradesh","latitude":28.5355,"longitude":77.391,"temp":30.1,"humidity":31,"rain":0.0,"pressure":987.5,"uv_index":5.8,"wind_gusts":36.4,"aqi":1138,"pm10":1836.6,"pm2_5":198.8,"mosquito_risk":0,"arthritis_risk":5,"migraine_risk":3,"frizz_risk":0,"updated_at":"2026-03-03T17:05:46.229180+05:30"},{"city":"Ghaziabad","state":"Uttar Pradesh","latitude":28.6692,"longitude":77.4538,"temp":29.2,"humidity":36,"rain":0.0,"pressure":985.6,"uv_index":5.75,"wind_gusts":36.0,"aqi":212,"pm10":601.6,"pm2_5":93.6,"mosquito_risk":4,"arthritis_risk":5,"migraine_risk":3,"frizz_risk":0,"updated_at":"2026-03-03T17:05:46.229187+05:30"},{"city":"Faridabad","state":"Haryana","latitude":28.4089,"longitude":77.3178,"temp":28.9,"humidity":36,"rain":0.0,"pressure":986.8,"uv_index":5.85,"wind_gusts":32.8,"aqi":1138,"pm10":1836.6,"pm2_5":198.8,"mosquito_risk":4,"arthritis_risk":5,"migraine_risk":3,"frizz_risk":0,"updated_at":"2026-03-03T17:05:46.229193+05:30"},{"city":"Meerut","state":"Uttar Pradesh","latitude":28.9845,"longitude":77.7064,"temp":29.0,"humidity":38,"rain":0.0,"pressure":984.1,"uv_index":5.65,"wind_gusts":41.4,"aqi":212,"pm10":601.6,"pm2_5":93.6,"mosquito_risk":4,"arthritis_risk":5,"migraine_risk":3,"frizz_risk":0,"updated_at":"2026-03-03T17:05:46.229199+05:30"},{"city":"Agra","state":"Uttar Pradesh","latitude":27.1767,"longitude":78.0081,"temp":31.5,"humidity":25,"rain":0.0,"pressure":991.1,"uv_index":6.15,"wind_gusts":30.6,"aqi":470,"pm10":653.8,"pm2_5":74.5,"mosquito_risk":0,"arthritis_risk":5,"migraine_risk":7,"frizz_risk":0,"updated_at":"2026-03-03T17:05:46.229206+05:30"},{"city":"Varanasi","state":"Uttar Pradesh","latitude":25.3176,"longitude":82.9739,"temp":28.6,"humidity":42,"rain":0.0,"pressure":1001.1,"uv_index":6.95,"wind_gusts":23.0,"aqi":110,"pm10":56.9,"pm2_5":31.9,"mosquito_risk":4,"arthritis_risk":5,"migraine_risk":4,"frizz_risk":0,"updated_at":"2026-03-03T17:05:46.229215+05:30"},{"city":"Prayagraj","state":"Uttar Pradesh","latitude":25.4358,"longitude":81.8463,"temp":29.0,"humidity":43,"rain":0.0,"pressure":999.4,"uv_index":6.8,"wind_gusts":23.0,"aqi":118,"pm10":55.3,"pm2_5":31.4,"mosquito_risk":4,"arthritis_risk":5,"migraine_risk":7,"frizz_risk":0,"updated_at":"2026-03-03T17:05:46.229224+05:30"},{"city":"Gorakhpur","state":"Uttar Pradesh","latitude":26.7606,"longitude":83.3732,"temp":27.5,"humidity":44,"rain":0.0,"pressure":1000.6,"uv_index":6.65,"wind_gusts":16.9,"aqi":150,"pm10":102.7,"pm2_5":44.2,"mosquito_risk":4,"arthritis_risk":5,"migraine_risk":4,"frizz_risk":0,"updated_at":"2026-03-03T17:05:46.229231+05:30"},{"city":"Bareilly","state":"Uttar Pradesh","latitude":28.367,"longitude":79.4304,"temp":28.1,"humidity":50,"rain":0.0,"pressure":989.4,"uv_index":6.0,"wind_gusts":28.8,"aqi":126,"pm10":100.8,"pm2_5":46.7,"mosquito_risk":4,"arthritis_risk":5,"migraine_risk":3,"frizz_risk":1,"updated_at":"2026-03-03T17:05:46.229238+05:30"},{"city":"Aligarh","state":"Uttar Pradesh","latitude":27.8974,"longitude":78.088,"temp":29.5,"humidity":33,"rain":0.0,"pressure":988.6,"uv_index":5.9,"wind_gusts":34.9,"aqi":629,"pm10":1076.6,"pm2_5":138.3,"mosquito_risk":4,"arthritis_risk":5,"migraine_risk":3,"frizz_risk":0,"updated_at":"2026-03-03T17:05:46.229244+05:30"},{"city":"Moradabad","state":"Uttar Pradesh","latitude":28.8386,"longitude":78.7733,"temp":28.5,"humidity":40,"rain":0.0,"pressure":986.0,"uv_index":5.8,"wind_gusts":28.8,"aqi":133,"pm10":87.3,"pm2_5":39.5,"mosquito_risk":4,"arthritis_risk":5,"migraine_risk":3,"frizz_risk":0,"updated_at":"2026-03-03T17:05:46.229250+05:30"},{"city":"Saharanpur","state":"Uttar Pradesh","latitude":29.9637,"longitude":77.546,"temp":27.6,"humidity":33,"rain":0.0,"pressure":977.5,"uv_index":5.45,"wind_gusts":43.2,"aqi":127,"pm10":158.8,"pm2_5":44.0,"mosquito_risk":4,"arthritis_risk":5,"migraine_risk":3,"frizz_risk":0,"updated_at":"2026-03-03T17:05:46.229256+05:30"},{"city":"Jhansi","state":"Uttar Pradesh","latitude":25.4484,"longitude":78.5685,"temp":32.7,"humidity":26,"rain":0.0,"pressure":981.3,"uv_index":6.7,"wind_gusts":26.6,"aqi":88,"pm10":47.5,"pm2_5":22.7,"mosquito_risk":0,"arthritis_risk":5,"migraine_risk":7,"frizz_risk":0,"updated_at":"2026-03-03T17:05:49.568456+05:30"},{"city":"Surat","state":"Gujarat","latitude":21.1702,"longitude":72.8311,"temp":31.5,"humidity":47,"rain":0.0,"pressure":1008.4,"uv_index":7.05,"wind_gusts":27.0,"aqi":161,"pm10":52.3,"pm2_5":48.9,"mosquito_risk":0,"arthritis_risk":0,"migraine_risk":4,"frizz_risk":1,"updated_at":"2026-03-03T17:05:49.568490+05:30"},{"city":"Vadodara","state":"Gujarat","latitude":22.3072,"longitude":73.1812,"temp":36.9,"humidity":23,"rain":0.0,"pressure":1005.7,"uv_index":7.15,"wind_gusts":13.3,"aqi":154,"pm10":27.2,"pm2_5":23.1,"mosquito_risk":0,"arthritis_risk":5,"migraine_risk":7,"frizz_risk":0,"updated_at":"2026-03-03T17:05:49.568501+05:30"},{"city":"Rajkot","state":"Gujarat","latitude":22.3039,"longitude":70.8022,"temp":35.9,"humidity":21,"rain":0.0,"pressure":996.0,"uv_index":7.0,"wind_gusts":17.6,"aqi":62,"pm10":16.0,"pm2_5":11.1,"mosquito_risk":0,"arthritis_risk":5,"migraine_risk":10,"frizz_risk":0,"updated_at":"2026-03-03T17:05:49.568511+05:30"},{"city":"Thane","state":"Maharashtra","latitude":19.2183,"longitude":72.9781,"temp":30.9,"humidity":49,"rain":0.0,"pressure":1008.4,"uv_index":7.35,"wind_gusts":36.7,"aqi":149,"pm10":54.9,"pm2_5":49.7,"mosquito_risk":0,"arthritis_risk":0,"migraine_risk":4,"frizz_risk":1,"updated_at":"2026-03-03T17:05:49.568520+05:30"},{"city":"Nagpur","state":"Maharashtra","latitude":21.1458,"longitude":79.0882,"temp":34.1,"humidity":24,"rain":0.0,"pressure":975.0,"uv_index":7.7,"wind_gusts":17.6,"aqi":82,"pm10":28.0,"pm2_5":20.0,"mosquito_risk":0,"arthritis_risk":5,"migraine_risk":7,"frizz_risk":0,"updated_at":"2026-03-03T17:05:49.568528+05:30"},{"city":"Nashik","state":"Maharashtra","latitude":19.9975,"longitude":73.7898,"temp":34.3,"humidity":24,"rain":0.0,"pressure":946.8,"uv_index":7.55,"wind_gusts":31.0,"aqi":111,"pm10":21.4,"pm2_5":20.6,"mosquito_risk":0,"arthritis_risk":5,"migraine_risk":7,"frizz_risk":0,"updated_at":"2026-03-03T17:05:49.568537+05:30"},{"city":"Aurangabad","state":"Maharashtra","latitude":19.8762,"longitude":75.3433,"temp":34.5,"humidity":26,"rain":0.0,"pressure":945.5,"uv_index":8.05,"wind_gusts":25.2,"aqi":118,"pm10":20.5,"pm2_5":19.4,"mosquito_risk":0,"arthritis_risk":5,"migraine_risk":7,"frizz_risk":0,"updated_at":"2026-03-03T17:05:49.568545+05:30"},{"city":"Solapur","state":"Maharashtra","latitude":17.6599,"longitude":75.9064,"temp":34.0,"humidity":30,"rain":0.0,"pressure":958.0,"uv_index":8.25,"wind_gusts":18.0,"aqi":124,"pm10":30.7,"pm2_5":30.2,"mosquito_risk":0,"arthritis_risk":5,"migraine_risk":7,"frizz_risk":0,"updated_at":"2026-03-03T17:05:49.568554+05:30"},{"city":"Kolhapur","state":"Maharashtra","latitude":16.705,"longitude":74.2433,"temp":33.7,"humidity":29,"rain":0.0,"pressure":948.2,"uv_index":8.4,"wind_gusts":39.2,"aqi":134,"pm10":49.9,"pm2_5":49.2,"mosquito_risk":0,"arthritis_risk":5,"migraine_risk":7,"frizz_risk":0,"updated_at":"2026-03-03T17:05:49.568562+05:30"},{"city":"Goa","state":"Goa","latitude":15.2993,"longitude":74.124,"temp":29.2,"humidity":70,"rain":0.0,"pressure":997.8,"uv_index":8.45,"wind_gusts":34.2,"aqi":76,"pm10":29.3,"pm2_5":23.6,"mosquito_risk":7,"arthritis_risk":5,"migraine_risk":7,"frizz_risk":1,"updated_at":"2026-03-03T17:05:49.568571+05:30"},{"city":"Jodhpur","state":"Rajasthan","latitude":26.2389,"longitude":73.0243,"temp":35.4,"humidity":19,"rain":0.0,"pressure":986.2,"uv_index":6.85,"wind_gusts":15.8,"aqi":71,"pm10":52.6,"pm2_5":15.2,"mosquito_risk":0,"arthritis_risk":5,"migraine_risk":10,"frizz_risk":0,"updated_at":"2026-03-03T17:05:49.568579+05:30"},{"city":"Udaipur","state":"Rajasthan","latitude":24.5854,"longitude":73.7125,"temp":32.6,"humidity":24,"rain":0.0,"pressure":949.9,"uv_index":7.45,"wind_gusts":18.4,"aqi":75,"pm10":33.2,"pm2_5":16.5,"mosquito_risk":0,"arthritis_risk":5,"migraine_risk":7,"frizz_risk":0,"updated_at":"2026-03-03T17:05:49.568587+05:30"},{"city":"Kota","state":"Rajasthan","latitude":25.2138,"longitude":75.8648,"temp":34.4,"humidity":20,"rain":0.0,"pressure":981.9,"uv_index":6.85,"wind_gusts":19.4,"aqi":87,"pm10":43.4,"pm2_5":20.0,"mosquito_risk":0,"arthritis_risk":5,"migraine_risk":7,"frizz_risk":0,"updated_at":"2026-03-03T17:05:49.568595+05:30"},{"city":"Bikaner","state":"Rajasthan","latitude":28.0229,"longitude":73.3119,"temp":33.8,"humidity":18,"rain":0.0,"pressure":985.6,"uv_index":6.55,"wind_gusts":21.6,"aqi":68,"pm10":41.8,"pm2_5":16.3,"mosquito_risk":0,"arthritis_risk":5,"migraine_risk":7,"frizz_risk":0,"updated_at":"2026-03-03T17:05:49.568603+05:30"},{"city":"Ajmer","state":"Rajasthan","latitude":26.4499,"longitude":74.6399,"temp":32.7,"humidity":12,"rain":0.0,"pressure":958.5,"uv_index":6.8,"wind_gusts":25.9,"aqi":76,"pm10":36.4,"pm2_5":15.3,"mosquito_risk":0,"arthritis_risk":5,"migraine_risk":7,"frizz_risk":1,"updated_at":"2026-03-03T17:05:49.568611+05:30"},{"city":"Gwalior","state":"Madhya Pradesh","latitude":26.2183,"longitude":78.1828,"temp":30.4,"humidity":42,"rain":0.0,"pressure":986.7,"uv_index":6.45,"wind_gusts":29.5,"aqi":127,"pm10":35.0,"pm2_5":19.4,"mosquito_risk":0,"arthritis_risk":5,"migraine_risk":7,"frizz_risk":1,"updated_at":"2026-03-03T17:05:49.568619+05:30"},{"city":"Indore","state":"Madhya Pradesh","latitude":22.7196,"longitude":75.8577,"temp":31.5,"humidity":30,"rain":0.0,"pressure":950.9,"uv_index":7.4,"wind_gusts":16.9,"aqi":90,"pm10":19.2,"pm2_5":15.6,"mosquito_risk":0,"arthritis_risk":5,"migraine_risk":7,"frizz_risk":0,"updated_at":"2026-03-03T17:05:49.568627+05:30"},{"city":"Bhopal","state":"Madhya Pradesh","latitude":23.2599,"longitude":77.4126,"temp":31.5,"humidity":31,"rain":0.0,"pressure":956.8,"uv_index":7.3,"wind_gusts":22.3,"aqi":89,"pm10":27.7,"pm2_5":18.0,"mosquito_risk":0,"arthritis_risk":5,"migraine_risk":7,"frizz_risk":0,"updated_at":"2026-03-03T17:05:49.568635+05:30"},{"city":"Jabalpur","state":"Madhya Pradesh","latitude":23.1815,"longitude":79.9864,"temp":31.7,"humidity":27,"rain":0.0,"pressure":964.6,"uv_index":7.4,"wind_gusts":17.6,"aqi":71,"pm10":28.6,"pm2_5":15.3,"mosquito_risk":0,"arthritis_risk":5,"migraine_risk":7,"frizz_risk":0,"updated_at":"2026-03-03T17:05:49.568642+05:30"},{"city":"Ujjain","state":"Madhya Pradesh","latitude":23.1765,"longitude":75.7885,"temp":31.6,"humidity":31,"rain":0.0,"pressure":956.7,"uv_index":7.3,"wind_gusts":15.5,"aqi":103,"pm10":23.5,"pm2_5":19.0,"mosquito_risk":0,"arthritis_risk":5,"migraine_risk":7,"frizz_risk":0,"updated_at":"2026-03-03T17:05:49.568651+05:30"},{"city":"Visakhapatnam","state":"Andhra Pradesh","latitude":17.6868,"longitude":83.2185,"temp":29.7,"humidity":54,"rain":0.0,"pressure":1005.3,"uv_index":8.35,"wind_gusts":34.2,"aqi":131,"pm10":50.3,"pm2_5":46.1,"mosquito_risk":4,"arthritis_risk":5,"migraine_risk":4,"frizz_risk":1,"updated_at":"2026-03-03T17:05:49.568659+05:30"},{"city":"Vijayawada","state":"Andhra Pradesh","latitude":16.5062,"longitude":80.648,"temp":34.5,"humidity":35,"rain":0.0,"pressure":1003.2,"uv_index":8.4,"wind_gusts":27.7,"aqi":137,"pm10":47.6,"pm2_5":46.2,"mosquito_risk":0,"arthritis_risk":5,"migraine_risk":4,"frizz_risk":1,"updated_at":"2026-03-03T17:05:49.568687+05:30"},{"city":"Guntur","state":"Andhra Pradesh","latitude":16.3067,"longitude":80.4365,"temp":34.3,"humidity":35,"rain":0.0,"pressure":1004.5,"uv_index":8.4,"wind_gusts":28.8,"aqi":128,"pm10":37.7,"pm2_5":36.4,"mosquito_risk":0,"arthritis_risk":5,"migraine_risk":4,"frizz_risk":1,"updated_at":"2026-03-03T17:05:49.568696+05:30"},{"city":"Nellore","state":"Andhra Pradesh","latitude":14.4426,"longitude":79.9865,"temp":32.0,"humidity":34,"rain":0.0,"pressure":1007.4,"uv_index":8.6,"wind_gusts":29.2,"aqi":115,"pm10":35.2,"pm2_5":31.3,"mosquito_risk":0,"arthritis_risk":5,"migraine_risk":4,"frizz_risk":0,"updated_at":"2026-03-03T17:05:49.568706+05:30"},{"city":"Kurnool","state":"Andhra Pradesh","latitude":15.8281,"longitude":78.0373,"temp":35.9,"humidity":25,"rain":0.0,"pressure":977.2,"uv_index":8.45,"wind_gusts":29.2,"aqi":117,"pm10":27.4,"pm2_5":26.3,"mosquito_risk":0,"arthritis_risk":5,"migraine_risk":10,"frizz_risk":0,"updated_at":"2026-03-03T17:05:49.568715+05:30"},{"city":"Kakinada","state":"Andhra Pradesh","latitude":16.9891,"longitude":82.2475,"temp":31.7,"humidity":41,"rain":0.0,"pressure":1008.4,"uv_index":8.35,"wind_gusts":34.9,"aqi":127,"pm10":41.0,"pm2_5":35.4,"mosquito_risk":0,"arthritis_risk":0,"migraine_risk":4,"frizz_risk":1,"updated_at":"2026-03-03T17:05:49.568723+05:30"},{"city":"Tirupati","state":"Andhra Pradesh","latitude":13.6288,"longitude":79.4192,"temp":33.2,"humidity":28,"rain":0.0,"pressure":992.5,"uv_index":8.75,"wind_gusts":37.1,"aqi":151,"pm10":38.6,"pm2_5":36.6,"mosquito_risk":0,"arthritis_risk":5,"migraine_risk":7,"frizz_risk":0,"updated_at":"2026-03-03T17:05:49.568731+05:30"},{"city":"Warangal","state":"Telangana","latitude":17.9689,"longitude":79.5941,"temp":34.2,"humidity":30,"rain":0.0,"pressure":979.9,"uv_index":8.2,"wind_gusts":14.0,"aqi":147,"pm10":22.9,"pm2_5":21.3,"mosquito_risk":0,"arthritis_risk":5,"migraine_risk":7,"frizz_risk":0,"updated_at":"2026-03-03T17:05:49.568739+05:30"},{"city":"Nizamabad","state":"Telangana","latitude":18.6725,"longitude":78.0941,"temp":33.9,"humidity":30,"rain":0.0,"pressure":966.2,"uv_index":8.1,"wind_gusts":24.5,"aqi":103,"pm10":19.0,"pm2_5":16.6,"mosquito_risk":0,"arthritis_risk":5,"migraine_risk":7,"frizz_risk":0,"updated_at":"2026-03-03T17:05:49.568747+05:30"},{"city":"Mysore","state":"Karnataka","latitude":12.2958,"longitude":76.6396,"temp":32.5,"humidity":24,"rain":0.0,"pressure":928.2,"uv_index":9.15,"wind_gusts":32.8,"aqi":132,"pm10":28.8,"pm2_5":28.1,"mosquito_risk":0,"arthritis_risk":5,"migraine_risk":7,"frizz_risk":0,"updated_at":"2026-03-03T17:05:49.568755+05:30"},{"city":"Mangalore","state":"Karnataka","latitude":12.9141,"longitude":74.856,"temp":28.5,"humidity":77,"rain":0.0,"pressure":1006.0,"uv_index":8.7,"wind_gusts":29.2,"aqi":85,"pm10":26.3,"pm2_5":19.5,"mosquito_risk":7,"arthritis_risk":5,"migraine_risk":4,"frizz_risk":1,"updated_at":"2026-03-03T17:05:49.568763+05:30"},{"city":"Hubli-Dharwad","state":"Karnataka","latitude":15.3647,"longitude":75.124,"temp":33.8,"humidity":29,"rain":0.0,"pressure":940.8,"uv_index":8.6,"wind_gusts":25.6,"aqi":117,"pm10":39.1,"pm2_5":38.3,"mosquito_risk":0,"arthritis_risk":5,"migraine_risk":7,"frizz_risk":0,"updated_at":"2026-03-03T17:05:49.568771+05:30"},{"city":"Belgaum","state":"Karnataka","latitude":15.8497,"longitude":74.4977,"temp":33.4,"humidity":29,"rain":0.0,"pressure":926.1,"uv_index":8.65,"wind_gusts":32.0,"aqi":156,"pm10":44.1,"pm2_5":43.3,"mosquito_risk":0,"arthritis_risk":5,"migraine_risk":7,"frizz_risk":0,"updated_at":"2026-03-03T17:05:52.907402+05:30"},{"city":"Coimbatore","state":"Tamil Nadu","latitude":11.0168,"longitude":76.9558,"temp":33.3,"humidity":24,"rain":0.0,"pressure":961.4,"uv_index":9.15,"wind_gusts":43.6,"aqi":124,"pm10":32.7,"pm2_5":31.9,"mosquito_risk":0,"arthritis_risk":5,"migraine_risk":7,"frizz_risk":0,"updated_at":"2026-03-03T17:05:52.907433+05:30"},{"city":"Madurai","state":"Tamil Nadu","latitude":9.9252,"longitude":78.1198,"temp":35.0,"humidity":23,"rain":0.0,"pressure":992.4,"uv_index":9.1,"wind_gusts":33.8,"aqi":113,"pm10":23.3,"pm2_5":21.9,"mosquito_risk":0,"arthritis_risk":5,"migraine_risk":7,"frizz_risk":0,"updated_at":"2026-03-03T17:05:52.907443+05:30"},{"city":"Trichy","state":"Tamil Nadu","latitude":10.7905,"longitude":78.7047,"temp":34.0,"humidity":28,"rain":0.0,"pressure":999.9,"uv_index":9.0,"wind_gusts":31.0,"aqi":113,"pm10":26.5,"pm2_5":24.9,"mosquito_risk":0,"arthritis_risk":5,"migraine_risk":7,"frizz_risk":0,"updated_at":"2026-03-03T17:05:52.907451+05:30"},{"city":"Salem","state":"Tamil Nadu","latitude":11.6643,"longitude":78.146,"temp":34.8,"humidity":25,"rain":0.0,"pressure":977.0,"uv_index":9.0,"wind_gusts":40.7,"aqi":134,"pm10":31.1,"pm2_5":30.0,"mosquito_risk":0,"arthritis_risk":5,"migraine_risk":7,"frizz_risk":0,"updated_at":"2026-03-03T17:05:52.907458+05:30"},{"city":"Tirunelveli","state":"Tamil Nadu","latitude":8.7139,"longitude":77.7567,"temp":33.7,"humidity":35,"rain":0.0,"pressure":1002.7,"uv_index":9.1,"wind_gusts":42.5,"aqi":104,"pm10":18.6,"pm2_5":17.3,"mosquito_risk":0,"arthritis_risk":5,"migraine_risk":4,"frizz_risk":1,"updated_at":"2026-03-03T17:05:52.907465+05:30"},{"city":"Vellore","state":"Tamil Nadu","latitude":12.9165,"longitude":79.1325,"temp":32.4,"humidity":30,"rain":0.0,"pressure":985.4,"uv_index":8.85,"wind_gusts":38.5,"aqi":149,"pm10":31.4,"pm2_5":29.3,"mosquito_risk":0,"arthritis_risk":5,"migraine_risk":7,"frizz_risk":0,"updated_at":"2026-03-03T17:05:52.907472+05:30"},{"city":"Erode","state":"Tamil Nadu","latitude":11.341,"longitude":77.7172,"temp":36.4,"humidity":22,"rain":0.0,"pressure":988.0,"uv_index":9.05,"wind_gusts":36.0,"aqi":118,"pm10":34.8,"pm2_5":33.6,"mosquito_risk":0,"arthritis_risk":5,"migraine_risk":10,"frizz_risk":0,"updated_at":"2026-03-03T17:05:52.907479+05:30"},{"city":"Kochi","state":"Kerala","latitude":9.9312,"longitude":76.2673,"temp":28.3,"humidity":79,"rain":0.0,"pressure":1007.6,"uv_index":8.95,"wind_gusts":33.1,"aqi":108,"pm10":33.4,"pm2_5":31.8,"mosquito_risk":7,"arthritis_risk":5,"migraine_risk":4,"frizz_risk":1,"updated_at":"2026-03-03T17:05:52.907486+05:30"},{"city":"Thiruvananthapuram","state":"Kerala","latitude":8.5241,"longitude":76.9366,"temp":28.3,"humidity":70,"rain":0.0,"pressure":1007.9,"uv_index":8.95,"wind_gusts":27.0,"aqi":132,"pm10":34.6,"pm2_5":32.1,"mosquito_risk":7,"arthritis_risk":5,"migraine_risk":4,"frizz_risk":1,"updated_at":"2026-03-03T17:05:52.907494+05:30"},{"city":"Kozhikode","state":"Kerala","latitude":11.2588,"longitude":75.7804,"temp":29.1,"humidity":77,"rain":0.0,"pressure":1007.1,"uv_index":8.85,"wind_gusts":36.4,"aqi":73,"pm10":23.9,"pm2_5":17.9,"mosquito_risk":7,"arthritis_risk":5,"migraine_risk":4,"frizz_risk":1,"updated_at":"2026-03-03T17:05:52.907500+05:30"},{"city":"Thrissur","state":"Kerala","latitude":10.5276,"longitude":76.2144,"temp":30.3,"humidity":69,"rain":0.0,"pressure":1005.9,"uv_index":8.9,"wind_gusts":38.9,"aqi":106,"pm10":31.2,"pm2_5":30.2,"mosquito_risk":3,"arthritis_risk":5,"migraine_risk":4,"frizz_risk":1,"updated_at":"2026-03-03T17:05:52.907508+05:30"},{"city":"Kannur","state":"Kerala","latitude":11.8745,"longitude":75.3704,"temp":29.7,"humidity":69,"rain":0.0,"pressure":1006.9,"uv_index":8.8,"wind_gusts":38.2,"aqi":70,"pm10":26.4,"pm2_5":21.4,"mosquito_risk":7,"arthritis_risk":5,"migraine_risk":4,"frizz_risk":1,"updated_at":"2026-03-03T17:05:52.907514+05:30"},{"city":"Patna","state":"Bihar","latitude":25.5941,"longitude":85.1376,"temp":28.9,"humidity":36,"rain":0.0,"pressure":1004.0,"uv_index":7.1,"wind_gusts":16.9,"aqi":147,"pm10":152.7,"pm2_5":49.0,"mosquito_risk":4,"arthritis_risk":5,"migraine_risk":4,"frizz_risk":0,"updated_at":"2026-03-03T17:05:52.907521+05:30"},{"city":"Gaya","state":"Bihar","latitude":24.7914,"longitude":85.0002,"temp":26.9,"humidity":44,"rain":0.0,"pressure":997.4,"uv_index":7.2,"wind_gusts":23.0,"aqi":100,"pm10":64.3,"pm2_5":28.2,"mosquito_risk":4,"arthritis_risk":5,"migraine_risk":7,"frizz_risk":0,"updated_at":"2026-03-03T17:05:52.907527+05:30"},{"city":"Muzaffarpur","state":"Bihar","latitude":26.1209,"longitude":85.3647,"temp":28.4,"humidity":37,"rain":0.0,"pressure":1004.0,"uv_index":7.05,"wind_gusts":10.4,"aqi":154,"pm10":143.4,"pm2_5":49.8,"mosquito_risk":4,"arthritis_risk":5,"migraine_risk":4,"frizz_risk":0,"updated_at":"2026-03-03T17:05:52.907534+05:30"},{"city":"Bhagalpur","state":"Bihar","latitude":25.2425,"longitude":87.0117,"temp":26.4,"humidity":48,"rain":0.0,"pressure":1005.0,"uv_index":7.15,"wind_gusts":13.0,"aqi":133,"pm10":66.8,"pm2_5":42.4,"mosquito_risk":4,"arthritis_risk":5,"migraine_risk":4,"frizz_risk":0,"updated_at":"2026-03-03T17:05:52.907540+05:30"},{"city":"Ranchi","state":"Jharkhand","latitude":23.3441,"longitude":85.3096,"temp":27.5,"humidity":27,"rain":0.0,"pressure":940.6,"uv_index":7.9,"wind_gusts":40.7,"aqi":95,"pm10":51.1,"pm2_5":21.4,"mosquito_risk":4,"arthritis_risk":5,"migraine_risk":7,"frizz_risk":0,"updated_at":"2026-03-03T17:05:52.907546+05:30"},{"city":"Jamshedpur","state":"Jharkhand","latitude":22.8046,"longitude":86.2029,"temp":31.7,"humidity":27,"rain":0.0,"pressure":993.0,"uv_index":7.75,"wind_gusts":14.4,"aqi":94,"pm10":73.3,"pm2_5":28.3,"mosquito_risk":0,"arthritis_risk":5,"migraine_risk":7,"frizz_risk":0,"updated_at":"2026-03-03T17:05:52.907552+05:30"},{"city":"Dhanbad","state":"Jharkhand","latitude":23.7957,"longitude":86.4304,"temp":31.9,"humidity":18,"rain":0.0,"pressure":982.4,"uv_index":7.65,"wind_gusts":27.7,"aqi":102,"pm10":72.2,"pm2_5":26.1,"mosquito_risk":0,"arthritis_risk":5,"migraine_risk":7,"frizz_risk":0,"updated_at":"2026-03-03T17:05:52.907558+05:30"},{"city":"Bokaro","state":"Jharkhand","latitude":23.6693,"longitude":86.1511,"temp":30.9,"humidity":18,"rain":0.0,"pressure":986.4,"uv_index":7.65,"wind_gusts":32.8,"aqi":105,"pm10":66.4,"pm2_5":25.8,"mosquito_risk":0,"arthritis_risk":5,"migraine_risk":7,"frizz_risk":0,"updated_at":"2026-03-03T17:05:52.907564+05:30"},{"city":"Bhubaneswar","state":"Odisha","latitude":20.2961,"longitude":85.8245,"temp":34.5,"humidity":16,"rain":0.0,"pressure":1004.2,"uv_index":8.1,"wind_gusts":26.6,"aqi":152,"pm10":46.9,"pm2_5":28.9,"mosquito_risk":0,"arthritis_risk":5,"migraine_risk":4,"frizz_risk":0,"updated_at":"2026-03-03T17:05:52.907571+05:30"},{"city":"Cuttack","state":"Odisha","latitude":20.4625,"longitude":85.8828,"temp":34.3,"humidity":20,"rain":0.0,"pressure":1006.0,"uv_index":8.1,"wind_gusts":26.3,"aqi":152,"pm10":46.9,"pm2_5":28.9,"mosquito_risk":0,"arthritis_risk":5,"migraine_risk":4,"frizz_risk":0,"updated_at":"2026-03-03T17:05:52.907577+05:30"},{"city":"Rourkela","state":"Odisha","latitude":22.2604,"longitude":84.8536,"temp":33.3,"humidity":25,"rain":0.0,"pressure":987.0,"uv_index":7.7,"wind_gusts":27.4,"aqi":93,"pm10":58.0,"pm2_5":24.4,"mosquito_risk":0,"arthritis_risk":5,"migraine_risk":7,"frizz_risk":0,"updated_at":"2026-03-03T17:05:52.907583+05:30"},{"city":"Raipur","state":"Chhattisgarh","latitude":21.2514,"longitude":81.6296,"temp":33.7,"humidity":20,"rain":0.0,"pressure":976.9,"uv_index":7.8,"wind_gusts":14.4,"aqi":116,"pm10":36.1,"pm2_5":24.3,"mosquito_risk":0,"arthritis_risk":5,"migraine_risk":7,"frizz_risk":0,"updated_at":"2026-03-03T17:05:52.907589+05:30"},{"city":"Bhilai","state":"Chhattisgarh","latitude":21.1938,"longitude":81.3509,"temp":33.7,"humidity":22,"rain":0.0,"pressure":977.2,"uv_index":7.8,"wind_gusts":13.7,"aqi":114,"pm10":37.7,"pm2_5":26.2,"mosquito_risk":0,"arthritis_risk":5,"migraine_risk":7,"frizz_risk":0,"updated_at":"2026-03-03T17:05:52.907595+05:30"},{"city":"Guwahati","state":"Assam","latitude":26.1158,"longitude":91.7086,"temp":27.3,"humidity":47,"rain":0.0,"pressure":1004.7,"uv_index":7.1,"wind_gusts":22.0,"aqi":156,"pm10":93.4,"pm2_5":71.7,"mosquito_risk":4,"arthritis_risk":5,"migraine_risk":4,"frizz_risk":0,"updated_at":"2026-03-03T17:05:52.907601+05:30"},{"city":"Agartala","state":"Tripura","latitude":23.8315,"longitude":91.2868,"temp":26.5,"humidity":63,"rain":0.0,"pressure":1009.0,"uv_index":7.45,"wind_gusts":15.8,"aqi":181,"pm10":81.0,"pm2_5":65.7,"mosquito_risk":7,"arthritis_risk":0,"migraine_risk":4,"frizz_risk":1,"updated_at":"2026-03-03T17:05:52.907607+05:30"},{"city":"Shillong","state":"Meghalaya","latitude":25.5788,"longitude":91.8933,"temp":14.9,"humidity":62,"rain":0.0,"pressure":857.7,"uv_index":7.45,"wind_gusts":28.4,"aqi":146,"pm10":82.9,"pm2_5":60.3,"mosquito_risk":3,"arthritis_risk":5,"migraine_risk":7,"frizz_risk":0,"updated_at":"2026-03-03T17:05:52.907613+05:30"},{"city":"Imphal","state":"Manipur","latitude":24.817,"longitude":93.9368,"temp":18.6,"humidity":58,"rain":0.0,"pressure":924.7,"uv_index":7.65,"wind_gusts":32.8,"aqi":161,"pm10":66.1,"pm2_5":58.3,"mosquito_risk":0,"arthritis_risk":5,"migraine_risk":7,"frizz_risk":0,"updated_at":"2026-03-03T17:05:52.907620+05:30"},{"city":"Aizawl","state":"Mizoram","latitude":23.7271,"longitude":92.7176,"temp":20.8,"humidity":48,"rain":0.0,"pressure":894.3,"uv_index":7.65,"wind_gusts":32.8,"aqi":161,"pm10":46.8,"pm2_5":37.5,"mosquito_risk":0,"arthritis_risk":5,"migraine_risk":7,"frizz_risk":0,"updated_at":"2026-03-03T17:05:52.907626+05:30"},{"city":"Kohima","state":"Nagaland","latitude":25.6701,"longitude":94.1077,"temp":14.4,"humidity":86,"rain":0.0,"pressure":855.9,"uv_index":6.65,"wind_gusts":45.0,"aqi":153,"pm10":72.4,"pm2_5":58.8,"mosquito_risk":3,"arthritis_risk":10,"migraine_risk":7,"frizz_risk":0,"updated_at":"2026-03-03T17:05:52.907632+05:30"},{"city":"Gangtok","state":"Sikkim","latitude":27.3314,"longitude":88.6138,"temp":14.7,"humidity":79,"rain":0.0,"pressure":839.4,"uv_index":7.4,"wind_gusts":19.4,"aqi":151,"pm10":82.0,"pm2_5":58.9,"mosquito_risk":3,"arthritis_risk":5,"migraine_risk":7,"frizz_risk":0,"updated_at":"2026-03-03T17:05:52.907639+05:30"},{"city":"Siliguri","state":"West Bengal","latitude":26.7271,"longitude":88.3953,"temp":21.2,"humidity":71,"rain":0.0,"pressure":998.0,"uv_index":7.1,"wind_gusts":20.2,"aqi":164,"pm10":83.1,"pm2_5":54.6,"mosquito_risk":3,"arthritis_risk":5,"migraine_risk":7,"frizz_risk":0,"updated_at":"2026-03-03T17:05:56.247035+05:30"},{"city":"Durgapur","state":"West Bengal","latitude":23.5204,"longitude":87.3119,"temp":31.6,"humidity":23,"rain":0.0,"pressure":997.5,"uv_index":7.65,"wind_gusts":26.6,"aqi":94,"pm10":74.5,"pm2_5":27.4,"mosquito_risk":0,"arthritis_risk":5,"migraine_risk":7,"frizz_risk":0,"updated_at":"2026-03-03T17:05:56.247068+05:30"},{"city":"Asansol","state":"West Bengal","latitude":23.6739,"longitude":86.9524,"temp":31.7,"humidity":23,"rain":0.0,"pressure":996.0,"uv_index":7.65,"wind_gusts":22.7,"aqi":87,"pm10":75.7,"pm2_5":26.3,"mosquito_risk":0,"arthritis_risk":5,"migraine_risk":7,"frizz_risk":0,"updated_at":"2026-03-03T17:05:56.247080+05:30"},{"city":"Pondicherry","state":"Puducherry","latitude":11.9139,"longitude":79.8145,"temp":30.3,"humidity":48,"rain":0.0,"pressure":1009.6,"uv_index":8.85,"wind_gusts":28.1,"aqi":107,"pm10":32.9,"pm2_5":29.0,"mosquito_risk":0,"arthritis_risk":0,"migraine_risk":4,"frizz_risk":1,"updated_at":"2026-03-03T17:05:56.247090+05:30"},{"city":"Port Blair","state":"Andaman and Nicobar Islands","latitude":11.6234,"longitude":92.7265,"temp":27.6,"humidity":76,"rain":0.0,"pressure":1008.0,"uv_index":8.8,"wind_gusts":15.5,"aqi":84,"pm10":38.2,"pm2_5":28.1,"mosquito_risk":7,"arthritis_risk":0,"migraine_risk":4,"frizz_risk":1,"updated_at":"2026-03-03T17:05:56.247100+05:30"},{"city":"Haridwar","state":"Uttarakhand","latitude":29.9457,"longitude":78.1642,"temp":28.7,"humidity":35,"rain":0.0,"pressure":976.3,"uv_index":5.55,"wind_gusts":22.3,"aqi":112,"pm10":60.3,"pm2_5":31.5,"mosquito_risk":4,"arthritis_risk":5,"migraine_risk":3,"frizz_risk":0,"updated_at":"2026-03-03T17:05:56.247109+05:30"},{"city":"Rishikesh","state":"Uttarakhand","latitude":30.0869,"longitude":78.2676,"temp":27.2,"humidity":52,"rain":0.0,"pressure":969.3,"uv_index":5.6,"wind_gusts":23.8,"aqi":103,"pm10":35.9,"pm2_5":28.6,"mosquito_risk":4,"arthritis_risk":5,"migraine_risk":3,"frizz_risk":1,"updated_at":"2026-03-03T17:05:56.247118+05:30"},{"city":"Nainital","state":"Uttarakhand","latitude":29.3919,"longitude":79.4542,"temp":17.9,"humidity":68,"rain":0.0,"pressure":807.7,"uv_index":6.4,"wind_gusts":54.7,"aqi":112,"pm10":51.9,"pm2_5":39.6,"mosquito_risk":3,"arthritis_risk":5,"migraine_risk":7,"frizz_risk":0,"updated_at":"2026-03-03T17:05:56.247127+05:30"},{"city":"Mussoorie","state":"Uttarakhand","latitude":30.4599,"longitude":78.0664,"temp":18.6,"humidity":60,"rain":0.0,"pressure":804.8,"uv_index":5.95,"wind_gusts":41.8,"aqi":112,"pm10":34.1,"pm2_5":28.5,"mosquito_risk":0,"arthritis_risk":5,"migraine_risk":3,"frizz_risk":0,"updated_at":"2026-03-03T17:05:56.247136+05:30"},{"city":"Dharamshala","state":"Himachal Pradesh","latitude":32.219,"longitude":76.3234,"temp":22.7,"humidity":47,"rain":0.0,"pressure":872.0,"uv_index":6.2,"wind_gusts":23.4,"aqi":77,"pm10":16.1,"pm2_5":10.9,"mosquito_risk":0,"arthritis_risk":5,"migraine_risk":7,"frizz_risk":0,"updated_at":"2026-03-03T17:05:56.247144+05:30"},{"city":"Dalhousie","state":"Himachal Pradesh","latitude":32.5387,"longitude":75.971,"temp":21.3,"humidity":38,"rain":0.0,"pressure":807.2,"uv_index":6.4,"wind_gusts":19.8,"aqi":89,"pm10":26.3,"pm2_5":20.8,"mosquito_risk":0,"arthritis_risk":5,"migraine_risk":7,"frizz_risk":0,"updated_at":"2026-03-03T17:05:56.247153+05:30"},{"city":"Patiala","state":"Punjab","latitude":30.3398,"longitude":76.3869,"temp":28.1,"humidity":38,"rain":0.0,"pressure":981.1,"uv_index":5.6,"wind_gusts":34.2,"aqi":218,"pm10":478.7,"pm2_5":73.1,"mosquito_risk":4,"arthritis_risk":5,"migraine_risk":3,"frizz_risk":0,"updated_at":"2026-03-03T17:05:56.247162+05:30"},{"city":"Bhatinda","state":"Punjab","latitude":30.211,"longitude":74.9455,"temp":29.2,"humidity":39,"rain":0.0,"pressure":987.1,"uv_index":6.25,"wind_gusts":28.1,"aqi":134,"pm10":54.9,"pm2_5":36.1,"mosquito_risk":4,"arthritis_risk":5,"migraine_risk":7,"frizz_risk":0,"updated_at":"2026-03-03T17:05:56.247170+05:30"},{"city":"Rohtak","state":"Haryana","latitude":28.8955,"longitude":76.6066,"temp":29.0,"humidity":38,"rain":0.0,"pressure":985.1,"uv_index":5.8,"wind_gusts":33.8,"aqi":452,"pm10":879.2,"pm2_5":109.2,"mosquito_risk":4,"arthritis_risk":5,"migraine_risk":3,"frizz_risk":0,"updated_at":"2026-03-03T17:05:56.247178+05:30"},{"city":"Panipat","state":"Haryana","latitude":29.3909,"longitude":76.9635,"temp":28.6,"humidity":40,"rain":0.0,"pressure":983.2,"uv_index":5.6,"wind_gusts":37.4,"aqi":1007,"pm10":1624.2,"pm2_5":181.6,"mosquito_risk":4,"arthritis_risk":5,"migraine_risk":3,"frizz_risk":0,"updated_at":"2026-03-03T17:05:56.247186+05:30"},{"city":"Mathura","state":"Uttar Pradesh","latitude":27.4924,"longitude":77.6737,"temp":31.2,"humidity":27,"rain":0.0,"pressure":990.1,"uv_index":6.1,"wind_gusts":29.9,"aqi":528,"pm10":817.7,"pm2_5":94.1,"mosquito_risk":0,"arthritis_risk":5,"migraine_risk":7,"frizz_risk":0,"updated_at":"2026-03-03T17:05:56.247194+05:30"},{"city":"Vrindavan","state":"Uttar Pradesh","latitude":27.5823,"longitude":77.7027,"temp":30.4,"humidity":30,"rain":0.0,"pressure":990.5,"uv_index":6.05,"wind_gusts":32.4,"aqi":528,"pm10":817.7,"pm2_5":94.1,"mosquito_risk":0,"arthritis_risk":5,"migraine_risk":7,"frizz_risk":0,"updated_at":"2026-03-03T17:05:56.247202+05:30"},{"city":"Ayodhya","state":"Uttar Pradesh","latitude":26.7922,"longitude":82.1998,"temp":29.0,"humidity":40,"rain":0.0,"pressure":998.4,"uv_index":6.45,"wind_gusts":25.6,"aqi":142,"pm10":68.5,"pm2_5":43.0,"mosquito_risk":4,"arthritis_risk":5,"migraine_risk":7,"frizz_risk":0,"updated_at":"2026-03-03T17:05:56.247210+05:30"},{"city":"Ratlam","state":"Madhya Pradesh","latitude":23.3315,"longitude":75.0367,"temp":32.6,"humidity":31,"rain":0.0,"pressure":957.3,"uv_index":7.25,"wind_gusts":13.0,"aqi":91,"pm10":23.0,"pm2_5":18.3,"mosquito_risk":0,"arthritis_risk":5,"migraine_risk":7,"frizz_risk":0,"updated_at":"2026-03-03T17:05:56.247219+05:30"},{"city":"Sagar","state":"Madhya Pradesh","latitude":23.8388,"longitude":78.7378,"temp":31.2,"humidity":31,"rain":0.0,"pressure":953.4,"uv_index":7.2,"wind_gusts":25.6,"aqi":76,"pm10":41.3,"pm2_5":17.2,"mosquito_risk":0,"arthritis_risk":5,"migraine_risk":7,"frizz_risk":0,"updated_at":"2026-03-03T17:05:56.247226+05:30"},{"city":"Satna","state":"Madhya Pradesh","latitude":24.6005,"longitude":80.8322,"temp":32.1,"humidity":22,"rain":0.0,"pressure":974.4,"uv_index":7.2,"wind_gusts":30.2,"aqi":85,"pm10":50.8,"pm2_5":22.9,"mosquito_risk":0,"arthritis_risk":5,"migraine_risk":7,"frizz_risk":0,"updated_at":"2026-03-03T17:05:56.247233+05:30"},{"city":"Akola","state":"Maharashtra","latitude":20.7002,"longitude":77.0082,"temp":35.7,"humidity":24,"rain":0.0,"pressure":976.3,"uv_index":7.75,"wind_gusts":20.2,"aqi":93,"pm10":22.8,"pm2_5":19.7,"mosquito_risk":0,"arthritis_risk":5,"migraine_risk":10,"frizz_risk":0,"updated_at":"2026-03-03T17:05:56.247241+05:30"},{"city":"Amravati","state":"Maharashtra","latitude":20.9374,"longitude":77.7796,"temp":35.2,"humidity":26,"rain":0.0,"pressure":968.8,"uv_index":7.75,"wind_gusts":16.6,"aqi":88,"pm10":22.8,"pm2_5":18.8,"mosquito_risk":0,"arthritis_risk":5,"migraine_risk":10,"frizz_risk":0,"updated_at":"2026-03-03T17:05:56.247249+05:30"},{"city":"Latur","state":"Maharashtra","latitude":18.4088,"longitude":76.5604,"temp":33.1,"humidity":28,"rain":0.0,"pressure":941.2,"uv_index":8.2,"wind_gusts":31.0,"aqi":128,"pm10":24.9,"pm2_5":24.0,"mosquito_risk":0,"arthritis_risk":5,"migraine_risk":7,"frizz_risk":0,"updated_at":"2026-03-03T17:05:56.247255+05:30"},{"city":"Nanded","state":"Maharashtra","latitude":19.1383,"longitude":77.3091,"temp":35.3,"humidity":24,"rain":0.0,"pressure":969.8,"uv_index":8.0,"wind_gusts":19.4,"aqi":96,"pm10":17.6,"pm2_5":15.4,"mosquito_risk":0,"arthritis_risk":5,"migraine_risk":10,"frizz_risk":0,"updated_at":"2026-03-03T17:05:56.247262+05:30"},{"city":"Gulbarga","state":"Karnataka","latitude":17.3297,"longitude":76.8343,"temp":35.0,"humidity":27,"rain":0.0,"pressure":959.4,"uv_index":8.3,"wind_gusts":17.3,"aqi":129,"pm10":30.4,"pm2_5":29.7,"mosquito_risk":0,"arthritis_risk":5,"migraine_risk":7,"frizz_risk":0,"updated_at":"2026-03-03T17:05:56.247269+05:30"},{"city":"Bidar","state":"Karnataka","latitude":17.9104,"longitude":77.5199,"temp":33.8,"humidity":22,"rain":0.0,"pressure":936.9,"uv_index":8.25,"wind_gusts":19.8,"aqi":106,"pm10":22.2,"pm2_5":20.8,"mosquito_risk":0,"arthritis_risk":5,"migraine_risk":7,"frizz_risk":0,"updated_at":"2026-03-03T17:05:56.247275+05:30"},{"city":"Hospet","state":"Karnataka","latitude":15.2689,"longitude":76.3909,"temp":34.8,"humidity":26,"rain":0.0,"pressure":955.9,"uv_index":8.6,"wind_gusts":25.6,"aqi":129,"pm10":37.3,"pm2_5":36.3,"mosquito_risk":0,"arthritis_risk":5,"migraine_risk":7,"frizz_risk":0,"updated_at":"2026-03-03T17:05:56.247282+05:30"},{"city":"Tirupur","state":"Tamil Nadu","latitude":11.1085,"longitude":77.3411,"temp":35.0,"humidity":22,"rain":0.0,"pressure":974.7,"uv_index":9.15,"wind_gusts":33.8,"aqi":130,"pm10":38.4,"pm2_5":37.5,"mosquito_risk":0,"arthritis_risk":5,"migraine_risk":7,"frizz_risk":0,"updated_at":"2026-03-03T17:05:56.247288+05:30"},{"city":"Alappuzha","state":"Kerala","latitude":9.4981,"longitude":76.3388,"temp":28.3,"humidity":78,"rain":0.0,"pressure":1007.9,"uv_index":8.95,"wind_gusts":30.6,"aqi":122,"pm10":30.5,"pm2_5":28.2,"mosquito_risk":7,"arthritis_risk":5,"migraine_risk":4,"frizz_risk":1,"updated_at":"2026-03-03T17:05:56.247295+05:30"},{"city":"Munnar","state":"Kerala","latitude":10.0889,"longitude":77.0595,"temp":28.7,"humidity":33,"rain":0.0,"pressure":858.5,"uv_index":9.45,"wind_gusts":20.9,"aqi":102,"pm10":26.6,"pm2_5":25.5,"mosquito_risk":4,"arthritis_risk":5,"migraine_risk":7,"frizz_risk":0,"updated_at":"2026-03-03T17:05:56.247302+05:30"},{"city":"Silchar","state":"Assam","latitude":24.8333,"longitude":92.7789,"temp":27.8,"humidity":49,"rain":0.0,"pressure":1007.3,"uv_index":7.4,"wind_gusts":20.2,"aqi":162,"pm10":69.2,"pm2_5":56.5,"mosquito_risk":4,"arthritis_risk":5,"migraine_risk":4,"frizz_risk":1,"updated_at":"2026-03-03T17:05:56.247309+05:30"},{"city":"Dibrugarh","state":"Assam","latitude":27.4728,"longitude":94.912,"temp":25.9,"humidity":58,"rain":0.0,"pressure":998.1,"uv_index":7.1,"wind_gusts":11.2,"aqi":154,"pm10":65.4,"pm2_5":48.1,"mosquito_risk":4,"arthritis_risk":5,"migraine_risk":7,"frizz_risk":1,"updated_at":"2026-03-03T17:05:56.247316+05:30"}]