[{"city":"Delhi","state":"Delhi","latitude":28.6139,"longitude":77.209,"temp":40.7,"humidity":15,"rain":0.0,"pressure":978.1,"uv_index":7.8,"wind_gusts":36.4,"aqi":534,"pm10":663.1,"pm2_5":127.6,"no2":12.3,"co":262.0,"o3":133.0,"so2":12.1,"mosquito_risk":0,"arthritis_risk":5,"migraine_risk":10,"frizz_risk":0,"updated_at":"2026-05-22T17:52:37.937965+05:30"},{"city":"Mumbai","state":"Maharashtra","latitude":19.076,"longitude":72.8777,"temp":31.5,"humidity":70,"rain":0.0,"pressure":1007.9,"uv_index":7.15,"wind_gusts":35.6,"aqi":61,"pm10":27.5,"pm2_5":19.2,"no2":12.2,"co":219.0,"o3":81.0,"so2":7.7,"mosquito_risk":3,"arthritis_risk":5,"migraine_risk":4,"frizz_risk":1,"updated_at":"2026-05-22T17:52:37.938006+05:30"},{"city":"Bangalore","state":"Karnataka","latitude":12.9716,"longitude":77.5946,"temp":28.5,"humidity":54,"rain":0.0,"pressure":911.6,"uv_index":7.45,"wind_gusts":44.3,"aqi":47,"pm10":12.0,"pm2_5":9.2,"no2":14.5,"co":1183.0,"o3":91.0,"so2":3.8,"mosquito_risk":4,"arthritis_risk":5,"migraine_risk":7,"frizz_risk":1,"updated_at":"2026-05-22T17:52:37.938021+05:30"},{"city":"Hyderabad","state":"Telangana","latitude":17.385,"longitude":78.4867,"temp":37.5,"humidity":36,"rain":0.0,"pressure":951.6,"uv_index":7.45,"wind_gusts":50.4,"aqi":107,"pm10":41.6,"pm2_5":29.6,"no2":6.2,"co":277.0,"o3":145.0,"so2":8.1,"mosquito_risk":0,"arthritis_risk":5,"migraine_risk":10,"frizz_risk":1,"updated_at":"2026-05-22T17:52:37.938031+05:30"},{"city":"Chennai","state":"Tamil Nadu","latitude":13.0827,"longitude":80.2707,"temp":34.2,"humidity":58,"rain":0.0,"pressure":1003.7,"uv_index":9.05,"wind_gusts":41.8,"aqi":106,"pm10":31.0,"pm2_5":21.8,"no2":6.7,"co":253.0,"o3":146.0,"so2":6.3,"mosquito_risk":0,"arthritis_risk":5,"migraine_risk":4,"frizz_risk":1,"updated_at":"2026-05-22T17:52:37.938039+05:30"},{"city":"Kolkata","state":"West Bengal","latitude":22.5726,"longitude":88.3639,"temp":32.5,"humidity":85,"rain":0.0,"pressure":1000.5,"uv_index":8.95,"wind_gusts":36.7,"aqi":118,"pm10":42.4,"pm2_5":30.2,"no2":6.5,"co":384.0,"o3":85.0,"so2":6.5,"mosquito_risk":3,"arthritis_risk":5,"migraine_risk":4,"frizz_risk":1,"updated_at":"2026-05-22T17:52:37.938047+05:30"},{"city":"Pune","state":"Maharashtra","latitude":18.5204,"longitude":73.8567,"temp":28.4,"humidity":67,"rain":0.0,"pressure":948.3,"uv_index":8.45,"wind_gusts":36.0,"aqi":62,"pm10":15.3,"pm2_5":12.9,"no2":10.0,"co":279.0,"o3":89.0,"so2":4.8,"mosquito_risk":7,"arthritis_risk":5,"migraine_risk":7,"frizz_risk":1,"updated_at":"2026-05-22T17:52:37.938073+05:30"},{"city":"Ahmedabad","state":"Gujarat","latitude":23.0225,"longitude":72.5714,"temp":41.5,"humidity":18,"rain":0.0,"pressure":998.4,"uv_index":8.15,"wind_gusts":42.1,"aqi":73,"pm10":38.6,"pm2_5":19.0,"no2":2.4,"co":171.0,"o3":102.0,"so2":2.5,"mosquito_risk":0,"arthritis_risk":5,"migraine_risk":10,"frizz_risk":0,"updated_at":"2026-05-22T17:52:37.938083+05:30"},{"city":"Jaipur","state":"Rajasthan","latitude":26.9124,"longitude":75.7873,"temp":39.2,"humidity":15,"rain":0.0,"pressure":956.8,"uv_index":8.25,"wind_gusts":42.1,"aqi":150,"pm10":269.2,"pm2_5":51.1,"no2":1.9,"co":160.0,"o3":103.0,"so2":2.4,"mosquito_risk":0,"arthritis_risk":5,"migraine_risk":10,"frizz_risk":0,"updated_at":"2026-05-22T17:52:37.938094+05:30"},{"city":"Lucknow","state":"Uttar Pradesh","latitude":26.8467,"longitude":80.9462,"temp":41.0,"humidity":22,"rain":0.0,"pressure":987.7,"uv_index":8.25,"wind_gusts":37.8,"aqi":173,"pm10":203.0,"pm2_5":60.3,"no2":6.9,"co":210.0,"o3":140.0,"so2":8.1,"mosquito_risk":0,"arthritis_risk":5,"migraine_risk":10,"frizz_risk":0,"updated_at":"2026-05-22T17:52:37.938102+05:30"},{"city":"Kanpur","state":"Uttar Pradesh","latitude":26.4499,"longitude":80.3319,"temp":41.3,"humidity":15,"rain":0.0,"pressure":985.9,"uv_index":8.25,"wind_gusts":39.6,"aqi":285,"pm10":532.7,"pm2_5":86.1,"no2":4.4,"co":174.0,"o3":123.0,"so2":4.8,"mosquito_risk":0,"arthritis_risk":5,"migraine_risk":10,"frizz_risk":0,"updated_at":"2026-05-22T17:52:37.938108+05:30"},{"city":"Chandigarh","state":"Chandigarh","latitude":30.7333,"longitude":76.7794,"temp":37.1,"humidity":19,"rain":0.0,"pressure":965.6,"uv_index":7.75,"wind_gusts":68.8,"aqi":109,"pm10":91.7,"pm2_5":29.0,"no2":3.5,"co":252.0,"o3":129.0,"so2":6.2,"mosquito_risk":0,"arthritis_risk":5,"migraine_risk":10,"frizz_risk":0,"updated_at":"2026-05-22T17:52:37.938115+05:30"},{"city":"Srinagar","state":"Jammu and Kashmir","latitude":34.0837,"longitude":74.7973,"temp":16.0,"humidity":83,"rain":0.1,"pressure":843.6,"uv_index":8.95,"wind_gusts":37.8,"aqi":63,"pm10":34.9,"pm2_5":13.2,"no2":4.9,"co":284.0,"o3":109.0,"so2":2.7,"mosquito_risk":6,"arthritis_risk":10,"migraine_risk":7,"frizz_risk":0,"updated_at":"2026-05-22T17:52:37.938123+05:30"},{"city":"Jammu","state":"Jammu and Kashmir","latitude":32.7266,"longitude":74.857,"temp":35.3,"humidity":23,"rain":0.0,"pressure":970.1,"uv_index":8.55,"wind_gusts":41.8,"aqi":82,"pm10":108.3,"pm2_5":30.0,"no2":2.8,"co":166.0,"o3":125.0,"so2":1.7,"mosquito_risk":0,"arthritis_risk":5,"migraine_risk":10,"frizz_risk":0,"updated_at":"2026-05-22T17:52:37.938129+05:30"},{"city":"Amritsar","state":"Punjab","latitude":31.634,"longitude":74.8723,"temp":37.0,"humidity":23,"rain":0.0,"pressure":977.9,"uv_index":8.45,"wind_gusts":56.2,"aqi":83,"pm10":92.0,"pm2_5":30.9,"no2":5.7,"co":183.0,"o3":123.0,"so2":4.0,"mosquito_risk":0,"arthritis_risk":5,"migraine_risk":10,"frizz_risk":0,"updated_at":"2026-05-22T17:52:37.938136+05:30"},{"city":"Ludhiana","state":"Punjab","latitude":30.901,"longitude":75.8573,"temp":37.4,"humidity":23,"rain":0.0,"pressure":975.6,"uv_index":8.05,"wind_gusts":42.8,"aqi":95,"pm10":97.3,"pm2_5":31.1,"no2":2.4,"co":201.0,"o3":127.0,"so2":3.4,"mosquito_risk":0,"arthritis_risk":5,"migraine_risk":10,"frizz_risk":0,"updated_at":"2026-05-22T17:52:37.938142+05:30"},{"city":"Jalandhar","state":"Punjab","latitude":31.326,"longitude":75.5762,"temp":37.0,"humidity":23,"rain":0.0,"pressure":976.6,"uv_index":8.2,"wind_gusts":47.5,"aqi":90,"pm10":98.0,"pm2_5":29.9,"no2":2.5,"co":236.0,"o3":126.0,"so2":2.5,"mosquito_risk":0,"arthritis_risk":5,"migraine_risk":10,"frizz_risk":0,"updated_at":"2026-05-22T17:52:37.938148+05:30"},{"city":"Dehradun","state":"Uttarakhand","latitude":30.6284,"longitude":78.0322,"temp":24.0,"humidity":38,"rain":0.0,"pressure":831.7,"uv_index":8.2,"wind_gusts":34.9,"aqi":103,"pm10":64.7,"pm2_5":19.7,"no2":1.6,"co":161.0,"o3":129.0,"so2":2.4,"mosquito_risk":0,"arthritis_risk":5,"migraine_risk":7,"frizz_risk":0,"updated_at":"2026-05-22T17:52:37.938155+05:30"},{"city":"Shimla","state":"Himachal Pradesh","latitude":31.1048,"longitude":77.1734,"temp":20.7,"humidity":34,"rain":0.0,"pressure":786.9,"uv_index":7.6,"wind_gusts":38.9,"aqi":84,"pm10":68.5,"pm2_5":20.5,"no2":1.5,"co":165.0,"o3":123.0,"so2":1.8,"mosquito_risk":0,"arthritis_risk":5,"migraine_risk":7,"frizz_risk":0,"updated_at":"2026-05-22T17:52:37.938163+05:30"},{"city":"Manali","state":"Himachal Pradesh","latitude":32.2396,"longitude":77.1887,"temp":18.9,"humidity":82,"rain":0.2,"pressure":820.1,"uv_index":8.05,"wind_gusts":51.8,"aqi":82,"pm10":11.0,"pm2_5":5.2,"no2":8.9,"co":143.0,"o3":125.0,"so2":0.5,"mosquito_risk":6,"arthritis_risk":10,"migraine_risk":7,"frizz_risk":0,"updated_at":"2026-05-22T17:52:37.938172+05:30"},{"city":"Gurgaon","state":"Haryana","latitude":28.4595,"longitude":77.0266,"temp":39.6,"humidity":18,"rain":0.0,"pressure":976.9,"uv_index":7.85,"wind_gusts":37.1,"aqi":1475,"pm10":1516.2,"pm2_5":216.1,"no2":12.0,"co":286.0,"o3":133.0,"so2":10.1,"mosquito_risk":0,"arthritis_risk":5,"migraine_risk":10,"frizz_risk":0,"updated_at":"2026-05-22T17:52:37.938178+05:30"},{"city":"Noida","state":"Uttar Pradesh","latitude":28.5355,"longitude":77.391,"temp":40.2,"humidity":16,"rain":0.0,"pressure":979.1,"uv_index":7.8,"wind_gusts":37.1,"aqi":1475,"pm10":1516.2,"pm2_5":216.1,"no2":12.0,"co":263.0,"o3":133.0,"so2":10.1,"mosquito_risk":0,"arthritis_risk":5,"migraine_risk":10,"frizz_risk":0,"updated_at":"2026-05-22T17:52:37.938190+05:30"},{"city":"Ghaziabad","state":"Uttar Pradesh","latitude":28.6692,"longitude":77.4538,"temp":38.5,"humidity":22,"rain":0.0,"pressure":977.5,"uv_index":7.8,"wind_gusts":38.5,"aqi":428,"pm10":551.3,"pm2_5":109.2,"no2":7.2,"co":235.0,"o3":156.0,"so2":14.6,"mosquito_risk":0,"arthritis_risk":5,"migraine_risk":10,"frizz_risk":0,"updated_at":"2026-05-22T17:52:37.938196+05:30"},{"city":"Faridabad","state":"Haryana","latitude":28.4089,"longitude":77.3178,"temp":40.7,"humidity":16,"rain":0.0,"pressure":978.6,"uv_index":7.85,"wind_gusts":37.4,"aqi":1475,"pm10":1516.2,"pm2_5":216.1,"no2":12.0,"co":238.0,"o3":133.0,"so2":10.1,"mosquito_risk":0,"arthritis_risk":5,"migraine_risk":10,"frizz_risk":0,"updated_at":"2026-05-22T17:52:37.938202+05:30"},{"city":"Meerut","state":"Uttar Pradesh","latitude":28.9845,"longitude":77.7064,"temp":37.4,"humidity":22,"rain":0.0,"pressure":976.7,"uv_index":7.7,"wind_gusts":37.8,"aqi":428,"pm10":551.3,"pm2_5":109.2,"no2":7.2,"co":238.0,"o3":156.0,"so2":14.6,"mosquito_risk":0,"arthritis_risk":5,"migraine_risk":10,"frizz_risk":0,"updated_at":"2026-05-22T17:52:37.938208+05:30"},{"city":"Agra","state":"Uttar Pradesh","latitude":27.1767,"longitude":78.0081,"temp":40.5,"humidity":16,"rain":0.0,"pressure":982.4,"uv_index":8.1,"wind_gusts":44.6,"aqi":860,"pm10":1050.5,"pm2_5":156.5,"no2":7.7,"co":169.0,"o3":105.0,"so2":4.1,"mosquito_risk":0,"arthritis_risk":5,"migraine_risk":10,"frizz_risk":0,"updated_at":"2026-05-22T17:52:37.938214+05:30"},{"city":"Varanasi","state":"Uttar Pradesh","latitude":25.3176,"longitude":82.9739,"temp":41.3,"humidity":21,"rain":0.0,"pressure":990.8,"uv_index":8.75,"wind_gusts":35.3,"aqi":176,"pm10":214.2,"pm2_5":64.3,"no2":8.6,"co":213.0,"o3":151.0,"so2":10.9,"mosquito_risk":0,"arthritis_risk":5,"migraine_risk":10,"frizz_risk":0,"updated_at":"2026-05-22T17:52:37.938221+05:30"},{"city":"Prayagraj","state":"Uttar Pradesh","latitude":25.4358,"longitude":81.8463,"temp":41.4,"humidity":16,"rain":0.0,"pressure":989.5,"uv_index":8.65,"wind_gusts":38.2,"aqi":184,"pm10":162.5,"pm2_5":46.7,"no2":5.3,"co":194.0,"o3":142.0,"so2":8.2,"mosquito_risk":0,"arthritis_risk":5,"migraine_risk":10,"frizz_risk":0,"updated_at":"2026-05-22T17:52:37.938227+05:30"},{"city":"Gorakhpur","state":"Uttar Pradesh","latitude":26.7606,"longitude":83.3732,"temp":37.3,"humidity":40,"rain":0.0,"pressure":991.3,"uv_index":8.6,"wind_gusts":31.3,"aqi":179,"pm10":188.6,"pm2_5":68.2,"no2":4.5,"co":372.0,"o3":181.0,"so2":13.0,"mosquito_risk":0,"arthritis_risk":5,"migraine_risk":10,"frizz_risk":1,"updated_at":"2026-05-22T17:52:37.938236+05:30"},{"city":"Bareilly","state":"Uttar Pradesh","latitude":28.367,"longitude":79.4304,"temp":37.2,"humidity":34,"rain":0.0,"pressure":981.2,"uv_index":8.05,"wind_gusts":31.3,"aqi":177,"pm10":134.6,"pm2_5":55.8,"no2":5.6,"co":251.0,"o3":155.0,"so2":10.2,"mosquito_risk":0,"arthritis_risk":5,"migraine_risk":10,"frizz_risk":1,"updated_at":"2026-05-22T17:52:37.938242+05:30"},{"city":"Aligarh","state":"Uttar Pradesh","latitude":27.8974,"longitude":78.088,"temp":38.8,"humidity":21,"rain":0.0,"pressure":980.4,"uv_index":7.95,"wind_gusts":37.8,"aqi":802,"pm10":916.4,"pm2_5":139.7,"no2":6.9,"co":188.0,"o3":135.0,"so2":8.1,"mosquito_risk":0,"arthritis_risk":5,"migraine_risk":10,"frizz_risk":0,"updated_at":"2026-05-22T17:52:37.938248+05:30"},{"city":"Moradabad","state":"Uttar Pradesh","latitude":28.8386,"longitude":78.7733,"temp":37.1,"humidity":32,"rain":0.0,"pressure":978.6,"uv_index":7.9,"wind_gusts":37.8,"aqi":201,"pm10":190.0,"pm2_5":76.1,"no2":10.2,"co":317.0,"o3":146.0,"so2":10.9,"mosquito_risk":0,"arthritis_risk":5,"migraine_risk":10,"frizz_risk":1,"updated_at":"2026-05-22T17:52:37.938254+05:30"},{"city":"Saharanpur","state":"Uttar Pradesh","latitude":29.9637,"longitude":77.546,"temp":37.0,"humidity":22,"rain":0.0,"pressure":971.7,"uv_index":7.5,"wind_gusts":46.8,"aqi":177,"pm10":84.3,"pm2_5":40.3,"no2":13.4,"co":232.0,"o3":125.0,"so2":6.9,"mosquito_risk":0,"arthritis_risk":5,"migraine_risk":10,"frizz_risk":0,"updated_at":"2026-05-22T17:52:37.938260+05:30"},{"city":"Jhansi","state":"Uttar Pradesh","latitude":25.4484,"longitude":78.5685,"temp":40.3,"humidity":17,"rain":0.0,"pressure":973.3,"uv_index":8.5,"wind_gusts":42.1,"aqi":59,"pm10":114.8,"pm2_5":33.5,"no2":1.9,"co":138.0,"o3":103.0,"so2":3.1,"mosquito_risk":0,"arthritis_risk":5,"migraine_risk":10,"frizz_risk":0,"updated_at":"2026-05-22T17:52:41.282739+05:30"},{"city":"Surat","state":"Gujarat","latitude":21.1702,"longitude":72.8311,"temp":33.2,"humidity":55,"rain":0.0,"pressure":1005.0,"uv_index":7.75,"wind_gusts":42.5,"aqi":73,"pm10":35.3,"pm2_5":24.4,"no2":20.1,"co":344.0,"o3":39.0,"so2":49.2,"mosquito_risk":0,"arthritis_risk":5,"migraine_risk":4,"frizz_risk":1,"updated_at":"2026-05-22T17:52:41.282770+05:30"},{"city":"Vadodara","state":"Gujarat","latitude":22.3072,"longitude":73.1812,"temp":39.8,"humidity":27,"rain":0.0,"pressure":1001.0,"uv_index":8.15,"wind_gusts":45.7,"aqi":74,"pm10":53.8,"pm2_5":28.3,"no2":3.0,"co":183.0,"o3":125.0,"so2":6.7,"mosquito_risk":0,"arthritis_risk":5,"migraine_risk":7,"frizz_risk":1,"updated_at":"2026-05-22T17:52:41.282781+05:30"},{"city":"Rajkot","state":"Gujarat","latitude":22.3039,"longitude":70.8022,"temp":39.2,"humidity":25,"rain":0.0,"pressure":991.1,"uv_index":7.8,"wind_gusts":45.4,"aqi":75,"pm10":50.8,"pm2_5":24.9,"no2":1.6,"co":138.0,"o3":120.0,"so2":5.4,"mosquito_risk":0,"arthritis_risk":5,"migraine_risk":10,"frizz_risk":0,"updated_at":"2026-05-22T17:52:41.282791+05:30"},{"city":"Thane","state":"Maharashtra","latitude":19.2183,"longitude":72.9781,"temp":32.3,"humidity":63,"rain":0.0,"pressure":1007.2,"uv_index":7.15,"wind_gusts":32.4,"aqi":61,"pm10":27.5,"pm2_5":19.2,"no2":12.2,"co":199.0,"o3":81.0,"so2":7.7,"mosquito_risk":3,"arthritis_risk":5,"migraine_risk":4,"frizz_risk":1,"updated_at":"2026-05-22T17:52:41.282800+05:30"},{"city":"Nagpur","state":"Maharashtra","latitude":21.1458,"longitude":79.0882,"temp":43.2,"humidity":12,"rain":0.0,"pressure":968.1,"uv_index":8.75,"wind_gusts":42.8,"aqi":115,"pm10":29.1,"pm2_5":18.3,"no2":5.7,"co":176.0,"o3":130.0,"so2":11.9,"mosquito_risk":0,"arthritis_risk":5,"migraine_risk":10,"frizz_risk":0,"updated_at":"2026-05-22T17:52:41.282808+05:30"},{"city":"Nashik","state":"Maharashtra","latitude":19.9975,"longitude":73.7898,"temp":29.9,"humidity":60,"rain":0.1,"pressure":945.6,"uv_index":8.15,"wind_gusts":46.4,"aqi":51,"pm10":19.4,"pm2_5":12.3,"no2":2.4,"co":156.0,"o3":85.0,"so2":1.2,"mosquito_risk":7,"arthritis_risk":5,"migraine_risk":7,"frizz_risk":1,"updated_at":"2026-05-22T17:52:41.282817+05:30"},{"city":"Aurangabad","state":"Maharashtra","latitude":19.8762,"longitude":75.3433,"temp":35.2,"humidity":29,"rain":0.1,"pressure":942.4,"uv_index":3.15,"wind_gusts":48.2,"aqi":62,"pm10":34.7,"pm2_5":19.1,"no2":1.6,"co":177.0,"o3":121.0,"so2":3.7,"mosquito_risk":3,"arthritis_risk":5,"migraine_risk":6,"frizz_risk":0,"updated_at":"2026-05-22T17:52:41.282826+05:30"},{"city":"Solapur","state":"Maharashtra","latitude":17.6599,"longitude":75.9064,"temp":34.9,"humidity":42,"rain":0.0,"pressure":956.5,"uv_index":8.95,"wind_gusts":38.9,"aqi":73,"pm10":38.9,"pm2_5":25.0,"no2":2.1,"co":171.0,"o3":132.0,"so2":5.1,"mosquito_risk":0,"arthritis_risk":5,"migraine_risk":7,"frizz_risk":1,"updated_at":"2026-05-22T17:52:41.282835+05:30"},{"city":"Kolhapur","state":"Maharashtra","latitude":16.705,"longitude":74.2433,"temp":29.8,"humidity":65,"rain":0.2,"pressure":949.5,"uv_index":7.95,"wind_gusts":45.4,"aqi":42,"pm10":12.1,"pm2_5":9.2,"no2":4.4,"co":220.0,"o3":87.0,"so2":1.8,"mosquito_risk":10,"arthritis_risk":5,"migraine_risk":7,"frizz_risk":1,"updated_at":"2026-05-22T17:52:41.282843+05:30"},{"city":"Goa","state":"Goa","latitude":15.2993,"longitude":74.124,"temp":27.9,"humidity":87,"rain":0.1,"pressure":998.3,"uv_index":6.55,"wind_gusts":27.4,"aqi":32,"pm10":10.4,"pm2_5":7.3,"no2":1.8,"co":187.0,"o3":60.0,"so2":0.8,"mosquito_risk":10,"arthritis_risk":5,"migraine_risk":7,"frizz_risk":1,"updated_at":"2026-05-22T17:52:41.282851+05:30"},{"city":"Jodhpur","state":"Rajasthan","latitude":26.2389,"longitude":73.0243,"temp":39.6,"humidity":17,"rain":0.0,"pressure":979.7,"uv_index":8.45,"wind_gusts":35.6,"aqi":154,"pm10":332.5,"pm2_5":62.6,"no2":1.3,"co":133.0,"o3":108.0,"so2":2.9,"mosquito_risk":0,"arthritis_risk":5,"migraine_risk":10,"frizz_risk":0,"updated_at":"2026-05-22T17:52:41.282860+05:30"},{"city":"Udaipur","state":"Rajasthan","latitude":24.5854,"longitude":73.7125,"temp":37.0,"humidity":14,"rain":0.0,"pressure":944.7,"uv_index":8.9,"wind_gusts":40.7,"aqi":59,"pm10":84.8,"pm2_5":26.8,"no2":0.8,"co":130.0,"o3":102.0,"so2":1.7,"mosquito_risk":0,"arthritis_risk":5,"migraine_risk":10,"frizz_risk":0,"updated_at":"2026-05-22T17:52:41.282868+05:30"},{"city":"Kota","state":"Rajasthan","latitude":25.2138,"longitude":75.8648,"temp":41.0,"humidity":10,"rain":0.0,"pressure":975.1,"uv_index":8.4,"wind_gusts":40.3,"aqi":62,"pm10":51.3,"pm2_5":18.6,"no2":1.6,"co":131.0,"o3":111.0,"so2":2.5,"mosquito_risk":0,"arthritis_risk":5,"migraine_risk":10,"frizz_risk":0,"updated_at":"2026-05-22T17:52:41.282876+05:30"},{"city":"Bikaner","state":"Rajasthan","latitude":28.0229,"longitude":73.3119,"temp":41.1,"humidity":15,"rain":0.0,"pressure":977.6,"uv_index":8.4,"wind_gusts":25.9,"aqi":165,"pm10":155.5,"pm2_5":44.7,"no2":0.5,"co":150.0,"o3":101.0,"so2":2.1,"mosquito_risk":0,"arthritis_risk":5,"migraine_risk":10,"frizz_risk":0,"updated_at":"2026-05-22T17:52:41.282884+05:30"},{"city":"Ajmer","state":"Rajasthan","latitude":26.4499,"longitude":74.6399,"temp":37.1,"humidity":16,"rain":0.0,"pressure":952.5,"uv_index":8.4,"wind_gusts":43.2,"aqi":75,"pm10":123.4,"pm2_5":35.0,"no2":1.2,"co":135.0,"o3":103.0,"so2":2.1,"mosquito_risk":0,"arthritis_risk":5,"migraine_risk":10,"frizz_risk":0,"updated_at":"2026-05-22T17:52:41.282892+05:30"},{"city":"Gwalior","state":"Madhya Pradesh","latitude":26.2183,"longitude":78.1828,"temp":40.2,"humidity":14,"rain":0.0,"pressure":978.8,"uv_index":8.3,"wind_gusts":45.4,"aqi":78,"pm10":186.3,"pm2_5":51.7,"no2":1.7,"co":146.0,"o3":106.0,"so2":2.1,"mosquito_risk":0,"arthritis_risk":5,"migraine_risk":10,"frizz_risk":0,"updated_at":"2026-05-22T17:52:41.282900+05:30"},{"city":"Indore","state":"Madhya Pradesh","latitude":22.7196,"longitude":75.8577,"temp":38.7,"humidity":20,"rain":0.0,"pressure":946.3,"uv_index":8.7,"wind_gusts":42.1,"aqi":67,"pm10":32.4,"pm2_5":19.1,"no2":1.8,"co":193.0,"o3":115.0,"so2":3.1,"mosquito_risk":0,"arthritis_risk":5,"migraine_risk":10,"frizz_risk":0,"updated_at":"2026-05-22T17:52:41.282907+05:30"},{"city":"Bhopal","state":"Madhya Pradesh","latitude":23.2599,"longitude":77.4126,"temp":40.2,"humidity":13,"rain":0.0,"pressure":950.7,"uv_index":8.7,"wind_gusts":40.7,"aqi":76,"pm10":23.2,"pm2_5":13.6,"no2":1.4,"co":175.0,"o3":119.0,"so2":3.0,"mosquito_risk":0,"arthritis_risk":5,"migraine_risk":10,"frizz_risk":0,"updated_at":"2026-05-22T17:52:41.282915+05:30"},{"city":"Jabalpur","state":"Madhya Pradesh","latitude":23.1815,"longitude":79.9864,"temp":40.2,"humidity":11,"rain":0.0,"pressure":957.6,"uv_index":8.9,"wind_gusts":39.6,"aqi":80,"pm10":22.5,"pm2_5":10.7,"no2":2.1,"co":141.0,"o3":116.0,"so2":1.8,"mosquito_risk":0,"arthritis_risk":5,"migraine_risk":10,"frizz_risk":0,"updated_at":"2026-05-22T17:52:41.282923+05:30"},{"city":"Ujjain","state":"Madhya Pradesh","latitude":23.1765,"longitude":75.7885,"temp":39.0,"humidity":19,"rain":0.0,"pressure":951.5,"uv_index":8.65,"wind_gusts":40.3,"aqi":65,"pm10":37.3,"pm2_5":20.4,"no2":0.9,"co":158.0,"o3":112.0,"so2":2.7,"mosquito_risk":0,"arthritis_risk":5,"migraine_risk":10,"frizz_risk":0,"updated_at":"2026-05-22T17:52:41.282931+05:30"},{"city":"Visakhapatnam","state":"Andhra Pradesh","latitude":17.6868,"longitude":83.2185,"temp":35.1,"humidity":61,"rain":0.0,"pressure":998.6,"uv_index":9.0,"wind_gusts":45.0,"aqi":150,"pm10":62.6,"pm2_5":50.9,"no2":28.4,"co":574.0,"o3":162.0,"so2":61.8,"mosquito_risk":3,"arthritis_risk":5,"migraine_risk":10,"frizz_risk":1,"updated_at":"2026-05-22T17:52:41.282938+05:30"},{"city":"Vijayawada","state":"Andhra Pradesh","latitude":16.5062,"longitude":80.648,"temp":38.8,"humidity":36,"rain":0.0,"pressure":997.1,"uv_index":9.1,"wind_gusts":52.9,"aqi":125,"pm10":38.9,"pm2_5":34.0,"no2":10.3,"co":242.0,"o3":125.0,"so2":7.3,"mosquito_risk":0,"arthritis_risk":5,"migraine_risk":10,"frizz_risk":1,"updated_at":"2026-05-22T17:52:41.282946+05:30"},{"city":"Guntur","state":"Andhra Pradesh","latitude":16.3067,"longitude":80.4365,"temp":39.2,"humidity":33,"rain":0.0,"pressure":998.5,"uv_index":9.1,"wind_gusts":52.2,"aqi":119,"pm10":44.4,"pm2_5":34.2,"no2":6.2,"co":226.0,"o3":143.0,"so2":8.4,"mosquito_risk":0,"arthritis_risk":5,"migraine_risk":10,"frizz_risk":1,"updated_at":"2026-05-22T17:52:41.282954+05:30"},{"city":"Nellore","state":"Andhra Pradesh","latitude":14.4426,"longitude":79.9865,"temp":38.1,"humidity":37,"rain":0.0,"pressure":1002.0,"uv_index":8.2,"wind_gusts":50.0,"aqi":73,"pm10":49.8,"pm2_5":33.8,"no2":3.9,"co":178.0,"o3":133.0,"so2":5.5,"mosquito_risk":0,"arthritis_risk":5,"migraine_risk":7,"frizz_risk":1,"updated_at":"2026-05-22T17:52:41.282962+05:30"},{"city":"Kurnool","state":"Andhra Pradesh","latitude":15.8281,"longitude":78.0373,"temp":33.8,"humidity":41,"rain":0.0,"pressure":974.5,"uv_index":9.0,"wind_gusts":46.8,"aqi":70,"pm10":30.2,"pm2_5":21.3,"no2":2.6,"co":182.0,"o3":144.0,"so2":7.3,"mosquito_risk":0,"arthritis_risk":5,"migraine_risk":7,"frizz_risk":1,"updated_at":"2026-05-22T17:52:41.282970+05:30"},{"city":"Kakinada","state":"Andhra Pradesh","latitude":16.9891,"longitude":82.2475,"temp":39.7,"humidity":41,"rain":0.0,"pressure":1001.3,"uv_index":9.05,"wind_gusts":42.5,"aqi":167,"pm10":37.4,"pm2_5":28.0,"no2":5.0,"co":357.0,"o3":152.0,"so2":4.7,"mosquito_risk":0,"arthritis_risk":5,"migraine_risk":7,"frizz_risk":1,"updated_at":"2026-05-22T17:52:41.282978+05:30"},{"city":"Tirupati","state":"Andhra Pradesh","latitude":13.6288,"longitude":79.4192,"temp":35.6,"humidity":46,"rain":0.0,"pressure":988.1,"uv_index":7.75,"wind_gusts":33.1,"aqi":70,"pm10":25.6,"pm2_5":18.3,"no2":6.2,"co":362.0,"o3":116.0,"so2":4.0,"mosquito_risk":0,"arthritis_risk":5,"migraine_risk":10,"frizz_risk":1,"updated_at":"2026-05-22T17:52:41.282986+05:30"},{"city":"Warangal","state":"Telangana","latitude":17.9689,"longitude":79.5941,"temp":40.5,"humidity":21,"rain":0.0,"pressure":974.0,"uv_index":9.1,"wind_gusts":45.0,"aqi":146,"pm10":34.6,"pm2_5":29.2,"no2":7.9,"co":208.0,"o3":156.0,"so2":11.4,"mosquito_risk":0,"arthritis_risk":5,"migraine_risk":10,"frizz_risk":0,"updated_at":"2026-05-22T17:52:41.282993+05:30"},{"city":"Nizamabad","state":"Telangana","latitude":18.6725,"longitude":78.0941,"temp":39.7,"humidity":19,"rain":0.0,"pressure":961.2,"uv_index":9.05,"wind_gusts":41.8,"aqi":103,"pm10":39.0,"pm2_5":25.1,"no2":2.1,"co":257.0,"o3":140.0,"so2":5.7,"mosquito_risk":0,"arthritis_risk":5,"migraine_risk":10,"frizz_risk":0,"updated_at":"2026-05-22T17:52:41.283000+05:30"},{"city":"Mysore","state":"Karnataka","latitude":12.2958,"longitude":76.6396,"temp":25.2,"humidity":75,"rain":0.0,"pressure":928.6,"uv_index":8.65,"wind_gusts":52.9,"aqi":40,"pm10":7.5,"pm2_5":5.8,"no2":6.3,"co":170.0,"o3":84.0,"so2":1.6,"mosquito_risk":7,"arthritis_risk":5,"migraine_risk":7,"frizz_risk":1,"updated_at":"2026-05-22T17:52:41.283009+05:30"},{"city":"Mangalore","state":"Karnataka","latitude":12.9141,"longitude":74.856,"temp":26.9,"humidity":91,"rain":0.1,"pressure":1008.3,"uv_index":8.1,"wind_gusts":41.8,"aqi":38,"pm10":7.5,"pm2_5":4.9,"no2":2.0,"co":138.0,"o3":60.0,"so2":1.0,"mosquito_risk":10,"arthritis_risk":0,"migraine_risk":4,"frizz_risk":1,"updated_at":"2026-05-22T17:52:41.283017+05:30"},{"city":"Hubli-Dharwad","state":"Karnataka","latitude":15.3647,"longitude":75.124,"temp":27.0,"humidity":72,"rain":0.0,"pressure":941.4,"uv_index":8.25,"wind_gusts":41.0,"aqi":33,"pm10":6.8,"pm2_5":5.4,"no2":4.1,"co":163.0,"o3":70.0,"so2":0.8,"mosquito_risk":7,"arthritis_risk":5,"migraine_risk":7,"frizz_risk":1,"updated_at":"2026-05-22T17:52:41.283025+05:30"},{"city":"Belgaum","state":"Karnataka","latitude":15.8497,"longitude":74.4977,"temp":26.4,"humidity":78,"rain":0.1,"pressure":927.0,"uv_index":8.6,"wind_gusts":40.7,"aqi":36,"pm10":9.2,"pm2_5":7.1,"no2":4.3,"co":162.0,"o3":74.0,"so2":1.6,"mosquito_risk":10,"arthritis_risk":5,"migraine_risk":7,"frizz_risk":1,"updated_at":"2026-05-22T17:52:44.616238+05:30"},{"city":"Coimbatore","state":"Tamil Nadu","latitude":11.0168,"longitude":76.9558,"temp":28.6,"humidity":68,"rain":0.0,"pressure":961.5,"uv_index":8.25,"wind_gusts":55.8,"aqi":38,"pm10":8.1,"pm2_5":5.9,"no2":3.7,"co":175.0,"o3":79.0,"so2":1.7,"mosquito_risk":7,"arthritis_risk":5,"migraine_risk":7,"frizz_risk":1,"updated_at":"2026-05-22T17:52:44.616270+05:30"},{"city":"Madurai","state":"Tamil Nadu","latitude":9.9252,"longitude":78.1198,"temp":36.1,"humidity":40,"rain":0.0,"pressure":990.9,"uv_index":8.85,"wind_gusts":51.5,"aqi":59,"pm10":26.9,"pm2_5":12.5,"no2":4.2,"co":187.0,"o3":99.0,"so2":2.0,"mosquito_risk":0,"arthritis_risk":5,"migraine_risk":10,"frizz_risk":1,"updated_at":"2026-05-22T17:52:44.616281+05:30"},{"city":"Trichy","state":"Tamil Nadu","latitude":10.7905,"longitude":78.7047,"temp":35.7,"humidity":42,"rain":0.0,"pressure":996.4,"uv_index":8.9,"wind_gusts":55.1,"aqi":44,"pm10":11.3,"pm2_5":8.3,"no2":7.7,"co":204.0,"o3":90.0,"so2":2.6,"mosquito_risk":0,"arthritis_risk":5,"migraine_risk":10,"frizz_risk":1,"updated_at":"2026-05-22T17:52:44.616291+05:30"},{"city":"Salem","state":"Tamil Nadu","latitude":11.6643,"longitude":78.146,"temp":35.2,"humidity":43,"rain":0.0,"pressure":975.7,"uv_index":8.85,"wind_gusts":43.6,"aqi":81,"pm10":24.0,"pm2_5":12.7,"no2":4.6,"co":192.0,"o3":119.0,"so2":5.8,"mosquito_risk":0,"arthritis_risk":5,"migraine_risk":10,"frizz_risk":1,"updated_at":"2026-05-22T17:52:44.616301+05:30"},{"city":"Tirunelveli","state":"Tamil Nadu","latitude":8.7139,"longitude":77.7567,"temp":33.7,"humidity":46,"rain":0.0,"pressure":1001.6,"uv_index":8.3,"wind_gusts":51.1,"aqi":34,"pm10":5.5,"pm2_5":4.4,"no2":2.5,"co":123.0,"o3":72.0,"so2":0.9,"mosquito_risk":0,"arthritis_risk":5,"migraine_risk":4,"frizz_risk":1,"updated_at":"2026-05-22T17:52:44.616310+05:30"},{"city":"Vellore","state":"Tamil Nadu","latitude":12.9165,"longitude":79.1325,"temp":33.9,"humidity":48,"rain":0.0,"pressure":981.9,"uv_index":8.4,"wind_gusts":53.3,"aqi":73,"pm10":47.7,"pm2_5":22.8,"no2":8.8,"co":218.0,"o3":117.0,"so2":3.6,"mosquito_risk":0,"arthritis_risk":5,"migraine_risk":7,"frizz_risk":1,"updated_at":"2026-05-22T17:52:44.616319+05:30"},{"city":"Erode","state":"Tamil Nadu","latitude":11.341,"longitude":77.7172,"temp":34.8,"humidity":40,"rain":0.0,"pressure":986.8,"uv_index":8.75,"wind_gusts":49.0,"aqi":46,"pm10":10.4,"pm2_5":6.9,"no2":4.8,"co":179.0,"o3":96.0,"so2":1.9,"mosquito_risk":0,"arthritis_risk":5,"migraine_risk":7,"frizz_risk":1,"updated_at":"2026-05-22T17:52:44.616329+05:30"},{"city":"Kochi","state":"Kerala","latitude":9.9312,"longitude":76.2673,"temp":27.2,"humidity":88,"rain":0.2,"pressure":1010.4,"uv_index":8.15,"wind_gusts":33.5,"aqi":49,"pm10":9.5,"pm2_5":7.1,"no2":5.5,"co":207.0,"o3":63.0,"so2":2.5,"mosquito_risk":10,"arthritis_risk":0,"migraine_risk":4,"frizz_risk":1,"updated_at":"2026-05-22T17:52:44.616338+05:30"},{"city":"Thiruvananthapuram","state":"Kerala","latitude":8.5241,"longitude":76.9366,"temp":25.8,"humidity":91,"rain":0.1,"pressure":1009.3,"uv_index":7.95,"wind_gusts":40.0,"aqi":31,"pm10":10.4,"pm2_5":6.3,"no2":1.6,"co":118.0,"o3":67.0,"so2":0.5,"mosquito_risk":10,"arthritis_risk":0,"migraine_risk":4,"frizz_risk":1,"updated_at":"2026-05-22T17:52:44.616347+05:30"},{"city":"Kozhikode","state":"Kerala","latitude":11.2588,"longitude":75.7804,"temp":27.6,"humidity":86,"rain":0.0,"pressure":1009.1,"uv_index":7.6,"wind_gusts":43.2,"aqi":30,"pm10":6.3,"pm2_5":3.9,"no2":0.7,"co":172.0,"o3":62.0,"so2":0.4,"mosquito_risk":7,"arthritis_risk":0,"migraine_risk":4,"frizz_risk":1,"updated_at":"2026-05-22T17:52:44.616356+05:30"},{"city":"Thrissur","state":"Kerala","latitude":10.5276,"longitude":76.2144,"temp":26.1,"humidity":92,"rain":0.1,"pressure":1008.7,"uv_index":8.05,"wind_gusts":37.4,"aqi":48,"pm10":7.8,"pm2_5":6.1,"no2":3.3,"co":182.0,"o3":63.0,"so2":1.6,"mosquito_risk":10,"arthritis_risk":0,"migraine_risk":4,"frizz_risk":1,"updated_at":"2026-05-22T17:52:44.616366+05:30"},{"city":"Kannur","state":"Kerala","latitude":11.8745,"longitude":75.3704,"temp":27.6,"humidity":86,"rain":0.0,"pressure":1008.3,"uv_index":7.9,"wind_gusts":41.8,"aqi":34,"pm10":7.0,"pm2_5":4.7,"no2":2.4,"co":125.0,"o3":60.0,"so2":0.8,"mosquito_risk":7,"arthritis_risk":0,"migraine_risk":4,"frizz_risk":1,"updated_at":"2026-05-22T17:52:44.616374+05:30"},{"city":"Patna","state":"Bihar","latitude":25.5941,"longitude":85.1376,"temp":36.9,"humidity":54,"rain":0.0,"pressure":994.4,"uv_index":8.85,"wind_gusts":28.4,"aqi":202,"pm10":90.6,"pm2_5":71.9,"no2":9.9,"co":468.0,"o3":202.0,"so2":19.9,"mosquito_risk":0,"arthritis_risk":5,"migraine_risk":10,"frizz_risk":1,"updated_at":"2026-05-22T17:52:44.616383+05:30"},{"city":"Gaya","state":"Bihar","latitude":24.7914,"longitude":85.0002,"temp":38.0,"humidity":33,"rain":0.0,"pressure":987.5,"uv_index":8.9,"wind_gusts":29.5,"aqi":175,"pm10":166.7,"pm2_5":64.5,"no2":11.3,"co":342.0,"o3":133.0,"so2":12.1,"mosquito_risk":0,"arthritis_risk":5,"migraine_risk":10,"frizz_risk":1,"updated_at":"2026-05-22T17:52:44.616392+05:30"},{"city":"Muzaffarpur","state":"Bihar","latitude":26.1209,"longitude":85.3647,"temp":30.3,"humidity":79,"rain":0.0,"pressure":995.1,"uv_index":8.85,"wind_gusts":31.3,"aqi":185,"pm10":84.5,"pm2_5":67.5,"no2":12.0,"co":447.0,"o3":180.0,"so2":19.3,"mosquito_risk":3,"arthritis_risk":5,"migraine_risk":7,"frizz_risk":1,"updated_at":"2026-05-22T17:52:44.616400+05:30"},{"city":"Bhagalpur","state":"Bihar","latitude":25.2425,"longitude":87.0117,"temp":33.0,"humidity":68,"rain":0.0,"pressure":995.9,"uv_index":8.8,"wind_gusts":33.8,"aqi":160,"pm10":52.4,"pm2_5":43.5,"no2":9.7,"co":401.0,"o3":196.0,"so2":25.1,"mosquito_risk":3,"arthritis_risk":5,"migraine_risk":7,"frizz_risk":1,"updated_at":"2026-05-22T17:52:44.616408+05:30"},{"city":"Ranchi","state":"Jharkhand","latitude":23.3441,"longitude":85.3096,"temp":32.8,"humidity":33,"rain":0.0,"pressure":933.9,"uv_index":9.3,"wind_gusts":29.2,"aqi":153,"pm10":54.7,"pm2_5":22.9,"no2":7.1,"co":295.0,"o3":116.0,"so2":5.3,"mosquito_risk":0,"arthritis_risk":5,"migraine_risk":7,"frizz_risk":0,"updated_at":"2026-05-22T17:52:44.616417+05:30"},{"city":"Jamshedpur","state":"Jharkhand","latitude":22.8046,"longitude":86.2029,"temp":36.0,"humidity":50,"rain":0.0,"pressure":985.1,"uv_index":9.1,"wind_gusts":33.5,"aqi":184,"pm10":102.2,"pm2_5":73.3,"no2":11.5,"co":418.0,"o3":177.0,"so2":27.9,"mosquito_risk":0,"arthritis_risk":5,"migraine_risk":10,"frizz_risk":1,"updated_at":"2026-05-22T17:52:44.616425+05:30"},{"city":"Dhanbad","state":"Jharkhand","latitude":23.7957,"longitude":86.4304,"temp":36.0,"humidity":53,"rain":0.0,"pressure":974.2,"uv_index":9.05,"wind_gusts":33.5,"aqi":174,"pm10":124.8,"pm2_5":90.1,"no2":42.3,"co":278.0,"o3":135.0,"so2":118.7,"mosquito_risk":0,"arthritis_risk":5,"migraine_risk":10,"frizz_risk":1,"updated_at":"2026-05-22T17:52:44.616434+05:30"},{"city":"Bokaro","state":"Jharkhand","latitude":23.6693,"longitude":86.1511,"temp":35.5,"humidity":50,"rain":0.0,"pressure":977.9,"uv_index":9.1,"wind_gusts":28.8,"aqi":177,"pm10":104.8,"pm2_5":61.9,"no2":30.1,"co":378.0,"o3":135.0,"so2":108.5,"mosquito_risk":0,"arthritis_risk":5,"migraine_risk":10,"frizz_risk":1,"updated_at":"2026-05-22T17:52:44.616442+05:30"},{"city":"Bhubaneswar","state":"Odisha","latitude":20.2961,"longitude":85.8245,"temp":33.6,"humidity":70,"rain":0.0,"pressure":996.9,"uv_index":9.15,"wind_gusts":42.8,"aqi":117,"pm10":57.5,"pm2_5":42.4,"no2":6.6,"co":292.0,"o3":117.0,"so2":7.4,"mosquito_risk":3,"arthritis_risk":5,"migraine_risk":7,"frizz_risk":1,"updated_at":"2026-05-22T17:52:44.616450+05:30"},{"city":"Cuttack","state":"Odisha","latitude":20.4625,"longitude":85.8828,"temp":33.8,"humidity":71,"rain":0.0,"pressure":998.7,"uv_index":9.2,"wind_gusts":36.4,"aqi":117,"pm10":57.5,"pm2_5":42.4,"no2":6.6,"co":305.0,"o3":117.0,"so2":7.4,"mosquito_risk":3,"arthritis_risk":5,"migraine_risk":7,"frizz_risk":1,"updated_at":"2026-05-22T17:52:44.616459+05:30"},{"city":"Rourkela","state":"Odisha","latitude":22.2604,"longitude":84.8536,"temp":33.6,"humidity":54,"rain":0.0,"pressure":978.9,"uv_index":9.0,"wind_gusts":44.3,"aqi":203,"pm10":77.3,"pm2_5":51.0,"no2":11.5,"co":487.0,"o3":144.0,"so2":10.0,"mosquito_risk":0,"arthritis_risk":5,"migraine_risk":7,"frizz_risk":1,"updated_at":"2026-05-22T17:52:44.616467+05:30"},{"city":"Raipur","state":"Chhattisgarh","latitude":21.2514,"longitude":81.6296,"temp":42.5,"humidity":13,"rain":0.0,"pressure":969.0,"uv_index":9.0,"wind_gusts":41.4,"aqi":149,"pm10":31.0,"pm2_5":25.3,"no2":21.0,"co":157.0,"o3":109.0,"so2":23.3,"mosquito_risk":0,"arthritis_risk":5,"migraine_risk":10,"frizz_risk":0,"updated_at":"2026-05-22T17:52:44.616475+05:30"},{"city":"Bhilai","state":"Chhattisgarh","latitude":21.1938,"longitude":81.3509,"temp":41.3,"humidity":15,"rain":0.0,"pressure":969.5,"uv_index":8.7,"wind_gusts":38.2,"aqi":102,"pm10":32.9,"pm2_5":27.3,"no2":23.8,"co":199.0,"o3":104.0,"so2":30.5,"mosquito_risk":0,"arthritis_risk":5,"migraine_risk":10,"frizz_risk":0,"updated_at":"2026-05-22T17:52:44.616483+05:30"},{"city":"Guwahati","state":"Assam","latitude":26.1158,"longitude":91.7086,"temp":27.9,"humidity":88,"rain":0.0,"pressure":997.9,"uv_index":8.8,"wind_gusts":23.0,"aqi":87,"pm10":20.3,"pm2_5":17.0,"no2":5.3,"co":361.0,"o3":89.0,"so2":1.8,"mosquito_risk":7,"arthritis_risk":5,"migraine_risk":7,"frizz_risk":1,"updated_at":"2026-05-22T17:52:44.616492+05:30"},{"city":"Agartala","state":"Tripura","latitude":23.8315,"longitude":91.2868,"temp":29.4,"humidity":83,"rain":0.0,"pressure":1002.4,"uv_index":8.85,"wind_gusts":29.5,"aqi":99,"pm10":42.8,"pm2_5":31.9,"no2":11.2,"co":246.0,"o3":104.0,"so2":4.5,"mosquito_risk":7,"arthritis_risk":5,"migraine_risk":4,"frizz_risk":1,"updated_at":"2026-05-22T17:52:44.616501+05:30"},{"city":"Shillong","state":"Meghalaya","latitude":25.5788,"longitude":91.8933,"temp":21.6,"humidity":85,"rain":0.0,"pressure":855.9,"uv_index":7.25,"wind_gusts":24.5,"aqi":69,"pm10":11.1,"pm2_5":8.6,"no2":8.1,"co":285.0,"o3":83.0,"so2":2.0,"mosquito_risk":3,"arthritis_risk":5,"migraine_risk":7,"frizz_risk":1,"updated_at":"2026-05-22T17:52:44.616509+05:30"},{"city":"Imphal","state":"Manipur","latitude":24.817,"longitude":93.9368,"temp":26.5,"humidity":75,"rain":0.0,"pressure":921.1,"uv_index":9.3,"wind_gusts":35.6,"aqi":89,"pm10":23.3,"pm2_5":17.8,"no2":6.3,"co":281.0,"o3":83.0,"so2":2.5,"mosquito_risk":7,"arthritis_risk":5,"migraine_risk":7,"frizz_risk":1,"updated_at":"2026-05-22T17:52:44.616518+05:30"},{"city":"Aizawl","state":"Mizoram","latitude":23.7271,"longitude":92.7176,"temp":20.8,"humidity":98,"rain":0.3,"pressure":890.7,"uv_index":8.35,"wind_gusts":28.4,"aqi":70,"pm10":23.7,"pm2_5":15.0,"no2":4.2,"co":224.0,"o3":82.0,"so2":1.4,"mosquito_risk":6,"arthritis_risk":5,"migraine_risk":7,"frizz_risk":1,"updated_at":"2026-05-22T17:52:44.616527+05:30"},{"city":"Kohima","state":"Nagaland","latitude":25.6701,"longitude":94.1077,"temp":20.8,"humidity":93,"rain":0.0,"pressure":854.0,"uv_index":9.2,"wind_gusts":25.9,"aqi":81,"pm10":25.9,"pm2_5":20.0,"no2":5.1,"co":238.0,"o3":91.0,"so2":1.9,"mosquito_risk":3,"arthritis_risk":5,"migraine_risk":7,"frizz_risk":1,"updated_at":"2026-05-22T17:52:44.616535+05:30"},{"city":"Gangtok","state":"Sikkim","latitude":27.3314,"longitude":88.6138,"temp":19.8,"humidity":90,"rain":0.2,"pressure":836.0,"uv_index":9.15,"wind_gusts":34.6,"aqi":89,"pm10":11.4,"pm2_5":8.6,"no2":6.3,"co":316.0,"o3":119.0,"so2":1.8,"mosquito_risk":6,"arthritis_risk":10,"migraine_risk":7,"frizz_risk":1,"updated_at":"2026-05-22T17:52:44.616543+05:30"},{"city":"Siliguri","state":"West Bengal","latitude":26.7271,"longitude":88.3953,"temp":29.0,"humidity":76,"rain":0.0,"pressure":988.9,"uv_index":8.7,"wind_gusts":21.2,"aqi":119,"pm10":39.3,"pm2_5":26.8,"no2":8.7,"co":586.0,"o3":131.0,"so2":4.1,"mosquito_risk":7,"arthritis_risk":5,"migraine_risk":7,"frizz_risk":1,"updated_at":"2026-05-22T17:52:48.005362+05:30"},{"city":"Durgapur","state":"West Bengal","latitude":23.5204,"longitude":87.3119,"temp":29.1,"humidity":93,"rain":0.2,"pressure":990.5,"uv_index":9.0,"wind_gusts":38.2,"aqi":159,"pm10":86.6,"pm2_5":65.9,"no2":22.1,"co":537.0,"o3":128.0,"so2":44.0,"mosquito_risk":10,"arthritis_risk":5,"migraine_risk":7,"frizz_risk":1,"updated_at":"2026-05-22T17:52:48.005407+05:30"},{"city":"Asansol","state":"West Bengal","latitude":23.6739,"longitude":86.9524,"temp":30.8,"humidity":88,"rain":0.0,"pressure":988.0,"uv_index":9.05,"wind_gusts":39.6,"aqi":157,"pm10":100.6,"pm2_5":73.1,"no2":26.2,"co":784.0,"o3":134.0,"so2":41.8,"mosquito_risk":3,"arthritis_risk":5,"migraine_risk":7,"frizz_risk":1,"updated_at":"2026-05-22T17:52:48.005420+05:30"},{"city":"Pondicherry","state":"Puducherry","latitude":11.9139,"longitude":79.8145,"temp":30.5,"humidity":83,"rain":0.0,"pressure":1004.8,"uv_index":8.95,"wind_gusts":45.7,"aqi":131,"pm10":35.0,"pm2_5":27.9,"no2":20.1,"co":258.0,"o3":143.0,"so2":7.8,"mosquito_risk":3,"arthritis_risk":5,"migraine_risk":4,"frizz_risk":1,"updated_at":"2026-05-22T17:52:48.005429+05:30"},{"city":"Port Blair","state":"Andaman and Nicobar Islands","latitude":11.6234,"longitude":92.7265,"temp":26.0,"humidity":90,"rain":0.0,"pressure":1006.7,"uv_index":1.35,"wind_gusts":34.2,"aqi":28,"pm10":3.4,"pm2_5":2.2,"no2":0.6,"co":144.0,"o3":60.0,"so2":0.2,"mosquito_risk":7,"arthritis_risk":5,"migraine_risk":0,"frizz_risk":1,"updated_at":"2026-05-22T17:52:48.005439+05:30"},{"city":"Haridwar","state":"Uttarakhand","latitude":29.9457,"longitude":78.1642,"temp":37.0,"humidity":22,"rain":0.0,"pressure":969.7,"uv_index":7.55,"wind_gusts":27.7,"aqi":173,"pm10":138.3,"pm2_5":34.8,"no2":2.7,"co":219.0,"o3":135.0,"so2":4.5,"mosquito_risk":0,"arthritis_risk":5,"migraine_risk":10,"frizz_risk":0,"updated_at":"2026-05-22T17:52:48.005448+05:30"},{"city":"Rishikesh","state":"Uttarakhand","latitude":30.0869,"longitude":78.2676,"temp":35.0,"humidity":26,"rain":0.0,"pressure":962.8,"uv_index":7.7,"wind_gusts":30.2,"aqi":145,"pm10":142.5,"pm2_5":35.3,"no2":1.4,"co":204.0,"o3":139.0,"so2":4.0,"mosquito_risk":0,"arthritis_risk":5,"migraine_risk":7,"frizz_risk":0,"updated_at":"2026-05-22T17:52:48.005458+05:30"},{"city":"Nainital","state":"Uttarakhand","latitude":29.3919,"longitude":79.4542,"temp":23.3,"humidity":44,"rain":0.0,"pressure":807.6,"uv_index":8.5,"wind_gusts":50.4,"aqi":159,"pm10":184.4,"pm2_5":57.2,"no2":2.2,"co":239.0,"o3":158.0,"so2":9.0,"mosquito_risk":0,"arthritis_risk":5,"migraine_risk":7,"frizz_risk":0,"updated_at":"2026-05-22T17:52:48.005471+05:30"},{"city":"Mussoorie","state":"Uttarakhand","latitude":30.4599,"longitude":78.0664,"temp":21.7,"humidity":40,"rain":0.0,"pressure":804.5,"uv_index":8.1,"wind_gusts":45.7,"aqi":131,"pm10":127.6,"pm2_5":29.9,"no2":2.3,"co":182.0,"o3":128.0,"so2":2.9,"mosquito_risk":0,"arthritis_risk":5,"migraine_risk":7,"frizz_risk":0,"updated_at":"2026-05-22T17:52:48.005481+05:30"},{"city":"Dharamshala","state":"Himachal Pradesh","latitude":32.219,"longitude":76.3234,"temp":25.5,"humidity":40,"rain":0.0,"pressure":869.7,"uv_index":8.25,"wind_gusts":42.1,"aqi":61,"pm10":53.0,"pm2_5":14.6,"no2":1.0,"co":156.0,"o3":113.0,"so2":1.0,"mosquito_risk":4,"arthritis_risk":5,"migraine_risk":7,"frizz_risk":0,"updated_at":"2026-05-22T17:52:48.005490+05:30"},{"city":"Dalhousie","state":"Himachal Pradesh","latitude":32.5387,"longitude":75.971,"temp":20.2,"humidity":45,"rain":0.0,"pressure":806.2,"uv_index":8.45,"wind_gusts":45.0,"aqi":72,"pm10":63.3,"pm2_5":19.1,"no2":2.6,"co":163.0,"o3":122.0,"so2":1.5,"mosquito_risk":0,"arthritis_risk":5,"migraine_risk":7,"frizz_risk":0,"updated_at":"2026-05-22T17:52:48.005500+05:30"},{"city":"Patiala","state":"Punjab","latitude":30.3398,"longitude":76.3869,"temp":38.3,"humidity":20,"rain":0.0,"pressure":974.9,"uv_index":7.65,"wind_gusts":53.3,"aqi":532,"pm10":750.6,"pm2_5":95.2,"no2":2.4,"co":182.0,"o3":131.0,"so2":5.5,"mosquito_risk":0,"arthritis_risk":5,"migraine_risk":10,"frizz_risk":0,"updated_at":"2026-05-22T17:52:48.005509+05:30"},{"city":"Bhatinda","state":"Punjab","latitude":30.211,"longitude":74.9455,"temp":39.2,"humidity":19,"rain":0.0,"pressure":980.1,"uv_index":8.3,"wind_gusts":40.0,"aqi":101,"pm10":78.2,"pm2_5":26.8,"no2":2.8,"co":200.0,"o3":134.0,"so2":6.9,"mosquito_risk":0,"arthritis_risk":5,"migraine_risk":10,"frizz_risk":0,"updated_at":"2026-05-22T17:52:48.005517+05:30"},{"city":"Rohtak","state":"Haryana","latitude":28.8955,"longitude":76.6066,"temp":39.2,"humidity":17,"rain":0.0,"pressure":977.5,"uv_index":7.8,"wind_gusts":34.9,"aqi":769,"pm10":793.5,"pm2_5":142.0,"no2":8.3,"co":210.0,"o3":120.0,"so2":6.0,"mosquito_risk":0,"arthritis_risk":5,"migraine_risk":10,"frizz_risk":0,"updated_at":"2026-05-22T17:52:48.005525+05:30"},{"city":"Panipat","state":"Haryana","latitude":29.3909,"longitude":76.9635,"temp":38.8,"humidity":17,"rain":0.0,"pressure":976.0,"uv_index":7.65,"wind_gusts":42.8,"aqi":1609,"pm10":584.9,"pm2_5":106.2,"no2":5.6,"co":188.0,"o3":118.0,"so2":8.3,"mosquito_risk":0,"arthritis_risk":5,"migraine_risk":10,"frizz_risk":0,"updated_at":"2026-05-22T17:52:48.005533+05:30"},{"city":"Mathura","state":"Uttar Pradesh","latitude":27.4924,"longitude":77.6737,"temp":40.2,"humidity":17,"rain":0.0,"pressure":981.4,"uv_index":8.05,"wind_gusts":41.8,"aqi":673,"pm10":1017.0,"pm2_5":139.7,"no2":5.5,"co":179.0,"o3":113.0,"so2":3.3,"mosquito_risk":0,"arthritis_risk":5,"migraine_risk":10,"frizz_risk":0,"updated_at":"2026-05-22T17:52:48.005542+05:30"},{"city":"Vrindavan","state":"Uttar Pradesh","latitude":27.5823,"longitude":77.7027,"temp":39.8,"humidity":18,"rain":0.0,"pressure":982.0,"uv_index":8.0,"wind_gusts":40.0,"aqi":673,"pm10":1017.0,"pm2_5":139.7,"no2":5.5,"co":186.0,"o3":113.0,"so2":3.3,"mosquito_risk":0,"arthritis_risk":5,"migraine_risk":10,"frizz_risk":0,"updated_at":"2026-05-22T17:52:48.005550+05:30"},{"city":"Ayodhya","state":"Uttar Pradesh","latitude":26.7922,"longitude":82.1998,"temp":38.1,"humidity":42,"rain":0.0,"pressure":989.2,"uv_index":8.4,"wind_gusts":29.5,"aqi":166,"pm10":128.1,"pm2_5":54.0,"no2":4.4,"co":361.0,"o3":162.0,"so2":10.6,"mosquito_risk":0,"arthritis_risk":5,"migraine_risk":10,"frizz_risk":1,"updated_at":"2026-05-22T17:52:48.005559+05:30"},{"city":"Ratlam","state":"Madhya Pradesh","latitude":23.3315,"longitude":75.0367,"temp":37.7,"humidity":20,"rain":0.0,"pressure":953.0,"uv_index":8.6,"wind_gusts":38.5,"aqi":66,"pm10":41.9,"pm2_5":21.7,"no2":0.7,"co":141.0,"o3":111.0,"so2":2.7,"mosquito_risk":0,"arthritis_risk":5,"migraine_risk":10,"frizz_risk":0,"updated_at":"2026-05-22T17:52:48.005567+05:30"},{"city":"Sagar","state":"Madhya Pradesh","latitude":23.8388,"longitude":78.7378,"temp":39.3,"humidity":13,"rain":0.0,"pressure":947.3,"uv_index":8.75,"wind_gusts":39.6,"aqi":65,"pm10":46.7,"pm2_5":16.8,"no2":1.0,"co":138.0,"o3":118.0,"so2":2.4,"mosquito_risk":0,"arthritis_risk":5,"migraine_risk":10,"frizz_risk":0,"updated_at":"2026-05-22T17:52:48.005575+05:30"},{"city":"Satna","state":"Madhya Pradesh","latitude":24.6005,"longitude":80.8322,"temp":39.5,"humidity":14,"rain":0.0,"pressure":966.8,"uv_index":8.8,"wind_gusts":39.2,"aqi":71,"pm10":56.5,"pm2_5":16.7,"no2":1.6,"co":152.0,"o3":118.0,"so2":1.9,"mosquito_risk":0,"arthritis_risk":5,"migraine_risk":10,"frizz_risk":0,"updated_at":"2026-05-22T17:52:48.005583+05:30"},{"city":"Akola","state":"Maharashtra","latitude":20.7002,"longitude":77.0082,"temp":40.2,"humidity":20,"rain":0.0,"pressure":971.6,"uv_index":8.9,"wind_gusts":49.7,"aqi":91,"pm10":37.4,"pm2_5":22.7,"no2":2.5,"co":155.0,"o3":127.0,"so2":7.1,"mosquito_risk":0,"arthritis_risk":5,"migraine_risk":10,"frizz_risk":0,"updated_at":"2026-05-22T17:52:48.005593+05:30"},{"city":"Amravati","state":"Maharashtra","latitude":20.9374,"longitude":77.7796,"temp":41.0,"humidity":15,"rain":0.0,"pressure":963.2,"uv_index":8.85,"wind_gusts":45.4,"aqi":87,"pm10":36.9,"pm2_5":22.7,"no2":3.0,"co":169.0,"o3":128.0,"so2":7.5,"mosquito_risk":0,"arthritis_risk":5,"migraine_risk":10,"frizz_risk":0,"updated_at":"2026-05-22T17:52:48.005602+05:30"},{"city":"Latur","state":"Maharashtra","latitude":18.4088,"longitude":76.5604,"temp":36.2,"humidity":39,"rain":0.0,"pressure":939.3,"uv_index":9.0,"wind_gusts":41.0,"aqi":89,"pm10":62.2,"pm2_5":41.0,"no2":2.3,"co":202.0,"o3":131.0,"so2":5.4,"mosquito_risk":0,"arthritis_risk":5,"migraine_risk":10,"frizz_risk":1,"updated_at":"2026-05-22T17:52:48.005610+05:30"},{"city":"Nanded","state":"Maharashtra","latitude":19.1383,"longitude":77.3091,"temp":39.9,"humidity":21,"rain":0.0,"pressure":965.5,"uv_index":8.95,"wind_gusts":39.6,"aqi":105,"pm10":47.7,"pm2_5":29.7,"no2":2.1,"co":169.0,"o3":136.0,"so2":6.5,"mosquito_risk":0,"arthritis_risk":5,"migraine_risk":10,"frizz_risk":0,"updated_at":"2026-05-22T17:52:48.005618+05:30"},{"city":"Gulbarga","state":"Karnataka","latitude":17.3297,"longitude":76.8343,"temp":33.3,"humidity":43,"rain":0.0,"pressure":957.0,"uv_index":8.95,"wind_gusts":51.5,"aqi":76,"pm10":36.9,"pm2_5":24.3,"no2":3.0,"co":204.0,"o3":137.0,"so2":5.5,"mosquito_risk":0,"arthritis_risk":5,"migraine_risk":7,"frizz_risk":1,"updated_at":"2026-05-22T17:52:48.005626+05:30"},{"city":"Bidar","state":"Karnataka","latitude":17.9104,"longitude":77.5199,"temp":34.2,"humidity":36,"rain":0.0,"pressure":934.3,"uv_index":9.0,"wind_gusts":56.9,"aqi":105,"pm10":44.1,"pm2_5":28.3,"no2":2.8,"co":235.0,"o3":143.0,"so2":6.9,"mosquito_risk":0,"arthritis_risk":5,"migraine_risk":7,"frizz_risk":1,"updated_at":"2026-05-22T17:52:48.005634+05:30"},{"city":"Hospet","state":"Karnataka","latitude":15.2689,"longitude":76.3909,"temp":32.0,"humidity":52,"rain":0.0,"pressure":955.3,"uv_index":9.05,"wind_gusts":46.4,"aqi":40,"pm10":16.5,"pm2_5":11.6,"no2":4.6,"co":208.0,"o3":99.0,"so2":2.9,"mosquito_risk":0,"arthritis_risk":5,"migraine_risk":7,"frizz_risk":1,"updated_at":"2026-05-22T17:52:48.005642+05:30"},{"city":"Tirupur","state":"Tamil Nadu","latitude":11.1085,"longitude":77.3411,"temp":31.4,"humidity":59,"rain":0.0,"pressure":973.9,"uv_index":8.35,"wind_gusts":61.9,"aqi":44,"pm10":10.0,"pm2_5":7.0,"no2":4.6,"co":162.0,"o3":90.0,"so2":2.2,"mosquito_risk":0,"arthritis_risk":5,"migraine_risk":7,"frizz_risk":1,"updated_at":"2026-05-22T17:52:48.005650+05:30"},{"city":"Alappuzha","state":"Kerala","latitude":9.4981,"longitude":76.3388,"temp":27.0,"humidity":87,"rain":0.2,"pressure":1010.4,"uv_index":7.95,"wind_gusts":36.4,"aqi":36,"pm10":8.5,"pm2_5":5.8,"no2":3.6,"co":101.0,"o3":65.0,"so2":1.2,"mosquito_risk":10,"arthritis_risk":0,"migraine_risk":4,"frizz_risk":1,"updated_at":"2026-05-22T17:52:48.005659+05:30"},{"city":"Munnar","state":"Kerala","latitude":10.0889,"longitude":77.0595,"temp":18.0,"humidity":99,"rain":0.3,"pressure":857.8,"uv_index":5.1,"wind_gusts":32.0,"aqi":33,"pm10":5.8,"pm2_5":4.6,"no2":3.7,"co":140.0,"o3":71.0,"so2":1.3,"mosquito_risk":6,"arthritis_risk":10,"migraine_risk":3,"frizz_risk":1,"updated_at":"2026-05-22T17:52:48.005668+05:30"},{"city":"Silchar","state":"Assam","latitude":24.8333,"longitude":92.7789,"temp":27.5,"humidity":92,"rain":0.2,"pressure":1001.7,"uv_index":8.95,"wind_gusts":24.8,"aqi":91,"pm10":32.9,"pm2_5":22.2,"no2":5.9,"co":285.0,"o3":92.0,"so2":3.7,"mosquito_risk":10,"arthritis_risk":5,"migraine_risk":4,"frizz_risk":1,"updated_at":"2026-05-22T17:52:48.005677+05:30"},{"city":"Dibrugarh","state":"Assam","latitude":27.4728,"longitude":94.912,"temp":27.7,"humidity":89,"rain":0.0,"pressure":991.8,"uv_index":8.95,"wind_gusts":27.4,"aqi":97,"pm10":41.6,"pm2_5":33.9,"no2":8.0,"co":293.0,"o3":91.0,"so2":2.2,"mosquito_risk":7,"arthritis_risk":5,"migraine_risk":7,"frizz_risk":1,"updated_at":"2026-05-22T17:52:48.005685+05:30"}]