[{"city":"Delhi","state":"Delhi","latitude":28.6139,"longitude":77.209,"temp":34.2,"humidity":25,"rain":0.0,"pressure":980.3,"uv_index":7.4,"wind_gusts":31.0,"aqi":244,"pm10":211.9,"pm2_5":60.5,"mosquito_risk":0,"arthritis_risk":5,"migraine_risk":7,"frizz_risk":0,"updated_at":"2026-04-23T21:26:58.419685+05:30"},{"city":"Mumbai","state":"Maharashtra","latitude":19.076,"longitude":72.8777,"temp":30.0,"humidity":73,"rain":0.0,"pressure":1006.3,"uv_index":8.05,"wind_gusts":25.9,"aqi":126,"pm10":36.4,"pm2_5":30.6,"mosquito_risk":7,"arthritis_risk":5,"migraine_risk":4,"frizz_risk":1,"updated_at":"2026-04-23T21:26:58.419733+05:30"},{"city":"Bangalore","state":"Karnataka","latitude":12.9716,"longitude":77.5946,"temp":28.3,"humidity":42,"rain":0.0,"pressure":910.9,"uv_index":9.4,"wind_gusts":33.1,"aqi":128,"pm10":25.5,"pm2_5":22.4,"mosquito_risk":4,"arthritis_risk":5,"migraine_risk":7,"frizz_risk":0,"updated_at":"2026-04-23T21:26:58.419750+05:30"},{"city":"Hyderabad","state":"Telangana","latitude":17.385,"longitude":78.4867,"temp":30.5,"humidity":49,"rain":0.0,"pressure":952.4,"uv_index":8.85,"wind_gusts":42.5,"aqi":160,"pm10":46.3,"pm2_5":41.3,"mosquito_risk":0,"arthritis_risk":5,"migraine_risk":7,"frizz_risk":1,"updated_at":"2026-04-23T21:26:58.419764+05:30"},{"city":"Chennai","state":"Tamil Nadu","latitude":13.0827,"longitude":80.2707,"temp":29.5,"humidity":80,"rain":0.0,"pressure":1005.9,"uv_index":9.3,"wind_gusts":33.1,"aqi":30,"pm10":8.9,"pm2_5":6.1,"mosquito_risk":7,"arthritis_risk":5,"migraine_risk":4,"frizz_risk":1,"updated_at":"2026-04-23T21:26:58.419775+05:30"},{"city":"Kolkata","state":"West Bengal","latitude":22.5726,"longitude":88.3639,"temp":28.8,"humidity":86,"rain":0.0,"pressure":1003.9,"uv_index":8.85,"wind_gusts":23.4,"aqi":101,"pm10":31.5,"pm2_5":29.0,"mosquito_risk":7,"arthritis_risk":5,"migraine_risk":4,"frizz_risk":1,"updated_at":"2026-04-23T21:26:58.419790+05:30"},{"city":"Pune","state":"Maharashtra","latitude":18.5204,"longitude":73.8567,"temp":29.2,"humidity":51,"rain":0.0,"pressure":947.7,"uv_index":8.65,"wind_gusts":38.5,"aqi":136,"pm10":45.4,"pm2_5":40.7,"mosquito_risk":4,"arthritis_risk":5,"migraine_risk":7,"frizz_risk":1,"updated_at":"2026-04-23T21:26:58.419800+05:30"},{"city":"Ahmedabad","state":"Gujarat","latitude":23.0225,"longitude":72.5714,"temp":33.5,"humidity":29,"rain":0.0,"pressure":999.9,"uv_index":8.2,"wind_gusts":29.5,"aqi":52,"pm10":49.9,"pm2_5":22.4,"mosquito_risk":0,"arthritis_risk":5,"migraine_risk":7,"frizz_risk":0,"updated_at":"2026-04-23T21:26:58.419811+05:30"},{"city":"Jaipur","state":"Rajasthan","latitude":26.9124,"longitude":75.7873,"temp":31.9,"humidity":22,"rain":0.0,"pressure":958.1,"uv_index":8.05,"wind_gusts":29.9,"aqi":117,"pm10":64.0,"pm2_5":23.5,"mosquito_risk":0,"arthritis_risk":5,"migraine_risk":7,"frizz_risk":0,"updated_at":"2026-04-23T21:26:58.419823+05:30"},{"city":"Lucknow","state":"Uttar Pradesh","latitude":26.8467,"longitude":80.9462,"temp":32.2,"humidity":28,"rain":0.0,"pressure":990.4,"uv_index":7.85,"wind_gusts":38.5,"aqi":188,"pm10":247.7,"pm2_5":50.8,"mosquito_risk":0,"arthritis_risk":5,"migraine_risk":7,"frizz_risk":0,"updated_at":"2026-04-23T21:26:58.419834+05:30"},{"city":"Kanpur","state":"Uttar Pradesh","latitude":26.4499,"longitude":80.3319,"temp":29.5,"humidity":43,"rain":0.0,"pressure":988.8,"uv_index":7.9,"wind_gusts":29.5,"aqi":373,"pm10":264.5,"pm2_5":48.0,"mosquito_risk":4,"arthritis_risk":5,"migraine_risk":7,"frizz_risk":0,"updated_at":"2026-04-23T21:26:58.419845+05:30"},{"city":"Chandigarh","state":"Chandigarh","latitude":30.7333,"longitude":76.7794,"temp":29.5,"humidity":53,"rain":0.0,"pressure":965.8,"uv_index":7.4,"wind_gusts":32.4,"aqi":142,"pm10":35.0,"pm2_5":25.3,"mosquito_risk":4,"arthritis_risk":5,"migraine_risk":7,"frizz_risk":1,"updated_at":"2026-04-23T21:26:58.419855+05:30"},{"city":"Srinagar","state":"Jammu and Kashmir","latitude":34.0837,"longitude":74.7973,"temp":17.1,"humidity":78,"rain":0.0,"pressure":842.7,"uv_index":6.85,"wind_gusts":17.3,"aqi":74,"pm10":56.2,"pm2_5":43.3,"mosquito_risk":3,"arthritis_risk":5,"migraine_risk":7,"frizz_risk":0,"updated_at":"2026-04-23T21:26:58.419865+05:30"},{"city":"Jammu","state":"Jammu and Kashmir","latitude":32.7266,"longitude":74.857,"temp":28.6,"humidity":66,"rain":0.0,"pressure":970.6,"uv_index":8.2,"wind_gusts":37.1,"aqi":106,"pm10":66.4,"pm2_5":40.7,"mosquito_risk":7,"arthritis_risk":5,"migraine_risk":7,"frizz_risk":1,"updated_at":"2026-04-23T21:26:58.419875+05:30"},{"city":"Amritsar","state":"Punjab","latitude":31.634,"longitude":74.8723,"temp":28.6,"humidity":56,"rain":0.0,"pressure":978.6,"uv_index":7.55,"wind_gusts":34.6,"aqi":145,"pm10":41.4,"pm2_5":24.7,"mosquito_risk":4,"arthritis_risk":5,"migraine_risk":7,"frizz_risk":1,"updated_at":"2026-04-23T21:26:58.419884+05:30"},{"city":"Ludhiana","state":"Punjab","latitude":30.901,"longitude":75.8573,"temp":31.7,"humidity":35,"rain":0.0,"pressure":976.2,"uv_index":7.7,"wind_gusts":34.6,"aqi":114,"pm10":44.5,"pm2_5":27.0,"mosquito_risk":0,"arthritis_risk":5,"migraine_risk":7,"frizz_risk":0,"updated_at":"2026-04-23T21:26:58.419893+05:30"},{"city":"Jalandhar","state":"Punjab","latitude":31.326,"longitude":75.5762,"temp":29.9,"humidity":43,"rain":0.0,"pressure":977.5,"uv_index":7.9,"wind_gusts":25.9,"aqi":122,"pm10":68.9,"pm2_5":27.0,"mosquito_risk":4,"arthritis_risk":5,"migraine_risk":7,"frizz_risk":0,"updated_at":"2026-04-23T21:26:58.419900+05:30"},{"city":"Dehradun","state":"Uttarakhand","latitude":30.6284,"longitude":78.0322,"temp":19.4,"humidity":61,"rain":0.0,"pressure":830.9,"uv_index":7.85,"wind_gusts":36.7,"aqi":137,"pm10":34.0,"pm2_5":23.3,"mosquito_risk":3,"arthritis_risk":5,"migraine_risk":7,"frizz_risk":0,"updated_at":"2026-04-23T21:26:58.419906+05:30"},{"city":"Shimla","state":"Himachal Pradesh","latitude":31.1048,"longitude":77.1734,"temp":17.9,"humidity":47,"rain":0.0,"pressure":785.7,"uv_index":7.9,"wind_gusts":49.7,"aqi":130,"pm10":31.5,"pm2_5":19.2,"mosquito_risk":0,"arthritis_risk":5,"migraine_risk":7,"frizz_risk":0,"updated_at":"2026-04-23T21:26:58.419913+05:30"},{"city":"Manali","state":"Himachal Pradesh","latitude":32.2396,"longitude":77.1887,"temp":18.7,"humidity":72,"rain":0.0,"pressure":823.0,"uv_index":9.85,"wind_gusts":34.9,"aqi":147,"pm10":22.1,"pm2_5":12.8,"mosquito_risk":3,"arthritis_risk":5,"migraine_risk":7,"frizz_risk":0,"updated_at":"2026-04-23T21:26:58.419919+05:30"},{"city":"Gurgaon","state":"Haryana","latitude":28.4595,"longitude":77.0266,"temp":32.8,"humidity":27,"rain":0.0,"pressure":978.6,"uv_index":7.5,"wind_gusts":24.5,"aqi":846,"pm10":216.1,"pm2_5":62.2,"mosquito_risk":0,"arthritis_risk":5,"migraine_risk":7,"frizz_risk":0,"updated_at":"2026-04-23T21:26:58.419925+05:30"},{"city":"Noida","state":"Uttar Pradesh","latitude":28.5355,"longitude":77.391,"temp":32.9,"humidity":31,"rain":0.0,"pressure":981.7,"uv_index":7.4,"wind_gusts":31.7,"aqi":846,"pm10":216.1,"pm2_5":62.2,"mosquito_risk":0,"arthritis_risk":5,"migraine_risk":7,"frizz_risk":0,"updated_at":"2026-04-23T21:26:58.419931+05:30"},{"city":"Ghaziabad","state":"Uttar Pradesh","latitude":28.6692,"longitude":77.4538,"temp":33.0,"humidity":31,"rain":0.0,"pressure":979.8,"uv_index":7.4,"wind_gusts":30.6,"aqi":192,"pm10":205.4,"pm2_5":64.0,"mosquito_risk":0,"arthritis_risk":5,"migraine_risk":7,"frizz_risk":0,"updated_at":"2026-04-23T21:26:58.419936+05:30"},{"city":"Faridabad","state":"Haryana","latitude":28.4089,"longitude":77.3178,"temp":31.7,"humidity":32,"rain":0.0,"pressure":981.0,"uv_index":7.45,"wind_gusts":29.9,"aqi":846,"pm10":216.1,"pm2_5":62.2,"mosquito_risk":0,"arthritis_risk":5,"migraine_risk":7,"frizz_risk":0,"updated_at":"2026-04-23T21:26:58.419942+05:30"},{"city":"Meerut","state":"Uttar Pradesh","latitude":28.9845,"longitude":77.7064,"temp":29.7,"humidity":39,"rain":0.0,"pressure":978.4,"uv_index":7.3,"wind_gusts":29.9,"aqi":192,"pm10":205.4,"pm2_5":64.0,"mosquito_risk":4,"arthritis_risk":5,"migraine_risk":7,"frizz_risk":0,"updated_at":"2026-04-23T21:26:58.419948+05:30"},{"city":"Agra","state":"Uttar Pradesh","latitude":27.1767,"longitude":78.0081,"temp":28.7,"humidity":32,"rain":0.0,"pressure":985.1,"uv_index":7.75,"wind_gusts":32.0,"aqi":560,"pm10":122.5,"pm2_5":48.8,"mosquito_risk":4,"arthritis_risk":5,"migraine_risk":7,"frizz_risk":0,"updated_at":"2026-04-23T21:26:58.419956+05:30"},{"city":"Varanasi","state":"Uttar Pradesh","latitude":25.3176,"longitude":82.9739,"temp":31.8,"humidity":28,"rain":0.0,"pressure":994.2,"uv_index":8.45,"wind_gusts":35.3,"aqi":142,"pm10":193.7,"pm2_5":54.4,"mosquito_risk":0,"arthritis_risk":5,"migraine_risk":7,"frizz_risk":0,"updated_at":"2026-04-23T21:26:58.419969+05:30"},{"city":"Prayagraj","state":"Uttar Pradesh","latitude":25.4358,"longitude":81.8463,"temp":33.3,"humidity":31,"rain":0.0,"pressure":993.1,"uv_index":8.35,"wind_gusts":31.0,"aqi":140,"pm10":175.1,"pm2_5":51.8,"mosquito_risk":0,"arthritis_risk":5,"migraine_risk":7,"frizz_risk":0,"updated_at":"2026-04-23T21:26:58.419975+05:30"},{"city":"Gorakhpur","state":"Uttar Pradesh","latitude":26.7606,"longitude":83.3732,"temp":32.2,"humidity":31,"rain":0.0,"pressure":993.6,"uv_index":8.25,"wind_gusts":31.3,"aqi":157,"pm10":50.4,"pm2_5":35.5,"mosquito_risk":0,"arthritis_risk":5,"migraine_risk":7,"frizz_risk":0,"updated_at":"2026-04-23T21:26:58.419981+05:30"},{"city":"Bareilly","state":"Uttar Pradesh","latitude":28.367,"longitude":79.4304,"temp":30.3,"humidity":38,"rain":0.0,"pressure":983.4,"uv_index":7.65,"wind_gusts":29.9,"aqi":164,"pm10":85.4,"pm2_5":35.3,"mosquito_risk":0,"arthritis_risk":5,"migraine_risk":7,"frizz_risk":0,"updated_at":"2026-04-23T21:26:58.419987+05:30"},{"city":"Aligarh","state":"Uttar Pradesh","latitude":27.8974,"longitude":78.088,"temp":29.0,"humidity":35,"rain":0.0,"pressure":982.7,"uv_index":7.55,"wind_gusts":31.3,"aqi":518,"pm10":491.7,"pm2_5":61.7,"mosquito_risk":4,"arthritis_risk":5,"migraine_risk":7,"frizz_risk":0,"updated_at":"2026-04-23T21:26:58.419994+05:30"},{"city":"Moradabad","state":"Uttar Pradesh","latitude":28.8386,"longitude":78.7733,"temp":30.2,"humidity":37,"rain":0.0,"pressure":980.4,"uv_index":7.5,"wind_gusts":32.0,"aqi":152,"pm10":76.1,"pm2_5":42.3,"mosquito_risk":0,"arthritis_risk":5,"migraine_risk":7,"frizz_risk":0,"updated_at":"2026-04-23T21:26:58.419999+05:30"},{"city":"Saharanpur","state":"Uttar Pradesh","latitude":29.9637,"longitude":77.546,"temp":28.1,"humidity":51,"rain":0.0,"pressure":972.3,"uv_index":7.1,"wind_gusts":33.8,"aqi":138,"pm10":81.3,"pm2_5":43.3,"mosquito_risk":4,"arthritis_risk":5,"migraine_risk":7,"frizz_risk":1,"updated_at":"2026-04-23T21:26:58.420005+05:30"},{"city":"Jhansi","state":"Uttar Pradesh","latitude":25.4484,"longitude":78.5685,"temp":32.8,"humidity":27,"rain":0.0,"pressure":976.2,"uv_index":8.25,"wind_gusts":30.6,"aqi":92,"pm10":22.6,"pm2_5":21.0,"mosquito_risk":0,"arthritis_risk":5,"migraine_risk":7,"frizz_risk":0,"updated_at":"2026-04-23T21:27:01.729710+05:30"},{"city":"Surat","state":"Gujarat","latitude":21.1702,"longitude":72.8311,"temp":28.9,"humidity":71,"rain":0.0,"pressure":1004.8,"uv_index":7.9,"wind_gusts":23.4,"aqi":95,"pm10":68.5,"pm2_5":63.6,"mosquito_risk":7,"arthritis_risk":5,"migraine_risk":4,"frizz_risk":1,"updated_at":"2026-04-23T21:27:01.729743+05:30"},{"city":"Vadodara","state":"Gujarat","latitude":22.3072,"longitude":73.1812,"temp":32.9,"humidity":39,"rain":0.0,"pressure":1001.8,"uv_index":8.15,"wind_gusts":26.6,"aqi":127,"pm10":50.1,"pm2_5":39.3,"mosquito_risk":0,"arthritis_risk":5,"migraine_risk":4,"frizz_risk":1,"updated_at":"2026-04-23T21:27:01.729754+05:30"},{"city":"Rajkot","state":"Gujarat","latitude":22.3039,"longitude":70.8022,"temp":29.1,"humidity":57,"rain":0.0,"pressure":993.3,"uv_index":7.9,"wind_gusts":33.8,"aqi":68,"pm10":25.2,"pm2_5":10.6,"mosquito_risk":4,"arthritis_risk":5,"migraine_risk":7,"frizz_risk":1,"updated_at":"2026-04-23T21:27:01.729763+05:30"},{"city":"Thane","state":"Maharashtra","latitude":19.2183,"longitude":72.9781,"temp":29.3,"humidity":68,"rain":0.0,"pressure":1005.8,"uv_index":8.05,"wind_gusts":37.4,"aqi":126,"pm10":36.4,"pm2_5":30.6,"mosquito_risk":7,"arthritis_risk":5,"migraine_risk":4,"frizz_risk":1,"updated_at":"2026-04-23T21:27:01.729772+05:30"},{"city":"Nagpur","state":"Maharashtra","latitude":21.1458,"longitude":79.0882,"temp":32.6,"humidity":43,"rain":0.0,"pressure":971.3,"uv_index":8.95,"wind_gusts":24.8,"aqi":120,"pm10":43.9,"pm2_5":39.8,"mosquito_risk":0,"arthritis_risk":5,"migraine_risk":7,"frizz_risk":1,"updated_at":"2026-04-23T21:27:01.729782+05:30"},{"city":"Nashik","state":"Maharashtra","latitude":19.9975,"longitude":73.7898,"temp":29.0,"humidity":52,"rain":0.0,"pressure":945.2,"uv_index":8.3,"wind_gusts":29.5,"aqi":136,"pm10":30.6,"pm2_5":27.6,"mosquito_risk":4,"arthritis_risk":5,"migraine_risk":7,"frizz_risk":1,"updated_at":"2026-04-23T21:27:01.729791+05:30"},{"city":"Aurangabad","state":"Maharashtra","latitude":19.8762,"longitude":75.3433,"temp":31.5,"humidity":33,"rain":0.0,"pressure":943.5,"uv_index":9.05,"wind_gusts":33.8,"aqi":135,"pm10":33.1,"pm2_5":28.9,"mosquito_risk":0,"arthritis_risk":5,"migraine_risk":7,"frizz_risk":0,"updated_at":"2026-04-23T21:27:01.729799+05:30"},{"city":"Solapur","state":"Maharashtra","latitude":17.6599,"longitude":75.9064,"temp":29.7,"humidity":51,"rain":0.0,"pressure":956.9,"uv_index":9.1,"wind_gusts":36.4,"aqi":159,"pm10":41.0,"pm2_5":36.8,"mosquito_risk":4,"arthritis_risk":5,"migraine_risk":7,"frizz_risk":1,"updated_at":"2026-04-23T21:27:01.729809+05:30"},{"city":"Kolhapur","state":"Maharashtra","latitude":16.705,"longitude":74.2433,"temp":25.1,"humidity":81,"rain":0.0,"pressure":947.4,"uv_index":9.05,"wind_gusts":47.9,"aqi":143,"pm10":61.2,"pm2_5":58.0,"mosquito_risk":7,"arthritis_risk":5,"migraine_risk":7,"frizz_risk":1,"updated_at":"2026-04-23T21:27:01.729818+05:30"},{"city":"Goa","state":"Goa","latitude":15.2993,"longitude":74.124,"temp":29.7,"humidity":79,"rain":0.0,"pressure":995.8,"uv_index":9.0,"wind_gusts":31.7,"aqi":86,"pm10":37.7,"pm2_5":26.7,"mosquito_risk":7,"arthritis_risk":5,"migraine_risk":7,"frizz_risk":1,"updated_at":"2026-04-23T21:27:01.729826+05:30"},{"city":"Jodhpur","state":"Rajasthan","latitude":26.2389,"longitude":73.0243,"temp":33.5,"humidity":30,"rain":0.0,"pressure":980.8,"uv_index":8.25,"wind_gusts":22.3,"aqi":77,"pm10":62.4,"pm2_5":19.7,"mosquito_risk":0,"arthritis_risk":5,"migraine_risk":7,"frizz_risk":0,"updated_at":"2026-04-23T21:27:01.729835+05:30"},{"city":"Udaipur","state":"Rajasthan","latitude":24.5854,"longitude":73.7125,"temp":29.3,"humidity":38,"rain":0.0,"pressure":946.3,"uv_index":8.8,"wind_gusts":32.0,"aqi":49,"pm10":42.7,"pm2_5":13.3,"mosquito_risk":4,"arthritis_risk":5,"migraine_risk":7,"frizz_risk":0,"updated_at":"2026-04-23T21:27:01.729843+05:30"},{"city":"Kota","state":"Rajasthan","latitude":25.2138,"longitude":75.8648,"temp":31.5,"humidity":23,"rain":0.0,"pressure":976.2,"uv_index":8.25,"wind_gusts":33.8,"aqi":115,"pm10":22.9,"pm2_5":19.6,"mosquito_risk":0,"arthritis_risk":5,"migraine_risk":7,"frizz_risk":0,"updated_at":"2026-04-23T21:27:01.729851+05:30"},{"city":"Bikaner","state":"Rajasthan","latitude":28.0229,"longitude":73.3119,"temp":35.3,"humidity":26,"rain":0.0,"pressure":979.3,"uv_index":8.15,"wind_gusts":23.4,"aqi":77,"pm10":59.4,"pm2_5":19.2,"mosquito_risk":0,"arthritis_risk":5,"migraine_risk":10,"frizz_risk":0,"updated_at":"2026-04-23T21:27:01.729860+05:30"},{"city":"Ajmer","state":"Rajasthan","latitude":26.4499,"longitude":74.6399,"temp":31.1,"humidity":31,"rain":0.0,"pressure":953.2,"uv_index":8.2,"wind_gusts":26.6,"aqi":87,"pm10":19.5,"pm2_5":13.2,"mosquito_risk":0,"arthritis_risk":5,"migraine_risk":7,"frizz_risk":0,"updated_at":"2026-04-23T21:27:01.729868+05:30"},{"city":"Gwalior","state":"Madhya Pradesh","latitude":26.2183,"longitude":78.1828,"temp":31.4,"humidity":32,"rain":0.0,"pressure":981.0,"uv_index":8.0,"wind_gusts":37.8,"aqi":80,"pm10":12.9,"pm2_5":11.6,"mosquito_risk":0,"arthritis_risk":5,"migraine_risk":7,"frizz_risk":0,"updated_at":"2026-04-23T21:27:01.729876+05:30"},{"city":"Indore","state":"Madhya Pradesh","latitude":22.7196,"longitude":75.8577,"temp":29.6,"humidity":33,"rain":0.0,"pressure":947.5,"uv_index":8.55,"wind_gusts":37.1,"aqi":123,"pm10":30.7,"pm2_5":28.2,"mosquito_risk":4,"arthritis_risk":5,"migraine_risk":7,"frizz_risk":0,"updated_at":"2026-04-23T21:27:01.729885+05:30"},{"city":"Bhopal","state":"Madhya Pradesh","latitude":23.2599,"longitude":77.4126,"temp":30.6,"humidity":31,"rain":0.0,"pressure":952.6,"uv_index":8.45,"wind_gusts":28.4,"aqi":112,"pm10":28.8,"pm2_5":25.8,"mosquito_risk":0,"arthritis_risk":5,"migraine_risk":7,"frizz_risk":0,"updated_at":"2026-04-23T21:27:01.729893+05:30"},{"city":"Jabalpur","state":"Madhya Pradesh","latitude":23.1815,"longitude":79.9864,"temp":30.4,"humidity":36,"rain":0.0,"pressure":959.9,"uv_index":8.8,"wind_gusts":25.2,"aqi":104,"pm10":36.1,"pm2_5":31.7,"mosquito_risk":0,"arthritis_risk":5,"migraine_risk":7,"frizz_risk":0,"updated_at":"2026-04-23T21:27:01.729901+05:30"},{"city":"Ujjain","state":"Madhya Pradesh","latitude":23.1765,"longitude":75.7885,"temp":30.1,"humidity":31,"rain":0.0,"pressure":953.2,"uv_index":8.55,"wind_gusts":36.7,"aqi":118,"pm10":22.9,"pm2_5":21.1,"mosquito_risk":0,"arthritis_risk":5,"migraine_risk":7,"frizz_risk":0,"updated_at":"2026-04-23T21:27:01.729909+05:30"},{"city":"Visakhapatnam","state":"Andhra Pradesh","latitude":17.6868,"longitude":83.2185,"temp":28.4,"humidity":81,"rain":0.0,"pressure":1002.2,"uv_index":9.2,"wind_gusts":35.3,"aqi":66,"pm10":19.3,"pm2_5":14.7,"mosquito_risk":7,"arthritis_risk":5,"migraine_risk":4,"frizz_risk":1,"updated_at":"2026-04-23T21:27:01.729916+05:30"},{"city":"Vijayawada","state":"Andhra Pradesh","latitude":16.5062,"longitude":80.648,"temp":29.5,"humidity":68,"rain":0.0,"pressure":1001.4,"uv_index":9.25,"wind_gusts":24.8,"aqi":56,"pm10":15.7,"pm2_5":12.7,"mosquito_risk":7,"arthritis_risk":5,"migraine_risk":4,"frizz_risk":1,"updated_at":"2026-04-23T21:27:01.729922+05:30"},{"city":"Guntur","state":"Andhra Pradesh","latitude":16.3067,"longitude":80.4365,"temp":28.7,"humidity":79,"rain":0.0,"pressure":1002.7,"uv_index":9.3,"wind_gusts":29.9,"aqi":57,"pm10":17.6,"pm2_5":14.5,"mosquito_risk":7,"arthritis_risk":5,"migraine_risk":4,"frizz_risk":1,"updated_at":"2026-04-23T21:27:01.729929+05:30"},{"city":"Nellore","state":"Andhra Pradesh","latitude":14.4426,"longitude":79.9865,"temp":28.7,"humidity":78,"rain":0.0,"pressure":1004.3,"uv_index":9.3,"wind_gusts":32.0,"aqi":57,"pm10":10.8,"pm2_5":8.0,"mosquito_risk":7,"arthritis_risk":5,"migraine_risk":4,"frizz_risk":1,"updated_at":"2026-04-23T21:27:01.729936+05:30"},{"city":"Kurnool","state":"Andhra Pradesh","latitude":15.8281,"longitude":78.0373,"temp":33.7,"humidity":40,"rain":0.0,"pressure":975.2,"uv_index":8.9,"wind_gusts":32.8,"aqi":134,"pm10":34.5,"pm2_5":30.9,"mosquito_risk":0,"arthritis_risk":5,"migraine_risk":7,"frizz_risk":1,"updated_at":"2026-04-23T21:27:01.729944+05:30"},{"city":"Kakinada","state":"Andhra Pradesh","latitude":16.9891,"longitude":82.2475,"temp":29.1,"humidity":78,"rain":0.0,"pressure":1006.3,"uv_index":9.25,"wind_gusts":29.2,"aqi":44,"pm10":14.3,"pm2_5":9.1,"mosquito_risk":7,"arthritis_risk":5,"migraine_risk":4,"frizz_risk":1,"updated_at":"2026-04-23T21:27:01.729950+05:30"},{"city":"Tirupati","state":"Andhra Pradesh","latitude":13.6288,"longitude":79.4192,"temp":31.0,"humidity":61,"rain":0.0,"pressure":990.6,"uv_index":9.35,"wind_gusts":33.8,"aqi":81,"pm10":17.5,"pm2_5":16.1,"mosquito_risk":3,"arthritis_risk":5,"migraine_risk":7,"frizz_risk":1,"updated_at":"2026-04-23T21:27:01.729957+05:30"},{"city":"Warangal","state":"Telangana","latitude":17.9689,"longitude":79.5941,"temp":32.8,"humidity":51,"rain":0.0,"pressure":976.8,"uv_index":8.55,"wind_gusts":20.5,"aqi":155,"pm10":53.2,"pm2_5":48.2,"mosquito_risk":0,"arthritis_risk":5,"migraine_risk":7,"frizz_risk":1,"updated_at":"2026-04-23T21:27:01.729963+05:30"},{"city":"Nizamabad","state":"Telangana","latitude":18.6725,"longitude":78.0941,"temp":32.4,"humidity":41,"rain":0.0,"pressure":963.6,"uv_index":8.6,"wind_gusts":28.4,"aqi":134,"pm10":62.6,"pm2_5":56.1,"mosquito_risk":0,"arthritis_risk":5,"migraine_risk":7,"frizz_risk":1,"updated_at":"2026-04-23T21:27:01.729970+05:30"},{"city":"Mysore","state":"Karnataka","latitude":12.2958,"longitude":76.6396,"temp":26.5,"humidity":76,"rain":0.0,"pressure":927.4,"uv_index":9.3,"wind_gusts":39.6,"aqi":145,"pm10":29.6,"pm2_5":26.1,"mosquito_risk":7,"arthritis_risk":5,"migraine_risk":7,"frizz_risk":1,"updated_at":"2026-04-23T21:27:01.729976+05:30"},{"city":"Mangalore","state":"Karnataka","latitude":12.9141,"longitude":74.856,"temp":30.6,"humidity":78,"rain":0.0,"pressure":1004.9,"uv_index":8.95,"wind_gusts":27.0,"aqi":89,"pm10":35.6,"pm2_5":26.5,"mosquito_risk":3,"arthritis_risk":5,"migraine_risk":4,"frizz_risk":1,"updated_at":"2026-04-23T21:27:01.729982+05:30"},{"city":"Hubli-Dharwad","state":"Karnataka","latitude":15.3647,"longitude":75.124,"temp":27.0,"humidity":64,"rain":0.0,"pressure":939.7,"uv_index":9.25,"wind_gusts":44.3,"aqi":162,"pm10":40.3,"pm2_5":37.5,"mosquito_risk":7,"arthritis_risk":5,"migraine_risk":7,"frizz_risk":1,"updated_at":"2026-04-23T21:27:01.729989+05:30"},{"city":"Belgaum","state":"Karnataka","latitude":15.8497,"longitude":74.4977,"temp":25.9,"humidity":81,"rain":0.0,"pressure":924.9,"uv_index":9.25,"wind_gusts":39.2,"aqi":158,"pm10":37.1,"pm2_5":33.9,"mosquito_risk":7,"arthritis_risk":5,"migraine_risk":7,"frizz_risk":1,"updated_at":"2026-04-23T21:27:05.042120+05:30"},{"city":"Coimbatore","state":"Tamil Nadu","latitude":11.0168,"longitude":76.9558,"temp":26.7,"humidity":77,"rain":0.0,"pressure":960.9,"uv_index":9.4,"wind_gusts":35.6,"aqi":113,"pm10":34.7,"pm2_5":30.7,"mosquito_risk":7,"arthritis_risk":5,"migraine_risk":7,"frizz_risk":1,"updated_at":"2026-04-23T21:27:05.042151+05:30"},{"city":"Madurai","state":"Tamil Nadu","latitude":9.9252,"longitude":78.1198,"temp":29.6,"humidity":69,"rain":0.0,"pressure":992.1,"uv_index":9.3,"wind_gusts":37.4,"aqi":86,"pm10":8.3,"pm2_5":7.8,"mosquito_risk":7,"arthritis_risk":5,"migraine_risk":7,"frizz_risk":1,"updated_at":"2026-04-23T21:27:05.042163+05:30"},{"city":"Trichy","state":"Tamil Nadu","latitude":10.7905,"longitude":78.7047,"temp":30.1,"humidity":64,"rain":0.0,"pressure":998.3,"uv_index":9.3,"wind_gusts":22.3,"aqi":74,"pm10":10.2,"pm2_5":9.9,"mosquito_risk":3,"arthritis_risk":5,"migraine_risk":7,"frizz_risk":1,"updated_at":"2026-04-23T21:27:05.042173+05:30"},{"city":"Salem","state":"Tamil Nadu","latitude":11.6643,"longitude":78.146,"temp":30.8,"humidity":55,"rain":0.0,"pressure":975.6,"uv_index":9.4,"wind_gusts":31.0,"aqi":104,"pm10":22.4,"pm2_5":20.0,"mosquito_risk":0,"arthritis_risk":5,"migraine_risk":7,"frizz_risk":1,"updated_at":"2026-04-23T21:27:05.042181+05:30"},{"city":"Tirunelveli","state":"Tamil Nadu","latitude":8.7139,"longitude":77.7567,"temp":29.7,"humidity":68,"rain":0.0,"pressure":1002.0,"uv_index":9.25,"wind_gusts":38.5,"aqi":98,"pm10":18.8,"pm2_5":17.6,"mosquito_risk":7,"arthritis_risk":5,"migraine_risk":4,"frizz_risk":1,"updated_at":"2026-04-23T21:27:05.042190+05:30"},{"city":"Vellore","state":"Tamil Nadu","latitude":12.9165,"longitude":79.1325,"temp":29.9,"humidity":65,"rain":0.0,"pressure":983.4,"uv_index":9.4,"wind_gusts":30.6,"aqi":78,"pm10":21.7,"pm2_5":20.6,"mosquito_risk":7,"arthritis_risk":5,"migraine_risk":7,"frizz_risk":1,"updated_at":"2026-04-23T21:27:05.042199+05:30"},{"city":"Erode","state":"Tamil Nadu","latitude":11.341,"longitude":77.7172,"temp":32.7,"humidity":40,"rain":0.0,"pressure":987.0,"uv_index":9.35,"wind_gusts":30.6,"aqi":93,"pm10":17.7,"pm2_5":15.4,"mosquito_risk":0,"arthritis_risk":5,"migraine_risk":7,"frizz_risk":1,"updated_at":"2026-04-23T21:27:05.042207+05:30"},{"city":"Kochi","state":"Kerala","latitude":9.9312,"longitude":76.2673,"temp":29.7,"humidity":80,"rain":0.0,"pressure":1007.5,"uv_index":9.1,"wind_gusts":29.9,"aqi":77,"pm10":24.4,"pm2_5":22.5,"mosquito_risk":7,"arthritis_risk":5,"migraine_risk":4,"frizz_risk":1,"updated_at":"2026-04-23T21:27:05.042216+05:30"},{"city":"Thiruvananthapuram","state":"Kerala","latitude":8.5241,"longitude":76.9366,"temp":28.9,"humidity":80,"rain":0.0,"pressure":1006.9,"uv_index":8.55,"wind_gusts":21.2,"aqi":69,"pm10":20.3,"pm2_5":15.5,"mosquito_risk":7,"arthritis_risk":5,"migraine_risk":4,"frizz_risk":1,"updated_at":"2026-04-23T21:27:05.042225+05:30"},{"city":"Kozhikode","state":"Kerala","latitude":11.2588,"longitude":75.7804,"temp":29.8,"humidity":81,"rain":0.0,"pressure":1006.4,"uv_index":9.1,"wind_gusts":28.1,"aqi":80,"pm10":33.4,"pm2_5":23.7,"mosquito_risk":7,"arthritis_risk":5,"migraine_risk":4,"frizz_risk":1,"updated_at":"2026-04-23T21:27:05.042234+05:30"},{"city":"Thrissur","state":"Kerala","latitude":10.5276,"longitude":76.2144,"temp":29.5,"humidity":81,"rain":0.0,"pressure":1005.7,"uv_index":9.15,"wind_gusts":35.3,"aqi":88,"pm10":23.8,"pm2_5":20.7,"mosquito_risk":7,"arthritis_risk":5,"migraine_risk":4,"frizz_risk":1,"updated_at":"2026-04-23T21:27:05.042243+05:30"},{"city":"Kannur","state":"Kerala","latitude":11.8745,"longitude":75.3704,"temp":29.6,"humidity":80,"rain":0.0,"pressure":1005.7,"uv_index":9.1,"wind_gusts":31.3,"aqi":97,"pm10":37.5,"pm2_5":28.3,"mosquito_risk":7,"arthritis_risk":5,"migraine_risk":4,"frizz_risk":1,"updated_at":"2026-04-23T21:27:05.042251+05:30"},{"city":"Patna","state":"Bihar","latitude":25.5941,"longitude":85.1376,"temp":31.5,"humidity":45,"rain":0.0,"pressure":997.0,"uv_index":8.6,"wind_gusts":22.3,"aqi":180,"pm10":109.9,"pm2_5":59.8,"mosquito_risk":0,"arthritis_risk":5,"migraine_risk":7,"frizz_risk":1,"updated_at":"2026-04-23T21:27:05.042260+05:30"},{"city":"Gaya","state":"Bihar","latitude":24.7914,"longitude":85.0002,"temp":31.0,"humidity":41,"rain":0.0,"pressure":990.8,"uv_index":8.55,"wind_gusts":34.9,"aqi":151,"pm10":203.5,"pm2_5":66.4,"mosquito_risk":0,"arthritis_risk":5,"migraine_risk":7,"frizz_risk":1,"updated_at":"2026-04-23T21:27:05.042268+05:30"},{"city":"Muzaffarpur","state":"Bihar","latitude":26.1209,"longitude":85.3647,"temp":29.5,"humidity":62,"rain":0.0,"pressure":997.3,"uv_index":8.6,"wind_gusts":25.9,"aqi":167,"pm10":105.7,"pm2_5":66.1,"mosquito_risk":7,"arthritis_risk":5,"migraine_risk":7,"frizz_risk":1,"updated_at":"2026-04-23T21:27:05.042276+05:30"},{"city":"Bhagalpur","state":"Bihar","latitude":25.2425,"longitude":87.0117,"temp":31.4,"humidity":51,"rain":0.0,"pressure":998.5,"uv_index":8.6,"wind_gusts":19.1,"aqi":205,"pm10":161.1,"pm2_5":72.2,"mosquito_risk":0,"arthritis_risk":5,"migraine_risk":7,"frizz_risk":1,"updated_at":"2026-04-23T21:27:05.042283+05:30"},{"city":"Ranchi","state":"Jharkhand","latitude":23.3441,"longitude":85.3096,"temp":28.8,"humidity":23,"rain":0.0,"pressure":936.8,"uv_index":8.8,"wind_gusts":36.7,"aqi":100,"pm10":118.3,"pm2_5":34.3,"mosquito_risk":4,"arthritis_risk":5,"migraine_risk":7,"frizz_risk":0,"updated_at":"2026-04-23T21:27:05.042292+05:30"},{"city":"Jamshedpur","state":"Jharkhand","latitude":22.8046,"longitude":86.2029,"temp":32.1,"humidity":46,"rain":0.0,"pressure":987.9,"uv_index":8.85,"wind_gusts":16.9,"aqi":169,"pm10":102.7,"pm2_5":47.1,"mosquito_risk":0,"arthritis_risk":5,"migraine_risk":7,"frizz_risk":1,"updated_at":"2026-04-23T21:27:05.042299+05:30"},{"city":"Dhanbad","state":"Jharkhand","latitude":23.7957,"longitude":86.4304,"temp":32.8,"humidity":23,"rain":0.0,"pressure":977.8,"uv_index":8.8,"wind_gusts":35.3,"aqi":161,"pm10":184.9,"pm2_5":69.2,"mosquito_risk":0,"arthritis_risk":5,"migraine_risk":7,"frizz_risk":0,"updated_at":"2026-04-23T21:27:05.042306+05:30"},{"city":"Bokaro","state":"Jharkhand","latitude":23.6693,"longitude":86.1511,"temp":32.5,"humidity":29,"rain":0.0,"pressure":981.9,"uv_index":8.65,"wind_gusts":38.2,"aqi":155,"pm10":211.4,"pm2_5":74.7,"mosquito_risk":0,"arthritis_risk":5,"migraine_risk":7,"frizz_risk":0,"updated_at":"2026-04-23T21:27:05.042312+05:30"},{"city":"Bhubaneswar","state":"Odisha","latitude":20.2961,"longitude":85.8245,"temp":28.1,"humidity":86,"rain":0.0,"pressure":1000.6,"uv_index":9.15,"wind_gusts":36.0,"aqi":158,"pm10":22.4,"pm2_5":20.2,"mosquito_risk":7,"arthritis_risk":5,"migraine_risk":4,"frizz_risk":1,"updated_at":"2026-04-23T21:27:05.042319+05:30"},{"city":"Cuttack","state":"Odisha","latitude":20.4625,"longitude":85.8828,"temp":29.6,"humidity":75,"rain":0.0,"pressure":1002.2,"uv_index":9.2,"wind_gusts":50.0,"aqi":158,"pm10":22.4,"pm2_5":20.2,"mosquito_risk":7,"arthritis_risk":5,"migraine_risk":4,"frizz_risk":1,"updated_at":"2026-04-23T21:27:05.042326+05:30"},{"city":"Rourkela","state":"Odisha","latitude":22.2604,"longitude":84.8536,"temp":33.0,"humidity":42,"rain":0.0,"pressure":982.1,"uv_index":8.9,"wind_gusts":22.7,"aqi":140,"pm10":78.5,"pm2_5":34.2,"mosquito_risk":0,"arthritis_risk":5,"migraine_risk":7,"frizz_risk":1,"updated_at":"2026-04-23T21:27:05.042333+05:30"},{"city":"Raipur","state":"Chhattisgarh","latitude":21.2514,"longitude":81.6296,"temp":33.4,"humidity":29,"rain":0.0,"pressure":972.2,"uv_index":7.9,"wind_gusts":29.5,"aqi":141,"pm10":34.5,"pm2_5":33.2,"mosquito_risk":0,"arthritis_risk":5,"migraine_risk":7,"frizz_risk":0,"updated_at":"2026-04-23T21:27:05.042339+05:30"},{"city":"Bhilai","state":"Chhattisgarh","latitude":21.1938,"longitude":81.3509,"temp":32.2,"humidity":33,"rain":0.0,"pressure":972.5,"uv_index":7.7,"wind_gusts":25.9,"aqi":118,"pm10":49.0,"pm2_5":46.7,"mosquito_risk":0,"arthritis_risk":5,"migraine_risk":7,"frizz_risk":0,"updated_at":"2026-04-23T21:27:05.042345+05:30"},{"city":"Guwahati","state":"Assam","latitude":26.1158,"longitude":91.7086,"temp":27.8,"humidity":85,"rain":0.0,"pressure":1000.2,"uv_index":8.55,"wind_gusts":20.9,"aqi":104,"pm10":95.9,"pm2_5":65.2,"mosquito_risk":7,"arthritis_risk":5,"migraine_risk":4,"frizz_risk":1,"updated_at":"2026-04-23T21:27:05.042352+05:30"},{"city":"Agartala","state":"Tripura","latitude":23.8315,"longitude":91.2868,"temp":29.7,"humidity":76,"rain":0.0,"pressure":1004.0,"uv_index":8.4,"wind_gusts":20.5,"aqi":97,"pm10":94.8,"pm2_5":62.6,"mosquito_risk":7,"arthritis_risk":5,"migraine_risk":4,"frizz_risk":1,"updated_at":"2026-04-23T21:27:05.042358+05:30"},{"city":"Shillong","state":"Meghalaya","latitude":25.5788,"longitude":91.8933,"temp":15.7,"humidity":94,"rain":0.0,"pressure":856.1,"uv_index":8.95,"wind_gusts":36.0,"aqi":104,"pm10":60.3,"pm2_5":41.1,"mosquito_risk":3,"arthritis_risk":10,"migraine_risk":7,"frizz_risk":0,"updated_at":"2026-04-23T21:27:05.042365+05:30"},{"city":"Imphal","state":"Manipur","latitude":24.817,"longitude":93.9368,"temp":20.9,"humidity":78,"rain":0.0,"pressure":923.5,"uv_index":9.15,"wind_gusts":50.0,"aqi":124,"pm10":102.4,"pm2_5":59.8,"mosquito_risk":3,"arthritis_risk":5,"migraine_risk":7,"frizz_risk":1,"updated_at":"2026-04-23T21:27:05.042372+05:30"},{"city":"Aizawl","state":"Mizoram","latitude":23.7271,"longitude":92.7176,"temp":22.7,"humidity":74,"rain":0.0,"pressure":892.6,"uv_index":8.95,"wind_gusts":35.3,"aqi":121,"pm10":133.2,"pm2_5":56.8,"mosquito_risk":3,"arthritis_risk":5,"migraine_risk":7,"frizz_risk":1,"updated_at":"2026-04-23T21:27:05.042378+05:30"},{"city":"Kohima","state":"Nagaland","latitude":25.6701,"longitude":94.1077,"temp":18.0,"humidity":95,"rain":0.0,"pressure":855.9,"uv_index":9.05,"wind_gusts":50.0,"aqi":126,"pm10":80.6,"pm2_5":49.5,"mosquito_risk":3,"arthritis_risk":10,"migraine_risk":7,"frizz_risk":1,"updated_at":"2026-04-23T21:27:05.042385+05:30"},{"city":"Gangtok","state":"Sikkim","latitude":27.3314,"longitude":88.6138,"temp":18.8,"humidity":96,"rain":0.0,"pressure":838.9,"uv_index":8.9,"wind_gusts":21.6,"aqi":140,"pm10":72.6,"pm2_5":50.1,"mosquito_risk":3,"arthritis_risk":10,"migraine_risk":7,"frizz_risk":1,"updated_at":"2026-04-23T21:27:05.042392+05:30"},{"city":"Siliguri","state":"West Bengal","latitude":26.7271,"longitude":88.3953,"temp":24.4,"humidity":81,"rain":0.0,"pressure":993.4,"uv_index":8.5,"wind_gusts":22.3,"aqi":150,"pm10":86.6,"pm2_5":53.1,"mosquito_risk":3,"arthritis_risk":5,"migraine_risk":7,"frizz_risk":1,"updated_at":"2026-04-23T21:27:08.364372+05:30"},{"city":"Durgapur","state":"West Bengal","latitude":23.5204,"longitude":87.3119,"temp":31.6,"humidity":71,"rain":0.0,"pressure":992.8,"uv_index":8.95,"wind_gusts":25.6,"aqi":157,"pm10":161.6,"pm2_5":84.5,"mosquito_risk":3,"arthritis_risk":5,"migraine_risk":7,"frizz_risk":1,"updated_at":"2026-04-23T21:27:08.364404+05:30"},{"city":"Asansol","state":"West Bengal","latitude":23.6739,"longitude":86.9524,"temp":32.8,"humidity":61,"rain":0.0,"pressure":991.2,"uv_index":8.95,"wind_gusts":28.4,"aqi":155,"pm10":139.7,"pm2_5":51.6,"mosquito_risk":3,"arthritis_risk":5,"migraine_risk":7,"frizz_risk":1,"updated_at":"2026-04-23T21:27:08.364415+05:30"},{"city":"Pondicherry","state":"Puducherry","latitude":11.9139,"longitude":79.8145,"temp":27.8,"humidity":89,"rain":0.0,"pressure":1007.1,"uv_index":9.25,"wind_gusts":29.5,"aqi":24,"pm10":8.3,"pm2_5":5.4,"mosquito_risk":7,"arthritis_risk":5,"migraine_risk":4,"frizz_risk":1,"updated_at":"2026-04-23T21:27:08.364425+05:30"},{"city":"Port Blair","state":"Andaman and Nicobar Islands","latitude":11.6234,"longitude":92.7265,"temp":30.0,"humidity":71,"rain":0.0,"pressure":1006.5,"uv_index":9.15,"wind_gusts":18.4,"aqi":34,"pm10":13.6,"pm2_5":6.4,"mosquito_risk":7,"arthritis_risk":5,"migraine_risk":4,"frizz_risk":1,"updated_at":"2026-04-23T21:27:08.364434+05:30"},{"city":"Haridwar","state":"Uttarakhand","latitude":29.9457,"longitude":78.1642,"temp":26.7,"humidity":58,"rain":0.0,"pressure":971.4,"uv_index":7.2,"wind_gusts":38.5,"aqi":148,"pm10":47.1,"pm2_5":31.5,"mosquito_risk":4,"arthritis_risk":5,"migraine_risk":7,"frizz_risk":1,"updated_at":"2026-04-23T21:27:08.364443+05:30"},{"city":"Rishikesh","state":"Uttarakhand","latitude":30.0869,"longitude":78.2676,"temp":25.3,"humidity":60,"rain":0.0,"pressure":964.6,"uv_index":7.3,"wind_gusts":36.4,"aqi":152,"pm10":39.9,"pm2_5":24.3,"mosquito_risk":4,"arthritis_risk":5,"migraine_risk":7,"frizz_risk":1,"updated_at":"2026-04-23T21:27:08.364452+05:30"},{"city":"Nainital","state":"Uttarakhand","latitude":29.3919,"longitude":79.4542,"temp":24.6,"humidity":33,"rain":0.0,"pressure":807.6,"uv_index":8.15,"wind_gusts":53.6,"aqi":154,"pm10":35.6,"pm2_5":26.1,"mosquito_risk":0,"arthritis_risk":5,"migraine_risk":7,"frizz_risk":0,"updated_at":"2026-04-23T21:27:08.364461+05:30"},{"city":"Mussoorie","state":"Uttarakhand","latitude":30.4599,"longitude":78.0664,"temp":21.7,"humidity":49,"rain":0.0,"pressure":804.0,"uv_index":7.7,"wind_gusts":42.5,"aqi":161,"pm10":46.7,"pm2_5":28.3,"mosquito_risk":0,"arthritis_risk":5,"migraine_risk":7,"frizz_risk":0,"updated_at":"2026-04-23T21:27:08.364469+05:30"},{"city":"Dharamshala","state":"Himachal Pradesh","latitude":32.219,"longitude":76.3234,"temp":25.2,"humidity":41,"rain":0.0,"pressure":869.6,"uv_index":8.05,"wind_gusts":33.1,"aqi":99,"pm10":27.1,"pm2_5":15.9,"mosquito_risk":4,"arthritis_risk":5,"migraine_risk":7,"frizz_risk":0,"updated_at":"2026-04-23T21:27:08.364478+05:30"},{"city":"Dalhousie","state":"Himachal Pradesh","latitude":32.5387,"longitude":75.971,"temp":22.7,"humidity":39,"rain":0.0,"pressure":805.4,"uv_index":8.35,"wind_gusts":30.2,"aqi":109,"pm10":39.8,"pm2_5":26.8,"mosquito_risk":0,"arthritis_risk":5,"migraine_risk":7,"frizz_risk":0,"updated_at":"2026-04-23T21:27:08.364488+05:30"},{"city":"Patiala","state":"Punjab","latitude":30.3398,"longitude":76.3869,"temp":31.1,"humidity":50,"rain":0.0,"pressure":975.1,"uv_index":7.3,"wind_gusts":20.2,"aqi":163,"pm10":97.8,"pm2_5":40.4,"mosquito_risk":0,"arthritis_risk":5,"migraine_risk":7,"frizz_risk":1,"updated_at":"2026-04-23T21:27:08.364496+05:30"},{"city":"Bhatinda","state":"Punjab","latitude":30.211,"longitude":74.9455,"temp":32.5,"humidity":29,"rain":0.0,"pressure":980.9,"uv_index":8.0,"wind_gusts":28.1,"aqi":119,"pm10":40.2,"pm2_5":22.4,"mosquito_risk":0,"arthritis_risk":5,"migraine_risk":7,"frizz_risk":0,"updated_at":"2026-04-23T21:27:08.364504+05:30"},{"city":"Rohtak","state":"Haryana","latitude":28.8955,"longitude":76.6066,"temp":28.8,"humidity":50,"rain":0.0,"pressure":978.8,"uv_index":7.45,"wind_gusts":23.8,"aqi":370,"pm10":198.4,"pm2_5":52.4,"mosquito_risk":4,"arthritis_risk":5,"migraine_risk":7,"frizz_risk":1,"updated_at":"2026-04-23T21:27:08.364512+05:30"},{"city":"Panipat","state":"Haryana","latitude":29.3909,"longitude":76.9635,"temp":31.5,"humidity":40,"rain":0.0,"pressure":977.5,"uv_index":7.25,"wind_gusts":21.2,"aqi":679,"pm10":281.3,"pm2_5":68.7,"mosquito_risk":0,"arthritis_risk":5,"migraine_risk":7,"frizz_risk":1,"updated_at":"2026-04-23T21:27:08.364521+05:30"},{"city":"Mathura","state":"Uttar Pradesh","latitude":27.4924,"longitude":77.6737,"temp":27.7,"humidity":34,"rain":0.0,"pressure":983.8,"uv_index":7.7,"wind_gusts":27.0,"aqi":464,"pm10":193.2,"pm2_5":37.7,"mosquito_risk":4,"arthritis_risk":5,"migraine_risk":7,"frizz_risk":0,"updated_at":"2026-04-23T21:27:08.364529+05:30"},{"city":"Vrindavan","state":"Uttar Pradesh","latitude":27.5823,"longitude":77.7027,"temp":27.9,"humidity":32,"rain":0.0,"pressure":984.2,"uv_index":7.65,"wind_gusts":27.4,"aqi":464,"pm10":193.2,"pm2_5":37.7,"mosquito_risk":4,"arthritis_risk":5,"migraine_risk":7,"frizz_risk":0,"updated_at":"2026-04-23T21:27:08.364537+05:30"},{"city":"Ayodhya","state":"Uttar Pradesh","latitude":26.7922,"longitude":82.1998,"temp":31.1,"humidity":31,"rain":0.0,"pressure":992.0,"uv_index":8.05,"wind_gusts":40.3,"aqi":154,"pm10":103.8,"pm2_5":36.7,"mosquito_risk":0,"arthritis_risk":5,"migraine_risk":7,"frizz_risk":0,"updated_at":"2026-04-23T21:27:08.364546+05:30"},{"city":"Ratlam","state":"Madhya Pradesh","latitude":23.3315,"longitude":75.0367,"temp":30.2,"humidity":41,"rain":0.0,"pressure":953.7,"uv_index":8.5,"wind_gusts":33.8,"aqi":122,"pm10":19.2,"pm2_5":16.7,"mosquito_risk":0,"arthritis_risk":5,"migraine_risk":7,"frizz_risk":0,"updated_at":"2026-04-23T21:27:08.364554+05:30"},{"city":"Sagar","state":"Madhya Pradesh","latitude":23.8388,"longitude":78.7378,"temp":31.6,"humidity":29,"rain":0.0,"pressure":949.1,"uv_index":8.65,"wind_gusts":32.0,"aqi":116,"pm10":24.0,"pm2_5":21.5,"mosquito_risk":0,"arthritis_risk":5,"migraine_risk":7,"frizz_risk":0,"updated_at":"2026-04-23T21:27:08.364563+05:30"},{"city":"Satna","state":"Madhya Pradesh","latitude":24.6005,"longitude":80.8322,"temp":33.0,"humidity":24,"rain":0.0,"pressure":969.1,"uv_index":8.65,"wind_gusts":28.1,"aqi":107,"pm10":41.3,"pm2_5":21.1,"mosquito_risk":0,"arthritis_risk":5,"migraine_risk":7,"frizz_risk":0,"updated_at":"2026-04-23T21:27:08.364571+05:30"},{"city":"Akola","state":"Maharashtra","latitude":20.7002,"longitude":77.0082,"temp":33.8,"humidity":29,"rain":0.0,"pressure":973.0,"uv_index":8.85,"wind_gusts":31.0,"aqi":139,"pm10":40.7,"pm2_5":35.7,"mosquito_risk":0,"arthritis_risk":5,"migraine_risk":7,"frizz_risk":0,"updated_at":"2026-04-23T21:27:08.364580+05:30"},{"city":"Amravati","state":"Maharashtra","latitude":20.9374,"longitude":77.7796,"temp":32.2,"humidity":39,"rain":0.0,"pressure":965.2,"uv_index":8.7,"wind_gusts":16.9,"aqi":139,"pm10":36.7,"pm2_5":31.4,"mosquito_risk":0,"arthritis_risk":5,"migraine_risk":7,"frizz_risk":1,"updated_at":"2026-04-23T21:27:08.364589+05:30"},{"city":"Latur","state":"Maharashtra","latitude":18.4088,"longitude":76.5604,"temp":28.8,"humidity":51,"rain":0.0,"pressure":939.1,"uv_index":9.1,"wind_gusts":41.0,"aqi":161,"pm10":47.4,"pm2_5":42.5,"mosquito_risk":4,"arthritis_risk":5,"migraine_risk":7,"frizz_risk":1,"updated_at":"2026-04-23T21:27:08.364598+05:30"},{"city":"Nanded","state":"Maharashtra","latitude":19.1383,"longitude":77.3091,"temp":32.1,"humidity":39,"rain":0.0,"pressure":966.6,"uv_index":9.05,"wind_gusts":27.7,"aqi":136,"pm10":54.7,"pm2_5":48.9,"mosquito_risk":0,"arthritis_risk":5,"migraine_risk":7,"frizz_risk":1,"updated_at":"2026-04-23T21:27:08.364605+05:30"},{"city":"Gulbarga","state":"Karnataka","latitude":17.3297,"longitude":76.8343,"temp":30.5,"humidity":49,"rain":0.0,"pressure":957.8,"uv_index":8.65,"wind_gusts":65.9,"aqi":167,"pm10":49.0,"pm2_5":43.3,"mosquito_risk":0,"arthritis_risk":5,"migraine_risk":7,"frizz_risk":1,"updated_at":"2026-04-23T21:27:08.364614+05:30"},{"city":"Bidar","state":"Karnataka","latitude":17.9104,"longitude":77.5199,"temp":30.0,"humidity":49,"rain":0.0,"pressure":934.7,"uv_index":7.95,"wind_gusts":29.9,"aqi":148,"pm10":59.8,"pm2_5":53.7,"mosquito_risk":4,"arthritis_risk":5,"migraine_risk":7,"frizz_risk":1,"updated_at":"2026-04-23T21:27:08.364621+05:30"},{"city":"Hospet","state":"Karnataka","latitude":15.2689,"longitude":76.3909,"temp":29.5,"humidity":55,"rain":0.0,"pressure":954.3,"uv_index":8.95,"wind_gusts":31.7,"aqi":167,"pm10":45.3,"pm2_5":41.0,"mosquito_risk":4,"arthritis_risk":5,"migraine_risk":7,"frizz_risk":1,"updated_at":"2026-04-23T21:27:08.364629+05:30"},{"city":"Tirupur","state":"Tamil Nadu","latitude":11.1085,"longitude":77.3411,"temp":31.1,"humidity":52,"rain":0.0,"pressure":973.9,"uv_index":9.45,"wind_gusts":31.7,"aqi":103,"pm10":25.4,"pm2_5":21.2,"mosquito_risk":0,"arthritis_risk":5,"migraine_risk":7,"frizz_risk":1,"updated_at":"2026-04-23T21:27:08.364637+05:30"},{"city":"Alappuzha","state":"Kerala","latitude":9.4981,"longitude":76.3388,"temp":28.6,"humidity":82,"rain":0.0,"pressure":1007.9,"uv_index":9.1,"wind_gusts":27.4,"aqi":79,"pm10":27.8,"pm2_5":23.5,"mosquito_risk":7,"arthritis_risk":5,"migraine_risk":4,"frizz_risk":1,"updated_at":"2026-04-23T21:27:08.364645+05:30"},{"city":"Munnar","state":"Kerala","latitude":10.0889,"longitude":77.0595,"temp":22.3,"humidity":95,"rain":0.0,"pressure":856.5,"uv_index":9.65,"wind_gusts":33.8,"aqi":86,"pm10":24.4,"pm2_5":22.5,"mosquito_risk":3,"arthritis_risk":5,"migraine_risk":7,"frizz_risk":1,"updated_at":"2026-04-23T21:27:08.364675+05:30"},{"city":"Silchar","state":"Assam","latitude":24.8333,"longitude":92.7789,"temp":27.4,"humidity":83,"rain":0.0,"pressure":1003.7,"uv_index":8.7,"wind_gusts":19.1,"aqi":138,"pm10":136.4,"pm2_5":82.9,"mosquito_risk":7,"arthritis_risk":5,"migraine_risk":4,"frizz_risk":1,"updated_at":"2026-04-23T21:27:08.364684+05:30"},{"city":"Dibrugarh","state":"Assam","latitude":27.4728,"longitude":94.912,"temp":27.2,"humidity":78,"rain":0.0,"pressure":994.8,"uv_index":8.65,"wind_gusts":11.2,"aqi":72,"pm10":44.0,"pm2_5":39.0,"mosquito_risk":7,"arthritis_risk":5,"migraine_risk":7,"frizz_risk":1,"updated_at":"2026-04-23T21:27:08.364692+05:30"}]