[{"city":"Delhi","state":"Delhi","latitude":28.6139,"longitude":77.209,"temp":40.0,"humidity":33,"rain":0.0,"pressure":973.9,"uv_index":7.2,"wind_gusts":37.8,"aqi":442,"pm10":1046.8,"pm2_5":184.4,"no2":5.6,"co":224.0,"o3":164.0,"so2":14.5,"mosquito_risk":0,"arthritis_risk":5,"migraine_risk":10,"frizz_risk":1,"updated_at":"2026-06-30T15:11:46.461786+05:30"},{"city":"Mumbai","state":"Maharashtra","latitude":19.076,"longitude":72.8777,"temp":27.0,"humidity":88,"rain":0.1,"pressure":1004.3,"uv_index":1.2,"wind_gusts":37.8,"aqi":42,"pm10":14.0,"pm2_5":9.3,"no2":9.2,"co":271.0,"o3":61.0,"so2":7.7,"mosquito_risk":10,"arthritis_risk":5,"migraine_risk":0,"frizz_risk":1,"updated_at":"2026-06-30T15:11:46.461827+05:30"},{"city":"Bangalore","state":"Karnataka","latitude":12.9716,"longitude":77.5946,"temp":26.6,"humidity":64,"rain":0.4,"pressure":909.6,"uv_index":8.3,"wind_gusts":55.4,"aqi":25,"pm10":3.8,"pm2_5":2.8,"no2":3.0,"co":220.0,"o3":73.0,"so2":1.9,"mosquito_risk":10,"arthritis_risk":5,"migraine_risk":7,"frizz_risk":1,"updated_at":"2026-06-30T15:11:46.461841+05:30"},{"city":"Hyderabad","state":"Telangana","latitude":17.385,"longitude":78.4867,"temp":29.2,"humidity":64,"rain":0.2,"pressure":948.3,"uv_index":6.1,"wind_gusts":47.9,"aqi":25,"pm10":4.7,"pm2_5":4.0,"no2":2.7,"co":233.0,"o3":74.0,"so2":2.1,"mosquito_risk":10,"arthritis_risk":5,"migraine_risk":7,"frizz_risk":1,"updated_at":"2026-06-30T15:11:46.461850+05:30"},{"city":"Chennai","state":"Tamil Nadu","latitude":13.0827,"longitude":80.2707,"temp":35.8,"humidity":43,"rain":0.0,"pressure":1002.1,"uv_index":7.6,"wind_gusts":46.4,"aqi":38,"pm10":17.3,"pm2_5":12.8,"no2":3.5,"co":187.0,"o3":109.0,"so2":4.1,"mosquito_risk":0,"arthritis_risk":5,"migraine_risk":7,"frizz_risk":1,"updated_at":"2026-06-30T15:11:46.461858+05:30"},{"city":"Kolkata","state":"West Bengal","latitude":22.5726,"longitude":88.3639,"temp":29.0,"humidity":89,"rain":0.2,"pressure":998.3,"uv_index":6.55,"wind_gusts":23.4,"aqi":116,"pm10":42.1,"pm2_5":41.7,"no2":10.2,"co":429.0,"o3":179.0,"so2":22.0,"mosquito_risk":10,"arthritis_risk":5,"migraine_risk":7,"frizz_risk":1,"updated_at":"2026-06-30T15:11:46.461877+05:30"},{"city":"Pune","state":"Maharashtra","latitude":18.5204,"longitude":73.8567,"temp":24.7,"humidity":88,"rain":0.2,"pressure":943.9,"uv_index":2.6,"wind_gusts":45.7,"aqi":24,"pm10":2.0,"pm2_5":1.8,"no2":2.7,"co":132.0,"o3":61.0,"so2":3.3,"mosquito_risk":6,"arthritis_risk":5,"migraine_risk":3,"frizz_risk":1,"updated_at":"2026-06-30T15:11:46.461884+05:30"},{"city":"Ahmedabad","state":"Gujarat","latitude":23.0225,"longitude":72.5714,"temp":39.5,"humidity":33,"rain":0.0,"pressure":993.7,"uv_index":7.3,"wind_gusts":47.2,"aqi":58,"pm10":35.3,"pm2_5":16.2,"no2":1.5,"co":129.0,"o3":89.0,"so2":3.0,"mosquito_risk":0,"arthritis_risk":5,"migraine_risk":10,"frizz_risk":1,"updated_at":"2026-06-30T15:11:46.461891+05:30"},{"city":"Jaipur","state":"Rajasthan","latitude":26.9124,"longitude":75.7873,"temp":38.1,"humidity":35,"rain":0.0,"pressure":952.5,"uv_index":8.2,"wind_gusts":40.0,"aqi":176,"pm10":139.7,"pm2_5":36.1,"no2":1.3,"co":134.0,"o3":98.0,"so2":2.8,"mosquito_risk":0,"arthritis_risk":5,"migraine_risk":10,"frizz_risk":1,"updated_at":"2026-06-30T15:11:46.461898+05:30"},{"city":"Lucknow","state":"Uttar Pradesh","latitude":26.8467,"longitude":80.9462,"temp":35.5,"humidity":46,"rain":0.0,"pressure":985.0,"uv_index":7.85,"wind_gusts":34.6,"aqi":107,"pm10":122.9,"pm2_5":38.9,"no2":3.8,"co":215.0,"o3":139.0,"so2":6.9,"mosquito_risk":0,"arthritis_risk":5,"migraine_risk":10,"frizz_risk":1,"updated_at":"2026-06-30T15:11:46.461907+05:30"},{"city":"Kanpur","state":"Uttar Pradesh","latitude":26.4499,"longitude":80.3319,"temp":34.8,"humidity":56,"rain":0.0,"pressure":983.0,"uv_index":8.05,"wind_gusts":37.4,"aqi":134,"pm10":157.4,"pm2_5":51.3,"no2":2.8,"co":162.0,"o3":169.0,"so2":8.4,"mosquito_risk":0,"arthritis_risk":5,"migraine_risk":7,"frizz_risk":1,"updated_at":"2026-06-30T15:11:46.461914+05:30"},{"city":"Chandigarh","state":"Chandigarh","latitude":30.7333,"longitude":76.7794,"temp":32.2,"humidity":76,"rain":0.2,"pressure":960.9,"uv_index":7.6,"wind_gusts":34.6,"aqi":151,"pm10":310.1,"pm2_5":91.7,"no2":3.5,"co":339.0,"o3":211.0,"so2":16.2,"mosquito_risk":6,"arthritis_risk":5,"migraine_risk":7,"frizz_risk":1,"updated_at":"2026-06-30T15:11:46.461920+05:30"},{"city":"Srinagar","state":"Jammu and Kashmir","latitude":34.0837,"longitude":74.7973,"temp":34.6,"humidity":32,"rain":0.0,"pressure":838.0,"uv_index":9.1,"wind_gusts":23.0,"aqi":123,"pm10":28.4,"pm2_5":21.7,"no2":1.6,"co":310.0,"o3":175.0,"so2":4.9,"mosquito_risk":0,"arthritis_risk":5,"migraine_risk":7,"frizz_risk":0,"updated_at":"2026-06-30T15:11:46.461926+05:30"},{"city":"Jammu","state":"Jammu and Kashmir","latitude":32.7266,"longitude":74.857,"temp":37.6,"humidity":47,"rain":0.0,"pressure":963.4,"uv_index":8.65,"wind_gusts":61.9,"aqi":151,"pm10":149.5,"pm2_5":61.5,"no2":1.7,"co":255.0,"o3":158.0,"so2":8.4,"mosquito_risk":0,"arthritis_risk":5,"migraine_risk":10,"frizz_risk":1,"updated_at":"2026-06-30T15:11:46.461932+05:30"},{"city":"Amritsar","state":"Punjab","latitude":31.634,"longitude":74.8723,"temp":38.1,"humidity":46,"rain":0.0,"pressure":970.7,"uv_index":8.5,"wind_gusts":44.3,"aqi":155,"pm10":129.9,"pm2_5":56.0,"no2":2.6,"co":302.0,"o3":194.0,"so2":9.4,"mosquito_risk":0,"arthritis_risk":5,"migraine_risk":10,"frizz_risk":1,"updated_at":"2026-06-30T15:11:46.461938+05:30"},{"city":"Ludhiana","state":"Punjab","latitude":30.901,"longitude":75.8573,"temp":35.0,"humidity":56,"rain":0.1,"pressure":969.8,"uv_index":5.7,"wind_gusts":41.8,"aqi":189,"pm10":702.2,"pm2_5":152.7,"no2":2.5,"co":320.0,"o3":207.0,"so2":9.6,"mosquito_risk":3,"arthritis_risk":5,"migraine_risk":3,"frizz_risk":1,"updated_at":"2026-06-30T15:11:46.461945+05:30"},{"city":"Jalandhar","state":"Punjab","latitude":31.326,"longitude":75.5762,"temp":38.3,"humidity":43,"rain":0.0,"pressure":970.5,"uv_index":7.95,"wind_gusts":38.2,"aqi":166,"pm10":294.3,"pm2_5":91.0,"no2":2.8,"co":287.0,"o3":188.0,"so2":7.6,"mosquito_risk":0,"arthritis_risk":5,"migraine_risk":10,"frizz_risk":1,"updated_at":"2026-06-30T15:11:46.461950+05:30"},{"city":"Dehradun","state":"Uttarakhand","latitude":30.6284,"longitude":78.0322,"temp":20.5,"humidity":93,"rain":0.2,"pressure":827.1,"uv_index":6.6,"wind_gusts":23.8,"aqi":68,"pm10":61.5,"pm2_5":27.7,"no2":1.6,"co":204.0,"o3":138.0,"so2":5.0,"mosquito_risk":6,"arthritis_risk":5,"migraine_risk":7,"frizz_risk":1,"updated_at":"2026-06-30T15:11:46.461956+05:30"},{"city":"Shimla","state":"Himachal Pradesh","latitude":31.1048,"longitude":77.1734,"temp":18.8,"humidity":90,"rain":0.2,"pressure":781.8,"uv_index":5.75,"wind_gusts":39.2,"aqi":93,"pm10":69.4,"pm2_5":32.4,"no2":2.1,"co":203.0,"o3":158.0,"so2":9.0,"mosquito_risk":6,"arthritis_risk":10,"migraine_risk":3,"frizz_risk":1,"updated_at":"2026-06-30T15:11:46.461962+05:30"},{"city":"Manali","state":"Himachal Pradesh","latitude":32.2396,"longitude":77.1887,"temp":24.1,"humidity":81,"rain":0.1,"pressure":817.4,"uv_index":7.2,"wind_gusts":34.6,"aqi":60,"pm10":29.6,"pm2_5":27.4,"no2":26.8,"co":182.0,"o3":125.0,"so2":1.5,"mosquito_risk":6,"arthritis_risk":5,"migraine_risk":7,"frizz_risk":1,"updated_at":"2026-06-30T15:11:46.461969+05:30"},{"city":"Gurgaon","state":"Haryana","latitude":28.4595,"longitude":77.0266,"temp":39.5,"humidity":33,"rain":0.0,"pressure":972.6,"uv_index":7.8,"wind_gusts":38.5,"aqi":606,"pm10":1054.3,"pm2_5":179.3,"no2":4.6,"co":169.0,"o3":150.0,"so2":11.6,"mosquito_risk":0,"arthritis_risk":5,"migraine_risk":10,"frizz_risk":1,"updated_at":"2026-06-30T15:11:46.461976+05:30"},{"city":"Noida","state":"Uttar Pradesh","latitude":28.5355,"longitude":77.391,"temp":38.7,"humidity":37,"rain":0.0,"pressure":975.3,"uv_index":7.2,"wind_gusts":29.5,"aqi":606,"pm10":1054.3,"pm2_5":179.3,"no2":4.6,"co":218.0,"o3":150.0,"so2":11.6,"mosquito_risk":0,"arthritis_risk":5,"migraine_risk":10,"frizz_risk":1,"updated_at":"2026-06-30T15:11:46.461987+05:30"},{"city":"Ghaziabad","state":"Uttar Pradesh","latitude":28.6692,"longitude":77.4538,"temp":38.2,"humidity":40,"rain":0.0,"pressure":973.7,"uv_index":7.4,"wind_gusts":32.8,"aqi":190,"pm10":553.2,"pm2_5":128.1,"no2":4.8,"co":295.0,"o3":237.0,"so2":23.8,"mosquito_risk":0,"arthritis_risk":5,"migraine_risk":10,"frizz_risk":1,"updated_at":"2026-06-30T15:11:46.461993+05:30"},{"city":"Faridabad","state":"Haryana","latitude":28.4089,"longitude":77.3178,"temp":39.1,"humidity":34,"rain":0.0,"pressure":974.6,"uv_index":7.3,"wind_gusts":36.7,"aqi":606,"pm10":1054.3,"pm2_5":179.3,"no2":4.6,"co":193.0,"o3":150.0,"so2":11.6,"mosquito_risk":0,"arthritis_risk":5,"migraine_risk":10,"frizz_risk":1,"updated_at":"2026-06-30T15:11:46.461998+05:30"},{"city":"Meerut","state":"Uttar Pradesh","latitude":28.9845,"longitude":77.7064,"temp":33.3,"humidity":72,"rain":0.0,"pressure":973.0,"uv_index":7.05,"wind_gusts":39.6,"aqi":190,"pm10":553.2,"pm2_5":128.1,"no2":4.8,"co":268.0,"o3":237.0,"so2":23.8,"mosquito_risk":3,"arthritis_risk":5,"migraine_risk":7,"frizz_risk":1,"updated_at":"2026-06-30T15:11:46.462004+05:30"},{"city":"Agra","state":"Uttar Pradesh","latitude":27.1767,"longitude":78.0081,"temp":37.3,"humidity":38,"rain":0.0,"pressure":979.1,"uv_index":7.1,"wind_gusts":37.1,"aqi":194,"pm10":855.0,"pm2_5":120.1,"no2":1.9,"co":149.0,"o3":128.0,"so2":3.4,"mosquito_risk":0,"arthritis_risk":5,"migraine_risk":10,"frizz_risk":1,"updated_at":"2026-06-30T15:11:46.462010+05:30"},{"city":"Varanasi","state":"Uttar Pradesh","latitude":25.3176,"longitude":82.9739,"temp":38.2,"humidity":44,"rain":0.0,"pressure":987.9,"uv_index":8.65,"wind_gusts":25.9,"aqi":74,"pm10":55.5,"pm2_5":28.6,"no2":2.3,"co":244.0,"o3":160.0,"so2":7.2,"mosquito_risk":0,"arthritis_risk":5,"migraine_risk":10,"frizz_risk":1,"updated_at":"2026-06-30T15:11:46.462016+05:30"},{"city":"Prayagraj","state":"Uttar Pradesh","latitude":25.4358,"longitude":81.8463,"temp":35.2,"humidity":58,"rain":0.1,"pressure":986.7,"uv_index":6.7,"wind_gusts":32.4,"aqi":81,"pm10":71.5,"pm2_5":33.5,"no2":2.5,"co":169.0,"o3":164.0,"so2":7.4,"mosquito_risk":3,"arthritis_risk":5,"migraine_risk":10,"frizz_risk":1,"updated_at":"2026-06-30T15:11:46.462022+05:30"},{"city":"Gorakhpur","state":"Uttar Pradesh","latitude":26.7606,"longitude":83.3732,"temp":34.4,"humidity":59,"rain":0.0,"pressure":988.4,"uv_index":1.5,"wind_gusts":30.2,"aqi":88,"pm10":18.9,"pm2_5":13.3,"no2":4.4,"co":279.0,"o3":127.0,"so2":6.9,"mosquito_risk":0,"arthritis_risk":5,"migraine_risk":3,"frizz_risk":1,"updated_at":"2026-06-30T15:11:46.462027+05:30"},{"city":"Bareilly","state":"Uttar Pradesh","latitude":28.367,"longitude":79.4304,"temp":31.0,"humidity":75,"rain":0.0,"pressure":979.3,"uv_index":7.6,"wind_gusts":43.6,"aqi":115,"pm10":89.6,"pm2_5":32.1,"no2":4.0,"co":245.0,"o3":152.0,"so2":12.8,"mosquito_risk":3,"arthritis_risk":5,"migraine_risk":7,"frizz_risk":1,"updated_at":"2026-06-30T15:11:46.462034+05:30"},{"city":"Aligarh","state":"Uttar Pradesh","latitude":27.8974,"longitude":78.088,"temp":35.4,"humidity":50,"rain":0.0,"pressure":976.9,"uv_index":7.4,"wind_gusts":39.2,"aqi":264,"pm10":590.5,"pm2_5":113.6,"no2":2.7,"co":215.0,"o3":175.0,"so2":10.9,"mosquito_risk":0,"arthritis_risk":5,"migraine_risk":10,"frizz_risk":1,"updated_at":"2026-06-30T15:11:46.462040+05:30"},{"city":"Moradabad","state":"Uttar Pradesh","latitude":28.8386,"longitude":78.7733,"temp":28.4,"humidity":90,"rain":0.2,"pressure":976.3,"uv_index":7.85,"wind_gusts":37.8,"aqi":150,"pm10":131.8,"pm2_5":46.8,"no2":3.5,"co":242.0,"o3":160.0,"so2":10.1,"mosquito_risk":10,"arthritis_risk":5,"migraine_risk":7,"frizz_risk":1,"updated_at":"2026-06-30T15:11:46.462045+05:30"},{"city":"Saharanpur","state":"Uttar Pradesh","latitude":29.9637,"longitude":77.546,"temp":28.2,"humidity":90,"rain":0.4,"pressure":968.0,"uv_index":7.5,"wind_gusts":51.8,"aqi":155,"pm10":206.8,"pm2_5":69.2,"no2":2.5,"co":289.0,"o3":180.0,"so2":12.0,"mosquito_risk":10,"arthritis_risk":5,"migraine_risk":7,"frizz_risk":1,"updated_at":"2026-06-30T15:11:46.462051+05:30"},{"city":"Jhansi","state":"Uttar Pradesh","latitude":25.4484,"longitude":78.5685,"temp":35.9,"humidity":49,"rain":0.1,"pressure":969.9,"uv_index":7.3,"wind_gusts":40.7,"aqi":79,"pm10":75.2,"pm2_5":22.5,"no2":1.1,"co":137.0,"o3":106.0,"so2":4.0,"mosquito_risk":3,"arthritis_risk":5,"migraine_risk":10,"frizz_risk":1,"updated_at":"2026-06-30T15:11:49.805615+05:30"},{"city":"Surat","state":"Gujarat","latitude":21.1702,"longitude":72.8311,"temp":31.0,"humidity":72,"rain":0.0,"pressure":1000.7,"uv_index":4.3,"wind_gusts":45.7,"aqi":65,"pm10":19.2,"pm2_5":14.8,"no2":12.9,"co":261.0,"o3":52.0,"so2":40.3,"mosquito_risk":3,"arthritis_risk":5,"migraine_risk":0,"frizz_risk":1,"updated_at":"2026-06-30T15:11:49.805649+05:30"},{"city":"Vadodara","state":"Gujarat","latitude":22.3072,"longitude":73.1812,"temp":34.2,"humidity":53,"rain":0.0,"pressure":997.2,"uv_index":6.15,"wind_gusts":46.4,"aqi":61,"pm10":37.4,"pm2_5":17.8,"no2":1.6,"co":133.0,"o3":97.0,"so2":3.3,"mosquito_risk":0,"arthritis_risk":5,"migraine_risk":7,"frizz_risk":1,"updated_at":"2026-06-30T15:11:49.805661+05:30"},{"city":"Rajkot","state":"Gujarat","latitude":22.3039,"longitude":70.8022,"temp":38.1,"humidity":37,"rain":0.0,"pressure":986.4,"uv_index":6.05,"wind_gusts":41.0,"aqi":53,"pm10":24.9,"pm2_5":13.7,"no2":1.1,"co":104.0,"o3":92.0,"so2":4.0,"mosquito_risk":0,"arthritis_risk":5,"migraine_risk":10,"frizz_risk":1,"updated_at":"2026-06-30T15:11:49.805671+05:30"},{"city":"Thane","state":"Maharashtra","latitude":19.2183,"longitude":72.9781,"temp":26.2,"humidity":93,"rain":0.3,"pressure":1003.8,"uv_index":0.95,"wind_gusts":27.0,"aqi":42,"pm10":14.0,"pm2_5":9.3,"no2":9.2,"co":228.0,"o3":61.0,"so2":7.7,"mosquito_risk":10,"arthritis_risk":5,"migraine_risk":0,"frizz_risk":1,"updated_at":"2026-06-30T15:11:49.805681+05:30"},{"city":"Nagpur","state":"Maharashtra","latitude":21.1458,"longitude":79.0882,"temp":27.7,"humidity":88,"rain":0.1,"pressure":967.4,"uv_index":6.75,"wind_gusts":28.8,"aqi":72,"pm10":21.2,"pm2_5":18.2,"no2":10.2,"co":204.0,"o3":100.0,"so2":16.7,"mosquito_risk":10,"arthritis_risk":5,"migraine_risk":7,"frizz_risk":1,"updated_at":"2026-06-30T15:11:49.805690+05:30"},{"city":"Nashik","state":"Maharashtra","latitude":19.9975,"longitude":73.7898,"temp":26.3,"humidity":82,"rain":0.2,"pressure":941.0,"uv_index":7.1,"wind_gusts":43.9,"aqi":34,"pm10":4.5,"pm2_5":3.1,"no2":2.6,"co":130.0,"o3":67.0,"so2":2.4,"mosquito_risk":10,"arthritis_risk":5,"migraine_risk":7,"frizz_risk":1,"updated_at":"2026-06-30T15:11:49.805699+05:30"},{"city":"Aurangabad","state":"Maharashtra","latitude":19.8762,"longitude":75.3433,"temp":29.2,"humidity":62,"rain":0.1,"pressure":939.1,"uv_index":6.5,"wind_gusts":38.9,"aqi":43,"pm10":12.8,"pm2_5":8.0,"no2":1.8,"co":137.0,"o3":83.0,"so2":4.0,"mosquito_risk":10,"arthritis_risk":5,"migraine_risk":7,"frizz_risk":1,"updated_at":"2026-06-30T15:11:49.805708+05:30"},{"city":"Solapur","state":"Maharashtra","latitude":17.6599,"longitude":75.9064,"temp":32.0,"humidity":55,"rain":0.0,"pressure":952.7,"uv_index":5.2,"wind_gusts":47.5,"aqi":26,"pm10":2.4,"pm2_5":2.2,"no2":1.4,"co":113.0,"o3":68.0,"so2":1.2,"mosquito_risk":0,"arthritis_risk":5,"migraine_risk":3,"frizz_risk":1,"updated_at":"2026-06-30T15:11:49.805718+05:30"},{"city":"Kolhapur","state":"Maharashtra","latitude":16.705,"longitude":74.2433,"temp":25.5,"humidity":82,"rain":0.0,"pressure":945.1,"uv_index":7.4,"wind_gusts":52.6,"aqi":23,"pm10":3.4,"pm2_5":3.0,"no2":3.0,"co":127.0,"o3":57.0,"so2":1.5,"mosquito_risk":7,"arthritis_risk":5,"migraine_risk":7,"frizz_risk":1,"updated_at":"2026-06-30T15:11:49.805725+05:30"},{"city":"Goa","state":"Goa","latitude":15.2993,"longitude":74.124,"temp":26.3,"humidity":95,"rain":0.1,"pressure":996.9,"uv_index":5.25,"wind_gusts":37.1,"aqi":31,"pm10":10.9,"pm2_5":6.4,"no2":1.4,"co":157.0,"o3":53.0,"so2":0.5,"mosquito_risk":10,"arthritis_risk":5,"migraine_risk":3,"frizz_risk":1,"updated_at":"2026-06-30T15:11:49.805733+05:30"},{"city":"Jodhpur","state":"Rajasthan","latitude":26.2389,"longitude":73.0243,"temp":38.1,"humidity":35,"rain":0.0,"pressure":974.2,"uv_index":8.0,"wind_gusts":47.2,"aqi":159,"pm10":304.5,"pm2_5":56.9,"no2":0.7,"co":111.0,"o3":81.0,"so2":1.3,"mosquito_risk":0,"arthritis_risk":5,"migraine_risk":10,"frizz_risk":1,"updated_at":"2026-06-30T15:11:49.805740+05:30"},{"city":"Udaipur","state":"Rajasthan","latitude":24.5854,"longitude":73.7125,"temp":33.5,"humidity":45,"rain":0.0,"pressure":940.0,"uv_index":8.7,"wind_gusts":38.5,"aqi":54,"pm10":38.3,"pm2_5":16.7,"no2":0.6,"co":111.0,"o3":80.0,"so2":1.6,"mosquito_risk":0,"arthritis_risk":5,"migraine_risk":7,"frizz_risk":1,"updated_at":"2026-06-30T15:11:49.805747+05:30"},{"city":"Kota","state":"Rajasthan","latitude":25.2138,"longitude":75.8648,"temp":37.5,"humidity":42,"rain":0.0,"pressure":970.7,"uv_index":8.3,"wind_gusts":49.0,"aqi":64,"pm10":26.0,"pm2_5":16.9,"no2":1.1,"co":129.0,"o3":115.0,"so2":5.2,"mosquito_risk":0,"arthritis_risk":5,"migraine_risk":10,"frizz_risk":1,"updated_at":"2026-06-30T15:11:49.805754+05:30"},{"city":"Bikaner","state":"Rajasthan","latitude":28.0229,"longitude":73.3119,"temp":40.4,"humidity":28,"rain":0.0,"pressure":972.2,"uv_index":8.5,"wind_gusts":45.0,"aqi":161,"pm10":91.5,"pm2_5":39.6,"no2":0.4,"co":109.0,"o3":83.0,"so2":1.9,"mosquito_risk":0,"arthritis_risk":5,"migraine_risk":10,"frizz_risk":1,"updated_at":"2026-06-30T15:11:49.805761+05:30"},{"city":"Ajmer","state":"Rajasthan","latitude":26.4499,"longitude":74.6399,"temp":35.5,"humidity":39,"rain":0.0,"pressure":947.7,"uv_index":8.35,"wind_gusts":48.6,"aqi":72,"pm10":35.5,"pm2_5":18.7,"no2":0.8,"co":117.0,"o3":92.0,"so2":2.3,"mosquito_risk":0,"arthritis_risk":5,"migraine_risk":10,"frizz_risk":1,"updated_at":"2026-06-30T15:11:49.805768+05:30"},{"city":"Gwalior","state":"Madhya Pradesh","latitude":26.2183,"longitude":78.1828,"temp":38.9,"humidity":35,"rain":0.0,"pressure":974.5,"uv_index":7.65,"wind_gusts":38.5,"aqi":88,"pm10":177.0,"pm2_5":40.3,"no2":0.8,"co":138.0,"o3":103.0,"so2":2.4,"mosquito_risk":0,"arthritis_risk":5,"migraine_risk":10,"frizz_risk":1,"updated_at":"2026-06-30T15:11:49.805776+05:30"},{"city":"Indore","state":"Madhya Pradesh","latitude":22.7196,"longitude":75.8577,"temp":28.4,"humidity":77,"rain":0.2,"pressure":942.4,"uv_index":6.8,"wind_gusts":44.6,"aqi":65,"pm10":25.4,"pm2_5":17.2,"no2":2.3,"co":246.0,"o3":99.0,"so2":4.5,"mosquito_risk":10,"arthritis_risk":5,"migraine_risk":7,"frizz_risk":1,"updated_at":"2026-06-30T15:11:49.805782+05:30"},{"city":"Bhopal","state":"Madhya Pradesh","latitude":23.2599,"longitude":77.4126,"temp":31.3,"humidity":63,"rain":0.1,"pressure":947.6,"uv_index":8.15,"wind_gusts":41.4,"aqi":68,"pm10":26.7,"pm2_5":16.2,"no2":1.2,"co":168.0,"o3":105.0,"so2":3.9,"mosquito_risk":6,"arthritis_risk":5,"migraine_risk":7,"frizz_risk":1,"updated_at":"2026-06-30T15:11:49.805790+05:30"},{"city":"Jabalpur","state":"Madhya Pradesh","latitude":23.1815,"longitude":79.9864,"temp":28.7,"humidity":86,"rain":0.2,"pressure":954.7,"uv_index":2.65,"wind_gusts":35.3,"aqi":63,"pm10":55.9,"pm2_5":23.5,"no2":1.1,"co":162.0,"o3":116.0,"so2":3.5,"mosquito_risk":10,"arthritis_risk":5,"migraine_risk":3,"frizz_risk":1,"updated_at":"2026-06-30T15:11:49.805797+05:30"},{"city":"Ujjain","state":"Madhya Pradesh","latitude":23.1765,"longitude":75.7885,"temp":25.9,"humidity":91,"rain":0.3,"pressure":947.8,"uv_index":2.75,"wind_gusts":44.6,"aqi":63,"pm10":26.8,"pm2_5":17.4,"no2":1.3,"co":180.0,"o3":103.0,"so2":4.4,"mosquito_risk":10,"arthritis_risk":5,"migraine_risk":3,"frizz_risk":1,"updated_at":"2026-06-30T15:11:49.805804+05:30"},{"city":"Visakhapatnam","state":"Andhra Pradesh","latitude":17.6868,"longitude":83.2185,"temp":33.4,"humidity":66,"rain":0.0,"pressure":995.4,"uv_index":8.45,"wind_gusts":37.4,"aqi":61,"pm10":23.0,"pm2_5":21.0,"no2":16.1,"co":475.0,"o3":122.0,"so2":41.8,"mosquito_risk":3,"arthritis_risk":5,"migraine_risk":7,"frizz_risk":1,"updated_at":"2026-06-30T15:11:49.805811+05:30"},{"city":"Vijayawada","state":"Andhra Pradesh","latitude":16.5062,"longitude":80.648,"temp":34.2,"humidity":52,"rain":0.2,"pressure":995.8,"uv_index":7.45,"wind_gusts":44.6,"aqi":51,"pm10":9.4,"pm2_5":7.7,"no2":1.9,"co":133.0,"o3":93.0,"so2":4.2,"mosquito_risk":3,"arthritis_risk":5,"migraine_risk":7,"frizz_risk":1,"updated_at":"2026-06-30T15:11:49.805818+05:30"},{"city":"Guntur","state":"Andhra Pradesh","latitude":16.3067,"longitude":80.4365,"temp":35.3,"humidity":45,"rain":0.0,"pressure":997.2,"uv_index":7.75,"wind_gusts":48.6,"aqi":45,"pm10":8.2,"pm2_5":6.3,"no2":1.6,"co":128.0,"o3":86.0,"so2":3.5,"mosquito_risk":0,"arthritis_risk":5,"migraine_risk":10,"frizz_risk":1,"updated_at":"2026-06-30T15:11:49.805825+05:30"},{"city":"Nellore","state":"Andhra Pradesh","latitude":14.4426,"longitude":79.9865,"temp":34.7,"humidity":48,"rain":0.0,"pressure":1000.5,"uv_index":8.1,"wind_gusts":52.6,"aqi":31,"pm10":7.3,"pm2_5":5.1,"no2":1.8,"co":106.0,"o3":91.0,"so2":3.5,"mosquito_risk":0,"arthritis_risk":5,"migraine_risk":4,"frizz_risk":1,"updated_at":"2026-06-30T15:11:49.805833+05:30"},{"city":"Kurnool","state":"Andhra Pradesh","latitude":15.8281,"longitude":78.0373,"temp":34.0,"humidity":45,"rain":0.0,"pressure":972.3,"uv_index":7.2,"wind_gusts":55.8,"aqi":25,"pm10":7.3,"pm2_5":4.4,"no2":1.7,"co":114.0,"o3":70.0,"so2":2.0,"mosquito_risk":0,"arthritis_risk":5,"migraine_risk":7,"frizz_risk":1,"updated_at":"2026-06-30T15:11:49.805841+05:30"},{"city":"Kakinada","state":"Andhra Pradesh","latitude":16.9891,"longitude":82.2475,"temp":33.9,"humidity":57,"rain":0.0,"pressure":999.8,"uv_index":8.75,"wind_gusts":52.2,"aqi":45,"pm10":10.1,"pm2_5":9.7,"no2":2.6,"co":168.0,"o3":119.0,"so2":4.3,"mosquito_risk":0,"arthritis_risk":5,"migraine_risk":7,"frizz_risk":1,"updated_at":"2026-06-30T15:11:49.805848+05:30"},{"city":"Tirupati","state":"Andhra Pradesh","latitude":13.6288,"longitude":79.4192,"temp":35.0,"humidity":42,"rain":0.0,"pressure":986.5,"uv_index":7.55,"wind_gusts":48.6,"aqi":28,"pm10":4.8,"pm2_5":2.8,"no2":1.0,"co":103.0,"o3":70.0,"so2":0.7,"mosquito_risk":0,"arthritis_risk":5,"migraine_risk":7,"frizz_risk":1,"updated_at":"2026-06-30T15:11:49.805855+05:30"},{"city":"Warangal","state":"Telangana","latitude":17.9689,"longitude":79.5941,"temp":32.5,"humidity":54,"rain":0.0,"pressure":972.7,"uv_index":6.95,"wind_gusts":37.8,"aqi":45,"pm10":13.2,"pm2_5":9.4,"no2":1.7,"co":134.0,"o3":98.0,"so2":3.1,"mosquito_risk":0,"arthritis_risk":5,"migraine_risk":7,"frizz_risk":1,"updated_at":"2026-06-30T15:11:49.805862+05:30"},{"city":"Nizamabad","state":"Telangana","latitude":18.6725,"longitude":78.0941,"temp":31.1,"humidity":54,"rain":0.0,"pressure":959.7,"uv_index":2.55,"wind_gusts":41.0,"aqi":55,"pm10":29.7,"pm2_5":16.3,"no2":1.4,"co":127.0,"o3":91.0,"so2":4.0,"mosquito_risk":0,"arthritis_risk":5,"migraine_risk":3,"frizz_risk":1,"updated_at":"2026-06-30T15:11:49.805885+05:30"},{"city":"Mysore","state":"Karnataka","latitude":12.2958,"longitude":76.6396,"temp":26.0,"humidity":71,"rain":0.3,"pressure":927.2,"uv_index":7.45,"wind_gusts":55.4,"aqi":26,"pm10":2.3,"pm2_5":1.8,"no2":1.8,"co":116.0,"o3":66.0,"so2":1.1,"mosquito_risk":10,"arthritis_risk":5,"migraine_risk":7,"frizz_risk":1,"updated_at":"2026-06-30T15:11:49.805893+05:30"},{"city":"Mangalore","state":"Karnataka","latitude":12.9141,"longitude":74.856,"temp":25.7,"humidity":93,"rain":0.4,"pressure":1006.9,"uv_index":5.45,"wind_gusts":43.6,"aqi":31,"pm10":10.3,"pm2_5":6.1,"no2":1.5,"co":115.0,"o3":51.0,"so2":1.0,"mosquito_risk":10,"arthritis_risk":5,"migraine_risk":0,"frizz_risk":1,"updated_at":"2026-06-30T15:11:49.805901+05:30"},{"city":"Hubli-Dharwad","state":"Karnataka","latitude":15.3647,"longitude":75.124,"temp":26.4,"humidity":74,"rain":0.1,"pressure":938.6,"uv_index":5.5,"wind_gusts":59.8,"aqi":23,"pm10":1.6,"pm2_5":1.1,"no2":1.5,"co":105.0,"o3":56.0,"so2":0.6,"mosquito_risk":10,"arthritis_risk":5,"migraine_risk":3,"frizz_risk":1,"updated_at":"2026-06-30T15:11:49.805909+05:30"},{"city":"Belgaum","state":"Karnataka","latitude":15.8497,"longitude":74.4977,"temp":24.1,"humidity":85,"rain":0.0,"pressure":923.4,"uv_index":4.85,"wind_gusts":54.0,"aqi":22,"pm10":2.2,"pm2_5":2.0,"no2":4.0,"co":100.0,"o3":48.0,"so2":0.9,"mosquito_risk":3,"arthritis_risk":5,"migraine_risk":3,"frizz_risk":1,"updated_at":"2026-06-30T15:11:53.112367+05:30"},{"city":"Coimbatore","state":"Tamil Nadu","latitude":11.0168,"longitude":76.9558,"temp":29.0,"humidity":61,"rain":0.0,"pressure":960.3,"uv_index":8.4,"wind_gusts":63.7,"aqi":26,"pm10":9.7,"pm2_5":5.5,"no2":1.4,"co":131.0,"o3":67.0,"so2":1.4,"mosquito_risk":7,"arthritis_risk":5,"migraine_risk":7,"frizz_risk":1,"updated_at":"2026-06-30T15:11:53.112402+05:30"},{"city":"Madurai","state":"Tamil Nadu","latitude":9.9252,"longitude":78.1198,"temp":35.5,"humidity":39,"rain":0.1,"pressure":989.9,"uv_index":8.3,"wind_gusts":40.3,"aqi":58,"pm10":20.6,"pm2_5":9.8,"no2":1.8,"co":123.0,"o3":87.0,"so2":1.8,"mosquito_risk":3,"arthritis_risk":5,"migraine_risk":10,"frizz_risk":1,"updated_at":"2026-06-30T15:11:53.112413+05:30"},{"city":"Trichy","state":"Tamil Nadu","latitude":10.7905,"longitude":78.7047,"temp":35.8,"humidity":38,"rain":0.1,"pressure":996.0,"uv_index":8.3,"wind_gusts":65.5,"aqi":29,"pm10":12.9,"pm2_5":7.1,"no2":1.3,"co":109.0,"o3":80.0,"so2":1.5,"mosquito_risk":3,"arthritis_risk":5,"migraine_risk":10,"frizz_risk":1,"updated_at":"2026-06-30T15:11:53.112423+05:30"},{"city":"Salem","state":"Tamil Nadu","latitude":11.6643,"longitude":78.146,"temp":32.8,"humidity":52,"rain":0.0,"pressure":974.6,"uv_index":7.95,"wind_gusts":34.9,"aqi":40,"pm10":12.5,"pm2_5":7.9,"no2":2.0,"co":166.0,"o3":97.0,"so2":4.1,"mosquito_risk":0,"arthritis_risk":5,"migraine_risk":7,"frizz_risk":1,"updated_at":"2026-06-30T15:11:53.112432+05:30"},{"city":"Tirunelveli","state":"Tamil Nadu","latitude":8.7139,"longitude":77.7567,"temp":35.4,"humidity":39,"rain":0.0,"pressure":1000.9,"uv_index":8.4,"wind_gusts":52.2,"aqi":26,"pm10":13.9,"pm2_5":8.0,"no2":1.3,"co":107.0,"o3":77.0,"so2":1.4,"mosquito_risk":0,"arthritis_risk":5,"migraine_risk":7,"frizz_risk":1,"updated_at":"2026-06-30T15:11:53.112441+05:30"},{"city":"Vellore","state":"Tamil Nadu","latitude":12.9165,"longitude":79.1325,"temp":34.3,"humidity":43,"rain":0.0,"pressure":980.3,"uv_index":8.85,"wind_gusts":53.3,"aqi":31,"pm10":3.7,"pm2_5":3.1,"no2":1.8,"co":126.0,"o3":83.0,"so2":1.7,"mosquito_risk":0,"arthritis_risk":5,"migraine_risk":7,"frizz_risk":1,"updated_at":"2026-06-30T15:11:53.112450+05:30"},{"city":"Erode","state":"Tamil Nadu","latitude":11.341,"longitude":77.7172,"temp":33.6,"humidity":46,"rain":0.0,"pressure":986.4,"uv_index":8.65,"wind_gusts":46.4,"aqi":40,"pm10":13.4,"pm2_5":7.7,"no2":1.9,"co":149.0,"o3":86.0,"so2":1.6,"mosquito_risk":0,"arthritis_risk":5,"migraine_risk":7,"frizz_risk":1,"updated_at":"2026-06-30T15:11:53.112460+05:30"},{"city":"Kochi","state":"Kerala","latitude":9.9312,"longitude":76.2673,"temp":28.5,"humidity":74,"rain":0.0,"pressure":1009.3,"uv_index":8.3,"wind_gusts":46.8,"aqi":41,"pm10":14.8,"pm2_5":8.4,"no2":2.0,"co":120.0,"o3":65.0,"so2":1.9,"mosquito_risk":7,"arthritis_risk":0,"migraine_risk":4,"frizz_risk":1,"updated_at":"2026-06-30T15:11:53.112468+05:30"},{"city":"Thiruvananthapuram","state":"Kerala","latitude":8.5241,"longitude":76.9366,"temp":28.3,"humidity":77,"rain":0.0,"pressure":1008.1,"uv_index":8.4,"wind_gusts":52.9,"aqi":34,"pm10":15.6,"pm2_5":8.8,"no2":1.0,"co":99.0,"o3":65.0,"so2":1.0,"mosquito_risk":7,"arthritis_risk":0,"migraine_risk":4,"frizz_risk":1,"updated_at":"2026-06-30T15:11:53.112477+05:30"},{"city":"Kozhikode","state":"Kerala","latitude":11.2588,"longitude":75.7804,"temp":26.5,"humidity":87,"rain":0.1,"pressure":1008.6,"uv_index":8.1,"wind_gusts":40.7,"aqi":25,"pm10":13.5,"pm2_5":6.5,"no2":0.6,"co":107.0,"o3":55.0,"so2":0.5,"mosquito_risk":10,"arthritis_risk":0,"migraine_risk":4,"frizz_risk":1,"updated_at":"2026-06-30T15:11:53.112487+05:30"},{"city":"Thrissur","state":"Kerala","latitude":10.5276,"longitude":76.2144,"temp":28.3,"humidity":79,"rain":0.1,"pressure":1007.6,"uv_index":7.85,"wind_gusts":38.2,"aqi":38,"pm10":14.1,"pm2_5":8.1,"no2":1.6,"co":121.0,"o3":62.0,"so2":1.4,"mosquito_risk":10,"arthritis_risk":5,"migraine_risk":4,"frizz_risk":1,"updated_at":"2026-06-30T15:11:53.112497+05:30"},{"city":"Kannur","state":"Kerala","latitude":11.8745,"longitude":75.3704,"temp":25.9,"humidity":93,"rain":0.3,"pressure":1007.8,"uv_index":8.4,"wind_gusts":42.1,"aqi":27,"pm10":11.2,"pm2_5":6.1,"no2":1.4,"co":132.0,"o3":52.0,"so2":0.8,"mosquito_risk":10,"arthritis_risk":5,"migraine_risk":4,"frizz_risk":1,"updated_at":"2026-06-30T15:11:53.112506+05:30"},{"city":"Patna","state":"Bihar","latitude":25.5941,"longitude":85.1376,"temp":31.8,"humidity":73,"rain":0.0,"pressure":992.1,"uv_index":8.5,"wind_gusts":27.7,"aqi":99,"pm10":30.6,"pm2_5":28.2,"no2":3.2,"co":257.0,"o3":182.0,"so2":13.1,"mosquito_risk":3,"arthritis_risk":5,"migraine_risk":7,"frizz_risk":1,"updated_at":"2026-06-30T15:11:53.112515+05:30"},{"city":"Gaya","state":"Bihar","latitude":24.7914,"longitude":85.0002,"temp":29.6,"humidity":84,"rain":0.2,"pressure":985.9,"uv_index":7.1,"wind_gusts":30.2,"aqi":97,"pm10":31.2,"pm2_5":28.6,"no2":1.9,"co":237.0,"o3":181.0,"so2":10.5,"mosquito_risk":10,"arthritis_risk":5,"migraine_risk":7,"frizz_risk":1,"updated_at":"2026-06-30T15:11:53.112523+05:30"},{"city":"Muzaffarpur","state":"Bihar","latitude":26.1209,"longitude":85.3647,"temp":32.2,"humidity":74,"rain":0.0,"pressure":991.9,"uv_index":8.35,"wind_gusts":29.5,"aqi":95,"pm10":25.7,"pm2_5":23.3,"no2":3.5,"co":285.0,"o3":171.0,"so2":12.0,"mosquito_risk":3,"arthritis_risk":5,"migraine_risk":7,"frizz_risk":1,"updated_at":"2026-06-30T15:11:53.112531+05:30"},{"city":"Bhagalpur","state":"Bihar","latitude":25.2425,"longitude":87.0117,"temp":32.0,"humidity":73,"rain":0.0,"pressure":993.0,"uv_index":8.35,"wind_gusts":28.1,"aqi":112,"pm10":36.4,"pm2_5":35.4,"no2":4.4,"co":229.0,"o3":209.0,"so2":25.2,"mosquito_risk":3,"arthritis_risk":5,"migraine_risk":7,"frizz_risk":1,"updated_at":"2026-06-30T15:11:53.112539+05:30"},{"city":"Ranchi","state":"Jharkhand","latitude":23.3441,"longitude":85.3096,"temp":28.1,"humidity":75,"rain":0.0,"pressure":931.5,"uv_index":6.4,"wind_gusts":29.9,"aqi":93,"pm10":33.5,"pm2_5":32.4,"no2":2.3,"co":222.0,"o3":148.0,"so2":9.2,"mosquito_risk":7,"arthritis_risk":5,"migraine_risk":7,"frizz_risk":1,"updated_at":"2026-06-30T15:11:53.112548+05:30"},{"city":"Jamshedpur","state":"Jharkhand","latitude":22.8046,"longitude":86.2029,"temp":31.3,"humidity":74,"rain":0.0,"pressure":983.3,"uv_index":8.25,"wind_gusts":25.9,"aqi":151,"pm10":43.4,"pm2_5":42.4,"no2":4.1,"co":303.0,"o3":192.0,"so2":22.4,"mosquito_risk":3,"arthritis_risk":5,"migraine_risk":7,"frizz_risk":1,"updated_at":"2026-06-30T15:11:53.112556+05:30"},{"city":"Dhanbad","state":"Jharkhand","latitude":23.7957,"longitude":86.4304,"temp":27.5,"humidity":93,"rain":0.4,"pressure":972.9,"uv_index":8.8,"wind_gusts":24.1,"aqi":163,"pm10":61.7,"pm2_5":60.8,"no2":16.3,"co":205.0,"o3":228.0,"so2":70.2,"mosquito_risk":10,"arthritis_risk":5,"migraine_risk":7,"frizz_risk":1,"updated_at":"2026-06-30T15:11:53.112565+05:30"},{"city":"Bokaro","state":"Jharkhand","latitude":23.6693,"longitude":86.1511,"temp":28.1,"humidity":86,"rain":0.2,"pressure":976.6,"uv_index":9.05,"wind_gusts":38.2,"aqi":154,"pm10":54.7,"pm2_5":53.6,"no2":16.5,"co":352.0,"o3":203.0,"so2":70.7,"mosquito_risk":10,"arthritis_risk":5,"migraine_risk":7,"frizz_risk":1,"updated_at":"2026-06-30T15:11:53.112573+05:30"},{"city":"Bhubaneswar","state":"Odisha","latitude":20.2961,"longitude":85.8245,"temp":29.1,"humidity":86,"rain":0.0,"pressure":995.1,"uv_index":3.2,"wind_gusts":32.8,"aqi":76,"pm10":18.7,"pm2_5":18.3,"no2":3.7,"co":214.0,"o3":156.0,"so2":10.4,"mosquito_risk":7,"arthritis_risk":5,"migraine_risk":3,"frizz_risk":1,"updated_at":"2026-06-30T15:11:53.112582+05:30"},{"city":"Cuttack","state":"Odisha","latitude":20.4625,"longitude":85.8828,"temp":29.0,"humidity":90,"rain":0.0,"pressure":996.9,"uv_index":3.55,"wind_gusts":27.7,"aqi":76,"pm10":18.7,"pm2_5":18.3,"no2":3.7,"co":224.0,"o3":156.0,"so2":10.4,"mosquito_risk":7,"arthritis_risk":5,"migraine_risk":3,"frizz_risk":1,"updated_at":"2026-06-30T15:11:53.112590+05:30"},{"city":"Rourkela","state":"Odisha","latitude":22.2604,"longitude":84.8536,"temp":31.2,"humidity":73,"rain":0.0,"pressure":977.5,"uv_index":7.6,"wind_gusts":32.8,"aqi":96,"pm10":28.8,"pm2_5":27.8,"no2":2.3,"co":229.0,"o3":163.0,"so2":13.6,"mosquito_risk":3,"arthritis_risk":5,"migraine_risk":7,"frizz_risk":1,"updated_at":"2026-06-30T15:11:53.112598+05:30"},{"city":"Raipur","state":"Chhattisgarh","latitude":21.2514,"longitude":81.6296,"temp":30.8,"humidity":65,"rain":0.0,"pressure":967.4,"uv_index":3.9,"wind_gusts":38.5,"aqi":87,"pm10":20.8,"pm2_5":19.1,"no2":12.8,"co":173.0,"o3":111.0,"so2":33.5,"mosquito_risk":3,"arthritis_risk":5,"migraine_risk":3,"frizz_risk":1,"updated_at":"2026-06-30T15:11:53.112605+05:30"},{"city":"Bhilai","state":"Chhattisgarh","latitude":21.1938,"longitude":81.3509,"temp":31.7,"humidity":61,"rain":0.0,"pressure":968.0,"uv_index":7.9,"wind_gusts":43.6,"aqi":82,"pm10":17.9,"pm2_5":15.2,"no2":11.5,"co":401.0,"o3":106.0,"so2":27.0,"mosquito_risk":3,"arthritis_risk":5,"migraine_risk":7,"frizz_risk":1,"updated_at":"2026-06-30T15:11:53.112611+05:30"},{"city":"Guwahati","state":"Assam","latitude":26.1158,"longitude":91.7086,"temp":28.3,"humidity":93,"rain":0.4,"pressure":993.2,"uv_index":7.65,"wind_gusts":22.3,"aqi":54,"pm10":10.4,"pm2_5":10.1,"no2":1.5,"co":262.0,"o3":117.0,"so2":1.6,"mosquito_risk":10,"arthritis_risk":5,"migraine_risk":7,"frizz_risk":1,"updated_at":"2026-06-30T15:11:53.112618+05:30"},{"city":"Agartala","state":"Tripura","latitude":23.8315,"longitude":91.2868,"temp":31.7,"humidity":68,"rain":0.0,"pressure":997.8,"uv_index":6.45,"wind_gusts":29.2,"aqi":52,"pm10":7.6,"pm2_5":7.3,"no2":4.0,"co":196.0,"o3":109.0,"so2":1.3,"mosquito_risk":3,"arthritis_risk":5,"migraine_risk":7,"frizz_risk":1,"updated_at":"2026-06-30T15:11:53.112625+05:30"},{"city":"Shillong","state":"Meghalaya","latitude":25.5788,"longitude":91.8933,"temp":25.0,"humidity":69,"rain":0.0,"pressure":853.2,"uv_index":7.7,"wind_gusts":23.8,"aqi":43,"pm10":6.5,"pm2_5":6.2,"no2":2.1,"co":210.0,"o3":92.0,"so2":1.4,"mosquito_risk":7,"arthritis_risk":5,"migraine_risk":7,"frizz_risk":1,"updated_at":"2026-06-30T15:11:53.112632+05:30"},{"city":"Imphal","state":"Manipur","latitude":24.817,"longitude":93.9368,"temp":27.7,"humidity":74,"rain":0.0,"pressure":917.1,"uv_index":4.6,"wind_gusts":32.8,"aqi":38,"pm10":4.8,"pm2_5":4.7,"no2":2.2,"co":172.0,"o3":77.0,"so2":1.1,"mosquito_risk":7,"arthritis_risk":5,"migraine_risk":3,"frizz_risk":1,"updated_at":"2026-06-30T15:11:53.112639+05:30"},{"city":"Aizawl","state":"Mizoram","latitude":23.7271,"longitude":92.7176,"temp":22.9,"humidity":90,"rain":0.0,"pressure":886.6,"uv_index":8.4,"wind_gusts":18.0,"aqi":32,"pm10":3.2,"pm2_5":3.0,"no2":1.4,"co":133.0,"o3":65.0,"so2":0.3,"mosquito_risk":3,"arthritis_risk":5,"migraine_risk":7,"frizz_risk":1,"updated_at":"2026-06-30T15:11:53.112646+05:30"},{"city":"Kohima","state":"Nagaland","latitude":25.6701,"longitude":94.1077,"temp":22.7,"humidity":100,"rain":0.1,"pressure":850.9,"uv_index":7.9,"wind_gusts":19.4,"aqi":31,"pm10":6.3,"pm2_5":6.0,"no2":2.4,"co":150.0,"o3":69.0,"so2":0.6,"mosquito_risk":6,"arthritis_risk":5,"migraine_risk":7,"frizz_risk":1,"updated_at":"2026-06-30T15:11:53.112653+05:30"},{"city":"Gangtok","state":"Sikkim","latitude":27.3314,"longitude":88.6138,"temp":23.0,"humidity":77,"rain":0.1,"pressure":834.4,"uv_index":6.5,"wind_gusts":29.2,"aqi":56,"pm10":3.7,"pm2_5":3.4,"no2":1.9,"co":272.0,"o3":124.0,"so2":1.6,"mosquito_risk":6,"arthritis_risk":5,"migraine_risk":7,"frizz_risk":1,"updated_at":"2026-06-30T15:11:53.112660+05:30"},{"city":"Siliguri","state":"West Bengal","latitude":26.7271,"longitude":88.3953,"temp":31.1,"humidity":68,"rain":0.0,"pressure":985.1,"uv_index":6.65,"wind_gusts":26.6,"aqi":89,"pm10":14.6,"pm2_5":13.3,"no2":2.3,"co":355.0,"o3":148.0,"so2":3.6,"mosquito_risk":3,"arthritis_risk":5,"migraine_risk":7,"frizz_risk":1,"updated_at":"2026-06-30T15:11:56.473293+05:30"},{"city":"Durgapur","state":"West Bengal","latitude":23.5204,"longitude":87.3119,"temp":28.4,"humidity":89,"rain":0.1,"pressure":988.0,"uv_index":8.75,"wind_gusts":26.3,"aqi":173,"pm10":93.4,"pm2_5":92.4,"no2":21.7,"co":442.0,"o3":247.0,"so2":89.7,"mosquito_risk":10,"arthritis_risk":5,"migraine_risk":7,"frizz_risk":1,"updated_at":"2026-06-30T15:11:56.473327+05:30"},{"city":"Asansol","state":"West Bengal","latitude":23.6739,"longitude":86.9524,"temp":29.7,"humidity":82,"rain":0.1,"pressure":986.3,"uv_index":8.95,"wind_gusts":22.3,"aqi":164,"pm10":73.1,"pm2_5":72.4,"no2":20.4,"co":473.0,"o3":233.0,"so2":74.3,"mosquito_risk":10,"arthritis_risk":5,"migraine_risk":7,"frizz_risk":1,"updated_at":"2026-06-30T15:11:56.473337+05:30"},{"city":"Pondicherry","state":"Puducherry","latitude":11.9139,"longitude":79.8145,"temp":35.3,"humidity":44,"rain":0.0,"pressure":1004.1,"uv_index":7.65,"wind_gusts":44.3,"aqi":46,"pm10":19.3,"pm2_5":14.8,"no2":3.5,"co":142.0,"o3":125.0,"so2":8.0,"mosquito_risk":0,"arthritis_risk":5,"migraine_risk":7,"frizz_risk":1,"updated_at":"2026-06-30T15:11:56.473345+05:30"},{"city":"Port Blair","state":"Andaman and Nicobar Islands","latitude":11.6234,"longitude":92.7265,"temp":27.6,"humidity":87,"rain":0.1,"pressure":1004.3,"uv_index":7.85,"wind_gusts":44.6,"aqi":28,"pm10":9.0,"pm2_5":5.3,"no2":0.4,"co":94.0,"o3":55.0,"so2":0.4,"mosquito_risk":10,"arthritis_risk":5,"migraine_risk":4,"frizz_risk":1,"updated_at":"2026-06-30T15:11:56.473354+05:30"},{"city":"Haridwar","state":"Uttarakhand","latitude":29.9457,"longitude":78.1642,"temp":29.1,"humidity":90,"rain":0.1,"pressure":967.1,"uv_index":7.0,"wind_gusts":42.5,"aqi":146,"pm10":202.1,"pm2_5":66.1,"no2":1.8,"co":262.0,"o3":170.0,"so2":10.9,"mosquito_risk":10,"arthritis_risk":5,"migraine_risk":7,"frizz_risk":1,"updated_at":"2026-06-30T15:11:56.473361+05:30"},{"city":"Rishikesh","state":"Uttarakhand","latitude":30.0869,"longitude":78.2676,"temp":27.1,"humidity":95,"rain":0.1,"pressure":960.3,"uv_index":7.15,"wind_gusts":32.4,"aqi":127,"pm10":186.7,"pm2_5":60.8,"no2":1.3,"co":252.0,"o3":171.0,"so2":12.4,"mosquito_risk":10,"arthritis_risk":5,"migraine_risk":7,"frizz_risk":1,"updated_at":"2026-06-30T15:11:56.473370+05:30"},{"city":"Nainital","state":"Uttarakhand","latitude":29.3919,"longitude":79.4542,"temp":19.1,"humidity":98,"rain":0.2,"pressure":802.4,"uv_index":5.8,"wind_gusts":21.6,"aqi":103,"pm10":66.8,"pm2_5":24.5,"no2":1.6,"co":198.0,"o3":149.0,"so2":5.3,"mosquito_risk":6,"arthritis_risk":10,"migraine_risk":3,"frizz_risk":1,"updated_at":"2026-06-30T15:11:56.473377+05:30"},{"city":"Mussoorie","state":"Uttarakhand","latitude":30.4599,"longitude":78.0664,"temp":20.0,"humidity":95,"rain":0.1,"pressure":800.6,"uv_index":6.65,"wind_gusts":32.4,"aqi":119,"pm10":177.9,"pm2_5":59.3,"no2":2.4,"co":201.0,"o3":164.0,"so2":11.3,"mosquito_risk":6,"arthritis_risk":5,"migraine_risk":7,"frizz_risk":1,"updated_at":"2026-06-30T15:11:56.473384+05:30"},{"city":"Dharamshala","state":"Himachal Pradesh","latitude":32.219,"longitude":76.3234,"temp":25.1,"humidity":85,"rain":0.2,"pressure":865.0,"uv_index":6.55,"wind_gusts":27.0,"aqi":70,"pm10":47.6,"pm2_5":22.8,"no2":0.8,"co":225.0,"o3":135.0,"so2":3.0,"mosquito_risk":10,"arthritis_risk":5,"migraine_risk":7,"frizz_risk":1,"updated_at":"2026-06-30T15:11:56.473391+05:30"},{"city":"Dalhousie","state":"Himachal Pradesh","latitude":32.5387,"longitude":75.971,"temp":20.8,"humidity":89,"rain":0.1,"pressure":801.7,"uv_index":7.05,"wind_gusts":22.7,"aqi":121,"pm10":112.7,"pm2_5":46.9,"no2":2.1,"co":235.0,"o3":144.0,"so2":6.8,"mosquito_risk":6,"arthritis_risk":5,"migraine_risk":7,"frizz_risk":1,"updated_at":"2026-06-30T15:11:56.473399+05:30"},{"city":"Patiala","state":"Punjab","latitude":30.3398,"longitude":76.3869,"temp":36.2,"humidity":50,"rain":0.1,"pressure":969.3,"uv_index":7.5,"wind_gusts":46.4,"aqi":570,"pm10":1173.5,"pm2_5":212.3,"no2":2.8,"co":261.0,"o3":217.0,"so2":13.5,"mosquito_risk":3,"arthritis_risk":5,"migraine_risk":10,"frizz_risk":1,"updated_at":"2026-06-30T15:11:56.473407+05:30"},{"city":"Bhatinda","state":"Punjab","latitude":30.211,"longitude":74.9455,"temp":40.3,"humidity":33,"rain":0.0,"pressure":973.9,"uv_index":8.3,"wind_gusts":34.9,"aqi":161,"pm10":146.7,"pm2_5":57.3,"no2":2.3,"co":140.0,"o3":126.0,"so2":7.1,"mosquito_risk":0,"arthritis_risk":5,"migraine_risk":10,"frizz_risk":1,"updated_at":"2026-06-30T15:11:56.473414+05:30"},{"city":"Rohtak","state":"Haryana","latitude":28.8955,"longitude":76.6066,"temp":39.8,"humidity":33,"rain":0.0,"pressure":972.6,"uv_index":7.45,"wind_gusts":35.3,"aqi":704,"pm10":1598.1,"pm2_5":231.9,"no2":2.3,"co":144.0,"o3":121.0,"so2":4.3,"mosquito_risk":0,"arthritis_risk":5,"migraine_risk":10,"frizz_risk":1,"updated_at":"2026-06-30T15:11:56.473422+05:30"},{"city":"Panipat","state":"Haryana","latitude":29.3909,"longitude":76.9635,"temp":38.1,"humidity":41,"rain":0.0,"pressure":971.6,"uv_index":7.6,"wind_gusts":38.9,"aqi":1119,"pm10":1855.2,"pm2_5":270.1,"no2":3.9,"co":238.0,"o3":150.0,"so2":17.4,"mosquito_risk":0,"arthritis_risk":5,"migraine_risk":10,"frizz_risk":1,"updated_at":"2026-06-30T15:11:56.473429+05:30"},{"city":"Mathura","state":"Uttar Pradesh","latitude":27.4924,"longitude":77.6737,"temp":37.5,"humidity":36,"rain":0.0,"pressure":978.2,"uv_index":7.45,"wind_gusts":33.8,"aqi":230,"pm10":1173.5,"pm2_5":161.6,"no2":1.8,"co":155.0,"o3":119.0,"so2":2.8,"mosquito_risk":0,"arthritis_risk":5,"migraine_risk":10,"frizz_risk":1,"updated_at":"2026-06-30T15:11:56.473436+05:30"},{"city":"Vrindavan","state":"Uttar Pradesh","latitude":27.5823,"longitude":77.7027,"temp":37.2,"humidity":38,"rain":0.0,"pressure":978.6,"uv_index":7.45,"wind_gusts":30.6,"aqi":230,"pm10":1173.5,"pm2_5":161.6,"no2":1.8,"co":155.0,"o3":119.0,"so2":2.8,"mosquito_risk":0,"arthritis_risk":5,"migraine_risk":10,"frizz_risk":1,"updated_at":"2026-06-30T15:11:56.473442+05:30"},{"city":"Ayodhya","state":"Uttar Pradesh","latitude":26.7922,"longitude":82.1998,"temp":33.3,"humidity":63,"rain":0.0,"pressure":986.8,"uv_index":6.6,"wind_gusts":24.5,"aqi":86,"pm10":32.4,"pm2_5":17.6,"no2":3.2,"co":291.0,"o3":135.0,"so2":6.2,"mosquito_risk":3,"arthritis_risk":5,"migraine_risk":7,"frizz_risk":1,"updated_at":"2026-06-30T15:11:56.473449+05:30"},{"city":"Ratlam","state":"Madhya Pradesh","latitude":23.3315,"longitude":75.0367,"temp":30.9,"humidity":65,"rain":0.4,"pressure":948.4,"uv_index":7.65,"wind_gusts":42.1,"aqi":61,"pm10":25.7,"pm2_5":16.4,"no2":1.2,"co":118.0,"o3":100.0,"so2":3.9,"mosquito_risk":6,"arthritis_risk":5,"migraine_risk":7,"frizz_risk":1,"updated_at":"2026-06-30T15:11:56.473456+05:30"},{"city":"Sagar","state":"Madhya Pradesh","latitude":23.8388,"longitude":78.7378,"temp":31.0,"humidity":67,"rain":0.0,"pressure":943.5,"uv_index":8.6,"wind_gusts":37.8,"aqi":65,"pm10":76.6,"pm2_5":30.6,"no2":1.2,"co":154.0,"o3":111.0,"so2":3.1,"mosquito_risk":3,"arthritis_risk":5,"migraine_risk":7,"frizz_risk":1,"updated_at":"2026-06-30T15:11:56.473463+05:30"},{"city":"Satna","state":"Madhya Pradesh","latitude":24.6005,"longitude":80.8322,"temp":30.5,"humidity":74,"rain":0.3,"pressure":963.6,"uv_index":7.9,"wind_gusts":37.1,"aqi":77,"pm10":127.1,"pm2_5":42.0,"no2":1.1,"co":146.0,"o3":127.0,"so2":4.4,"mosquito_risk":6,"arthritis_risk":5,"migraine_risk":7,"frizz_risk":1,"updated_at":"2026-06-30T15:11:56.473470+05:30"},{"city":"Akola","state":"Maharashtra","latitude":20.7002,"longitude":77.0082,"temp":31.6,"humidity":61,"rain":0.0,"pressure":969.7,"uv_index":3.25,"wind_gusts":35.6,"aqi":58,"pm10":16.9,"pm2_5":11.4,"no2":3.2,"co":141.0,"o3":95.0,"so2":8.3,"mosquito_risk":3,"arthritis_risk":5,"migraine_risk":3,"frizz_risk":1,"updated_at":"2026-06-30T15:11:56.473478+05:30"},{"city":"Amravati","state":"Maharashtra","latitude":20.9374,"longitude":77.7796,"temp":29.1,"humidity":72,"rain":0.0,"pressure":962.0,"uv_index":7.3,"wind_gusts":38.9,"aqi":60,"pm10":16.8,"pm2_5":11.5,"no2":3.3,"co":157.0,"o3":99.0,"so2":8.8,"mosquito_risk":7,"arthritis_risk":5,"migraine_risk":7,"frizz_risk":1,"updated_at":"2026-06-30T15:11:56.473486+05:30"},{"city":"Latur","state":"Maharashtra","latitude":18.4088,"longitude":76.5604,"temp":28.7,"humidity":65,"rain":0.2,"pressure":934.9,"uv_index":5.2,"wind_gusts":39.2,"aqi":35,"pm10":9.3,"pm2_5":5.7,"no2":1.4,"co":118.0,"o3":67.0,"so2":1.1,"mosquito_risk":10,"arthritis_risk":5,"migraine_risk":3,"frizz_risk":1,"updated_at":"2026-06-30T15:11:56.473493+05:30"},{"city":"Nanded","state":"Maharashtra","latitude":19.1383,"longitude":77.3091,"temp":31.2,"humidity":59,"rain":0.0,"pressure":963.4,"uv_index":8.3,"wind_gusts":35.3,"aqi":55,"pm10":26.7,"pm2_5":14.8,"no2":1.5,"co":122.0,"o3":86.0,"so2":2.9,"mosquito_risk":0,"arthritis_risk":5,"migraine_risk":7,"frizz_risk":1,"updated_at":"2026-06-30T15:11:56.473501+05:30"},{"city":"Gulbarga","state":"Karnataka","latitude":17.3297,"longitude":76.8343,"temp":30.1,"humidity":63,"rain":0.1,"pressure":954.1,"uv_index":5.35,"wind_gusts":51.1,"aqi":27,"pm10":4.6,"pm2_5":4.1,"no2":2.0,"co":123.0,"o3":71.0,"so2":1.5,"mosquito_risk":6,"arthritis_risk":5,"migraine_risk":3,"frizz_risk":1,"updated_at":"2026-06-30T15:11:56.473507+05:30"},{"city":"Bidar","state":"Karnataka","latitude":17.9104,"longitude":77.5199,"temp":28.4,"humidity":68,"rain":0.1,"pressure":930.8,"uv_index":5.4,"wind_gusts":46.8,"aqi":34,"pm10":10.6,"pm2_5":6.5,"no2":2.2,"co":120.0,"o3":70.0,"so2":1.0,"mosquito_risk":10,"arthritis_risk":5,"migraine_risk":3,"frizz_risk":1,"updated_at":"2026-06-30T15:11:56.473514+05:30"},{"city":"Hospet","state":"Karnataka","latitude":15.2689,"longitude":76.3909,"temp":28.7,"humidity":66,"rain":0.2,"pressure":952.6,"uv_index":7.0,"wind_gusts":55.1,"aqi":25,"pm10":2.2,"pm2_5":1.5,"no2":1.2,"co":107.0,"o3":65.0,"so2":1.2,"mosquito_risk":10,"arthritis_risk":5,"migraine_risk":7,"frizz_risk":1,"updated_at":"2026-06-30T15:11:56.473521+05:30"},{"city":"Tirupur","state":"Tamil Nadu","latitude":11.1085,"longitude":77.3411,"temp":31.7,"humidity":53,"rain":0.0,"pressure":972.9,"uv_index":8.45,"wind_gusts":66.2,"aqi":46,"pm10":12.5,"pm2_5":7.2,"no2":1.7,"co":134.0,"o3":81.0,"so2":1.9,"mosquito_risk":0,"arthritis_risk":5,"migraine_risk":7,"frizz_risk":1,"updated_at":"2026-06-30T15:11:56.473528+05:30"},{"city":"Alappuzha","state":"Kerala","latitude":9.4981,"longitude":76.3388,"temp":28.5,"humidity":76,"rain":0.0,"pressure":1009.3,"uv_index":8.3,"wind_gusts":43.9,"aqi":37,"pm10":16.8,"pm2_5":9.1,"no2":2.0,"co":87.0,"o3":64.0,"so2":1.5,"mosquito_risk":7,"arthritis_risk":0,"migraine_risk":4,"frizz_risk":1,"updated_at":"2026-06-30T15:11:56.473535+05:30"},{"city":"Munnar","state":"Kerala","latitude":10.0889,"longitude":77.0595,"temp":17.8,"humidity":97,"rain":0.3,"pressure":856.8,"uv_index":7.2,"wind_gusts":52.2,"aqi":23,"pm10":16.8,"pm2_5":7.8,"no2":1.0,"co":99.0,"o3":60.0,"so2":1.0,"mosquito_risk":6,"arthritis_risk":10,"migraine_risk":7,"frizz_risk":1,"updated_at":"2026-06-30T15:11:56.473542+05:30"},{"city":"Silchar","state":"Assam","latitude":24.8333,"longitude":92.7789,"temp":33.6,"humidity":65,"rain":0.0,"pressure":996.0,"uv_index":7.85,"wind_gusts":22.7,"aqi":64,"pm10":8.8,"pm2_5":8.3,"no2":1.4,"co":164.0,"o3":101.0,"so2":2.9,"mosquito_risk":3,"arthritis_risk":5,"migraine_risk":7,"frizz_risk":1,"updated_at":"2026-06-30T15:11:56.473549+05:30"},{"city":"Dibrugarh","state":"Assam","latitude":27.4728,"longitude":94.912,"temp":32.7,"humidity":62,"rain":0.0,"pressure":987.2,"uv_index":7.6,"wind_gusts":14.8,"aqi":75,"pm10":12.8,"pm2_5":11.7,"no2":1.1,"co":161.0,"o3":114.0,"so2":1.3,"mosquito_risk":3,"arthritis_risk":5,"migraine_risk":7,"frizz_risk":1,"updated_at":"2026-06-30T15:11:56.473556+05:30"}]