[{"city":"Delhi","state":"Delhi","latitude":28.6139,"longitude":77.209,"temp":33.2,"humidity":26,"rain":0.0,"pressure":975.7,"uv_index":7.75,"wind_gusts":41.0,"aqi":210,"pm10":438.7,"pm2_5":91.3,"no2":28.9,"co":227.0,"o3":47.0,"so2":10.9,"mosquito_risk":0,"arthritis_risk":5,"migraine_risk":7,"frizz_risk":0,"updated_at":"2026-05-21T03:27:57.662285+05:30"},{"city":"Mumbai","state":"Maharashtra","latitude":19.076,"longitude":72.8777,"temp":29.5,"humidity":72,"rain":0.0,"pressure":1005.4,"uv_index":7.85,"wind_gusts":38.2,"aqi":58,"pm10":19.0,"pm2_5":10.9,"no2":7.2,"co":142.0,"o3":45.0,"so2":5.4,"mosquito_risk":7,"arthritis_risk":5,"migraine_risk":4,"frizz_risk":1,"updated_at":"2026-05-21T03:27:57.662344+05:30"},{"city":"Bangalore","state":"Karnataka","latitude":12.9716,"longitude":77.5946,"temp":22.1,"humidity":94,"rain":0.0,"pressure":909.6,"uv_index":9.2,"wind_gusts":34.9,"aqi":37,"pm10":8.0,"pm2_5":7.6,"no2":13.3,"co":282.0,"o3":42.0,"so2":4.8,"mosquito_risk":3,"arthritis_risk":5,"migraine_risk":7,"frizz_risk":1,"updated_at":"2026-05-21T03:27:57.662359+05:30"},{"city":"Hyderabad","state":"Telangana","latitude":17.385,"longitude":78.4867,"temp":30.4,"humidity":49,"rain":0.0,"pressure":949.5,"uv_index":8.5,"wind_gusts":33.8,"aqi":100,"pm10":34.9,"pm2_5":28.1,"no2":9.2,"co":283.0,"o3":97.0,"so2":7.7,"mosquito_risk":0,"arthritis_risk":5,"migraine_risk":7,"frizz_risk":1,"updated_at":"2026-05-21T03:27:57.662369+05:30"},{"city":"Chennai","state":"Tamil Nadu","latitude":13.0827,"longitude":80.2707,"temp":31.8,"humidity":55,"rain":0.0,"pressure":1001.3,"uv_index":8.4,"wind_gusts":40.3,"aqi":64,"pm10":21.5,"pm2_5":19.3,"no2":19.1,"co":307.0,"o3":51.0,"so2":8.1,"mosquito_risk":0,"arthritis_risk":5,"migraine_risk":4,"frizz_risk":1,"updated_at":"2026-05-21T03:27:57.662377+05:30"},{"city":"Kolkata","state":"West Bengal","latitude":22.5726,"longitude":88.3639,"temp":28.6,"humidity":95,"rain":0.0,"pressure":999.3,"uv_index":8.95,"wind_gusts":26.3,"aqi":95,"pm10":34.6,"pm2_5":28.8,"no2":9.3,"co":333.0,"o3":69.0,"so2":6.1,"mosquito_risk":7,"arthritis_risk":5,"migraine_risk":7,"frizz_risk":1,"updated_at":"2026-05-21T03:27:57.662385+05:30"},{"city":"Pune","state":"Maharashtra","latitude":18.5204,"longitude":73.8567,"temp":24.5,"humidity":85,"rain":0.0,"pressure":945.5,"uv_index":5.85,"wind_gusts":40.0,"aqi":65,"pm10":13.3,"pm2_5":9.0,"no2":8.2,"co":145.0,"o3":43.0,"so2":7.0,"mosquito_risk":3,"arthritis_risk":5,"migraine_risk":3,"frizz_risk":1,"updated_at":"2026-05-21T03:27:57.662391+05:30"},{"city":"Ahmedabad","state":"Gujarat","latitude":23.0225,"longitude":72.5714,"temp":30.9,"humidity":46,"rain":0.0,"pressure":998.3,"uv_index":8.15,"wind_gusts":33.8,"aqi":65,"pm10":45.2,"pm2_5":21.1,"no2":5.8,"co":169.0,"o3":52.0,"so2":3.5,"mosquito_risk":0,"arthritis_risk":5,"migraine_risk":7,"frizz_risk":1,"updated_at":"2026-05-21T03:27:57.662398+05:30"},{"city":"Jaipur","state":"Rajasthan","latitude":26.9124,"longitude":75.7873,"temp":32.1,"humidity":28,"rain":0.0,"pressure":954.5,"uv_index":8.3,"wind_gusts":47.9,"aqi":132,"pm10":359.5,"pm2_5":69.6,"no2":5.6,"co":209.0,"o3":66.0,"so2":4.8,"mosquito_risk":0,"arthritis_risk":5,"migraine_risk":7,"frizz_risk":0,"updated_at":"2026-05-21T03:27:57.662412+05:30"},{"city":"Lucknow","state":"Uttar Pradesh","latitude":26.8467,"longitude":80.9462,"temp":32.4,"humidity":50,"rain":0.0,"pressure":986.3,"uv_index":8.2,"wind_gusts":32.0,"aqi":152,"pm10":267.3,"pm2_5":72.4,"no2":24.2,"co":315.0,"o3":72.0,"so2":10.4,"mosquito_risk":0,"arthritis_risk":5,"migraine_risk":7,"frizz_risk":1,"updated_at":"2026-05-21T03:27:57.662418+05:30"},{"city":"Kanpur","state":"Uttar Pradesh","latitude":26.4499,"longitude":80.3319,"temp":33.8,"humidity":28,"rain":0.0,"pressure":984.6,"uv_index":8.25,"wind_gusts":36.7,"aqi":193,"pm10":402.3,"pm2_5":86.8,"no2":23.6,"co":297.0,"o3":57.0,"so2":11.0,"mosquito_risk":0,"arthritis_risk":5,"migraine_risk":7,"frizz_risk":0,"updated_at":"2026-05-21T03:27:57.662424+05:30"},{"city":"Chandigarh","state":"Chandigarh","latitude":30.7333,"longitude":76.7794,"temp":25.5,"humidity":50,"rain":0.0,"pressure":960.3,"uv_index":7.75,"wind_gusts":34.2,"aqi":107,"pm10":54.7,"pm2_5":36.1,"no2":29.1,"co":448.0,"o3":44.0,"so2":12.6,"mosquito_risk":4,"arthritis_risk":5,"migraine_risk":7,"frizz_risk":0,"updated_at":"2026-05-21T03:27:57.662430+05:30"},{"city":"Srinagar","state":"Jammu and Kashmir","latitude":34.0837,"longitude":74.7973,"temp":15.3,"humidity":85,"rain":0.0,"pressure":841.1,"uv_index":8.55,"wind_gusts":48.6,"aqi":77,"pm10":42.5,"pm2_5":20.8,"no2":21.2,"co":698.0,"o3":28.0,"so2":2.2,"mosquito_risk":3,"arthritis_risk":10,"migraine_risk":7,"frizz_risk":0,"updated_at":"2026-05-21T03:27:57.662437+05:30"},{"city":"Jammu","state":"Jammu and Kashmir","latitude":32.7266,"longitude":74.857,"temp":29.2,"humidity":31,"rain":0.0,"pressure":965.1,"uv_index":8.55,"wind_gusts":70.2,"aqi":85,"pm10":25.1,"pm2_5":17.3,"no2":12.7,"co":280.0,"o3":53.0,"so2":2.5,"mosquito_risk":4,"arthritis_risk":5,"migraine_risk":7,"frizz_risk":0,"updated_at":"2026-05-21T03:27:57.662443+05:30"},{"city":"Amritsar","state":"Punjab","latitude":31.634,"longitude":74.8723,"temp":29.9,"humidity":36,"rain":0.0,"pressure":972.8,"uv_index":8.45,"wind_gusts":61.6,"aqi":116,"pm10":52.9,"pm2_5":38.3,"no2":26.1,"co":350.0,"o3":51.0,"so2":11.1,"mosquito_risk":4,"arthritis_risk":5,"migraine_risk":7,"frizz_risk":0,"updated_at":"2026-05-21T03:27:57.662449+05:30"},{"city":"Ludhiana","state":"Punjab","latitude":30.901,"longitude":75.8573,"temp":29.2,"humidity":38,"rain":0.0,"pressure":970.7,"uv_index":8.05,"wind_gusts":33.5,"aqi":151,"pm10":84.3,"pm2_5":51.9,"no2":25.9,"co":433.0,"o3":44.0,"so2":10.5,"mosquito_risk":4,"arthritis_risk":5,"migraine_risk":7,"frizz_risk":0,"updated_at":"2026-05-21T03:27:57.662458+05:30"},{"city":"Jalandhar","state":"Punjab","latitude":31.326,"longitude":75.5762,"temp":29.8,"humidity":34,"rain":0.0,"pressure":971.8,"uv_index":8.2,"wind_gusts":42.8,"aqi":120,"pm10":69.8,"pm2_5":44.2,"no2":23.1,"co":482.0,"o3":51.0,"so2":10.5,"mosquito_risk":4,"arthritis_risk":5,"migraine_risk":7,"frizz_risk":0,"updated_at":"2026-05-21T03:27:57.662464+05:30"},{"city":"Dehradun","state":"Uttarakhand","latitude":30.6284,"longitude":78.0322,"temp":14.8,"humidity":59,"rain":0.0,"pressure":824.6,"uv_index":8.1,"wind_gusts":44.6,"aqi":71,"pm10":31.2,"pm2_5":18.0,"no2":28.8,"co":212.0,"o3":21.0,"so2":1.5,"mosquito_risk":0,"arthritis_risk":5,"migraine_risk":7,"frizz_risk":0,"updated_at":"2026-05-21T03:27:57.662472+05:30"},{"city":"Shimla","state":"Himachal Pradesh","latitude":31.1048,"longitude":77.1734,"temp":16.0,"humidity":35,"rain":0.0,"pressure":781.0,"uv_index":8.3,"wind_gusts":48.2,"aqi":73,"pm10":45.6,"pm2_5":26.7,"no2":23.2,"co":193.0,"o3":68.0,"so2":7.9,"mosquito_risk":0,"arthritis_risk":5,"migraine_risk":7,"frizz_risk":0,"updated_at":"2026-05-21T03:27:57.662485+05:30"},{"city":"Manali","state":"Himachal Pradesh","latitude":32.2396,"longitude":77.1887,"temp":13.1,"humidity":62,"rain":0.0,"pressure":814.7,"uv_index":9.65,"wind_gusts":50.8,"aqi":38,"pm10":12.8,"pm2_5":5.0,"no2":24.5,"co":201.0,"o3":100.0,"so2":0.0,"mosquito_risk":3,"arthritis_risk":5,"migraine_risk":7,"frizz_risk":0,"updated_at":"2026-05-21T03:27:57.662491+05:30"},{"city":"Gurgaon","state":"Haryana","latitude":28.4595,"longitude":77.0266,"temp":31.6,"humidity":30,"rain":0.0,"pressure":974.3,"uv_index":7.85,"wind_gusts":45.7,"aqi":808,"pm10":2138.3,"pm2_5":305.5,"no2":19.6,"co":209.0,"o3":53.0,"so2":8.7,"mosquito_risk":0,"arthritis_risk":5,"migraine_risk":7,"frizz_risk":0,"updated_at":"2026-05-21T03:27:57.662497+05:30"},{"city":"Noida","state":"Uttar Pradesh","latitude":28.5355,"longitude":77.391,"temp":31.1,"humidity":31,"rain":0.0,"pressure":977.0,"uv_index":7.75,"wind_gusts":36.0,"aqi":808,"pm10":2138.3,"pm2_5":305.5,"no2":19.6,"co":211.0,"o3":53.0,"so2":8.7,"mosquito_risk":0,"arthritis_risk":5,"migraine_risk":7,"frizz_risk":0,"updated_at":"2026-05-21T03:27:57.662503+05:30"},{"city":"Ghaziabad","state":"Uttar Pradesh","latitude":28.6692,"longitude":77.4538,"temp":32.5,"humidity":27,"rain":0.0,"pressure":975.3,"uv_index":7.75,"wind_gusts":38.9,"aqi":189,"pm10":345.5,"pm2_5":85.9,"no2":41.0,"co":569.0,"o3":34.0,"so2":19.1,"mosquito_risk":0,"arthritis_risk":5,"migraine_risk":7,"frizz_risk":0,"updated_at":"2026-05-21T03:27:57.662509+05:30"},{"city":"Faridabad","state":"Haryana","latitude":28.4089,"longitude":77.3178,"temp":33.0,"humidity":27,"rain":0.0,"pressure":976.4,"uv_index":7.75,"wind_gusts":43.6,"aqi":808,"pm10":2138.3,"pm2_5":305.5,"no2":19.6,"co":195.0,"o3":53.0,"so2":8.7,"mosquito_risk":0,"arthritis_risk":5,"migraine_risk":7,"frizz_risk":0,"updated_at":"2026-05-21T03:27:57.662515+05:30"},{"city":"Meerut","state":"Uttar Pradesh","latitude":28.9845,"longitude":77.7064,"temp":31.3,"humidity":34,"rain":0.0,"pressure":973.8,"uv_index":7.65,"wind_gusts":29.5,"aqi":189,"pm10":345.5,"pm2_5":85.9,"no2":41.0,"co":536.0,"o3":34.0,"so2":19.1,"mosquito_risk":0,"arthritis_risk":5,"migraine_risk":7,"frizz_risk":0,"updated_at":"2026-05-21T03:27:57.662520+05:30"},{"city":"Agra","state":"Uttar Pradesh","latitude":27.1767,"longitude":78.0081,"temp":32.8,"humidity":28,"rain":0.0,"pressure":980.9,"uv_index":8.1,"wind_gusts":45.0,"aqi":595,"pm10":1106.4,"pm2_5":138.3,"no2":8.5,"co":174.0,"o3":64.0,"so2":4.6,"mosquito_risk":0,"arthritis_risk":5,"migraine_risk":7,"frizz_risk":0,"updated_at":"2026-05-21T03:27:57.662526+05:30"},{"city":"Varanasi","state":"Uttar Pradesh","latitude":25.3176,"longitude":82.9739,"temp":31.8,"humidity":63,"rain":0.0,"pressure":990.0,"uv_index":8.75,"wind_gusts":41.0,"aqi":153,"pm10":109.7,"pm2_5":60.8,"no2":41.7,"co":745.0,"o3":34.0,"so2":15.8,"mosquito_risk":3,"arthritis_risk":5,"migraine_risk":7,"frizz_risk":1,"updated_at":"2026-05-21T03:27:57.662532+05:30"},{"city":"Prayagraj","state":"Uttar Pradesh","latitude":25.4358,"longitude":81.8463,"temp":32.4,"humidity":46,"rain":0.0,"pressure":988.6,"uv_index":8.65,"wind_gusts":36.0,"aqi":145,"pm10":172.8,"pm2_5":61.0,"no2":32.2,"co":478.0,"o3":53.0,"so2":12.6,"mosquito_risk":0,"arthritis_risk":5,"migraine_risk":7,"frizz_risk":1,"updated_at":"2026-05-21T03:27:57.662538+05:30"},{"city":"Gorakhpur","state":"Uttar Pradesh","latitude":26.7606,"longitude":83.3732,"temp":28.9,"humidity":76,"rain":0.0,"pressure":990.5,"uv_index":8.65,"wind_gusts":31.0,"aqi":155,"pm10":76.1,"pm2_5":61.9,"no2":16.1,"co":537.0,"o3":76.0,"so2":12.9,"mosquito_risk":7,"arthritis_risk":5,"migraine_risk":7,"frizz_risk":1,"updated_at":"2026-05-21T03:27:57.662547+05:30"},{"city":"Bareilly","state":"Uttar Pradesh","latitude":28.367,"longitude":79.4304,"temp":28.6,"humidity":54,"rain":0.0,"pressure":979.2,"uv_index":8.05,"wind_gusts":21.2,"aqi":152,"pm10":280.3,"pm2_5":83.6,"no2":29.5,"co":369.0,"o3":46.0,"so2":10.2,"mosquito_risk":4,"arthritis_risk":5,"migraine_risk":7,"frizz_risk":1,"updated_at":"2026-05-21T03:27:57.662553+05:30"},{"city":"Aligarh","state":"Uttar Pradesh","latitude":27.8974,"longitude":78.088,"temp":30.8,"humidity":29,"rain":0.0,"pressure":978.4,"uv_index":7.9,"wind_gusts":38.5,"aqi":500,"pm10":1039.4,"pm2_5":151.3,"no2":12.1,"co":209.0,"o3":58.0,"so2":4.5,"mosquito_risk":0,"arthritis_risk":5,"migraine_risk":7,"frizz_risk":0,"updated_at":"2026-05-21T03:27:57.662558+05:30"},{"city":"Moradabad","state":"Uttar Pradesh","latitude":28.8386,"longitude":78.7733,"temp":30.5,"humidity":40,"rain":0.0,"pressure":976.2,"uv_index":7.75,"wind_gusts":20.2,"aqi":170,"pm10":268.2,"pm2_5":133.2,"no2":83.8,"co":497.0,"o3":12.0,"so2":23.8,"mosquito_risk":0,"arthritis_risk":5,"migraine_risk":7,"frizz_risk":0,"updated_at":"2026-05-21T03:27:57.662564+05:30"},{"city":"Saharanpur","state":"Uttar Pradesh","latitude":29.9637,"longitude":77.546,"temp":29.8,"humidity":46,"rain":0.0,"pressure":968.2,"uv_index":7.2,"wind_gusts":27.0,"aqi":157,"pm10":178.3,"pm2_5":94.1,"no2":64.0,"co":589.0,"o3":2.0,"so2":13.9,"mosquito_risk":4,"arthritis_risk":5,"migraine_risk":7,"frizz_risk":1,"updated_at":"2026-05-21T03:27:57.662570+05:30"},{"city":"Jhansi","state":"Uttar Pradesh","latitude":25.4484,"longitude":78.5685,"temp":32.2,"humidity":22,"rain":0.0,"pressure":972.1,"uv_index":8.5,"wind_gusts":51.8,"aqi":53,"pm10":24.9,"pm2_5":16.5,"no2":5.5,"co":170.0,"o3":65.0,"so2":3.5,"mosquito_risk":0,"arthritis_risk":5,"migraine_risk":7,"frizz_risk":0,"updated_at":"2026-05-21T03:28:01.263174+05:30"},{"city":"Surat","state":"Gujarat","latitude":21.1702,"longitude":72.8311,"temp":29.0,"humidity":80,"rain":0.0,"pressure":1003.5,"uv_index":7.75,"wind_gusts":37.4,"aqi":68,"pm10":27.9,"pm2_5":14.9,"no2":16.5,"co":246.0,"o3":39.0,"so2":28.5,"mosquito_risk":7,"arthritis_risk":5,"migraine_risk":4,"frizz_risk":1,"updated_at":"2026-05-21T03:28:01.263209+05:30"},{"city":"Vadodara","state":"Gujarat","latitude":22.3072,"longitude":73.1812,"temp":29.1,"humidity":80,"rain":0.0,"pressure":1000.7,"uv_index":8.1,"wind_gusts":36.7,"aqi":67,"pm10":21.9,"pm2_5":15.0,"no2":18.7,"co":187.0,"o3":28.0,"so2":21.1,"mosquito_risk":7,"arthritis_risk":5,"migraine_risk":4,"frizz_risk":1,"updated_at":"2026-05-21T03:28:01.263220+05:30"},{"city":"Rajkot","state":"Gujarat","latitude":22.3039,"longitude":70.8022,"temp":27.0,"humidity":85,"rain":0.0,"pressure":990.8,"uv_index":7.75,"wind_gusts":45.7,"aqi":61,"pm10":32.9,"pm2_5":14.5,"no2":5.6,"co":130.0,"o3":45.0,"so2":6.1,"mosquito_risk":7,"arthritis_risk":5,"migraine_risk":7,"frizz_risk":1,"updated_at":"2026-05-21T03:28:01.263229+05:30"},{"city":"Thane","state":"Maharashtra","latitude":19.2183,"longitude":72.9781,"temp":29.5,"humidity":73,"rain":0.0,"pressure":1004.9,"uv_index":7.85,"wind_gusts":33.5,"aqi":58,"pm10":19.0,"pm2_5":10.9,"no2":7.2,"co":162.0,"o3":45.0,"so2":5.4,"mosquito_risk":7,"arthritis_risk":5,"migraine_risk":4,"frizz_risk":1,"updated_at":"2026-05-21T03:28:01.263237+05:30"},{"city":"Nagpur","state":"Maharashtra","latitude":21.1458,"longitude":79.0882,"temp":34.6,"humidity":26,"rain":0.0,"pressure":967.3,"uv_index":8.95,"wind_gusts":45.4,"aqi":74,"pm10":35.0,"pm2_5":25.3,"no2":10.2,"co":267.0,"o3":82.0,"so2":12.8,"mosquito_risk":0,"arthritis_risk":5,"migraine_risk":7,"frizz_risk":0,"updated_at":"2026-05-21T03:28:01.263245+05:30"},{"city":"Nashik","state":"Maharashtra","latitude":19.9975,"longitude":73.7898,"temp":24.8,"humidity":85,"rain":0.0,"pressure":943.0,"uv_index":5.85,"wind_gusts":36.0,"aqi":55,"pm10":14.6,"pm2_5":10.1,"no2":10.2,"co":127.0,"o3":37.0,"so2":8.0,"mosquito_risk":3,"arthritis_risk":5,"migraine_risk":3,"frizz_risk":1,"updated_at":"2026-05-21T03:28:01.263252+05:30"},{"city":"Aurangabad","state":"Maharashtra","latitude":19.8762,"longitude":75.3433,"temp":28.0,"humidity":64,"rain":0.0,"pressure":941.0,"uv_index":5.1,"wind_gusts":37.8,"aqi":64,"pm10":18.1,"pm2_5":12.8,"no2":9.8,"co":144.0,"o3":50.0,"so2":5.7,"mosquito_risk":7,"arthritis_risk":5,"migraine_risk":3,"frizz_risk":1,"updated_at":"2026-05-21T03:28:01.263260+05:30"},{"city":"Solapur","state":"Maharashtra","latitude":17.6599,"longitude":75.9064,"temp":29.0,"humidity":59,"rain":0.0,"pressure":954.4,"uv_index":9.0,"wind_gusts":48.2,"aqi":77,"pm10":22.1,"pm2_5":16.5,"no2":6.3,"co":165.0,"o3":72.0,"so2":4.8,"mosquito_risk":4,"arthritis_risk":5,"migraine_risk":7,"frizz_risk":1,"updated_at":"2026-05-21T03:28:01.263268+05:30"},{"city":"Kolhapur","state":"Maharashtra","latitude":16.705,"longitude":74.2433,"temp":23.5,"humidity":90,"rain":0.0,"pressure":945.5,"uv_index":8.6,"wind_gusts":43.9,"aqi":71,"pm10":20.5,"pm2_5":12.7,"no2":5.8,"co":143.0,"o3":45.0,"so2":2.5,"mosquito_risk":3,"arthritis_risk":5,"migraine_risk":7,"frizz_risk":1,"updated_at":"2026-05-21T03:28:01.263275+05:30"},{"city":"Goa","state":"Goa","latitude":15.2993,"longitude":74.124,"temp":25.9,"humidity":98,"rain":0.0,"pressure":995.5,"uv_index":2.6,"wind_gusts":28.8,"aqi":38,"pm10":10.8,"pm2_5":8.8,"no2":4.4,"co":430.0,"o3":68.0,"so2":1.6,"mosquito_risk":7,"arthritis_risk":5,"migraine_risk":3,"frizz_risk":1,"updated_at":"2026-05-21T03:28:01.263282+05:30"},{"city":"Jodhpur","state":"Rajasthan","latitude":26.2389,"longitude":73.0243,"temp":32.0,"humidity":27,"rain":0.0,"pressure":978.5,"uv_index":8.45,"wind_gusts":46.4,"aqi":155,"pm10":281.3,"pm2_5":60.5,"no2":3.8,"co":144.0,"o3":61.0,"so2":3.1,"mosquito_risk":0,"arthritis_risk":5,"migraine_risk":7,"frizz_risk":0,"updated_at":"2026-05-21T03:28:01.263290+05:30"},{"city":"Udaipur","state":"Rajasthan","latitude":24.5854,"longitude":73.7125,"temp":28.1,"humidity":36,"rain":0.0,"pressure":943.0,"uv_index":8.85,"wind_gusts":40.7,"aqi":68,"pm10":47.4,"pm2_5":21.0,"no2":3.4,"co":146.0,"o3":67.0,"so2":2.9,"mosquito_risk":4,"arthritis_risk":5,"migraine_risk":7,"frizz_risk":0,"updated_at":"2026-05-21T03:28:01.263297+05:30"},{"city":"Kota","state":"Rajasthan","latitude":25.2138,"longitude":75.8648,"temp":33.0,"humidity":22,"rain":0.0,"pressure":973.8,"uv_index":8.4,"wind_gusts":46.4,"aqi":61,"pm10":34.5,"pm2_5":19.9,"no2":6.7,"co":162.0,"o3":50.0,"so2":4.2,"mosquito_risk":0,"arthritis_risk":5,"migraine_risk":7,"frizz_risk":0,"updated_at":"2026-05-21T03:28:01.263320+05:30"},{"city":"Bikaner","state":"Rajasthan","latitude":28.0229,"longitude":73.3119,"temp":32.9,"humidity":25,"rain":0.0,"pressure":975.6,"uv_index":8.4,"wind_gusts":34.9,"aqi":113,"pm10":393.0,"pm2_5":111.1,"no2":2.0,"co":134.0,"o3":76.0,"so2":2.2,"mosquito_risk":0,"arthritis_risk":5,"migraine_risk":7,"frizz_risk":0,"updated_at":"2026-05-21T03:28:01.263328+05:30"},{"city":"Ajmer","state":"Rajasthan","latitude":26.4499,"longitude":74.6399,"temp":30.1,"humidity":29,"rain":0.0,"pressure":950.3,"uv_index":8.45,"wind_gusts":59.0,"aqi":71,"pm10":60.1,"pm2_5":23.2,"no2":4.4,"co":156.0,"o3":60.0,"so2":3.6,"mosquito_risk":0,"arthritis_risk":5,"migraine_risk":7,"frizz_risk":0,"updated_at":"2026-05-21T03:28:01.263335+05:30"},{"city":"Gwalior","state":"Madhya Pradesh","latitude":26.2183,"longitude":78.1828,"temp":33.0,"humidity":24,"rain":0.0,"pressure":976.9,"uv_index":8.3,"wind_gusts":53.3,"aqi":58,"pm10":26.4,"pm2_5":15.1,"no2":4.7,"co":151.0,"o3":73.0,"so2":2.6,"mosquito_risk":0,"arthritis_risk":5,"migraine_risk":7,"frizz_risk":0,"updated_at":"2026-05-21T03:28:01.263342+05:30"},{"city":"Indore","state":"Madhya Pradesh","latitude":22.7196,"longitude":75.8577,"temp":29.9,"humidity":39,"rain":0.0,"pressure":945.2,"uv_index":8.7,"wind_gusts":38.5,"aqi":69,"pm10":47.4,"pm2_5":25.0,"no2":5.3,"co":242.0,"o3":83.0,"so2":6.2,"mosquito_risk":4,"arthritis_risk":5,"migraine_risk":7,"frizz_risk":0,"updated_at":"2026-05-21T03:28:01.263349+05:30"},{"city":"Bhopal","state":"Madhya Pradesh","latitude":23.2599,"longitude":77.4126,"temp":32.7,"humidity":26,"rain":0.0,"pressure":949.5,"uv_index":8.7,"wind_gusts":43.2,"aqi":58,"pm10":36.9,"pm2_5":19.8,"no2":3.0,"co":161.0,"o3":81.0,"so2":3.4,"mosquito_risk":0,"arthritis_risk":5,"migraine_risk":7,"frizz_risk":0,"updated_at":"2026-05-21T03:28:01.263356+05:30"},{"city":"Jabalpur","state":"Madhya Pradesh","latitude":23.1815,"longitude":79.9864,"temp":33.0,"humidity":24,"rain":0.0,"pressure":956.0,"uv_index":8.9,"wind_gusts":39.2,"aqi":84,"pm10":26.6,"pm2_5":19.5,"no2":16.1,"co":221.0,"o3":53.0,"so2":4.6,"mosquito_risk":0,"arthritis_risk":5,"migraine_risk":7,"frizz_risk":0,"updated_at":"2026-05-21T03:28:01.263363+05:30"},{"city":"Ujjain","state":"Madhya Pradesh","latitude":23.1765,"longitude":75.7885,"temp":29.8,"humidity":43,"rain":0.0,"pressure":950.7,"uv_index":8.6,"wind_gusts":37.1,"aqi":71,"pm10":45.2,"pm2_5":25.1,"no2":4.8,"co":193.0,"o3":79.0,"so2":7.6,"mosquito_risk":4,"arthritis_risk":5,"migraine_risk":7,"frizz_risk":0,"updated_at":"2026-05-21T03:28:01.263370+05:30"},{"city":"Visakhapatnam","state":"Andhra Pradesh","latitude":17.6868,"longitude":83.2185,"temp":30.1,"humidity":84,"rain":0.0,"pressure":997.1,"uv_index":9.1,"wind_gusts":33.1,"aqi":106,"pm10":43.2,"pm2_5":36.1,"no2":31.7,"co":457.0,"o3":81.0,"so2":41.3,"mosquito_risk":3,"arthritis_risk":5,"migraine_risk":7,"frizz_risk":1,"updated_at":"2026-05-21T03:28:01.263377+05:30"},{"city":"Vijayawada","state":"Andhra Pradesh","latitude":16.5062,"longitude":80.648,"temp":32.1,"humidity":70,"rain":0.0,"pressure":996.3,"uv_index":9.15,"wind_gusts":39.6,"aqi":121,"pm10":26.9,"pm2_5":23.7,"no2":6.7,"co":292.0,"o3":117.0,"so2":6.0,"mosquito_risk":3,"arthritis_risk":5,"migraine_risk":7,"frizz_risk":1,"updated_at":"2026-05-21T03:28:01.263384+05:30"},{"city":"Guntur","state":"Andhra Pradesh","latitude":16.3067,"longitude":80.4365,"temp":32.6,"humidity":59,"rain":0.0,"pressure":997.5,"uv_index":9.15,"wind_gusts":40.3,"aqi":116,"pm10":33.4,"pm2_5":29.5,"no2":11.9,"co":271.0,"o3":92.0,"so2":6.0,"mosquito_risk":0,"arthritis_risk":5,"migraine_risk":7,"frizz_risk":1,"updated_at":"2026-05-21T03:28:01.263390+05:30"},{"city":"Nellore","state":"Andhra Pradesh","latitude":14.4426,"longitude":79.9865,"temp":32.8,"humidity":51,"rain":0.0,"pressure":999.6,"uv_index":8.5,"wind_gusts":42.8,"aqi":84,"pm10":23.7,"pm2_5":20.1,"no2":7.1,"co":196.0,"o3":91.0,"so2":9.1,"mosquito_risk":0,"arthritis_risk":5,"migraine_risk":7,"frizz_risk":1,"updated_at":"2026-05-21T03:28:01.263398+05:30"},{"city":"Kurnool","state":"Andhra Pradesh","latitude":15.8281,"longitude":78.0373,"temp":29.9,"humidity":65,"rain":0.0,"pressure":973.4,"uv_index":8.1,"wind_gusts":42.5,"aqi":72,"pm10":10.5,"pm2_5":9.3,"no2":8.1,"co":182.0,"o3":70.0,"so2":5.1,"mosquito_risk":7,"arthritis_risk":5,"migraine_risk":7,"frizz_risk":1,"updated_at":"2026-05-21T03:28:01.263405+05:30"},{"city":"Kakinada","state":"Andhra Pradesh","latitude":16.9891,"longitude":82.2475,"temp":31.2,"humidity":75,"rain":0.0,"pressure":1001.1,"uv_index":9.1,"wind_gusts":36.0,"aqi":91,"pm10":36.4,"pm2_5":27.3,"no2":3.6,"co":347.0,"o3":128.0,"so2":4.1,"mosquito_risk":3,"arthritis_risk":5,"migraine_risk":4,"frizz_risk":1,"updated_at":"2026-05-21T03:28:01.263412+05:30"},{"city":"Tirupati","state":"Andhra Pradesh","latitude":13.6288,"longitude":79.4192,"temp":30.9,"humidity":55,"rain":0.0,"pressure":985.9,"uv_index":8.55,"wind_gusts":41.8,"aqi":58,"pm10":18.8,"pm2_5":17.1,"no2":13.3,"co":183.0,"o3":53.0,"so2":2.5,"mosquito_risk":0,"arthritis_risk":5,"migraine_risk":7,"frizz_risk":1,"updated_at":"2026-05-21T03:28:01.263418+05:30"},{"city":"Warangal","state":"Telangana","latitude":17.9689,"longitude":79.5941,"temp":31.9,"humidity":41,"rain":0.0,"pressure":973.2,"uv_index":8.4,"wind_gusts":41.0,"aqi":132,"pm10":55.3,"pm2_5":46.9,"no2":25.3,"co":385.0,"o3":47.0,"so2":6.6,"mosquito_risk":0,"arthritis_risk":5,"migraine_risk":7,"frizz_risk":1,"updated_at":"2026-05-21T03:28:01.263424+05:30"},{"city":"Nizamabad","state":"Telangana","latitude":18.6725,"longitude":78.0941,"temp":32.3,"humidity":40,"rain":0.0,"pressure":960.2,"uv_index":9.1,"wind_gusts":34.2,"aqi":89,"pm10":41.6,"pm2_5":31.7,"no2":16.2,"co":307.0,"o3":58.0,"so2":7.2,"mosquito_risk":0,"arthritis_risk":5,"migraine_risk":7,"frizz_risk":1,"updated_at":"2026-05-21T03:28:01.263430+05:30"},{"city":"Mysore","state":"Karnataka","latitude":12.2958,"longitude":76.6396,"temp":22.4,"humidity":94,"rain":0.0,"pressure":926.3,"uv_index":8.75,"wind_gusts":43.9,"aqi":27,"pm10":7.5,"pm2_5":6.7,"no2":8.4,"co":154.0,"o3":42.0,"so2":2.2,"mosquito_risk":3,"arthritis_risk":5,"migraine_risk":7,"frizz_risk":1,"updated_at":"2026-05-21T03:28:01.263437+05:30"},{"city":"Mangalore","state":"Karnataka","latitude":12.9141,"longitude":74.856,"temp":27.2,"humidity":91,"rain":0.0,"pressure":1004.5,"uv_index":8.6,"wind_gusts":33.1,"aqi":36,"pm10":11.5,"pm2_5":9.7,"no2":7.9,"co":308.0,"o3":42.0,"so2":2.5,"mosquito_risk":7,"arthritis_risk":5,"migraine_risk":4,"frizz_risk":1,"updated_at":"2026-05-21T03:28:01.263443+05:30"},{"city":"Hubli-Dharwad","state":"Karnataka","latitude":15.3647,"longitude":75.124,"temp":22.9,"humidity":97,"rain":0.0,"pressure":938.6,"uv_index":8.8,"wind_gusts":47.5,"aqi":28,"pm10":5.4,"pm2_5":4.4,"no2":5.8,"co":179.0,"o3":49.0,"so2":1.1,"mosquito_risk":3,"arthritis_risk":5,"migraine_risk":7,"frizz_risk":1,"updated_at":"2026-05-21T03:28:01.263450+05:30"},{"city":"Belgaum","state":"Karnataka","latitude":15.8497,"longitude":74.4977,"temp":22.1,"humidity":98,"rain":0.0,"pressure":923.3,"uv_index":7.25,"wind_gusts":41.8,"aqi":61,"pm10":16.1,"pm2_5":9.4,"no2":4.7,"co":124.0,"o3":59.0,"so2":2.2,"mosquito_risk":3,"arthritis_risk":5,"migraine_risk":7,"frizz_risk":1,"updated_at":"2026-05-21T03:28:04.500787+05:30"},{"city":"Coimbatore","state":"Tamil Nadu","latitude":11.0168,"longitude":76.9558,"temp":25.2,"humidity":88,"rain":0.0,"pressure":959.2,"uv_index":8.1,"wind_gusts":52.6,"aqi":25,"pm10":5.2,"pm2_5":4.4,"no2":4.3,"co":161.0,"o3":51.0,"so2":2.3,"mosquito_risk":7,"arthritis_risk":5,"migraine_risk":7,"frizz_risk":1,"updated_at":"2026-05-21T03:28:04.500822+05:30"},{"city":"Madurai","state":"Tamil Nadu","latitude":9.9252,"longitude":78.1198,"temp":28.1,"humidity":73,"rain":0.0,"pressure":989.9,"uv_index":9.0,"wind_gusts":45.0,"aqi":61,"pm10":35.9,"pm2_5":34.8,"no2":48.1,"co":140.0,"o3":2.0,"so2":12.2,"mosquito_risk":7,"arthritis_risk":5,"migraine_risk":7,"frizz_risk":1,"updated_at":"2026-05-21T03:28:04.500834+05:30"},{"city":"Trichy","state":"Tamil Nadu","latitude":10.7905,"longitude":78.7047,"temp":28.5,"humidity":70,"rain":0.0,"pressure":996.1,"uv_index":9.0,"wind_gusts":49.0,"aqi":37,"pm10":7.5,"pm2_5":6.6,"no2":7.5,"co":150.0,"o3":47.0,"so2":3.4,"mosquito_risk":7,"arthritis_risk":5,"migraine_risk":7,"frizz_risk":1,"updated_at":"2026-05-21T03:28:04.500842+05:30"},{"city":"Salem","state":"Tamil Nadu","latitude":11.6643,"longitude":78.146,"temp":27.7,"humidity":73,"rain":0.0,"pressure":974.8,"uv_index":9.1,"wind_gusts":45.7,"aqi":47,"pm10":15.7,"pm2_5":14.4,"no2":21.6,"co":195.0,"o3":33.0,"so2":7.3,"mosquito_risk":7,"arthritis_risk":5,"migraine_risk":7,"frizz_risk":1,"updated_at":"2026-05-21T03:28:04.500851+05:30"},{"city":"Tirunelveli","state":"Tamil Nadu","latitude":8.7139,"longitude":77.7567,"temp":28.3,"humidity":75,"rain":0.0,"pressure":1000.7,"uv_index":8.2,"wind_gusts":40.3,"aqi":20,"pm10":6.8,"pm2_5":5.6,"no2":6.5,"co":133.0,"o3":35.0,"so2":2.2,"mosquito_risk":7,"arthritis_risk":5,"migraine_risk":4,"frizz_risk":1,"updated_at":"2026-05-21T03:28:04.500859+05:30"},{"city":"Vellore","state":"Tamil Nadu","latitude":12.9165,"longitude":79.1325,"temp":29.9,"humidity":60,"rain":0.0,"pressure":980.1,"uv_index":9.05,"wind_gusts":45.0,"aqi":52,"pm10":15.2,"pm2_5":14.1,"no2":16.7,"co":208.0,"o3":42.0,"so2":6.2,"mosquito_risk":4,"arthritis_risk":5,"migraine_risk":7,"frizz_risk":1,"updated_at":"2026-05-21T03:28:04.500866+05:30"},{"city":"Erode","state":"Tamil Nadu","latitude":11.341,"longitude":77.7172,"temp":27.5,"humidity":76,"rain":0.0,"pressure":986.2,"uv_index":8.95,"wind_gusts":51.5,"aqi":37,"pm10":14.1,"pm2_5":12.8,"no2":16.5,"co":157.0,"o3":34.0,"so2":3.9,"mosquito_risk":7,"arthritis_risk":5,"migraine_risk":7,"frizz_risk":1,"updated_at":"2026-05-21T03:28:04.500874+05:30"},{"city":"Kochi","state":"Kerala","latitude":9.9312,"longitude":76.2673,"temp":26.9,"humidity":94,"rain":0.0,"pressure":1006.9,"uv_index":8.2,"wind_gusts":36.4,"aqi":54,"pm10":19.2,"pm2_5":17.8,"no2":21.9,"co":223.0,"o3":17.0,"so2":5.2,"mosquito_risk":7,"arthritis_risk":5,"migraine_risk":4,"frizz_risk":1,"updated_at":"2026-05-21T03:28:04.500881+05:30"},{"city":"Thiruvananthapuram","state":"Kerala","latitude":8.5241,"longitude":76.9366,"temp":25.9,"humidity":97,"rain":0.1,"pressure":1006.8,"uv_index":8.5,"wind_gusts":45.0,"aqi":23,"pm10":8.0,"pm2_5":4.6,"no2":1.5,"co":133.0,"o3":49.0,"so2":0.4,"mosquito_risk":10,"arthritis_risk":5,"migraine_risk":4,"frizz_risk":1,"updated_at":"2026-05-21T03:28:04.500888+05:30"},{"city":"Kozhikode","state":"Kerala","latitude":11.2588,"longitude":75.7804,"temp":26.0,"humidity":96,"rain":0.0,"pressure":1006.0,"uv_index":8.75,"wind_gusts":25.9,"aqi":29,"pm10":6.7,"pm2_5":4.4,"no2":1.7,"co":398.0,"o3":57.0,"so2":0.7,"mosquito_risk":7,"arthritis_risk":5,"migraine_risk":4,"frizz_risk":1,"updated_at":"2026-05-21T03:28:04.500895+05:30"},{"city":"Thrissur","state":"Kerala","latitude":10.5276,"longitude":76.2144,"temp":26.1,"humidity":96,"rain":0.0,"pressure":1005.2,"uv_index":8.6,"wind_gusts":31.3,"aqi":51,"pm10":18.5,"pm2_5":17.1,"no2":18.7,"co":198.0,"o3":19.0,"so2":5.4,"mosquito_risk":7,"arthritis_risk":5,"migraine_risk":4,"frizz_risk":1,"updated_at":"2026-05-21T03:28:04.500903+05:30"},{"city":"Kannur","state":"Kerala","latitude":11.8745,"longitude":75.3704,"temp":26.5,"humidity":95,"rain":0.1,"pressure":1005.0,"uv_index":8.75,"wind_gusts":32.4,"aqi":32,"pm10":11.7,"pm2_5":10.1,"no2":9.9,"co":252.0,"o3":34.0,"so2":2.4,"mosquito_risk":10,"arthritis_risk":5,"migraine_risk":4,"frizz_risk":1,"updated_at":"2026-05-21T03:28:04.500910+05:30"},{"city":"Patna","state":"Bihar","latitude":25.5941,"longitude":85.1376,"temp":28.9,"humidity":80,"rain":0.0,"pressure":993.6,"uv_index":8.85,"wind_gusts":29.5,"aqi":156,"pm10":65.4,"pm2_5":56.1,"no2":14.6,"co":409.0,"o3":87.0,"so2":16.8,"mosquito_risk":7,"arthritis_risk":5,"migraine_risk":7,"frizz_risk":1,"updated_at":"2026-05-21T03:28:04.500917+05:30"},{"city":"Gaya","state":"Bihar","latitude":24.7914,"longitude":85.0002,"temp":29.1,"humidity":73,"rain":0.0,"pressure":987.0,"uv_index":8.9,"wind_gusts":32.4,"aqi":158,"pm10":84.8,"pm2_5":68.0,"no2":16.4,"co":402.0,"o3":78.0,"so2":14.7,"mosquito_risk":7,"arthritis_risk":5,"migraine_risk":7,"frizz_risk":1,"updated_at":"2026-05-21T03:28:04.500923+05:30"},{"city":"Muzaffarpur","state":"Bihar","latitude":26.1209,"longitude":85.3647,"temp":28.4,"humidity":78,"rain":0.0,"pressure":993.7,"uv_index":8.85,"wind_gusts":31.7,"aqi":155,"pm10":66.1,"pm2_5":56.3,"no2":15.9,"co":502.0,"o3":80.0,"so2":13.8,"mosquito_risk":7,"arthritis_risk":5,"migraine_risk":7,"frizz_risk":1,"updated_at":"2026-05-21T03:28:04.500930+05:30"},{"city":"Bhagalpur","state":"Bihar","latitude":25.2425,"longitude":87.0117,"temp":28.4,"humidity":86,"rain":0.0,"pressure":994.5,"uv_index":8.85,"wind_gusts":33.1,"aqi":151,"pm10":53.8,"pm2_5":47.7,"no2":17.0,"co":452.0,"o3":68.0,"so2":9.7,"mosquito_risk":7,"arthritis_risk":5,"migraine_risk":7,"frizz_risk":1,"updated_at":"2026-05-21T03:28:04.500936+05:30"},{"city":"Ranchi","state":"Jharkhand","latitude":23.3441,"longitude":85.3096,"temp":24.9,"humidity":66,"rain":0.0,"pressure":931.5,"uv_index":9.3,"wind_gusts":34.9,"aqi":148,"pm10":191.4,"pm2_5":70.8,"no2":24.3,"co":489.0,"o3":85.0,"so2":13.5,"mosquito_risk":3,"arthritis_risk":5,"migraine_risk":7,"frizz_risk":1,"updated_at":"2026-05-21T03:28:04.500943+05:30"},{"city":"Jamshedpur","state":"Jharkhand","latitude":22.8046,"longitude":86.2029,"temp":27.8,"humidity":97,"rain":0.0,"pressure":984.3,"uv_index":9.1,"wind_gusts":29.9,"aqi":153,"pm10":113.9,"pm2_5":85.4,"no2":40.5,"co":1244.0,"o3":40.0,"so2":33.6,"mosquito_risk":7,"arthritis_risk":5,"migraine_risk":7,"frizz_risk":1,"updated_at":"2026-05-21T03:28:04.500950+05:30"},{"city":"Dhanbad","state":"Jharkhand","latitude":23.7957,"longitude":86.4304,"temp":28.7,"humidity":89,"rain":0.0,"pressure":973.5,"uv_index":9.1,"wind_gusts":30.2,"aqi":169,"pm10":187.2,"pm2_5":150.4,"no2":50.1,"co":463.0,"o3":39.0,"so2":158.4,"mosquito_risk":7,"arthritis_risk":5,"migraine_risk":7,"frizz_risk":1,"updated_at":"2026-05-21T03:28:04.500957+05:30"},{"city":"Bokaro","state":"Jharkhand","latitude":23.6693,"longitude":86.1511,"temp":27.6,"humidity":87,"rain":0.0,"pressure":977.2,"uv_index":9.1,"wind_gusts":31.3,"aqi":170,"pm10":210.5,"pm2_5":141.6,"no2":56.1,"co":467.0,"o3":35.0,"so2":146.7,"mosquito_risk":7,"arthritis_risk":5,"migraine_risk":7,"frizz_risk":1,"updated_at":"2026-05-21T03:28:04.500963+05:30"},{"city":"Bhubaneswar","state":"Odisha","latitude":20.2961,"longitude":85.8245,"temp":29.0,"humidity":84,"rain":0.0,"pressure":994.9,"uv_index":9.15,"wind_gusts":36.7,"aqi":109,"pm10":66.6,"pm2_5":59.4,"no2":25.2,"co":412.0,"o3":71.0,"so2":12.4,"mosquito_risk":7,"arthritis_risk":5,"migraine_risk":7,"frizz_risk":1,"updated_at":"2026-05-21T03:28:04.500970+05:30"},{"city":"Cuttack","state":"Odisha","latitude":20.4625,"longitude":85.8828,"temp":28.7,"humidity":86,"rain":0.0,"pressure":996.8,"uv_index":9.2,"wind_gusts":28.4,"aqi":109,"pm10":66.6,"pm2_5":59.4,"no2":25.2,"co":473.0,"o3":71.0,"so2":12.4,"mosquito_risk":7,"arthritis_risk":5,"migraine_risk":7,"frizz_risk":1,"updated_at":"2026-05-21T03:28:04.500977+05:30"},{"city":"Rourkela","state":"Odisha","latitude":22.2604,"longitude":84.8536,"temp":28.4,"humidity":56,"rain":0.0,"pressure":978.3,"uv_index":9.0,"wind_gusts":37.1,"aqi":150,"pm10":157.4,"pm2_5":71.0,"no2":44.4,"co":527.0,"o3":21.0,"so2":15.0,"mosquito_risk":4,"arthritis_risk":5,"migraine_risk":7,"frizz_risk":1,"updated_at":"2026-05-21T03:28:04.500984+05:30"},{"city":"Raipur","state":"Chhattisgarh","latitude":21.2514,"longitude":81.6296,"temp":32.3,"humidity":37,"rain":0.0,"pressure":967.4,"uv_index":9.0,"wind_gusts":40.7,"aqi":151,"pm10":66.1,"pm2_5":54.2,"no2":39.1,"co":676.0,"o3":49.0,"so2":42.7,"mosquito_risk":0,"arthritis_risk":5,"migraine_risk":7,"frizz_risk":0,"updated_at":"2026-05-21T03:28:04.500991+05:30"},{"city":"Bhilai","state":"Chhattisgarh","latitude":21.1938,"longitude":81.3509,"temp":32.0,"humidity":39,"rain":0.0,"pressure":967.9,"uv_index":9.0,"wind_gusts":42.5,"aqi":136,"pm10":56.5,"pm2_5":45.5,"no2":33.2,"co":908.0,"o3":60.0,"so2":42.2,"mosquito_risk":0,"arthritis_risk":5,"migraine_risk":7,"frizz_risk":1,"updated_at":"2026-05-21T03:28:04.500998+05:30"},{"city":"Guwahati","state":"Assam","latitude":26.1158,"longitude":91.7086,"temp":25.1,"humidity":97,"rain":0.0,"pressure":996.3,"uv_index":8.75,"wind_gusts":22.0,"aqi":124,"pm10":43.0,"pm2_5":37.6,"no2":16.6,"co":424.0,"o3":25.0,"so2":2.3,"mosquito_risk":7,"arthritis_risk":5,"migraine_risk":7,"frizz_risk":1,"updated_at":"2026-05-21T03:28:04.501004+05:30"},{"city":"Agartala","state":"Tripura","latitude":23.8315,"longitude":91.2868,"temp":26.5,"humidity":94,"rain":0.0,"pressure":1000.9,"uv_index":8.8,"wind_gusts":30.6,"aqi":80,"pm10":20.6,"pm2_5":15.7,"no2":11.0,"co":210.0,"o3":34.0,"so2":2.5,"mosquito_risk":7,"arthritis_risk":5,"migraine_risk":4,"frizz_risk":1,"updated_at":"2026-05-21T03:28:04.501011+05:30"},{"city":"Shillong","state":"Meghalaya","latitude":25.5788,"longitude":91.8933,"temp":17.5,"humidity":98,"rain":0.0,"pressure":852.8,"uv_index":8.5,"wind_gusts":20.2,"aqi":79,"pm10":36.1,"pm2_5":29.3,"no2":6.8,"co":236.0,"o3":72.0,"so2":4.3,"mosquito_risk":3,"arthritis_risk":10,"migraine_risk":7,"frizz_risk":1,"updated_at":"2026-05-21T03:28:04.501018+05:30"},{"city":"Imphal","state":"Manipur","latitude":24.817,"longitude":93.9368,"temp":21.5,"humidity":97,"rain":0.0,"pressure":919.2,"uv_index":9.25,"wind_gusts":28.4,"aqi":111,"pm10":72.4,"pm2_5":55.3,"no2":23.1,"co":616.0,"o3":30.0,"so2":5.3,"mosquito_risk":3,"arthritis_risk":5,"migraine_risk":7,"frizz_risk":1,"updated_at":"2026-05-21T03:28:04.501024+05:30"},{"city":"Aizawl","state":"Mizoram","latitude":23.7271,"longitude":92.7176,"temp":19.3,"humidity":97,"rain":0.0,"pressure":888.1,"uv_index":9.1,"wind_gusts":24.1,"aqi":86,"pm10":36.4,"pm2_5":27.4,"no2":6.0,"co":255.0,"o3":50.0,"so2":2.3,"mosquito_risk":3,"arthritis_risk":10,"migraine_risk":7,"frizz_risk":1,"updated_at":"2026-05-21T03:28:04.501031+05:30"},{"city":"Kohima","state":"Nagaland","latitude":25.6701,"longitude":94.1077,"temp":17.1,"humidity":96,"rain":0.0,"pressure":850.9,"uv_index":9.2,"wind_gusts":27.4,"aqi":94,"pm10":42.6,"pm2_5":29.7,"no2":15.2,"co":225.0,"o3":31.0,"so2":0.9,"mosquito_risk":3,"arthritis_risk":10,"migraine_risk":7,"frizz_risk":1,"updated_at":"2026-05-21T03:28:04.501038+05:30"},{"city":"Gangtok","state":"Sikkim","latitude":27.3314,"longitude":88.6138,"temp":14.8,"humidity":74,"rain":0.0,"pressure":832.5,"uv_index":9.15,"wind_gusts":39.2,"aqi":74,"pm10":29.9,"pm2_5":20.2,"no2":10.7,"co":734.0,"o3":79.0,"so2":2.4,"mosquito_risk":3,"arthritis_risk":5,"migraine_risk":7,"frizz_risk":0,"updated_at":"2026-05-21T03:28:04.501044+05:30"},{"city":"Siliguri","state":"West Bengal","latitude":26.7271,"longitude":88.3953,"temp":23.8,"humidity":94,"rain":0.1,"pressure":987.8,"uv_index":8.75,"wind_gusts":28.8,"aqi":134,"pm10":95.0,"pm2_5":72.4,"no2":31.6,"co":517.0,"o3":54.0,"so2":8.2,"mosquito_risk":6,"arthritis_risk":5,"migraine_risk":7,"frizz_risk":1,"updated_at":"2026-05-21T03:28:07.751021+05:30"},{"city":"Durgapur","state":"West Bengal","latitude":23.5204,"longitude":87.3119,"temp":28.3,"humidity":94,"rain":0.0,"pressure":988.4,"uv_index":9.0,"wind_gusts":36.7,"aqi":163,"pm10":122.0,"pm2_5":106.9,"no2":42.4,"co":891.0,"o3":44.0,"so2":37.0,"mosquito_risk":7,"arthritis_risk":5,"migraine_risk":7,"frizz_risk":1,"updated_at":"2026-05-21T03:28:07.751058+05:30"},{"city":"Asansol","state":"West Bengal","latitude":23.6739,"longitude":86.9524,"temp":28.4,"humidity":92,"rain":0.0,"pressure":986.8,"uv_index":9.05,"wind_gusts":29.2,"aqi":163,"pm10":125.7,"pm2_5":109.2,"no2":42.3,"co":643.0,"o3":46.0,"so2":45.9,"mosquito_risk":7,"arthritis_risk":5,"migraine_risk":7,"frizz_risk":1,"updated_at":"2026-05-21T03:28:07.751069+05:30"},{"city":"Pondicherry","state":"Puducherry","latitude":11.9139,"longitude":79.8145,"temp":29.2,"humidity":70,"rain":0.0,"pressure":1003.5,"uv_index":7.35,"wind_gusts":32.0,"aqi":65,"pm10":17.5,"pm2_5":15.8,"no2":17.0,"co":337.0,"o3":51.0,"so2":7.4,"mosquito_risk":7,"arthritis_risk":5,"migraine_risk":4,"frizz_risk":1,"updated_at":"2026-05-21T03:28:07.751079+05:30"},{"city":"Port Blair","state":"Andaman and Nicobar Islands","latitude":11.6234,"longitude":92.7265,"temp":25.7,"humidity":97,"rain":0.0,"pressure":1003.4,"uv_index":8.8,"wind_gusts":37.4,"aqi":24,"pm10":6.0,"pm2_5":3.7,"no2":0.2,"co":102.0,"o3":62.0,"so2":0.3,"mosquito_risk":7,"arthritis_risk":5,"migraine_risk":4,"frizz_risk":1,"updated_at":"2026-05-21T03:28:07.751087+05:30"},{"city":"Haridwar","state":"Uttarakhand","latitude":29.9457,"longitude":78.1642,"temp":26.0,"humidity":51,"rain":0.0,"pressure":966.5,"uv_index":7.25,"wind_gusts":26.3,"aqi":118,"pm10":77.3,"pm2_5":48.2,"no2":37.0,"co":252.0,"o3":18.0,"so2":6.3,"mosquito_risk":4,"arthritis_risk":5,"migraine_risk":7,"frizz_risk":0,"updated_at":"2026-05-21T03:28:07.751095+05:30"},{"city":"Rishikesh","state":"Uttarakhand","latitude":30.0869,"longitude":78.2676,"temp":22.2,"humidity":61,"rain":0.0,"pressure":959.2,"uv_index":7.4,"wind_gusts":29.5,"aqi":91,"pm10":57.5,"pm2_5":31.7,"no2":22.1,"co":303.0,"o3":43.0,"so2":4.8,"mosquito_risk":3,"arthritis_risk":5,"migraine_risk":7,"frizz_risk":0,"updated_at":"2026-05-21T03:28:07.751103+05:30"},{"city":"Nainital","state":"Uttarakhand","latitude":29.3919,"longitude":79.4542,"temp":17.4,"humidity":49,"rain":0.0,"pressure":802.4,"uv_index":8.5,"wind_gusts":33.8,"aqi":102,"pm10":151.3,"pm2_5":38.4,"no2":13.8,"co":183.0,"o3":87.0,"so2":4.0,"mosquito_risk":0,"arthritis_risk":5,"migraine_risk":7,"frizz_risk":0,"updated_at":"2026-05-21T03:28:07.751110+05:30"},{"city":"Mussoorie","state":"Uttarakhand","latitude":30.4599,"longitude":78.0664,"temp":18.8,"humidity":41,"rain":0.0,"pressure":800.4,"uv_index":8.0,"wind_gusts":51.1,"aqi":96,"pm10":57.0,"pm2_5":38.8,"no2":45.7,"co":204.0,"o3":19.0,"so2":6.5,"mosquito_risk":0,"arthritis_risk":5,"migraine_risk":7,"frizz_risk":0,"updated_at":"2026-05-21T03:28:07.751117+05:30"},{"city":"Dharamshala","state":"Himachal Pradesh","latitude":32.219,"longitude":76.3234,"temp":25.1,"humidity":31,"rain":0.0,"pressure":865.9,"uv_index":8.45,"wind_gusts":47.5,"aqi":56,"pm10":20.4,"pm2_5":10.0,"no2":12.4,"co":192.0,"o3":33.0,"so2":0.1,"mosquito_risk":4,"arthritis_risk":5,"migraine_risk":7,"frizz_risk":0,"updated_at":"2026-05-21T03:28:07.751125+05:30"},{"city":"Dalhousie","state":"Himachal Pradesh","latitude":32.5387,"longitude":75.971,"temp":15.9,"humidity":55,"rain":0.0,"pressure":800.3,"uv_index":8.7,"wind_gusts":41.0,"aqi":75,"pm10":29.3,"pm2_5":20.6,"no2":40.5,"co":290.0,"o3":2.0,"so2":1.1,"mosquito_risk":0,"arthritis_risk":5,"migraine_risk":7,"frizz_risk":0,"updated_at":"2026-05-21T03:28:07.751133+05:30"},{"city":"Patiala","state":"Punjab","latitude":30.3398,"longitude":76.3869,"temp":30.0,"humidity":30,"rain":0.0,"pressure":970.4,"uv_index":7.65,"wind_gusts":34.6,"aqi":325,"pm10":100.8,"pm2_5":70.1,"no2":35.9,"co":434.0,"o3":39.0,"so2":14.6,"mosquito_risk":4,"arthritis_risk":5,"migraine_risk":7,"frizz_risk":0,"updated_at":"2026-05-21T03:28:07.751141+05:30"},{"city":"Bhatinda","state":"Punjab","latitude":30.211,"longitude":74.9455,"temp":32.1,"humidity":35,"rain":0.0,"pressure":975.6,"uv_index":8.3,"wind_gusts":33.5,"aqi":106,"pm10":58.9,"pm2_5":38.2,"no2":23.2,"co":356.0,"o3":39.0,"so2":7.9,"mosquito_risk":0,"arthritis_risk":5,"migraine_risk":7,"frizz_risk":0,"updated_at":"2026-05-21T03:28:07.751148+05:30"},{"city":"Rohtak","state":"Haryana","latitude":28.8955,"longitude":76.6066,"temp":32.3,"humidity":29,"rain":0.0,"pressure":974.3,"uv_index":7.7,"wind_gusts":43.6,"aqi":366,"pm10":713.4,"pm2_5":116.6,"no2":19.9,"co":203.0,"o3":47.0,"so2":3.6,"mosquito_risk":0,"arthritis_risk":5,"migraine_risk":7,"frizz_risk":0,"updated_at":"2026-05-21T03:28:07.751155+05:30"},{"city":"Panipat","state":"Haryana","latitude":29.3909,"longitude":76.9635,"temp":30.8,"humidity":33,"rain":0.0,"pressure":972.5,"uv_index":7.45,"wind_gusts":32.8,"aqi":762,"pm10":571.8,"pm2_5":110.4,"no2":31.6,"co":650.0,"o3":25.0,"so2":4.8,"mosquito_risk":0,"arthritis_risk":5,"migraine_risk":7,"frizz_risk":0,"updated_at":"2026-05-21T03:28:07.751161+05:30"},{"city":"Mathura","state":"Uttar Pradesh","latitude":27.4924,"longitude":77.6737,"temp":31.5,"humidity":30,"rain":0.0,"pressure":979.9,"uv_index":8.05,"wind_gusts":42.8,"aqi":551,"pm10":976.0,"pm2_5":121.5,"no2":8.8,"co":182.0,"o3":64.0,"so2":4.3,"mosquito_risk":0,"arthritis_risk":5,"migraine_risk":7,"frizz_risk":0,"updated_at":"2026-05-21T03:28:07.751168+05:30"},{"city":"Vrindavan","state":"Uttar Pradesh","latitude":27.5823,"longitude":77.7027,"temp":31.2,"humidity":31,"rain":0.0,"pressure":980.3,"uv_index":8.0,"wind_gusts":41.8,"aqi":551,"pm10":976.0,"pm2_5":121.5,"no2":8.8,"co":186.0,"o3":64.0,"so2":4.3,"mosquito_risk":0,"arthritis_risk":5,"migraine_risk":7,"frizz_risk":0,"updated_at":"2026-05-21T03:28:07.751175+05:30"},{"city":"Ayodhya","state":"Uttar Pradesh","latitude":26.7922,"longitude":82.1998,"temp":29.4,"humidity":77,"rain":0.0,"pressure":988.3,"uv_index":8.4,"wind_gusts":25.6,"aqi":154,"pm10":164.8,"pm2_5":69.2,"no2":39.4,"co":539.0,"o3":50.0,"so2":12.7,"mosquito_risk":7,"arthritis_risk":5,"migraine_risk":7,"frizz_risk":1,"updated_at":"2026-05-21T03:28:07.751182+05:30"},{"city":"Ratlam","state":"Madhya Pradesh","latitude":23.3315,"longitude":75.0367,"temp":27.8,"humidity":60,"rain":0.0,"pressure":951.7,"uv_index":8.55,"wind_gusts":35.6,"aqi":71,"pm10":39.0,"pm2_5":23.6,"no2":6.5,"co":238.0,"o3":75.0,"so2":13.8,"mosquito_risk":4,"arthritis_risk":5,"migraine_risk":7,"frizz_risk":1,"updated_at":"2026-05-21T03:28:07.751189+05:30"},{"city":"Sagar","state":"Madhya Pradesh","latitude":23.8388,"longitude":78.7378,"temp":32.0,"humidity":22,"rain":0.0,"pressure":945.8,"uv_index":8.75,"wind_gusts":46.4,"aqi":52,"pm10":26.3,"pm2_5":16.5,"no2":4.8,"co":158.0,"o3":83.0,"so2":3.8,"mosquito_risk":0,"arthritis_risk":5,"migraine_risk":7,"frizz_risk":0,"updated_at":"2026-05-21T03:28:07.751196+05:30"},{"city":"Satna","state":"Madhya Pradesh","latitude":24.6005,"longitude":80.8322,"temp":31.7,"humidity":33,"rain":0.0,"pressure":965.0,"uv_index":8.8,"wind_gusts":43.9,"aqi":99,"pm10":55.9,"pm2_5":24.6,"no2":24.0,"co":190.0,"o3":44.0,"so2":4.0,"mosquito_risk":0,"arthritis_risk":5,"migraine_risk":7,"frizz_risk":0,"updated_at":"2026-05-21T03:28:07.751202+05:30"},{"city":"Akola","state":"Maharashtra","latitude":20.7002,"longitude":77.0082,"temp":32.7,"humidity":44,"rain":0.0,"pressure":970.4,"uv_index":8.9,"wind_gusts":41.8,"aqi":69,"pm10":36.8,"pm2_5":25.5,"no2":7.2,"co":195.0,"o3":98.0,"so2":13.6,"mosquito_risk":0,"arthritis_risk":5,"migraine_risk":7,"frizz_risk":1,"updated_at":"2026-05-21T03:28:07.751210+05:30"},{"city":"Amravati","state":"Maharashtra","latitude":20.9374,"longitude":77.7796,"temp":34.0,"humidity":27,"rain":0.0,"pressure":962.5,"uv_index":8.9,"wind_gusts":37.4,"aqi":66,"pm10":36.2,"pm2_5":25.1,"no2":7.6,"co":182.0,"o3":90.0,"so2":11.1,"mosquito_risk":0,"arthritis_risk":5,"migraine_risk":7,"frizz_risk":0,"updated_at":"2026-05-21T03:28:07.751218+05:30"},{"city":"Latur","state":"Maharashtra","latitude":18.4088,"longitude":76.5604,"temp":29.6,"humidity":51,"rain":0.0,"pressure":936.5,"uv_index":9.05,"wind_gusts":32.0,"aqi":86,"pm10":26.8,"pm2_5":23.1,"no2":6.3,"co":179.0,"o3":110.0,"so2":8.7,"mosquito_risk":4,"arthritis_risk":5,"migraine_risk":7,"frizz_risk":1,"updated_at":"2026-05-21T03:28:07.751226+05:30"},{"city":"Nanded","state":"Maharashtra","latitude":19.1383,"longitude":77.3091,"temp":33.3,"humidity":38,"rain":0.0,"pressure":964.3,"uv_index":9.0,"wind_gusts":40.7,"aqi":82,"pm10":34.3,"pm2_5":26.3,"no2":12.3,"co":322.0,"o3":71.0,"so2":6.6,"mosquito_risk":0,"arthritis_risk":5,"migraine_risk":7,"frizz_risk":1,"updated_at":"2026-05-21T03:28:07.751233+05:30"},{"city":"Gulbarga","state":"Karnataka","latitude":17.3297,"longitude":76.8343,"temp":29.0,"humidity":61,"rain":0.0,"pressure":955.4,"uv_index":8.95,"wind_gusts":38.2,"aqi":84,"pm10":26.3,"pm2_5":19.4,"no2":6.7,"co":162.0,"o3":67.0,"so2":3.8,"mosquito_risk":7,"arthritis_risk":5,"migraine_risk":7,"frizz_risk":1,"updated_at":"2026-05-21T03:28:07.751240+05:30"},{"city":"Bidar","state":"Karnataka","latitude":17.9104,"longitude":77.5199,"temp":28.9,"humidity":54,"rain":0.0,"pressure":932.0,"uv_index":9.1,"wind_gusts":39.2,"aqi":90,"pm10":37.6,"pm2_5":31.3,"no2":14.5,"co":209.0,"o3":76.0,"so2":5.3,"mosquito_risk":4,"arthritis_risk":5,"migraine_risk":7,"frizz_risk":1,"updated_at":"2026-05-21T03:28:07.751247+05:30"},{"city":"Hospet","state":"Karnataka","latitude":15.2689,"longitude":76.3909,"temp":25.2,"humidity":86,"rain":0.0,"pressure":953.5,"uv_index":9.0,"wind_gusts":47.2,"aqi":34,"pm10":5.5,"pm2_5":4.8,"no2":5.8,"co":162.0,"o3":53.0,"so2":1.4,"mosquito_risk":7,"arthritis_risk":5,"migraine_risk":7,"frizz_risk":1,"updated_at":"2026-05-21T03:28:07.751254+05:30"},{"city":"Tirupur","state":"Tamil Nadu","latitude":11.1085,"longitude":77.3411,"temp":26.5,"humidity":80,"rain":0.0,"pressure":972.7,"uv_index":9.1,"wind_gusts":55.8,"aqi":40,"pm10":15.8,"pm2_5":14.6,"no2":19.2,"co":149.0,"o3":31.0,"so2":4.3,"mosquito_risk":7,"arthritis_risk":5,"migraine_risk":7,"frizz_risk":1,"updated_at":"2026-05-21T03:28:07.751261+05:30"},{"city":"Alappuzha","state":"Kerala","latitude":9.4981,"longitude":76.3388,"temp":27.4,"humidity":91,"rain":0.0,"pressure":1007.0,"uv_index":8.65,"wind_gusts":39.2,"aqi":38,"pm10":11.4,"pm2_5":9.0,"no2":11.0,"co":94.0,"o3":35.0,"so2":2.0,"mosquito_risk":7,"arthritis_risk":5,"migraine_risk":4,"frizz_risk":1,"updated_at":"2026-05-21T03:28:07.751268+05:30"},{"city":"Munnar","state":"Kerala","latitude":10.0889,"longitude":77.0595,"temp":17.5,"humidity":97,"rain":0.0,"pressure":855.1,"uv_index":9.25,"wind_gusts":32.4,"aqi":21,"pm10":6.5,"pm2_5":5.6,"no2":6.6,"co":105.0,"o3":33.0,"so2":1.6,"mosquito_risk":3,"arthritis_risk":10,"migraine_risk":7,"frizz_risk":1,"updated_at":"2026-05-21T03:28:07.751275+05:30"},{"city":"Silchar","state":"Assam","latitude":24.8333,"longitude":92.7789,"temp":25.0,"humidity":96,"rain":0.1,"pressure":1000.9,"uv_index":8.45,"wind_gusts":23.4,"aqi":133,"pm10":57.5,"pm2_5":42.6,"no2":13.1,"co":245.0,"o3":81.0,"so2":7.2,"mosquito_risk":10,"arthritis_risk":5,"migraine_risk":4,"frizz_risk":1,"updated_at":"2026-05-21T03:28:07.751282+05:30"},{"city":"Dibrugarh","state":"Assam","latitude":27.4728,"longitude":94.912,"temp":25.0,"humidity":96,"rain":0.2,"pressure":991.0,"uv_index":8.9,"wind_gusts":24.1,"aqi":72,"pm10":10.9,"pm2_5":8.3,"no2":9.8,"co":347.0,"o3":53.0,"so2":0.6,"mosquito_risk":10,"arthritis_risk":5,"migraine_risk":7,"frizz_risk":1,"updated_at":"2026-05-21T03:28:07.751289+05:30"}]