[{"city":"Delhi","state":"Delhi","latitude":28.6139,"longitude":77.209,"temp":41.2,"humidity":23,"rain":0.0,"pressure":973.0,"uv_index":7.8,"wind_gusts":41.4,"aqi":430,"pm10":1031.9,"pm2_5":153.7,"no2":6.1,"co":224.0,"o3":134.0,"so2":8.8,"mosquito_risk":0,"arthritis_risk":5,"migraine_risk":10,"frizz_risk":0,"updated_at":"2026-06-10T15:36:22.756021+05:30"},{"city":"Mumbai","state":"Maharashtra","latitude":19.076,"longitude":72.8777,"temp":31.7,"humidity":71,"rain":0.1,"pressure":1004.8,"uv_index":7.7,"wind_gusts":47.5,"aqi":81,"pm10":60.8,"pm2_5":25.1,"no2":3.5,"co":155.0,"o3":73.0,"so2":3.9,"mosquito_risk":6,"arthritis_risk":5,"migraine_risk":4,"frizz_risk":1,"updated_at":"2026-06-10T15:36:22.756064+05:30"},{"city":"Bangalore","state":"Karnataka","latitude":12.9716,"longitude":77.5946,"temp":31.0,"humidity":44,"rain":0.0,"pressure":909.8,"uv_index":8.2,"wind_gusts":50.0,"aqi":30,"pm10":11.9,"pm2_5":7.6,"no2":12.2,"co":399.0,"o3":59.0,"so2":2.8,"mosquito_risk":0,"arthritis_risk":5,"migraine_risk":7,"frizz_risk":1,"updated_at":"2026-06-10T15:36:22.756080+05:30"},{"city":"Hyderabad","state":"Telangana","latitude":17.385,"longitude":78.4867,"temp":34.9,"humidity":43,"rain":0.0,"pressure":948.7,"uv_index":9.1,"wind_gusts":52.2,"aqi":71,"pm10":57.2,"pm2_5":26.5,"no2":1.5,"co":324.0,"o3":121.0,"so2":3.8,"mosquito_risk":0,"arthritis_risk":5,"migraine_risk":7,"frizz_risk":1,"updated_at":"2026-06-10T15:36:22.756089+05:30"},{"city":"Chennai","state":"Tamil Nadu","latitude":13.0827,"longitude":80.2707,"temp":35.0,"humidity":45,"rain":0.0,"pressure":1002.1,"uv_index":8.0,"wind_gusts":50.4,"aqi":53,"pm10":30.7,"pm2_5":19.0,"no2":5.7,"co":226.0,"o3":114.0,"so2":6.1,"mosquito_risk":0,"arthritis_risk":5,"migraine_risk":4,"frizz_risk":1,"updated_at":"2026-06-10T15:36:22.756097+05:30"},{"city":"Kolkata","state":"West Bengal","latitude":22.5726,"longitude":88.3639,"temp":29.1,"humidity":88,"rain":0.0,"pressure":997.7,"uv_index":8.95,"wind_gusts":40.0,"aqi":123,"pm10":49.4,"pm2_5":36.8,"no2":6.8,"co":455.0,"o3":124.0,"so2":9.5,"mosquito_risk":7,"arthritis_risk":5,"migraine_risk":7,"frizz_risk":1,"updated_at":"2026-06-10T15:36:22.756106+05:30"},{"city":"Pune","state":"Maharashtra","latitude":18.5204,"longitude":73.8567,"temp":32.9,"humidity":47,"rain":0.0,"pressure":945.2,"uv_index":8.25,"wind_gusts":51.5,"aqi":54,"pm10":29.0,"pm2_5":14.6,"no2":2.5,"co":137.0,"o3":86.0,"so2":3.5,"mosquito_risk":0,"arthritis_risk":5,"migraine_risk":7,"frizz_risk":1,"updated_at":"2026-06-10T15:36:22.756114+05:30"},{"city":"Ahmedabad","state":"Gujarat","latitude":23.0225,"longitude":72.5714,"temp":41.2,"humidity":31,"rain":0.0,"pressure":994.3,"uv_index":8.05,"wind_gusts":46.1,"aqi":83,"pm10":53.7,"pm2_5":25.1,"no2":1.6,"co":138.0,"o3":103.0,"so2":3.5,"mosquito_risk":0,"arthritis_risk":5,"migraine_risk":10,"frizz_risk":1,"updated_at":"2026-06-10T15:36:22.756121+05:30"},{"city":"Jaipur","state":"Rajasthan","latitude":26.9124,"longitude":75.7873,"temp":40.8,"humidity":24,"rain":0.0,"pressure":952.0,"uv_index":8.25,"wind_gusts":49.7,"aqi":136,"pm10":177.4,"pm2_5":36.3,"no2":1.0,"co":143.0,"o3":111.0,"so2":2.6,"mosquito_risk":0,"arthritis_risk":5,"migraine_risk":10,"frizz_risk":1,"updated_at":"2026-06-10T15:36:22.756132+05:30"},{"city":"Lucknow","state":"Uttar Pradesh","latitude":26.8467,"longitude":80.9462,"temp":41.0,"humidity":24,"rain":0.0,"pressure":983.8,"uv_index":8.35,"wind_gusts":46.4,"aqi":165,"pm10":327.8,"pm2_5":78.7,"no2":2.4,"co":169.0,"o3":163.0,"so2":6.6,"mosquito_risk":0,"arthritis_risk":5,"migraine_risk":10,"frizz_risk":1,"updated_at":"2026-06-10T15:36:22.756139+05:30"},{"city":"Kanpur","state":"Uttar Pradesh","latitude":26.4499,"longitude":80.3319,"temp":41.8,"humidity":21,"rain":0.0,"pressure":982.1,"uv_index":8.3,"wind_gusts":42.8,"aqi":437,"pm10":717.1,"pm2_5":102.0,"no2":1.2,"co":144.0,"o3":123.0,"so2":3.1,"mosquito_risk":0,"arthritis_risk":5,"migraine_risk":10,"frizz_risk":0,"updated_at":"2026-06-10T15:36:22.756146+05:30"},{"city":"Chandigarh","state":"Chandigarh","latitude":30.7333,"longitude":76.7794,"temp":39.0,"humidity":28,"rain":0.0,"pressure":959.4,"uv_index":7.85,"wind_gusts":32.0,"aqi":170,"pm10":129.0,"pm2_5":45.2,"no2":2.3,"co":349.0,"o3":197.0,"so2":9.1,"mosquito_risk":0,"arthritis_risk":5,"migraine_risk":10,"frizz_risk":1,"updated_at":"2026-06-10T15:36:22.756153+05:30"},{"city":"Srinagar","state":"Jammu and Kashmir","latitude":34.0837,"longitude":74.7973,"temp":29.1,"humidity":35,"rain":0.0,"pressure":839.7,"uv_index":9.05,"wind_gusts":18.4,"aqi":108,"pm10":19.6,"pm2_5":10.9,"no2":2.3,"co":282.0,"o3":152.0,"so2":1.7,"mosquito_risk":4,"arthritis_risk":5,"migraine_risk":7,"frizz_risk":0,"updated_at":"2026-06-10T15:36:22.756161+05:30"},{"city":"Jammu","state":"Jammu and Kashmir","latitude":32.7266,"longitude":74.857,"temp":42.4,"humidity":15,"rain":0.0,"pressure":962.5,"uv_index":8.65,"wind_gusts":30.6,"aqi":136,"pm10":32.2,"pm2_5":17.8,"no2":2.3,"co":186.0,"o3":184.0,"so2":4.0,"mosquito_risk":0,"arthritis_risk":5,"migraine_risk":10,"frizz_risk":0,"updated_at":"2026-06-10T15:36:22.756167+05:30"},{"city":"Amritsar","state":"Punjab","latitude":31.634,"longitude":74.8723,"temp":42.7,"humidity":18,"rain":0.0,"pressure":969.9,"uv_index":8.5,"wind_gusts":26.3,"aqi":135,"pm10":57.0,"pm2_5":27.4,"no2":1.6,"co":247.0,"o3":187.0,"so2":7.5,"mosquito_risk":0,"arthritis_risk":5,"migraine_risk":10,"frizz_risk":0,"updated_at":"2026-06-10T15:36:22.756174+05:30"},{"city":"Ludhiana","state":"Punjab","latitude":30.901,"longitude":75.8573,"temp":42.7,"humidity":16,"rain":0.0,"pressure":968.2,"uv_index":8.05,"wind_gusts":33.5,"aqi":142,"pm10":74.7,"pm2_5":32.4,"no2":1.2,"co":232.0,"o3":183.0,"so2":5.3,"mosquito_risk":0,"arthritis_risk":5,"migraine_risk":10,"frizz_risk":0,"updated_at":"2026-06-10T15:36:22.756181+05:30"},{"city":"Jalandhar","state":"Punjab","latitude":31.326,"longitude":75.5762,"temp":42.7,"humidity":16,"rain":0.0,"pressure":969.1,"uv_index":8.25,"wind_gusts":25.9,"aqi":163,"pm10":55.8,"pm2_5":27.2,"no2":2.3,"co":279.0,"o3":184.0,"so2":5.9,"mosquito_risk":0,"arthritis_risk":5,"migraine_risk":10,"frizz_risk":0,"updated_at":"2026-06-10T15:36:22.756188+05:30"},{"city":"Dehradun","state":"Uttarakhand","latitude":30.6284,"longitude":78.0322,"temp":24.5,"humidity":59,"rain":0.1,"pressure":827.9,"uv_index":8.3,"wind_gusts":43.6,"aqi":133,"pm10":52.5,"pm2_5":26.7,"no2":0.7,"co":243.0,"o3":182.0,"so2":5.7,"mosquito_risk":3,"arthritis_risk":5,"migraine_risk":7,"frizz_risk":0,"updated_at":"2026-06-10T15:36:22.756195+05:30"},{"city":"Shimla","state":"Himachal Pradesh","latitude":31.1048,"longitude":77.1734,"temp":25.1,"humidity":31,"rain":0.0,"pressure":784.3,"uv_index":8.35,"wind_gusts":45.7,"aqi":154,"pm10":46.6,"pm2_5":26.8,"no2":1.3,"co":235.0,"o3":203.0,"so2":9.2,"mosquito_risk":4,"arthritis_risk":5,"migraine_risk":7,"frizz_risk":0,"updated_at":"2026-06-10T15:36:22.756206+05:30"},{"city":"Manali","state":"Himachal Pradesh","latitude":32.2396,"longitude":77.1887,"temp":23.4,"humidity":56,"rain":0.0,"pressure":816.6,"uv_index":9.95,"wind_gusts":38.5,"aqi":93,"pm10":28.8,"pm2_5":20.0,"no2":8.4,"co":154.0,"o3":154.0,"so2":0.5,"mosquito_risk":0,"arthritis_risk":5,"migraine_risk":7,"frizz_risk":0,"updated_at":"2026-06-10T15:36:22.756213+05:30"},{"city":"Gurgaon","state":"Haryana","latitude":28.4595,"longitude":77.0266,"temp":41.1,"humidity":24,"rain":0.0,"pressure":971.5,"uv_index":7.9,"wind_gusts":47.2,"aqi":1400,"pm10":1486.4,"pm2_5":186.7,"no2":5.4,"co":159.0,"o3":124.0,"so2":6.5,"mosquito_risk":0,"arthritis_risk":5,"migraine_risk":10,"frizz_risk":1,"updated_at":"2026-06-10T15:36:22.756219+05:30"},{"city":"Noida","state":"Uttar Pradesh","latitude":28.5355,"longitude":77.391,"temp":41.2,"humidity":24,"rain":0.0,"pressure":974.1,"uv_index":7.85,"wind_gusts":36.4,"aqi":1400,"pm10":1486.4,"pm2_5":186.7,"no2":5.4,"co":201.0,"o3":124.0,"so2":6.5,"mosquito_risk":0,"arthritis_risk":5,"migraine_risk":10,"frizz_risk":1,"updated_at":"2026-06-10T15:36:22.756227+05:30"},{"city":"Ghaziabad","state":"Uttar Pradesh","latitude":28.6692,"longitude":77.4538,"temp":41.7,"humidity":22,"rain":0.0,"pressure":972.2,"uv_index":7.85,"wind_gusts":32.0,"aqi":308,"pm10":907.1,"pm2_5":149.0,"no2":4.2,"co":185.0,"o3":161.0,"so2":13.2,"mosquito_risk":0,"arthritis_risk":5,"migraine_risk":10,"frizz_risk":0,"updated_at":"2026-06-10T15:36:22.756234+05:30"},{"city":"Faridabad","state":"Haryana","latitude":28.4089,"longitude":77.3178,"temp":41.6,"humidity":23,"rain":0.0,"pressure":973.4,"uv_index":7.9,"wind_gusts":39.6,"aqi":1400,"pm10":1486.4,"pm2_5":186.7,"no2":5.4,"co":181.0,"o3":124.0,"so2":6.5,"mosquito_risk":0,"arthritis_risk":5,"migraine_risk":10,"frizz_risk":1,"updated_at":"2026-06-10T15:36:22.756241+05:30"},{"city":"Meerut","state":"Uttar Pradesh","latitude":28.9845,"longitude":77.7064,"temp":40.2,"humidity":31,"rain":0.0,"pressure":971.2,"uv_index":7.75,"wind_gusts":34.9,"aqi":308,"pm10":907.1,"pm2_5":149.0,"no2":4.2,"co":171.0,"o3":161.0,"so2":13.2,"mosquito_risk":0,"arthritis_risk":5,"migraine_risk":10,"frizz_risk":1,"updated_at":"2026-06-10T15:36:22.756247+05:30"},{"city":"Agra","state":"Uttar Pradesh","latitude":27.1767,"longitude":78.0081,"temp":42.2,"humidity":22,"rain":0.0,"pressure":978.0,"uv_index":8.15,"wind_gusts":46.4,"aqi":1170,"pm10":239.3,"pm2_5":46.3,"no2":2.7,"co":135.0,"o3":115.0,"so2":3.0,"mosquito_risk":0,"arthritis_risk":5,"migraine_risk":10,"frizz_risk":0,"updated_at":"2026-06-10T15:36:22.756254+05:30"},{"city":"Varanasi","state":"Uttar Pradesh","latitude":25.3176,"longitude":82.9739,"temp":41.3,"humidity":23,"rain":0.0,"pressure":987.8,"uv_index":8.8,"wind_gusts":44.6,"aqi":105,"pm10":100.6,"pm2_5":36.2,"no2":1.6,"co":206.0,"o3":150.0,"so2":6.7,"mosquito_risk":0,"arthritis_risk":5,"migraine_risk":10,"frizz_risk":0,"updated_at":"2026-06-10T15:36:22.756260+05:30"},{"city":"Prayagraj","state":"Uttar Pradesh","latitude":25.4358,"longitude":81.8463,"temp":40.7,"humidity":22,"rain":0.0,"pressure":986.7,"uv_index":8.7,"wind_gusts":44.6,"aqi":118,"pm10":167.2,"pm2_5":50.2,"no2":1.5,"co":142.0,"o3":148.0,"so2":5.8,"mosquito_risk":0,"arthritis_risk":5,"migraine_risk":10,"frizz_risk":0,"updated_at":"2026-06-10T15:36:22.756267+05:30"},{"city":"Gorakhpur","state":"Uttar Pradesh","latitude":26.7606,"longitude":83.3732,"temp":33.5,"humidity":59,"rain":0.1,"pressure":988.6,"uv_index":8.7,"wind_gusts":38.9,"aqi":174,"pm10":107.1,"pm2_5":61.5,"no2":2.5,"co":373.0,"o3":206.0,"so2":11.2,"mosquito_risk":3,"arthritis_risk":5,"migraine_risk":7,"frizz_risk":1,"updated_at":"2026-06-10T15:36:22.756275+05:30"},{"city":"Bareilly","state":"Uttar Pradesh","latitude":28.367,"longitude":79.4304,"temp":38.3,"humidity":39,"rain":0.0,"pressure":977.1,"uv_index":8.15,"wind_gusts":39.6,"aqi":171,"pm10":226.3,"pm2_5":67.3,"no2":2.4,"co":246.0,"o3":170.0,"so2":7.5,"mosquito_risk":0,"arthritis_risk":5,"migraine_risk":10,"frizz_risk":1,"updated_at":"2026-06-10T15:36:22.756281+05:30"},{"city":"Aligarh","state":"Uttar Pradesh","latitude":27.8974,"longitude":78.088,"temp":40.0,"humidity":31,"rain":0.0,"pressure":975.7,"uv_index":8.0,"wind_gusts":33.5,"aqi":719,"pm10":638.9,"pm2_5":101.5,"no2":2.3,"co":146.0,"o3":115.0,"so2":4.8,"mosquito_risk":0,"arthritis_risk":5,"migraine_risk":10,"frizz_risk":1,"updated_at":"2026-06-10T15:36:22.756287+05:30"},{"city":"Moradabad","state":"Uttar Pradesh","latitude":28.8386,"longitude":78.7733,"temp":37.9,"humidity":42,"rain":0.0,"pressure":974.2,"uv_index":7.95,"wind_gusts":40.0,"aqi":189,"pm10":400.5,"pm2_5":101.7,"no2":4.0,"co":267.0,"o3":193.0,"so2":14.7,"mosquito_risk":0,"arthritis_risk":5,"migraine_risk":10,"frizz_risk":1,"updated_at":"2026-06-10T15:36:22.756294+05:30"},{"city":"Saharanpur","state":"Uttar Pradesh","latitude":29.9637,"longitude":77.546,"temp":37.0,"humidity":41,"rain":0.0,"pressure":966.3,"uv_index":7.5,"wind_gusts":36.7,"aqi":155,"pm10":381.8,"pm2_5":92.4,"no2":4.2,"co":289.0,"o3":177.0,"so2":7.3,"mosquito_risk":0,"arthritis_risk":5,"migraine_risk":10,"frizz_risk":1,"updated_at":"2026-06-10T15:36:22.756300+05:30"},{"city":"Jhansi","state":"Uttar Pradesh","latitude":25.4484,"longitude":78.5685,"temp":40.5,"humidity":25,"rain":0.0,"pressure":969.8,"uv_index":8.5,"wind_gusts":44.3,"aqi":72,"pm10":38.4,"pm2_5":20.3,"no2":1.2,"co":134.0,"o3":120.0,"so2":5.7,"mosquito_risk":0,"arthritis_risk":5,"migraine_risk":10,"frizz_risk":1,"updated_at":"2026-06-10T15:36:26.011389+05:30"},{"city":"Surat","state":"Gujarat","latitude":21.1702,"longitude":72.8311,"temp":34.5,"humidity":55,"rain":0.0,"pressure":1001.5,"uv_index":7.55,"wind_gusts":52.9,"aqi":91,"pm10":58.8,"pm2_5":31.2,"no2":9.7,"co":184.0,"o3":63.0,"so2":30.4,"mosquito_risk":0,"arthritis_risk":5,"migraine_risk":4,"frizz_risk":1,"updated_at":"2026-06-10T15:36:26.011415+05:30"},{"city":"Vadodara","state":"Gujarat","latitude":22.3072,"longitude":73.1812,"temp":39.4,"humidity":36,"rain":0.0,"pressure":997.2,"uv_index":8.0,"wind_gusts":52.6,"aqi":85,"pm10":71.2,"pm2_5":30.0,"no2":1.6,"co":137.0,"o3":104.0,"so2":3.5,"mosquito_risk":0,"arthritis_risk":5,"migraine_risk":10,"frizz_risk":1,"updated_at":"2026-06-10T15:36:26.011425+05:30"},{"city":"Rajkot","state":"Gujarat","latitude":22.3039,"longitude":70.8022,"temp":40.1,"humidity":33,"rain":0.0,"pressure":987.4,"uv_index":7.55,"wind_gusts":49.7,"aqi":80,"pm10":45.6,"pm2_5":22.1,"no2":1.1,"co":107.0,"o3":98.0,"so2":3.9,"mosquito_risk":0,"arthritis_risk":5,"migraine_risk":10,"frizz_risk":1,"updated_at":"2026-06-10T15:36:26.011433+05:30"},{"city":"Thane","state":"Maharashtra","latitude":19.2183,"longitude":72.9781,"temp":33.4,"humidity":59,"rain":0.1,"pressure":1003.9,"uv_index":7.7,"wind_gusts":42.8,"aqi":81,"pm10":60.8,"pm2_5":25.1,"no2":3.5,"co":145.0,"o3":73.0,"so2":3.9,"mosquito_risk":3,"arthritis_risk":5,"migraine_risk":4,"frizz_risk":1,"updated_at":"2026-06-10T15:36:26.011441+05:30"},{"city":"Nagpur","state":"Maharashtra","latitude":21.1458,"longitude":79.0882,"temp":41.4,"humidity":23,"rain":0.0,"pressure":966.3,"uv_index":6.35,"wind_gusts":41.4,"aqi":93,"pm10":57.5,"pm2_5":30.9,"no2":4.2,"co":149.0,"o3":143.0,"so2":16.9,"mosquito_risk":0,"arthritis_risk":5,"migraine_risk":10,"frizz_risk":1,"updated_at":"2026-06-10T15:36:26.011448+05:30"},{"city":"Nashik","state":"Maharashtra","latitude":19.9975,"longitude":73.7898,"temp":33.9,"humidity":41,"rain":0.0,"pressure":942.1,"uv_index":8.0,"wind_gusts":49.7,"aqi":71,"pm10":53.7,"pm2_5":21.1,"no2":1.0,"co":115.0,"o3":75.0,"so2":1.1,"mosquito_risk":0,"arthritis_risk":5,"migraine_risk":7,"frizz_risk":1,"updated_at":"2026-06-10T15:36:26.011455+05:30"},{"city":"Aurangabad","state":"Maharashtra","latitude":19.8762,"longitude":75.3433,"temp":36.4,"humidity":30,"rain":0.0,"pressure":940.0,"uv_index":8.95,"wind_gusts":49.0,"aqi":73,"pm10":46.7,"pm2_5":18.0,"no2":1.1,"co":135.0,"o3":111.0,"so2":2.6,"mosquito_risk":0,"arthritis_risk":5,"migraine_risk":10,"frizz_risk":1,"updated_at":"2026-06-10T15:36:26.011462+05:30"},{"city":"Solapur","state":"Maharashtra","latitude":17.6599,"longitude":75.9064,"temp":36.3,"humidity":31,"rain":0.0,"pressure":953.2,"uv_index":8.85,"wind_gusts":43.6,"aqi":55,"pm10":61.7,"pm2_5":21.5,"no2":1.0,"co":129.0,"o3":107.0,"so2":1.9,"mosquito_risk":0,"arthritis_risk":5,"migraine_risk":10,"frizz_risk":1,"updated_at":"2026-06-10T15:36:26.011469+05:30"},{"city":"Kolhapur","state":"Maharashtra","latitude":16.705,"longitude":74.2433,"temp":28.8,"humidity":67,"rain":0.0,"pressure":945.8,"uv_index":6.45,"wind_gusts":51.5,"aqi":31,"pm10":24.7,"pm2_5":12.1,"no2":2.1,"co":121.0,"o3":76.0,"so2":1.5,"mosquito_risk":7,"arthritis_risk":5,"migraine_risk":7,"frizz_risk":1,"updated_at":"2026-06-10T15:36:26.011476+05:30"},{"city":"Goa","state":"Goa","latitude":15.2993,"longitude":74.124,"temp":29.5,"humidity":75,"rain":0.0,"pressure":996.7,"uv_index":6.85,"wind_gusts":33.8,"aqi":42,"pm10":21.5,"pm2_5":8.7,"no2":1.2,"co":140.0,"o3":61.0,"so2":0.7,"mosquito_risk":7,"arthritis_risk":5,"migraine_risk":7,"frizz_risk":1,"updated_at":"2026-06-10T15:36:26.011483+05:30"},{"city":"Jodhpur","state":"Rajasthan","latitude":26.2389,"longitude":73.0243,"temp":39.8,"humidity":33,"rain":0.0,"pressure":974.3,"uv_index":8.45,"wind_gusts":52.6,"aqi":157,"pm10":298.0,"pm2_5":54.4,"no2":0.8,"co":114.0,"o3":95.0,"so2":1.5,"mosquito_risk":0,"arthritis_risk":5,"migraine_risk":10,"frizz_risk":1,"updated_at":"2026-06-10T15:36:26.011489+05:30"},{"city":"Udaipur","state":"Rajasthan","latitude":24.5854,"longitude":73.7125,"temp":36.8,"humidity":36,"rain":0.0,"pressure":940.7,"uv_index":8.8,"wind_gusts":49.0,"aqi":81,"pm10":60.8,"pm2_5":28.0,"no2":0.6,"co":121.0,"o3":101.0,"so2":3.8,"mosquito_risk":0,"arthritis_risk":5,"migraine_risk":10,"frizz_risk":1,"updated_at":"2026-06-10T15:36:26.011496+05:30"},{"city":"Kota","state":"Rajasthan","latitude":25.2138,"longitude":75.8648,"temp":40.4,"humidity":30,"rain":0.0,"pressure":970.6,"uv_index":8.4,"wind_gusts":39.2,"aqi":76,"pm10":52.6,"pm2_5":25.6,"no2":1.0,"co":132.0,"o3":118.0,"so2":5.0,"mosquito_risk":0,"arthritis_risk":5,"migraine_risk":10,"frizz_risk":1,"updated_at":"2026-06-10T15:36:26.011503+05:30"},{"city":"Bikaner","state":"Rajasthan","latitude":28.0229,"longitude":73.3119,"temp":42.4,"humidity":26,"rain":0.0,"pressure":971.7,"uv_index":8.5,"wind_gusts":47.5,"aqi":121,"pm10":105.7,"pm2_5":39.3,"no2":0.4,"co":120.0,"o3":99.0,"so2":3.2,"mosquito_risk":0,"arthritis_risk":5,"migraine_risk":10,"frizz_risk":1,"updated_at":"2026-06-10T15:36:26.011509+05:30"},{"city":"Ajmer","state":"Rajasthan","latitude":26.4499,"longitude":74.6399,"temp":37.0,"humidity":37,"rain":0.0,"pressure":947.2,"uv_index":8.4,"wind_gusts":52.9,"aqi":73,"pm10":45.5,"pm2_5":20.4,"no2":0.7,"co":129.0,"o3":106.0,"so2":2.2,"mosquito_risk":0,"arthritis_risk":5,"migraine_risk":10,"frizz_risk":1,"updated_at":"2026-06-10T15:36:26.011516+05:30"},{"city":"Gwalior","state":"Madhya Pradesh","latitude":26.2183,"longitude":78.1828,"temp":40.9,"humidity":27,"rain":0.0,"pressure":974.4,"uv_index":8.3,"wind_gusts":47.9,"aqi":73,"pm10":34.2,"pm2_5":19.4,"no2":0.6,"co":136.0,"o3":114.0,"so2":2.6,"mosquito_risk":0,"arthritis_risk":5,"migraine_risk":10,"frizz_risk":1,"updated_at":"2026-06-10T15:36:26.011522+05:30"},{"city":"Indore","state":"Madhya Pradesh","latitude":22.7196,"longitude":75.8577,"temp":37.8,"humidity":29,"rain":0.0,"pressure":942.9,"uv_index":8.6,"wind_gusts":47.5,"aqi":79,"pm10":42.3,"pm2_5":20.7,"no2":1.0,"co":157.0,"o3":111.0,"so2":2.9,"mosquito_risk":0,"arthritis_risk":5,"migraine_risk":10,"frizz_risk":1,"updated_at":"2026-06-10T15:36:26.011529+05:30"},{"city":"Bhopal","state":"Madhya Pradesh","latitude":23.2599,"longitude":77.4126,"temp":39.6,"humidity":25,"rain":0.0,"pressure":947.7,"uv_index":8.65,"wind_gusts":39.6,"aqi":84,"pm10":38.8,"pm2_5":21.4,"no2":0.6,"co":155.0,"o3":114.0,"so2":3.8,"mosquito_risk":0,"arthritis_risk":5,"migraine_risk":10,"frizz_risk":0,"updated_at":"2026-06-10T15:36:26.011536+05:30"},{"city":"Jabalpur","state":"Madhya Pradesh","latitude":23.1815,"longitude":79.9864,"temp":40.2,"humidity":23,"rain":0.0,"pressure":954.7,"uv_index":8.85,"wind_gusts":37.1,"aqi":85,"pm10":39.8,"pm2_5":22.1,"no2":0.8,"co":175.0,"o3":127.0,"so2":4.4,"mosquito_risk":0,"arthritis_risk":5,"migraine_risk":10,"frizz_risk":0,"updated_at":"2026-06-10T15:36:26.011542+05:30"},{"city":"Ujjain","state":"Madhya Pradesh","latitude":23.1765,"longitude":75.7885,"temp":37.8,"humidity":32,"rain":0.0,"pressure":948.2,"uv_index":8.6,"wind_gusts":48.6,"aqi":79,"pm10":54.0,"pm2_5":24.3,"no2":0.6,"co":133.0,"o3":101.0,"so2":2.3,"mosquito_risk":0,"arthritis_risk":5,"migraine_risk":10,"frizz_risk":1,"updated_at":"2026-06-10T15:36:26.011549+05:30"},{"city":"Visakhapatnam","state":"Andhra Pradesh","latitude":17.6868,"longitude":83.2185,"temp":37.5,"humidity":46,"rain":0.1,"pressure":995.4,"uv_index":8.8,"wind_gusts":25.2,"aqi":157,"pm10":77.5,"pm2_5":60.5,"no2":12.9,"co":420.0,"o3":209.0,"so2":47.7,"mosquito_risk":3,"arthritis_risk":5,"migraine_risk":10,"frizz_risk":1,"updated_at":"2026-06-10T15:36:26.011556+05:30"},{"city":"Vijayawada","state":"Andhra Pradesh","latitude":16.5062,"longitude":80.648,"temp":39.1,"humidity":39,"rain":0.0,"pressure":995.2,"uv_index":8.6,"wind_gusts":42.5,"aqi":81,"pm10":54.4,"pm2_5":30.4,"no2":1.8,"co":192.0,"o3":131.0,"so2":5.4,"mosquito_risk":0,"arthritis_risk":5,"migraine_risk":10,"frizz_risk":1,"updated_at":"2026-06-10T15:36:26.011563+05:30"},{"city":"Guntur","state":"Andhra Pradesh","latitude":16.3067,"longitude":80.4365,"temp":38.7,"humidity":39,"rain":0.0,"pressure":996.4,"uv_index":7.8,"wind_gusts":45.0,"aqi":77,"pm10":54.7,"pm2_5":29.2,"no2":1.1,"co":173.0,"o3":128.0,"so2":4.7,"mosquito_risk":0,"arthritis_risk":5,"migraine_risk":10,"frizz_risk":1,"updated_at":"2026-06-10T15:36:26.011569+05:30"},{"city":"Nellore","state":"Andhra Pradesh","latitude":14.4426,"longitude":79.9865,"temp":37.4,"humidity":39,"rain":0.0,"pressure":999.9,"uv_index":8.1,"wind_gusts":48.2,"aqi":44,"pm10":35.5,"pm2_5":19.4,"no2":4.2,"co":140.0,"o3":110.0,"so2":4.6,"mosquito_risk":0,"arthritis_risk":5,"migraine_risk":10,"frizz_risk":1,"updated_at":"2026-06-10T15:36:26.011576+05:30"},{"city":"Kurnool","state":"Andhra Pradesh","latitude":15.8281,"longitude":78.0373,"temp":35.2,"humidity":42,"rain":0.0,"pressure":972.4,"uv_index":7.85,"wind_gusts":46.4,"aqi":54,"pm10":38.6,"pm2_5":18.2,"no2":1.1,"co":133.0,"o3":110.0,"so2":6.1,"mosquito_risk":0,"arthritis_risk":5,"migraine_risk":10,"frizz_risk":1,"updated_at":"2026-06-10T15:36:26.011584+05:30"},{"city":"Kakinada","state":"Andhra Pradesh","latitude":16.9891,"longitude":82.2475,"temp":39.1,"humidity":41,"rain":0.0,"pressure":998.7,"uv_index":8.95,"wind_gusts":43.2,"aqi":93,"pm10":45.4,"pm2_5":30.4,"no2":2.8,"co":217.0,"o3":150.0,"so2":3.9,"mosquito_risk":0,"arthritis_risk":5,"migraine_risk":10,"frizz_risk":1,"updated_at":"2026-06-10T15:36:26.011591+05:30"},{"city":"Tirupati","state":"Andhra Pradesh","latitude":13.6288,"longitude":79.4192,"temp":34.6,"humidity":45,"rain":0.1,"pressure":986.4,"uv_index":7.55,"wind_gusts":42.8,"aqi":39,"pm10":46.0,"pm2_5":21.7,"no2":3.1,"co":144.0,"o3":88.0,"so2":2.0,"mosquito_risk":3,"arthritis_risk":5,"migraine_risk":7,"frizz_risk":1,"updated_at":"2026-06-10T15:36:26.011597+05:30"},{"city":"Warangal","state":"Telangana","latitude":17.9689,"longitude":79.5941,"temp":37.3,"humidity":38,"rain":0.0,"pressure":972.5,"uv_index":9.0,"wind_gusts":45.4,"aqi":91,"pm10":61.5,"pm2_5":31.5,"no2":1.1,"co":170.0,"o3":126.0,"so2":5.3,"mosquito_risk":0,"arthritis_risk":5,"migraine_risk":10,"frizz_risk":1,"updated_at":"2026-06-10T15:36:26.011604+05:30"},{"city":"Nizamabad","state":"Telangana","latitude":18.6725,"longitude":78.0941,"temp":38.1,"humidity":32,"rain":0.0,"pressure":959.7,"uv_index":8.95,"wind_gusts":42.8,"aqi":85,"pm10":68.5,"pm2_5":29.4,"no2":0.6,"co":136.0,"o3":115.0,"so2":3.1,"mosquito_risk":0,"arthritis_risk":5,"migraine_risk":10,"frizz_risk":1,"updated_at":"2026-06-10T15:36:26.011610+05:30"},{"city":"Mysore","state":"Karnataka","latitude":12.2958,"longitude":76.6396,"temp":26.7,"humidity":67,"rain":0.2,"pressure":927.1,"uv_index":3.2,"wind_gusts":47.9,"aqi":28,"pm10":3.9,"pm2_5":3.0,"no2":5.0,"co":142.0,"o3":58.0,"so2":1.4,"mosquito_risk":10,"arthritis_risk":5,"migraine_risk":3,"frizz_risk":1,"updated_at":"2026-06-10T15:36:26.011617+05:30"},{"city":"Mangalore","state":"Karnataka","latitude":12.9141,"longitude":74.856,"temp":26.8,"humidity":92,"rain":0.2,"pressure":1006.5,"uv_index":5.85,"wind_gusts":34.6,"aqi":28,"pm10":10.0,"pm2_5":5.5,"no2":4.1,"co":151.0,"o3":58.0,"so2":1.9,"mosquito_risk":10,"arthritis_risk":5,"migraine_risk":0,"frizz_risk":1,"updated_at":"2026-06-10T15:36:26.011624+05:30"},{"city":"Hubli-Dharwad","state":"Karnataka","latitude":15.3647,"longitude":75.124,"temp":27.8,"humidity":68,"rain":0.1,"pressure":939.0,"uv_index":7.0,"wind_gusts":49.3,"aqi":27,"pm10":14.8,"pm2_5":7.1,"no2":2.8,"co":124.0,"o3":69.0,"so2":0.9,"mosquito_risk":10,"arthritis_risk":5,"migraine_risk":7,"frizz_risk":1,"updated_at":"2026-06-10T15:36:26.011631+05:30"},{"city":"Belgaum","state":"Karnataka","latitude":15.8497,"longitude":74.4977,"temp":27.1,"humidity":69,"rain":0.0,"pressure":924.1,"uv_index":8.15,"wind_gusts":49.7,"aqi":28,"pm10":17.3,"pm2_5":7.2,"no2":2.0,"co":111.0,"o3":60.0,"so2":1.2,"mosquito_risk":7,"arthritis_risk":5,"migraine_risk":7,"frizz_risk":1,"updated_at":"2026-06-10T15:36:29.269667+05:30"},{"city":"Coimbatore","state":"Tamil Nadu","latitude":11.0168,"longitude":76.9558,"temp":29.2,"humidity":66,"rain":0.0,"pressure":960.2,"uv_index":8.1,"wind_gusts":52.9,"aqi":26,"pm10":5.2,"pm2_5":3.6,"no2":3.8,"co":161.0,"o3":58.0,"so2":1.8,"mosquito_risk":7,"arthritis_risk":5,"migraine_risk":7,"frizz_risk":1,"updated_at":"2026-06-10T15:36:29.269694+05:30"},{"city":"Madurai","state":"Tamil Nadu","latitude":9.9252,"longitude":78.1198,"temp":36.1,"humidity":41,"rain":0.0,"pressure":989.8,"uv_index":8.35,"wind_gusts":49.7,"aqi":25,"pm10":12.0,"pm2_5":6.7,"no2":3.9,"co":134.0,"o3":72.0,"so2":2.3,"mosquito_risk":0,"arthritis_risk":5,"migraine_risk":10,"frizz_risk":1,"updated_at":"2026-06-10T15:36:29.269704+05:30"},{"city":"Trichy","state":"Tamil Nadu","latitude":10.7905,"longitude":78.7047,"temp":36.4,"humidity":38,"rain":0.0,"pressure":995.8,"uv_index":8.25,"wind_gusts":60.8,"aqi":29,"pm10":11.3,"pm2_5":5.7,"no2":1.9,"co":119.0,"o3":82.0,"so2":1.6,"mosquito_risk":0,"arthritis_risk":5,"migraine_risk":10,"frizz_risk":1,"updated_at":"2026-06-10T15:36:29.269712+05:30"},{"city":"Salem","state":"Tamil Nadu","latitude":11.6643,"longitude":78.146,"temp":37.3,"humidity":33,"rain":0.0,"pressure":973.9,"uv_index":8.0,"wind_gusts":49.7,"aqi":36,"pm10":10.1,"pm2_5":5.9,"no2":3.2,"co":164.0,"o3":85.0,"so2":3.8,"mosquito_risk":0,"arthritis_risk":5,"migraine_risk":10,"frizz_risk":1,"updated_at":"2026-06-10T15:36:29.269719+05:30"},{"city":"Tirunelveli","state":"Tamil Nadu","latitude":8.7139,"longitude":77.7567,"temp":33.9,"humidity":50,"rain":0.0,"pressure":1000.9,"uv_index":8.65,"wind_gusts":51.8,"aqi":26,"pm10":9.1,"pm2_5":5.3,"no2":2.7,"co":122.0,"o3":68.0,"so2":1.4,"mosquito_risk":0,"arthritis_risk":5,"migraine_risk":4,"frizz_risk":1,"updated_at":"2026-06-10T15:36:29.269726+05:30"},{"city":"Vellore","state":"Tamil Nadu","latitude":12.9165,"longitude":79.1325,"temp":31.6,"humidity":60,"rain":0.1,"pressure":979.9,"uv_index":7.45,"wind_gusts":53.6,"aqi":40,"pm10":29.0,"pm2_5":15.0,"no2":3.1,"co":148.0,"o3":95.0,"so2":1.5,"mosquito_risk":3,"arthritis_risk":5,"migraine_risk":7,"frizz_risk":1,"updated_at":"2026-06-10T15:36:29.269772+05:30"},{"city":"Erode","state":"Tamil Nadu","latitude":11.341,"longitude":77.7172,"temp":34.2,"humidity":47,"rain":0.1,"pressure":986.0,"uv_index":5.0,"wind_gusts":45.4,"aqi":31,"pm10":10.0,"pm2_5":5.7,"no2":3.1,"co":162.0,"o3":76.0,"so2":1.7,"mosquito_risk":3,"arthritis_risk":5,"migraine_risk":3,"frizz_risk":1,"updated_at":"2026-06-10T15:36:29.269781+05:30"},{"city":"Kochi","state":"Kerala","latitude":9.9312,"longitude":76.2673,"temp":27.7,"humidity":83,"rain":0.1,"pressure":1008.7,"uv_index":5.2,"wind_gusts":34.6,"aqi":31,"pm10":9.5,"pm2_5":5.9,"no2":3.0,"co":132.0,"o3":60.0,"so2":2.1,"mosquito_risk":10,"arthritis_risk":0,"migraine_risk":0,"frizz_risk":1,"updated_at":"2026-06-10T15:36:29.269789+05:30"},{"city":"Thiruvananthapuram","state":"Kerala","latitude":8.5241,"longitude":76.9366,"temp":27.2,"humidity":84,"rain":0.0,"pressure":1008.1,"uv_index":8.4,"wind_gusts":43.6,"aqi":31,"pm10":15.0,"pm2_5":7.8,"no2":1.7,"co":105.0,"o3":65.0,"so2":0.9,"mosquito_risk":7,"arthritis_risk":0,"migraine_risk":4,"frizz_risk":1,"updated_at":"2026-06-10T15:36:29.269796+05:30"},{"city":"Kozhikode","state":"Kerala","latitude":11.2588,"longitude":75.7804,"temp":27.8,"humidity":85,"rain":0.1,"pressure":1007.8,"uv_index":8.2,"wind_gusts":36.7,"aqi":28,"pm10":8.2,"pm2_5":3.7,"no2":0.8,"co":112.0,"o3":63.0,"so2":0.5,"mosquito_risk":10,"arthritis_risk":5,"migraine_risk":4,"frizz_risk":1,"updated_at":"2026-06-10T15:36:29.269803+05:30"},{"city":"Thrissur","state":"Kerala","latitude":10.5276,"longitude":76.2144,"temp":28.6,"humidity":80,"rain":0.0,"pressure":1006.9,"uv_index":6.15,"wind_gusts":35.6,"aqi":31,"pm10":8.3,"pm2_5":5.1,"no2":2.2,"co":149.0,"o3":60.0,"so2":1.3,"mosquito_risk":7,"arthritis_risk":5,"migraine_risk":4,"frizz_risk":1,"updated_at":"2026-06-10T15:36:29.269811+05:30"},{"city":"Kannur","state":"Kerala","latitude":11.8745,"longitude":75.3704,"temp":26.5,"humidity":92,"rain":0.1,"pressure":1007.3,"uv_index":7.95,"wind_gusts":34.9,"aqi":27,"pm10":8.5,"pm2_5":5.4,"no2":4.9,"co":132.0,"o3":57.0,"so2":1.4,"mosquito_risk":10,"arthritis_risk":5,"migraine_risk":4,"frizz_risk":1,"updated_at":"2026-06-10T15:36:29.269818+05:30"},{"city":"Patna","state":"Bihar","latitude":25.5941,"longitude":85.1376,"temp":36.6,"humidity":50,"rain":0.0,"pressure":991.1,"uv_index":8.85,"wind_gusts":32.0,"aqi":176,"pm10":98.3,"pm2_5":54.8,"no2":6.3,"co":387.0,"o3":198.0,"so2":13.6,"mosquito_risk":0,"arthritis_risk":5,"migraine_risk":10,"frizz_risk":1,"updated_at":"2026-06-10T15:36:29.269825+05:30"},{"city":"Gaya","state":"Bihar","latitude":24.7914,"longitude":85.0002,"temp":38.5,"humidity":36,"rain":0.0,"pressure":984.7,"uv_index":8.65,"wind_gusts":49.7,"aqi":159,"pm10":145.8,"pm2_5":55.9,"no2":3.8,"co":222.0,"o3":173.0,"so2":9.9,"mosquito_risk":0,"arthritis_risk":5,"migraine_risk":10,"frizz_risk":1,"updated_at":"2026-06-10T15:36:29.269831+05:30"},{"city":"Muzaffarpur","state":"Bihar","latitude":26.1209,"longitude":85.3647,"temp":35.2,"humidity":56,"rain":0.0,"pressure":991.2,"uv_index":8.85,"wind_gusts":38.5,"aqi":183,"pm10":94.8,"pm2_5":57.0,"no2":6.7,"co":391.0,"o3":199.0,"so2":14.8,"mosquito_risk":0,"arthritis_risk":5,"migraine_risk":10,"frizz_risk":1,"updated_at":"2026-06-10T15:36:29.269838+05:30"},{"city":"Bhagalpur","state":"Bihar","latitude":25.2425,"longitude":87.0117,"temp":36.4,"humidity":51,"rain":0.0,"pressure":992.0,"uv_index":8.85,"wind_gusts":49.3,"aqi":168,"pm10":83.4,"pm2_5":56.1,"no2":5.5,"co":323.0,"o3":219.0,"so2":21.1,"mosquito_risk":0,"arthritis_risk":5,"migraine_risk":10,"frizz_risk":1,"updated_at":"2026-06-10T15:36:29.269844+05:30"},{"city":"Ranchi","state":"Jharkhand","latitude":23.3441,"longitude":85.3096,"temp":33.5,"humidity":39,"rain":0.1,"pressure":931.6,"uv_index":9.0,"wind_gusts":34.2,"aqi":129,"pm10":137.8,"pm2_5":39.6,"no2":2.8,"co":204.0,"o3":154.0,"so2":6.9,"mosquito_risk":3,"arthritis_risk":5,"migraine_risk":7,"frizz_risk":1,"updated_at":"2026-06-10T15:36:29.269851+05:30"},{"city":"Jamshedpur","state":"Jharkhand","latitude":22.8046,"longitude":86.2029,"temp":37.9,"humidity":34,"rain":0.0,"pressure":982.1,"uv_index":9.05,"wind_gusts":32.0,"aqi":185,"pm10":117.8,"pm2_5":48.5,"no2":5.7,"co":238.0,"o3":187.0,"so2":20.2,"mosquito_risk":0,"arthritis_risk":5,"migraine_risk":10,"frizz_risk":1,"updated_at":"2026-06-10T15:36:29.269857+05:30"},{"city":"Dhanbad","state":"Jharkhand","latitude":23.7957,"longitude":86.4304,"temp":39.0,"humidity":30,"rain":0.0,"pressure":971.6,"uv_index":9.05,"wind_gusts":31.0,"aqi":159,"pm10":139.2,"pm2_5":48.4,"no2":12.2,"co":153.0,"o3":167.0,"so2":41.9,"mosquito_risk":0,"arthritis_risk":5,"migraine_risk":10,"frizz_risk":1,"updated_at":"2026-06-10T15:36:29.269864+05:30"},{"city":"Bokaro","state":"Jharkhand","latitude":23.6693,"longitude":86.1511,"temp":38.2,"humidity":33,"rain":0.0,"pressure":975.3,"uv_index":9.1,"wind_gusts":28.1,"aqi":156,"pm10":131.3,"pm2_5":47.0,"no2":10.6,"co":155.0,"o3":173.0,"so2":46.3,"mosquito_risk":0,"arthritis_risk":5,"migraine_risk":10,"frizz_risk":1,"updated_at":"2026-06-10T15:36:29.269871+05:30"},{"city":"Bhubaneswar","state":"Odisha","latitude":20.2961,"longitude":85.8245,"temp":37.9,"humidity":47,"rain":0.0,"pressure":993.3,"uv_index":9.05,"wind_gusts":27.4,"aqi":160,"pm10":66.1,"pm2_5":41.1,"no2":4.4,"co":276.0,"o3":166.0,"so2":9.5,"mosquito_risk":0,"arthritis_risk":5,"migraine_risk":10,"frizz_risk":1,"updated_at":"2026-06-10T15:36:29.269877+05:30"},{"city":"Cuttack","state":"Odisha","latitude":20.4625,"longitude":85.8828,"temp":36.3,"humidity":53,"rain":0.0,"pressure":995.0,"uv_index":9.1,"wind_gusts":28.1,"aqi":160,"pm10":66.1,"pm2_5":41.1,"no2":4.4,"co":271.0,"o3":166.0,"so2":9.5,"mosquito_risk":0,"arthritis_risk":5,"migraine_risk":10,"frizz_risk":1,"updated_at":"2026-06-10T15:36:29.269884+05:30"},{"city":"Rourkela","state":"Odisha","latitude":22.2604,"longitude":84.8536,"temp":37.4,"humidity":37,"rain":0.0,"pressure":976.7,"uv_index":9.0,"wind_gusts":39.2,"aqi":152,"pm10":139.7,"pm2_5":46.8,"no2":4.1,"co":269.0,"o3":167.0,"so2":9.8,"mosquito_risk":0,"arthritis_risk":5,"migraine_risk":10,"frizz_risk":1,"updated_at":"2026-06-10T15:36:29.269890+05:30"},{"city":"Raipur","state":"Chhattisgarh","latitude":21.2514,"longitude":81.6296,"temp":41.4,"humidity":21,"rain":0.0,"pressure":967.0,"uv_index":8.5,"wind_gusts":30.2,"aqi":121,"pm10":72.6,"pm2_5":38.3,"no2":6.6,"co":142.0,"o3":155.0,"so2":26.3,"mosquito_risk":0,"arthritis_risk":5,"migraine_risk":10,"frizz_risk":0,"updated_at":"2026-06-10T15:36:29.269896+05:30"},{"city":"Bhilai","state":"Chhattisgarh","latitude":21.1938,"longitude":81.3509,"temp":41.1,"humidity":22,"rain":0.0,"pressure":967.4,"uv_index":8.9,"wind_gusts":36.4,"aqi":116,"pm10":67.5,"pm2_5":36.6,"no2":7.9,"co":281.0,"o3":143.0,"so2":25.8,"mosquito_risk":0,"arthritis_risk":5,"migraine_risk":10,"frizz_risk":0,"updated_at":"2026-06-10T15:36:29.269903+05:30"},{"city":"Guwahati","state":"Assam","latitude":26.1158,"longitude":91.7086,"temp":29.5,"humidity":77,"rain":0.0,"pressure":994.3,"uv_index":8.75,"wind_gusts":24.5,"aqi":82,"pm10":26.0,"pm2_5":18.0,"no2":2.5,"co":353.0,"o3":128.0,"so2":3.5,"mosquito_risk":7,"arthritis_risk":5,"migraine_risk":7,"frizz_risk":1,"updated_at":"2026-06-10T15:36:29.269909+05:30"},{"city":"Agartala","state":"Tripura","latitude":23.8315,"longitude":91.2868,"temp":29.2,"humidity":80,"rain":0.1,"pressure":1000.1,"uv_index":8.85,"wind_gusts":37.8,"aqi":68,"pm10":38.2,"pm2_5":27.0,"no2":7.2,"co":201.0,"o3":104.0,"so2":3.1,"mosquito_risk":10,"arthritis_risk":5,"migraine_risk":4,"frizz_risk":1,"updated_at":"2026-06-10T15:36:29.269916+05:30"},{"city":"Shillong","state":"Meghalaya","latitude":25.5788,"longitude":91.8933,"temp":22.7,"humidity":79,"rain":0.2,"pressure":853.3,"uv_index":7.2,"wind_gusts":32.4,"aqi":74,"pm10":22.3,"pm2_5":15.3,"no2":2.7,"co":263.0,"o3":127.0,"so2":3.1,"mosquito_risk":6,"arthritis_risk":5,"migraine_risk":7,"frizz_risk":1,"updated_at":"2026-06-10T15:36:29.269923+05:30"},{"city":"Imphal","state":"Manipur","latitude":24.817,"longitude":93.9368,"temp":27.4,"humidity":67,"rain":0.1,"pressure":917.9,"uv_index":7.4,"wind_gusts":36.0,"aqi":89,"pm10":19.3,"pm2_5":13.9,"no2":3.1,"co":218.0,"o3":102.0,"so2":2.2,"mosquito_risk":10,"arthritis_risk":5,"migraine_risk":7,"frizz_risk":1,"updated_at":"2026-06-10T15:36:29.269929+05:30"},{"city":"Aizawl","state":"Mizoram","latitude":23.7271,"longitude":92.7176,"temp":21.6,"humidity":85,"rain":0.0,"pressure":888.2,"uv_index":8.6,"wind_gusts":36.7,"aqi":79,"pm10":19.8,"pm2_5":13.0,"no2":1.6,"co":164.0,"o3":94.0,"so2":1.6,"mosquito_risk":3,"arthritis_risk":5,"migraine_risk":7,"frizz_risk":1,"updated_at":"2026-06-10T15:36:29.269936+05:30"},{"city":"Kohima","state":"Nagaland","latitude":25.6701,"longitude":94.1077,"temp":23.8,"humidity":82,"rain":0.1,"pressure":851.7,"uv_index":9.0,"wind_gusts":32.0,"aqi":63,"pm10":16.7,"pm2_5":11.4,"no2":2.3,"co":224.0,"o3":102.0,"so2":1.9,"mosquito_risk":6,"arthritis_risk":5,"migraine_risk":7,"frizz_risk":1,"updated_at":"2026-06-10T15:36:29.269942+05:30"},{"city":"Gangtok","state":"Sikkim","latitude":27.3314,"longitude":88.6138,"temp":19.5,"humidity":91,"rain":0.0,"pressure":833.4,"uv_index":9.25,"wind_gusts":35.6,"aqi":128,"pm10":20.8,"pm2_5":15.3,"no2":1.9,"co":325.0,"o3":152.0,"so2":2.6,"mosquito_risk":3,"arthritis_risk":10,"migraine_risk":7,"frizz_risk":1,"updated_at":"2026-06-10T15:36:29.269949+05:30"},{"city":"Siliguri","state":"West Bengal","latitude":26.7271,"longitude":88.3953,"temp":28.5,"humidity":81,"rain":0.0,"pressure":985.9,"uv_index":8.75,"wind_gusts":23.0,"aqi":152,"pm10":43.7,"pm2_5":31.0,"no2":3.7,"co":446.0,"o3":165.0,"so2":5.4,"mosquito_risk":7,"arthritis_risk":5,"migraine_risk":7,"frizz_risk":1,"updated_at":"2026-06-10T15:36:32.583588+05:30"},{"city":"Durgapur","state":"West Bengal","latitude":23.5204,"longitude":87.3119,"temp":34.1,"humidity":60,"rain":0.0,"pressure":986.7,"uv_index":9.0,"wind_gusts":25.2,"aqi":211,"pm10":137.8,"pm2_5":82.4,"no2":11.2,"co":471.0,"o3":261.0,"so2":50.3,"mosquito_risk":0,"arthritis_risk":5,"migraine_risk":7,"frizz_risk":1,"updated_at":"2026-06-10T15:36:32.583620+05:30"},{"city":"Asansol","state":"West Bengal","latitude":23.6739,"longitude":86.9524,"temp":38.2,"humidity":34,"rain":0.0,"pressure":984.8,"uv_index":9.0,"wind_gusts":29.5,"aqi":183,"pm10":140.2,"pm2_5":61.0,"no2":12.8,"co":262.0,"o3":199.0,"so2":33.9,"mosquito_risk":0,"arthritis_risk":5,"migraine_risk":10,"frizz_risk":1,"updated_at":"2026-06-10T15:36:32.583634+05:30"},{"city":"Pondicherry","state":"Puducherry","latitude":11.9139,"longitude":79.8145,"temp":37.1,"humidity":38,"rain":0.0,"pressure":1003.3,"uv_index":7.5,"wind_gusts":50.4,"aqi":49,"pm10":20.7,"pm2_5":14.8,"no2":4.9,"co":158.0,"o3":125.0,"so2":8.0,"mosquito_risk":0,"arthritis_risk":5,"migraine_risk":7,"frizz_risk":1,"updated_at":"2026-06-10T15:36:32.583644+05:30"},{"city":"Port Blair","state":"Andaman and Nicobar Islands","latitude":11.6234,"longitude":92.7265,"temp":26.1,"humidity":92,"rain":0.0,"pressure":1005.2,"uv_index":5.8,"wind_gusts":47.9,"aqi":27,"pm10":7.1,"pm2_5":4.1,"no2":0.5,"co":94.0,"o3":52.0,"so2":0.4,"mosquito_risk":7,"arthritis_risk":5,"migraine_risk":0,"frizz_risk":1,"updated_at":"2026-06-10T15:36:32.583654+05:30"},{"city":"Haridwar","state":"Uttarakhand","latitude":29.9457,"longitude":78.1642,"temp":36.6,"humidity":41,"rain":0.0,"pressure":965.0,"uv_index":7.6,"wind_gusts":40.0,"aqi":156,"pm10":361.4,"pm2_5":88.7,"no2":1.2,"co":293.0,"o3":174.0,"so2":7.5,"mosquito_risk":0,"arthritis_risk":5,"migraine_risk":10,"frizz_risk":1,"updated_at":"2026-06-10T15:36:32.583663+05:30"},{"city":"Rishikesh","state":"Uttarakhand","latitude":30.0869,"longitude":78.2676,"temp":35.9,"humidity":37,"rain":0.0,"pressure":958.1,"uv_index":7.7,"wind_gusts":36.7,"aqi":165,"pm10":237.5,"pm2_5":66.1,"no2":0.9,"co":258.0,"o3":178.0,"so2":8.4,"mosquito_risk":0,"arthritis_risk":5,"migraine_risk":10,"frizz_risk":1,"updated_at":"2026-06-10T15:36:32.583670+05:30"},{"city":"Nainital","state":"Uttarakhand","latitude":29.3919,"longitude":79.4542,"temp":21.8,"humidity":64,"rain":0.1,"pressure":803.1,"uv_index":8.4,"wind_gusts":38.5,"aqi":158,"pm10":151.8,"pm2_5":51.2,"no2":1.2,"co":242.0,"o3":173.0,"so2":9.1,"mosquito_risk":6,"arthritis_risk":5,"migraine_risk":7,"frizz_risk":0,"updated_at":"2026-06-10T15:36:32.583676+05:30"},{"city":"Mussoorie","state":"Uttarakhand","latitude":30.4599,"longitude":78.0664,"temp":22.9,"humidity":53,"rain":0.0,"pressure":801.0,"uv_index":8.15,"wind_gusts":45.0,"aqi":158,"pm10":163.4,"pm2_5":52.3,"no2":0.7,"co":235.0,"o3":186.0,"so2":8.3,"mosquito_risk":0,"arthritis_risk":5,"migraine_risk":7,"frizz_risk":0,"updated_at":"2026-06-10T15:36:32.583683+05:30"},{"city":"Dharamshala","state":"Himachal Pradesh","latitude":32.219,"longitude":76.3234,"temp":29.7,"humidity":33,"rain":0.0,"pressure":865.4,"uv_index":8.55,"wind_gusts":39.2,"aqi":136,"pm10":24.4,"pm2_5":16.6,"no2":0.2,"co":208.0,"o3":179.0,"so2":2.1,"mosquito_risk":4,"arthritis_risk":5,"migraine_risk":7,"frizz_risk":0,"updated_at":"2026-06-10T15:36:32.583689+05:30"},{"city":"Dalhousie","state":"Himachal Pradesh","latitude":32.5387,"longitude":75.971,"temp":26.0,"humidity":35,"rain":0.1,"pressure":803.8,"uv_index":8.75,"wind_gusts":37.8,"aqi":164,"pm10":34.5,"pm2_5":22.5,"no2":1.0,"co":214.0,"o3":194.0,"so2":3.5,"mosquito_risk":7,"arthritis_risk":5,"migraine_risk":7,"frizz_risk":0,"updated_at":"2026-06-10T15:36:32.583697+05:30"},{"city":"Patiala","state":"Punjab","latitude":30.3398,"longitude":76.3869,"temp":41.8,"humidity":21,"rain":0.0,"pressure":967.9,"uv_index":7.65,"wind_gusts":31.3,"aqi":427,"pm10":370.7,"pm2_5":76.8,"no2":0.9,"co":230.0,"o3":170.0,"so2":6.4,"mosquito_risk":0,"arthritis_risk":5,"migraine_risk":10,"frizz_risk":0,"updated_at":"2026-06-10T15:36:32.583703+05:30"},{"city":"Bhatinda","state":"Punjab","latitude":30.211,"longitude":74.9455,"temp":43.0,"humidity":22,"rain":0.0,"pressure":973.0,"uv_index":8.35,"wind_gusts":25.2,"aqi":157,"pm10":118.0,"pm2_5":47.3,"no2":1.4,"co":180.0,"o3":167.0,"so2":9.8,"mosquito_risk":0,"arthritis_risk":5,"migraine_risk":10,"frizz_risk":1,"updated_at":"2026-06-10T15:36:32.583710+05:30"},{"city":"Rohtak","state":"Haryana","latitude":28.8955,"longitude":76.6066,"temp":41.4,"humidity":25,"rain":0.0,"pressure":971.4,"uv_index":7.8,"wind_gusts":41.4,"aqi":704,"pm10":1017.0,"pm2_5":138.3,"no2":3.4,"co":175.0,"o3":125.0,"so2":4.5,"mosquito_risk":0,"arthritis_risk":5,"migraine_risk":10,"frizz_risk":1,"updated_at":"2026-06-10T15:36:32.583716+05:30"},{"city":"Panipat","state":"Haryana","latitude":29.3909,"longitude":76.9635,"temp":41.0,"humidity":25,"rain":0.0,"pressure":969.8,"uv_index":7.7,"wind_gusts":29.2,"aqi":1520,"pm10":1356.0,"pm2_5":184.9,"no2":3.6,"co":171.0,"o3":133.0,"so2":9.4,"mosquito_risk":0,"arthritis_risk":5,"migraine_risk":10,"frizz_risk":1,"updated_at":"2026-06-10T15:36:32.583722+05:30"},{"city":"Mathura","state":"Uttar Pradesh","latitude":27.4924,"longitude":77.6737,"temp":40.7,"humidity":28,"rain":0.0,"pressure":976.9,"uv_index":8.1,"wind_gusts":34.2,"aqi":711,"pm10":221.2,"pm2_5":50.2,"no2":3.1,"co":169.0,"o3":111.0,"so2":2.7,"mosquito_risk":0,"arthritis_risk":5,"migraine_risk":10,"frizz_risk":1,"updated_at":"2026-06-10T15:36:32.583728+05:30"},{"city":"Vrindavan","state":"Uttar Pradesh","latitude":27.5823,"longitude":77.7027,"temp":40.6,"humidity":28,"rain":0.0,"pressure":977.3,"uv_index":8.1,"wind_gusts":33.5,"aqi":711,"pm10":221.2,"pm2_5":50.2,"no2":3.1,"co":163.0,"o3":111.0,"so2":2.7,"mosquito_risk":0,"arthritis_risk":5,"migraine_risk":10,"frizz_risk":1,"updated_at":"2026-06-10T15:36:32.583755+05:30"},{"city":"Ayodhya","state":"Uttar Pradesh","latitude":26.7922,"longitude":82.1998,"temp":35.1,"humidity":50,"rain":0.1,"pressure":986.3,"uv_index":8.4,"wind_gusts":34.9,"aqi":174,"pm10":139.7,"pm2_5":63.3,"no2":2.4,"co":377.0,"o3":210.0,"so2":10.4,"mosquito_risk":3,"arthritis_risk":5,"migraine_risk":10,"frizz_risk":1,"updated_at":"2026-06-10T15:36:32.583762+05:30"},{"city":"Ratlam","state":"Madhya Pradesh","latitude":23.3315,"longitude":75.0367,"temp":36.7,"humidity":39,"rain":0.0,"pressure":949.3,"uv_index":8.5,"wind_gusts":49.0,"aqi":80,"pm10":61.9,"pm2_5":27.3,"no2":0.5,"co":125.0,"o3":98.0,"so2":2.5,"mosquito_risk":0,"arthritis_risk":5,"migraine_risk":10,"frizz_risk":1,"updated_at":"2026-06-10T15:36:32.583769+05:30"},{"city":"Sagar","state":"Madhya Pradesh","latitude":23.8388,"longitude":78.7378,"temp":39.1,"humidity":21,"rain":0.0,"pressure":944.1,"uv_index":8.7,"wind_gusts":43.2,"aqi":80,"pm10":37.0,"pm2_5":19.6,"no2":0.5,"co":134.0,"o3":121.0,"so2":3.9,"mosquito_risk":0,"arthritis_risk":5,"migraine_risk":10,"frizz_risk":0,"updated_at":"2026-06-10T15:36:32.583775+05:30"},{"city":"Satna","state":"Madhya Pradesh","latitude":24.6005,"longitude":80.8322,"temp":39.9,"humidity":27,"rain":0.0,"pressure":963.8,"uv_index":8.8,"wind_gusts":46.8,"aqi":79,"pm10":48.0,"pm2_5":22.7,"no2":0.5,"co":142.0,"o3":117.0,"so2":3.2,"mosquito_risk":0,"arthritis_risk":5,"migraine_risk":10,"frizz_risk":1,"updated_at":"2026-06-10T15:36:32.583782+05:30"},{"city":"Akola","state":"Maharashtra","latitude":20.7002,"longitude":77.0082,"temp":40.4,"humidity":22,"rain":0.0,"pressure":968.9,"uv_index":8.8,"wind_gusts":49.7,"aqi":80,"pm10":55.3,"pm2_5":25.3,"no2":1.3,"co":127.0,"o3":118.0,"so2":5.1,"mosquito_risk":0,"arthritis_risk":5,"migraine_risk":10,"frizz_risk":0,"updated_at":"2026-06-10T15:36:32.583789+05:30"},{"city":"Amravati","state":"Maharashtra","latitude":20.9374,"longitude":77.7796,"temp":39.2,"humidity":25,"rain":0.0,"pressure":961.5,"uv_index":8.8,"wind_gusts":47.5,"aqi":81,"pm10":55.5,"pm2_5":25.7,"no2":1.4,"co":128.0,"o3":120.0,"so2":5.8,"mosquito_risk":0,"arthritis_risk":5,"migraine_risk":10,"frizz_risk":0,"updated_at":"2026-06-10T15:36:32.583796+05:30"},{"city":"Latur","state":"Maharashtra","latitude":18.4088,"longitude":76.5604,"temp":34.8,"humidity":38,"rain":0.1,"pressure":936.1,"uv_index":8.95,"wind_gusts":42.1,"aqi":71,"pm10":70.5,"pm2_5":26.3,"no2":0.4,"co":121.0,"o3":105.0,"so2":2.2,"mosquito_risk":3,"arthritis_risk":5,"migraine_risk":7,"frizz_risk":1,"updated_at":"2026-06-10T15:36:32.583802+05:30"},{"city":"Nanded","state":"Maharashtra","latitude":19.1383,"longitude":77.3091,"temp":38.4,"humidity":30,"rain":0.0,"pressure":963.4,"uv_index":8.9,"wind_gusts":42.5,"aqi":84,"pm10":74.7,"pm2_5":30.2,"no2":0.7,"co":126.0,"o3":114.0,"so2":2.5,"mosquito_risk":0,"arthritis_risk":5,"migraine_risk":10,"frizz_risk":1,"updated_at":"2026-06-10T15:36:32.583809+05:30"},{"city":"Gulbarga","state":"Karnataka","latitude":17.3297,"longitude":76.8343,"temp":35.0,"humidity":40,"rain":0.0,"pressure":954.5,"uv_index":8.95,"wind_gusts":41.4,"aqi":59,"pm10":50.9,"pm2_5":19.0,"no2":0.8,"co":144.0,"o3":108.0,"so2":2.4,"mosquito_risk":0,"arthritis_risk":5,"migraine_risk":7,"frizz_risk":1,"updated_at":"2026-06-10T15:36:32.583815+05:30"},{"city":"Bidar","state":"Karnataka","latitude":17.9104,"longitude":77.5199,"temp":35.0,"humidity":41,"rain":0.0,"pressure":931.7,"uv_index":9.0,"wind_gusts":46.4,"aqi":75,"pm10":71.0,"pm2_5":29.9,"no2":0.7,"co":143.0,"o3":118.0,"so2":3.7,"mosquito_risk":0,"arthritis_risk":5,"migraine_risk":7,"frizz_risk":1,"updated_at":"2026-06-10T15:36:32.583821+05:30"},{"city":"Hospet","state":"Karnataka","latitude":15.2689,"longitude":76.3909,"temp":30.7,"humidity":56,"rain":0.0,"pressure":953.0,"uv_index":8.75,"wind_gusts":43.6,"aqi":29,"pm10":24.4,"pm2_5":10.5,"no2":2.3,"co":146.0,"o3":79.0,"so2":1.5,"mosquito_risk":0,"arthritis_risk":5,"migraine_risk":7,"frizz_risk":1,"updated_at":"2026-06-10T15:36:32.583827+05:30"},{"city":"Tirupur","state":"Tamil Nadu","latitude":11.1085,"longitude":77.3411,"temp":31.8,"humidity":55,"rain":0.1,"pressure":973.1,"uv_index":6.5,"wind_gusts":55.1,"aqi":29,"pm10":9.6,"pm2_5":5.7,"no2":3.6,"co":144.0,"o3":70.0,"so2":2.2,"mosquito_risk":3,"arthritis_risk":5,"migraine_risk":7,"frizz_risk":1,"updated_at":"2026-06-10T15:36:32.583833+05:30"},{"city":"Alappuzha","state":"Kerala","latitude":9.4981,"longitude":76.3388,"temp":27.5,"humidity":84,"rain":0.0,"pressure":1008.9,"uv_index":8.35,"wind_gusts":41.8,"aqi":30,"pm10":12.2,"pm2_5":7.0,"no2":3.5,"co":92.0,"o3":65.0,"so2":1.8,"mosquito_risk":7,"arthritis_risk":0,"migraine_risk":4,"frizz_risk":1,"updated_at":"2026-06-10T15:36:32.583839+05:30"},{"city":"Munnar","state":"Kerala","latitude":10.0889,"longitude":77.0595,"temp":18.1,"humidity":95,"rain":0.3,"pressure":856.5,"uv_index":8.35,"wind_gusts":42.5,"aqi":23,"pm10":6.8,"pm2_5":4.2,"no2":3.1,"co":121.0,"o3":54.0,"so2":1.1,"mosquito_risk":6,"arthritis_risk":10,"migraine_risk":7,"frizz_risk":1,"updated_at":"2026-06-10T15:36:32.583846+05:30"},{"city":"Silchar","state":"Assam","latitude":24.8333,"longitude":92.7789,"temp":26.7,"humidity":94,"rain":0.4,"pressure":999.2,"uv_index":7.8,"wind_gusts":33.5,"aqi":94,"pm10":24.0,"pm2_5":16.8,"no2":2.8,"co":245.0,"o3":101.0,"so2":3.0,"mosquito_risk":10,"arthritis_risk":5,"migraine_risk":7,"frizz_risk":1,"updated_at":"2026-06-10T15:36:32.583853+05:30"},{"city":"Dibrugarh","state":"Assam","latitude":27.4728,"longitude":94.912,"temp":30.0,"humidity":75,"rain":0.0,"pressure":987.9,"uv_index":8.9,"wind_gusts":33.1,"aqi":103,"pm10":37.4,"pm2_5":24.7,"no2":3.7,"co":264.0,"o3":132.0,"so2":3.2,"mosquito_risk":7,"arthritis_risk":5,"migraine_risk":7,"frizz_risk":1,"updated_at":"2026-06-10T15:36:32.583859+05:30"}]