[{"city":"Delhi","state":"Delhi","latitude":28.6139,"longitude":77.209,"temp":27.4,"humidity":91,"rain":0.0,"pressure":976.8,"uv_index":7.0,"wind_gusts":36.7,"aqi":84,"pm10":27.0,"pm2_5":26.8,"no2":32.5,"co":375.0,"o3":53.0,"so2":21.4,"mosquito_risk":7,"arthritis_risk":5,"migraine_risk":7,"frizz_risk":1,"updated_at":"2026-07-24T23:49:42.067689+05:30"},{"city":"Mumbai","state":"Maharashtra","latitude":19.076,"longitude":72.8777,"temp":27.4,"humidity":81,"rain":0.1,"pressure":1004.0,"uv_index":7.55,"wind_gusts":64.8,"aqi":60,"pm10":31.3,"pm2_5":14.6,"no2":5.9,"co":151.0,"o3":40.0,"so2":3.9,"mosquito_risk":10,"arthritis_risk":5,"migraine_risk":4,"frizz_risk":1,"updated_at":"2026-07-24T23:49:42.067743+05:30"},{"city":"Bangalore","state":"Karnataka","latitude":12.9716,"longitude":77.5946,"temp":21.5,"humidity":86,"rain":0.0,"pressure":911.9,"uv_index":8.9,"wind_gusts":51.8,"aqi":55,"pm10":14.9,"pm2_5":10.4,"no2":15.5,"co":327.0,"o3":36.0,"so2":4.4,"mosquito_risk":3,"arthritis_risk":5,"migraine_risk":7,"frizz_risk":1,"updated_at":"2026-07-24T23:49:42.067758+05:30"},{"city":"Hyderabad","state":"Telangana","latitude":17.385,"longitude":78.4867,"temp":25.6,"humidity":70,"rain":0.0,"pressure":950.8,"uv_index":8.65,"wind_gusts":65.5,"aqi":59,"pm10":10.9,"pm2_5":7.7,"no2":7.0,"co":196.0,"o3":43.0,"so2":3.6,"mosquito_risk":7,"arthritis_risk":5,"migraine_risk":7,"frizz_risk":1,"updated_at":"2026-07-24T23:49:42.067768+05:30"},{"city":"Chennai","state":"Tamil Nadu","latitude":13.0827,"longitude":80.2707,"temp":28.8,"humidity":78,"rain":0.0,"pressure":1005.9,"uv_index":7.95,"wind_gusts":35.3,"aqi":72,"pm10":34.2,"pm2_5":23.0,"no2":25.8,"co":511.0,"o3":61.0,"so2":13.7,"mosquito_risk":7,"arthritis_risk":5,"migraine_risk":4,"frizz_risk":1,"updated_at":"2026-07-24T23:49:42.067777+05:30"},{"city":"Kolkata","state":"West Bengal","latitude":22.5726,"longitude":88.3639,"temp":25.4,"humidity":97,"rain":0.2,"pressure":1000.6,"uv_index":6.3,"wind_gusts":28.4,"aqi":72,"pm10":28.2,"pm2_5":26.3,"no2":12.7,"co":393.0,"o3":67.0,"so2":8.9,"mosquito_risk":10,"arthritis_risk":5,"migraine_risk":4,"frizz_risk":1,"updated_at":"2026-07-24T23:49:42.067784+05:30"},{"city":"Pune","state":"Maharashtra","latitude":18.5204,"longitude":73.8567,"temp":23.1,"humidity":89,"rain":0.0,"pressure":943.8,"uv_index":5.0,"wind_gusts":62.6,"aqi":20,"pm10":4.0,"pm2_5":2.8,"no2":5.3,"co":129.0,"o3":33.0,"so2":3.6,"mosquito_risk":3,"arthritis_risk":5,"migraine_risk":3,"frizz_risk":1,"updated_at":"2026-07-24T23:49:42.067792+05:30"},{"city":"Ahmedabad","state":"Gujarat","latitude":23.0225,"longitude":72.5714,"temp":25.2,"humidity":97,"rain":0.0,"pressure":991.5,"uv_index":1.45,"wind_gusts":45.0,"aqi":40,"pm10":23.2,"pm2_5":11.7,"no2":8.8,"co":153.0,"o3":52.0,"so2":4.3,"mosquito_risk":7,"arthritis_risk":5,"migraine_risk":3,"frizz_risk":1,"updated_at":"2026-07-24T23:49:42.067799+05:30"},{"city":"Jaipur","state":"Rajasthan","latitude":26.9124,"longitude":75.7873,"temp":26.7,"humidity":78,"rain":0.0,"pressure":952.6,"uv_index":7.2,"wind_gusts":33.5,"aqi":64,"pm10":19.8,"pm2_5":19.7,"no2":28.0,"co":272.0,"o3":42.0,"so2":9.8,"mosquito_risk":7,"arthritis_risk":5,"migraine_risk":7,"frizz_risk":1,"updated_at":"2026-07-24T23:49:42.067804+05:30"},{"city":"Lucknow","state":"Uttar Pradesh","latitude":26.8467,"longitude":80.9462,"temp":26.6,"humidity":95,"rain":0.0,"pressure":988.8,"uv_index":8.0,"wind_gusts":25.9,"aqi":66,"pm10":35.0,"pm2_5":34.9,"no2":20.2,"co":343.0,"o3":57.0,"so2":11.4,"mosquito_risk":7,"arthritis_risk":5,"migraine_risk":7,"frizz_risk":1,"updated_at":"2026-07-24T23:49:42.067812+05:30"},{"city":"Kanpur","state":"Uttar Pradesh","latitude":26.4499,"longitude":80.3319,"temp":27.9,"humidity":87,"rain":0.0,"pressure":986.7,"uv_index":7.55,"wind_gusts":28.1,"aqi":56,"pm10":25.0,"pm2_5":24.7,"no2":15.5,"co":280.0,"o3":71.0,"so2":10.4,"mosquito_risk":7,"arthritis_risk":5,"migraine_risk":7,"frizz_risk":1,"updated_at":"2026-07-24T23:49:42.067818+05:30"},{"city":"Chandigarh","state":"Chandigarh","latitude":30.7333,"longitude":76.7794,"temp":27.9,"humidity":78,"rain":0.0,"pressure":963.8,"uv_index":7.4,"wind_gusts":31.7,"aqi":90,"pm10":36.4,"pm2_5":36.4,"no2":31.1,"co":369.0,"o3":53.0,"so2":9.1,"mosquito_risk":7,"arthritis_risk":5,"migraine_risk":7,"frizz_risk":1,"updated_at":"2026-07-24T23:49:42.067824+05:30"},{"city":"Srinagar","state":"Jammu and Kashmir","latitude":34.0837,"longitude":74.7973,"temp":18.7,"humidity":89,"rain":0.0,"pressure":839.3,"uv_index":6.1,"wind_gusts":14.8,"aqi":76,"pm10":43.0,"pm2_5":42.7,"no2":36.5,"co":886.0,"o3":6.0,"so2":1.7,"mosquito_risk":3,"arthritis_risk":10,"migraine_risk":7,"frizz_risk":1,"updated_at":"2026-07-24T23:49:42.067830+05:30"},{"city":"Jammu","state":"Jammu and Kashmir","latitude":32.7266,"longitude":74.857,"temp":26.0,"humidity":88,"rain":0.0,"pressure":967.3,"uv_index":8.35,"wind_gusts":31.7,"aqi":91,"pm10":60.1,"pm2_5":59.4,"no2":73.9,"co":873.0,"o3":10.0,"so2":9.8,"mosquito_risk":7,"arthritis_risk":5,"migraine_risk":7,"frizz_risk":1,"updated_at":"2026-07-24T23:49:42.067836+05:30"},{"city":"Amritsar","state":"Punjab","latitude":31.634,"longitude":74.8723,"temp":28.1,"humidity":91,"rain":0.0,"pressure":974.9,"uv_index":8.35,"wind_gusts":29.5,"aqi":96,"pm10":49.1,"pm2_5":49.0,"no2":28.5,"co":857.0,"o3":62.0,"so2":7.5,"mosquito_risk":7,"arthritis_risk":5,"migraine_risk":7,"frizz_risk":1,"updated_at":"2026-07-24T23:49:42.067841+05:30"},{"city":"Ludhiana","state":"Punjab","latitude":30.901,"longitude":75.8573,"temp":28.3,"humidity":84,"rain":0.0,"pressure":973.0,"uv_index":7.85,"wind_gusts":32.4,"aqi":104,"pm10":30.9,"pm2_5":30.9,"no2":18.1,"co":576.0,"o3":78.0,"so2":9.3,"mosquito_risk":7,"arthritis_risk":5,"migraine_risk":7,"frizz_risk":1,"updated_at":"2026-07-24T23:49:42.067847+05:30"},{"city":"Jalandhar","state":"Punjab","latitude":31.326,"longitude":75.5762,"temp":28.1,"humidity":86,"rain":0.0,"pressure":974.1,"uv_index":8.05,"wind_gusts":22.7,"aqi":117,"pm10":43.3,"pm2_5":43.3,"no2":23.9,"co":603.0,"o3":77.0,"so2":10.9,"mosquito_risk":7,"arthritis_risk":5,"migraine_risk":7,"frizz_risk":1,"updated_at":"2026-07-24T23:49:42.067852+05:30"},{"city":"Dehradun","state":"Uttarakhand","latitude":30.6284,"longitude":78.0322,"temp":17.7,"humidity":100,"rain":0.1,"pressure":827.7,"uv_index":7.55,"wind_gusts":27.0,"aqi":52,"pm10":7.4,"pm2_5":7.4,"no2":17.9,"co":205.0,"o3":67.0,"so2":1.4,"mosquito_risk":6,"arthritis_risk":10,"migraine_risk":7,"frizz_risk":1,"updated_at":"2026-07-24T23:49:42.067858+05:30"},{"city":"Shimla","state":"Himachal Pradesh","latitude":31.1048,"longitude":77.1734,"temp":15.1,"humidity":98,"rain":0.0,"pressure":781.5,"uv_index":6.15,"wind_gusts":24.1,"aqi":53,"pm10":13.1,"pm2_5":13.0,"no2":20.9,"co":392.0,"o3":60.0,"so2":1.2,"mosquito_risk":3,"arthritis_risk":10,"migraine_risk":7,"frizz_risk":0,"updated_at":"2026-07-24T23:49:42.067864+05:30"},{"city":"Manali","state":"Himachal Pradesh","latitude":32.2396,"longitude":77.1887,"temp":20.3,"humidity":89,"rain":0.0,"pressure":817.7,"uv_index":9.4,"wind_gusts":29.2,"aqi":31,"pm10":6.3,"pm2_5":6.2,"no2":44.1,"co":223.0,"o3":25.0,"so2":0.3,"mosquito_risk":3,"arthritis_risk":5,"migraine_risk":7,"frizz_risk":1,"updated_at":"2026-07-24T23:49:42.067871+05:30"},{"city":"Gurgaon","state":"Haryana","latitude":28.4595,"longitude":77.0266,"temp":27.3,"humidity":93,"rain":0.0,"pressure":975.0,"uv_index":6.75,"wind_gusts":40.0,"aqi":82,"pm10":24.3,"pm2_5":24.0,"no2":29.1,"co":671.0,"o3":54.0,"so2":15.0,"mosquito_risk":7,"arthritis_risk":5,"migraine_risk":7,"frizz_risk":1,"updated_at":"2026-07-24T23:49:42.067876+05:30"},{"city":"Noida","state":"Uttar Pradesh","latitude":28.5355,"longitude":77.391,"temp":27.5,"humidity":88,"rain":0.0,"pressure":978.4,"uv_index":6.1,"wind_gusts":37.8,"aqi":82,"pm10":24.3,"pm2_5":24.0,"no2":29.1,"co":328.0,"o3":54.0,"so2":15.0,"mosquito_risk":7,"arthritis_risk":5,"migraine_risk":7,"frizz_risk":1,"updated_at":"2026-07-24T23:49:42.067881+05:30"},{"city":"Ghaziabad","state":"Uttar Pradesh","latitude":28.6692,"longitude":77.4538,"temp":27.6,"humidity":87,"rain":0.0,"pressure":976.7,"uv_index":5.3,"wind_gusts":40.7,"aqi":77,"pm10":23.5,"pm2_5":23.3,"no2":14.5,"co":270.0,"o3":70.0,"so2":8.2,"mosquito_risk":7,"arthritis_risk":5,"migraine_risk":3,"frizz_risk":1,"updated_at":"2026-07-24T23:49:42.067888+05:30"},{"city":"Faridabad","state":"Haryana","latitude":28.4089,"longitude":77.3178,"temp":27.5,"humidity":89,"rain":0.0,"pressure":977.5,"uv_index":5.55,"wind_gusts":38.9,"aqi":82,"pm10":24.3,"pm2_5":24.0,"no2":29.1,"co":384.0,"o3":54.0,"so2":15.0,"mosquito_risk":7,"arthritis_risk":5,"migraine_risk":3,"frizz_risk":1,"updated_at":"2026-07-24T23:49:42.067893+05:30"},{"city":"Meerut","state":"Uttar Pradesh","latitude":28.9845,"longitude":77.7064,"temp":27.1,"humidity":90,"rain":0.0,"pressure":975.9,"uv_index":6.25,"wind_gusts":46.8,"aqi":77,"pm10":23.5,"pm2_5":23.3,"no2":14.5,"co":269.0,"o3":70.0,"so2":8.2,"mosquito_risk":7,"arthritis_risk":5,"migraine_risk":7,"frizz_risk":1,"updated_at":"2026-07-24T23:49:42.067899+05:30"},{"city":"Agra","state":"Uttar Pradesh","latitude":27.1767,"longitude":78.0081,"temp":28.9,"humidity":75,"rain":0.0,"pressure":981.2,"uv_index":6.7,"wind_gusts":32.0,"aqi":70,"pm10":20.3,"pm2_5":19.6,"no2":24.2,"co":391.0,"o3":40.0,"so2":8.3,"mosquito_risk":7,"arthritis_risk":5,"migraine_risk":7,"frizz_risk":1,"updated_at":"2026-07-24T23:49:42.067904+05:30"},{"city":"Varanasi","state":"Uttar Pradesh","latitude":25.3176,"longitude":82.9739,"temp":28.1,"humidity":90,"rain":0.0,"pressure":992.8,"uv_index":7.5,"wind_gusts":21.2,"aqi":78,"pm10":26.0,"pm2_5":25.7,"no2":18.6,"co":692.0,"o3":58.0,"so2":10.6,"mosquito_risk":7,"arthritis_risk":5,"migraine_risk":7,"frizz_risk":1,"updated_at":"2026-07-24T23:49:42.067910+05:30"},{"city":"Prayagraj","state":"Uttar Pradesh","latitude":25.4358,"longitude":81.8463,"temp":28.7,"humidity":84,"rain":0.0,"pressure":991.0,"uv_index":8.45,"wind_gusts":19.4,"aqi":72,"pm10":38.9,"pm2_5":38.4,"no2":25.5,"co":290.0,"o3":50.0,"so2":12.3,"mosquito_risk":7,"arthritis_risk":5,"migraine_risk":7,"frizz_risk":1,"updated_at":"2026-07-24T23:49:42.067915+05:30"},{"city":"Gorakhpur","state":"Uttar Pradesh","latitude":26.7606,"longitude":83.3732,"temp":26.6,"humidity":95,"rain":0.0,"pressure":993.2,"uv_index":6.9,"wind_gusts":27.4,"aqi":98,"pm10":46.9,"pm2_5":46.8,"no2":23.4,"co":505.0,"o3":52.0,"so2":8.0,"mosquito_risk":7,"arthritis_risk":5,"migraine_risk":7,"frizz_risk":1,"updated_at":"2026-07-24T23:49:42.067920+05:30"},{"city":"Bareilly","state":"Uttar Pradesh","latitude":28.367,"longitude":79.4304,"temp":26.5,"humidity":95,"rain":0.0,"pressure":982.1,"uv_index":6.8,"wind_gusts":40.7,"aqi":79,"pm10":32.2,"pm2_5":32.2,"no2":15.4,"co":363.0,"o3":71.0,"so2":8.4,"mosquito_risk":7,"arthritis_risk":5,"migraine_risk":7,"frizz_risk":1,"updated_at":"2026-07-24T23:49:42.067927+05:30"},{"city":"Aligarh","state":"Uttar Pradesh","latitude":27.8974,"longitude":78.088,"temp":28.6,"humidity":82,"rain":0.0,"pressure":979.5,"uv_index":5.4,"wind_gusts":35.6,"aqi":78,"pm10":22.2,"pm2_5":21.5,"no2":17.4,"co":274.0,"o3":60.0,"so2":12.2,"mosquito_risk":7,"arthritis_risk":5,"migraine_risk":3,"frizz_risk":1,"updated_at":"2026-07-24T23:49:42.067932+05:30"},{"city":"Moradabad","state":"Uttar Pradesh","latitude":28.8386,"longitude":78.7733,"temp":26.6,"humidity":90,"rain":0.0,"pressure":978.8,"uv_index":7.1,"wind_gusts":47.2,"aqi":78,"pm10":26.7,"pm2_5":26.7,"no2":12.6,"co":353.0,"o3":82.0,"so2":8.3,"mosquito_risk":7,"arthritis_risk":5,"migraine_risk":7,"frizz_risk":1,"updated_at":"2026-07-24T23:49:42.067937+05:30"},{"city":"Saharanpur","state":"Uttar Pradesh","latitude":29.9637,"longitude":77.546,"temp":27.6,"humidity":88,"rain":0.0,"pressure":970.8,"uv_index":7.25,"wind_gusts":49.0,"aqi":82,"pm10":33.2,"pm2_5":33.2,"no2":17.0,"co":371.0,"o3":72.0,"so2":10.6,"mosquito_risk":7,"arthritis_risk":5,"migraine_risk":7,"frizz_risk":1,"updated_at":"2026-07-24T23:49:42.067943+05:30"},{"city":"Jhansi","state":"Uttar Pradesh","latitude":25.4484,"longitude":78.5685,"temp":27.7,"humidity":82,"rain":0.0,"pressure":972.0,"uv_index":7.0,"wind_gusts":38.2,"aqi":50,"pm10":12.6,"pm2_5":10.7,"no2":13.7,"co":196.0,"o3":40.0,"so2":3.9,"mosquito_risk":7,"arthritis_risk":5,"migraine_risk":7,"frizz_risk":1,"updated_at":"2026-07-24T23:49:45.393153+05:30"},{"city":"Surat","state":"Gujarat","latitude":21.1702,"longitude":72.8311,"temp":27.1,"humidity":86,"rain":0.0,"pressure":999.7,"uv_index":5.75,"wind_gusts":55.8,"aqi":66,"pm10":26.0,"pm2_5":15.7,"no2":19.5,"co":263.0,"o3":28.0,"so2":30.3,"mosquito_risk":7,"arthritis_risk":5,"migraine_risk":3,"frizz_risk":1,"updated_at":"2026-07-24T23:49:45.393184+05:30"},{"city":"Vadodara","state":"Gujarat","latitude":22.3072,"longitude":73.1812,"temp":26.1,"humidity":88,"rain":0.1,"pressure":996.2,"uv_index":2.0,"wind_gusts":50.4,"aqi":35,"pm10":7.5,"pm2_5":6.4,"no2":12.1,"co":177.0,"o3":31.0,"so2":5.4,"mosquito_risk":10,"arthritis_risk":5,"migraine_risk":3,"frizz_risk":1,"updated_at":"2026-07-24T23:49:45.393193+05:30"},{"city":"Rajkot","state":"Gujarat","latitude":22.3039,"longitude":70.8022,"temp":25.0,"humidity":96,"rain":0.8,"pressure":986.1,"uv_index":0.9,"wind_gusts":54.7,"aqi":40,"pm10":22.1,"pm2_5":10.9,"no2":5.7,"co":117.0,"o3":40.0,"so2":5.0,"mosquito_risk":10,"arthritis_risk":5,"migraine_risk":3,"frizz_risk":1,"updated_at":"2026-07-24T23:49:45.393200+05:30"},{"city":"Thane","state":"Maharashtra","latitude":19.2183,"longitude":72.9781,"temp":26.4,"humidity":88,"rain":0.0,"pressure":1003.2,"uv_index":7.65,"wind_gusts":54.0,"aqi":60,"pm10":31.3,"pm2_5":14.6,"no2":5.9,"co":213.0,"o3":40.0,"so2":3.9,"mosquito_risk":7,"arthritis_risk":5,"migraine_risk":4,"frizz_risk":1,"updated_at":"2026-07-24T23:49:45.393208+05:30"},{"city":"Nagpur","state":"Maharashtra","latitude":21.1458,"longitude":79.0882,"temp":25.2,"humidity":91,"rain":0.0,"pressure":968.9,"uv_index":8.5,"wind_gusts":42.8,"aqi":51,"pm10":19.1,"pm2_5":14.2,"no2":17.1,"co":297.0,"o3":33.0,"so2":9.6,"mosquito_risk":7,"arthritis_risk":5,"migraine_risk":7,"frizz_risk":1,"updated_at":"2026-07-24T23:49:45.393214+05:30"},{"city":"Nashik","state":"Maharashtra","latitude":19.9975,"longitude":73.7898,"temp":22.3,"humidity":96,"rain":0.1,"pressure":940.2,"uv_index":6.65,"wind_gusts":61.2,"aqi":27,"pm10":3.6,"pm2_5":2.1,"no2":6.7,"co":122.0,"o3":36.0,"so2":4.5,"mosquito_risk":6,"arthritis_risk":5,"migraine_risk":7,"frizz_risk":1,"updated_at":"2026-07-24T23:49:45.393220+05:30"},{"city":"Aurangabad","state":"Maharashtra","latitude":19.8762,"longitude":75.3433,"temp":24.0,"humidity":85,"rain":0.0,"pressure":939.8,"uv_index":6.55,"wind_gusts":60.5,"aqi":26,"pm10":5.3,"pm2_5":3.8,"no2":7.4,"co":165.0,"o3":35.0,"so2":7.0,"mosquito_risk":3,"arthritis_risk":5,"migraine_risk":7,"frizz_risk":1,"updated_at":"2026-07-24T23:49:45.393226+05:30"},{"city":"Solapur","state":"Maharashtra","latitude":17.6599,"longitude":75.9064,"temp":25.0,"humidity":78,"rain":0.0,"pressure":954.9,"uv_index":5.95,"wind_gusts":64.4,"aqi":32,"pm10":9.5,"pm2_5":6.4,"no2":4.6,"co":122.0,"o3":34.0,"so2":2.1,"mosquito_risk":7,"arthritis_risk":5,"migraine_risk":3,"frizz_risk":1,"updated_at":"2026-07-24T23:49:45.393232+05:30"},{"city":"Kolhapur","state":"Maharashtra","latitude":16.705,"longitude":74.2433,"temp":22.1,"humidity":93,"rain":0.0,"pressure":945.6,"uv_index":8.9,"wind_gusts":67.0,"aqi":29,"pm10":8.1,"pm2_5":5.6,"no2":3.6,"co":112.0,"o3":34.0,"so2":1.7,"mosquito_risk":3,"arthritis_risk":5,"migraine_risk":7,"frizz_risk":1,"updated_at":"2026-07-24T23:49:45.393238+05:30"},{"city":"Goa","state":"Goa","latitude":15.2993,"longitude":74.124,"temp":23.6,"humidity":97,"rain":0.1,"pressure":997.9,"uv_index":8.65,"wind_gusts":38.2,"aqi":70,"pm10":20.7,"pm2_5":12.2,"no2":3.3,"co":245.0,"o3":33.0,"so2":1.0,"mosquito_risk":6,"arthritis_risk":5,"migraine_risk":7,"frizz_risk":1,"updated_at":"2026-07-24T23:49:45.393243+05:30"},{"city":"Jodhpur","state":"Rajasthan","latitude":26.2389,"longitude":73.0243,"temp":27.4,"humidity":91,"rain":0.0,"pressure":973.9,"uv_index":7.3,"wind_gusts":28.1,"aqi":69,"pm10":17.3,"pm2_5":17.0,"no2":11.6,"co":472.0,"o3":82.0,"so2":2.2,"mosquito_risk":7,"arthritis_risk":5,"migraine_risk":7,"frizz_risk":1,"updated_at":"2026-07-24T23:49:45.393248+05:30"},{"city":"Udaipur","state":"Rajasthan","latitude":24.5854,"longitude":73.7125,"temp":23.4,"humidity":98,"rain":0.1,"pressure":938.0,"uv_index":7.2,"wind_gusts":29.9,"aqi":48,"pm10":6.3,"pm2_5":6.2,"no2":8.1,"co":207.0,"o3":62.0,"so2":3.4,"mosquito_risk":6,"arthritis_risk":5,"migraine_risk":7,"frizz_risk":1,"updated_at":"2026-07-24T23:49:45.393254+05:30"},{"city":"Kota","state":"Rajasthan","latitude":25.2138,"longitude":75.8648,"temp":28.0,"humidity":75,"rain":0.0,"pressure":971.2,"uv_index":7.5,"wind_gusts":44.3,"aqi":51,"pm10":8.1,"pm2_5":7.4,"no2":7.7,"co":175.0,"o3":58.0,"so2":5.1,"mosquito_risk":7,"arthritis_risk":5,"migraine_risk":7,"frizz_risk":1,"updated_at":"2026-07-24T23:49:45.393259+05:30"},{"city":"Bikaner","state":"Rajasthan","latitude":28.0229,"longitude":73.3119,"temp":28.1,"humidity":87,"rain":0.0,"pressure":973.4,"uv_index":8.0,"wind_gusts":30.2,"aqi":87,"pm10":21.7,"pm2_5":20.9,"no2":6.0,"co":310.0,"o3":100.0,"so2":5.6,"mosquito_risk":7,"arthritis_risk":5,"migraine_risk":7,"frizz_risk":1,"updated_at":"2026-07-24T23:49:45.393264+05:30"},{"city":"Ajmer","state":"Rajasthan","latitude":26.4499,"longitude":74.6399,"temp":25.9,"humidity":84,"rain":0.0,"pressure":946.3,"uv_index":8.1,"wind_gusts":33.1,"aqi":68,"pm10":14.5,"pm2_5":14.4,"no2":17.7,"co":434.0,"o3":51.0,"so2":4.1,"mosquito_risk":7,"arthritis_risk":5,"migraine_risk":7,"frizz_risk":1,"updated_at":"2026-07-24T23:49:45.393270+05:30"},{"city":"Gwalior","state":"Madhya Pradesh","latitude":26.2183,"longitude":78.1828,"temp":27.8,"humidity":77,"rain":0.0,"pressure":977.0,"uv_index":7.2,"wind_gusts":32.8,"aqi":55,"pm10":13.0,"pm2_5":12.5,"no2":19.9,"co":197.0,"o3":33.0,"so2":5.4,"mosquito_risk":7,"arthritis_risk":5,"migraine_risk":7,"frizz_risk":1,"updated_at":"2026-07-24T23:49:45.393275+05:30"},{"city":"Indore","state":"Madhya Pradesh","latitude":22.7196,"longitude":75.8577,"temp":23.7,"humidity":89,"rain":0.0,"pressure":942.2,"uv_index":6.35,"wind_gusts":52.6,"aqi":48,"pm10":24.5,"pm2_5":14.8,"no2":8.9,"co":243.0,"o3":48.0,"so2":8.0,"mosquito_risk":3,"arthritis_risk":5,"migraine_risk":7,"frizz_risk":1,"updated_at":"2026-07-24T23:49:45.393280+05:30"},{"city":"Bhopal","state":"Madhya Pradesh","latitude":23.2599,"longitude":77.4126,"temp":24.9,"humidity":89,"rain":0.0,"pressure":948.2,"uv_index":8.1,"wind_gusts":43.6,"aqi":35,"pm10":12.3,"pm2_5":8.4,"no2":7.1,"co":216.0,"o3":53.0,"so2":4.3,"mosquito_risk":3,"arthritis_risk":5,"migraine_risk":7,"frizz_risk":1,"updated_at":"2026-07-24T23:49:45.393286+05:30"},{"city":"Jabalpur","state":"Madhya Pradesh","latitude":23.1815,"longitude":79.9864,"temp":25.8,"humidity":87,"rain":0.0,"pressure":956.7,"uv_index":7.75,"wind_gusts":30.6,"aqi":50,"pm10":10.8,"pm2_5":9.9,"no2":9.0,"co":215.0,"o3":45.0,"so2":4.0,"mosquito_risk":7,"arthritis_risk":5,"migraine_risk":7,"frizz_risk":1,"updated_at":"2026-07-24T23:49:45.393291+05:30"},{"city":"Ujjain","state":"Madhya Pradesh","latitude":23.1765,"longitude":75.7885,"temp":24.4,"humidity":89,"rain":0.0,"pressure":947.5,"uv_index":4.95,"wind_gusts":58.3,"aqi":42,"pm10":21.4,"pm2_5":13.9,"no2":7.9,"co":247.0,"o3":50.0,"so2":8.6,"mosquito_risk":3,"arthritis_risk":5,"migraine_risk":3,"frizz_risk":1,"updated_at":"2026-07-24T23:49:45.393297+05:30"},{"city":"Visakhapatnam","state":"Andhra Pradesh","latitude":17.6868,"longitude":83.2185,"temp":28.6,"humidity":72,"rain":0.0,"pressure":999.9,"uv_index":8.6,"wind_gusts":43.2,"aqi":76,"pm10":24.9,"pm2_5":18.7,"no2":19.5,"co":296.0,"o3":50.0,"so2":31.4,"mosquito_risk":7,"arthritis_risk":5,"migraine_risk":7,"frizz_risk":1,"updated_at":"2026-07-24T23:49:45.393302+05:30"},{"city":"Vijayawada","state":"Andhra Pradesh","latitude":16.5062,"longitude":80.648,"temp":29.8,"humidity":63,"rain":0.0,"pressure":999.8,"uv_index":8.8,"wind_gusts":46.4,"aqi":76,"pm10":40.2,"pm2_5":27.4,"no2":11.8,"co":238.0,"o3":64.0,"so2":5.7,"mosquito_risk":7,"arthritis_risk":5,"migraine_risk":7,"frizz_risk":1,"updated_at":"2026-07-24T23:49:45.393307+05:30"},{"city":"Guntur","state":"Andhra Pradesh","latitude":16.3067,"longitude":80.4365,"temp":30.2,"humidity":60,"rain":0.0,"pressure":1001.0,"uv_index":9.0,"wind_gusts":47.5,"aqi":74,"pm10":40.2,"pm2_5":28.4,"no2":16.7,"co":234.0,"o3":45.0,"so2":5.8,"mosquito_risk":0,"arthritis_risk":5,"migraine_risk":4,"frizz_risk":1,"updated_at":"2026-07-24T23:49:45.393312+05:30"},{"city":"Nellore","state":"Andhra Pradesh","latitude":14.4426,"longitude":79.9865,"temp":30.3,"humidity":61,"rain":0.0,"pressure":1004.3,"uv_index":8.5,"wind_gusts":43.9,"aqi":72,"pm10":26.5,"pm2_5":15.1,"no2":6.9,"co":179.0,"o3":42.0,"so2":2.1,"mosquito_risk":3,"arthritis_risk":5,"migraine_risk":4,"frizz_risk":1,"updated_at":"2026-07-24T23:49:45.393318+05:30"},{"city":"Kurnool","state":"Andhra Pradesh","latitude":15.8281,"longitude":78.0373,"temp":27.2,"humidity":64,"rain":0.0,"pressure":975.8,"uv_index":6.85,"wind_gusts":51.1,"aqi":59,"pm10":7.6,"pm2_5":5.3,"no2":5.9,"co":123.0,"o3":38.0,"so2":2.0,"mosquito_risk":7,"arthritis_risk":5,"migraine_risk":7,"frizz_risk":1,"updated_at":"2026-07-24T23:49:45.393324+05:30"},{"city":"Kakinada","state":"Andhra Pradesh","latitude":16.9891,"longitude":82.2475,"temp":29.0,"humidity":72,"rain":0.0,"pressure":1004.4,"uv_index":9.0,"wind_gusts":63.0,"aqi":72,"pm10":37.8,"pm2_5":22.3,"no2":8.2,"co":286.0,"o3":66.0,"so2":5.6,"mosquito_risk":7,"arthritis_risk":5,"migraine_risk":4,"frizz_risk":1,"updated_at":"2026-07-24T23:49:45.393330+05:30"},{"city":"Tirupati","state":"Andhra Pradesh","latitude":13.6288,"longitude":79.4192,"temp":28.1,"humidity":70,"rain":0.0,"pressure":990.4,"uv_index":8.0,"wind_gusts":33.5,"aqi":70,"pm10":39.2,"pm2_5":26.1,"no2":25.3,"co":208.0,"o3":16.0,"so2":3.0,"mosquito_risk":7,"arthritis_risk":5,"migraine_risk":7,"frizz_risk":1,"updated_at":"2026-07-24T23:49:45.393335+05:30"},{"city":"Warangal","state":"Telangana","latitude":17.9689,"longitude":79.5941,"temp":27.2,"humidity":71,"rain":0.0,"pressure":975.4,"uv_index":8.7,"wind_gusts":51.1,"aqi":66,"pm10":27.9,"pm2_5":20.7,"no2":13.5,"co":294.0,"o3":42.0,"so2":4.7,"mosquito_risk":7,"arthritis_risk":5,"migraine_risk":7,"frizz_risk":1,"updated_at":"2026-07-24T23:49:45.393340+05:30"},{"city":"Nizamabad","state":"Telangana","latitude":18.6725,"longitude":78.0941,"temp":26.6,"humidity":69,"rain":0.0,"pressure":961.7,"uv_index":7.45,"wind_gusts":52.9,"aqi":45,"pm10":10.7,"pm2_5":7.4,"no2":6.1,"co":170.0,"o3":38.0,"so2":3.7,"mosquito_risk":7,"arthritis_risk":5,"migraine_risk":7,"frizz_risk":1,"updated_at":"2026-07-24T23:49:45.393345+05:30"},{"city":"Mysore","state":"Karnataka","latitude":12.2958,"longitude":76.6396,"temp":21.7,"humidity":93,"rain":0.0,"pressure":929.1,"uv_index":8.6,"wind_gusts":45.0,"aqi":56,"pm10":13.9,"pm2_5":8.6,"no2":9.5,"co":176.0,"o3":35.0,"so2":2.3,"mosquito_risk":3,"arthritis_risk":5,"migraine_risk":7,"frizz_risk":1,"updated_at":"2026-07-24T23:49:45.393350+05:30"},{"city":"Mangalore","state":"Karnataka","latitude":12.9141,"longitude":74.856,"temp":23.8,"humidity":99,"rain":0.1,"pressure":1008.1,"uv_index":8.7,"wind_gusts":40.3,"aqi":56,"pm10":24.6,"pm2_5":14.1,"no2":10.7,"co":344.0,"o3":27.0,"so2":3.4,"mosquito_risk":6,"arthritis_risk":0,"migraine_risk":4,"frizz_risk":1,"updated_at":"2026-07-24T23:49:45.393355+05:30"},{"city":"Hubli-Dharwad","state":"Karnataka","latitude":15.3647,"longitude":75.124,"temp":22.0,"humidity":93,"rain":0.0,"pressure":939.6,"uv_index":8.7,"wind_gusts":63.7,"aqi":39,"pm10":2.7,"pm2_5":2.0,"no2":4.8,"co":114.0,"o3":31.0,"so2":1.2,"mosquito_risk":3,"arthritis_risk":5,"migraine_risk":7,"frizz_risk":1,"updated_at":"2026-07-24T23:49:45.393361+05:30"},{"city":"Belgaum","state":"Karnataka","latitude":15.8497,"longitude":74.4977,"temp":20.8,"humidity":96,"rain":0.0,"pressure":923.8,"uv_index":9.0,"wind_gusts":63.0,"aqi":33,"pm10":6.0,"pm2_5":4.0,"no2":3.7,"co":103.0,"o3":33.0,"so2":1.5,"mosquito_risk":3,"arthritis_risk":5,"migraine_risk":7,"frizz_risk":1,"updated_at":"2026-07-24T23:49:48.711429+05:30"},{"city":"Coimbatore","state":"Tamil Nadu","latitude":11.0168,"longitude":76.9558,"temp":23.9,"humidity":92,"rain":0.0,"pressure":962.3,"uv_index":8.95,"wind_gusts":47.9,"aqi":47,"pm10":30.4,"pm2_5":16.9,"no2":12.0,"co":206.0,"o3":29.0,"so2":4.0,"mosquito_risk":3,"arthritis_risk":5,"migraine_risk":7,"frizz_risk":1,"updated_at":"2026-07-24T23:49:48.711463+05:30"},{"city":"Madurai","state":"Tamil Nadu","latitude":9.9252,"longitude":78.1198,"temp":29.3,"humidity":66,"rain":0.0,"pressure":993.2,"uv_index":8.85,"wind_gusts":28.8,"aqi":65,"pm10":34.5,"pm2_5":27.3,"no2":39.8,"co":190.0,"o3":18.0,"so2":8.5,"mosquito_risk":7,"arthritis_risk":5,"migraine_risk":7,"frizz_risk":1,"updated_at":"2026-07-24T23:49:48.711472+05:30"},{"city":"Trichy","state":"Tamil Nadu","latitude":10.7905,"longitude":78.7047,"temp":27.5,"humidity":80,"rain":0.1,"pressure":999.9,"uv_index":8.75,"wind_gusts":44.3,"aqi":52,"pm10":39.8,"pm2_5":26.3,"no2":23.5,"co":158.0,"o3":32.0,"so2":6.0,"mosquito_risk":10,"arthritis_risk":5,"migraine_risk":7,"frizz_risk":1,"updated_at":"2026-07-24T23:49:48.711480+05:30"},{"city":"Salem","state":"Tamil Nadu","latitude":11.6643,"longitude":78.146,"temp":27.0,"humidity":78,"rain":0.0,"pressure":977.8,"uv_index":8.35,"wind_gusts":35.3,"aqi":61,"pm10":32.0,"pm2_5":21.2,"no2":21.6,"co":360.0,"o3":40.0,"so2":8.9,"mosquito_risk":7,"arthritis_risk":5,"migraine_risk":7,"frizz_risk":1,"updated_at":"2026-07-24T23:49:48.711487+05:30"},{"city":"Tirunelveli","state":"Tamil Nadu","latitude":8.7139,"longitude":77.7567,"temp":29.5,"humidity":61,"rain":0.0,"pressure":1003.4,"uv_index":8.75,"wind_gusts":46.1,"aqi":37,"pm10":12.2,"pm2_5":8.6,"no2":7.0,"co":156.0,"o3":39.0,"so2":2.6,"mosquito_risk":7,"arthritis_risk":5,"migraine_risk":4,"frizz_risk":1,"updated_at":"2026-07-24T23:49:48.711494+05:30"},{"city":"Vellore","state":"Tamil Nadu","latitude":12.9165,"longitude":79.1325,"temp":27.1,"humidity":81,"rain":0.0,"pressure":983.9,"uv_index":7.4,"wind_gusts":37.8,"aqi":73,"pm10":49.5,"pm2_5":32.6,"no2":29.0,"co":458.0,"o3":24.0,"so2":5.6,"mosquito_risk":7,"arthritis_risk":5,"migraine_risk":7,"frizz_risk":1,"updated_at":"2026-07-24T23:49:48.711500+05:30"},{"city":"Erode","state":"Tamil Nadu","latitude":11.341,"longitude":77.7172,"temp":26.6,"humidity":79,"rain":0.0,"pressure":989.5,"uv_index":8.5,"wind_gusts":41.0,"aqi":53,"pm10":30.2,"pm2_5":19.9,"no2":20.4,"co":209.0,"o3":30.0,"so2":4.8,"mosquito_risk":7,"arthritis_risk":5,"migraine_risk":7,"frizz_risk":1,"updated_at":"2026-07-24T23:49:48.711505+05:30"},{"city":"Kochi","state":"Kerala","latitude":9.9312,"longitude":76.2673,"temp":25.6,"humidity":93,"rain":0.0,"pressure":1010.6,"uv_index":8.55,"wind_gusts":33.5,"aqi":55,"pm10":21.9,"pm2_5":18.5,"no2":22.6,"co":274.0,"o3":12.0,"so2":5.9,"mosquito_risk":7,"arthritis_risk":0,"migraine_risk":4,"frizz_risk":1,"updated_at":"2026-07-24T23:49:48.711510+05:30"},{"city":"Thiruvananthapuram","state":"Kerala","latitude":8.5241,"longitude":76.9366,"temp":25.3,"humidity":93,"rain":0.0,"pressure":1009.9,"uv_index":8.55,"wind_gusts":41.4,"aqi":51,"pm10":14.6,"pm2_5":10.1,"no2":7.3,"co":124.0,"o3":38.0,"so2":2.8,"mosquito_risk":7,"arthritis_risk":0,"migraine_risk":4,"frizz_risk":1,"updated_at":"2026-07-24T23:49:48.711516+05:30"},{"city":"Kozhikode","state":"Kerala","latitude":11.2588,"longitude":75.7804,"temp":24.7,"humidity":95,"rain":0.4,"pressure":1009.6,"uv_index":8.65,"wind_gusts":37.1,"aqi":39,"pm10":18.3,"pm2_5":8.4,"no2":2.9,"co":500.0,"o3":44.0,"so2":1.2,"mosquito_risk":6,"arthritis_risk":0,"migraine_risk":4,"frizz_risk":1,"updated_at":"2026-07-24T23:49:48.711521+05:30"},{"city":"Thrissur","state":"Kerala","latitude":10.5276,"longitude":76.2144,"temp":25.2,"humidity":96,"rain":0.0,"pressure":1008.8,"uv_index":8.65,"wind_gusts":34.6,"aqi":52,"pm10":27.8,"pm2_5":23.1,"no2":19.4,"co":430.0,"o3":17.0,"so2":5.9,"mosquito_risk":7,"arthritis_risk":0,"migraine_risk":4,"frizz_risk":1,"updated_at":"2026-07-24T23:49:48.711528+05:30"},{"city":"Kannur","state":"Kerala","latitude":11.8745,"longitude":75.3704,"temp":24.9,"humidity":98,"rain":0.0,"pressure":1008.8,"uv_index":8.7,"wind_gusts":35.3,"aqi":51,"pm10":19.8,"pm2_5":11.7,"no2":11.8,"co":282.0,"o3":24.0,"so2":2.5,"mosquito_risk":3,"arthritis_risk":0,"migraine_risk":4,"frizz_risk":1,"updated_at":"2026-07-24T23:49:48.711533+05:30"},{"city":"Patna","state":"Bihar","latitude":25.5941,"longitude":85.1376,"temp":26.8,"humidity":96,"rain":0.0,"pressure":996.3,"uv_index":5.7,"wind_gusts":21.6,"aqi":101,"pm10":43.7,"pm2_5":43.5,"no2":21.7,"co":446.0,"o3":63.0,"so2":11.9,"mosquito_risk":7,"arthritis_risk":5,"migraine_risk":3,"frizz_risk":1,"updated_at":"2026-07-24T23:49:48.711539+05:30"},{"city":"Gaya","state":"Bihar","latitude":24.7914,"longitude":85.0002,"temp":26.2,"humidity":97,"rain":0.1,"pressure":989.5,"uv_index":8.15,"wind_gusts":24.5,"aqi":91,"pm10":38.0,"pm2_5":37.8,"no2":14.6,"co":356.0,"o3":78.0,"so2":8.4,"mosquito_risk":10,"arthritis_risk":5,"migraine_risk":7,"frizz_risk":1,"updated_at":"2026-07-24T23:49:48.711544+05:30"},{"city":"Muzaffarpur","state":"Bihar","latitude":26.1209,"longitude":85.3647,"temp":26.4,"humidity":96,"rain":0.0,"pressure":996.6,"uv_index":6.65,"wind_gusts":26.3,"aqi":98,"pm10":40.9,"pm2_5":40.6,"no2":21.7,"co":486.0,"o3":61.0,"so2":10.3,"mosquito_risk":7,"arthritis_risk":5,"migraine_risk":7,"frizz_risk":1,"updated_at":"2026-07-24T23:49:48.711549+05:30"},{"city":"Bhagalpur","state":"Bihar","latitude":25.2425,"longitude":87.0117,"temp":27.1,"humidity":96,"rain":0.0,"pressure":996.7,"uv_index":6.35,"wind_gusts":25.6,"aqi":84,"pm10":26.1,"pm2_5":26.0,"no2":16.3,"co":280.0,"o3":57.0,"so2":7.7,"mosquito_risk":7,"arthritis_risk":5,"migraine_risk":7,"frizz_risk":1,"updated_at":"2026-07-24T23:49:48.711555+05:30"},{"city":"Ranchi","state":"Jharkhand","latitude":23.3441,"longitude":85.3096,"temp":22.6,"humidity":96,"rain":0.2,"pressure":933.3,"uv_index":6.45,"wind_gusts":31.7,"aqi":59,"pm10":14.4,"pm2_5":14.2,"no2":8.8,"co":351.0,"o3":66.0,"so2":4.3,"mosquito_risk":6,"arthritis_risk":5,"migraine_risk":7,"frizz_risk":1,"updated_at":"2026-07-24T23:49:48.711560+05:30"},{"city":"Jamshedpur","state":"Jharkhand","latitude":22.8046,"longitude":86.2029,"temp":25.4,"humidity":97,"rain":0.1,"pressure":986.2,"uv_index":7.15,"wind_gusts":32.0,"aqi":70,"pm10":19.7,"pm2_5":19.2,"no2":17.6,"co":301.0,"o3":54.0,"so2":18.4,"mosquito_risk":10,"arthritis_risk":5,"migraine_risk":7,"frizz_risk":1,"updated_at":"2026-07-24T23:49:48.711566+05:30"},{"city":"Dhanbad","state":"Jharkhand","latitude":23.7957,"longitude":86.4304,"temp":25.2,"humidity":96,"rain":0.0,"pressure":974.8,"uv_index":6.6,"wind_gusts":29.2,"aqi":95,"pm10":54.0,"pm2_5":53.4,"no2":38.4,"co":253.0,"o3":55.0,"so2":92.0,"mosquito_risk":7,"arthritis_risk":5,"migraine_risk":7,"frizz_risk":1,"updated_at":"2026-07-24T23:49:48.711571+05:30"},{"city":"Bokaro","state":"Jharkhand","latitude":23.6693,"longitude":86.1511,"temp":25.3,"humidity":98,"rain":0.0,"pressure":979.0,"uv_index":8.25,"wind_gusts":39.6,"aqi":91,"pm10":51.7,"pm2_5":51.0,"no2":38.4,"co":279.0,"o3":52.0,"so2":95.4,"mosquito_risk":7,"arthritis_risk":5,"migraine_risk":7,"frizz_risk":1,"updated_at":"2026-07-24T23:49:48.711576+05:30"},{"city":"Bhubaneswar","state":"Odisha","latitude":20.2961,"longitude":85.8245,"temp":26.2,"humidity":96,"rain":0.2,"pressure":998.0,"uv_index":8.75,"wind_gusts":37.4,"aqi":72,"pm10":35.3,"pm2_5":28.9,"no2":13.5,"co":355.0,"o3":70.0,"so2":7.1,"mosquito_risk":10,"arthritis_risk":5,"migraine_risk":7,"frizz_risk":1,"updated_at":"2026-07-24T23:49:48.711582+05:30"},{"city":"Cuttack","state":"Odisha","latitude":20.4625,"longitude":85.8828,"temp":26.6,"humidity":96,"rain":0.1,"pressure":999.7,"uv_index":8.5,"wind_gusts":41.0,"aqi":72,"pm10":35.3,"pm2_5":28.9,"no2":13.5,"co":358.0,"o3":70.0,"so2":7.1,"mosquito_risk":10,"arthritis_risk":5,"migraine_risk":7,"frizz_risk":1,"updated_at":"2026-07-24T23:49:48.711587+05:30"},{"city":"Rourkela","state":"Odisha","latitude":22.2604,"longitude":84.8536,"temp":25.7,"humidity":92,"rain":0.1,"pressure":980.4,"uv_index":8.15,"wind_gusts":38.5,"aqi":74,"pm10":27.8,"pm2_5":26.5,"no2":13.8,"co":780.0,"o3":73.0,"so2":8.8,"mosquito_risk":10,"arthritis_risk":5,"migraine_risk":7,"frizz_risk":1,"updated_at":"2026-07-24T23:49:48.711593+05:30"},{"city":"Raipur","state":"Chhattisgarh","latitude":21.2514,"longitude":81.6296,"temp":26.6,"humidity":82,"rain":0.0,"pressure":970.5,"uv_index":7.1,"wind_gusts":44.3,"aqi":72,"pm10":26.8,"pm2_5":21.4,"no2":26.3,"co":499.0,"o3":44.0,"so2":42.9,"mosquito_risk":7,"arthritis_risk":5,"migraine_risk":7,"frizz_risk":1,"updated_at":"2026-07-24T23:49:48.711598+05:30"},{"city":"Bhilai","state":"Chhattisgarh","latitude":21.1938,"longitude":81.3509,"temp":26.3,"humidity":85,"rain":0.0,"pressure":970.9,"uv_index":7.95,"wind_gusts":49.3,"aqi":69,"pm10":22.8,"pm2_5":17.9,"no2":19.9,"co":516.0,"o3":53.0,"so2":33.4,"mosquito_risk":7,"arthritis_risk":5,"migraine_risk":7,"frizz_risk":1,"updated_at":"2026-07-24T23:49:48.711603+05:30"},{"city":"Guwahati","state":"Assam","latitude":26.1158,"longitude":91.7086,"temp":26.6,"humidity":97,"rain":0.0,"pressure":998.1,"uv_index":8.35,"wind_gusts":19.8,"aqi":53,"pm10":15.8,"pm2_5":15.5,"no2":12.3,"co":261.0,"o3":31.0,"so2":2.3,"mosquito_risk":7,"arthritis_risk":5,"migraine_risk":7,"frizz_risk":1,"updated_at":"2026-07-24T23:49:48.711608+05:30"},{"city":"Agartala","state":"Tripura","latitude":23.8315,"longitude":91.2868,"temp":25.7,"humidity":92,"rain":0.0,"pressure":1002.9,"uv_index":7.35,"wind_gusts":35.6,"aqi":49,"pm10":9.4,"pm2_5":8.5,"no2":9.5,"co":164.0,"o3":49.0,"so2":2.5,"mosquito_risk":7,"arthritis_risk":5,"migraine_risk":4,"frizz_risk":1,"updated_at":"2026-07-24T23:49:48.711613+05:30"},{"city":"Shillong","state":"Meghalaya","latitude":25.5788,"longitude":91.8933,"temp":20.4,"humidity":91,"rain":0.0,"pressure":855.9,"uv_index":5.85,"wind_gusts":31.0,"aqi":27,"pm10":7.4,"pm2_5":7.1,"no2":6.6,"co":202.0,"o3":51.0,"so2":2.7,"mosquito_risk":3,"arthritis_risk":5,"migraine_risk":3,"frizz_risk":1,"updated_at":"2026-07-24T23:49:48.711618+05:30"},{"city":"Imphal","state":"Manipur","latitude":24.817,"longitude":93.9368,"temp":22.2,"humidity":98,"rain":0.0,"pressure":920.6,"uv_index":9.05,"wind_gusts":20.2,"aqi":45,"pm10":15.3,"pm2_5":14.7,"no2":18.3,"co":537.0,"o3":30.0,"so2":3.2,"mosquito_risk":3,"arthritis_risk":5,"migraine_risk":7,"frizz_risk":1,"updated_at":"2026-07-24T23:49:48.711624+05:30"},{"city":"Aizawl","state":"Mizoram","latitude":23.7271,"longitude":92.7176,"temp":19.7,"humidity":92,"rain":0.0,"pressure":889.9,"uv_index":8.5,"wind_gusts":34.6,"aqi":18,"pm10":5.5,"pm2_5":4.7,"no2":6.3,"co":132.0,"o3":25.0,"so2":0.5,"mosquito_risk":3,"arthritis_risk":10,"migraine_risk":7,"frizz_risk":1,"updated_at":"2026-07-24T23:49:48.711629+05:30"},{"city":"Kohima","state":"Nagaland","latitude":25.6701,"longitude":94.1077,"temp":19.5,"humidity":95,"rain":0.1,"pressure":853.5,"uv_index":8.65,"wind_gusts":20.9,"aqi":26,"pm10":4.8,"pm2_5":4.7,"no2":8.4,"co":195.0,"o3":37.0,"so2":0.7,"mosquito_risk":6,"arthritis_risk":10,"migraine_risk":7,"frizz_risk":1,"updated_at":"2026-07-24T23:49:48.711634+05:30"},{"city":"Gangtok","state":"Sikkim","latitude":27.3314,"longitude":88.6138,"temp":18.8,"humidity":95,"rain":0.0,"pressure":837.2,"uv_index":7.5,"wind_gusts":32.4,"aqi":41,"pm10":6.4,"pm2_5":6.1,"no2":4.2,"co":261.0,"o3":90.0,"so2":1.6,"mosquito_risk":3,"arthritis_risk":10,"migraine_risk":7,"frizz_risk":1,"updated_at":"2026-07-24T23:49:48.711640+05:30"},{"city":"Siliguri","state":"West Bengal","latitude":26.7271,"longitude":88.3953,"temp":26.8,"humidity":89,"rain":0.0,"pressure":989.6,"uv_index":7.65,"wind_gusts":27.7,"aqi":65,"pm10":20.8,"pm2_5":20.2,"no2":13.5,"co":507.0,"o3":74.0,"so2":5.6,"mosquito_risk":7,"arthritis_risk":5,"migraine_risk":7,"frizz_risk":1,"updated_at":"2026-07-24T23:49:52.020043+05:30"},{"city":"Durgapur","state":"West Bengal","latitude":23.5204,"longitude":87.3119,"temp":25.4,"humidity":99,"rain":0.1,"pressure":989.9,"uv_index":7.9,"wind_gusts":27.4,"aqi":121,"pm10":64.7,"pm2_5":64.5,"no2":39.5,"co":1398.0,"o3":51.0,"so2":42.9,"mosquito_risk":10,"arthritis_risk":5,"migraine_risk":7,"frizz_risk":1,"updated_at":"2026-07-24T23:49:52.020079+05:30"},{"city":"Asansol","state":"West Bengal","latitude":23.6739,"longitude":86.9524,"temp":25.9,"humidity":97,"rain":0.2,"pressure":988.6,"uv_index":8.05,"wind_gusts":25.9,"aqi":93,"pm10":51.3,"pm2_5":51.2,"no2":34.7,"co":629.0,"o3":64.0,"so2":36.9,"mosquito_risk":10,"arthritis_risk":5,"migraine_risk":7,"frizz_risk":1,"updated_at":"2026-07-24T23:49:52.020087+05:30"},{"city":"Pondicherry","state":"Puducherry","latitude":11.9139,"longitude":79.8145,"temp":28.4,"humidity":85,"rain":0.0,"pressure":1007.8,"uv_index":8.2,"wind_gusts":41.4,"aqi":66,"pm10":27.9,"pm2_5":19.7,"no2":9.0,"co":346.0,"o3":101.0,"so2":10.2,"mosquito_risk":7,"arthritis_risk":5,"migraine_risk":4,"frizz_risk":1,"updated_at":"2026-07-24T23:49:52.020095+05:30"},{"city":"Port Blair","state":"Andaman and Nicobar Islands","latitude":11.6234,"longitude":92.7265,"temp":27.5,"humidity":80,"rain":0.0,"pressure":1006.5,"uv_index":8.75,"wind_gusts":44.6,"aqi":43,"pm10":17.5,"pm2_5":10.2,"no2":0.2,"co":91.0,"o3":44.0,"so2":0.4,"mosquito_risk":7,"arthritis_risk":5,"migraine_risk":4,"frizz_risk":1,"updated_at":"2026-07-24T23:49:52.020101+05:30"},{"city":"Haridwar","state":"Uttarakhand","latitude":29.9457,"longitude":78.1642,"temp":27.4,"humidity":84,"rain":0.0,"pressure":969.6,"uv_index":6.3,"wind_gusts":39.2,"aqi":77,"pm10":28.6,"pm2_5":28.5,"no2":13.1,"co":297.0,"o3":73.0,"so2":8.3,"mosquito_risk":7,"arthritis_risk":5,"migraine_risk":7,"frizz_risk":1,"updated_at":"2026-07-24T23:49:52.020107+05:30"},{"city":"Rishikesh","state":"Uttarakhand","latitude":30.0869,"longitude":78.2676,"temp":26.6,"humidity":92,"rain":0.0,"pressure":962.4,"uv_index":6.0,"wind_gusts":25.9,"aqi":63,"pm10":21.7,"pm2_5":21.7,"no2":10.9,"co":327.0,"o3":79.0,"so2":5.4,"mosquito_risk":7,"arthritis_risk":5,"migraine_risk":3,"frizz_risk":1,"updated_at":"2026-07-24T23:49:52.020113+05:30"},{"city":"Nainital","state":"Uttarakhand","latitude":29.3919,"longitude":79.4542,"temp":16.7,"humidity":97,"rain":0.0,"pressure":803.6,"uv_index":7.6,"wind_gusts":45.0,"aqi":60,"pm10":19.8,"pm2_5":19.8,"no2":13.6,"co":301.0,"o3":54.0,"so2":2.8,"mosquito_risk":3,"arthritis_risk":10,"migraine_risk":7,"frizz_risk":1,"updated_at":"2026-07-24T23:49:52.020119+05:30"},{"city":"Mussoorie","state":"Uttarakhand","latitude":30.4599,"longitude":78.0664,"temp":16.3,"humidity":99,"rain":0.1,"pressure":800.7,"uv_index":6.1,"wind_gusts":33.5,"aqi":69,"pm10":16.9,"pm2_5":16.8,"no2":24.5,"co":241.0,"o3":64.0,"so2":6.1,"mosquito_risk":6,"arthritis_risk":10,"migraine_risk":7,"frizz_risk":1,"updated_at":"2026-07-24T23:49:52.020124+05:30"},{"city":"Dharamshala","state":"Himachal Pradesh","latitude":32.219,"longitude":76.3234,"temp":22.4,"humidity":85,"rain":0.0,"pressure":866.4,"uv_index":6.9,"wind_gusts":32.0,"aqi":40,"pm10":5.2,"pm2_5":5.2,"no2":15.7,"co":455.0,"o3":36.0,"so2":0.9,"mosquito_risk":3,"arthritis_risk":5,"migraine_risk":7,"frizz_risk":1,"updated_at":"2026-07-24T23:49:52.020129+05:30"},{"city":"Dalhousie","state":"Himachal Pradesh","latitude":32.5387,"longitude":75.971,"temp":17.2,"humidity":96,"rain":0.1,"pressure":802.2,"uv_index":8.6,"wind_gusts":30.2,"aqi":71,"pm10":25.8,"pm2_5":25.6,"no2":31.9,"co":528.0,"o3":65.0,"so2":3.6,"mosquito_risk":6,"arthritis_risk":10,"migraine_risk":7,"frizz_risk":1,"updated_at":"2026-07-24T23:49:52.020136+05:30"},{"city":"Patiala","state":"Punjab","latitude":30.3398,"longitude":76.3869,"temp":27.8,"humidity":87,"rain":0.0,"pressure":972.6,"uv_index":7.3,"wind_gusts":38.9,"aqi":83,"pm10":31.1,"pm2_5":31.1,"no2":17.0,"co":437.0,"o3":79.0,"so2":9.6,"mosquito_risk":7,"arthritis_risk":5,"migraine_risk":7,"frizz_risk":1,"updated_at":"2026-07-24T23:49:52.020141+05:30"},{"city":"Bhatinda","state":"Punjab","latitude":30.211,"longitude":74.9455,"temp":28.1,"humidity":88,"rain":0.0,"pressure":977.2,"uv_index":7.95,"wind_gusts":36.0,"aqi":100,"pm10":31.5,"pm2_5":31.5,"no2":17.4,"co":461.0,"o3":79.0,"so2":8.1,"mosquito_risk":7,"arthritis_risk":5,"migraine_risk":7,"frizz_risk":1,"updated_at":"2026-07-24T23:49:52.020147+05:30"},{"city":"Rohtak","state":"Haryana","latitude":28.8955,"longitude":76.6066,"temp":27.1,"humidity":94,"rain":0.0,"pressure":975.4,"uv_index":4.5,"wind_gusts":34.6,"aqi":84,"pm10":25.5,"pm2_5":25.4,"no2":33.3,"co":474.0,"o3":54.0,"so2":21.5,"mosquito_risk":7,"arthritis_risk":5,"migraine_risk":3,"frizz_risk":1,"updated_at":"2026-07-24T23:49:52.020152+05:30"},{"city":"Panipat","state":"Haryana","latitude":29.3909,"longitude":76.9635,"temp":27.3,"humidity":89,"rain":0.0,"pressure":974.7,"uv_index":5.6,"wind_gusts":45.4,"aqi":82,"pm10":25.0,"pm2_5":25.0,"no2":21.4,"co":341.0,"o3":65.0,"so2":13.1,"mosquito_risk":7,"arthritis_risk":5,"migraine_risk":3,"frizz_risk":1,"updated_at":"2026-07-24T23:49:52.020157+05:30"},{"city":"Mathura","state":"Uttar Pradesh","latitude":27.4924,"longitude":77.6737,"temp":29.2,"humidity":74,"rain":0.0,"pressure":980.2,"uv_index":6.5,"wind_gusts":33.1,"aqi":75,"pm10":22.8,"pm2_5":21.7,"no2":25.5,"co":362.0,"o3":42.0,"so2":5.8,"mosquito_risk":7,"arthritis_risk":5,"migraine_risk":7,"frizz_risk":1,"updated_at":"2026-07-24T23:49:52.020163+05:30"},{"city":"Vrindavan","state":"Uttar Pradesh","latitude":27.5823,"longitude":77.7027,"temp":29.2,"humidity":73,"rain":0.0,"pressure":980.7,"uv_index":6.5,"wind_gusts":32.4,"aqi":75,"pm10":22.8,"pm2_5":21.7,"no2":25.5,"co":312.0,"o3":42.0,"so2":5.8,"mosquito_risk":7,"arthritis_risk":5,"migraine_risk":7,"frizz_risk":1,"updated_at":"2026-07-24T23:49:52.020168+05:30"},{"city":"Ayodhya","state":"Uttar Pradesh","latitude":26.7922,"longitude":82.1998,"temp":27.2,"humidity":96,"rain":0.0,"pressure":991.1,"uv_index":7.1,"wind_gusts":22.7,"aqi":93,"pm10":44.8,"pm2_5":44.8,"no2":18.8,"co":574.0,"o3":66.0,"so2":8.0,"mosquito_risk":7,"arthritis_risk":5,"migraine_risk":7,"frizz_risk":1,"updated_at":"2026-07-24T23:49:52.020173+05:30"},{"city":"Ratlam","state":"Madhya Pradesh","latitude":23.3315,"longitude":75.0367,"temp":23.1,"humidity":97,"rain":0.1,"pressure":947.8,"uv_index":4.75,"wind_gusts":54.0,"aqi":35,"pm10":15.8,"pm2_5":11.1,"no2":8.8,"co":172.0,"o3":46.0,"so2":9.5,"mosquito_risk":6,"arthritis_risk":5,"migraine_risk":3,"frizz_risk":1,"updated_at":"2026-07-24T23:49:52.020178+05:30"},{"city":"Sagar","state":"Madhya Pradesh","latitude":23.8388,"longitude":78.7378,"temp":25.8,"humidity":82,"rain":0.0,"pressure":945.0,"uv_index":7.55,"wind_gusts":36.0,"aqi":34,"pm10":7.6,"pm2_5":6.2,"no2":5.3,"co":155.0,"o3":58.0,"so2":3.1,"mosquito_risk":7,"arthritis_risk":5,"migraine_risk":7,"frizz_risk":1,"updated_at":"2026-07-24T23:49:52.020183+05:30"},{"city":"Satna","state":"Madhya Pradesh","latitude":24.6005,"longitude":80.8322,"temp":27.1,"humidity":85,"rain":0.0,"pressure":966.1,"uv_index":7.25,"wind_gusts":29.9,"aqi":48,"pm10":11.9,"pm2_5":11.5,"no2":15.1,"co":348.0,"o3":39.0,"so2":4.8,"mosquito_risk":7,"arthritis_risk":5,"migraine_risk":7,"frizz_risk":1,"updated_at":"2026-07-24T23:49:52.020188+05:30"},{"city":"Akola","state":"Maharashtra","latitude":20.7002,"longitude":77.0082,"temp":25.7,"humidity":90,"rain":0.0,"pressure":970.7,"uv_index":7.55,"wind_gusts":47.5,"aqi":35,"pm10":12.7,"pm2_5":9.6,"no2":10.5,"co":180.0,"o3":41.0,"so2":4.8,"mosquito_risk":7,"arthritis_risk":5,"migraine_risk":7,"frizz_risk":1,"updated_at":"2026-07-24T23:49:52.020194+05:30"},{"city":"Amravati","state":"Maharashtra","latitude":20.9374,"longitude":77.7796,"temp":25.6,"humidity":91,"rain":0.1,"pressure":963.1,"uv_index":7.5,"wind_gusts":51.1,"aqi":35,"pm10":13.0,"pm2_5":9.6,"no2":10.7,"co":285.0,"o3":43.0,"so2":4.6,"mosquito_risk":10,"arthritis_risk":5,"migraine_risk":7,"frizz_risk":1,"updated_at":"2026-07-24T23:49:52.020200+05:30"},{"city":"Latur","state":"Maharashtra","latitude":18.4088,"longitude":76.5604,"temp":24.3,"humidity":78,"rain":0.0,"pressure":936.7,"uv_index":6.3,"wind_gusts":63.7,"aqi":29,"pm10":8.8,"pm2_5":5.9,"no2":3.9,"co":130.0,"o3":35.0,"so2":1.7,"mosquito_risk":3,"arthritis_risk":5,"migraine_risk":7,"frizz_risk":1,"updated_at":"2026-07-24T23:49:52.020206+05:30"},{"city":"Nanded","state":"Maharashtra","latitude":19.1383,"longitude":77.3091,"temp":26.2,"humidity":75,"rain":0.0,"pressure":965.4,"uv_index":7.05,"wind_gusts":52.9,"aqi":35,"pm10":8.8,"pm2_5":6.3,"no2":6.1,"co":148.0,"o3":36.0,"so2":3.7,"mosquito_risk":7,"arthritis_risk":5,"migraine_risk":7,"frizz_risk":1,"updated_at":"2026-07-24T23:49:52.020212+05:30"},{"city":"Gulbarga","state":"Karnataka","latitude":17.3297,"longitude":76.8343,"temp":25.0,"humidity":76,"rain":0.0,"pressure":956.9,"uv_index":6.7,"wind_gusts":58.3,"aqi":48,"pm10":9.4,"pm2_5":6.3,"no2":5.8,"co":129.0,"o3":34.0,"so2":2.4,"mosquito_risk":7,"arthritis_risk":5,"migraine_risk":7,"frizz_risk":1,"updated_at":"2026-07-24T23:49:52.020217+05:30"},{"city":"Bidar","state":"Karnataka","latitude":17.9104,"longitude":77.5199,"temp":24.6,"humidity":73,"rain":0.0,"pressure":933.1,"uv_index":4.25,"wind_gusts":60.1,"aqi":47,"pm10":10.5,"pm2_5":7.0,"no2":5.6,"co":127.0,"o3":38.0,"so2":2.0,"mosquito_risk":3,"arthritis_risk":5,"migraine_risk":3,"frizz_risk":1,"updated_at":"2026-07-24T23:49:52.020222+05:30"},{"city":"Hospet","state":"Karnataka","latitude":15.2689,"longitude":76.3909,"temp":23.7,"humidity":84,"rain":0.0,"pressure":955.0,"uv_index":8.95,"wind_gusts":59.0,"aqi":48,"pm10":3.5,"pm2_5":2.7,"no2":4.9,"co":118.0,"o3":32.0,"so2":1.7,"mosquito_risk":3,"arthritis_risk":5,"migraine_risk":7,"frizz_risk":1,"updated_at":"2026-07-24T23:49:52.020227+05:30"},{"city":"Tirupur","state":"Tamil Nadu","latitude":11.1085,"longitude":77.3411,"temp":24.5,"humidity":90,"rain":0.0,"pressure":975.8,"uv_index":8.9,"wind_gusts":46.1,"aqi":55,"pm10":31.2,"pm2_5":22.8,"no2":26.2,"co":181.0,"o3":21.0,"so2":6.4,"mosquito_risk":3,"arthritis_risk":5,"migraine_risk":7,"frizz_risk":1,"updated_at":"2026-07-24T23:49:52.020233+05:30"},{"city":"Alappuzha","state":"Kerala","latitude":9.4981,"longitude":76.3388,"temp":25.3,"humidity":95,"rain":0.2,"pressure":1010.9,"uv_index":8.65,"wind_gusts":31.7,"aqi":55,"pm10":17.6,"pm2_5":12.2,"no2":11.8,"co":87.0,"o3":33.0,"so2":4.1,"mosquito_risk":10,"arthritis_risk":0,"migraine_risk":4,"frizz_risk":1,"updated_at":"2026-07-24T23:49:52.020238+05:30"},{"city":"Munnar","state":"Kerala","latitude":10.0889,"longitude":77.0595,"temp":16.4,"humidity":90,"rain":0.0,"pressure":857.4,"uv_index":9.05,"wind_gusts":36.0,"aqi":32,"pm10":14.1,"pm2_5":10.0,"no2":10.9,"co":105.0,"o3":25.0,"so2":2.3,"mosquito_risk":3,"arthritis_risk":10,"migraine_risk":7,"frizz_risk":0,"updated_at":"2026-07-24T23:49:52.020243+05:30"},{"city":"Silchar","state":"Assam","latitude":24.8333,"longitude":92.7789,"temp":26.1,"humidity":97,"rain":0.1,"pressure":1002.3,"uv_index":8.75,"wind_gusts":20.9,"aqi":56,"pm10":24.6,"pm2_5":23.0,"no2":10.4,"co":207.0,"o3":64.0,"so2":8.2,"mosquito_risk":10,"arthritis_risk":5,"migraine_risk":4,"frizz_risk":1,"updated_at":"2026-07-24T23:49:52.020249+05:30"},{"city":"Dibrugarh","state":"Assam","latitude":27.4728,"longitude":94.912,"temp":27.0,"humidity":97,"rain":0.0,"pressure":992.0,"uv_index":8.4,"wind_gusts":21.2,"aqi":54,"pm10":14.5,"pm2_5":13.9,"no2":12.6,"co":210.0,"o3":47.0,"so2":1.8,"mosquito_risk":7,"arthritis_risk":5,"migraine_risk":7,"frizz_risk":1,"updated_at":"2026-07-24T23:49:52.020254+05:30"}]