[{"city":"Delhi","state":"Delhi","latitude":28.6139,"longitude":77.209,"temp":28.2,"humidity":51,"rain":0.0,"pressure":982.7,"uv_index":6.8,"wind_gusts":29.2,"aqi":173,"pm10":198.8,"pm2_5":70.1,"mosquito_risk":4,"arthritis_risk":5,"migraine_risk":7,"frizz_risk":1,"updated_at":"2026-04-17T23:22:13.912639+05:30"},{"city":"Mumbai","state":"Maharashtra","latitude":19.076,"longitude":72.8777,"temp":30.0,"humidity":77,"rain":0.0,"pressure":1008.0,"uv_index":7.05,"wind_gusts":22.3,"aqi":96,"pm10":76.1,"pm2_5":25.3,"mosquito_risk":7,"arthritis_risk":0,"migraine_risk":4,"frizz_risk":1,"updated_at":"2026-04-17T23:22:13.912686+05:30"},{"city":"Bangalore","state":"Karnataka","latitude":12.9716,"longitude":77.5946,"temp":26.7,"humidity":60,"rain":0.0,"pressure":912.6,"uv_index":9.2,"wind_gusts":34.9,"aqi":104,"pm10":30.9,"pm2_5":28.5,"mosquito_risk":4,"arthritis_risk":5,"migraine_risk":7,"frizz_risk":1,"updated_at":"2026-04-17T23:22:13.912700+05:30"},{"city":"Hyderabad","state":"Telangana","latitude":17.385,"longitude":78.4867,"temp":29.5,"humidity":61,"rain":0.0,"pressure":953.8,"uv_index":9.2,"wind_gusts":40.0,"aqi":126,"pm10":39.6,"pm2_5":36.8,"mosquito_risk":7,"arthritis_risk":5,"migraine_risk":7,"frizz_risk":1,"updated_at":"2026-04-17T23:22:13.912710+05:30"},{"city":"Chennai","state":"Tamil Nadu","latitude":13.0827,"longitude":80.2707,"temp":28.7,"humidity":83,"rain":0.0,"pressure":1008.0,"uv_index":8.95,"wind_gusts":33.1,"aqi":35,"pm10":11.9,"pm2_5":8.2,"mosquito_risk":7,"arthritis_risk":0,"migraine_risk":4,"frizz_risk":1,"updated_at":"2026-04-17T23:22:13.912718+05:30"},{"city":"Kolkata","state":"West Bengal","latitude":22.5726,"longitude":88.3639,"temp":27.3,"humidity":93,"rain":0.0,"pressure":1006.3,"uv_index":8.85,"wind_gusts":19.8,"aqi":63,"pm10":16.5,"pm2_5":14.1,"mosquito_risk":7,"arthritis_risk":5,"migraine_risk":4,"frizz_risk":1,"updated_at":"2026-04-17T23:22:13.912740+05:30"},{"city":"Pune","state":"Maharashtra","latitude":18.5204,"longitude":73.8567,"temp":27.3,"humidity":70,"rain":0.0,"pressure":948.8,"uv_index":7.85,"wind_gusts":42.1,"aqi":159,"pm10":45.5,"pm2_5":32.9,"mosquito_risk":7,"arthritis_risk":5,"migraine_risk":7,"frizz_risk":1,"updated_at":"2026-04-17T23:22:13.912747+05:30"},{"city":"Ahmedabad","state":"Gujarat","latitude":23.0225,"longitude":72.5714,"temp":30.8,"humidity":35,"rain":0.0,"pressure":1001.6,"uv_index":7.55,"wind_gusts":21.6,"aqi":64,"pm10":78.2,"pm2_5":57.7,"mosquito_risk":0,"arthritis_risk":5,"migraine_risk":4,"frizz_risk":0,"updated_at":"2026-04-17T23:22:13.912754+05:30"},{"city":"Jaipur","state":"Rajasthan","latitude":26.9124,"longitude":75.7873,"temp":30.4,"humidity":36,"rain":0.0,"pressure":959.7,"uv_index":7.55,"wind_gusts":28.4,"aqi":84,"pm10":115.0,"pm2_5":47.3,"mosquito_risk":0,"arthritis_risk":5,"migraine_risk":7,"frizz_risk":0,"updated_at":"2026-04-17T23:22:13.912761+05:30"},{"city":"Lucknow","state":"Uttar Pradesh","latitude":26.8467,"longitude":80.9462,"temp":28.8,"humidity":43,"rain":0.0,"pressure":992.5,"uv_index":7.35,"wind_gusts":19.4,"aqi":116,"pm10":130.9,"pm2_5":47.6,"mosquito_risk":4,"arthritis_risk":5,"migraine_risk":7,"frizz_risk":0,"updated_at":"2026-04-17T23:22:13.912767+05:30"},{"city":"Kanpur","state":"Uttar Pradesh","latitude":26.4499,"longitude":80.3319,"temp":27.3,"humidity":54,"rain":0.0,"pressure":990.3,"uv_index":7.85,"wind_gusts":15.8,"aqi":111,"pm10":197.0,"pm2_5":44.0,"mosquito_risk":4,"arthritis_risk":5,"migraine_risk":7,"frizz_risk":1,"updated_at":"2026-04-17T23:22:13.912773+05:30"},{"city":"Chandigarh","state":"Chandigarh","latitude":30.7333,"longitude":76.7794,"temp":23.6,"humidity":56,"rain":0.0,"pressure":969.4,"uv_index":7.2,"wind_gusts":34.2,"aqi":76,"pm10":26.0,"pm2_5":18.1,"mosquito_risk":0,"arthritis_risk":5,"migraine_risk":7,"frizz_risk":0,"updated_at":"2026-04-17T23:22:13.912780+05:30"},{"city":"Srinagar","state":"Jammu and Kashmir","latitude":34.0837,"longitude":74.7973,"temp":10.4,"humidity":92,"rain":0.0,"pressure":844.8,"uv_index":5.75,"wind_gusts":25.6,"aqi":72,"pm10":53.7,"pm2_5":51.2,"mosquito_risk":3,"arthritis_risk":10,"migraine_risk":3,"frizz_risk":0,"updated_at":"2026-04-17T23:22:13.912786+05:30"},{"city":"Jammu","state":"Jammu and Kashmir","latitude":32.7266,"longitude":74.857,"temp":23.6,"humidity":52,"rain":0.0,"pressure":974.4,"uv_index":4.95,"wind_gusts":47.9,"aqi":63,"pm10":40.3,"pm2_5":29.3,"mosquito_risk":0,"arthritis_risk":5,"migraine_risk":3,"frizz_risk":0,"updated_at":"2026-04-17T23:22:13.912793+05:30"},{"city":"Amritsar","state":"Punjab","latitude":31.634,"longitude":74.8723,"temp":23.5,"humidity":54,"rain":0.0,"pressure":982.0,"uv_index":7.25,"wind_gusts":32.0,"aqi":78,"pm10":32.5,"pm2_5":21.7,"mosquito_risk":0,"arthritis_risk":5,"migraine_risk":7,"frizz_risk":0,"updated_at":"2026-04-17T23:22:13.912799+05:30"},{"city":"Ludhiana","state":"Punjab","latitude":30.901,"longitude":75.8573,"temp":24.8,"humidity":46,"rain":0.0,"pressure":979.9,"uv_index":7.4,"wind_gusts":38.5,"aqi":81,"pm10":34.6,"pm2_5":20.6,"mosquito_risk":0,"arthritis_risk":5,"migraine_risk":7,"frizz_risk":0,"updated_at":"2026-04-17T23:22:13.912806+05:30"},{"city":"Jalandhar","state":"Punjab","latitude":31.326,"longitude":75.5762,"temp":23.4,"humidity":47,"rain":0.0,"pressure":981.4,"uv_index":6.85,"wind_gusts":38.2,"aqi":75,"pm10":50.5,"pm2_5":19.3,"mosquito_risk":0,"arthritis_risk":5,"migraine_risk":7,"frizz_risk":0,"updated_at":"2026-04-17T23:22:13.912812+05:30"},{"city":"Dehradun","state":"Uttarakhand","latitude":30.6284,"longitude":78.0322,"temp":17.9,"humidity":47,"rain":0.0,"pressure":833.4,"uv_index":6.8,"wind_gusts":33.5,"aqi":62,"pm10":27.1,"pm2_5":12.3,"mosquito_risk":0,"arthritis_risk":5,"migraine_risk":7,"frizz_risk":0,"updated_at":"2026-04-17T23:22:13.912817+05:30"},{"city":"Shimla","state":"Himachal Pradesh","latitude":31.1048,"longitude":77.1734,"temp":14.6,"humidity":58,"rain":0.0,"pressure":787.1,"uv_index":6.95,"wind_gusts":36.7,"aqi":67,"pm10":27.4,"pm2_5":14.6,"mosquito_risk":0,"arthritis_risk":5,"migraine_risk":7,"frizz_risk":0,"updated_at":"2026-04-17T23:22:13.912823+05:30"},{"city":"Manali","state":"Himachal Pradesh","latitude":32.2396,"longitude":77.1887,"temp":14.9,"humidity":75,"rain":0.0,"pressure":823.2,"uv_index":9.45,"wind_gusts":32.8,"aqi":84,"pm10":7.0,"pm2_5":5.3,"mosquito_risk":3,"arthritis_risk":5,"migraine_risk":7,"frizz_risk":0,"updated_at":"2026-04-17T23:22:13.912828+05:30"},{"city":"Gurgaon","state":"Haryana","latitude":28.4595,"longitude":77.0266,"temp":26.0,"humidity":60,"rain":0.0,"pressure":981.1,"uv_index":6.75,"wind_gusts":25.6,"aqi":393,"pm10":724.6,"pm2_5":122.0,"mosquito_risk":4,"arthritis_risk":5,"migraine_risk":7,"frizz_risk":1,"updated_at":"2026-04-17T23:22:13.912834+05:30"},{"city":"Noida","state":"Uttar Pradesh","latitude":28.5355,"longitude":77.391,"temp":27.6,"humidity":54,"rain":0.0,"pressure":984.2,"uv_index":6.8,"wind_gusts":23.0,"aqi":393,"pm10":724.6,"pm2_5":122.0,"mosquito_risk":4,"arthritis_risk":5,"migraine_risk":7,"frizz_risk":1,"updated_at":"2026-04-17T23:22:13.912840+05:30"},{"city":"Ghaziabad","state":"Uttar Pradesh","latitude":28.6692,"longitude":77.4538,"temp":26.3,"humidity":60,"rain":0.0,"pressure":982.3,"uv_index":6.65,"wind_gusts":27.4,"aqi":164,"pm10":97.3,"pm2_5":54.9,"mosquito_risk":4,"arthritis_risk":5,"migraine_risk":7,"frizz_risk":1,"updated_at":"2026-04-17T23:22:13.912846+05:30"},{"city":"Faridabad","state":"Haryana","latitude":28.4089,"longitude":77.3178,"temp":27.4,"humidity":52,"rain":0.0,"pressure":983.5,"uv_index":6.7,"wind_gusts":34.2,"aqi":393,"pm10":724.6,"pm2_5":122.0,"mosquito_risk":4,"arthritis_risk":5,"migraine_risk":7,"frizz_risk":1,"updated_at":"2026-04-17T23:22:13.912852+05:30"},{"city":"Meerut","state":"Uttar Pradesh","latitude":28.9845,"longitude":77.7064,"temp":25.8,"humidity":58,"rain":0.0,"pressure":981.1,"uv_index":6.4,"wind_gusts":16.2,"aqi":164,"pm10":97.3,"pm2_5":54.9,"mosquito_risk":4,"arthritis_risk":5,"migraine_risk":7,"frizz_risk":1,"updated_at":"2026-04-17T23:22:13.912858+05:30"},{"city":"Agra","state":"Uttar Pradesh","latitude":27.1767,"longitude":78.0081,"temp":28.1,"humidity":44,"rain":0.0,"pressure":987.0,"uv_index":6.4,"wind_gusts":17.6,"aqi":221,"pm10":1110.1,"pm2_5":131.3,"mosquito_risk":4,"arthritis_risk":5,"migraine_risk":7,"frizz_risk":0,"updated_at":"2026-04-17T23:22:13.912865+05:30"},{"city":"Varanasi","state":"Uttar Pradesh","latitude":25.3176,"longitude":82.9739,"temp":28.0,"humidity":50,"rain":0.0,"pressure":996.5,"uv_index":8.45,"wind_gusts":23.8,"aqi":129,"pm10":78.2,"pm2_5":49.4,"mosquito_risk":4,"arthritis_risk":5,"migraine_risk":7,"frizz_risk":1,"updated_at":"2026-04-17T23:22:13.912871+05:30"},{"city":"Prayagraj","state":"Uttar Pradesh","latitude":25.4358,"longitude":81.8463,"temp":28.5,"humidity":51,"rain":0.0,"pressure":995.1,"uv_index":8.3,"wind_gusts":24.1,"aqi":119,"pm10":46.6,"pm2_5":31.7,"mosquito_risk":4,"arthritis_risk":5,"migraine_risk":7,"frizz_risk":1,"updated_at":"2026-04-17T23:22:13.912876+05:30"},{"city":"Gorakhpur","state":"Uttar Pradesh","latitude":26.7606,"longitude":83.3732,"temp":27.4,"humidity":70,"rain":0.0,"pressure":997.0,"uv_index":7.7,"wind_gusts":27.0,"aqi":152,"pm10":95.9,"pm2_5":78.5,"mosquito_risk":7,"arthritis_risk":5,"migraine_risk":7,"frizz_risk":1,"updated_at":"2026-04-17T23:22:13.912881+05:30"},{"city":"Bareilly","state":"Uttar Pradesh","latitude":28.367,"longitude":79.4304,"temp":24.9,"humidity":67,"rain":0.0,"pressure":986.2,"uv_index":6.85,"wind_gusts":22.7,"aqi":147,"pm10":63.6,"pm2_5":30.5,"mosquito_risk":3,"arthritis_risk":5,"migraine_risk":7,"frizz_risk":1,"updated_at":"2026-04-17T23:22:13.912888+05:30"},{"city":"Aligarh","state":"Uttar Pradesh","latitude":27.8974,"longitude":78.088,"temp":26.0,"humidity":49,"rain":0.0,"pressure":984.9,"uv_index":6.5,"wind_gusts":34.9,"aqi":145,"pm10":408.9,"pm2_5":65.2,"mosquito_risk":4,"arthritis_risk":5,"migraine_risk":7,"frizz_risk":0,"updated_at":"2026-04-17T23:22:13.912894+05:30"},{"city":"Moradabad","state":"Uttar Pradesh","latitude":28.8386,"longitude":78.7733,"temp":25.5,"humidity":58,"rain":0.0,"pressure":983.2,"uv_index":5.9,"wind_gusts":17.6,"aqi":116,"pm10":66.8,"pm2_5":38.4,"mosquito_risk":4,"arthritis_risk":5,"migraine_risk":3,"frizz_risk":1,"updated_at":"2026-04-17T23:22:13.912899+05:30"},{"city":"Saharanpur","state":"Uttar Pradesh","latitude":29.9637,"longitude":77.546,"temp":23.3,"humidity":64,"rain":0.0,"pressure":975.7,"uv_index":6.1,"wind_gusts":26.6,"aqi":80,"pm10":50.5,"pm2_5":26.9,"mosquito_risk":3,"arthritis_risk":5,"migraine_risk":7,"frizz_risk":1,"updated_at":"2026-04-17T23:22:13.912904+05:30"},{"city":"Jhansi","state":"Uttar Pradesh","latitude":25.4484,"longitude":78.5685,"temp":29.6,"humidity":46,"rain":0.0,"pressure":977.5,"uv_index":7.85,"wind_gusts":20.9,"aqi":107,"pm10":85.9,"pm2_5":26.1,"mosquito_risk":4,"arthritis_risk":5,"migraine_risk":7,"frizz_risk":1,"updated_at":"2026-04-17T23:22:17.191258+05:30"},{"city":"Surat","state":"Gujarat","latitude":21.1702,"longitude":72.8311,"temp":27.9,"humidity":82,"rain":0.0,"pressure":1006.4,"uv_index":7.6,"wind_gusts":23.4,"aqi":110,"pm10":65.4,"pm2_5":36.6,"mosquito_risk":7,"arthritis_risk":5,"migraine_risk":4,"frizz_risk":1,"updated_at":"2026-04-17T23:22:17.191287+05:30"},{"city":"Vadodara","state":"Gujarat","latitude":22.3072,"longitude":73.1812,"temp":28.1,"humidity":43,"rain":0.0,"pressure":1003.8,"uv_index":7.8,"wind_gusts":22.7,"aqi":78,"pm10":71.0,"pm2_5":51.3,"mosquito_risk":4,"arthritis_risk":5,"migraine_risk":4,"frizz_risk":0,"updated_at":"2026-04-17T23:22:17.191297+05:30"},{"city":"Rajkot","state":"Gujarat","latitude":22.3039,"longitude":70.8022,"temp":26.7,"humidity":52,"rain":0.0,"pressure":994.8,"uv_index":7.85,"wind_gusts":29.9,"aqi":67,"pm10":49.6,"pm2_5":18.3,"mosquito_risk":4,"arthritis_risk":5,"migraine_risk":7,"frizz_risk":0,"updated_at":"2026-04-17T23:22:17.191305+05:30"},{"city":"Thane","state":"Maharashtra","latitude":19.2183,"longitude":72.9781,"temp":28.2,"humidity":83,"rain":0.0,"pressure":1007.5,"uv_index":7.1,"wind_gusts":32.8,"aqi":96,"pm10":76.1,"pm2_5":25.3,"mosquito_risk":7,"arthritis_risk":5,"migraine_risk":4,"frizz_risk":1,"updated_at":"2026-04-17T23:22:17.191313+05:30"},{"city":"Nagpur","state":"Maharashtra","latitude":21.1458,"longitude":79.0882,"temp":30.6,"humidity":50,"rain":0.0,"pressure":971.6,"uv_index":8.25,"wind_gusts":22.3,"aqi":157,"pm10":42.7,"pm2_5":34.0,"mosquito_risk":0,"arthritis_risk":5,"migraine_risk":7,"frizz_risk":1,"updated_at":"2026-04-17T23:22:17.191321+05:30"},{"city":"Nashik","state":"Maharashtra","latitude":19.9975,"longitude":73.7898,"temp":27.3,"humidity":54,"rain":0.0,"pressure":946.3,"uv_index":7.35,"wind_gusts":33.5,"aqi":78,"pm10":44.8,"pm2_5":25.3,"mosquito_risk":4,"arthritis_risk":5,"migraine_risk":7,"frizz_risk":1,"updated_at":"2026-04-17T23:22:17.191328+05:30"},{"city":"Aurangabad","state":"Maharashtra","latitude":19.8762,"longitude":75.3433,"temp":31.0,"humidity":30,"rain":0.0,"pressure":944.4,"uv_index":8.1,"wind_gusts":34.6,"aqi":91,"pm10":19.7,"pm2_5":14.0,"mosquito_risk":0,"arthritis_risk":5,"migraine_risk":7,"frizz_risk":0,"updated_at":"2026-04-17T23:22:17.191335+05:30"},{"city":"Solapur","state":"Maharashtra","latitude":17.6599,"longitude":75.9064,"temp":29.8,"humidity":54,"rain":0.0,"pressure":956.7,"uv_index":8.5,"wind_gusts":22.0,"aqi":153,"pm10":40.5,"pm2_5":36.8,"mosquito_risk":4,"arthritis_risk":5,"migraine_risk":7,"frizz_risk":1,"updated_at":"2026-04-17T23:22:17.191343+05:30"},{"city":"Kolhapur","state":"Maharashtra","latitude":16.705,"longitude":74.2433,"temp":23.5,"humidity":85,"rain":0.0,"pressure":947.8,"uv_index":8.2,"wind_gusts":40.7,"aqi":97,"pm10":30.9,"pm2_5":22.8,"mosquito_risk":3,"arthritis_risk":5,"migraine_risk":7,"frizz_risk":1,"updated_at":"2026-04-17T23:22:17.191350+05:30"},{"city":"Goa","state":"Goa","latitude":15.2993,"longitude":74.124,"temp":28.4,"humidity":76,"rain":0.0,"pressure":997.6,"uv_index":8.6,"wind_gusts":33.1,"aqi":69,"pm10":42.6,"pm2_5":22.8,"mosquito_risk":7,"arthritis_risk":5,"migraine_risk":7,"frizz_risk":1,"updated_at":"2026-04-17T23:22:17.191358+05:30"},{"city":"Jodhpur","state":"Rajasthan","latitude":26.2389,"longitude":73.0243,"temp":28.9,"humidity":35,"rain":0.0,"pressure":982.2,"uv_index":8.15,"wind_gusts":32.8,"aqi":94,"pm10":168.1,"pm2_5":27.8,"mosquito_risk":4,"arthritis_risk":5,"migraine_risk":7,"frizz_risk":0,"updated_at":"2026-04-17T23:22:17.191365+05:30"},{"city":"Udaipur","state":"Rajasthan","latitude":24.5854,"longitude":73.7125,"temp":27.5,"humidity":25,"rain":0.0,"pressure":947.2,"uv_index":7.85,"wind_gusts":28.8,"aqi":52,"pm10":25.6,"pm2_5":11.3,"mosquito_risk":4,"arthritis_risk":5,"migraine_risk":7,"frizz_risk":0,"updated_at":"2026-04-17T23:22:17.191372+05:30"},{"city":"Kota","state":"Rajasthan","latitude":25.2138,"longitude":75.8648,"temp":30.9,"humidity":36,"rain":0.0,"pressure":978.2,"uv_index":7.15,"wind_gusts":27.0,"aqi":74,"pm10":63.3,"pm2_5":40.5,"mosquito_risk":0,"arthritis_risk":5,"migraine_risk":7,"frizz_risk":0,"updated_at":"2026-04-17T23:22:17.191379+05:30"},{"city":"Bikaner","state":"Rajasthan","latitude":28.0229,"longitude":73.3119,"temp":31.4,"humidity":19,"rain":0.0,"pressure":979.9,"uv_index":8.0,"wind_gusts":27.4,"aqi":69,"pm10":24.2,"pm2_5":11.3,"mosquito_risk":0,"arthritis_risk":5,"migraine_risk":7,"frizz_risk":0,"updated_at":"2026-04-17T23:22:17.191386+05:30"},{"city":"Ajmer","state":"Rajasthan","latitude":26.4499,"longitude":74.6399,"temp":29.3,"humidity":34,"rain":0.0,"pressure":954.5,"uv_index":7.8,"wind_gusts":31.7,"aqi":66,"pm10":38.3,"pm2_5":18.0,"mosquito_risk":4,"arthritis_risk":5,"migraine_risk":7,"frizz_risk":0,"updated_at":"2026-04-17T23:22:17.191393+05:30"},{"city":"Gwalior","state":"Madhya Pradesh","latitude":26.2183,"longitude":78.1828,"temp":30.3,"humidity":47,"rain":0.0,"pressure":982.9,"uv_index":7.15,"wind_gusts":25.2,"aqi":91,"pm10":117.1,"pm2_5":41.7,"mosquito_risk":0,"arthritis_risk":5,"migraine_risk":7,"frizz_risk":1,"updated_at":"2026-04-17T23:22:17.191400+05:30"},{"city":"Indore","state":"Madhya Pradesh","latitude":22.7196,"longitude":75.8577,"temp":26.6,"humidity":52,"rain":0.0,"pressure":948.3,"uv_index":7.75,"wind_gusts":27.0,"aqi":92,"pm10":33.1,"pm2_5":28.4,"mosquito_risk":4,"arthritis_risk":5,"migraine_risk":7,"frizz_risk":0,"updated_at":"2026-04-17T23:22:17.191406+05:30"},{"city":"Bhopal","state":"Madhya Pradesh","latitude":23.2599,"longitude":77.4126,"temp":30.1,"humidity":36,"rain":0.0,"pressure":953.6,"uv_index":7.8,"wind_gusts":29.2,"aqi":85,"pm10":36.2,"pm2_5":27.5,"mosquito_risk":0,"arthritis_risk":5,"migraine_risk":7,"frizz_risk":0,"updated_at":"2026-04-17T23:22:17.191413+05:30"},{"city":"Jabalpur","state":"Madhya Pradesh","latitude":23.1815,"longitude":79.9864,"temp":30.1,"humidity":52,"rain":0.0,"pressure":960.4,"uv_index":8.65,"wind_gusts":24.5,"aqi":97,"pm10":66.1,"pm2_5":33.1,"mosquito_risk":0,"arthritis_risk":5,"migraine_risk":7,"frizz_risk":1,"updated_at":"2026-04-17T23:22:17.191421+05:30"},{"city":"Ujjain","state":"Madhya Pradesh","latitude":23.1765,"longitude":75.7885,"temp":26.9,"humidity":51,"rain":0.0,"pressure":954.1,"uv_index":7.85,"wind_gusts":27.7,"aqi":80,"pm10":21.8,"pm2_5":18.0,"mosquito_risk":4,"arthritis_risk":5,"migraine_risk":7,"frizz_risk":0,"updated_at":"2026-04-17T23:22:17.191428+05:30"},{"city":"Visakhapatnam","state":"Andhra Pradesh","latitude":17.6868,"longitude":83.2185,"temp":28.3,"humidity":87,"rain":0.0,"pressure":1004.2,"uv_index":9.2,"wind_gusts":37.1,"aqi":49,"pm10":15.6,"pm2_5":11.6,"mosquito_risk":7,"arthritis_risk":5,"migraine_risk":4,"frizz_risk":1,"updated_at":"2026-04-17T23:22:17.191435+05:30"},{"city":"Vijayawada","state":"Andhra Pradesh","latitude":16.5062,"longitude":80.648,"temp":27.6,"humidity":89,"rain":0.0,"pressure":1002.8,"uv_index":9.15,"wind_gusts":23.4,"aqi":50,"pm10":11.6,"pm2_5":9.6,"mosquito_risk":7,"arthritis_risk":5,"migraine_risk":4,"frizz_risk":1,"updated_at":"2026-04-17T23:22:17.191441+05:30"},{"city":"Guntur","state":"Andhra Pradesh","latitude":16.3067,"longitude":80.4365,"temp":27.8,"humidity":88,"rain":0.0,"pressure":1004.0,"uv_index":9.2,"wind_gusts":26.6,"aqi":53,"pm10":13.1,"pm2_5":11.0,"mosquito_risk":7,"arthritis_risk":5,"migraine_risk":4,"frizz_risk":1,"updated_at":"2026-04-17T23:22:17.191448+05:30"},{"city":"Nellore","state":"Andhra Pradesh","latitude":14.4426,"longitude":79.9865,"temp":28.0,"humidity":86,"rain":0.0,"pressure":1006.1,"uv_index":9.3,"wind_gusts":33.8,"aqi":52,"pm10":10.4,"pm2_5":7.9,"mosquito_risk":7,"arthritis_risk":5,"migraine_risk":4,"frizz_risk":1,"updated_at":"2026-04-17T23:22:17.191456+05:30"},{"city":"Kurnool","state":"Andhra Pradesh","latitude":15.8281,"longitude":78.0373,"temp":34.0,"humidity":39,"rain":0.0,"pressure":976.4,"uv_index":9.2,"wind_gusts":25.9,"aqi":104,"pm10":31.1,"pm2_5":28.6,"mosquito_risk":0,"arthritis_risk":5,"migraine_risk":7,"frizz_risk":1,"updated_at":"2026-04-17T23:22:17.191464+05:30"},{"city":"Kakinada","state":"Andhra Pradesh","latitude":16.9891,"longitude":82.2475,"temp":28.2,"humidity":87,"rain":0.0,"pressure":1008.0,"uv_index":9.2,"wind_gusts":30.6,"aqi":32,"pm10":11.4,"pm2_5":7.5,"mosquito_risk":7,"arthritis_risk":0,"migraine_risk":4,"frizz_risk":1,"updated_at":"2026-04-17T23:22:17.191471+05:30"},{"city":"Tirupati","state":"Andhra Pradesh","latitude":13.6288,"longitude":79.4192,"temp":28.3,"humidity":81,"rain":0.0,"pressure":992.9,"uv_index":9.25,"wind_gusts":31.7,"aqi":82,"pm10":16.3,"pm2_5":14.6,"mosquito_risk":7,"arthritis_risk":5,"migraine_risk":7,"frizz_risk":1,"updated_at":"2026-04-17T23:22:17.191478+05:30"},{"city":"Warangal","state":"Telangana","latitude":17.9689,"longitude":79.5941,"temp":31.1,"humidity":65,"rain":0.0,"pressure":977.8,"uv_index":9.1,"wind_gusts":26.6,"aqi":106,"pm10":32.7,"pm2_5":30.6,"mosquito_risk":3,"arthritis_risk":5,"migraine_risk":7,"frizz_risk":1,"updated_at":"2026-04-17T23:22:17.191484+05:30"},{"city":"Nizamabad","state":"Telangana","latitude":18.6725,"longitude":78.0941,"temp":31.8,"humidity":44,"rain":0.0,"pressure":964.5,"uv_index":9.05,"wind_gusts":24.1,"aqi":100,"pm10":62.2,"pm2_5":56.7,"mosquito_risk":0,"arthritis_risk":5,"migraine_risk":7,"frizz_risk":1,"updated_at":"2026-04-17T23:22:17.191491+05:30"},{"city":"Mysore","state":"Karnataka","latitude":12.2958,"longitude":76.6396,"temp":25.4,"humidity":86,"rain":0.0,"pressure":929.2,"uv_index":9.3,"wind_gusts":38.9,"aqi":105,"pm10":26.3,"pm2_5":23.9,"mosquito_risk":7,"arthritis_risk":5,"migraine_risk":7,"frizz_risk":1,"updated_at":"2026-04-17T23:22:17.191498+05:30"},{"city":"Mangalore","state":"Karnataka","latitude":12.9141,"longitude":74.856,"temp":30.1,"humidity":84,"rain":0.0,"pressure":1006.6,"uv_index":9.15,"wind_gusts":25.2,"aqi":79,"pm10":28.1,"pm2_5":17.6,"mosquito_risk":3,"arthritis_risk":5,"migraine_risk":4,"frizz_risk":1,"updated_at":"2026-04-17T23:22:17.191505+05:30"},{"city":"Hubli-Dharwad","state":"Karnataka","latitude":15.3647,"longitude":75.124,"temp":25.9,"humidity":77,"rain":0.0,"pressure":940.8,"uv_index":9.15,"wind_gusts":30.2,"aqi":101,"pm10":27.6,"pm2_5":24.2,"mosquito_risk":7,"arthritis_risk":5,"migraine_risk":7,"frizz_risk":1,"updated_at":"2026-04-17T23:22:17.191513+05:30"},{"city":"Belgaum","state":"Karnataka","latitude":15.8497,"longitude":74.4977,"temp":23.6,"humidity":90,"rain":0.0,"pressure":925.6,"uv_index":8.95,"wind_gusts":39.2,"aqi":93,"pm10":31.7,"pm2_5":21.0,"mosquito_risk":3,"arthritis_risk":5,"migraine_risk":7,"frizz_risk":1,"updated_at":"2026-04-17T23:22:20.466375+05:30"},{"city":"Coimbatore","state":"Tamil Nadu","latitude":11.0168,"longitude":76.9558,"temp":26.4,"humidity":83,"rain":0.0,"pressure":962.7,"uv_index":9.05,"wind_gusts":38.2,"aqi":114,"pm10":42.3,"pm2_5":38.8,"mosquito_risk":7,"arthritis_risk":5,"migraine_risk":7,"frizz_risk":1,"updated_at":"2026-04-17T23:22:20.466404+05:30"},{"city":"Madurai","state":"Tamil Nadu","latitude":9.9252,"longitude":78.1198,"temp":29.2,"humidity":75,"rain":0.0,"pressure":994.2,"uv_index":9.35,"wind_gusts":26.6,"aqi":82,"pm10":23.2,"pm2_5":21.8,"mosquito_risk":7,"arthritis_risk":5,"migraine_risk":7,"frizz_risk":1,"updated_at":"2026-04-17T23:22:20.466411+05:30"},{"city":"Trichy","state":"Tamil Nadu","latitude":10.7905,"longitude":78.7047,"temp":28.4,"humidity":85,"rain":0.0,"pressure":1000.6,"uv_index":9.25,"wind_gusts":20.2,"aqi":76,"pm10":19.7,"pm2_5":18.9,"mosquito_risk":7,"arthritis_risk":5,"migraine_risk":4,"frizz_risk":1,"updated_at":"2026-04-17T23:22:20.466418+05:30"},{"city":"Salem","state":"Tamil Nadu","latitude":11.6643,"longitude":78.146,"temp":29.1,"humidity":70,"rain":0.0,"pressure":977.7,"uv_index":9.05,"wind_gusts":24.1,"aqi":93,"pm10":35.9,"pm2_5":32.6,"mosquito_risk":7,"arthritis_risk":5,"migraine_risk":7,"frizz_risk":1,"updated_at":"2026-04-17T23:22:20.466424+05:30"},{"city":"Tirunelveli","state":"Tamil Nadu","latitude":8.7139,"longitude":77.7567,"temp":28.9,"humidity":74,"rain":0.0,"pressure":1004.1,"uv_index":8.8,"wind_gusts":43.2,"aqi":92,"pm10":31.5,"pm2_5":28.3,"mosquito_risk":7,"arthritis_risk":5,"migraine_risk":4,"frizz_risk":1,"updated_at":"2026-04-17T23:22:20.466430+05:30"},{"city":"Vellore","state":"Tamil Nadu","latitude":12.9165,"longitude":79.1325,"temp":27.7,"humidity":83,"rain":0.0,"pressure":985.7,"uv_index":8.8,"wind_gusts":27.7,"aqi":94,"pm10":32.4,"pm2_5":30.9,"mosquito_risk":7,"arthritis_risk":5,"migraine_risk":7,"frizz_risk":1,"updated_at":"2026-04-17T23:22:20.466437+05:30"},{"city":"Erode","state":"Tamil Nadu","latitude":11.341,"longitude":77.7172,"temp":30.6,"humidity":63,"rain":0.0,"pressure":989.4,"uv_index":9.3,"wind_gusts":28.8,"aqi":95,"pm10":24.5,"pm2_5":22.2,"mosquito_risk":3,"arthritis_risk":5,"migraine_risk":7,"frizz_risk":1,"updated_at":"2026-04-17T23:22:20.466443+05:30"},{"city":"Kochi","state":"Kerala","latitude":9.9312,"longitude":76.2673,"temp":28.6,"humidity":85,"rain":0.0,"pressure":1009.4,"uv_index":8.9,"wind_gusts":29.9,"aqi":100,"pm10":48.5,"pm2_5":39.6,"mosquito_risk":7,"arthritis_risk":0,"migraine_risk":4,"frizz_risk":1,"updated_at":"2026-04-17T23:22:20.466449+05:30"},{"city":"Thiruvananthapuram","state":"Kerala","latitude":8.5241,"longitude":76.9366,"temp":29.1,"humidity":83,"rain":0.0,"pressure":1008.7,"uv_index":8.85,"wind_gusts":28.4,"aqi":87,"pm10":29.5,"pm2_5":20.8,"mosquito_risk":7,"arthritis_risk":0,"migraine_risk":4,"frizz_risk":1,"updated_at":"2026-04-17T23:22:20.466455+05:30"},{"city":"Kozhikode","state":"Kerala","latitude":11.2588,"longitude":75.7804,"temp":29.8,"humidity":84,"rain":0.0,"pressure":1008.0,"uv_index":8.85,"wind_gusts":32.8,"aqi":98,"pm10":48.8,"pm2_5":27.2,"mosquito_risk":7,"arthritis_risk":0,"migraine_risk":4,"frizz_risk":1,"updated_at":"2026-04-17T23:22:20.466461+05:30"},{"city":"Thrissur","state":"Kerala","latitude":10.5276,"longitude":76.2144,"temp":29.2,"humidity":87,"rain":0.0,"pressure":1007.3,"uv_index":8.6,"wind_gusts":41.8,"aqi":99,"pm10":44.0,"pm2_5":29.9,"mosquito_risk":7,"arthritis_risk":5,"migraine_risk":4,"frizz_risk":1,"updated_at":"2026-04-17T23:22:20.466467+05:30"},{"city":"Kannur","state":"Kerala","latitude":11.8745,"longitude":75.3704,"temp":30.0,"humidity":82,"rain":0.0,"pressure":1007.3,"uv_index":8.2,"wind_gusts":30.6,"aqi":97,"pm10":33.8,"pm2_5":23.2,"mosquito_risk":7,"arthritis_risk":5,"migraine_risk":4,"frizz_risk":1,"updated_at":"2026-04-17T23:22:20.466472+05:30"},{"city":"Patna","state":"Bihar","latitude":25.5941,"longitude":85.1376,"temp":29.2,"humidity":74,"rain":0.0,"pressure":1000.4,"uv_index":8.25,"wind_gusts":25.2,"aqi":151,"pm10":71.9,"pm2_5":58.7,"mosquito_risk":7,"arthritis_risk":5,"migraine_risk":4,"frizz_risk":1,"updated_at":"2026-04-17T23:22:20.466478+05:30"},{"city":"Gaya","state":"Bihar","latitude":24.7914,"longitude":85.0002,"temp":28.5,"humidity":76,"rain":0.0,"pressure":993.5,"uv_index":8.45,"wind_gusts":15.5,"aqi":141,"pm10":65.4,"pm2_5":53.2,"mosquito_risk":7,"arthritis_risk":5,"migraine_risk":7,"frizz_risk":1,"updated_at":"2026-04-17T23:22:20.466483+05:30"},{"city":"Muzaffarpur","state":"Bihar","latitude":26.1209,"longitude":85.3647,"temp":27.6,"humidity":78,"rain":0.0,"pressure":1000.5,"uv_index":8.45,"wind_gusts":24.8,"aqi":153,"pm10":74.0,"pm2_5":60.5,"mosquito_risk":7,"arthritis_risk":5,"migraine_risk":4,"frizz_risk":1,"updated_at":"2026-04-17T23:22:20.466489+05:30"},{"city":"Bhagalpur","state":"Bihar","latitude":25.2425,"longitude":87.0117,"temp":27.3,"humidity":81,"rain":0.0,"pressure":1001.5,"uv_index":8.55,"wind_gusts":21.6,"aqi":153,"pm10":63.6,"pm2_5":55.5,"mosquito_risk":7,"arthritis_risk":5,"migraine_risk":4,"frizz_risk":1,"updated_at":"2026-04-17T23:22:20.466494+05:30"},{"city":"Ranchi","state":"Jharkhand","latitude":23.3441,"longitude":85.3096,"temp":25.5,"humidity":85,"rain":0.0,"pressure":938.2,"uv_index":9.15,"wind_gusts":38.5,"aqi":104,"pm10":44.4,"pm2_5":24.3,"mosquito_risk":7,"arthritis_risk":5,"migraine_risk":7,"frizz_risk":1,"updated_at":"2026-04-17T23:22:20.466500+05:30"},{"city":"Jamshedpur","state":"Jharkhand","latitude":22.8046,"longitude":86.2029,"temp":28.2,"humidity":84,"rain":0.0,"pressure":990.9,"uv_index":9.0,"wind_gusts":25.9,"aqi":111,"pm10":27.8,"pm2_5":25.6,"mosquito_risk":7,"arthritis_risk":5,"migraine_risk":7,"frizz_risk":1,"updated_at":"2026-04-17T23:22:20.466505+05:30"},{"city":"Dhanbad","state":"Jharkhand","latitude":23.7957,"longitude":86.4304,"temp":28.2,"humidity":75,"rain":0.0,"pressure":980.1,"uv_index":8.9,"wind_gusts":27.7,"aqi":150,"pm10":68.9,"pm2_5":63.6,"mosquito_risk":7,"arthritis_risk":5,"migraine_risk":7,"frizz_risk":1,"updated_at":"2026-04-17T23:22:20.466510+05:30"},{"city":"Bokaro","state":"Jharkhand","latitude":23.6693,"longitude":86.1511,"temp":28.0,"humidity":83,"rain":0.0,"pressure":984.1,"uv_index":8.9,"wind_gusts":24.1,"aqi":154,"pm10":89.9,"pm2_5":66.6,"mosquito_risk":7,"arthritis_risk":5,"migraine_risk":7,"frizz_risk":1,"updated_at":"2026-04-17T23:22:20.466516+05:30"},{"city":"Bhubaneswar","state":"Odisha","latitude":20.2961,"longitude":85.8245,"temp":27.4,"humidity":91,"rain":0.0,"pressure":1002.8,"uv_index":9.1,"wind_gusts":25.9,"aqi":53,"pm10":14.7,"pm2_5":11.4,"mosquito_risk":7,"arthritis_risk":5,"migraine_risk":4,"frizz_risk":1,"updated_at":"2026-04-17T23:22:20.466522+05:30"},{"city":"Cuttack","state":"Odisha","latitude":20.4625,"longitude":85.8828,"temp":27.6,"humidity":90,"rain":0.0,"pressure":1004.7,"uv_index":9.15,"wind_gusts":24.5,"aqi":53,"pm10":14.7,"pm2_5":11.4,"mosquito_risk":7,"arthritis_risk":5,"migraine_risk":4,"frizz_risk":1,"updated_at":"2026-04-17T23:22:20.466528+05:30"},{"city":"Rourkela","state":"Odisha","latitude":22.2604,"longitude":84.8536,"temp":29.9,"humidity":69,"rain":0.0,"pressure":984.6,"uv_index":8.9,"wind_gusts":42.5,"aqi":142,"pm10":73.1,"pm2_5":51.8,"mosquito_risk":7,"arthritis_risk":5,"migraine_risk":7,"frizz_risk":1,"updated_at":"2026-04-17T23:22:20.466533+05:30"},{"city":"Raipur","state":"Chhattisgarh","latitude":21.2514,"longitude":81.6296,"temp":31.2,"humidity":48,"rain":0.0,"pressure":972.8,"uv_index":8.95,"wind_gusts":39.6,"aqi":180,"pm10":64.3,"pm2_5":49.7,"mosquito_risk":0,"arthritis_risk":5,"migraine_risk":7,"frizz_risk":1,"updated_at":"2026-04-17T23:22:20.466539+05:30"},{"city":"Bhilai","state":"Chhattisgarh","latitude":21.1938,"longitude":81.3509,"temp":30.5,"humidity":54,"rain":0.0,"pressure":973.0,"uv_index":8.95,"wind_gusts":42.5,"aqi":137,"pm10":76.6,"pm2_5":61.9,"mosquito_risk":0,"arthritis_risk":5,"migraine_risk":7,"frizz_risk":1,"updated_at":"2026-04-17T23:22:20.466544+05:30"},{"city":"Guwahati","state":"Assam","latitude":26.1158,"longitude":91.7086,"temp":25.8,"humidity":81,"rain":0.0,"pressure":1002.6,"uv_index":8.55,"wind_gusts":22.3,"aqi":151,"pm10":72.2,"pm2_5":63.3,"mosquito_risk":7,"arthritis_risk":5,"migraine_risk":4,"frizz_risk":1,"updated_at":"2026-04-17T23:22:20.466549+05:30"},{"city":"Agartala","state":"Tripura","latitude":23.8315,"longitude":91.2868,"temp":25.3,"humidity":88,"rain":0.0,"pressure":1007.0,"uv_index":8.75,"wind_gusts":21.2,"aqi":122,"pm10":68.9,"pm2_5":63.3,"mosquito_risk":7,"arthritis_risk":5,"migraine_risk":4,"frizz_risk":1,"updated_at":"2026-04-17T23:22:20.466554+05:30"},{"city":"Shillong","state":"Meghalaya","latitude":25.5788,"longitude":91.8933,"temp":14.0,"humidity":93,"rain":0.0,"pressure":856.8,"uv_index":6.65,"wind_gusts":28.1,"aqi":125,"pm10":59.4,"pm2_5":51.0,"mosquito_risk":3,"arthritis_risk":10,"migraine_risk":7,"frizz_risk":0,"updated_at":"2026-04-17T23:22:20.466561+05:30"},{"city":"Imphal","state":"Manipur","latitude":24.817,"longitude":93.9368,"temp":19.5,"humidity":88,"rain":0.0,"pressure":924.6,"uv_index":9.1,"wind_gusts":40.3,"aqi":152,"pm10":104.5,"pm2_5":84.1,"mosquito_risk":3,"arthritis_risk":10,"migraine_risk":7,"frizz_risk":1,"updated_at":"2026-04-17T23:22:20.466566+05:30"},{"city":"Aizawl","state":"Mizoram","latitude":23.7271,"longitude":92.7176,"temp":20.3,"humidity":87,"rain":0.0,"pressure":894.0,"uv_index":9.0,"wind_gusts":36.0,"aqi":154,"pm10":37.3,"pm2_5":29.7,"mosquito_risk":3,"arthritis_risk":5,"migraine_risk":7,"frizz_risk":1,"updated_at":"2026-04-17T23:22:20.466572+05:30"},{"city":"Kohima","state":"Nagaland","latitude":25.6701,"longitude":94.1077,"temp":16.5,"humidity":89,"rain":0.0,"pressure":856.5,"uv_index":8.4,"wind_gusts":52.2,"aqi":121,"pm10":79.2,"pm2_5":52.2,"mosquito_risk":3,"arthritis_risk":10,"migraine_risk":7,"frizz_risk":0,"updated_at":"2026-04-17T23:22:20.466577+05:30"},{"city":"Gangtok","state":"Sikkim","latitude":27.3314,"longitude":88.6138,"temp":16.4,"humidity":92,"rain":0.0,"pressure":839.3,"uv_index":8.85,"wind_gusts":19.8,"aqi":123,"pm10":61.0,"pm2_5":45.3,"mosquito_risk":3,"arthritis_risk":10,"migraine_risk":7,"frizz_risk":0,"updated_at":"2026-04-17T23:22:20.466583+05:30"},{"city":"Siliguri","state":"West Bengal","latitude":26.7271,"longitude":88.3953,"temp":22.3,"humidity":73,"rain":0.0,"pressure":995.8,"uv_index":8.5,"wind_gusts":18.4,"aqi":160,"pm10":122.0,"pm2_5":83.4,"mosquito_risk":3,"arthritis_risk":5,"migraine_risk":7,"frizz_risk":1,"updated_at":"2026-04-17T23:22:23.741485+05:30"},{"city":"Durgapur","state":"West Bengal","latitude":23.5204,"longitude":87.3119,"temp":27.6,"humidity":82,"rain":0.0,"pressure":995.2,"uv_index":8.85,"wind_gusts":19.8,"aqi":122,"pm10":52.9,"pm2_5":49.9,"mosquito_risk":7,"arthritis_risk":5,"migraine_risk":7,"frizz_risk":1,"updated_at":"2026-04-17T23:22:23.741514+05:30"},{"city":"Asansol","state":"West Bengal","latitude":23.6739,"longitude":86.9524,"temp":28.4,"humidity":79,"rain":0.0,"pressure":993.8,"uv_index":8.9,"wind_gusts":18.7,"aqi":128,"pm10":52.5,"pm2_5":48.5,"mosquito_risk":7,"arthritis_risk":5,"migraine_risk":7,"frizz_risk":1,"updated_at":"2026-04-17T23:22:23.741523+05:30"},{"city":"Pondicherry","state":"Puducherry","latitude":11.9139,"longitude":79.8145,"temp":27.4,"humidity":92,"rain":0.0,"pressure":1009.3,"uv_index":8.6,"wind_gusts":27.4,"aqi":32,"pm10":11.7,"pm2_5":7.7,"mosquito_risk":7,"arthritis_risk":0,"migraine_risk":4,"frizz_risk":1,"updated_at":"2026-04-17T23:22:23.741531+05:30"},{"city":"Port Blair","state":"Andaman and Nicobar Islands","latitude":11.6234,"longitude":92.7265,"temp":29.8,"humidity":70,"rain":0.0,"pressure":1007.5,"uv_index":9.2,"wind_gusts":20.9,"aqi":47,"pm10":12.2,"pm2_5":8.5,"mosquito_risk":7,"arthritis_risk":5,"migraine_risk":4,"frizz_risk":1,"updated_at":"2026-04-17T23:22:23.741539+05:30"},{"city":"Haridwar","state":"Uttarakhand","latitude":29.9457,"longitude":78.1642,"temp":22.9,"humidity":68,"rain":0.0,"pressure":974.6,"uv_index":5.95,"wind_gusts":24.8,"aqi":78,"pm10":37.4,"pm2_5":22.1,"mosquito_risk":3,"arthritis_risk":5,"migraine_risk":3,"frizz_risk":1,"updated_at":"2026-04-17T23:22:23.741547+05:30"},{"city":"Rishikesh","state":"Uttarakhand","latitude":30.0869,"longitude":78.2676,"temp":22.4,"humidity":61,"rain":0.0,"pressure":967.8,"uv_index":6.05,"wind_gusts":24.8,"aqi":82,"pm10":39.8,"pm2_5":15.7,"mosquito_risk":3,"arthritis_risk":5,"migraine_risk":7,"frizz_risk":0,"updated_at":"2026-04-17T23:22:23.741554+05:30"},{"city":"Nainital","state":"Uttarakhand","latitude":29.3919,"longitude":79.4542,"temp":23.4,"humidity":28,"rain":0.0,"pressure":809.3,"uv_index":7.65,"wind_gusts":56.2,"aqi":107,"pm10":38.5,"pm2_5":15.4,"mosquito_risk":0,"arthritis_risk":5,"migraine_risk":7,"frizz_risk":0,"updated_at":"2026-04-17T23:22:23.741562+05:30"},{"city":"Mussoorie","state":"Uttarakhand","latitude":30.4599,"longitude":78.0664,"temp":19.4,"humidity":40,"rain":0.0,"pressure":805.7,"uv_index":6.65,"wind_gusts":43.6,"aqi":78,"pm10":38.9,"pm2_5":18.5,"mosquito_risk":0,"arthritis_risk":5,"migraine_risk":7,"frizz_risk":0,"updated_at":"2026-04-17T23:22:23.741569+05:30"},{"city":"Dharamshala","state":"Himachal Pradesh","latitude":32.219,"longitude":76.3234,"temp":21.5,"humidity":40,"rain":0.0,"pressure":871.8,"uv_index":6.9,"wind_gusts":36.7,"aqi":49,"pm10":18.1,"pm2_5":12.0,"mosquito_risk":0,"arthritis_risk":5,"migraine_risk":7,"frizz_risk":0,"updated_at":"2026-04-17T23:22:23.741576+05:30"},{"city":"Dalhousie","state":"Himachal Pradesh","latitude":32.5387,"longitude":75.971,"temp":17.6,"humidity":43,"rain":0.0,"pressure":805.9,"uv_index":5.15,"wind_gusts":34.2,"aqi":55,"pm10":33.5,"pm2_5":27.0,"mosquito_risk":0,"arthritis_risk":5,"migraine_risk":3,"frizz_risk":0,"updated_at":"2026-04-17T23:22:23.741583+05:30"},{"city":"Patiala","state":"Punjab","latitude":30.3398,"longitude":76.3869,"temp":23.0,"humidity":59,"rain":0.0,"pressure":978.8,"uv_index":7.2,"wind_gusts":34.9,"aqi":163,"pm10":335.3,"pm2_5":49.6,"mosquito_risk":0,"arthritis_risk":5,"migraine_risk":7,"frizz_risk":0,"updated_at":"2026-04-17T23:22:23.741590+05:30"},{"city":"Bhatinda","state":"Punjab","latitude":30.211,"longitude":74.9455,"temp":26.5,"humidity":42,"rain":0.0,"pressure":984.1,"uv_index":7.8,"wind_gusts":43.6,"aqi":108,"pm10":180.7,"pm2_5":38.6,"mosquito_risk":4,"arthritis_risk":5,"migraine_risk":7,"frizz_risk":0,"updated_at":"2026-04-17T23:22:23.741597+05:30"},{"city":"Rohtak","state":"Haryana","latitude":28.8955,"longitude":76.6066,"temp":23.7,"humidity":72,"rain":0.0,"pressure":981.4,"uv_index":6.55,"wind_gusts":25.6,"aqi":200,"pm10":231.0,"pm2_5":68.0,"mosquito_risk":3,"arthritis_risk":5,"migraine_risk":7,"frizz_risk":1,"updated_at":"2026-04-17T23:22:23.741604+05:30"},{"city":"Panipat","state":"Haryana","latitude":29.3909,"longitude":76.9635,"temp":24.4,"humidity":58,"rain":0.0,"pressure":980.3,"uv_index":6.8,"wind_gusts":19.8,"aqi":438,"pm10":519.7,"pm2_5":105.2,"mosquito_risk":0,"arthritis_risk":5,"migraine_risk":7,"frizz_risk":0,"updated_at":"2026-04-17T23:22:23.741611+05:30"},{"city":"Mathura","state":"Uttar Pradesh","latitude":27.4924,"longitude":77.6737,"temp":26.4,"humidity":52,"rain":0.0,"pressure":986.3,"uv_index":6.75,"wind_gusts":23.8,"aqi":187,"pm10":1095.2,"pm2_5":128.1,"mosquito_risk":4,"arthritis_risk":5,"migraine_risk":7,"frizz_risk":0,"updated_at":"2026-04-17T23:22:23.741618+05:30"},{"city":"Vrindavan","state":"Uttar Pradesh","latitude":27.5823,"longitude":77.7027,"temp":26.3,"humidity":51,"rain":0.0,"pressure":986.7,"uv_index":6.6,"wind_gusts":29.5,"aqi":187,"pm10":1095.2,"pm2_5":128.1,"mosquito_risk":4,"arthritis_risk":5,"migraine_risk":7,"frizz_risk":0,"updated_at":"2026-04-17T23:22:23.741624+05:30"},{"city":"Ayodhya","state":"Uttar Pradesh","latitude":26.7922,"longitude":82.1998,"temp":26.9,"humidity":67,"rain":0.0,"pressure":994.7,"uv_index":7.05,"wind_gusts":27.4,"aqi":141,"pm10":56.7,"pm2_5":37.7,"mosquito_risk":7,"arthritis_risk":5,"migraine_risk":7,"frizz_risk":1,"updated_at":"2026-04-17T23:22:23.741631+05:30"},{"city":"Ratlam","state":"Madhya Pradesh","latitude":23.3315,"longitude":75.0367,"temp":27.7,"humidity":47,"rain":0.0,"pressure":954.8,"uv_index":7.5,"wind_gusts":28.1,"aqi":83,"pm10":15.4,"pm2_5":11.0,"mosquito_risk":4,"arthritis_risk":5,"migraine_risk":7,"frizz_risk":0,"updated_at":"2026-04-17T23:22:23.741638+05:30"},{"city":"Sagar","state":"Madhya Pradesh","latitude":23.8388,"longitude":78.7378,"temp":30.6,"humidity":48,"rain":0.0,"pressure":949.5,"uv_index":7.75,"wind_gusts":22.7,"aqi":88,"pm10":43.7,"pm2_5":23.8,"mosquito_risk":0,"arthritis_risk":5,"migraine_risk":7,"frizz_risk":1,"updated_at":"2026-04-17T23:22:23.741645+05:30"},{"city":"Satna","state":"Madhya Pradesh","latitude":24.6005,"longitude":80.8322,"temp":30.0,"humidity":34,"rain":0.0,"pressure":970.8,"uv_index":8.6,"wind_gusts":16.6,"aqi":112,"pm10":52.9,"pm2_5":16.7,"mosquito_risk":4,"arthritis_risk":5,"migraine_risk":7,"frizz_risk":0,"updated_at":"2026-04-17T23:22:23.741652+05:30"},{"city":"Akola","state":"Maharashtra","latitude":20.7002,"longitude":77.0082,"temp":30.8,"humidity":41,"rain":0.0,"pressure":974.1,"uv_index":8.05,"wind_gusts":26.3,"aqi":113,"pm10":18.7,"pm2_5":17.6,"mosquito_risk":0,"arthritis_risk":5,"migraine_risk":7,"frizz_risk":0,"updated_at":"2026-04-17T23:22:23.741659+05:30"},{"city":"Amravati","state":"Maharashtra","latitude":20.9374,"longitude":77.7796,"temp":30.1,"humidity":42,"rain":0.0,"pressure":966.3,"uv_index":8.15,"wind_gusts":17.3,"aqi":105,"pm10":19.4,"pm2_5":18.3,"mosquito_risk":0,"arthritis_risk":5,"migraine_risk":7,"frizz_risk":0,"updated_at":"2026-04-17T23:22:23.741667+05:30"},{"city":"Latur","state":"Maharashtra","latitude":18.4088,"longitude":76.5604,"temp":27.8,"humidity":54,"rain":0.0,"pressure":939.8,"uv_index":8.6,"wind_gusts":31.7,"aqi":140,"pm10":44.2,"pm2_5":39.8,"mosquito_risk":4,"arthritis_risk":5,"migraine_risk":7,"frizz_risk":1,"updated_at":"2026-04-17T23:22:23.741674+05:30"},{"city":"Nanded","state":"Maharashtra","latitude":19.1383,"longitude":77.3091,"temp":30.8,"humidity":50,"rain":0.0,"pressure":967.9,"uv_index":8.65,"wind_gusts":18.4,"aqi":98,"pm10":52.5,"pm2_5":46.9,"mosquito_risk":0,"arthritis_risk":5,"migraine_risk":7,"frizz_risk":1,"updated_at":"2026-04-17T23:22:23.741681+05:30"},{"city":"Gulbarga","state":"Karnataka","latitude":17.3297,"longitude":76.8343,"temp":30.4,"humidity":52,"rain":0.0,"pressure":959.0,"uv_index":8.65,"wind_gusts":39.2,"aqi":147,"pm10":38.2,"pm2_5":35.2,"mosquito_risk":0,"arthritis_risk":5,"migraine_risk":7,"frizz_risk":1,"updated_at":"2026-04-17T23:22:23.741688+05:30"},{"city":"Bidar","state":"Karnataka","latitude":17.9104,"longitude":77.5199,"temp":28.3,"humidity":58,"rain":0.0,"pressure":936.0,"uv_index":8.85,"wind_gusts":49.0,"aqi":136,"pm10":43.8,"pm2_5":40.2,"mosquito_risk":4,"arthritis_risk":5,"migraine_risk":7,"frizz_risk":1,"updated_at":"2026-04-17T23:22:23.741694+05:30"},{"city":"Hospet","state":"Karnataka","latitude":15.2689,"longitude":76.3909,"temp":30.1,"humidity":63,"rain":0.0,"pressure":955.0,"uv_index":9.25,"wind_gusts":22.7,"aqi":152,"pm10":53.6,"pm2_5":49.2,"mosquito_risk":3,"arthritis_risk":5,"migraine_risk":7,"frizz_risk":1,"updated_at":"2026-04-17T23:22:23.741701+05:30"},{"city":"Tirupur","state":"Tamil Nadu","latitude":11.1085,"longitude":77.3411,"temp":29.2,"humidity":73,"rain":0.0,"pressure":976.1,"uv_index":8.95,"wind_gusts":32.8,"aqi":105,"pm10":27.5,"pm2_5":24.6,"mosquito_risk":7,"arthritis_risk":5,"migraine_risk":7,"frizz_risk":1,"updated_at":"2026-04-17T23:22:23.741708+05:30"},{"city":"Alappuzha","state":"Kerala","latitude":9.4981,"longitude":76.3388,"temp":28.9,"humidity":81,"rain":0.0,"pressure":1009.6,"uv_index":8.25,"wind_gusts":26.6,"aqi":101,"pm10":52.7,"pm2_5":40.9,"mosquito_risk":7,"arthritis_risk":0,"migraine_risk":4,"frizz_risk":1,"updated_at":"2026-04-17T23:22:23.741715+05:30"},{"city":"Munnar","state":"Kerala","latitude":10.0889,"longitude":77.0595,"temp":22.4,"humidity":86,"rain":0.0,"pressure":858.0,"uv_index":9.05,"wind_gusts":28.4,"aqi":82,"pm10":42.7,"pm2_5":38.9,"mosquito_risk":3,"arthritis_risk":5,"migraine_risk":7,"frizz_risk":1,"updated_at":"2026-04-17T23:22:23.741738+05:30"},{"city":"Silchar","state":"Assam","latitude":24.8333,"longitude":92.7789,"temp":25.5,"humidity":86,"rain":0.0,"pressure":1006.2,"uv_index":8.75,"wind_gusts":19.4,"aqi":156,"pm10":106.2,"pm2_5":85.4,"mosquito_risk":7,"arthritis_risk":5,"migraine_risk":4,"frizz_risk":1,"updated_at":"2026-04-17T23:22:23.741746+05:30"},{"city":"Dibrugarh","state":"Assam","latitude":27.4728,"longitude":94.912,"temp":26.6,"humidity":81,"rain":0.0,"pressure":996.5,"uv_index":8.65,"wind_gusts":11.5,"aqi":142,"pm10":82.4,"pm2_5":62.2,"mosquito_risk":7,"arthritis_risk":5,"migraine_risk":7,"frizz_risk":1,"updated_at":"2026-04-17T23:22:23.741753+05:30"}]