[{"city":"Delhi","state":"Delhi","latitude":28.6139,"longitude":77.209,"temp":21.7,"humidity":72,"rain":0.0,"pressure":984.5,"uv_index":6.7,"wind_gusts":15.5,"aqi":151,"pm10":160.2,"pm2_5":50.2,"mosquito_risk":3,"arthritis_risk":5,"migraine_risk":7,"frizz_risk":1,"updated_at":"2026-04-02T03:15:18.225377+05:30"},{"city":"Mumbai","state":"Maharashtra","latitude":19.076,"longitude":72.8777,"temp":27.0,"humidity":76,"rain":0.0,"pressure":1008.1,"uv_index":6.5,"wind_gusts":21.6,"aqi":64,"pm10":27.1,"pm2_5":18.5,"mosquito_risk":7,"arthritis_risk":0,"migraine_risk":4,"frizz_risk":1,"updated_at":"2026-04-02T03:15:18.225418+05:30"},{"city":"Bangalore","state":"Karnataka","latitude":12.9716,"longitude":77.5946,"temp":21.6,"humidity":80,"rain":0.0,"pressure":910.8,"uv_index":9.6,"wind_gusts":23.8,"aqi":66,"pm10":14.7,"pm2_5":13.1,"mosquito_risk":3,"arthritis_risk":5,"migraine_risk":7,"frizz_risk":1,"updated_at":"2026-04-02T03:15:18.225434+05:30"},{"city":"Hyderabad","state":"Telangana","latitude":17.385,"longitude":78.4867,"temp":24.6,"humidity":72,"rain":0.0,"pressure":953.1,"uv_index":9.15,"wind_gusts":19.8,"aqi":89,"pm10":20.0,"pm2_5":16.2,"mosquito_risk":3,"arthritis_risk":5,"migraine_risk":7,"frizz_risk":1,"updated_at":"2026-04-02T03:15:18.225444+05:30"},{"city":"Chennai","state":"Tamil Nadu","latitude":13.0827,"longitude":80.2707,"temp":25.7,"humidity":81,"rain":0.0,"pressure":1007.7,"uv_index":9.3,"wind_gusts":31.0,"aqi":39,"pm10":13.0,"pm2_5":10.2,"mosquito_risk":7,"arthritis_risk":5,"migraine_risk":4,"frizz_risk":1,"updated_at":"2026-04-02T03:15:18.225453+05:30"},{"city":"Kolkata","state":"West Bengal","latitude":22.5726,"longitude":88.3639,"temp":25.9,"humidity":93,"rain":0.0,"pressure":1006.3,"uv_index":8.6,"wind_gusts":24.1,"aqi":98,"pm10":25.6,"pm2_5":22.2,"mosquito_risk":7,"arthritis_risk":5,"migraine_risk":4,"frizz_risk":1,"updated_at":"2026-04-02T03:15:18.225462+05:30"},{"city":"Pune","state":"Maharashtra","latitude":18.5204,"longitude":73.8567,"temp":24.6,"humidity":92,"rain":0.0,"pressure":947.8,"uv_index":8.5,"wind_gusts":23.8,"aqi":109,"pm10":60.1,"pm2_5":54.1,"mosquito_risk":3,"arthritis_risk":5,"migraine_risk":7,"frizz_risk":1,"updated_at":"2026-04-02T03:15:18.225474+05:30"},{"city":"Ahmedabad","state":"Gujarat","latitude":23.0225,"longitude":72.5714,"temp":25.3,"humidity":49,"rain":0.0,"pressure":1001.9,"uv_index":7.7,"wind_gusts":30.2,"aqi":59,"pm10":26.1,"pm2_5":18.2,"mosquito_risk":4,"arthritis_risk":5,"migraine_risk":4,"frizz_risk":0,"updated_at":"2026-04-02T03:15:18.225483+05:30"},{"city":"Jaipur","state":"Rajasthan","latitude":26.9124,"longitude":75.7873,"temp":24.3,"humidity":67,"rain":0.0,"pressure":960.3,"uv_index":7.5,"wind_gusts":26.3,"aqi":114,"pm10":288.7,"pm2_5":48.0,"mosquito_risk":3,"arthritis_risk":5,"migraine_risk":7,"frizz_risk":1,"updated_at":"2026-04-02T03:15:18.225491+05:30"},{"city":"Lucknow","state":"Uttar Pradesh","latitude":26.8467,"longitude":80.9462,"temp":24.0,"humidity":62,"rain":0.0,"pressure":994.1,"uv_index":7.3,"wind_gusts":32.0,"aqi":82,"pm10":127.1,"pm2_5":36.1,"mosquito_risk":3,"arthritis_risk":5,"migraine_risk":7,"frizz_risk":1,"updated_at":"2026-04-02T03:15:18.225500+05:30"},{"city":"Kanpur","state":"Uttar Pradesh","latitude":26.4499,"longitude":80.3319,"temp":23.6,"humidity":67,"rain":0.0,"pressure":992.4,"uv_index":7.2,"wind_gusts":25.2,"aqi":116,"pm10":247.7,"pm2_5":46.4,"mosquito_risk":3,"arthritis_risk":5,"migraine_risk":7,"frizz_risk":1,"updated_at":"2026-04-02T03:15:18.225507+05:30"},{"city":"Chandigarh","state":"Chandigarh","latitude":30.7333,"longitude":76.7794,"temp":19.9,"humidity":69,"rain":0.0,"pressure":970.5,"uv_index":5.6,"wind_gusts":16.9,"aqi":74,"pm10":40.3,"pm2_5":31.4,"mosquito_risk":3,"arthritis_risk":5,"migraine_risk":3,"frizz_risk":0,"updated_at":"2026-04-02T03:15:18.225515+05:30"},{"city":"Srinagar","state":"Jammu and Kashmir","latitude":34.0837,"longitude":74.7973,"temp":8.6,"humidity":81,"rain":0.0,"pressure":841.0,"uv_index":6.75,"wind_gusts":18.7,"aqi":101,"pm10":76.6,"pm2_5":61.5,"mosquito_risk":3,"arthritis_risk":10,"migraine_risk":7,"frizz_risk":0,"updated_at":"2026-04-02T03:15:18.225522+05:30"},{"city":"Jammu","state":"Jammu and Kashmir","latitude":32.7266,"longitude":74.857,"temp":19.6,"humidity":77,"rain":0.0,"pressure":975.0,"uv_index":7.45,"wind_gusts":20.9,"aqi":85,"pm10":39.1,"pm2_5":31.4,"mosquito_risk":3,"arthritis_risk":5,"migraine_risk":7,"frizz_risk":0,"updated_at":"2026-04-02T03:15:18.225530+05:30"},{"city":"Amritsar","state":"Punjab","latitude":31.634,"longitude":74.8723,"temp":20.2,"humidity":73,"rain":0.0,"pressure":983.0,"uv_index":7.35,"wind_gusts":17.6,"aqi":127,"pm10":87.5,"pm2_5":50.9,"mosquito_risk":3,"arthritis_risk":5,"migraine_risk":7,"frizz_risk":0,"updated_at":"2026-04-02T03:15:18.225537+05:30"},{"city":"Ludhiana","state":"Punjab","latitude":30.901,"longitude":75.8573,"temp":21.2,"humidity":68,"rain":0.0,"pressure":980.7,"uv_index":6.9,"wind_gusts":15.8,"aqi":131,"pm10":105.2,"pm2_5":82.2,"mosquito_risk":3,"arthritis_risk":5,"migraine_risk":7,"frizz_risk":0,"updated_at":"2026-04-02T03:15:18.225544+05:30"},{"city":"Jalandhar","state":"Punjab","latitude":31.326,"longitude":75.5762,"temp":20.5,"humidity":71,"rain":0.0,"pressure":982.0,"uv_index":7.1,"wind_gusts":13.0,"aqi":117,"pm10":95.2,"pm2_5":53.7,"mosquito_risk":3,"arthritis_risk":5,"migraine_risk":7,"frizz_risk":0,"updated_at":"2026-04-02T03:15:18.225553+05:30"},{"city":"Dehradun","state":"Uttarakhand","latitude":30.6284,"longitude":78.0322,"temp":13.1,"humidity":63,"rain":0.0,"pressure":830.6,"uv_index":5.8,"wind_gusts":29.2,"aqi":33,"pm10":14.6,"pm2_5":9.0,"mosquito_risk":3,"arthritis_risk":5,"migraine_risk":3,"frizz_risk":0,"updated_at":"2026-04-02T03:15:18.225559+05:30"},{"city":"Shimla","state":"Himachal Pradesh","latitude":31.1048,"longitude":77.1734,"temp":11.6,"humidity":63,"rain":0.0,"pressure":784.4,"uv_index":4.75,"wind_gusts":29.5,"aqi":53,"pm10":25.4,"pm2_5":18.6,"mosquito_risk":3,"arthritis_risk":5,"migraine_risk":3,"frizz_risk":0,"updated_at":"2026-04-02T03:15:18.225566+05:30"},{"city":"Manali","state":"Himachal Pradesh","latitude":32.2396,"longitude":77.1887,"temp":14.0,"humidity":45,"rain":0.0,"pressure":820.3,"uv_index":8.2,"wind_gusts":21.2,"aqi":47,"pm10":11.5,"pm2_5":7.5,"mosquito_risk":0,"arthritis_risk":5,"migraine_risk":7,"frizz_risk":0,"updated_at":"2026-04-02T03:15:18.225572+05:30"},{"city":"Gurgaon","state":"Haryana","latitude":28.4595,"longitude":77.0266,"temp":20.2,"humidity":80,"rain":0.0,"pressure":982.8,"uv_index":6.25,"wind_gusts":16.2,"aqi":343,"pm10":380.9,"pm2_5":78.5,"mosquito_risk":3,"arthritis_risk":5,"migraine_risk":7,"frizz_risk":1,"updated_at":"2026-04-02T03:15:18.225578+05:30"},{"city":"Noida","state":"Uttar Pradesh","latitude":28.5355,"longitude":77.391,"temp":21.0,"humidity":76,"rain":0.0,"pressure":986.1,"uv_index":5.95,"wind_gusts":15.5,"aqi":343,"pm10":380.9,"pm2_5":78.5,"mosquito_risk":3,"arthritis_risk":5,"migraine_risk":3,"frizz_risk":1,"updated_at":"2026-04-02T03:15:18.225585+05:30"},{"city":"Ghaziabad","state":"Uttar Pradesh","latitude":28.6692,"longitude":77.4538,"temp":20.0,"humidity":77,"rain":0.0,"pressure":984.1,"uv_index":6.75,"wind_gusts":15.8,"aqi":151,"pm10":79.2,"pm2_5":44.5,"mosquito_risk":3,"arthritis_risk":5,"migraine_risk":7,"frizz_risk":0,"updated_at":"2026-04-02T03:15:18.225591+05:30"},{"city":"Faridabad","state":"Haryana","latitude":28.4089,"longitude":77.3178,"temp":20.0,"humidity":80,"rain":0.0,"pressure":985.2,"uv_index":5.85,"wind_gusts":17.6,"aqi":343,"pm10":380.9,"pm2_5":78.5,"mosquito_risk":3,"arthritis_risk":5,"migraine_risk":3,"frizz_risk":1,"updated_at":"2026-04-02T03:15:18.225598+05:30"},{"city":"Meerut","state":"Uttar Pradesh","latitude":28.9845,"longitude":77.7064,"temp":19.6,"humidity":74,"rain":0.0,"pressure":982.9,"uv_index":6.4,"wind_gusts":17.6,"aqi":151,"pm10":79.2,"pm2_5":44.5,"mosquito_risk":3,"arthritis_risk":5,"migraine_risk":7,"frizz_risk":0,"updated_at":"2026-04-02T03:15:18.225606+05:30"},{"city":"Agra","state":"Uttar Pradesh","latitude":27.1767,"longitude":78.0081,"temp":22.5,"humidity":75,"rain":0.0,"pressure":988.5,"uv_index":7.05,"wind_gusts":12.6,"aqi":386,"pm10":275.7,"pm2_5":61.5,"mosquito_risk":3,"arthritis_risk":5,"migraine_risk":7,"frizz_risk":1,"updated_at":"2026-04-02T03:15:18.225613+05:30"},{"city":"Varanasi","state":"Uttar Pradesh","latitude":25.3176,"longitude":82.9739,"temp":24.1,"humidity":75,"rain":0.0,"pressure":997.5,"uv_index":8.05,"wind_gusts":29.2,"aqi":77,"pm10":44.2,"pm2_5":31.2,"mosquito_risk":3,"arthritis_risk":5,"migraine_risk":7,"frizz_risk":1,"updated_at":"2026-04-02T03:15:18.225621+05:30"},{"city":"Prayagraj","state":"Uttar Pradesh","latitude":25.4358,"longitude":81.8463,"temp":25.0,"humidity":70,"rain":0.0,"pressure":996.2,"uv_index":7.75,"wind_gusts":21.2,"aqi":68,"pm10":87.3,"pm2_5":34.3,"mosquito_risk":7,"arthritis_risk":5,"migraine_risk":7,"frizz_risk":1,"updated_at":"2026-04-02T03:15:18.225629+05:30"},{"city":"Gorakhpur","state":"Uttar Pradesh","latitude":26.7606,"longitude":83.3732,"temp":22.6,"humidity":66,"rain":0.0,"pressure":996.9,"uv_index":7.85,"wind_gusts":40.7,"aqi":91,"pm10":75.2,"pm2_5":28.4,"mosquito_risk":3,"arthritis_risk":5,"migraine_risk":7,"frizz_risk":0,"updated_at":"2026-04-02T03:15:18.225636+05:30"},{"city":"Bareilly","state":"Uttar Pradesh","latitude":28.367,"longitude":79.4304,"temp":20.5,"humidity":70,"rain":0.0,"pressure":987.7,"uv_index":7.1,"wind_gusts":28.1,"aqi":106,"pm10":44.5,"pm2_5":30.9,"mosquito_risk":3,"arthritis_risk":5,"migraine_risk":7,"frizz_risk":0,"updated_at":"2026-04-02T03:15:18.225642+05:30"},{"city":"Aligarh","state":"Uttar Pradesh","latitude":27.8974,"longitude":78.088,"temp":20.1,"humidity":73,"rain":0.0,"pressure":986.5,"uv_index":6.7,"wind_gusts":25.2,"aqi":235,"pm10":288.7,"pm2_5":65.7,"mosquito_risk":3,"arthritis_risk":5,"migraine_risk":7,"frizz_risk":0,"updated_at":"2026-04-02T03:15:18.225650+05:30"},{"city":"Moradabad","state":"Uttar Pradesh","latitude":28.8386,"longitude":78.7733,"temp":19.8,"humidity":72,"rain":0.0,"pressure":984.8,"uv_index":6.85,"wind_gusts":25.6,"aqi":113,"pm10":46.3,"pm2_5":32.7,"mosquito_risk":3,"arthritis_risk":5,"migraine_risk":7,"frizz_risk":0,"updated_at":"2026-04-02T03:15:18.225656+05:30"},{"city":"Saharanpur","state":"Uttar Pradesh","latitude":29.9637,"longitude":77.546,"temp":19.4,"humidity":74,"rain":0.0,"pressure":977.1,"uv_index":6.5,"wind_gusts":21.2,"aqi":98,"pm10":85.2,"pm2_5":52.4,"mosquito_risk":3,"arthritis_risk":5,"migraine_risk":7,"frizz_risk":0,"updated_at":"2026-04-02T03:15:18.225662+05:30"},{"city":"Jhansi","state":"Uttar Pradesh","latitude":25.4484,"longitude":78.5685,"temp":25.5,"humidity":66,"rain":0.0,"pressure":978.5,"uv_index":7.05,"wind_gusts":15.5,"aqi":67,"pm10":71.7,"pm2_5":29.0,"mosquito_risk":7,"arthritis_risk":5,"migraine_risk":7,"frizz_risk":1,"updated_at":"2026-04-02T03:15:21.450212+05:30"},{"city":"Surat","state":"Gujarat","latitude":21.1702,"longitude":72.8311,"temp":25.9,"humidity":81,"rain":0.0,"pressure":1006.3,"uv_index":7.15,"wind_gusts":33.1,"aqi":87,"pm10":22.8,"pm2_5":19.7,"mosquito_risk":7,"arthritis_risk":5,"migraine_risk":4,"frizz_risk":1,"updated_at":"2026-04-02T03:15:21.450240+05:30"},{"city":"Vadodara","state":"Gujarat","latitude":22.3072,"longitude":73.1812,"temp":25.0,"humidity":77,"rain":0.0,"pressure":1004.1,"uv_index":7.65,"wind_gusts":37.8,"aqi":68,"pm10":25.7,"pm2_5":21.0,"mosquito_risk":7,"arthritis_risk":5,"migraine_risk":4,"frizz_risk":1,"updated_at":"2026-04-02T03:15:21.450249+05:30"},{"city":"Rajkot","state":"Gujarat","latitude":22.3039,"longitude":70.8022,"temp":22.7,"humidity":77,"rain":0.0,"pressure":994.4,"uv_index":6.75,"wind_gusts":53.6,"aqi":55,"pm10":26.7,"pm2_5":13.9,"mosquito_risk":3,"arthritis_risk":5,"migraine_risk":7,"frizz_risk":1,"updated_at":"2026-04-02T03:15:21.450256+05:30"},{"city":"Thane","state":"Maharashtra","latitude":19.2183,"longitude":72.9781,"temp":24.6,"humidity":85,"rain":0.0,"pressure":1007.6,"uv_index":7.15,"wind_gusts":33.5,"aqi":64,"pm10":27.1,"pm2_5":18.5,"mosquito_risk":3,"arthritis_risk":5,"migraine_risk":4,"frizz_risk":1,"updated_at":"2026-04-02T03:15:21.450263+05:30"},{"city":"Nagpur","state":"Maharashtra","latitude":21.1458,"longitude":79.0882,"temp":24.8,"humidity":75,"rain":0.0,"pressure":974.3,"uv_index":8.6,"wind_gusts":39.6,"aqi":88,"pm10":31.7,"pm2_5":26.7,"mosquito_risk":3,"arthritis_risk":5,"migraine_risk":7,"frizz_risk":1,"updated_at":"2026-04-02T03:15:21.450270+05:30"},{"city":"Nashik","state":"Maharashtra","latitude":19.9975,"longitude":73.7898,"temp":22.4,"humidity":83,"rain":0.0,"pressure":945.0,"uv_index":7.6,"wind_gusts":34.9,"aqi":62,"pm10":26.5,"pm2_5":19.8,"mosquito_risk":3,"arthritis_risk":5,"migraine_risk":7,"frizz_risk":1,"updated_at":"2026-04-02T03:15:21.450276+05:30"},{"city":"Aurangabad","state":"Maharashtra","latitude":19.8762,"longitude":75.3433,"temp":22.8,"humidity":81,"rain":0.0,"pressure":944.6,"uv_index":7.5,"wind_gusts":42.8,"aqi":101,"pm10":46.1,"pm2_5":39.1,"mosquito_risk":3,"arthritis_risk":5,"migraine_risk":7,"frizz_risk":1,"updated_at":"2026-04-02T03:15:21.450282+05:30"},{"city":"Solapur","state":"Maharashtra","latitude":17.6599,"longitude":75.9064,"temp":24.5,"humidity":76,"rain":0.0,"pressure":957.0,"uv_index":8.95,"wind_gusts":22.7,"aqi":97,"pm10":42.3,"pm2_5":37.4,"mosquito_risk":3,"arthritis_risk":5,"migraine_risk":7,"frizz_risk":1,"updated_at":"2026-04-02T03:15:21.450289+05:30"},{"city":"Kolhapur","state":"Maharashtra","latitude":16.705,"longitude":74.2433,"temp":22.7,"humidity":95,"rain":0.0,"pressure":947.5,"uv_index":8.85,"wind_gusts":33.5,"aqi":128,"pm10":54.5,"pm2_5":50.9,"mosquito_risk":3,"arthritis_risk":5,"migraine_risk":7,"frizz_risk":1,"updated_at":"2026-04-02T03:15:21.450295+05:30"},{"city":"Goa","state":"Goa","latitude":15.2993,"longitude":74.124,"temp":27.4,"humidity":79,"rain":0.0,"pressure":996.9,"uv_index":8.85,"wind_gusts":28.4,"aqi":71,"pm10":30.9,"pm2_5":22.2,"mosquito_risk":7,"arthritis_risk":5,"migraine_risk":7,"frizz_risk":1,"updated_at":"2026-04-02T03:15:21.450301+05:30"},{"city":"Jodhpur","state":"Rajasthan","latitude":26.2389,"longitude":73.0243,"temp":24.7,"humidity":41,"rain":0.0,"pressure":983.1,"uv_index":7.8,"wind_gusts":38.5,"aqi":88,"pm10":137.4,"pm2_5":24.6,"mosquito_risk":0,"arthritis_risk":5,"migraine_risk":7,"frizz_risk":0,"updated_at":"2026-04-02T03:15:21.450307+05:30"},{"city":"Udaipur","state":"Rajasthan","latitude":24.5854,"longitude":73.7125,"temp":22.8,"humidity":53,"rain":0.0,"pressure":946.2,"uv_index":8.2,"wind_gusts":37.1,"aqi":52,"pm10":26.8,"pm2_5":14.9,"mosquito_risk":0,"arthritis_risk":5,"migraine_risk":7,"frizz_risk":0,"updated_at":"2026-04-02T03:15:21.450313+05:30"},{"city":"Kota","state":"Rajasthan","latitude":25.2138,"longitude":75.8648,"temp":25.2,"humidity":66,"rain":0.0,"pressure":978.6,"uv_index":7.25,"wind_gusts":30.6,"aqi":61,"pm10":28.5,"pm2_5":18.5,"mosquito_risk":7,"arthritis_risk":5,"migraine_risk":7,"frizz_risk":1,"updated_at":"2026-04-02T03:15:21.450319+05:30"},{"city":"Bikaner","state":"Rajasthan","latitude":28.0229,"longitude":73.3119,"temp":23.3,"humidity":62,"rain":0.0,"pressure":981.7,"uv_index":7.55,"wind_gusts":28.4,"aqi":53,"pm10":94.1,"pm2_5":28.6,"mosquito_risk":3,"arthritis_risk":5,"migraine_risk":7,"frizz_risk":0,"updated_at":"2026-04-02T03:15:21.450325+05:30"},{"city":"Ajmer","state":"Rajasthan","latitude":26.4499,"longitude":74.6399,"temp":24.9,"humidity":66,"rain":0.0,"pressure":954.6,"uv_index":7.05,"wind_gusts":31.3,"aqi":63,"pm10":35.9,"pm2_5":19.2,"mosquito_risk":3,"arthritis_risk":5,"migraine_risk":7,"frizz_risk":1,"updated_at":"2026-04-02T03:15:21.450331+05:30"},{"city":"Gwalior","state":"Madhya Pradesh","latitude":26.2183,"longitude":78.1828,"temp":24.2,"humidity":78,"rain":0.0,"pressure":983.9,"uv_index":6.9,"wind_gusts":20.2,"aqi":77,"pm10":207.7,"pm2_5":42.1,"mosquito_risk":3,"arthritis_risk":5,"migraine_risk":7,"frizz_risk":1,"updated_at":"2026-04-02T03:15:21.450337+05:30"},{"city":"Indore","state":"Madhya Pradesh","latitude":22.7196,"longitude":75.8577,"temp":23.4,"humidity":62,"rain":0.0,"pressure":947.7,"uv_index":8.05,"wind_gusts":29.9,"aqi":82,"pm10":36.3,"pm2_5":32.2,"mosquito_risk":3,"arthritis_risk":5,"migraine_risk":7,"frizz_risk":0,"updated_at":"2026-04-02T03:15:21.450343+05:30"},{"city":"Bhopal","state":"Madhya Pradesh","latitude":23.2599,"longitude":77.4126,"temp":22.9,"humidity":76,"rain":0.0,"pressure":954.0,"uv_index":8.05,"wind_gusts":26.6,"aqi":67,"pm10":34.3,"pm2_5":24.9,"mosquito_risk":3,"arthritis_risk":5,"migraine_risk":7,"frizz_risk":1,"updated_at":"2026-04-02T03:15:21.450349+05:30"},{"city":"Jabalpur","state":"Madhya Pradesh","latitude":23.1815,"longitude":79.9864,"temp":23.3,"humidity":79,"rain":0.0,"pressure":962.0,"uv_index":7.95,"wind_gusts":26.3,"aqi":66,"pm10":41.7,"pm2_5":33.3,"mosquito_risk":3,"arthritis_risk":5,"migraine_risk":7,"frizz_risk":1,"updated_at":"2026-04-02T03:15:21.450355+05:30"},{"city":"Ujjain","state":"Madhya Pradesh","latitude":23.1765,"longitude":75.7885,"temp":23.0,"humidity":64,"rain":0.0,"pressure":953.2,"uv_index":8.2,"wind_gusts":30.6,"aqi":77,"pm10":27.5,"pm2_5":24.4,"mosquito_risk":3,"arthritis_risk":5,"migraine_risk":7,"frizz_risk":0,"updated_at":"2026-04-02T03:15:21.450362+05:30"},{"city":"Visakhapatnam","state":"Andhra Pradesh","latitude":17.6868,"longitude":83.2185,"temp":24.8,"humidity":90,"rain":0.0,"pressure":1004.8,"uv_index":9.05,"wind_gusts":36.0,"aqi":64,"pm10":17.5,"pm2_5":14.8,"mosquito_risk":3,"arthritis_risk":5,"migraine_risk":4,"frizz_risk":1,"updated_at":"2026-04-02T03:15:21.450368+05:30"},{"city":"Vijayawada","state":"Andhra Pradesh","latitude":16.5062,"longitude":80.648,"temp":24.8,"humidity":89,"rain":0.0,"pressure":1003.6,"uv_index":9.15,"wind_gusts":24.5,"aqi":55,"pm10":13.7,"pm2_5":11.9,"mosquito_risk":3,"arthritis_risk":5,"migraine_risk":4,"frizz_risk":1,"updated_at":"2026-04-02T03:15:21.450374+05:30"},{"city":"Guntur","state":"Andhra Pradesh","latitude":16.3067,"longitude":80.4365,"temp":24.6,"humidity":90,"rain":0.0,"pressure":1004.6,"uv_index":9.15,"wind_gusts":28.4,"aqi":52,"pm10":12.1,"pm2_5":10.5,"mosquito_risk":3,"arthritis_risk":5,"migraine_risk":4,"frizz_risk":1,"updated_at":"2026-04-02T03:15:21.450380+05:30"},{"city":"Nellore","state":"Andhra Pradesh","latitude":14.4426,"longitude":79.9865,"temp":25.0,"humidity":88,"rain":0.0,"pressure":1006.5,"uv_index":9.25,"wind_gusts":29.9,"aqi":40,"pm10":9.4,"pm2_5":7.3,"mosquito_risk":7,"arthritis_risk":5,"migraine_risk":4,"frizz_risk":1,"updated_at":"2026-04-02T03:15:21.450390+05:30"},{"city":"Kurnool","state":"Andhra Pradesh","latitude":15.8281,"longitude":78.0373,"temp":27.8,"humidity":62,"rain":0.0,"pressure":976.5,"uv_index":9.15,"wind_gusts":22.0,"aqi":65,"pm10":11.2,"pm2_5":8.1,"mosquito_risk":7,"arthritis_risk":5,"migraine_risk":7,"frizz_risk":1,"updated_at":"2026-04-02T03:15:21.450399+05:30"},{"city":"Kakinada","state":"Andhra Pradesh","latitude":16.9891,"longitude":82.2475,"temp":23.9,"humidity":92,"rain":0.0,"pressure":1008.6,"uv_index":9.05,"wind_gusts":30.6,"aqi":46,"pm10":11.8,"pm2_5":9.0,"mosquito_risk":3,"arthritis_risk":0,"migraine_risk":4,"frizz_risk":1,"updated_at":"2026-04-02T03:15:21.450406+05:30"},{"city":"Tirupati","state":"Andhra Pradesh","latitude":13.6288,"longitude":79.4192,"temp":22.4,"humidity":86,"rain":0.0,"pressure":992.6,"uv_index":9.35,"wind_gusts":32.8,"aqi":56,"pm10":16.9,"pm2_5":15.0,"mosquito_risk":3,"arthritis_risk":5,"migraine_risk":7,"frizz_risk":1,"updated_at":"2026-04-02T03:15:21.450416+05:30"},{"city":"Warangal","state":"Telangana","latitude":17.9689,"longitude":79.5941,"temp":25.3,"humidity":69,"rain":0.0,"pressure":979.0,"uv_index":9.0,"wind_gusts":25.9,"aqi":87,"pm10":15.3,"pm2_5":14.2,"mosquito_risk":7,"arthritis_risk":5,"migraine_risk":7,"frizz_risk":1,"updated_at":"2026-04-02T03:15:21.450422+05:30"},{"city":"Nizamabad","state":"Telangana","latitude":18.6725,"longitude":78.0941,"temp":25.3,"humidity":77,"rain":0.0,"pressure":964.7,"uv_index":8.9,"wind_gusts":34.2,"aqi":117,"pm10":36.2,"pm2_5":33.8,"mosquito_risk":7,"arthritis_risk":5,"migraine_risk":7,"frizz_risk":1,"updated_at":"2026-04-02T03:15:21.450428+05:30"},{"city":"Mysore","state":"Karnataka","latitude":12.2958,"longitude":76.6396,"temp":22.6,"humidity":94,"rain":0.0,"pressure":927.7,"uv_index":9.5,"wind_gusts":36.0,"aqi":83,"pm10":37.6,"pm2_5":34.2,"mosquito_risk":3,"arthritis_risk":5,"migraine_risk":7,"frizz_risk":1,"updated_at":"2026-04-02T03:15:21.450434+05:30"},{"city":"Mangalore","state":"Karnataka","latitude":12.9141,"longitude":74.856,"temp":28.3,"humidity":83,"rain":0.0,"pressure":1005.5,"uv_index":8.3,"wind_gusts":22.0,"aqi":88,"pm10":46.3,"pm2_5":43.0,"mosquito_risk":7,"arthritis_risk":5,"migraine_risk":4,"frizz_risk":1,"updated_at":"2026-04-02T03:15:21.450440+05:30"},{"city":"Hubli-Dharwad","state":"Karnataka","latitude":15.3647,"longitude":75.124,"temp":23.5,"humidity":90,"rain":0.0,"pressure":940.0,"uv_index":9.15,"wind_gusts":33.1,"aqi":99,"pm10":38.2,"pm2_5":35.7,"mosquito_risk":3,"arthritis_risk":5,"migraine_risk":7,"frizz_risk":1,"updated_at":"2026-04-02T03:15:21.450446+05:30"},{"city":"Belgaum","state":"Karnataka","latitude":15.8497,"longitude":74.4977,"temp":22.3,"humidity":94,"rain":0.0,"pressure":924.8,"uv_index":9.1,"wind_gusts":36.7,"aqi":113,"pm10":40.7,"pm2_5":36.6,"mosquito_risk":3,"arthritis_risk":5,"migraine_risk":7,"frizz_risk":1,"updated_at":"2026-04-02T03:15:24.679347+05:30"},{"city":"Coimbatore","state":"Tamil Nadu","latitude":11.0168,"longitude":76.9558,"temp":22.7,"humidity":94,"rain":0.0,"pressure":961.4,"uv_index":9.4,"wind_gusts":46.4,"aqi":67,"pm10":27.1,"pm2_5":23.8,"mosquito_risk":3,"arthritis_risk":5,"migraine_risk":7,"frizz_risk":1,"updated_at":"2026-04-02T03:15:24.679378+05:30"},{"city":"Madurai","state":"Tamil Nadu","latitude":9.9252,"longitude":78.1198,"temp":24.8,"humidity":85,"rain":0.0,"pressure":993.5,"uv_index":9.4,"wind_gusts":28.1,"aqi":57,"pm10":24.3,"pm2_5":22.1,"mosquito_risk":3,"arthritis_risk":5,"migraine_risk":7,"frizz_risk":1,"updated_at":"2026-04-02T03:15:24.679388+05:30"},{"city":"Trichy","state":"Tamil Nadu","latitude":10.7905,"longitude":78.7047,"temp":23.3,"humidity":92,"rain":0.0,"pressure":1000.3,"uv_index":9.4,"wind_gusts":16.6,"aqi":57,"pm10":16.8,"pm2_5":14.9,"mosquito_risk":3,"arthritis_risk":5,"migraine_risk":4,"frizz_risk":1,"updated_at":"2026-04-02T03:15:24.679395+05:30"},{"city":"Salem","state":"Tamil Nadu","latitude":11.6643,"longitude":78.146,"temp":24.3,"humidity":81,"rain":0.0,"pressure":977.6,"uv_index":9.45,"wind_gusts":13.0,"aqi":75,"pm10":24.9,"pm2_5":23.1,"mosquito_risk":3,"arthritis_risk":5,"migraine_risk":7,"frizz_risk":1,"updated_at":"2026-04-02T03:15:24.679403+05:30"},{"city":"Tirunelveli","state":"Tamil Nadu","latitude":8.7139,"longitude":77.7567,"temp":24.6,"humidity":85,"rain":0.0,"pressure":1003.4,"uv_index":9.25,"wind_gusts":46.1,"aqi":49,"pm10":23.2,"pm2_5":21.2,"mosquito_risk":3,"arthritis_risk":5,"migraine_risk":4,"frizz_risk":1,"updated_at":"2026-04-02T03:15:24.679410+05:30"},{"city":"Vellore","state":"Tamil Nadu","latitude":12.9165,"longitude":79.1325,"temp":22.2,"humidity":85,"rain":0.0,"pressure":985.3,"uv_index":9.3,"wind_gusts":28.1,"aqi":59,"pm10":24.4,"pm2_5":22.7,"mosquito_risk":3,"arthritis_risk":5,"migraine_risk":7,"frizz_risk":1,"updated_at":"2026-04-02T03:15:24.679417+05:30"},{"city":"Erode","state":"Tamil Nadu","latitude":11.341,"longitude":77.7172,"temp":25.4,"humidity":78,"rain":0.0,"pressure":989.5,"uv_index":9.15,"wind_gusts":20.9,"aqi":57,"pm10":13.7,"pm2_5":12.5,"mosquito_risk":7,"arthritis_risk":5,"migraine_risk":7,"frizz_risk":1,"updated_at":"2026-04-02T03:15:24.679424+05:30"},{"city":"Kochi","state":"Kerala","latitude":9.9312,"longitude":76.2673,"temp":27.7,"humidity":84,"rain":0.0,"pressure":1008.0,"uv_index":9.2,"wind_gusts":29.2,"aqi":79,"pm10":24.0,"pm2_5":22.4,"mosquito_risk":7,"arthritis_risk":0,"migraine_risk":4,"frizz_risk":1,"updated_at":"2026-04-02T03:15:24.679432+05:30"},{"city":"Thiruvananthapuram","state":"Kerala","latitude":8.5241,"longitude":76.9366,"temp":28.6,"humidity":78,"rain":0.0,"pressure":1007.2,"uv_index":9.15,"wind_gusts":25.9,"aqi":68,"pm10":16.1,"pm2_5":12.1,"mosquito_risk":7,"arthritis_risk":5,"migraine_risk":4,"frizz_risk":1,"updated_at":"2026-04-02T03:15:24.679439+05:30"},{"city":"Kozhikode","state":"Kerala","latitude":11.2588,"longitude":75.7804,"temp":28.3,"humidity":84,"rain":0.0,"pressure":1006.9,"uv_index":9.15,"wind_gusts":24.8,"aqi":70,"pm10":31.0,"pm2_5":25.2,"mosquito_risk":7,"arthritis_risk":5,"migraine_risk":4,"frizz_risk":1,"updated_at":"2026-04-02T03:15:24.679446+05:30"},{"city":"Thrissur","state":"Kerala","latitude":10.5276,"longitude":76.2144,"temp":27.0,"humidity":90,"rain":0.0,"pressure":1006.3,"uv_index":9.2,"wind_gusts":32.8,"aqi":76,"pm10":25.6,"pm2_5":23.3,"mosquito_risk":7,"arthritis_risk":5,"migraine_risk":4,"frizz_risk":1,"updated_at":"2026-04-02T03:15:24.679454+05:30"},{"city":"Kannur","state":"Kerala","latitude":11.8745,"longitude":75.3704,"temp":28.1,"humidity":84,"rain":0.0,"pressure":1006.0,"uv_index":9.1,"wind_gusts":24.1,"aqi":91,"pm10":39.6,"pm2_5":36.6,"mosquito_risk":7,"arthritis_risk":5,"migraine_risk":4,"frizz_risk":1,"updated_at":"2026-04-02T03:15:24.679462+05:30"},{"city":"Patna","state":"Bihar","latitude":25.5941,"longitude":85.1376,"temp":25.4,"humidity":69,"rain":0.0,"pressure":1000.3,"uv_index":8.25,"wind_gusts":34.9,"aqi":151,"pm10":30.3,"pm2_5":24.7,"mosquito_risk":7,"arthritis_risk":5,"migraine_risk":4,"frizz_risk":1,"updated_at":"2026-04-02T03:15:24.679469+05:30"},{"city":"Gaya","state":"Bihar","latitude":24.7914,"longitude":85.0002,"temp":26.6,"humidity":64,"rain":0.0,"pressure":994.1,"uv_index":8.35,"wind_gusts":27.7,"aqi":87,"pm10":39.7,"pm2_5":29.7,"mosquito_risk":7,"arthritis_risk":5,"migraine_risk":7,"frizz_risk":1,"updated_at":"2026-04-02T03:15:24.679476+05:30"},{"city":"Muzaffarpur","state":"Bihar","latitude":26.1209,"longitude":85.3647,"temp":23.0,"humidity":70,"rain":0.0,"pressure":1000.1,"uv_index":8.25,"wind_gusts":32.0,"aqi":154,"pm10":32.5,"pm2_5":24.7,"mosquito_risk":3,"arthritis_risk":5,"migraine_risk":4,"frizz_risk":1,"updated_at":"2026-04-02T03:15:24.679483+05:30"},{"city":"Bhagalpur","state":"Bihar","latitude":25.2425,"longitude":87.0117,"temp":24.9,"humidity":79,"rain":0.0,"pressure":1000.7,"uv_index":8.25,"wind_gusts":28.8,"aqi":142,"pm10":31.4,"pm2_5":20.8,"mosquito_risk":3,"arthritis_risk":5,"migraine_risk":4,"frizz_risk":1,"updated_at":"2026-04-02T03:15:24.679490+05:30"},{"city":"Ranchi","state":"Jharkhand","latitude":23.3441,"longitude":85.3096,"temp":23.7,"humidity":60,"rain":0.0,"pressure":938.4,"uv_index":8.9,"wind_gusts":32.4,"aqi":87,"pm10":48.3,"pm2_5":24.6,"mosquito_risk":0,"arthritis_risk":5,"migraine_risk":7,"frizz_risk":0,"updated_at":"2026-04-02T03:15:24.679496+05:30"},{"city":"Jamshedpur","state":"Jharkhand","latitude":22.8046,"longitude":86.2029,"temp":27.3,"humidity":75,"rain":0.0,"pressure":991.1,"uv_index":8.75,"wind_gusts":29.5,"aqi":122,"pm10":65.9,"pm2_5":46.6,"mosquito_risk":7,"arthritis_risk":5,"migraine_risk":7,"frizz_risk":1,"updated_at":"2026-04-02T03:15:24.679502+05:30"},{"city":"Dhanbad","state":"Jharkhand","latitude":23.7957,"longitude":86.4304,"temp":25.5,"humidity":70,"rain":0.0,"pressure":979.9,"uv_index":8.65,"wind_gusts":30.2,"aqi":156,"pm10":99.7,"pm2_5":70.3,"mosquito_risk":7,"arthritis_risk":5,"migraine_risk":7,"frizz_risk":1,"updated_at":"2026-04-02T03:15:24.679509+05:30"},{"city":"Bokaro","state":"Jharkhand","latitude":23.6693,"longitude":86.1511,"temp":25.9,"humidity":60,"rain":0.0,"pressure":984.4,"uv_index":8.65,"wind_gusts":32.8,"aqi":149,"pm10":99.7,"pm2_5":72.2,"mosquito_risk":4,"arthritis_risk":5,"migraine_risk":7,"frizz_risk":1,"updated_at":"2026-04-02T03:15:24.679515+05:30"},{"city":"Bhubaneswar","state":"Odisha","latitude":20.2961,"longitude":85.8245,"temp":25.5,"humidity":89,"rain":0.0,"pressure":1003.2,"uv_index":8.9,"wind_gusts":31.0,"aqi":82,"pm10":17.1,"pm2_5":14.5,"mosquito_risk":7,"arthritis_risk":5,"migraine_risk":4,"frizz_risk":1,"updated_at":"2026-04-02T03:15:24.679521+05:30"},{"city":"Cuttack","state":"Odisha","latitude":20.4625,"longitude":85.8828,"temp":25.0,"humidity":94,"rain":0.0,"pressure":1005.2,"uv_index":8.95,"wind_gusts":24.1,"aqi":82,"pm10":17.1,"pm2_5":14.5,"mosquito_risk":7,"arthritis_risk":5,"migraine_risk":4,"frizz_risk":1,"updated_at":"2026-04-02T03:15:24.679528+05:30"},{"city":"Rourkela","state":"Odisha","latitude":22.2604,"longitude":84.8536,"temp":25.8,"humidity":78,"rain":0.0,"pressure":985.3,"uv_index":8.65,"wind_gusts":26.6,"aqi":134,"pm10":88.7,"pm2_5":51.6,"mosquito_risk":7,"arthritis_risk":5,"migraine_risk":7,"frizz_risk":1,"updated_at":"2026-04-02T03:15:24.679534+05:30"},{"city":"Raipur","state":"Chhattisgarh","latitude":21.2514,"longitude":81.6296,"temp":26.0,"humidity":68,"rain":0.0,"pressure":974.7,"uv_index":8.75,"wind_gusts":29.2,"aqi":131,"pm10":71.5,"pm2_5":64.0,"mosquito_risk":7,"arthritis_risk":5,"migraine_risk":7,"frizz_risk":1,"updated_at":"2026-04-02T03:15:24.679541+05:30"},{"city":"Bhilai","state":"Chhattisgarh","latitude":21.1938,"longitude":81.3509,"temp":25.2,"humidity":70,"rain":0.0,"pressure":974.8,"uv_index":8.75,"wind_gusts":27.7,"aqi":122,"pm10":77.3,"pm2_5":71.5,"mosquito_risk":7,"arthritis_risk":5,"migraine_risk":7,"frizz_risk":1,"updated_at":"2026-04-02T03:15:24.679547+05:30"},{"city":"Guwahati","state":"Assam","latitude":26.1158,"longitude":91.7086,"temp":22.0,"humidity":94,"rain":0.0,"pressure":1001.6,"uv_index":8.15,"wind_gusts":37.4,"aqi":90,"pm10":41.6,"pm2_5":37.0,"mosquito_risk":3,"arthritis_risk":5,"migraine_risk":4,"frizz_risk":1,"updated_at":"2026-04-02T03:15:24.679553+05:30"},{"city":"Agartala","state":"Tripura","latitude":23.8315,"longitude":91.2868,"temp":22.3,"humidity":93,"rain":0.0,"pressure":1007.4,"uv_index":8.4,"wind_gusts":43.9,"aqi":86,"pm10":33.3,"pm2_5":31.7,"mosquito_risk":3,"arthritis_risk":5,"migraine_risk":4,"frizz_risk":1,"updated_at":"2026-04-02T03:15:24.679559+05:30"},{"city":"Shillong","state":"Meghalaya","latitude":25.5788,"longitude":91.8933,"temp":15.1,"humidity":90,"rain":0.0,"pressure":855.3,"uv_index":8.55,"wind_gusts":70.9,"aqi":70,"pm10":25.0,"pm2_5":21.0,"mosquito_risk":3,"arthritis_risk":10,"migraine_risk":7,"frizz_risk":0,"updated_at":"2026-04-02T03:15:24.679566+05:30"},{"city":"Imphal","state":"Manipur","latitude":24.817,"longitude":93.9368,"temp":17.9,"humidity":90,"rain":0.0,"pressure":923.5,"uv_index":8.75,"wind_gusts":83.9,"aqi":95,"pm10":49.2,"pm2_5":40.7,"mosquito_risk":3,"arthritis_risk":10,"migraine_risk":7,"frizz_risk":1,"updated_at":"2026-04-02T03:15:24.679573+05:30"},{"city":"Aizawl","state":"Mizoram","latitude":23.7271,"longitude":92.7176,"temp":18.3,"humidity":89,"rain":0.0,"pressure":893.0,"uv_index":8.6,"wind_gusts":52.9,"aqi":89,"pm10":44.1,"pm2_5":37.6,"mosquito_risk":3,"arthritis_risk":10,"migraine_risk":7,"frizz_risk":1,"updated_at":"2026-04-02T03:15:24.679579+05:30"},{"city":"Kohima","state":"Nagaland","latitude":25.6701,"longitude":94.1077,"temp":16.6,"humidity":77,"rain":0.0,"pressure":854.4,"uv_index":8.65,"wind_gusts":99.0,"aqi":78,"pm10":33.6,"pm2_5":26.2,"mosquito_risk":3,"arthritis_risk":5,"migraine_risk":7,"frizz_risk":0,"updated_at":"2026-04-02T03:15:24.679586+05:30"},{"city":"Gangtok","state":"Sikkim","latitude":27.3314,"longitude":88.6138,"temp":13.3,"humidity":81,"rain":0.0,"pressure":835.2,"uv_index":8.5,"wind_gusts":19.8,"aqi":79,"pm10":19.8,"pm2_5":18.0,"mosquito_risk":3,"arthritis_risk":10,"migraine_risk":7,"frizz_risk":0,"updated_at":"2026-04-02T03:15:24.679592+05:30"},{"city":"Siliguri","state":"West Bengal","latitude":26.7271,"longitude":88.3953,"temp":20.1,"humidity":80,"rain":0.0,"pressure":993.6,"uv_index":8.05,"wind_gusts":23.0,"aqi":154,"pm10":79.9,"pm2_5":72.4,"mosquito_risk":3,"arthritis_risk":5,"migraine_risk":7,"frizz_risk":1,"updated_at":"2026-04-02T03:15:27.906875+05:30"},{"city":"Durgapur","state":"West Bengal","latitude":23.5204,"longitude":87.3119,"temp":27.0,"humidity":87,"rain":0.0,"pressure":995.0,"uv_index":8.6,"wind_gusts":25.2,"aqi":150,"pm10":83.4,"pm2_5":67.1,"mosquito_risk":7,"arthritis_risk":5,"migraine_risk":7,"frizz_risk":1,"updated_at":"2026-04-02T03:15:27.906906+05:30"},{"city":"Asansol","state":"West Bengal","latitude":23.6739,"longitude":86.9524,"temp":27.3,"humidity":84,"rain":0.0,"pressure":993.5,"uv_index":8.6,"wind_gusts":24.8,"aqi":146,"pm10":68.0,"pm2_5":46.7,"mosquito_risk":7,"arthritis_risk":5,"migraine_risk":7,"frizz_risk":1,"updated_at":"2026-04-02T03:15:27.906918+05:30"},{"city":"Pondicherry","state":"Puducherry","latitude":11.9139,"longitude":79.8145,"temp":22.5,"humidity":93,"rain":0.0,"pressure":1009.1,"uv_index":9.25,"wind_gusts":27.7,"aqi":35,"pm10":11.4,"pm2_5":8.5,"mosquito_risk":3,"arthritis_risk":0,"migraine_risk":4,"frizz_risk":1,"updated_at":"2026-04-02T03:15:27.906927+05:30"},{"city":"Port Blair","state":"Andaman and Nicobar Islands","latitude":11.6234,"longitude":92.7265,"temp":28.2,"humidity":81,"rain":0.0,"pressure":1006.8,"uv_index":9.15,"wind_gusts":28.4,"aqi":48,"pm10":11.4,"pm2_5":9.6,"mosquito_risk":7,"arthritis_risk":5,"migraine_risk":4,"frizz_risk":1,"updated_at":"2026-04-02T03:15:27.906936+05:30"},{"city":"Haridwar","state":"Uttarakhand","latitude":29.9457,"longitude":78.1642,"temp":19.9,"humidity":66,"rain":0.0,"pressure":975.9,"uv_index":6.1,"wind_gusts":25.9,"aqi":70,"pm10":34.2,"pm2_5":25.9,"mosquito_risk":3,"arthritis_risk":5,"migraine_risk":7,"frizz_risk":0,"updated_at":"2026-04-02T03:15:27.906944+05:30"},{"city":"Rishikesh","state":"Uttarakhand","latitude":30.0869,"longitude":78.2676,"temp":19.3,"humidity":60,"rain":0.0,"pressure":968.8,"uv_index":5.9,"wind_gusts":29.2,"aqi":56,"pm10":28.1,"pm2_5":16.9,"mosquito_risk":0,"arthritis_risk":5,"migraine_risk":3,"frizz_risk":0,"updated_at":"2026-04-02T03:15:27.906953+05:30"},{"city":"Nainital","state":"Uttarakhand","latitude":29.3919,"longitude":79.4542,"temp":18.2,"humidity":42,"rain":0.0,"pressure":806.9,"uv_index":7.65,"wind_gusts":36.4,"aqi":64,"pm10":25.6,"pm2_5":17.4,"mosquito_risk":0,"arthritis_risk":5,"migraine_risk":7,"frizz_risk":0,"updated_at":"2026-04-02T03:15:27.906960+05:30"},{"city":"Mussoorie","state":"Uttarakhand","latitude":30.4599,"longitude":78.0664,"temp":15.7,"humidity":49,"rain":0.0,"pressure":803.7,"uv_index":5.85,"wind_gusts":34.9,"aqi":61,"pm10":28.7,"pm2_5":21.0,"mosquito_risk":0,"arthritis_risk":5,"migraine_risk":3,"frizz_risk":0,"updated_at":"2026-04-02T03:15:27.906967+05:30"},{"city":"Dharamshala","state":"Himachal Pradesh","latitude":32.219,"longitude":76.3234,"temp":18.8,"humidity":45,"rain":0.0,"pressure":870.4,"uv_index":7.35,"wind_gusts":21.2,"aqi":40,"pm10":11.8,"pm2_5":6.7,"mosquito_risk":0,"arthritis_risk":5,"migraine_risk":7,"frizz_risk":0,"updated_at":"2026-04-02T03:15:27.906973+05:30"},{"city":"Dalhousie","state":"Himachal Pradesh","latitude":32.5387,"longitude":75.971,"temp":14.9,"humidity":50,"rain":0.0,"pressure":804.1,"uv_index":7.1,"wind_gusts":20.2,"aqi":62,"pm10":31.5,"pm2_5":24.6,"mosquito_risk":0,"arthritis_risk":5,"migraine_risk":7,"frizz_risk":0,"updated_at":"2026-04-02T03:15:27.906980+05:30"},{"city":"Patiala","state":"Punjab","latitude":30.3398,"longitude":76.3869,"temp":19.8,"humidity":73,"rain":0.0,"pressure":979.7,"uv_index":6.6,"wind_gusts":15.5,"aqi":124,"pm10":85.0,"pm2_5":68.0,"mosquito_risk":3,"arthritis_risk":5,"migraine_risk":7,"frizz_risk":0,"updated_at":"2026-04-02T03:15:27.906986+05:30"},{"city":"Bhatinda","state":"Punjab","latitude":30.211,"longitude":74.9455,"temp":20.8,"humidity":75,"rain":0.0,"pressure":985.3,"uv_index":7.35,"wind_gusts":23.8,"aqi":117,"pm10":189.5,"pm2_5":56.5,"mosquito_risk":3,"arthritis_risk":5,"migraine_risk":7,"frizz_risk":1,"updated_at":"2026-04-02T03:15:27.906992+05:30"},{"city":"Rohtak","state":"Haryana","latitude":28.8955,"longitude":76.6066,"temp":19.8,"humidity":79,"rain":0.0,"pressure":983.0,"uv_index":6.65,"wind_gusts":13.7,"aqi":156,"pm10":171.4,"pm2_5":49.8,"mosquito_risk":3,"arthritis_risk":5,"migraine_risk":7,"frizz_risk":1,"updated_at":"2026-04-02T03:15:27.906998+05:30"},{"city":"Panipat","state":"Haryana","latitude":29.3909,"longitude":76.9635,"temp":19.9,"humidity":74,"rain":0.0,"pressure":981.8,"uv_index":6.7,"wind_gusts":12.2,"aqi":146,"pm10":169.5,"pm2_5":53.6,"mosquito_risk":3,"arthritis_risk":5,"migraine_risk":7,"frizz_risk":0,"updated_at":"2026-04-02T03:15:27.907004+05:30"},{"city":"Mathura","state":"Uttar Pradesh","latitude":27.4924,"longitude":77.6737,"temp":21.3,"humidity":78,"rain":0.0,"pressure":987.6,"uv_index":7.1,"wind_gusts":18.0,"aqi":234,"pm10":234.2,"pm2_5":61.0,"mosquito_risk":3,"arthritis_risk":5,"migraine_risk":7,"frizz_risk":1,"updated_at":"2026-04-02T03:15:27.907010+05:30"},{"city":"Vrindavan","state":"Uttar Pradesh","latitude":27.5823,"longitude":77.7027,"temp":21.0,"humidity":70,"rain":0.0,"pressure":988.1,"uv_index":6.95,"wind_gusts":16.9,"aqi":234,"pm10":234.2,"pm2_5":61.0,"mosquito_risk":3,"arthritis_risk":5,"migraine_risk":7,"frizz_risk":0,"updated_at":"2026-04-02T03:15:27.907016+05:30"},{"city":"Ayodhya","state":"Uttar Pradesh","latitude":26.7922,"longitude":82.1998,"temp":22.8,"humidity":67,"rain":0.0,"pressure":995.5,"uv_index":7.65,"wind_gusts":36.4,"aqi":76,"pm10":106.9,"pm2_5":34.3,"mosquito_risk":3,"arthritis_risk":5,"migraine_risk":7,"frizz_risk":1,"updated_at":"2026-04-02T03:15:27.907022+05:30"},{"city":"Ratlam","state":"Madhya Pradesh","latitude":23.3315,"longitude":75.0367,"temp":24.5,"humidity":58,"rain":0.0,"pressure":953.8,"uv_index":8.15,"wind_gusts":32.8,"aqi":71,"pm10":26.0,"pm2_5":21.3,"mosquito_risk":0,"arthritis_risk":5,"migraine_risk":7,"frizz_risk":0,"updated_at":"2026-04-02T03:15:27.907028+05:30"},{"city":"Sagar","state":"Madhya Pradesh","latitude":23.8388,"longitude":78.7378,"temp":22.7,"humidity":73,"rain":0.0,"pressure":950.8,"uv_index":7.35,"wind_gusts":28.8,"aqi":60,"pm10":33.3,"pm2_5":21.7,"mosquito_risk":3,"arthritis_risk":5,"migraine_risk":7,"frizz_risk":1,"updated_at":"2026-04-02T03:15:27.907034+05:30"},{"city":"Satna","state":"Madhya Pradesh","latitude":24.6005,"longitude":80.8322,"temp":25.6,"humidity":62,"rain":0.0,"pressure":971.9,"uv_index":7.85,"wind_gusts":25.6,"aqi":58,"pm10":39.1,"pm2_5":20.9,"mosquito_risk":7,"arthritis_risk":5,"migraine_risk":7,"frizz_risk":1,"updated_at":"2026-04-02T03:15:27.907040+05:30"},{"city":"Akola","state":"Maharashtra","latitude":20.7002,"longitude":77.0082,"temp":24.3,"humidity":80,"rain":0.0,"pressure":976.1,"uv_index":8.6,"wind_gusts":22.7,"aqi":84,"pm10":38.0,"pm2_5":31.9,"mosquito_risk":3,"arthritis_risk":5,"migraine_risk":7,"frizz_risk":1,"updated_at":"2026-04-02T03:15:27.907046+05:30"},{"city":"Amravati","state":"Maharashtra","latitude":20.9374,"longitude":77.7796,"temp":24.3,"humidity":82,"rain":0.0,"pressure":967.8,"uv_index":8.5,"wind_gusts":29.2,"aqi":80,"pm10":33.1,"pm2_5":27.6,"mosquito_risk":3,"arthritis_risk":5,"migraine_risk":7,"frizz_risk":1,"updated_at":"2026-04-02T03:15:27.907053+05:30"},{"city":"Latur","state":"Maharashtra","latitude":18.4088,"longitude":76.5604,"temp":23.1,"humidity":80,"rain":0.0,"pressure":940.0,"uv_index":8.9,"wind_gusts":29.2,"aqi":100,"pm10":39.5,"pm2_5":35.4,"mosquito_risk":3,"arthritis_risk":5,"migraine_risk":7,"frizz_risk":1,"updated_at":"2026-04-02T03:15:27.907059+05:30"},{"city":"Nanded","state":"Maharashtra","latitude":19.1383,"longitude":77.3091,"temp":24.3,"humidity":82,"rain":0.0,"pressure":969.4,"uv_index":8.8,"wind_gusts":27.7,"aqi":105,"pm10":32.4,"pm2_5":29.6,"mosquito_risk":3,"arthritis_risk":5,"migraine_risk":7,"frizz_risk":1,"updated_at":"2026-04-02T03:15:27.907065+05:30"},{"city":"Gulbarga","state":"Karnataka","latitude":17.3297,"longitude":76.8343,"temp":24.8,"humidity":76,"rain":0.0,"pressure":958.9,"uv_index":9.0,"wind_gusts":52.6,"aqi":92,"pm10":34.2,"pm2_5":31.1,"mosquito_risk":3,"arthritis_risk":5,"migraine_risk":7,"frizz_risk":1,"updated_at":"2026-04-02T03:15:27.907071+05:30"},{"city":"Bidar","state":"Karnataka","latitude":17.9104,"longitude":77.5199,"temp":23.8,"humidity":78,"rain":0.0,"pressure":935.7,"uv_index":9.0,"wind_gusts":42.5,"aqi":100,"pm10":38.3,"pm2_5":34.9,"mosquito_risk":3,"arthritis_risk":5,"migraine_risk":7,"frizz_risk":1,"updated_at":"2026-04-02T03:15:27.907077+05:30"},{"city":"Hospet","state":"Karnataka","latitude":15.2689,"longitude":76.3909,"temp":25.8,"humidity":76,"rain":0.0,"pressure":955.2,"uv_index":9.2,"wind_gusts":35.3,"aqi":110,"pm10":45.3,"pm2_5":41.4,"mosquito_risk":7,"arthritis_risk":5,"migraine_risk":7,"frizz_risk":1,"updated_at":"2026-04-02T03:15:27.907083+05:30"},{"city":"Tirupur","state":"Tamil Nadu","latitude":11.1085,"longitude":77.3411,"temp":25.3,"humidity":77,"rain":0.0,"pressure":975.4,"uv_index":9.15,"wind_gusts":28.4,"aqi":62,"pm10":19.6,"pm2_5":17.8,"mosquito_risk":7,"arthritis_risk":5,"migraine_risk":7,"frizz_risk":1,"updated_at":"2026-04-02T03:15:27.907089+05:30"},{"city":"Alappuzha","state":"Kerala","latitude":9.4981,"longitude":76.3388,"temp":27.9,"humidity":82,"rain":0.0,"pressure":1008.1,"uv_index":9.2,"wind_gusts":28.4,"aqi":72,"pm10":20.7,"pm2_5":16.9,"mosquito_risk":7,"arthritis_risk":0,"migraine_risk":4,"frizz_risk":1,"updated_at":"2026-04-02T03:15:27.907095+05:30"},{"city":"Munnar","state":"Kerala","latitude":10.0889,"longitude":77.0595,"temp":18.4,"humidity":89,"rain":0.0,"pressure":855.1,"uv_index":9.75,"wind_gusts":32.0,"aqi":67,"pm10":29.8,"pm2_5":25.7,"mosquito_risk":3,"arthritis_risk":10,"migraine_risk":7,"frizz_risk":1,"updated_at":"2026-04-02T03:15:27.907102+05:30"},{"city":"Silchar","state":"Assam","latitude":24.8333,"longitude":92.7789,"temp":22.0,"humidity":91,"rain":0.0,"pressure":1006.9,"uv_index":8.45,"wind_gusts":31.3,"aqi":112,"pm10":42.4,"pm2_5":36.4,"mosquito_risk":3,"arthritis_risk":5,"migraine_risk":4,"frizz_risk":1,"updated_at":"2026-04-02T03:15:27.907108+05:30"},{"city":"Dibrugarh","state":"Assam","latitude":27.4728,"longitude":94.912,"temp":21.5,"humidity":91,"rain":0.0,"pressure":995.9,"uv_index":6.9,"wind_gusts":22.0,"aqi":99,"pm10":21.6,"pm2_5":18.3,"mosquito_risk":3,"arthritis_risk":5,"migraine_risk":7,"frizz_risk":1,"updated_at":"2026-04-02T03:15:27.907114+05:30"}]