[{"city":"Delhi","state":"Delhi","latitude":28.6139,"longitude":77.209,"temp":30.0,"humidity":34,"rain":0.0,"pressure":982.8,"uv_index":5.9,"wind_gusts":23.4,"aqi":160,"pm10":137.4,"pm2_5":41.3,"mosquito_risk":4,"arthritis_risk":5,"migraine_risk":3,"frizz_risk":0,"updated_at":"2026-03-17T15:31:21.558666+05:30"},{"city":"Mumbai","state":"Maharashtra","latitude":19.076,"longitude":72.8777,"temp":27.2,"humidity":72,"rain":0.0,"pressure":1007.6,"uv_index":7.7,"wind_gusts":18.7,"aqi":103,"pm10":61.7,"pm2_5":30.2,"mosquito_risk":7,"arthritis_risk":5,"migraine_risk":4,"frizz_risk":1,"updated_at":"2026-03-17T15:31:21.558699+05:30"},{"city":"Bangalore","state":"Karnataka","latitude":12.9716,"longitude":77.5946,"temp":30.3,"humidity":34,"rain":0.0,"pressure":910.3,"uv_index":9.35,"wind_gusts":42.5,"aqi":100,"pm10":50.4,"pm2_5":40.9,"mosquito_risk":0,"arthritis_risk":5,"migraine_risk":7,"frizz_risk":0,"updated_at":"2026-03-17T15:31:21.558713+05:30"},{"city":"Hyderabad","state":"Telangana","latitude":17.385,"longitude":78.4867,"temp":27.4,"humidity":57,"rain":0.0,"pressure":953.6,"uv_index":8.05,"wind_gusts":19.4,"aqi":88,"pm10":36.0,"pm2_5":27.9,"mosquito_risk":4,"arthritis_risk":5,"migraine_risk":7,"frizz_risk":1,"updated_at":"2026-03-17T15:31:21.558739+05:30"},{"city":"Chennai","state":"Tamil Nadu","latitude":13.0827,"longitude":80.2707,"temp":31.5,"humidity":55,"rain":0.0,"pressure":1006.5,"uv_index":9.1,"wind_gusts":33.1,"aqi":37,"pm10":10.3,"pm2_5":7.4,"mosquito_risk":0,"arthritis_risk":5,"migraine_risk":4,"frizz_risk":1,"updated_at":"2026-03-17T15:31:21.558747+05:30"},{"city":"Kolkata","state":"West Bengal","latitude":22.5726,"longitude":88.3639,"temp":31.6,"humidity":54,"rain":0.0,"pressure":1004.7,"uv_index":7.9,"wind_gusts":53.6,"aqi":92,"pm10":46.3,"pm2_5":39.9,"mosquito_risk":0,"arthritis_risk":5,"migraine_risk":4,"frizz_risk":1,"updated_at":"2026-03-17T15:31:21.558754+05:30"},{"city":"Pune","state":"Maharashtra","latitude":18.5204,"longitude":73.8567,"temp":33.2,"humidity":28,"rain":0.0,"pressure":947.3,"uv_index":8.25,"wind_gusts":36.7,"aqi":87,"pm10":37.7,"pm2_5":24.8,"mosquito_risk":0,"arthritis_risk":5,"migraine_risk":7,"frizz_risk":0,"updated_at":"2026-03-17T15:31:21.558764+05:30"},{"city":"Ahmedabad","state":"Gujarat","latitude":23.0225,"longitude":72.5714,"temp":36.9,"humidity":19,"rain":0.0,"pressure":1000.2,"uv_index":7.5,"wind_gusts":21.2,"aqi":56,"pm10":48.0,"pm2_5":12.8,"mosquito_risk":0,"arthritis_risk":5,"migraine_risk":7,"frizz_risk":0,"updated_at":"2026-03-17T15:31:21.558771+05:30"},{"city":"Jaipur","state":"Rajasthan","latitude":26.9124,"longitude":75.7873,"temp":33.5,"humidity":16,"rain":0.0,"pressure":958.3,"uv_index":6.65,"wind_gusts":38.5,"aqi":236,"pm10":207.7,"pm2_5":38.4,"mosquito_risk":0,"arthritis_risk":5,"migraine_risk":7,"frizz_risk":0,"updated_at":"2026-03-17T15:31:21.558777+05:30"},{"city":"Lucknow","state":"Uttar Pradesh","latitude":26.8467,"longitude":80.9462,"temp":35.1,"humidity":20,"rain":0.0,"pressure":991.4,"uv_index":6.6,"wind_gusts":24.8,"aqi":97,"pm10":88.0,"pm2_5":26.4,"mosquito_risk":0,"arthritis_risk":5,"migraine_risk":10,"frizz_risk":0,"updated_at":"2026-03-17T15:31:21.558784+05:30"},{"city":"Kanpur","state":"Uttar Pradesh","latitude":26.4499,"longitude":80.3319,"temp":35.4,"humidity":18,"rain":0.0,"pressure":989.2,"uv_index":6.7,"wind_gusts":23.8,"aqi":122,"pm10":84.8,"pm2_5":26.5,"mosquito_risk":0,"arthritis_risk":5,"migraine_risk":10,"frizz_risk":0,"updated_at":"2026-03-17T15:31:21.558790+05:30"},{"city":"Chandigarh","state":"Chandigarh","latitude":30.7333,"longitude":76.7794,"temp":26.5,"humidity":42,"rain":0.0,"pressure":970.0,"uv_index":5.5,"wind_gusts":17.3,"aqi":65,"pm10":114.3,"pm2_5":26.4,"mosquito_risk":4,"arthritis_risk":5,"migraine_risk":3,"frizz_risk":0,"updated_at":"2026-03-17T15:31:21.558796+05:30"},{"city":"Srinagar","state":"Jammu and Kashmir","latitude":34.0837,"longitude":74.7973,"temp":11.3,"humidity":59,"rain":0.0,"pressure":841.2,"uv_index":7.0,"wind_gusts":13.7,"aqi":133,"pm10":40.6,"pm2_5":24.3,"mosquito_risk":0,"arthritis_risk":5,"migraine_risk":7,"frizz_risk":0,"updated_at":"2026-03-17T15:31:21.558803+05:30"},{"city":"Jammu","state":"Jammu and Kashmir","latitude":32.7266,"longitude":74.857,"temp":25.4,"humidity":42,"rain":0.0,"pressure":974.4,"uv_index":6.7,"wind_gusts":15.8,"aqi":79,"pm10":136.4,"pm2_5":29.7,"mosquito_risk":4,"arthritis_risk":5,"migraine_risk":7,"frizz_risk":0,"updated_at":"2026-03-17T15:31:21.558809+05:30"},{"city":"Amritsar","state":"Punjab","latitude":31.634,"longitude":74.8723,"temp":26.1,"humidity":34,"rain":0.0,"pressure":982.7,"uv_index":6.45,"wind_gusts":16.9,"aqi":86,"pm10":125.3,"pm2_5":29.8,"mosquito_risk":4,"arthritis_risk":5,"migraine_risk":7,"frizz_risk":0,"updated_at":"2026-03-17T15:31:21.558815+05:30"},{"city":"Ludhiana","state":"Punjab","latitude":30.901,"longitude":75.8573,"temp":25.9,"humidity":40,"rain":0.0,"pressure":980.3,"uv_index":6.25,"wind_gusts":16.2,"aqi":77,"pm10":105.2,"pm2_5":30.9,"mosquito_risk":4,"arthritis_risk":5,"migraine_risk":7,"frizz_risk":0,"updated_at":"2026-03-17T15:31:21.558821+05:30"},{"city":"Jalandhar","state":"Punjab","latitude":31.326,"longitude":75.5762,"temp":24.9,"humidity":44,"rain":0.0,"pressure":981.7,"uv_index":6.5,"wind_gusts":16.9,"aqi":76,"pm10":164.8,"pm2_5":37.1,"mosquito_risk":0,"arthritis_risk":5,"migraine_risk":7,"frizz_risk":0,"updated_at":"2026-03-17T15:31:21.558830+05:30"},{"city":"Dehradun","state":"Uttarakhand","latitude":30.6284,"longitude":78.0322,"temp":16.7,"humidity":40,"rain":0.0,"pressure":830.1,"uv_index":4.85,"wind_gusts":23.8,"aqi":50,"pm10":82.0,"pm2_5":13.9,"mosquito_risk":0,"arthritis_risk":5,"migraine_risk":3,"frizz_risk":0,"updated_at":"2026-03-17T15:31:21.558836+05:30"},{"city":"Shimla","state":"Himachal Pradesh","latitude":31.1048,"longitude":77.1734,"temp":14.8,"humidity":55,"rain":0.0,"pressure":784.4,"uv_index":5.4,"wind_gusts":23.0,"aqi":54,"pm10":87.3,"pm2_5":16.5,"mosquito_risk":0,"arthritis_risk":5,"migraine_risk":3,"frizz_risk":0,"updated_at":"2026-03-17T15:31:21.558842+05:30"},{"city":"Manali","state":"Himachal Pradesh","latitude":32.2396,"longitude":77.1887,"temp":13.3,"humidity":34,"rain":0.0,"pressure":818.6,"uv_index":6.95,"wind_gusts":38.2,"aqi":91,"pm10":28.3,"pm2_5":7.4,"mosquito_risk":0,"arthritis_risk":5,"migraine_risk":7,"frizz_risk":1,"updated_at":"2026-03-17T15:31:21.558848+05:30"},{"city":"Gurgaon","state":"Haryana","latitude":28.4595,"longitude":77.0266,"temp":29.9,"humidity":36,"rain":0.0,"pressure":981.3,"uv_index":6.25,"wind_gusts":22.7,"aqi":1131,"pm10":502.9,"pm2_5":80.8,"mosquito_risk":4,"arthritis_risk":5,"migraine_risk":7,"frizz_risk":0,"updated_at":"2026-03-17T15:31:21.558854+05:30"},{"city":"Noida","state":"Uttar Pradesh","latitude":28.5355,"longitude":77.391,"temp":30.6,"humidity":33,"rain":0.0,"pressure":984.3,"uv_index":5.9,"wind_gusts":23.0,"aqi":1131,"pm10":502.9,"pm2_5":80.8,"mosquito_risk":0,"arthritis_risk":5,"migraine_risk":3,"frizz_risk":0,"updated_at":"2026-03-17T15:31:21.558860+05:30"},{"city":"Ghaziabad","state":"Uttar Pradesh","latitude":28.6692,"longitude":77.4538,"temp":29.8,"humidity":36,"rain":0.0,"pressure":982.5,"uv_index":5.8,"wind_gusts":20.5,"aqi":118,"pm10":169.5,"pm2_5":39.3,"mosquito_risk":4,"arthritis_risk":5,"migraine_risk":3,"frizz_risk":0,"updated_at":"2026-03-17T15:31:21.558866+05:30"},{"city":"Faridabad","state":"Haryana","latitude":28.4089,"longitude":77.3178,"temp":30.6,"humidity":33,"rain":0.0,"pressure":983.4,"uv_index":6.2,"wind_gusts":21.6,"aqi":1131,"pm10":502.9,"pm2_5":80.8,"mosquito_risk":0,"arthritis_risk":5,"migraine_risk":7,"frizz_risk":0,"updated_at":"2026-03-17T15:31:21.558872+05:30"},{"city":"Meerut","state":"Uttar Pradesh","latitude":28.9845,"longitude":77.7064,"temp":29.3,"humidity":35,"rain":0.0,"pressure":981.6,"uv_index":5.65,"wind_gusts":17.3,"aqi":118,"pm10":169.5,"pm2_5":39.3,"mosquito_risk":4,"arthritis_risk":5,"migraine_risk":3,"frizz_risk":0,"updated_at":"2026-03-17T15:31:21.558878+05:30"},{"city":"Agra","state":"Uttar Pradesh","latitude":27.1767,"longitude":78.0081,"temp":34.6,"humidity":23,"rain":0.0,"pressure":986.1,"uv_index":6.45,"wind_gusts":16.6,"aqi":450,"pm10":547.6,"pm2_5":81.3,"mosquito_risk":0,"arthritis_risk":5,"migraine_risk":7,"frizz_risk":0,"updated_at":"2026-03-17T15:31:21.558883+05:30"},{"city":"Varanasi","state":"Uttar Pradesh","latitude":25.3176,"longitude":82.9739,"temp":35.3,"humidity":19,"rain":0.0,"pressure":995.5,"uv_index":7.35,"wind_gusts":20.2,"aqi":145,"pm10":47.5,"pm2_5":16.9,"mosquito_risk":0,"arthritis_risk":5,"migraine_risk":10,"frizz_risk":0,"updated_at":"2026-03-17T15:31:21.558892+05:30"},{"city":"Prayagraj","state":"Uttar Pradesh","latitude":25.4358,"longitude":81.8463,"temp":34.8,"humidity":23,"rain":0.0,"pressure":993.7,"uv_index":7.2,"wind_gusts":20.9,"aqi":125,"pm10":56.7,"pm2_5":20.5,"mosquito_risk":0,"arthritis_risk":5,"migraine_risk":7,"frizz_risk":0,"updated_at":"2026-03-17T15:31:21.558898+05:30"},{"city":"Gorakhpur","state":"Uttar Pradesh","latitude":26.7606,"longitude":83.3732,"temp":33.9,"humidity":26,"rain":0.0,"pressure":995.4,"uv_index":7.05,"wind_gusts":23.4,"aqi":95,"pm10":56.6,"pm2_5":23.9,"mosquito_risk":0,"arthritis_risk":5,"migraine_risk":7,"frizz_risk":0,"updated_at":"2026-03-17T15:31:21.558903+05:30"},{"city":"Bareilly","state":"Uttar Pradesh","latitude":28.367,"longitude":79.4304,"temp":30.8,"humidity":33,"rain":0.0,"pressure":986.3,"uv_index":5.45,"wind_gusts":16.9,"aqi":99,"pm10":63.1,"pm2_5":22.2,"mosquito_risk":0,"arthritis_risk":5,"migraine_risk":3,"frizz_risk":0,"updated_at":"2026-03-17T15:31:21.558911+05:30"},{"city":"Aligarh","state":"Uttar Pradesh","latitude":27.8974,"longitude":78.088,"temp":32.6,"humidity":31,"rain":0.0,"pressure":984.3,"uv_index":6.15,"wind_gusts":16.9,"aqi":266,"pm10":259.8,"pm2_5":56.3,"mosquito_risk":0,"arthritis_risk":5,"migraine_risk":7,"frizz_risk":0,"updated_at":"2026-03-17T15:31:21.558919+05:30"},{"city":"Moradabad","state":"Uttar Pradesh","latitude":28.8386,"longitude":78.7733,"temp":29.4,"humidity":36,"rain":0.0,"pressure":983.6,"uv_index":5.45,"wind_gusts":16.9,"aqi":111,"pm10":49.6,"pm2_5":24.2,"mosquito_risk":4,"arthritis_risk":5,"migraine_risk":3,"frizz_risk":0,"updated_at":"2026-03-17T15:31:21.558924+05:30"},{"city":"Saharanpur","state":"Uttar Pradesh","latitude":29.9637,"longitude":77.546,"temp":27.6,"humidity":33,"rain":0.0,"pressure":976.6,"uv_index":4.55,"wind_gusts":14.8,"aqi":126,"pm10":125.3,"pm2_5":27.0,"mosquito_risk":4,"arthritis_risk":5,"migraine_risk":3,"frizz_risk":0,"updated_at":"2026-03-17T15:31:21.558930+05:30"},{"city":"Jhansi","state":"Uttar Pradesh","latitude":25.4484,"longitude":78.5685,"temp":36.7,"humidity":12,"rain":0.0,"pressure":975.2,"uv_index":7.2,"wind_gusts":24.5,"aqi":81,"pm10":33.1,"pm2_5":9.7,"mosquito_risk":0,"arthritis_risk":5,"migraine_risk":10,"frizz_risk":0,"updated_at":"2026-03-17T15:31:24.819862+05:30"},{"city":"Surat","state":"Gujarat","latitude":21.1702,"longitude":72.8311,"temp":29.1,"humidity":62,"rain":0.0,"pressure":1006.1,"uv_index":7.4,"wind_gusts":29.5,"aqi":95,"pm10":66.4,"pm2_5":34.3,"mosquito_risk":7,"arthritis_risk":5,"migraine_risk":4,"frizz_risk":1,"updated_at":"2026-03-17T15:31:24.819884+05:30"},{"city":"Vadodara","state":"Gujarat","latitude":22.3072,"longitude":73.1812,"temp":36.6,"humidity":22,"rain":0.0,"pressure":1002.7,"uv_index":7.55,"wind_gusts":28.1,"aqi":70,"pm10":29.0,"pm2_5":13.5,"mosquito_risk":0,"arthritis_risk":5,"migraine_risk":7,"frizz_risk":0,"updated_at":"2026-03-17T15:31:24.819894+05:30"},{"city":"Rajkot","state":"Gujarat","latitude":22.3039,"longitude":70.8022,"temp":36.2,"humidity":21,"rain":0.0,"pressure":992.5,"uv_index":7.35,"wind_gusts":24.1,"aqi":56,"pm10":52.0,"pm2_5":15.0,"mosquito_risk":0,"arthritis_risk":5,"migraine_risk":10,"frizz_risk":0,"updated_at":"2026-03-17T15:31:24.819901+05:30"},{"city":"Thane","state":"Maharashtra","latitude":19.2183,"longitude":72.9781,"temp":30.3,"humidity":54,"rain":0.0,"pressure":1007.1,"uv_index":7.7,"wind_gusts":31.3,"aqi":103,"pm10":61.7,"pm2_5":30.2,"mosquito_risk":0,"arthritis_risk":5,"migraine_risk":4,"frizz_risk":1,"updated_at":"2026-03-17T15:31:24.819908+05:30"},{"city":"Nagpur","state":"Maharashtra","latitude":21.1458,"longitude":79.0882,"temp":35.9,"humidity":20,"rain":0.0,"pressure":970.5,"uv_index":8.05,"wind_gusts":19.8,"aqi":114,"pm10":35.0,"pm2_5":24.3,"mosquito_risk":0,"arthritis_risk":5,"migraine_risk":10,"frizz_risk":0,"updated_at":"2026-03-17T15:31:24.819914+05:30"},{"city":"Nashik","state":"Maharashtra","latitude":19.9975,"longitude":73.7898,"temp":32.5,"humidity":25,"rain":0.0,"pressure":944.4,"uv_index":7.9,"wind_gusts":30.6,"aqi":71,"pm10":49.8,"pm2_5":14.7,"mosquito_risk":0,"arthritis_risk":5,"migraine_risk":7,"frizz_risk":0,"updated_at":"2026-03-17T15:31:24.819920+05:30"},{"city":"Aurangabad","state":"Maharashtra","latitude":19.8762,"longitude":75.3433,"temp":34.6,"humidity":18,"rain":0.0,"pressure":942.6,"uv_index":8.4,"wind_gusts":29.5,"aqi":60,"pm10":27.7,"pm2_5":15.3,"mosquito_risk":0,"arthritis_risk":5,"migraine_risk":7,"frizz_risk":0,"updated_at":"2026-03-17T15:31:24.819926+05:30"},{"city":"Solapur","state":"Maharashtra","latitude":17.6599,"longitude":75.9064,"temp":35.0,"humidity":22,"rain":0.0,"pressure":954.8,"uv_index":8.6,"wind_gusts":33.5,"aqi":94,"pm10":31.7,"pm2_5":24.9,"mosquito_risk":0,"arthritis_risk":5,"migraine_risk":7,"frizz_risk":0,"updated_at":"2026-03-17T15:31:24.819932+05:30"},{"city":"Kolhapur","state":"Maharashtra","latitude":16.705,"longitude":74.2433,"temp":32.0,"humidity":31,"rain":0.0,"pressure":946.6,"uv_index":8.75,"wind_gusts":39.2,"aqi":89,"pm10":34.7,"pm2_5":28.3,"mosquito_risk":0,"arthritis_risk":5,"migraine_risk":7,"frizz_risk":0,"updated_at":"2026-03-17T15:31:24.819938+05:30"},{"city":"Goa","state":"Goa","latitude":15.2993,"longitude":74.124,"temp":31.3,"humidity":60,"rain":0.0,"pressure":996.9,"uv_index":8.75,"wind_gusts":33.8,"aqi":73,"pm10":50.5,"pm2_5":19.4,"mosquito_risk":0,"arthritis_risk":5,"migraine_risk":7,"frizz_risk":1,"updated_at":"2026-03-17T15:31:24.819944+05:30"},{"city":"Jodhpur","state":"Rajasthan","latitude":26.2389,"longitude":73.0243,"temp":35.4,"humidity":14,"rain":0.0,"pressure":981.6,"uv_index":6.1,"wind_gusts":30.6,"aqi":119,"pm10":101.0,"pm2_5":23.6,"mosquito_risk":0,"arthritis_risk":5,"migraine_risk":10,"frizz_risk":0,"updated_at":"2026-03-17T15:31:24.819950+05:30"},{"city":"Udaipur","state":"Rajasthan","latitude":24.5854,"longitude":73.7125,"temp":33.3,"humidity":15,"rain":0.0,"pressure":945.2,"uv_index":7.85,"wind_gusts":34.6,"aqi":50,"pm10":26.3,"pm2_5":8.8,"mosquito_risk":0,"arthritis_risk":5,"migraine_risk":7,"frizz_risk":0,"updated_at":"2026-03-17T15:31:24.819956+05:30"},{"city":"Kota","state":"Rajasthan","latitude":25.2138,"longitude":75.8648,"temp":35.6,"humidity":15,"rain":0.0,"pressure":976.3,"uv_index":7.25,"wind_gusts":27.7,"aqi":85,"pm10":101.3,"pm2_5":22.4,"mosquito_risk":0,"arthritis_risk":5,"migraine_risk":10,"frizz_risk":0,"updated_at":"2026-03-17T15:31:24.819962+05:30"},{"city":"Bikaner","state":"Rajasthan","latitude":28.0229,"longitude":73.3119,"temp":29.4,"humidity":21,"rain":0.0,"pressure":982.3,"uv_index":6.8,"wind_gusts":20.9,"aqi":90,"pm10":48.5,"pm2_5":14.7,"mosquito_risk":4,"arthritis_risk":5,"migraine_risk":7,"frizz_risk":0,"updated_at":"2026-03-17T15:31:24.819968+05:30"},{"city":"Ajmer","state":"Rajasthan","latitude":26.4499,"longitude":74.6399,"temp":32.8,"humidity":17,"rain":0.0,"pressure":953.4,"uv_index":6.9,"wind_gusts":37.4,"aqi":132,"pm10":162.5,"pm2_5":32.5,"mosquito_risk":0,"arthritis_risk":5,"migraine_risk":7,"frizz_risk":0,"updated_at":"2026-03-17T15:31:24.819974+05:30"},{"city":"Gwalior","state":"Madhya Pradesh","latitude":26.2183,"longitude":78.1828,"temp":32.2,"humidity":34,"rain":0.0,"pressure":981.4,"uv_index":6.9,"wind_gusts":38.5,"aqi":87,"pm10":85.0,"pm2_5":24.2,"mosquito_risk":0,"arthritis_risk":5,"migraine_risk":7,"frizz_risk":0,"updated_at":"2026-03-17T15:31:24.819979+05:30"},{"city":"Indore","state":"Madhya Pradesh","latitude":22.7196,"longitude":75.8577,"temp":34.5,"humidity":18,"rain":0.0,"pressure":946.3,"uv_index":7.75,"wind_gusts":33.1,"aqi":61,"pm10":22.1,"pm2_5":10.0,"mosquito_risk":0,"arthritis_risk":5,"migraine_risk":7,"frizz_risk":0,"updated_at":"2026-03-17T15:31:24.819985+05:30"},{"city":"Bhopal","state":"Madhya Pradesh","latitude":23.2599,"longitude":77.4126,"temp":34.8,"humidity":16,"rain":0.0,"pressure":951.9,"uv_index":7.7,"wind_gusts":31.3,"aqi":72,"pm10":18.0,"pm2_5":10.0,"mosquito_risk":0,"arthritis_risk":5,"migraine_risk":7,"frizz_risk":0,"updated_at":"2026-03-17T15:31:24.819990+05:30"},{"city":"Jabalpur","state":"Madhya Pradesh","latitude":23.1815,"longitude":79.9864,"temp":34.6,"humidity":18,"rain":0.0,"pressure":959.6,"uv_index":7.8,"wind_gusts":28.4,"aqi":63,"pm10":16.9,"pm2_5":10.6,"mosquito_risk":0,"arthritis_risk":5,"migraine_risk":7,"frizz_risk":0,"updated_at":"2026-03-17T15:31:24.819996+05:30"},{"city":"Ujjain","state":"Madhya Pradesh","latitude":23.1765,"longitude":75.7885,"temp":33.4,"humidity":21,"rain":0.0,"pressure":952.4,"uv_index":7.65,"wind_gusts":27.7,"aqi":55,"pm10":21.1,"pm2_5":8.1,"mosquito_risk":0,"arthritis_risk":5,"migraine_risk":7,"frizz_risk":0,"updated_at":"2026-03-17T15:31:24.820002+05:30"},{"city":"Visakhapatnam","state":"Andhra Pradesh","latitude":17.6868,"longitude":83.2185,"temp":29.9,"humidity":55,"rain":0.0,"pressure":1003.6,"uv_index":8.7,"wind_gusts":36.4,"aqi":57,"pm10":13.5,"pm2_5":10.4,"mosquito_risk":4,"arthritis_risk":5,"migraine_risk":4,"frizz_risk":1,"updated_at":"2026-03-17T15:31:24.820008+05:30"},{"city":"Vijayawada","state":"Andhra Pradesh","latitude":16.5062,"longitude":80.648,"temp":32.5,"humidity":46,"rain":0.0,"pressure":1001.7,"uv_index":8.8,"wind_gusts":27.0,"aqi":51,"pm10":10.4,"pm2_5":7.9,"mosquito_risk":0,"arthritis_risk":5,"migraine_risk":4,"frizz_risk":1,"updated_at":"2026-03-17T15:31:24.820013+05:30"},{"city":"Guntur","state":"Andhra Pradesh","latitude":16.3067,"longitude":80.4365,"temp":32.4,"humidity":45,"rain":0.0,"pressure":1003.2,"uv_index":8.8,"wind_gusts":29.9,"aqi":48,"pm10":10.7,"pm2_5":7.5,"mosquito_risk":0,"arthritis_risk":5,"migraine_risk":4,"frizz_risk":1,"updated_at":"2026-03-17T15:31:24.820019+05:30"},{"city":"Nellore","state":"Andhra Pradesh","latitude":14.4426,"longitude":79.9865,"temp":32.7,"humidity":46,"rain":0.0,"pressure":1004.6,"uv_index":8.95,"wind_gusts":32.4,"aqi":46,"pm10":12.4,"pm2_5":9.7,"mosquito_risk":0,"arthritis_risk":5,"migraine_risk":4,"frizz_risk":1,"updated_at":"2026-03-17T15:31:24.820025+05:30"},{"city":"Kurnool","state":"Andhra Pradesh","latitude":15.8281,"longitude":78.0373,"temp":31.7,"humidity":43,"rain":0.0,"pressure":976.3,"uv_index":8.4,"wind_gusts":26.6,"aqi":72,"pm10":36.7,"pm2_5":28.3,"mosquito_risk":0,"arthritis_risk":5,"migraine_risk":7,"frizz_risk":1,"updated_at":"2026-03-17T15:31:24.820031+05:30"},{"city":"Kakinada","state":"Andhra Pradesh","latitude":16.9891,"longitude":82.2475,"temp":31.4,"humidity":53,"rain":0.0,"pressure":1006.9,"uv_index":8.75,"wind_gusts":31.0,"aqi":42,"pm10":9.7,"pm2_5":6.8,"mosquito_risk":0,"arthritis_risk":5,"migraine_risk":4,"frizz_risk":1,"updated_at":"2026-03-17T15:31:24.820036+05:30"},{"city":"Tirupati","state":"Andhra Pradesh","latitude":13.6288,"longitude":79.4192,"temp":33.3,"humidity":35,"rain":0.0,"pressure":990.1,"uv_index":9.1,"wind_gusts":30.2,"aqi":54,"pm10":14.3,"pm2_5":12.3,"mosquito_risk":0,"arthritis_risk":5,"migraine_risk":7,"frizz_risk":0,"updated_at":"2026-03-17T15:31:24.820042+05:30"},{"city":"Warangal","state":"Telangana","latitude":17.9689,"longitude":79.5941,"temp":31.3,"humidity":47,"rain":0.0,"pressure":977.9,"uv_index":8.5,"wind_gusts":29.9,"aqi":63,"pm10":18.3,"pm2_5":13.8,"mosquito_risk":0,"arthritis_risk":5,"migraine_risk":7,"frizz_risk":1,"updated_at":"2026-03-17T15:31:24.820047+05:30"},{"city":"Nizamabad","state":"Telangana","latitude":18.6725,"longitude":78.0941,"temp":32.1,"humidity":37,"rain":0.0,"pressure":963.5,"uv_index":8.45,"wind_gusts":37.8,"aqi":118,"pm10":49.0,"pm2_5":40.0,"mosquito_risk":0,"arthritis_risk":5,"migraine_risk":7,"frizz_risk":0,"updated_at":"2026-03-17T15:31:24.820052+05:30"},{"city":"Mysore","state":"Karnataka","latitude":12.2958,"longitude":76.6396,"temp":30.8,"humidity":37,"rain":0.0,"pressure":927.1,"uv_index":9.35,"wind_gusts":33.8,"aqi":119,"pm10":34.0,"pm2_5":28.9,"mosquito_risk":0,"arthritis_risk":5,"migraine_risk":7,"frizz_risk":0,"updated_at":"2026-03-17T15:31:24.820058+05:30"},{"city":"Mangalore","state":"Karnataka","latitude":12.9141,"longitude":74.856,"temp":27.9,"humidity":79,"rain":0.0,"pressure":1005.5,"uv_index":8.95,"wind_gusts":19.4,"aqi":98,"pm10":32.2,"pm2_5":21.4,"mosquito_risk":7,"arthritis_risk":5,"migraine_risk":4,"frizz_risk":1,"updated_at":"2026-03-17T15:31:24.820063+05:30"},{"city":"Hubli-Dharwad","state":"Karnataka","latitude":15.3647,"longitude":75.124,"temp":30.7,"humidity":36,"rain":0.0,"pressure":939.6,"uv_index":8.6,"wind_gusts":27.7,"aqi":83,"pm10":39.7,"pm2_5":32.8,"mosquito_risk":0,"arthritis_risk":5,"migraine_risk":7,"frizz_risk":0,"updated_at":"2026-03-17T15:31:24.820069+05:30"},{"city":"Belgaum","state":"Karnataka","latitude":15.8497,"longitude":74.4977,"temp":29.6,"humidity":39,"rain":0.0,"pressure":925.1,"uv_index":8.95,"wind_gusts":38.2,"aqi":96,"pm10":34.3,"pm2_5":26.5,"mosquito_risk":4,"arthritis_risk":5,"migraine_risk":7,"frizz_risk":0,"updated_at":"2026-03-17T15:31:28.083059+05:30"},{"city":"Coimbatore","state":"Tamil Nadu","latitude":11.0168,"longitude":76.9558,"temp":31.4,"humidity":52,"rain":0.0,"pressure":960.4,"uv_index":9.3,"wind_gusts":27.4,"aqi":101,"pm10":28.2,"pm2_5":24.9,"mosquito_risk":0,"arthritis_risk":5,"migraine_risk":7,"frizz_risk":1,"updated_at":"2026-03-17T15:31:28.083079+05:30"},{"city":"Madurai","state":"Tamil Nadu","latitude":9.9252,"longitude":78.1198,"temp":31.2,"humidity":59,"rain":0.0,"pressure":991.6,"uv_index":7.55,"wind_gusts":32.4,"aqi":48,"pm10":11.6,"pm2_5":10.0,"mosquito_risk":0,"arthritis_risk":5,"migraine_risk":7,"frizz_risk":1,"updated_at":"2026-03-17T15:31:28.083088+05:30"},{"city":"Trichy","state":"Tamil Nadu","latitude":10.7905,"longitude":78.7047,"temp":34.6,"humidity":41,"rain":0.0,"pressure":997.4,"uv_index":9.2,"wind_gusts":22.0,"aqi":53,"pm10":18.5,"pm2_5":15.7,"mosquito_risk":0,"arthritis_risk":5,"migraine_risk":7,"frizz_risk":1,"updated_at":"2026-03-17T15:31:28.083096+05:30"},{"city":"Salem","state":"Tamil Nadu","latitude":11.6643,"longitude":78.146,"temp":34.4,"humidity":38,"rain":0.0,"pressure":975.1,"uv_index":9.25,"wind_gusts":21.2,"aqi":74,"pm10":32.6,"pm2_5":28.3,"mosquito_risk":0,"arthritis_risk":5,"migraine_risk":7,"frizz_risk":1,"updated_at":"2026-03-17T15:31:28.083102+05:30"},{"city":"Tirunelveli","state":"Tamil Nadu","latitude":8.7139,"longitude":77.7567,"temp":29.4,"humidity":69,"rain":0.0,"pressure":1002.0,"uv_index":7.05,"wind_gusts":33.8,"aqi":69,"pm10":18.2,"pm2_5":16.7,"mosquito_risk":7,"arthritis_risk":5,"migraine_risk":4,"frizz_risk":1,"updated_at":"2026-03-17T15:31:28.083108+05:30"},{"city":"Vellore","state":"Tamil Nadu","latitude":12.9165,"longitude":79.1325,"temp":33.7,"humidity":34,"rain":0.0,"pressure":983.1,"uv_index":9.15,"wind_gusts":33.8,"aqi":61,"pm10":17.9,"pm2_5":15.4,"mosquito_risk":0,"arthritis_risk":5,"migraine_risk":7,"frizz_risk":0,"updated_at":"2026-03-17T15:31:28.083114+05:30"},{"city":"Erode","state":"Tamil Nadu","latitude":11.341,"longitude":77.7172,"temp":36.5,"humidity":32,"rain":0.0,"pressure":986.3,"uv_index":9.25,"wind_gusts":25.6,"aqi":51,"pm10":22.5,"pm2_5":19.1,"mosquito_risk":0,"arthritis_risk":5,"migraine_risk":10,"frizz_risk":1,"updated_at":"2026-03-17T15:31:28.083120+05:30"},{"city":"Kochi","state":"Kerala","latitude":9.9312,"longitude":76.2673,"temp":28.2,"humidity":80,"rain":0.0,"pressure":1006.6,"uv_index":8.9,"wind_gusts":30.6,"aqi":88,"pm10":28.5,"pm2_5":25.8,"mosquito_risk":7,"arthritis_risk":5,"migraine_risk":4,"frizz_risk":1,"updated_at":"2026-03-17T15:31:28.083126+05:30"},{"city":"Thiruvananthapuram","state":"Kerala","latitude":8.5241,"longitude":76.9366,"temp":28.1,"humidity":81,"rain":0.0,"pressure":1006.2,"uv_index":8.5,"wind_gusts":23.4,"aqi":68,"pm10":16.6,"pm2_5":14.6,"mosquito_risk":7,"arthritis_risk":5,"migraine_risk":4,"frizz_risk":1,"updated_at":"2026-03-17T15:31:28.083137+05:30"},{"city":"Kozhikode","state":"Kerala","latitude":11.2588,"longitude":75.7804,"temp":29.8,"humidity":74,"rain":0.0,"pressure":1006.0,"uv_index":8.9,"wind_gusts":26.6,"aqi":100,"pm10":30.9,"pm2_5":26.4,"mosquito_risk":7,"arthritis_risk":5,"migraine_risk":4,"frizz_risk":1,"updated_at":"2026-03-17T15:31:28.083143+05:30"},{"city":"Thrissur","state":"Kerala","latitude":10.5276,"longitude":76.2144,"temp":31.8,"humidity":64,"rain":0.0,"pressure":1005.0,"uv_index":8.85,"wind_gusts":33.1,"aqi":90,"pm10":33.8,"pm2_5":30.9,"mosquito_risk":3,"arthritis_risk":5,"migraine_risk":4,"frizz_risk":1,"updated_at":"2026-03-17T15:31:28.083150+05:30"},{"city":"Kannur","state":"Kerala","latitude":11.8745,"longitude":75.3704,"temp":30.2,"humidity":67,"rain":0.0,"pressure":1005.8,"uv_index":9.0,"wind_gusts":25.9,"aqi":111,"pm10":32.7,"pm2_5":25.6,"mosquito_risk":3,"arthritis_risk":5,"migraine_risk":4,"frizz_risk":1,"updated_at":"2026-03-17T15:31:28.083156+05:30"},{"city":"Patna","state":"Bihar","latitude":25.5941,"longitude":85.1376,"temp":33.9,"humidity":26,"rain":0.0,"pressure":998.7,"uv_index":7.5,"wind_gusts":23.8,"aqi":152,"pm10":54.6,"pm2_5":25.4,"mosquito_risk":0,"arthritis_risk":5,"migraine_risk":7,"frizz_risk":0,"updated_at":"2026-03-17T15:31:28.083162+05:30"},{"city":"Gaya","state":"Bihar","latitude":24.7914,"longitude":85.0002,"temp":33.9,"humidity":23,"rain":0.0,"pressure":991.9,"uv_index":7.6,"wind_gusts":27.7,"aqi":102,"pm10":37.1,"pm2_5":15.9,"mosquito_risk":0,"arthritis_risk":5,"migraine_risk":7,"frizz_risk":0,"updated_at":"2026-03-17T15:31:28.083168+05:30"},{"city":"Muzaffarpur","state":"Bihar","latitude":26.1209,"longitude":85.3647,"temp":33.0,"humidity":32,"rain":0.0,"pressure":998.8,"uv_index":7.45,"wind_gusts":20.9,"aqi":155,"pm10":56.9,"pm2_5":23.8,"mosquito_risk":0,"arthritis_risk":5,"migraine_risk":7,"frizz_risk":0,"updated_at":"2026-03-17T15:31:28.083173+05:30"},{"city":"Bhagalpur","state":"Bihar","latitude":25.2425,"longitude":87.0117,"temp":32.5,"humidity":40,"rain":0.0,"pressure":999.5,"uv_index":7.5,"wind_gusts":20.2,"aqi":141,"pm10":57.3,"pm2_5":40.0,"mosquito_risk":0,"arthritis_risk":5,"migraine_risk":7,"frizz_risk":1,"updated_at":"2026-03-17T15:31:28.083179+05:30"},{"city":"Ranchi","state":"Jharkhand","latitude":23.3441,"longitude":85.3096,"temp":28.2,"humidity":44,"rain":0.0,"pressure":937.4,"uv_index":8.2,"wind_gusts":54.7,"aqi":126,"pm10":35.9,"pm2_5":26.8,"mosquito_risk":4,"arthritis_risk":5,"migraine_risk":7,"frizz_risk":0,"updated_at":"2026-03-17T15:31:28.083185+05:30"},{"city":"Jamshedpur","state":"Jharkhand","latitude":22.8046,"longitude":86.2029,"temp":31.2,"humidity":44,"rain":0.0,"pressure":990.4,"uv_index":8.15,"wind_gusts":42.1,"aqi":144,"pm10":47.8,"pm2_5":37.7,"mosquito_risk":0,"arthritis_risk":5,"migraine_risk":7,"frizz_risk":1,"updated_at":"2026-03-17T15:31:28.083190+05:30"},{"city":"Dhanbad","state":"Jharkhand","latitude":23.7957,"longitude":86.4304,"temp":34.0,"humidity":23,"rain":0.0,"pressure":978.4,"uv_index":8.0,"wind_gusts":35.3,"aqi":153,"pm10":44.7,"pm2_5":32.9,"mosquito_risk":0,"arthritis_risk":5,"migraine_risk":7,"frizz_risk":0,"updated_at":"2026-03-17T15:31:28.083196+05:30"},{"city":"Bokaro","state":"Jharkhand","latitude":23.6693,"longitude":86.1511,"temp":32.9,"humidity":28,"rain":0.0,"pressure":982.7,"uv_index":8.0,"wind_gusts":40.7,"aqi":138,"pm10":43.8,"pm2_5":30.7,"mosquito_risk":0,"arthritis_risk":5,"migraine_risk":7,"frizz_risk":0,"updated_at":"2026-03-17T15:31:28.083201+05:30"},{"city":"Bhubaneswar","state":"Odisha","latitude":20.2961,"longitude":85.8245,"temp":29.8,"humidity":57,"rain":0.0,"pressure":1001.9,"uv_index":8.05,"wind_gusts":37.4,"aqi":66,"pm10":31.4,"pm2_5":24.5,"mosquito_risk":4,"arthritis_risk":5,"migraine_risk":4,"frizz_risk":1,"updated_at":"2026-03-17T15:31:28.083207+05:30"},{"city":"Cuttack","state":"Odisha","latitude":20.4625,"longitude":85.8828,"temp":31.5,"humidity":54,"rain":0.0,"pressure":1003.8,"uv_index":8.0,"wind_gusts":36.4,"aqi":66,"pm10":31.4,"pm2_5":24.5,"mosquito_risk":0,"arthritis_risk":5,"migraine_risk":4,"frizz_risk":1,"updated_at":"2026-03-17T15:31:28.083213+05:30"},{"city":"Rourkela","state":"Odisha","latitude":22.2604,"longitude":84.8536,"temp":27.3,"humidity":62,"rain":0.0,"pressure":985.3,"uv_index":8.05,"wind_gusts":65.2,"aqi":156,"pm10":44.4,"pm2_5":36.3,"mosquito_risk":7,"arthritis_risk":5,"migraine_risk":7,"frizz_risk":1,"updated_at":"2026-03-17T15:31:28.083219+05:30"},{"city":"Raipur","state":"Chhattisgarh","latitude":21.2514,"longitude":81.6296,"temp":32.8,"humidity":36,"rain":0.0,"pressure":973.7,"uv_index":8.15,"wind_gusts":36.4,"aqi":146,"pm10":45.5,"pm2_5":35.9,"mosquito_risk":0,"arthritis_risk":5,"migraine_risk":7,"frizz_risk":0,"updated_at":"2026-03-17T15:31:28.083224+05:30"},{"city":"Bhilai","state":"Chhattisgarh","latitude":21.1938,"longitude":81.3509,"temp":33.6,"humidity":33,"rain":0.0,"pressure":973.8,"uv_index":8.15,"wind_gusts":37.4,"aqi":134,"pm10":43.8,"pm2_5":33.8,"mosquito_risk":0,"arthritis_risk":5,"migraine_risk":7,"frizz_risk":0,"updated_at":"2026-03-17T15:31:28.083230+05:30"},{"city":"Guwahati","state":"Assam","latitude":26.1158,"longitude":91.7086,"temp":25.6,"humidity":72,"rain":0.0,"pressure":1000.5,"uv_index":7.5,"wind_gusts":43.2,"aqi":85,"pm10":40.9,"pm2_5":33.5,"mosquito_risk":7,"arthritis_risk":5,"migraine_risk":4,"frizz_risk":1,"updated_at":"2026-03-17T15:31:28.083235+05:30"},{"city":"Agartala","state":"Tripura","latitude":23.8315,"longitude":91.2868,"temp":32.4,"humidity":40,"rain":0.0,"pressure":1005.0,"uv_index":7.15,"wind_gusts":43.6,"aqi":67,"pm10":32.5,"pm2_5":28.9,"mosquito_risk":0,"arthritis_risk":5,"migraine_risk":4,"frizz_risk":1,"updated_at":"2026-03-17T15:31:28.083241+05:30"},{"city":"Shillong","state":"Meghalaya","latitude":25.5788,"longitude":91.8933,"temp":16.4,"humidity":63,"rain":0.0,"pressure":854.9,"uv_index":7.45,"wind_gusts":77.8,"aqi":62,"pm10":35.4,"pm2_5":28.7,"mosquito_risk":3,"arthritis_risk":5,"migraine_risk":7,"frizz_risk":0,"updated_at":"2026-03-17T15:31:28.083246+05:30"},{"city":"Imphal","state":"Manipur","latitude":24.817,"longitude":93.9368,"temp":19.8,"humidity":66,"rain":0.0,"pressure":923.1,"uv_index":8.05,"wind_gusts":91.4,"aqi":105,"pm10":32.0,"pm2_5":24.7,"mosquito_risk":3,"arthritis_risk":5,"migraine_risk":7,"frizz_risk":0,"updated_at":"2026-03-17T15:31:28.083252+05:30"},{"city":"Aizawl","state":"Mizoram","latitude":23.7271,"longitude":92.7176,"temp":22.7,"humidity":52,"rain":0.0,"pressure":893.8,"uv_index":8.1,"wind_gusts":61.9,"aqi":94,"pm10":31.4,"pm2_5":24.6,"mosquito_risk":0,"arthritis_risk":5,"migraine_risk":7,"frizz_risk":0,"updated_at":"2026-03-17T15:31:28.083257+05:30"},{"city":"Kohima","state":"Nagaland","latitude":25.6701,"longitude":94.1077,"temp":18.6,"humidity":52,"rain":0.0,"pressure":853.8,"uv_index":7.95,"wind_gusts":97.6,"aqi":88,"pm10":30.0,"pm2_5":21.2,"mosquito_risk":0,"arthritis_risk":5,"migraine_risk":7,"frizz_risk":0,"updated_at":"2026-03-17T15:31:28.083263+05:30"},{"city":"Gangtok","state":"Sikkim","latitude":27.3314,"longitude":88.6138,"temp":15.9,"humidity":63,"rain":0.0,"pressure":835.5,"uv_index":7.55,"wind_gusts":20.2,"aqi":88,"pm10":50.3,"pm2_5":25.9,"mosquito_risk":3,"arthritis_risk":5,"migraine_risk":7,"frizz_risk":0,"updated_at":"2026-03-17T15:31:28.083268+05:30"},{"city":"Siliguri","state":"West Bengal","latitude":26.7271,"longitude":88.3953,"temp":23.9,"humidity":61,"rain":0.0,"pressure":992.6,"uv_index":7.45,"wind_gusts":41.8,"aqi":135,"pm10":52.7,"pm2_5":33.1,"mosquito_risk":3,"arthritis_risk":5,"migraine_risk":7,"frizz_risk":0,"updated_at":"2026-03-17T15:31:31.345931+05:30"},{"city":"Durgapur","state":"West Bengal","latitude":23.5204,"longitude":87.3119,"temp":32.9,"humidity":30,"rain":0.0,"pressure":994.2,"uv_index":8.05,"wind_gusts":33.1,"aqi":154,"pm10":57.6,"pm2_5":47.8,"mosquito_risk":0,"arthritis_risk":5,"migraine_risk":7,"frizz_risk":0,"updated_at":"2026-03-17T15:31:31.345962+05:30"},{"city":"Asansol","state":"West Bengal","latitude":23.6739,"longitude":86.9524,"temp":33.9,"humidity":25,"rain":0.0,"pressure":992.2,"uv_index":8.0,"wind_gusts":32.8,"aqi":150,"pm10":49.2,"pm2_5":38.4,"mosquito_risk":0,"arthritis_risk":5,"migraine_risk":7,"frizz_risk":0,"updated_at":"2026-03-17T15:31:31.345974+05:30"},{"city":"Pondicherry","state":"Puducherry","latitude":11.9139,"longitude":79.8145,"temp":32.7,"humidity":52,"rain":0.0,"pressure":1007.2,"uv_index":9.05,"wind_gusts":29.5,"aqi":31,"pm10":8.3,"pm2_5":5.4,"mosquito_risk":0,"arthritis_risk":5,"migraine_risk":4,"frizz_risk":1,"updated_at":"2026-03-17T15:31:31.345983+05:30"},{"city":"Port Blair","state":"Andaman and Nicobar Islands","latitude":11.6234,"longitude":92.7265,"temp":27.9,"humidity":80,"rain":0.0,"pressure":1006.9,"uv_index":9.0,"wind_gusts":18.4,"aqi":66,"pm10":16.4,"pm2_5":13.3,"mosquito_risk":7,"arthritis_risk":5,"migraine_risk":4,"frizz_risk":1,"updated_at":"2026-03-17T15:31:31.345992+05:30"},{"city":"Haridwar","state":"Uttarakhand","latitude":29.9457,"longitude":78.1642,"temp":28.5,"humidity":32,"rain":0.0,"pressure":975.0,"uv_index":4.2,"wind_gusts":18.4,"aqi":66,"pm10":128.1,"pm2_5":25.1,"mosquito_risk":4,"arthritis_risk":5,"migraine_risk":3,"frizz_risk":0,"updated_at":"2026-03-17T15:31:31.346001+05:30"},{"city":"Rishikesh","state":"Uttarakhand","latitude":30.0869,"longitude":78.2676,"temp":27.3,"humidity":30,"rain":0.0,"pressure":967.7,"uv_index":4.4,"wind_gusts":19.8,"aqi":57,"pm10":122.5,"pm2_5":21.1,"mosquito_risk":4,"arthritis_risk":5,"migraine_risk":3,"frizz_risk":0,"updated_at":"2026-03-17T15:31:31.346009+05:30"},{"city":"Nainital","state":"Uttarakhand","latitude":29.3919,"longitude":79.4542,"temp":21.1,"humidity":35,"rain":0.0,"pressure":806.9,"uv_index":5.3,"wind_gusts":37.8,"aqi":59,"pm10":70.8,"pm2_5":15.9,"mosquito_risk":0,"arthritis_risk":5,"migraine_risk":3,"frizz_risk":0,"updated_at":"2026-03-17T15:31:31.346018+05:30"},{"city":"Mussoorie","state":"Uttarakhand","latitude":30.4599,"longitude":78.0664,"temp":17.8,"humidity":42,"rain":0.0,"pressure":803.0,"uv_index":4.85,"wind_gusts":29.5,"aqi":59,"pm10":123.4,"pm2_5":20.4,"mosquito_risk":0,"arthritis_risk":5,"migraine_risk":3,"frizz_risk":0,"updated_at":"2026-03-17T15:31:31.346025+05:30"},{"city":"Dharamshala","state":"Himachal Pradesh","latitude":32.219,"longitude":76.3234,"temp":19.9,"humidity":39,"rain":0.0,"pressure":869.5,"uv_index":5.1,"wind_gusts":26.3,"aqi":81,"pm10":64.7,"pm2_5":12.7,"mosquito_risk":0,"arthritis_risk":5,"migraine_risk":3,"frizz_risk":0,"updated_at":"2026-03-17T15:31:31.346033+05:30"},{"city":"Dalhousie","state":"Himachal Pradesh","latitude":32.5387,"longitude":75.971,"temp":18.1,"humidity":29,"rain":0.0,"pressure":804.3,"uv_index":5.05,"wind_gusts":24.1,"aqi":60,"pm10":99.0,"pm2_5":20.7,"mosquito_risk":0,"arthritis_risk":5,"migraine_risk":3,"frizz_risk":1,"updated_at":"2026-03-17T15:31:31.346042+05:30"},{"city":"Patiala","state":"Punjab","latitude":30.3398,"longitude":76.3869,"temp":26.3,"humidity":44,"rain":0.0,"pressure":979.5,"uv_index":5.55,"wind_gusts":16.9,"aqi":89,"pm10":114.8,"pm2_5":31.4,"mosquito_risk":4,"arthritis_risk":5,"migraine_risk":3,"frizz_risk":0,"updated_at":"2026-03-17T15:31:31.346050+05:30"},{"city":"Bhatinda","state":"Punjab","latitude":30.211,"longitude":74.9455,"temp":26.3,"humidity":34,"rain":0.0,"pressure":985.3,"uv_index":6.5,"wind_gusts":19.4,"aqi":91,"pm10":129.5,"pm2_5":32.6,"mosquito_risk":4,"arthritis_risk":5,"migraine_risk":7,"frizz_risk":0,"updated_at":"2026-03-17T15:31:31.346058+05:30"},{"city":"Rohtak","state":"Haryana","latitude":28.8955,"longitude":76.6066,"temp":28.8,"humidity":38,"rain":0.0,"pressure":982.0,"uv_index":6.15,"wind_gusts":20.9,"aqi":248,"pm10":185.3,"pm2_5":42.8,"mosquito_risk":4,"arthritis_risk":5,"migraine_risk":7,"frizz_risk":0,"updated_at":"2026-03-17T15:31:31.346066+05:30"},{"city":"Panipat","state":"Haryana","latitude":29.3909,"longitude":76.9635,"temp":28.9,"humidity":36,"rain":0.0,"pressure":980.9,"uv_index":5.75,"wind_gusts":17.6,"aqi":172,"pm10":197.9,"pm2_5":42.7,"mosquito_risk":4,"arthritis_risk":5,"migraine_risk":3,"frizz_risk":0,"updated_at":"2026-03-17T15:31:31.346073+05:30"},{"city":"Mathura","state":"Uttar Pradesh","latitude":27.4924,"longitude":77.6737,"temp":33.6,"humidity":29,"rain":0.0,"pressure":985.3,"uv_index":6.45,"wind_gusts":19.8,"aqi":452,"pm10":625.8,"pm2_5":88.2,"mosquito_risk":0,"arthritis_risk":5,"migraine_risk":7,"frizz_risk":0,"updated_at":"2026-03-17T15:31:31.346081+05:30"},{"city":"Vrindavan","state":"Uttar Pradesh","latitude":27.5823,"longitude":77.7027,"temp":33.6,"humidity":29,"rain":0.0,"pressure":985.8,"uv_index":6.35,"wind_gusts":19.1,"aqi":452,"pm10":625.8,"pm2_5":88.2,"mosquito_risk":0,"arthritis_risk":5,"migraine_risk":7,"frizz_risk":0,"updated_at":"2026-03-17T15:31:31.346089+05:30"},{"city":"Ayodhya","state":"Uttar Pradesh","latitude":26.7922,"longitude":82.1998,"temp":34.0,"humidity":24,"rain":0.0,"pressure":993.7,"uv_index":6.85,"wind_gusts":33.8,"aqi":101,"pm10":58.4,"pm2_5":21.9,"mosquito_risk":0,"arthritis_risk":5,"migraine_risk":7,"frizz_risk":0,"updated_at":"2026-03-17T15:31:31.346097+05:30"},{"city":"Ratlam","state":"Madhya Pradesh","latitude":23.3315,"longitude":75.0367,"temp":33.8,"humidity":22,"rain":0.0,"pressure":953.5,"uv_index":7.6,"wind_gusts":34.2,"aqi":54,"pm10":20.4,"pm2_5":7.8,"mosquito_risk":0,"arthritis_risk":5,"migraine_risk":7,"frizz_risk":0,"updated_at":"2026-03-17T15:31:31.346105+05:30"},{"city":"Sagar","state":"Madhya Pradesh","latitude":23.8388,"longitude":78.7378,"temp":33.9,"humidity":17,"rain":0.0,"pressure":948.6,"uv_index":7.65,"wind_gusts":30.6,"aqi":62,"pm10":17.9,"pm2_5":7.6,"mosquito_risk":0,"arthritis_risk":5,"migraine_risk":7,"frizz_risk":0,"updated_at":"2026-03-17T15:31:31.346113+05:30"},{"city":"Satna","state":"Madhya Pradesh","latitude":24.6005,"longitude":80.8322,"temp":36.0,"humidity":14,"rain":0.0,"pressure":968.9,"uv_index":7.55,"wind_gusts":28.8,"aqi":105,"pm10":25.4,"pm2_5":11.7,"mosquito_risk":0,"arthritis_risk":5,"migraine_risk":10,"frizz_risk":0,"updated_at":"2026-03-17T15:31:31.346121+05:30"},{"city":"Akola","state":"Maharashtra","latitude":20.7002,"longitude":77.0082,"temp":37.4,"humidity":18,"rain":0.0,"pressure":972.5,"uv_index":8.1,"wind_gusts":24.1,"aqi":74,"pm10":37.3,"pm2_5":23.0,"mosquito_risk":0,"arthritis_risk":5,"migraine_risk":10,"frizz_risk":0,"updated_at":"2026-03-17T15:31:31.346130+05:30"},{"city":"Amravati","state":"Maharashtra","latitude":20.9374,"longitude":77.7796,"temp":37.4,"humidity":17,"rain":0.0,"pressure":964.7,"uv_index":8.05,"wind_gusts":29.2,"aqi":80,"pm10":31.7,"pm2_5":19.0,"mosquito_risk":0,"arthritis_risk":5,"migraine_risk":10,"frizz_risk":0,"updated_at":"2026-03-17T15:31:31.346138+05:30"},{"city":"Latur","state":"Maharashtra","latitude":18.4088,"longitude":76.5604,"temp":31.9,"humidity":29,"rain":0.0,"pressure":938.4,"uv_index":8.5,"wind_gusts":29.9,"aqi":94,"pm10":43.0,"pm2_5":33.6,"mosquito_risk":0,"arthritis_risk":5,"migraine_risk":7,"frizz_risk":0,"updated_at":"2026-03-17T15:31:31.346145+05:30"},{"city":"Nanded","state":"Maharashtra","latitude":19.1383,"longitude":77.3091,"temp":37.4,"humidity":18,"rain":0.0,"pressure":966.1,"uv_index":8.3,"wind_gusts":21.6,"aqi":103,"pm10":43.4,"pm2_5":32.2,"mosquito_risk":0,"arthritis_risk":5,"migraine_risk":10,"frizz_risk":0,"updated_at":"2026-03-17T15:31:31.346153+05:30"},{"city":"Gulbarga","state":"Karnataka","latitude":17.3297,"longitude":76.8343,"temp":31.2,"humidity":37,"rain":0.0,"pressure":957.5,"uv_index":8.45,"wind_gusts":38.5,"aqi":111,"pm10":42.6,"pm2_5":36.6,"mosquito_risk":0,"arthritis_risk":5,"migraine_risk":7,"frizz_risk":0,"updated_at":"2026-03-17T15:31:31.346160+05:30"},{"city":"Bidar","state":"Karnataka","latitude":17.9104,"longitude":77.5199,"temp":29.8,"humidity":37,"rain":0.0,"pressure":934.9,"uv_index":7.85,"wind_gusts":49.0,"aqi":110,"pm10":41.4,"pm2_5":34.1,"mosquito_risk":4,"arthritis_risk":5,"migraine_risk":7,"frizz_risk":0,"updated_at":"2026-03-17T15:31:31.346167+05:30"},{"city":"Hospet","state":"Karnataka","latitude":15.2689,"longitude":76.3909,"temp":30.6,"humidity":43,"rain":0.0,"pressure":954.8,"uv_index":8.8,"wind_gusts":32.8,"aqi":112,"pm10":43.3,"pm2_5":36.4,"mosquito_risk":0,"arthritis_risk":5,"migraine_risk":7,"frizz_risk":1,"updated_at":"2026-03-17T15:31:31.346175+05:30"},{"city":"Tirupur","state":"Tamil Nadu","latitude":11.1085,"longitude":77.3411,"temp":33.7,"humidity":41,"rain":0.0,"pressure":973.1,"uv_index":9.3,"wind_gusts":36.7,"aqi":76,"pm10":23.1,"pm2_5":19.6,"mosquito_risk":0,"arthritis_risk":5,"migraine_risk":7,"frizz_risk":1,"updated_at":"2026-03-17T15:31:31.346182+05:30"},{"city":"Alappuzha","state":"Kerala","latitude":9.4981,"longitude":76.3388,"temp":28.0,"humidity":82,"rain":0.0,"pressure":1006.8,"uv_index":9.05,"wind_gusts":27.4,"aqi":97,"pm10":25.6,"pm2_5":22.8,"mosquito_risk":7,"arthritis_risk":5,"migraine_risk":4,"frizz_risk":1,"updated_at":"2026-03-17T15:31:31.346189+05:30"},{"city":"Munnar","state":"Kerala","latitude":10.0889,"longitude":77.0595,"temp":26.4,"humidity":62,"rain":0.0,"pressure":857.2,"uv_index":9.6,"wind_gusts":31.7,"aqi":81,"pm10":21.3,"pm2_5":19.4,"mosquito_risk":7,"arthritis_risk":5,"migraine_risk":7,"frizz_risk":1,"updated_at":"2026-03-17T15:31:31.346197+05:30"},{"city":"Silchar","state":"Assam","latitude":24.8333,"longitude":92.7789,"temp":26.7,"humidity":62,"rain":0.0,"pressure":1005.5,"uv_index":7.9,"wind_gusts":46.8,"aqi":85,"pm10":26.0,"pm2_5":21.3,"mosquito_risk":7,"arthritis_risk":5,"migraine_risk":4,"frizz_risk":1,"updated_at":"2026-03-17T15:31:31.346204+05:30"},{"city":"Dibrugarh","state":"Assam","latitude":27.4728,"longitude":94.912,"temp":21.4,"humidity":80,"rain":0.0,"pressure":995.0,"uv_index":7.4,"wind_gusts":45.0,"aqi":100,"pm10":41.8,"pm2_5":31.7,"mosquito_risk":3,"arthritis_risk":5,"migraine_risk":7,"frizz_risk":1,"updated_at":"2026-03-17T15:31:31.346211+05:30"}]