[{"city":"Delhi","state":"Delhi","latitude":28.6139,"longitude":77.209,"temp":30.7,"humidity":39,"rain":0.0,"pressure":985.8,"uv_index":5.95,"wind_gusts":20.2,"aqi":195,"pm10":165.3,"pm2_5":49.7,"mosquito_risk":0,"arthritis_risk":5,"migraine_risk":3,"frizz_risk":0,"updated_at":"2026-03-07T18:24:16.030890+05:30"},{"city":"Mumbai","state":"Maharashtra","latitude":19.076,"longitude":72.8777,"temp":27.1,"humidity":79,"rain":0.0,"pressure":1008.0,"uv_index":7.5,"wind_gusts":24.8,"aqi":161,"pm10":39.7,"pm2_5":34.3,"mosquito_risk":7,"arthritis_risk":0,"migraine_risk":4,"frizz_risk":1,"updated_at":"2026-03-07T18:24:16.030929+05:30"},{"city":"Bangalore","state":"Karnataka","latitude":12.9716,"longitude":77.5946,"temp":30.2,"humidity":29,"rain":0.0,"pressure":911.6,"uv_index":9.2,"wind_gusts":24.8,"aqi":163,"pm10":33.1,"pm2_5":26.8,"mosquito_risk":0,"arthritis_risk":5,"migraine_risk":7,"frizz_risk":0,"updated_at":"2026-03-07T18:24:16.030944+05:30"},{"city":"Hyderabad","state":"Telangana","latitude":17.385,"longitude":78.4867,"temp":33.1,"humidity":23,"rain":0.0,"pressure":953.2,"uv_index":8.5,"wind_gusts":27.0,"aqi":147,"pm10":24.1,"pm2_5":17.6,"mosquito_risk":0,"arthritis_risk":5,"migraine_risk":7,"frizz_risk":0,"updated_at":"2026-03-07T18:24:16.030954+05:30"},{"city":"Chennai","state":"Tamil Nadu","latitude":13.0827,"longitude":80.2707,"temp":28.5,"humidity":70,"rain":0.0,"pressure":1007.5,"uv_index":8.9,"wind_gusts":34.6,"aqi":94,"pm10":29.2,"pm2_5":22.2,"mosquito_risk":7,"arthritis_risk":5,"migraine_risk":4,"frizz_risk":1,"updated_at":"2026-03-07T18:24:16.030963+05:30"},{"city":"Kolkata","state":"West Bengal","latitude":22.5726,"longitude":88.3639,"temp":25.9,"humidity":77,"rain":0.0,"pressure":1009.2,"uv_index":7.8,"wind_gusts":18.0,"aqi":143,"pm10":67.5,"pm2_5":55.9,"mosquito_risk":7,"arthritis_risk":0,"migraine_risk":4,"frizz_risk":1,"updated_at":"2026-03-07T18:24:16.030972+05:30"},{"city":"Pune","state":"Maharashtra","latitude":18.5204,"longitude":73.8567,"temp":35.1,"humidity":21,"rain":0.0,"pressure":948.2,"uv_index":8.05,"wind_gusts":24.8,"aqi":125,"pm10":17.1,"pm2_5":14.9,"mosquito_risk":0,"arthritis_risk":5,"migraine_risk":10,"frizz_risk":0,"updated_at":"2026-03-07T18:24:16.030985+05:30"},{"city":"Ahmedabad","state":"Gujarat","latitude":23.0225,"longitude":72.5714,"temp":34.6,"humidity":26,"rain":0.0,"pressure":1003.0,"uv_index":7.3,"wind_gusts":13.7,"aqi":105,"pm10":22.8,"pm2_5":16.8,"mosquito_risk":0,"arthritis_risk":5,"migraine_risk":4,"frizz_risk":0,"updated_at":"2026-03-07T18:24:16.030992+05:30"},{"city":"Jaipur","state":"Rajasthan","latitude":26.9124,"longitude":75.7873,"temp":33.3,"humidity":15,"rain":0.0,"pressure":962.3,"uv_index":6.7,"wind_gusts":20.2,"aqi":128,"pm10":44.5,"pm2_5":14.7,"mosquito_risk":0,"arthritis_risk":5,"migraine_risk":7,"frizz_risk":0,"updated_at":"2026-03-07T18:24:16.030999+05:30"},{"city":"Lucknow","state":"Uttar Pradesh","latitude":26.8467,"longitude":80.9462,"temp":30.1,"humidity":49,"rain":0.0,"pressure":996.8,"uv_index":6.45,"wind_gusts":16.9,"aqi":185,"pm10":100.8,"pm2_5":72.4,"mosquito_risk":0,"arthritis_risk":5,"migraine_risk":7,"frizz_risk":1,"updated_at":"2026-03-07T18:24:16.031007+05:30"},{"city":"Kanpur","state":"Uttar Pradesh","latitude":26.4499,"longitude":80.3319,"temp":28.5,"humidity":58,"rain":0.0,"pressure":995.0,"uv_index":6.5,"wind_gusts":14.4,"aqi":180,"pm10":117.8,"pm2_5":71.2,"mosquito_risk":4,"arthritis_risk":5,"migraine_risk":7,"frizz_risk":1,"updated_at":"2026-03-07T18:24:16.031014+05:30"},{"city":"Chandigarh","state":"Chandigarh","latitude":30.7333,"longitude":76.7794,"temp":27.2,"humidity":59,"rain":0.0,"pressure":971.7,"uv_index":5.85,"wind_gusts":19.1,"aqi":162,"pm10":77.5,"pm2_5":51.0,"mosquito_risk":4,"arthritis_risk":5,"migraine_risk":3,"frizz_risk":1,"updated_at":"2026-03-07T18:24:16.031022+05:30"},{"city":"Srinagar","state":"Jammu and Kashmir","latitude":34.0837,"longitude":74.7973,"temp":17.2,"humidity":54,"rain":0.0,"pressure":845.5,"uv_index":5.45,"wind_gusts":16.9,"aqi":109,"pm10":41.6,"pm2_5":26.5,"mosquito_risk":0,"arthritis_risk":5,"migraine_risk":3,"frizz_risk":0,"updated_at":"2026-03-07T18:24:16.031030+05:30"},{"city":"Jammu","state":"Jammu and Kashmir","latitude":32.7266,"longitude":74.857,"temp":26.5,"humidity":74,"rain":0.0,"pressure":975.8,"uv_index":5.85,"wind_gusts":11.5,"aqi":136,"pm10":55.1,"pm2_5":48.4,"mosquito_risk":7,"arthritis_risk":5,"migraine_risk":3,"frizz_risk":1,"updated_at":"2026-03-07T18:24:16.031037+05:30"},{"city":"Amritsar","state":"Punjab","latitude":31.634,"longitude":74.8723,"temp":27.9,"humidity":61,"rain":0.0,"pressure":983.6,"uv_index":6.4,"wind_gusts":18.7,"aqi":150,"pm10":67.5,"pm2_5":37.6,"mosquito_risk":7,"arthritis_risk":5,"migraine_risk":7,"frizz_risk":1,"updated_at":"2026-03-07T18:24:16.031043+05:30"},{"city":"Ludhiana","state":"Punjab","latitude":30.901,"longitude":75.8573,"temp":29.3,"humidity":52,"rain":0.0,"pressure":981.6,"uv_index":6.1,"wind_gusts":16.2,"aqi":168,"pm10":100.4,"pm2_5":55.1,"mosquito_risk":4,"arthritis_risk":5,"migraine_risk":7,"frizz_risk":1,"updated_at":"2026-03-07T18:24:16.031049+05:30"},{"city":"Jalandhar","state":"Punjab","latitude":31.326,"longitude":75.5762,"temp":29.0,"humidity":52,"rain":0.0,"pressure":982.8,"uv_index":6.25,"wind_gusts":18.4,"aqi":163,"pm10":89.4,"pm2_5":48.8,"mosquito_risk":4,"arthritis_risk":5,"migraine_risk":7,"frizz_risk":1,"updated_at":"2026-03-07T18:24:16.031058+05:30"},{"city":"Dehradun","state":"Uttarakhand","latitude":30.6284,"longitude":78.0322,"temp":18.9,"humidity":77,"rain":0.0,"pressure":834.0,"uv_index":6.2,"wind_gusts":27.0,"aqi":120,"pm10":63.1,"pm2_5":47.5,"mosquito_risk":3,"arthritis_risk":5,"migraine_risk":7,"frizz_risk":0,"updated_at":"2026-03-07T18:24:16.031065+05:30"},{"city":"Shimla","state":"Himachal Pradesh","latitude":31.1048,"longitude":77.1734,"temp":17.2,"humidity":68,"rain":0.0,"pressure":788.6,"uv_index":6.3,"wind_gusts":35.6,"aqi":129,"pm10":55.3,"pm2_5":44.1,"mosquito_risk":3,"arthritis_risk":5,"migraine_risk":7,"frizz_risk":0,"updated_at":"2026-03-07T18:24:16.031071+05:30"},{"city":"Manali","state":"Himachal Pradesh","latitude":32.2396,"longitude":77.1887,"temp":19.5,"humidity":37,"rain":0.0,"pressure":825.2,"uv_index":7.3,"wind_gusts":40.3,"aqi":99,"pm10":20.4,"pm2_5":10.0,"mosquito_risk":0,"arthritis_risk":5,"migraine_risk":7,"frizz_risk":0,"updated_at":"2026-03-07T18:24:16.031077+05:30"},{"city":"Gurgaon","state":"Haryana","latitude":28.4595,"longitude":77.0266,"temp":29.8,"humidity":44,"rain":0.0,"pressure":984.0,"uv_index":6.05,"wind_gusts":13.7,"aqi":196,"pm10":310.1,"pm2_5":57.9,"mosquito_risk":4,"arthritis_risk":5,"migraine_risk":7,"frizz_risk":1,"updated_at":"2026-03-07T18:24:16.031084+05:30"},{"city":"Noida","state":"Uttar Pradesh","latitude":28.5355,"longitude":77.391,"temp":30.6,"humidity":39,"rain":0.0,"pressure":987.2,"uv_index":5.95,"wind_gusts":19.1,"aqi":196,"pm10":310.1,"pm2_5":57.9,"mosquito_risk":0,"arthritis_risk":5,"migraine_risk":3,"frizz_risk":0,"updated_at":"2026-03-07T18:24:16.031093+05:30"},{"city":"Ghaziabad","state":"Uttar Pradesh","latitude":28.6692,"longitude":77.4538,"temp":29.7,"humidity":45,"rain":0.0,"pressure":985.4,"uv_index":5.9,"wind_gusts":17.6,"aqi":196,"pm10":130.9,"pm2_5":61.0,"mosquito_risk":4,"arthritis_risk":5,"migraine_risk":3,"frizz_risk":1,"updated_at":"2026-03-07T18:24:16.031099+05:30"},{"city":"Faridabad","state":"Haryana","latitude":28.4089,"longitude":77.3178,"temp":29.2,"humidity":45,"rain":0.0,"pressure":986.4,"uv_index":6.0,"wind_gusts":14.4,"aqi":196,"pm10":310.1,"pm2_5":57.9,"mosquito_risk":4,"arthritis_risk":5,"migraine_risk":3,"frizz_risk":1,"updated_at":"2026-03-07T18:24:16.031105+05:30"},{"city":"Meerut","state":"Uttar Pradesh","latitude":28.9845,"longitude":77.7064,"temp":29.3,"humidity":51,"rain":0.0,"pressure":984.3,"uv_index":5.8,"wind_gusts":20.2,"aqi":196,"pm10":130.9,"pm2_5":61.0,"mosquito_risk":4,"arthritis_risk":5,"migraine_risk":3,"frizz_risk":1,"updated_at":"2026-03-07T18:24:16.031111+05:30"},{"city":"Agra","state":"Uttar Pradesh","latitude":27.1767,"longitude":78.0081,"temp":29.6,"humidity":41,"rain":0.0,"pressure":990.3,"uv_index":6.3,"wind_gusts":15.8,"aqi":168,"pm10":191.4,"pm2_5":44.5,"mosquito_risk":4,"arthritis_risk":5,"migraine_risk":7,"frizz_risk":0,"updated_at":"2026-03-07T18:24:16.031118+05:30"},{"city":"Varanasi","state":"Uttar Pradesh","latitude":25.3176,"longitude":82.9739,"temp":28.1,"humidity":60,"rain":0.0,"pressure":1000.4,"uv_index":7.1,"wind_gusts":16.9,"aqi":179,"pm10":88.5,"pm2_5":77.1,"mosquito_risk":4,"arthritis_risk":5,"migraine_risk":4,"frizz_risk":1,"updated_at":"2026-03-07T18:24:16.031126+05:30"},{"city":"Prayagraj","state":"Uttar Pradesh","latitude":25.4358,"longitude":81.8463,"temp":27.9,"humidity":64,"rain":0.0,"pressure":999.0,"uv_index":7.0,"wind_gusts":14.0,"aqi":184,"pm10":83.6,"pm2_5":68.9,"mosquito_risk":7,"arthritis_risk":5,"migraine_risk":7,"frizz_risk":1,"updated_at":"2026-03-07T18:24:16.031132+05:30"},{"city":"Gorakhpur","state":"Uttar Pradesh","latitude":26.7606,"longitude":83.3732,"temp":27.1,"humidity":66,"rain":0.0,"pressure":1000.4,"uv_index":6.85,"wind_gusts":9.4,"aqi":171,"pm10":76.6,"pm2_5":65.9,"mosquito_risk":7,"arthritis_risk":5,"migraine_risk":4,"frizz_risk":1,"updated_at":"2026-03-07T18:24:16.031154+05:30"},{"city":"Bareilly","state":"Uttar Pradesh","latitude":28.367,"longitude":79.4304,"temp":29.0,"humidity":58,"rain":0.0,"pressure":990.0,"uv_index":6.15,"wind_gusts":10.1,"aqi":180,"pm10":105.5,"pm2_5":75.4,"mosquito_risk":4,"arthritis_risk":5,"migraine_risk":7,"frizz_risk":1,"updated_at":"2026-03-07T18:24:16.031162+05:30"},{"city":"Aligarh","state":"Uttar Pradesh","latitude":27.8974,"longitude":78.088,"temp":29.1,"humidity":48,"rain":0.0,"pressure":988.2,"uv_index":6.05,"wind_gusts":17.6,"aqi":178,"pm10":196.0,"pm2_5":55.5,"mosquito_risk":4,"arthritis_risk":5,"migraine_risk":7,"frizz_risk":1,"updated_at":"2026-03-07T18:24:16.031169+05:30"},{"city":"Moradabad","state":"Uttar Pradesh","latitude":28.8386,"longitude":78.7733,"temp":28.9,"humidity":57,"rain":0.0,"pressure":986.8,"uv_index":5.95,"wind_gusts":12.2,"aqi":167,"pm10":111.1,"pm2_5":79.4,"mosquito_risk":4,"arthritis_risk":5,"migraine_risk":3,"frizz_risk":1,"updated_at":"2026-03-07T18:24:16.031175+05:30"},{"city":"Saharanpur","state":"Uttar Pradesh","latitude":29.9637,"longitude":77.546,"temp":28.1,"humidity":54,"rain":0.0,"pressure":978.4,"uv_index":5.6,"wind_gusts":23.0,"aqi":171,"pm10":89.9,"pm2_5":61.7,"mosquito_risk":4,"arthritis_risk":5,"migraine_risk":3,"frizz_risk":1,"updated_at":"2026-03-07T18:24:16.031181+05:30"},{"city":"Jhansi","state":"Uttar Pradesh","latitude":25.4484,"longitude":78.5685,"temp":30.0,"humidity":29,"rain":0.0,"pressure":980.5,"uv_index":6.95,"wind_gusts":25.6,"aqi":132,"pm10":76.8,"pm2_5":27.5,"mosquito_risk":4,"arthritis_risk":5,"migraine_risk":7,"frizz_risk":0,"updated_at":"2026-03-07T18:24:19.301915+05:30"},{"city":"Surat","state":"Gujarat","latitude":21.1702,"longitude":72.8311,"temp":29.7,"humidity":51,"rain":0.0,"pressure":1007.0,"uv_index":7.2,"wind_gusts":24.5,"aqi":153,"pm10":68.5,"pm2_5":67.5,"mosquito_risk":4,"arthritis_risk":5,"migraine_risk":4,"frizz_risk":1,"updated_at":"2026-03-07T18:24:19.301946+05:30"},{"city":"Vadodara","state":"Gujarat","latitude":22.3072,"longitude":73.1812,"temp":33.5,"humidity":33,"rain":0.0,"pressure":1005.0,"uv_index":7.3,"wind_gusts":18.4,"aqi":186,"pm10":37.8,"pm2_5":36.2,"mosquito_risk":0,"arthritis_risk":5,"migraine_risk":4,"frizz_risk":0,"updated_at":"2026-03-07T18:24:19.301958+05:30"},{"city":"Rajkot","state":"Gujarat","latitude":22.3039,"longitude":70.8022,"temp":34.5,"humidity":30,"rain":0.0,"pressure":995.1,"uv_index":7.15,"wind_gusts":23.4,"aqi":79,"pm10":31.9,"pm2_5":19.8,"mosquito_risk":0,"arthritis_risk":5,"migraine_risk":7,"frizz_risk":0,"updated_at":"2026-03-07T18:24:19.301968+05:30"},{"city":"Thane","state":"Maharashtra","latitude":19.2183,"longitude":72.9781,"temp":27.8,"humidity":70,"rain":0.0,"pressure":1007.6,"uv_index":7.5,"wind_gusts":33.8,"aqi":161,"pm10":39.7,"pm2_5":34.3,"mosquito_risk":7,"arthritis_risk":5,"migraine_risk":4,"frizz_risk":1,"updated_at":"2026-03-07T18:24:19.301976+05:30"},{"city":"Nagpur","state":"Maharashtra","latitude":21.1458,"longitude":79.0882,"temp":32.8,"humidity":33,"rain":0.0,"pressure":973.3,"uv_index":7.85,"wind_gusts":21.2,"aqi":111,"pm10":27.9,"pm2_5":15.5,"mosquito_risk":0,"arthritis_risk":5,"migraine_risk":7,"frizz_risk":0,"updated_at":"2026-03-07T18:24:19.301984+05:30"},{"city":"Nashik","state":"Maharashtra","latitude":19.9975,"longitude":73.7898,"temp":31.5,"humidity":33,"rain":0.0,"pressure":946.2,"uv_index":7.65,"wind_gusts":34.2,"aqi":134,"pm10":14.5,"pm2_5":13.3,"mosquito_risk":0,"arthritis_risk":5,"migraine_risk":7,"frizz_risk":0,"updated_at":"2026-03-07T18:24:19.301992+05:30"},{"city":"Aurangabad","state":"Maharashtra","latitude":19.8762,"longitude":75.3433,"temp":34.4,"humidity":24,"rain":0.0,"pressure":944.4,"uv_index":8.15,"wind_gusts":22.7,"aqi":140,"pm10":19.0,"pm2_5":17.6,"mosquito_risk":0,"arthritis_risk":5,"migraine_risk":7,"frizz_risk":0,"updated_at":"2026-03-07T18:24:19.302000+05:30"},{"city":"Solapur","state":"Maharashtra","latitude":17.6599,"longitude":75.9064,"temp":33.2,"humidity":28,"rain":0.0,"pressure":956.7,"uv_index":8.4,"wind_gusts":19.8,"aqi":135,"pm10":18.2,"pm2_5":13.4,"mosquito_risk":0,"arthritis_risk":5,"migraine_risk":7,"frizz_risk":0,"updated_at":"2026-03-07T18:24:19.302008+05:30"},{"city":"Kolhapur","state":"Maharashtra","latitude":16.705,"longitude":74.2433,"temp":32.8,"humidity":27,"rain":0.0,"pressure":947.4,"uv_index":8.55,"wind_gusts":29.2,"aqi":151,"pm10":23.9,"pm2_5":21.2,"mosquito_risk":0,"arthritis_risk":5,"migraine_risk":7,"frizz_risk":0,"updated_at":"2026-03-07T18:24:19.302015+05:30"},{"city":"Goa","state":"Goa","latitude":15.2993,"longitude":74.124,"temp":28.5,"humidity":75,"rain":0.0,"pressure":997.5,"uv_index":8.6,"wind_gusts":31.7,"aqi":154,"pm10":45.1,"pm2_5":42.0,"mosquito_risk":7,"arthritis_risk":5,"migraine_risk":7,"frizz_risk":1,"updated_at":"2026-03-07T18:24:19.302023+05:30"},{"city":"Jodhpur","state":"Rajasthan","latitude":26.2389,"longitude":73.0243,"temp":33.6,"humidity":24,"rain":0.0,"pressure":984.8,"uv_index":7.0,"wind_gusts":20.2,"aqi":69,"pm10":47.8,"pm2_5":10.9,"mosquito_risk":0,"arthritis_risk":5,"migraine_risk":7,"frizz_risk":0,"updated_at":"2026-03-07T18:24:19.302031+05:30"},{"city":"Udaipur","state":"Rajasthan","latitude":24.5854,"longitude":73.7125,"temp":33.1,"humidity":20,"rain":0.0,"pressure":948.9,"uv_index":7.65,"wind_gusts":19.4,"aqi":86,"pm10":6.3,"pm2_5":5.4,"mosquito_risk":0,"arthritis_risk":5,"migraine_risk":7,"frizz_risk":0,"updated_at":"2026-03-07T18:24:19.302038+05:30"},{"city":"Kota","state":"Rajasthan","latitude":25.2138,"longitude":75.8648,"temp":32.4,"humidity":31,"rain":0.0,"pressure":980.7,"uv_index":7.05,"wind_gusts":14.8,"aqi":110,"pm10":23.5,"pm2_5":21.1,"mosquito_risk":0,"arthritis_risk":5,"migraine_risk":7,"frizz_risk":0,"updated_at":"2026-03-07T18:24:19.302046+05:30"},{"city":"Bikaner","state":"Rajasthan","latitude":28.0229,"longitude":73.3119,"temp":34.2,"humidity":24,"rain":0.0,"pressure":983.5,"uv_index":6.75,"wind_gusts":19.4,"aqi":76,"pm10":32.5,"pm2_5":12.2,"mosquito_risk":0,"arthritis_risk":5,"migraine_risk":7,"frizz_risk":0,"updated_at":"2026-03-07T18:24:19.302053+05:30"},{"city":"Ajmer","state":"Rajasthan","latitude":26.4499,"longitude":74.6399,"temp":32.1,"humidity":28,"rain":0.0,"pressure":957.0,"uv_index":7.0,"wind_gusts":16.9,"aqi":92,"pm10":12.1,"pm2_5":10.8,"mosquito_risk":0,"arthritis_risk":5,"migraine_risk":7,"frizz_risk":0,"updated_at":"2026-03-07T18:24:19.302060+05:30"},{"city":"Gwalior","state":"Madhya Pradesh","latitude":26.2183,"longitude":78.1828,"temp":28.9,"humidity":47,"rain":0.0,"pressure":986.0,"uv_index":6.65,"wind_gusts":20.5,"aqi":124,"pm10":70.8,"pm2_5":21.7,"mosquito_risk":4,"arthritis_risk":5,"migraine_risk":7,"frizz_risk":1,"updated_at":"2026-03-07T18:24:19.302068+05:30"},{"city":"Indore","state":"Madhya Pradesh","latitude":22.7196,"longitude":75.8577,"temp":29.7,"humidity":32,"rain":0.0,"pressure":949.5,"uv_index":7.6,"wind_gusts":18.0,"aqi":101,"pm10":18.3,"pm2_5":15.7,"mosquito_risk":4,"arthritis_risk":5,"migraine_risk":7,"frizz_risk":0,"updated_at":"2026-03-07T18:24:19.302075+05:30"},{"city":"Bhopal","state":"Madhya Pradesh","latitude":23.2599,"longitude":77.4126,"temp":29.5,"humidity":35,"rain":0.0,"pressure":955.5,"uv_index":7.5,"wind_gusts":20.9,"aqi":97,"pm10":27.1,"pm2_5":12.0,"mosquito_risk":4,"arthritis_risk":5,"migraine_risk":7,"frizz_risk":0,"updated_at":"2026-03-07T18:24:19.302083+05:30"},{"city":"Jabalpur","state":"Madhya Pradesh","latitude":23.1815,"longitude":79.9864,"temp":30.4,"humidity":40,"rain":0.0,"pressure":963.1,"uv_index":7.55,"wind_gusts":26.3,"aqi":103,"pm10":57.0,"pm2_5":26.0,"mosquito_risk":0,"arthritis_risk":5,"migraine_risk":7,"frizz_risk":0,"updated_at":"2026-03-07T18:24:19.302090+05:30"},{"city":"Ujjain","state":"Madhya Pradesh","latitude":23.1765,"longitude":75.7885,"temp":30.2,"humidity":38,"rain":0.0,"pressure":955.4,"uv_index":7.5,"wind_gusts":13.7,"aqi":93,"pm10":18.7,"pm2_5":17.3,"mosquito_risk":0,"arthritis_risk":5,"migraine_risk":7,"frizz_risk":0,"updated_at":"2026-03-07T18:24:19.302097+05:30"},{"city":"Visakhapatnam","state":"Andhra Pradesh","latitude":17.6868,"longitude":83.2185,"temp":27.2,"humidity":76,"rain":0.0,"pressure":1005.0,"uv_index":7.7,"wind_gusts":38.9,"aqi":138,"pm10":43.0,"pm2_5":36.3,"mosquito_risk":7,"arthritis_risk":5,"migraine_risk":4,"frizz_risk":1,"updated_at":"2026-03-07T18:24:19.302105+05:30"},{"city":"Vijayawada","state":"Andhra Pradesh","latitude":16.5062,"longitude":80.648,"temp":31.3,"humidity":55,"rain":0.0,"pressure":1002.5,"uv_index":8.6,"wind_gusts":30.6,"aqi":149,"pm10":45.9,"pm2_5":39.9,"mosquito_risk":0,"arthritis_risk":5,"migraine_risk":4,"frizz_risk":1,"updated_at":"2026-03-07T18:24:19.302112+05:30"},{"city":"Guntur","state":"Andhra Pradesh","latitude":16.3067,"longitude":80.4365,"temp":29.1,"humidity":66,"rain":0.0,"pressure":1004.2,"uv_index":8.6,"wind_gusts":32.4,"aqi":150,"pm10":43.7,"pm2_5":35.4,"mosquito_risk":7,"arthritis_risk":5,"migraine_risk":4,"frizz_risk":1,"updated_at":"2026-03-07T18:24:19.302119+05:30"},{"city":"Nellore","state":"Andhra Pradesh","latitude":14.4426,"longitude":79.9865,"temp":28.5,"humidity":67,"rain":0.0,"pressure":1005.8,"uv_index":8.75,"wind_gusts":33.8,"aqi":153,"pm10":40.6,"pm2_5":33.3,"mosquito_risk":7,"arthritis_risk":5,"migraine_risk":4,"frizz_risk":1,"updated_at":"2026-03-07T18:24:19.302127+05:30"},{"city":"Kurnool","state":"Andhra Pradesh","latitude":15.8281,"longitude":78.0373,"temp":35.8,"humidity":19,"rain":0.0,"pressure":975.8,"uv_index":8.6,"wind_gusts":24.8,"aqi":118,"pm10":28.5,"pm2_5":17.9,"mosquito_risk":0,"arthritis_risk":5,"migraine_risk":10,"frizz_risk":0,"updated_at":"2026-03-07T18:24:19.302136+05:30"},{"city":"Kakinada","state":"Andhra Pradesh","latitude":16.9891,"longitude":82.2475,"temp":27.9,"humidity":73,"rain":0.0,"pressure":1008.3,"uv_index":8.5,"wind_gusts":32.0,"aqi":106,"pm10":38.3,"pm2_5":31.0,"mosquito_risk":7,"arthritis_risk":0,"migraine_risk":4,"frizz_risk":1,"updated_at":"2026-03-07T18:24:19.302164+05:30"},{"city":"Tirupati","state":"Andhra Pradesh","latitude":13.6288,"longitude":79.4192,"temp":32.4,"humidity":34,"rain":0.0,"pressure":990.7,"uv_index":8.9,"wind_gusts":32.8,"aqi":152,"pm10":49.1,"pm2_5":43.0,"mosquito_risk":0,"arthritis_risk":5,"migraine_risk":7,"frizz_risk":0,"updated_at":"2026-03-07T18:24:19.302179+05:30"},{"city":"Warangal","state":"Telangana","latitude":17.9689,"longitude":79.5941,"temp":32.1,"humidity":33,"rain":0.0,"pressure":978.3,"uv_index":8.3,"wind_gusts":22.0,"aqi":142,"pm10":30.9,"pm2_5":23.6,"mosquito_risk":0,"arthritis_risk":5,"migraine_risk":7,"frizz_risk":0,"updated_at":"2026-03-07T18:24:19.302187+05:30"},{"city":"Nizamabad","state":"Telangana","latitude":18.6725,"longitude":78.0941,"temp":32.9,"humidity":29,"rain":0.0,"pressure":964.9,"uv_index":8.2,"wind_gusts":22.3,"aqi":132,"pm10":29.2,"pm2_5":19.8,"mosquito_risk":0,"arthritis_risk":5,"migraine_risk":7,"frizz_risk":0,"updated_at":"2026-03-07T18:24:19.302194+05:30"},{"city":"Mysore","state":"Karnataka","latitude":12.2958,"longitude":76.6396,"temp":30.9,"humidity":30,"rain":0.0,"pressure":927.8,"uv_index":9.2,"wind_gusts":34.6,"aqi":146,"pm10":34.2,"pm2_5":30.4,"mosquito_risk":0,"arthritis_risk":5,"migraine_risk":7,"frizz_risk":0,"updated_at":"2026-03-07T18:24:19.302201+05:30"},{"city":"Mangalore","state":"Karnataka","latitude":12.9141,"longitude":74.856,"temp":28.6,"humidity":79,"rain":0.0,"pressure":1006.0,"uv_index":8.8,"wind_gusts":26.6,"aqi":153,"pm10":48.5,"pm2_5":44.7,"mosquito_risk":7,"arthritis_risk":5,"migraine_risk":4,"frizz_risk":1,"updated_at":"2026-03-07T18:24:19.302208+05:30"},{"city":"Hubli-Dharwad","state":"Karnataka","latitude":15.3647,"longitude":75.124,"temp":33.3,"humidity":19,"rain":0.0,"pressure":940.2,"uv_index":8.75,"wind_gusts":26.3,"aqi":176,"pm10":26.0,"pm2_5":21.6,"mosquito_risk":0,"arthritis_risk":5,"migraine_risk":7,"frizz_risk":0,"updated_at":"2026-03-07T18:24:19.302216+05:30"},{"city":"Belgaum","state":"Karnataka","latitude":15.8497,"longitude":74.4977,"temp":31.0,"humidity":38,"rain":0.0,"pressure":925.7,"uv_index":8.8,"wind_gusts":41.0,"aqi":174,"pm10":24.0,"pm2_5":20.7,"mosquito_risk":0,"arthritis_risk":5,"migraine_risk":7,"frizz_risk":0,"updated_at":"2026-03-07T18:24:22.571515+05:30"},{"city":"Coimbatore","state":"Tamil Nadu","latitude":11.0168,"longitude":76.9558,"temp":29.7,"humidity":54,"rain":0.0,"pressure":961.1,"uv_index":9.2,"wind_gusts":37.8,"aqi":153,"pm10":32.7,"pm2_5":29.6,"mosquito_risk":4,"arthritis_risk":5,"migraine_risk":7,"frizz_risk":1,"updated_at":"2026-03-07T18:24:22.571543+05:30"},{"city":"Madurai","state":"Tamil Nadu","latitude":9.9252,"longitude":78.1198,"temp":33.8,"humidity":29,"rain":0.0,"pressure":991.4,"uv_index":9.15,"wind_gusts":31.7,"aqi":152,"pm10":33.1,"pm2_5":28.2,"mosquito_risk":0,"arthritis_risk":5,"migraine_risk":7,"frizz_risk":0,"updated_at":"2026-03-07T18:24:22.571553+05:30"},{"city":"Trichy","state":"Tamil Nadu","latitude":10.7905,"longitude":78.7047,"temp":33.5,"humidity":34,"rain":0.0,"pressure":998.5,"uv_index":9.05,"wind_gusts":27.0,"aqi":111,"pm10":33.9,"pm2_5":28.5,"mosquito_risk":0,"arthritis_risk":5,"migraine_risk":7,"frizz_risk":0,"updated_at":"2026-03-07T18:24:22.571561+05:30"},{"city":"Salem","state":"Tamil Nadu","latitude":11.6643,"longitude":78.146,"temp":33.8,"humidity":31,"rain":0.0,"pressure":975.9,"uv_index":9.05,"wind_gusts":20.2,"aqi":160,"pm10":33.9,"pm2_5":28.2,"mosquito_risk":0,"arthritis_risk":5,"migraine_risk":7,"frizz_risk":0,"updated_at":"2026-03-07T18:24:22.571568+05:30"},{"city":"Tirunelveli","state":"Tamil Nadu","latitude":8.7139,"longitude":77.7567,"temp":32.1,"humidity":46,"rain":0.0,"pressure":1002.1,"uv_index":9.15,"wind_gusts":50.0,"aqi":128,"pm10":34.2,"pm2_5":29.9,"mosquito_risk":0,"arthritis_risk":5,"migraine_risk":4,"frizz_risk":1,"updated_at":"2026-03-07T18:24:22.571575+05:30"},{"city":"Vellore","state":"Tamil Nadu","latitude":12.9165,"longitude":79.1325,"temp":31.9,"humidity":33,"rain":0.0,"pressure":983.8,"uv_index":8.95,"wind_gusts":35.3,"aqi":151,"pm10":45.1,"pm2_5":38.6,"mosquito_risk":0,"arthritis_risk":5,"migraine_risk":7,"frizz_risk":0,"updated_at":"2026-03-07T18:24:22.571582+05:30"},{"city":"Erode","state":"Tamil Nadu","latitude":11.341,"longitude":77.7172,"temp":34.7,"humidity":35,"rain":0.0,"pressure":987.2,"uv_index":9.05,"wind_gusts":24.5,"aqi":148,"pm10":34.5,"pm2_5":30.6,"mosquito_risk":0,"arthritis_risk":5,"migraine_risk":7,"frizz_risk":1,"updated_at":"2026-03-07T18:24:22.571589+05:30"},{"city":"Kochi","state":"Kerala","latitude":9.9312,"longitude":76.2673,"temp":28.0,"humidity":82,"rain":0.0,"pressure":1008.2,"uv_index":9.0,"wind_gusts":30.6,"aqi":133,"pm10":33.1,"pm2_5":31.1,"mosquito_risk":7,"arthritis_risk":0,"migraine_risk":4,"frizz_risk":1,"updated_at":"2026-03-07T18:24:22.571596+05:30"},{"city":"Thiruvananthapuram","state":"Kerala","latitude":8.5241,"longitude":76.9366,"temp":28.0,"humidity":80,"rain":0.0,"pressure":1007.9,"uv_index":8.95,"wind_gusts":33.8,"aqi":105,"pm10":29.9,"pm2_5":26.9,"mosquito_risk":7,"arthritis_risk":5,"migraine_risk":4,"frizz_risk":1,"updated_at":"2026-03-07T18:24:22.571603+05:30"},{"city":"Kozhikode","state":"Kerala","latitude":11.2588,"longitude":75.7804,"temp":28.9,"humidity":78,"rain":0.0,"pressure":1007.4,"uv_index":8.9,"wind_gusts":27.4,"aqi":143,"pm10":40.3,"pm2_5":37.0,"mosquito_risk":7,"arthritis_risk":5,"migraine_risk":4,"frizz_risk":1,"updated_at":"2026-03-07T18:24:22.571609+05:30"},{"city":"Thrissur","state":"Kerala","latitude":10.5276,"longitude":76.2144,"temp":28.7,"humidity":78,"rain":0.0,"pressure":1006.6,"uv_index":8.85,"wind_gusts":31.3,"aqi":129,"pm10":34.0,"pm2_5":32.5,"mosquito_risk":7,"arthritis_risk":5,"migraine_risk":4,"frizz_risk":1,"updated_at":"2026-03-07T18:24:22.571616+05:30"},{"city":"Kannur","state":"Kerala","latitude":11.8745,"longitude":75.3704,"temp":29.0,"humidity":73,"rain":0.0,"pressure":1006.8,"uv_index":8.9,"wind_gusts":32.0,"aqi":151,"pm10":47.6,"pm2_5":43.9,"mosquito_risk":7,"arthritis_risk":5,"migraine_risk":4,"frizz_risk":1,"updated_at":"2026-03-07T18:24:22.571623+05:30"},{"city":"Patna","state":"Bihar","latitude":25.5941,"longitude":85.1376,"temp":29.1,"humidity":53,"rain":0.0,"pressure":1003.4,"uv_index":7.3,"wind_gusts":20.2,"aqi":159,"pm10":81.3,"pm2_5":74.0,"mosquito_risk":4,"arthritis_risk":5,"migraine_risk":4,"frizz_risk":1,"updated_at":"2026-03-07T18:24:22.571629+05:30"},{"city":"Gaya","state":"Bihar","latitude":24.7914,"longitude":85.0002,"temp":26.6,"humidity":68,"rain":0.0,"pressure":996.4,"uv_index":7.4,"wind_gusts":25.2,"aqi":159,"pm10":68.0,"pm2_5":61.5,"mosquito_risk":7,"arthritis_risk":5,"migraine_risk":7,"frizz_risk":1,"updated_at":"2026-03-07T18:24:22.571635+05:30"},{"city":"Muzaffarpur","state":"Bihar","latitude":26.1209,"longitude":85.3647,"temp":28.1,"humidity":54,"rain":0.0,"pressure":1003.4,"uv_index":7.25,"wind_gusts":17.6,"aqi":168,"pm10":82.9,"pm2_5":75.9,"mosquito_risk":4,"arthritis_risk":5,"migraine_risk":4,"frizz_risk":1,"updated_at":"2026-03-07T18:24:22.571641+05:30"},{"city":"Bhagalpur","state":"Bihar","latitude":25.2425,"longitude":87.0117,"temp":26.9,"humidity":69,"rain":0.0,"pressure":1004.3,"uv_index":7.3,"wind_gusts":14.8,"aqi":163,"pm10":76.4,"pm2_5":65.7,"mosquito_risk":7,"arthritis_risk":5,"migraine_risk":4,"frizz_risk":1,"updated_at":"2026-03-07T18:24:22.571647+05:30"},{"city":"Ranchi","state":"Jharkhand","latitude":23.3441,"longitude":85.3096,"temp":25.5,"humidity":45,"rain":0.0,"pressure":939.7,"uv_index":8.0,"wind_gusts":28.8,"aqi":156,"pm10":99.0,"pm2_5":70.1,"mosquito_risk":4,"arthritis_risk":5,"migraine_risk":7,"frizz_risk":0,"updated_at":"2026-03-07T18:24:22.571654+05:30"},{"city":"Jamshedpur","state":"Jharkhand","latitude":22.8046,"longitude":86.2029,"temp":29.4,"humidity":50,"rain":0.0,"pressure":992.7,"uv_index":7.9,"wind_gusts":27.4,"aqi":147,"pm10":90.1,"pm2_5":64.5,"mosquito_risk":4,"arthritis_risk":5,"migraine_risk":7,"frizz_risk":1,"updated_at":"2026-03-07T18:24:22.571661+05:30"},{"city":"Dhanbad","state":"Jharkhand","latitude":23.7957,"longitude":86.4304,"temp":30.4,"humidity":36,"rain":0.0,"pressure":982.1,"uv_index":7.8,"wind_gusts":26.3,"aqi":165,"pm10":104.8,"pm2_5":83.6,"mosquito_risk":0,"arthritis_risk":5,"migraine_risk":7,"frizz_risk":0,"updated_at":"2026-03-07T18:24:22.571668+05:30"},{"city":"Bokaro","state":"Jharkhand","latitude":23.6693,"longitude":86.1511,"temp":29.2,"humidity":40,"rain":0.0,"pressure":986.1,"uv_index":7.8,"wind_gusts":25.9,"aqi":168,"pm10":112.9,"pm2_5":89.9,"mosquito_risk":4,"arthritis_risk":5,"migraine_risk":7,"frizz_risk":0,"updated_at":"2026-03-07T18:24:22.571674+05:30"},{"city":"Bhubaneswar","state":"Odisha","latitude":20.2961,"longitude":85.8245,"temp":28.1,"humidity":70,"rain":0.0,"pressure":1004.7,"uv_index":8.2,"wind_gusts":32.4,"aqi":150,"pm10":48.0,"pm2_5":42.1,"mosquito_risk":7,"arthritis_risk":5,"migraine_risk":4,"frizz_risk":1,"updated_at":"2026-03-07T18:24:22.571680+05:30"},{"city":"Cuttack","state":"Odisha","latitude":20.4625,"longitude":85.8828,"temp":29.2,"humidity":63,"rain":0.0,"pressure":1006.2,"uv_index":8.25,"wind_gusts":29.9,"aqi":150,"pm10":48.0,"pm2_5":42.1,"mosquito_risk":7,"arthritis_risk":5,"migraine_risk":4,"frizz_risk":1,"updated_at":"2026-03-07T18:24:22.571687+05:30"},{"city":"Rourkela","state":"Odisha","latitude":22.2604,"longitude":84.8536,"temp":30.9,"humidity":40,"rain":0.0,"pressure":986.0,"uv_index":7.8,"wind_gusts":20.2,"aqi":186,"pm10":108.0,"pm2_5":72.4,"mosquito_risk":0,"arthritis_risk":5,"migraine_risk":7,"frizz_risk":0,"updated_at":"2026-03-07T18:24:22.571693+05:30"},{"city":"Raipur","state":"Chhattisgarh","latitude":21.2514,"longitude":81.6296,"temp":32.5,"humidity":33,"rain":0.0,"pressure":974.9,"uv_index":7.95,"wind_gusts":22.3,"aqi":153,"pm10":75.2,"pm2_5":37.8,"mosquito_risk":0,"arthritis_risk":5,"migraine_risk":7,"frizz_risk":0,"updated_at":"2026-03-07T18:24:22.571700+05:30"},{"city":"Bhilai","state":"Chhattisgarh","latitude":21.1938,"longitude":81.3509,"temp":33.7,"humidity":30,"rain":0.0,"pressure":975.2,"uv_index":7.95,"wind_gusts":18.4,"aqi":132,"pm10":68.9,"pm2_5":34.6,"mosquito_risk":0,"arthritis_risk":5,"migraine_risk":7,"frizz_risk":0,"updated_at":"2026-03-07T18:24:22.571706+05:30"},{"city":"Guwahati","state":"Assam","latitude":26.1158,"longitude":91.7086,"temp":26.9,"humidity":67,"rain":0.0,"pressure":1003.8,"uv_index":7.25,"wind_gusts":20.2,"aqi":146,"pm10":71.0,"pm2_5":62.4,"mosquito_risk":7,"arthritis_risk":5,"migraine_risk":4,"frizz_risk":1,"updated_at":"2026-03-07T18:24:22.571712+05:30"},{"city":"Agartala","state":"Tripura","latitude":23.8315,"longitude":91.2868,"temp":26.2,"humidity":60,"rain":0.0,"pressure":1009.0,"uv_index":7.6,"wind_gusts":19.1,"aqi":152,"pm10":70.8,"pm2_5":56.8,"mosquito_risk":4,"arthritis_risk":0,"migraine_risk":4,"frizz_risk":1,"updated_at":"2026-03-07T18:24:22.571719+05:30"},{"city":"Shillong","state":"Meghalaya","latitude":25.5788,"longitude":91.8933,"temp":15.0,"humidity":71,"rain":0.0,"pressure":858.4,"uv_index":7.6,"wind_gusts":42.1,"aqi":109,"pm10":46.1,"pm2_5":39.9,"mosquito_risk":3,"arthritis_risk":5,"migraine_risk":7,"frizz_risk":0,"updated_at":"2026-03-07T18:24:22.571725+05:30"},{"city":"Imphal","state":"Manipur","latitude":24.817,"longitude":93.9368,"temp":20.5,"humidity":64,"rain":0.0,"pressure":925.7,"uv_index":7.85,"wind_gusts":40.3,"aqi":182,"pm10":69.6,"pm2_5":63.1,"mosquito_risk":3,"arthritis_risk":5,"migraine_risk":7,"frizz_risk":0,"updated_at":"2026-03-07T18:24:22.571732+05:30"},{"city":"Aizawl","state":"Mizoram","latitude":23.7271,"longitude":92.7176,"temp":21.2,"humidity":56,"rain":0.0,"pressure":895.0,"uv_index":7.8,"wind_gusts":31.0,"aqi":176,"pm10":94.5,"pm2_5":87.1,"mosquito_risk":0,"arthritis_risk":5,"migraine_risk":7,"frizz_risk":0,"updated_at":"2026-03-07T18:24:22.571738+05:30"},{"city":"Kohima","state":"Nagaland","latitude":25.6701,"longitude":94.1077,"temp":15.8,"humidity":84,"rain":0.0,"pressure":857.1,"uv_index":7.7,"wind_gusts":51.1,"aqi":157,"pm10":62.9,"pm2_5":56.6,"mosquito_risk":3,"arthritis_risk":10,"migraine_risk":7,"frizz_risk":0,"updated_at":"2026-03-07T18:24:22.571744+05:30"},{"city":"Gangtok","state":"Sikkim","latitude":27.3314,"longitude":88.6138,"temp":14.2,"humidity":88,"rain":0.0,"pressure":840.2,"uv_index":7.25,"wind_gusts":17.6,"aqi":154,"pm10":62.4,"pm2_5":53.4,"mosquito_risk":3,"arthritis_risk":10,"migraine_risk":7,"frizz_risk":0,"updated_at":"2026-03-07T18:24:22.571751+05:30"},{"city":"Siliguri","state":"West Bengal","latitude":26.7271,"longitude":88.3953,"temp":23.2,"humidity":66,"rain":0.0,"pressure":997.5,"uv_index":7.25,"wind_gusts":15.8,"aqi":153,"pm10":66.8,"pm2_5":56.0,"mosquito_risk":3,"arthritis_risk":5,"migraine_risk":7,"frizz_risk":1,"updated_at":"2026-03-07T18:24:25.844503+05:30"},{"city":"Durgapur","state":"West Bengal","latitude":23.5204,"longitude":87.3119,"temp":29.2,"humidity":47,"rain":0.0,"pressure":997.6,"uv_index":7.75,"wind_gusts":22.7,"aqi":160,"pm10":91.7,"pm2_5":76.6,"mosquito_risk":4,"arthritis_risk":5,"migraine_risk":7,"frizz_risk":1,"updated_at":"2026-03-07T18:24:25.844537+05:30"},{"city":"Asansol","state":"West Bengal","latitude":23.6739,"longitude":86.9524,"temp":29.5,"humidity":48,"rain":0.0,"pressure":996.0,"uv_index":7.75,"wind_gusts":19.1,"aqi":159,"pm10":93.4,"pm2_5":74.7,"mosquito_risk":4,"arthritis_risk":5,"migraine_risk":7,"frizz_risk":1,"updated_at":"2026-03-07T18:24:25.844549+05:30"},{"city":"Pondicherry","state":"Puducherry","latitude":11.9139,"longitude":79.8145,"temp":28.7,"humidity":66,"rain":0.0,"pressure":1008.4,"uv_index":8.9,"wind_gusts":33.1,"aqi":85,"pm10":27.2,"pm2_5":19.2,"mosquito_risk":7,"arthritis_risk":0,"migraine_risk":4,"frizz_risk":1,"updated_at":"2026-03-07T18:24:25.844557+05:30"},{"city":"Port Blair","state":"Andaman and Nicobar Islands","latitude":11.6234,"longitude":92.7265,"temp":27.9,"humidity":69,"rain":0.0,"pressure":1008.9,"uv_index":8.85,"wind_gusts":16.6,"aqi":95,"pm10":51.3,"pm2_5":34.2,"mosquito_risk":7,"arthritis_risk":0,"migraine_risk":4,"frizz_risk":1,"updated_at":"2026-03-07T18:24:25.844565+05:30"},{"city":"Haridwar","state":"Uttarakhand","latitude":29.9457,"longitude":78.1642,"temp":29.1,"humidity":57,"rain":0.0,"pressure":977.5,"uv_index":5.7,"wind_gusts":21.6,"aqi":162,"pm10":81.3,"pm2_5":59.8,"mosquito_risk":4,"arthritis_risk":5,"migraine_risk":3,"frizz_risk":1,"updated_at":"2026-03-07T18:24:25.844573+05:30"},{"city":"Rishikesh","state":"Uttarakhand","latitude":30.0869,"longitude":78.2676,"temp":27.6,"humidity":62,"rain":0.0,"pressure":970.5,"uv_index":5.75,"wind_gusts":23.8,"aqi":160,"pm10":86.4,"pm2_5":62.9,"mosquito_risk":7,"arthritis_risk":5,"migraine_risk":3,"frizz_risk":1,"updated_at":"2026-03-07T18:24:25.844580+05:30"},{"city":"Nainital","state":"Uttarakhand","latitude":29.3919,"longitude":79.4542,"temp":19.8,"humidity":67,"rain":0.0,"pressure":809.6,"uv_index":6.6,"wind_gusts":54.4,"aqi":164,"pm10":101.3,"pm2_5":72.2,"mosquito_risk":3,"arthritis_risk":5,"migraine_risk":7,"frizz_risk":0,"updated_at":"2026-03-07T18:24:25.844588+05:30"},{"city":"Mussoorie","state":"Uttarakhand","latitude":30.4599,"longitude":78.0664,"temp":18.7,"humidity":77,"rain":0.0,"pressure":806.4,"uv_index":6.1,"wind_gusts":41.8,"aqi":160,"pm10":95.2,"pm2_5":68.5,"mosquito_risk":3,"arthritis_risk":5,"migraine_risk":7,"frizz_risk":0,"updated_at":"2026-03-07T18:24:25.844597+05:30"},{"city":"Dharamshala","state":"Himachal Pradesh","latitude":32.219,"longitude":76.3234,"temp":23.1,"humidity":72,"rain":0.0,"pressure":872.9,"uv_index":6.2,"wind_gusts":21.6,"aqi":74,"pm10":26.0,"pm2_5":13.0,"mosquito_risk":3,"arthritis_risk":5,"migraine_risk":7,"frizz_risk":1,"updated_at":"2026-03-07T18:24:25.844604+05:30"},{"city":"Dalhousie","state":"Himachal Pradesh","latitude":32.5387,"longitude":75.971,"temp":20.4,"humidity":68,"rain":0.0,"pressure":807.6,"uv_index":6.6,"wind_gusts":17.3,"aqi":101,"pm10":39.5,"pm2_5":26.4,"mosquito_risk":3,"arthritis_risk":5,"migraine_risk":7,"frizz_risk":0,"updated_at":"2026-03-07T18:24:25.844611+05:30"},{"city":"Patiala","state":"Punjab","latitude":30.3398,"longitude":76.3869,"temp":28.2,"humidity":57,"rain":0.0,"pressure":980.9,"uv_index":5.75,"wind_gusts":16.9,"aqi":170,"pm10":123.4,"pm2_5":53.8,"mosquito_risk":4,"arthritis_risk":5,"migraine_risk":3,"frizz_risk":1,"updated_at":"2026-03-07T18:24:25.844618+05:30"},{"city":"Bhatinda","state":"Punjab","latitude":30.211,"longitude":74.9455,"temp":30.3,"humidity":48,"rain":0.0,"pressure":986.0,"uv_index":6.45,"wind_gusts":20.5,"aqi":135,"pm10":122.5,"pm2_5":43.1,"mosquito_risk":0,"arthritis_risk":5,"migraine_risk":7,"frizz_risk":1,"updated_at":"2026-03-07T18:24:25.844625+05:30"},{"city":"Rohtak","state":"Haryana","latitude":28.8955,"longitude":76.6066,"temp":29.2,"humidity":49,"rain":0.0,"pressure":984.3,"uv_index":5.95,"wind_gusts":13.3,"aqi":169,"pm10":164.4,"pm2_5":44.9,"mosquito_risk":4,"arthritis_risk":5,"migraine_risk":3,"frizz_risk":1,"updated_at":"2026-03-07T18:24:25.844632+05:30"},{"city":"Panipat","state":"Haryana","latitude":29.3909,"longitude":76.9635,"temp":28.7,"humidity":51,"rain":0.0,"pressure":983.0,"uv_index":5.75,"wind_gusts":18.7,"aqi":188,"pm10":182.5,"pm2_5":52.9,"mosquito_risk":4,"arthritis_risk":5,"migraine_risk":3,"frizz_risk":1,"updated_at":"2026-03-07T18:24:25.844639+05:30"},{"city":"Mathura","state":"Uttar Pradesh","latitude":27.4924,"longitude":77.6737,"temp":29.1,"humidity":37,"rain":0.0,"pressure":989.3,"uv_index":6.2,"wind_gusts":17.3,"aqi":169,"pm10":130.4,"pm2_5":39.0,"mosquito_risk":4,"arthritis_risk":5,"migraine_risk":7,"frizz_risk":0,"updated_at":"2026-03-07T18:24:25.844647+05:30"},{"city":"Vrindavan","state":"Uttar Pradesh","latitude":27.5823,"longitude":77.7027,"temp":29.2,"humidity":42,"rain":0.0,"pressure":989.9,"uv_index":6.2,"wind_gusts":18.0,"aqi":169,"pm10":130.4,"pm2_5":39.0,"mosquito_risk":4,"arthritis_risk":5,"migraine_risk":7,"frizz_risk":0,"updated_at":"2026-03-07T18:24:25.844654+05:30"},{"city":"Ayodhya","state":"Uttar Pradesh","latitude":26.7922,"longitude":82.1998,"temp":29.0,"humidity":56,"rain":0.0,"pressure":998.7,"uv_index":6.65,"wind_gusts":18.4,"aqi":173,"pm10":88.2,"pm2_5":72.6,"mosquito_risk":4,"arthritis_risk":5,"migraine_risk":7,"frizz_risk":1,"updated_at":"2026-03-07T18:24:25.844660+05:30"},{"city":"Ratlam","state":"Madhya Pradesh","latitude":23.3315,"longitude":75.0367,"temp":31.2,"humidity":37,"rain":0.0,"pressure":956.2,"uv_index":7.45,"wind_gusts":13.7,"aqi":95,"pm10":14.0,"pm2_5":12.7,"mosquito_risk":0,"arthritis_risk":5,"migraine_risk":7,"frizz_risk":0,"updated_at":"2026-03-07T18:24:25.844667+05:30"},{"city":"Sagar","state":"Madhya Pradesh","latitude":23.8388,"longitude":78.7378,"temp":29.1,"humidity":39,"rain":0.0,"pressure":952.0,"uv_index":7.4,"wind_gusts":22.7,"aqi":101,"pm10":43.9,"pm2_5":15.7,"mosquito_risk":4,"arthritis_risk":5,"migraine_risk":7,"frizz_risk":0,"updated_at":"2026-03-07T18:24:25.844674+05:30"},{"city":"Satna","state":"Madhya Pradesh","latitude":24.6005,"longitude":80.8322,"temp":30.1,"humidity":41,"rain":0.0,"pressure":973.8,"uv_index":7.4,"wind_gusts":21.2,"aqi":156,"pm10":82.7,"pm2_5":54.5,"mosquito_risk":0,"arthritis_risk":5,"migraine_risk":7,"frizz_risk":0,"updated_at":"2026-03-07T18:24:25.844681+05:30"},{"city":"Akola","state":"Maharashtra","latitude":20.7002,"longitude":77.0082,"temp":34.5,"humidity":28,"rain":0.0,"pressure":975.0,"uv_index":7.9,"wind_gusts":18.0,"aqi":131,"pm10":27.0,"pm2_5":20.4,"mosquito_risk":0,"arthritis_risk":5,"migraine_risk":7,"frizz_risk":0,"updated_at":"2026-03-07T18:24:25.844689+05:30"},{"city":"Amravati","state":"Maharashtra","latitude":20.9374,"longitude":77.7796,"temp":33.6,"humidity":28,"rain":0.0,"pressure":967.2,"uv_index":7.85,"wind_gusts":13.3,"aqi":126,"pm10":26.9,"pm2_5":18.2,"mosquito_risk":0,"arthritis_risk":5,"migraine_risk":7,"frizz_risk":0,"updated_at":"2026-03-07T18:24:25.844696+05:30"},{"city":"Latur","state":"Maharashtra","latitude":18.4088,"longitude":76.5604,"temp":31.9,"humidity":25,"rain":0.0,"pressure":940.1,"uv_index":8.3,"wind_gusts":28.4,"aqi":136,"pm10":22.8,"pm2_5":17.9,"mosquito_risk":0,"arthritis_risk":5,"migraine_risk":7,"frizz_risk":0,"updated_at":"2026-03-07T18:24:25.844703+05:30"},{"city":"Nanded","state":"Maharashtra","latitude":19.1383,"longitude":77.3091,"temp":33.7,"humidity":25,"rain":0.0,"pressure":968.4,"uv_index":8.1,"wind_gusts":19.8,"aqi":125,"pm10":24.6,"pm2_5":15.6,"mosquito_risk":0,"arthritis_risk":5,"migraine_risk":7,"frizz_risk":0,"updated_at":"2026-03-07T18:24:25.844709+05:30"},{"city":"Gulbarga","state":"Karnataka","latitude":17.3297,"longitude":76.8343,"temp":35.4,"humidity":18,"rain":0.0,"pressure":958.1,"uv_index":8.45,"wind_gusts":21.2,"aqi":131,"pm10":19.8,"pm2_5":14.8,"mosquito_risk":0,"arthritis_risk":5,"migraine_risk":10,"frizz_risk":0,"updated_at":"2026-03-07T18:24:25.844716+05:30"},{"city":"Bidar","state":"Karnataka","latitude":17.9104,"longitude":77.5199,"temp":33.0,"humidity":21,"rain":0.0,"pressure":935.7,"uv_index":8.4,"wind_gusts":20.9,"aqi":128,"pm10":23.2,"pm2_5":16.9,"mosquito_risk":0,"arthritis_risk":5,"migraine_risk":7,"frizz_risk":0,"updated_at":"2026-03-07T18:24:25.844722+05:30"},{"city":"Hospet","state":"Karnataka","latitude":15.2689,"longitude":76.3909,"temp":34.4,"humidity":21,"rain":0.0,"pressure":955.3,"uv_index":8.7,"wind_gusts":19.4,"aqi":175,"pm10":27.4,"pm2_5":22.4,"mosquito_risk":0,"arthritis_risk":5,"migraine_risk":7,"frizz_risk":0,"updated_at":"2026-03-07T18:24:25.844728+05:30"},{"city":"Tirupur","state":"Tamil Nadu","latitude":11.1085,"longitude":77.3411,"temp":34.5,"humidity":26,"rain":0.0,"pressure":973.8,"uv_index":9.2,"wind_gusts":30.6,"aqi":158,"pm10":36.7,"pm2_5":33.2,"mosquito_risk":0,"arthritis_risk":5,"migraine_risk":7,"frizz_risk":0,"updated_at":"2026-03-07T18:24:25.844735+05:30"},{"city":"Alappuzha","state":"Kerala","latitude":9.4981,"longitude":76.3388,"temp":28.0,"humidity":82,"rain":0.0,"pressure":1008.2,"uv_index":8.15,"wind_gusts":28.1,"aqi":127,"pm10":29.9,"pm2_5":27.9,"mosquito_risk":7,"arthritis_risk":0,"migraine_risk":4,"frizz_risk":1,"updated_at":"2026-03-07T18:24:25.844742+05:30"},{"city":"Munnar","state":"Kerala","latitude":10.0889,"longitude":77.0595,"temp":23.3,"humidity":79,"rain":0.0,"pressure":857.1,"uv_index":9.5,"wind_gusts":37.4,"aqi":104,"pm10":31.1,"pm2_5":28.5,"mosquito_risk":3,"arthritis_risk":5,"migraine_risk":7,"frizz_risk":1,"updated_at":"2026-03-07T18:24:25.844749+05:30"},{"city":"Silchar","state":"Assam","latitude":24.8333,"longitude":92.7789,"temp":27.8,"humidity":60,"rain":0.0,"pressure":1006.8,"uv_index":7.55,"wind_gusts":21.2,"aqi":163,"pm10":61.9,"pm2_5":57.5,"mosquito_risk":4,"arthritis_risk":5,"migraine_risk":4,"frizz_risk":1,"updated_at":"2026-03-07T18:24:25.844756+05:30"},{"city":"Dibrugarh","state":"Assam","latitude":27.4728,"longitude":94.912,"temp":26.9,"humidity":67,"rain":0.0,"pressure":997.9,"uv_index":7.3,"wind_gusts":14.8,"aqi":150,"pm10":99.2,"pm2_5":85.0,"mosquito_risk":7,"arthritis_risk":5,"migraine_risk":7,"frizz_risk":1,"updated_at":"2026-03-07T18:24:25.844763+05:30"}]