[{"city":"Delhi","state":"Delhi","latitude":28.6139,"longitude":77.209,"temp":33.5,"humidity":25,"rain":0.0,"pressure":980.5,"uv_index":7.4,"wind_gusts":31.0,"aqi":198,"pm10":191.4,"pm2_5":54.9,"mosquito_risk":0,"arthritis_risk":5,"migraine_risk":7,"frizz_risk":0,"updated_at":"2026-04-23T22:57:08.147002+05:30"},{"city":"Mumbai","state":"Maharashtra","latitude":19.076,"longitude":72.8777,"temp":29.8,"humidity":76,"rain":0.0,"pressure":1006.2,"uv_index":8.05,"wind_gusts":25.9,"aqi":89,"pm10":31.0,"pm2_5":23.7,"mosquito_risk":7,"arthritis_risk":5,"migraine_risk":4,"frizz_risk":1,"updated_at":"2026-04-23T22:57:08.147056+05:30"},{"city":"Bangalore","state":"Karnataka","latitude":12.9716,"longitude":77.5946,"temp":26.8,"humidity":52,"rain":0.0,"pressure":911.0,"uv_index":9.4,"wind_gusts":33.1,"aqi":96,"pm10":25.7,"pm2_5":23.5,"mosquito_risk":4,"arthritis_risk":5,"migraine_risk":7,"frizz_risk":1,"updated_at":"2026-04-23T22:57:08.147073+05:30"},{"city":"Hyderabad","state":"Telangana","latitude":17.385,"longitude":78.4867,"temp":29.7,"humidity":51,"rain":0.0,"pressure":952.6,"uv_index":8.85,"wind_gusts":42.5,"aqi":123,"pm10":47.6,"pm2_5":42.3,"mosquito_risk":4,"arthritis_risk":5,"migraine_risk":7,"frizz_risk":1,"updated_at":"2026-04-23T22:57:08.147084+05:30"},{"city":"Chennai","state":"Tamil Nadu","latitude":13.0827,"longitude":80.2707,"temp":29.4,"humidity":83,"rain":0.0,"pressure":1005.9,"uv_index":9.3,"wind_gusts":33.1,"aqi":29,"pm10":9.4,"pm2_5":6.5,"mosquito_risk":7,"arthritis_risk":5,"migraine_risk":4,"frizz_risk":1,"updated_at":"2026-04-23T22:57:08.147094+05:30"},{"city":"Kolkata","state":"West Bengal","latitude":22.5726,"longitude":88.3639,"temp":28.5,"humidity":88,"rain":0.0,"pressure":1004.4,"uv_index":8.85,"wind_gusts":23.4,"aqi":101,"pm10":25.4,"pm2_5":21.8,"mosquito_risk":7,"arthritis_risk":5,"migraine_risk":4,"frizz_risk":1,"updated_at":"2026-04-23T22:57:08.147108+05:30"},{"city":"Pune","state":"Maharashtra","latitude":18.5204,"longitude":73.8567,"temp":27.8,"humidity":58,"rain":0.0,"pressure":947.6,"uv_index":8.65,"wind_gusts":38.5,"aqi":112,"pm10":47.0,"pm2_5":43.2,"mosquito_risk":4,"arthritis_risk":5,"migraine_risk":7,"frizz_risk":1,"updated_at":"2026-04-23T22:57:08.147117+05:30"},{"city":"Ahmedabad","state":"Gujarat","latitude":23.0225,"longitude":72.5714,"temp":31.8,"humidity":36,"rain":0.0,"pressure":1000.5,"uv_index":8.2,"wind_gusts":29.5,"aqi":50,"pm10":41.6,"pm2_5":19.7,"mosquito_risk":0,"arthritis_risk":5,"migraine_risk":4,"frizz_risk":0,"updated_at":"2026-04-23T22:57:08.147125+05:30"},{"city":"Jaipur","state":"Rajasthan","latitude":26.9124,"longitude":75.7873,"temp":30.5,"humidity":25,"rain":0.0,"pressure":958.6,"uv_index":8.05,"wind_gusts":29.9,"aqi":111,"pm10":61.9,"pm2_5":28.3,"mosquito_risk":0,"arthritis_risk":5,"migraine_risk":7,"frizz_risk":0,"updated_at":"2026-04-23T22:57:08.147134+05:30"},{"city":"Lucknow","state":"Uttar Pradesh","latitude":26.8467,"longitude":80.9462,"temp":31.4,"humidity":29,"rain":0.0,"pressure":990.3,"uv_index":7.85,"wind_gusts":38.5,"aqi":185,"pm10":280.3,"pm2_5":55.6,"mosquito_risk":0,"arthritis_risk":5,"migraine_risk":7,"frizz_risk":0,"updated_at":"2026-04-23T22:57:08.147142+05:30"},{"city":"Kanpur","state":"Uttar Pradesh","latitude":26.4499,"longitude":80.3319,"temp":29.7,"humidity":42,"rain":0.0,"pressure":989.2,"uv_index":7.9,"wind_gusts":29.5,"aqi":341,"pm10":237.0,"pm2_5":50.6,"mosquito_risk":4,"arthritis_risk":5,"migraine_risk":7,"frizz_risk":0,"updated_at":"2026-04-23T22:57:08.147151+05:30"},{"city":"Chandigarh","state":"Chandigarh","latitude":30.7333,"longitude":76.7794,"temp":28.7,"humidity":45,"rain":0.0,"pressure":966.1,"uv_index":7.4,"wind_gusts":32.4,"aqi":114,"pm10":35.0,"pm2_5":24.7,"mosquito_risk":4,"arthritis_risk":5,"migraine_risk":7,"frizz_risk":0,"updated_at":"2026-04-23T22:57:08.147160+05:30"},{"city":"Srinagar","state":"Jammu and Kashmir","latitude":34.0837,"longitude":74.7973,"temp":15.3,"humidity":74,"rain":0.0,"pressure":841.6,"uv_index":6.85,"wind_gusts":17.3,"aqi":78,"pm10":83.6,"pm2_5":68.7,"mosquito_risk":3,"arthritis_risk":5,"migraine_risk":7,"frizz_risk":0,"updated_at":"2026-04-23T22:57:08.147169+05:30"},{"city":"Jammu","state":"Jammu and Kashmir","latitude":32.7266,"longitude":74.857,"temp":28.6,"humidity":61,"rain":0.0,"pressure":970.6,"uv_index":8.2,"wind_gusts":37.1,"aqi":70,"pm10":53.8,"pm2_5":41.0,"mosquito_risk":7,"arthritis_risk":5,"migraine_risk":7,"frizz_risk":1,"updated_at":"2026-04-23T22:57:08.147176+05:30"},{"city":"Amritsar","state":"Punjab","latitude":31.634,"longitude":74.8723,"temp":27.4,"humidity":57,"rain":0.0,"pressure":978.4,"uv_index":7.55,"wind_gusts":34.6,"aqi":111,"pm10":50.4,"pm2_5":30.9,"mosquito_risk":4,"arthritis_risk":5,"migraine_risk":7,"frizz_risk":1,"updated_at":"2026-04-23T22:57:08.147184+05:30"},{"city":"Ludhiana","state":"Punjab","latitude":30.901,"longitude":75.8573,"temp":29.9,"humidity":40,"rain":0.0,"pressure":976.5,"uv_index":7.7,"wind_gusts":34.6,"aqi":87,"pm10":35.0,"pm2_5":25.5,"mosquito_risk":4,"arthritis_risk":5,"migraine_risk":7,"frizz_risk":0,"updated_at":"2026-04-23T22:57:08.147194+05:30"},{"city":"Jalandhar","state":"Punjab","latitude":31.326,"longitude":75.5762,"temp":28.8,"humidity":48,"rain":0.0,"pressure":977.3,"uv_index":7.9,"wind_gusts":25.9,"aqi":105,"pm10":61.0,"pm2_5":27.3,"mosquito_risk":4,"arthritis_risk":5,"migraine_risk":7,"frizz_risk":1,"updated_at":"2026-04-23T22:57:08.147203+05:30"},{"city":"Dehradun","state":"Uttarakhand","latitude":30.6284,"longitude":78.0322,"temp":18.7,"humidity":60,"rain":0.0,"pressure":830.8,"uv_index":7.85,"wind_gusts":36.7,"aqi":105,"pm10":33.1,"pm2_5":23.3,"mosquito_risk":0,"arthritis_risk":5,"migraine_risk":7,"frizz_risk":0,"updated_at":"2026-04-23T22:57:08.147210+05:30"},{"city":"Shimla","state":"Himachal Pradesh","latitude":31.1048,"longitude":77.1734,"temp":16.7,"humidity":57,"rain":0.0,"pressure":785.2,"uv_index":7.9,"wind_gusts":49.7,"aqi":118,"pm10":36.3,"pm2_5":22.6,"mosquito_risk":0,"arthritis_risk":5,"migraine_risk":7,"frizz_risk":0,"updated_at":"2026-04-23T22:57:08.147218+05:30"},{"city":"Manali","state":"Himachal Pradesh","latitude":32.2396,"longitude":77.1887,"temp":18.7,"humidity":63,"rain":0.0,"pressure":822.5,"uv_index":9.85,"wind_gusts":34.9,"aqi":121,"pm10":24.6,"pm2_5":15.1,"mosquito_risk":3,"arthritis_risk":5,"migraine_risk":7,"frizz_risk":0,"updated_at":"2026-04-23T22:57:08.147226+05:30"},{"city":"Gurgaon","state":"Haryana","latitude":28.4595,"longitude":77.0266,"temp":30.0,"humidity":34,"rain":0.0,"pressure":978.9,"uv_index":7.5,"wind_gusts":24.5,"aqi":800,"pm10":186.3,"pm2_5":65.0,"mosquito_risk":4,"arthritis_risk":5,"migraine_risk":7,"frizz_risk":0,"updated_at":"2026-04-23T22:57:08.147233+05:30"},{"city":"Noida","state":"Uttar Pradesh","latitude":28.5355,"longitude":77.391,"temp":32.8,"humidity":29,"rain":0.0,"pressure":981.9,"uv_index":7.4,"wind_gusts":31.7,"aqi":800,"pm10":186.3,"pm2_5":65.0,"mosquito_risk":0,"arthritis_risk":5,"migraine_risk":7,"frizz_risk":0,"updated_at":"2026-04-23T22:57:08.147240+05:30"},{"city":"Ghaziabad","state":"Uttar Pradesh","latitude":28.6692,"longitude":77.4538,"temp":32.2,"humidity":32,"rain":0.0,"pressure":980.0,"uv_index":7.4,"wind_gusts":30.6,"aqi":178,"pm10":210.0,"pm2_5":70.8,"mosquito_risk":0,"arthritis_risk":5,"migraine_risk":7,"frizz_risk":0,"updated_at":"2026-04-23T22:57:08.147247+05:30"},{"city":"Faridabad","state":"Haryana","latitude":28.4089,"longitude":77.3178,"temp":31.0,"humidity":32,"rain":0.0,"pressure":981.3,"uv_index":7.45,"wind_gusts":29.9,"aqi":800,"pm10":186.3,"pm2_5":65.0,"mosquito_risk":0,"arthritis_risk":5,"migraine_risk":7,"frizz_risk":0,"updated_at":"2026-04-23T22:57:08.147254+05:30"},{"city":"Meerut","state":"Uttar Pradesh","latitude":28.9845,"longitude":77.7064,"temp":28.6,"humidity":43,"rain":0.0,"pressure":978.7,"uv_index":7.3,"wind_gusts":29.9,"aqi":178,"pm10":210.0,"pm2_5":70.8,"mosquito_risk":4,"arthritis_risk":5,"migraine_risk":7,"frizz_risk":0,"updated_at":"2026-04-23T22:57:08.147261+05:30"},{"city":"Agra","state":"Uttar Pradesh","latitude":27.1767,"longitude":78.0081,"temp":27.6,"humidity":38,"rain":0.0,"pressure":985.3,"uv_index":7.75,"wind_gusts":32.0,"aqi":508,"pm10":301.7,"pm2_5":55.9,"mosquito_risk":4,"arthritis_risk":5,"migraine_risk":7,"frizz_risk":0,"updated_at":"2026-04-23T22:57:08.147270+05:30"},{"city":"Varanasi","state":"Uttar Pradesh","latitude":25.3176,"longitude":82.9739,"temp":30.2,"humidity":32,"rain":0.0,"pressure":994.7,"uv_index":8.45,"wind_gusts":35.3,"aqi":130,"pm10":200.7,"pm2_5":57.3,"mosquito_risk":0,"arthritis_risk":5,"migraine_risk":7,"frizz_risk":0,"updated_at":"2026-04-23T22:57:08.147278+05:30"},{"city":"Prayagraj","state":"Uttar Pradesh","latitude":25.4358,"longitude":81.8463,"temp":32.3,"humidity":30,"rain":0.0,"pressure":993.4,"uv_index":8.35,"wind_gusts":31.0,"aqi":141,"pm10":177.0,"pm2_5":58.2,"mosquito_risk":0,"arthritis_risk":5,"migraine_risk":7,"frizz_risk":0,"updated_at":"2026-04-23T22:57:08.147286+05:30"},{"city":"Gorakhpur","state":"Uttar Pradesh","latitude":26.7606,"longitude":83.3732,"temp":30.2,"humidity":38,"rain":0.0,"pressure":994.2,"uv_index":8.25,"wind_gusts":31.3,"aqi":120,"pm10":62.2,"pm2_5":35.4,"mosquito_risk":0,"arthritis_risk":5,"migraine_risk":7,"frizz_risk":0,"updated_at":"2026-04-23T22:57:08.147295+05:30"},{"city":"Bareilly","state":"Uttar Pradesh","latitude":28.367,"longitude":79.4304,"temp":28.4,"humidity":45,"rain":0.0,"pressure":983.8,"uv_index":7.65,"wind_gusts":29.9,"aqi":128,"pm10":132.7,"pm2_5":41.6,"mosquito_risk":4,"arthritis_risk":5,"migraine_risk":7,"frizz_risk":0,"updated_at":"2026-04-23T22:57:08.147302+05:30"},{"city":"Aligarh","state":"Uttar Pradesh","latitude":27.8974,"longitude":78.088,"temp":27.2,"humidity":40,"rain":0.0,"pressure":983.2,"uv_index":7.55,"wind_gusts":31.3,"aqi":499,"pm10":417.2,"pm2_5":57.0,"mosquito_risk":4,"arthritis_risk":5,"migraine_risk":7,"frizz_risk":0,"updated_at":"2026-04-23T22:57:08.147309+05:30"},{"city":"Moradabad","state":"Uttar Pradesh","latitude":28.8386,"longitude":78.7733,"temp":28.9,"humidity":43,"rain":0.0,"pressure":980.7,"uv_index":7.5,"wind_gusts":32.0,"aqi":132,"pm10":106.2,"pm2_5":54.9,"mosquito_risk":4,"arthritis_risk":5,"migraine_risk":7,"frizz_risk":0,"updated_at":"2026-04-23T22:57:08.147316+05:30"},{"city":"Saharanpur","state":"Uttar Pradesh","latitude":29.9637,"longitude":77.546,"temp":27.8,"humidity":52,"rain":0.0,"pressure":972.9,"uv_index":7.1,"wind_gusts":33.8,"aqi":100,"pm10":68.7,"pm2_5":43.1,"mosquito_risk":4,"arthritis_risk":5,"migraine_risk":7,"frizz_risk":1,"updated_at":"2026-04-23T22:57:08.147322+05:30"},{"city":"Jhansi","state":"Uttar Pradesh","latitude":25.4484,"longitude":78.5685,"temp":32.1,"humidity":30,"rain":0.0,"pressure":976.4,"uv_index":8.25,"wind_gusts":30.6,"aqi":68,"pm10":24.4,"pm2_5":23.2,"mosquito_risk":0,"arthritis_risk":5,"migraine_risk":7,"frizz_risk":0,"updated_at":"2026-04-23T22:57:11.462801+05:30"},{"city":"Surat","state":"Gujarat","latitude":21.1702,"longitude":72.8311,"temp":28.5,"humidity":75,"rain":0.0,"pressure":1005.1,"uv_index":7.9,"wind_gusts":23.4,"aqi":98,"pm10":42.5,"pm2_5":37.8,"mosquito_risk":7,"arthritis_risk":5,"migraine_risk":4,"frizz_risk":1,"updated_at":"2026-04-23T22:57:11.462837+05:30"},{"city":"Vadodara","state":"Gujarat","latitude":22.3072,"longitude":73.1812,"temp":31.4,"humidity":45,"rain":0.0,"pressure":1002.7,"uv_index":8.15,"wind_gusts":26.6,"aqi":93,"pm10":48.8,"pm2_5":38.4,"mosquito_risk":0,"arthritis_risk":5,"migraine_risk":4,"frizz_risk":1,"updated_at":"2026-04-23T22:57:11.462847+05:30"},{"city":"Rajkot","state":"Gujarat","latitude":22.3039,"longitude":70.8022,"temp":27.8,"humidity":65,"rain":0.0,"pressure":994.2,"uv_index":7.9,"wind_gusts":33.8,"aqi":49,"pm10":22.0,"pm2_5":9.5,"mosquito_risk":7,"arthritis_risk":5,"migraine_risk":7,"frizz_risk":1,"updated_at":"2026-04-23T22:57:11.462856+05:30"},{"city":"Thane","state":"Maharashtra","latitude":19.2183,"longitude":72.9781,"temp":28.8,"humidity":75,"rain":0.0,"pressure":1005.7,"uv_index":8.05,"wind_gusts":37.4,"aqi":89,"pm10":31.0,"pm2_5":23.7,"mosquito_risk":7,"arthritis_risk":5,"migraine_risk":4,"frizz_risk":1,"updated_at":"2026-04-23T22:57:11.462863+05:30"},{"city":"Nagpur","state":"Maharashtra","latitude":21.1458,"longitude":79.0882,"temp":31.8,"humidity":47,"rain":0.0,"pressure":971.5,"uv_index":8.95,"wind_gusts":24.8,"aqi":81,"pm10":59.8,"pm2_5":55.9,"mosquito_risk":0,"arthritis_risk":5,"migraine_risk":7,"frizz_risk":1,"updated_at":"2026-04-23T22:57:11.462871+05:30"},{"city":"Nashik","state":"Maharashtra","latitude":19.9975,"longitude":73.7898,"temp":28.6,"humidity":51,"rain":0.0,"pressure":945.2,"uv_index":8.3,"wind_gusts":29.5,"aqi":122,"pm10":31.5,"pm2_5":28.5,"mosquito_risk":4,"arthritis_risk":5,"migraine_risk":7,"frizz_risk":1,"updated_at":"2026-04-23T22:57:11.462878+05:30"},{"city":"Aurangabad","state":"Maharashtra","latitude":19.8762,"longitude":75.3433,"temp":30.9,"humidity":35,"rain":0.0,"pressure":943.5,"uv_index":9.05,"wind_gusts":33.8,"aqi":118,"pm10":35.4,"pm2_5":30.2,"mosquito_risk":0,"arthritis_risk":5,"migraine_risk":7,"frizz_risk":0,"updated_at":"2026-04-23T22:57:11.462886+05:30"},{"city":"Solapur","state":"Maharashtra","latitude":17.6599,"longitude":75.9064,"temp":29.7,"humidity":50,"rain":0.0,"pressure":957.2,"uv_index":9.1,"wind_gusts":31.3,"aqi":146,"pm10":46.3,"pm2_5":41.8,"mosquito_risk":4,"arthritis_risk":5,"migraine_risk":7,"frizz_risk":1,"updated_at":"2026-04-23T22:57:11.462894+05:30"},{"city":"Kolhapur","state":"Maharashtra","latitude":16.705,"longitude":74.2433,"temp":26.4,"humidity":78,"rain":0.0,"pressure":947.4,"uv_index":9.05,"wind_gusts":47.9,"aqi":126,"pm10":70.1,"pm2_5":66.6,"mosquito_risk":7,"arthritis_risk":5,"migraine_risk":7,"frizz_risk":1,"updated_at":"2026-04-23T22:57:11.462901+05:30"},{"city":"Goa","state":"Goa","latitude":15.2993,"longitude":74.124,"temp":29.7,"humidity":82,"rain":0.0,"pressure":996.1,"uv_index":9.0,"wind_gusts":31.7,"aqi":87,"pm10":42.5,"pm2_5":31.7,"mosquito_risk":7,"arthritis_risk":5,"migraine_risk":7,"frizz_risk":1,"updated_at":"2026-04-23T22:57:11.462907+05:30"},{"city":"Jodhpur","state":"Rajasthan","latitude":26.2389,"longitude":73.0243,"temp":32.5,"humidity":35,"rain":0.0,"pressure":981.5,"uv_index":8.25,"wind_gusts":22.3,"aqi":62,"pm10":74.5,"pm2_5":22.1,"mosquito_risk":0,"arthritis_risk":5,"migraine_risk":7,"frizz_risk":0,"updated_at":"2026-04-23T22:57:11.462914+05:30"},{"city":"Udaipur","state":"Rajasthan","latitude":24.5854,"longitude":73.7125,"temp":28.3,"humidity":44,"rain":0.0,"pressure":946.8,"uv_index":8.8,"wind_gusts":32.0,"aqi":45,"pm10":53.7,"pm2_5":15.2,"mosquito_risk":4,"arthritis_risk":5,"migraine_risk":7,"frizz_risk":0,"updated_at":"2026-04-23T22:57:11.462921+05:30"},{"city":"Kota","state":"Rajasthan","latitude":25.2138,"longitude":75.8648,"temp":30.3,"humidity":27,"rain":0.0,"pressure":976.8,"uv_index":8.25,"wind_gusts":33.8,"aqi":87,"pm10":24.8,"pm2_5":19.3,"mosquito_risk":0,"arthritis_risk":5,"migraine_risk":7,"frizz_risk":0,"updated_at":"2026-04-23T22:57:11.462927+05:30"},{"city":"Bikaner","state":"Rajasthan","latitude":28.0229,"longitude":73.3119,"temp":34.1,"humidity":30,"rain":0.0,"pressure":979.8,"uv_index":8.15,"wind_gusts":23.4,"aqi":64,"pm10":63.1,"pm2_5":20.5,"mosquito_risk":0,"arthritis_risk":5,"migraine_risk":7,"frizz_risk":0,"updated_at":"2026-04-23T22:57:11.462934+05:30"},{"city":"Ajmer","state":"Rajasthan","latitude":26.4499,"longitude":74.6399,"temp":30.7,"humidity":32,"rain":0.0,"pressure":953.8,"uv_index":8.2,"wind_gusts":26.6,"aqi":66,"pm10":24.4,"pm2_5":13.9,"mosquito_risk":0,"arthritis_risk":5,"migraine_risk":7,"frizz_risk":0,"updated_at":"2026-04-23T22:57:11.462940+05:30"},{"city":"Gwalior","state":"Madhya Pradesh","latitude":26.2183,"longitude":78.1828,"temp":30.3,"humidity":37,"rain":0.0,"pressure":981.4,"uv_index":8.0,"wind_gusts":37.8,"aqi":58,"pm10":11.3,"pm2_5":10.1,"mosquito_risk":0,"arthritis_risk":5,"migraine_risk":7,"frizz_risk":0,"updated_at":"2026-04-23T22:57:11.462946+05:30"},{"city":"Indore","state":"Madhya Pradesh","latitude":22.7196,"longitude":75.8577,"temp":28.7,"humidity":39,"rain":0.0,"pressure":947.7,"uv_index":8.55,"wind_gusts":37.1,"aqi":102,"pm10":24.7,"pm2_5":23.1,"mosquito_risk":4,"arthritis_risk":5,"migraine_risk":7,"frizz_risk":0,"updated_at":"2026-04-23T22:57:11.462952+05:30"},{"city":"Bhopal","state":"Madhya Pradesh","latitude":23.2599,"longitude":77.4126,"temp":29.6,"humidity":33,"rain":0.0,"pressure":952.9,"uv_index":8.45,"wind_gusts":28.4,"aqi":91,"pm10":31.3,"pm2_5":28.3,"mosquito_risk":4,"arthritis_risk":5,"migraine_risk":7,"frizz_risk":0,"updated_at":"2026-04-23T22:57:11.462958+05:30"},{"city":"Jabalpur","state":"Madhya Pradesh","latitude":23.1815,"longitude":79.9864,"temp":30.2,"humidity":38,"rain":0.0,"pressure":959.9,"uv_index":8.8,"wind_gusts":25.2,"aqi":74,"pm10":40.9,"pm2_5":36.7,"mosquito_risk":0,"arthritis_risk":5,"migraine_risk":7,"frizz_risk":0,"updated_at":"2026-04-23T22:57:11.462964+05:30"},{"city":"Ujjain","state":"Madhya Pradesh","latitude":23.1765,"longitude":75.7885,"temp":29.2,"humidity":38,"rain":0.0,"pressure":953.4,"uv_index":8.55,"wind_gusts":36.7,"aqi":97,"pm10":21.7,"pm2_5":19.3,"mosquito_risk":4,"arthritis_risk":5,"migraine_risk":7,"frizz_risk":0,"updated_at":"2026-04-23T22:57:11.462971+05:30"},{"city":"Visakhapatnam","state":"Andhra Pradesh","latitude":17.6868,"longitude":83.2185,"temp":28.3,"humidity":83,"rain":0.0,"pressure":1002.1,"uv_index":9.2,"wind_gusts":35.3,"aqi":65,"pm10":18.6,"pm2_5":14.1,"mosquito_risk":7,"arthritis_risk":5,"migraine_risk":4,"frizz_risk":1,"updated_at":"2026-04-23T22:57:11.462978+05:30"},{"city":"Vijayawada","state":"Andhra Pradesh","latitude":16.5062,"longitude":80.648,"temp":28.7,"humidity":80,"rain":0.0,"pressure":1001.8,"uv_index":9.25,"wind_gusts":24.1,"aqi":55,"pm10":13.3,"pm2_5":10.9,"mosquito_risk":7,"arthritis_risk":5,"migraine_risk":4,"frizz_risk":1,"updated_at":"2026-04-23T22:57:11.462984+05:30"},{"city":"Guntur","state":"Andhra Pradesh","latitude":16.3067,"longitude":80.4365,"temp":28.2,"humidity":87,"rain":0.0,"pressure":1003.0,"uv_index":9.3,"wind_gusts":29.9,"aqi":55,"pm10":14.1,"pm2_5":11.3,"mosquito_risk":7,"arthritis_risk":5,"migraine_risk":4,"frizz_risk":1,"updated_at":"2026-04-23T22:57:11.462990+05:30"},{"city":"Nellore","state":"Andhra Pradesh","latitude":14.4426,"longitude":79.9865,"temp":28.6,"humidity":82,"rain":0.0,"pressure":1004.4,"uv_index":9.3,"wind_gusts":32.0,"aqi":43,"pm10":9.3,"pm2_5":7.0,"mosquito_risk":7,"arthritis_risk":5,"migraine_risk":4,"frizz_risk":1,"updated_at":"2026-04-23T22:57:11.462997+05:30"},{"city":"Kurnool","state":"Andhra Pradesh","latitude":15.8281,"longitude":78.0373,"temp":32.7,"humidity":43,"rain":0.0,"pressure":975.3,"uv_index":8.9,"wind_gusts":28.1,"aqi":111,"pm10":26.4,"pm2_5":23.8,"mosquito_risk":0,"arthritis_risk":5,"migraine_risk":7,"frizz_risk":1,"updated_at":"2026-04-23T22:57:11.463004+05:30"},{"city":"Kakinada","state":"Andhra Pradesh","latitude":16.9891,"longitude":82.2475,"temp":28.4,"humidity":85,"rain":0.0,"pressure":1006.4,"uv_index":9.25,"wind_gusts":29.2,"aqi":44,"pm10":14.3,"pm2_5":9.4,"mosquito_risk":7,"arthritis_risk":5,"migraine_risk":4,"frizz_risk":1,"updated_at":"2026-04-23T22:57:11.463010+05:30"},{"city":"Tirupati","state":"Andhra Pradesh","latitude":13.6288,"longitude":79.4192,"temp":29.6,"humidity":72,"rain":0.0,"pressure":990.9,"uv_index":9.35,"wind_gusts":33.8,"aqi":58,"pm10":15.3,"pm2_5":13.8,"mosquito_risk":7,"arthritis_risk":5,"migraine_risk":7,"frizz_risk":1,"updated_at":"2026-04-23T22:57:11.463016+05:30"},{"city":"Warangal","state":"Telangana","latitude":17.9689,"longitude":79.5941,"temp":32.2,"humidity":52,"rain":0.0,"pressure":977.3,"uv_index":8.55,"wind_gusts":20.5,"aqi":125,"pm10":41.8,"pm2_5":39.2,"mosquito_risk":0,"arthritis_risk":5,"migraine_risk":7,"frizz_risk":1,"updated_at":"2026-04-23T22:57:11.463023+05:30"},{"city":"Nizamabad","state":"Telangana","latitude":18.6725,"longitude":78.0941,"temp":31.9,"humidity":45,"rain":0.0,"pressure":963.9,"uv_index":8.6,"wind_gusts":28.4,"aqi":117,"pm10":60.8,"pm2_5":55.4,"mosquito_risk":0,"arthritis_risk":5,"migraine_risk":7,"frizz_risk":1,"updated_at":"2026-04-23T22:57:11.463029+05:30"},{"city":"Mysore","state":"Karnataka","latitude":12.2958,"longitude":76.6396,"temp":25.6,"humidity":81,"rain":0.0,"pressure":927.8,"uv_index":9.3,"wind_gusts":39.6,"aqi":98,"pm10":28.3,"pm2_5":25.4,"mosquito_risk":7,"arthritis_risk":5,"migraine_risk":7,"frizz_risk":1,"updated_at":"2026-04-23T22:57:11.463034+05:30"},{"city":"Mangalore","state":"Karnataka","latitude":12.9141,"longitude":74.856,"temp":30.2,"humidity":83,"rain":0.0,"pressure":1005.1,"uv_index":8.95,"wind_gusts":27.0,"aqi":85,"pm10":35.9,"pm2_5":27.0,"mosquito_risk":3,"arthritis_risk":5,"migraine_risk":4,"frizz_risk":1,"updated_at":"2026-04-23T22:57:11.463041+05:30"},{"city":"Hubli-Dharwad","state":"Karnataka","latitude":15.3647,"longitude":75.124,"temp":27.5,"humidity":61,"rain":0.0,"pressure":939.9,"uv_index":9.25,"wind_gusts":44.3,"aqi":116,"pm10":32.6,"pm2_5":30.5,"mosquito_risk":7,"arthritis_risk":5,"migraine_risk":7,"frizz_risk":1,"updated_at":"2026-04-23T22:57:11.463047+05:30"},{"city":"Belgaum","state":"Karnataka","latitude":15.8497,"longitude":74.4977,"temp":25.3,"humidity":81,"rain":0.0,"pressure":925.0,"uv_index":9.25,"wind_gusts":39.2,"aqi":119,"pm10":45.6,"pm2_5":42.0,"mosquito_risk":7,"arthritis_risk":5,"migraine_risk":7,"frizz_risk":1,"updated_at":"2026-04-23T22:57:14.771831+05:30"},{"city":"Coimbatore","state":"Tamil Nadu","latitude":11.0168,"longitude":76.9558,"temp":26.5,"humidity":81,"rain":0.0,"pressure":961.0,"uv_index":9.4,"wind_gusts":31.3,"aqi":89,"pm10":35.2,"pm2_5":32.2,"mosquito_risk":7,"arthritis_risk":5,"migraine_risk":7,"frizz_risk":1,"updated_at":"2026-04-23T22:57:14.771869+05:30"},{"city":"Madurai","state":"Tamil Nadu","latitude":9.9252,"longitude":78.1198,"temp":29.2,"humidity":75,"rain":0.0,"pressure":992.6,"uv_index":9.3,"wind_gusts":31.7,"aqi":58,"pm10":10.6,"pm2_5":9.9,"mosquito_risk":7,"arthritis_risk":5,"migraine_risk":7,"frizz_risk":1,"updated_at":"2026-04-23T22:57:14.771880+05:30"},{"city":"Trichy","state":"Tamil Nadu","latitude":10.7905,"longitude":78.7047,"temp":28.8,"humidity":78,"rain":0.0,"pressure":998.7,"uv_index":9.3,"wind_gusts":22.3,"aqi":49,"pm10":10.9,"pm2_5":10.0,"mosquito_risk":7,"arthritis_risk":5,"migraine_risk":7,"frizz_risk":1,"updated_at":"2026-04-23T22:57:14.771889+05:30"},{"city":"Salem","state":"Tamil Nadu","latitude":11.6643,"longitude":78.146,"temp":29.2,"humidity":65,"rain":0.0,"pressure":975.9,"uv_index":9.4,"wind_gusts":31.0,"aqi":87,"pm10":23.5,"pm2_5":22.1,"mosquito_risk":7,"arthritis_risk":5,"migraine_risk":7,"frizz_risk":1,"updated_at":"2026-04-23T22:57:14.771897+05:30"},{"city":"Tirunelveli","state":"Tamil Nadu","latitude":8.7139,"longitude":77.7567,"temp":29.1,"humidity":74,"rain":0.0,"pressure":1002.5,"uv_index":9.25,"wind_gusts":38.5,"aqi":81,"pm10":21.7,"pm2_5":20.4,"mosquito_risk":7,"arthritis_risk":5,"migraine_risk":4,"frizz_risk":1,"updated_at":"2026-04-23T22:57:14.771905+05:30"},{"city":"Vellore","state":"Tamil Nadu","latitude":12.9165,"longitude":79.1325,"temp":28.4,"humidity":74,"rain":0.0,"pressure":983.8,"uv_index":9.4,"wind_gusts":30.6,"aqi":74,"pm10":24.3,"pm2_5":23.4,"mosquito_risk":7,"arthritis_risk":5,"migraine_risk":7,"frizz_risk":1,"updated_at":"2026-04-23T22:57:14.771912+05:30"},{"city":"Erode","state":"Tamil Nadu","latitude":11.341,"longitude":77.7172,"temp":31.4,"humidity":50,"rain":0.0,"pressure":987.4,"uv_index":9.35,"wind_gusts":28.4,"aqi":74,"pm10":12.0,"pm2_5":11.1,"mosquito_risk":0,"arthritis_risk":5,"migraine_risk":7,"frizz_risk":1,"updated_at":"2026-04-23T22:57:14.771920+05:30"},{"city":"Kochi","state":"Kerala","latitude":9.9312,"longitude":76.2673,"temp":29.0,"humidity":81,"rain":0.0,"pressure":1007.9,"uv_index":9.1,"wind_gusts":29.9,"aqi":77,"pm10":27.3,"pm2_5":25.7,"mosquito_risk":7,"arthritis_risk":5,"migraine_risk":4,"frizz_risk":1,"updated_at":"2026-04-23T22:57:14.771928+05:30"},{"city":"Thiruvananthapuram","state":"Kerala","latitude":8.5241,"longitude":76.9366,"temp":28.9,"humidity":82,"rain":0.0,"pressure":1007.2,"uv_index":8.55,"wind_gusts":21.2,"aqi":61,"pm10":19.4,"pm2_5":15.3,"mosquito_risk":7,"arthritis_risk":5,"migraine_risk":4,"frizz_risk":1,"updated_at":"2026-04-23T22:57:14.771935+05:30"},{"city":"Kozhikode","state":"Kerala","latitude":11.2588,"longitude":75.7804,"temp":30.1,"humidity":80,"rain":0.0,"pressure":1006.5,"uv_index":9.1,"wind_gusts":28.1,"aqi":81,"pm10":33.9,"pm2_5":24.3,"mosquito_risk":3,"arthritis_risk":5,"migraine_risk":4,"frizz_risk":1,"updated_at":"2026-04-23T22:57:14.771942+05:30"},{"city":"Thrissur","state":"Kerala","latitude":10.5276,"longitude":76.2144,"temp":28.5,"humidity":85,"rain":0.0,"pressure":1006.1,"uv_index":9.15,"wind_gusts":35.3,"aqi":80,"pm10":26.7,"pm2_5":24.3,"mosquito_risk":7,"arthritis_risk":5,"migraine_risk":4,"frizz_risk":1,"updated_at":"2026-04-23T22:57:14.771949+05:30"},{"city":"Kannur","state":"Kerala","latitude":11.8745,"longitude":75.3704,"temp":29.5,"humidity":79,"rain":0.0,"pressure":1005.9,"uv_index":9.1,"wind_gusts":31.3,"aqi":87,"pm10":37.1,"pm2_5":28.8,"mosquito_risk":7,"arthritis_risk":5,"migraine_risk":4,"frizz_risk":1,"updated_at":"2026-04-23T22:57:14.771956+05:30"},{"city":"Patna","state":"Bihar","latitude":25.5941,"longitude":85.1376,"temp":30.1,"humidity":61,"rain":0.0,"pressure":997.4,"uv_index":8.6,"wind_gusts":22.3,"aqi":151,"pm10":99.7,"pm2_5":56.9,"mosquito_risk":3,"arthritis_risk":5,"migraine_risk":7,"frizz_risk":1,"updated_at":"2026-04-23T22:57:14.771963+05:30"},{"city":"Gaya","state":"Bihar","latitude":24.7914,"longitude":85.0002,"temp":31.2,"humidity":41,"rain":0.0,"pressure":991.0,"uv_index":8.55,"wind_gusts":34.9,"aqi":132,"pm10":198.4,"pm2_5":70.8,"mosquito_risk":0,"arthritis_risk":5,"migraine_risk":7,"frizz_risk":1,"updated_at":"2026-04-23T22:57:14.771969+05:30"},{"city":"Muzaffarpur","state":"Bihar","latitude":26.1209,"longitude":85.3647,"temp":28.2,"humidity":77,"rain":0.0,"pressure":997.7,"uv_index":8.6,"wind_gusts":25.9,"aqi":151,"pm10":109.2,"pm2_5":69.6,"mosquito_risk":7,"arthritis_risk":5,"migraine_risk":7,"frizz_risk":1,"updated_at":"2026-04-23T22:57:14.771975+05:30"},{"city":"Bhagalpur","state":"Bihar","latitude":25.2425,"longitude":87.0117,"temp":29.0,"humidity":87,"rain":0.0,"pressure":998.6,"uv_index":8.6,"wind_gusts":19.1,"aqi":162,"pm10":115.9,"pm2_5":69.2,"mosquito_risk":7,"arthritis_risk":5,"migraine_risk":7,"frizz_risk":1,"updated_at":"2026-04-23T22:57:14.771982+05:30"},{"city":"Ranchi","state":"Jharkhand","latitude":23.3441,"longitude":85.3096,"temp":27.3,"humidity":28,"rain":0.0,"pressure":936.8,"uv_index":8.8,"wind_gusts":36.7,"aqi":90,"pm10":157.4,"pm2_5":43.1,"mosquito_risk":4,"arthritis_risk":5,"migraine_risk":7,"frizz_risk":0,"updated_at":"2026-04-23T22:57:14.771988+05:30"},{"city":"Jamshedpur","state":"Jharkhand","latitude":22.8046,"longitude":86.2029,"temp":30.5,"humidity":62,"rain":0.0,"pressure":988.2,"uv_index":8.85,"wind_gusts":16.9,"aqi":151,"pm10":115.9,"pm2_5":62.6,"mosquito_risk":3,"arthritis_risk":5,"migraine_risk":7,"frizz_risk":1,"updated_at":"2026-04-23T22:57:14.771995+05:30"},{"city":"Dhanbad","state":"Jharkhand","latitude":23.7957,"longitude":86.4304,"temp":31.6,"humidity":36,"rain":0.0,"pressure":978.0,"uv_index":8.8,"wind_gusts":35.3,"aqi":161,"pm10":165.8,"pm2_5":67.8,"mosquito_risk":0,"arthritis_risk":5,"migraine_risk":7,"frizz_risk":0,"updated_at":"2026-04-23T22:57:14.772001+05:30"},{"city":"Bokaro","state":"Jharkhand","latitude":23.6693,"longitude":86.1511,"temp":30.7,"humidity":41,"rain":0.0,"pressure":982.1,"uv_index":8.65,"wind_gusts":38.2,"aqi":155,"pm10":215.1,"pm2_5":78.0,"mosquito_risk":0,"arthritis_risk":5,"migraine_risk":7,"frizz_risk":0,"updated_at":"2026-04-23T22:57:14.772007+05:30"},{"city":"Bhubaneswar","state":"Odisha","latitude":20.2961,"longitude":85.8245,"temp":27.7,"humidity":91,"rain":0.0,"pressure":1000.6,"uv_index":9.15,"wind_gusts":36.0,"aqi":115,"pm10":21.5,"pm2_5":19.0,"mosquito_risk":7,"arthritis_risk":5,"migraine_risk":4,"frizz_risk":1,"updated_at":"2026-04-23T22:57:14.772013+05:30"},{"city":"Cuttack","state":"Odisha","latitude":20.4625,"longitude":85.8828,"temp":28.7,"humidity":82,"rain":0.0,"pressure":1002.4,"uv_index":9.2,"wind_gusts":50.0,"aqi":115,"pm10":21.5,"pm2_5":19.0,"mosquito_risk":7,"arthritis_risk":5,"migraine_risk":4,"frizz_risk":1,"updated_at":"2026-04-23T22:57:14.772019+05:30"},{"city":"Rourkela","state":"Odisha","latitude":22.2604,"longitude":84.8536,"temp":29.0,"humidity":67,"rain":0.0,"pressure":982.2,"uv_index":8.9,"wind_gusts":22.7,"aqi":105,"pm10":88.0,"pm2_5":43.9,"mosquito_risk":7,"arthritis_risk":5,"migraine_risk":7,"frizz_risk":1,"updated_at":"2026-04-23T22:57:14.772025+05:30"},{"city":"Raipur","state":"Chhattisgarh","latitude":21.2514,"longitude":81.6296,"temp":32.3,"humidity":36,"rain":0.0,"pressure":972.6,"uv_index":7.9,"wind_gusts":29.5,"aqi":106,"pm10":37.7,"pm2_5":36.6,"mosquito_risk":0,"arthritis_risk":5,"migraine_risk":7,"frizz_risk":0,"updated_at":"2026-04-23T22:57:14.772032+05:30"},{"city":"Bhilai","state":"Chhattisgarh","latitude":21.1938,"longitude":81.3509,"temp":31.6,"humidity":41,"rain":0.0,"pressure":972.7,"uv_index":7.7,"wind_gusts":25.9,"aqi":103,"pm10":55.3,"pm2_5":53.0,"mosquito_risk":0,"arthritis_risk":5,"migraine_risk":7,"frizz_risk":1,"updated_at":"2026-04-23T22:57:14.772038+05:30"},{"city":"Guwahati","state":"Assam","latitude":26.1158,"longitude":91.7086,"temp":27.3,"humidity":87,"rain":0.0,"pressure":1000.4,"uv_index":8.55,"wind_gusts":20.9,"aqi":110,"pm10":93.4,"pm2_5":69.6,"mosquito_risk":7,"arthritis_risk":5,"migraine_risk":4,"frizz_risk":1,"updated_at":"2026-04-23T22:57:14.772044+05:30"},{"city":"Agartala","state":"Tripura","latitude":23.8315,"longitude":91.2868,"temp":29.1,"humidity":82,"rain":0.0,"pressure":1004.2,"uv_index":8.4,"wind_gusts":20.5,"aqi":89,"pm10":71.0,"pm2_5":54.8,"mosquito_risk":7,"arthritis_risk":5,"migraine_risk":4,"frizz_risk":1,"updated_at":"2026-04-23T22:57:14.772051+05:30"},{"city":"Shillong","state":"Meghalaya","latitude":25.5788,"longitude":91.8933,"temp":14.9,"humidity":88,"rain":0.0,"pressure":855.5,"uv_index":8.95,"wind_gusts":36.0,"aqi":101,"pm10":52.2,"pm2_5":38.0,"mosquito_risk":3,"arthritis_risk":10,"migraine_risk":7,"frizz_risk":0,"updated_at":"2026-04-23T22:57:14.772057+05:30"},{"city":"Imphal","state":"Manipur","latitude":24.817,"longitude":93.9368,"temp":20.5,"humidity":81,"rain":0.0,"pressure":923.4,"uv_index":9.15,"wind_gusts":50.0,"aqi":128,"pm10":110.4,"pm2_5":67.8,"mosquito_risk":3,"arthritis_risk":5,"migraine_risk":7,"frizz_risk":1,"updated_at":"2026-04-23T22:57:14.772063+05:30"},{"city":"Aizawl","state":"Mizoram","latitude":23.7271,"longitude":92.7176,"temp":22.4,"humidity":77,"rain":0.0,"pressure":892.4,"uv_index":8.95,"wind_gusts":35.3,"aqi":124,"pm10":134.1,"pm2_5":58.1,"mosquito_risk":3,"arthritis_risk":5,"migraine_risk":7,"frizz_risk":1,"updated_at":"2026-04-23T22:57:14.772069+05:30"},{"city":"Kohima","state":"Nagaland","latitude":25.6701,"longitude":94.1077,"temp":17.8,"humidity":94,"rain":0.0,"pressure":855.6,"uv_index":9.05,"wind_gusts":50.0,"aqi":104,"pm10":76.8,"pm2_5":50.9,"mosquito_risk":3,"arthritis_risk":10,"migraine_risk":7,"frizz_risk":1,"updated_at":"2026-04-23T22:57:14.772076+05:30"},{"city":"Gangtok","state":"Sikkim","latitude":27.3314,"longitude":88.6138,"temp":18.2,"humidity":99,"rain":0.0,"pressure":838.4,"uv_index":8.9,"wind_gusts":21.6,"aqi":111,"pm10":70.3,"pm2_5":51.3,"mosquito_risk":3,"arthritis_risk":10,"migraine_risk":7,"frizz_risk":1,"updated_at":"2026-04-23T22:57:14.772082+05:30"},{"city":"Siliguri","state":"West Bengal","latitude":26.7271,"longitude":88.3953,"temp":23.4,"humidity":86,"rain":0.0,"pressure":993.5,"uv_index":8.5,"wind_gusts":22.3,"aqi":149,"pm10":94.3,"pm2_5":61.7,"mosquito_risk":3,"arthritis_risk":5,"migraine_risk":7,"frizz_risk":1,"updated_at":"2026-04-23T22:57:18.082491+05:30"},{"city":"Durgapur","state":"West Bengal","latitude":23.5204,"longitude":87.3119,"temp":31.1,"humidity":79,"rain":0.0,"pressure":992.9,"uv_index":8.95,"wind_gusts":25.9,"aqi":158,"pm10":144.4,"pm2_5":93.6,"mosquito_risk":3,"arthritis_risk":5,"migraine_risk":7,"frizz_risk":1,"updated_at":"2026-04-23T22:57:18.082545+05:30"},{"city":"Asansol","state":"West Bengal","latitude":23.6739,"longitude":86.9524,"temp":32.1,"humidity":72,"rain":0.0,"pressure":991.4,"uv_index":8.95,"wind_gusts":28.4,"aqi":155,"pm10":121.1,"pm2_5":57.9,"mosquito_risk":3,"arthritis_risk":5,"migraine_risk":7,"frizz_risk":1,"updated_at":"2026-04-23T22:57:18.082557+05:30"},{"city":"Pondicherry","state":"Puducherry","latitude":11.9139,"longitude":79.8145,"temp":27.6,"humidity":93,"rain":0.0,"pressure":1007.2,"uv_index":9.25,"wind_gusts":29.5,"aqi":23,"pm10":9.0,"pm2_5":5.9,"mosquito_risk":7,"arthritis_risk":5,"migraine_risk":4,"frizz_risk":1,"updated_at":"2026-04-23T22:57:18.082566+05:30"},{"city":"Port Blair","state":"Andaman and Nicobar Islands","latitude":11.6234,"longitude":92.7265,"temp":29.7,"humidity":73,"rain":0.0,"pressure":1006.2,"uv_index":9.15,"wind_gusts":18.4,"aqi":33,"pm10":13.0,"pm2_5":6.1,"mosquito_risk":7,"arthritis_risk":5,"migraine_risk":4,"frizz_risk":1,"updated_at":"2026-04-23T22:57:18.082574+05:30"},{"city":"Haridwar","state":"Uttarakhand","latitude":29.9457,"longitude":78.1642,"temp":24.9,"humidity":65,"rain":0.0,"pressure":971.6,"uv_index":7.2,"wind_gusts":38.5,"aqi":114,"pm10":50.6,"pm2_5":34.8,"mosquito_risk":3,"arthritis_risk":5,"migraine_risk":7,"frizz_risk":1,"updated_at":"2026-04-23T22:57:18.082582+05:30"},{"city":"Rishikesh","state":"Uttarakhand","latitude":30.0869,"longitude":78.2676,"temp":25.5,"humidity":55,"rain":0.0,"pressure":964.8,"uv_index":7.3,"wind_gusts":36.4,"aqi":139,"pm10":45.8,"pm2_5":26.4,"mosquito_risk":4,"arthritis_risk":5,"migraine_risk":7,"frizz_risk":0,"updated_at":"2026-04-23T22:57:18.082589+05:30"},{"city":"Nainital","state":"Uttarakhand","latitude":29.3919,"longitude":79.4542,"temp":24.1,"humidity":35,"rain":0.0,"pressure":807.6,"uv_index":8.15,"wind_gusts":53.6,"aqi":137,"pm10":40.4,"pm2_5":27.0,"mosquito_risk":0,"arthritis_risk":5,"migraine_risk":7,"frizz_risk":0,"updated_at":"2026-04-23T22:57:18.082597+05:30"},{"city":"Mussoorie","state":"Uttarakhand","latitude":30.4599,"longitude":78.0664,"temp":21.6,"humidity":47,"rain":0.0,"pressure":804.2,"uv_index":7.7,"wind_gusts":42.5,"aqi":142,"pm10":50.8,"pm2_5":32.8,"mosquito_risk":0,"arthritis_risk":5,"migraine_risk":7,"frizz_risk":0,"updated_at":"2026-04-23T22:57:18.082605+05:30"},{"city":"Dharamshala","state":"Himachal Pradesh","latitude":32.219,"longitude":76.3234,"temp":25.5,"humidity":35,"rain":0.0,"pressure":869.9,"uv_index":8.05,"wind_gusts":33.1,"aqi":86,"pm10":28.2,"pm2_5":17.9,"mosquito_risk":4,"arthritis_risk":5,"migraine_risk":7,"frizz_risk":0,"updated_at":"2026-04-23T22:57:18.082612+05:30"},{"city":"Dalhousie","state":"Himachal Pradesh","latitude":32.5387,"longitude":75.971,"temp":21.8,"humidity":40,"rain":0.0,"pressure":805.2,"uv_index":8.35,"wind_gusts":31.0,"aqi":76,"pm10":39.9,"pm2_5":31.1,"mosquito_risk":0,"arthritis_risk":5,"migraine_risk":7,"frizz_risk":0,"updated_at":"2026-04-23T22:57:18.082620+05:30"},{"city":"Patiala","state":"Punjab","latitude":30.3398,"longitude":76.3869,"temp":29.1,"humidity":42,"rain":0.0,"pressure":975.5,"uv_index":7.3,"wind_gusts":20.2,"aqi":152,"pm10":221.7,"pm2_5":51.9,"mosquito_risk":4,"arthritis_risk":5,"migraine_risk":7,"frizz_risk":0,"updated_at":"2026-04-23T22:57:18.082627+05:30"},{"city":"Bhatinda","state":"Punjab","latitude":30.211,"longitude":74.9455,"temp":29.9,"humidity":35,"rain":0.0,"pressure":981.1,"uv_index":8.0,"wind_gusts":28.1,"aqi":87,"pm10":50.2,"pm2_5":26.3,"mosquito_risk":4,"arthritis_risk":5,"migraine_risk":7,"frizz_risk":0,"updated_at":"2026-04-23T22:57:18.082634+05:30"},{"city":"Rohtak","state":"Haryana","latitude":28.8955,"longitude":76.6066,"temp":29.2,"humidity":43,"rain":0.0,"pressure":979.3,"uv_index":7.45,"wind_gusts":23.8,"aqi":321,"pm10":197.9,"pm2_5":53.1,"mosquito_risk":4,"arthritis_risk":5,"migraine_risk":7,"frizz_risk":0,"updated_at":"2026-04-23T22:57:18.082641+05:30"},{"city":"Panipat","state":"Haryana","latitude":29.3909,"longitude":76.9635,"temp":28.0,"humidity":47,"rain":0.0,"pressure":977.5,"uv_index":7.25,"wind_gusts":21.2,"aqi":619,"pm10":266.4,"pm2_5":69.2,"mosquito_risk":4,"arthritis_risk":5,"migraine_risk":7,"frizz_risk":0,"updated_at":"2026-04-23T22:57:18.082648+05:30"},{"city":"Mathura","state":"Uttar Pradesh","latitude":27.4924,"longitude":77.6737,"temp":26.2,"humidity":40,"rain":0.0,"pressure":984.1,"uv_index":7.7,"wind_gusts":27.0,"aqi":415,"pm10":583.0,"pm2_5":62.6,"mosquito_risk":4,"arthritis_risk":5,"migraine_risk":7,"frizz_risk":0,"updated_at":"2026-04-23T22:57:18.082655+05:30"},{"city":"Vrindavan","state":"Uttar Pradesh","latitude":27.5823,"longitude":77.7027,"temp":26.5,"humidity":36,"rain":0.0,"pressure":984.7,"uv_index":7.65,"wind_gusts":27.4,"aqi":415,"pm10":583.0,"pm2_5":62.6,"mosquito_risk":4,"arthritis_risk":5,"migraine_risk":7,"frizz_risk":0,"updated_at":"2026-04-23T22:57:18.082661+05:30"},{"city":"Ayodhya","state":"Uttar Pradesh","latitude":26.7922,"longitude":82.1998,"temp":28.8,"humidity":36,"rain":0.0,"pressure":992.4,"uv_index":8.05,"wind_gusts":40.3,"aqi":138,"pm10":143.9,"pm2_5":39.3,"mosquito_risk":4,"arthritis_risk":5,"migraine_risk":7,"frizz_risk":0,"updated_at":"2026-04-23T22:57:18.082667+05:30"},{"city":"Ratlam","state":"Madhya Pradesh","latitude":23.3315,"longitude":75.0367,"temp":30.2,"humidity":39,"rain":0.0,"pressure":954.1,"uv_index":8.5,"wind_gusts":33.8,"aqi":107,"pm10":21.9,"pm2_5":18.2,"mosquito_risk":0,"arthritis_risk":5,"migraine_risk":7,"frizz_risk":0,"updated_at":"2026-04-23T22:57:18.082674+05:30"},{"city":"Sagar","state":"Madhya Pradesh","latitude":23.8388,"longitude":78.7378,"temp":31.3,"humidity":34,"rain":0.0,"pressure":949.0,"uv_index":8.65,"wind_gusts":32.0,"aqi":95,"pm10":29.0,"pm2_5":26.0,"mosquito_risk":0,"arthritis_risk":5,"migraine_risk":7,"frizz_risk":0,"updated_at":"2026-04-23T22:57:18.082680+05:30"},{"city":"Satna","state":"Madhya Pradesh","latitude":24.6005,"longitude":80.8322,"temp":31.5,"humidity":27,"rain":0.0,"pressure":969.3,"uv_index":8.65,"wind_gusts":28.1,"aqi":80,"pm10":28.8,"pm2_5":22.5,"mosquito_risk":0,"arthritis_risk":5,"migraine_risk":7,"frizz_risk":0,"updated_at":"2026-04-23T22:57:18.082687+05:30"},{"city":"Akola","state":"Maharashtra","latitude":20.7002,"longitude":77.0082,"temp":32.5,"humidity":39,"rain":0.0,"pressure":973.5,"uv_index":8.85,"wind_gusts":31.0,"aqi":107,"pm10":49.0,"pm2_5":43.8,"mosquito_risk":0,"arthritis_risk":5,"migraine_risk":7,"frizz_risk":1,"updated_at":"2026-04-23T22:57:18.082694+05:30"},{"city":"Amravati","state":"Maharashtra","latitude":20.9374,"longitude":77.7796,"temp":30.9,"humidity":50,"rain":0.0,"pressure":965.6,"uv_index":8.7,"wind_gusts":16.9,"aqi":108,"pm10":44.2,"pm2_5":38.5,"mosquito_risk":0,"arthritis_risk":5,"migraine_risk":7,"frizz_risk":1,"updated_at":"2026-04-23T22:57:18.082701+05:30"},{"city":"Latur","state":"Maharashtra","latitude":18.4088,"longitude":76.5604,"temp":28.1,"humidity":50,"rain":0.0,"pressure":939.5,"uv_index":9.1,"wind_gusts":41.0,"aqi":133,"pm10":44.1,"pm2_5":40.5,"mosquito_risk":4,"arthritis_risk":5,"migraine_risk":7,"frizz_risk":1,"updated_at":"2026-04-23T22:57:18.082709+05:30"},{"city":"Nanded","state":"Maharashtra","latitude":19.1383,"longitude":77.3091,"temp":29.8,"humidity":51,"rain":0.0,"pressure":967.2,"uv_index":9.05,"wind_gusts":27.7,"aqi":116,"pm10":66.4,"pm2_5":60.3,"mosquito_risk":4,"arthritis_risk":5,"migraine_risk":7,"frizz_risk":1,"updated_at":"2026-04-23T22:57:18.082715+05:30"},{"city":"Gulbarga","state":"Karnataka","latitude":17.3297,"longitude":76.8343,"temp":29.8,"humidity":50,"rain":0.0,"pressure":958.2,"uv_index":8.65,"wind_gusts":35.6,"aqi":138,"pm10":56.7,"pm2_5":50.8,"mosquito_risk":4,"arthritis_risk":5,"migraine_risk":7,"frizz_risk":1,"updated_at":"2026-04-23T22:57:18.082723+05:30"},{"city":"Bidar","state":"Karnataka","latitude":17.9104,"longitude":77.5199,"temp":29.8,"humidity":48,"rain":0.0,"pressure":934.9,"uv_index":7.95,"wind_gusts":28.8,"aqi":115,"pm10":54.4,"pm2_5":49.8,"mosquito_risk":4,"arthritis_risk":5,"migraine_risk":7,"frizz_risk":1,"updated_at":"2026-04-23T22:57:18.082729+05:30"},{"city":"Hospet","state":"Karnataka","latitude":15.2689,"longitude":76.3909,"temp":29.3,"humidity":54,"rain":0.0,"pressure":954.5,"uv_index":8.95,"wind_gusts":25.9,"aqi":133,"pm10":42.6,"pm2_5":39.1,"mosquito_risk":4,"arthritis_risk":5,"migraine_risk":7,"frizz_risk":1,"updated_at":"2026-04-23T22:57:18.082736+05:30"},{"city":"Tirupur","state":"Tamil Nadu","latitude":11.1085,"longitude":77.3411,"temp":29.4,"humidity":69,"rain":0.0,"pressure":974.3,"uv_index":9.45,"wind_gusts":31.7,"aqi":77,"pm10":19.4,"pm2_5":16.8,"mosquito_risk":7,"arthritis_risk":5,"migraine_risk":7,"frizz_risk":1,"updated_at":"2026-04-23T22:57:18.082742+05:30"},{"city":"Alappuzha","state":"Kerala","latitude":9.4981,"longitude":76.3388,"temp":28.7,"humidity":83,"rain":0.0,"pressure":1008.1,"uv_index":9.1,"wind_gusts":27.4,"aqi":78,"pm10":31.2,"pm2_5":27.0,"mosquito_risk":7,"arthritis_risk":0,"migraine_risk":4,"frizz_risk":1,"updated_at":"2026-04-23T22:57:18.082748+05:30"},{"city":"Munnar","state":"Kerala","latitude":10.0889,"longitude":77.0595,"temp":22.1,"humidity":94,"rain":0.0,"pressure":856.6,"uv_index":9.65,"wind_gusts":33.8,"aqi":68,"pm10":26.0,"pm2_5":24.3,"mosquito_risk":3,"arthritis_risk":5,"migraine_risk":7,"frizz_risk":1,"updated_at":"2026-04-23T22:57:18.082755+05:30"},{"city":"Silchar","state":"Assam","latitude":24.8333,"longitude":92.7789,"temp":26.9,"humidity":85,"rain":0.0,"pressure":1003.7,"uv_index":8.7,"wind_gusts":19.1,"aqi":146,"pm10":140.6,"pm2_5":85.0,"mosquito_risk":7,"arthritis_risk":5,"migraine_risk":4,"frizz_risk":1,"updated_at":"2026-04-23T22:57:18.082762+05:30"},{"city":"Dibrugarh","state":"Assam","latitude":27.4728,"longitude":94.912,"temp":26.9,"humidity":79,"rain":0.0,"pressure":994.8,"uv_index":8.65,"wind_gusts":11.2,"aqi":74,"pm10":41.1,"pm2_5":37.1,"mosquito_risk":7,"arthritis_risk":5,"migraine_risk":7,"frizz_risk":1,"updated_at":"2026-04-23T22:57:18.082769+05:30"}]