[{"city":"Delhi","state":"Delhi","latitude":28.6139,"longitude":77.209,"temp":33.4,"humidity":67,"rain":0.0,"pressure":974.5,"uv_index":6.95,"wind_gusts":20.2,"aqi":152,"pm10":51.2,"pm2_5":47.3,"no2":6.7,"co":406.0,"o3":247.0,"so2":30.0,"mosquito_risk":3,"arthritis_risk":5,"migraine_risk":7,"frizz_risk":1,"updated_at":"2026-07-05T13:37:31.920136+05:30"},{"city":"Mumbai","state":"Maharashtra","latitude":19.076,"longitude":72.8777,"temp":26.3,"humidity":93,"rain":1.0,"pressure":999.0,"uv_index":1.05,"wind_gusts":72.0,"aqi":27,"pm10":5.8,"pm2_5":4.4,"no2":3.4,"co":143.0,"o3":53.0,"so2":3.4,"mosquito_risk":10,"arthritis_risk":5,"migraine_risk":3,"frizz_risk":1,"updated_at":"2026-07-05T13:37:31.920179+05:30"},{"city":"Bangalore","state":"Karnataka","latitude":12.9716,"longitude":77.5946,"temp":28.8,"humidity":48,"rain":0.0,"pressure":910.2,"uv_index":7.8,"wind_gusts":70.6,"aqi":22,"pm10":18.0,"pm2_5":9.0,"no2":2.0,"co":145.0,"o3":70.0,"so2":2.0,"mosquito_risk":4,"arthritis_risk":5,"migraine_risk":7,"frizz_risk":1,"updated_at":"2026-07-05T13:37:31.920194+05:30"},{"city":"Hyderabad","state":"Telangana","latitude":17.385,"longitude":78.4867,"temp":28.8,"humidity":64,"rain":0.0,"pressure":947.2,"uv_index":3.55,"wind_gusts":72.0,"aqi":20,"pm10":6.4,"pm2_5":4.2,"no2":2.5,"co":141.0,"o3":60.0,"so2":3.1,"mosquito_risk":7,"arthritis_risk":5,"migraine_risk":3,"frizz_risk":1,"updated_at":"2026-07-05T13:37:31.920204+05:30"},{"city":"Chennai","state":"Tamil Nadu","latitude":13.0827,"longitude":80.2707,"temp":37.2,"humidity":34,"rain":0.0,"pressure":1002.1,"uv_index":8.85,"wind_gusts":56.5,"aqi":44,"pm10":23.2,"pm2_5":15.3,"no2":2.6,"co":138.0,"o3":107.0,"so2":6.0,"mosquito_risk":0,"arthritis_risk":5,"migraine_risk":7,"frizz_risk":1,"updated_at":"2026-07-05T13:37:31.920212+05:30"},{"city":"Kolkata","state":"West Bengal","latitude":22.5726,"longitude":88.3639,"temp":30.2,"humidity":76,"rain":0.0,"pressure":992.3,"uv_index":2.9,"wind_gusts":41.8,"aqi":42,"pm10":8.1,"pm2_5":6.9,"no2":3.5,"co":206.0,"o3":92.0,"so2":6.2,"mosquito_risk":3,"arthritis_risk":5,"migraine_risk":3,"frizz_risk":1,"updated_at":"2026-07-05T13:37:31.920220+05:30"},{"city":"Pune","state":"Maharashtra","latitude":18.5204,"longitude":73.8567,"temp":23.9,"humidity":91,"rain":0.3,"pressure":940.0,"uv_index":0.35,"wind_gusts":61.6,"aqi":22,"pm10":1.7,"pm2_5":1.6,"no2":3.7,"co":123.0,"o3":53.0,"so2":2.6,"mosquito_risk":6,"arthritis_risk":5,"migraine_risk":3,"frizz_risk":1,"updated_at":"2026-07-05T13:37:31.920227+05:30"},{"city":"Ahmedabad","state":"Gujarat","latitude":23.0225,"longitude":72.5714,"temp":30.6,"humidity":80,"rain":0.0,"pressure":992.2,"uv_index":5.65,"wind_gusts":26.6,"aqi":68,"pm10":48.9,"pm2_5":20.3,"no2":3.0,"co":198.0,"o3":89.0,"so2":5.2,"mosquito_risk":3,"arthritis_risk":5,"migraine_risk":3,"frizz_risk":1,"updated_at":"2026-07-05T13:37:31.920233+05:30"},{"city":"Jaipur","state":"Rajasthan","latitude":26.9124,"longitude":75.7873,"temp":34.4,"humidity":58,"rain":0.0,"pressure":951.4,"uv_index":8.05,"wind_gusts":23.0,"aqi":82,"pm10":15.4,"pm2_5":10.5,"no2":1.4,"co":280.0,"o3":153.0,"so2":3.9,"mosquito_risk":0,"arthritis_risk":5,"migraine_risk":7,"frizz_risk":1,"updated_at":"2026-07-05T13:37:31.920239+05:30"},{"city":"Lucknow","state":"Uttar Pradesh","latitude":26.8467,"longitude":80.9462,"temp":31.1,"humidity":79,"rain":0.2,"pressure":984.3,"uv_index":8.2,"wind_gusts":31.3,"aqi":92,"pm10":27.9,"pm2_5":27.1,"no2":1.4,"co":244.0,"o3":163.0,"so2":4.5,"mosquito_risk":6,"arthritis_risk":5,"migraine_risk":7,"frizz_risk":1,"updated_at":"2026-07-05T13:37:31.920250+05:30"},{"city":"Kanpur","state":"Uttar Pradesh","latitude":26.4499,"longitude":80.3319,"temp":33.9,"humidity":65,"rain":0.0,"pressure":982.3,"uv_index":7.65,"wind_gusts":28.4,"aqi":83,"pm10":22.6,"pm2_5":21.0,"no2":1.5,"co":237.0,"o3":165.0,"so2":5.2,"mosquito_risk":3,"arthritis_risk":5,"migraine_risk":7,"frizz_risk":1,"updated_at":"2026-07-05T13:37:31.920257+05:30"},{"city":"Chandigarh","state":"Chandigarh","latitude":30.7333,"longitude":76.7794,"temp":34.3,"humidity":55,"rain":0.0,"pressure":960.7,"uv_index":7.1,"wind_gusts":26.6,"aqi":153,"pm10":59.6,"pm2_5":56.2,"no2":2.4,"co":358.0,"o3":205.0,"so2":15.8,"mosquito_risk":0,"arthritis_risk":5,"migraine_risk":7,"frizz_risk":1,"updated_at":"2026-07-05T13:37:31.920263+05:30"},{"city":"Srinagar","state":"Jammu and Kashmir","latitude":34.0837,"longitude":74.7973,"temp":31.6,"humidity":36,"rain":0.0,"pressure":838.8,"uv_index":9.05,"wind_gusts":26.3,"aqi":87,"pm10":23.3,"pm2_5":15.4,"no2":0.8,"co":250.0,"o3":167.0,"so2":3.8,"mosquito_risk":0,"arthritis_risk":5,"migraine_risk":7,"frizz_risk":0,"updated_at":"2026-07-05T13:37:31.920270+05:30"},{"city":"Jammu","state":"Jammu and Kashmir","latitude":32.7266,"longitude":74.857,"temp":34.1,"humidity":62,"rain":0.0,"pressure":964.5,"uv_index":8.35,"wind_gusts":36.0,"aqi":138,"pm10":93.1,"pm2_5":68.9,"no2":1.5,"co":368.0,"o3":193.0,"so2":10.6,"mosquito_risk":3,"arthritis_risk":5,"migraine_risk":7,"frizz_risk":1,"updated_at":"2026-07-05T13:37:31.920276+05:30"},{"city":"Amritsar","state":"Punjab","latitude":31.634,"longitude":74.8723,"temp":34.4,"humidity":64,"rain":0.0,"pressure":972.2,"uv_index":8.45,"wind_gusts":54.7,"aqi":158,"pm10":87.8,"pm2_5":70.1,"no2":1.8,"co":366.0,"o3":200.0,"so2":12.0,"mosquito_risk":3,"arthritis_risk":5,"migraine_risk":7,"frizz_risk":1,"updated_at":"2026-07-05T13:37:31.920283+05:30"},{"city":"Ludhiana","state":"Punjab","latitude":30.901,"longitude":75.8573,"temp":34.4,"humidity":64,"rain":0.1,"pressure":970.0,"uv_index":7.9,"wind_gusts":31.7,"aqi":174,"pm10":82.9,"pm2_5":71.0,"no2":2.1,"co":432.0,"o3":203.0,"so2":11.6,"mosquito_risk":6,"arthritis_risk":5,"migraine_risk":7,"frizz_risk":1,"updated_at":"2026-07-05T13:37:31.920289+05:30"},{"city":"Jalandhar","state":"Punjab","latitude":31.326,"longitude":75.5762,"temp":34.2,"humidity":65,"rain":0.0,"pressure":971.1,"uv_index":7.45,"wind_gusts":20.9,"aqi":173,"pm10":78.7,"pm2_5":64.5,"no2":1.4,"co":380.0,"o3":191.0,"so2":5.4,"mosquito_risk":3,"arthritis_risk":5,"migraine_risk":7,"frizz_risk":1,"updated_at":"2026-07-05T13:37:31.920294+05:30"},{"city":"Dehradun","state":"Uttarakhand","latitude":30.6284,"longitude":78.0322,"temp":23.6,"humidity":75,"rain":0.0,"pressure":827.8,"uv_index":6.8,"wind_gusts":27.4,"aqi":50,"pm10":15.2,"pm2_5":15.0,"no2":0.9,"co":283.0,"o3":141.0,"so2":2.3,"mosquito_risk":3,"arthritis_risk":5,"migraine_risk":7,"frizz_risk":1,"updated_at":"2026-07-05T13:37:31.920300+05:30"},{"city":"Shimla","state":"Himachal Pradesh","latitude":31.1048,"longitude":77.1734,"temp":20.6,"humidity":79,"rain":0.1,"pressure":782.3,"uv_index":6.9,"wind_gusts":36.7,"aqi":64,"pm10":27.6,"pm2_5":26.1,"no2":1.1,"co":295.0,"o3":162.0,"so2":8.6,"mosquito_risk":6,"arthritis_risk":5,"migraine_risk":7,"frizz_risk":1,"updated_at":"2026-07-05T13:37:31.920311+05:30"},{"city":"Manali","state":"Himachal Pradesh","latitude":32.2396,"longitude":77.1887,"temp":26.1,"humidity":73,"rain":0.1,"pressure":817.3,"uv_index":9.6,"wind_gusts":34.9,"aqi":55,"pm10":10.6,"pm2_5":10.4,"no2":1.5,"co":192.0,"o3":154.0,"so2":0.7,"mosquito_risk":10,"arthritis_risk":5,"migraine_risk":7,"frizz_risk":1,"updated_at":"2026-07-05T13:37:31.920320+05:30"},{"city":"Gurgaon","state":"Haryana","latitude":28.4595,"longitude":77.0266,"temp":33.6,"humidity":66,"rain":0.0,"pressure":972.8,"uv_index":5.65,"wind_gusts":23.8,"aqi":144,"pm10":138.8,"pm2_5":45.8,"no2":4.3,"co":362.0,"o3":190.0,"so2":15.9,"mosquito_risk":3,"arthritis_risk":5,"migraine_risk":3,"frizz_risk":1,"updated_at":"2026-07-05T13:37:31.920326+05:30"},{"city":"Noida","state":"Uttar Pradesh","latitude":28.5355,"longitude":77.391,"temp":33.3,"humidity":70,"rain":0.1,"pressure":975.8,"uv_index":6.2,"wind_gusts":20.5,"aqi":144,"pm10":138.8,"pm2_5":45.8,"no2":4.3,"co":351.0,"o3":190.0,"so2":15.9,"mosquito_risk":6,"arthritis_risk":5,"migraine_risk":7,"frizz_risk":1,"updated_at":"2026-07-05T13:37:31.920332+05:30"},{"city":"Ghaziabad","state":"Uttar Pradesh","latitude":28.6692,"longitude":77.4538,"temp":32.3,"humidity":76,"rain":0.0,"pressure":974.2,"uv_index":6.7,"wind_gusts":22.7,"aqi":123,"pm10":37.1,"pm2_5":35.9,"no2":3.2,"co":321.0,"o3":200.0,"so2":17.5,"mosquito_risk":3,"arthritis_risk":5,"migraine_risk":7,"frizz_risk":1,"updated_at":"2026-07-05T13:37:31.920339+05:30"},{"city":"Faridabad","state":"Haryana","latitude":28.4089,"longitude":77.3178,"temp":33.6,"humidity":66,"rain":0.0,"pressure":975.1,"uv_index":5.9,"wind_gusts":22.7,"aqi":144,"pm10":138.8,"pm2_5":45.8,"no2":4.3,"co":353.0,"o3":190.0,"so2":15.9,"mosquito_risk":3,"arthritis_risk":5,"migraine_risk":3,"frizz_risk":1,"updated_at":"2026-07-05T13:37:31.920345+05:30"},{"city":"Meerut","state":"Uttar Pradesh","latitude":28.9845,"longitude":77.7064,"temp":31.8,"humidity":79,"rain":0.1,"pressure":973.2,"uv_index":7.6,"wind_gusts":24.5,"aqi":123,"pm10":37.1,"pm2_5":35.9,"no2":3.2,"co":325.0,"o3":200.0,"so2":17.5,"mosquito_risk":6,"arthritis_risk":5,"migraine_risk":7,"frizz_risk":1,"updated_at":"2026-07-05T13:37:31.920351+05:30"},{"city":"Agra","state":"Uttar Pradesh","latitude":27.1767,"longitude":78.0081,"temp":34.1,"humidity":63,"rain":0.0,"pressure":978.8,"uv_index":7.95,"wind_gusts":32.0,"aqi":91,"pm10":40.4,"pm2_5":24.2,"no2":1.6,"co":283.0,"o3":157.0,"so2":5.1,"mosquito_risk":3,"arthritis_risk":5,"migraine_risk":7,"frizz_risk":1,"updated_at":"2026-07-05T13:37:31.920357+05:30"},{"city":"Varanasi","state":"Uttar Pradesh","latitude":25.3176,"longitude":82.9739,"temp":33.7,"humidity":65,"rain":0.0,"pressure":986.8,"uv_index":7.75,"wind_gusts":45.0,"aqi":79,"pm10":21.2,"pm2_5":20.5,"no2":1.4,"co":228.0,"o3":151.0,"so2":6.2,"mosquito_risk":3,"arthritis_risk":5,"migraine_risk":7,"frizz_risk":1,"updated_at":"2026-07-05T13:37:31.920363+05:30"},{"city":"Prayagraj","state":"Uttar Pradesh","latitude":25.4358,"longitude":81.8463,"temp":34.9,"humidity":58,"rain":0.0,"pressure":985.3,"uv_index":8.6,"wind_gusts":35.3,"aqi":87,"pm10":19.4,"pm2_5":19.0,"no2":1.4,"co":224.0,"o3":162.0,"so2":6.8,"mosquito_risk":0,"arthritis_risk":5,"migraine_risk":7,"frizz_risk":1,"updated_at":"2026-07-05T13:37:31.920370+05:30"},{"city":"Gorakhpur","state":"Uttar Pradesh","latitude":26.7606,"longitude":83.3732,"temp":34.8,"humidity":63,"rain":0.0,"pressure":987.0,"uv_index":8.55,"wind_gusts":40.0,"aqi":102,"pm10":20.9,"pm2_5":20.7,"no2":1.3,"co":229.0,"o3":149.0,"so2":3.3,"mosquito_risk":3,"arthritis_risk":5,"migraine_risk":7,"frizz_risk":1,"updated_at":"2026-07-05T13:37:31.920376+05:30"},{"city":"Bareilly","state":"Uttar Pradesh","latitude":28.367,"longitude":79.4304,"temp":32.7,"humidity":70,"rain":0.1,"pressure":978.4,"uv_index":6.15,"wind_gusts":27.7,"aqi":95,"pm10":25.3,"pm2_5":23.5,"no2":1.8,"co":276.0,"o3":162.0,"so2":8.1,"mosquito_risk":6,"arthritis_risk":5,"migraine_risk":7,"frizz_risk":1,"updated_at":"2026-07-05T13:37:31.920384+05:30"},{"city":"Aligarh","state":"Uttar Pradesh","latitude":27.8974,"longitude":78.088,"temp":33.7,"humidity":66,"rain":0.0,"pressure":977.1,"uv_index":6.8,"wind_gusts":25.6,"aqi":103,"pm10":33.3,"pm2_5":23.5,"no2":2.0,"co":288.0,"o3":163.0,"so2":10.0,"mosquito_risk":3,"arthritis_risk":5,"migraine_risk":7,"frizz_risk":1,"updated_at":"2026-07-05T13:37:31.920391+05:30"},{"city":"Moradabad","state":"Uttar Pradesh","latitude":28.8386,"longitude":78.7733,"temp":32.8,"humidity":69,"rain":0.0,"pressure":975.5,"uv_index":7.0,"wind_gusts":30.6,"aqi":113,"pm10":25.6,"pm2_5":25.2,"no2":2.3,"co":257.0,"o3":183.0,"so2":10.7,"mosquito_risk":3,"arthritis_risk":5,"migraine_risk":7,"frizz_risk":1,"updated_at":"2026-07-05T13:37:31.920396+05:30"},{"city":"Saharanpur","state":"Uttar Pradesh","latitude":29.9637,"longitude":77.546,"temp":32.2,"humidity":71,"rain":0.0,"pressure":967.6,"uv_index":6.8,"wind_gusts":23.4,"aqi":152,"pm10":29.0,"pm2_5":28.7,"no2":1.8,"co":327.0,"o3":164.0,"so2":7.7,"mosquito_risk":3,"arthritis_risk":5,"migraine_risk":7,"frizz_risk":1,"updated_at":"2026-07-05T13:37:31.920402+05:30"},{"city":"Jhansi","state":"Uttar Pradesh","latitude":25.4484,"longitude":78.5685,"temp":34.8,"humidity":59,"rain":0.0,"pressure":968.4,"uv_index":7.35,"wind_gusts":28.8,"aqi":72,"pm10":21.5,"pm2_5":20.7,"no2":1.6,"co":224.0,"o3":153.0,"so2":8.6,"mosquito_risk":0,"arthritis_risk":5,"migraine_risk":7,"frizz_risk":1,"updated_at":"2026-07-05T13:37:35.317597+05:30"},{"city":"Surat","state":"Gujarat","latitude":21.1702,"longitude":72.8311,"temp":30.7,"humidity":69,"rain":0.0,"pressure":996.2,"uv_index":5.3,"wind_gusts":29.5,"aqi":74,"pm10":43.9,"pm2_5":30.2,"no2":30.8,"co":246.0,"o3":71.0,"so2":81.0,"mosquito_risk":3,"arthritis_risk":5,"migraine_risk":3,"frizz_risk":1,"updated_at":"2026-07-05T13:37:35.317631+05:30"},{"city":"Vadodara","state":"Gujarat","latitude":22.3072,"longitude":73.1812,"temp":31.6,"humidity":72,"rain":0.0,"pressure":994.2,"uv_index":6.4,"wind_gusts":29.2,"aqi":51,"pm10":33.9,"pm2_5":17.1,"no2":3.9,"co":187.0,"o3":108.0,"so2":7.7,"mosquito_risk":3,"arthritis_risk":5,"migraine_risk":7,"frizz_risk":1,"updated_at":"2026-07-05T13:37:35.317642+05:30"},{"city":"Rajkot","state":"Gujarat","latitude":22.3039,"longitude":70.8022,"temp":32.5,"humidity":63,"rain":0.0,"pressure":984.6,"uv_index":2.25,"wind_gusts":37.4,"aqi":74,"pm10":96.9,"pm2_5":31.2,"no2":1.2,"co":113.0,"o3":78.0,"so2":3.7,"mosquito_risk":3,"arthritis_risk":5,"migraine_risk":3,"frizz_risk":1,"updated_at":"2026-07-05T13:37:35.317651+05:30"},{"city":"Thane","state":"Maharashtra","latitude":19.2183,"longitude":72.9781,"temp":26.1,"humidity":95,"rain":0.7,"pressure":997.8,"uv_index":1.3,"wind_gusts":56.5,"aqi":27,"pm10":5.8,"pm2_5":4.4,"no2":3.4,"co":155.0,"o3":53.0,"so2":3.4,"mosquito_risk":10,"arthritis_risk":5,"migraine_risk":3,"frizz_risk":1,"updated_at":"2026-07-05T13:37:35.317660+05:30"},{"city":"Nagpur","state":"Maharashtra","latitude":21.1458,"longitude":79.0882,"temp":27.1,"humidity":89,"rain":0.2,"pressure":964.2,"uv_index":5.9,"wind_gusts":33.8,"aqi":45,"pm10":8.5,"pm2_5":8.1,"no2":7.8,"co":198.0,"o3":100.0,"so2":22.1,"mosquito_risk":10,"arthritis_risk":5,"migraine_risk":3,"frizz_risk":1,"updated_at":"2026-07-05T13:37:35.317668+05:30"},{"city":"Nashik","state":"Maharashtra","latitude":19.9975,"longitude":73.7898,"temp":26.4,"humidity":83,"rain":0.0,"pressure":935.9,"uv_index":5.95,"wind_gusts":49.0,"aqi":21,"pm10":1.7,"pm2_5":1.5,"no2":3.6,"co":119.0,"o3":59.0,"so2":5.3,"mosquito_risk":7,"arthritis_risk":5,"migraine_risk":3,"frizz_risk":1,"updated_at":"2026-07-05T13:37:35.317677+05:30"},{"city":"Aurangabad","state":"Maharashtra","latitude":19.8762,"longitude":75.3433,"temp":26.7,"humidity":78,"rain":0.2,"pressure":935.8,"uv_index":6.5,"wind_gusts":60.5,"aqi":22,"pm10":2.4,"pm2_5":2.3,"no2":1.4,"co":109.0,"o3":71.0,"so2":3.5,"mosquito_risk":10,"arthritis_risk":5,"migraine_risk":7,"frizz_risk":1,"updated_at":"2026-07-05T13:37:35.317686+05:30"},{"city":"Solapur","state":"Maharashtra","latitude":17.6599,"longitude":75.9064,"temp":26.0,"humidity":80,"rain":0.1,"pressure":951.3,"uv_index":2.85,"wind_gusts":64.1,"aqi":22,"pm10":2.3,"pm2_5":1.9,"no2":1.2,"co":101.0,"o3":62.0,"so2":1.3,"mosquito_risk":10,"arthritis_risk":5,"migraine_risk":3,"frizz_risk":1,"updated_at":"2026-07-05T13:37:35.317694+05:30"},{"city":"Kolhapur","state":"Maharashtra","latitude":16.705,"longitude":74.2433,"temp":23.1,"humidity":95,"rain":0.4,"pressure":943.1,"uv_index":3.0,"wind_gusts":61.2,"aqi":22,"pm10":6.2,"pm2_5":3.9,"no2":2.1,"co":115.0,"o3":49.0,"so2":1.1,"mosquito_risk":6,"arthritis_risk":5,"migraine_risk":3,"frizz_risk":1,"updated_at":"2026-07-05T13:37:35.317702+05:30"},{"city":"Goa","state":"Goa","latitude":15.2993,"longitude":74.124,"temp":24.7,"humidity":96,"rain":0.1,"pressure":996.0,"uv_index":7.15,"wind_gusts":37.4,"aqi":46,"pm10":24.3,"pm2_5":12.5,"no2":0.7,"co":126.0,"o3":57.0,"so2":0.8,"mosquito_risk":6,"arthritis_risk":5,"migraine_risk":7,"frizz_risk":1,"updated_at":"2026-07-05T13:37:35.317711+05:30"},{"city":"Jodhpur","state":"Rajasthan","latitude":26.2389,"longitude":73.0243,"temp":36.4,"humidity":47,"rain":0.0,"pressure":973.1,"uv_index":8.4,"wind_gusts":22.0,"aqi":129,"pm10":142.0,"pm2_5":43.0,"no2":0.7,"co":164.0,"o3":101.0,"so2":3.0,"mosquito_risk":0,"arthritis_risk":5,"migraine_risk":10,"frizz_risk":1,"updated_at":"2026-07-05T13:37:35.317718+05:30"},{"city":"Udaipur","state":"Rajasthan","latitude":24.5854,"longitude":73.7125,"temp":32.8,"humidity":58,"rain":0.0,"pressure":938.0,"uv_index":8.65,"wind_gusts":27.7,"aqi":71,"pm10":52.3,"pm2_5":22.4,"no2":1.1,"co":150.0,"o3":110.0,"so2":3.7,"mosquito_risk":0,"arthritis_risk":5,"migraine_risk":7,"frizz_risk":1,"updated_at":"2026-07-05T13:37:35.317726+05:30"},{"city":"Kota","state":"Rajasthan","latitude":25.2138,"longitude":75.8648,"temp":35.9,"humidity":54,"rain":0.0,"pressure":968.9,"uv_index":7.8,"wind_gusts":28.4,"aqi":75,"pm10":26.4,"pm2_5":21.4,"no2":2.4,"co":240.0,"o3":158.0,"so2":14.6,"mosquito_risk":0,"arthritis_risk":5,"migraine_risk":10,"frizz_risk":1,"updated_at":"2026-07-05T13:37:35.317734+05:30"},{"city":"Bikaner","state":"Rajasthan","latitude":28.0229,"longitude":73.3119,"temp":40.3,"humidity":32,"rain":0.0,"pressure":971.8,"uv_index":8.1,"wind_gusts":24.5,"aqi":123,"pm10":150.4,"pm2_5":51.0,"no2":0.4,"co":223.0,"o3":116.0,"so2":5.7,"mosquito_risk":0,"arthritis_risk":5,"migraine_risk":10,"frizz_risk":1,"updated_at":"2026-07-05T13:37:35.317743+05:30"},{"city":"Ajmer","state":"Rajasthan","latitude":26.4499,"longitude":74.6399,"temp":34.6,"humidity":53,"rain":0.0,"pressure":946.3,"uv_index":8.35,"wind_gusts":22.7,"aqi":96,"pm10":40.7,"pm2_5":18.2,"no2":1.0,"co":172.0,"o3":127.0,"so2":2.4,"mosquito_risk":0,"arthritis_risk":5,"migraine_risk":7,"frizz_risk":1,"updated_at":"2026-07-05T13:37:35.317750+05:30"},{"city":"Gwalior","state":"Madhya Pradesh","latitude":26.2183,"longitude":78.1828,"temp":33.3,"humidity":69,"rain":0.0,"pressure":974.0,"uv_index":7.3,"wind_gusts":29.5,"aqi":73,"pm10":21.5,"pm2_5":20.2,"no2":1.0,"co":220.0,"o3":143.0,"so2":4.2,"mosquito_risk":3,"arthritis_risk":5,"migraine_risk":7,"frizz_risk":1,"updated_at":"2026-07-05T13:37:35.317758+05:30"},{"city":"Indore","state":"Madhya Pradesh","latitude":22.7196,"longitude":75.8577,"temp":28.4,"humidity":78,"rain":0.0,"pressure":939.2,"uv_index":8.15,"wind_gusts":29.5,"aqi":63,"pm10":18.3,"pm2_5":16.9,"no2":2.2,"co":261.0,"o3":111.0,"so2":2.2,"mosquito_risk":7,"arthritis_risk":5,"migraine_risk":7,"frizz_risk":1,"updated_at":"2026-07-05T13:37:35.317765+05:30"},{"city":"Bhopal","state":"Madhya Pradesh","latitude":23.2599,"longitude":77.4126,"temp":29.2,"humidity":76,"rain":0.0,"pressure":944.4,"uv_index":8.5,"wind_gusts":27.7,"aqi":77,"pm10":26.6,"pm2_5":25.4,"no2":1.6,"co":295.0,"o3":123.0,"so2":3.3,"mosquito_risk":7,"arthritis_risk":5,"migraine_risk":7,"frizz_risk":1,"updated_at":"2026-07-05T13:37:35.317773+05:30"},{"city":"Jabalpur","state":"Madhya Pradesh","latitude":23.1815,"longitude":79.9864,"temp":29.8,"humidity":80,"rain":0.0,"pressure":951.2,"uv_index":7.6,"wind_gusts":25.6,"aqi":78,"pm10":16.6,"pm2_5":16.4,"no2":1.2,"co":166.0,"o3":127.0,"so2":5.7,"mosquito_risk":7,"arthritis_risk":5,"migraine_risk":7,"frizz_risk":1,"updated_at":"2026-07-05T13:37:35.317781+05:30"},{"city":"Ujjain","state":"Madhya Pradesh","latitude":23.1765,"longitude":75.7885,"temp":28.9,"humidity":75,"rain":0.1,"pressure":944.6,"uv_index":8.45,"wind_gusts":28.1,"aqi":59,"pm10":18.7,"pm2_5":16.4,"no2":1.5,"co":235.0,"o3":113.0,"so2":2.7,"mosquito_risk":10,"arthritis_risk":5,"migraine_risk":7,"frizz_risk":1,"updated_at":"2026-07-05T13:37:35.317789+05:30"},{"city":"Visakhapatnam","state":"Andhra Pradesh","latitude":17.6868,"longitude":83.2185,"temp":30.9,"humidity":64,"rain":0.0,"pressure":993.1,"uv_index":3.6,"wind_gusts":66.6,"aqi":34,"pm10":10.0,"pm2_5":9.0,"no2":6.7,"co":224.0,"o3":89.0,"so2":20.3,"mosquito_risk":3,"arthritis_risk":5,"migraine_risk":3,"frizz_risk":1,"updated_at":"2026-07-05T13:37:35.317797+05:30"},{"city":"Vijayawada","state":"Andhra Pradesh","latitude":16.5062,"longitude":80.648,"temp":31.9,"humidity":58,"rain":0.0,"pressure":995.8,"uv_index":3.8,"wind_gusts":47.9,"aqi":30,"pm10":11.5,"pm2_5":7.6,"no2":3.1,"co":108.0,"o3":55.0,"so2":4.2,"mosquito_risk":0,"arthritis_risk":5,"migraine_risk":3,"frizz_risk":1,"updated_at":"2026-07-05T13:37:35.317804+05:30"},{"city":"Guntur","state":"Andhra Pradesh","latitude":16.3067,"longitude":80.4365,"temp":32.1,"humidity":55,"rain":0.0,"pressure":997.2,"uv_index":7.35,"wind_gusts":51.8,"aqi":28,"pm10":11.3,"pm2_5":7.5,"no2":3.4,"co":109.0,"o3":54.0,"so2":4.0,"mosquito_risk":0,"arthritis_risk":5,"migraine_risk":7,"frizz_risk":1,"updated_at":"2026-07-05T13:37:35.317838+05:30"},{"city":"Nellore","state":"Andhra Pradesh","latitude":14.4426,"longitude":79.9865,"temp":34.4,"humidity":42,"rain":0.0,"pressure":1000.2,"uv_index":3.15,"wind_gusts":53.3,"aqi":26,"pm10":15.1,"pm2_5":7.5,"no2":2.0,"co":98.0,"o3":64.0,"so2":3.1,"mosquito_risk":0,"arthritis_risk":5,"migraine_risk":0,"frizz_risk":1,"updated_at":"2026-07-05T13:37:35.317847+05:30"},{"city":"Kurnool","state":"Andhra Pradesh","latitude":15.8281,"longitude":78.0373,"temp":33.1,"humidity":46,"rain":0.0,"pressure":971.9,"uv_index":6.55,"wind_gusts":73.8,"aqi":23,"pm10":9.0,"pm2_5":4.9,"no2":0.9,"co":103.0,"o3":65.0,"so2":2.1,"mosquito_risk":0,"arthritis_risk":5,"migraine_risk":7,"frizz_risk":1,"updated_at":"2026-07-05T13:37:35.317856+05:30"},{"city":"Kakinada","state":"Andhra Pradesh","latitude":16.9891,"longitude":82.2475,"temp":30.5,"humidity":68,"rain":0.0,"pressure":999.5,"uv_index":3.0,"wind_gusts":59.8,"aqi":30,"pm10":9.1,"pm2_5":6.4,"no2":1.2,"co":155.0,"o3":81.0,"so2":3.8,"mosquito_risk":3,"arthritis_risk":5,"migraine_risk":3,"frizz_risk":1,"updated_at":"2026-07-05T13:37:35.317865+05:30"},{"city":"Tirupati","state":"Andhra Pradesh","latitude":13.6288,"longitude":79.4192,"temp":32.3,"humidity":46,"rain":0.0,"pressure":986.6,"uv_index":7.65,"wind_gusts":55.4,"aqi":33,"pm10":15.0,"pm2_5":7.4,"no2":1.1,"co":110.0,"o3":70.0,"so2":1.4,"mosquito_risk":0,"arthritis_risk":5,"migraine_risk":7,"frizz_risk":1,"updated_at":"2026-07-05T13:37:35.317872+05:30"},{"city":"Warangal","state":"Telangana","latitude":17.9689,"longitude":79.5941,"temp":26.2,"humidity":87,"rain":0.1,"pressure":971.7,"uv_index":1.1,"wind_gusts":55.8,"aqi":22,"pm10":4.1,"pm2_5":3.6,"no2":1.8,"co":143.0,"o3":66.0,"so2":2.3,"mosquito_risk":10,"arthritis_risk":5,"migraine_risk":3,"frizz_risk":1,"updated_at":"2026-07-05T13:37:35.317881+05:30"},{"city":"Nizamabad","state":"Telangana","latitude":18.6725,"longitude":78.0941,"temp":28.5,"humidity":71,"rain":0.0,"pressure":957.8,"uv_index":1.3,"wind_gusts":58.3,"aqi":21,"pm10":3.1,"pm2_5":3.0,"no2":1.2,"co":126.0,"o3":64.0,"so2":2.3,"mosquito_risk":7,"arthritis_risk":5,"migraine_risk":3,"frizz_risk":1,"updated_at":"2026-07-05T13:37:35.317889+05:30"},{"city":"Mysore","state":"Karnataka","latitude":12.2958,"longitude":76.6396,"temp":25.7,"humidity":67,"rain":0.0,"pressure":927.8,"uv_index":8.3,"wind_gusts":64.1,"aqi":23,"pm10":17.3,"pm2_5":8.2,"no2":0.9,"co":99.0,"o3":67.0,"so2":1.2,"mosquito_risk":7,"arthritis_risk":5,"migraine_risk":7,"frizz_risk":1,"updated_at":"2026-07-05T13:37:35.317897+05:30"},{"city":"Mangalore","state":"Karnataka","latitude":12.9141,"longitude":74.856,"temp":28.4,"humidity":77,"rain":0.0,"pressure":1006.7,"uv_index":5.15,"wind_gusts":59.4,"aqi":50,"pm10":31.5,"pm2_5":16.5,"no2":0.7,"co":91.0,"o3":56.0,"so2":1.2,"mosquito_risk":7,"arthritis_risk":5,"migraine_risk":0,"frizz_risk":1,"updated_at":"2026-07-05T13:37:35.317905+05:30"},{"city":"Hubli-Dharwad","state":"Karnataka","latitude":15.3647,"longitude":75.124,"temp":23.5,"humidity":86,"rain":0.2,"pressure":938.0,"uv_index":3.4,"wind_gusts":62.6,"aqi":22,"pm10":6.7,"pm2_5":3.6,"no2":1.9,"co":102.0,"o3":51.0,"so2":0.7,"mosquito_risk":6,"arthritis_risk":5,"migraine_risk":3,"frizz_risk":1,"updated_at":"2026-07-05T13:37:35.317914+05:30"},{"city":"Belgaum","state":"Karnataka","latitude":15.8497,"longitude":74.4977,"temp":22.2,"humidity":97,"rain":0.3,"pressure":921.9,"uv_index":3.45,"wind_gusts":60.1,"aqi":22,"pm10":6.5,"pm2_5":4.1,"no2":2.0,"co":107.0,"o3":50.0,"so2":0.9,"mosquito_risk":6,"arthritis_risk":5,"migraine_risk":3,"frizz_risk":1,"updated_at":"2026-07-05T13:37:38.725628+05:30"},{"city":"Coimbatore","state":"Tamil Nadu","latitude":11.0168,"longitude":76.9558,"temp":28.5,"humidity":66,"rain":0.0,"pressure":961.0,"uv_index":8.3,"wind_gusts":55.4,"aqi":23,"pm10":11.7,"pm2_5":5.8,"no2":0.9,"co":115.0,"o3":65.0,"so2":1.5,"mosquito_risk":7,"arthritis_risk":5,"migraine_risk":7,"frizz_risk":1,"updated_at":"2026-07-05T13:37:38.725662+05:30"},{"city":"Madurai","state":"Tamil Nadu","latitude":9.9252,"longitude":78.1198,"temp":36.4,"humidity":31,"rain":0.0,"pressure":990.6,"uv_index":8.15,"wind_gusts":70.6,"aqi":44,"pm10":25.3,"pm2_5":11.4,"no2":1.8,"co":108.0,"o3":80.0,"so2":2.0,"mosquito_risk":0,"arthritis_risk":5,"migraine_risk":10,"frizz_risk":1,"updated_at":"2026-07-05T13:37:38.725674+05:30"},{"city":"Trichy","state":"Tamil Nadu","latitude":10.7905,"longitude":78.7047,"temp":36.5,"humidity":32,"rain":0.0,"pressure":996.7,"uv_index":8.75,"wind_gusts":74.5,"aqi":31,"pm10":19.1,"pm2_5":8.7,"no2":1.5,"co":101.0,"o3":66.0,"so2":1.6,"mosquito_risk":0,"arthritis_risk":5,"migraine_risk":10,"frizz_risk":1,"updated_at":"2026-07-05T13:37:38.725683+05:30"},{"city":"Salem","state":"Tamil Nadu","latitude":11.6643,"longitude":78.146,"temp":33.4,"humidity":46,"rain":0.0,"pressure":975.0,"uv_index":6.65,"wind_gusts":41.8,"aqi":43,"pm10":17.3,"pm2_5":9.0,"no2":1.3,"co":112.0,"o3":87.0,"so2":3.9,"mosquito_risk":0,"arthritis_risk":5,"migraine_risk":7,"frizz_risk":1,"updated_at":"2026-07-05T13:37:38.725692+05:30"},{"city":"Tirunelveli","state":"Tamil Nadu","latitude":8.7139,"longitude":77.7567,"temp":37.3,"humidity":32,"rain":0.0,"pressure":1001.3,"uv_index":8.45,"wind_gusts":49.0,"aqi":29,"pm10":29.3,"pm2_5":12.5,"no2":0.8,"co":98.0,"o3":66.0,"so2":1.1,"mosquito_risk":0,"arthritis_risk":5,"migraine_risk":7,"frizz_risk":1,"updated_at":"2026-07-05T13:37:38.725699+05:30"},{"city":"Vellore","state":"Tamil Nadu","latitude":12.9165,"longitude":79.1325,"temp":36.3,"humidity":32,"rain":0.0,"pressure":979.9,"uv_index":8.3,"wind_gusts":58.7,"aqi":28,"pm10":13.0,"pm2_5":6.9,"no2":1.0,"co":102.0,"o3":78.0,"so2":1.7,"mosquito_risk":0,"arthritis_risk":5,"migraine_risk":10,"frizz_risk":1,"updated_at":"2026-07-05T13:37:38.725707+05:30"},{"city":"Erode","state":"Tamil Nadu","latitude":11.341,"longitude":77.7172,"temp":34.2,"humidity":43,"rain":0.0,"pressure":986.9,"uv_index":8.6,"wind_gusts":61.9,"aqi":32,"pm10":15.5,"pm2_5":7.9,"no2":1.1,"co":117.0,"o3":78.0,"so2":1.7,"mosquito_risk":0,"arthritis_risk":5,"migraine_risk":7,"frizz_risk":1,"updated_at":"2026-07-05T13:37:38.725714+05:30"},{"city":"Kochi","state":"Kerala","latitude":9.9312,"longitude":76.2673,"temp":29.1,"humidity":75,"rain":0.0,"pressure":1009.7,"uv_index":5.55,"wind_gusts":39.6,"aqi":53,"pm10":33.2,"pm2_5":15.3,"no2":1.5,"co":94.0,"o3":59.0,"so2":2.0,"mosquito_risk":7,"arthritis_risk":0,"migraine_risk":0,"frizz_risk":1,"updated_at":"2026-07-05T13:37:38.725723+05:30"},{"city":"Thiruvananthapuram","state":"Kerala","latitude":8.5241,"longitude":76.9366,"temp":28.9,"humidity":75,"rain":0.0,"pressure":1009.0,"uv_index":8.1,"wind_gusts":48.2,"aqi":44,"pm10":33.2,"pm2_5":14.3,"no2":1.1,"co":89.0,"o3":64.0,"so2":0.9,"mosquito_risk":7,"arthritis_risk":0,"migraine_risk":4,"frizz_risk":1,"updated_at":"2026-07-05T13:37:38.725730+05:30"},{"city":"Kozhikode","state":"Kerala","latitude":11.2588,"longitude":75.7804,"temp":29.3,"humidity":75,"rain":0.0,"pressure":1008.7,"uv_index":8.5,"wind_gusts":46.8,"aqi":46,"pm10":30.9,"pm2_5":13.9,"no2":0.4,"co":97.0,"o3":58.0,"so2":0.9,"mosquito_risk":7,"arthritis_risk":0,"migraine_risk":4,"frizz_risk":1,"updated_at":"2026-07-05T13:37:38.725738+05:30"},{"city":"Thrissur","state":"Kerala","latitude":10.5276,"longitude":76.2144,"temp":29.8,"humidity":72,"rain":0.0,"pressure":1007.8,"uv_index":7.55,"wind_gusts":46.1,"aqi":48,"pm10":29.1,"pm2_5":12.9,"no2":0.8,"co":91.0,"o3":57.0,"so2":1.2,"mosquito_risk":7,"arthritis_risk":5,"migraine_risk":4,"frizz_risk":1,"updated_at":"2026-07-05T13:37:38.725746+05:30"},{"city":"Kannur","state":"Kerala","latitude":11.8745,"longitude":75.3704,"temp":29.8,"humidity":73,"rain":0.0,"pressure":1007.7,"uv_index":7.7,"wind_gusts":50.8,"aqi":44,"pm10":30.7,"pm2_5":14.8,"no2":0.4,"co":99.0,"o3":56.0,"so2":0.9,"mosquito_risk":7,"arthritis_risk":5,"migraine_risk":4,"frizz_risk":1,"updated_at":"2026-07-05T13:37:38.725753+05:30"},{"city":"Patna","state":"Bihar","latitude":25.5941,"longitude":85.1376,"temp":35.0,"humidity":57,"rain":0.0,"pressure":989.1,"uv_index":8.05,"wind_gusts":50.0,"aqi":75,"pm10":9.3,"pm2_5":9.1,"no2":2.5,"co":202.0,"o3":133.0,"so2":3.9,"mosquito_risk":0,"arthritis_risk":5,"migraine_risk":7,"frizz_risk":1,"updated_at":"2026-07-05T13:37:38.725761+05:30"},{"city":"Gaya","state":"Bihar","latitude":24.7914,"longitude":85.0002,"temp":34.2,"humidity":58,"rain":0.0,"pressure":981.8,"uv_index":7.5,"wind_gusts":47.5,"aqi":64,"pm10":12.4,"pm2_5":12.1,"no2":1.9,"co":189.0,"o3":123.0,"so2":4.2,"mosquito_risk":0,"arthritis_risk":5,"migraine_risk":7,"frizz_risk":1,"updated_at":"2026-07-05T13:37:38.725768+05:30"},{"city":"Muzaffarpur","state":"Bihar","latitude":26.1209,"longitude":85.3647,"temp":34.3,"humidity":62,"rain":0.0,"pressure":989.5,"uv_index":8.5,"wind_gusts":52.9,"aqi":80,"pm10":8.4,"pm2_5":8.3,"no2":2.4,"co":216.0,"o3":132.0,"so2":3.5,"mosquito_risk":3,"arthritis_risk":5,"migraine_risk":7,"frizz_risk":1,"updated_at":"2026-07-05T13:37:38.725775+05:30"},{"city":"Bhagalpur","state":"Bihar","latitude":25.2425,"longitude":87.0117,"temp":34.5,"humidity":55,"rain":0.1,"pressure":989.3,"uv_index":8.6,"wind_gusts":49.3,"aqi":60,"pm10":6.6,"pm2_5":6.4,"no2":1.8,"co":169.0,"o3":113.0,"so2":5.2,"mosquito_risk":3,"arthritis_risk":5,"migraine_risk":7,"frizz_risk":1,"updated_at":"2026-07-05T13:37:38.725782+05:30"},{"city":"Ranchi","state":"Jharkhand","latitude":23.3441,"longitude":85.3096,"temp":26.1,"humidity":84,"rain":0.0,"pressure":926.0,"uv_index":5.65,"wind_gusts":48.2,"aqi":58,"pm10":11.6,"pm2_5":11.4,"no2":4.9,"co":257.0,"o3":112.0,"so2":12.5,"mosquito_risk":7,"arthritis_risk":5,"migraine_risk":3,"frizz_risk":1,"updated_at":"2026-07-05T13:37:38.725789+05:30"},{"city":"Jamshedpur","state":"Jharkhand","latitude":22.8046,"longitude":86.2029,"temp":26.8,"humidity":93,"rain":0.0,"pressure":977.5,"uv_index":7.0,"wind_gusts":47.9,"aqi":52,"pm10":10.5,"pm2_5":10.3,"no2":3.8,"co":211.0,"o3":101.0,"so2":8.5,"mosquito_risk":7,"arthritis_risk":5,"migraine_risk":7,"frizz_risk":1,"updated_at":"2026-07-05T13:37:38.725796+05:30"},{"city":"Dhanbad","state":"Jharkhand","latitude":23.7957,"longitude":86.4304,"temp":30.9,"humidity":68,"rain":0.1,"pressure":967.2,"uv_index":6.9,"wind_gusts":51.8,"aqi":68,"pm10":14.3,"pm2_5":14.1,"no2":8.5,"co":192.0,"o3":100.0,"so2":26.7,"mosquito_risk":6,"arthritis_risk":5,"migraine_risk":7,"frizz_risk":1,"updated_at":"2026-07-05T13:37:38.725804+05:30"},{"city":"Bokaro","state":"Jharkhand","latitude":23.6693,"longitude":86.1511,"temp":31.0,"humidity":70,"rain":0.0,"pressure":971.1,"uv_index":5.35,"wind_gusts":52.9,"aqi":68,"pm10":14.1,"pm2_5":13.9,"no2":8.9,"co":196.0,"o3":102.0,"so2":28.3,"mosquito_risk":3,"arthritis_risk":5,"migraine_risk":3,"frizz_risk":1,"updated_at":"2026-07-05T13:37:38.725834+05:30"},{"city":"Bhubaneswar","state":"Odisha","latitude":20.2961,"longitude":85.8245,"temp":26.7,"humidity":93,"rain":0.5,"pressure":988.5,"uv_index":2.35,"wind_gusts":44.6,"aqi":48,"pm10":10.9,"pm2_5":10.9,"no2":4.6,"co":208.0,"o3":99.0,"so2":7.1,"mosquito_risk":10,"arthritis_risk":5,"migraine_risk":3,"frizz_risk":1,"updated_at":"2026-07-05T13:37:38.725843+05:30"},{"city":"Cuttack","state":"Odisha","latitude":20.4625,"longitude":85.8828,"temp":26.6,"humidity":93,"rain":1.2,"pressure":990.0,"uv_index":2.45,"wind_gusts":41.0,"aqi":48,"pm10":10.9,"pm2_5":10.9,"no2":4.6,"co":219.0,"o3":99.0,"so2":7.1,"mosquito_risk":10,"arthritis_risk":5,"migraine_risk":3,"frizz_risk":1,"updated_at":"2026-07-05T13:37:38.725850+05:30"},{"city":"Rourkela","state":"Odisha","latitude":22.2604,"longitude":84.8536,"temp":29.4,"humidity":78,"rain":0.1,"pressure":971.4,"uv_index":6.25,"wind_gusts":54.7,"aqi":53,"pm10":10.4,"pm2_5":10.3,"no2":6.6,"co":214.0,"o3":94.0,"so2":12.1,"mosquito_risk":10,"arthritis_risk":5,"migraine_risk":7,"frizz_risk":1,"updated_at":"2026-07-05T13:37:38.725857+05:30"},{"city":"Raipur","state":"Chhattisgarh","latitude":21.2514,"longitude":81.6296,"temp":30.7,"humidity":70,"rain":0.0,"pressure":963.4,"uv_index":5.7,"wind_gusts":42.5,"aqi":72,"pm10":16.6,"pm2_5":16.4,"no2":14.5,"co":255.0,"o3":93.0,"so2":37.6,"mosquito_risk":3,"arthritis_risk":5,"migraine_risk":3,"frizz_risk":1,"updated_at":"2026-07-05T13:37:38.725864+05:30"},{"city":"Bhilai","state":"Chhattisgarh","latitude":21.1938,"longitude":81.3509,"temp":30.9,"humidity":70,"rain":0.0,"pressure":964.1,"uv_index":5.7,"wind_gusts":45.0,"aqi":65,"pm10":12.9,"pm2_5":12.7,"no2":11.7,"co":447.0,"o3":97.0,"so2":29.5,"mosquito_risk":3,"arthritis_risk":5,"migraine_risk":3,"frizz_risk":1,"updated_at":"2026-07-05T13:37:38.725872+05:30"},{"city":"Guwahati","state":"Assam","latitude":26.1158,"longitude":91.7086,"temp":33.8,"humidity":63,"rain":0.0,"pressure":990.9,"uv_index":8.55,"wind_gusts":38.2,"aqi":33,"pm10":5.3,"pm2_5":5.3,"no2":1.0,"co":190.0,"o3":86.0,"so2":1.1,"mosquito_risk":3,"arthritis_risk":5,"migraine_risk":7,"frizz_risk":1,"updated_at":"2026-07-05T13:37:38.725879+05:30"},{"city":"Agartala","state":"Tripura","latitude":23.8315,"longitude":91.2868,"temp":27.4,"humidity":93,"rain":0.3,"pressure":996.3,"uv_index":1.9,"wind_gusts":49.0,"aqi":31,"pm10":4.5,"pm2_5":4.4,"no2":1.5,"co":130.0,"o3":80.0,"so2":0.7,"mosquito_risk":10,"arthritis_risk":5,"migraine_risk":3,"frizz_risk":1,"updated_at":"2026-07-05T13:37:38.725886+05:30"},{"city":"Shillong","state":"Meghalaya","latitude":25.5788,"longitude":91.8933,"temp":23.2,"humidity":90,"rain":0.3,"pressure":852.1,"uv_index":8.2,"wind_gusts":42.5,"aqi":27,"pm10":2.3,"pm2_5":2.2,"no2":0.6,"co":128.0,"o3":68.0,"so2":0.8,"mosquito_risk":6,"arthritis_risk":5,"migraine_risk":7,"frizz_risk":1,"updated_at":"2026-07-05T13:37:38.725894+05:30"},{"city":"Imphal","state":"Manipur","latitude":24.817,"longitude":93.9368,"temp":29.2,"humidity":66,"rain":0.0,"pressure":917.9,"uv_index":6.15,"wind_gusts":36.4,"aqi":23,"pm10":1.1,"pm2_5":1.1,"no2":1.3,"co":131.0,"o3":59.0,"so2":0.9,"mosquito_risk":7,"arthritis_risk":5,"migraine_risk":7,"frizz_risk":1,"updated_at":"2026-07-05T13:37:38.725902+05:30"},{"city":"Aizawl","state":"Mizoram","latitude":23.7271,"longitude":92.7176,"temp":22.7,"humidity":96,"rain":0.5,"pressure":885.9,"uv_index":1.75,"wind_gusts":33.8,"aqi":26,"pm10":2.8,"pm2_5":2.8,"no2":0.9,"co":118.0,"o3":61.0,"so2":0.5,"mosquito_risk":6,"arthritis_risk":5,"migraine_risk":3,"frizz_risk":1,"updated_at":"2026-07-05T13:37:38.725910+05:30"},{"city":"Kohima","state":"Nagaland","latitude":25.6701,"longitude":94.1077,"temp":25.5,"humidity":76,"rain":0.2,"pressure":851.3,"uv_index":8.95,"wind_gusts":32.0,"aqi":27,"pm10":2.1,"pm2_5":2.1,"no2":1.5,"co":134.0,"o3":62.0,"so2":0.5,"mosquito_risk":10,"arthritis_risk":5,"migraine_risk":7,"frizz_risk":1,"updated_at":"2026-07-05T13:37:38.725918+05:30"},{"city":"Gangtok","state":"Sikkim","latitude":27.3314,"longitude":88.6138,"temp":22.6,"humidity":86,"rain":0.2,"pressure":834.2,"uv_index":8.2,"wind_gusts":29.9,"aqi":50,"pm10":4.8,"pm2_5":4.5,"no2":1.0,"co":165.0,"o3":105.0,"so2":0.6,"mosquito_risk":6,"arthritis_risk":5,"migraine_risk":7,"frizz_risk":1,"updated_at":"2026-07-05T13:37:38.725925+05:30"},{"city":"Siliguri","state":"West Bengal","latitude":26.7271,"longitude":88.3953,"temp":32.8,"humidity":65,"rain":0.0,"pressure":983.8,"uv_index":8.75,"wind_gusts":38.9,"aqi":71,"pm10":7.4,"pm2_5":7.0,"no2":1.1,"co":198.0,"o3":114.0,"so2":1.4,"mosquito_risk":3,"arthritis_risk":5,"migraine_risk":7,"frizz_risk":1,"updated_at":"2026-07-05T13:37:42.110782+05:30"},{"city":"Durgapur","state":"West Bengal","latitude":23.5204,"longitude":87.3119,"temp":31.7,"humidity":72,"rain":0.1,"pressure":982.0,"uv_index":6.7,"wind_gusts":50.4,"aqi":58,"pm10":9.7,"pm2_5":9.1,"no2":7.2,"co":213.0,"o3":94.0,"so2":14.6,"mosquito_risk":6,"arthritis_risk":5,"migraine_risk":7,"frizz_risk":1,"updated_at":"2026-07-05T13:37:42.110835+05:30"},{"city":"Asansol","state":"West Bengal","latitude":23.6739,"longitude":86.9524,"temp":31.5,"humidity":71,"rain":0.0,"pressure":980.6,"uv_index":6.8,"wind_gusts":49.3,"aqi":57,"pm10":10.4,"pm2_5":10.1,"no2":6.5,"co":207.0,"o3":102.0,"so2":15.4,"mosquito_risk":3,"arthritis_risk":5,"migraine_risk":7,"frizz_risk":1,"updated_at":"2026-07-05T13:37:42.110848+05:30"},{"city":"Pondicherry","state":"Puducherry","latitude":11.9139,"longitude":79.8145,"temp":35.8,"humidity":40,"rain":0.0,"pressure":1004.3,"uv_index":8.65,"wind_gusts":48.6,"aqi":46,"pm10":23.0,"pm2_5":15.0,"no2":5.1,"co":121.0,"o3":91.0,"so2":12.6,"mosquito_risk":0,"arthritis_risk":5,"migraine_risk":7,"frizz_risk":1,"updated_at":"2026-07-05T13:37:42.110858+05:30"},{"city":"Port Blair","state":"Andaman and Nicobar Islands","latitude":11.6234,"longitude":92.7265,"temp":30.9,"humidity":73,"rain":0.0,"pressure":1005.9,"uv_index":6.4,"wind_gusts":47.2,"aqi":51,"pm10":22.1,"pm2_5":12.8,"no2":0.2,"co":91.0,"o3":49.0,"so2":0.5,"mosquito_risk":3,"arthritis_risk":5,"migraine_risk":4,"frizz_risk":1,"updated_at":"2026-07-05T13:37:42.110866+05:30"},{"city":"Haridwar","state":"Uttarakhand","latitude":29.9457,"longitude":78.1642,"temp":29.1,"humidity":87,"rain":0.1,"pressure":966.4,"uv_index":6.95,"wind_gusts":31.0,"aqi":110,"pm10":26.2,"pm2_5":25.8,"no2":1.4,"co":308.0,"o3":159.0,"so2":7.6,"mosquito_risk":10,"arthritis_risk":5,"migraine_risk":7,"frizz_risk":1,"updated_at":"2026-07-05T13:37:42.110874+05:30"},{"city":"Rishikesh","state":"Uttarakhand","latitude":30.0869,"longitude":78.2676,"temp":31.5,"humidity":67,"rain":0.0,"pressure":959.3,"uv_index":6.95,"wind_gusts":29.5,"aqi":69,"pm10":21.3,"pm2_5":21.0,"no2":1.0,"co":290.0,"o3":151.0,"so2":6.6,"mosquito_risk":3,"arthritis_risk":5,"migraine_risk":7,"frizz_risk":1,"updated_at":"2026-07-05T13:37:42.110882+05:30"},{"city":"Nainital","state":"Uttarakhand","latitude":29.3919,"longitude":79.4542,"temp":20.4,"humidity":88,"rain":0.1,"pressure":802.6,"uv_index":6.35,"wind_gusts":25.9,"aqi":49,"pm10":11.5,"pm2_5":11.1,"no2":1.0,"co":230.0,"o3":125.0,"so2":1.4,"mosquito_risk":6,"arthritis_risk":5,"migraine_risk":7,"frizz_risk":1,"updated_at":"2026-07-05T13:37:42.110890+05:30"},{"city":"Mussoorie","state":"Uttarakhand","latitude":30.4599,"longitude":78.0664,"temp":21.8,"humidity":79,"rain":0.1,"pressure":800.7,"uv_index":6.2,"wind_gusts":32.0,"aqi":99,"pm10":26.7,"pm2_5":26.5,"no2":1.2,"co":275.0,"o3":154.0,"so2":5.1,"mosquito_risk":6,"arthritis_risk":5,"migraine_risk":7,"frizz_risk":1,"updated_at":"2026-07-05T13:37:42.110898+05:30"},{"city":"Dharamshala","state":"Himachal Pradesh","latitude":32.219,"longitude":76.3234,"temp":26.8,"humidity":75,"rain":0.1,"pressure":865.1,"uv_index":8.25,"wind_gusts":36.4,"aqi":49,"pm10":9.5,"pm2_5":8.7,"no2":0.6,"co":264.0,"o3":127.0,"so2":0.8,"mosquito_risk":10,"arthritis_risk":5,"migraine_risk":7,"frizz_risk":1,"updated_at":"2026-07-05T13:37:42.110905+05:30"},{"city":"Dalhousie","state":"Himachal Pradesh","latitude":32.5387,"longitude":75.971,"temp":21.2,"humidity":90,"rain":0.1,"pressure":802.5,"uv_index":8.0,"wind_gusts":21.6,"aqi":90,"pm10":30.0,"pm2_5":25.3,"no2":1.0,"co":292.0,"o3":171.0,"so2":2.3,"mosquito_risk":6,"arthritis_risk":5,"migraine_risk":7,"frizz_risk":1,"updated_at":"2026-07-05T13:37:42.110914+05:30"},{"city":"Patiala","state":"Punjab","latitude":30.3398,"longitude":76.3869,"temp":34.5,"humidity":58,"rain":0.0,"pressure":969.5,"uv_index":7.05,"wind_gusts":20.9,"aqi":169,"pm10":130.4,"pm2_5":71.0,"no2":2.9,"co":337.0,"o3":206.0,"so2":17.1,"mosquito_risk":0,"arthritis_risk":5,"migraine_risk":7,"frizz_risk":1,"updated_at":"2026-07-05T13:37:42.110921+05:30"},{"city":"Bhatinda","state":"Punjab","latitude":30.211,"longitude":74.9455,"temp":36.4,"humidity":50,"rain":0.0,"pressure":974.9,"uv_index":7.45,"wind_gusts":36.0,"aqi":157,"pm10":96.6,"pm2_5":53.6,"no2":2.7,"co":335.0,"o3":200.0,"so2":15.9,"mosquito_risk":0,"arthritis_risk":5,"migraine_risk":10,"frizz_risk":1,"updated_at":"2026-07-05T13:37:42.110929+05:30"},{"city":"Rohtak","state":"Haryana","latitude":28.8955,"longitude":76.6066,"temp":35.0,"humidity":60,"rain":0.0,"pressure":973.0,"uv_index":7.0,"wind_gusts":23.0,"aqi":158,"pm10":64.3,"pm2_5":45.1,"no2":3.8,"co":360.0,"o3":219.0,"so2":17.5,"mosquito_risk":0,"arthritis_risk":5,"migraine_risk":7,"frizz_risk":1,"updated_at":"2026-07-05T13:37:42.110937+05:30"},{"city":"Panipat","state":"Haryana","latitude":29.3909,"longitude":76.9635,"temp":31.8,"humidity":76,"rain":0.0,"pressure":971.8,"uv_index":6.95,"wind_gusts":23.4,"aqi":164,"pm10":60.8,"pm2_5":47.1,"no2":4.6,"co":358.0,"o3":221.0,"so2":25.5,"mosquito_risk":3,"arthritis_risk":5,"migraine_risk":7,"frizz_risk":1,"updated_at":"2026-07-05T13:37:42.110944+05:30"},{"city":"Mathura","state":"Uttar Pradesh","latitude":27.4924,"longitude":77.6737,"temp":31.9,"humidity":77,"rain":0.1,"pressure":978.1,"uv_index":6.8,"wind_gusts":32.0,"aqi":107,"pm10":31.3,"pm2_5":23.6,"no2":1.6,"co":289.0,"o3":155.0,"so2":3.4,"mosquito_risk":6,"arthritis_risk":5,"migraine_risk":7,"frizz_risk":1,"updated_at":"2026-07-05T13:37:42.110952+05:30"},{"city":"Vrindavan","state":"Uttar Pradesh","latitude":27.5823,"longitude":77.7027,"temp":31.8,"humidity":77,"rain":0.0,"pressure":978.7,"uv_index":6.7,"wind_gusts":30.6,"aqi":107,"pm10":31.3,"pm2_5":23.6,"no2":1.6,"co":292.0,"o3":155.0,"so2":3.4,"mosquito_risk":3,"arthritis_risk":5,"migraine_risk":7,"frizz_risk":1,"updated_at":"2026-07-05T13:37:42.110960+05:30"},{"city":"Ayodhya","state":"Uttar Pradesh","latitude":26.7922,"longitude":82.1998,"temp":34.2,"humidity":68,"rain":0.0,"pressure":985.4,"uv_index":8.05,"wind_gusts":41.0,"aqi":100,"pm10":21.4,"pm2_5":21.0,"no2":1.3,"co":260.0,"o3":144.0,"so2":3.4,"mosquito_risk":3,"arthritis_risk":5,"migraine_risk":7,"frizz_risk":1,"updated_at":"2026-07-05T13:37:42.110968+05:30"},{"city":"Ratlam","state":"Madhya Pradesh","latitude":23.3315,"longitude":75.0367,"temp":30.0,"humidity":70,"rain":0.1,"pressure":945.2,"uv_index":8.45,"wind_gusts":27.0,"aqi":52,"pm10":16.4,"pm2_5":14.1,"no2":1.3,"co":190.0,"o3":115.0,"so2":3.6,"mosquito_risk":10,"arthritis_risk":5,"migraine_risk":7,"frizz_risk":1,"updated_at":"2026-07-05T13:37:42.110975+05:30"},{"city":"Sagar","state":"Madhya Pradesh","latitude":23.8388,"longitude":78.7378,"temp":32.3,"humidity":64,"rain":0.0,"pressure":940.7,"uv_index":7.65,"wind_gusts":25.9,"aqi":75,"pm10":11.8,"pm2_5":11.5,"no2":2.5,"co":173.0,"o3":105.0,"so2":2.5,"mosquito_risk":3,"arthritis_risk":5,"migraine_risk":7,"frizz_risk":1,"updated_at":"2026-07-05T13:37:42.110982+05:30"},{"city":"Satna","state":"Madhya Pradesh","latitude":24.6005,"longitude":80.8322,"temp":34.1,"humidity":56,"rain":0.0,"pressure":960.9,"uv_index":8.25,"wind_gusts":31.0,"aqi":59,"pm10":12.7,"pm2_5":12.3,"no2":0.8,"co":165.0,"o3":134.0,"so2":3.1,"mosquito_risk":0,"arthritis_risk":5,"migraine_risk":7,"frizz_risk":1,"updated_at":"2026-07-05T13:37:42.110990+05:30"},{"city":"Akola","state":"Maharashtra","latitude":20.7002,"longitude":77.0082,"temp":31.9,"humidity":61,"rain":0.0,"pressure":965.9,"uv_index":4.55,"wind_gusts":45.7,"aqi":23,"pm10":6.5,"pm2_5":6.1,"no2":2.3,"co":133.0,"o3":83.0,"so2":9.1,"mosquito_risk":3,"arthritis_risk":5,"migraine_risk":3,"frizz_risk":1,"updated_at":"2026-07-05T13:37:42.110998+05:30"},{"city":"Amravati","state":"Maharashtra","latitude":20.9374,"longitude":77.7796,"temp":29.7,"humidity":68,"rain":0.0,"pressure":958.7,"uv_index":4.65,"wind_gusts":37.1,"aqi":22,"pm10":6.3,"pm2_5":6.0,"no2":2.9,"co":141.0,"o3":80.0,"so2":10.7,"mosquito_risk":7,"arthritis_risk":5,"migraine_risk":3,"frizz_risk":1,"updated_at":"2026-07-05T13:37:42.111007+05:30"},{"city":"Latur","state":"Maharashtra","latitude":18.4088,"longitude":76.5604,"temp":24.7,"humidity":90,"rain":0.2,"pressure":933.1,"uv_index":1.25,"wind_gusts":55.4,"aqi":20,"pm10":1.9,"pm2_5":1.8,"no2":1.2,"co":117.0,"o3":59.0,"so2":1.1,"mosquito_risk":6,"arthritis_risk":5,"migraine_risk":3,"frizz_risk":1,"updated_at":"2026-07-05T13:37:42.111014+05:30"},{"city":"Nanded","state":"Maharashtra","latitude":19.1383,"longitude":77.3091,"temp":28.4,"humidity":72,"rain":0.0,"pressure":961.1,"uv_index":6.7,"wind_gusts":49.7,"aqi":22,"pm10":3.0,"pm2_5":3.0,"no2":1.5,"co":114.0,"o3":65.0,"so2":2.9,"mosquito_risk":7,"arthritis_risk":5,"migraine_risk":7,"frizz_risk":1,"updated_at":"2026-07-05T13:37:42.111023+05:30"},{"city":"Gulbarga","state":"Karnataka","latitude":17.3297,"longitude":76.8343,"temp":26.3,"humidity":82,"rain":0.1,"pressure":953.1,"uv_index":4.9,"wind_gusts":63.4,"aqi":22,"pm10":3.3,"pm2_5":2.3,"no2":1.2,"co":102.0,"o3":65.0,"so2":1.8,"mosquito_risk":10,"arthritis_risk":5,"migraine_risk":3,"frizz_risk":1,"updated_at":"2026-07-05T13:37:42.111030+05:30"},{"city":"Bidar","state":"Karnataka","latitude":17.9104,"longitude":77.5199,"temp":26.8,"humidity":74,"rain":0.0,"pressure":929.4,"uv_index":3.0,"wind_gusts":69.1,"aqi":20,"pm10":2.8,"pm2_5":2.2,"no2":1.7,"co":106.0,"o3":57.0,"so2":1.2,"mosquito_risk":7,"arthritis_risk":5,"migraine_risk":3,"frizz_risk":1,"updated_at":"2026-07-05T13:37:42.111037+05:30"},{"city":"Hospet","state":"Karnataka","latitude":15.2689,"longitude":76.3909,"temp":29.8,"humidity":54,"rain":0.1,"pressure":952.5,"uv_index":2.75,"wind_gusts":80.3,"aqi":23,"pm10":6.0,"pm2_5":3.5,"no2":1.2,"co":102.0,"o3":60.0,"so2":1.3,"mosquito_risk":7,"arthritis_risk":5,"migraine_risk":3,"frizz_risk":1,"updated_at":"2026-07-05T13:37:42.111044+05:30"},{"city":"Tirupur","state":"Tamil Nadu","latitude":11.1085,"longitude":77.3411,"temp":30.7,"humidity":56,"rain":0.0,"pressure":973.7,"uv_index":7.55,"wind_gusts":71.6,"aqi":35,"pm10":13.3,"pm2_5":7.1,"no2":1.1,"co":110.0,"o3":75.0,"so2":1.9,"mosquito_risk":0,"arthritis_risk":5,"migraine_risk":7,"frizz_risk":1,"updated_at":"2026-07-05T13:37:42.111051+05:30"},{"city":"Alappuzha","state":"Kerala","latitude":9.4981,"longitude":76.3388,"temp":29.3,"humidity":72,"rain":0.0,"pressure":1009.8,"uv_index":8.3,"wind_gusts":40.0,"aqi":51,"pm10":35.0,"pm2_5":15.7,"no2":1.6,"co":87.0,"o3":60.0,"so2":1.7,"mosquito_risk":7,"arthritis_risk":0,"migraine_risk":4,"frizz_risk":1,"updated_at":"2026-07-05T13:37:42.111058+05:30"},{"city":"Munnar","state":"Kerala","latitude":10.0889,"longitude":77.0595,"temp":17.9,"humidity":86,"rain":0.1,"pressure":857.2,"uv_index":4.05,"wind_gusts":54.7,"aqi":21,"pm10":16.5,"pm2_5":7.8,"no2":1.1,"co":100.0,"o3":61.0,"so2":1.5,"mosquito_risk":6,"arthritis_risk":10,"migraine_risk":3,"frizz_risk":0,"updated_at":"2026-07-05T13:37:42.111067+05:30"},{"city":"Silchar","state":"Assam","latitude":24.8333,"longitude":92.7789,"temp":33.9,"humidity":65,"rain":0.1,"pressure":994.8,"uv_index":8.95,"wind_gusts":40.0,"aqi":41,"pm10":4.1,"pm2_5":4.1,"no2":0.9,"co":190.0,"o3":80.0,"so2":1.4,"mosquito_risk":6,"arthritis_risk":5,"migraine_risk":7,"frizz_risk":1,"updated_at":"2026-07-05T13:37:42.111074+05:30"},{"city":"Dibrugarh","state":"Assam","latitude":27.4728,"longitude":94.912,"temp":36.2,"humidity":54,"rain":0.0,"pressure":985.5,"uv_index":8.95,"wind_gusts":26.3,"aqi":49,"pm10":6.5,"pm2_5":6.4,"no2":0.7,"co":156.0,"o3":103.0,"so2":0.9,"mosquito_risk":0,"arthritis_risk":5,"migraine_risk":10,"frizz_risk":1,"updated_at":"2026-07-05T13:37:42.111081+05:30"}]