[{"city":"Delhi","state":"Delhi","latitude":28.6139,"longitude":77.209,"temp":27.2,"humidity":88,"rain":0.0,"pressure":976.2,"uv_index":6.95,"wind_gusts":37.1,"aqi":102,"pm10":27.4,"pm2_5":27.2,"no2":22.2,"co":397.0,"o3":63.0,"so2":19.0,"mosquito_risk":7,"arthritis_risk":5,"migraine_risk":7,"frizz_risk":1,"updated_at":"2026-07-23T02:40:57.436427+05:30"},{"city":"Mumbai","state":"Maharashtra","latitude":19.076,"longitude":72.8777,"temp":26.3,"humidity":89,"rain":0.5,"pressure":1003.5,"uv_index":0.85,"wind_gusts":68.4,"aqi":57,"pm10":48.2,"pm2_5":19.7,"no2":2.6,"co":100.0,"o3":46.0,"so2":2.3,"mosquito_risk":10,"arthritis_risk":5,"migraine_risk":0,"frizz_risk":1,"updated_at":"2026-07-23T02:40:57.436473+05:30"},{"city":"Bangalore","state":"Karnataka","latitude":12.9716,"longitude":77.5946,"temp":19.9,"humidity":93,"rain":0.0,"pressure":910.6,"uv_index":9.0,"wind_gusts":49.7,"aqi":31,"pm10":7.5,"pm2_5":5.3,"no2":10.6,"co":182.0,"o3":26.0,"so2":4.6,"mosquito_risk":3,"arthritis_risk":10,"migraine_risk":7,"frizz_risk":1,"updated_at":"2026-07-23T02:40:57.436489+05:30"},{"city":"Hyderabad","state":"Telangana","latitude":17.385,"longitude":78.4867,"temp":23.2,"humidity":88,"rain":0.0,"pressure":950.2,"uv_index":7.8,"wind_gusts":59.4,"aqi":37,"pm10":8.7,"pm2_5":5.3,"no2":7.7,"co":132.0,"o3":33.0,"so2":4.4,"mosquito_risk":3,"arthritis_risk":5,"migraine_risk":7,"frizz_risk":1,"updated_at":"2026-07-23T02:40:57.436498+05:30"},{"city":"Chennai","state":"Tamil Nadu","latitude":13.0827,"longitude":80.2707,"temp":27.0,"humidity":89,"rain":0.0,"pressure":1005.8,"uv_index":8.95,"wind_gusts":36.4,"aqi":73,"pm10":27.0,"pm2_5":20.2,"no2":17.0,"co":229.0,"o3":55.0,"so2":8.3,"mosquito_risk":7,"arthritis_risk":5,"migraine_risk":4,"frizz_risk":1,"updated_at":"2026-07-23T02:40:57.436506+05:30"},{"city":"Kolkata","state":"West Bengal","latitude":22.5726,"longitude":88.3639,"temp":24.3,"humidity":96,"rain":0.5,"pressure":1001.8,"uv_index":1.2,"wind_gusts":33.8,"aqi":57,"pm10":19.6,"pm2_5":17.1,"no2":9.8,"co":267.0,"o3":59.0,"so2":6.8,"mosquito_risk":6,"arthritis_risk":5,"migraine_risk":0,"frizz_risk":1,"updated_at":"2026-07-23T02:40:57.436514+05:30"},{"city":"Pune","state":"Maharashtra","latitude":18.5204,"longitude":73.8567,"temp":22.1,"humidity":88,"rain":0.1,"pressure":942.9,"uv_index":1.45,"wind_gusts":58.0,"aqi":37,"pm10":48.4,"pm2_5":20.3,"no2":2.7,"co":106.0,"o3":65.0,"so2":2.4,"mosquito_risk":6,"arthritis_risk":5,"migraine_risk":3,"frizz_risk":1,"updated_at":"2026-07-23T02:40:57.436520+05:30"},{"city":"Ahmedabad","state":"Gujarat","latitude":23.0225,"longitude":72.5714,"temp":26.1,"humidity":97,"rain":0.4,"pressure":992.8,"uv_index":3.95,"wind_gusts":43.9,"aqi":61,"pm10":18.7,"pm2_5":9.7,"no2":7.7,"co":126.0,"o3":37.0,"so2":3.2,"mosquito_risk":10,"arthritis_risk":5,"migraine_risk":3,"frizz_risk":1,"updated_at":"2026-07-23T02:40:57.436526+05:30"},{"city":"Jaipur","state":"Rajasthan","latitude":26.9124,"longitude":75.7873,"temp":25.3,"humidity":95,"rain":0.0,"pressure":951.5,"uv_index":7.3,"wind_gusts":30.6,"aqi":57,"pm10":40.6,"pm2_5":24.9,"no2":14.6,"co":255.0,"o3":72.0,"so2":5.8,"mosquito_risk":7,"arthritis_risk":5,"migraine_risk":7,"frizz_risk":1,"updated_at":"2026-07-23T02:40:57.436533+05:30"},{"city":"Lucknow","state":"Uttar Pradesh","latitude":26.8467,"longitude":80.9462,"temp":26.3,"humidity":91,"rain":0.0,"pressure":986.8,"uv_index":4.2,"wind_gusts":50.0,"aqi":70,"pm10":11.8,"pm2_5":11.8,"no2":7.8,"co":302.0,"o3":80.0,"so2":6.5,"mosquito_risk":7,"arthritis_risk":5,"migraine_risk":3,"frizz_risk":1,"updated_at":"2026-07-23T02:40:57.436543+05:30"},{"city":"Kanpur","state":"Uttar Pradesh","latitude":26.4499,"longitude":80.3319,"temp":26.6,"humidity":90,"rain":0.0,"pressure":984.4,"uv_index":7.6,"wind_gusts":47.9,"aqi":71,"pm10":13.5,"pm2_5":13.5,"no2":8.8,"co":286.0,"o3":78.0,"so2":6.4,"mosquito_risk":7,"arthritis_risk":5,"migraine_risk":7,"frizz_risk":1,"updated_at":"2026-07-23T02:40:57.436552+05:30"},{"city":"Chandigarh","state":"Chandigarh","latitude":30.7333,"longitude":76.7794,"temp":27.5,"humidity":76,"rain":0.0,"pressure":963.5,"uv_index":7.6,"wind_gusts":36.7,"aqi":89,"pm10":34.3,"pm2_5":33.9,"no2":33.7,"co":360.0,"o3":29.0,"so2":6.7,"mosquito_risk":7,"arthritis_risk":5,"migraine_risk":7,"frizz_risk":1,"updated_at":"2026-07-23T02:40:57.436558+05:30"},{"city":"Srinagar","state":"Jammu and Kashmir","latitude":34.0837,"longitude":74.7973,"temp":15.8,"humidity":100,"rain":0.1,"pressure":838.4,"uv_index":8.75,"wind_gusts":24.5,"aqi":64,"pm10":18.0,"pm2_5":17.9,"no2":19.2,"co":441.0,"o3":40.0,"so2":2.6,"mosquito_risk":6,"arthritis_risk":10,"migraine_risk":7,"frizz_risk":0,"updated_at":"2026-07-23T02:40:57.436565+05:30"},{"city":"Jammu","state":"Jammu and Kashmir","latitude":32.7266,"longitude":74.857,"temp":24.3,"humidity":88,"rain":0.1,"pressure":967.1,"uv_index":7.75,"wind_gusts":32.4,"aqi":73,"pm10":45.9,"pm2_5":44.6,"no2":60.1,"co":245.0,"o3":4.0,"so2":5.9,"mosquito_risk":6,"arthritis_risk":5,"migraine_risk":7,"frizz_risk":1,"updated_at":"2026-07-23T02:40:57.436572+05:30"},{"city":"Amritsar","state":"Punjab","latitude":31.634,"longitude":74.8723,"temp":26.1,"humidity":87,"rain":0.0,"pressure":974.7,"uv_index":5.7,"wind_gusts":29.5,"aqi":84,"pm10":32.5,"pm2_5":31.9,"no2":21.8,"co":615.0,"o3":40.0,"so2":5.6,"mosquito_risk":7,"arthritis_risk":5,"migraine_risk":3,"frizz_risk":1,"updated_at":"2026-07-23T02:40:57.436579+05:30"},{"city":"Ludhiana","state":"Punjab","latitude":30.901,"longitude":75.8573,"temp":26.4,"humidity":96,"rain":0.1,"pressure":973.1,"uv_index":6.15,"wind_gusts":37.4,"aqi":103,"pm10":60.8,"pm2_5":59.3,"no2":44.2,"co":696.0,"o3":19.0,"so2":13.0,"mosquito_risk":10,"arthritis_risk":5,"migraine_risk":7,"frizz_risk":1,"updated_at":"2026-07-23T02:40:57.436586+05:30"},{"city":"Jalandhar","state":"Punjab","latitude":31.326,"longitude":75.5762,"temp":26.8,"humidity":95,"rain":0.0,"pressure":973.9,"uv_index":6.9,"wind_gusts":32.8,"aqi":100,"pm10":33.3,"pm2_5":33.1,"no2":26.5,"co":798.0,"o3":36.0,"so2":6.1,"mosquito_risk":7,"arthritis_risk":5,"migraine_risk":7,"frizz_risk":1,"updated_at":"2026-07-23T02:40:57.436592+05:30"},{"city":"Dehradun","state":"Uttarakhand","latitude":30.6284,"longitude":78.0322,"temp":16.4,"humidity":98,"rain":0.0,"pressure":826.3,"uv_index":7.75,"wind_gusts":24.1,"aqi":36,"pm10":5.3,"pm2_5":5.2,"no2":10.2,"co":209.0,"o3":55.0,"so2":0.6,"mosquito_risk":3,"arthritis_risk":10,"migraine_risk":7,"frizz_risk":1,"updated_at":"2026-07-23T02:40:57.436598+05:30"},{"city":"Shimla","state":"Himachal Pradesh","latitude":31.1048,"longitude":77.1734,"temp":15.7,"humidity":87,"rain":0.0,"pressure":781.8,"uv_index":7.2,"wind_gusts":23.4,"aqi":46,"pm10":10.6,"pm2_5":10.4,"no2":16.1,"co":334.0,"o3":50.0,"so2":0.4,"mosquito_risk":3,"arthritis_risk":10,"migraine_risk":7,"frizz_risk":0,"updated_at":"2026-07-23T02:40:57.436607+05:30"},{"city":"Manali","state":"Himachal Pradesh","latitude":32.2396,"longitude":77.1887,"temp":19.1,"humidity":88,"rain":0.1,"pressure":816.8,"uv_index":6.7,"wind_gusts":23.8,"aqi":20,"pm10":1.3,"pm2_5":1.3,"no2":18.2,"co":199.0,"o3":49.0,"so2":0.7,"mosquito_risk":6,"arthritis_risk":10,"migraine_risk":7,"frizz_risk":1,"updated_at":"2026-07-23T02:40:57.436615+05:30"},{"city":"Gurgaon","state":"Haryana","latitude":28.4595,"longitude":77.0266,"temp":27.2,"humidity":88,"rain":0.0,"pressure":974.5,"uv_index":7.0,"wind_gusts":39.2,"aqi":106,"pm10":21.6,"pm2_5":21.5,"no2":19.8,"co":414.0,"o3":65.0,"so2":18.6,"mosquito_risk":7,"arthritis_risk":5,"migraine_risk":7,"frizz_risk":1,"updated_at":"2026-07-23T02:40:57.436621+05:30"},{"city":"Noida","state":"Uttar Pradesh","latitude":28.5355,"longitude":77.391,"temp":27.3,"humidity":87,"rain":0.0,"pressure":977.8,"uv_index":6.95,"wind_gusts":37.8,"aqi":106,"pm10":21.6,"pm2_5":21.5,"no2":19.8,"co":329.0,"o3":65.0,"so2":18.6,"mosquito_risk":7,"arthritis_risk":5,"migraine_risk":7,"frizz_risk":1,"updated_at":"2026-07-23T02:40:57.436627+05:30"},{"city":"Ghaziabad","state":"Uttar Pradesh","latitude":28.6692,"longitude":77.4538,"temp":27.2,"humidity":87,"rain":0.0,"pressure":976.2,"uv_index":7.55,"wind_gusts":40.7,"aqi":88,"pm10":22.6,"pm2_5":22.5,"no2":14.9,"co":316.0,"o3":64.0,"so2":9.7,"mosquito_risk":7,"arthritis_risk":5,"migraine_risk":7,"frizz_risk":1,"updated_at":"2026-07-23T02:40:57.436633+05:30"},{"city":"Faridabad","state":"Haryana","latitude":28.4089,"longitude":77.3178,"temp":27.2,"humidity":88,"rain":0.0,"pressure":977.0,"uv_index":7.05,"wind_gusts":41.0,"aqi":106,"pm10":21.6,"pm2_5":21.5,"no2":19.8,"co":363.0,"o3":65.0,"so2":18.6,"mosquito_risk":7,"arthritis_risk":5,"migraine_risk":7,"frizz_risk":1,"updated_at":"2026-07-23T02:40:57.436639+05:30"},{"city":"Meerut","state":"Uttar Pradesh","latitude":28.9845,"longitude":77.7064,"temp":27.4,"humidity":84,"rain":0.0,"pressure":975.4,"uv_index":7.5,"wind_gusts":43.2,"aqi":88,"pm10":22.6,"pm2_5":22.5,"no2":14.9,"co":299.0,"o3":64.0,"so2":9.7,"mosquito_risk":7,"arthritis_risk":5,"migraine_risk":7,"frizz_risk":1,"updated_at":"2026-07-23T02:40:57.436645+05:30"},{"city":"Agra","state":"Uttar Pradesh","latitude":27.1767,"longitude":78.0081,"temp":27.8,"humidity":81,"rain":0.0,"pressure":980.1,"uv_index":7.15,"wind_gusts":39.6,"aqi":72,"pm10":17.6,"pm2_5":17.6,"no2":12.0,"co":279.0,"o3":76.0,"so2":7.1,"mosquito_risk":7,"arthritis_risk":5,"migraine_risk":7,"frizz_risk":1,"updated_at":"2026-07-23T02:40:57.436652+05:30"},{"city":"Varanasi","state":"Uttar Pradesh","latitude":25.3176,"longitude":82.9739,"temp":25.8,"humidity":95,"rain":0.0,"pressure":990.8,"uv_index":6.25,"wind_gusts":35.3,"aqi":64,"pm10":14.1,"pm2_5":14.1,"no2":24.6,"co":432.0,"o3":26.0,"so2":22.1,"mosquito_risk":7,"arthritis_risk":5,"migraine_risk":7,"frizz_risk":1,"updated_at":"2026-07-23T02:40:57.436658+05:30"},{"city":"Prayagraj","state":"Uttar Pradesh","latitude":25.4358,"longitude":81.8463,"temp":26.1,"humidity":93,"rain":0.0,"pressure":988.3,"uv_index":7.3,"wind_gusts":34.2,"aqi":66,"pm10":18.4,"pm2_5":18.4,"no2":14.4,"co":354.0,"o3":63.0,"so2":13.4,"mosquito_risk":7,"arthritis_risk":5,"migraine_risk":7,"frizz_risk":1,"updated_at":"2026-07-23T02:40:57.436664+05:30"},{"city":"Gorakhpur","state":"Uttar Pradesh","latitude":26.7606,"longitude":83.3732,"temp":26.8,"humidity":88,"rain":0.0,"pressure":991.8,"uv_index":4.6,"wind_gusts":47.9,"aqi":68,"pm10":15.2,"pm2_5":15.2,"no2":10.4,"co":300.0,"o3":64.0,"so2":6.6,"mosquito_risk":7,"arthritis_risk":5,"migraine_risk":3,"frizz_risk":1,"updated_at":"2026-07-23T02:40:57.436670+05:30"},{"city":"Bareilly","state":"Uttar Pradesh","latitude":28.367,"longitude":79.4304,"temp":27.7,"humidity":80,"rain":0.0,"pressure":980.9,"uv_index":5.4,"wind_gusts":49.3,"aqi":75,"pm10":17.5,"pm2_5":17.4,"no2":11.6,"co":293.0,"o3":63.0,"so2":5.3,"mosquito_risk":7,"arthritis_risk":5,"migraine_risk":3,"frizz_risk":1,"updated_at":"2026-07-23T02:40:57.436678+05:30"},{"city":"Aligarh","state":"Uttar Pradesh","latitude":27.8974,"longitude":78.088,"temp":27.2,"humidity":87,"rain":0.0,"pressure":978.6,"uv_index":7.1,"wind_gusts":43.6,"aqi":81,"pm10":17.1,"pm2_5":17.1,"no2":13.4,"co":301.0,"o3":72.0,"so2":11.7,"mosquito_risk":7,"arthritis_risk":5,"migraine_risk":7,"frizz_risk":1,"updated_at":"2026-07-23T02:40:57.436684+05:30"},{"city":"Moradabad","state":"Uttar Pradesh","latitude":28.8386,"longitude":78.7733,"temp":27.9,"humidity":79,"rain":0.0,"pressure":978.0,"uv_index":7.35,"wind_gusts":49.0,"aqi":75,"pm10":18.9,"pm2_5":18.7,"no2":11.3,"co":287.0,"o3":67.0,"so2":6.2,"mosquito_risk":7,"arthritis_risk":5,"migraine_risk":7,"frizz_risk":1,"updated_at":"2026-07-23T02:40:57.436691+05:30"},{"city":"Saharanpur","state":"Uttar Pradesh","latitude":29.9637,"longitude":77.546,"temp":27.6,"humidity":81,"rain":0.0,"pressure":970.2,"uv_index":7.3,"wind_gusts":41.0,"aqi":83,"pm10":35.0,"pm2_5":34.8,"no2":24.5,"co":475.0,"o3":32.0,"so2":7.6,"mosquito_risk":7,"arthritis_risk":5,"migraine_risk":7,"frizz_risk":1,"updated_at":"2026-07-23T02:40:57.436697+05:30"},{"city":"Jhansi","state":"Uttar Pradesh","latitude":25.4484,"longitude":78.5685,"temp":25.6,"humidity":97,"rain":0.0,"pressure":969.4,"uv_index":7.45,"wind_gusts":28.4,"aqi":57,"pm10":14.8,"pm2_5":14.8,"no2":10.1,"co":250.0,"o3":78.0,"so2":5.1,"mosquito_risk":7,"arthritis_risk":5,"migraine_risk":7,"frizz_risk":1,"updated_at":"2026-07-23T02:41:00.845209+05:30"},{"city":"Surat","state":"Gujarat","latitude":21.1702,"longitude":72.8311,"temp":26.2,"humidity":95,"rain":0.2,"pressure":998.3,"uv_index":1.55,"wind_gusts":50.8,"aqi":74,"pm10":12.9,"pm2_5":10.1,"no2":16.3,"co":217.0,"o3":30.0,"so2":25.4,"mosquito_risk":10,"arthritis_risk":5,"migraine_risk":3,"frizz_risk":1,"updated_at":"2026-07-23T02:41:00.845248+05:30"},{"city":"Vadodara","state":"Gujarat","latitude":22.3072,"longitude":73.1812,"temp":25.7,"humidity":98,"rain":0.2,"pressure":995.4,"uv_index":1.05,"wind_gusts":42.8,"aqi":63,"pm10":21.0,"pm2_5":12.3,"no2":10.8,"co":171.0,"o3":42.0,"so2":4.3,"mosquito_risk":10,"arthritis_risk":5,"migraine_risk":3,"frizz_risk":1,"updated_at":"2026-07-23T02:41:00.845262+05:30"},{"city":"Rajkot","state":"Gujarat","latitude":22.3039,"longitude":70.8022,"temp":26.6,"humidity":86,"rain":0.0,"pressure":985.4,"uv_index":1.7,"wind_gusts":56.5,"aqi":61,"pm10":22.1,"pm2_5":11.1,"no2":5.0,"co":92.0,"o3":38.0,"so2":4.7,"mosquito_risk":7,"arthritis_risk":5,"migraine_risk":3,"frizz_risk":1,"updated_at":"2026-07-23T02:41:00.845272+05:30"},{"city":"Thane","state":"Maharashtra","latitude":19.2183,"longitude":72.9781,"temp":25.1,"humidity":95,"rain":0.7,"pressure":1002.7,"uv_index":0.55,"wind_gusts":45.0,"aqi":57,"pm10":48.2,"pm2_5":19.7,"no2":2.6,"co":107.0,"o3":46.0,"so2":2.3,"mosquito_risk":10,"arthritis_risk":5,"migraine_risk":0,"frizz_risk":1,"updated_at":"2026-07-23T02:41:00.845281+05:30"},{"city":"Nagpur","state":"Maharashtra","latitude":21.1458,"longitude":79.0882,"temp":24.2,"humidity":92,"rain":0.1,"pressure":967.0,"uv_index":5.4,"wind_gusts":55.1,"aqi":29,"pm10":6.8,"pm2_5":5.5,"no2":10.2,"co":167.0,"o3":35.0,"so2":10.1,"mosquito_risk":6,"arthritis_risk":5,"migraine_risk":3,"frizz_risk":1,"updated_at":"2026-07-23T02:41:00.845290+05:30"},{"city":"Nashik","state":"Maharashtra","latitude":19.9975,"longitude":73.7898,"temp":22.4,"humidity":96,"rain":0.2,"pressure":938.2,"uv_index":1.35,"wind_gusts":63.7,"aqi":17,"pm10":0.6,"pm2_5":0.6,"no2":5.7,"co":104.0,"o3":38.0,"so2":4.5,"mosquito_risk":6,"arthritis_risk":5,"migraine_risk":3,"frizz_risk":1,"updated_at":"2026-07-23T02:41:00.845299+05:30"},{"city":"Aurangabad","state":"Maharashtra","latitude":19.8762,"longitude":75.3433,"temp":22.4,"humidity":90,"rain":0.0,"pressure":937.9,"uv_index":3.65,"wind_gusts":66.6,"aqi":19,"pm10":1.4,"pm2_5":1.3,"no2":3.6,"co":115.0,"o3":44.0,"so2":2.4,"mosquito_risk":3,"arthritis_risk":5,"migraine_risk":3,"frizz_risk":1,"updated_at":"2026-07-23T02:41:00.845308+05:30"},{"city":"Solapur","state":"Maharashtra","latitude":17.6599,"longitude":75.9064,"temp":24.0,"humidity":82,"rain":0.0,"pressure":953.7,"uv_index":5.3,"wind_gusts":64.1,"aqi":28,"pm10":31.3,"pm2_5":13.4,"no2":4.0,"co":113.0,"o3":50.0,"so2":2.1,"mosquito_risk":3,"arthritis_risk":5,"migraine_risk":3,"frizz_risk":1,"updated_at":"2026-07-23T02:41:00.845318+05:30"},{"city":"Kolhapur","state":"Maharashtra","latitude":16.705,"longitude":74.2433,"temp":22.0,"humidity":93,"rain":0.0,"pressure":945.0,"uv_index":5.55,"wind_gusts":54.4,"aqi":25,"pm10":14.4,"pm2_5":6.9,"no2":2.8,"co":111.0,"o3":43.0,"so2":1.5,"mosquito_risk":3,"arthritis_risk":5,"migraine_risk":3,"frizz_risk":1,"updated_at":"2026-07-23T02:41:00.845327+05:30"},{"city":"Goa","state":"Goa","latitude":15.2993,"longitude":74.124,"temp":23.2,"humidity":98,"rain":0.5,"pressure":997.4,"uv_index":3.95,"wind_gusts":43.2,"aqi":56,"pm10":21.4,"pm2_5":11.1,"no2":1.9,"co":223.0,"o3":39.0,"so2":0.6,"mosquito_risk":6,"arthritis_risk":5,"migraine_risk":3,"frizz_risk":1,"updated_at":"2026-07-23T02:41:00.845335+05:30"},{"city":"Jodhpur","state":"Rajasthan","latitude":26.2389,"longitude":73.0243,"temp":25.7,"humidity":98,"rain":0.0,"pressure":973.5,"uv_index":8.15,"wind_gusts":31.3,"aqi":87,"pm10":68.9,"pm2_5":23.3,"no2":7.6,"co":170.0,"o3":67.0,"so2":1.5,"mosquito_risk":7,"arthritis_risk":5,"migraine_risk":7,"frizz_risk":1,"updated_at":"2026-07-23T02:41:00.845344+05:30"},{"city":"Udaipur","state":"Rajasthan","latitude":24.5854,"longitude":73.7125,"temp":23.7,"humidity":98,"rain":1.0,"pressure":936.8,"uv_index":8.65,"wind_gusts":27.7,"aqi":52,"pm10":4.7,"pm2_5":2.8,"no2":4.2,"co":149.0,"o3":67.0,"so2":1.7,"mosquito_risk":6,"arthritis_risk":5,"migraine_risk":7,"frizz_risk":1,"updated_at":"2026-07-23T02:41:00.845353+05:30"},{"city":"Kota","state":"Rajasthan","latitude":25.2138,"longitude":75.8648,"temp":25.5,"humidity":96,"rain":0.0,"pressure":969.6,"uv_index":7.8,"wind_gusts":28.4,"aqi":50,"pm10":11.0,"pm2_5":10.6,"no2":11.8,"co":276.0,"o3":74.0,"so2":7.7,"mosquito_risk":7,"arthritis_risk":5,"migraine_risk":7,"frizz_risk":1,"updated_at":"2026-07-23T02:41:00.845362+05:30"},{"city":"Bikaner","state":"Rajasthan","latitude":28.0229,"longitude":73.3119,"temp":27.1,"humidity":93,"rain":0.0,"pressure":973.2,"uv_index":7.15,"wind_gusts":27.0,"aqi":61,"pm10":10.3,"pm2_5":10.2,"no2":4.7,"co":231.0,"o3":97.0,"so2":3.3,"mosquito_risk":7,"arthritis_risk":5,"migraine_risk":7,"frizz_risk":1,"updated_at":"2026-07-23T02:41:00.845370+05:30"},{"city":"Ajmer","state":"Rajasthan","latitude":26.4499,"longitude":74.6399,"temp":24.7,"humidity":96,"rain":0.0,"pressure":946.0,"uv_index":7.35,"wind_gusts":32.8,"aqi":54,"pm10":11.3,"pm2_5":10.9,"no2":11.6,"co":223.0,"o3":74.0,"so2":2.7,"mosquito_risk":3,"arthritis_risk":5,"migraine_risk":7,"frizz_risk":1,"updated_at":"2026-07-23T02:41:00.845379+05:30"},{"city":"Gwalior","state":"Madhya Pradesh","latitude":26.2183,"longitude":78.1828,"temp":26.3,"humidity":92,"rain":0.0,"pressure":975.0,"uv_index":6.15,"wind_gusts":28.4,"aqi":56,"pm10":14.6,"pm2_5":14.1,"no2":8.7,"co":289.0,"o3":89.0,"so2":6.8,"mosquito_risk":7,"arthritis_risk":5,"migraine_risk":7,"frizz_risk":1,"updated_at":"2026-07-23T02:41:00.845387+05:30"},{"city":"Indore","state":"Madhya Pradesh","latitude":22.7196,"longitude":75.8577,"temp":23.7,"humidity":97,"rain":0.2,"pressure":939.4,"uv_index":2.1,"wind_gusts":52.9,"aqi":47,"pm10":11.2,"pm2_5":9.8,"no2":11.2,"co":215.0,"o3":44.0,"so2":8.4,"mosquito_risk":6,"arthritis_risk":5,"migraine_risk":3,"frizz_risk":1,"updated_at":"2026-07-23T02:41:00.845396+05:30"},{"city":"Bhopal","state":"Madhya Pradesh","latitude":23.2599,"longitude":77.4126,"temp":23.7,"humidity":97,"rain":0.2,"pressure":945.0,"uv_index":5.1,"wind_gusts":33.8,"aqi":36,"pm10":7.3,"pm2_5":6.8,"no2":7.9,"co":168.0,"o3":50.0,"so2":3.8,"mosquito_risk":6,"arthritis_risk":5,"migraine_risk":3,"frizz_risk":1,"updated_at":"2026-07-23T02:41:00.845404+05:30"},{"city":"Jabalpur","state":"Madhya Pradesh","latitude":23.1815,"longitude":79.9864,"temp":24.0,"humidity":98,"rain":0.1,"pressure":953.6,"uv_index":1.15,"wind_gusts":36.7,"aqi":28,"pm10":5.2,"pm2_5":5.1,"no2":7.1,"co":164.0,"o3":52.0,"so2":4.8,"mosquito_risk":6,"arthritis_risk":5,"migraine_risk":3,"frizz_risk":1,"updated_at":"2026-07-23T02:41:00.845413+05:30"},{"city":"Ujjain","state":"Madhya Pradesh","latitude":23.1765,"longitude":75.7885,"temp":23.1,"humidity":97,"rain":0.4,"pressure":944.9,"uv_index":2.65,"wind_gusts":43.9,"aqi":45,"pm10":11.4,"pm2_5":10.2,"no2":9.1,"co":223.0,"o3":48.0,"so2":8.7,"mosquito_risk":6,"arthritis_risk":5,"migraine_risk":3,"frizz_risk":1,"updated_at":"2026-07-23T02:41:00.845422+05:30"},{"city":"Visakhapatnam","state":"Andhra Pradesh","latitude":17.6868,"longitude":83.2185,"temp":27.3,"humidity":78,"rain":0.0,"pressure":1000.3,"uv_index":8.1,"wind_gusts":41.8,"aqi":64,"pm10":20.0,"pm2_5":15.8,"no2":17.0,"co":244.0,"o3":43.0,"so2":26.8,"mosquito_risk":7,"arthritis_risk":5,"migraine_risk":4,"frizz_risk":1,"updated_at":"2026-07-23T02:41:00.845431+05:30"},{"city":"Vijayawada","state":"Andhra Pradesh","latitude":16.5062,"longitude":80.648,"temp":28.1,"humidity":71,"rain":0.0,"pressure":1000.2,"uv_index":7.45,"wind_gusts":38.2,"aqi":55,"pm10":16.6,"pm2_5":9.7,"no2":7.9,"co":185.0,"o3":37.0,"so2":6.1,"mosquito_risk":7,"arthritis_risk":5,"migraine_risk":4,"frizz_risk":1,"updated_at":"2026-07-23T02:41:00.845440+05:30"},{"city":"Guntur","state":"Andhra Pradesh","latitude":16.3067,"longitude":80.4365,"temp":28.2,"humidity":70,"rain":0.0,"pressure":1001.6,"uv_index":8.2,"wind_gusts":43.6,"aqi":52,"pm10":14.4,"pm2_5":8.9,"no2":8.6,"co":149.0,"o3":35.0,"so2":6.4,"mosquito_risk":7,"arthritis_risk":5,"migraine_risk":4,"frizz_risk":1,"updated_at":"2026-07-23T02:41:00.845449+05:30"},{"city":"Nellore","state":"Andhra Pradesh","latitude":14.4426,"longitude":79.9865,"temp":27.3,"humidity":74,"rain":0.0,"pressure":1004.3,"uv_index":8.95,"wind_gusts":38.2,"aqi":61,"pm10":16.8,"pm2_5":11.4,"no2":12.2,"co":177.0,"o3":33.0,"so2":4.1,"mosquito_risk":7,"arthritis_risk":5,"migraine_risk":4,"frizz_risk":1,"updated_at":"2026-07-23T02:41:00.845458+05:30"},{"city":"Kurnool","state":"Andhra Pradesh","latitude":15.8281,"longitude":78.0373,"temp":25.7,"humidity":74,"rain":0.0,"pressure":975.3,"uv_index":8.75,"wind_gusts":48.2,"aqi":33,"pm10":4.4,"pm2_5":3.3,"no2":7.3,"co":116.0,"o3":30.0,"so2":4.0,"mosquito_risk":7,"arthritis_risk":5,"migraine_risk":7,"frizz_risk":1,"updated_at":"2026-07-23T02:41:00.845468+05:30"},{"city":"Kakinada","state":"Andhra Pradesh","latitude":16.9891,"longitude":82.2475,"temp":28.0,"humidity":73,"rain":0.0,"pressure":1004.8,"uv_index":8.3,"wind_gusts":48.2,"aqi":61,"pm10":25.4,"pm2_5":17.9,"no2":5.3,"co":183.0,"o3":82.0,"so2":4.8,"mosquito_risk":7,"arthritis_risk":5,"migraine_risk":4,"frizz_risk":1,"updated_at":"2026-07-23T02:41:00.845477+05:30"},{"city":"Tirupati","state":"Andhra Pradesh","latitude":13.6288,"longitude":79.4192,"temp":25.5,"humidity":95,"rain":0.0,"pressure":989.9,"uv_index":8.65,"wind_gusts":35.3,"aqi":61,"pm10":19.4,"pm2_5":16.5,"no2":24.1,"co":186.0,"o3":10.0,"so2":2.8,"mosquito_risk":7,"arthritis_risk":5,"migraine_risk":7,"frizz_risk":1,"updated_at":"2026-07-23T02:41:00.845485+05:30"},{"city":"Warangal","state":"Telangana","latitude":17.9689,"longitude":79.5941,"temp":24.1,"humidity":89,"rain":0.0,"pressure":975.5,"uv_index":7.35,"wind_gusts":47.5,"aqi":49,"pm10":9.4,"pm2_5":7.6,"no2":10.0,"co":198.0,"o3":31.0,"so2":3.8,"mosquito_risk":3,"arthritis_risk":5,"migraine_risk":7,"frizz_risk":1,"updated_at":"2026-07-23T02:41:00.845493+05:30"},{"city":"Nizamabad","state":"Telangana","latitude":18.6725,"longitude":78.0941,"temp":22.8,"humidity":93,"rain":0.1,"pressure":960.5,"uv_index":3.5,"wind_gusts":62.6,"aqi":37,"pm10":28.9,"pm2_5":13.0,"no2":5.0,"co":134.0,"o3":43.0,"so2":2.6,"mosquito_risk":6,"arthritis_risk":5,"migraine_risk":3,"frizz_risk":1,"updated_at":"2026-07-23T02:41:00.845502+05:30"},{"city":"Mysore","state":"Karnataka","latitude":12.2958,"longitude":76.6396,"temp":20.4,"humidity":97,"rain":0.0,"pressure":927.7,"uv_index":8.7,"wind_gusts":50.4,"aqi":23,"pm10":6.8,"pm2_5":4.4,"no2":6.9,"co":116.0,"o3":28.0,"so2":2.0,"mosquito_risk":3,"arthritis_risk":5,"migraine_risk":7,"frizz_risk":1,"updated_at":"2026-07-23T02:41:00.845510+05:30"},{"city":"Mangalore","state":"Karnataka","latitude":12.9141,"longitude":74.856,"temp":24.2,"humidity":97,"rain":0.1,"pressure":1007.1,"uv_index":8.8,"wind_gusts":44.3,"aqi":47,"pm10":13.5,"pm2_5":8.0,"no2":7.7,"co":205.0,"o3":27.0,"so2":2.7,"mosquito_risk":6,"arthritis_risk":5,"migraine_risk":4,"frizz_risk":1,"updated_at":"2026-07-23T02:41:00.845519+05:30"},{"city":"Hubli-Dharwad","state":"Karnataka","latitude":15.3647,"longitude":75.124,"temp":21.1,"humidity":97,"rain":0.0,"pressure":939.0,"uv_index":5.2,"wind_gusts":55.8,"aqi":17,"pm10":2.1,"pm2_5":1.3,"no2":2.2,"co":103.0,"o3":37.0,"so2":0.9,"mosquito_risk":3,"arthritis_risk":5,"migraine_risk":3,"frizz_risk":1,"updated_at":"2026-07-23T02:41:00.845528+05:30"},{"city":"Belgaum","state":"Karnataka","latitude":15.8497,"longitude":74.4977,"temp":20.6,"humidity":98,"rain":0.0,"pressure":923.1,"uv_index":5.9,"wind_gusts":50.4,"aqi":18,"pm10":2.7,"pm2_5":1.7,"no2":2.4,"co":95.0,"o3":37.0,"so2":1.1,"mosquito_risk":3,"arthritis_risk":5,"migraine_risk":3,"frizz_risk":1,"updated_at":"2026-07-23T02:41:04.249564+05:30"},{"city":"Coimbatore","state":"Tamil Nadu","latitude":11.0168,"longitude":76.9558,"temp":22.8,"humidity":94,"rain":0.0,"pressure":961.1,"uv_index":8.95,"wind_gusts":51.5,"aqi":32,"pm10":8.5,"pm2_5":6.3,"no2":8.5,"co":172.0,"o3":23.0,"so2":3.0,"mosquito_risk":3,"arthritis_risk":5,"migraine_risk":7,"frizz_risk":1,"updated_at":"2026-07-23T02:41:04.249598+05:30"},{"city":"Madurai","state":"Tamil Nadu","latitude":9.9252,"longitude":78.1198,"temp":28.6,"humidity":67,"rain":0.0,"pressure":992.5,"uv_index":8.7,"wind_gusts":29.9,"aqi":70,"pm10":17.6,"pm2_5":13.3,"no2":14.5,"co":128.0,"o3":38.0,"so2":5.6,"mosquito_risk":7,"arthritis_risk":5,"migraine_risk":7,"frizz_risk":1,"updated_at":"2026-07-23T02:41:04.249612+05:30"},{"city":"Trichy","state":"Tamil Nadu","latitude":10.7905,"longitude":78.7047,"temp":28.4,"humidity":66,"rain":0.0,"pressure":999.1,"uv_index":8.1,"wind_gusts":45.4,"aqi":57,"pm10":19.6,"pm2_5":16.1,"no2":18.3,"co":125.0,"o3":26.0,"so2":5.2,"mosquito_risk":7,"arthritis_risk":5,"migraine_risk":7,"frizz_risk":1,"updated_at":"2026-07-23T02:41:04.249622+05:30"},{"city":"Salem","state":"Tamil Nadu","latitude":11.6643,"longitude":78.146,"temp":25.7,"humidity":87,"rain":0.0,"pressure":976.9,"uv_index":8.9,"wind_gusts":27.7,"aqi":63,"pm10":19.5,"pm2_5":16.5,"no2":25.5,"co":469.0,"o3":18.0,"so2":10.1,"mosquito_risk":7,"arthritis_risk":5,"migraine_risk":7,"frizz_risk":1,"updated_at":"2026-07-23T02:41:04.249632+05:30"},{"city":"Tirunelveli","state":"Tamil Nadu","latitude":8.7139,"longitude":77.7567,"temp":28.4,"humidity":69,"rain":0.0,"pressure":1002.9,"uv_index":7.9,"wind_gusts":49.0,"aqi":41,"pm10":8.4,"pm2_5":7.1,"no2":9.2,"co":140.0,"o3":28.0,"so2":3.0,"mosquito_risk":7,"arthritis_risk":5,"migraine_risk":4,"frizz_risk":1,"updated_at":"2026-07-23T02:41:04.249641+05:30"},{"city":"Vellore","state":"Tamil Nadu","latitude":12.9165,"longitude":79.1325,"temp":26.0,"humidity":92,"rain":0.0,"pressure":983.5,"uv_index":8.75,"wind_gusts":39.2,"aqi":58,"pm10":9.7,"pm2_5":7.9,"no2":14.3,"co":194.0,"o3":23.0,"so2":4.2,"mosquito_risk":7,"arthritis_risk":5,"migraine_risk":7,"frizz_risk":1,"updated_at":"2026-07-23T02:41:04.249650+05:30"},{"city":"Erode","state":"Tamil Nadu","latitude":11.341,"longitude":77.7172,"temp":26.4,"humidity":75,"rain":0.0,"pressure":988.7,"uv_index":8.8,"wind_gusts":39.6,"aqi":52,"pm10":14.4,"pm2_5":12.4,"no2":17.8,"co":173.0,"o3":21.0,"so2":4.6,"mosquito_risk":7,"arthritis_risk":5,"migraine_risk":7,"frizz_risk":1,"updated_at":"2026-07-23T02:41:04.249660+05:30"},{"city":"Kochi","state":"Kerala","latitude":9.9312,"longitude":76.2673,"temp":25.6,"humidity":94,"rain":0.0,"pressure":1009.1,"uv_index":7.75,"wind_gusts":27.7,"aqi":59,"pm10":19.6,"pm2_5":17.9,"no2":21.7,"co":218.0,"o3":9.0,"so2":6.3,"mosquito_risk":7,"arthritis_risk":0,"migraine_risk":4,"frizz_risk":1,"updated_at":"2026-07-23T02:41:04.249669+05:30"},{"city":"Thiruvananthapuram","state":"Kerala","latitude":8.5241,"longitude":76.9366,"temp":24.7,"humidity":95,"rain":0.0,"pressure":1008.5,"uv_index":7.0,"wind_gusts":40.3,"aqi":48,"pm10":9.6,"pm2_5":6.5,"no2":4.8,"co":175.0,"o3":39.0,"so2":2.6,"mosquito_risk":3,"arthritis_risk":0,"migraine_risk":4,"frizz_risk":1,"updated_at":"2026-07-23T02:41:04.249677+05:30"},{"city":"Kozhikode","state":"Kerala","latitude":11.2588,"longitude":75.7804,"temp":25.0,"humidity":91,"rain":0.0,"pressure":1008.2,"uv_index":8.5,"wind_gusts":36.0,"aqi":32,"pm10":12.2,"pm2_5":5.8,"no2":2.2,"co":279.0,"o3":41.0,"so2":1.4,"mosquito_risk":7,"arthritis_risk":0,"migraine_risk":4,"frizz_risk":1,"updated_at":"2026-07-23T02:41:04.249686+05:30"},{"city":"Thrissur","state":"Kerala","latitude":10.5276,"longitude":76.2144,"temp":23.6,"humidity":99,"rain":0.0,"pressure":1007.5,"uv_index":8.65,"wind_gusts":32.8,"aqi":58,"pm10":18.8,"pm2_5":16.8,"no2":15.2,"co":294.0,"o3":13.0,"so2":4.1,"mosquito_risk":3,"arthritis_risk":5,"migraine_risk":4,"frizz_risk":1,"updated_at":"2026-07-23T02:41:04.249695+05:30"},{"city":"Kannur","state":"Kerala","latitude":11.8745,"longitude":75.3704,"temp":23.5,"humidity":99,"rain":0.3,"pressure":1008.1,"uv_index":8.5,"wind_gusts":34.2,"aqi":43,"pm10":11.6,"pm2_5":8.3,"no2":13.6,"co":164.0,"o3":18.0,"so2":2.9,"mosquito_risk":6,"arthritis_risk":0,"migraine_risk":4,"frizz_risk":1,"updated_at":"2026-07-23T02:41:04.249703+05:30"},{"city":"Patna","state":"Bihar","latitude":25.5941,"longitude":85.1376,"temp":25.7,"humidity":95,"rain":0.0,"pressure":994.9,"uv_index":7.1,"wind_gusts":36.7,"aqi":58,"pm10":19.3,"pm2_5":19.3,"no2":15.3,"co":255.0,"o3":57.0,"so2":13.7,"mosquito_risk":7,"arthritis_risk":5,"migraine_risk":7,"frizz_risk":1,"updated_at":"2026-07-23T02:41:04.249712+05:30"},{"city":"Gaya","state":"Bihar","latitude":24.7914,"longitude":85.0002,"temp":25.9,"humidity":93,"rain":0.0,"pressure":987.8,"uv_index":7.6,"wind_gusts":23.4,"aqi":52,"pm10":11.3,"pm2_5":11.1,"no2":19.7,"co":314.0,"o3":24.0,"so2":14.2,"mosquito_risk":7,"arthritis_risk":5,"migraine_risk":7,"frizz_risk":1,"updated_at":"2026-07-23T02:41:04.249720+05:30"},{"city":"Muzaffarpur","state":"Bihar","latitude":26.1209,"longitude":85.3647,"temp":25.4,"humidity":93,"rain":0.0,"pressure":995.5,"uv_index":6.7,"wind_gusts":45.0,"aqi":61,"pm10":17.5,"pm2_5":17.5,"no2":12.9,"co":302.0,"o3":59.0,"so2":9.6,"mosquito_risk":7,"arthritis_risk":5,"migraine_risk":7,"frizz_risk":1,"updated_at":"2026-07-23T02:41:04.249729+05:30"},{"city":"Bhagalpur","state":"Bihar","latitude":25.2425,"longitude":87.0117,"temp":25.8,"humidity":94,"rain":0.0,"pressure":996.6,"uv_index":7.4,"wind_gusts":35.6,"aqi":57,"pm10":19.6,"pm2_5":19.6,"no2":15.3,"co":244.0,"o3":48.0,"so2":13.5,"mosquito_risk":7,"arthritis_risk":5,"migraine_risk":7,"frizz_risk":1,"updated_at":"2026-07-23T02:41:04.249737+05:30"},{"city":"Ranchi","state":"Jharkhand","latitude":23.3441,"longitude":85.3096,"temp":22.3,"humidity":96,"rain":0.0,"pressure":932.0,"uv_index":5.8,"wind_gusts":38.9,"aqi":29,"pm10":3.1,"pm2_5":2.9,"no2":7.0,"co":153.0,"o3":42.0,"so2":7.2,"mosquito_risk":3,"arthritis_risk":5,"migraine_risk":3,"frizz_risk":1,"updated_at":"2026-07-23T02:41:04.249746+05:30"},{"city":"Jamshedpur","state":"Jharkhand","latitude":22.8046,"longitude":86.2029,"temp":24.5,"humidity":95,"rain":0.0,"pressure":986.0,"uv_index":8.35,"wind_gusts":35.6,"aqi":61,"pm10":18.5,"pm2_5":17.6,"no2":23.5,"co":217.0,"o3":29.0,"so2":22.5,"mosquito_risk":3,"arthritis_risk":5,"migraine_risk":7,"frizz_risk":1,"updated_at":"2026-07-23T02:41:04.249755+05:30"},{"city":"Dhanbad","state":"Jharkhand","latitude":23.7957,"longitude":86.4304,"temp":24.8,"humidity":97,"rain":0.0,"pressure":974.7,"uv_index":6.4,"wind_gusts":32.0,"aqi":80,"pm10":32.1,"pm2_5":31.5,"no2":44.0,"co":1378.0,"o3":11.0,"so2":100.3,"mosquito_risk":3,"arthritis_risk":5,"migraine_risk":7,"frizz_risk":1,"updated_at":"2026-07-23T02:41:04.249763+05:30"},{"city":"Bokaro","state":"Jharkhand","latitude":23.6693,"longitude":86.1511,"temp":25.1,"humidity":92,"rain":0.0,"pressure":978.5,"uv_index":6.85,"wind_gusts":36.4,"aqi":73,"pm10":20.1,"pm2_5":19.7,"no2":25.7,"co":539.0,"o3":26.0,"so2":67.6,"mosquito_risk":7,"arthritis_risk":5,"migraine_risk":7,"frizz_risk":1,"updated_at":"2026-07-23T02:41:04.249771+05:30"},{"city":"Bhubaneswar","state":"Odisha","latitude":20.2961,"longitude":85.8245,"temp":26.5,"humidity":94,"rain":0.0,"pressure":998.4,"uv_index":8.65,"wind_gusts":41.8,"aqi":63,"pm10":18.2,"pm2_5":14.4,"no2":8.5,"co":239.0,"o3":62.0,"so2":9.7,"mosquito_risk":7,"arthritis_risk":5,"migraine_risk":7,"frizz_risk":1,"updated_at":"2026-07-23T02:41:04.249780+05:30"},{"city":"Cuttack","state":"Odisha","latitude":20.4625,"longitude":85.8828,"temp":26.3,"humidity":93,"rain":0.2,"pressure":1000.1,"uv_index":8.45,"wind_gusts":42.1,"aqi":63,"pm10":18.2,"pm2_5":14.4,"no2":8.5,"co":223.0,"o3":62.0,"so2":9.7,"mosquito_risk":10,"arthritis_risk":5,"migraine_risk":4,"frizz_risk":1,"updated_at":"2026-07-23T02:41:04.249788+05:30"},{"city":"Rourkela","state":"Odisha","latitude":22.2604,"longitude":84.8536,"temp":24.2,"humidity":97,"rain":0.1,"pressure":979.8,"uv_index":4.25,"wind_gusts":47.9,"aqi":39,"pm10":8.6,"pm2_5":6.6,"no2":5.9,"co":188.0,"o3":43.0,"so2":3.3,"mosquito_risk":6,"arthritis_risk":5,"migraine_risk":3,"frizz_risk":1,"updated_at":"2026-07-23T02:41:04.249796+05:30"},{"city":"Raipur","state":"Chhattisgarh","latitude":21.2514,"longitude":81.6296,"temp":24.7,"humidity":88,"rain":0.0,"pressure":969.1,"uv_index":2.55,"wind_gusts":56.9,"aqi":53,"pm10":9.1,"pm2_5":7.9,"no2":13.7,"co":186.0,"o3":37.0,"so2":21.1,"mosquito_risk":3,"arthritis_risk":5,"migraine_risk":3,"frizz_risk":1,"updated_at":"2026-07-23T02:41:04.249804+05:30"},{"city":"Bhilai","state":"Chhattisgarh","latitude":21.1938,"longitude":81.3509,"temp":24.3,"humidity":90,"rain":0.0,"pressure":969.5,"uv_index":4.25,"wind_gusts":58.7,"aqi":52,"pm10":8.6,"pm2_5":7.5,"no2":13.3,"co":290.0,"o3":36.0,"so2":20.8,"mosquito_risk":3,"arthritis_risk":5,"migraine_risk":3,"frizz_risk":1,"updated_at":"2026-07-23T02:41:04.249812+05:30"},{"city":"Guwahati","state":"Assam","latitude":26.1158,"longitude":91.7086,"temp":25.3,"humidity":97,"rain":0.2,"pressure":998.7,"uv_index":7.1,"wind_gusts":22.3,"aqi":40,"pm10":8.7,"pm2_5":8.5,"no2":9.0,"co":204.0,"o3":37.0,"so2":1.8,"mosquito_risk":10,"arthritis_risk":5,"migraine_risk":7,"frizz_risk":1,"updated_at":"2026-07-23T02:41:04.249820+05:30"},{"city":"Agartala","state":"Tripura","latitude":23.8315,"longitude":91.2868,"temp":24.8,"humidity":96,"rain":0.0,"pressure":1003.5,"uv_index":7.8,"wind_gusts":35.3,"aqi":37,"pm10":6.3,"pm2_5":6.0,"no2":8.2,"co":146.0,"o3":54.0,"so2":1.8,"mosquito_risk":3,"arthritis_risk":5,"migraine_risk":4,"frizz_risk":1,"updated_at":"2026-07-23T02:41:04.249828+05:30"},{"city":"Shillong","state":"Meghalaya","latitude":25.5788,"longitude":91.8933,"temp":19.6,"humidity":96,"rain":0.1,"pressure":855.5,"uv_index":4.75,"wind_gusts":25.2,"aqi":23,"pm10":1.3,"pm2_5":1.2,"no2":4.0,"co":192.0,"o3":49.0,"so2":1.6,"mosquito_risk":6,"arthritis_risk":10,"migraine_risk":3,"frizz_risk":1,"updated_at":"2026-07-23T02:41:04.249836+05:30"},{"city":"Imphal","state":"Manipur","latitude":24.817,"longitude":93.9368,"temp":21.2,"humidity":98,"rain":0.2,"pressure":921.3,"uv_index":7.25,"wind_gusts":23.8,"aqi":47,"pm10":13.4,"pm2_5":13.1,"no2":12.4,"co":297.0,"o3":19.0,"so2":2.2,"mosquito_risk":6,"arthritis_risk":5,"migraine_risk":7,"frizz_risk":1,"updated_at":"2026-07-23T02:41:04.249844+05:30"},{"city":"Aizawl","state":"Mizoram","latitude":23.7271,"longitude":92.7176,"temp":19.1,"humidity":97,"rain":0.0,"pressure":890.1,"uv_index":8.45,"wind_gusts":36.0,"aqi":22,"pm10":0.9,"pm2_5":0.9,"no2":1.9,"co":126.0,"o3":52.0,"so2":0.5,"mosquito_risk":3,"arthritis_risk":10,"migraine_risk":7,"frizz_risk":1,"updated_at":"2026-07-23T02:41:04.249853+05:30"},{"city":"Kohima","state":"Nagaland","latitude":25.6701,"longitude":94.1077,"temp":19.0,"humidity":99,"rain":0.1,"pressure":853.9,"uv_index":5.9,"wind_gusts":20.9,"aqi":26,"pm10":2.0,"pm2_5":1.9,"no2":4.7,"co":203.0,"o3":34.0,"so2":0.5,"mosquito_risk":6,"arthritis_risk":10,"migraine_risk":3,"frizz_risk":1,"updated_at":"2026-07-23T02:41:04.249862+05:30"},{"city":"Gangtok","state":"Sikkim","latitude":27.3314,"longitude":88.6138,"temp":17.4,"humidity":98,"rain":0.1,"pressure":835.1,"uv_index":7.3,"wind_gusts":31.3,"aqi":36,"pm10":5.0,"pm2_5":4.9,"no2":5.3,"co":250.0,"o3":74.0,"so2":1.4,"mosquito_risk":6,"arthritis_risk":10,"migraine_risk":7,"frizz_risk":1,"updated_at":"2026-07-23T02:41:04.249871+05:30"},{"city":"Siliguri","state":"West Bengal","latitude":26.7271,"longitude":88.3953,"temp":24.3,"humidity":95,"rain":0.1,"pressure":989.3,"uv_index":8.45,"wind_gusts":30.6,"aqi":53,"pm10":10.7,"pm2_5":10.3,"no2":9.3,"co":178.0,"o3":64.0,"so2":2.8,"mosquito_risk":6,"arthritis_risk":5,"migraine_risk":7,"frizz_risk":1,"updated_at":"2026-07-23T02:41:07.631742+05:30"},{"city":"Durgapur","state":"West Bengal","latitude":23.5204,"longitude":87.3119,"temp":25.1,"humidity":97,"rain":0.2,"pressure":990.3,"uv_index":7.55,"wind_gusts":31.3,"aqi":71,"pm10":26.3,"pm2_5":25.7,"no2":31.2,"co":563.0,"o3":28.0,"so2":36.1,"mosquito_risk":10,"arthritis_risk":5,"migraine_risk":7,"frizz_risk":1,"updated_at":"2026-07-23T02:41:07.631774+05:30"},{"city":"Asansol","state":"West Bengal","latitude":23.6739,"longitude":86.9524,"temp":25.1,"humidity":97,"rain":0.1,"pressure":988.7,"uv_index":6.55,"wind_gusts":29.9,"aqi":66,"pm10":22.1,"pm2_5":21.7,"no2":36.1,"co":303.0,"o3":19.0,"so2":45.1,"mosquito_risk":10,"arthritis_risk":5,"migraine_risk":7,"frizz_risk":1,"updated_at":"2026-07-23T02:41:07.631785+05:30"},{"city":"Pondicherry","state":"Puducherry","latitude":11.9139,"longitude":79.8145,"temp":28.3,"humidity":76,"rain":0.0,"pressure":1007.5,"uv_index":8.1,"wind_gusts":40.3,"aqi":71,"pm10":29.5,"pm2_5":20.4,"no2":15.6,"co":188.0,"o3":53.0,"so2":13.1,"mosquito_risk":7,"arthritis_risk":5,"migraine_risk":4,"frizz_risk":1,"updated_at":"2026-07-23T02:41:07.631793+05:30"},{"city":"Port Blair","state":"Andaman and Nicobar Islands","latitude":11.6234,"longitude":92.7265,"temp":27.2,"humidity":84,"rain":0.0,"pressure":1006.9,"uv_index":8.7,"wind_gusts":38.5,"aqi":48,"pm10":13.7,"pm2_5":8.0,"no2":0.1,"co":89.0,"o3":46.0,"so2":0.4,"mosquito_risk":7,"arthritis_risk":5,"migraine_risk":4,"frizz_risk":1,"updated_at":"2026-07-23T02:41:07.631802+05:30"},{"city":"Haridwar","state":"Uttarakhand","latitude":29.9457,"longitude":78.1642,"temp":26.2,"humidity":92,"rain":0.0,"pressure":968.6,"uv_index":7.3,"wind_gusts":30.6,"aqi":74,"pm10":30.3,"pm2_5":29.9,"no2":24.6,"co":370.0,"o3":25.0,"so2":4.8,"mosquito_risk":7,"arthritis_risk":5,"migraine_risk":7,"frizz_risk":1,"updated_at":"2026-07-23T02:41:07.631810+05:30"},{"city":"Rishikesh","state":"Uttarakhand","latitude":30.0869,"longitude":78.2676,"temp":24.1,"humidity":97,"rain":0.0,"pressure":961.4,"uv_index":7.3,"wind_gusts":24.5,"aqi":56,"pm10":14.6,"pm2_5":14.3,"no2":11.2,"co":369.0,"o3":59.0,"so2":2.9,"mosquito_risk":3,"arthritis_risk":5,"migraine_risk":7,"frizz_risk":1,"updated_at":"2026-07-23T02:41:07.631817+05:30"},{"city":"Nainital","state":"Uttarakhand","latitude":29.3919,"longitude":79.4542,"temp":15.5,"humidity":92,"rain":0.0,"pressure":801.9,"uv_index":6.75,"wind_gusts":42.8,"aqi":56,"pm10":11.7,"pm2_5":11.6,"no2":8.4,"co":234.0,"o3":62.0,"so2":1.8,"mosquito_risk":3,"arthritis_risk":10,"migraine_risk":7,"frizz_risk":0,"updated_at":"2026-07-23T02:41:07.631825+05:30"},{"city":"Mussoorie","state":"Uttarakhand","latitude":30.4599,"longitude":78.0664,"temp":15.7,"humidity":99,"rain":0.0,"pressure":799.7,"uv_index":7.0,"wind_gusts":27.4,"aqi":59,"pm10":16.7,"pm2_5":16.6,"no2":29.8,"co":249.0,"o3":26.0,"so2":3.3,"mosquito_risk":3,"arthritis_risk":10,"migraine_risk":7,"frizz_risk":0,"updated_at":"2026-07-23T02:41:07.631832+05:30"},{"city":"Dharamshala","state":"Himachal Pradesh","latitude":32.219,"longitude":76.3234,"temp":20.3,"humidity":92,"rain":0.3,"pressure":865.7,"uv_index":7.6,"wind_gusts":25.9,"aqi":33,"pm10":6.1,"pm2_5":5.7,"no2":11.8,"co":274.0,"o3":67.0,"so2":0.8,"mosquito_risk":6,"arthritis_risk":5,"migraine_risk":7,"frizz_risk":1,"updated_at":"2026-07-23T02:41:07.631840+05:30"},{"city":"Dalhousie","state":"Himachal Pradesh","latitude":32.5387,"longitude":75.971,"temp":16.1,"humidity":99,"rain":0.1,"pressure":801.8,"uv_index":1.4,"wind_gusts":20.5,"aqi":63,"pm10":13.4,"pm2_5":12.7,"no2":12.6,"co":300.0,"o3":79.0,"so2":1.9,"mosquito_risk":6,"arthritis_risk":10,"migraine_risk":3,"frizz_risk":0,"updated_at":"2026-07-23T02:41:07.631847+05:30"},{"city":"Patiala","state":"Punjab","latitude":30.3398,"longitude":76.3869,"temp":27.8,"humidity":83,"rain":0.0,"pressure":972.4,"uv_index":7.5,"wind_gusts":41.0,"aqi":95,"pm10":71.2,"pm2_5":47.7,"no2":31.6,"co":450.0,"o3":33.0,"so2":9.3,"mosquito_risk":7,"arthritis_risk":5,"migraine_risk":7,"frizz_risk":1,"updated_at":"2026-07-23T02:41:07.631855+05:30"},{"city":"Bhatinda","state":"Punjab","latitude":30.211,"longitude":74.9455,"temp":27.2,"humidity":93,"rain":0.1,"pressure":977.4,"uv_index":6.9,"wind_gusts":28.1,"aqi":93,"pm10":51.6,"pm2_5":48.9,"no2":21.1,"co":441.0,"o3":62.0,"so2":8.5,"mosquito_risk":10,"arthritis_risk":5,"migraine_risk":7,"frizz_risk":1,"updated_at":"2026-07-23T02:41:07.631862+05:30"},{"city":"Rohtak","state":"Haryana","latitude":28.8955,"longitude":76.6066,"temp":27.3,"humidity":89,"rain":0.0,"pressure":975.0,"uv_index":6.55,"wind_gusts":37.8,"aqi":112,"pm10":31.0,"pm2_5":31.0,"no2":27.1,"co":544.0,"o3":60.0,"so2":22.5,"mosquito_risk":7,"arthritis_risk":5,"migraine_risk":7,"frizz_risk":1,"updated_at":"2026-07-23T02:41:07.631868+05:30"},{"city":"Panipat","state":"Haryana","latitude":29.3909,"longitude":76.9635,"temp":27.9,"humidity":83,"rain":0.0,"pressure":974.1,"uv_index":7.3,"wind_gusts":39.2,"aqi":103,"pm10":38.9,"pm2_5":38.8,"no2":23.4,"co":369.0,"o3":58.0,"so2":14.4,"mosquito_risk":7,"arthritis_risk":5,"migraine_risk":7,"frizz_risk":1,"updated_at":"2026-07-23T02:41:07.631875+05:30"},{"city":"Mathura","state":"Uttar Pradesh","latitude":27.4924,"longitude":77.6737,"temp":27.8,"humidity":82,"rain":0.0,"pressure":979.3,"uv_index":7.05,"wind_gusts":37.1,"aqi":85,"pm10":18.2,"pm2_5":18.1,"no2":12.7,"co":311.0,"o3":75.0,"so2":5.7,"mosquito_risk":7,"arthritis_risk":5,"migraine_risk":7,"frizz_risk":1,"updated_at":"2026-07-23T02:41:07.631881+05:30"},{"city":"Vrindavan","state":"Uttar Pradesh","latitude":27.5823,"longitude":77.7027,"temp":27.8,"humidity":83,"rain":0.0,"pressure":979.8,"uv_index":7.1,"wind_gusts":36.4,"aqi":85,"pm10":18.2,"pm2_5":18.1,"no2":12.7,"co":301.0,"o3":75.0,"so2":5.7,"mosquito_risk":7,"arthritis_risk":5,"migraine_risk":7,"frizz_risk":1,"updated_at":"2026-07-23T02:41:07.631888+05:30"},{"city":"Ayodhya","state":"Uttar Pradesh","latitude":26.7922,"longitude":82.1998,"temp":26.5,"humidity":90,"rain":0.0,"pressure":989.4,"uv_index":6.85,"wind_gusts":45.4,"aqi":69,"pm10":15.0,"pm2_5":15.0,"no2":9.3,"co":339.0,"o3":71.0,"so2":6.8,"mosquito_risk":7,"arthritis_risk":5,"migraine_risk":7,"frizz_risk":1,"updated_at":"2026-07-23T02:41:07.631894+05:30"},{"city":"Ratlam","state":"Madhya Pradesh","latitude":23.3315,"longitude":75.0367,"temp":23.3,"humidity":99,"rain":0.0,"pressure":945.9,"uv_index":2.65,"wind_gusts":46.4,"aqi":45,"pm10":10.5,"pm2_5":9.1,"no2":9.7,"co":176.0,"o3":44.0,"so2":9.6,"mosquito_risk":3,"arthritis_risk":5,"migraine_risk":3,"frizz_risk":1,"updated_at":"2026-07-23T02:41:07.631901+05:30"},{"city":"Sagar","state":"Madhya Pradesh","latitude":23.8388,"longitude":78.7378,"temp":23.6,"humidity":98,"rain":0.2,"pressure":941.3,"uv_index":2.15,"wind_gusts":35.6,"aqi":32,"pm10":3.8,"pm2_5":3.8,"no2":5.0,"co":189.0,"o3":73.0,"so2":1.3,"mosquito_risk":6,"arthritis_risk":5,"migraine_risk":3,"frizz_risk":1,"updated_at":"2026-07-23T02:41:07.631907+05:30"},{"city":"Satna","state":"Madhya Pradesh","latitude":24.6005,"longitude":80.8322,"temp":24.8,"humidity":98,"rain":0.0,"pressure":963.1,"uv_index":3.95,"wind_gusts":36.7,"aqi":56,"pm10":15.8,"pm2_5":15.7,"no2":12.3,"co":225.0,"o3":56.0,"so2":8.2,"mosquito_risk":3,"arthritis_risk":5,"migraine_risk":3,"frizz_risk":1,"updated_at":"2026-07-23T02:41:07.631914+05:30"},{"city":"Akola","state":"Maharashtra","latitude":20.7002,"longitude":77.0082,"temp":24.4,"humidity":86,"rain":0.1,"pressure":968.1,"uv_index":1.9,"wind_gusts":61.6,"aqi":19,"pm10":3.1,"pm2_5":2.8,"no2":7.0,"co":127.0,"o3":34.0,"so2":3.6,"mosquito_risk":6,"arthritis_risk":5,"migraine_risk":3,"frizz_risk":1,"updated_at":"2026-07-23T02:41:07.631921+05:30"},{"city":"Amravati","state":"Maharashtra","latitude":20.9374,"longitude":77.7796,"temp":24.4,"humidity":86,"rain":0.0,"pressure":960.8,"uv_index":3.55,"wind_gusts":60.1,"aqi":20,"pm10":4.0,"pm2_5":3.6,"no2":7.3,"co":134.0,"o3":34.0,"so2":4.2,"mosquito_risk":3,"arthritis_risk":5,"migraine_risk":3,"frizz_risk":1,"updated_at":"2026-07-23T02:41:07.631928+05:30"},{"city":"Latur","state":"Maharashtra","latitude":18.4088,"longitude":76.5604,"temp":23.0,"humidity":75,"rain":0.0,"pressure":935.4,"uv_index":6.25,"wind_gusts":60.5,"aqi":34,"pm10":46.7,"pm2_5":19.9,"no2":3.4,"co":117.0,"o3":56.0,"so2":1.6,"mosquito_risk":3,"arthritis_risk":5,"migraine_risk":7,"frizz_risk":1,"updated_at":"2026-07-23T02:41:07.631935+05:30"},{"city":"Nanded","state":"Maharashtra","latitude":19.1383,"longitude":77.3091,"temp":23.4,"humidity":83,"rain":0.0,"pressure":964.0,"uv_index":1.85,"wind_gusts":52.2,"aqi":39,"pm10":36.1,"pm2_5":17.3,"no2":4.6,"co":132.0,"o3":52.0,"so2":3.2,"mosquito_risk":3,"arthritis_risk":5,"migraine_risk":3,"frizz_risk":1,"updated_at":"2026-07-23T02:41:07.631942+05:30"},{"city":"Gulbarga","state":"Karnataka","latitude":17.3297,"longitude":76.8343,"temp":23.8,"humidity":78,"rain":0.0,"pressure":955.8,"uv_index":4.25,"wind_gusts":71.3,"aqi":29,"pm10":8.6,"pm2_5":4.8,"no2":5.7,"co":124.0,"o3":38.0,"so2":2.7,"mosquito_risk":3,"arthritis_risk":5,"migraine_risk":3,"frizz_risk":1,"updated_at":"2026-07-23T02:41:07.631948+05:30"},{"city":"Bidar","state":"Karnataka","latitude":17.9104,"longitude":77.5199,"temp":21.9,"humidity":93,"rain":0.0,"pressure":931.6,"uv_index":6.4,"wind_gusts":67.0,"aqi":30,"pm10":15.2,"pm2_5":7.0,"no2":6.0,"co":120.0,"o3":38.0,"so2":2.6,"mosquito_risk":3,"arthritis_risk":5,"migraine_risk":7,"frizz_risk":1,"updated_at":"2026-07-23T02:41:07.631955+05:30"},{"city":"Hospet","state":"Karnataka","latitude":15.2689,"longitude":76.3909,"temp":23.3,"humidity":84,"rain":0.0,"pressure":954.3,"uv_index":6.2,"wind_gusts":56.2,"aqi":18,"pm10":2.3,"pm2_5":1.6,"no2":3.5,"co":110.0,"o3":35.0,"so2":1.5,"mosquito_risk":3,"arthritis_risk":5,"migraine_risk":7,"frizz_risk":1,"updated_at":"2026-07-23T02:41:07.631961+05:30"},{"city":"Tirupur","state":"Tamil Nadu","latitude":11.1085,"longitude":77.3411,"temp":24.2,"humidity":88,"rain":0.0,"pressure":974.9,"uv_index":8.9,"wind_gusts":52.9,"aqi":54,"pm10":17.5,"pm2_5":15.3,"no2":21.6,"co":149.0,"o3":16.0,"so2":5.6,"mosquito_risk":3,"arthritis_risk":5,"migraine_risk":7,"frizz_risk":1,"updated_at":"2026-07-23T02:41:07.631968+05:30"},{"city":"Alappuzha","state":"Kerala","latitude":9.4981,"longitude":76.3388,"temp":25.5,"humidity":96,"rain":0.0,"pressure":1009.2,"uv_index":8.3,"wind_gusts":29.5,"aqi":57,"pm10":15.2,"pm2_5":11.8,"no2":12.5,"co":138.0,"o3":29.0,"so2":5.1,"mosquito_risk":7,"arthritis_risk":0,"migraine_risk":4,"frizz_risk":1,"updated_at":"2026-07-23T02:41:07.631975+05:30"},{"city":"Munnar","state":"Kerala","latitude":10.0889,"longitude":77.0595,"temp":15.9,"humidity":97,"rain":0.0,"pressure":856.1,"uv_index":7.55,"wind_gusts":36.7,"aqi":39,"pm10":7.3,"pm2_5":6.3,"no2":8.9,"co":92.0,"o3":16.0,"so2":1.2,"mosquito_risk":3,"arthritis_risk":10,"migraine_risk":7,"frizz_risk":0,"updated_at":"2026-07-23T02:41:07.631982+05:30"},{"city":"Silchar","state":"Assam","latitude":24.8333,"longitude":92.7789,"temp":25.3,"humidity":96,"rain":0.1,"pressure":1003.0,"uv_index":7.0,"wind_gusts":32.0,"aqi":54,"pm10":11.9,"pm2_5":11.0,"no2":6.1,"co":205.0,"o3":59.0,"so2":3.9,"mosquito_risk":10,"arthritis_risk":5,"migraine_risk":4,"frizz_risk":1,"updated_at":"2026-07-23T02:41:07.631989+05:30"},{"city":"Dibrugarh","state":"Assam","latitude":27.4728,"longitude":94.912,"temp":24.5,"humidity":98,"rain":0.0,"pressure":993.1,"uv_index":8.25,"wind_gusts":24.5,"aqi":39,"pm10":3.7,"pm2_5":3.6,"no2":5.7,"co":198.0,"o3":71.0,"so2":1.1,"mosquito_risk":3,"arthritis_risk":5,"migraine_risk":7,"frizz_risk":1,"updated_at":"2026-07-23T02:41:07.631995+05:30"}]