[{"city":"Delhi","state":"Delhi","latitude":28.6139,"longitude":77.209,"temp":24.8,"humidity":60,"rain":0.0,"pressure":987.8,"uv_index":3.95,"wind_gusts":33.1,"aqi":122,"pm10":93.1,"pm2_5":32.5,"mosquito_risk":0,"arthritis_risk":5,"migraine_risk":3,"frizz_risk":1,"updated_at":"2026-03-19T13:19:19.494675+05:30"},{"city":"Mumbai","state":"Maharashtra","latitude":19.076,"longitude":72.8777,"temp":27.0,"humidity":75,"rain":0.0,"pressure":1011.1,"uv_index":7.75,"wind_gusts":21.2,"aqi":70,"pm10":50.2,"pm2_5":41.0,"mosquito_risk":7,"arthritis_risk":0,"migraine_risk":4,"frizz_risk":1,"updated_at":"2026-03-19T13:19:19.494715+05:30"},{"city":"Bangalore","state":"Karnataka","latitude":12.9716,"longitude":77.5946,"temp":29.5,"humidity":40,"rain":0.0,"pressure":913.9,"uv_index":9.35,"wind_gusts":23.0,"aqi":92,"pm10":26.8,"pm2_5":23.6,"mosquito_risk":4,"arthritis_risk":5,"migraine_risk":7,"frizz_risk":0,"updated_at":"2026-03-19T13:19:19.494731+05:30"},{"city":"Hyderabad","state":"Telangana","latitude":17.385,"longitude":78.4867,"temp":30.4,"humidity":40,"rain":0.0,"pressure":956.0,"uv_index":8.75,"wind_gusts":24.5,"aqi":83,"pm10":23.2,"pm2_5":17.2,"mosquito_risk":0,"arthritis_risk":5,"migraine_risk":7,"frizz_risk":0,"updated_at":"2026-03-19T13:19:19.494742+05:30"},{"city":"Chennai","state":"Tamil Nadu","latitude":13.0827,"longitude":80.2707,"temp":31.8,"humidity":56,"rain":0.0,"pressure":1009.9,"uv_index":9.1,"wind_gusts":29.5,"aqi":44,"pm10":16.5,"pm2_5":13.0,"mosquito_risk":0,"arthritis_risk":0,"migraine_risk":4,"frizz_risk":1,"updated_at":"2026-03-19T13:19:19.494751+05:30"},{"city":"Kolkata","state":"West Bengal","latitude":22.5726,"longitude":88.3639,"temp":30.8,"humidity":58,"rain":0.0,"pressure":1008.1,"uv_index":7.7,"wind_gusts":25.2,"aqi":70,"pm10":50.1,"pm2_5":42.5,"mosquito_risk":0,"arthritis_risk":0,"migraine_risk":4,"frizz_risk":1,"updated_at":"2026-03-19T13:19:19.494759+05:30"},{"city":"Pune","state":"Maharashtra","latitude":18.5204,"longitude":73.8567,"temp":30.0,"humidity":43,"rain":0.0,"pressure":950.9,"uv_index":8.3,"wind_gusts":34.2,"aqi":100,"pm10":39.8,"pm2_5":28.4,"mosquito_risk":4,"arthritis_risk":5,"migraine_risk":7,"frizz_risk":1,"updated_at":"2026-03-19T13:19:19.494771+05:30"},{"city":"Ahmedabad","state":"Gujarat","latitude":23.0225,"longitude":72.5714,"temp":33.1,"humidity":39,"rain":0.0,"pressure":1003.9,"uv_index":7.55,"wind_gusts":45.4,"aqi":67,"pm10":29.5,"pm2_5":22.8,"mosquito_risk":0,"arthritis_risk":5,"migraine_risk":4,"frizz_risk":1,"updated_at":"2026-03-19T13:19:19.494779+05:30"},{"city":"Jaipur","state":"Rajasthan","latitude":26.9124,"longitude":75.7873,"temp":25.1,"humidity":54,"rain":0.0,"pressure":963.5,"uv_index":7.05,"wind_gusts":31.7,"aqi":138,"pm10":129.9,"pm2_5":27.3,"mosquito_risk":4,"arthritis_risk":5,"migraine_risk":7,"frizz_risk":0,"updated_at":"2026-03-19T13:19:19.494787+05:30"},{"city":"Lucknow","state":"Uttar Pradesh","latitude":26.8467,"longitude":80.9462,"temp":33.5,"humidity":27,"rain":0.0,"pressure":996.0,"uv_index":6.8,"wind_gusts":28.1,"aqi":96,"pm10":44.7,"pm2_5":16.5,"mosquito_risk":0,"arthritis_risk":5,"migraine_risk":7,"frizz_risk":0,"updated_at":"2026-03-19T13:19:19.494795+05:30"},{"city":"Kanpur","state":"Uttar Pradesh","latitude":26.4499,"longitude":80.3319,"temp":33.1,"humidity":32,"rain":0.0,"pressure":994.1,"uv_index":6.85,"wind_gusts":32.8,"aqi":118,"pm10":318.5,"pm2_5":41.9,"mosquito_risk":0,"arthritis_risk":5,"migraine_risk":7,"frizz_risk":0,"updated_at":"2026-03-19T13:19:19.494802+05:30"},{"city":"Chandigarh","state":"Chandigarh","latitude":30.7333,"longitude":76.7794,"temp":18.5,"humidity":83,"rain":0.1,"pressure":974.1,"uv_index":3.9,"wind_gusts":19.1,"aqi":59,"pm10":82.2,"pm2_5":22.0,"mosquito_risk":6,"arthritis_risk":10,"migraine_risk":3,"frizz_risk":0,"updated_at":"2026-03-19T13:19:19.494810+05:30"},{"city":"Srinagar","state":"Jammu and Kashmir","latitude":34.0837,"longitude":74.7973,"temp":7.9,"humidity":86,"rain":0.2,"pressure":841.7,"uv_index":0.95,"wind_gusts":15.1,"aqi":90,"pm10":20.8,"pm2_5":17.8,"mosquito_risk":6,"arthritis_risk":10,"migraine_risk":3,"frizz_risk":0,"updated_at":"2026-03-19T13:19:19.494817+05:30"},{"city":"Jammu","state":"Jammu and Kashmir","latitude":32.7266,"longitude":74.857,"temp":20.3,"humidity":73,"rain":0.0,"pressure":977.6,"uv_index":3.0,"wind_gusts":35.3,"aqi":59,"pm10":46.2,"pm2_5":15.9,"mosquito_risk":3,"arthritis_risk":5,"migraine_risk":3,"frizz_risk":0,"updated_at":"2026-03-19T13:19:19.494824+05:30"},{"city":"Amritsar","state":"Punjab","latitude":31.634,"longitude":74.8723,"temp":18.2,"humidity":88,"rain":0.0,"pressure":985.8,"uv_index":2.45,"wind_gusts":22.7,"aqi":81,"pm10":120.1,"pm2_5":36.2,"mosquito_risk":3,"arthritis_risk":10,"migraine_risk":3,"frizz_risk":1,"updated_at":"2026-03-19T13:19:19.494831+05:30"},{"city":"Ludhiana","state":"Punjab","latitude":30.901,"longitude":75.8573,"temp":18.8,"humidity":85,"rain":0.1,"pressure":984.0,"uv_index":1.6,"wind_gusts":24.5,"aqi":79,"pm10":59.4,"pm2_5":21.0,"mosquito_risk":6,"arthritis_risk":10,"migraine_risk":3,"frizz_risk":1,"updated_at":"2026-03-19T13:19:19.494837+05:30"},{"city":"Jalandhar","state":"Punjab","latitude":31.326,"longitude":75.5762,"temp":18.5,"humidity":84,"rain":0.0,"pressure":985.3,"uv_index":2.7,"wind_gusts":27.7,"aqi":78,"pm10":102.4,"pm2_5":31.9,"mosquito_risk":3,"arthritis_risk":10,"migraine_risk":3,"frizz_risk":0,"updated_at":"2026-03-19T13:19:19.494846+05:30"},{"city":"Dehradun","state":"Uttarakhand","latitude":30.6284,"longitude":78.0322,"temp":12.5,"humidity":77,"rain":0.1,"pressure":831.8,"uv_index":5.3,"wind_gusts":32.0,"aqi":42,"pm10":25.1,"pm2_5":6.8,"mosquito_risk":6,"arthritis_risk":5,"migraine_risk":3,"frizz_risk":0,"updated_at":"2026-03-19T13:19:19.494852+05:30"},{"city":"Shimla","state":"Himachal Pradesh","latitude":31.1048,"longitude":77.1734,"temp":11.5,"humidity":77,"rain":0.0,"pressure":785.1,"uv_index":3.7,"wind_gusts":37.4,"aqi":42,"pm10":26.9,"pm2_5":7.5,"mosquito_risk":3,"arthritis_risk":5,"migraine_risk":3,"frizz_risk":0,"updated_at":"2026-03-19T13:19:19.494859+05:30"},{"city":"Manali","state":"Himachal Pradesh","latitude":32.2396,"longitude":77.1887,"temp":11.3,"humidity":100,"rain":0.2,"pressure":817.8,"uv_index":4.3,"wind_gusts":23.8,"aqi":44,"pm10":4.1,"pm2_5":2.4,"mosquito_risk":6,"arthritis_risk":10,"migraine_risk":3,"frizz_risk":0,"updated_at":"2026-03-19T13:19:19.494866+05:30"},{"city":"Gurgaon","state":"Haryana","latitude":28.4595,"longitude":77.0266,"temp":24.3,"humidity":67,"rain":0.0,"pressure":986.1,"uv_index":5.05,"wind_gusts":30.2,"aqi":152,"pm10":97.1,"pm2_5":31.3,"mosquito_risk":3,"arthritis_risk":5,"migraine_risk":3,"frizz_risk":1,"updated_at":"2026-03-19T13:19:19.494872+05:30"},{"city":"Noida","state":"Uttar Pradesh","latitude":28.5355,"longitude":77.391,"temp":25.3,"humidity":58,"rain":0.0,"pressure":989.4,"uv_index":4.25,"wind_gusts":32.8,"aqi":152,"pm10":97.1,"pm2_5":31.3,"mosquito_risk":4,"arthritis_risk":5,"migraine_risk":3,"frizz_risk":1,"updated_at":"2026-03-19T13:19:19.494878+05:30"},{"city":"Ghaziabad","state":"Uttar Pradesh","latitude":28.6692,"longitude":77.4538,"temp":24.8,"humidity":59,"rain":0.0,"pressure":987.6,"uv_index":4.2,"wind_gusts":34.2,"aqi":112,"pm10":65.7,"pm2_5":21.5,"mosquito_risk":0,"arthritis_risk":5,"migraine_risk":3,"frizz_risk":1,"updated_at":"2026-03-19T13:19:19.494884+05:30"},{"city":"Faridabad","state":"Haryana","latitude":28.4089,"longitude":77.3178,"temp":25.4,"humidity":59,"rain":0.0,"pressure":988.4,"uv_index":5.9,"wind_gusts":33.5,"aqi":152,"pm10":97.1,"pm2_5":31.3,"mosquito_risk":4,"arthritis_risk":5,"migraine_risk":3,"frizz_risk":1,"updated_at":"2026-03-19T13:19:19.494890+05:30"},{"city":"Meerut","state":"Uttar Pradesh","latitude":28.9845,"longitude":77.7064,"temp":23.3,"humidity":65,"rain":0.0,"pressure":986.6,"uv_index":3.35,"wind_gusts":35.6,"aqi":112,"pm10":65.7,"pm2_5":21.5,"mosquito_risk":3,"arthritis_risk":5,"migraine_risk":3,"frizz_risk":1,"updated_at":"2026-03-19T13:19:19.494897+05:30"},{"city":"Agra","state":"Uttar Pradesh","latitude":27.1767,"longitude":78.0081,"temp":30.4,"humidity":32,"rain":0.0,"pressure":991.5,"uv_index":6.7,"wind_gusts":37.8,"aqi":603,"pm10":838.2,"pm2_5":83.6,"mosquito_risk":0,"arthritis_risk":5,"migraine_risk":7,"frizz_risk":0,"updated_at":"2026-03-19T13:19:19.494903+05:30"},{"city":"Varanasi","state":"Uttar Pradesh","latitude":25.3176,"longitude":82.9739,"temp":34.7,"humidity":36,"rain":0.0,"pressure":998.7,"uv_index":7.5,"wind_gusts":52.9,"aqi":121,"pm10":57.2,"pm2_5":42.1,"mosquito_risk":0,"arthritis_risk":5,"migraine_risk":7,"frizz_risk":1,"updated_at":"2026-03-19T13:19:19.494913+05:30"},{"city":"Prayagraj","state":"Uttar Pradesh","latitude":25.4358,"longitude":81.8463,"temp":34.2,"humidity":36,"rain":0.0,"pressure":997.2,"uv_index":7.35,"wind_gusts":21.2,"aqi":107,"pm10":61.9,"pm2_5":29.6,"mosquito_risk":0,"arthritis_risk":5,"migraine_risk":7,"frizz_risk":1,"updated_at":"2026-03-19T13:19:19.494920+05:30"},{"city":"Gorakhpur","state":"Uttar Pradesh","latitude":26.7606,"longitude":83.3732,"temp":33.5,"humidity":38,"rain":0.0,"pressure":998.8,"uv_index":7.2,"wind_gusts":17.3,"aqi":125,"pm10":63.3,"pm2_5":22.6,"mosquito_risk":0,"arthritis_risk":5,"migraine_risk":7,"frizz_risk":1,"updated_at":"2026-03-19T13:19:19.494926+05:30"},{"city":"Bareilly","state":"Uttar Pradesh","latitude":28.367,"longitude":79.4304,"temp":27.5,"humidity":42,"rain":0.0,"pressure":991.1,"uv_index":6.15,"wind_gusts":34.2,"aqi":85,"pm10":22.5,"pm2_5":10.3,"mosquito_risk":4,"arthritis_risk":5,"migraine_risk":7,"frizz_risk":0,"updated_at":"2026-03-19T13:19:19.494935+05:30"},{"city":"Aligarh","state":"Uttar Pradesh","latitude":27.8974,"longitude":78.088,"temp":28.6,"humidity":43,"rain":0.0,"pressure":989.8,"uv_index":6.4,"wind_gusts":34.6,"aqi":152,"pm10":356.7,"pm2_5":45.8,"mosquito_risk":4,"arthritis_risk":5,"migraine_risk":7,"frizz_risk":0,"updated_at":"2026-03-19T13:19:19.494941+05:30"},{"city":"Moradabad","state":"Uttar Pradesh","latitude":28.8386,"longitude":78.7733,"temp":27.2,"humidity":48,"rain":0.0,"pressure":988.5,"uv_index":5.5,"wind_gusts":46.1,"aqi":114,"pm10":38.1,"pm2_5":17.9,"mosquito_risk":4,"arthritis_risk":5,"migraine_risk":3,"frizz_risk":0,"updated_at":"2026-03-19T13:19:19.494948+05:30"},{"city":"Saharanpur","state":"Uttar Pradesh","latitude":29.9637,"longitude":77.546,"temp":19.4,"humidity":80,"rain":0.2,"pressure":981.7,"uv_index":3.55,"wind_gusts":27.0,"aqi":73,"pm10":50.1,"pm2_5":15.1,"mosquito_risk":6,"arthritis_risk":5,"migraine_risk":3,"frizz_risk":0,"updated_at":"2026-03-19T13:19:19.494954+05:30"},{"city":"Jhansi","state":"Uttar Pradesh","latitude":25.4484,"longitude":78.5685,"temp":34.9,"humidity":25,"rain":0.0,"pressure":979.2,"uv_index":7.3,"wind_gusts":46.1,"aqi":83,"pm10":81.5,"pm2_5":34.0,"mosquito_risk":0,"arthritis_risk":5,"migraine_risk":7,"frizz_risk":0,"updated_at":"2026-03-19T13:19:22.766554+05:30"},{"city":"Surat","state":"Gujarat","latitude":21.1702,"longitude":72.8311,"temp":29.1,"humidity":57,"rain":0.0,"pressure":1009.4,"uv_index":7.45,"wind_gusts":30.6,"aqi":78,"pm10":33.8,"pm2_5":25.2,"mosquito_risk":4,"arthritis_risk":0,"migraine_risk":4,"frizz_risk":1,"updated_at":"2026-03-19T13:19:22.766584+05:30"},{"city":"Vadodara","state":"Gujarat","latitude":22.3072,"longitude":73.1812,"temp":33.4,"humidity":43,"rain":0.0,"pressure":1006.1,"uv_index":7.35,"wind_gusts":55.8,"aqi":63,"pm10":21.2,"pm2_5":15.1,"mosquito_risk":0,"arthritis_risk":5,"migraine_risk":4,"frizz_risk":1,"updated_at":"2026-03-19T13:19:22.766594+05:30"},{"city":"Rajkot","state":"Gujarat","latitude":22.3039,"longitude":70.8022,"temp":32.7,"humidity":37,"rain":0.0,"pressure":996.2,"uv_index":7.4,"wind_gusts":51.8,"aqi":43,"pm10":36.7,"pm2_5":16.7,"mosquito_risk":0,"arthritis_risk":5,"migraine_risk":7,"frizz_risk":1,"updated_at":"2026-03-19T13:19:22.766602+05:30"},{"city":"Thane","state":"Maharashtra","latitude":19.2183,"longitude":72.9781,"temp":30.9,"humidity":54,"rain":0.0,"pressure":1010.5,"uv_index":7.75,"wind_gusts":34.6,"aqi":70,"pm10":50.2,"pm2_5":41.0,"mosquito_risk":0,"arthritis_risk":0,"migraine_risk":4,"frizz_risk":1,"updated_at":"2026-03-19T13:19:22.766610+05:30"},{"city":"Nagpur","state":"Maharashtra","latitude":21.1458,"longitude":79.0882,"temp":32.4,"humidity":37,"rain":0.0,"pressure":975.5,"uv_index":7.85,"wind_gusts":22.7,"aqi":105,"pm10":52.9,"pm2_5":43.3,"mosquito_risk":0,"arthritis_risk":5,"migraine_risk":7,"frizz_risk":0,"updated_at":"2026-03-19T13:19:22.766617+05:30"},{"city":"Nashik","state":"Maharashtra","latitude":19.9975,"longitude":73.7898,"temp":30.2,"humidity":43,"rain":0.0,"pressure":947.8,"uv_index":7.95,"wind_gusts":38.9,"aqi":56,"pm10":18.5,"pm2_5":13.6,"mosquito_risk":0,"arthritis_risk":5,"migraine_risk":7,"frizz_risk":1,"updated_at":"2026-03-19T13:19:22.766624+05:30"},{"city":"Aurangabad","state":"Maharashtra","latitude":19.8762,"longitude":75.3433,"temp":32.1,"humidity":31,"rain":0.0,"pressure":946.3,"uv_index":8.45,"wind_gusts":29.2,"aqi":74,"pm10":31.4,"pm2_5":21.8,"mosquito_risk":0,"arthritis_risk":5,"migraine_risk":7,"frizz_risk":0,"updated_at":"2026-03-19T13:19:22.766631+05:30"},{"city":"Solapur","state":"Maharashtra","latitude":17.6599,"longitude":75.9064,"temp":32.4,"humidity":35,"rain":0.0,"pressure":959.2,"uv_index":8.65,"wind_gusts":33.5,"aqi":80,"pm10":29.3,"pm2_5":21.2,"mosquito_risk":0,"arthritis_risk":5,"migraine_risk":7,"frizz_risk":0,"updated_at":"2026-03-19T13:19:22.766638+05:30"},{"city":"Kolhapur","state":"Maharashtra","latitude":16.705,"longitude":74.2433,"temp":31.0,"humidity":34,"rain":0.0,"pressure":950.4,"uv_index":8.8,"wind_gusts":37.8,"aqi":118,"pm10":34.9,"pm2_5":23.6,"mosquito_risk":0,"arthritis_risk":5,"migraine_risk":7,"frizz_risk":0,"updated_at":"2026-03-19T13:19:22.766645+05:30"},{"city":"Goa","state":"Goa","latitude":15.2993,"longitude":74.124,"temp":31.3,"humidity":53,"rain":0.0,"pressure":1000.7,"uv_index":8.8,"wind_gusts":30.6,"aqi":81,"pm10":33.2,"pm2_5":22.2,"mosquito_risk":0,"arthritis_risk":5,"migraine_risk":4,"frizz_risk":1,"updated_at":"2026-03-19T13:19:22.766652+05:30"},{"city":"Jodhpur","state":"Rajasthan","latitude":26.2389,"longitude":73.0243,"temp":28.0,"humidity":46,"rain":0.0,"pressure":986.0,"uv_index":6.8,"wind_gusts":40.7,"aqi":66,"pm10":127.6,"pm2_5":24.2,"mosquito_risk":4,"arthritis_risk":5,"migraine_risk":7,"frizz_risk":0,"updated_at":"2026-03-19T13:19:22.766659+05:30"},{"city":"Udaipur","state":"Rajasthan","latitude":24.5854,"longitude":73.7125,"temp":29.5,"humidity":35,"rain":0.0,"pressure":948.5,"uv_index":6.6,"wind_gusts":38.9,"aqi":39,"pm10":49.9,"pm2_5":17.1,"mosquito_risk":4,"arthritis_risk":5,"migraine_risk":7,"frizz_risk":0,"updated_at":"2026-03-19T13:19:22.766665+05:30"},{"city":"Kota","state":"Rajasthan","latitude":25.2138,"longitude":75.8648,"temp":31.0,"humidity":38,"rain":0.0,"pressure":981.2,"uv_index":7.35,"wind_gusts":34.2,"aqi":82,"pm10":110.6,"pm2_5":39.1,"mosquito_risk":0,"arthritis_risk":5,"migraine_risk":7,"frizz_risk":0,"updated_at":"2026-03-19T13:19:22.766671+05:30"},{"city":"Bikaner","state":"Rajasthan","latitude":28.0229,"longitude":73.3119,"temp":24.2,"humidity":58,"rain":0.0,"pressure":985.2,"uv_index":5.9,"wind_gusts":31.0,"aqi":62,"pm10":122.0,"pm2_5":26.4,"mosquito_risk":0,"arthritis_risk":5,"migraine_risk":3,"frizz_risk":0,"updated_at":"2026-03-19T13:19:22.766678+05:30"},{"city":"Ajmer","state":"Rajasthan","latitude":26.4499,"longitude":74.6399,"temp":26.2,"humidity":50,"rain":0.0,"pressure":957.5,"uv_index":5.2,"wind_gusts":31.0,"aqi":67,"pm10":73.3,"pm2_5":17.1,"mosquito_risk":4,"arthritis_risk":5,"migraine_risk":3,"frizz_risk":0,"updated_at":"2026-03-19T13:19:22.766684+05:30"},{"city":"Gwalior","state":"Madhya Pradesh","latitude":26.2183,"longitude":78.1828,"temp":31.6,"humidity":38,"rain":0.0,"pressure":985.7,"uv_index":7.0,"wind_gusts":31.3,"aqi":132,"pm10":153.7,"pm2_5":40.4,"mosquito_risk":0,"arthritis_risk":5,"migraine_risk":7,"frizz_risk":0,"updated_at":"2026-03-19T13:19:22.766691+05:30"},{"city":"Indore","state":"Madhya Pradesh","latitude":22.7196,"longitude":75.8577,"temp":33.0,"humidity":17,"rain":0.0,"pressure":950.4,"uv_index":7.9,"wind_gusts":41.4,"aqi":56,"pm10":22.1,"pm2_5":17.1,"mosquito_risk":0,"arthritis_risk":5,"migraine_risk":7,"frizz_risk":0,"updated_at":"2026-03-19T13:19:22.766697+05:30"},{"city":"Bhopal","state":"Madhya Pradesh","latitude":23.2599,"longitude":77.4126,"temp":33.7,"humidity":24,"rain":0.0,"pressure":955.8,"uv_index":7.8,"wind_gusts":34.9,"aqi":70,"pm10":15.0,"pm2_5":13.4,"mosquito_risk":0,"arthritis_risk":5,"migraine_risk":7,"frizz_risk":0,"updated_at":"2026-03-19T13:19:22.766704+05:30"},{"city":"Jabalpur","state":"Madhya Pradesh","latitude":23.1815,"longitude":79.9864,"temp":34.1,"humidity":25,"rain":0.0,"pressure":963.2,"uv_index":7.9,"wind_gusts":31.7,"aqi":74,"pm10":32.7,"pm2_5":25.4,"mosquito_risk":0,"arthritis_risk":5,"migraine_risk":7,"frizz_risk":0,"updated_at":"2026-03-19T13:19:22.766711+05:30"},{"city":"Ujjain","state":"Madhya Pradesh","latitude":23.1765,"longitude":75.7885,"temp":31.9,"humidity":20,"rain":0.0,"pressure":956.1,"uv_index":7.8,"wind_gusts":31.3,"aqi":55,"pm10":20.5,"pm2_5":13.5,"mosquito_risk":0,"arthritis_risk":5,"migraine_risk":7,"frizz_risk":0,"updated_at":"2026-03-19T13:19:22.766718+05:30"},{"city":"Visakhapatnam","state":"Andhra Pradesh","latitude":17.6868,"longitude":83.2185,"temp":30.8,"humidity":55,"rain":0.0,"pressure":1006.8,"uv_index":7.8,"wind_gusts":31.0,"aqi":65,"pm10":24.2,"pm2_5":19.3,"mosquito_risk":0,"arthritis_risk":5,"migraine_risk":4,"frizz_risk":1,"updated_at":"2026-03-19T13:19:22.766725+05:30"},{"city":"Vijayawada","state":"Andhra Pradesh","latitude":16.5062,"longitude":80.648,"temp":29.4,"humidity":62,"rain":0.0,"pressure":1006.3,"uv_index":8.35,"wind_gusts":28.4,"aqi":63,"pm10":14.9,"pm2_5":11.1,"mosquito_risk":7,"arthritis_risk":5,"migraine_risk":4,"frizz_risk":1,"updated_at":"2026-03-19T13:19:22.766731+05:30"},{"city":"Guntur","state":"Andhra Pradesh","latitude":16.3067,"longitude":80.4365,"temp":30.1,"humidity":62,"rain":0.0,"pressure":1007.3,"uv_index":8.4,"wind_gusts":23.0,"aqi":64,"pm10":14.6,"pm2_5":10.2,"mosquito_risk":3,"arthritis_risk":5,"migraine_risk":4,"frizz_risk":1,"updated_at":"2026-03-19T13:19:22.766738+05:30"},{"city":"Nellore","state":"Andhra Pradesh","latitude":14.4426,"longitude":79.9865,"temp":31.0,"humidity":58,"rain":0.0,"pressure":1008.8,"uv_index":9.0,"wind_gusts":23.8,"aqi":35,"pm10":17.6,"pm2_5":12.6,"mosquito_risk":0,"arthritis_risk":0,"migraine_risk":4,"frizz_risk":1,"updated_at":"2026-03-19T13:19:22.766745+05:30"},{"city":"Kurnool","state":"Andhra Pradesh","latitude":15.8281,"longitude":78.0373,"temp":31.9,"humidity":43,"rain":0.0,"pressure":979.6,"uv_index":8.85,"wind_gusts":18.7,"aqi":64,"pm10":14.4,"pm2_5":10.2,"mosquito_risk":0,"arthritis_risk":5,"migraine_risk":7,"frizz_risk":1,"updated_at":"2026-03-19T13:19:22.766752+05:30"},{"city":"Kakinada","state":"Andhra Pradesh","latitude":16.9891,"longitude":82.2475,"temp":30.2,"humidity":62,"rain":0.0,"pressure":1011.0,"uv_index":8.5,"wind_gusts":24.1,"aqi":41,"pm10":12.8,"pm2_5":9.4,"mosquito_risk":3,"arthritis_risk":0,"migraine_risk":4,"frizz_risk":1,"updated_at":"2026-03-19T13:19:22.766759+05:30"},{"city":"Tirupati","state":"Andhra Pradesh","latitude":13.6288,"longitude":79.4192,"temp":31.8,"humidity":48,"rain":0.0,"pressure":993.7,"uv_index":9.1,"wind_gusts":25.6,"aqi":60,"pm10":13.3,"pm2_5":10.0,"mosquito_risk":0,"arthritis_risk":5,"migraine_risk":7,"frizz_risk":1,"updated_at":"2026-03-19T13:19:22.766766+05:30"},{"city":"Warangal","state":"Telangana","latitude":17.9689,"longitude":79.5941,"temp":28.0,"humidity":60,"rain":0.0,"pressure":982.5,"uv_index":8.0,"wind_gusts":21.6,"aqi":146,"pm10":29.0,"pm2_5":22.5,"mosquito_risk":4,"arthritis_risk":5,"migraine_risk":7,"frizz_risk":1,"updated_at":"2026-03-19T13:19:22.766772+05:30"},{"city":"Nizamabad","state":"Telangana","latitude":18.6725,"longitude":78.0941,"temp":32.3,"humidity":39,"rain":0.0,"pressure":967.1,"uv_index":8.45,"wind_gusts":25.6,"aqi":116,"pm10":26.6,"pm2_5":20.6,"mosquito_risk":0,"arthritis_risk":5,"migraine_risk":7,"frizz_risk":1,"updated_at":"2026-03-19T13:19:22.766778+05:30"},{"city":"Mysore","state":"Karnataka","latitude":12.2958,"longitude":76.6396,"temp":30.8,"humidity":38,"rain":0.0,"pressure":930.6,"uv_index":9.35,"wind_gusts":31.3,"aqi":96,"pm10":26.8,"pm2_5":24.2,"mosquito_risk":0,"arthritis_risk":5,"migraine_risk":7,"frizz_risk":0,"updated_at":"2026-03-19T13:19:22.766784+05:30"},{"city":"Mangalore","state":"Karnataka","latitude":12.9141,"longitude":74.856,"temp":27.8,"humidity":78,"rain":0.0,"pressure":1009.4,"uv_index":8.95,"wind_gusts":24.1,"aqi":73,"pm10":25.8,"pm2_5":20.1,"mosquito_risk":7,"arthritis_risk":0,"migraine_risk":4,"frizz_risk":1,"updated_at":"2026-03-19T13:19:22.766791+05:30"},{"city":"Hubli-Dharwad","state":"Karnataka","latitude":15.3647,"longitude":75.124,"temp":30.2,"humidity":39,"rain":0.0,"pressure":943.7,"uv_index":8.95,"wind_gusts":36.4,"aqi":96,"pm10":33.9,"pm2_5":26.9,"mosquito_risk":0,"arthritis_risk":5,"migraine_risk":7,"frizz_risk":0,"updated_at":"2026-03-19T13:19:22.766798+05:30"},{"city":"Belgaum","state":"Karnataka","latitude":15.8497,"longitude":74.4977,"temp":30.0,"humidity":35,"rain":0.0,"pressure":928.4,"uv_index":9.0,"wind_gusts":37.4,"aqi":101,"pm10":32.5,"pm2_5":21.5,"mosquito_risk":4,"arthritis_risk":5,"migraine_risk":7,"frizz_risk":0,"updated_at":"2026-03-19T13:19:26.033793+05:30"},{"city":"Coimbatore","state":"Tamil Nadu","latitude":11.0168,"longitude":76.9558,"temp":31.0,"humidity":48,"rain":0.0,"pressure":964.1,"uv_index":9.3,"wind_gusts":39.2,"aqi":65,"pm10":16.9,"pm2_5":14.8,"mosquito_risk":0,"arthritis_risk":5,"migraine_risk":7,"frizz_risk":1,"updated_at":"2026-03-19T13:19:26.033824+05:30"},{"city":"Madurai","state":"Tamil Nadu","latitude":9.9252,"longitude":78.1198,"temp":32.4,"humidity":50,"rain":0.0,"pressure":995.0,"uv_index":9.25,"wind_gusts":20.5,"aqi":49,"pm10":14.0,"pm2_5":12.3,"mosquito_risk":0,"arthritis_risk":5,"migraine_risk":7,"frizz_risk":1,"updated_at":"2026-03-19T13:19:26.033834+05:30"},{"city":"Trichy","state":"Tamil Nadu","latitude":10.7905,"longitude":78.7047,"temp":33.3,"humidity":49,"rain":0.0,"pressure":1001.5,"uv_index":9.2,"wind_gusts":25.2,"aqi":51,"pm10":15.0,"pm2_5":12.6,"mosquito_risk":0,"arthritis_risk":5,"migraine_risk":4,"frizz_risk":1,"updated_at":"2026-03-19T13:19:26.033842+05:30"},{"city":"Salem","state":"Tamil Nadu","latitude":11.6643,"longitude":78.146,"temp":33.3,"humidity":45,"rain":0.0,"pressure":979.1,"uv_index":9.25,"wind_gusts":20.2,"aqi":74,"pm10":21.6,"pm2_5":19.6,"mosquito_risk":0,"arthritis_risk":5,"migraine_risk":7,"frizz_risk":1,"updated_at":"2026-03-19T13:19:26.033850+05:30"},{"city":"Tirunelveli","state":"Tamil Nadu","latitude":8.7139,"longitude":77.7567,"temp":33.6,"humidity":44,"rain":0.0,"pressure":1005.0,"uv_index":8.5,"wind_gusts":24.1,"aqi":64,"pm10":13.8,"pm2_5":12.9,"mosquito_risk":0,"arthritis_risk":5,"migraine_risk":4,"frizz_risk":1,"updated_at":"2026-03-19T13:19:26.033857+05:30"},{"city":"Vellore","state":"Tamil Nadu","latitude":12.9165,"longitude":79.1325,"temp":32.3,"humidity":46,"rain":0.0,"pressure":986.5,"uv_index":9.15,"wind_gusts":23.4,"aqi":58,"pm10":14.2,"pm2_5":9.7,"mosquito_risk":0,"arthritis_risk":5,"migraine_risk":7,"frizz_risk":1,"updated_at":"2026-03-19T13:19:26.033865+05:30"},{"city":"Erode","state":"Tamil Nadu","latitude":11.341,"longitude":77.7172,"temp":33.5,"humidity":45,"rain":0.0,"pressure":990.6,"uv_index":9.25,"wind_gusts":23.4,"aqi":56,"pm10":13.5,"pm2_5":12.3,"mosquito_risk":0,"arthritis_risk":5,"migraine_risk":7,"frizz_risk":1,"updated_at":"2026-03-19T13:19:26.033872+05:30"},{"city":"Kochi","state":"Kerala","latitude":9.9312,"longitude":76.2673,"temp":27.7,"humidity":79,"rain":0.0,"pressure":1010.8,"uv_index":9.1,"wind_gusts":25.9,"aqi":62,"pm10":15.7,"pm2_5":14.4,"mosquito_risk":7,"arthritis_risk":0,"migraine_risk":4,"frizz_risk":1,"updated_at":"2026-03-19T13:19:26.033880+05:30"},{"city":"Thiruvananthapuram","state":"Kerala","latitude":8.5241,"longitude":76.9366,"temp":28.2,"humidity":75,"rain":0.0,"pressure":1009.8,"uv_index":8.1,"wind_gusts":20.5,"aqi":49,"pm10":13.5,"pm2_5":12.9,"mosquito_risk":7,"arthritis_risk":0,"migraine_risk":4,"frizz_risk":1,"updated_at":"2026-03-19T13:19:26.033887+05:30"},{"city":"Kozhikode","state":"Kerala","latitude":11.2588,"longitude":75.7804,"temp":29.2,"humidity":71,"rain":0.0,"pressure":1010.1,"uv_index":9.05,"wind_gusts":27.7,"aqi":69,"pm10":13.2,"pm2_5":12.1,"mosquito_risk":7,"arthritis_risk":0,"migraine_risk":4,"frizz_risk":1,"updated_at":"2026-03-19T13:19:26.033894+05:30"},{"city":"Thrissur","state":"Kerala","latitude":10.5276,"longitude":76.2144,"temp":32.5,"humidity":56,"rain":0.0,"pressure":1009.0,"uv_index":9.1,"wind_gusts":31.0,"aqi":57,"pm10":14.5,"pm2_5":13.4,"mosquito_risk":0,"arthritis_risk":0,"migraine_risk":4,"frizz_risk":1,"updated_at":"2026-03-19T13:19:26.033901+05:30"},{"city":"Kannur","state":"Kerala","latitude":11.8745,"longitude":75.3704,"temp":30.2,"humidity":66,"rain":0.0,"pressure":1009.7,"uv_index":9.0,"wind_gusts":30.6,"aqi":65,"pm10":20.1,"pm2_5":16.2,"mosquito_risk":3,"arthritis_risk":0,"migraine_risk":4,"frizz_risk":1,"updated_at":"2026-03-19T13:19:26.033907+05:30"},{"city":"Patna","state":"Bihar","latitude":25.5941,"longitude":85.1376,"temp":32.0,"humidity":48,"rain":0.0,"pressure":1002.3,"uv_index":7.25,"wind_gusts":50.8,"aqi":162,"pm10":76.4,"pm2_5":57.0,"mosquito_risk":0,"arthritis_risk":5,"migraine_risk":4,"frizz_risk":1,"updated_at":"2026-03-19T13:19:26.033914+05:30"},{"city":"Gaya","state":"Bihar","latitude":24.7914,"longitude":85.0002,"temp":33.4,"humidity":40,"rain":0.0,"pressure":995.4,"uv_index":7.55,"wind_gusts":29.9,"aqi":115,"pm10":50.9,"pm2_5":37.6,"mosquito_risk":0,"arthritis_risk":5,"migraine_risk":7,"frizz_risk":1,"updated_at":"2026-03-19T13:19:26.033920+05:30"},{"city":"Muzaffarpur","state":"Bihar","latitude":26.1209,"longitude":85.3647,"temp":31.7,"humidity":50,"rain":0.0,"pressure":1002.6,"uv_index":7.0,"wind_gusts":35.6,"aqi":162,"pm10":74.7,"pm2_5":51.3,"mosquito_risk":0,"arthritis_risk":5,"migraine_risk":4,"frizz_risk":1,"updated_at":"2026-03-19T13:19:26.033927+05:30"},{"city":"Bhagalpur","state":"Bihar","latitude":25.2425,"longitude":87.0117,"temp":29.7,"humidity":61,"rain":0.0,"pressure":1003.7,"uv_index":6.95,"wind_gusts":34.9,"aqi":129,"pm10":59.4,"pm2_5":53.7,"mosquito_risk":7,"arthritis_risk":5,"migraine_risk":4,"frizz_risk":1,"updated_at":"2026-03-19T13:19:26.033933+05:30"},{"city":"Ranchi","state":"Jharkhand","latitude":23.3441,"longitude":85.3096,"temp":30.0,"humidity":37,"rain":0.0,"pressure":940.4,"uv_index":6.75,"wind_gusts":35.3,"aqi":95,"pm10":40.5,"pm2_5":30.4,"mosquito_risk":4,"arthritis_risk":5,"migraine_risk":7,"frizz_risk":0,"updated_at":"2026-03-19T13:19:26.033940+05:30"},{"city":"Jamshedpur","state":"Jharkhand","latitude":22.8046,"longitude":86.2029,"temp":33.3,"humidity":38,"rain":0.0,"pressure":992.9,"uv_index":7.7,"wind_gusts":40.3,"aqi":136,"pm10":51.7,"pm2_5":41.9,"mosquito_risk":0,"arthritis_risk":5,"migraine_risk":7,"frizz_risk":1,"updated_at":"2026-03-19T13:19:26.033946+05:30"},{"city":"Dhanbad","state":"Jharkhand","latitude":23.7957,"longitude":86.4304,"temp":33.2,"humidity":29,"rain":0.0,"pressure":981.7,"uv_index":7.2,"wind_gusts":30.2,"aqi":157,"pm10":61.2,"pm2_5":51.8,"mosquito_risk":0,"arthritis_risk":5,"migraine_risk":7,"frizz_risk":0,"updated_at":"2026-03-19T13:19:26.033953+05:30"},{"city":"Bokaro","state":"Jharkhand","latitude":23.6693,"longitude":86.1511,"temp":32.8,"humidity":35,"rain":0.0,"pressure":985.9,"uv_index":7.15,"wind_gusts":35.6,"aqi":143,"pm10":50.6,"pm2_5":40.5,"mosquito_risk":0,"arthritis_risk":5,"migraine_risk":7,"frizz_risk":0,"updated_at":"2026-03-19T13:19:26.033959+05:30"},{"city":"Bhubaneswar","state":"Odisha","latitude":20.2961,"longitude":85.8245,"temp":32.6,"humidity":51,"rain":0.0,"pressure":1005.0,"uv_index":7.95,"wind_gusts":22.0,"aqi":82,"pm10":38.6,"pm2_5":29.9,"mosquito_risk":0,"arthritis_risk":5,"migraine_risk":4,"frizz_risk":1,"updated_at":"2026-03-19T13:19:26.033966+05:30"},{"city":"Cuttack","state":"Odisha","latitude":20.4625,"longitude":85.8828,"temp":33.0,"humidity":48,"rain":0.0,"pressure":1007.2,"uv_index":7.9,"wind_gusts":22.3,"aqi":82,"pm10":38.6,"pm2_5":29.9,"mosquito_risk":0,"arthritis_risk":5,"migraine_risk":4,"frizz_risk":1,"updated_at":"2026-03-19T13:19:26.033973+05:30"},{"city":"Rourkela","state":"Odisha","latitude":22.2604,"longitude":84.8536,"temp":33.1,"humidity":41,"rain":0.0,"pressure":987.3,"uv_index":7.15,"wind_gusts":25.6,"aqi":123,"pm10":56.7,"pm2_5":46.3,"mosquito_risk":0,"arthritis_risk":5,"migraine_risk":7,"frizz_risk":1,"updated_at":"2026-03-19T13:19:26.033979+05:30"},{"city":"Raipur","state":"Chhattisgarh","latitude":21.2514,"longitude":81.6296,"temp":32.1,"humidity":38,"rain":0.0,"pressure":977.4,"uv_index":7.75,"wind_gusts":27.7,"aqi":135,"pm10":59.8,"pm2_5":51.2,"mosquito_risk":0,"arthritis_risk":5,"migraine_risk":7,"frizz_risk":0,"updated_at":"2026-03-19T13:19:26.033985+05:30"},{"city":"Bhilai","state":"Chhattisgarh","latitude":21.1938,"longitude":81.3509,"temp":31.8,"humidity":39,"rain":0.0,"pressure":977.8,"uv_index":7.6,"wind_gusts":26.3,"aqi":138,"pm10":54.0,"pm2_5":44.9,"mosquito_risk":0,"arthritis_risk":5,"migraine_risk":7,"frizz_risk":1,"updated_at":"2026-03-19T13:19:26.033992+05:30"},{"city":"Guwahati","state":"Assam","latitude":26.1158,"longitude":91.7086,"temp":27.0,"humidity":64,"rain":0.0,"pressure":1004.7,"uv_index":7.5,"wind_gusts":29.5,"aqi":115,"pm10":49.0,"pm2_5":34.7,"mosquito_risk":7,"arthritis_risk":5,"migraine_risk":4,"frizz_risk":1,"updated_at":"2026-03-19T13:19:26.033998+05:30"},{"city":"Agartala","state":"Tripura","latitude":23.8315,"longitude":91.2868,"temp":31.4,"humidity":47,"rain":0.0,"pressure":1008.6,"uv_index":7.85,"wind_gusts":29.2,"aqi":89,"pm10":26.7,"pm2_5":22.1,"mosquito_risk":0,"arthritis_risk":0,"migraine_risk":4,"frizz_risk":1,"updated_at":"2026-03-19T13:19:26.034005+05:30"},{"city":"Shillong","state":"Meghalaya","latitude":25.5788,"longitude":91.8933,"temp":19.2,"humidity":47,"rain":0.0,"pressure":858.7,"uv_index":7.15,"wind_gusts":47.9,"aqi":87,"pm10":49.6,"pm2_5":29.6,"mosquito_risk":0,"arthritis_risk":5,"migraine_risk":7,"frizz_risk":0,"updated_at":"2026-03-19T13:19:26.034011+05:30"},{"city":"Imphal","state":"Manipur","latitude":24.817,"longitude":93.9368,"temp":22.0,"humidity":62,"rain":0.0,"pressure":925.4,"uv_index":8.25,"wind_gusts":60.8,"aqi":93,"pm10":39.0,"pm2_5":23.2,"mosquito_risk":3,"arthritis_risk":5,"migraine_risk":7,"frizz_risk":0,"updated_at":"2026-03-19T13:19:26.034018+05:30"},{"city":"Aizawl","state":"Mizoram","latitude":23.7271,"longitude":92.7176,"temp":24.8,"humidity":49,"rain":0.0,"pressure":896.1,"uv_index":8.05,"wind_gusts":40.0,"aqi":74,"pm10":31.9,"pm2_5":22.5,"mosquito_risk":0,"arthritis_risk":5,"migraine_risk":7,"frizz_risk":0,"updated_at":"2026-03-19T13:19:26.034024+05:30"},{"city":"Kohima","state":"Nagaland","latitude":25.6701,"longitude":94.1077,"temp":17.6,"humidity":77,"rain":0.0,"pressure":857.1,"uv_index":7.95,"wind_gusts":86.8,"aqi":84,"pm10":41.7,"pm2_5":24.4,"mosquito_risk":3,"arthritis_risk":5,"migraine_risk":7,"frizz_risk":0,"updated_at":"2026-03-19T13:19:26.034030+05:30"},{"city":"Gangtok","state":"Sikkim","latitude":27.3314,"longitude":88.6138,"temp":18.8,"humidity":61,"rain":0.0,"pressure":839.3,"uv_index":7.7,"wind_gusts":19.4,"aqi":100,"pm10":54.8,"pm2_5":33.2,"mosquito_risk":3,"arthritis_risk":5,"migraine_risk":7,"frizz_risk":0,"updated_at":"2026-03-19T13:19:26.034036+05:30"},{"city":"Siliguri","state":"West Bengal","latitude":26.7271,"longitude":88.3953,"temp":21.7,"humidity":78,"rain":0.0,"pressure":997.4,"uv_index":7.4,"wind_gusts":24.8,"aqi":139,"pm10":72.9,"pm2_5":52.5,"mosquito_risk":3,"arthritis_risk":5,"migraine_risk":7,"frizz_risk":1,"updated_at":"2026-03-19T13:19:29.303819+05:30"},{"city":"Durgapur","state":"West Bengal","latitude":23.5204,"longitude":87.3119,"temp":33.3,"humidity":38,"rain":0.0,"pressure":996.8,"uv_index":7.75,"wind_gusts":28.4,"aqi":148,"pm10":76.6,"pm2_5":67.1,"mosquito_risk":0,"arthritis_risk":5,"migraine_risk":7,"frizz_risk":1,"updated_at":"2026-03-19T13:19:29.303849+05:30"},{"city":"Asansol","state":"West Bengal","latitude":23.6739,"longitude":86.9524,"temp":33.7,"humidity":33,"rain":0.0,"pressure":995.2,"uv_index":7.65,"wind_gusts":25.6,"aqi":153,"pm10":66.1,"pm2_5":56.8,"mosquito_risk":0,"arthritis_risk":5,"migraine_risk":7,"frizz_risk":0,"updated_at":"2026-03-19T13:19:29.303859+05:30"},{"city":"Pondicherry","state":"Puducherry","latitude":11.9139,"longitude":79.8145,"temp":31.9,"humidity":55,"rain":0.0,"pressure":1010.4,"uv_index":9.1,"wind_gusts":26.6,"aqi":37,"pm10":16.4,"pm2_5":12.2,"mosquito_risk":0,"arthritis_risk":0,"migraine_risk":4,"frizz_risk":1,"updated_at":"2026-03-19T13:19:29.303867+05:30"},{"city":"Port Blair","state":"Andaman and Nicobar Islands","latitude":11.6234,"longitude":92.7265,"temp":27.6,"humidity":80,"rain":0.0,"pressure":1008.6,"uv_index":9.05,"wind_gusts":22.0,"aqi":51,"pm10":16.8,"pm2_5":13.1,"mosquito_risk":7,"arthritis_risk":0,"migraine_risk":4,"frizz_risk":1,"updated_at":"2026-03-19T13:19:29.303875+05:30"},{"city":"Haridwar","state":"Uttarakhand","latitude":29.9457,"longitude":78.1642,"temp":22.0,"humidity":68,"rain":0.0,"pressure":979.9,"uv_index":3.9,"wind_gusts":24.8,"aqi":67,"pm10":54.6,"pm2_5":14.8,"mosquito_risk":3,"arthritis_risk":5,"migraine_risk":3,"frizz_risk":0,"updated_at":"2026-03-19T13:19:29.303883+05:30"},{"city":"Rishikesh","state":"Uttarakhand","latitude":30.0869,"longitude":78.2676,"temp":22.6,"humidity":60,"rain":0.0,"pressure":972.2,"uv_index":4.2,"wind_gusts":28.1,"aqi":62,"pm10":42.5,"pm2_5":11.0,"mosquito_risk":0,"arthritis_risk":5,"migraine_risk":3,"frizz_risk":0,"updated_at":"2026-03-19T13:19:29.303890+05:30"},{"city":"Nainital","state":"Uttarakhand","latitude":29.3919,"longitude":79.4542,"temp":20.1,"humidity":47,"rain":0.0,"pressure":809.7,"uv_index":5.75,"wind_gusts":59.4,"aqi":75,"pm10":40.9,"pm2_5":11.8,"mosquito_risk":0,"arthritis_risk":5,"migraine_risk":3,"frizz_risk":0,"updated_at":"2026-03-19T13:19:29.303897+05:30"},{"city":"Mussoorie","state":"Uttarakhand","latitude":30.4599,"longitude":78.0664,"temp":13.4,"humidity":77,"rain":0.1,"pressure":804.2,"uv_index":5.1,"wind_gusts":41.0,"aqi":60,"pm10":62.4,"pm2_5":15.9,"mosquito_risk":6,"arthritis_risk":5,"migraine_risk":3,"frizz_risk":0,"updated_at":"2026-03-19T13:19:29.303904+05:30"},{"city":"Dharamshala","state":"Himachal Pradesh","latitude":32.219,"longitude":76.3234,"temp":14.6,"humidity":87,"rain":0.0,"pressure":870.7,"uv_index":3.8,"wind_gusts":29.9,"aqi":44,"pm10":14.4,"pm2_5":5.5,"mosquito_risk":3,"arthritis_risk":10,"migraine_risk":3,"frizz_risk":0,"updated_at":"2026-03-19T13:19:29.303911+05:30"},{"city":"Dalhousie","state":"Himachal Pradesh","latitude":32.5387,"longitude":75.971,"temp":13.3,"humidity":68,"rain":0.0,"pressure":804.4,"uv_index":4.55,"wind_gusts":25.2,"aqi":55,"pm10":53.3,"pm2_5":15.9,"mosquito_risk":3,"arthritis_risk":5,"migraine_risk":3,"frizz_risk":0,"updated_at":"2026-03-19T13:19:29.303919+05:30"},{"city":"Patiala","state":"Punjab","latitude":30.3398,"longitude":76.3869,"temp":19.6,"humidity":82,"rain":0.1,"pressure":983.4,"uv_index":3.85,"wind_gusts":25.2,"aqi":104,"pm10":65.7,"pm2_5":21.0,"mosquito_risk":6,"arthritis_risk":10,"migraine_risk":3,"frizz_risk":1,"updated_at":"2026-03-19T13:19:29.303925+05:30"},{"city":"Bhatinda","state":"Punjab","latitude":30.211,"longitude":74.9455,"temp":20.7,"humidity":83,"rain":0.1,"pressure":988.3,"uv_index":1.4,"wind_gusts":21.2,"aqi":86,"pm10":85.7,"pm2_5":31.4,"mosquito_risk":6,"arthritis_risk":5,"migraine_risk":3,"frizz_risk":1,"updated_at":"2026-03-19T13:19:29.303932+05:30"},{"city":"Rohtak","state":"Haryana","latitude":28.8955,"longitude":76.6066,"temp":23.1,"humidity":76,"rain":0.0,"pressure":986.8,"uv_index":4.9,"wind_gusts":28.8,"aqi":133,"pm10":100.6,"pm2_5":41.0,"mosquito_risk":3,"arthritis_risk":5,"migraine_risk":3,"frizz_risk":1,"updated_at":"2026-03-19T13:19:29.303938+05:30"},{"city":"Panipat","state":"Haryana","latitude":29.3909,"longitude":76.9635,"temp":21.3,"humidity":77,"rain":0.0,"pressure":985.3,"uv_index":3.65,"wind_gusts":36.0,"aqi":129,"pm10":71.7,"pm2_5":32.4,"mosquito_risk":3,"arthritis_risk":5,"migraine_risk":3,"frizz_risk":1,"updated_at":"2026-03-19T13:19:29.303944+05:30"},{"city":"Mathura","state":"Uttar Pradesh","latitude":27.4924,"longitude":77.6737,"temp":27.7,"humidity":44,"rain":0.0,"pressure":991.0,"uv_index":6.6,"wind_gusts":35.6,"aqi":131,"pm10":437.7,"pm2_5":57.3,"mosquito_risk":4,"arthritis_risk":5,"migraine_risk":7,"frizz_risk":0,"updated_at":"2026-03-19T13:19:29.303950+05:30"},{"city":"Vrindavan","state":"Uttar Pradesh","latitude":27.5823,"longitude":77.7027,"temp":27.4,"humidity":44,"rain":0.0,"pressure":991.5,"uv_index":6.55,"wind_gusts":34.2,"aqi":131,"pm10":437.7,"pm2_5":57.3,"mosquito_risk":4,"arthritis_risk":5,"migraine_risk":7,"frizz_risk":0,"updated_at":"2026-03-19T13:19:29.303957+05:30"},{"city":"Ayodhya","state":"Uttar Pradesh","latitude":26.7922,"longitude":82.1998,"temp":35.7,"humidity":23,"rain":0.0,"pressure":997.1,"uv_index":6.9,"wind_gusts":29.5,"aqi":119,"pm10":59.6,"pm2_5":24.9,"mosquito_risk":0,"arthritis_risk":5,"migraine_risk":10,"frizz_risk":0,"updated_at":"2026-03-19T13:19:29.303963+05:30"},{"city":"Ratlam","state":"Madhya Pradesh","latitude":23.3315,"longitude":75.0367,"temp":30.6,"humidity":36,"rain":0.0,"pressure":956.8,"uv_index":7.75,"wind_gusts":58.7,"aqi":50,"pm10":17.8,"pm2_5":12.0,"mosquito_risk":0,"arthritis_risk":5,"migraine_risk":7,"frizz_risk":0,"updated_at":"2026-03-19T13:19:29.303970+05:30"},{"city":"Sagar","state":"Madhya Pradesh","latitude":23.8388,"longitude":78.7378,"temp":34.1,"humidity":21,"rain":0.0,"pressure":952.1,"uv_index":7.75,"wind_gusts":43.6,"aqi":50,"pm10":13.4,"pm2_5":11.6,"mosquito_risk":0,"arthritis_risk":5,"migraine_risk":7,"frizz_risk":0,"updated_at":"2026-03-19T13:19:29.303976+05:30"},{"city":"Satna","state":"Madhya Pradesh","latitude":24.6005,"longitude":80.8322,"temp":36.0,"humidity":20,"rain":0.0,"pressure":972.7,"uv_index":7.7,"wind_gusts":31.0,"aqi":70,"pm10":40.6,"pm2_5":23.7,"mosquito_risk":0,"arthritis_risk":5,"migraine_risk":10,"frizz_risk":0,"updated_at":"2026-03-19T13:19:29.303983+05:30"},{"city":"Akola","state":"Maharashtra","latitude":20.7002,"longitude":77.0082,"temp":33.5,"humidity":29,"rain":0.0,"pressure":977.3,"uv_index":8.2,"wind_gusts":25.6,"aqi":96,"pm10":37.5,"pm2_5":30.6,"mosquito_risk":0,"arthritis_risk":5,"migraine_risk":7,"frizz_risk":0,"updated_at":"2026-03-19T13:19:29.303990+05:30"},{"city":"Amravati","state":"Maharashtra","latitude":20.9374,"longitude":77.7796,"temp":34.6,"humidity":29,"rain":0.0,"pressure":969.5,"uv_index":8.15,"wind_gusts":23.0,"aqi":100,"pm10":40.2,"pm2_5":32.1,"mosquito_risk":0,"arthritis_risk":5,"migraine_risk":7,"frizz_risk":0,"updated_at":"2026-03-19T13:19:29.303997+05:30"},{"city":"Latur","state":"Maharashtra","latitude":18.4088,"longitude":76.5604,"temp":31.6,"humidity":34,"rain":0.0,"pressure":942.0,"uv_index":8.55,"wind_gusts":37.4,"aqi":90,"pm10":29.2,"pm2_5":22.0,"mosquito_risk":0,"arthritis_risk":5,"migraine_risk":7,"frizz_risk":0,"updated_at":"2026-03-19T13:19:29.304003+05:30"},{"city":"Nanded","state":"Maharashtra","latitude":19.1383,"longitude":77.3091,"temp":33.8,"humidity":32,"rain":0.0,"pressure":970.5,"uv_index":8.4,"wind_gusts":19.8,"aqi":96,"pm10":33.5,"pm2_5":26.2,"mosquito_risk":0,"arthritis_risk":5,"migraine_risk":7,"frizz_risk":0,"updated_at":"2026-03-19T13:19:29.304009+05:30"},{"city":"Gulbarga","state":"Karnataka","latitude":17.3297,"longitude":76.8343,"temp":31.7,"humidity":38,"rain":0.0,"pressure":961.3,"uv_index":8.65,"wind_gusts":21.2,"aqi":86,"pm10":23.3,"pm2_5":18.3,"mosquito_risk":0,"arthritis_risk":5,"migraine_risk":7,"frizz_risk":0,"updated_at":"2026-03-19T13:19:29.304015+05:30"},{"city":"Bidar","state":"Karnataka","latitude":17.9104,"longitude":77.5199,"temp":31.0,"humidity":37,"rain":0.0,"pressure":937.8,"uv_index":8.6,"wind_gusts":28.1,"aqi":90,"pm10":22.6,"pm2_5":16.4,"mosquito_risk":0,"arthritis_risk":5,"migraine_risk":7,"frizz_risk":0,"updated_at":"2026-03-19T13:19:29.304022+05:30"},{"city":"Hospet","state":"Karnataka","latitude":15.2689,"longitude":76.3909,"temp":30.6,"humidity":46,"rain":0.0,"pressure":958.4,"uv_index":8.9,"wind_gusts":22.3,"aqi":94,"pm10":32.1,"pm2_5":26.5,"mosquito_risk":0,"arthritis_risk":5,"migraine_risk":7,"frizz_risk":1,"updated_at":"2026-03-19T13:19:29.304027+05:30"},{"city":"Tirupur","state":"Tamil Nadu","latitude":11.1085,"longitude":77.3411,"temp":33.2,"humidity":40,"rain":0.0,"pressure":977.1,"uv_index":9.35,"wind_gusts":28.8,"aqi":60,"pm10":18.9,"pm2_5":16.9,"mosquito_risk":0,"arthritis_risk":5,"migraine_risk":7,"frizz_risk":1,"updated_at":"2026-03-19T13:19:29.304033+05:30"},{"city":"Alappuzha","state":"Kerala","latitude":9.4981,"longitude":76.3388,"temp":28.1,"humidity":78,"rain":0.0,"pressure":1010.8,"uv_index":9.1,"wind_gusts":24.8,"aqi":56,"pm10":17.2,"pm2_5":16.1,"mosquito_risk":7,"arthritis_risk":0,"migraine_risk":4,"frizz_risk":1,"updated_at":"2026-03-19T13:19:29.304040+05:30"},{"city":"Munnar","state":"Kerala","latitude":10.0889,"longitude":77.0595,"temp":26.9,"humidity":59,"rain":0.0,"pressure":860.2,"uv_index":9.6,"wind_gusts":36.7,"aqi":63,"pm10":12.8,"pm2_5":12.0,"mosquito_risk":4,"arthritis_risk":5,"migraine_risk":7,"frizz_risk":1,"updated_at":"2026-03-19T13:19:29.304046+05:30"},{"city":"Silchar","state":"Assam","latitude":24.8333,"longitude":92.7789,"temp":29.1,"humidity":56,"rain":0.0,"pressure":1007.9,"uv_index":7.9,"wind_gusts":23.0,"aqi":95,"pm10":30.3,"pm2_5":24.9,"mosquito_risk":4,"arthritis_risk":5,"migraine_risk":4,"frizz_risk":1,"updated_at":"2026-03-19T13:19:29.304052+05:30"},{"city":"Dibrugarh","state":"Assam","latitude":27.4728,"longitude":94.912,"temp":22.6,"humidity":73,"rain":0.0,"pressure":999.7,"uv_index":6.3,"wind_gusts":19.8,"aqi":94,"pm10":44.6,"pm2_5":27.8,"mosquito_risk":3,"arthritis_risk":5,"migraine_risk":7,"frizz_risk":1,"updated_at":"2026-03-19T13:19:29.304059+05:30"}]