[{"city":"Delhi","state":"Delhi","latitude":28.6139,"longitude":77.209,"temp":33.8,"humidity":41,"rain":0.0,"pressure":979.4,"uv_index":7.75,"wind_gusts":38.5,"aqi":182,"pm10":410.7,"pm2_5":99.2,"no2":35.3,"co":386.0,"o3":72.0,"so2":18.3,"mosquito_risk":0,"arthritis_risk":5,"migraine_risk":7,"frizz_risk":1,"updated_at":"2026-06-18T22:06:22.846975+05:30"},{"city":"Mumbai","state":"Maharashtra","latitude":19.076,"longitude":72.8777,"temp":30.2,"humidity":66,"rain":0.0,"pressure":1008.3,"uv_index":7.7,"wind_gusts":43.2,"aqi":62,"pm10":32.2,"pm2_5":16.4,"no2":8.2,"co":168.0,"o3":44.0,"so2":6.0,"mosquito_risk":3,"arthritis_risk":0,"migraine_risk":4,"frizz_risk":1,"updated_at":"2026-06-18T22:06:22.847024+05:30"},{"city":"Bangalore","state":"Karnataka","latitude":12.9716,"longitude":77.5946,"temp":21.6,"humidity":95,"rain":0.0,"pressure":912.6,"uv_index":7.0,"wind_gusts":34.6,"aqi":55,"pm10":19.3,"pm2_5":15.3,"no2":30.7,"co":627.0,"o3":30.0,"so2":7.6,"mosquito_risk":3,"arthritis_risk":5,"migraine_risk":7,"frizz_risk":1,"updated_at":"2026-06-18T22:06:22.847041+05:30"},{"city":"Hyderabad","state":"Telangana","latitude":17.385,"longitude":78.4867,"temp":32.4,"humidity":38,"rain":0.0,"pressure":952.9,"uv_index":9.05,"wind_gusts":37.8,"aqi":72,"pm10":56.9,"pm2_5":45.8,"no2":48.8,"co":484.0,"o3":28.0,"so2":12.4,"mosquito_risk":0,"arthritis_risk":5,"migraine_risk":7,"frizz_risk":1,"updated_at":"2026-06-18T22:06:22.847052+05:30"},{"city":"Chennai","state":"Tamil Nadu","latitude":13.0827,"longitude":80.2707,"temp":28.9,"humidity":76,"rain":0.0,"pressure":1006.7,"uv_index":6.6,"wind_gusts":31.0,"aqi":140,"pm10":33.3,"pm2_5":24.7,"no2":12.4,"co":393.0,"o3":120.0,"so2":7.9,"mosquito_risk":7,"arthritis_risk":5,"migraine_risk":4,"frizz_risk":1,"updated_at":"2026-06-18T22:06:22.847062+05:30"},{"city":"Kolkata","state":"West Bengal","latitude":22.5726,"longitude":88.3639,"temp":28.8,"humidity":88,"rain":0.0,"pressure":1003.5,"uv_index":8.95,"wind_gusts":42.1,"aqi":131,"pm10":50.1,"pm2_5":44.0,"no2":14.2,"co":473.0,"o3":75.0,"so2":11.6,"mosquito_risk":7,"arthritis_risk":5,"migraine_risk":4,"frizz_risk":1,"updated_at":"2026-06-18T22:06:22.847071+05:30"},{"city":"Pune","state":"Maharashtra","latitude":18.5204,"longitude":73.8567,"temp":25.6,"humidity":73,"rain":0.0,"pressure":948.6,"uv_index":8.3,"wind_gusts":43.9,"aqi":51,"pm10":26.5,"pm2_5":16.4,"no2":7.0,"co":154.0,"o3":53.0,"so2":5.8,"mosquito_risk":7,"arthritis_risk":5,"migraine_risk":7,"frizz_risk":1,"updated_at":"2026-06-18T22:06:22.847078+05:30"},{"city":"Ahmedabad","state":"Gujarat","latitude":23.0225,"longitude":72.5714,"temp":29.1,"humidity":76,"rain":0.1,"pressure":1000.4,"uv_index":4.45,"wind_gusts":30.2,"aqi":67,"pm10":31.2,"pm2_5":18.5,"no2":10.1,"co":228.0,"o3":58.0,"so2":6.6,"mosquito_risk":10,"arthritis_risk":5,"migraine_risk":0,"frizz_risk":1,"updated_at":"2026-06-18T22:06:22.847085+05:30"},{"city":"Jaipur","state":"Rajasthan","latitude":26.9124,"longitude":75.7873,"temp":31.1,"humidity":48,"rain":0.0,"pressure":957.3,"uv_index":8.2,"wind_gusts":33.1,"aqi":118,"pm10":133.2,"pm2_5":55.9,"no2":30.6,"co":277.0,"o3":38.0,"so2":10.9,"mosquito_risk":0,"arthritis_risk":5,"migraine_risk":7,"frizz_risk":1,"updated_at":"2026-06-18T22:06:22.847092+05:30"},{"city":"Lucknow","state":"Uttar Pradesh","latitude":26.8467,"longitude":80.9462,"temp":32.9,"humidity":55,"rain":0.0,"pressure":989.7,"uv_index":8.35,"wind_gusts":43.2,"aqi":157,"pm10":172.8,"pm2_5":65.2,"no2":19.5,"co":383.0,"o3":80.0,"so2":10.9,"mosquito_risk":0,"arthritis_risk":5,"migraine_risk":7,"frizz_risk":1,"updated_at":"2026-06-18T22:06:22.847104+05:30"},{"city":"Kanpur","state":"Uttar Pradesh","latitude":26.4499,"longitude":80.3319,"temp":34.1,"humidity":50,"rain":0.0,"pressure":988.0,"uv_index":8.25,"wind_gusts":43.2,"aqi":155,"pm10":266.4,"pm2_5":73.8,"no2":23.3,"co":389.0,"o3":70.0,"so2":9.9,"mosquito_risk":0,"arthritis_risk":5,"migraine_risk":7,"frizz_risk":1,"updated_at":"2026-06-18T22:06:22.847110+05:30"},{"city":"Chandigarh","state":"Chandigarh","latitude":30.7333,"longitude":76.7794,"temp":28.8,"humidity":56,"rain":0.0,"pressure":965.1,"uv_index":7.8,"wind_gusts":28.8,"aqi":142,"pm10":60.1,"pm2_5":50.1,"no2":38.6,"co":761.0,"o3":80.0,"so2":12.6,"mosquito_risk":4,"arthritis_risk":5,"migraine_risk":7,"frizz_risk":1,"updated_at":"2026-06-18T22:06:22.847118+05:30"},{"city":"Srinagar","state":"Jammu and Kashmir","latitude":34.0837,"longitude":74.7973,"temp":18.9,"humidity":83,"rain":0.0,"pressure":841.7,"uv_index":8.85,"wind_gusts":34.9,"aqi":75,"pm10":32.2,"pm2_5":30.4,"no2":33.0,"co":1319.0,"o3":31.0,"so2":1.1,"mosquito_risk":3,"arthritis_risk":10,"migraine_risk":7,"frizz_risk":0,"updated_at":"2026-06-18T22:06:22.847125+05:30"},{"city":"Jammu","state":"Jammu and Kashmir","latitude":32.7266,"longitude":74.857,"temp":32.1,"humidity":42,"rain":0.0,"pressure":968.7,"uv_index":8.65,"wind_gusts":29.9,"aqi":117,"pm10":52.7,"pm2_5":43.8,"no2":55.0,"co":444.0,"o3":63.0,"so2":7.3,"mosquito_risk":0,"arthritis_risk":5,"migraine_risk":7,"frizz_risk":1,"updated_at":"2026-06-18T22:06:22.847132+05:30"},{"city":"Amritsar","state":"Punjab","latitude":31.634,"longitude":74.8723,"temp":29.4,"humidity":72,"rain":0.0,"pressure":976.3,"uv_index":8.5,"wind_gusts":25.2,"aqi":155,"pm10":77.3,"pm2_5":64.7,"no2":44.8,"co":654.0,"o3":77.0,"so2":14.0,"mosquito_risk":7,"arthritis_risk":5,"migraine_risk":7,"frizz_risk":1,"updated_at":"2026-06-18T22:06:22.847139+05:30"},{"city":"Ludhiana","state":"Punjab","latitude":30.901,"longitude":75.8573,"temp":30.6,"humidity":61,"rain":0.0,"pressure":974.6,"uv_index":7.4,"wind_gusts":28.8,"aqi":154,"pm10":59.8,"pm2_5":51.5,"no2":26.6,"co":1002.0,"o3":78.0,"so2":7.6,"mosquito_risk":3,"arthritis_risk":5,"migraine_risk":7,"frizz_risk":1,"updated_at":"2026-06-18T22:06:22.847146+05:30"},{"city":"Jalandhar","state":"Punjab","latitude":31.326,"longitude":75.5762,"temp":30.8,"humidity":57,"rain":0.0,"pressure":975.4,"uv_index":8.25,"wind_gusts":27.7,"aqi":153,"pm10":66.8,"pm2_5":57.9,"no2":30.8,"co":788.0,"o3":81.0,"so2":8.7,"mosquito_risk":0,"arthritis_risk":5,"migraine_risk":7,"frizz_risk":1,"updated_at":"2026-06-18T22:06:22.847152+05:30"},{"city":"Dehradun","state":"Uttarakhand","latitude":30.6284,"longitude":78.0322,"temp":18.1,"humidity":87,"rain":0.0,"pressure":829.0,"uv_index":7.7,"wind_gusts":24.5,"aqi":100,"pm10":33.4,"pm2_5":17.8,"no2":14.6,"co":234.0,"o3":96.0,"so2":1.3,"mosquito_risk":3,"arthritis_risk":10,"migraine_risk":7,"frizz_risk":0,"updated_at":"2026-06-18T22:06:22.847159+05:30"},{"city":"Shimla","state":"Himachal Pradesh","latitude":31.1048,"longitude":77.1734,"temp":15.3,"humidity":78,"rain":0.0,"pressure":783.2,"uv_index":7.75,"wind_gusts":35.6,"aqi":112,"pm10":44.8,"pm2_5":27.7,"no2":15.0,"co":431.0,"o3":100.0,"so2":0.9,"mosquito_risk":3,"arthritis_risk":5,"migraine_risk":7,"frizz_risk":0,"updated_at":"2026-06-18T22:06:22.847165+05:30"},{"city":"Manali","state":"Himachal Pradesh","latitude":32.2396,"longitude":77.1887,"temp":15.5,"humidity":93,"rain":0.0,"pressure":817.0,"uv_index":9.6,"wind_gusts":29.5,"aqi":50,"pm10":7.2,"pm2_5":7.0,"no2":49.2,"co":244.0,"o3":70.0,"so2":0.2,"mosquito_risk":3,"arthritis_risk":10,"migraine_risk":7,"frizz_risk":0,"updated_at":"2026-06-18T22:06:22.847179+05:30"},{"city":"Gurgaon","state":"Haryana","latitude":28.4595,"longitude":77.0266,"temp":31.7,"humidity":50,"rain":0.0,"pressure":977.9,"uv_index":7.85,"wind_gusts":36.4,"aqi":206,"pm10":429.3,"pm2_5":99.4,"no2":49.3,"co":553.0,"o3":55.0,"so2":20.5,"mosquito_risk":0,"arthritis_risk":5,"migraine_risk":7,"frizz_risk":1,"updated_at":"2026-06-18T22:06:22.847185+05:30"},{"city":"Noida","state":"Uttar Pradesh","latitude":28.5355,"longitude":77.391,"temp":32.3,"humidity":50,"rain":0.0,"pressure":980.6,"uv_index":7.8,"wind_gusts":26.3,"aqi":206,"pm10":429.3,"pm2_5":99.4,"no2":49.3,"co":941.0,"o3":55.0,"so2":20.5,"mosquito_risk":0,"arthritis_risk":5,"migraine_risk":7,"frizz_risk":1,"updated_at":"2026-06-18T22:06:22.847191+05:30"},{"city":"Ghaziabad","state":"Uttar Pradesh","latitude":28.6692,"longitude":77.4538,"temp":31.5,"humidity":51,"rain":0.0,"pressure":978.9,"uv_index":7.35,"wind_gusts":31.3,"aqi":189,"pm10":231.9,"pm2_5":94.1,"no2":43.8,"co":619.0,"o3":68.0,"so2":21.8,"mosquito_risk":0,"arthritis_risk":5,"migraine_risk":7,"frizz_risk":1,"updated_at":"2026-06-18T22:06:22.847198+05:30"},{"city":"Faridabad","state":"Haryana","latitude":28.4089,"longitude":77.3178,"temp":33.5,"humidity":42,"rain":0.0,"pressure":980.1,"uv_index":7.85,"wind_gusts":37.8,"aqi":206,"pm10":429.3,"pm2_5":99.4,"no2":49.3,"co":569.0,"o3":55.0,"so2":20.5,"mosquito_risk":0,"arthritis_risk":5,"migraine_risk":7,"frizz_risk":1,"updated_at":"2026-06-18T22:06:22.847208+05:30"},{"city":"Meerut","state":"Uttar Pradesh","latitude":28.9845,"longitude":77.7064,"temp":31.3,"humidity":58,"rain":0.0,"pressure":977.6,"uv_index":7.7,"wind_gusts":42.1,"aqi":189,"pm10":231.9,"pm2_5":94.1,"no2":43.8,"co":562.0,"o3":68.0,"so2":21.8,"mosquito_risk":0,"arthritis_risk":5,"migraine_risk":7,"frizz_risk":1,"updated_at":"2026-06-18T22:06:22.847214+05:30"},{"city":"Agra","state":"Uttar Pradesh","latitude":27.1767,"longitude":78.0081,"temp":34.1,"humidity":45,"rain":0.0,"pressure":984.1,"uv_index":8.15,"wind_gusts":31.7,"aqi":198,"pm10":396.7,"pm2_5":118.5,"no2":71.0,"co":447.0,"o3":20.0,"so2":21.7,"mosquito_risk":0,"arthritis_risk":5,"migraine_risk":7,"frizz_risk":1,"updated_at":"2026-06-18T22:06:22.847221+05:30"},{"city":"Varanasi","state":"Uttar Pradesh","latitude":25.3176,"longitude":82.9739,"temp":33.1,"humidity":53,"rain":0.0,"pressure":994.2,"uv_index":8.8,"wind_gusts":31.3,"aqi":141,"pm10":46.8,"pm2_5":33.6,"no2":20.3,"co":426.0,"o3":72.0,"so2":10.5,"mosquito_risk":0,"arthritis_risk":5,"migraine_risk":7,"frizz_risk":1,"updated_at":"2026-06-18T22:06:22.847227+05:30"},{"city":"Prayagraj","state":"Uttar Pradesh","latitude":25.4358,"longitude":81.8463,"temp":34.5,"humidity":44,"rain":0.0,"pressure":992.7,"uv_index":8.3,"wind_gusts":32.0,"aqi":124,"pm10":77.3,"pm2_5":44.0,"no2":16.2,"co":340.0,"o3":69.0,"so2":8.4,"mosquito_risk":0,"arthritis_risk":5,"migraine_risk":7,"frizz_risk":1,"updated_at":"2026-06-18T22:06:22.847236+05:30"},{"city":"Gorakhpur","state":"Uttar Pradesh","latitude":26.7606,"longitude":83.3732,"temp":32.1,"humidity":56,"rain":0.0,"pressure":993.3,"uv_index":8.7,"wind_gusts":31.0,"aqi":151,"pm10":113.2,"pm2_5":65.7,"no2":28.3,"co":501.0,"o3":70.0,"so2":14.7,"mosquito_risk":0,"arthritis_risk":5,"migraine_risk":7,"frizz_risk":1,"updated_at":"2026-06-18T22:06:22.847243+05:30"},{"city":"Bareilly","state":"Uttar Pradesh","latitude":28.367,"longitude":79.4304,"temp":30.8,"humidity":63,"rain":0.0,"pressure":982.6,"uv_index":8.15,"wind_gusts":26.3,"aqi":158,"pm10":90.6,"pm2_5":58.1,"no2":24.5,"co":459.0,"o3":83.0,"so2":13.6,"mosquito_risk":3,"arthritis_risk":5,"migraine_risk":7,"frizz_risk":1,"updated_at":"2026-06-18T22:06:22.847251+05:30"},{"city":"Aligarh","state":"Uttar Pradesh","latitude":27.8974,"longitude":78.088,"temp":31.8,"humidity":51,"rain":0.0,"pressure":981.8,"uv_index":7.95,"wind_gusts":32.4,"aqi":230,"pm10":344.6,"pm2_5":114.1,"no2":66.6,"co":552.0,"o3":41.0,"so2":20.1,"mosquito_risk":0,"arthritis_risk":5,"migraine_risk":7,"frizz_risk":1,"updated_at":"2026-06-18T22:06:22.847257+05:30"},{"city":"Moradabad","state":"Uttar Pradesh","latitude":28.8386,"longitude":78.7733,"temp":31.6,"humidity":58,"rain":0.0,"pressure":979.6,"uv_index":7.95,"wind_gusts":32.0,"aqi":166,"pm10":119.7,"pm2_5":83.1,"no2":51.5,"co":563.0,"o3":50.0,"so2":16.8,"mosquito_risk":0,"arthritis_risk":5,"migraine_risk":7,"frizz_risk":1,"updated_at":"2026-06-18T22:06:22.847263+05:30"},{"city":"Saharanpur","state":"Uttar Pradesh","latitude":29.9637,"longitude":77.546,"temp":30.6,"humidity":50,"rain":0.0,"pressure":971.7,"uv_index":7.55,"wind_gusts":24.5,"aqi":168,"pm10":136.0,"pm2_5":66.8,"no2":29.8,"co":406.0,"o3":73.0,"so2":13.8,"mosquito_risk":0,"arthritis_risk":5,"migraine_risk":7,"frizz_risk":1,"updated_at":"2026-06-18T22:06:22.847269+05:30"},{"city":"Jhansi","state":"Uttar Pradesh","latitude":25.4484,"longitude":78.5685,"temp":32.8,"humidity":46,"rain":0.0,"pressure":974.9,"uv_index":8.5,"wind_gusts":32.0,"aqi":82,"pm10":47.5,"pm2_5":27.5,"no2":7.1,"co":185.0,"o3":65.0,"so2":4.3,"mosquito_risk":0,"arthritis_risk":5,"migraine_risk":7,"frizz_risk":1,"updated_at":"2026-06-18T22:06:26.083391+05:30"},{"city":"Surat","state":"Gujarat","latitude":21.1702,"longitude":72.8311,"temp":29.5,"humidity":78,"rain":0.0,"pressure":1005.6,"uv_index":7.6,"wind_gusts":49.7,"aqi":72,"pm10":35.0,"pm2_5":20.5,"no2":19.4,"co":259.0,"o3":30.0,"so2":31.8,"mosquito_risk":7,"arthritis_risk":5,"migraine_risk":4,"frizz_risk":1,"updated_at":"2026-06-18T22:06:26.083429+05:30"},{"city":"Vadodara","state":"Gujarat","latitude":22.3072,"longitude":73.1812,"temp":27.3,"humidity":92,"rain":0.5,"pressure":1003.3,"uv_index":5.25,"wind_gusts":50.4,"aqi":65,"pm10":28.5,"pm2_5":18.6,"no2":19.2,"co":141.0,"o3":34.0,"so2":14.3,"mosquito_risk":10,"arthritis_risk":5,"migraine_risk":0,"frizz_risk":1,"updated_at":"2026-06-18T22:06:26.083440+05:30"},{"city":"Rajkot","state":"Gujarat","latitude":22.3039,"longitude":70.8022,"temp":30.0,"humidity":69,"rain":0.0,"pressure":992.6,"uv_index":4.15,"wind_gusts":45.7,"aqi":58,"pm10":30.7,"pm2_5":14.5,"no2":5.3,"co":135.0,"o3":47.0,"so2":4.9,"mosquito_risk":7,"arthritis_risk":5,"migraine_risk":3,"frizz_risk":1,"updated_at":"2026-06-18T22:06:26.083448+05:30"},{"city":"Thane","state":"Maharashtra","latitude":19.2183,"longitude":72.9781,"temp":30.2,"humidity":66,"rain":0.0,"pressure":1007.7,"uv_index":7.7,"wind_gusts":40.7,"aqi":62,"pm10":32.2,"pm2_5":16.4,"no2":8.2,"co":177.0,"o3":44.0,"so2":6.0,"mosquito_risk":3,"arthritis_risk":5,"migraine_risk":4,"frizz_risk":1,"updated_at":"2026-06-18T22:06:26.083455+05:30"},{"city":"Nagpur","state":"Maharashtra","latitude":21.1458,"longitude":79.0882,"temp":31.1,"humidity":65,"rain":0.0,"pressure":971.5,"uv_index":7.55,"wind_gusts":50.4,"aqi":77,"pm10":62.6,"pm2_5":43.9,"no2":35.1,"co":313.0,"o3":45.0,"so2":22.2,"mosquito_risk":3,"arthritis_risk":5,"migraine_risk":7,"frizz_risk":1,"updated_at":"2026-06-18T22:06:26.083462+05:30"},{"city":"Nashik","state":"Maharashtra","latitude":19.9975,"longitude":73.7898,"temp":25.8,"humidity":73,"rain":0.0,"pressure":945.6,"uv_index":8.0,"wind_gusts":45.4,"aqi":51,"pm10":26.8,"pm2_5":14.3,"no2":4.0,"co":130.0,"o3":51.0,"so2":1.7,"mosquito_risk":7,"arthritis_risk":5,"migraine_risk":7,"frizz_risk":1,"updated_at":"2026-06-18T22:06:26.083469+05:30"},{"city":"Aurangabad","state":"Maharashtra","latitude":19.8762,"longitude":75.3433,"temp":30.2,"humidity":45,"rain":0.0,"pressure":943.8,"uv_index":8.9,"wind_gusts":43.2,"aqi":51,"pm10":30.2,"pm2_5":18.3,"no2":5.6,"co":135.0,"o3":83.0,"so2":4.8,"mosquito_risk":0,"arthritis_risk":5,"migraine_risk":7,"frizz_risk":1,"updated_at":"2026-06-18T22:06:26.083477+05:30"},{"city":"Solapur","state":"Maharashtra","latitude":17.6599,"longitude":75.9064,"temp":30.6,"humidity":45,"rain":0.0,"pressure":956.8,"uv_index":8.7,"wind_gusts":43.9,"aqi":55,"pm10":34.0,"pm2_5":23.7,"no2":14.4,"co":154.0,"o3":70.0,"so2":4.5,"mosquito_risk":0,"arthritis_risk":5,"migraine_risk":7,"frizz_risk":1,"updated_at":"2026-06-18T22:06:26.083484+05:30"},{"city":"Kolhapur","state":"Maharashtra","latitude":16.705,"longitude":74.2433,"temp":24.9,"humidity":69,"rain":0.0,"pressure":948.9,"uv_index":8.75,"wind_gusts":43.6,"aqi":53,"pm10":27.0,"pm2_5":17.0,"no2":5.4,"co":170.0,"o3":54.0,"so2":2.6,"mosquito_risk":3,"arthritis_risk":5,"migraine_risk":7,"frizz_risk":1,"updated_at":"2026-06-18T22:06:26.083492+05:30"},{"city":"Goa","state":"Goa","latitude":15.2993,"longitude":74.124,"temp":27.4,"humidity":80,"rain":0.0,"pressure":999.3,"uv_index":8.65,"wind_gusts":33.5,"aqi":61,"pm10":37.1,"pm2_5":19.3,"no2":4.3,"co":373.0,"o3":46.0,"so2":1.8,"mosquito_risk":7,"arthritis_risk":5,"migraine_risk":7,"frizz_risk":1,"updated_at":"2026-06-18T22:06:26.083499+05:30"},{"city":"Jodhpur","state":"Rajasthan","latitude":26.2389,"longitude":73.0243,"temp":32.9,"humidity":48,"rain":0.0,"pressure":979.9,"uv_index":8.4,"wind_gusts":42.5,"aqi":104,"pm10":146.7,"pm2_5":34.2,"no2":6.3,"co":167.0,"o3":62.0,"so2":2.0,"mosquito_risk":0,"arthritis_risk":5,"migraine_risk":7,"frizz_risk":1,"updated_at":"2026-06-18T22:06:26.083505+05:30"},{"city":"Udaipur","state":"Rajasthan","latitude":24.5854,"longitude":73.7125,"temp":27.7,"humidity":75,"rain":0.0,"pressure":944.9,"uv_index":7.9,"wind_gusts":33.1,"aqi":65,"pm10":27.1,"pm2_5":15.7,"no2":10.0,"co":241.0,"o3":46.0,"so2":1.3,"mosquito_risk":7,"arthritis_risk":5,"migraine_risk":7,"frizz_risk":1,"updated_at":"2026-06-18T22:06:26.083512+05:30"},{"city":"Kota","state":"Rajasthan","latitude":25.2138,"longitude":75.8648,"temp":31.0,"humidity":58,"rain":0.0,"pressure":976.7,"uv_index":8.35,"wind_gusts":41.0,"aqi":74,"pm10":28.2,"pm2_5":19.1,"no2":7.7,"co":288.0,"o3":71.0,"so2":5.6,"mosquito_risk":0,"arthritis_risk":5,"migraine_risk":7,"frizz_risk":1,"updated_at":"2026-06-18T22:06:26.083520+05:30"},{"city":"Bikaner","state":"Rajasthan","latitude":28.0229,"longitude":73.3119,"temp":31.1,"humidity":60,"rain":0.0,"pressure":978.1,"uv_index":8.45,"wind_gusts":54.7,"aqi":124,"pm10":76.8,"pm2_5":32.2,"no2":4.8,"co":440.0,"o3":62.0,"so2":2.6,"mosquito_risk":0,"arthritis_risk":5,"migraine_risk":7,"frizz_risk":1,"updated_at":"2026-06-18T22:06:26.083526+05:30"},{"city":"Ajmer","state":"Rajasthan","latitude":26.4499,"longitude":74.6399,"temp":29.0,"humidity":62,"rain":0.0,"pressure":952.5,"uv_index":8.35,"wind_gusts":41.4,"aqi":85,"pm10":52.9,"pm2_5":27.2,"no2":9.3,"co":212.0,"o3":59.0,"so2":3.9,"mosquito_risk":7,"arthritis_risk":5,"migraine_risk":7,"frizz_risk":1,"updated_at":"2026-06-18T22:06:26.083533+05:30"},{"city":"Gwalior","state":"Madhya Pradesh","latitude":26.2183,"longitude":78.1828,"temp":34.7,"humidity":39,"rain":0.0,"pressure":979.8,"uv_index":8.25,"wind_gusts":34.6,"aqi":96,"pm10":67.8,"pm2_5":34.0,"no2":9.7,"co":159.0,"o3":59.0,"so2":4.1,"mosquito_risk":0,"arthritis_risk":5,"migraine_risk":7,"frizz_risk":1,"updated_at":"2026-06-18T22:06:26.083540+05:30"},{"city":"Indore","state":"Madhya Pradesh","latitude":22.7196,"longitude":75.8577,"temp":29.1,"humidity":56,"rain":0.0,"pressure":947.4,"uv_index":8.6,"wind_gusts":40.7,"aqi":74,"pm10":26.3,"pm2_5":20.6,"no2":11.2,"co":241.0,"o3":59.0,"so2":5.1,"mosquito_risk":4,"arthritis_risk":5,"migraine_risk":7,"frizz_risk":1,"updated_at":"2026-06-18T22:06:26.083547+05:30"},{"city":"Bhopal","state":"Madhya Pradesh","latitude":23.2599,"longitude":77.4126,"temp":28.1,"humidity":68,"rain":0.0,"pressure":952.2,"uv_index":8.65,"wind_gusts":35.3,"aqi":76,"pm10":32.7,"pm2_5":22.6,"no2":5.9,"co":341.0,"o3":76.0,"so2":3.2,"mosquito_risk":7,"arthritis_risk":5,"migraine_risk":7,"frizz_risk":1,"updated_at":"2026-06-18T22:06:26.083554+05:30"},{"city":"Jabalpur","state":"Madhya Pradesh","latitude":23.1815,"longitude":79.9864,"temp":27.9,"humidity":77,"rain":0.0,"pressure":959.5,"uv_index":3.75,"wind_gusts":36.0,"aqi":72,"pm10":31.7,"pm2_5":26.0,"no2":15.7,"co":283.0,"o3":63.0,"so2":4.5,"mosquito_risk":7,"arthritis_risk":5,"migraine_risk":3,"frizz_risk":1,"updated_at":"2026-06-18T22:06:26.083560+05:30"},{"city":"Ujjain","state":"Madhya Pradesh","latitude":23.1765,"longitude":75.7885,"temp":28.8,"humidity":59,"rain":0.0,"pressure":952.9,"uv_index":8.55,"wind_gusts":45.4,"aqi":67,"pm10":32.1,"pm2_5":24.6,"no2":7.4,"co":272.0,"o3":61.0,"so2":4.3,"mosquito_risk":4,"arthritis_risk":5,"migraine_risk":7,"frizz_risk":1,"updated_at":"2026-06-18T22:06:26.083568+05:30"},{"city":"Visakhapatnam","state":"Andhra Pradesh","latitude":17.6868,"longitude":83.2185,"temp":28.4,"humidity":94,"rain":0.0,"pressure":1002.3,"uv_index":8.15,"wind_gusts":28.4,"aqi":116,"pm10":48.3,"pm2_5":36.7,"no2":30.0,"co":1615.0,"o3":102.0,"so2":46.6,"mosquito_risk":7,"arthritis_risk":5,"migraine_risk":4,"frizz_risk":1,"updated_at":"2026-06-18T22:06:26.083575+05:30"},{"city":"Vijayawada","state":"Andhra Pradesh","latitude":16.5062,"longitude":80.648,"temp":30.9,"humidity":73,"rain":0.0,"pressure":1000.9,"uv_index":8.65,"wind_gusts":27.4,"aqi":93,"pm10":55.4,"pm2_5":49.7,"no2":28.5,"co":873.0,"o3":61.0,"so2":12.0,"mosquito_risk":3,"arthritis_risk":5,"migraine_risk":4,"frizz_risk":1,"updated_at":"2026-06-18T22:06:26.083582+05:30"},{"city":"Guntur","state":"Andhra Pradesh","latitude":16.3067,"longitude":80.4365,"temp":31.1,"humidity":73,"rain":0.0,"pressure":1002.0,"uv_index":8.7,"wind_gusts":38.5,"aqi":96,"pm10":65.2,"pm2_5":58.9,"no2":42.4,"co":936.0,"o3":43.0,"so2":12.8,"mosquito_risk":3,"arthritis_risk":5,"migraine_risk":4,"frizz_risk":1,"updated_at":"2026-06-18T22:06:26.083589+05:30"},{"city":"Nellore","state":"Andhra Pradesh","latitude":14.4426,"longitude":79.9865,"temp":30.1,"humidity":75,"rain":0.0,"pressure":1004.7,"uv_index":8.05,"wind_gusts":37.8,"aqi":91,"pm10":32.4,"pm2_5":24.9,"no2":6.2,"co":274.0,"o3":120.0,"so2":6.8,"mosquito_risk":3,"arthritis_risk":5,"migraine_risk":4,"frizz_risk":1,"updated_at":"2026-06-18T22:06:26.083597+05:30"},{"city":"Kurnool","state":"Andhra Pradesh","latitude":15.8281,"longitude":78.0373,"temp":30.2,"humidity":60,"rain":0.0,"pressure":976.0,"uv_index":8.7,"wind_gusts":36.0,"aqi":69,"pm10":38.0,"pm2_5":28.6,"no2":15.9,"co":435.0,"o3":72.0,"so2":6.8,"mosquito_risk":0,"arthritis_risk":5,"migraine_risk":7,"frizz_risk":1,"updated_at":"2026-06-18T22:06:26.083604+05:30"},{"city":"Kakinada","state":"Andhra Pradesh","latitude":16.9891,"longitude":82.2475,"temp":29.5,"humidity":87,"rain":0.0,"pressure":1005.8,"uv_index":5.6,"wind_gusts":24.8,"aqi":108,"pm10":41.0,"pm2_5":24.6,"no2":3.4,"co":319.0,"o3":117.0,"so2":4.1,"mosquito_risk":7,"arthritis_risk":5,"migraine_risk":0,"frizz_risk":1,"updated_at":"2026-06-18T22:06:26.083611+05:30"},{"city":"Tirupati","state":"Andhra Pradesh","latitude":13.6288,"longitude":79.4192,"temp":26.8,"humidity":84,"rain":0.0,"pressure":991.1,"uv_index":7.2,"wind_gusts":30.6,"aqi":78,"pm10":27.8,"pm2_5":22.8,"no2":25.8,"co":255.0,"o3":52.0,"so2":5.5,"mosquito_risk":7,"arthritis_risk":5,"migraine_risk":7,"frizz_risk":1,"updated_at":"2026-06-18T22:06:26.083617+05:30"},{"city":"Warangal","state":"Telangana","latitude":17.9689,"longitude":79.5941,"temp":30.9,"humidity":64,"rain":0.0,"pressure":977.2,"uv_index":8.9,"wind_gusts":32.0,"aqi":117,"pm10":40.9,"pm2_5":35.2,"no2":18.9,"co":621.0,"o3":76.0,"so2":10.6,"mosquito_risk":3,"arthritis_risk":5,"migraine_risk":7,"frizz_risk":1,"updated_at":"2026-06-18T22:06:26.083624+05:30"},{"city":"Nizamabad","state":"Telangana","latitude":18.6725,"longitude":78.0941,"temp":32.8,"humidity":39,"rain":0.0,"pressure":963.9,"uv_index":8.9,"wind_gusts":34.2,"aqi":81,"pm10":60.5,"pm2_5":40.9,"no2":27.2,"co":333.0,"o3":54.0,"so2":6.6,"mosquito_risk":0,"arthritis_risk":5,"migraine_risk":7,"frizz_risk":1,"updated_at":"2026-06-18T22:06:26.083631+05:30"},{"city":"Mysore","state":"Karnataka","latitude":12.2958,"longitude":76.6396,"temp":22.1,"humidity":96,"rain":0.0,"pressure":929.5,"uv_index":8.3,"wind_gusts":25.6,"aqi":45,"pm10":26.8,"pm2_5":19.8,"no2":30.5,"co":346.0,"o3":32.0,"so2":4.3,"mosquito_risk":3,"arthritis_risk":5,"migraine_risk":7,"frizz_risk":1,"updated_at":"2026-06-18T22:06:26.083637+05:30"},{"city":"Mangalore","state":"Karnataka","latitude":12.9141,"longitude":74.856,"temp":25.7,"humidity":97,"rain":0.0,"pressure":1008.3,"uv_index":7.7,"wind_gusts":24.8,"aqi":67,"pm10":44.7,"pm2_5":27.5,"no2":18.2,"co":566.0,"o3":30.0,"so2":5.6,"mosquito_risk":7,"arthritis_risk":0,"migraine_risk":4,"frizz_risk":1,"updated_at":"2026-06-18T22:06:26.083644+05:30"},{"city":"Hubli-Dharwad","state":"Karnataka","latitude":15.3647,"longitude":75.124,"temp":24.4,"humidity":83,"rain":0.0,"pressure":941.8,"uv_index":8.85,"wind_gusts":38.5,"aqi":51,"pm10":24.7,"pm2_5":15.3,"no2":7.0,"co":158.0,"o3":52.0,"so2":2.0,"mosquito_risk":3,"arthritis_risk":5,"migraine_risk":7,"frizz_risk":1,"updated_at":"2026-06-18T22:06:26.083651+05:30"},{"city":"Belgaum","state":"Karnataka","latitude":15.8497,"longitude":74.4977,"temp":22.6,"humidity":86,"rain":0.0,"pressure":926.6,"uv_index":8.95,"wind_gusts":37.4,"aqi":55,"pm10":24.9,"pm2_5":15.7,"no2":7.7,"co":138.0,"o3":42.0,"so2":2.1,"mosquito_risk":3,"arthritis_risk":5,"migraine_risk":7,"frizz_risk":1,"updated_at":"2026-06-18T22:06:29.312594+05:30"},{"city":"Coimbatore","state":"Tamil Nadu","latitude":11.0168,"longitude":76.9558,"temp":23.8,"humidity":90,"rain":0.0,"pressure":963.3,"uv_index":8.75,"wind_gusts":33.5,"aqi":40,"pm10":13.3,"pm2_5":11.3,"no2":17.8,"co":316.0,"o3":44.0,"so2":4.3,"mosquito_risk":3,"arthritis_risk":5,"migraine_risk":7,"frizz_risk":1,"updated_at":"2026-06-18T22:06:29.312629+05:30"},{"city":"Madurai","state":"Tamil Nadu","latitude":9.9252,"longitude":78.1198,"temp":28.3,"humidity":72,"rain":0.0,"pressure":994.3,"uv_index":7.6,"wind_gusts":42.5,"aqi":66,"pm10":27.6,"pm2_5":22.1,"no2":28.6,"co":442.0,"o3":50.0,"so2":5.0,"mosquito_risk":7,"arthritis_risk":5,"migraine_risk":7,"frizz_risk":1,"updated_at":"2026-06-18T22:06:29.312641+05:30"},{"city":"Trichy","state":"Tamil Nadu","latitude":10.7905,"longitude":78.7047,"temp":29.4,"humidity":66,"rain":0.0,"pressure":1000.4,"uv_index":8.5,"wind_gusts":45.0,"aqi":60,"pm10":22.2,"pm2_5":18.6,"no2":17.6,"co":251.0,"o3":71.0,"so2":5.3,"mosquito_risk":7,"arthritis_risk":5,"migraine_risk":4,"frizz_risk":1,"updated_at":"2026-06-18T22:06:29.312650+05:30"},{"city":"Salem","state":"Tamil Nadu","latitude":11.6643,"longitude":78.146,"temp":27.0,"humidity":77,"rain":0.0,"pressure":978.5,"uv_index":8.05,"wind_gusts":38.2,"aqi":56,"pm10":19.5,"pm2_5":16.4,"no2":19.5,"co":484.0,"o3":65.0,"so2":7.8,"mosquito_risk":7,"arthritis_risk":5,"migraine_risk":7,"frizz_risk":1,"updated_at":"2026-06-18T22:06:29.312659+05:30"},{"city":"Tirunelveli","state":"Tamil Nadu","latitude":8.7139,"longitude":77.7567,"temp":29.6,"humidity":61,"rain":0.0,"pressure":1004.6,"uv_index":8.0,"wind_gusts":30.2,"aqi":52,"pm10":16.1,"pm2_5":12.0,"no2":9.8,"co":248.0,"o3":46.0,"so2":2.6,"mosquito_risk":7,"arthritis_risk":5,"migraine_risk":4,"frizz_risk":1,"updated_at":"2026-06-18T22:06:29.312667+05:30"},{"city":"Vellore","state":"Tamil Nadu","latitude":12.9165,"longitude":79.1325,"temp":25.2,"humidity":94,"rain":0.0,"pressure":985.1,"uv_index":8.2,"wind_gusts":45.0,"aqi":64,"pm10":18.6,"pm2_5":16.5,"no2":10.6,"co":245.0,"o3":75.0,"so2":3.7,"mosquito_risk":7,"arthritis_risk":5,"migraine_risk":7,"frizz_risk":1,"updated_at":"2026-06-18T22:06:29.312675+05:30"},{"city":"Erode","state":"Tamil Nadu","latitude":11.341,"longitude":77.7172,"temp":26.5,"humidity":81,"rain":0.0,"pressure":990.3,"uv_index":7.7,"wind_gusts":31.3,"aqi":53,"pm10":16.9,"pm2_5":14.3,"no2":18.7,"co":433.0,"o3":60.0,"so2":3.4,"mosquito_risk":7,"arthritis_risk":5,"migraine_risk":7,"frizz_risk":1,"updated_at":"2026-06-18T22:06:29.312683+05:30"},{"city":"Kochi","state":"Kerala","latitude":9.9312,"longitude":76.2673,"temp":26.1,"humidity":95,"rain":0.1,"pressure":1010.8,"uv_index":5.15,"wind_gusts":36.0,"aqi":74,"pm10":29.5,"pm2_5":26.1,"no2":37.5,"co":437.0,"o3":8.0,"so2":9.3,"mosquito_risk":10,"arthritis_risk":0,"migraine_risk":0,"frizz_risk":1,"updated_at":"2026-06-18T22:06:29.312691+05:30"},{"city":"Thiruvananthapuram","state":"Kerala","latitude":8.5241,"longitude":76.9366,"temp":24.6,"humidity":96,"rain":0.0,"pressure":1010.5,"uv_index":7.1,"wind_gusts":42.1,"aqi":57,"pm10":20.8,"pm2_5":10.9,"no2":4.4,"co":305.0,"o3":53.0,"so2":2.1,"mosquito_risk":3,"arthritis_risk":0,"migraine_risk":4,"frizz_risk":1,"updated_at":"2026-06-18T22:06:29.312699+05:30"},{"city":"Kozhikode","state":"Kerala","latitude":11.2588,"longitude":75.7804,"temp":25.5,"humidity":99,"rain":0.0,"pressure":1009.7,"uv_index":6.6,"wind_gusts":33.5,"aqi":53,"pm10":29.4,"pm2_5":14.8,"no2":3.3,"co":745.0,"o3":61.0,"so2":2.0,"mosquito_risk":7,"arthritis_risk":0,"migraine_risk":4,"frizz_risk":1,"updated_at":"2026-06-18T22:06:29.312705+05:30"},{"city":"Thrissur","state":"Kerala","latitude":10.5276,"longitude":76.2144,"temp":24.9,"humidity":99,"rain":0.0,"pressure":1009.2,"uv_index":4.1,"wind_gusts":28.1,"aqi":87,"pm10":33.2,"pm2_5":30.2,"no2":27.6,"co":709.0,"o3":13.0,"so2":6.1,"mosquito_risk":3,"arthritis_risk":0,"migraine_risk":0,"frizz_risk":1,"updated_at":"2026-06-18T22:06:29.312713+05:30"},{"city":"Kannur","state":"Kerala","latitude":11.8745,"longitude":75.3704,"temp":25.4,"humidity":96,"rain":0.0,"pressure":1008.8,"uv_index":8.05,"wind_gusts":36.4,"aqi":55,"pm10":46.9,"pm2_5":31.8,"no2":33.4,"co":495.0,"o3":22.0,"so2":6.9,"mosquito_risk":7,"arthritis_risk":0,"migraine_risk":4,"frizz_risk":1,"updated_at":"2026-06-18T22:06:29.312720+05:30"},{"city":"Patna","state":"Bihar","latitude":25.5941,"longitude":85.1376,"temp":31.4,"humidity":64,"rain":0.0,"pressure":996.9,"uv_index":8.85,"wind_gusts":35.6,"aqi":158,"pm10":150.4,"pm2_5":91.3,"no2":68.6,"co":566.0,"o3":25.0,"so2":25.7,"mosquito_risk":3,"arthritis_risk":5,"migraine_risk":7,"frizz_risk":1,"updated_at":"2026-06-18T22:06:29.312727+05:30"},{"city":"Gaya","state":"Bihar","latitude":24.7914,"longitude":85.0002,"temp":30.6,"humidity":65,"rain":0.0,"pressure":990.7,"uv_index":8.85,"wind_gusts":34.2,"aqi":160,"pm10":97.6,"pm2_5":65.0,"no2":26.7,"co":256.0,"o3":73.0,"so2":13.3,"mosquito_risk":3,"arthritis_risk":5,"migraine_risk":7,"frizz_risk":1,"updated_at":"2026-06-18T22:06:29.312734+05:30"},{"city":"Muzaffarpur","state":"Bihar","latitude":26.1209,"longitude":85.3647,"temp":30.9,"humidity":74,"rain":0.0,"pressure":996.7,"uv_index":8.85,"wind_gusts":23.8,"aqi":158,"pm10":150.4,"pm2_5":91.5,"no2":58.6,"co":788.0,"o3":36.0,"so2":21.6,"mosquito_risk":3,"arthritis_risk":5,"migraine_risk":7,"frizz_risk":1,"updated_at":"2026-06-18T22:06:29.312740+05:30"},{"city":"Bhagalpur","state":"Bihar","latitude":25.2425,"longitude":87.0117,"temp":31.7,"humidity":65,"rain":0.0,"pressure":997.5,"uv_index":8.45,"wind_gusts":26.6,"aqi":154,"pm10":69.8,"pm2_5":61.0,"no2":14.6,"co":538.0,"o3":121.0,"so2":15.8,"mosquito_risk":3,"arthritis_risk":5,"migraine_risk":7,"frizz_risk":1,"updated_at":"2026-06-18T22:06:29.312746+05:30"},{"city":"Ranchi","state":"Jharkhand","latitude":23.3441,"longitude":85.3096,"temp":26.4,"humidity":77,"rain":0.0,"pressure":935.9,"uv_index":7.6,"wind_gusts":34.9,"aqi":151,"pm10":65.9,"pm2_5":55.6,"no2":11.0,"co":283.0,"o3":114.0,"so2":9.7,"mosquito_risk":7,"arthritis_risk":5,"migraine_risk":7,"frizz_risk":1,"updated_at":"2026-06-18T22:06:29.312753+05:30"},{"city":"Jamshedpur","state":"Jharkhand","latitude":22.8046,"longitude":86.2029,"temp":30.0,"humidity":74,"rain":0.0,"pressure":988.5,"uv_index":8.9,"wind_gusts":34.2,"aqi":156,"pm10":94.5,"pm2_5":72.9,"no2":26.6,"co":291.0,"o3":87.0,"so2":35.7,"mosquito_risk":7,"arthritis_risk":5,"migraine_risk":7,"frizz_risk":1,"updated_at":"2026-06-18T22:06:29.312760+05:30"},{"city":"Dhanbad","state":"Jharkhand","latitude":23.7957,"longitude":86.4304,"temp":30.2,"humidity":73,"rain":0.0,"pressure":977.2,"uv_index":8.85,"wind_gusts":50.4,"aqi":172,"pm10":123.9,"pm2_5":96.2,"no2":50.6,"co":285.0,"o3":77.0,"so2":143.8,"mosquito_risk":3,"arthritis_risk":5,"migraine_risk":7,"frizz_risk":1,"updated_at":"2026-06-18T22:06:29.312767+05:30"},{"city":"Bokaro","state":"Jharkhand","latitude":23.6693,"longitude":86.1511,"temp":29.7,"humidity":70,"rain":0.0,"pressure":981.0,"uv_index":8.85,"wind_gusts":28.8,"aqi":169,"pm10":108.0,"pm2_5":86.4,"no2":36.3,"co":323.0,"o3":86.0,"so2":107.8,"mosquito_risk":7,"arthritis_risk":5,"migraine_risk":7,"frizz_risk":1,"updated_at":"2026-06-18T22:06:29.312774+05:30"},{"city":"Bhubaneswar","state":"Odisha","latitude":20.2961,"longitude":85.8245,"temp":29.5,"humidity":83,"rain":0.0,"pressure":1000.6,"uv_index":8.75,"wind_gusts":32.4,"aqi":126,"pm10":48.2,"pm2_5":41.8,"no2":9.6,"co":441.0,"o3":135.0,"so2":10.3,"mosquito_risk":7,"arthritis_risk":5,"migraine_risk":4,"frizz_risk":1,"updated_at":"2026-06-18T22:06:29.312781+05:30"},{"city":"Cuttack","state":"Odisha","latitude":20.4625,"longitude":85.8828,"temp":29.4,"humidity":84,"rain":0.0,"pressure":1002.3,"uv_index":9.1,"wind_gusts":33.1,"aqi":126,"pm10":48.2,"pm2_5":41.8,"no2":9.6,"co":701.0,"o3":135.0,"so2":10.3,"mosquito_risk":7,"arthritis_risk":5,"migraine_risk":4,"frizz_risk":1,"updated_at":"2026-06-18T22:06:29.312788+05:30"},{"city":"Rourkela","state":"Odisha","latitude":22.2604,"longitude":84.8536,"temp":30.3,"humidity":72,"rain":0.0,"pressure":982.9,"uv_index":8.7,"wind_gusts":31.0,"aqi":153,"pm10":77.5,"pm2_5":60.3,"no2":9.7,"co":669.0,"o3":128.0,"so2":7.9,"mosquito_risk":3,"arthritis_risk":5,"migraine_risk":7,"frizz_risk":1,"updated_at":"2026-06-18T22:06:29.312795+05:30"},{"city":"Raipur","state":"Chhattisgarh","latitude":21.2514,"longitude":81.6296,"temp":26.8,"humidity":94,"rain":0.0,"pressure":972.9,"uv_index":8.95,"wind_gusts":49.3,"aqi":109,"pm10":50.4,"pm2_5":43.1,"no2":49.4,"co":625.0,"o3":44.0,"so2":77.8,"mosquito_risk":7,"arthritis_risk":5,"migraine_risk":7,"frizz_risk":1,"updated_at":"2026-06-18T22:06:29.312802+05:30"},{"city":"Bhilai","state":"Chhattisgarh","latitude":21.1938,"longitude":81.3509,"temp":27.0,"humidity":94,"rain":0.0,"pressure":973.4,"uv_index":8.9,"wind_gusts":37.1,"aqi":103,"pm10":49.9,"pm2_5":42.6,"no2":47.6,"co":816.0,"o3":42.0,"so2":64.9,"mosquito_risk":7,"arthritis_risk":5,"migraine_risk":7,"frizz_risk":1,"updated_at":"2026-06-18T22:06:29.312808+05:30"},{"city":"Guwahati","state":"Assam","latitude":26.1158,"longitude":91.7086,"temp":26.8,"humidity":95,"rain":0.0,"pressure":999.3,"uv_index":8.8,"wind_gusts":33.1,"aqi":91,"pm10":27.1,"pm2_5":23.8,"no2":9.5,"co":510.0,"o3":70.0,"so2":3.4,"mosquito_risk":7,"arthritis_risk":5,"migraine_risk":7,"frizz_risk":1,"updated_at":"2026-06-18T22:06:29.312815+05:30"},{"city":"Agartala","state":"Tripura","latitude":23.8315,"longitude":91.2868,"temp":27.0,"humidity":91,"rain":0.0,"pressure":1004.7,"uv_index":8.55,"wind_gusts":32.0,"aqi":82,"pm10":31.8,"pm2_5":27.1,"no2":13.6,"co":260.0,"o3":53.0,"so2":3.8,"mosquito_risk":7,"arthritis_risk":5,"migraine_risk":4,"frizz_risk":1,"updated_at":"2026-06-18T22:06:29.312822+05:30"},{"city":"Shillong","state":"Meghalaya","latitude":25.5788,"longitude":91.8933,"temp":18.5,"humidity":95,"rain":0.0,"pressure":856.2,"uv_index":7.8,"wind_gusts":23.0,"aqi":72,"pm10":11.8,"pm2_5":9.8,"no2":6.7,"co":354.0,"o3":91.0,"so2":3.3,"mosquito_risk":3,"arthritis_risk":10,"migraine_risk":7,"frizz_risk":1,"updated_at":"2026-06-18T22:06:29.312828+05:30"},{"city":"Imphal","state":"Manipur","latitude":24.817,"longitude":93.9368,"temp":23.6,"humidity":87,"rain":0.0,"pressure":922.3,"uv_index":9.15,"wind_gusts":29.9,"aqi":83,"pm10":20.2,"pm2_5":17.1,"no2":11.5,"co":368.0,"o3":53.0,"so2":3.2,"mosquito_risk":3,"arthritis_risk":5,"migraine_risk":7,"frizz_risk":1,"updated_at":"2026-06-18T22:06:29.312835+05:30"},{"city":"Aizawl","state":"Mizoram","latitude":23.7271,"longitude":92.7176,"temp":20.0,"humidity":93,"rain":0.0,"pressure":892.0,"uv_index":8.9,"wind_gusts":24.1,"aqi":51,"pm10":14.3,"pm2_5":11.8,"no2":4.6,"co":208.0,"o3":64.0,"so2":1.3,"mosquito_risk":3,"arthritis_risk":5,"migraine_risk":7,"frizz_risk":1,"updated_at":"2026-06-18T22:06:29.312842+05:30"},{"city":"Kohima","state":"Nagaland","latitude":25.6701,"longitude":94.1077,"temp":19.8,"humidity":95,"rain":0.0,"pressure":854.9,"uv_index":7.65,"wind_gusts":25.9,"aqi":64,"pm10":16.9,"pm2_5":14.2,"no2":7.3,"co":382.0,"o3":64.0,"so2":1.8,"mosquito_risk":3,"arthritis_risk":10,"migraine_risk":7,"frizz_risk":1,"updated_at":"2026-06-18T22:06:29.312848+05:30"},{"city":"Gangtok","state":"Sikkim","latitude":27.3314,"longitude":88.6138,"temp":17.8,"humidity":98,"rain":0.3,"pressure":836.5,"uv_index":8.15,"wind_gusts":33.5,"aqi":88,"pm10":10.8,"pm2_5":9.1,"no2":5.9,"co":444.0,"o3":128.0,"so2":4.2,"mosquito_risk":6,"arthritis_risk":10,"migraine_risk":7,"frizz_risk":1,"updated_at":"2026-06-18T22:06:29.312855+05:30"},{"city":"Siliguri","state":"West Bengal","latitude":26.7271,"longitude":88.3953,"temp":24.4,"humidity":99,"rain":0.1,"pressure":991.1,"uv_index":8.75,"wind_gusts":23.0,"aqi":112,"pm10":33.6,"pm2_5":26.8,"no2":9.3,"co":613.0,"o3":121.0,"so2":4.5,"mosquito_risk":6,"arthritis_risk":5,"migraine_risk":7,"frizz_risk":1,"updated_at":"2026-06-18T22:06:32.545215+05:30"},{"city":"Durgapur","state":"West Bengal","latitude":23.5204,"longitude":87.3119,"temp":29.2,"humidity":81,"rain":0.0,"pressure":992.3,"uv_index":8.85,"wind_gusts":41.4,"aqi":194,"pm10":98.5,"pm2_5":86.8,"no2":35.3,"co":893.0,"o3":80.0,"so2":56.1,"mosquito_risk":7,"arthritis_risk":5,"migraine_risk":7,"frizz_risk":1,"updated_at":"2026-06-18T22:06:32.545252+05:30"},{"city":"Asansol","state":"West Bengal","latitude":23.6739,"longitude":86.9524,"temp":29.7,"humidity":79,"rain":0.0,"pressure":990.8,"uv_index":8.85,"wind_gusts":41.8,"aqi":188,"pm10":99.0,"pm2_5":81.3,"no2":37.2,"co":511.0,"o3":94.0,"so2":69.1,"mosquito_risk":7,"arthritis_risk":5,"migraine_risk":7,"frizz_risk":1,"updated_at":"2026-06-18T22:06:32.545264+05:30"},{"city":"Pondicherry","state":"Puducherry","latitude":11.9139,"longitude":79.8145,"temp":28.3,"humidity":75,"rain":0.0,"pressure":1008.5,"uv_index":7.95,"wind_gusts":41.0,"aqi":75,"pm10":28.1,"pm2_5":20.9,"no2":14.7,"co":299.0,"o3":106.0,"so2":10.4,"mosquito_risk":7,"arthritis_risk":0,"migraine_risk":4,"frizz_risk":1,"updated_at":"2026-06-18T22:06:32.545274+05:30"},{"city":"Port Blair","state":"Andaman and Nicobar Islands","latitude":11.6234,"longitude":92.7265,"temp":23.9,"humidity":99,"rain":0.3,"pressure":1010.2,"uv_index":8.7,"wind_gusts":32.4,"aqi":22,"pm10":6.4,"pm2_5":3.5,"no2":0.4,"co":98.0,"o3":44.0,"so2":0.3,"mosquito_risk":6,"arthritis_risk":0,"migraine_risk":4,"frizz_risk":1,"updated_at":"2026-06-18T22:06:32.545282+05:30"},{"city":"Haridwar","state":"Uttarakhand","latitude":29.9457,"longitude":78.1642,"temp":28.0,"humidity":70,"rain":0.0,"pressure":970.0,"uv_index":7.5,"wind_gusts":41.4,"aqi":138,"pm10":74.7,"pm2_5":48.1,"no2":16.6,"co":451.0,"o3":106.0,"so2":12.3,"mosquito_risk":7,"arthritis_risk":5,"migraine_risk":7,"frizz_risk":1,"updated_at":"2026-06-18T22:06:32.545290+05:30"},{"city":"Rishikesh","state":"Uttarakhand","latitude":30.0869,"longitude":78.2676,"temp":26.4,"humidity":76,"rain":0.0,"pressure":962.9,"uv_index":7.6,"wind_gusts":22.0,"aqi":136,"pm10":82.9,"pm2_5":43.1,"no2":8.7,"co":485.0,"o3":135.0,"so2":9.8,"mosquito_risk":7,"arthritis_risk":5,"migraine_risk":7,"frizz_risk":1,"updated_at":"2026-06-18T22:06:32.545298+05:30"},{"city":"Nainital","state":"Uttarakhand","latitude":29.3919,"longitude":79.4542,"temp":15.9,"humidity":95,"rain":0.0,"pressure":803.9,"uv_index":6.9,"wind_gusts":23.8,"aqi":125,"pm10":61.2,"pm2_5":31.5,"no2":11.3,"co":368.0,"o3":102.0,"so2":5.4,"mosquito_risk":3,"arthritis_risk":10,"migraine_risk":7,"frizz_risk":0,"updated_at":"2026-06-18T22:06:32.545306+05:30"},{"city":"Mussoorie","state":"Uttarakhand","latitude":30.4599,"longitude":78.0664,"temp":16.0,"humidity":92,"rain":0.0,"pressure":801.4,"uv_index":7.55,"wind_gusts":29.9,"aqi":137,"pm10":56.8,"pm2_5":34.6,"no2":15.1,"co":376.0,"o3":107.0,"so2":6.0,"mosquito_risk":3,"arthritis_risk":10,"migraine_risk":7,"frizz_risk":0,"updated_at":"2026-06-18T22:06:32.545314+05:30"},{"city":"Dharamshala","state":"Himachal Pradesh","latitude":32.219,"longitude":76.3234,"temp":20.2,"humidity":77,"rain":0.0,"pressure":866.8,"uv_index":8.5,"wind_gusts":43.9,"aqi":69,"pm10":25.1,"pm2_5":18.6,"no2":19.8,"co":431.0,"o3":45.0,"so2":0.5,"mosquito_risk":3,"arthritis_risk":5,"migraine_risk":7,"frizz_risk":1,"updated_at":"2026-06-18T22:06:32.545321+05:30"},{"city":"Dalhousie","state":"Himachal Pradesh","latitude":32.5387,"longitude":75.971,"temp":14.9,"humidity":93,"rain":0.0,"pressure":802.3,"uv_index":8.45,"wind_gusts":34.2,"aqi":127,"pm10":45.8,"pm2_5":26.7,"no2":23.1,"co":639.0,"o3":107.0,"so2":2.6,"mosquito_risk":3,"arthritis_risk":10,"migraine_risk":7,"frizz_risk":0,"updated_at":"2026-06-18T22:06:32.545328+05:30"},{"city":"Patiala","state":"Punjab","latitude":30.3398,"longitude":76.3869,"temp":31.4,"humidity":51,"rain":0.0,"pressure":974.2,"uv_index":7.7,"wind_gusts":32.8,"aqi":157,"pm10":187.2,"pm2_5":72.4,"no2":21.1,"co":517.0,"o3":82.0,"so2":8.0,"mosquito_risk":0,"arthritis_risk":5,"migraine_risk":7,"frizz_risk":1,"updated_at":"2026-06-18T22:06:32.545336+05:30"},{"city":"Bhatinda","state":"Punjab","latitude":30.211,"longitude":74.9455,"temp":32.5,"humidity":48,"rain":0.0,"pressure":979.6,"uv_index":8.3,"wind_gusts":29.9,"aqi":140,"pm10":60.3,"pm2_5":46.1,"no2":27.2,"co":395.0,"o3":67.0,"so2":7.8,"mosquito_risk":0,"arthritis_risk":5,"migraine_risk":7,"frizz_risk":1,"updated_at":"2026-06-18T22:06:32.545343+05:30"},{"city":"Rohtak","state":"Haryana","latitude":28.8955,"longitude":76.6066,"temp":31.1,"humidity":52,"rain":0.0,"pressure":978.0,"uv_index":7.8,"wind_gusts":34.9,"aqi":172,"pm10":638.9,"pm2_5":122.5,"no2":37.5,"co":350.0,"o3":62.0,"so2":9.9,"mosquito_risk":0,"arthritis_risk":5,"migraine_risk":7,"frizz_risk":1,"updated_at":"2026-06-18T22:06:32.545350+05:30"},{"city":"Panipat","state":"Haryana","latitude":29.3909,"longitude":76.9635,"temp":31.0,"humidity":53,"rain":0.0,"pressure":976.5,"uv_index":7.6,"wind_gusts":31.7,"aqi":369,"pm10":1415.6,"pm2_5":213.7,"no2":23.3,"co":557.0,"o3":81.0,"so2":8.2,"mosquito_risk":0,"arthritis_risk":5,"migraine_risk":7,"frizz_risk":1,"updated_at":"2026-06-18T22:06:32.545358+05:30"},{"city":"Mathura","state":"Uttar Pradesh","latitude":27.4924,"longitude":77.6737,"temp":31.7,"humidity":52,"rain":0.0,"pressure":983.0,"uv_index":8.1,"wind_gusts":27.0,"aqi":185,"pm10":254.3,"pm2_5":87.1,"no2":78.9,"co":830.0,"o3":10.0,"so2":12.1,"mosquito_risk":0,"arthritis_risk":5,"migraine_risk":7,"frizz_risk":1,"updated_at":"2026-06-18T22:06:32.545364+05:30"},{"city":"Vrindavan","state":"Uttar Pradesh","latitude":27.5823,"longitude":77.7027,"temp":31.5,"humidity":51,"rain":0.0,"pressure":983.4,"uv_index":8.05,"wind_gusts":27.0,"aqi":185,"pm10":254.3,"pm2_5":87.1,"no2":78.9,"co":630.0,"o3":10.0,"so2":12.1,"mosquito_risk":0,"arthritis_risk":5,"migraine_risk":7,"frizz_risk":1,"updated_at":"2026-06-18T22:06:32.545371+05:30"},{"city":"Ayodhya","state":"Uttar Pradesh","latitude":26.7922,"longitude":82.1998,"temp":31.6,"humidity":62,"rain":0.0,"pressure":991.6,"uv_index":8.4,"wind_gusts":29.9,"aqi":154,"pm10":138.3,"pm2_5":68.2,"no2":24.5,"co":505.0,"o3":75.0,"so2":12.7,"mosquito_risk":3,"arthritis_risk":5,"migraine_risk":7,"frizz_risk":1,"updated_at":"2026-06-18T22:06:32.545378+05:30"},{"city":"Ratlam","state":"Madhya Pradesh","latitude":23.3315,"longitude":75.0367,"temp":27.8,"humidity":64,"rain":0.0,"pressure":953.8,"uv_index":8.45,"wind_gusts":46.4,"aqi":65,"pm10":38.3,"pm2_5":27.5,"no2":6.5,"co":182.0,"o3":62.0,"so2":4.3,"mosquito_risk":7,"arthritis_risk":5,"migraine_risk":7,"frizz_risk":1,"updated_at":"2026-06-18T22:06:32.545385+05:30"},{"city":"Sagar","state":"Madhya Pradesh","latitude":23.8388,"longitude":78.7378,"temp":27.6,"humidity":66,"rain":0.0,"pressure":948.7,"uv_index":8.55,"wind_gusts":46.4,"aqi":69,"pm10":32.0,"pm2_5":24.2,"no2":10.9,"co":180.0,"o3":61.0,"so2":2.8,"mosquito_risk":7,"arthritis_risk":5,"migraine_risk":7,"frizz_risk":1,"updated_at":"2026-06-18T22:06:32.545392+05:30"},{"city":"Satna","state":"Madhya Pradesh","latitude":24.6005,"longitude":80.8322,"temp":31.3,"humidity":55,"rain":0.0,"pressure":969.2,"uv_index":8.8,"wind_gusts":30.6,"aqi":86,"pm10":51.0,"pm2_5":29.8,"no2":11.3,"co":192.0,"o3":66.0,"so2":3.6,"mosquito_risk":0,"arthritis_risk":5,"migraine_risk":7,"frizz_risk":1,"updated_at":"2026-06-18T22:06:32.545399+05:30"},{"city":"Akola","state":"Maharashtra","latitude":20.7002,"longitude":77.0082,"temp":33.7,"humidity":33,"rain":0.0,"pressure":973.4,"uv_index":8.8,"wind_gusts":45.7,"aqi":64,"pm10":45.2,"pm2_5":24.9,"no2":12.5,"co":175.0,"o3":70.0,"so2":6.2,"mosquito_risk":0,"arthritis_risk":5,"migraine_risk":7,"frizz_risk":0,"updated_at":"2026-06-18T22:06:32.545406+05:30"},{"city":"Amravati","state":"Maharashtra","latitude":20.9374,"longitude":77.7796,"temp":32.9,"humidity":40,"rain":0.0,"pressure":965.8,"uv_index":8.8,"wind_gusts":42.1,"aqi":68,"pm10":45.8,"pm2_5":26.1,"no2":15.9,"co":190.0,"o3":59.0,"so2":6.2,"mosquito_risk":0,"arthritis_risk":5,"migraine_risk":7,"frizz_risk":1,"updated_at":"2026-06-18T22:06:32.545414+05:30"},{"city":"Latur","state":"Maharashtra","latitude":18.4088,"longitude":76.5604,"temp":30.0,"humidity":44,"rain":0.0,"pressure":939.1,"uv_index":8.55,"wind_gusts":42.8,"aqi":60,"pm10":50.2,"pm2_5":35.6,"no2":22.5,"co":357.0,"o3":62.0,"so2":5.1,"mosquito_risk":4,"arthritis_risk":5,"migraine_risk":7,"frizz_risk":1,"updated_at":"2026-06-18T22:06:32.545421+05:30"},{"city":"Nanded","state":"Maharashtra","latitude":19.1383,"longitude":77.3091,"temp":33.0,"humidity":42,"rain":0.0,"pressure":967.3,"uv_index":8.8,"wind_gusts":38.9,"aqi":64,"pm10":56.6,"pm2_5":33.6,"no2":23.0,"co":396.0,"o3":53.0,"so2":5.5,"mosquito_risk":0,"arthritis_risk":5,"migraine_risk":7,"frizz_risk":1,"updated_at":"2026-06-18T22:06:32.545427+05:30"},{"city":"Gulbarga","state":"Karnataka","latitude":17.3297,"longitude":76.8343,"temp":30.9,"humidity":42,"rain":0.0,"pressure":957.8,"uv_index":8.9,"wind_gusts":42.1,"aqi":62,"pm10":47.5,"pm2_5":33.5,"no2":42.1,"co":242.0,"o3":50.0,"so2":7.3,"mosquito_risk":0,"arthritis_risk":5,"migraine_risk":7,"frizz_risk":1,"updated_at":"2026-06-18T22:06:32.545433+05:30"},{"city":"Bidar","state":"Karnataka","latitude":17.9104,"longitude":77.5199,"temp":28.7,"humidity":63,"rain":0.0,"pressure":935.0,"uv_index":8.95,"wind_gusts":35.3,"aqi":65,"pm10":65.9,"pm2_5":46.2,"no2":41.9,"co":518.0,"o3":39.0,"so2":6.9,"mosquito_risk":7,"arthritis_risk":5,"migraine_risk":7,"frizz_risk":1,"updated_at":"2026-06-18T22:06:32.545440+05:30"},{"city":"Hospet","state":"Karnataka","latitude":15.2689,"longitude":76.3909,"temp":25.8,"humidity":79,"rain":0.0,"pressure":956.6,"uv_index":8.45,"wind_gusts":44.6,"aqi":52,"pm10":21.2,"pm2_5":14.5,"no2":7.9,"co":175.0,"o3":67.0,"so2":2.1,"mosquito_risk":7,"arthritis_risk":5,"migraine_risk":7,"frizz_risk":1,"updated_at":"2026-06-18T22:06:32.545447+05:30"},{"city":"Tirupur","state":"Tamil Nadu","latitude":11.1085,"longitude":77.3411,"temp":25.1,"humidity":87,"rain":0.0,"pressure":976.5,"uv_index":8.5,"wind_gusts":33.5,"aqi":53,"pm10":19.4,"pm2_5":16.5,"no2":22.6,"co":260.0,"o3":47.0,"so2":5.3,"mosquito_risk":7,"arthritis_risk":5,"migraine_risk":7,"frizz_risk":1,"updated_at":"2026-06-18T22:06:32.545453+05:30"},{"city":"Alappuzha","state":"Kerala","latitude":9.4981,"longitude":76.3388,"temp":26.2,"humidity":91,"rain":0.0,"pressure":1011.0,"uv_index":7.35,"wind_gusts":32.0,"aqi":63,"pm10":27.6,"pm2_5":19.7,"no2":20.4,"co":159.0,"o3":33.0,"so2":5.8,"mosquito_risk":7,"arthritis_risk":0,"migraine_risk":4,"frizz_risk":1,"updated_at":"2026-06-18T22:06:32.545460+05:30"},{"city":"Munnar","state":"Kerala","latitude":10.0889,"longitude":77.0595,"temp":16.6,"humidity":98,"rain":0.0,"pressure":857.3,"uv_index":2.35,"wind_gusts":25.9,"aqi":31,"pm10":4.7,"pm2_5":4.2,"no2":11.8,"co":165.0,"o3":36.0,"so2":2.1,"mosquito_risk":3,"arthritis_risk":10,"migraine_risk":3,"frizz_risk":1,"updated_at":"2026-06-18T22:06:32.545468+05:30"},{"city":"Silchar","state":"Assam","latitude":24.8333,"longitude":92.7789,"temp":25.2,"humidity":94,"rain":0.1,"pressure":1004.3,"uv_index":8.5,"wind_gusts":40.3,"aqi":105,"pm10":27.1,"pm2_5":23.4,"no2":8.4,"co":312.0,"o3":73.0,"so2":4.1,"mosquito_risk":10,"arthritis_risk":5,"migraine_risk":4,"frizz_risk":1,"updated_at":"2026-06-18T22:06:32.545474+05:30"},{"city":"Dibrugarh","state":"Assam","latitude":27.4728,"longitude":94.912,"temp":25.3,"humidity":98,"rain":0.2,"pressure":993.7,"uv_index":8.45,"wind_gusts":22.7,"aqi":71,"pm10":20.5,"pm2_5":18.4,"no2":8.7,"co":305.0,"o3":84.0,"so2":1.8,"mosquito_risk":10,"arthritis_risk":5,"migraine_risk":7,"frizz_risk":1,"updated_at":"2026-06-18T22:06:32.545480+05:30"}]