[{"city":"Delhi","state":"Delhi","latitude":28.6139,"longitude":77.209,"temp":28.1,"humidity":64,"rain":0.0,"pressure":980.3,"uv_index":7.8,"wind_gusts":38.2,"aqi":469,"pm10":318.5,"pm2_5":93.6,"no2":35.2,"co":1933.0,"o3":80.0,"so2":22.0,"mosquito_risk":7,"arthritis_risk":5,"migraine_risk":7,"frizz_risk":1,"updated_at":"2026-06-16T21:27:18.326291+05:30"},{"city":"Mumbai","state":"Maharashtra","latitude":19.076,"longitude":72.8777,"temp":30.4,"humidity":69,"rain":0.0,"pressure":1008.6,"uv_index":7.7,"wind_gusts":44.6,"aqi":60,"pm10":34.9,"pm2_5":15.5,"no2":6.9,"co":165.0,"o3":46.0,"so2":4.5,"mosquito_risk":3,"arthritis_risk":0,"migraine_risk":4,"frizz_risk":1,"updated_at":"2026-06-16T21:27:18.326339+05:30"},{"city":"Bangalore","state":"Karnataka","latitude":12.9716,"longitude":77.5946,"temp":25.9,"humidity":62,"rain":0.0,"pressure":912.2,"uv_index":8.05,"wind_gusts":37.4,"aqi":72,"pm10":67.3,"pm2_5":48.9,"no2":79.3,"co":2281.0,"o3":3.0,"so2":18.1,"mosquito_risk":7,"arthritis_risk":5,"migraine_risk":7,"frizz_risk":1,"updated_at":"2026-06-16T21:27:18.326354+05:30"},{"city":"Hyderabad","state":"Telangana","latitude":17.385,"longitude":78.4867,"temp":31.8,"humidity":47,"rain":0.0,"pressure":952.3,"uv_index":9.05,"wind_gusts":39.2,"aqi":104,"pm10":73.3,"pm2_5":50.3,"no2":58.4,"co":558.0,"o3":31.0,"so2":15.2,"mosquito_risk":0,"arthritis_risk":5,"migraine_risk":7,"frizz_risk":1,"updated_at":"2026-06-16T21:27:18.326363+05:30"},{"city":"Chennai","state":"Tamil Nadu","latitude":13.0827,"longitude":80.2707,"temp":31.4,"humidity":69,"rain":0.0,"pressure":1005.8,"uv_index":8.85,"wind_gusts":30.6,"aqi":149,"pm10":41.4,"pm2_5":29.5,"no2":9.0,"co":337.0,"o3":136.0,"so2":7.5,"mosquito_risk":3,"arthritis_risk":5,"migraine_risk":4,"frizz_risk":1,"updated_at":"2026-06-16T21:27:18.326371+05:30"},{"city":"Kolkata","state":"West Bengal","latitude":22.5726,"longitude":88.3639,"temp":29.8,"humidity":81,"rain":0.0,"pressure":1004.1,"uv_index":8.95,"wind_gusts":32.8,"aqi":113,"pm10":53.3,"pm2_5":44.4,"no2":14.9,"co":399.0,"o3":66.0,"so2":9.6,"mosquito_risk":7,"arthritis_risk":5,"migraine_risk":4,"frizz_risk":1,"updated_at":"2026-06-16T21:27:18.326380+05:30"},{"city":"Pune","state":"Maharashtra","latitude":18.5204,"longitude":73.8567,"temp":26.3,"humidity":72,"rain":0.0,"pressure":948.5,"uv_index":8.3,"wind_gusts":47.9,"aqi":52,"pm10":21.0,"pm2_5":12.3,"no2":7.1,"co":145.0,"o3":53.0,"so2":6.4,"mosquito_risk":7,"arthritis_risk":5,"migraine_risk":7,"frizz_risk":1,"updated_at":"2026-06-16T21:27:18.326386+05:30"},{"city":"Ahmedabad","state":"Gujarat","latitude":23.0225,"longitude":72.5714,"temp":32.6,"humidity":61,"rain":0.0,"pressure":999.5,"uv_index":8.05,"wind_gusts":37.8,"aqi":63,"pm10":43.4,"pm2_5":22.2,"no2":12.1,"co":184.0,"o3":60.0,"so2":5.2,"mosquito_risk":3,"arthritis_risk":5,"migraine_risk":7,"frizz_risk":1,"updated_at":"2026-06-16T21:27:18.326392+05:30"},{"city":"Jaipur","state":"Rajasthan","latitude":26.9124,"longitude":75.7873,"temp":30.8,"humidity":56,"rain":0.0,"pressure":956.8,"uv_index":8.2,"wind_gusts":24.5,"aqi":115,"pm10":118.3,"pm2_5":47.5,"no2":27.2,"co":546.0,"o3":47.0,"so2":9.5,"mosquito_risk":0,"arthritis_risk":5,"migraine_risk":7,"frizz_risk":1,"updated_at":"2026-06-16T21:27:18.326403+05:30"},{"city":"Lucknow","state":"Uttar Pradesh","latitude":26.8467,"longitude":80.9462,"temp":32.7,"humidity":52,"rain":0.0,"pressure":990.7,"uv_index":8.35,"wind_gusts":37.1,"aqi":161,"pm10":237.0,"pm2_5":89.2,"no2":32.0,"co":480.0,"o3":64.0,"so2":16.4,"mosquito_risk":0,"arthritis_risk":5,"migraine_risk":7,"frizz_risk":1,"updated_at":"2026-06-16T21:27:18.326409+05:30"},{"city":"Kanpur","state":"Uttar Pradesh","latitude":26.4499,"longitude":80.3319,"temp":34.8,"humidity":36,"rain":0.0,"pressure":989.0,"uv_index":8.3,"wind_gusts":38.5,"aqi":183,"pm10":358.6,"pm2_5":97.1,"no2":34.5,"co":327.0,"o3":58.0,"so2":13.5,"mosquito_risk":0,"arthritis_risk":5,"migraine_risk":7,"frizz_risk":1,"updated_at":"2026-06-16T21:27:18.326415+05:30"},{"city":"Chandigarh","state":"Chandigarh","latitude":30.7333,"longitude":76.7794,"temp":27.7,"humidity":62,"rain":0.0,"pressure":966.0,"uv_index":7.8,"wind_gusts":21.2,"aqi":142,"pm10":85.7,"pm2_5":58.7,"no2":43.3,"co":857.0,"o3":90.0,"so2":13.5,"mosquito_risk":7,"arthritis_risk":5,"migraine_risk":7,"frizz_risk":1,"updated_at":"2026-06-16T21:27:18.326421+05:30"},{"city":"Srinagar","state":"Jammu and Kashmir","latitude":34.0837,"longitude":74.7973,"temp":21.0,"humidity":73,"rain":0.0,"pressure":841.7,"uv_index":6.75,"wind_gusts":25.2,"aqi":95,"pm10":43.9,"pm2_5":33.5,"no2":28.9,"co":660.0,"o3":67.0,"so2":3.9,"mosquito_risk":3,"arthritis_risk":5,"migraine_risk":7,"frizz_risk":0,"updated_at":"2026-06-16T21:27:18.326429+05:30"},{"city":"Jammu","state":"Jammu and Kashmir","latitude":32.7266,"longitude":74.857,"temp":28.5,"humidity":58,"rain":0.0,"pressure":970.2,"uv_index":7.8,"wind_gusts":31.0,"aqi":140,"pm10":49.1,"pm2_5":39.1,"no2":27.1,"co":589.0,"o3":88.0,"so2":4.6,"mosquito_risk":4,"arthritis_risk":5,"migraine_risk":7,"frizz_risk":1,"updated_at":"2026-06-16T21:27:18.326435+05:30"},{"city":"Amritsar","state":"Punjab","latitude":31.634,"longitude":74.8723,"temp":26.1,"humidity":77,"rain":0.0,"pressure":978.0,"uv_index":8.0,"wind_gusts":38.5,"aqi":130,"pm10":96.4,"pm2_5":71.5,"no2":48.2,"co":765.0,"o3":61.0,"so2":9.3,"mosquito_risk":7,"arthritis_risk":5,"migraine_risk":7,"frizz_risk":1,"updated_at":"2026-06-16T21:27:18.326441+05:30"},{"city":"Ludhiana","state":"Punjab","latitude":30.901,"longitude":75.8573,"temp":28.4,"humidity":80,"rain":0.0,"pressure":976.1,"uv_index":8.05,"wind_gusts":31.7,"aqi":160,"pm10":98.7,"pm2_5":60.8,"no2":29.2,"co":622.0,"o3":84.0,"so2":8.6,"mosquito_risk":7,"arthritis_risk":5,"migraine_risk":7,"frizz_risk":1,"updated_at":"2026-06-16T21:27:18.326447+05:30"},{"city":"Jalandhar","state":"Punjab","latitude":31.326,"longitude":75.5762,"temp":27.0,"humidity":86,"rain":0.0,"pressure":977.1,"uv_index":8.1,"wind_gusts":33.8,"aqi":142,"pm10":74.5,"pm2_5":54.0,"no2":32.2,"co":756.0,"o3":86.0,"so2":6.5,"mosquito_risk":7,"arthritis_risk":5,"migraine_risk":7,"frizz_risk":1,"updated_at":"2026-06-16T21:27:18.326453+05:30"},{"city":"Dehradun","state":"Uttarakhand","latitude":30.6284,"longitude":78.0322,"temp":16.3,"humidity":99,"rain":0.0,"pressure":828.5,"uv_index":7.7,"wind_gusts":29.5,"aqi":97,"pm10":28.1,"pm2_5":17.3,"no2":24.3,"co":232.0,"o3":91.0,"so2":2.5,"mosquito_risk":3,"arthritis_risk":10,"migraine_risk":7,"frizz_risk":1,"updated_at":"2026-06-16T21:27:18.326460+05:30"},{"city":"Shimla","state":"Himachal Pradesh","latitude":31.1048,"longitude":77.1734,"temp":12.7,"humidity":95,"rain":0.0,"pressure":781.8,"uv_index":7.7,"wind_gusts":36.7,"aqi":118,"pm10":33.3,"pm2_5":29.4,"no2":21.0,"co":419.0,"o3":87.0,"so2":1.3,"mosquito_risk":3,"arthritis_risk":10,"migraine_risk":7,"frizz_risk":0,"updated_at":"2026-06-16T21:27:18.326468+05:30"},{"city":"Manali","state":"Himachal Pradesh","latitude":32.2396,"longitude":77.1887,"temp":16.4,"humidity":85,"rain":0.0,"pressure":817.7,"uv_index":9.55,"wind_gusts":34.6,"aqi":117,"pm10":20.9,"pm2_5":16.8,"no2":66.8,"co":200.0,"o3":80.0,"so2":0.4,"mosquito_risk":3,"arthritis_risk":10,"migraine_risk":7,"frizz_risk":0,"updated_at":"2026-06-16T21:27:18.326475+05:30"},{"city":"Gurgaon","state":"Haryana","latitude":28.4595,"longitude":77.0266,"temp":28.3,"humidity":68,"rain":0.0,"pressure":978.7,"uv_index":7.85,"wind_gusts":50.4,"aqi":618,"pm10":293.4,"pm2_5":92.9,"no2":64.6,"co":1933.0,"o3":27.0,"so2":17.1,"mosquito_risk":7,"arthritis_risk":5,"migraine_risk":7,"frizz_risk":1,"updated_at":"2026-06-16T21:27:18.326481+05:30"},{"city":"Noida","state":"Uttar Pradesh","latitude":28.5355,"longitude":77.391,"temp":28.1,"humidity":62,"rain":0.0,"pressure":981.7,"uv_index":7.85,"wind_gusts":33.1,"aqi":618,"pm10":293.4,"pm2_5":92.9,"no2":64.6,"co":1367.0,"o3":27.0,"so2":17.1,"mosquito_risk":7,"arthritis_risk":5,"migraine_risk":7,"frizz_risk":1,"updated_at":"2026-06-16T21:27:18.326489+05:30"},{"city":"Ghaziabad","state":"Uttar Pradesh","latitude":28.6692,"longitude":77.4538,"temp":27.5,"humidity":70,"rain":0.0,"pressure":979.9,"uv_index":7.8,"wind_gusts":30.6,"aqi":413,"pm10":301.7,"pm2_5":116.6,"no2":49.1,"co":472.0,"o3":83.0,"so2":26.1,"mosquito_risk":7,"arthritis_risk":5,"migraine_risk":7,"frizz_risk":1,"updated_at":"2026-06-16T21:27:18.326496+05:30"},{"city":"Faridabad","state":"Haryana","latitude":28.4089,"longitude":77.3178,"temp":28.6,"humidity":63,"rain":0.0,"pressure":981.1,"uv_index":7.85,"wind_gusts":42.1,"aqi":618,"pm10":293.4,"pm2_5":92.9,"no2":64.6,"co":927.0,"o3":27.0,"so2":17.1,"mosquito_risk":7,"arthritis_risk":5,"migraine_risk":7,"frizz_risk":1,"updated_at":"2026-06-16T21:27:18.326502+05:30"},{"city":"Meerut","state":"Uttar Pradesh","latitude":28.9845,"longitude":77.7064,"temp":27.3,"humidity":73,"rain":0.0,"pressure":978.8,"uv_index":7.7,"wind_gusts":35.6,"aqi":413,"pm10":301.7,"pm2_5":116.6,"no2":49.1,"co":536.0,"o3":83.0,"so2":26.1,"mosquito_risk":7,"arthritis_risk":5,"migraine_risk":7,"frizz_risk":1,"updated_at":"2026-06-16T21:27:18.326508+05:30"},{"city":"Agra","state":"Uttar Pradesh","latitude":27.1767,"longitude":78.0081,"temp":32.3,"humidity":43,"rain":0.0,"pressure":985.2,"uv_index":8.15,"wind_gusts":39.6,"aqi":715,"pm10":158.3,"pm2_5":63.8,"no2":54.7,"co":348.0,"o3":31.0,"so2":15.4,"mosquito_risk":0,"arthritis_risk":5,"migraine_risk":7,"frizz_risk":1,"updated_at":"2026-06-16T21:27:18.326514+05:30"},{"city":"Varanasi","state":"Uttar Pradesh","latitude":25.3176,"longitude":82.9739,"temp":35.1,"humidity":41,"rain":0.0,"pressure":994.5,"uv_index":8.8,"wind_gusts":39.6,"aqi":152,"pm10":130.4,"pm2_5":69.2,"no2":27.2,"co":390.0,"o3":78.0,"so2":15.6,"mosquito_risk":0,"arthritis_risk":5,"migraine_risk":10,"frizz_risk":1,"updated_at":"2026-06-16T21:27:18.326520+05:30"},{"city":"Prayagraj","state":"Uttar Pradesh","latitude":25.4358,"longitude":81.8463,"temp":35.6,"humidity":40,"rain":0.0,"pressure":993.1,"uv_index":8.7,"wind_gusts":40.7,"aqi":154,"pm10":144.4,"pm2_5":70.5,"no2":29.1,"co":377.0,"o3":60.0,"so2":15.7,"mosquito_risk":0,"arthritis_risk":5,"migraine_risk":10,"frizz_risk":1,"updated_at":"2026-06-16T21:27:18.326526+05:30"},{"city":"Gorakhpur","state":"Uttar Pradesh","latitude":26.7606,"longitude":83.3732,"temp":31.0,"humidity":68,"rain":0.0,"pressure":994.0,"uv_index":8.7,"wind_gusts":25.6,"aqi":158,"pm10":97.8,"pm2_5":57.5,"no2":21.8,"co":552.0,"o3":78.0,"so2":11.8,"mosquito_risk":3,"arthritis_risk":5,"migraine_risk":7,"frizz_risk":1,"updated_at":"2026-06-16T21:27:18.326533+05:30"},{"city":"Bareilly","state":"Uttar Pradesh","latitude":28.367,"longitude":79.4304,"temp":28.8,"humidity":67,"rain":0.0,"pressure":984.1,"uv_index":8.15,"wind_gusts":36.0,"aqi":158,"pm10":171.4,"pm2_5":79.6,"no2":23.7,"co":432.0,"o3":88.0,"so2":13.5,"mosquito_risk":7,"arthritis_risk":5,"migraine_risk":7,"frizz_risk":1,"updated_at":"2026-06-16T21:27:18.326538+05:30"},{"city":"Aligarh","state":"Uttar Pradesh","latitude":27.8974,"longitude":78.088,"temp":28.7,"humidity":64,"rain":0.0,"pressure":982.9,"uv_index":8.0,"wind_gusts":38.5,"aqi":464,"pm10":366.0,"pm2_5":90.3,"no2":44.0,"co":476.0,"o3":48.0,"so2":12.3,"mosquito_risk":7,"arthritis_risk":5,"migraine_risk":7,"frizz_risk":1,"updated_at":"2026-06-16T21:27:18.326544+05:30"},{"city":"Moradabad","state":"Uttar Pradesh","latitude":28.8386,"longitude":78.7733,"temp":27.6,"humidity":71,"rain":0.0,"pressure":981.0,"uv_index":7.95,"wind_gusts":38.2,"aqi":174,"pm10":192.3,"pm2_5":97.6,"no2":38.0,"co":529.0,"o3":68.0,"so2":15.3,"mosquito_risk":7,"arthritis_risk":5,"migraine_risk":7,"frizz_risk":1,"updated_at":"2026-06-16T21:27:18.326550+05:30"},{"city":"Saharanpur","state":"Uttar Pradesh","latitude":29.9637,"longitude":77.546,"temp":28.5,"humidity":67,"rain":0.0,"pressure":972.9,"uv_index":7.55,"wind_gusts":29.9,"aqi":164,"pm10":158.3,"pm2_5":79.4,"no2":32.5,"co":392.0,"o3":95.0,"so2":22.1,"mosquito_risk":7,"arthritis_risk":5,"migraine_risk":7,"frizz_risk":1,"updated_at":"2026-06-16T21:27:18.326556+05:30"},{"city":"Jhansi","state":"Uttar Pradesh","latitude":25.4484,"longitude":78.5685,"temp":32.4,"humidity":47,"rain":0.0,"pressure":975.8,"uv_index":8.45,"wind_gusts":28.8,"aqi":82,"pm10":32.1,"pm2_5":19.8,"no2":8.3,"co":324.0,"o3":63.0,"so2":3.9,"mosquito_risk":0,"arthritis_risk":5,"migraine_risk":7,"frizz_risk":1,"updated_at":"2026-06-16T21:27:21.678665+05:30"},{"city":"Surat","state":"Gujarat","latitude":21.1702,"longitude":72.8311,"temp":30.2,"humidity":74,"rain":0.0,"pressure":1005.6,"uv_index":7.55,"wind_gusts":51.8,"aqi":67,"pm10":34.9,"pm2_5":18.9,"no2":18.2,"co":245.0,"o3":32.0,"so2":31.3,"mosquito_risk":3,"arthritis_risk":5,"migraine_risk":4,"frizz_risk":1,"updated_at":"2026-06-16T21:27:21.678697+05:30"},{"city":"Vadodara","state":"Gujarat","latitude":22.3072,"longitude":73.1812,"temp":30.8,"humidity":69,"rain":0.0,"pressure":1002.4,"uv_index":8.0,"wind_gusts":48.2,"aqi":66,"pm10":32.0,"pm2_5":18.4,"no2":14.2,"co":151.0,"o3":46.0,"so2":19.0,"mosquito_risk":3,"arthritis_risk":5,"migraine_risk":4,"frizz_risk":1,"updated_at":"2026-06-16T21:27:21.678707+05:30"},{"city":"Rajkot","state":"Gujarat","latitude":22.3039,"longitude":70.8022,"temp":30.9,"humidity":65,"rain":0.0,"pressure":992.2,"uv_index":7.55,"wind_gusts":45.7,"aqi":58,"pm10":40.0,"pm2_5":18.1,"no2":3.8,"co":111.0,"o3":53.0,"so2":3.7,"mosquito_risk":3,"arthritis_risk":5,"migraine_risk":7,"frizz_risk":1,"updated_at":"2026-06-16T21:27:21.678716+05:30"},{"city":"Thane","state":"Maharashtra","latitude":19.2183,"longitude":72.9781,"temp":30.3,"humidity":68,"rain":0.0,"pressure":1008.0,"uv_index":7.7,"wind_gusts":40.0,"aqi":60,"pm10":34.9,"pm2_5":15.5,"no2":6.9,"co":165.0,"o3":46.0,"so2":4.5,"mosquito_risk":3,"arthritis_risk":0,"migraine_risk":4,"frizz_risk":1,"updated_at":"2026-06-16T21:27:21.678725+05:30"},{"city":"Nagpur","state":"Maharashtra","latitude":21.1458,"longitude":79.0882,"temp":30.9,"humidity":58,"rain":0.0,"pressure":971.9,"uv_index":8.65,"wind_gusts":60.8,"aqi":102,"pm10":42.6,"pm2_5":28.9,"no2":11.7,"co":232.0,"o3":75.0,"so2":10.8,"mosquito_risk":0,"arthritis_risk":5,"migraine_risk":7,"frizz_risk":1,"updated_at":"2026-06-16T21:27:21.678733+05:30"},{"city":"Nashik","state":"Maharashtra","latitude":19.9975,"longitude":73.7898,"temp":26.4,"humidity":73,"rain":0.0,"pressure":945.8,"uv_index":8.05,"wind_gusts":47.9,"aqi":51,"pm10":29.2,"pm2_5":13.1,"no2":2.8,"co":123.0,"o3":53.0,"so2":1.2,"mosquito_risk":7,"arthritis_risk":5,"migraine_risk":7,"frizz_risk":1,"updated_at":"2026-06-16T21:27:21.678741+05:30"},{"city":"Aurangabad","state":"Maharashtra","latitude":19.8762,"longitude":75.3433,"temp":31.0,"humidity":43,"rain":0.0,"pressure":943.9,"uv_index":8.95,"wind_gusts":42.5,"aqi":56,"pm10":29.7,"pm2_5":16.0,"no2":4.8,"co":131.0,"o3":77.0,"so2":3.4,"mosquito_risk":0,"arthritis_risk":5,"migraine_risk":7,"frizz_risk":1,"updated_at":"2026-06-16T21:27:21.678748+05:30"},{"city":"Solapur","state":"Maharashtra","latitude":17.6599,"longitude":75.9064,"temp":33.0,"humidity":26,"rain":0.0,"pressure":956.3,"uv_index":8.9,"wind_gusts":43.2,"aqi":60,"pm10":57.0,"pm2_5":30.3,"no2":19.4,"co":211.0,"o3":67.0,"so2":5.1,"mosquito_risk":0,"arthritis_risk":5,"migraine_risk":7,"frizz_risk":0,"updated_at":"2026-06-16T21:27:21.678756+05:30"},{"city":"Kolhapur","state":"Maharashtra","latitude":16.705,"longitude":74.2433,"temp":25.5,"humidity":78,"rain":0.0,"pressure":948.6,"uv_index":8.75,"wind_gusts":49.7,"aqi":52,"pm10":24.9,"pm2_5":13.8,"no2":4.8,"co":154.0,"o3":56.0,"so2":2.3,"mosquito_risk":7,"arthritis_risk":5,"migraine_risk":7,"frizz_risk":1,"updated_at":"2026-06-16T21:27:21.678763+05:30"},{"city":"Goa","state":"Goa","latitude":15.2993,"longitude":74.124,"temp":27.7,"humidity":84,"rain":0.0,"pressure":998.6,"uv_index":8.4,"wind_gusts":30.6,"aqi":55,"pm10":30.3,"pm2_5":14.1,"no2":2.6,"co":214.0,"o3":48.0,"so2":1.5,"mosquito_risk":7,"arthritis_risk":5,"migraine_risk":7,"frizz_risk":1,"updated_at":"2026-06-16T21:27:21.678800+05:30"},{"city":"Jodhpur","state":"Rajasthan","latitude":26.2389,"longitude":73.0243,"temp":34.4,"humidity":43,"rain":0.0,"pressure":979.8,"uv_index":8.4,"wind_gusts":36.4,"aqi":124,"pm10":205.8,"pm2_5":44.7,"no2":5.6,"co":217.0,"o3":65.0,"so2":1.8,"mosquito_risk":0,"arthritis_risk":5,"migraine_risk":7,"frizz_risk":1,"updated_at":"2026-06-16T21:27:21.678815+05:30"},{"city":"Udaipur","state":"Rajasthan","latitude":24.5854,"longitude":73.7125,"temp":30.0,"humidity":55,"rain":0.0,"pressure":944.9,"uv_index":8.8,"wind_gusts":38.2,"aqi":66,"pm10":38.3,"pm2_5":19.3,"no2":4.7,"co":140.0,"o3":68.0,"so2":2.3,"mosquito_risk":4,"arthritis_risk":5,"migraine_risk":7,"frizz_risk":1,"updated_at":"2026-06-16T21:27:21.678835+05:30"},{"city":"Kota","state":"Rajasthan","latitude":25.2138,"longitude":75.8648,"temp":32.3,"humidity":52,"rain":0.0,"pressure":975.8,"uv_index":8.35,"wind_gusts":32.0,"aqi":82,"pm10":61.0,"pm2_5":33.6,"no2":12.0,"co":262.0,"o3":66.0,"so2":6.0,"mosquito_risk":0,"arthritis_risk":5,"migraine_risk":7,"frizz_risk":1,"updated_at":"2026-06-16T21:27:21.678844+05:30"},{"city":"Bikaner","state":"Rajasthan","latitude":28.0229,"longitude":73.3119,"temp":30.8,"humidity":64,"rain":0.0,"pressure":978.4,"uv_index":8.45,"wind_gusts":57.6,"aqi":143,"pm10":120.6,"pm2_5":37.3,"no2":4.2,"co":198.0,"o3":68.0,"so2":2.1,"mosquito_risk":3,"arthritis_risk":5,"migraine_risk":7,"frizz_risk":1,"updated_at":"2026-06-16T21:27:21.678853+05:30"},{"city":"Ajmer","state":"Rajasthan","latitude":26.4499,"longitude":74.6399,"temp":30.7,"humidity":47,"rain":0.0,"pressure":951.9,"uv_index":8.35,"wind_gusts":39.2,"aqi":78,"pm10":37.0,"pm2_5":20.8,"no2":7.2,"co":170.0,"o3":71.0,"so2":3.3,"mosquito_risk":0,"arthritis_risk":5,"migraine_risk":7,"frizz_risk":1,"updated_at":"2026-06-16T21:27:21.678860+05:30"},{"city":"Gwalior","state":"Madhya Pradesh","latitude":26.2183,"longitude":78.1828,"temp":33.1,"humidity":45,"rain":0.0,"pressure":980.8,"uv_index":8.3,"wind_gusts":22.3,"aqi":153,"pm10":48.9,"pm2_5":24.1,"no2":11.7,"co":248.0,"o3":55.0,"so2":4.3,"mosquito_risk":0,"arthritis_risk":5,"migraine_risk":7,"frizz_risk":1,"updated_at":"2026-06-16T21:27:21.678868+05:30"},{"city":"Indore","state":"Madhya Pradesh","latitude":22.7196,"longitude":75.8577,"temp":31.4,"humidity":40,"rain":0.0,"pressure":947.1,"uv_index":8.6,"wind_gusts":40.7,"aqi":82,"pm10":56.8,"pm2_5":32.0,"no2":9.6,"co":753.0,"o3":72.0,"so2":5.2,"mosquito_risk":0,"arthritis_risk":5,"migraine_risk":7,"frizz_risk":0,"updated_at":"2026-06-16T21:27:21.678875+05:30"},{"city":"Bhopal","state":"Madhya Pradesh","latitude":23.2599,"longitude":77.4126,"temp":27.0,"humidity":82,"rain":0.0,"pressure":952.6,"uv_index":8.05,"wind_gusts":39.6,"aqi":89,"pm10":66.8,"pm2_5":41.9,"no2":20.8,"co":744.0,"o3":50.0,"so2":6.2,"mosquito_risk":7,"arthritis_risk":5,"migraine_risk":7,"frizz_risk":1,"updated_at":"2026-06-16T21:27:21.678883+05:30"},{"city":"Jabalpur","state":"Madhya Pradesh","latitude":23.1815,"longitude":79.9864,"temp":29.6,"humidity":59,"rain":0.0,"pressure":960.7,"uv_index":8.85,"wind_gusts":43.9,"aqi":85,"pm10":66.8,"pm2_5":34.5,"no2":7.9,"co":258.0,"o3":81.0,"so2":3.1,"mosquito_risk":4,"arthritis_risk":5,"migraine_risk":7,"frizz_risk":1,"updated_at":"2026-06-16T21:27:21.678890+05:30"},{"city":"Ujjain","state":"Madhya Pradesh","latitude":23.1765,"longitude":75.7885,"temp":32.0,"humidity":42,"rain":0.0,"pressure":952.7,"uv_index":8.55,"wind_gusts":40.0,"aqi":78,"pm10":50.3,"pm2_5":26.7,"no2":3.5,"co":218.0,"o3":83.0,"so2":4.0,"mosquito_risk":0,"arthritis_risk":5,"migraine_risk":7,"frizz_risk":1,"updated_at":"2026-06-16T21:27:21.678898+05:30"},{"city":"Visakhapatnam","state":"Andhra Pradesh","latitude":17.6868,"longitude":83.2185,"temp":31.2,"humidity":79,"rain":0.0,"pressure":1001.1,"uv_index":9.0,"wind_gusts":32.0,"aqi":156,"pm10":70.8,"pm2_5":52.2,"no2":36.2,"co":498.0,"o3":81.0,"so2":54.2,"mosquito_risk":3,"arthritis_risk":5,"migraine_risk":4,"frizz_risk":1,"updated_at":"2026-06-16T21:27:21.678906+05:30"},{"city":"Vijayawada","state":"Andhra Pradesh","latitude":16.5062,"longitude":80.648,"temp":32.5,"humidity":59,"rain":0.0,"pressure":999.8,"uv_index":8.7,"wind_gusts":31.3,"aqi":157,"pm10":144.8,"pm2_5":103.1,"no2":43.1,"co":726.0,"o3":56.0,"so2":17.1,"mosquito_risk":0,"arthritis_risk":5,"migraine_risk":7,"frizz_risk":1,"updated_at":"2026-06-16T21:27:21.678913+05:30"},{"city":"Guntur","state":"Andhra Pradesh","latitude":16.3067,"longitude":80.4365,"temp":32.7,"humidity":58,"rain":0.0,"pressure":1001.1,"uv_index":8.25,"wind_gusts":35.3,"aqi":159,"pm10":149.0,"pm2_5":103.4,"no2":47.4,"co":659.0,"o3":56.0,"so2":17.0,"mosquito_risk":0,"arthritis_risk":5,"migraine_risk":4,"frizz_risk":1,"updated_at":"2026-06-16T21:27:21.678920+05:30"},{"city":"Nellore","state":"Andhra Pradesh","latitude":14.4426,"longitude":79.9865,"temp":31.9,"humidity":64,"rain":0.0,"pressure":1003.8,"uv_index":8.0,"wind_gusts":41.0,"aqi":92,"pm10":46.2,"pm2_5":34.1,"no2":9.0,"co":337.0,"o3":115.0,"so2":5.1,"mosquito_risk":3,"arthritis_risk":5,"migraine_risk":4,"frizz_risk":1,"updated_at":"2026-06-16T21:27:21.678929+05:30"},{"city":"Kurnool","state":"Andhra Pradesh","latitude":15.8281,"longitude":78.0373,"temp":29.3,"humidity":60,"rain":0.0,"pressure":975.4,"uv_index":4.25,"wind_gusts":42.8,"aqi":80,"pm10":63.3,"pm2_5":37.7,"no2":23.3,"co":331.0,"o3":69.0,"so2":10.1,"mosquito_risk":4,"arthritis_risk":5,"migraine_risk":3,"frizz_risk":1,"updated_at":"2026-06-16T21:27:21.678937+05:30"},{"city":"Kakinada","state":"Andhra Pradesh","latitude":16.9891,"longitude":82.2475,"temp":33.4,"humidity":57,"rain":0.0,"pressure":1004.5,"uv_index":8.9,"wind_gusts":35.3,"aqi":128,"pm10":65.4,"pm2_5":38.5,"no2":6.7,"co":715.0,"o3":104.0,"so2":4.4,"mosquito_risk":0,"arthritis_risk":5,"migraine_risk":4,"frizz_risk":1,"updated_at":"2026-06-16T21:27:21.678945+05:30"},{"city":"Tirupati","state":"Andhra Pradesh","latitude":13.6288,"longitude":79.4192,"temp":29.4,"humidity":65,"rain":0.0,"pressure":990.2,"uv_index":8.7,"wind_gusts":32.0,"aqi":99,"pm10":66.4,"pm2_5":47.7,"no2":45.7,"co":567.0,"o3":48.0,"so2":8.6,"mosquito_risk":7,"arthritis_risk":5,"migraine_risk":7,"frizz_risk":1,"updated_at":"2026-06-16T21:27:21.678952+05:30"},{"city":"Warangal","state":"Telangana","latitude":17.9689,"longitude":79.5941,"temp":30.2,"humidity":67,"rain":0.0,"pressure":976.7,"uv_index":8.4,"wind_gusts":41.8,"aqi":155,"pm10":93.4,"pm2_5":63.8,"no2":34.0,"co":472.0,"o3":57.0,"so2":13.0,"mosquito_risk":3,"arthritis_risk":5,"migraine_risk":7,"frizz_risk":1,"updated_at":"2026-06-16T21:27:21.678959+05:30"},{"city":"Nizamabad","state":"Telangana","latitude":18.6725,"longitude":78.0941,"temp":32.0,"humidity":43,"rain":0.0,"pressure":963.5,"uv_index":8.95,"wind_gusts":36.0,"aqi":93,"pm10":71.2,"pm2_5":38.9,"no2":16.6,"co":437.0,"o3":61.0,"so2":4.8,"mosquito_risk":0,"arthritis_risk":5,"migraine_risk":7,"frizz_risk":1,"updated_at":"2026-06-16T21:27:21.678966+05:30"},{"city":"Mysore","state":"Karnataka","latitude":12.2958,"longitude":76.6396,"temp":24.2,"humidity":87,"rain":0.1,"pressure":929.0,"uv_index":8.45,"wind_gusts":27.4,"aqi":60,"pm10":33.9,"pm2_5":21.7,"no2":21.9,"co":593.0,"o3":59.0,"so2":3.5,"mosquito_risk":6,"arthritis_risk":5,"migraine_risk":7,"frizz_risk":1,"updated_at":"2026-06-16T21:27:21.678973+05:30"},{"city":"Mangalore","state":"Karnataka","latitude":12.9141,"longitude":74.856,"temp":27.8,"humidity":85,"rain":0.0,"pressure":1007.8,"uv_index":8.55,"wind_gusts":40.0,"aqi":57,"pm10":27.0,"pm2_5":14.3,"no2":6.4,"co":170.0,"o3":42.0,"so2":2.4,"mosquito_risk":7,"arthritis_risk":5,"migraine_risk":4,"frizz_risk":1,"updated_at":"2026-06-16T21:27:21.678980+05:30"},{"city":"Hubli-Dharwad","state":"Karnataka","latitude":15.3647,"longitude":75.124,"temp":24.8,"humidity":85,"rain":0.0,"pressure":941.2,"uv_index":8.9,"wind_gusts":52.6,"aqi":43,"pm10":14.3,"pm2_5":9.4,"no2":6.0,"co":172.0,"o3":52.0,"so2":1.9,"mosquito_risk":3,"arthritis_risk":5,"migraine_risk":7,"frizz_risk":1,"updated_at":"2026-06-16T21:27:21.678988+05:30"},{"city":"Belgaum","state":"Karnataka","latitude":15.8497,"longitude":74.4977,"temp":23.5,"humidity":86,"rain":0.0,"pressure":926.2,"uv_index":8.9,"wind_gusts":38.9,"aqi":48,"pm10":18.1,"pm2_5":10.8,"no2":7.3,"co":144.0,"o3":44.0,"so2":1.8,"mosquito_risk":3,"arthritis_risk":5,"migraine_risk":7,"frizz_risk":1,"updated_at":"2026-06-16T21:27:24.996702+05:30"},{"city":"Coimbatore","state":"Tamil Nadu","latitude":11.0168,"longitude":76.9558,"temp":25.7,"humidity":88,"rain":0.0,"pressure":962.1,"uv_index":8.25,"wind_gusts":37.8,"aqi":60,"pm10":21.0,"pm2_5":14.5,"no2":11.3,"co":247.0,"o3":59.0,"so2":3.8,"mosquito_risk":7,"arthritis_risk":5,"migraine_risk":7,"frizz_risk":1,"updated_at":"2026-06-16T21:27:24.996736+05:30"},{"city":"Madurai","state":"Tamil Nadu","latitude":9.9252,"longitude":78.1198,"temp":32.3,"humidity":55,"rain":0.0,"pressure":993.2,"uv_index":8.45,"wind_gusts":31.0,"aqi":77,"pm10":45.9,"pm2_5":28.9,"no2":18.4,"co":207.0,"o3":77.0,"so2":6.2,"mosquito_risk":0,"arthritis_risk":5,"migraine_risk":7,"frizz_risk":1,"updated_at":"2026-06-16T21:27:24.996748+05:30"},{"city":"Trichy","state":"Tamil Nadu","latitude":10.7905,"longitude":78.7047,"temp":31.9,"humidity":58,"rain":0.0,"pressure":999.2,"uv_index":8.3,"wind_gusts":41.0,"aqi":78,"pm10":36.7,"pm2_5":26.0,"no2":15.1,"co":207.0,"o3":71.0,"so2":5.1,"mosquito_risk":0,"arthritis_risk":5,"migraine_risk":7,"frizz_risk":1,"updated_at":"2026-06-16T21:27:24.996759+05:30"},{"city":"Salem","state":"Tamil Nadu","latitude":11.6643,"longitude":78.146,"temp":30.0,"humidity":57,"rain":0.0,"pressure":976.6,"uv_index":7.85,"wind_gusts":31.7,"aqi":80,"pm10":53.6,"pm2_5":28.8,"no2":16.6,"co":323.0,"o3":83.0,"so2":8.0,"mosquito_risk":4,"arthritis_risk":5,"migraine_risk":7,"frizz_risk":1,"updated_at":"2026-06-16T21:27:24.996770+05:30"},{"city":"Tirunelveli","state":"Tamil Nadu","latitude":8.7139,"longitude":77.7567,"temp":31.2,"humidity":58,"rain":0.0,"pressure":1003.4,"uv_index":8.65,"wind_gusts":38.2,"aqi":50,"pm10":14.6,"pm2_5":10.6,"no2":6.2,"co":236.0,"o3":62.0,"so2":2.1,"mosquito_risk":0,"arthritis_risk":5,"migraine_risk":4,"frizz_risk":1,"updated_at":"2026-06-16T21:27:24.996798+05:30"},{"city":"Vellore","state":"Tamil Nadu","latitude":12.9165,"longitude":79.1325,"temp":28.5,"humidity":69,"rain":0.0,"pressure":984.0,"uv_index":8.15,"wind_gusts":38.9,"aqi":109,"pm10":84.3,"pm2_5":61.0,"no2":55.0,"co":619.0,"o3":31.0,"so2":11.0,"mosquito_risk":7,"arthritis_risk":5,"migraine_risk":7,"frizz_risk":1,"updated_at":"2026-06-16T21:27:24.996807+05:30"},{"city":"Erode","state":"Tamil Nadu","latitude":11.341,"longitude":77.7172,"temp":29.6,"humidity":67,"rain":0.0,"pressure":988.8,"uv_index":7.9,"wind_gusts":36.7,"aqi":69,"pm10":31.9,"pm2_5":21.8,"no2":21.3,"co":254.0,"o3":68.0,"so2":4.3,"mosquito_risk":7,"arthritis_risk":5,"migraine_risk":7,"frizz_risk":1,"updated_at":"2026-06-16T21:27:24.996816+05:30"},{"city":"Kochi","state":"Kerala","latitude":9.9312,"longitude":76.2673,"temp":25.2,"humidity":94,"rain":0.2,"pressure":1010.4,"uv_index":8.5,"wind_gusts":32.0,"aqi":58,"pm10":33.9,"pm2_5":22.2,"no2":19.6,"co":337.0,"o3":26.0,"so2":4.9,"mosquito_risk":10,"arthritis_risk":0,"migraine_risk":4,"frizz_risk":1,"updated_at":"2026-06-16T21:27:24.996825+05:30"},{"city":"Thiruvananthapuram","state":"Kerala","latitude":8.5241,"longitude":76.9366,"temp":24.5,"humidity":98,"rain":0.1,"pressure":1010.3,"uv_index":7.75,"wind_gusts":42.1,"aqi":53,"pm10":21.1,"pm2_5":9.9,"no2":2.8,"co":171.0,"o3":60.0,"so2":1.2,"mosquito_risk":6,"arthritis_risk":0,"migraine_risk":4,"frizz_risk":1,"updated_at":"2026-06-16T21:27:24.996833+05:30"},{"city":"Kozhikode","state":"Kerala","latitude":11.2588,"longitude":75.7804,"temp":27.2,"humidity":90,"rain":0.0,"pressure":1008.7,"uv_index":8.2,"wind_gusts":48.2,"aqi":54,"pm10":33.6,"pm2_5":14.6,"no2":1.6,"co":150.0,"o3":55.0,"so2":1.1,"mosquito_risk":7,"arthritis_risk":0,"migraine_risk":4,"frizz_risk":1,"updated_at":"2026-06-16T21:27:24.996840+05:30"},{"city":"Thrissur","state":"Kerala","latitude":10.5276,"longitude":76.2144,"temp":26.5,"humidity":93,"rain":0.0,"pressure":1008.4,"uv_index":7.4,"wind_gusts":38.5,"aqi":62,"pm10":29.6,"pm2_5":19.3,"no2":11.7,"co":348.0,"o3":36.0,"so2":3.3,"mosquito_risk":7,"arthritis_risk":0,"migraine_risk":4,"frizz_risk":1,"updated_at":"2026-06-16T21:27:24.996849+05:30"},{"city":"Kannur","state":"Kerala","latitude":11.8745,"longitude":75.3704,"temp":28.4,"humidity":82,"rain":0.0,"pressure":1008.0,"uv_index":8.5,"wind_gusts":44.6,"aqi":54,"pm10":23.6,"pm2_5":12.5,"no2":7.7,"co":187.0,"o3":41.0,"so2":2.0,"mosquito_risk":7,"arthritis_risk":0,"migraine_risk":4,"frizz_risk":1,"updated_at":"2026-06-16T21:27:24.996856+05:30"},{"city":"Patna","state":"Bihar","latitude":25.5941,"longitude":85.1376,"temp":32.4,"humidity":65,"rain":0.0,"pressure":997.5,"uv_index":8.85,"wind_gusts":22.7,"aqi":161,"pm10":153.2,"pm2_5":93.8,"no2":49.9,"co":594.0,"o3":67.0,"so2":24.6,"mosquito_risk":3,"arthritis_risk":5,"migraine_risk":7,"frizz_risk":1,"updated_at":"2026-06-16T21:27:24.996864+05:30"},{"city":"Gaya","state":"Bihar","latitude":24.7914,"longitude":85.0002,"temp":32.7,"humidity":57,"rain":0.0,"pressure":991.0,"uv_index":8.9,"wind_gusts":23.0,"aqi":153,"pm10":145.8,"pm2_5":88.5,"no2":39.4,"co":736.0,"o3":49.0,"so2":15.9,"mosquito_risk":0,"arthritis_risk":5,"migraine_risk":7,"frizz_risk":1,"updated_at":"2026-06-16T21:27:24.996871+05:30"},{"city":"Muzaffarpur","state":"Bihar","latitude":26.1209,"longitude":85.3647,"temp":31.2,"humidity":71,"rain":0.0,"pressure":997.5,"uv_index":8.85,"wind_gusts":26.3,"aqi":159,"pm10":129.0,"pm2_5":87.8,"no2":36.7,"co":806.0,"o3":74.0,"so2":19.2,"mosquito_risk":3,"arthritis_risk":5,"migraine_risk":7,"frizz_risk":1,"updated_at":"2026-06-16T21:27:24.996879+05:30"},{"city":"Bhagalpur","state":"Bihar","latitude":25.2425,"longitude":87.0117,"temp":31.5,"humidity":71,"rain":0.0,"pressure":998.6,"uv_index":8.85,"wind_gusts":26.3,"aqi":179,"pm10":95.2,"pm2_5":69.4,"no2":14.4,"co":492.0,"o3":146.0,"so2":23.5,"mosquito_risk":3,"arthritis_risk":5,"migraine_risk":7,"frizz_risk":1,"updated_at":"2026-06-16T21:27:24.996886+05:30"},{"city":"Ranchi","state":"Jharkhand","latitude":23.3441,"longitude":85.3096,"temp":27.5,"humidity":63,"rain":0.0,"pressure":936.3,"uv_index":9.25,"wind_gusts":25.9,"aqi":139,"pm10":123.9,"pm2_5":64.7,"no2":29.7,"co":680.0,"o3":71.0,"so2":10.0,"mosquito_risk":7,"arthritis_risk":5,"migraine_risk":7,"frizz_risk":1,"updated_at":"2026-06-16T21:27:24.996893+05:30"},{"city":"Jamshedpur","state":"Jharkhand","latitude":22.8046,"longitude":86.2029,"temp":30.2,"humidity":73,"rain":0.0,"pressure":988.4,"uv_index":9.05,"wind_gusts":26.3,"aqi":171,"pm10":75.0,"pm2_5":56.3,"no2":13.6,"co":498.0,"o3":119.0,"so2":17.8,"mosquito_risk":3,"arthritis_risk":5,"migraine_risk":7,"frizz_risk":1,"updated_at":"2026-06-16T21:27:24.996901+05:30"},{"city":"Dhanbad","state":"Jharkhand","latitude":23.7957,"longitude":86.4304,"temp":30.8,"humidity":67,"rain":0.0,"pressure":978.1,"uv_index":9.05,"wind_gusts":30.6,"aqi":166,"pm10":127.1,"pm2_5":92.9,"no2":59.2,"co":517.0,"o3":94.0,"so2":113.8,"mosquito_risk":3,"arthritis_risk":5,"migraine_risk":7,"frizz_risk":1,"updated_at":"2026-06-16T21:27:24.996908+05:30"},{"city":"Bokaro","state":"Jharkhand","latitude":23.6693,"longitude":86.1511,"temp":30.1,"humidity":68,"rain":0.0,"pressure":981.5,"uv_index":9.1,"wind_gusts":29.5,"aqi":167,"pm10":141.1,"pm2_5":88.0,"no2":60.1,"co":602.0,"o3":52.0,"so2":96.6,"mosquito_risk":3,"arthritis_risk":5,"migraine_risk":7,"frizz_risk":1,"updated_at":"2026-06-16T21:27:24.996915+05:30"},{"city":"Bhubaneswar","state":"Odisha","latitude":20.2961,"longitude":85.8245,"temp":29.6,"humidity":87,"rain":0.0,"pressure":1000.5,"uv_index":9.0,"wind_gusts":30.2,"aqi":101,"pm10":60.3,"pm2_5":50.2,"no2":22.3,"co":392.0,"o3":71.0,"so2":10.1,"mosquito_risk":7,"arthritis_risk":5,"migraine_risk":4,"frizz_risk":1,"updated_at":"2026-06-16T21:27:24.996923+05:30"},{"city":"Cuttack","state":"Odisha","latitude":20.4625,"longitude":85.8828,"temp":30.2,"humidity":80,"rain":0.0,"pressure":1002.1,"uv_index":9.1,"wind_gusts":36.4,"aqi":101,"pm10":60.3,"pm2_5":50.2,"no2":22.3,"co":705.0,"o3":71.0,"so2":10.1,"mosquito_risk":3,"arthritis_risk":5,"migraine_risk":4,"frizz_risk":1,"updated_at":"2026-06-16T21:27:24.996930+05:30"},{"city":"Rourkela","state":"Odisha","latitude":22.2604,"longitude":84.8536,"temp":30.9,"humidity":73,"rain":0.0,"pressure":982.7,"uv_index":9.0,"wind_gusts":24.5,"aqi":150,"pm10":107.1,"pm2_5":70.3,"no2":30.6,"co":495.0,"o3":103.0,"so2":18.4,"mosquito_risk":3,"arthritis_risk":5,"migraine_risk":7,"frizz_risk":1,"updated_at":"2026-06-16T21:27:24.996937+05:30"},{"city":"Raipur","state":"Chhattisgarh","latitude":21.2514,"longitude":81.6296,"temp":31.9,"humidity":50,"rain":0.0,"pressure":973.7,"uv_index":8.95,"wind_gusts":32.0,"aqi":148,"pm10":75.4,"pm2_5":52.2,"no2":28.5,"co":304.0,"o3":77.0,"so2":50.6,"mosquito_risk":0,"arthritis_risk":5,"migraine_risk":7,"frizz_risk":1,"updated_at":"2026-06-16T21:27:24.996944+05:30"},{"city":"Bhilai","state":"Chhattisgarh","latitude":21.1938,"longitude":81.3509,"temp":27.8,"humidity":78,"rain":0.1,"pressure":973.9,"uv_index":8.95,"wind_gusts":42.5,"aqi":145,"pm10":70.3,"pm2_5":49.2,"no2":28.1,"co":315.0,"o3":69.0,"so2":45.1,"mosquito_risk":10,"arthritis_risk":5,"migraine_risk":7,"frizz_risk":1,"updated_at":"2026-06-16T21:27:24.996951+05:30"},{"city":"Guwahati","state":"Assam","latitude":26.1158,"longitude":91.7086,"temp":27.8,"humidity":93,"rain":0.0,"pressure":999.5,"uv_index":8.35,"wind_gusts":20.9,"aqi":84,"pm10":19.2,"pm2_5":18.0,"no2":10.9,"co":510.0,"o3":52.0,"so2":2.3,"mosquito_risk":7,"arthritis_risk":5,"migraine_risk":7,"frizz_risk":1,"updated_at":"2026-06-16T21:27:24.996959+05:30"},{"city":"Agartala","state":"Tripura","latitude":23.8315,"longitude":91.2868,"temp":26.7,"humidity":91,"rain":0.0,"pressure":1005.5,"uv_index":8.85,"wind_gusts":25.9,"aqi":95,"pm10":34.9,"pm2_5":31.4,"no2":13.3,"co":221.0,"o3":58.0,"so2":3.4,"mosquito_risk":7,"arthritis_risk":5,"migraine_risk":4,"frizz_risk":1,"updated_at":"2026-06-16T21:27:24.996966+05:30"},{"city":"Shillong","state":"Meghalaya","latitude":25.5788,"longitude":91.8933,"temp":19.3,"humidity":98,"rain":0.0,"pressure":856.8,"uv_index":8.1,"wind_gusts":18.7,"aqi":73,"pm10":23.3,"pm2_5":20.7,"no2":8.7,"co":484.0,"o3":80.0,"so2":3.1,"mosquito_risk":3,"arthritis_risk":10,"migraine_risk":7,"frizz_risk":1,"updated_at":"2026-06-16T21:27:24.996973+05:30"},{"city":"Imphal","state":"Manipur","latitude":24.817,"longitude":93.9368,"temp":23.4,"humidity":94,"rain":0.1,"pressure":922.9,"uv_index":8.15,"wind_gusts":29.9,"aqi":72,"pm10":31.2,"pm2_5":28.7,"no2":19.7,"co":500.0,"o3":54.0,"so2":4.8,"mosquito_risk":6,"arthritis_risk":5,"migraine_risk":7,"frizz_risk":1,"updated_at":"2026-06-16T21:27:24.996980+05:30"},{"city":"Aizawl","state":"Mizoram","latitude":23.7271,"longitude":92.7176,"temp":19.9,"humidity":98,"rain":0.0,"pressure":892.3,"uv_index":7.45,"wind_gusts":22.3,"aqi":51,"pm10":6.9,"pm2_5":6.3,"no2":6.2,"co":196.0,"o3":48.0,"so2":1.0,"mosquito_risk":3,"arthritis_risk":10,"migraine_risk":7,"frizz_risk":1,"updated_at":"2026-06-16T21:27:24.996987+05:30"},{"city":"Kohima","state":"Nagaland","latitude":25.6701,"longitude":94.1077,"temp":19.9,"humidity":93,"rain":0.0,"pressure":855.1,"uv_index":8.8,"wind_gusts":24.1,"aqi":60,"pm10":23.4,"pm2_5":20.1,"no2":12.2,"co":434.0,"o3":57.0,"so2":2.2,"mosquito_risk":3,"arthritis_risk":10,"migraine_risk":7,"frizz_risk":1,"updated_at":"2026-06-16T21:27:24.996994+05:30"},{"city":"Gangtok","state":"Sikkim","latitude":27.3314,"longitude":88.6138,"temp":17.6,"humidity":93,"rain":0.2,"pressure":837.6,"uv_index":8.4,"wind_gusts":37.8,"aqi":85,"pm10":10.9,"pm2_5":9.5,"no2":6.8,"co":579.0,"o3":124.0,"so2":2.4,"mosquito_risk":6,"arthritis_risk":10,"migraine_risk":7,"frizz_risk":1,"updated_at":"2026-06-16T21:27:24.997001+05:30"},{"city":"Siliguri","state":"West Bengal","latitude":26.7271,"longitude":88.3953,"temp":26.4,"humidity":96,"rain":0.1,"pressure":991.9,"uv_index":8.35,"wind_gusts":21.2,"aqi":119,"pm10":47.7,"pm2_5":39.0,"no2":11.0,"co":983.0,"o3":114.0,"so2":5.0,"mosquito_risk":10,"arthritis_risk":5,"migraine_risk":7,"frizz_risk":1,"updated_at":"2026-06-16T21:27:28.333024+05:30"},{"city":"Durgapur","state":"West Bengal","latitude":23.5204,"longitude":87.3119,"temp":29.5,"humidity":78,"rain":0.0,"pressure":992.8,"uv_index":9.0,"wind_gusts":27.4,"aqi":212,"pm10":68.0,"pm2_5":61.0,"no2":20.6,"co":577.0,"o3":111.0,"so2":33.2,"mosquito_risk":7,"arthritis_risk":5,"migraine_risk":7,"frizz_risk":1,"updated_at":"2026-06-16T21:27:28.333061+05:30"},{"city":"Asansol","state":"West Bengal","latitude":23.6739,"longitude":86.9524,"temp":29.7,"humidity":78,"rain":0.0,"pressure":991.4,"uv_index":9.0,"wind_gusts":35.6,"aqi":191,"pm10":76.8,"pm2_5":68.7,"no2":24.6,"co":737.0,"o3":129.0,"so2":53.3,"mosquito_risk":7,"arthritis_risk":5,"migraine_risk":7,"frizz_risk":1,"updated_at":"2026-06-16T21:27:28.333074+05:30"},{"city":"Pondicherry","state":"Puducherry","latitude":11.9139,"longitude":79.8145,"temp":29.7,"humidity":88,"rain":0.0,"pressure":1007.1,"uv_index":8.3,"wind_gusts":34.9,"aqi":135,"pm10":43.4,"pm2_5":28.9,"no2":9.3,"co":246.0,"o3":114.0,"so2":5.7,"mosquito_risk":7,"arthritis_risk":5,"migraine_risk":4,"frizz_risk":1,"updated_at":"2026-06-16T21:27:28.333085+05:30"},{"city":"Port Blair","state":"Andaman and Nicobar Islands","latitude":11.6234,"longitude":92.7265,"temp":27.7,"humidity":83,"rain":0.0,"pressure":1009.5,"uv_index":8.55,"wind_gusts":42.1,"aqi":27,"pm10":6.8,"pm2_5":4.1,"no2":0.4,"co":96.0,"o3":40.0,"so2":0.3,"mosquito_risk":7,"arthritis_risk":0,"migraine_risk":4,"frizz_risk":1,"updated_at":"2026-06-16T21:27:28.333094+05:30"},{"city":"Haridwar","state":"Uttarakhand","latitude":29.9457,"longitude":78.1642,"temp":28.1,"humidity":76,"rain":0.0,"pressure":971.4,"uv_index":7.6,"wind_gusts":29.2,"aqi":149,"pm10":143.0,"pm2_5":71.5,"no2":22.8,"co":486.0,"o3":115.0,"so2":17.7,"mosquito_risk":7,"arthritis_risk":5,"migraine_risk":7,"frizz_risk":1,"updated_at":"2026-06-16T21:27:28.333102+05:30"},{"city":"Rishikesh","state":"Uttarakhand","latitude":30.0869,"longitude":78.2676,"temp":26.3,"humidity":82,"rain":0.0,"pressure":964.2,"uv_index":7.7,"wind_gusts":25.2,"aqi":132,"pm10":122.5,"pm2_5":56.6,"no2":12.4,"co":386.0,"o3":120.0,"so2":9.3,"mosquito_risk":7,"arthritis_risk":5,"migraine_risk":7,"frizz_risk":1,"updated_at":"2026-06-16T21:27:28.333110+05:30"},{"city":"Nainital","state":"Uttarakhand","latitude":29.3919,"longitude":79.4542,"temp":15.9,"humidity":91,"rain":0.0,"pressure":804.3,"uv_index":8.1,"wind_gusts":29.2,"aqi":126,"pm10":95.2,"pm2_5":46.6,"no2":13.9,"co":342.0,"o3":106.0,"so2":7.8,"mosquito_risk":3,"arthritis_risk":10,"migraine_risk":7,"frizz_risk":0,"updated_at":"2026-06-16T21:27:28.333117+05:30"},{"city":"Mussoorie","state":"Uttarakhand","latitude":30.4599,"longitude":78.0664,"temp":15.7,"humidity":80,"rain":0.0,"pressure":801.7,"uv_index":7.4,"wind_gusts":32.8,"aqi":139,"pm10":84.5,"pm2_5":43.7,"no2":20.6,"co":325.0,"o3":120.0,"so2":12.9,"mosquito_risk":3,"arthritis_risk":5,"migraine_risk":7,"frizz_risk":0,"updated_at":"2026-06-16T21:27:28.333125+05:30"},{"city":"Dharamshala","state":"Himachal Pradesh","latitude":32.219,"longitude":76.3234,"temp":20.4,"humidity":78,"rain":0.0,"pressure":867.6,"uv_index":8.55,"wind_gusts":46.8,"aqi":83,"pm10":15.8,"pm2_5":13.7,"no2":13.9,"co":409.0,"o3":73.0,"so2":0.6,"mosquito_risk":3,"arthritis_risk":5,"migraine_risk":7,"frizz_risk":1,"updated_at":"2026-06-16T21:27:28.333133+05:30"},{"city":"Dalhousie","state":"Himachal Pradesh","latitude":32.5387,"longitude":75.971,"temp":15.0,"humidity":97,"rain":0.0,"pressure":802.5,"uv_index":8.2,"wind_gusts":31.7,"aqi":126,"pm10":34.3,"pm2_5":23.5,"no2":12.1,"co":600.0,"o3":138.0,"so2":2.1,"mosquito_risk":3,"arthritis_risk":10,"migraine_risk":7,"frizz_risk":0,"updated_at":"2026-06-16T21:27:28.333141+05:30"},{"city":"Patiala","state":"Punjab","latitude":30.3398,"longitude":76.3869,"temp":29.7,"humidity":62,"rain":0.0,"pressure":975.4,"uv_index":7.7,"wind_gusts":31.7,"aqi":169,"pm10":173.7,"pm2_5":72.6,"no2":18.2,"co":345.0,"o3":91.0,"so2":8.9,"mosquito_risk":7,"arthritis_risk":5,"migraine_risk":7,"frizz_risk":1,"updated_at":"2026-06-16T21:27:28.333148+05:30"},{"city":"Bhatinda","state":"Punjab","latitude":30.211,"longitude":74.9455,"temp":28.7,"humidity":74,"rain":0.0,"pressure":980.6,"uv_index":8.35,"wind_gusts":39.2,"aqi":143,"pm10":159.3,"pm2_5":72.2,"no2":38.4,"co":214.0,"o3":62.0,"so2":11.9,"mosquito_risk":7,"arthritis_risk":5,"migraine_risk":7,"frizz_risk":1,"updated_at":"2026-06-16T21:27:28.333155+05:30"},{"city":"Rohtak","state":"Haryana","latitude":28.8955,"longitude":76.6066,"temp":29.3,"humidity":72,"rain":0.0,"pressure":979.1,"uv_index":7.8,"wind_gusts":42.5,"aqi":527,"pm10":403.3,"pm2_5":103.1,"no2":62.6,"co":1013.0,"o3":32.0,"so2":14.3,"mosquito_risk":7,"arthritis_risk":5,"migraine_risk":7,"frizz_risk":1,"updated_at":"2026-06-16T21:27:28.333162+05:30"},{"city":"Panipat","state":"Haryana","latitude":29.3909,"longitude":76.9635,"temp":28.2,"humidity":73,"rain":0.0,"pressure":977.5,"uv_index":7.65,"wind_gusts":22.7,"aqi":715,"pm10":480.6,"pm2_5":123.4,"no2":42.5,"co":400.0,"o3":51.0,"so2":15.1,"mosquito_risk":7,"arthritis_risk":5,"migraine_risk":7,"frizz_risk":1,"updated_at":"2026-06-16T21:27:28.333169+05:30"},{"city":"Mathura","state":"Uttar Pradesh","latitude":27.4924,"longitude":77.6737,"temp":29.3,"humidity":51,"rain":0.0,"pressure":983.9,"uv_index":8.1,"wind_gusts":48.2,"aqi":464,"pm10":197.4,"pm2_5":59.8,"no2":67.9,"co":734.0,"o3":14.0,"so2":8.3,"mosquito_risk":4,"arthritis_risk":5,"migraine_risk":7,"frizz_risk":1,"updated_at":"2026-06-16T21:27:28.333177+05:30"},{"city":"Vrindavan","state":"Uttar Pradesh","latitude":27.5823,"longitude":77.7027,"temp":29.4,"humidity":49,"rain":0.0,"pressure":984.4,"uv_index":8.1,"wind_gusts":49.3,"aqi":464,"pm10":197.4,"pm2_5":59.8,"no2":67.9,"co":781.0,"o3":14.0,"so2":8.3,"mosquito_risk":4,"arthritis_risk":5,"migraine_risk":7,"frizz_risk":1,"updated_at":"2026-06-16T21:27:28.333183+05:30"},{"city":"Ayodhya","state":"Uttar Pradesh","latitude":26.7922,"longitude":82.1998,"temp":30.4,"humidity":71,"rain":0.0,"pressure":992.3,"uv_index":8.35,"wind_gusts":24.5,"aqi":158,"pm10":94.5,"pm2_5":53.0,"no2":18.6,"co":349.0,"o3":78.0,"so2":10.3,"mosquito_risk":3,"arthritis_risk":5,"migraine_risk":7,"frizz_risk":1,"updated_at":"2026-06-16T21:27:28.333191+05:30"},{"city":"Ratlam","state":"Madhya Pradesh","latitude":23.3315,"longitude":75.0367,"temp":31.0,"humidity":46,"rain":0.0,"pressure":953.5,"uv_index":8.5,"wind_gusts":42.5,"aqi":74,"pm10":50.8,"pm2_5":26.3,"no2":2.7,"co":188.0,"o3":87.0,"so2":4.5,"mosquito_risk":0,"arthritis_risk":5,"migraine_risk":7,"frizz_risk":1,"updated_at":"2026-06-16T21:27:28.333198+05:30"},{"city":"Sagar","state":"Madhya Pradesh","latitude":23.8388,"longitude":78.7378,"temp":28.1,"humidity":64,"rain":0.0,"pressure":949.1,"uv_index":8.15,"wind_gusts":45.4,"aqi":76,"pm10":42.4,"pm2_5":26.8,"no2":11.0,"co":192.0,"o3":71.0,"so2":3.2,"mosquito_risk":7,"arthritis_risk":5,"migraine_risk":7,"frizz_risk":1,"updated_at":"2026-06-16T21:27:28.333205+05:30"},{"city":"Satna","state":"Madhya Pradesh","latitude":24.6005,"longitude":80.8322,"temp":32.2,"humidity":46,"rain":0.0,"pressure":969.3,"uv_index":8.8,"wind_gusts":29.5,"aqi":129,"pm10":176.5,"pm2_5":63.6,"no2":11.8,"co":354.0,"o3":75.0,"so2":4.4,"mosquito_risk":0,"arthritis_risk":5,"migraine_risk":7,"frizz_risk":1,"updated_at":"2026-06-16T21:27:28.333212+05:30"},{"city":"Akola","state":"Maharashtra","latitude":20.7002,"longitude":77.0082,"temp":31.0,"humidity":55,"rain":0.0,"pressure":973.8,"uv_index":8.8,"wind_gusts":41.0,"aqi":75,"pm10":48.0,"pm2_5":26.8,"no2":11.3,"co":228.0,"o3":70.0,"so2":4.9,"mosquito_risk":0,"arthritis_risk":5,"migraine_risk":7,"frizz_risk":1,"updated_at":"2026-06-16T21:27:28.333220+05:30"},{"city":"Amravati","state":"Maharashtra","latitude":20.9374,"longitude":77.7796,"temp":28.3,"humidity":72,"rain":0.0,"pressure":966.1,"uv_index":8.8,"wind_gusts":47.5,"aqi":88,"pm10":43.7,"pm2_5":25.7,"no2":8.9,"co":253.0,"o3":75.0,"so2":5.1,"mosquito_risk":7,"arthritis_risk":5,"migraine_risk":7,"frizz_risk":1,"updated_at":"2026-06-16T21:27:28.333228+05:30"},{"city":"Latur","state":"Maharashtra","latitude":18.4088,"longitude":76.5604,"temp":30.9,"humidity":29,"rain":0.0,"pressure":938.7,"uv_index":8.9,"wind_gusts":35.6,"aqi":65,"pm10":52.7,"pm2_5":29.9,"no2":16.7,"co":216.0,"o3":59.0,"so2":4.5,"mosquito_risk":0,"arthritis_risk":5,"migraine_risk":7,"frizz_risk":0,"updated_at":"2026-06-16T21:27:28.333235+05:30"},{"city":"Nanded","state":"Maharashtra","latitude":19.1383,"longitude":77.3091,"temp":31.8,"humidity":46,"rain":0.0,"pressure":967.1,"uv_index":8.85,"wind_gusts":36.0,"aqi":71,"pm10":73.8,"pm2_5":39.2,"no2":22.3,"co":266.0,"o3":62.0,"so2":5.3,"mosquito_risk":0,"arthritis_risk":5,"migraine_risk":7,"frizz_risk":1,"updated_at":"2026-06-16T21:27:28.333242+05:30"},{"city":"Gulbarga","state":"Karnataka","latitude":17.3297,"longitude":76.8343,"temp":30.3,"humidity":38,"rain":0.0,"pressure":957.2,"uv_index":8.9,"wind_gusts":40.3,"aqi":69,"pm10":68.5,"pm2_5":36.8,"no2":43.7,"co":191.0,"o3":46.0,"so2":6.2,"mosquito_risk":0,"arthritis_risk":5,"migraine_risk":7,"frizz_risk":0,"updated_at":"2026-06-16T21:27:28.333249+05:30"},{"city":"Bidar","state":"Karnataka","latitude":17.9104,"longitude":77.5199,"temp":29.2,"humidity":50,"rain":0.0,"pressure":934.5,"uv_index":8.95,"wind_gusts":35.6,"aqi":84,"pm10":66.4,"pm2_5":39.6,"no2":28.7,"co":577.0,"o3":53.0,"so2":6.2,"mosquito_risk":4,"arthritis_risk":5,"migraine_risk":7,"frizz_risk":1,"updated_at":"2026-06-16T21:27:28.333256+05:30"},{"city":"Hospet","state":"Karnataka","latitude":15.2689,"longitude":76.3909,"temp":28.4,"humidity":56,"rain":0.0,"pressure":955.7,"uv_index":8.85,"wind_gusts":31.3,"aqi":56,"pm10":33.4,"pm2_5":21.3,"no2":17.3,"co":219.0,"o3":66.0,"so2":2.6,"mosquito_risk":4,"arthritis_risk":5,"migraine_risk":7,"frizz_risk":1,"updated_at":"2026-06-16T21:27:28.333263+05:30"},{"city":"Tirupur","state":"Tamil Nadu","latitude":11.1085,"longitude":77.3411,"temp":27.6,"humidity":78,"rain":0.0,"pressure":975.3,"uv_index":8.2,"wind_gusts":43.2,"aqi":71,"pm10":36.1,"pm2_5":23.7,"no2":21.2,"co":208.0,"o3":61.0,"so2":5.8,"mosquito_risk":7,"arthritis_risk":5,"migraine_risk":7,"frizz_risk":1,"updated_at":"2026-06-16T21:27:28.333269+05:30"},{"city":"Alappuzha","state":"Kerala","latitude":9.4981,"longitude":76.3388,"temp":26.2,"humidity":94,"rain":0.1,"pressure":1010.5,"uv_index":7.8,"wind_gusts":34.2,"aqi":57,"pm10":37.7,"pm2_5":20.3,"no2":13.7,"co":110.0,"o3":42.0,"so2":3.5,"mosquito_risk":10,"arthritis_risk":0,"migraine_risk":4,"frizz_risk":1,"updated_at":"2026-06-16T21:27:28.333276+05:30"},{"city":"Munnar","state":"Kerala","latitude":10.0889,"longitude":77.0595,"temp":18.3,"humidity":98,"rain":0.0,"pressure":857.6,"uv_index":9.0,"wind_gusts":28.8,"aqi":45,"pm10":16.3,"pm2_5":12.9,"no2":11.4,"co":320.0,"o3":42.0,"so2":2.3,"mosquito_risk":3,"arthritis_risk":10,"migraine_risk":7,"frizz_risk":1,"updated_at":"2026-06-16T21:27:28.333284+05:30"},{"city":"Silchar","state":"Assam","latitude":24.8333,"longitude":92.7789,"temp":26.5,"humidity":93,"rain":0.0,"pressure":1004.5,"uv_index":8.95,"wind_gusts":20.5,"aqi":115,"pm10":37.6,"pm2_5":31.7,"no2":7.5,"co":354.0,"o3":88.0,"so2":4.2,"mosquito_risk":7,"arthritis_risk":5,"migraine_risk":4,"frizz_risk":1,"updated_at":"2026-06-16T21:27:28.333291+05:30"},{"city":"Dibrugarh","state":"Assam","latitude":27.4728,"longitude":94.912,"temp":27.1,"humidity":92,"rain":0.0,"pressure":993.3,"uv_index":8.75,"wind_gusts":20.5,"aqi":66,"pm10":47.1,"pm2_5":45.6,"no2":29.7,"co":445.0,"o3":48.0,"so2":5.7,"mosquito_risk":7,"arthritis_risk":5,"migraine_risk":7,"frizz_risk":1,"updated_at":"2026-06-16T21:27:28.333298+05:30"}]