[{"city":"Delhi","state":"Delhi","latitude":28.6139,"longitude":77.209,"temp":36.2,"humidity":38,"rain":0.0,"pressure":979.8,"uv_index":7.75,"wind_gusts":30.2,"aqi":218,"pm10":405.1,"pm2_5":115.3,"no2":16.1,"co":235.0,"o3":222.0,"so2":46.7,"mosquito_risk":0,"arthritis_risk":5,"migraine_risk":10,"frizz_risk":1,"updated_at":"2026-06-15T11:57:11.288680+05:30"},{"city":"Mumbai","state":"Maharashtra","latitude":19.076,"longitude":72.8777,"temp":31.7,"humidity":65,"rain":0.1,"pressure":1009.1,"uv_index":7.7,"wind_gusts":46.8,"aqi":58,"pm10":33.2,"pm2_5":16.1,"no2":3.3,"co":143.0,"o3":75.0,"so2":4.5,"mosquito_risk":6,"arthritis_risk":0,"migraine_risk":4,"frizz_risk":1,"updated_at":"2026-06-15T11:57:11.288727+05:30"},{"city":"Bangalore","state":"Karnataka","latitude":12.9716,"longitude":77.5946,"temp":29.0,"humidity":51,"rain":0.0,"pressure":913.1,"uv_index":9.15,"wind_gusts":42.5,"aqi":56,"pm10":34.3,"pm2_5":15.5,"no2":2.9,"co":208.0,"o3":84.0,"so2":3.0,"mosquito_risk":4,"arthritis_risk":5,"migraine_risk":7,"frizz_risk":1,"updated_at":"2026-06-15T11:57:11.288743+05:30"},{"city":"Hyderabad","state":"Telangana","latitude":17.385,"longitude":78.4867,"temp":32.9,"humidity":45,"rain":0.0,"pressure":952.5,"uv_index":9.05,"wind_gusts":40.3,"aqi":90,"pm10":52.5,"pm2_5":26.4,"no2":2.1,"co":206.0,"o3":113.0,"so2":5.6,"mosquito_risk":0,"arthritis_risk":5,"migraine_risk":7,"frizz_risk":1,"updated_at":"2026-06-15T11:57:11.288753+05:30"},{"city":"Chennai","state":"Tamil Nadu","latitude":13.0827,"longitude":80.2707,"temp":36.2,"humidity":45,"rain":0.0,"pressure":1005.2,"uv_index":8.15,"wind_gusts":37.8,"aqi":69,"pm10":38.6,"pm2_5":27.0,"no2":6.1,"co":177.0,"o3":142.0,"so2":11.2,"mosquito_risk":0,"arthritis_risk":5,"migraine_risk":7,"frizz_risk":1,"updated_at":"2026-06-15T11:57:11.288761+05:30"},{"city":"Kolkata","state":"West Bengal","latitude":22.5726,"longitude":88.3639,"temp":35.7,"humidity":51,"rain":0.0,"pressure":1002.0,"uv_index":9.0,"wind_gusts":34.6,"aqi":116,"pm10":44.0,"pm2_5":33.9,"no2":3.4,"co":347.0,"o3":145.0,"so2":9.8,"mosquito_risk":0,"arthritis_risk":5,"migraine_risk":7,"frizz_risk":1,"updated_at":"2026-06-15T11:57:11.288770+05:30"},{"city":"Pune","state":"Maharashtra","latitude":18.5204,"longitude":73.8567,"temp":32.3,"humidity":47,"rain":0.1,"pressure":949.1,"uv_index":8.3,"wind_gusts":49.7,"aqi":52,"pm10":27.3,"pm2_5":14.0,"no2":1.9,"co":133.0,"o3":93.0,"so2":5.9,"mosquito_risk":3,"arthritis_risk":5,"migraine_risk":7,"frizz_risk":1,"updated_at":"2026-06-15T11:57:11.288776+05:30"},{"city":"Ahmedabad","state":"Gujarat","latitude":23.0225,"longitude":72.5714,"temp":35.6,"humidity":43,"rain":0.0,"pressure":1000.5,"uv_index":8.05,"wind_gusts":44.6,"aqi":67,"pm10":55.4,"pm2_5":17.6,"no2":1.4,"co":124.0,"o3":75.0,"so2":2.8,"mosquito_risk":0,"arthritis_risk":5,"migraine_risk":7,"frizz_risk":1,"updated_at":"2026-06-15T11:57:11.288783+05:30"},{"city":"Jaipur","state":"Rajasthan","latitude":26.9124,"longitude":75.7873,"temp":34.1,"humidity":49,"rain":0.0,"pressure":957.8,"uv_index":8.25,"wind_gusts":30.2,"aqi":139,"pm10":211.9,"pm2_5":53.6,"no2":1.1,"co":147.0,"o3":89.0,"so2":4.3,"mosquito_risk":0,"arthritis_risk":5,"migraine_risk":7,"frizz_risk":1,"updated_at":"2026-06-15T11:57:11.288794+05:30"},{"city":"Lucknow","state":"Uttar Pradesh","latitude":26.8467,"longitude":80.9462,"temp":35.7,"humidity":45,"rain":0.0,"pressure":990.0,"uv_index":8.35,"wind_gusts":20.2,"aqi":178,"pm10":357.6,"pm2_5":87.8,"no2":2.2,"co":200.0,"o3":175.0,"so2":12.3,"mosquito_risk":0,"arthritis_risk":5,"migraine_risk":10,"frizz_risk":1,"updated_at":"2026-06-15T11:57:11.288801+05:30"},{"city":"Kanpur","state":"Uttar Pradesh","latitude":26.4499,"longitude":80.3319,"temp":37.9,"humidity":32,"rain":0.0,"pressure":988.6,"uv_index":8.3,"wind_gusts":31.0,"aqi":257,"pm10":367.9,"pm2_5":75.9,"no2":2.1,"co":166.0,"o3":149.0,"so2":7.1,"mosquito_risk":0,"arthritis_risk":5,"migraine_risk":10,"frizz_risk":1,"updated_at":"2026-06-15T11:57:11.288807+05:30"},{"city":"Chandigarh","state":"Chandigarh","latitude":30.7333,"longitude":76.7794,"temp":34.6,"humidity":37,"rain":0.0,"pressure":965.8,"uv_index":7.8,"wind_gusts":22.7,"aqi":79,"pm10":46.9,"pm2_5":20.8,"no2":2.1,"co":323.0,"o3":170.0,"so2":7.5,"mosquito_risk":0,"arthritis_risk":5,"migraine_risk":7,"frizz_risk":1,"updated_at":"2026-06-15T11:57:11.288814+05:30"},{"city":"Srinagar","state":"Jammu and Kashmir","latitude":34.0837,"longitude":74.7973,"temp":23.9,"humidity":50,"rain":0.0,"pressure":841.8,"uv_index":9.05,"wind_gusts":31.7,"aqi":78,"pm10":24.5,"pm2_5":13.7,"no2":1.5,"co":325.0,"o3":146.0,"so2":3.4,"mosquito_risk":0,"arthritis_risk":5,"migraine_risk":7,"frizz_risk":0,"updated_at":"2026-06-15T11:57:11.288821+05:30"},{"city":"Jammu","state":"Jammu and Kashmir","latitude":32.7266,"longitude":74.857,"temp":31.8,"humidity":39,"rain":0.0,"pressure":970.8,"uv_index":8.3,"wind_gusts":30.2,"aqi":80,"pm10":45.1,"pm2_5":22.0,"no2":1.8,"co":308.0,"o3":166.0,"so2":3.9,"mosquito_risk":0,"arthritis_risk":5,"migraine_risk":7,"frizz_risk":1,"updated_at":"2026-06-15T11:57:11.288828+05:30"},{"city":"Amritsar","state":"Punjab","latitude":31.634,"longitude":74.8723,"temp":34.7,"humidity":39,"rain":0.0,"pressure":977.3,"uv_index":8.45,"wind_gusts":20.5,"aqi":113,"pm10":32.7,"pm2_5":17.5,"no2":1.6,"co":309.0,"o3":163.0,"so2":3.6,"mosquito_risk":0,"arthritis_risk":5,"migraine_risk":7,"frizz_risk":1,"updated_at":"2026-06-15T11:57:11.288833+05:30"},{"city":"Ludhiana","state":"Punjab","latitude":30.901,"longitude":75.8573,"temp":36.6,"humidity":30,"rain":0.0,"pressure":975.2,"uv_index":8.05,"wind_gusts":31.3,"aqi":131,"pm10":149.5,"pm2_5":39.9,"no2":1.9,"co":352.0,"o3":162.0,"so2":7.1,"mosquito_risk":0,"arthritis_risk":5,"migraine_risk":10,"frizz_risk":1,"updated_at":"2026-06-15T11:57:11.288840+05:30"},{"city":"Jalandhar","state":"Punjab","latitude":31.326,"longitude":75.5762,"temp":35.5,"humidity":37,"rain":0.0,"pressure":976.3,"uv_index":8.2,"wind_gusts":25.2,"aqi":97,"pm10":61.7,"pm2_5":26.2,"no2":1.9,"co":323.0,"o3":175.0,"so2":5.8,"mosquito_risk":0,"arthritis_risk":5,"migraine_risk":10,"frizz_risk":1,"updated_at":"2026-06-15T11:57:11.288847+05:30"},{"city":"Dehradun","state":"Uttarakhand","latitude":30.6284,"longitude":78.0322,"temp":24.1,"humidity":48,"rain":0.0,"pressure":831.9,"uv_index":8.25,"wind_gusts":34.9,"aqi":35,"pm10":15.1,"pm2_5":8.8,"no2":0.7,"co":189.0,"o3":142.0,"so2":2.7,"mosquito_risk":0,"arthritis_risk":5,"migraine_risk":7,"frizz_risk":0,"updated_at":"2026-06-15T11:57:11.288853+05:30"},{"city":"Shimla","state":"Himachal Pradesh","latitude":31.1048,"longitude":77.1734,"temp":22.1,"humidity":42,"rain":0.0,"pressure":786.7,"uv_index":8.3,"wind_gusts":37.8,"aqi":52,"pm10":21.5,"pm2_5":10.5,"no2":0.8,"co":177.0,"o3":148.0,"so2":3.8,"mosquito_risk":0,"arthritis_risk":5,"migraine_risk":7,"frizz_risk":0,"updated_at":"2026-06-15T11:57:11.288861+05:30"},{"city":"Manali","state":"Himachal Pradesh","latitude":32.2396,"longitude":77.1887,"temp":22.3,"humidity":50,"rain":0.1,"pressure":819.6,"uv_index":10.0,"wind_gusts":34.9,"aqi":65,"pm10":4.3,"pm2_5":3.4,"no2":3.8,"co":136.0,"o3":134.0,"so2":0.4,"mosquito_risk":3,"arthritis_risk":5,"migraine_risk":7,"frizz_risk":0,"updated_at":"2026-06-15T11:57:11.288874+05:30"},{"city":"Gurgaon","state":"Haryana","latitude":28.4595,"longitude":77.0266,"temp":36.9,"humidity":36,"rain":0.0,"pressure":978.3,"uv_index":7.85,"wind_gusts":40.0,"aqi":425,"pm10":746.9,"pm2_5":138.8,"no2":13.2,"co":181.0,"o3":166.0,"so2":32.0,"mosquito_risk":0,"arthritis_risk":5,"migraine_risk":10,"frizz_risk":1,"updated_at":"2026-06-15T11:57:11.288880+05:30"},{"city":"Noida","state":"Uttar Pradesh","latitude":28.5355,"longitude":77.391,"temp":36.0,"humidity":37,"rain":0.0,"pressure":981.3,"uv_index":7.8,"wind_gusts":32.8,"aqi":425,"pm10":746.9,"pm2_5":138.8,"no2":13.2,"co":224.0,"o3":166.0,"so2":32.0,"mosquito_risk":0,"arthritis_risk":5,"migraine_risk":10,"frizz_risk":1,"updated_at":"2026-06-15T11:57:11.288886+05:30"},{"city":"Ghaziabad","state":"Uttar Pradesh","latitude":28.6692,"longitude":77.4538,"temp":35.2,"humidity":39,"rain":0.0,"pressure":979.7,"uv_index":7.8,"wind_gusts":28.8,"aqi":194,"pm10":412.6,"pm2_5":108.5,"no2":5.8,"co":300.0,"o3":214.0,"so2":33.2,"mosquito_risk":0,"arthritis_risk":5,"migraine_risk":10,"frizz_risk":1,"updated_at":"2026-06-15T11:57:11.288892+05:30"},{"city":"Faridabad","state":"Haryana","latitude":28.4089,"longitude":77.3178,"temp":36.5,"humidity":35,"rain":0.0,"pressure":980.6,"uv_index":7.85,"wind_gusts":40.7,"aqi":425,"pm10":746.9,"pm2_5":138.8,"no2":13.2,"co":194.0,"o3":166.0,"so2":32.0,"mosquito_risk":0,"arthritis_risk":5,"migraine_risk":10,"frizz_risk":1,"updated_at":"2026-06-15T11:57:11.288898+05:30"},{"city":"Meerut","state":"Uttar Pradesh","latitude":28.9845,"longitude":77.7064,"temp":34.6,"humidity":46,"rain":0.0,"pressure":978.6,"uv_index":7.7,"wind_gusts":37.4,"aqi":194,"pm10":412.6,"pm2_5":108.5,"no2":5.8,"co":272.0,"o3":214.0,"so2":33.2,"mosquito_risk":0,"arthritis_risk":5,"migraine_risk":7,"frizz_risk":1,"updated_at":"2026-06-15T11:57:11.288904+05:30"},{"city":"Agra","state":"Uttar Pradesh","latitude":27.1767,"longitude":78.0081,"temp":37.6,"humidity":33,"rain":0.0,"pressure":984.9,"uv_index":8.15,"wind_gusts":70.9,"aqi":592,"pm10":1203.3,"pm2_5":148.5,"no2":2.2,"co":168.0,"o3":128.0,"so2":5.6,"mosquito_risk":0,"arthritis_risk":5,"migraine_risk":10,"frizz_risk":1,"updated_at":"2026-06-15T11:57:11.288911+05:30"},{"city":"Varanasi","state":"Uttar Pradesh","latitude":25.3176,"longitude":82.9739,"temp":39.3,"humidity":29,"rain":0.0,"pressure":993.6,"uv_index":8.8,"wind_gusts":35.3,"aqi":150,"pm10":255.2,"pm2_5":63.3,"no2":1.6,"co":264.0,"o3":158.0,"so2":9.7,"mosquito_risk":0,"arthritis_risk":5,"migraine_risk":10,"frizz_risk":1,"updated_at":"2026-06-15T11:57:11.288917+05:30"},{"city":"Prayagraj","state":"Uttar Pradesh","latitude":25.4358,"longitude":81.8463,"temp":38.8,"humidity":31,"rain":0.0,"pressure":992.4,"uv_index":8.75,"wind_gusts":34.2,"aqi":153,"pm10":213.7,"pm2_5":60.5,"no2":2.0,"co":186.0,"o3":164.0,"so2":10.0,"mosquito_risk":0,"arthritis_risk":5,"migraine_risk":10,"frizz_risk":1,"updated_at":"2026-06-15T11:57:11.288924+05:30"},{"city":"Gorakhpur","state":"Uttar Pradesh","latitude":26.7606,"longitude":83.3732,"temp":35.8,"humidity":45,"rain":0.0,"pressure":993.5,"uv_index":8.7,"wind_gusts":28.8,"aqi":148,"pm10":177.9,"pm2_5":63.3,"no2":2.1,"co":309.0,"o3":188.0,"so2":10.5,"mosquito_risk":0,"arthritis_risk":5,"migraine_risk":10,"frizz_risk":1,"updated_at":"2026-06-15T11:57:11.288933+05:30"},{"city":"Bareilly","state":"Uttar Pradesh","latitude":28.367,"longitude":79.4304,"temp":35.4,"humidity":46,"rain":0.0,"pressure":983.5,"uv_index":8.1,"wind_gusts":48.2,"aqi":157,"pm10":224.4,"pm2_5":56.6,"no2":2.0,"co":324.0,"o3":175.0,"so2":10.5,"mosquito_risk":0,"arthritis_risk":5,"migraine_risk":10,"frizz_risk":1,"updated_at":"2026-06-15T11:57:11.288939+05:30"},{"city":"Aligarh","state":"Uttar Pradesh","latitude":27.8974,"longitude":78.088,"temp":36.3,"humidity":35,"rain":0.0,"pressure":982.8,"uv_index":8.0,"wind_gusts":38.5,"aqi":365,"pm10":532.7,"pm2_5":119.7,"no2":4.1,"co":183.0,"o3":180.0,"so2":19.5,"mosquito_risk":0,"arthritis_risk":5,"migraine_risk":10,"frizz_risk":1,"updated_at":"2026-06-15T11:57:11.288945+05:30"},{"city":"Moradabad","state":"Uttar Pradesh","latitude":28.8386,"longitude":78.7733,"temp":35.8,"humidity":41,"rain":0.0,"pressure":980.6,"uv_index":7.95,"wind_gusts":59.0,"aqi":168,"pm10":164.4,"pm2_5":55.8,"no2":4.1,"co":277.0,"o3":207.0,"so2":22.2,"mosquito_risk":0,"arthritis_risk":5,"migraine_risk":10,"frizz_risk":1,"updated_at":"2026-06-15T11:57:11.288951+05:30"},{"city":"Saharanpur","state":"Uttar Pradesh","latitude":29.9637,"longitude":77.546,"temp":34.2,"humidity":45,"rain":0.0,"pressure":972.7,"uv_index":7.5,"wind_gusts":44.3,"aqi":109,"pm10":48.8,"pm2_5":23.3,"no2":2.3,"co":352.0,"o3":186.0,"so2":8.4,"mosquito_risk":0,"arthritis_risk":5,"migraine_risk":7,"frizz_risk":1,"updated_at":"2026-06-15T11:57:11.288957+05:30"},{"city":"Jhansi","state":"Uttar Pradesh","latitude":25.4484,"longitude":78.5685,"temp":36.6,"humidity":36,"rain":0.0,"pressure":975.9,"uv_index":8.5,"wind_gusts":32.8,"aqi":105,"pm10":138.8,"pm2_5":42.0,"no2":1.1,"co":132.0,"o3":104.0,"so2":6.0,"mosquito_risk":0,"arthritis_risk":5,"migraine_risk":10,"frizz_risk":1,"updated_at":"2026-06-15T11:57:14.597242+05:30"},{"city":"Surat","state":"Gujarat","latitude":21.1702,"longitude":72.8311,"temp":34.5,"humidity":50,"rain":0.0,"pressure":1006.3,"uv_index":7.55,"wind_gusts":50.8,"aqi":71,"pm10":51.0,"pm2_5":23.2,"no2":8.7,"co":306.0,"o3":61.0,"so2":27.6,"mosquito_risk":0,"arthritis_risk":5,"migraine_risk":4,"frizz_risk":1,"updated_at":"2026-06-15T11:57:14.597278+05:30"},{"city":"Vadodara","state":"Gujarat","latitude":22.3072,"longitude":73.1812,"temp":35.2,"humidity":45,"rain":0.0,"pressure":1003.1,"uv_index":8.0,"wind_gusts":47.2,"aqi":74,"pm10":58.3,"pm2_5":20.3,"no2":1.7,"co":123.0,"o3":76.0,"so2":3.4,"mosquito_risk":0,"arthritis_risk":5,"migraine_risk":7,"frizz_risk":1,"updated_at":"2026-06-15T11:57:14.597288+05:30"},{"city":"Rajkot","state":"Gujarat","latitude":22.3039,"longitude":70.8022,"temp":35.5,"humidity":42,"rain":0.0,"pressure":992.8,"uv_index":7.55,"wind_gusts":57.6,"aqi":65,"pm10":48.8,"pm2_5":16.8,"no2":1.2,"co":102.0,"o3":74.0,"so2":3.4,"mosquito_risk":0,"arthritis_risk":5,"migraine_risk":10,"frizz_risk":1,"updated_at":"2026-06-15T11:57:14.597296+05:30"},{"city":"Thane","state":"Maharashtra","latitude":19.2183,"longitude":72.9781,"temp":33.4,"humidity":56,"rain":0.0,"pressure":1008.2,"uv_index":7.7,"wind_gusts":46.4,"aqi":58,"pm10":33.2,"pm2_5":16.1,"no2":3.3,"co":128.0,"o3":75.0,"so2":4.5,"mosquito_risk":0,"arthritis_risk":0,"migraine_risk":4,"frizz_risk":1,"updated_at":"2026-06-15T11:57:14.597304+05:30"},{"city":"Nagpur","state":"Maharashtra","latitude":21.1458,"longitude":79.0882,"temp":36.5,"humidity":32,"rain":0.0,"pressure":971.3,"uv_index":8.9,"wind_gusts":50.4,"aqi":98,"pm10":102.0,"pm2_5":45.8,"no2":4.6,"co":157.0,"o3":131.0,"so2":19.7,"mosquito_risk":0,"arthritis_risk":5,"migraine_risk":10,"frizz_risk":1,"updated_at":"2026-06-15T11:57:14.597312+05:30"},{"city":"Nashik","state":"Maharashtra","latitude":19.9975,"longitude":73.7898,"temp":32.6,"humidity":43,"rain":0.0,"pressure":946.2,"uv_index":8.05,"wind_gusts":54.0,"aqi":53,"pm10":48.7,"pm2_5":17.3,"no2":0.8,"co":111.0,"o3":72.0,"so2":1.0,"mosquito_risk":0,"arthritis_risk":5,"migraine_risk":7,"frizz_risk":1,"updated_at":"2026-06-15T11:57:14.597320+05:30"},{"city":"Aurangabad","state":"Maharashtra","latitude":19.8762,"longitude":75.3433,"temp":34.5,"humidity":34,"rain":0.0,"pressure":944.3,"uv_index":8.95,"wind_gusts":49.7,"aqi":60,"pm10":44.9,"pm2_5":17.6,"no2":0.9,"co":118.0,"o3":88.0,"so2":2.3,"mosquito_risk":0,"arthritis_risk":5,"migraine_risk":7,"frizz_risk":1,"updated_at":"2026-06-15T11:57:14.597327+05:30"},{"city":"Solapur","state":"Maharashtra","latitude":17.6599,"longitude":75.9064,"temp":34.6,"humidity":38,"rain":0.0,"pressure":957.3,"uv_index":8.9,"wind_gusts":55.1,"aqi":61,"pm10":42.3,"pm2_5":18.0,"no2":1.2,"co":118.0,"o3":96.0,"so2":3.8,"mosquito_risk":0,"arthritis_risk":5,"migraine_risk":7,"frizz_risk":1,"updated_at":"2026-06-15T11:57:14.597336+05:30"},{"city":"Kolhapur","state":"Maharashtra","latitude":16.705,"longitude":74.2433,"temp":32.3,"humidity":46,"rain":0.0,"pressure":949.3,"uv_index":8.75,"wind_gusts":48.2,"aqi":51,"pm10":24.9,"pm2_5":12.2,"no2":1.3,"co":116.0,"o3":82.0,"so2":1.7,"mosquito_risk":0,"arthritis_risk":5,"migraine_risk":7,"frizz_risk":1,"updated_at":"2026-06-15T11:57:14.597343+05:30"},{"city":"Goa","state":"Goa","latitude":15.2993,"longitude":74.124,"temp":32.0,"humidity":66,"rain":0.0,"pressure":999.3,"uv_index":7.9,"wind_gusts":34.6,"aqi":62,"pm10":23.5,"pm2_5":12.8,"no2":0.9,"co":125.0,"o3":68.0,"so2":1.7,"mosquito_risk":3,"arthritis_risk":5,"migraine_risk":7,"frizz_risk":1,"updated_at":"2026-06-15T11:57:14.597350+05:30"},{"city":"Jodhpur","state":"Rajasthan","latitude":26.2389,"longitude":73.0243,"temp":33.9,"humidity":48,"rain":0.0,"pressure":980.8,"uv_index":8.45,"wind_gusts":44.3,"aqi":169,"pm10":290.6,"pm2_5":56.0,"no2":0.7,"co":107.0,"o3":72.0,"so2":1.7,"mosquito_risk":0,"arthritis_risk":5,"migraine_risk":7,"frizz_risk":1,"updated_at":"2026-06-15T11:57:14.597357+05:30"},{"city":"Udaipur","state":"Rajasthan","latitude":24.5854,"longitude":73.7125,"temp":31.6,"humidity":50,"rain":0.0,"pressure":945.4,"uv_index":8.85,"wind_gusts":46.4,"aqi":71,"pm10":56.1,"pm2_5":19.4,"no2":0.7,"co":108.0,"o3":72.0,"so2":2.3,"mosquito_risk":0,"arthritis_risk":5,"migraine_risk":7,"frizz_risk":1,"updated_at":"2026-06-15T11:57:14.597364+05:30"},{"city":"Kota","state":"Rajasthan","latitude":25.2138,"longitude":75.8648,"temp":35.7,"humidity":37,"rain":0.0,"pressure":976.9,"uv_index":8.35,"wind_gusts":32.0,"aqi":103,"pm10":114.8,"pm2_5":33.5,"no2":1.0,"co":124.0,"o3":90.0,"so2":4.9,"mosquito_risk":0,"arthritis_risk":5,"migraine_risk":10,"frizz_risk":1,"updated_at":"2026-06-15T11:57:14.597371+05:30"},{"city":"Bikaner","state":"Rajasthan","latitude":28.0229,"longitude":73.3119,"temp":37.0,"humidity":38,"rain":0.0,"pressure":978.4,"uv_index":8.5,"wind_gusts":37.8,"aqi":164,"pm10":179.7,"pm2_5":64.3,"no2":0.5,"co":109.0,"o3":86.0,"so2":3.7,"mosquito_risk":0,"arthritis_risk":5,"migraine_risk":10,"frizz_risk":1,"updated_at":"2026-06-15T11:57:14.597378+05:30"},{"city":"Ajmer","state":"Rajasthan","latitude":26.4499,"longitude":74.6399,"temp":32.3,"humidity":53,"rain":0.0,"pressure":953.1,"uv_index":8.35,"wind_gusts":45.7,"aqi":113,"pm10":124.3,"pm2_5":36.4,"no2":0.7,"co":115.0,"o3":77.0,"so2":2.8,"mosquito_risk":0,"arthritis_risk":5,"migraine_risk":7,"frizz_risk":1,"updated_at":"2026-06-15T11:57:14.597385+05:30"},{"city":"Gwalior","state":"Madhya Pradesh","latitude":26.2183,"longitude":78.1828,"temp":36.7,"humidity":36,"rain":0.0,"pressure":980.7,"uv_index":8.3,"wind_gusts":56.5,"aqi":107,"pm10":138.8,"pm2_5":39.2,"no2":0.8,"co":131.0,"o3":97.0,"so2":3.7,"mosquito_risk":0,"arthritis_risk":5,"migraine_risk":10,"frizz_risk":1,"updated_at":"2026-06-15T11:57:14.597393+05:30"},{"city":"Indore","state":"Madhya Pradesh","latitude":22.7196,"longitude":75.8577,"temp":33.9,"humidity":40,"rain":0.0,"pressure":947.6,"uv_index":8.6,"wind_gusts":45.0,"aqi":96,"pm10":61.7,"pm2_5":25.8,"no2":1.3,"co":156.0,"o3":91.0,"so2":5.2,"mosquito_risk":0,"arthritis_risk":5,"migraine_risk":7,"frizz_risk":1,"updated_at":"2026-06-15T11:57:14.597399+05:30"},{"city":"Bhopal","state":"Madhya Pradesh","latitude":23.2599,"longitude":77.4126,"temp":35.1,"humidity":37,"rain":0.0,"pressure":952.4,"uv_index":8.65,"wind_gusts":63.4,"aqi":102,"pm10":60.3,"pm2_5":30.0,"no2":1.1,"co":154.0,"o3":101.0,"so2":5.6,"mosquito_risk":0,"arthritis_risk":5,"migraine_risk":10,"frizz_risk":1,"updated_at":"2026-06-15T11:57:14.597406+05:30"},{"city":"Jabalpur","state":"Madhya Pradesh","latitude":23.1815,"longitude":79.9864,"temp":35.1,"humidity":34,"rain":0.0,"pressure":960.1,"uv_index":8.85,"wind_gusts":32.0,"aqi":94,"pm10":110.1,"pm2_5":40.6,"no2":0.9,"co":136.0,"o3":111.0,"so2":2.9,"mosquito_risk":0,"arthritis_risk":5,"migraine_risk":10,"frizz_risk":1,"updated_at":"2026-06-15T11:57:14.597413+05:30"},{"city":"Ujjain","state":"Madhya Pradesh","latitude":23.1765,"longitude":75.7885,"temp":34.4,"humidity":40,"rain":0.0,"pressure":953.2,"uv_index":8.55,"wind_gusts":50.0,"aqi":91,"pm10":61.5,"pm2_5":22.9,"no2":0.8,"co":123.0,"o3":83.0,"so2":4.1,"mosquito_risk":0,"arthritis_risk":5,"migraine_risk":7,"frizz_risk":1,"updated_at":"2026-06-15T11:57:14.597421+05:30"},{"city":"Visakhapatnam","state":"Andhra Pradesh","latitude":17.6868,"longitude":83.2185,"temp":33.6,"humidity":59,"rain":0.0,"pressure":1000.0,"uv_index":8.75,"wind_gusts":37.4,"aqi":147,"pm10":70.5,"pm2_5":51.1,"no2":17.7,"co":445.0,"o3":168.0,"so2":55.4,"mosquito_risk":0,"arthritis_risk":5,"migraine_risk":4,"frizz_risk":1,"updated_at":"2026-06-15T11:57:14.597428+05:30"},{"city":"Vijayawada","state":"Andhra Pradesh","latitude":16.5062,"longitude":80.648,"temp":35.1,"humidity":49,"rain":0.0,"pressure":999.4,"uv_index":9.0,"wind_gusts":33.8,"aqi":92,"pm10":80.6,"pm2_5":46.2,"no2":6.0,"co":244.0,"o3":118.0,"so2":12.9,"mosquito_risk":0,"arthritis_risk":5,"migraine_risk":10,"frizz_risk":1,"updated_at":"2026-06-15T11:57:14.597435+05:30"},{"city":"Guntur","state":"Andhra Pradesh","latitude":16.3067,"longitude":80.4365,"temp":36.5,"humidity":41,"rain":0.0,"pressure":1000.5,"uv_index":9.0,"wind_gusts":40.3,"aqi":89,"pm10":83.6,"pm2_5":46.1,"no2":3.2,"co":233.0,"o3":133.0,"so2":9.8,"mosquito_risk":0,"arthritis_risk":5,"migraine_risk":7,"frizz_risk":1,"updated_at":"2026-06-15T11:57:14.597442+05:30"},{"city":"Nellore","state":"Andhra Pradesh","latitude":14.4426,"longitude":79.9865,"temp":35.6,"humidity":47,"rain":0.0,"pressure":1003.3,"uv_index":8.4,"wind_gusts":43.9,"aqi":65,"pm10":36.9,"pm2_5":20.8,"no2":1.9,"co":140.0,"o3":112.0,"so2":7.2,"mosquito_risk":0,"arthritis_risk":5,"migraine_risk":7,"frizz_risk":1,"updated_at":"2026-06-15T11:57:14.597450+05:30"},{"city":"Kurnool","state":"Andhra Pradesh","latitude":15.8281,"longitude":78.0373,"temp":34.2,"humidity":46,"rain":0.0,"pressure":976.2,"uv_index":8.7,"wind_gusts":42.1,"aqi":69,"pm10":35.3,"pm2_5":19.7,"no2":2.0,"co":132.0,"o3":99.0,"so2":9.4,"mosquito_risk":0,"arthritis_risk":5,"migraine_risk":7,"frizz_risk":1,"updated_at":"2026-06-15T11:57:14.597458+05:30"},{"city":"Kakinada","state":"Andhra Pradesh","latitude":16.9891,"longitude":82.2475,"temp":34.9,"humidity":51,"rain":0.0,"pressure":1003.4,"uv_index":8.6,"wind_gusts":27.7,"aqi":99,"pm10":59.5,"pm2_5":34.7,"no2":2.5,"co":248.0,"o3":143.0,"so2":6.7,"mosquito_risk":0,"arthritis_risk":5,"migraine_risk":4,"frizz_risk":1,"updated_at":"2026-06-15T11:57:14.597465+05:30"},{"city":"Tirupati","state":"Andhra Pradesh","latitude":13.6288,"longitude":79.4192,"temp":35.6,"humidity":41,"rain":0.0,"pressure":989.4,"uv_index":8.6,"wind_gusts":32.4,"aqi":68,"pm10":33.4,"pm2_5":17.2,"no2":1.4,"co":128.0,"o3":97.0,"so2":3.6,"mosquito_risk":0,"arthritis_risk":5,"migraine_risk":10,"frizz_risk":1,"updated_at":"2026-06-15T11:57:14.597472+05:30"},{"city":"Warangal","state":"Telangana","latitude":17.9689,"longitude":79.5941,"temp":34.6,"humidity":43,"rain":0.0,"pressure":976.6,"uv_index":8.95,"wind_gusts":42.1,"aqi":108,"pm10":77.5,"pm2_5":39.7,"no2":1.6,"co":168.0,"o3":129.0,"so2":9.9,"mosquito_risk":0,"arthritis_risk":5,"migraine_risk":7,"frizz_risk":1,"updated_at":"2026-06-15T11:57:14.597478+05:30"},{"city":"Nizamabad","state":"Telangana","latitude":18.6725,"longitude":78.0941,"temp":34.1,"humidity":45,"rain":0.0,"pressure":964.0,"uv_index":8.95,"wind_gusts":41.8,"aqi":94,"pm10":47.4,"pm2_5":23.4,"no2":1.0,"co":136.0,"o3":95.0,"so2":3.1,"mosquito_risk":0,"arthritis_risk":5,"migraine_risk":7,"frizz_risk":1,"updated_at":"2026-06-15T11:57:14.597484+05:30"},{"city":"Mysore","state":"Karnataka","latitude":12.2958,"longitude":76.6396,"temp":30.1,"humidity":53,"rain":0.0,"pressure":930.1,"uv_index":8.9,"wind_gusts":33.5,"aqi":45,"pm10":32.7,"pm2_5":14.0,"no2":1.7,"co":142.0,"o3":86.0,"so2":1.8,"mosquito_risk":0,"arthritis_risk":5,"migraine_risk":7,"frizz_risk":1,"updated_at":"2026-06-15T11:57:14.597492+05:30"},{"city":"Mangalore","state":"Karnataka","latitude":12.9141,"longitude":74.856,"temp":29.4,"humidity":78,"rain":0.0,"pressure":1008.5,"uv_index":8.7,"wind_gusts":42.1,"aqi":62,"pm10":19.5,"pm2_5":11.5,"no2":1.3,"co":113.0,"o3":75.0,"so2":2.4,"mosquito_risk":7,"arthritis_risk":0,"migraine_risk":4,"frizz_risk":1,"updated_at":"2026-06-15T11:57:14.597498+05:30"},{"city":"Hubli-Dharwad","state":"Karnataka","latitude":15.3647,"longitude":75.124,"temp":32.2,"humidity":44,"rain":0.0,"pressure":942.1,"uv_index":8.9,"wind_gusts":50.8,"aqi":46,"pm10":29.9,"pm2_5":13.8,"no2":1.2,"co":125.0,"o3":81.0,"so2":1.2,"mosquito_risk":0,"arthritis_risk":5,"migraine_risk":7,"frizz_risk":1,"updated_at":"2026-06-15T11:57:14.597505+05:30"},{"city":"Belgaum","state":"Karnataka","latitude":15.8497,"longitude":74.4977,"temp":30.4,"humidity":53,"rain":0.0,"pressure":927.4,"uv_index":8.95,"wind_gusts":47.2,"aqi":53,"pm10":22.9,"pm2_5":11.6,"no2":1.2,"co":110.0,"o3":77.0,"so2":1.5,"mosquito_risk":0,"arthritis_risk":5,"migraine_risk":7,"frizz_risk":1,"updated_at":"2026-06-15T11:57:17.905196+05:30"},{"city":"Coimbatore","state":"Tamil Nadu","latitude":11.0168,"longitude":76.9558,"temp":32.2,"humidity":51,"rain":0.1,"pressure":962.4,"uv_index":8.9,"wind_gusts":46.1,"aqi":49,"pm10":36.1,"pm2_5":14.7,"no2":1.3,"co":166.0,"o3":93.0,"so2":2.5,"mosquito_risk":3,"arthritis_risk":5,"migraine_risk":7,"frizz_risk":1,"updated_at":"2026-06-15T11:57:17.905231+05:30"},{"city":"Madurai","state":"Tamil Nadu","latitude":9.9252,"longitude":78.1198,"temp":36.4,"humidity":35,"rain":0.0,"pressure":992.5,"uv_index":7.9,"wind_gusts":56.9,"aqi":68,"pm10":49.0,"pm2_5":23.3,"no2":2.8,"co":148.0,"o3":119.0,"so2":3.8,"mosquito_risk":0,"arthritis_risk":5,"migraine_risk":10,"frizz_risk":1,"updated_at":"2026-06-15T11:57:17.905243+05:30"},{"city":"Trichy","state":"Tamil Nadu","latitude":10.7905,"longitude":78.7047,"temp":36.5,"humidity":39,"rain":0.0,"pressure":998.8,"uv_index":8.6,"wind_gusts":38.9,"aqi":60,"pm10":34.0,"pm2_5":15.0,"no2":1.7,"co":143.0,"o3":92.0,"so2":2.8,"mosquito_risk":0,"arthritis_risk":5,"migraine_risk":10,"frizz_risk":1,"updated_at":"2026-06-15T11:57:17.905251+05:30"},{"city":"Salem","state":"Tamil Nadu","latitude":11.6643,"longitude":78.146,"temp":33.4,"humidity":49,"rain":0.0,"pressure":977.6,"uv_index":8.15,"wind_gusts":37.8,"aqi":64,"pm10":39.3,"pm2_5":19.6,"no2":2.8,"co":130.0,"o3":121.0,"so2":9.5,"mosquito_risk":0,"arthritis_risk":5,"migraine_risk":7,"frizz_risk":1,"updated_at":"2026-06-15T11:57:17.905260+05:30"},{"city":"Tirunelveli","state":"Tamil Nadu","latitude":8.7139,"longitude":77.7567,"temp":37.8,"humidity":36,"rain":0.0,"pressure":1002.6,"uv_index":8.0,"wind_gusts":42.8,"aqi":51,"pm10":24.9,"pm2_5":11.1,"no2":1.3,"co":131.0,"o3":77.0,"so2":1.4,"mosquito_risk":0,"arthritis_risk":5,"migraine_risk":7,"frizz_risk":1,"updated_at":"2026-06-15T11:57:17.905268+05:30"},{"city":"Vellore","state":"Tamil Nadu","latitude":12.9165,"longitude":79.1325,"temp":35.0,"humidity":42,"rain":0.0,"pressure":983.3,"uv_index":8.55,"wind_gusts":41.8,"aqi":63,"pm10":32.1,"pm2_5":15.6,"no2":1.4,"co":125.0,"o3":94.0,"so2":2.1,"mosquito_risk":0,"arthritis_risk":5,"migraine_risk":7,"frizz_risk":1,"updated_at":"2026-06-15T11:57:17.905276+05:30"},{"city":"Erode","state":"Tamil Nadu","latitude":11.341,"longitude":77.7172,"temp":34.9,"humidity":43,"rain":0.0,"pressure":988.9,"uv_index":8.8,"wind_gusts":38.5,"aqi":56,"pm10":39.6,"pm2_5":16.7,"no2":1.8,"co":162.0,"o3":106.0,"so2":2.1,"mosquito_risk":0,"arthritis_risk":5,"migraine_risk":7,"frizz_risk":1,"updated_at":"2026-06-15T11:57:17.905283+05:30"},{"city":"Kochi","state":"Kerala","latitude":9.9312,"longitude":76.2673,"temp":28.9,"humidity":78,"rain":0.1,"pressure":1010.5,"uv_index":8.35,"wind_gusts":38.9,"aqi":63,"pm10":34.6,"pm2_5":18.6,"no2":2.5,"co":130.0,"o3":87.0,"so2":3.8,"mosquito_risk":10,"arthritis_risk":0,"migraine_risk":4,"frizz_risk":1,"updated_at":"2026-06-15T11:57:17.905291+05:30"},{"city":"Thiruvananthapuram","state":"Kerala","latitude":8.5241,"longitude":76.9366,"temp":29.1,"humidity":78,"rain":0.1,"pressure":1009.5,"uv_index":7.5,"wind_gusts":46.1,"aqi":56,"pm10":26.4,"pm2_5":12.6,"no2":1.3,"co":112.0,"o3":74.0,"so2":1.5,"mosquito_risk":10,"arthritis_risk":0,"migraine_risk":4,"frizz_risk":1,"updated_at":"2026-06-15T11:57:17.905298+05:30"},{"city":"Kozhikode","state":"Kerala","latitude":11.2588,"longitude":75.7804,"temp":31.0,"humidity":69,"rain":0.1,"pressure":1008.9,"uv_index":8.55,"wind_gusts":47.2,"aqi":51,"pm10":26.5,"pm2_5":13.8,"no2":0.9,"co":137.0,"o3":81.0,"so2":2.2,"mosquito_risk":6,"arthritis_risk":0,"migraine_risk":4,"frizz_risk":1,"updated_at":"2026-06-15T11:57:17.905305+05:30"},{"city":"Thrissur","state":"Kerala","latitude":10.5276,"longitude":76.2144,"temp":29.3,"humidity":78,"rain":0.1,"pressure":1008.5,"uv_index":7.6,"wind_gusts":38.9,"aqi":71,"pm10":29.6,"pm2_5":16.9,"no2":1.5,"co":114.0,"o3":86.0,"so2":2.7,"mosquito_risk":10,"arthritis_risk":0,"migraine_risk":4,"frizz_risk":1,"updated_at":"2026-06-15T11:57:17.905314+05:30"},{"city":"Kannur","state":"Kerala","latitude":11.8745,"longitude":75.3704,"temp":31.0,"humidity":69,"rain":0.0,"pressure":1008.5,"uv_index":8.45,"wind_gusts":50.4,"aqi":54,"pm10":21.4,"pm2_5":12.5,"no2":1.4,"co":130.0,"o3":83.0,"so2":2.4,"mosquito_risk":3,"arthritis_risk":0,"migraine_risk":4,"frizz_risk":1,"updated_at":"2026-06-15T11:57:17.905321+05:30"},{"city":"Patna","state":"Bihar","latitude":25.5941,"longitude":85.1376,"temp":36.0,"humidity":44,"rain":0.0,"pressure":996.5,"uv_index":8.9,"wind_gusts":27.7,"aqi":161,"pm10":87.3,"pm2_5":54.8,"no2":2.9,"co":301.0,"o3":211.0,"so2":13.3,"mosquito_risk":0,"arthritis_risk":5,"migraine_risk":10,"frizz_risk":1,"updated_at":"2026-06-15T11:57:17.905328+05:30"},{"city":"Gaya","state":"Bihar","latitude":24.7914,"longitude":85.0002,"temp":37.2,"humidity":35,"rain":0.0,"pressure":990.1,"uv_index":8.95,"wind_gusts":29.9,"aqi":156,"pm10":75.9,"pm2_5":33.3,"no2":1.4,"co":248.0,"o3":165.0,"so2":7.3,"mosquito_risk":0,"arthritis_risk":5,"migraine_risk":10,"frizz_risk":1,"updated_at":"2026-06-15T11:57:17.905335+05:30"},{"city":"Muzaffarpur","state":"Bihar","latitude":26.1209,"longitude":85.3647,"temp":34.3,"humidity":54,"rain":0.0,"pressure":996.6,"uv_index":8.85,"wind_gusts":28.8,"aqi":162,"pm10":92.9,"pm2_5":67.3,"no2":3.2,"co":390.0,"o3":218.0,"so2":17.1,"mosquito_risk":0,"arthritis_risk":5,"migraine_risk":7,"frizz_risk":1,"updated_at":"2026-06-15T11:57:17.905342+05:30"},{"city":"Bhagalpur","state":"Bihar","latitude":25.2425,"longitude":87.0117,"temp":33.9,"humidity":59,"rain":0.0,"pressure":997.4,"uv_index":8.85,"wind_gusts":30.2,"aqi":162,"pm10":83.6,"pm2_5":62.4,"no2":3.8,"co":386.0,"o3":221.0,"so2":25.0,"mosquito_risk":0,"arthritis_risk":5,"migraine_risk":7,"frizz_risk":1,"updated_at":"2026-06-15T11:57:17.905349+05:30"},{"city":"Ranchi","state":"Jharkhand","latitude":23.3441,"longitude":85.3096,"temp":33.0,"humidity":37,"rain":0.0,"pressure":936.0,"uv_index":9.3,"wind_gusts":28.4,"aqi":112,"pm10":109.7,"pm2_5":38.6,"no2":1.3,"co":214.0,"o3":165.0,"so2":8.9,"mosquito_risk":0,"arthritis_risk":5,"migraine_risk":7,"frizz_risk":1,"updated_at":"2026-06-15T11:57:17.905355+05:30"},{"city":"Jamshedpur","state":"Jharkhand","latitude":22.8046,"longitude":86.2029,"temp":36.2,"humidity":40,"rain":0.0,"pressure":987.3,"uv_index":9.1,"wind_gusts":23.4,"aqi":150,"pm10":72.9,"pm2_5":49.7,"no2":3.7,"co":254.0,"o3":211.0,"so2":25.9,"mosquito_risk":0,"arthritis_risk":5,"migraine_risk":10,"frizz_risk":1,"updated_at":"2026-06-15T11:57:17.905362+05:30"},{"city":"Dhanbad","state":"Jharkhand","latitude":23.7957,"longitude":86.4304,"temp":37.0,"humidity":32,"rain":0.0,"pressure":976.5,"uv_index":9.1,"wind_gusts":24.1,"aqi":168,"pm10":91.7,"pm2_5":49.1,"no2":9.7,"co":217.0,"o3":182.0,"so2":43.1,"mosquito_risk":0,"arthritis_risk":5,"migraine_risk":10,"frizz_risk":1,"updated_at":"2026-06-15T11:57:17.905369+05:30"},{"city":"Bokaro","state":"Jharkhand","latitude":23.6693,"longitude":86.1511,"temp":35.8,"humidity":38,"rain":0.0,"pressure":980.3,"uv_index":9.1,"wind_gusts":25.6,"aqi":167,"pm10":92.7,"pm2_5":45.8,"no2":10.2,"co":233.0,"o3":179.0,"so2":44.6,"mosquito_risk":0,"arthritis_risk":5,"migraine_risk":10,"frizz_risk":1,"updated_at":"2026-06-15T11:57:17.905375+05:30"},{"city":"Bhubaneswar","state":"Odisha","latitude":20.2961,"longitude":85.8245,"temp":33.4,"humidity":64,"rain":0.0,"pressure":999.0,"uv_index":8.55,"wind_gusts":37.1,"aqi":130,"pm10":59.5,"pm2_5":45.6,"no2":3.5,"co":255.0,"o3":203.0,"so2":21.9,"mosquito_risk":3,"arthritis_risk":5,"migraine_risk":7,"frizz_risk":1,"updated_at":"2026-06-15T11:57:17.905382+05:30"},{"city":"Cuttack","state":"Odisha","latitude":20.4625,"longitude":85.8828,"temp":33.3,"humidity":64,"rain":0.0,"pressure":1000.8,"uv_index":9.2,"wind_gusts":36.7,"aqi":130,"pm10":59.5,"pm2_5":45.6,"no2":3.5,"co":264.0,"o3":203.0,"so2":21.9,"mosquito_risk":3,"arthritis_risk":5,"migraine_risk":4,"frizz_risk":1,"updated_at":"2026-06-15T11:57:17.905388+05:30"},{"city":"Rourkela","state":"Odisha","latitude":22.2604,"longitude":84.8536,"temp":35.3,"humidity":46,"rain":0.0,"pressure":981.9,"uv_index":8.95,"wind_gusts":45.4,"aqi":106,"pm10":77.3,"pm2_5":37.1,"no2":1.6,"co":304.0,"o3":164.0,"so2":11.9,"mosquito_risk":0,"arthritis_risk":5,"migraine_risk":10,"frizz_risk":1,"updated_at":"2026-06-15T11:57:17.905396+05:30"},{"city":"Raipur","state":"Chhattisgarh","latitude":21.2514,"longitude":81.6296,"temp":38.1,"humidity":30,"rain":0.0,"pressure":971.8,"uv_index":8.65,"wind_gusts":33.1,"aqi":123,"pm10":76.1,"pm2_5":38.6,"no2":6.7,"co":166.0,"o3":141.0,"so2":27.5,"mosquito_risk":0,"arthritis_risk":5,"migraine_risk":10,"frizz_risk":1,"updated_at":"2026-06-15T11:57:17.905402+05:30"},{"city":"Bhilai","state":"Chhattisgarh","latitude":21.1938,"longitude":81.3509,"temp":37.5,"humidity":33,"rain":0.0,"pressure":972.3,"uv_index":7.6,"wind_gusts":40.7,"aqi":120,"pm10":84.3,"pm2_5":38.3,"no2":9.0,"co":162.0,"o3":123.0,"so2":33.1,"mosquito_risk":0,"arthritis_risk":5,"migraine_risk":10,"frizz_risk":1,"updated_at":"2026-06-15T11:57:17.905408+05:30"},{"city":"Guwahati","state":"Assam","latitude":26.1158,"longitude":91.7086,"temp":30.4,"humidity":73,"rain":0.0,"pressure":998.3,"uv_index":8.65,"wind_gusts":22.3,"aqi":72,"pm10":19.6,"pm2_5":16.3,"no2":1.4,"co":330.0,"o3":126.0,"so2":3.2,"mosquito_risk":3,"arthritis_risk":5,"migraine_risk":7,"frizz_risk":1,"updated_at":"2026-06-15T11:57:17.905415+05:30"},{"city":"Agartala","state":"Tripura","latitude":23.8315,"longitude":91.2868,"temp":31.6,"humidity":66,"rain":0.0,"pressure":1003.0,"uv_index":8.6,"wind_gusts":31.7,"aqi":70,"pm10":32.6,"pm2_5":25.6,"no2":3.5,"co":194.0,"o3":117.0,"so2":2.5,"mosquito_risk":3,"arthritis_risk":5,"migraine_risk":4,"frizz_risk":1,"updated_at":"2026-06-15T11:57:17.905421+05:30"},{"city":"Shillong","state":"Meghalaya","latitude":25.5788,"longitude":91.8933,"temp":22.4,"humidity":82,"rain":0.1,"pressure":856.5,"uv_index":8.15,"wind_gusts":22.0,"aqi":40,"pm10":9.0,"pm2_5":7.6,"no2":2.4,"co":264.0,"o3":102.0,"so2":2.4,"mosquito_risk":6,"arthritis_risk":5,"migraine_risk":7,"frizz_risk":1,"updated_at":"2026-06-15T11:57:17.905428+05:30"},{"city":"Imphal","state":"Manipur","latitude":24.817,"longitude":93.9368,"temp":28.8,"humidity":61,"rain":0.0,"pressure":920.9,"uv_index":7.9,"wind_gusts":29.2,"aqi":89,"pm10":20.9,"pm2_5":14.6,"no2":1.0,"co":195.0,"o3":101.0,"so2":1.6,"mosquito_risk":7,"arthritis_risk":5,"migraine_risk":7,"frizz_risk":1,"updated_at":"2026-06-15T11:57:17.905434+05:30"},{"city":"Aizawl","state":"Mizoram","latitude":23.7271,"longitude":92.7176,"temp":24.1,"humidity":72,"rain":0.0,"pressure":891.2,"uv_index":9.1,"wind_gusts":22.7,"aqi":60,"pm10":20.9,"pm2_5":13.7,"no2":0.5,"co":154.0,"o3":88.0,"so2":0.6,"mosquito_risk":3,"arthritis_risk":5,"migraine_risk":7,"frizz_risk":1,"updated_at":"2026-06-15T11:57:17.905441+05:30"},{"city":"Kohima","state":"Nagaland","latitude":25.6701,"longitude":94.1077,"temp":21.8,"humidity":97,"rain":0.1,"pressure":854.2,"uv_index":8.65,"wind_gusts":27.4,"aqi":50,"pm10":18.6,"pm2_5":13.2,"no2":0.8,"co":193.0,"o3":102.0,"so2":1.4,"mosquito_risk":6,"arthritis_risk":5,"migraine_risk":7,"frizz_risk":1,"updated_at":"2026-06-15T11:57:17.905448+05:30"},{"city":"Gangtok","state":"Sikkim","latitude":27.3314,"longitude":88.6138,"temp":26.0,"humidity":52,"rain":0.0,"pressure":838.1,"uv_index":8.85,"wind_gusts":37.1,"aqi":69,"pm10":13.6,"pm2_5":10.9,"no2":0.8,"co":274.0,"o3":141.0,"so2":2.1,"mosquito_risk":4,"arthritis_risk":5,"migraine_risk":7,"frizz_risk":0,"updated_at":"2026-06-15T11:57:17.905454+05:30"},{"city":"Siliguri","state":"West Bengal","latitude":26.7271,"longitude":88.3953,"temp":30.9,"humidity":66,"rain":0.0,"pressure":989.8,"uv_index":8.8,"wind_gusts":24.5,"aqi":87,"pm10":29.0,"pm2_5":23.1,"no2":1.7,"co":457.0,"o3":160.0,"so2":4.8,"mosquito_risk":3,"arthritis_risk":5,"migraine_risk":7,"frizz_risk":1,"updated_at":"2026-06-15T11:57:21.216285+05:30"},{"city":"Durgapur","state":"West Bengal","latitude":23.5204,"longitude":87.3119,"temp":35.0,"humidity":54,"rain":0.0,"pressure":991.2,"uv_index":9.0,"wind_gusts":29.5,"aqi":168,"pm10":104.8,"pm2_5":86.4,"no2":18.1,"co":382.0,"o3":237.0,"so2":84.4,"mosquito_risk":0,"arthritis_risk":5,"migraine_risk":7,"frizz_risk":1,"updated_at":"2026-06-15T11:57:21.216320+05:30"},{"city":"Asansol","state":"West Bengal","latitude":23.6739,"longitude":86.9524,"temp":35.9,"humidity":42,"rain":0.0,"pressure":989.8,"uv_index":9.05,"wind_gusts":20.5,"aqi":163,"pm10":91.7,"pm2_5":61.5,"no2":14.2,"co":276.0,"o3":196.0,"so2":57.7,"mosquito_risk":0,"arthritis_risk":5,"migraine_risk":10,"frizz_risk":1,"updated_at":"2026-06-15T11:57:21.216332+05:30"},{"city":"Pondicherry","state":"Puducherry","latitude":11.9139,"longitude":79.8145,"temp":34.3,"humidity":51,"rain":0.0,"pressure":1007.1,"uv_index":7.9,"wind_gusts":37.8,"aqi":70,"pm10":43.1,"pm2_5":28.1,"no2":3.9,"co":176.0,"o3":140.0,"so2":11.8,"mosquito_risk":0,"arthritis_risk":5,"migraine_risk":4,"frizz_risk":1,"updated_at":"2026-06-15T11:57:21.216341+05:30"},{"city":"Port Blair","state":"Andaman and Nicobar Islands","latitude":11.6234,"longitude":92.7265,"temp":31.0,"humidity":68,"rain":0.0,"pressure":1007.0,"uv_index":6.1,"wind_gusts":46.4,"aqi":36,"pm10":13.3,"pm2_5":7.7,"no2":0.2,"co":89.0,"o3":42.0,"so2":0.6,"mosquito_risk":3,"arthritis_risk":5,"migraine_risk":4,"frizz_risk":1,"updated_at":"2026-06-15T11:57:21.216350+05:30"},{"city":"Haridwar","state":"Uttarakhand","latitude":29.9457,"longitude":78.1642,"temp":35.2,"humidity":38,"rain":0.0,"pressure":971.0,"uv_index":7.6,"wind_gusts":32.4,"aqi":89,"pm10":26.1,"pm2_5":16.8,"no2":1.4,"co":266.0,"o3":167.0,"so2":5.1,"mosquito_risk":0,"arthritis_risk":5,"migraine_risk":10,"frizz_risk":1,"updated_at":"2026-06-15T11:57:21.216358+05:30"},{"city":"Rishikesh","state":"Uttarakhand","latitude":30.0869,"longitude":78.2676,"temp":33.7,"humidity":39,"rain":0.0,"pressure":964.1,"uv_index":7.7,"wind_gusts":27.0,"aqi":67,"pm10":18.6,"pm2_5":12.5,"no2":0.8,"co":211.0,"o3":152.0,"so2":3.5,"mosquito_risk":0,"arthritis_risk":5,"migraine_risk":7,"frizz_risk":1,"updated_at":"2026-06-15T11:57:21.216365+05:30"},{"city":"Nainital","state":"Uttarakhand","latitude":29.3919,"longitude":79.4542,"temp":24.1,"humidity":38,"rain":0.0,"pressure":807.9,"uv_index":8.55,"wind_gusts":39.2,"aqi":97,"pm10":82.4,"pm2_5":24.8,"no2":1.1,"co":195.0,"o3":149.0,"so2":5.2,"mosquito_risk":0,"arthritis_risk":5,"migraine_risk":7,"frizz_risk":0,"updated_at":"2026-06-15T11:57:21.216373+05:30"},{"city":"Mussoorie","state":"Uttarakhand","latitude":30.4599,"longitude":78.0664,"temp":22.1,"humidity":53,"rain":0.1,"pressure":804.9,"uv_index":8.1,"wind_gusts":42.8,"aqi":59,"pm10":22.2,"pm2_5":14.0,"no2":1.1,"co":212.0,"o3":154.0,"so2":4.0,"mosquito_risk":3,"arthritis_risk":5,"migraine_risk":7,"frizz_risk":0,"updated_at":"2026-06-15T11:57:21.216381+05:30"},{"city":"Dharamshala","state":"Himachal Pradesh","latitude":32.219,"longitude":76.3234,"temp":23.7,"humidity":52,"rain":0.0,"pressure":869.1,"uv_index":8.5,"wind_gusts":37.1,"aqi":41,"pm10":11.8,"pm2_5":5.5,"no2":0.6,"co":169.0,"o3":128.0,"so2":0.3,"mosquito_risk":0,"arthritis_risk":5,"migraine_risk":7,"frizz_risk":0,"updated_at":"2026-06-15T11:57:21.216388+05:30"},{"city":"Dalhousie","state":"Himachal Pradesh","latitude":32.5387,"longitude":75.971,"temp":19.3,"humidity":61,"rain":0.2,"pressure":805.7,"uv_index":8.75,"wind_gusts":31.7,"aqi":60,"pm10":24.2,"pm2_5":12.5,"no2":1.2,"co":210.0,"o3":152.0,"so2":1.4,"mosquito_risk":6,"arthritis_risk":5,"migraine_risk":7,"frizz_risk":0,"updated_at":"2026-06-15T11:57:21.216396+05:30"},{"city":"Patiala","state":"Punjab","latitude":30.3398,"longitude":76.3869,"temp":36.3,"humidity":35,"rain":0.0,"pressure":974.7,"uv_index":7.7,"wind_gusts":29.5,"aqi":198,"pm10":392.1,"pm2_5":66.4,"no2":2.0,"co":238.0,"o3":169.0,"so2":10.7,"mosquito_risk":0,"arthritis_risk":5,"migraine_risk":10,"frizz_risk":1,"updated_at":"2026-06-15T11:57:21.216403+05:30"},{"city":"Bhatinda","state":"Punjab","latitude":30.211,"longitude":74.9455,"temp":35.9,"humidity":35,"rain":0.0,"pressure":980.1,"uv_index":8.35,"wind_gusts":27.0,"aqi":124,"pm10":328.8,"pm2_5":78.0,"no2":3.3,"co":228.0,"o3":167.0,"so2":15.3,"mosquito_risk":0,"arthritis_risk":5,"migraine_risk":10,"frizz_risk":1,"updated_at":"2026-06-15T11:57:21.216410+05:30"},{"city":"Rohtak","state":"Haryana","latitude":28.8955,"longitude":76.6066,"temp":36.1,"humidity":40,"rain":0.0,"pressure":978.5,"uv_index":7.8,"wind_gusts":36.0,"aqi":348,"pm10":525.3,"pm2_5":96.4,"no2":2.3,"co":190.0,"o3":146.0,"so2":5.4,"mosquito_risk":0,"arthritis_risk":5,"migraine_risk":10,"frizz_risk":1,"updated_at":"2026-06-15T11:57:21.216417+05:30"},{"city":"Panipat","state":"Haryana","latitude":29.3909,"longitude":76.9635,"temp":35.7,"humidity":36,"rain":0.0,"pressure":977.1,"uv_index":7.65,"wind_gusts":48.2,"aqi":553,"pm10":938.8,"pm2_5":144.4,"no2":8.2,"co":201.0,"o3":174.0,"so2":31.7,"mosquito_risk":0,"arthritis_risk":5,"migraine_risk":10,"frizz_risk":1,"updated_at":"2026-06-15T11:57:21.216424+05:30"},{"city":"Mathura","state":"Uttar Pradesh","latitude":27.4924,"longitude":77.6737,"temp":36.2,"humidity":38,"rain":0.0,"pressure":984.0,"uv_index":8.1,"wind_gusts":65.9,"aqi":409,"pm10":869.9,"pm2_5":124.3,"no2":2.3,"co":168.0,"o3":123.0,"so2":6.5,"mosquito_risk":0,"arthritis_risk":5,"migraine_risk":10,"frizz_risk":1,"updated_at":"2026-06-15T11:57:21.216432+05:30"},{"city":"Vrindavan","state":"Uttar Pradesh","latitude":27.5823,"longitude":77.7027,"temp":36.4,"humidity":37,"rain":0.0,"pressure":984.3,"uv_index":8.1,"wind_gusts":56.2,"aqi":409,"pm10":869.9,"pm2_5":124.3,"no2":2.3,"co":167.0,"o3":123.0,"so2":6.5,"mosquito_risk":0,"arthritis_risk":5,"migraine_risk":10,"frizz_risk":1,"updated_at":"2026-06-15T11:57:21.216439+05:30"},{"city":"Ayodhya","state":"Uttar Pradesh","latitude":26.7922,"longitude":82.1998,"temp":36.1,"humidity":44,"rain":0.0,"pressure":991.5,"uv_index":8.45,"wind_gusts":27.4,"aqi":154,"pm10":318.5,"pm2_5":85.2,"no2":2.1,"co":244.0,"o3":189.0,"so2":13.0,"mosquito_risk":0,"arthritis_risk":5,"migraine_risk":10,"frizz_risk":1,"updated_at":"2026-06-15T11:57:21.216446+05:30"},{"city":"Ratlam","state":"Madhya Pradesh","latitude":23.3315,"longitude":75.0367,"temp":33.1,"humidity":46,"rain":0.0,"pressure":954.0,"uv_index":8.5,"wind_gusts":48.6,"aqi":87,"pm10":61.7,"pm2_5":22.5,"no2":0.7,"co":110.0,"o3":80.0,"so2":3.8,"mosquito_risk":0,"arthritis_risk":5,"migraine_risk":7,"frizz_risk":1,"updated_at":"2026-06-15T11:57:21.216453+05:30"},{"city":"Sagar","state":"Madhya Pradesh","latitude":23.8388,"longitude":78.7378,"temp":34.8,"humidity":35,"rain":0.0,"pressure":949.1,"uv_index":8.75,"wind_gusts":35.3,"aqi":97,"pm10":95.2,"pm2_5":36.3,"no2":0.7,"co":163.0,"o3":108.0,"so2":3.4,"mosquito_risk":0,"arthritis_risk":5,"migraine_risk":7,"frizz_risk":1,"updated_at":"2026-06-15T11:57:21.216460+05:30"},{"city":"Satna","state":"Madhya Pradesh","latitude":24.6005,"longitude":80.8322,"temp":35.5,"humidity":33,"rain":0.0,"pressure":969.3,"uv_index":8.8,"wind_gusts":32.0,"aqi":105,"pm10":103.1,"pm2_5":39.2,"no2":0.9,"co":139.0,"o3":117.0,"so2":4.7,"mosquito_risk":0,"arthritis_risk":5,"migraine_risk":10,"frizz_risk":1,"updated_at":"2026-06-15T11:57:21.216467+05:30"},{"city":"Akola","state":"Maharashtra","latitude":20.7002,"longitude":77.0082,"temp":36.1,"humidity":41,"rain":0.0,"pressure":974.2,"uv_index":8.8,"wind_gusts":52.2,"aqi":81,"pm10":54.7,"pm2_5":25.9,"no2":1.6,"co":119.0,"o3":94.0,"so2":7.7,"mosquito_risk":0,"arthritis_risk":5,"migraine_risk":10,"frizz_risk":1,"updated_at":"2026-06-15T11:57:21.216475+05:30"},{"city":"Amravati","state":"Maharashtra","latitude":20.9374,"longitude":77.7796,"temp":34.7,"humidity":43,"rain":0.0,"pressure":966.3,"uv_index":8.8,"wind_gusts":43.6,"aqi":82,"pm10":50.9,"pm2_5":25.5,"no2":1.9,"co":125.0,"o3":94.0,"so2":8.7,"mosquito_risk":0,"arthritis_risk":5,"migraine_risk":7,"frizz_risk":1,"updated_at":"2026-06-15T11:57:21.216483+05:30"},{"city":"Latur","state":"Maharashtra","latitude":18.4088,"longitude":76.5604,"temp":33.4,"humidity":41,"rain":0.0,"pressure":940.1,"uv_index":8.9,"wind_gusts":40.3,"aqi":70,"pm10":50.6,"pm2_5":20.2,"no2":1.0,"co":126.0,"o3":91.0,"so2":3.0,"mosquito_risk":0,"arthritis_risk":5,"migraine_risk":7,"frizz_risk":1,"updated_at":"2026-06-15T11:57:21.216491+05:30"},{"city":"Nanded","state":"Maharashtra","latitude":19.1383,"longitude":77.3091,"temp":35.4,"humidity":38,"rain":0.0,"pressure":967.9,"uv_index":8.85,"wind_gusts":40.0,"aqi":87,"pm10":45.8,"pm2_5":20.9,"no2":1.0,"co":129.0,"o3":90.0,"so2":2.9,"mosquito_risk":0,"arthritis_risk":5,"migraine_risk":10,"frizz_risk":1,"updated_at":"2026-06-15T11:57:21.216498+05:30"},{"city":"Gulbarga","state":"Karnataka","latitude":17.3297,"longitude":76.8343,"temp":33.9,"humidity":42,"rain":0.0,"pressure":958.5,"uv_index":8.9,"wind_gusts":43.2,"aqi":65,"pm10":40.6,"pm2_5":18.9,"no2":1.5,"co":127.0,"o3":101.0,"so2":4.6,"mosquito_risk":0,"arthritis_risk":5,"migraine_risk":7,"frizz_risk":1,"updated_at":"2026-06-15T11:57:21.216505+05:30"},{"city":"Bidar","state":"Karnataka","latitude":17.9104,"longitude":77.5199,"temp":32.7,"humidity":45,"rain":0.0,"pressure":935.6,"uv_index":8.95,"wind_gusts":41.4,"aqi":91,"pm10":53.6,"pm2_5":24.1,"no2":1.3,"co":134.0,"o3":101.0,"so2":4.7,"mosquito_risk":0,"arthritis_risk":5,"migraine_risk":7,"frizz_risk":1,"updated_at":"2026-06-15T11:57:21.216512+05:30"},{"city":"Hospet","state":"Karnataka","latitude":15.2689,"longitude":76.3909,"temp":32.0,"humidity":45,"rain":0.0,"pressure":956.5,"uv_index":8.95,"wind_gusts":43.2,"aqi":56,"pm10":38.8,"pm2_5":17.2,"no2":1.5,"co":128.0,"o3":87.0,"so2":2.7,"mosquito_risk":0,"arthritis_risk":5,"migraine_risk":7,"frizz_risk":1,"updated_at":"2026-06-15T11:57:21.216519+05:30"},{"city":"Tirupur","state":"Tamil Nadu","latitude":11.1085,"longitude":77.3411,"temp":35.1,"humidity":39,"rain":0.0,"pressure":975.5,"uv_index":8.8,"wind_gusts":52.9,"aqi":57,"pm10":38.5,"pm2_5":16.5,"no2":1.8,"co":161.0,"o3":106.0,"so2":2.9,"mosquito_risk":0,"arthritis_risk":5,"migraine_risk":10,"frizz_risk":1,"updated_at":"2026-06-15T11:57:21.216525+05:30"},{"city":"Alappuzha","state":"Kerala","latitude":9.4981,"longitude":76.3388,"temp":28.6,"humidity":78,"rain":0.0,"pressure":1010.4,"uv_index":8.4,"wind_gusts":40.7,"aqi":59,"pm10":32.7,"pm2_5":17.7,"no2":2.7,"co":96.0,"o3":88.0,"so2":3.8,"mosquito_risk":7,"arthritis_risk":0,"migraine_risk":4,"frizz_risk":1,"updated_at":"2026-06-15T11:57:21.216532+05:30"},{"city":"Munnar","state":"Kerala","latitude":10.0889,"longitude":77.0595,"temp":22.2,"humidity":68,"rain":0.0,"pressure":859.1,"uv_index":9.05,"wind_gusts":29.2,"aqi":46,"pm10":30.9,"pm2_5":12.3,"no2":0.8,"co":106.0,"o3":72.0,"so2":1.1,"mosquito_risk":3,"arthritis_risk":5,"migraine_risk":7,"frizz_risk":1,"updated_at":"2026-06-15T11:57:21.216538+05:30"},{"city":"Silchar","state":"Assam","latitude":24.8333,"longitude":92.7789,"temp":30.8,"humidity":69,"rain":0.0,"pressure":1002.0,"uv_index":8.95,"wind_gusts":26.3,"aqi":79,"pm10":22.9,"pm2_5":16.9,"no2":1.1,"co":211.0,"o3":110.0,"so2":3.5,"mosquito_risk":3,"arthritis_risk":5,"migraine_risk":4,"frizz_risk":1,"updated_at":"2026-06-15T11:57:21.216545+05:30"},{"city":"Dibrugarh","state":"Assam","latitude":27.4728,"longitude":94.912,"temp":29.9,"humidity":76,"rain":0.0,"pressure":991.7,"uv_index":7.5,"wind_gusts":20.9,"aqi":73,"pm10":16.8,"pm2_5":14.6,"no2":1.1,"co":230.0,"o3":132.0,"so2":1.3,"mosquito_risk":7,"arthritis_risk":5,"migraine_risk":7,"frizz_risk":1,"updated_at":"2026-06-15T11:57:21.216552+05:30"}]