[{"city":"Delhi","state":"Delhi","latitude":28.6139,"longitude":77.209,"temp":23.3,"humidity":55,"rain":0.0,"pressure":984.9,"uv_index":5.75,"wind_gusts":29.2,"aqi":361,"pm10":821.4,"pm2_5":122.5,"mosquito_risk":0,"arthritis_risk":5,"migraine_risk":3,"frizz_risk":0,"updated_at":"2026-03-13T21:16:28.323643+05:30"},{"city":"Mumbai","state":"Maharashtra","latitude":19.076,"longitude":72.8777,"temp":29.5,"humidity":65,"rain":0.0,"pressure":1007.9,"uv_index":7.65,"wind_gusts":23.8,"aqi":218,"pm10":25.6,"pm2_5":22.2,"mosquito_risk":7,"arthritis_risk":5,"migraine_risk":4,"frizz_risk":1,"updated_at":"2026-03-13T21:16:28.323683+05:30"},{"city":"Bangalore","state":"Karnataka","latitude":12.9716,"longitude":77.5946,"temp":25.1,"humidity":48,"rain":0.0,"pressure":912.7,"uv_index":9.3,"wind_gusts":28.8,"aqi":119,"pm10":41.4,"pm2_5":37.0,"mosquito_risk":4,"arthritis_risk":5,"migraine_risk":7,"frizz_risk":0,"updated_at":"2026-03-13T21:16:28.323698+05:30"},{"city":"Hyderabad","state":"Telangana","latitude":17.385,"longitude":78.4867,"temp":27.7,"humidity":37,"rain":0.0,"pressure":953.7,"uv_index":8.65,"wind_gusts":19.1,"aqi":166,"pm10":39.6,"pm2_5":31.5,"mosquito_risk":4,"arthritis_risk":5,"migraine_risk":7,"frizz_risk":0,"updated_at":"2026-03-13T21:16:28.323708+05:30"},{"city":"Chennai","state":"Tamil Nadu","latitude":13.0827,"longitude":80.2707,"temp":27.0,"humidity":83,"rain":0.0,"pressure":1009.2,"uv_index":9.05,"wind_gusts":32.4,"aqi":61,"pm10":19.3,"pm2_5":14.8,"mosquito_risk":7,"arthritis_risk":0,"migraine_risk":4,"frizz_risk":1,"updated_at":"2026-03-13T21:16:28.323717+05:30"},{"city":"Kolkata","state":"West Bengal","latitude":22.5726,"longitude":88.3639,"temp":26.3,"humidity":87,"rain":0.0,"pressure":1007.0,"uv_index":8.0,"wind_gusts":29.2,"aqi":121,"pm10":29.8,"pm2_5":26.1,"mosquito_risk":7,"arthritis_risk":5,"migraine_risk":4,"frizz_risk":1,"updated_at":"2026-03-13T21:16:28.323726+05:30"},{"city":"Pune","state":"Maharashtra","latitude":18.5204,"longitude":73.8567,"temp":28.1,"humidity":46,"rain":0.0,"pressure":948.9,"uv_index":8.2,"wind_gusts":36.0,"aqi":151,"pm10":35.9,"pm2_5":34.5,"mosquito_risk":4,"arthritis_risk":5,"migraine_risk":7,"frizz_risk":0,"updated_at":"2026-03-13T21:16:28.323738+05:30"},{"city":"Ahmedabad","state":"Gujarat","latitude":23.0225,"longitude":72.5714,"temp":29.1,"humidity":41,"rain":0.0,"pressure":1002.1,"uv_index":7.45,"wind_gusts":22.3,"aqi":109,"pm10":56.1,"pm2_5":39.6,"mosquito_risk":4,"arthritis_risk":5,"migraine_risk":4,"frizz_risk":0,"updated_at":"2026-03-13T21:16:28.323745+05:30"},{"city":"Jaipur","state":"Rajasthan","latitude":26.9124,"longitude":75.7873,"temp":26.8,"humidity":34,"rain":0.0,"pressure":961.1,"uv_index":6.95,"wind_gusts":23.8,"aqi":114,"pm10":191.4,"pm2_5":44.7,"mosquito_risk":4,"arthritis_risk":5,"migraine_risk":7,"frizz_risk":0,"updated_at":"2026-03-13T21:16:28.323753+05:30"},{"city":"Lucknow","state":"Uttar Pradesh","latitude":26.8467,"longitude":80.9462,"temp":26.4,"humidity":54,"rain":0.0,"pressure":994.4,"uv_index":6.05,"wind_gusts":28.4,"aqi":165,"pm10":192.3,"pm2_5":61.7,"mosquito_risk":4,"arthritis_risk":5,"migraine_risk":7,"frizz_risk":1,"updated_at":"2026-03-13T21:16:28.323760+05:30"},{"city":"Kanpur","state":"Uttar Pradesh","latitude":26.4499,"longitude":80.3319,"temp":25.1,"humidity":62,"rain":0.0,"pressure":992.4,"uv_index":6.35,"wind_gusts":18.7,"aqi":238,"pm10":267.3,"pm2_5":68.2,"mosquito_risk":7,"arthritis_risk":5,"migraine_risk":7,"frizz_risk":1,"updated_at":"2026-03-13T21:16:28.323768+05:30"},{"city":"Chandigarh","state":"Chandigarh","latitude":30.7333,"longitude":76.7794,"temp":20.0,"humidity":70,"rain":0.0,"pressure":970.0,"uv_index":5.35,"wind_gusts":29.5,"aqi":80,"pm10":27.9,"pm2_5":24.9,"mosquito_risk":3,"arthritis_risk":5,"migraine_risk":3,"frizz_risk":0,"updated_at":"2026-03-13T21:16:28.323776+05:30"},{"city":"Srinagar","state":"Jammu and Kashmir","latitude":34.0837,"longitude":74.7973,"temp":9.0,"humidity":73,"rain":0.0,"pressure":840.2,"uv_index":6.75,"wind_gusts":15.1,"aqi":88,"pm10":63.8,"pm2_5":48.5,"mosquito_risk":3,"arthritis_risk":5,"migraine_risk":7,"frizz_risk":0,"updated_at":"2026-03-13T21:16:28.323783+05:30"},{"city":"Jammu","state":"Jammu and Kashmir","latitude":32.7266,"longitude":74.857,"temp":21.7,"humidity":55,"rain":0.0,"pressure":974.1,"uv_index":6.45,"wind_gusts":24.8,"aqi":72,"pm10":39.6,"pm2_5":32.8,"mosquito_risk":0,"arthritis_risk":5,"migraine_risk":7,"frizz_risk":0,"updated_at":"2026-03-13T21:16:28.323790+05:30"},{"city":"Amritsar","state":"Punjab","latitude":31.634,"longitude":74.8723,"temp":20.3,"humidity":62,"rain":0.0,"pressure":982.6,"uv_index":5.85,"wind_gusts":25.6,"aqi":90,"pm10":31.7,"pm2_5":25.0,"mosquito_risk":3,"arthritis_risk":5,"migraine_risk":3,"frizz_risk":0,"updated_at":"2026-03-13T21:16:28.323796+05:30"},{"city":"Ludhiana","state":"Punjab","latitude":30.901,"longitude":75.8573,"temp":21.6,"humidity":66,"rain":0.0,"pressure":980.6,"uv_index":5.7,"wind_gusts":27.7,"aqi":101,"pm10":40.6,"pm2_5":27.6,"mosquito_risk":3,"arthritis_risk":5,"migraine_risk":3,"frizz_risk":0,"updated_at":"2026-03-13T21:16:28.323802+05:30"},{"city":"Jalandhar","state":"Punjab","latitude":31.326,"longitude":75.5762,"temp":21.3,"humidity":62,"rain":0.0,"pressure":981.7,"uv_index":5.7,"wind_gusts":25.6,"aqi":99,"pm10":42.6,"pm2_5":26.9,"mosquito_risk":3,"arthritis_risk":5,"migraine_risk":3,"frizz_risk":0,"updated_at":"2026-03-13T21:16:28.323811+05:30"},{"city":"Dehradun","state":"Uttarakhand","latitude":30.6284,"longitude":78.0322,"temp":14.0,"humidity":75,"rain":0.0,"pressure":829.4,"uv_index":5.7,"wind_gusts":28.8,"aqi":72,"pm10":41.2,"pm2_5":23.2,"mosquito_risk":3,"arthritis_risk":5,"migraine_risk":3,"frizz_risk":0,"updated_at":"2026-03-13T21:16:28.323818+05:30"},{"city":"Shimla","state":"Himachal Pradesh","latitude":31.1048,"longitude":77.1734,"temp":11.1,"humidity":70,"rain":0.0,"pressure":783.1,"uv_index":5.15,"wind_gusts":39.2,"aqi":68,"pm10":28.6,"pm2_5":19.7,"mosquito_risk":3,"arthritis_risk":5,"migraine_risk":3,"frizz_risk":0,"updated_at":"2026-03-13T21:16:28.323825+05:30"},{"city":"Manali","state":"Himachal Pradesh","latitude":32.2396,"longitude":77.1887,"temp":12.8,"humidity":31,"rain":0.0,"pressure":819.7,"uv_index":8.05,"wind_gusts":38.5,"aqi":84,"pm10":26.4,"pm2_5":11.1,"mosquito_risk":0,"arthritis_risk":5,"migraine_risk":7,"frizz_risk":1,"updated_at":"2026-03-13T21:16:28.323831+05:30"},{"city":"Gurgaon","state":"Haryana","latitude":28.4595,"longitude":77.0266,"temp":20.9,"humidity":63,"rain":0.0,"pressure":983.2,"uv_index":6.15,"wind_gusts":28.1,"aqi":1137,"pm10":1952.1,"pm2_5":231.4,"mosquito_risk":3,"arthritis_risk":5,"migraine_risk":7,"frizz_risk":0,"updated_at":"2026-03-13T21:16:28.323838+05:30"},{"city":"Noida","state":"Uttar Pradesh","latitude":28.5355,"longitude":77.391,"temp":23.1,"humidity":56,"rain":0.0,"pressure":986.3,"uv_index":5.95,"wind_gusts":28.8,"aqi":1137,"pm10":1952.1,"pm2_5":231.4,"mosquito_risk":0,"arthritis_risk":5,"migraine_risk":3,"frizz_risk":0,"updated_at":"2026-03-13T21:16:28.323845+05:30"},{"city":"Ghaziabad","state":"Uttar Pradesh","latitude":28.6692,"longitude":77.4538,"temp":22.2,"humidity":61,"rain":0.0,"pressure":984.4,"uv_index":5.75,"wind_gusts":27.7,"aqi":188,"pm10":594.2,"pm2_5":98.3,"mosquito_risk":3,"arthritis_risk":5,"migraine_risk":3,"frizz_risk":0,"updated_at":"2026-03-13T21:16:28.323852+05:30"},{"city":"Faridabad","state":"Haryana","latitude":28.4089,"longitude":77.3178,"temp":21.7,"humidity":56,"rain":0.0,"pressure":985.5,"uv_index":6.2,"wind_gusts":27.7,"aqi":1137,"pm10":1952.1,"pm2_5":231.4,"mosquito_risk":0,"arthritis_risk":5,"migraine_risk":7,"frizz_risk":0,"updated_at":"2026-03-13T21:16:28.323858+05:30"},{"city":"Meerut","state":"Uttar Pradesh","latitude":28.9845,"longitude":77.7064,"temp":20.5,"humidity":67,"rain":0.0,"pressure":983.0,"uv_index":4.85,"wind_gusts":27.7,"aqi":188,"pm10":594.2,"pm2_5":98.3,"mosquito_risk":3,"arthritis_risk":5,"migraine_risk":3,"frizz_risk":0,"updated_at":"2026-03-13T21:16:28.323865+05:30"},{"city":"Agra","state":"Uttar Pradesh","latitude":27.1767,"longitude":78.0081,"temp":23.3,"humidity":48,"rain":0.0,"pressure":989.0,"uv_index":6.25,"wind_gusts":24.8,"aqi":545,"pm10":722.7,"pm2_5":106.2,"mosquito_risk":0,"arthritis_risk":5,"migraine_risk":7,"frizz_risk":0,"updated_at":"2026-03-13T21:16:28.323871+05:30"},{"city":"Varanasi","state":"Uttar Pradesh","latitude":25.3176,"longitude":82.9739,"temp":24.5,"humidity":58,"rain":0.0,"pressure":998.4,"uv_index":7.35,"wind_gusts":25.2,"aqi":125,"pm10":142.5,"pm2_5":56.9,"mosquito_risk":0,"arthritis_risk":5,"migraine_risk":7,"frizz_risk":0,"updated_at":"2026-03-13T21:16:28.323880+05:30"},{"city":"Prayagraj","state":"Uttar Pradesh","latitude":25.4358,"longitude":81.8463,"temp":26.1,"humidity":55,"rain":0.0,"pressure":996.6,"uv_index":7.1,"wind_gusts":21.6,"aqi":150,"pm10":116.4,"pm2_5":48.8,"mosquito_risk":4,"arthritis_risk":5,"migraine_risk":7,"frizz_risk":1,"updated_at":"2026-03-13T21:16:28.323888+05:30"},{"city":"Gorakhpur","state":"Uttar Pradesh","latitude":26.7606,"longitude":83.3732,"temp":24.1,"humidity":64,"rain":0.0,"pressure":997.4,"uv_index":7.05,"wind_gusts":28.4,"aqi":182,"pm10":69.8,"pm2_5":46.2,"mosquito_risk":3,"arthritis_risk":5,"migraine_risk":7,"frizz_risk":1,"updated_at":"2026-03-13T21:16:28.323895+05:30"},{"city":"Bareilly","state":"Uttar Pradesh","latitude":28.367,"longitude":79.4304,"temp":21.3,"humidity":63,"rain":0.0,"pressure":987.7,"uv_index":6.35,"wind_gusts":26.6,"aqi":151,"pm10":65.2,"pm2_5":38.6,"mosquito_risk":3,"arthritis_risk":5,"migraine_risk":7,"frizz_risk":0,"updated_at":"2026-03-13T21:16:28.323901+05:30"},{"city":"Aligarh","state":"Uttar Pradesh","latitude":27.8974,"longitude":78.088,"temp":20.5,"humidity":57,"rain":0.0,"pressure":987.1,"uv_index":5.9,"wind_gusts":28.8,"aqi":594,"pm10":994.7,"pm2_5":146.7,"mosquito_risk":0,"arthritis_risk":5,"migraine_risk":3,"frizz_risk":0,"updated_at":"2026-03-13T21:16:28.323908+05:30"},{"city":"Moradabad","state":"Uttar Pradesh","latitude":28.8386,"longitude":78.7733,"temp":21.5,"humidity":64,"rain":0.0,"pressure":984.7,"uv_index":5.75,"wind_gusts":27.4,"aqi":144,"pm10":103.6,"pm2_5":42.4,"mosquito_risk":3,"arthritis_risk":5,"migraine_risk":3,"frizz_risk":0,"updated_at":"2026-03-13T21:16:28.323914+05:30"},{"city":"Saharanpur","state":"Uttar Pradesh","latitude":29.9637,"longitude":77.546,"temp":20.5,"humidity":67,"rain":0.0,"pressure":976.6,"uv_index":4.95,"wind_gusts":27.4,"aqi":134,"pm10":172.8,"pm2_5":51.2,"mosquito_risk":3,"arthritis_risk":5,"migraine_risk":3,"frizz_risk":0,"updated_at":"2026-03-13T21:16:28.323924+05:30"},{"city":"Jhansi","state":"Uttar Pradesh","latitude":25.4484,"longitude":78.5685,"temp":25.8,"humidity":56,"rain":0.0,"pressure":978.8,"uv_index":6.75,"wind_gusts":20.9,"aqi":81,"pm10":83.8,"pm2_5":36.0,"mosquito_risk":4,"arthritis_risk":5,"migraine_risk":7,"frizz_risk":1,"updated_at":"2026-03-13T21:16:31.575396+05:30"},{"city":"Surat","state":"Gujarat","latitude":21.1702,"longitude":72.8311,"temp":27.1,"humidity":63,"rain":0.0,"pressure":1006.3,"uv_index":7.35,"wind_gusts":23.8,"aqi":146,"pm10":84.1,"pm2_5":78.0,"mosquito_risk":7,"arthritis_risk":5,"migraine_risk":4,"frizz_risk":1,"updated_at":"2026-03-13T21:16:31.575423+05:30"},{"city":"Vadodara","state":"Gujarat","latitude":22.3072,"longitude":73.1812,"temp":31.2,"humidity":32,"rain":0.0,"pressure":1003.8,"uv_index":7.5,"wind_gusts":23.8,"aqi":153,"pm10":62.6,"pm2_5":52.5,"mosquito_risk":0,"arthritis_risk":5,"migraine_risk":4,"frizz_risk":0,"updated_at":"2026-03-13T21:16:31.575432+05:30"},{"city":"Rajkot","state":"Gujarat","latitude":22.3039,"longitude":70.8022,"temp":28.4,"humidity":30,"rain":0.0,"pressure":995.1,"uv_index":7.3,"wind_gusts":29.5,"aqi":98,"pm10":40.9,"pm2_5":21.0,"mosquito_risk":4,"arthritis_risk":5,"migraine_risk":7,"frizz_risk":0,"updated_at":"2026-03-13T21:16:31.575439+05:30"},{"city":"Thane","state":"Maharashtra","latitude":19.2183,"longitude":72.9781,"temp":29.0,"humidity":52,"rain":0.0,"pressure":1007.3,"uv_index":7.65,"wind_gusts":38.2,"aqi":218,"pm10":25.6,"pm2_5":22.2,"mosquito_risk":4,"arthritis_risk":5,"migraine_risk":4,"frizz_risk":1,"updated_at":"2026-03-13T21:16:31.575446+05:30"},{"city":"Nagpur","state":"Maharashtra","latitude":21.1458,"longitude":79.0882,"temp":27.6,"humidity":38,"rain":0.0,"pressure":972.6,"uv_index":8.05,"wind_gusts":19.4,"aqi":127,"pm10":44.6,"pm2_5":40.3,"mosquito_risk":4,"arthritis_risk":5,"migraine_risk":7,"frizz_risk":0,"updated_at":"2026-03-13T21:16:31.575453+05:30"},{"city":"Nashik","state":"Maharashtra","latitude":19.9975,"longitude":73.7898,"temp":27.7,"humidity":37,"rain":0.0,"pressure":946.2,"uv_index":7.85,"wind_gusts":34.9,"aqi":149,"pm10":29.0,"pm2_5":27.2,"mosquito_risk":4,"arthritis_risk":5,"migraine_risk":7,"frizz_risk":0,"updated_at":"2026-03-13T21:16:31.575460+05:30"},{"city":"Aurangabad","state":"Maharashtra","latitude":19.8762,"longitude":75.3433,"temp":28.3,"humidity":39,"rain":0.0,"pressure":944.3,"uv_index":8.35,"wind_gusts":29.5,"aqi":155,"pm10":30.5,"pm2_5":28.8,"mosquito_risk":4,"arthritis_risk":5,"migraine_risk":7,"frizz_risk":0,"updated_at":"2026-03-13T21:16:31.575466+05:30"},{"city":"Solapur","state":"Maharashtra","latitude":17.6599,"longitude":75.9064,"temp":28.3,"humidity":41,"rain":0.0,"pressure":956.5,"uv_index":8.6,"wind_gusts":24.1,"aqi":158,"pm10":44.4,"pm2_5":38.6,"mosquito_risk":4,"arthritis_risk":5,"migraine_risk":7,"frizz_risk":0,"updated_at":"2026-03-13T21:16:31.575472+05:30"},{"city":"Kolhapur","state":"Maharashtra","latitude":16.705,"longitude":74.2433,"temp":25.2,"humidity":79,"rain":0.0,"pressure":948.4,"uv_index":8.7,"wind_gusts":47.9,"aqi":151,"pm10":57.4,"pm2_5":55.2,"mosquito_risk":7,"arthritis_risk":5,"migraine_risk":7,"frizz_risk":1,"updated_at":"2026-03-13T21:16:31.575478+05:30"},{"city":"Goa","state":"Goa","latitude":15.2993,"longitude":74.124,"temp":28.1,"humidity":81,"rain":0.0,"pressure":998.4,"uv_index":8.7,"wind_gusts":31.3,"aqi":134,"pm10":48.0,"pm2_5":43.1,"mosquito_risk":7,"arthritis_risk":5,"migraine_risk":7,"frizz_risk":1,"updated_at":"2026-03-13T21:16:31.575485+05:30"},{"city":"Jodhpur","state":"Rajasthan","latitude":26.2389,"longitude":73.0243,"temp":28.2,"humidity":38,"rain":0.0,"pressure":983.3,"uv_index":6.8,"wind_gusts":18.7,"aqi":85,"pm10":161.6,"pm2_5":35.6,"mosquito_risk":4,"arthritis_risk":5,"migraine_risk":7,"frizz_risk":0,"updated_at":"2026-03-13T21:16:31.575490+05:30"},{"city":"Udaipur","state":"Rajasthan","latitude":24.5854,"longitude":73.7125,"temp":25.7,"humidity":27,"rain":0.0,"pressure":947.5,"uv_index":7.8,"wind_gusts":30.2,"aqi":95,"pm10":26.0,"pm2_5":16.1,"mosquito_risk":4,"arthritis_risk":5,"migraine_risk":7,"frizz_risk":0,"updated_at":"2026-03-13T21:16:31.575496+05:30"},{"city":"Kota","state":"Rajasthan","latitude":25.2138,"longitude":75.8648,"temp":27.5,"humidity":39,"rain":0.0,"pressure":978.7,"uv_index":7.1,"wind_gusts":17.6,"aqi":96,"pm10":34.7,"pm2_5":18.1,"mosquito_risk":4,"arthritis_risk":5,"migraine_risk":7,"frizz_risk":0,"updated_at":"2026-03-13T21:16:31.575502+05:30"},{"city":"Bikaner","state":"Rajasthan","latitude":28.0229,"longitude":73.3119,"temp":28.5,"humidity":29,"rain":0.0,"pressure":982.9,"uv_index":6.75,"wind_gusts":24.8,"aqi":92,"pm10":21.5,"pm2_5":15.5,"mosquito_risk":4,"arthritis_risk":5,"migraine_risk":7,"frizz_risk":0,"updated_at":"2026-03-13T21:16:31.575508+05:30"},{"city":"Ajmer","state":"Rajasthan","latitude":26.4499,"longitude":74.6399,"temp":25.0,"humidity":38,"rain":0.0,"pressure":955.2,"uv_index":7.05,"wind_gusts":22.0,"aqi":83,"pm10":108.3,"pm2_5":37.3,"mosquito_risk":4,"arthritis_risk":5,"migraine_risk":7,"frizz_risk":0,"updated_at":"2026-03-13T21:16:31.575514+05:30"},{"city":"Gwalior","state":"Madhya Pradesh","latitude":26.2183,"longitude":78.1828,"temp":26.3,"humidity":65,"rain":0.0,"pressure":984.2,"uv_index":6.8,"wind_gusts":21.2,"aqi":103,"pm10":156.5,"pm2_5":49.5,"mosquito_risk":7,"arthritis_risk":5,"migraine_risk":7,"frizz_risk":1,"updated_at":"2026-03-13T21:16:31.575519+05:30"},{"city":"Indore","state":"Madhya Pradesh","latitude":22.7196,"longitude":75.8577,"temp":24.3,"humidity":35,"rain":0.0,"pressure":948.4,"uv_index":7.75,"wind_gusts":32.4,"aqi":101,"pm10":36.0,"pm2_5":32.2,"mosquito_risk":0,"arthritis_risk":5,"migraine_risk":7,"frizz_risk":0,"updated_at":"2026-03-13T21:16:31.575525+05:30"},{"city":"Bhopal","state":"Madhya Pradesh","latitude":23.2599,"longitude":77.4126,"temp":25.2,"humidity":30,"rain":0.0,"pressure":953.9,"uv_index":7.55,"wind_gusts":31.0,"aqi":108,"pm10":19.4,"pm2_5":19.0,"mosquito_risk":4,"arthritis_risk":5,"migraine_risk":7,"frizz_risk":0,"updated_at":"2026-03-13T21:16:31.575530+05:30"},{"city":"Jabalpur","state":"Madhya Pradesh","latitude":23.1815,"longitude":79.9864,"temp":27.0,"humidity":48,"rain":0.0,"pressure":962.0,"uv_index":7.75,"wind_gusts":20.2,"aqi":125,"pm10":27.2,"pm2_5":25.8,"mosquito_risk":4,"arthritis_risk":5,"migraine_risk":7,"frizz_risk":0,"updated_at":"2026-03-13T21:16:31.575536+05:30"},{"city":"Ujjain","state":"Madhya Pradesh","latitude":23.1765,"longitude":75.7885,"temp":24.2,"humidity":37,"rain":0.0,"pressure":954.3,"uv_index":7.65,"wind_gusts":26.3,"aqi":83,"pm10":45.3,"pm2_5":39.6,"mosquito_risk":0,"arthritis_risk":5,"migraine_risk":7,"frizz_risk":0,"updated_at":"2026-03-13T21:16:31.575542+05:30"},{"city":"Visakhapatnam","state":"Andhra Pradesh","latitude":17.6868,"longitude":83.2185,"temp":26.2,"humidity":84,"rain":0.0,"pressure":1006.2,"uv_index":8.65,"wind_gusts":40.3,"aqi":83,"pm10":20.9,"pm2_5":17.4,"mosquito_risk":7,"arthritis_risk":5,"migraine_risk":4,"frizz_risk":1,"updated_at":"2026-03-13T21:16:31.575548+05:30"},{"city":"Vijayawada","state":"Andhra Pradesh","latitude":16.5062,"longitude":80.648,"temp":26.4,"humidity":83,"rain":0.0,"pressure":1004.5,"uv_index":8.75,"wind_gusts":31.3,"aqi":88,"pm10":17.3,"pm2_5":15.2,"mosquito_risk":7,"arthritis_risk":5,"migraine_risk":4,"frizz_risk":1,"updated_at":"2026-03-13T21:16:31.575554+05:30"},{"city":"Guntur","state":"Andhra Pradesh","latitude":16.3067,"longitude":80.4365,"temp":26.0,"humidity":86,"rain":0.0,"pressure":1005.6,"uv_index":8.75,"wind_gusts":33.8,"aqi":82,"pm10":17.0,"pm2_5":14.8,"mosquito_risk":7,"arthritis_risk":5,"migraine_risk":4,"frizz_risk":1,"updated_at":"2026-03-13T21:16:31.575560+05:30"},{"city":"Nellore","state":"Andhra Pradesh","latitude":14.4426,"longitude":79.9865,"temp":26.3,"humidity":87,"rain":0.0,"pressure":1007.7,"uv_index":8.9,"wind_gusts":30.2,"aqi":71,"pm10":15.4,"pm2_5":12.2,"mosquito_risk":7,"arthritis_risk":5,"migraine_risk":4,"frizz_risk":1,"updated_at":"2026-03-13T21:16:31.575566+05:30"},{"city":"Kurnool","state":"Andhra Pradesh","latitude":15.8281,"longitude":78.0373,"temp":31.3,"humidity":32,"rain":0.0,"pressure":977.1,"uv_index":8.7,"wind_gusts":23.8,"aqi":161,"pm10":64.3,"pm2_5":51.3,"mosquito_risk":0,"arthritis_risk":5,"migraine_risk":7,"frizz_risk":0,"updated_at":"2026-03-13T21:16:31.575573+05:30"},{"city":"Kakinada","state":"Andhra Pradesh","latitude":16.9891,"longitude":82.2475,"temp":25.4,"humidity":88,"rain":0.0,"pressure":1010.0,"uv_index":8.65,"wind_gusts":34.6,"aqi":73,"pm10":15.2,"pm2_5":11.4,"mosquito_risk":7,"arthritis_risk":0,"migraine_risk":4,"frizz_risk":1,"updated_at":"2026-03-13T21:16:31.575578+05:30"},{"city":"Tirupati","state":"Andhra Pradesh","latitude":13.6288,"longitude":79.4192,"temp":27.3,"humidity":67,"rain":0.0,"pressure":993.5,"uv_index":9.05,"wind_gusts":33.5,"aqi":93,"pm10":22.4,"pm2_5":20.2,"mosquito_risk":7,"arthritis_risk":5,"migraine_risk":7,"frizz_risk":1,"updated_at":"2026-03-13T21:16:31.575584+05:30"},{"city":"Warangal","state":"Telangana","latitude":17.9689,"longitude":79.5941,"temp":27.4,"humidity":53,"rain":0.0,"pressure":978.8,"uv_index":8.5,"wind_gusts":28.8,"aqi":131,"pm10":53.9,"pm2_5":45.5,"mosquito_risk":4,"arthritis_risk":5,"migraine_risk":7,"frizz_risk":1,"updated_at":"2026-03-13T21:16:31.575590+05:30"},{"city":"Nizamabad","state":"Telangana","latitude":18.6725,"longitude":78.0941,"temp":26.2,"humidity":45,"rain":0.0,"pressure":964.3,"uv_index":8.4,"wind_gusts":19.1,"aqi":161,"pm10":62.6,"pm2_5":52.2,"mosquito_risk":4,"arthritis_risk":5,"migraine_risk":7,"frizz_risk":0,"updated_at":"2026-03-13T21:16:31.575595+05:30"},{"city":"Mysore","state":"Karnataka","latitude":12.2958,"longitude":76.6396,"temp":26.0,"humidity":46,"rain":0.0,"pressure":928.8,"uv_index":9.3,"wind_gusts":29.9,"aqi":123,"pm10":39.6,"pm2_5":35.5,"mosquito_risk":4,"arthritis_risk":5,"migraine_risk":7,"frizz_risk":0,"updated_at":"2026-03-13T21:16:31.575601+05:30"},{"city":"Mangalore","state":"Karnataka","latitude":12.9141,"longitude":74.856,"temp":28.8,"humidity":82,"rain":0.0,"pressure":1007.5,"uv_index":8.95,"wind_gusts":23.0,"aqi":116,"pm10":44.5,"pm2_5":38.1,"mosquito_risk":7,"arthritis_risk":5,"migraine_risk":4,"frizz_risk":1,"updated_at":"2026-03-13T21:16:31.575607+05:30"},{"city":"Hubli-Dharwad","state":"Karnataka","latitude":15.3647,"longitude":75.124,"temp":26.4,"humidity":67,"rain":0.0,"pressure":941.2,"uv_index":8.9,"wind_gusts":29.2,"aqi":157,"pm10":33.9,"pm2_5":31.1,"mosquito_risk":7,"arthritis_risk":5,"migraine_risk":7,"frizz_risk":1,"updated_at":"2026-03-13T21:16:31.575613+05:30"},{"city":"Belgaum","state":"Karnataka","latitude":15.8497,"longitude":74.4977,"temp":24.7,"humidity":81,"rain":0.0,"pressure":926.3,"uv_index":8.95,"wind_gusts":41.0,"aqi":154,"pm10":47.6,"pm2_5":45.3,"mosquito_risk":3,"arthritis_risk":5,"migraine_risk":7,"frizz_risk":1,"updated_at":"2026-03-13T21:16:34.833387+05:30"},{"city":"Coimbatore","state":"Tamil Nadu","latitude":11.0168,"longitude":76.9558,"temp":24.8,"humidity":75,"rain":0.0,"pressure":962.9,"uv_index":9.3,"wind_gusts":42.8,"aqi":101,"pm10":37.1,"pm2_5":32.1,"mosquito_risk":3,"arthritis_risk":5,"migraine_risk":7,"frizz_risk":1,"updated_at":"2026-03-13T21:16:34.833417+05:30"},{"city":"Madurai","state":"Tamil Nadu","latitude":9.9252,"longitude":78.1198,"temp":28.4,"humidity":57,"rain":0.0,"pressure":994.2,"uv_index":9.25,"wind_gusts":26.6,"aqi":79,"pm10":21.5,"pm2_5":19.4,"mosquito_risk":4,"arthritis_risk":5,"migraine_risk":7,"frizz_risk":1,"updated_at":"2026-03-13T21:16:34.833429+05:30"},{"city":"Trichy","state":"Tamil Nadu","latitude":10.7905,"longitude":78.7047,"temp":27.3,"humidity":75,"rain":0.0,"pressure":1001.2,"uv_index":9.15,"wind_gusts":23.0,"aqi":82,"pm10":21.4,"pm2_5":20.0,"mosquito_risk":7,"arthritis_risk":5,"migraine_risk":4,"frizz_risk":1,"updated_at":"2026-03-13T21:16:34.833438+05:30"},{"city":"Salem","state":"Tamil Nadu","latitude":11.6643,"longitude":78.146,"temp":27.4,"humidity":59,"rain":0.0,"pressure":978.2,"uv_index":9.2,"wind_gusts":24.8,"aqi":115,"pm10":41.7,"pm2_5":36.3,"mosquito_risk":4,"arthritis_risk":5,"migraine_risk":7,"frizz_risk":1,"updated_at":"2026-03-13T21:16:34.833446+05:30"},{"city":"Tirunelveli","state":"Tamil Nadu","latitude":8.7139,"longitude":77.7567,"temp":27.2,"humidity":69,"rain":0.0,"pressure":1004.5,"uv_index":9.2,"wind_gusts":29.9,"aqi":62,"pm10":15.2,"pm2_5":13.6,"mosquito_risk":7,"arthritis_risk":5,"migraine_risk":4,"frizz_risk":1,"updated_at":"2026-03-13T21:16:34.833453+05:30"},{"city":"Vellore","state":"Tamil Nadu","latitude":12.9165,"longitude":79.1325,"temp":26.3,"humidity":72,"rain":0.0,"pressure":986.4,"uv_index":9.1,"wind_gusts":33.1,"aqi":106,"pm10":26.1,"pm2_5":24.0,"mosquito_risk":7,"arthritis_risk":5,"migraine_risk":7,"frizz_risk":1,"updated_at":"2026-03-13T21:16:34.833462+05:30"},{"city":"Erode","state":"Tamil Nadu","latitude":11.341,"longitude":77.7172,"temp":29.1,"humidity":57,"rain":0.0,"pressure":989.7,"uv_index":9.15,"wind_gusts":23.8,"aqi":86,"pm10":32.1,"pm2_5":28.4,"mosquito_risk":4,"arthritis_risk":5,"migraine_risk":7,"frizz_risk":1,"updated_at":"2026-03-13T21:16:34.833470+05:30"},{"city":"Kochi","state":"Kerala","latitude":9.9312,"longitude":76.2673,"temp":28.2,"humidity":81,"rain":0.0,"pressure":1009.8,"uv_index":9.1,"wind_gusts":33.8,"aqi":135,"pm10":28.5,"pm2_5":26.7,"mosquito_risk":7,"arthritis_risk":0,"migraine_risk":4,"frizz_risk":1,"updated_at":"2026-03-13T21:16:34.833477+05:30"},{"city":"Thiruvananthapuram","state":"Kerala","latitude":8.5241,"longitude":76.9366,"temp":27.6,"humidity":83,"rain":0.0,"pressure":1009.2,"uv_index":9.1,"wind_gusts":24.1,"aqi":93,"pm10":21.1,"pm2_5":16.4,"mosquito_risk":7,"arthritis_risk":0,"migraine_risk":4,"frizz_risk":1,"updated_at":"2026-03-13T21:16:34.833484+05:30"},{"city":"Kozhikode","state":"Kerala","latitude":11.2588,"longitude":75.7804,"temp":28.7,"humidity":81,"rain":0.0,"pressure":1008.8,"uv_index":9.0,"wind_gusts":29.9,"aqi":92,"pm10":28.1,"pm2_5":24.5,"mosquito_risk":7,"arthritis_risk":0,"migraine_risk":4,"frizz_risk":1,"updated_at":"2026-03-13T21:16:34.833490+05:30"},{"city":"Thrissur","state":"Kerala","latitude":10.5276,"longitude":76.2144,"temp":27.9,"humidity":82,"rain":0.0,"pressure":1008.0,"uv_index":9.05,"wind_gusts":37.1,"aqi":113,"pm10":26.7,"pm2_5":24.6,"mosquito_risk":7,"arthritis_risk":0,"migraine_risk":4,"frizz_risk":1,"updated_at":"2026-03-13T21:16:34.833497+05:30"},{"city":"Kannur","state":"Kerala","latitude":11.8745,"longitude":75.3704,"temp":29.0,"humidity":80,"rain":0.0,"pressure":1007.7,"uv_index":9.0,"wind_gusts":28.1,"aqi":106,"pm10":38.1,"pm2_5":32.9,"mosquito_risk":7,"arthritis_risk":5,"migraine_risk":4,"frizz_risk":1,"updated_at":"2026-03-13T21:16:34.833503+05:30"},{"city":"Patna","state":"Bihar","latitude":25.5941,"longitude":85.1376,"temp":26.7,"humidity":61,"rain":0.0,"pressure":1000.7,"uv_index":7.5,"wind_gusts":23.0,"aqi":177,"pm10":150.4,"pm2_5":60.3,"mosquito_risk":7,"arthritis_risk":5,"migraine_risk":4,"frizz_risk":1,"updated_at":"2026-03-13T21:16:34.833509+05:30"},{"city":"Gaya","state":"Bihar","latitude":24.7914,"longitude":85.0002,"temp":27.4,"humidity":51,"rain":0.0,"pressure":994.7,"uv_index":7.6,"wind_gusts":19.4,"aqi":146,"pm10":175.1,"pm2_5":57.7,"mosquito_risk":4,"arthritis_risk":5,"migraine_risk":7,"frizz_risk":1,"updated_at":"2026-03-13T21:16:34.833515+05:30"},{"city":"Muzaffarpur","state":"Bihar","latitude":26.1209,"longitude":85.3647,"temp":25.7,"humidity":73,"rain":0.0,"pressure":1000.5,"uv_index":7.45,"wind_gusts":24.8,"aqi":178,"pm10":162.5,"pm2_5":83.6,"mosquito_risk":7,"arthritis_risk":5,"migraine_risk":4,"frizz_risk":1,"updated_at":"2026-03-13T21:16:34.833520+05:30"},{"city":"Bhagalpur","state":"Bihar","latitude":25.2425,"longitude":87.0117,"temp":26.8,"humidity":72,"rain":0.0,"pressure":1001.7,"uv_index":7.5,"wind_gusts":26.6,"aqi":166,"pm10":190.9,"pm2_5":95.0,"mosquito_risk":7,"arthritis_risk":5,"migraine_risk":4,"frizz_risk":1,"updated_at":"2026-03-13T21:16:34.833526+05:30"},{"city":"Ranchi","state":"Jharkhand","latitude":23.3441,"longitude":85.3096,"temp":23.5,"humidity":35,"rain":0.0,"pressure":938.7,"uv_index":8.2,"wind_gusts":26.3,"aqi":101,"pm10":29.2,"pm2_5":20.3,"mosquito_risk":0,"arthritis_risk":5,"migraine_risk":7,"frizz_risk":0,"updated_at":"2026-03-13T21:16:34.833533+05:30"},{"city":"Jamshedpur","state":"Jharkhand","latitude":22.8046,"longitude":86.2029,"temp":28.1,"humidity":53,"rain":0.0,"pressure":990.9,"uv_index":8.05,"wind_gusts":16.6,"aqi":153,"pm10":58.7,"pm2_5":37.5,"mosquito_risk":4,"arthritis_risk":5,"migraine_risk":7,"frizz_risk":1,"updated_at":"2026-03-13T21:16:34.833539+05:30"},{"city":"Dhanbad","state":"Jharkhand","latitude":23.7957,"longitude":86.4304,"temp":27.8,"humidity":36,"rain":0.0,"pressure":980.4,"uv_index":7.95,"wind_gusts":26.3,"aqi":165,"pm10":90.3,"pm2_5":60.5,"mosquito_risk":4,"arthritis_risk":5,"migraine_risk":7,"frizz_risk":0,"updated_at":"2026-03-13T21:16:34.833546+05:30"},{"city":"Bokaro","state":"Jharkhand","latitude":23.6693,"longitude":86.1511,"temp":27.9,"humidity":42,"rain":0.0,"pressure":984.7,"uv_index":7.95,"wind_gusts":26.6,"aqi":150,"pm10":82.7,"pm2_5":56.9,"mosquito_risk":4,"arthritis_risk":5,"migraine_risk":7,"frizz_risk":0,"updated_at":"2026-03-13T21:16:34.833552+05:30"},{"city":"Bhubaneswar","state":"Odisha","latitude":20.2961,"longitude":85.8245,"temp":26.0,"humidity":87,"rain":0.0,"pressure":1004.6,"uv_index":8.4,"wind_gusts":33.5,"aqi":96,"pm10":25.3,"pm2_5":22.4,"mosquito_risk":7,"arthritis_risk":5,"migraine_risk":4,"frizz_risk":1,"updated_at":"2026-03-13T21:16:34.833558+05:30"},{"city":"Cuttack","state":"Odisha","latitude":20.4625,"longitude":85.8828,"temp":26.2,"humidity":85,"rain":0.0,"pressure":1006.3,"uv_index":8.4,"wind_gusts":28.1,"aqi":96,"pm10":25.3,"pm2_5":22.4,"mosquito_risk":7,"arthritis_risk":5,"migraine_risk":4,"frizz_risk":1,"updated_at":"2026-03-13T21:16:34.833564+05:30"},{"city":"Rourkela","state":"Odisha","latitude":22.2604,"longitude":84.8536,"temp":26.2,"humidity":56,"rain":0.0,"pressure":985.2,"uv_index":8.0,"wind_gusts":19.4,"aqi":131,"pm10":58.0,"pm2_5":36.0,"mosquito_risk":4,"arthritis_risk":5,"migraine_risk":7,"frizz_risk":1,"updated_at":"2026-03-13T21:16:34.833570+05:30"},{"city":"Raipur","state":"Chhattisgarh","latitude":21.2514,"longitude":81.6296,"temp":28.7,"humidity":34,"rain":0.0,"pressure":974.6,"uv_index":8.15,"wind_gusts":18.0,"aqi":149,"pm10":50.1,"pm2_5":43.8,"mosquito_risk":4,"arthritis_risk":5,"migraine_risk":7,"frizz_risk":0,"updated_at":"2026-03-13T21:16:34.833576+05:30"},{"city":"Bhilai","state":"Chhattisgarh","latitude":21.1938,"longitude":81.3509,"temp":27.5,"humidity":40,"rain":0.0,"pressure":974.8,"uv_index":8.15,"wind_gusts":14.8,"aqi":132,"pm10":47.3,"pm2_5":41.7,"mosquito_risk":4,"arthritis_risk":5,"migraine_risk":7,"frizz_risk":0,"updated_at":"2026-03-13T21:16:34.833581+05:30"},{"city":"Guwahati","state":"Assam","latitude":26.1158,"longitude":91.7086,"temp":22.4,"humidity":91,"rain":0.0,"pressure":1003.6,"uv_index":6.6,"wind_gusts":29.9,"aqi":151,"pm10":32.8,"pm2_5":26.8,"mosquito_risk":3,"arthritis_risk":5,"migraine_risk":4,"frizz_risk":1,"updated_at":"2026-03-13T21:16:34.833587+05:30"},{"city":"Agartala","state":"Tripura","latitude":23.8315,"longitude":91.2868,"temp":23.2,"humidity":89,"rain":0.0,"pressure":1008.2,"uv_index":7.6,"wind_gusts":32.8,"aqi":122,"pm10":42.5,"pm2_5":38.2,"mosquito_risk":3,"arthritis_risk":0,"migraine_risk":4,"frizz_risk":1,"updated_at":"2026-03-13T21:16:34.833593+05:30"},{"city":"Shillong","state":"Meghalaya","latitude":25.5788,"longitude":91.8933,"temp":13.3,"humidity":88,"rain":0.0,"pressure":856.1,"uv_index":7.0,"wind_gusts":54.7,"aqi":116,"pm10":23.9,"pm2_5":18.5,"mosquito_risk":3,"arthritis_risk":10,"migraine_risk":7,"frizz_risk":0,"updated_at":"2026-03-13T21:16:34.833599+05:30"},{"city":"Imphal","state":"Manipur","latitude":24.817,"longitude":93.9368,"temp":16.5,"humidity":93,"rain":0.0,"pressure":925.1,"uv_index":7.3,"wind_gusts":61.2,"aqi":157,"pm10":72.2,"pm2_5":64.5,"mosquito_risk":3,"arthritis_risk":10,"migraine_risk":7,"frizz_risk":0,"updated_at":"2026-03-13T21:16:34.833605+05:30"},{"city":"Aizawl","state":"Mizoram","latitude":23.7271,"longitude":92.7176,"temp":17.7,"humidity":87,"rain":0.0,"pressure":894.2,"uv_index":7.15,"wind_gusts":76.0,"aqi":144,"pm10":44.9,"pm2_5":41.4,"mosquito_risk":3,"arthritis_risk":10,"migraine_risk":7,"frizz_risk":0,"updated_at":"2026-03-13T21:16:34.833611+05:30"},{"city":"Kohima","state":"Nagaland","latitude":25.6701,"longitude":94.1077,"temp":14.4,"humidity":84,"rain":0.0,"pressure":855.2,"uv_index":6.25,"wind_gusts":82.8,"aqi":134,"pm10":31.5,"pm2_5":28.2,"mosquito_risk":3,"arthritis_risk":10,"migraine_risk":7,"frizz_risk":0,"updated_at":"2026-03-13T21:16:34.833617+05:30"},{"city":"Gangtok","state":"Sikkim","latitude":27.3314,"longitude":88.6138,"temp":14.2,"humidity":95,"rain":0.1,"pressure":836.6,"uv_index":5.15,"wind_gusts":15.8,"aqi":97,"pm10":29.6,"pm2_5":28.4,"mosquito_risk":6,"arthritis_risk":10,"migraine_risk":3,"frizz_risk":0,"updated_at":"2026-03-13T21:16:34.833623+05:30"},{"city":"Siliguri","state":"West Bengal","latitude":26.7271,"longitude":88.3953,"temp":19.4,"humidity":90,"rain":0.0,"pressure":995.2,"uv_index":7.3,"wind_gusts":29.5,"aqi":151,"pm10":45.3,"pm2_5":40.6,"mosquito_risk":3,"arthritis_risk":10,"migraine_risk":7,"frizz_risk":1,"updated_at":"2026-03-13T21:16:38.088096+05:30"},{"city":"Durgapur","state":"West Bengal","latitude":23.5204,"longitude":87.3119,"temp":29.2,"humidity":45,"rain":0.0,"pressure":995.7,"uv_index":7.95,"wind_gusts":26.3,"aqi":161,"pm10":89.2,"pm2_5":66.6,"mosquito_risk":4,"arthritis_risk":5,"migraine_risk":7,"frizz_risk":1,"updated_at":"2026-03-13T21:16:38.088126+05:30"},{"city":"Asansol","state":"West Bengal","latitude":23.6739,"longitude":86.9524,"temp":29.0,"humidity":42,"rain":0.0,"pressure":994.2,"uv_index":7.95,"wind_gusts":23.4,"aqi":162,"pm10":75.4,"pm2_5":45.6,"mosquito_risk":4,"arthritis_risk":5,"migraine_risk":7,"frizz_risk":0,"updated_at":"2026-03-13T21:16:38.088137+05:30"},{"city":"Pondicherry","state":"Puducherry","latitude":11.9139,"longitude":79.8145,"temp":25.3,"humidity":92,"rain":0.0,"pressure":1010.3,"uv_index":9.0,"wind_gusts":27.7,"aqi":59,"pm10":18.9,"pm2_5":14.2,"mosquito_risk":7,"arthritis_risk":0,"migraine_risk":4,"frizz_risk":1,"updated_at":"2026-03-13T21:16:38.088146+05:30"},{"city":"Port Blair","state":"Andaman and Nicobar Islands","latitude":11.6234,"longitude":92.7265,"temp":28.0,"humidity":80,"rain":0.0,"pressure":1009.0,"uv_index":8.95,"wind_gusts":21.6,"aqi":63,"pm10":11.0,"pm2_5":8.5,"mosquito_risk":7,"arthritis_risk":0,"migraine_risk":4,"frizz_risk":1,"updated_at":"2026-03-13T21:16:38.088154+05:30"},{"city":"Haridwar","state":"Uttarakhand","latitude":29.9457,"longitude":78.1642,"temp":21.5,"humidity":68,"rain":0.0,"pressure":975.2,"uv_index":5.6,"wind_gusts":29.5,"aqi":86,"pm10":91.0,"pm2_5":40.3,"mosquito_risk":3,"arthritis_risk":5,"migraine_risk":3,"frizz_risk":0,"updated_at":"2026-03-13T21:16:38.088162+05:30"},{"city":"Rishikesh","state":"Uttarakhand","latitude":30.0869,"longitude":78.2676,"temp":20.3,"humidity":71,"rain":0.0,"pressure":967.9,"uv_index":5.8,"wind_gusts":30.2,"aqi":80,"pm10":37.4,"pm2_5":24.7,"mosquito_risk":3,"arthritis_risk":5,"migraine_risk":3,"frizz_risk":0,"updated_at":"2026-03-13T21:16:38.088171+05:30"},{"city":"Nainital","state":"Uttarakhand","latitude":29.3919,"longitude":79.4542,"temp":17.6,"humidity":38,"rain":0.0,"pressure":806.1,"uv_index":6.55,"wind_gusts":44.3,"aqi":101,"pm10":34.1,"pm2_5":26.8,"mosquito_risk":0,"arthritis_risk":5,"migraine_risk":7,"frizz_risk":0,"updated_at":"2026-03-13T21:16:38.088178+05:30"},{"city":"Mussoorie","state":"Uttarakhand","latitude":30.4599,"longitude":78.0664,"temp":15.7,"humidity":61,"rain":0.0,"pressure":802.4,"uv_index":5.75,"wind_gusts":30.6,"aqi":81,"pm10":51.2,"pm2_5":37.1,"mosquito_risk":3,"arthritis_risk":5,"migraine_risk":3,"frizz_risk":0,"updated_at":"2026-03-13T21:16:38.088186+05:30"},{"city":"Dharamshala","state":"Himachal Pradesh","latitude":32.219,"longitude":76.3234,"temp":18.8,"humidity":47,"rain":0.0,"pressure":869.8,"uv_index":6.0,"wind_gusts":24.8,"aqi":78,"pm10":23.9,"pm2_5":16.4,"mosquito_risk":0,"arthritis_risk":5,"migraine_risk":3,"frizz_risk":0,"updated_at":"2026-03-13T21:16:38.088194+05:30"},{"city":"Dalhousie","state":"Himachal Pradesh","latitude":32.5387,"longitude":75.971,"temp":14.8,"humidity":56,"rain":0.0,"pressure":803.4,"uv_index":6.4,"wind_gusts":31.0,"aqi":73,"pm10":36.1,"pm2_5":28.3,"mosquito_risk":0,"arthritis_risk":5,"migraine_risk":7,"frizz_risk":0,"updated_at":"2026-03-13T21:16:38.088203+05:30"},{"city":"Patiala","state":"Punjab","latitude":30.3398,"longitude":76.3869,"temp":19.6,"humidity":74,"rain":0.0,"pressure":979.8,"uv_index":5.2,"wind_gusts":27.0,"aqi":371,"pm10":542.0,"pm2_5":75.2,"mosquito_risk":3,"arthritis_risk":5,"migraine_risk":3,"frizz_risk":0,"updated_at":"2026-03-13T21:16:38.088211+05:30"},{"city":"Bhatinda","state":"Punjab","latitude":30.211,"longitude":74.9455,"temp":21.8,"humidity":67,"rain":0.0,"pressure":985.7,"uv_index":6.25,"wind_gusts":27.7,"aqi":114,"pm10":47.4,"pm2_5":39.2,"mosquito_risk":3,"arthritis_risk":5,"migraine_risk":7,"frizz_risk":0,"updated_at":"2026-03-13T21:16:38.088219+05:30"},{"city":"Rohtak","state":"Haryana","latitude":28.8955,"longitude":76.6066,"temp":20.8,"humidity":68,"rain":0.0,"pressure":983.6,"uv_index":5.3,"wind_gusts":26.6,"aqi":540,"pm10":987.2,"pm2_5":136.4,"mosquito_risk":3,"arthritis_risk":5,"migraine_risk":3,"frizz_risk":0,"updated_at":"2026-03-13T21:16:38.088226+05:30"},{"city":"Panipat","state":"Haryana","latitude":29.3909,"longitude":76.9635,"temp":19.7,"humidity":74,"rain":0.0,"pressure":982.0,"uv_index":4.9,"wind_gusts":24.8,"aqi":1008,"pm10":1445.4,"pm2_5":177.0,"mosquito_risk":3,"arthritis_risk":5,"migraine_risk":3,"frizz_risk":0,"updated_at":"2026-03-13T21:16:38.088234+05:30"},{"city":"Mathura","state":"Uttar Pradesh","latitude":27.4924,"longitude":77.6737,"temp":22.5,"humidity":48,"rain":0.0,"pressure":988.4,"uv_index":5.65,"wind_gusts":25.6,"aqi":665,"pm10":1069.2,"pm2_5":135.0,"mosquito_risk":0,"arthritis_risk":5,"migraine_risk":3,"frizz_risk":0,"updated_at":"2026-03-13T21:16:38.088241+05:30"},{"city":"Vrindavan","state":"Uttar Pradesh","latitude":27.5823,"longitude":77.7027,"temp":21.1,"humidity":54,"rain":0.0,"pressure":988.8,"uv_index":5.75,"wind_gusts":28.8,"aqi":665,"pm10":1069.2,"pm2_5":135.0,"mosquito_risk":0,"arthritis_risk":5,"migraine_risk":3,"frizz_risk":0,"updated_at":"2026-03-13T21:16:38.088248+05:30"},{"city":"Ayodhya","state":"Uttar Pradesh","latitude":26.7922,"longitude":82.1998,"temp":24.2,"humidity":59,"rain":0.0,"pressure":996.0,"uv_index":6.35,"wind_gusts":30.2,"aqi":156,"pm10":67.1,"pm2_5":42.6,"mosquito_risk":0,"arthritis_risk":5,"migraine_risk":7,"frizz_risk":0,"updated_at":"2026-03-13T21:16:38.088284+05:30"},{"city":"Ratlam","state":"Madhya Pradesh","latitude":23.3315,"longitude":75.0367,"temp":27.7,"humidity":35,"rain":0.0,"pressure":955.3,"uv_index":7.6,"wind_gusts":30.6,"aqi":106,"pm10":26.8,"pm2_5":23.5,"mosquito_risk":4,"arthritis_risk":5,"migraine_risk":7,"frizz_risk":0,"updated_at":"2026-03-13T21:16:38.088293+05:30"},{"city":"Sagar","state":"Madhya Pradesh","latitude":23.8388,"longitude":78.7378,"temp":27.7,"humidity":32,"rain":0.0,"pressure":950.8,"uv_index":7.6,"wind_gusts":29.2,"aqi":109,"pm10":14.1,"pm2_5":13.3,"mosquito_risk":4,"arthritis_risk":5,"migraine_risk":7,"frizz_risk":0,"updated_at":"2026-03-13T21:16:38.088301+05:30"},{"city":"Satna","state":"Madhya Pradesh","latitude":24.6005,"longitude":80.8322,"temp":26.5,"humidity":29,"rain":0.0,"pressure":972.3,"uv_index":7.2,"wind_gusts":29.9,"aqi":95,"pm10":27.9,"pm2_5":14.2,"mosquito_risk":4,"arthritis_risk":5,"migraine_risk":7,"frizz_risk":0,"updated_at":"2026-03-13T21:16:38.088308+05:30"},{"city":"Akola","state":"Maharashtra","latitude":20.7002,"longitude":77.0082,"temp":28.6,"humidity":40,"rain":0.0,"pressure":974.8,"uv_index":8.05,"wind_gusts":24.8,"aqi":162,"pm10":37.5,"pm2_5":33.9,"mosquito_risk":4,"arthritis_risk":5,"migraine_risk":7,"frizz_risk":0,"updated_at":"2026-03-13T21:16:38.088317+05:30"},{"city":"Amravati","state":"Maharashtra","latitude":20.9374,"longitude":77.7796,"temp":29.6,"humidity":32,"rain":0.0,"pressure":967.0,"uv_index":8.0,"wind_gusts":15.1,"aqi":160,"pm10":38.8,"pm2_5":34.0,"mosquito_risk":4,"arthritis_risk":5,"migraine_risk":7,"frizz_risk":0,"updated_at":"2026-03-13T21:16:38.088325+05:30"},{"city":"Latur","state":"Maharashtra","latitude":18.4088,"longitude":76.5604,"temp":26.8,"humidity":50,"rain":0.0,"pressure":939.8,"uv_index":8.5,"wind_gusts":21.2,"aqi":152,"pm10":39.1,"pm2_5":35.5,"mosquito_risk":4,"arthritis_risk":5,"migraine_risk":7,"frizz_risk":0,"updated_at":"2026-03-13T21:16:38.088332+05:30"},{"city":"Nanded","state":"Maharashtra","latitude":19.1383,"longitude":77.3091,"temp":30.6,"humidity":34,"rain":0.0,"pressure":968.2,"uv_index":8.25,"wind_gusts":21.6,"aqi":166,"pm10":59.0,"pm2_5":52.4,"mosquito_risk":0,"arthritis_risk":5,"migraine_risk":7,"frizz_risk":0,"updated_at":"2026-03-13T21:16:38.088340+05:30"},{"city":"Gulbarga","state":"Karnataka","latitude":17.3297,"longitude":76.8343,"temp":30.4,"humidity":37,"rain":0.0,"pressure":958.6,"uv_index":8.6,"wind_gusts":32.0,"aqi":167,"pm10":39.2,"pm2_5":33.4,"mosquito_risk":0,"arthritis_risk":5,"migraine_risk":7,"frizz_risk":0,"updated_at":"2026-03-13T21:16:38.088347+05:30"},{"city":"Bidar","state":"Karnataka","latitude":17.9104,"longitude":77.5199,"temp":27.9,"humidity":35,"rain":0.0,"pressure":935.4,"uv_index":8.55,"wind_gusts":26.6,"aqi":158,"pm10":44.2,"pm2_5":36.0,"mosquito_risk":4,"arthritis_risk":5,"migraine_risk":7,"frizz_risk":0,"updated_at":"2026-03-13T21:16:38.088355+05:30"},{"city":"Hospet","state":"Karnataka","latitude":15.2689,"longitude":76.3909,"temp":30.5,"humidity":44,"rain":0.0,"pressure":955.7,"uv_index":8.9,"wind_gusts":24.1,"aqi":165,"pm10":41.0,"pm2_5":35.4,"mosquito_risk":0,"arthritis_risk":5,"migraine_risk":7,"frizz_risk":1,"updated_at":"2026-03-13T21:16:38.088362+05:30"},{"city":"Tirupur","state":"Tamil Nadu","latitude":11.1085,"longitude":77.3411,"temp":29.1,"humidity":47,"rain":0.0,"pressure":976.1,"uv_index":9.3,"wind_gusts":30.6,"aqi":101,"pm10":41.1,"pm2_5":36.0,"mosquito_risk":4,"arthritis_risk":5,"migraine_risk":7,"frizz_risk":1,"updated_at":"2026-03-13T21:16:38.088370+05:30"},{"city":"Alappuzha","state":"Kerala","latitude":9.4981,"longitude":76.3388,"temp":28.0,"humidity":81,"rain":0.0,"pressure":1010.0,"uv_index":9.1,"wind_gusts":28.1,"aqi":135,"pm10":23.8,"pm2_5":20.5,"mosquito_risk":7,"arthritis_risk":0,"migraine_risk":4,"frizz_risk":1,"updated_at":"2026-03-13T21:16:38.088377+05:30"},{"city":"Munnar","state":"Kerala","latitude":10.0889,"longitude":77.0595,"temp":22.2,"humidity":80,"rain":0.0,"pressure":857.8,"uv_index":9.55,"wind_gusts":24.5,"aqi":73,"pm10":27.9,"pm2_5":25.6,"mosquito_risk":3,"arthritis_risk":5,"migraine_risk":7,"frizz_risk":1,"updated_at":"2026-03-13T21:16:38.088385+05:30"},{"city":"Silchar","state":"Assam","latitude":24.8333,"longitude":92.7789,"temp":21.2,"humidity":93,"rain":0.0,"pressure":1009.0,"uv_index":7.75,"wind_gusts":42.8,"aqi":161,"pm10":46.7,"pm2_5":39.7,"mosquito_risk":3,"arthritis_risk":0,"migraine_risk":4,"frizz_risk":1,"updated_at":"2026-03-13T21:16:38.088392+05:30"},{"city":"Dibrugarh","state":"Assam","latitude":27.4728,"longitude":94.912,"temp":20.9,"humidity":86,"rain":0.0,"pressure":997.3,"uv_index":5.5,"wind_gusts":25.2,"aqi":145,"pm10":52.7,"pm2_5":48.1,"mosquito_risk":3,"arthritis_risk":5,"migraine_risk":3,"frizz_risk":1,"updated_at":"2026-03-13T21:16:38.088400+05:30"}]