[{"city":"Delhi","state":"Delhi","latitude":28.6139,"longitude":77.209,"temp":25.8,"humidity":87,"rain":0.0,"pressure":980.7,"uv_index":7.75,"wind_gusts":50.0,"aqi":238,"pm10":245.9,"pm2_5":76.8,"no2":26.3,"co":556.0,"o3":59.0,"so2":19.7,"mosquito_risk":7,"arthritis_risk":5,"migraine_risk":7,"frizz_risk":1,"updated_at":"2026-06-13T04:49:55.619189+05:30"},{"city":"Mumbai","state":"Maharashtra","latitude":19.076,"longitude":72.8777,"temp":30.3,"humidity":73,"rain":0.0,"pressure":1006.8,"uv_index":6.4,"wind_gusts":49.0,"aqi":84,"pm10":42.7,"pm2_5":19.3,"no2":3.4,"co":116.0,"o3":52.0,"so2":3.4,"mosquito_risk":3,"arthritis_risk":5,"migraine_risk":4,"frizz_risk":1,"updated_at":"2026-06-13T04:49:55.619236+05:30"},{"city":"Bangalore","state":"Karnataka","latitude":12.9716,"longitude":77.5946,"temp":21.4,"humidity":91,"rain":0.0,"pressure":911.6,"uv_index":7.5,"wind_gusts":36.7,"aqi":43,"pm10":11.5,"pm2_5":7.9,"no2":9.7,"co":194.0,"o3":37.0,"so2":5.0,"mosquito_risk":3,"arthritis_risk":5,"migraine_risk":7,"frizz_risk":1,"updated_at":"2026-06-13T04:49:55.619252+05:30"},{"city":"Hyderabad","state":"Telangana","latitude":17.385,"longitude":78.4867,"temp":27.4,"humidity":62,"rain":0.0,"pressure":951.4,"uv_index":8.4,"wind_gusts":38.2,"aqi":77,"pm10":31.9,"pm2_5":23.4,"no2":12.5,"co":172.0,"o3":57.0,"so2":8.0,"mosquito_risk":7,"arthritis_risk":5,"migraine_risk":7,"frizz_risk":1,"updated_at":"2026-06-13T04:49:55.619263+05:30"},{"city":"Chennai","state":"Tamil Nadu","latitude":13.0827,"longitude":80.2707,"temp":28.0,"humidity":75,"rain":0.0,"pressure":1005.9,"uv_index":5.4,"wind_gusts":37.8,"aqi":65,"pm10":17.7,"pm2_5":13.3,"no2":13.5,"co":290.0,"o3":53.0,"so2":9.8,"mosquito_risk":7,"arthritis_risk":5,"migraine_risk":0,"frizz_risk":1,"updated_at":"2026-06-13T04:49:55.619271+05:30"},{"city":"Kolkata","state":"West Bengal","latitude":22.5726,"longitude":88.3639,"temp":27.5,"humidity":93,"rain":0.0,"pressure":1003.5,"uv_index":8.0,"wind_gusts":32.4,"aqi":155,"pm10":71.0,"pm2_5":61.7,"no2":26.3,"co":465.0,"o3":44.0,"so2":8.9,"mosquito_risk":7,"arthritis_risk":5,"migraine_risk":4,"frizz_risk":1,"updated_at":"2026-06-13T04:49:55.619279+05:30"},{"city":"Pune","state":"Maharashtra","latitude":18.5204,"longitude":73.8567,"temp":24.8,"humidity":87,"rain":0.0,"pressure":947.0,"uv_index":7.75,"wind_gusts":49.0,"aqi":69,"pm10":27.2,"pm2_5":15.2,"no2":8.2,"co":106.0,"o3":35.0,"so2":5.7,"mosquito_risk":3,"arthritis_risk":5,"migraine_risk":7,"frizz_risk":1,"updated_at":"2026-06-13T04:49:55.619286+05:30"},{"city":"Ahmedabad","state":"Gujarat","latitude":23.0225,"longitude":72.5714,"temp":29.7,"humidity":68,"rain":0.0,"pressure":999.8,"uv_index":8.05,"wind_gusts":43.2,"aqi":70,"pm10":36.2,"pm2_5":17.7,"no2":4.4,"co":112.0,"o3":47.0,"so2":4.7,"mosquito_risk":7,"arthritis_risk":5,"migraine_risk":7,"frizz_risk":1,"updated_at":"2026-06-13T04:49:55.619293+05:30"},{"city":"Jaipur","state":"Rajasthan","latitude":26.9124,"longitude":75.7873,"temp":26.9,"humidity":68,"rain":0.0,"pressure":956.1,"uv_index":8.2,"wind_gusts":75.6,"aqi":154,"pm10":141.6,"pm2_5":41.6,"no2":4.4,"co":175.0,"o3":78.0,"so2":5.0,"mosquito_risk":7,"arthritis_risk":5,"migraine_risk":7,"frizz_risk":1,"updated_at":"2026-06-13T04:49:55.619305+05:30"},{"city":"Lucknow","state":"Uttar Pradesh","latitude":26.8467,"longitude":80.9462,"temp":26.9,"humidity":79,"rain":0.0,"pressure":991.4,"uv_index":8.3,"wind_gusts":35.6,"aqi":122,"pm10":59.1,"pm2_5":47.3,"no2":25.8,"co":340.0,"o3":44.0,"so2":10.3,"mosquito_risk":7,"arthritis_risk":5,"migraine_risk":7,"frizz_risk":1,"updated_at":"2026-06-13T04:49:55.619338+05:30"},{"city":"Kanpur","state":"Uttar Pradesh","latitude":26.4499,"longitude":80.3319,"temp":29.5,"humidity":66,"rain":0.0,"pressure":989.5,"uv_index":8.3,"wind_gusts":78.1,"aqi":152,"pm10":80.8,"pm2_5":48.1,"no2":20.4,"co":348.0,"o3":57.0,"so2":8.9,"mosquito_risk":7,"arthritis_risk":5,"migraine_risk":7,"frizz_risk":1,"updated_at":"2026-06-13T04:49:55.619350+05:30"},{"city":"Chandigarh","state":"Chandigarh","latitude":30.7333,"longitude":76.7794,"temp":22.3,"humidity":86,"rain":0.0,"pressure":966.6,"uv_index":7.8,"wind_gusts":38.9,"aqi":93,"pm10":54.1,"pm2_5":45.3,"no2":41.5,"co":695.0,"o3":12.0,"so2":4.7,"mosquito_risk":3,"arthritis_risk":5,"migraine_risk":7,"frizz_risk":1,"updated_at":"2026-06-13T04:49:55.619357+05:30"},{"city":"Srinagar","state":"Jammu and Kashmir","latitude":34.0837,"longitude":74.7973,"temp":14.7,"humidity":99,"rain":0.0,"pressure":842.3,"uv_index":9.05,"wind_gusts":28.8,"aqi":82,"pm10":34.0,"pm2_5":31.2,"no2":18.6,"co":405.0,"o3":24.0,"so2":0.0,"mosquito_risk":3,"arthritis_risk":10,"migraine_risk":7,"frizz_risk":0,"updated_at":"2026-06-13T04:49:55.619365+05:30"},{"city":"Jammu","state":"Jammu and Kashmir","latitude":32.7266,"longitude":74.857,"temp":25.3,"humidity":65,"rain":0.0,"pressure":971.1,"uv_index":8.6,"wind_gusts":26.3,"aqi":105,"pm10":34.5,"pm2_5":30.2,"no2":30.1,"co":441.0,"o3":21.0,"so2":2.5,"mosquito_risk":7,"arthritis_risk":5,"migraine_risk":7,"frizz_risk":1,"updated_at":"2026-06-13T04:49:55.619371+05:30"},{"city":"Amritsar","state":"Punjab","latitude":31.634,"longitude":74.8723,"temp":27.4,"humidity":66,"rain":0.0,"pressure":979.0,"uv_index":8.45,"wind_gusts":43.6,"aqi":180,"pm10":199.8,"pm2_5":63.8,"no2":26.0,"co":506.0,"o3":44.0,"so2":8.3,"mosquito_risk":7,"arthritis_risk":5,"migraine_risk":7,"frizz_risk":1,"updated_at":"2026-06-13T04:49:55.619378+05:30"},{"city":"Ludhiana","state":"Punjab","latitude":30.901,"longitude":75.8573,"temp":27.0,"humidity":69,"rain":0.0,"pressure":977.0,"uv_index":8.0,"wind_gusts":33.5,"aqi":549,"pm10":84.5,"pm2_5":32.1,"no2":18.5,"co":649.0,"o3":67.0,"so2":9.7,"mosquito_risk":7,"arthritis_risk":5,"migraine_risk":7,"frizz_risk":1,"updated_at":"2026-06-13T04:49:55.619385+05:30"},{"city":"Jalandhar","state":"Punjab","latitude":31.326,"longitude":75.5762,"temp":26.9,"humidity":67,"rain":0.0,"pressure":978.0,"uv_index":8.25,"wind_gusts":37.8,"aqi":199,"pm10":71.7,"pm2_5":34.0,"no2":22.0,"co":482.0,"o3":54.0,"so2":11.6,"mosquito_risk":7,"arthritis_risk":5,"migraine_risk":7,"frizz_risk":1,"updated_at":"2026-06-13T04:49:55.619392+05:30"},{"city":"Dehradun","state":"Uttarakhand","latitude":30.6284,"longitude":78.0322,"temp":12.9,"humidity":93,"rain":0.0,"pressure":828.2,"uv_index":7.7,"wind_gusts":41.8,"aqi":65,"pm10":26.4,"pm2_5":14.2,"no2":26.8,"co":206.0,"o3":10.0,"so2":0.1,"mosquito_risk":3,"arthritis_risk":10,"migraine_risk":7,"frizz_risk":0,"updated_at":"2026-06-13T04:49:55.619399+05:30"},{"city":"Shimla","state":"Himachal Pradesh","latitude":31.1048,"longitude":77.1734,"temp":10.5,"humidity":81,"rain":0.0,"pressure":780.9,"uv_index":8.35,"wind_gusts":26.3,"aqi":80,"pm10":43.4,"pm2_5":34.2,"no2":15.6,"co":201.0,"o3":56.0,"so2":0.2,"mosquito_risk":3,"arthritis_risk":10,"migraine_risk":7,"frizz_risk":0,"updated_at":"2026-06-13T04:49:55.619412+05:30"},{"city":"Manali","state":"Himachal Pradesh","latitude":32.2396,"longitude":77.1887,"temp":12.1,"humidity":77,"rain":0.1,"pressure":816.3,"uv_index":9.15,"wind_gusts":36.4,"aqi":82,"pm10":1.2,"pm2_5":1.2,"no2":9.1,"co":173.0,"o3":137.0,"so2":0.0,"mosquito_risk":6,"arthritis_risk":5,"migraine_risk":7,"frizz_risk":0,"updated_at":"2026-06-13T04:49:55.619419+05:30"},{"city":"Gurgaon","state":"Haryana","latitude":28.4595,"longitude":77.0266,"temp":26.3,"humidity":81,"rain":0.0,"pressure":978.9,"uv_index":7.85,"wind_gusts":37.1,"aqi":1444,"pm10":663.1,"pm2_5":147.6,"no2":23.9,"co":527.0,"o3":64.0,"so2":18.0,"mosquito_risk":7,"arthritis_risk":5,"migraine_risk":7,"frizz_risk":1,"updated_at":"2026-06-13T04:49:55.619426+05:30"},{"city":"Noida","state":"Uttar Pradesh","latitude":28.5355,"longitude":77.391,"temp":26.0,"humidity":86,"rain":0.0,"pressure":982.3,"uv_index":7.8,"wind_gusts":47.5,"aqi":1444,"pm10":663.1,"pm2_5":147.6,"no2":23.9,"co":425.0,"o3":64.0,"so2":18.0,"mosquito_risk":7,"arthritis_risk":5,"migraine_risk":7,"frizz_risk":1,"updated_at":"2026-06-13T04:49:55.619432+05:30"},{"city":"Ghaziabad","state":"Uttar Pradesh","latitude":28.6692,"longitude":77.4538,"temp":25.8,"humidity":87,"rain":0.0,"pressure":980.6,"uv_index":7.8,"wind_gusts":55.8,"aqi":129,"pm10":121.5,"pm2_5":51.2,"no2":25.2,"co":375.0,"o3":51.0,"so2":9.3,"mosquito_risk":7,"arthritis_risk":5,"migraine_risk":7,"frizz_risk":1,"updated_at":"2026-06-13T04:49:55.619438+05:30"},{"city":"Faridabad","state":"Haryana","latitude":28.4089,"longitude":77.3178,"temp":26.1,"humidity":85,"rain":0.0,"pressure":981.5,"uv_index":7.85,"wind_gusts":48.6,"aqi":1444,"pm10":663.1,"pm2_5":147.6,"no2":23.9,"co":474.0,"o3":64.0,"so2":18.0,"mosquito_risk":7,"arthritis_risk":5,"migraine_risk":7,"frizz_risk":1,"updated_at":"2026-06-13T04:49:55.619457+05:30"},{"city":"Meerut","state":"Uttar Pradesh","latitude":28.9845,"longitude":77.7064,"temp":25.4,"humidity":86,"rain":0.0,"pressure":979.5,"uv_index":7.7,"wind_gusts":38.9,"aqi":129,"pm10":121.5,"pm2_5":51.2,"no2":25.2,"co":421.0,"o3":51.0,"so2":9.3,"mosquito_risk":7,"arthritis_risk":5,"migraine_risk":7,"frizz_risk":1,"updated_at":"2026-06-13T04:49:55.619464+05:30"},{"city":"Agra","state":"Uttar Pradesh","latitude":27.1767,"longitude":78.0081,"temp":27.6,"humidity":73,"rain":0.0,"pressure":985.1,"uv_index":8.1,"wind_gusts":62.3,"aqi":803,"pm10":525.3,"pm2_5":109.4,"no2":20.8,"co":306.0,"o3":61.0,"so2":14.0,"mosquito_risk":7,"arthritis_risk":5,"migraine_risk":7,"frizz_risk":1,"updated_at":"2026-06-13T04:49:55.619470+05:30"},{"city":"Varanasi","state":"Uttar Pradesh","latitude":25.3176,"longitude":82.9739,"temp":28.8,"humidity":78,"rain":0.0,"pressure":995.1,"uv_index":8.8,"wind_gusts":26.6,"aqi":157,"pm10":75.0,"pm2_5":65.2,"no2":20.4,"co":508.0,"o3":68.0,"so2":19.4,"mosquito_risk":7,"arthritis_risk":5,"migraine_risk":7,"frizz_risk":1,"updated_at":"2026-06-13T04:49:55.619477+05:30"},{"city":"Prayagraj","state":"Uttar Pradesh","latitude":25.4358,"longitude":81.8463,"temp":30.4,"humidity":67,"rain":0.0,"pressure":993.6,"uv_index":8.7,"wind_gusts":30.6,"aqi":155,"pm10":99.4,"pm2_5":72.9,"no2":22.7,"co":522.0,"o3":59.0,"so2":15.8,"mosquito_risk":3,"arthritis_risk":5,"migraine_risk":7,"frizz_risk":1,"updated_at":"2026-06-13T04:49:55.619484+05:30"},{"city":"Gorakhpur","state":"Uttar Pradesh","latitude":26.7606,"longitude":83.3732,"temp":26.8,"humidity":85,"rain":0.0,"pressure":995.8,"uv_index":8.65,"wind_gusts":24.1,"aqi":113,"pm10":85.0,"pm2_5":67.3,"no2":23.5,"co":467.0,"o3":58.0,"so2":13.3,"mosquito_risk":7,"arthritis_risk":5,"migraine_risk":7,"frizz_risk":1,"updated_at":"2026-06-13T04:49:55.619492+05:30"},{"city":"Bareilly","state":"Uttar Pradesh","latitude":28.367,"longitude":79.4304,"temp":25.4,"humidity":84,"rain":0.0,"pressure":985.2,"uv_index":8.1,"wind_gusts":47.5,"aqi":114,"pm10":109.0,"pm2_5":60.5,"no2":36.8,"co":536.0,"o3":35.0,"so2":10.1,"mosquito_risk":7,"arthritis_risk":5,"migraine_risk":7,"frizz_risk":1,"updated_at":"2026-06-13T04:49:55.619499+05:30"},{"city":"Aligarh","state":"Uttar Pradesh","latitude":27.8974,"longitude":78.088,"temp":27.1,"humidity":79,"rain":0.0,"pressure":983.4,"uv_index":7.95,"wind_gusts":68.0,"aqi":319,"pm10":244.0,"pm2_5":73.8,"no2":23.3,"co":322.0,"o3":59.0,"so2":16.2,"mosquito_risk":7,"arthritis_risk":5,"migraine_risk":7,"frizz_risk":1,"updated_at":"2026-06-13T04:49:55.619505+05:30"},{"city":"Moradabad","state":"Uttar Pradesh","latitude":28.8386,"longitude":78.7733,"temp":25.3,"humidity":85,"rain":0.0,"pressure":981.8,"uv_index":7.95,"wind_gusts":40.7,"aqi":130,"pm10":125.3,"pm2_5":80.8,"no2":57.7,"co":574.0,"o3":10.0,"so2":11.7,"mosquito_risk":7,"arthritis_risk":5,"migraine_risk":7,"frizz_risk":1,"updated_at":"2026-06-13T04:49:55.619511+05:30"},{"city":"Saharanpur","state":"Uttar Pradesh","latitude":29.9637,"longitude":77.546,"temp":25.0,"humidity":78,"rain":0.0,"pressure":973.8,"uv_index":7.55,"wind_gusts":27.7,"aqi":109,"pm10":59.4,"pm2_5":47.7,"no2":43.6,"co":531.0,"o3":12.0,"so2":7.1,"mosquito_risk":7,"arthritis_risk":5,"migraine_risk":7,"frizz_risk":1,"updated_at":"2026-06-13T04:49:55.619518+05:30"},{"city":"Jhansi","state":"Uttar Pradesh","latitude":25.4484,"longitude":78.5685,"temp":28.8,"humidity":68,"rain":0.0,"pressure":975.0,"uv_index":8.5,"wind_gusts":68.0,"aqi":125,"pm10":131.8,"pm2_5":61.5,"no2":14.5,"co":252.0,"o3":61.0,"so2":7.3,"mosquito_risk":7,"arthritis_risk":5,"migraine_risk":7,"frizz_risk":1,"updated_at":"2026-06-13T04:49:58.991668+05:30"},{"city":"Surat","state":"Gujarat","latitude":21.1702,"longitude":72.8311,"temp":29.7,"humidity":76,"rain":0.0,"pressure":1004.6,"uv_index":7.6,"wind_gusts":53.6,"aqi":81,"pm10":45.9,"pm2_5":23.1,"no2":15.5,"co":268.0,"o3":39.0,"so2":27.1,"mosquito_risk":7,"arthritis_risk":5,"migraine_risk":4,"frizz_risk":1,"updated_at":"2026-06-13T04:49:58.991701+05:30"},{"city":"Vadodara","state":"Gujarat","latitude":22.3072,"longitude":73.1812,"temp":29.1,"humidity":74,"rain":0.0,"pressure":1002.0,"uv_index":8.0,"wind_gusts":51.1,"aqi":75,"pm10":35.4,"pm2_5":17.8,"no2":6.2,"co":116.0,"o3":43.0,"so2":5.2,"mosquito_risk":7,"arthritis_risk":5,"migraine_risk":4,"frizz_risk":1,"updated_at":"2026-06-13T04:49:58.991711+05:30"},{"city":"Rajkot","state":"Gujarat","latitude":22.3039,"longitude":70.8022,"temp":28.4,"humidity":78,"rain":0.0,"pressure":991.5,"uv_index":7.55,"wind_gusts":54.0,"aqi":64,"pm10":43.7,"pm2_5":19.2,"no2":3.4,"co":94.0,"o3":49.0,"so2":3.5,"mosquito_risk":7,"arthritis_risk":5,"migraine_risk":7,"frizz_risk":1,"updated_at":"2026-06-13T04:49:58.991719+05:30"},{"city":"Thane","state":"Maharashtra","latitude":19.2183,"longitude":72.9781,"temp":29.6,"humidity":76,"rain":0.0,"pressure":1006.3,"uv_index":6.3,"wind_gusts":43.2,"aqi":84,"pm10":42.7,"pm2_5":19.3,"no2":3.4,"co":130.0,"o3":52.0,"so2":3.4,"mosquito_risk":7,"arthritis_risk":5,"migraine_risk":4,"frizz_risk":1,"updated_at":"2026-06-13T04:49:58.991728+05:30"},{"city":"Nagpur","state":"Maharashtra","latitude":21.1458,"longitude":79.0882,"temp":29.7,"humidity":57,"rain":0.0,"pressure":970.5,"uv_index":8.65,"wind_gusts":42.5,"aqi":105,"pm10":48.7,"pm2_5":29.8,"no2":12.7,"co":290.0,"o3":72.0,"so2":9.9,"mosquito_risk":4,"arthritis_risk":5,"migraine_risk":7,"frizz_risk":1,"updated_at":"2026-06-13T04:49:58.991736+05:30"},{"city":"Nashik","state":"Maharashtra","latitude":19.9975,"longitude":73.7898,"temp":24.6,"humidity":90,"rain":0.0,"pressure":944.1,"uv_index":8.05,"wind_gusts":48.6,"aqi":77,"pm10":29.7,"pm2_5":15.9,"no2":6.4,"co":117.0,"o3":41.0,"so2":5.8,"mosquito_risk":3,"arthritis_risk":5,"migraine_risk":7,"frizz_risk":1,"updated_at":"2026-06-13T04:49:58.991744+05:30"},{"city":"Aurangabad","state":"Maharashtra","latitude":19.8762,"longitude":75.3433,"temp":25.5,"humidity":81,"rain":0.0,"pressure":942.8,"uv_index":8.95,"wind_gusts":53.6,"aqi":83,"pm10":37.0,"pm2_5":21.1,"no2":11.5,"co":135.0,"o3":34.0,"so2":11.6,"mosquito_risk":7,"arthritis_risk":5,"migraine_risk":7,"frizz_risk":1,"updated_at":"2026-06-13T04:49:58.991751+05:30"},{"city":"Solapur","state":"Maharashtra","latitude":17.6599,"longitude":75.9064,"temp":27.0,"humidity":72,"rain":0.0,"pressure":956.4,"uv_index":8.7,"wind_gusts":53.3,"aqi":64,"pm10":23.4,"pm2_5":13.2,"no2":6.1,"co":135.0,"o3":39.0,"so2":2.4,"mosquito_risk":7,"arthritis_risk":5,"migraine_risk":7,"frizz_risk":1,"updated_at":"2026-06-13T04:49:58.991758+05:30"},{"city":"Kolhapur","state":"Maharashtra","latitude":16.705,"longitude":74.2433,"temp":24.5,"humidity":89,"rain":0.0,"pressure":947.5,"uv_index":7.55,"wind_gusts":49.7,"aqi":60,"pm10":23.2,"pm2_5":12.1,"no2":4.1,"co":115.0,"o3":42.0,"so2":2.4,"mosquito_risk":3,"arthritis_risk":5,"migraine_risk":7,"frizz_risk":1,"updated_at":"2026-06-13T04:49:58.991766+05:30"},{"city":"Goa","state":"Goa","latitude":15.2993,"longitude":74.124,"temp":26.3,"humidity":95,"rain":0.0,"pressure":998.1,"uv_index":6.65,"wind_gusts":28.8,"aqi":69,"pm10":46.1,"pm2_5":22.2,"no2":6.4,"co":191.0,"o3":43.0,"so2":1.9,"mosquito_risk":7,"arthritis_risk":5,"migraine_risk":7,"frizz_risk":1,"updated_at":"2026-06-13T04:49:58.991773+05:30"},{"city":"Jodhpur","state":"Rajasthan","latitude":26.2389,"longitude":73.0243,"temp":31.1,"humidity":59,"rain":0.0,"pressure":978.6,"uv_index":8.4,"wind_gusts":46.1,"aqi":141,"pm10":155.5,"pm2_5":45.8,"no2":4.8,"co":125.0,"o3":59.0,"so2":3.3,"mosquito_risk":0,"arthritis_risk":5,"migraine_risk":7,"frizz_risk":1,"updated_at":"2026-06-13T04:49:58.991780+05:30"},{"city":"Udaipur","state":"Rajasthan","latitude":24.5854,"longitude":73.7125,"temp":27.1,"humidity":72,"rain":0.0,"pressure":944.3,"uv_index":8.85,"wind_gusts":41.0,"aqi":73,"pm10":43.3,"pm2_5":22.8,"no2":6.5,"co":142.0,"o3":51.0,"so2":5.7,"mosquito_risk":7,"arthritis_risk":5,"migraine_risk":7,"frizz_risk":1,"updated_at":"2026-06-13T04:49:58.991787+05:30"},{"city":"Kota","state":"Rajasthan","latitude":25.2138,"longitude":75.8648,"temp":28.3,"humidity":65,"rain":0.0,"pressure":975.5,"uv_index":8.35,"wind_gusts":54.4,"aqi":91,"pm10":33.2,"pm2_5":22.8,"no2":6.3,"co":194.0,"o3":72.0,"so2":5.6,"mosquito_risk":7,"arthritis_risk":5,"migraine_risk":7,"frizz_risk":1,"updated_at":"2026-06-13T04:49:58.991795+05:30"},{"city":"Bikaner","state":"Rajasthan","latitude":28.0229,"longitude":73.3119,"temp":32.2,"humidity":52,"rain":0.0,"pressure":975.8,"uv_index":8.45,"wind_gusts":69.1,"aqi":139,"pm10":149.0,"pm2_5":48.0,"no2":3.0,"co":141.0,"o3":72.0,"so2":2.7,"mosquito_risk":0,"arthritis_risk":5,"migraine_risk":7,"frizz_risk":1,"updated_at":"2026-06-13T04:49:58.991802+05:30"},{"city":"Ajmer","state":"Rajasthan","latitude":26.4499,"longitude":74.6399,"temp":26.7,"humidity":68,"rain":0.0,"pressure":951.2,"uv_index":8.35,"wind_gusts":48.6,"aqi":94,"pm10":31.7,"pm2_5":20.4,"no2":5.1,"co":158.0,"o3":68.0,"so2":3.1,"mosquito_risk":7,"arthritis_risk":5,"migraine_risk":7,"frizz_risk":1,"updated_at":"2026-06-13T04:49:58.991809+05:30"},{"city":"Gwalior","state":"Madhya Pradesh","latitude":26.2183,"longitude":78.1828,"temp":28.2,"humidity":68,"rain":0.0,"pressure":980.2,"uv_index":8.3,"wind_gusts":73.8,"aqi":150,"pm10":307.3,"pm2_5":91.3,"no2":14.0,"co":260.0,"o3":66.0,"so2":8.3,"mosquito_risk":7,"arthritis_risk":5,"migraine_risk":7,"frizz_risk":1,"updated_at":"2026-06-13T04:49:58.991816+05:30"},{"city":"Indore","state":"Madhya Pradesh","latitude":22.7196,"longitude":75.8577,"temp":26.7,"humidity":78,"rain":0.0,"pressure":946.6,"uv_index":8.65,"wind_gusts":48.6,"aqi":79,"pm10":47.6,"pm2_5":25.6,"no2":5.1,"co":123.0,"o3":55.0,"so2":7.4,"mosquito_risk":7,"arthritis_risk":5,"migraine_risk":7,"frizz_risk":1,"updated_at":"2026-06-13T04:49:58.991823+05:30"},{"city":"Bhopal","state":"Madhya Pradesh","latitude":23.2599,"longitude":77.4126,"temp":26.5,"humidity":69,"rain":0.1,"pressure":951.6,"uv_index":8.45,"wind_gusts":45.4,"aqi":97,"pm10":60.5,"pm2_5":31.4,"no2":7.5,"co":250.0,"o3":70.0,"so2":3.1,"mosquito_risk":10,"arthritis_risk":5,"migraine_risk":7,"frizz_risk":1,"updated_at":"2026-06-13T04:49:58.991831+05:30"},{"city":"Jabalpur","state":"Madhya Pradesh","latitude":23.1815,"longitude":79.9864,"temp":25.5,"humidity":90,"rain":0.1,"pressure":958.8,"uv_index":8.35,"wind_gusts":34.6,"aqi":99,"pm10":45.2,"pm2_5":29.1,"no2":9.1,"co":186.0,"o3":74.0,"so2":2.9,"mosquito_risk":10,"arthritis_risk":5,"migraine_risk":7,"frizz_risk":1,"updated_at":"2026-06-13T04:49:58.991838+05:30"},{"city":"Ujjain","state":"Madhya Pradesh","latitude":23.1765,"longitude":75.7885,"temp":26.9,"humidity":80,"rain":0.0,"pressure":952.5,"uv_index":8.6,"wind_gusts":43.6,"aqi":79,"pm10":46.2,"pm2_5":24.0,"no2":4.8,"co":132.0,"o3":54.0,"so2":7.0,"mosquito_risk":7,"arthritis_risk":5,"migraine_risk":7,"frizz_risk":1,"updated_at":"2026-06-13T04:49:58.991846+05:30"},{"city":"Visakhapatnam","state":"Andhra Pradesh","latitude":17.6868,"longitude":83.2185,"temp":26.9,"humidity":97,"rain":0.0,"pressure":1000.8,"uv_index":8.6,"wind_gusts":43.2,"aqi":107,"pm10":66.1,"pm2_5":54.6,"no2":44.2,"co":411.0,"o3":45.0,"so2":68.2,"mosquito_risk":7,"arthritis_risk":5,"migraine_risk":4,"frizz_risk":1,"updated_at":"2026-06-13T04:49:58.991853+05:30"},{"city":"Vijayawada","state":"Andhra Pradesh","latitude":16.5062,"longitude":80.648,"temp":29.3,"humidity":72,"rain":0.0,"pressure":999.9,"uv_index":7.5,"wind_gusts":39.2,"aqi":84,"pm10":22.4,"pm2_5":17.3,"no2":7.1,"co":255.0,"o3":68.0,"so2":4.3,"mosquito_risk":7,"arthritis_risk":5,"migraine_risk":7,"frizz_risk":1,"updated_at":"2026-06-13T04:49:58.991860+05:30"},{"city":"Guntur","state":"Andhra Pradesh","latitude":16.3067,"longitude":80.4365,"temp":28.7,"humidity":66,"rain":0.0,"pressure":1001.1,"uv_index":6.1,"wind_gusts":40.3,"aqi":84,"pm10":21.7,"pm2_5":16.9,"no2":7.5,"co":235.0,"o3":69.0,"so2":4.7,"mosquito_risk":7,"arthritis_risk":5,"migraine_risk":4,"frizz_risk":1,"updated_at":"2026-06-13T04:49:58.991868+05:30"},{"city":"Nellore","state":"Andhra Pradesh","latitude":14.4426,"longitude":79.9865,"temp":28.6,"humidity":72,"rain":0.0,"pressure":1004.1,"uv_index":7.7,"wind_gusts":34.6,"aqi":62,"pm10":13.7,"pm2_5":10.1,"no2":8.1,"co":203.0,"o3":55.0,"so2":2.2,"mosquito_risk":7,"arthritis_risk":5,"migraine_risk":4,"frizz_risk":1,"updated_at":"2026-06-13T04:49:58.991876+05:30"},{"city":"Kurnool","state":"Andhra Pradesh","latitude":15.8281,"longitude":78.0373,"temp":28.0,"humidity":73,"rain":0.0,"pressure":975.7,"uv_index":8.25,"wind_gusts":41.0,"aqi":70,"pm10":29.0,"pm2_5":20.0,"no2":9.6,"co":141.0,"o3":41.0,"so2":3.9,"mosquito_risk":7,"arthritis_risk":5,"migraine_risk":7,"frizz_risk":1,"updated_at":"2026-06-13T04:49:58.991884+05:30"},{"city":"Kakinada","state":"Andhra Pradesh","latitude":16.9891,"longitude":82.2475,"temp":26.0,"humidity":94,"rain":0.0,"pressure":1005.0,"uv_index":8.85,"wind_gusts":45.7,"aqi":82,"pm10":37.5,"pm2_5":26.8,"no2":5.8,"co":320.0,"o3":95.0,"so2":5.7,"mosquito_risk":7,"arthritis_risk":5,"migraine_risk":4,"frizz_risk":1,"updated_at":"2026-06-13T04:49:58.991892+05:30"},{"city":"Tirupati","state":"Andhra Pradesh","latitude":13.6288,"longitude":79.4192,"temp":27.0,"humidity":77,"rain":0.0,"pressure":989.9,"uv_index":5.3,"wind_gusts":51.5,"aqi":56,"pm10":13.2,"pm2_5":11.0,"no2":16.2,"co":165.0,"o3":33.0,"so2":3.3,"mosquito_risk":7,"arthritis_risk":5,"migraine_risk":3,"frizz_risk":1,"updated_at":"2026-06-13T04:49:58.991900+05:30"},{"city":"Warangal","state":"Telangana","latitude":17.9689,"longitude":79.5941,"temp":28.9,"humidity":64,"rain":0.0,"pressure":975.8,"uv_index":8.8,"wind_gusts":42.1,"aqi":100,"pm10":38.6,"pm2_5":29.5,"no2":17.1,"co":285.0,"o3":47.0,"so2":6.0,"mosquito_risk":7,"arthritis_risk":5,"migraine_risk":7,"frizz_risk":1,"updated_at":"2026-06-13T04:49:58.991907+05:30"},{"city":"Nizamabad","state":"Telangana","latitude":18.6725,"longitude":78.0941,"temp":29.6,"humidity":54,"rain":0.0,"pressure":962.6,"uv_index":4.6,"wind_gusts":42.1,"aqi":85,"pm10":46.8,"pm2_5":31.1,"no2":8.0,"co":196.0,"o3":67.0,"so2":6.6,"mosquito_risk":4,"arthritis_risk":5,"migraine_risk":3,"frizz_risk":1,"updated_at":"2026-06-13T04:49:58.991914+05:30"},{"city":"Mysore","state":"Karnataka","latitude":12.2958,"longitude":76.6396,"temp":21.4,"humidity":93,"rain":0.0,"pressure":928.5,"uv_index":7.75,"wind_gusts":38.2,"aqi":32,"pm10":10.3,"pm2_5":6.5,"no2":5.9,"co":142.0,"o3":41.0,"so2":1.9,"mosquito_risk":3,"arthritis_risk":5,"migraine_risk":7,"frizz_risk":1,"updated_at":"2026-06-13T04:49:58.991921+05:30"},{"city":"Mangalore","state":"Karnataka","latitude":12.9141,"longitude":74.856,"temp":23.1,"humidity":98,"rain":0.2,"pressure":1008.1,"uv_index":8.65,"wind_gusts":38.5,"aqi":40,"pm10":13.6,"pm2_5":7.0,"no2":3.9,"co":123.0,"o3":53.0,"so2":2.0,"mosquito_risk":6,"arthritis_risk":0,"migraine_risk":4,"frizz_risk":1,"updated_at":"2026-06-13T04:49:58.991928+05:30"},{"city":"Hubli-Dharwad","state":"Karnataka","latitude":15.3647,"longitude":75.124,"temp":23.6,"humidity":93,"rain":0.0,"pressure":940.5,"uv_index":7.45,"wind_gusts":46.8,"aqi":42,"pm10":11.8,"pm2_5":6.6,"no2":4.3,"co":112.0,"o3":36.0,"so2":1.6,"mosquito_risk":3,"arthritis_risk":5,"migraine_risk":7,"frizz_risk":1,"updated_at":"2026-06-13T04:49:58.991935+05:30"},{"city":"Belgaum","state":"Karnataka","latitude":15.8497,"longitude":74.4977,"temp":22.3,"humidity":98,"rain":0.0,"pressure":925.0,"uv_index":5.95,"wind_gusts":44.6,"aqi":55,"pm10":12.3,"pm2_5":6.1,"no2":2.5,"co":108.0,"o3":46.0,"so2":1.5,"mosquito_risk":3,"arthritis_risk":5,"migraine_risk":3,"frizz_risk":1,"updated_at":"2026-06-13T04:50:06.485697+05:30"},{"city":"Coimbatore","state":"Tamil Nadu","latitude":11.0168,"longitude":76.9558,"temp":22.8,"humidity":94,"rain":0.0,"pressure":962.3,"uv_index":8.15,"wind_gusts":47.2,"aqi":39,"pm10":17.8,"pm2_5":9.0,"no2":5.5,"co":119.0,"o3":41.0,"so2":2.6,"mosquito_risk":3,"arthritis_risk":5,"migraine_risk":7,"frizz_risk":1,"updated_at":"2026-06-13T04:50:06.485730+05:30"},{"city":"Madurai","state":"Tamil Nadu","latitude":9.9252,"longitude":78.1198,"temp":28.8,"humidity":57,"rain":0.0,"pressure":993.5,"uv_index":8.7,"wind_gusts":55.4,"aqi":52,"pm10":34.5,"pm2_5":29.0,"no2":44.1,"co":251.0,"o3":0.0,"so2":8.4,"mosquito_risk":4,"arthritis_risk":5,"migraine_risk":7,"frizz_risk":1,"updated_at":"2026-06-13T04:50:06.485741+05:30"},{"city":"Trichy","state":"Tamil Nadu","latitude":10.7905,"longitude":78.7047,"temp":28.8,"humidity":62,"rain":0.0,"pressure":1000.1,"uv_index":7.85,"wind_gusts":53.3,"aqi":41,"pm10":21.1,"pm2_5":13.6,"no2":13.0,"co":122.0,"o3":32.0,"so2":4.2,"mosquito_risk":7,"arthritis_risk":5,"migraine_risk":4,"frizz_risk":1,"updated_at":"2026-06-13T04:50:06.485750+05:30"},{"city":"Salem","state":"Tamil Nadu","latitude":11.6643,"longitude":78.146,"temp":26.0,"humidity":79,"rain":0.0,"pressure":977.9,"uv_index":7.5,"wind_gusts":33.5,"aqi":57,"pm10":28.7,"pm2_5":20.0,"no2":22.6,"co":236.0,"o3":25.0,"so2":9.0,"mosquito_risk":7,"arthritis_risk":5,"migraine_risk":7,"frizz_risk":1,"updated_at":"2026-06-13T04:50:06.485759+05:30"},{"city":"Tirunelveli","state":"Tamil Nadu","latitude":8.7139,"longitude":77.7567,"temp":25.4,"humidity":92,"rain":0.0,"pressure":1004.5,"uv_index":8.55,"wind_gusts":46.4,"aqi":20,"pm10":5.8,"pm2_5":4.4,"no2":6.8,"co":139.0,"o3":37.0,"so2":2.7,"mosquito_risk":7,"arthritis_risk":5,"migraine_risk":4,"frizz_risk":1,"updated_at":"2026-06-13T04:50:06.485767+05:30"},{"city":"Vellore","state":"Tamil Nadu","latitude":12.9165,"longitude":79.1325,"temp":27.3,"humidity":74,"rain":0.0,"pressure":983.8,"uv_index":7.75,"wind_gusts":54.0,"aqi":55,"pm10":12.5,"pm2_5":10.0,"no2":12.2,"co":205.0,"o3":39.0,"so2":4.1,"mosquito_risk":7,"arthritis_risk":5,"migraine_risk":7,"frizz_risk":1,"updated_at":"2026-06-13T04:50:06.485775+05:30"},{"city":"Erode","state":"Tamil Nadu","latitude":11.341,"longitude":77.7172,"temp":25.5,"humidity":82,"rain":0.0,"pressure":989.6,"uv_index":8.25,"wind_gusts":41.0,"aqi":52,"pm10":31.4,"pm2_5":19.9,"no2":17.4,"co":137.0,"o3":30.0,"so2":3.8,"mosquito_risk":7,"arthritis_risk":5,"migraine_risk":7,"frizz_risk":1,"updated_at":"2026-06-13T04:50:06.485783+05:30"},{"city":"Kochi","state":"Kerala","latitude":9.9312,"longitude":76.2673,"temp":24.5,"humidity":96,"rain":0.3,"pressure":1010.9,"uv_index":7.7,"wind_gusts":32.8,"aqi":60,"pm10":21.9,"pm2_5":15.7,"no2":15.7,"co":116.0,"o3":21.0,"so2":3.5,"mosquito_risk":6,"arthritis_risk":0,"migraine_risk":4,"frizz_risk":1,"updated_at":"2026-06-13T04:50:06.485790+05:30"},{"city":"Thiruvananthapuram","state":"Kerala","latitude":8.5241,"longitude":76.9366,"temp":24.5,"humidity":96,"rain":0.1,"pressure":1010.5,"uv_index":7.4,"wind_gusts":38.9,"aqi":27,"pm10":11.7,"pm2_5":5.3,"no2":1.6,"co":92.0,"o3":54.0,"so2":0.6,"mosquito_risk":6,"arthritis_risk":0,"migraine_risk":4,"frizz_risk":1,"updated_at":"2026-06-13T04:50:06.485798+05:30"},{"city":"Kozhikode","state":"Kerala","latitude":11.2588,"longitude":75.7804,"temp":23.2,"humidity":99,"rain":0.1,"pressure":1009.9,"uv_index":5.95,"wind_gusts":26.6,"aqi":33,"pm10":22.8,"pm2_5":8.9,"no2":1.3,"co":143.0,"o3":66.0,"so2":0.9,"mosquito_risk":6,"arthritis_risk":0,"migraine_risk":0,"frizz_risk":1,"updated_at":"2026-06-13T04:50:06.485805+05:30"},{"city":"Thrissur","state":"Kerala","latitude":10.5276,"longitude":76.2144,"temp":23.7,"humidity":98,"rain":0.1,"pressure":1009.1,"uv_index":7.45,"wind_gusts":28.4,"aqi":61,"pm10":24.8,"pm2_5":17.3,"no2":15.9,"co":167.0,"o3":18.0,"so2":4.0,"mosquito_risk":6,"arthritis_risk":0,"migraine_risk":4,"frizz_risk":1,"updated_at":"2026-06-13T04:50:06.485813+05:30"},{"city":"Kannur","state":"Kerala","latitude":11.8745,"longitude":75.3704,"temp":23.6,"humidity":99,"rain":0.3,"pressure":1009.0,"uv_index":7.45,"wind_gusts":31.0,"aqi":39,"pm10":13.7,"pm2_5":6.6,"no2":4.4,"co":148.0,"o3":48.0,"so2":1.3,"mosquito_risk":6,"arthritis_risk":0,"migraine_risk":4,"frizz_risk":1,"updated_at":"2026-06-13T04:50:06.485819+05:30"},{"city":"Patna","state":"Bihar","latitude":25.5941,"longitude":85.1376,"temp":26.6,"humidity":88,"rain":0.0,"pressure":998.3,"uv_index":8.6,"wind_gusts":20.9,"aqi":157,"pm10":85.9,"pm2_5":69.2,"no2":15.0,"co":438.0,"o3":78.0,"so2":14.3,"mosquito_risk":7,"arthritis_risk":5,"migraine_risk":7,"frizz_risk":1,"updated_at":"2026-06-13T04:50:06.485826+05:30"},{"city":"Gaya","state":"Bihar","latitude":24.7914,"longitude":85.0002,"temp":27.5,"humidity":81,"rain":0.0,"pressure":991.3,"uv_index":8.95,"wind_gusts":22.0,"aqi":158,"pm10":99.0,"pm2_5":92.2,"no2":38.7,"co":399.0,"o3":23.0,"so2":19.1,"mosquito_risk":7,"arthritis_risk":5,"migraine_risk":7,"frizz_risk":1,"updated_at":"2026-06-13T04:50:06.485834+05:30"},{"city":"Muzaffarpur","state":"Bihar","latitude":26.1209,"longitude":85.3647,"temp":26.6,"humidity":91,"rain":0.0,"pressure":998.6,"uv_index":8.6,"wind_gusts":22.0,"aqi":156,"pm10":84.5,"pm2_5":66.1,"no2":14.0,"co":484.0,"o3":80.0,"so2":10.9,"mosquito_risk":7,"arthritis_risk":5,"migraine_risk":7,"frizz_risk":1,"updated_at":"2026-06-13T04:50:06.485841+05:30"},{"city":"Bhagalpur","state":"Bihar","latitude":25.2425,"longitude":87.0117,"temp":24.7,"humidity":94,"rain":0.0,"pressure":999.9,"uv_index":7.8,"wind_gusts":37.1,"aqi":159,"pm10":90.1,"pm2_5":79.4,"no2":20.0,"co":350.0,"o3":53.0,"so2":11.8,"mosquito_risk":3,"arthritis_risk":5,"migraine_risk":7,"frizz_risk":1,"updated_at":"2026-06-13T04:50:06.485847+05:30"},{"city":"Ranchi","state":"Jharkhand","latitude":23.3441,"longitude":85.3096,"temp":24.6,"humidity":80,"rain":0.0,"pressure":935.6,"uv_index":9.3,"wind_gusts":34.2,"aqi":151,"pm10":62.4,"pm2_5":51.3,"no2":10.6,"co":305.0,"o3":75.0,"so2":17.3,"mosquito_risk":3,"arthritis_risk":5,"migraine_risk":7,"frizz_risk":1,"updated_at":"2026-06-13T04:50:06.485854+05:30"},{"city":"Jamshedpur","state":"Jharkhand","latitude":22.8046,"longitude":86.2029,"temp":26.8,"humidity":92,"rain":0.0,"pressure":988.4,"uv_index":9.1,"wind_gusts":27.0,"aqi":160,"pm10":90.3,"pm2_5":80.3,"no2":39.3,"co":610.0,"o3":22.0,"so2":22.5,"mosquito_risk":7,"arthritis_risk":5,"migraine_risk":7,"frizz_risk":1,"updated_at":"2026-06-13T04:50:06.485861+05:30"},{"city":"Dhanbad","state":"Jharkhand","latitude":23.7957,"longitude":86.4304,"temp":26.1,"humidity":90,"rain":0.0,"pressure":977.6,"uv_index":9.05,"wind_gusts":29.9,"aqi":172,"pm10":137.8,"pm2_5":128.1,"no2":66.9,"co":1182.0,"o3":20.0,"so2":212.5,"mosquito_risk":7,"arthritis_risk":5,"migraine_risk":7,"frizz_risk":1,"updated_at":"2026-06-13T04:50:06.485868+05:30"},{"city":"Bokaro","state":"Jharkhand","latitude":23.6693,"longitude":86.1511,"temp":26.4,"humidity":93,"rain":0.0,"pressure":981.4,"uv_index":9.1,"wind_gusts":25.6,"aqi":172,"pm10":131.3,"pm2_5":115.3,"no2":50.9,"co":777.0,"o3":39.0,"so2":169.8,"mosquito_risk":7,"arthritis_risk":5,"migraine_risk":7,"frizz_risk":1,"updated_at":"2026-06-13T04:50:06.485875+05:30"},{"city":"Bhubaneswar","state":"Odisha","latitude":20.2961,"longitude":85.8245,"temp":26.3,"humidity":94,"rain":0.0,"pressure":1000.1,"uv_index":9.05,"wind_gusts":42.8,"aqi":131,"pm10":70.8,"pm2_5":60.1,"no2":32.0,"co":367.0,"o3":38.0,"so2":8.1,"mosquito_risk":7,"arthritis_risk":5,"migraine_risk":4,"frizz_risk":1,"updated_at":"2026-06-13T04:50:06.485883+05:30"},{"city":"Cuttack","state":"Odisha","latitude":20.4625,"longitude":85.8828,"temp":27.1,"humidity":91,"rain":0.0,"pressure":1001.9,"uv_index":9.15,"wind_gusts":37.8,"aqi":131,"pm10":70.8,"pm2_5":60.1,"no2":32.0,"co":525.0,"o3":38.0,"so2":8.1,"mosquito_risk":7,"arthritis_risk":5,"migraine_risk":4,"frizz_risk":1,"updated_at":"2026-06-13T04:50:06.485890+05:30"},{"city":"Rourkela","state":"Odisha","latitude":22.2604,"longitude":84.8536,"temp":27.6,"humidity":85,"rain":0.0,"pressure":982.9,"uv_index":9.05,"wind_gusts":29.5,"aqi":153,"pm10":74.5,"pm2_5":63.3,"no2":28.1,"co":564.0,"o3":42.0,"so2":14.8,"mosquito_risk":7,"arthritis_risk":5,"migraine_risk":7,"frizz_risk":1,"updated_at":"2026-06-13T04:50:06.485897+05:30"},{"city":"Raipur","state":"Chhattisgarh","latitude":21.2514,"longitude":81.6296,"temp":29.1,"humidity":61,"rain":0.0,"pressure":972.0,"uv_index":9.0,"wind_gusts":41.0,"aqi":116,"pm10":55.4,"pm2_5":45.9,"no2":47.4,"co":539.0,"o3":33.0,"so2":52.0,"mosquito_risk":7,"arthritis_risk":5,"migraine_risk":7,"frizz_risk":1,"updated_at":"2026-06-13T04:50:06.485904+05:30"},{"city":"Bhilai","state":"Chhattisgarh","latitude":21.1938,"longitude":81.3509,"temp":29.7,"humidity":58,"rain":0.0,"pressure":972.5,"uv_index":9.0,"wind_gusts":43.6,"aqi":110,"pm10":49.6,"pm2_5":40.0,"no2":46.3,"co":821.0,"o3":48.0,"so2":61.4,"mosquito_risk":4,"arthritis_risk":5,"migraine_risk":7,"frizz_risk":1,"updated_at":"2026-06-13T04:50:06.485910+05:30"},{"city":"Guwahati","state":"Assam","latitude":26.1158,"longitude":91.7086,"temp":25.0,"humidity":95,"rain":0.0,"pressure":999.9,"uv_index":7.6,"wind_gusts":31.7,"aqi":93,"pm10":27.0,"pm2_5":20.3,"no2":11.1,"co":421.0,"o3":36.0,"so2":0.9,"mosquito_risk":7,"arthritis_risk":5,"migraine_risk":7,"frizz_risk":1,"updated_at":"2026-06-13T04:50:06.485917+05:30"},{"city":"Agartala","state":"Tripura","latitude":23.8315,"longitude":91.2868,"temp":24.5,"humidity":98,"rain":0.1,"pressure":1005.0,"uv_index":3.6,"wind_gusts":27.4,"aqi":100,"pm10":38.6,"pm2_5":34.0,"no2":18.3,"co":226.0,"o3":40.0,"so2":3.1,"mosquito_risk":6,"arthritis_risk":5,"migraine_risk":0,"frizz_risk":1,"updated_at":"2026-06-13T04:50:06.485924+05:30"},{"city":"Shillong","state":"Meghalaya","latitude":25.5788,"longitude":91.8933,"temp":19.3,"humidity":97,"rain":0.0,"pressure":856.3,"uv_index":5.7,"wind_gusts":20.5,"aqi":81,"pm10":27.9,"pm2_5":20.7,"no2":5.5,"co":298.0,"o3":66.0,"so2":1.5,"mosquito_risk":3,"arthritis_risk":10,"migraine_risk":3,"frizz_risk":1,"updated_at":"2026-06-13T04:50:06.485931+05:30"},{"city":"Imphal","state":"Manipur","latitude":24.817,"longitude":93.9368,"temp":22.2,"humidity":96,"rain":0.7,"pressure":921.5,"uv_index":5.25,"wind_gusts":27.0,"aqi":43,"pm10":5.2,"pm2_5":5.1,"no2":7.1,"co":339.0,"o3":41.0,"so2":0.8,"mosquito_risk":6,"arthritis_risk":5,"migraine_risk":3,"frizz_risk":1,"updated_at":"2026-06-13T04:50:06.485938+05:30"},{"city":"Aizawl","state":"Mizoram","latitude":23.7271,"longitude":92.7176,"temp":19.1,"humidity":98,"rain":0.6,"pressure":891.1,"uv_index":3.95,"wind_gusts":24.8,"aqi":56,"pm10":3.9,"pm2_5":3.6,"no2":2.9,"co":167.0,"o3":63.0,"so2":1.0,"mosquito_risk":6,"arthritis_risk":10,"migraine_risk":3,"frizz_risk":1,"updated_at":"2026-06-13T04:50:06.485945+05:30"},{"city":"Kohima","state":"Nagaland","latitude":25.6701,"longitude":94.1077,"temp":19.1,"humidity":98,"rain":0.5,"pressure":854.0,"uv_index":2.7,"wind_gusts":19.8,"aqi":45,"pm10":1.6,"pm2_5":1.6,"no2":4.1,"co":228.0,"o3":44.0,"so2":0.5,"mosquito_risk":6,"arthritis_risk":10,"migraine_risk":3,"frizz_risk":1,"updated_at":"2026-06-13T04:50:06.485952+05:30"},{"city":"Gangtok","state":"Sikkim","latitude":27.3314,"longitude":88.6138,"temp":14.8,"humidity":81,"rain":0.0,"pressure":835.7,"uv_index":9.2,"wind_gusts":37.1,"aqi":61,"pm10":30.5,"pm2_5":22.2,"no2":15.5,"co":586.0,"o3":65.0,"so2":1.5,"mosquito_risk":3,"arthritis_risk":10,"migraine_risk":7,"frizz_risk":0,"updated_at":"2026-06-13T04:50:06.485959+05:30"},{"city":"Siliguri","state":"West Bengal","latitude":26.7271,"longitude":88.3953,"temp":24.3,"humidity":95,"rain":0.0,"pressure":991.8,"uv_index":8.75,"wind_gusts":18.4,"aqi":123,"pm10":104.8,"pm2_5":75.7,"no2":30.2,"co":722.0,"o3":54.0,"so2":6.9,"mosquito_risk":3,"arthritis_risk":5,"migraine_risk":7,"frizz_risk":1,"updated_at":"2026-06-13T04:50:09.843975+05:30"},{"city":"Durgapur","state":"West Bengal","latitude":23.5204,"longitude":87.3119,"temp":25.8,"humidity":95,"rain":0.0,"pressure":992.7,"uv_index":9.0,"wind_gusts":31.7,"aqi":168,"pm10":72.9,"pm2_5":68.9,"no2":39.8,"co":896.0,"o3":33.0,"so2":48.9,"mosquito_risk":7,"arthritis_risk":5,"migraine_risk":7,"frizz_risk":1,"updated_at":"2026-06-13T04:50:09.844006+05:30"},{"city":"Asansol","state":"West Bengal","latitude":23.6739,"longitude":86.9524,"temp":25.8,"humidity":95,"rain":0.0,"pressure":991.3,"uv_index":8.9,"wind_gusts":32.0,"aqi":163,"pm10":72.4,"pm2_5":67.3,"no2":38.8,"co":566.0,"o3":34.0,"so2":48.3,"mosquito_risk":7,"arthritis_risk":5,"migraine_risk":7,"frizz_risk":1,"updated_at":"2026-06-13T04:50:09.844017+05:30"},{"city":"Pondicherry","state":"Puducherry","latitude":11.9139,"longitude":79.8145,"temp":27.0,"humidity":85,"rain":0.0,"pressure":1008.1,"uv_index":8.3,"wind_gusts":30.2,"aqi":60,"pm10":15.5,"pm2_5":12.2,"no2":18.3,"co":235.0,"o3":38.0,"so2":18.7,"mosquito_risk":7,"arthritis_risk":0,"migraine_risk":4,"frizz_risk":1,"updated_at":"2026-06-13T04:50:09.844027+05:30"},{"city":"Port Blair","state":"Andaman and Nicobar Islands","latitude":11.6234,"longitude":92.7265,"temp":26.3,"humidity":90,"rain":0.0,"pressure":1008.8,"uv_index":8.65,"wind_gusts":41.0,"aqi":21,"pm10":7.4,"pm2_5":4.2,"no2":0.3,"co":89.0,"o3":42.0,"so2":0.3,"mosquito_risk":7,"arthritis_risk":0,"migraine_risk":4,"frizz_risk":1,"updated_at":"2026-06-13T04:50:09.844035+05:30"},{"city":"Haridwar","state":"Uttarakhand","latitude":29.9457,"longitude":78.1642,"temp":22.6,"humidity":89,"rain":0.0,"pressure":972.0,"uv_index":7.6,"wind_gusts":28.1,"aqi":93,"pm10":55.6,"pm2_5":45.5,"no2":43.8,"co":297.0,"o3":10.0,"so2":5.3,"mosquito_risk":3,"arthritis_risk":5,"migraine_risk":7,"frizz_risk":1,"updated_at":"2026-06-13T04:50:09.844043+05:30"},{"city":"Rishikesh","state":"Uttarakhand","latitude":30.0869,"longitude":78.2676,"temp":21.4,"humidity":85,"rain":0.0,"pressure":964.6,"uv_index":7.7,"wind_gusts":27.0,"aqi":70,"pm10":39.8,"pm2_5":21.1,"no2":15.8,"co":394.0,"o3":63.0,"so2":2.1,"mosquito_risk":3,"arthritis_risk":5,"migraine_risk":7,"frizz_risk":1,"updated_at":"2026-06-13T04:50:09.844051+05:30"},{"city":"Nainital","state":"Uttarakhand","latitude":29.3919,"longitude":79.4542,"temp":11.3,"humidity":92,"rain":0.0,"pressure":802.4,"uv_index":8.05,"wind_gusts":34.6,"aqi":83,"pm10":44.5,"pm2_5":30.9,"no2":33.7,"co":266.0,"o3":16.0,"so2":2.0,"mosquito_risk":3,"arthritis_risk":10,"migraine_risk":7,"frizz_risk":0,"updated_at":"2026-06-13T04:50:09.844058+05:30"},{"city":"Mussoorie","state":"Uttarakhand","latitude":30.4599,"longitude":78.0664,"temp":11.6,"humidity":94,"rain":0.0,"pressure":799.9,"uv_index":8.1,"wind_gusts":49.0,"aqi":80,"pm10":53.8,"pm2_5":32.1,"no2":43.7,"co":211.0,"o3":16.0,"so2":5.1,"mosquito_risk":3,"arthritis_risk":10,"migraine_risk":7,"frizz_risk":0,"updated_at":"2026-06-13T04:50:09.844066+05:30"},{"city":"Dharamshala","state":"Himachal Pradesh","latitude":32.219,"longitude":76.3234,"temp":19.9,"humidity":69,"rain":0.0,"pressure":868.5,"uv_index":8.45,"wind_gusts":38.9,"aqi":57,"pm10":7.5,"pm2_5":6.3,"no2":10.0,"co":238.0,"o3":61.0,"so2":0.0,"mosquito_risk":3,"arthritis_risk":5,"migraine_risk":7,"frizz_risk":0,"updated_at":"2026-06-13T04:50:09.844073+05:30"},{"city":"Dalhousie","state":"Himachal Pradesh","latitude":32.5387,"longitude":75.971,"temp":11.5,"humidity":88,"rain":0.0,"pressure":801.6,"uv_index":8.7,"wind_gusts":31.3,"aqi":96,"pm10":41.2,"pm2_5":37.4,"no2":35.3,"co":270.0,"o3":4.0,"so2":0.0,"mosquito_risk":3,"arthritis_risk":10,"migraine_risk":7,"frizz_risk":0,"updated_at":"2026-06-13T04:50:09.844082+05:30"},{"city":"Patiala","state":"Punjab","latitude":30.3398,"longitude":76.3869,"temp":26.5,"humidity":73,"rain":0.0,"pressure":976.4,"uv_index":7.7,"wind_gusts":34.2,"aqi":1706,"pm10":493.6,"pm2_5":77.5,"no2":10.8,"co":458.0,"o3":79.0,"so2":8.2,"mosquito_risk":7,"arthritis_risk":5,"migraine_risk":7,"frizz_risk":1,"updated_at":"2026-06-13T04:50:09.844089+05:30"},{"city":"Bhatinda","state":"Punjab","latitude":30.211,"longitude":74.9455,"temp":28.1,"humidity":68,"rain":0.0,"pressure":980.8,"uv_index":8.35,"wind_gusts":63.0,"aqi":1631,"pm10":784.2,"pm2_5":203.5,"no2":11.9,"co":312.0,"o3":81.0,"so2":12.0,"mosquito_risk":7,"arthritis_risk":5,"migraine_risk":7,"frizz_risk":1,"updated_at":"2026-06-13T04:50:09.844096+05:30"},{"city":"Rohtak","state":"Haryana","latitude":28.8955,"longitude":76.6066,"temp":26.3,"humidity":82,"rain":0.0,"pressure":979.3,"uv_index":7.8,"wind_gusts":45.4,"aqi":995,"pm10":773.0,"pm2_5":153.7,"no2":23.6,"co":463.0,"o3":65.0,"so2":21.6,"mosquito_risk":7,"arthritis_risk":5,"migraine_risk":7,"frizz_risk":1,"updated_at":"2026-06-13T04:50:09.844103+05:30"},{"city":"Panipat","state":"Haryana","latitude":29.3909,"longitude":76.9635,"temp":25.8,"humidity":82,"rain":0.0,"pressure":978.3,"uv_index":7.65,"wind_gusts":31.7,"aqi":1729,"pm10":1296.4,"pm2_5":194.2,"no2":21.9,"co":430.0,"o3":56.0,"so2":12.6,"mosquito_risk":7,"arthritis_risk":5,"migraine_risk":7,"frizz_risk":1,"updated_at":"2026-06-13T04:50:09.844109+05:30"},{"city":"Mathura","state":"Uttar Pradesh","latitude":27.4924,"longitude":77.6737,"temp":27.2,"humidity":76,"rain":0.0,"pressure":984.3,"uv_index":8.05,"wind_gusts":56.9,"aqi":834,"pm10":318.5,"pm2_5":92.7,"no2":21.7,"co":288.0,"o3":59.0,"so2":11.6,"mosquito_risk":7,"arthritis_risk":5,"migraine_risk":7,"frizz_risk":1,"updated_at":"2026-06-13T04:50:09.844116+05:30"},{"city":"Vrindavan","state":"Uttar Pradesh","latitude":27.5823,"longitude":77.7027,"temp":27.2,"humidity":76,"rain":0.0,"pressure":984.7,"uv_index":8.05,"wind_gusts":58.0,"aqi":834,"pm10":318.5,"pm2_5":92.7,"no2":21.7,"co":287.0,"o3":59.0,"so2":11.6,"mosquito_risk":7,"arthritis_risk":5,"migraine_risk":7,"frizz_risk":1,"updated_at":"2026-06-13T04:50:09.844123+05:30"},{"city":"Ayodhya","state":"Uttar Pradesh","latitude":26.7922,"longitude":82.1998,"temp":27.0,"humidity":85,"rain":0.0,"pressure":993.6,"uv_index":8.4,"wind_gusts":22.7,"aqi":112,"pm10":60.3,"pm2_5":49.6,"no2":21.6,"co":421.0,"o3":58.0,"so2":11.7,"mosquito_risk":7,"arthritis_risk":5,"migraine_risk":7,"frizz_risk":1,"updated_at":"2026-06-13T04:50:09.844130+05:30"},{"city":"Ratlam","state":"Madhya Pradesh","latitude":23.3315,"longitude":75.0367,"temp":27.0,"humidity":80,"rain":0.0,"pressure":953.2,"uv_index":8.5,"wind_gusts":45.7,"aqi":78,"pm10":41.1,"pm2_5":21.0,"no2":5.7,"co":130.0,"o3":43.0,"so2":8.4,"mosquito_risk":7,"arthritis_risk":5,"migraine_risk":7,"frizz_risk":1,"updated_at":"2026-06-13T04:50:09.844137+05:30"},{"city":"Sagar","state":"Madhya Pradesh","latitude":23.8388,"longitude":78.7378,"temp":26.3,"humidity":71,"rain":0.0,"pressure":947.8,"uv_index":8.75,"wind_gusts":52.9,"aqi":96,"pm10":51.3,"pm2_5":30.5,"no2":9.3,"co":157.0,"o3":62.0,"so2":3.3,"mosquito_risk":7,"arthritis_risk":5,"migraine_risk":7,"frizz_risk":1,"updated_at":"2026-06-13T04:50:09.844144+05:30"},{"city":"Satna","state":"Madhya Pradesh","latitude":24.6005,"longitude":80.8322,"temp":27.1,"humidity":80,"rain":0.0,"pressure":969.0,"uv_index":8.45,"wind_gusts":56.5,"aqi":108,"pm10":64.3,"pm2_5":38.3,"no2":17.8,"co":255.0,"o3":39.0,"so2":5.4,"mosquito_risk":7,"arthritis_risk":5,"migraine_risk":7,"frizz_risk":1,"updated_at":"2026-06-13T04:50:09.844151+05:30"},{"city":"Akola","state":"Maharashtra","latitude":20.7002,"longitude":77.0082,"temp":30.6,"humidity":56,"rain":0.0,"pressure":973.4,"uv_index":8.8,"wind_gusts":48.6,"aqi":80,"pm10":46.9,"pm2_5":26.2,"no2":6.5,"co":123.0,"o3":51.0,"so2":7.1,"mosquito_risk":0,"arthritis_risk":5,"migraine_risk":7,"frizz_risk":1,"updated_at":"2026-06-13T04:50:09.844159+05:30"},{"city":"Amravati","state":"Maharashtra","latitude":20.9374,"longitude":77.7796,"temp":29.5,"humidity":60,"rain":0.0,"pressure":965.0,"uv_index":8.8,"wind_gusts":49.7,"aqi":86,"pm10":44.5,"pm2_5":25.3,"no2":9.0,"co":242.0,"o3":53.0,"so2":7.5,"mosquito_risk":4,"arthritis_risk":5,"migraine_risk":7,"frizz_risk":1,"updated_at":"2026-06-13T04:50:09.844167+05:30"},{"city":"Latur","state":"Maharashtra","latitude":18.4088,"longitude":76.5604,"temp":26.0,"humidity":77,"rain":0.0,"pressure":938.5,"uv_index":8.5,"wind_gusts":43.6,"aqi":72,"pm10":40.7,"pm2_5":21.9,"no2":6.1,"co":140.0,"o3":43.0,"so2":3.3,"mosquito_risk":7,"arthritis_risk":5,"migraine_risk":7,"frizz_risk":1,"updated_at":"2026-06-13T04:50:09.844174+05:30"},{"city":"Nanded","state":"Maharashtra","latitude":19.1383,"longitude":77.3091,"temp":30.4,"humidity":57,"rain":0.0,"pressure":966.6,"uv_index":8.85,"wind_gusts":39.6,"aqi":82,"pm10":54.2,"pm2_5":34.2,"no2":5.9,"co":141.0,"o3":70.0,"so2":7.6,"mosquito_risk":0,"arthritis_risk":5,"migraine_risk":7,"frizz_risk":1,"updated_at":"2026-06-13T04:50:09.844181+05:30"},{"city":"Gulbarga","state":"Karnataka","latitude":17.3297,"longitude":76.8343,"temp":26.7,"humidity":74,"rain":0.0,"pressure":957.4,"uv_index":4.15,"wind_gusts":63.7,"aqi":66,"pm10":28.5,"pm2_5":15.4,"no2":6.2,"co":132.0,"o3":42.0,"so2":2.8,"mosquito_risk":7,"arthritis_risk":5,"migraine_risk":3,"frizz_risk":1,"updated_at":"2026-06-13T04:50:09.844188+05:30"},{"city":"Bidar","state":"Karnataka","latitude":17.9104,"longitude":77.5199,"temp":26.4,"humidity":74,"rain":0.0,"pressure":934.0,"uv_index":7.25,"wind_gusts":41.0,"aqi":73,"pm10":36.7,"pm2_5":23.2,"no2":8.9,"co":124.0,"o3":46.0,"so2":2.8,"mosquito_risk":7,"arthritis_risk":5,"migraine_risk":7,"frizz_risk":1,"updated_at":"2026-06-13T04:50:09.844195+05:30"},{"city":"Hospet","state":"Karnataka","latitude":15.2689,"longitude":76.3909,"temp":24.4,"humidity":90,"rain":0.0,"pressure":955.5,"uv_index":2.6,"wind_gusts":50.4,"aqi":42,"pm10":11.2,"pm2_5":6.6,"no2":5.0,"co":126.0,"o3":39.0,"so2":1.7,"mosquito_risk":3,"arthritis_risk":5,"migraine_risk":3,"frizz_risk":1,"updated_at":"2026-06-13T04:50:09.844202+05:30"},{"city":"Tirupur","state":"Tamil Nadu","latitude":11.1085,"longitude":77.3411,"temp":24.1,"humidity":87,"rain":0.0,"pressure":975.9,"uv_index":8.2,"wind_gusts":50.0,"aqi":55,"pm10":29.3,"pm2_5":19.8,"no2":20.0,"co":123.0,"o3":24.0,"so2":4.5,"mosquito_risk":3,"arthritis_risk":5,"migraine_risk":7,"frizz_risk":1,"updated_at":"2026-06-13T04:50:09.844208+05:30"},{"city":"Alappuzha","state":"Kerala","latitude":9.4981,"longitude":76.3388,"temp":25.2,"humidity":96,"rain":0.2,"pressure":1010.7,"uv_index":7.8,"wind_gusts":33.5,"aqi":45,"pm10":19.0,"pm2_5":9.9,"no2":7.7,"co":88.0,"o3":45.0,"so2":1.7,"mosquito_risk":10,"arthritis_risk":0,"migraine_risk":4,"frizz_risk":1,"updated_at":"2026-06-13T04:50:09.844215+05:30"},{"city":"Munnar","state":"Kerala","latitude":10.0889,"longitude":77.0595,"temp":15.2,"humidity":85,"rain":0.0,"pressure":856.4,"uv_index":8.1,"wind_gusts":40.7,"aqi":30,"pm10":18.0,"pm2_5":10.6,"no2":7.6,"co":93.0,"o3":24.0,"so2":0.9,"mosquito_risk":3,"arthritis_risk":10,"migraine_risk":7,"frizz_risk":0,"updated_at":"2026-06-13T04:50:09.844222+05:30"},{"city":"Silchar","state":"Assam","latitude":24.8333,"longitude":92.7789,"temp":25.6,"humidity":94,"rain":0.5,"pressure":1003.8,"uv_index":2.65,"wind_gusts":20.5,"aqi":111,"pm10":25.8,"pm2_5":23.9,"no2":9.0,"co":279.0,"o3":68.0,"so2":3.0,"mosquito_risk":10,"arthritis_risk":5,"migraine_risk":0,"frizz_risk":1,"updated_at":"2026-06-13T04:50:09.844229+05:30"},{"city":"Dibrugarh","state":"Assam","latitude":27.4728,"longitude":94.912,"temp":24.8,"humidity":94,"rain":0.0,"pressure":993.4,"uv_index":3.4,"wind_gusts":26.6,"aqi":88,"pm10":44.2,"pm2_5":42.6,"no2":22.9,"co":435.0,"o3":30.0,"so2":2.8,"mosquito_risk":3,"arthritis_risk":5,"migraine_risk":3,"frizz_risk":1,"updated_at":"2026-06-13T04:50:09.844236+05:30"}]