[{"city":"Delhi","state":"Delhi","latitude":28.6139,"longitude":77.209,"temp":34.6,"humidity":19,"rain":0.0,"pressure":981.6,"uv_index":6.15,"wind_gusts":30.2,"aqi":215,"pm10":478.7,"pm2_5":66.8,"mosquito_risk":0,"arthritis_risk":5,"migraine_risk":7,"frizz_risk":0,"updated_at":"2026-03-12T16:12:37.101405+05:30"},{"city":"Mumbai","state":"Maharashtra","latitude":19.076,"longitude":72.8777,"temp":28.1,"humidity":83,"rain":0.0,"pressure":1006.0,"uv_index":7.6,"wind_gusts":27.7,"aqi":217,"pm10":95.2,"pm2_5":90.6,"mosquito_risk":7,"arthritis_risk":5,"migraine_risk":4,"frizz_risk":1,"updated_at":"2026-03-12T16:12:37.101455+05:30"},{"city":"Bangalore","state":"Karnataka","latitude":12.9716,"longitude":77.5946,"temp":32.5,"humidity":21,"rain":0.0,"pressure":910.9,"uv_index":9.3,"wind_gusts":32.8,"aqi":68,"pm10":23.9,"pm2_5":18.8,"mosquito_risk":0,"arthritis_risk":5,"migraine_risk":7,"frizz_risk":0,"updated_at":"2026-03-12T16:12:37.101471+05:30"},{"city":"Hyderabad","state":"Telangana","latitude":17.385,"longitude":78.4867,"temp":35.7,"humidity":20,"rain":0.0,"pressure":952.4,"uv_index":8.65,"wind_gusts":23.4,"aqi":139,"pm10":33.5,"pm2_5":23.5,"mosquito_risk":0,"arthritis_risk":5,"migraine_risk":10,"frizz_risk":0,"updated_at":"2026-03-12T16:12:37.101481+05:30"},{"city":"Chennai","state":"Tamil Nadu","latitude":13.0827,"longitude":80.2707,"temp":32.1,"humidity":54,"rain":0.0,"pressure":1006.4,"uv_index":9.0,"wind_gusts":29.5,"aqi":76,"pm10":27.5,"pm2_5":23.3,"mosquito_risk":0,"arthritis_risk":5,"migraine_risk":4,"frizz_risk":1,"updated_at":"2026-03-12T16:12:37.101490+05:30"},{"city":"Kolkata","state":"West Bengal","latitude":22.5726,"longitude":88.3639,"temp":28.9,"humidity":70,"rain":0.0,"pressure":1005.4,"uv_index":8.0,"wind_gusts":20.9,"aqi":143,"pm10":83.6,"pm2_5":72.2,"mosquito_risk":7,"arthritis_risk":5,"migraine_risk":4,"frizz_risk":1,"updated_at":"2026-03-12T16:12:37.101504+05:30"},{"city":"Pune","state":"Maharashtra","latitude":18.5204,"longitude":73.8567,"temp":37.9,"humidity":18,"rain":0.0,"pressure":947.2,"uv_index":8.15,"wind_gusts":25.9,"aqi":143,"pm10":25.2,"pm2_5":21.5,"mosquito_risk":0,"arthritis_risk":5,"migraine_risk":10,"frizz_risk":0,"updated_at":"2026-03-12T16:12:37.101516+05:30"},{"city":"Ahmedabad","state":"Gujarat","latitude":23.0225,"longitude":72.5714,"temp":38.8,"humidity":11,"rain":0.0,"pressure":1001.0,"uv_index":7.45,"wind_gusts":30.6,"aqi":69,"pm10":21.7,"pm2_5":12.7,"mosquito_risk":0,"arthritis_risk":5,"migraine_risk":7,"frizz_risk":0,"updated_at":"2026-03-12T16:12:37.101524+05:30"},{"city":"Jaipur","state":"Rajasthan","latitude":26.9124,"longitude":75.7873,"temp":35.0,"humidity":9,"rain":0.0,"pressure":959.4,"uv_index":5.95,"wind_gusts":42.8,"aqi":105,"pm10":180.7,"pm2_5":25.6,"mosquito_risk":0,"arthritis_risk":5,"migraine_risk":3,"frizz_risk":1,"updated_at":"2026-03-12T16:12:37.101531+05:30"},{"city":"Lucknow","state":"Uttar Pradesh","latitude":26.8467,"longitude":80.9462,"temp":34.8,"humidity":27,"rain":0.0,"pressure":992.0,"uv_index":6.5,"wind_gusts":28.1,"aqi":154,"pm10":169.5,"pm2_5":41.7,"mosquito_risk":0,"arthritis_risk":5,"migraine_risk":7,"frizz_risk":0,"updated_at":"2026-03-12T16:12:37.101539+05:30"},{"city":"Kanpur","state":"Uttar Pradesh","latitude":26.4499,"longitude":80.3319,"temp":34.2,"humidity":37,"rain":0.0,"pressure":990.3,"uv_index":5.9,"wind_gusts":18.0,"aqi":195,"pm10":362.3,"pm2_5":48.0,"mosquito_risk":0,"arthritis_risk":5,"migraine_risk":3,"frizz_risk":1,"updated_at":"2026-03-12T16:12:37.101546+05:30"},{"city":"Chandigarh","state":"Chandigarh","latitude":30.7333,"longitude":76.7794,"temp":30.2,"humidity":44,"rain":0.0,"pressure":967.8,"uv_index":6.05,"wind_gusts":32.0,"aqi":97,"pm10":58.4,"pm2_5":23.2,"mosquito_risk":0,"arthritis_risk":5,"migraine_risk":7,"frizz_risk":1,"updated_at":"2026-03-12T16:12:37.101554+05:30"},{"city":"Srinagar","state":"Jammu and Kashmir","latitude":34.0837,"longitude":74.7973,"temp":12.9,"humidity":80,"rain":0.0,"pressure":840.0,"uv_index":6.35,"wind_gusts":22.3,"aqi":104,"pm10":5.7,"pm2_5":5.3,"mosquito_risk":3,"arthritis_risk":5,"migraine_risk":7,"frizz_risk":0,"updated_at":"2026-03-12T16:12:37.101561+05:30"},{"city":"Jammu","state":"Jammu and Kashmir","latitude":32.7266,"longitude":74.857,"temp":26.4,"humidity":58,"rain":0.0,"pressure":973.8,"uv_index":6.35,"wind_gusts":39.6,"aqi":80,"pm10":61.9,"pm2_5":21.7,"mosquito_risk":4,"arthritis_risk":5,"migraine_risk":7,"frizz_risk":1,"updated_at":"2026-03-12T16:12:37.101568+05:30"},{"city":"Amritsar","state":"Punjab","latitude":31.634,"longitude":74.8723,"temp":27.8,"humidity":53,"rain":0.0,"pressure":981.2,"uv_index":6.65,"wind_gusts":32.4,"aqi":156,"pm10":60.8,"pm2_5":27.9,"mosquito_risk":4,"arthritis_risk":5,"migraine_risk":7,"frizz_risk":1,"updated_at":"2026-03-12T16:12:37.101576+05:30"},{"city":"Ludhiana","state":"Punjab","latitude":30.901,"longitude":75.8573,"temp":30.6,"humidity":39,"rain":0.0,"pressure":978.3,"uv_index":6.2,"wind_gusts":59.4,"aqi":156,"pm10":74.3,"pm2_5":36.2,"mosquito_risk":0,"arthritis_risk":5,"migraine_risk":7,"frizz_risk":0,"updated_at":"2026-03-12T16:12:37.101583+05:30"},{"city":"Jalandhar","state":"Punjab","latitude":31.326,"longitude":75.5762,"temp":29.6,"humidity":43,"rain":0.0,"pressure":979.8,"uv_index":6.45,"wind_gusts":31.7,"aqi":151,"pm10":65.7,"pm2_5":28.6,"mosquito_risk":4,"arthritis_risk":5,"migraine_risk":7,"frizz_risk":0,"updated_at":"2026-03-12T16:12:37.101592+05:30"},{"city":"Dehradun","state":"Uttarakhand","latitude":30.6284,"longitude":78.0322,"temp":20.8,"humidity":44,"rain":0.0,"pressure":831.3,"uv_index":5.7,"wind_gusts":37.1,"aqi":59,"pm10":36.3,"pm2_5":11.9,"mosquito_risk":0,"arthritis_risk":5,"migraine_risk":3,"frizz_risk":0,"updated_at":"2026-03-12T16:12:37.101599+05:30"},{"city":"Shimla","state":"Himachal Pradesh","latitude":31.1048,"longitude":77.1734,"temp":19.3,"humidity":42,"rain":0.0,"pressure":786.2,"uv_index":6.5,"wind_gusts":42.5,"aqi":71,"pm10":42.0,"pm2_5":13.2,"mosquito_risk":0,"arthritis_risk":5,"migraine_risk":7,"frizz_risk":0,"updated_at":"2026-03-12T16:12:37.101606+05:30"},{"city":"Manali","state":"Himachal Pradesh","latitude":32.2396,"longitude":77.1887,"temp":14.0,"humidity":84,"rain":0.0,"pressure":819.2,"uv_index":4.0,"wind_gusts":44.6,"aqi":46,"pm10":13.7,"pm2_5":4.3,"mosquito_risk":3,"arthritis_risk":10,"migraine_risk":3,"frizz_risk":0,"updated_at":"2026-03-12T16:12:37.101614+05:30"},{"city":"Gurgaon","state":"Haryana","latitude":28.4595,"longitude":77.0266,"temp":34.6,"humidity":19,"rain":0.0,"pressure":980.0,"uv_index":6.15,"wind_gusts":31.0,"aqi":876,"pm10":1464.0,"pm2_5":138.8,"mosquito_risk":0,"arthritis_risk":5,"migraine_risk":7,"frizz_risk":0,"updated_at":"2026-03-12T16:12:37.101621+05:30"},{"city":"Noida","state":"Uttar Pradesh","latitude":28.5355,"longitude":77.391,"temp":35.2,"humidity":18,"rain":0.0,"pressure":982.9,"uv_index":6.05,"wind_gusts":29.9,"aqi":876,"pm10":1464.0,"pm2_5":138.8,"mosquito_risk":0,"arthritis_risk":5,"migraine_risk":10,"frizz_risk":0,"updated_at":"2026-03-12T16:12:37.101628+05:30"},{"city":"Ghaziabad","state":"Uttar Pradesh","latitude":28.6692,"longitude":77.4538,"temp":33.9,"humidity":23,"rain":0.0,"pressure":981.2,"uv_index":6.1,"wind_gusts":26.3,"aqi":169,"pm10":396.7,"pm2_5":62.2,"mosquito_risk":0,"arthritis_risk":5,"migraine_risk":7,"frizz_risk":0,"updated_at":"2026-03-12T16:12:37.101634+05:30"},{"city":"Faridabad","state":"Haryana","latitude":28.4089,"longitude":77.3178,"temp":35.1,"humidity":14,"rain":0.0,"pressure":982.1,"uv_index":6.2,"wind_gusts":29.9,"aqi":876,"pm10":1464.0,"pm2_5":138.8,"mosquito_risk":0,"arthritis_risk":5,"migraine_risk":10,"frizz_risk":0,"updated_at":"2026-03-12T16:12:37.101641+05:30"},{"city":"Meerut","state":"Uttar Pradesh","latitude":28.9845,"longitude":77.7064,"temp":33.6,"humidity":27,"rain":0.0,"pressure":980.1,"uv_index":6.0,"wind_gusts":24.5,"aqi":169,"pm10":396.7,"pm2_5":62.2,"mosquito_risk":0,"arthritis_risk":5,"migraine_risk":3,"frizz_risk":0,"updated_at":"2026-03-12T16:12:37.101650+05:30"},{"city":"Agra","state":"Uttar Pradesh","latitude":27.1767,"longitude":78.0081,"temp":37.4,"humidity":10,"rain":0.0,"pressure":985.7,"uv_index":6.15,"wind_gusts":31.7,"aqi":430,"pm10":651.9,"pm2_5":58.0,"mosquito_risk":0,"arthritis_risk":5,"migraine_risk":10,"frizz_risk":0,"updated_at":"2026-03-12T16:12:37.101656+05:30"},{"city":"Varanasi","state":"Uttar Pradesh","latitude":25.3176,"longitude":82.9739,"temp":34.2,"humidity":31,"rain":0.0,"pressure":996.0,"uv_index":7.3,"wind_gusts":23.8,"aqi":146,"pm10":75.9,"pm2_5":23.1,"mosquito_risk":0,"arthritis_risk":5,"migraine_risk":7,"frizz_risk":0,"updated_at":"2026-03-12T16:12:37.101665+05:30"},{"city":"Prayagraj","state":"Uttar Pradesh","latitude":25.4358,"longitude":81.8463,"temp":34.5,"humidity":31,"rain":0.0,"pressure":994.5,"uv_index":6.6,"wind_gusts":23.0,"aqi":146,"pm10":59.6,"pm2_5":21.1,"mosquito_risk":0,"arthritis_risk":5,"migraine_risk":7,"frizz_risk":0,"updated_at":"2026-03-12T16:12:37.101672+05:30"},{"city":"Gorakhpur","state":"Uttar Pradesh","latitude":26.7606,"longitude":83.3732,"temp":32.3,"humidity":39,"rain":0.0,"pressure":995.3,"uv_index":7.0,"wind_gusts":18.4,"aqi":226,"pm10":144.4,"pm2_5":66.1,"mosquito_risk":0,"arthritis_risk":5,"migraine_risk":7,"frizz_risk":1,"updated_at":"2026-03-12T16:12:37.101679+05:30"},{"city":"Bareilly","state":"Uttar Pradesh","latitude":28.367,"longitude":79.4304,"temp":33.3,"humidity":34,"rain":0.0,"pressure":985.0,"uv_index":6.25,"wind_gusts":23.4,"aqi":125,"pm10":106.4,"pm2_5":42.1,"mosquito_risk":0,"arthritis_risk":5,"migraine_risk":7,"frizz_risk":0,"updated_at":"2026-03-12T16:12:37.101686+05:30"},{"city":"Aligarh","state":"Uttar Pradesh","latitude":27.8974,"longitude":78.088,"temp":36.2,"humidity":15,"rain":0.0,"pressure":983.5,"uv_index":5.95,"wind_gusts":29.9,"aqi":508,"pm10":752.5,"pm2_5":87.3,"mosquito_risk":0,"arthritis_risk":5,"migraine_risk":6,"frizz_risk":0,"updated_at":"2026-03-12T16:12:37.101693+05:30"},{"city":"Moradabad","state":"Uttar Pradesh","latitude":28.8386,"longitude":78.7733,"temp":33.4,"humidity":28,"rain":0.0,"pressure":981.9,"uv_index":6.05,"wind_gusts":26.3,"aqi":125,"pm10":192.3,"pm2_5":54.1,"mosquito_risk":0,"arthritis_risk":5,"migraine_risk":7,"frizz_risk":0,"updated_at":"2026-03-12T16:12:37.101699+05:30"},{"city":"Saharanpur","state":"Uttar Pradesh","latitude":29.9637,"longitude":77.546,"temp":31.4,"humidity":38,"rain":0.0,"pressure":974.5,"uv_index":5.3,"wind_gusts":24.8,"aqi":144,"pm10":106.2,"pm2_5":35.4,"mosquito_risk":0,"arthritis_risk":5,"migraine_risk":3,"frizz_risk":0,"updated_at":"2026-03-12T16:12:37.101706+05:30"},{"city":"Jhansi","state":"Uttar Pradesh","latitude":25.4484,"longitude":78.5685,"temp":38.1,"humidity":15,"rain":0.0,"pressure":976.5,"uv_index":6.65,"wind_gusts":29.9,"aqi":78,"pm10":18.2,"pm2_5":10.2,"mosquito_risk":0,"arthritis_risk":5,"migraine_risk":10,"frizz_risk":0,"updated_at":"2026-03-12T16:12:40.333069+05:30"},{"city":"Surat","state":"Gujarat","latitude":21.1702,"longitude":72.8311,"temp":34.9,"humidity":35,"rain":0.0,"pressure":1005.4,"uv_index":7.3,"wind_gusts":26.3,"aqi":151,"pm10":45.3,"pm2_5":43.7,"mosquito_risk":0,"arthritis_risk":5,"migraine_risk":4,"frizz_risk":1,"updated_at":"2026-03-12T16:12:40.333130+05:30"},{"city":"Vadodara","state":"Gujarat","latitude":22.3072,"longitude":73.1812,"temp":39.9,"humidity":15,"rain":0.0,"pressure":1002.7,"uv_index":7.45,"wind_gusts":26.6,"aqi":89,"pm10":27.0,"pm2_5":24.8,"mosquito_risk":0,"arthritis_risk":5,"migraine_risk":7,"frizz_risk":0,"updated_at":"2026-03-12T16:12:40.333141+05:30"},{"city":"Rajkot","state":"Gujarat","latitude":22.3039,"longitude":70.8022,"temp":37.8,"humidity":11,"rain":0.0,"pressure":993.6,"uv_index":7.3,"wind_gusts":31.3,"aqi":58,"pm10":29.1,"pm2_5":16.8,"mosquito_risk":0,"arthritis_risk":5,"migraine_risk":10,"frizz_risk":0,"updated_at":"2026-03-12T16:12:40.333149+05:30"},{"city":"Thane","state":"Maharashtra","latitude":19.2183,"longitude":72.9781,"temp":31.4,"humidity":61,"rain":0.0,"pressure":1005.8,"uv_index":7.6,"wind_gusts":41.4,"aqi":217,"pm10":95.2,"pm2_5":90.6,"mosquito_risk":3,"arthritis_risk":5,"migraine_risk":4,"frizz_risk":1,"updated_at":"2026-03-12T16:12:40.333156+05:30"},{"city":"Nagpur","state":"Maharashtra","latitude":21.1458,"longitude":79.0882,"temp":37.5,"humidity":13,"rain":0.0,"pressure":971.8,"uv_index":8.0,"wind_gusts":16.6,"aqi":108,"pm10":34.5,"pm2_5":22.5,"mosquito_risk":0,"arthritis_risk":5,"migraine_risk":10,"frizz_risk":0,"updated_at":"2026-03-12T16:12:40.333163+05:30"},{"city":"Nashik","state":"Maharashtra","latitude":19.9975,"longitude":73.7898,"temp":36.9,"humidity":16,"rain":0.0,"pressure":944.7,"uv_index":7.8,"wind_gusts":33.8,"aqi":111,"pm10":13.2,"pm2_5":11.0,"mosquito_risk":0,"arthritis_risk":5,"migraine_risk":10,"frizz_risk":0,"updated_at":"2026-03-12T16:12:40.333170+05:30"},{"city":"Aurangabad","state":"Maharashtra","latitude":19.8762,"longitude":75.3433,"temp":37.2,"humidity":17,"rain":0.0,"pressure":943.1,"uv_index":8.35,"wind_gusts":20.5,"aqi":108,"pm10":13.7,"pm2_5":10.9,"mosquito_risk":0,"arthritis_risk":5,"migraine_risk":10,"frizz_risk":0,"updated_at":"2026-03-12T16:12:40.333177+05:30"},{"city":"Solapur","state":"Maharashtra","latitude":17.6599,"longitude":75.9064,"temp":35.7,"humidity":24,"rain":0.0,"pressure":956.0,"uv_index":8.5,"wind_gusts":18.0,"aqi":109,"pm10":28.7,"pm2_5":23.2,"mosquito_risk":0,"arthritis_risk":5,"migraine_risk":10,"frizz_risk":0,"updated_at":"2026-03-12T16:12:40.333184+05:30"},{"city":"Kolhapur","state":"Maharashtra","latitude":16.705,"longitude":74.2433,"temp":35.5,"humidity":20,"rain":0.0,"pressure":946.8,"uv_index":8.65,"wind_gusts":27.7,"aqi":151,"pm10":33.2,"pm2_5":27.4,"mosquito_risk":0,"arthritis_risk":5,"migraine_risk":10,"frizz_risk":0,"updated_at":"2026-03-12T16:12:40.333192+05:30"},{"city":"Goa","state":"Goa","latitude":15.2993,"longitude":74.124,"temp":31.3,"humidity":66,"rain":0.0,"pressure":995.5,"uv_index":8.7,"wind_gusts":33.5,"aqi":145,"pm10":45.5,"pm2_5":39.2,"mosquito_risk":3,"arthritis_risk":5,"migraine_risk":7,"frizz_risk":1,"updated_at":"2026-03-12T16:12:40.333198+05:30"},{"city":"Jodhpur","state":"Rajasthan","latitude":26.2389,"longitude":73.0243,"temp":37.1,"humidity":18,"rain":0.0,"pressure":982.2,"uv_index":6.65,"wind_gusts":25.9,"aqi":69,"pm10":98.3,"pm2_5":22.4,"mosquito_risk":0,"arthritis_risk":5,"migraine_risk":10,"frizz_risk":0,"updated_at":"2026-03-12T16:12:40.333206+05:30"},{"city":"Udaipur","state":"Rajasthan","latitude":24.5854,"longitude":73.7125,"temp":34.6,"humidity":8,"rain":0.0,"pressure":946.9,"uv_index":7.5,"wind_gusts":38.5,"aqi":79,"pm10":8.0,"pm2_5":7.0,"mosquito_risk":0,"arthritis_risk":5,"migraine_risk":7,"frizz_risk":1,"updated_at":"2026-03-12T16:12:40.333214+05:30"},{"city":"Kota","state":"Rajasthan","latitude":25.2138,"longitude":75.8648,"temp":37.5,"humidity":8,"rain":0.0,"pressure":977.7,"uv_index":6.75,"wind_gusts":34.2,"aqi":78,"pm10":9.7,"pm2_5":9.3,"mosquito_risk":0,"arthritis_risk":5,"migraine_risk":10,"frizz_risk":1,"updated_at":"2026-03-12T16:12:40.333221+05:30"},{"city":"Bikaner","state":"Rajasthan","latitude":28.0229,"longitude":73.3119,"temp":35.6,"humidity":22,"rain":0.0,"pressure":981.1,"uv_index":6.2,"wind_gusts":28.4,"aqi":94,"pm10":85.4,"pm2_5":27.0,"mosquito_risk":0,"arthritis_risk":5,"migraine_risk":10,"frizz_risk":0,"updated_at":"2026-03-12T16:12:40.333228+05:30"},{"city":"Ajmer","state":"Rajasthan","latitude":26.4499,"longitude":74.6399,"temp":34.9,"humidity":12,"rain":0.0,"pressure":954.5,"uv_index":6.7,"wind_gusts":34.2,"aqi":65,"pm10":29.0,"pm2_5":11.5,"mosquito_risk":0,"arthritis_risk":5,"migraine_risk":7,"frizz_risk":0,"updated_at":"2026-03-12T16:12:40.333234+05:30"},{"city":"Gwalior","state":"Madhya Pradesh","latitude":26.2183,"longitude":78.1828,"temp":35.5,"humidity":15,"rain":0.0,"pressure":982.1,"uv_index":6.25,"wind_gusts":33.8,"aqi":65,"pm10":15.9,"pm2_5":9.5,"mosquito_risk":0,"arthritis_risk":5,"migraine_risk":10,"frizz_risk":0,"updated_at":"2026-03-12T16:12:40.333240+05:30"},{"city":"Indore","state":"Madhya Pradesh","latitude":22.7196,"longitude":75.8577,"temp":36.0,"humidity":15,"rain":0.0,"pressure":947.8,"uv_index":7.75,"wind_gusts":29.2,"aqi":79,"pm10":12.2,"pm2_5":10.2,"mosquito_risk":0,"arthritis_risk":5,"migraine_risk":10,"frizz_risk":0,"updated_at":"2026-03-12T16:12:40.333247+05:30"},{"city":"Bhopal","state":"Madhya Pradesh","latitude":23.2599,"longitude":77.4126,"temp":35.8,"humidity":17,"rain":0.0,"pressure":953.4,"uv_index":7.6,"wind_gusts":28.8,"aqi":95,"pm10":19.8,"pm2_5":12.3,"mosquito_risk":0,"arthritis_risk":5,"migraine_risk":10,"frizz_risk":0,"updated_at":"2026-03-12T16:12:40.333254+05:30"},{"city":"Jabalpur","state":"Madhya Pradesh","latitude":23.1815,"longitude":79.9864,"temp":35.7,"humidity":20,"rain":0.0,"pressure":960.7,"uv_index":7.65,"wind_gusts":20.5,"aqi":87,"pm10":29.2,"pm2_5":12.0,"mosquito_risk":0,"arthritis_risk":5,"migraine_risk":10,"frizz_risk":0,"updated_at":"2026-03-12T16:12:40.333260+05:30"},{"city":"Ujjain","state":"Madhya Pradesh","latitude":23.1765,"longitude":75.7885,"temp":35.4,"humidity":17,"rain":0.0,"pressure":953.6,"uv_index":7.65,"wind_gusts":27.7,"aqi":96,"pm10":11.3,"pm2_5":10.2,"mosquito_risk":0,"arthritis_risk":5,"migraine_risk":10,"frizz_risk":0,"updated_at":"2026-03-12T16:12:40.333267+05:30"},{"city":"Visakhapatnam","state":"Andhra Pradesh","latitude":17.6868,"longitude":83.2185,"temp":30.7,"humidity":62,"rain":0.0,"pressure":1002.4,"uv_index":8.65,"wind_gusts":40.3,"aqi":90,"pm10":39.0,"pm2_5":34.5,"mosquito_risk":3,"arthritis_risk":5,"migraine_risk":4,"frizz_risk":1,"updated_at":"2026-03-12T16:12:40.333273+05:30"},{"city":"Vijayawada","state":"Andhra Pradesh","latitude":16.5062,"longitude":80.648,"temp":37.4,"humidity":23,"rain":0.0,"pressure":1000.3,"uv_index":8.7,"wind_gusts":33.1,"aqi":73,"pm10":36.7,"pm2_5":28.3,"mosquito_risk":0,"arthritis_risk":5,"migraine_risk":7,"frizz_risk":0,"updated_at":"2026-03-12T16:12:40.333280+05:30"},{"city":"Guntur","state":"Andhra Pradesh","latitude":16.3067,"longitude":80.4365,"temp":36.9,"humidity":33,"rain":0.0,"pressure":1001.6,"uv_index":8.7,"wind_gusts":36.0,"aqi":70,"pm10":35.3,"pm2_5":26.0,"mosquito_risk":0,"arthritis_risk":5,"migraine_risk":7,"frizz_risk":1,"updated_at":"2026-03-12T16:12:40.333287+05:30"},{"city":"Nellore","state":"Andhra Pradesh","latitude":14.4426,"longitude":79.9865,"temp":35.5,"humidity":35,"rain":0.0,"pressure":1004.4,"uv_index":8.9,"wind_gusts":28.1,"aqi":69,"pm10":30.7,"pm2_5":25.7,"mosquito_risk":0,"arthritis_risk":5,"migraine_risk":7,"frizz_risk":1,"updated_at":"2026-03-12T16:12:40.333294+05:30"},{"city":"Kurnool","state":"Andhra Pradesh","latitude":15.8281,"longitude":78.0373,"temp":37.8,"humidity":19,"rain":0.0,"pressure":975.1,"uv_index":8.65,"wind_gusts":25.9,"aqi":79,"pm10":27.9,"pm2_5":21.4,"mosquito_risk":0,"arthritis_risk":5,"migraine_risk":10,"frizz_risk":0,"updated_at":"2026-03-12T16:12:40.333301+05:30"},{"city":"Kakinada","state":"Andhra Pradesh","latitude":16.9891,"longitude":82.2475,"temp":34.7,"humidity":47,"rain":0.0,"pressure":1005.2,"uv_index":8.65,"wind_gusts":41.0,"aqi":69,"pm10":27.9,"pm2_5":22.8,"mosquito_risk":0,"arthritis_risk":5,"migraine_risk":4,"frizz_risk":1,"updated_at":"2026-03-12T16:12:40.333308+05:30"},{"city":"Tirupati","state":"Andhra Pradesh","latitude":13.6288,"longitude":79.4192,"temp":35.2,"humidity":26,"rain":0.0,"pressure":989.9,"uv_index":9.05,"wind_gusts":36.4,"aqi":92,"pm10":35.6,"pm2_5":28.9,"mosquito_risk":0,"arthritis_risk":5,"migraine_risk":10,"frizz_risk":0,"updated_at":"2026-03-12T16:12:40.333314+05:30"},{"city":"Warangal","state":"Telangana","latitude":17.9689,"longitude":79.5941,"temp":36.3,"humidity":24,"rain":0.0,"pressure":977.4,"uv_index":8.45,"wind_gusts":11.9,"aqi":119,"pm10":36.9,"pm2_5":24.5,"mosquito_risk":0,"arthritis_risk":5,"migraine_risk":10,"frizz_risk":0,"updated_at":"2026-03-12T16:12:40.333320+05:30"},{"city":"Nizamabad","state":"Telangana","latitude":18.6725,"longitude":78.0941,"temp":36.1,"humidity":22,"rain":0.0,"pressure":963.5,"uv_index":8.35,"wind_gusts":19.8,"aqi":105,"pm10":33.9,"pm2_5":26.1,"mosquito_risk":0,"arthritis_risk":5,"migraine_risk":10,"frizz_risk":0,"updated_at":"2026-03-12T16:12:40.333326+05:30"},{"city":"Mysore","state":"Karnataka","latitude":12.2958,"longitude":76.6396,"temp":32.5,"humidity":25,"rain":0.0,"pressure":927.3,"uv_index":9.3,"wind_gusts":34.9,"aqi":66,"pm10":18.9,"pm2_5":15.4,"mosquito_risk":0,"arthritis_risk":5,"migraine_risk":7,"frizz_risk":0,"updated_at":"2026-03-12T16:12:40.333332+05:30"},{"city":"Mangalore","state":"Karnataka","latitude":12.9141,"longitude":74.856,"temp":29.1,"humidity":82,"rain":0.0,"pressure":1003.1,"uv_index":8.95,"wind_gusts":32.8,"aqi":101,"pm10":39.3,"pm2_5":33.3,"mosquito_risk":7,"arthritis_risk":5,"migraine_risk":4,"frizz_risk":1,"updated_at":"2026-03-12T16:12:40.333338+05:30"},{"city":"Hubli-Dharwad","state":"Karnataka","latitude":15.3647,"longitude":75.124,"temp":35.7,"humidity":18,"rain":0.0,"pressure":939.5,"uv_index":8.85,"wind_gusts":35.6,"aqi":86,"pm10":19.3,"pm2_5":16.0,"mosquito_risk":0,"arthritis_risk":5,"migraine_risk":10,"frizz_risk":0,"updated_at":"2026-03-12T16:12:40.333344+05:30"},{"city":"Belgaum","state":"Karnataka","latitude":15.8497,"longitude":74.4977,"temp":34.7,"humidity":19,"rain":0.0,"pressure":924.9,"uv_index":8.9,"wind_gusts":37.4,"aqi":113,"pm10":25.3,"pm2_5":21.5,"mosquito_risk":0,"arthritis_risk":5,"migraine_risk":7,"frizz_risk":0,"updated_at":"2026-03-12T16:12:43.558479+05:30"},{"city":"Coimbatore","state":"Tamil Nadu","latitude":11.0168,"longitude":76.9558,"temp":34.4,"humidity":24,"rain":0.0,"pressure":959.7,"uv_index":9.3,"wind_gusts":44.3,"aqi":74,"pm10":16.1,"pm2_5":15.0,"mosquito_risk":0,"arthritis_risk":5,"migraine_risk":7,"frizz_risk":0,"updated_at":"2026-03-12T16:12:43.558508+05:30"},{"city":"Madurai","state":"Tamil Nadu","latitude":9.9252,"longitude":78.1198,"temp":35.5,"humidity":33,"rain":0.0,"pressure":990.3,"uv_index":9.2,"wind_gusts":32.0,"aqi":71,"pm10":18.0,"pm2_5":16.2,"mosquito_risk":0,"arthritis_risk":5,"migraine_risk":10,"frizz_risk":1,"updated_at":"2026-03-12T16:12:43.558519+05:30"},{"city":"Trichy","state":"Tamil Nadu","latitude":10.7905,"longitude":78.7047,"temp":34.6,"humidity":41,"rain":0.0,"pressure":997.6,"uv_index":9.15,"wind_gusts":28.1,"aqi":80,"pm10":24.1,"pm2_5":22.7,"mosquito_risk":0,"arthritis_risk":5,"migraine_risk":7,"frizz_risk":1,"updated_at":"2026-03-12T16:12:43.558527+05:30"},{"city":"Salem","state":"Tamil Nadu","latitude":11.6643,"longitude":78.146,"temp":34.9,"humidity":33,"rain":0.0,"pressure":975.2,"uv_index":9.2,"wind_gusts":27.7,"aqi":76,"pm10":18.2,"pm2_5":16.2,"mosquito_risk":0,"arthritis_risk":5,"migraine_risk":7,"frizz_risk":1,"updated_at":"2026-03-12T16:12:43.558535+05:30"},{"city":"Tirunelveli","state":"Tamil Nadu","latitude":8.7139,"longitude":77.7567,"temp":33.9,"humidity":47,"rain":0.0,"pressure":1000.9,"uv_index":8.3,"wind_gusts":27.4,"aqi":63,"pm10":14.5,"pm2_5":12.6,"mosquito_risk":0,"arthritis_risk":5,"migraine_risk":4,"frizz_risk":1,"updated_at":"2026-03-12T16:12:43.558542+05:30"},{"city":"Vellore","state":"Tamil Nadu","latitude":12.9165,"longitude":79.1325,"temp":34.5,"humidity":28,"rain":0.0,"pressure":983.2,"uv_index":9.1,"wind_gusts":36.4,"aqi":91,"pm10":20.4,"pm2_5":17.1,"mosquito_risk":0,"arthritis_risk":5,"migraine_risk":7,"frizz_risk":0,"updated_at":"2026-03-12T16:12:43.558549+05:30"},{"city":"Erode","state":"Tamil Nadu","latitude":11.341,"longitude":77.7172,"temp":35.8,"humidity":33,"rain":0.0,"pressure":986.6,"uv_index":9.2,"wind_gusts":24.5,"aqi":75,"pm10":21.9,"pm2_5":20.3,"mosquito_risk":0,"arthritis_risk":5,"migraine_risk":10,"frizz_risk":1,"updated_at":"2026-03-12T16:12:43.558555+05:30"},{"city":"Kochi","state":"Kerala","latitude":9.9312,"longitude":76.2673,"temp":29.1,"humidity":78,"rain":0.0,"pressure":1005.5,"uv_index":9.05,"wind_gusts":35.6,"aqi":108,"pm10":32.1,"pm2_5":30.2,"mosquito_risk":7,"arthritis_risk":5,"migraine_risk":4,"frizz_risk":1,"updated_at":"2026-03-12T16:12:43.558562+05:30"},{"city":"Thiruvananthapuram","state":"Kerala","latitude":8.5241,"longitude":76.9366,"temp":28.7,"humidity":75,"rain":0.0,"pressure":1005.7,"uv_index":8.95,"wind_gusts":25.9,"aqi":109,"pm10":23.3,"pm2_5":21.1,"mosquito_risk":7,"arthritis_risk":5,"migraine_risk":4,"frizz_risk":1,"updated_at":"2026-03-12T16:12:43.558569+05:30"},{"city":"Kozhikode","state":"Kerala","latitude":11.2588,"longitude":75.7804,"temp":30.5,"humidity":69,"rain":0.0,"pressure":1004.7,"uv_index":9.0,"wind_gusts":31.7,"aqi":100,"pm10":36.4,"pm2_5":32.4,"mosquito_risk":3,"arthritis_risk":5,"migraine_risk":4,"frizz_risk":1,"updated_at":"2026-03-12T16:12:43.558575+05:30"},{"city":"Thrissur","state":"Kerala","latitude":10.5276,"longitude":76.2144,"temp":32.1,"humidity":63,"rain":0.0,"pressure":1003.9,"uv_index":9.05,"wind_gusts":39.2,"aqi":97,"pm10":17.5,"pm2_5":15.9,"mosquito_risk":3,"arthritis_risk":5,"migraine_risk":4,"frizz_risk":1,"updated_at":"2026-03-12T16:12:43.558582+05:30"},{"city":"Kannur","state":"Kerala","latitude":11.8745,"longitude":75.3704,"temp":31.1,"humidity":68,"rain":0.0,"pressure":1004.2,"uv_index":9.0,"wind_gusts":34.9,"aqi":98,"pm10":33.9,"pm2_5":29.5,"mosquito_risk":3,"arthritis_risk":5,"migraine_risk":4,"frizz_risk":1,"updated_at":"2026-03-12T16:12:43.558589+05:30"},{"city":"Patna","state":"Bihar","latitude":25.5941,"longitude":85.1376,"temp":33.5,"humidity":35,"rain":0.0,"pressure":998.5,"uv_index":7.45,"wind_gusts":22.0,"aqi":228,"pm10":178.8,"pm2_5":60.8,"mosquito_risk":0,"arthritis_risk":5,"migraine_risk":7,"frizz_risk":0,"updated_at":"2026-03-12T16:12:43.558596+05:30"},{"city":"Gaya","state":"Bihar","latitude":24.7914,"longitude":85.0002,"temp":32.9,"humidity":33,"rain":0.0,"pressure":992.3,"uv_index":7.6,"wind_gusts":21.6,"aqi":189,"pm10":170.0,"pm2_5":39.7,"mosquito_risk":0,"arthritis_risk":5,"migraine_risk":7,"frizz_risk":0,"updated_at":"2026-03-12T16:12:43.558602+05:30"},{"city":"Muzaffarpur","state":"Bihar","latitude":26.1209,"longitude":85.3647,"temp":32.6,"humidity":41,"rain":0.0,"pressure":998.4,"uv_index":7.45,"wind_gusts":25.6,"aqi":241,"pm10":181.6,"pm2_5":99.9,"mosquito_risk":0,"arthritis_risk":5,"migraine_risk":7,"frizz_risk":1,"updated_at":"2026-03-12T16:12:43.558608+05:30"},{"city":"Bhagalpur","state":"Bihar","latitude":25.2425,"longitude":87.0117,"temp":29.6,"humidity":64,"rain":0.0,"pressure":1000.1,"uv_index":7.5,"wind_gusts":33.5,"aqi":187,"pm10":139.7,"pm2_5":120.6,"mosquito_risk":7,"arthritis_risk":5,"migraine_risk":4,"frizz_risk":1,"updated_at":"2026-03-12T16:12:43.558615+05:30"},{"city":"Ranchi","state":"Jharkhand","latitude":23.3441,"longitude":85.3096,"temp":31.6,"humidity":22,"rain":0.0,"pressure":937.4,"uv_index":8.2,"wind_gusts":33.8,"aqi":161,"pm10":123.4,"pm2_5":30.2,"mosquito_risk":0,"arthritis_risk":5,"migraine_risk":7,"frizz_risk":0,"updated_at":"2026-03-12T16:12:43.558622+05:30"},{"city":"Jamshedpur","state":"Jharkhand","latitude":22.8046,"longitude":86.2029,"temp":33.9,"humidity":36,"rain":0.0,"pressure":989.0,"uv_index":8.1,"wind_gusts":25.6,"aqi":168,"pm10":114.6,"pm2_5":64.0,"mosquito_risk":0,"arthritis_risk":5,"migraine_risk":7,"frizz_risk":1,"updated_at":"2026-03-12T16:12:43.558628+05:30"},{"city":"Dhanbad","state":"Jharkhand","latitude":23.7957,"longitude":86.4304,"temp":33.9,"humidity":29,"rain":0.0,"pressure":978.2,"uv_index":8.0,"wind_gusts":20.9,"aqi":194,"pm10":115.9,"pm2_5":61.0,"mosquito_risk":0,"arthritis_risk":5,"migraine_risk":7,"frizz_risk":0,"updated_at":"2026-03-12T16:12:43.558634+05:30"},{"city":"Bokaro","state":"Jharkhand","latitude":23.6693,"longitude":86.1511,"temp":34.1,"humidity":28,"rain":0.0,"pressure":982.2,"uv_index":8.0,"wind_gusts":23.4,"aqi":186,"pm10":127.6,"pm2_5":43.4,"mosquito_risk":0,"arthritis_risk":5,"migraine_risk":7,"frizz_risk":0,"updated_at":"2026-03-12T16:12:43.558641+05:30"},{"city":"Bhubaneswar","state":"Odisha","latitude":20.2961,"longitude":85.8245,"temp":35.7,"humidity":32,"rain":0.0,"pressure":1000.4,"uv_index":8.35,"wind_gusts":34.2,"aqi":117,"pm10":73.1,"pm2_5":50.3,"mosquito_risk":0,"arthritis_risk":5,"migraine_risk":7,"frizz_risk":1,"updated_at":"2026-03-12T16:12:43.558647+05:30"},{"city":"Cuttack","state":"Odisha","latitude":20.4625,"longitude":85.8828,"temp":35.9,"humidity":32,"rain":0.0,"pressure":1002.2,"uv_index":8.35,"wind_gusts":31.7,"aqi":117,"pm10":73.1,"pm2_5":50.3,"mosquito_risk":0,"arthritis_risk":5,"migraine_risk":7,"frizz_risk":1,"updated_at":"2026-03-12T16:12:43.558653+05:30"},{"city":"Rourkela","state":"Odisha","latitude":22.2604,"longitude":84.8536,"temp":35.4,"humidity":28,"rain":0.0,"pressure":983.0,"uv_index":8.0,"wind_gusts":16.2,"aqi":155,"pm10":130.9,"pm2_5":30.5,"mosquito_risk":0,"arthritis_risk":5,"migraine_risk":10,"frizz_risk":0,"updated_at":"2026-03-12T16:12:43.558659+05:30"},{"city":"Raipur","state":"Chhattisgarh","latitude":21.2514,"longitude":81.6296,"temp":37.2,"humidity":16,"rain":0.0,"pressure":973.2,"uv_index":8.1,"wind_gusts":16.2,"aqi":163,"pm10":50.1,"pm2_5":22.6,"mosquito_risk":0,"arthritis_risk":5,"migraine_risk":10,"frizz_risk":0,"updated_at":"2026-03-12T16:12:43.558665+05:30"},{"city":"Bhilai","state":"Chhattisgarh","latitude":21.1938,"longitude":81.3509,"temp":37.5,"humidity":18,"rain":0.0,"pressure":973.4,"uv_index":8.1,"wind_gusts":11.9,"aqi":156,"pm10":52.2,"pm2_5":23.4,"mosquito_risk":0,"arthritis_risk":5,"migraine_risk":10,"frizz_risk":0,"updated_at":"2026-03-12T16:12:43.558671+05:30"},{"city":"Guwahati","state":"Assam","latitude":26.1158,"longitude":91.7086,"temp":26.2,"humidity":77,"rain":0.0,"pressure":1001.7,"uv_index":7.05,"wind_gusts":24.1,"aqi":153,"pm10":78.7,"pm2_5":69.4,"mosquito_risk":7,"arthritis_risk":5,"migraine_risk":4,"frizz_risk":1,"updated_at":"2026-03-12T16:12:43.558677+05:30"},{"city":"Agartala","state":"Tripura","latitude":23.8315,"longitude":91.2868,"temp":28.0,"humidity":71,"rain":0.0,"pressure":1006.1,"uv_index":7.7,"wind_gusts":19.1,"aqi":159,"pm10":65.9,"pm2_5":54.2,"mosquito_risk":7,"arthritis_risk":5,"migraine_risk":4,"frizz_risk":1,"updated_at":"2026-03-12T16:12:43.558684+05:30"},{"city":"Shillong","state":"Meghalaya","latitude":25.5788,"longitude":91.8933,"temp":17.2,"humidity":68,"rain":0.0,"pressure":856.4,"uv_index":6.65,"wind_gusts":26.3,"aqi":134,"pm10":67.3,"pm2_5":59.0,"mosquito_risk":3,"arthritis_risk":5,"migraine_risk":7,"frizz_risk":0,"updated_at":"2026-03-12T16:12:43.558690+05:30"},{"city":"Imphal","state":"Manipur","latitude":24.817,"longitude":93.9368,"temp":21.3,"humidity":72,"rain":0.0,"pressure":923.3,"uv_index":8.0,"wind_gusts":31.0,"aqi":170,"pm10":66.4,"pm2_5":60.5,"mosquito_risk":3,"arthritis_risk":5,"migraine_risk":7,"frizz_risk":0,"updated_at":"2026-03-12T16:12:43.558696+05:30"},{"city":"Aizawl","state":"Mizoram","latitude":23.7271,"longitude":92.7176,"temp":22.1,"humidity":65,"rain":0.0,"pressure":892.9,"uv_index":7.9,"wind_gusts":37.1,"aqi":187,"pm10":112.0,"pm2_5":98.5,"mosquito_risk":3,"arthritis_risk":5,"migraine_risk":7,"frizz_risk":0,"updated_at":"2026-03-12T16:12:43.558703+05:30"},{"city":"Kohima","state":"Nagaland","latitude":25.6701,"longitude":94.1077,"temp":16.8,"humidity":89,"rain":0.0,"pressure":854.8,"uv_index":7.1,"wind_gusts":41.4,"aqi":151,"pm10":62.6,"pm2_5":56.6,"mosquito_risk":3,"arthritis_risk":10,"migraine_risk":7,"frizz_risk":0,"updated_at":"2026-03-12T16:12:43.558709+05:30"},{"city":"Gangtok","state":"Sikkim","latitude":27.3314,"longitude":88.6138,"temp":19.7,"humidity":66,"rain":0.0,"pressure":837.7,"uv_index":7.15,"wind_gusts":20.2,"aqi":113,"pm10":32.8,"pm2_5":29.6,"mosquito_risk":3,"arthritis_risk":5,"migraine_risk":7,"frizz_risk":0,"updated_at":"2026-03-12T16:12:43.558716+05:30"},{"city":"Siliguri","state":"West Bengal","latitude":26.7271,"longitude":88.3953,"temp":22.9,"humidity":83,"rain":0.0,"pressure":993.7,"uv_index":7.35,"wind_gusts":23.8,"aqi":170,"pm10":69.2,"pm2_5":61.7,"mosquito_risk":3,"arthritis_risk":5,"migraine_risk":7,"frizz_risk":1,"updated_at":"2026-03-12T16:12:46.785607+05:30"},{"city":"Durgapur","state":"West Bengal","latitude":23.5204,"longitude":87.3119,"temp":31.5,"humidity":52,"rain":0.0,"pressure":993.7,"uv_index":7.8,"wind_gusts":26.6,"aqi":188,"pm10":127.6,"pm2_5":106.4,"mosquito_risk":0,"arthritis_risk":5,"migraine_risk":7,"frizz_risk":1,"updated_at":"2026-03-12T16:12:46.785641+05:30"},{"city":"Asansol","state":"West Bengal","latitude":23.6739,"longitude":86.9524,"temp":31.9,"humidity":52,"rain":0.0,"pressure":992.1,"uv_index":7.35,"wind_gusts":29.5,"aqi":186,"pm10":112.7,"pm2_5":82.2,"mosquito_risk":0,"arthritis_risk":5,"migraine_risk":7,"frizz_risk":1,"updated_at":"2026-03-12T16:12:46.785654+05:30"},{"city":"Pondicherry","state":"Puducherry","latitude":11.9139,"longitude":79.8145,"temp":33.1,"humidity":52,"rain":0.0,"pressure":1007.1,"uv_index":9.0,"wind_gusts":29.5,"aqi":71,"pm10":25.3,"pm2_5":20.6,"mosquito_risk":0,"arthritis_risk":5,"migraine_risk":4,"frizz_risk":1,"updated_at":"2026-03-12T16:12:46.785664+05:30"},{"city":"Port Blair","state":"Andaman and Nicobar Islands","latitude":11.6234,"longitude":92.7265,"temp":28.2,"humidity":77,"rain":0.0,"pressure":1006.0,"uv_index":8.95,"wind_gusts":20.5,"aqi":46,"pm10":13.1,"pm2_5":10.6,"mosquito_risk":7,"arthritis_risk":5,"migraine_risk":4,"frizz_risk":1,"updated_at":"2026-03-12T16:12:46.785673+05:30"},{"city":"Haridwar","state":"Uttarakhand","latitude":29.9457,"longitude":78.1642,"temp":31.9,"humidity":38,"rain":0.0,"pressure":973.0,"uv_index":5.25,"wind_gusts":30.2,"aqi":100,"pm10":70.5,"pm2_5":26.3,"mosquito_risk":0,"arthritis_risk":5,"migraine_risk":3,"frizz_risk":0,"updated_at":"2026-03-12T16:12:46.785682+05:30"},{"city":"Rishikesh","state":"Uttarakhand","latitude":30.0869,"longitude":78.2676,"temp":31.4,"humidity":36,"rain":0.0,"pressure":966.0,"uv_index":5.4,"wind_gusts":29.5,"aqi":81,"pm10":46.8,"pm2_5":20.7,"mosquito_risk":0,"arthritis_risk":5,"migraine_risk":3,"frizz_risk":0,"updated_at":"2026-03-12T16:12:46.785691+05:30"},{"city":"Nainital","state":"Uttarakhand","latitude":29.3919,"longitude":79.4542,"temp":23.9,"humidity":46,"rain":0.0,"pressure":807.6,"uv_index":6.5,"wind_gusts":55.1,"aqi":85,"pm10":54.1,"pm2_5":30.6,"mosquito_risk":0,"arthritis_risk":5,"migraine_risk":7,"frizz_risk":0,"updated_at":"2026-03-12T16:12:46.785700+05:30"},{"city":"Mussoorie","state":"Uttarakhand","latitude":30.4599,"longitude":78.0664,"temp":22.3,"humidity":41,"rain":0.0,"pressure":804.3,"uv_index":5.95,"wind_gusts":42.8,"aqi":85,"pm10":46.1,"pm2_5":18.9,"mosquito_risk":0,"arthritis_risk":5,"migraine_risk":3,"frizz_risk":0,"updated_at":"2026-03-12T16:12:46.785708+05:30"},{"city":"Dharamshala","state":"Himachal Pradesh","latitude":32.219,"longitude":76.3234,"temp":21.9,"humidity":55,"rain":0.0,"pressure":869.6,"uv_index":6.55,"wind_gusts":50.8,"aqi":55,"pm10":39.2,"pm2_5":12.8,"mosquito_risk":0,"arthritis_risk":5,"migraine_risk":7,"frizz_risk":0,"updated_at":"2026-03-12T16:12:46.785716+05:30"},{"city":"Dalhousie","state":"Himachal Pradesh","latitude":32.5387,"longitude":75.971,"temp":19.2,"humidity":51,"rain":0.0,"pressure":804.5,"uv_index":5.95,"wind_gusts":36.0,"aqi":81,"pm10":53.1,"pm2_5":19.1,"mosquito_risk":0,"arthritis_risk":5,"migraine_risk":3,"frizz_risk":0,"updated_at":"2026-03-12T16:12:46.785725+05:30"},{"city":"Patiala","state":"Punjab","latitude":30.3398,"longitude":76.3869,"temp":30.5,"humidity":44,"rain":0.0,"pressure":977.4,"uv_index":5.75,"wind_gusts":37.4,"aqi":156,"pm10":137.4,"pm2_5":41.0,"mosquito_risk":0,"arthritis_risk":5,"migraine_risk":3,"frizz_risk":1,"updated_at":"2026-03-12T16:12:46.785734+05:30"},{"city":"Bhatinda","state":"Punjab","latitude":30.211,"longitude":74.9455,"temp":30.3,"humidity":49,"rain":0.0,"pressure":983.6,"uv_index":6.45,"wind_gusts":28.1,"aqi":152,"pm10":131.3,"pm2_5":50.6,"mosquito_risk":0,"arthritis_risk":5,"migraine_risk":7,"frizz_risk":1,"updated_at":"2026-03-12T16:12:46.785742+05:30"},{"city":"Rohtak","state":"Haryana","latitude":28.8955,"longitude":76.6066,"temp":33.4,"humidity":25,"rain":0.0,"pressure":980.5,"uv_index":6.1,"wind_gusts":27.0,"aqi":321,"pm10":501.1,"pm2_5":65.2,"mosquito_risk":0,"arthritis_risk":5,"migraine_risk":7,"frizz_risk":0,"updated_at":"2026-03-12T16:12:46.785750+05:30"},{"city":"Panipat","state":"Haryana","latitude":29.3909,"longitude":76.9635,"temp":32.7,"humidity":31,"rain":0.0,"pressure":979.1,"uv_index":5.45,"wind_gusts":22.3,"aqi":438,"pm10":607.2,"pm2_5":82.2,"mosquito_risk":0,"arthritis_risk":5,"migraine_risk":3,"frizz_risk":0,"updated_at":"2026-03-12T16:12:46.785758+05:30"},{"city":"Mathura","state":"Uttar Pradesh","latitude":27.4924,"longitude":77.6737,"temp":37.6,"humidity":9,"rain":0.0,"pressure":984.8,"uv_index":5.35,"wind_gusts":30.6,"aqi":407,"pm10":430.3,"pm2_5":42.5,"mosquito_risk":0,"arthritis_risk":5,"migraine_risk":6,"frizz_risk":1,"updated_at":"2026-03-12T16:12:46.785766+05:30"},{"city":"Vrindavan","state":"Uttar Pradesh","latitude":27.5823,"longitude":77.7027,"temp":36.8,"humidity":11,"rain":0.0,"pressure":985.2,"uv_index":5.25,"wind_gusts":32.4,"aqi":407,"pm10":430.3,"pm2_5":42.5,"mosquito_risk":0,"arthritis_risk":5,"migraine_risk":6,"frizz_risk":0,"updated_at":"2026-03-12T16:12:46.785774+05:30"},{"city":"Ayodhya","state":"Uttar Pradesh","latitude":26.7922,"longitude":82.1998,"temp":33.8,"humidity":29,"rain":0.0,"pressure":993.5,"uv_index":6.45,"wind_gusts":26.3,"aqi":156,"pm10":119.7,"pm2_5":42.1,"mosquito_risk":0,"arthritis_risk":5,"migraine_risk":7,"frizz_risk":0,"updated_at":"2026-03-12T16:12:46.785782+05:30"},{"city":"Ratlam","state":"Madhya Pradesh","latitude":23.3315,"longitude":75.0367,"temp":35.9,"humidity":14,"rain":0.0,"pressure":954.7,"uv_index":7.6,"wind_gusts":33.1,"aqi":83,"pm10":11.4,"pm2_5":10.2,"mosquito_risk":0,"arthritis_risk":5,"migraine_risk":10,"frizz_risk":0,"updated_at":"2026-03-12T16:12:46.785790+05:30"},{"city":"Sagar","state":"Madhya Pradesh","latitude":23.8388,"longitude":78.7378,"temp":35.6,"humidity":15,"rain":0.0,"pressure":949.9,"uv_index":7.5,"wind_gusts":27.0,"aqi":89,"pm10":18.7,"pm2_5":8.4,"mosquito_risk":0,"arthritis_risk":5,"migraine_risk":10,"frizz_risk":0,"updated_at":"2026-03-12T16:12:46.785798+05:30"},{"city":"Satna","state":"Madhya Pradesh","latitude":24.6005,"longitude":80.8322,"temp":37.6,"humidity":11,"rain":0.0,"pressure":969.9,"uv_index":7.55,"wind_gusts":29.2,"aqi":88,"pm10":28.0,"pm2_5":9.8,"mosquito_risk":0,"arthritis_risk":5,"migraine_risk":10,"frizz_risk":0,"updated_at":"2026-03-12T16:12:46.785806+05:30"},{"city":"Akola","state":"Maharashtra","latitude":20.7002,"longitude":77.0082,"temp":38.8,"humidity":16,"rain":0.0,"pressure":973.3,"uv_index":8.05,"wind_gusts":22.7,"aqi":120,"pm10":28.5,"pm2_5":18.2,"mosquito_risk":0,"arthritis_risk":5,"migraine_risk":10,"frizz_risk":0,"updated_at":"2026-03-12T16:12:46.785814+05:30"},{"city":"Amravati","state":"Maharashtra","latitude":20.9374,"longitude":77.7796,"temp":38.3,"humidity":16,"rain":0.0,"pressure":965.8,"uv_index":8.0,"wind_gusts":16.9,"aqi":115,"pm10":27.5,"pm2_5":17.2,"mosquito_risk":0,"arthritis_risk":5,"migraine_risk":10,"frizz_risk":0,"updated_at":"2026-03-12T16:12:46.785823+05:30"},{"city":"Latur","state":"Maharashtra","latitude":18.4088,"longitude":76.5604,"temp":35.0,"humidity":22,"rain":0.0,"pressure":939.1,"uv_index":8.45,"wind_gusts":19.1,"aqi":98,"pm10":27.5,"pm2_5":22.1,"mosquito_risk":0,"arthritis_risk":5,"migraine_risk":7,"frizz_risk":0,"updated_at":"2026-03-12T16:12:46.785830+05:30"},{"city":"Nanded","state":"Maharashtra","latitude":19.1383,"longitude":77.3091,"temp":38.4,"humidity":16,"rain":0.0,"pressure":966.9,"uv_index":8.25,"wind_gusts":16.2,"aqi":109,"pm10":28.2,"pm2_5":21.3,"mosquito_risk":0,"arthritis_risk":5,"migraine_risk":10,"frizz_risk":0,"updated_at":"2026-03-12T16:12:46.785836+05:30"},{"city":"Gulbarga","state":"Karnataka","latitude":17.3297,"longitude":76.8343,"temp":36.8,"humidity":21,"rain":0.0,"pressure":957.2,"uv_index":8.55,"wind_gusts":18.0,"aqi":109,"pm10":30.5,"pm2_5":24.8,"mosquito_risk":0,"arthritis_risk":5,"migraine_risk":10,"frizz_risk":0,"updated_at":"2026-03-12T16:12:46.785842+05:30"},{"city":"Bidar","state":"Karnataka","latitude":17.9104,"longitude":77.5199,"temp":35.5,"humidity":21,"rain":0.0,"pressure":934.7,"uv_index":8.5,"wind_gusts":19.1,"aqi":106,"pm10":30.6,"pm2_5":23.7,"mosquito_risk":0,"arthritis_risk":5,"migraine_risk":10,"frizz_risk":0,"updated_at":"2026-03-12T16:12:46.785850+05:30"},{"city":"Hospet","state":"Karnataka","latitude":15.2689,"longitude":76.3909,"temp":35.6,"humidity":22,"rain":0.0,"pressure":954.3,"uv_index":8.8,"wind_gusts":32.4,"aqi":76,"pm10":21.9,"pm2_5":17.3,"mosquito_risk":0,"arthritis_risk":5,"migraine_risk":10,"frizz_risk":0,"updated_at":"2026-03-12T16:12:46.785856+05:30"},{"city":"Tirupur","state":"Tamil Nadu","latitude":11.1085,"longitude":77.3411,"temp":35.7,"humidity":23,"rain":0.0,"pressure":973.1,"uv_index":9.3,"wind_gusts":32.8,"aqi":80,"pm10":22.5,"pm2_5":21.0,"mosquito_risk":0,"arthritis_risk":5,"migraine_risk":10,"frizz_risk":0,"updated_at":"2026-03-12T16:12:46.785862+05:30"},{"city":"Alappuzha","state":"Kerala","latitude":9.4981,"longitude":76.3388,"temp":28.8,"humidity":80,"rain":0.0,"pressure":1005.9,"uv_index":8.9,"wind_gusts":32.0,"aqi":123,"pm10":29.7,"pm2_5":27.3,"mosquito_risk":7,"arthritis_risk":5,"migraine_risk":4,"frizz_risk":1,"updated_at":"2026-03-12T16:12:46.785869+05:30"},{"city":"Munnar","state":"Kerala","latitude":10.0889,"longitude":77.0595,"temp":30.3,"humidity":36,"rain":0.0,"pressure":857.3,"uv_index":9.5,"wind_gusts":23.0,"aqi":73,"pm10":12.6,"pm2_5":11.0,"mosquito_risk":0,"arthritis_risk":5,"migraine_risk":7,"frizz_risk":0,"updated_at":"2026-03-12T16:12:46.785876+05:30"},{"city":"Silchar","state":"Assam","latitude":24.8333,"longitude":92.7789,"temp":28.7,"humidity":66,"rain":0.0,"pressure":1004.7,"uv_index":7.7,"wind_gusts":23.8,"aqi":179,"pm10":88.2,"pm2_5":76.4,"mosquito_risk":7,"arthritis_risk":5,"migraine_risk":4,"frizz_risk":1,"updated_at":"2026-03-12T16:12:46.785883+05:30"},{"city":"Dibrugarh","state":"Assam","latitude":27.4728,"longitude":94.912,"temp":25.3,"humidity":73,"rain":0.0,"pressure":996.5,"uv_index":6.3,"wind_gusts":20.2,"aqi":147,"pm10":39.3,"pm2_5":36.1,"mosquito_risk":7,"arthritis_risk":5,"migraine_risk":7,"frizz_risk":1,"updated_at":"2026-03-12T16:12:46.785889+05:30"}]