[{"city":"Delhi","state":"Delhi","latitude":28.6139,"longitude":77.209,"temp":39.8,"humidity":16,"rain":0.0,"pressure":977.3,"uv_index":7.7,"wind_gusts":43.6,"aqi":628,"pm10":577.4,"pm2_5":98.3,"no2":21.8,"co":312.0,"o3":104.0,"so2":12.8,"mosquito_risk":0,"arthritis_risk":5,"migraine_risk":10,"frizz_risk":0,"updated_at":"2026-05-24T19:11:32.606312+05:30"},{"city":"Mumbai","state":"Maharashtra","latitude":19.076,"longitude":72.8777,"temp":30.9,"humidity":69,"rain":0.0,"pressure":1008.3,"uv_index":6.75,"wind_gusts":42.8,"aqi":39,"pm10":13.4,"pm2_5":9.4,"no2":5.7,"co":247.0,"o3":51.0,"so2":4.2,"mosquito_risk":3,"arthritis_risk":0,"migraine_risk":4,"frizz_risk":1,"updated_at":"2026-05-24T19:11:32.606358+05:30"},{"city":"Bangalore","state":"Karnataka","latitude":12.9716,"longitude":77.5946,"temp":22.0,"humidity":95,"rain":0.3,"pressure":912.9,"uv_index":4.75,"wind_gusts":34.6,"aqi":53,"pm10":21.5,"pm2_5":19.4,"no2":17.4,"co":384.0,"o3":79.0,"so2":5.5,"mosquito_risk":6,"arthritis_risk":5,"migraine_risk":3,"frizz_risk":1,"updated_at":"2026-05-24T19:11:32.606374+05:30"},{"city":"Hyderabad","state":"Telangana","latitude":17.385,"longitude":78.4867,"temp":35.1,"humidity":29,"rain":0.0,"pressure":951.8,"uv_index":9.2,"wind_gusts":47.5,"aqi":78,"pm10":21.9,"pm2_5":16.5,"no2":8.8,"co":228.0,"o3":101.0,"so2":5.7,"mosquito_risk":0,"arthritis_risk":5,"migraine_risk":10,"frizz_risk":0,"updated_at":"2026-05-24T19:11:32.606385+05:30"},{"city":"Chennai","state":"Tamil Nadu","latitude":13.0827,"longitude":80.2707,"temp":32.0,"humidity":64,"rain":0.0,"pressure":1004.8,"uv_index":8.6,"wind_gusts":55.8,"aqi":133,"pm10":29.3,"pm2_5":23.9,"no2":8.6,"co":273.0,"o3":143.0,"so2":8.1,"mosquito_risk":3,"arthritis_risk":5,"migraine_risk":4,"frizz_risk":1,"updated_at":"2026-05-24T19:11:32.606393+05:30"},{"city":"Kolkata","state":"West Bengal","latitude":22.5726,"longitude":88.3639,"temp":30.1,"humidity":87,"rain":0.8,"pressure":1002.9,"uv_index":8.95,"wind_gusts":38.2,"aqi":93,"pm10":45.3,"pm2_5":36.0,"no2":5.3,"co":316.0,"o3":105.0,"so2":6.9,"mosquito_risk":6,"arthritis_risk":5,"migraine_risk":4,"frizz_risk":1,"updated_at":"2026-05-24T19:11:32.606401+05:30"},{"city":"Pune","state":"Maharashtra","latitude":18.5204,"longitude":73.8567,"temp":28.1,"humidity":69,"rain":0.0,"pressure":948.5,"uv_index":8.1,"wind_gusts":52.2,"aqi":42,"pm10":11.4,"pm2_5":9.4,"no2":4.7,"co":189.0,"o3":80.0,"so2":6.1,"mosquito_risk":7,"arthritis_risk":5,"migraine_risk":7,"frizz_risk":1,"updated_at":"2026-05-24T19:11:32.606408+05:30"},{"city":"Ahmedabad","state":"Gujarat","latitude":23.0225,"longitude":72.5714,"temp":39.7,"humidity":28,"rain":0.0,"pressure":999.1,"uv_index":8.15,"wind_gusts":37.1,"aqi":54,"pm10":11.8,"pm2_5":8.4,"no2":2.3,"co":147.0,"o3":69.0,"so2":2.0,"mosquito_risk":0,"arthritis_risk":5,"migraine_risk":10,"frizz_risk":1,"updated_at":"2026-05-24T19:11:32.606414+05:30"},{"city":"Jaipur","state":"Rajasthan","latitude":26.9124,"longitude":75.7873,"temp":39.0,"humidity":15,"rain":0.0,"pressure":956.9,"uv_index":8.25,"wind_gusts":50.0,"aqi":197,"pm10":407.0,"pm2_5":79.2,"no2":2.5,"co":154.0,"o3":101.0,"so2":3.0,"mosquito_risk":0,"arthritis_risk":5,"migraine_risk":10,"frizz_risk":0,"updated_at":"2026-05-24T19:11:32.606425+05:30"},{"city":"Lucknow","state":"Uttar Pradesh","latitude":26.8467,"longitude":80.9462,"temp":38.9,"humidity":21,"rain":0.0,"pressure":987.7,"uv_index":8.2,"wind_gusts":49.0,"aqi":189,"pm10":375.3,"pm2_5":82.7,"no2":6.5,"co":231.0,"o3":133.0,"so2":8.8,"mosquito_risk":0,"arthritis_risk":5,"migraine_risk":10,"frizz_risk":0,"updated_at":"2026-05-24T19:11:32.606432+05:30"},{"city":"Kanpur","state":"Uttar Pradesh","latitude":26.4499,"longitude":80.3319,"temp":39.5,"humidity":19,"rain":0.0,"pressure":986.4,"uv_index":8.2,"wind_gusts":43.2,"aqi":507,"pm10":670.6,"pm2_5":109.7,"no2":6.0,"co":212.0,"o3":128.0,"so2":7.6,"mosquito_risk":0,"arthritis_risk":5,"migraine_risk":10,"frizz_risk":0,"updated_at":"2026-05-24T19:11:32.606439+05:30"},{"city":"Chandigarh","state":"Chandigarh","latitude":30.7333,"longitude":76.7794,"temp":34.7,"humidity":26,"rain":0.0,"pressure":963.7,"uv_index":7.75,"wind_gusts":51.5,"aqi":107,"pm10":54.7,"pm2_5":26.2,"no2":8.2,"co":374.0,"o3":126.0,"so2":7.9,"mosquito_risk":0,"arthritis_risk":5,"migraine_risk":7,"frizz_risk":0,"updated_at":"2026-05-24T19:11:32.606446+05:30"},{"city":"Srinagar","state":"Jammu and Kashmir","latitude":34.0837,"longitude":74.7973,"temp":20.6,"humidity":54,"rain":0.0,"pressure":842.4,"uv_index":8.7,"wind_gusts":25.2,"aqi":90,"pm10":17.6,"pm2_5":10.4,"no2":5.3,"co":423.0,"o3":105.0,"so2":2.0,"mosquito_risk":0,"arthritis_risk":5,"migraine_risk":7,"frizz_risk":0,"updated_at":"2026-05-24T19:11:32.606453+05:30"},{"city":"Jammu","state":"Jammu and Kashmir","latitude":32.7266,"longitude":74.857,"temp":34.8,"humidity":22,"rain":0.0,"pressure":968.0,"uv_index":8.55,"wind_gusts":35.3,"aqi":93,"pm10":66.8,"pm2_5":26.6,"no2":8.9,"co":230.0,"o3":117.0,"so2":4.6,"mosquito_risk":0,"arthritis_risk":5,"migraine_risk":7,"frizz_risk":0,"updated_at":"2026-05-24T19:11:32.606459+05:30"},{"city":"Amritsar","state":"Punjab","latitude":31.634,"longitude":74.8723,"temp":35.2,"humidity":27,"rain":0.0,"pressure":975.5,"uv_index":8.4,"wind_gusts":49.3,"aqi":98,"pm10":59.0,"pm2_5":27.6,"no2":11.0,"co":272.0,"o3":107.0,"so2":4.5,"mosquito_risk":0,"arthritis_risk":5,"migraine_risk":10,"frizz_risk":0,"updated_at":"2026-05-24T19:11:32.606466+05:30"},{"city":"Ludhiana","state":"Punjab","latitude":30.901,"longitude":75.8573,"temp":36.2,"humidity":24,"rain":0.0,"pressure":973.1,"uv_index":8.0,"wind_gusts":40.7,"aqi":108,"pm10":77.3,"pm2_5":29.6,"no2":7.4,"co":271.0,"o3":115.0,"so2":4.5,"mosquito_risk":0,"arthritis_risk":5,"migraine_risk":10,"frizz_risk":0,"updated_at":"2026-05-24T19:11:32.606477+05:30"},{"city":"Jalandhar","state":"Punjab","latitude":31.326,"longitude":75.5762,"temp":35.8,"humidity":22,"rain":0.0,"pressure":974.3,"uv_index":8.2,"wind_gusts":54.7,"aqi":109,"pm10":65.7,"pm2_5":29.6,"no2":10.4,"co":364.0,"o3":116.0,"so2":4.3,"mosquito_risk":0,"arthritis_risk":5,"migraine_risk":10,"frizz_risk":0,"updated_at":"2026-05-24T19:11:32.606483+05:30"},{"city":"Dehradun","state":"Uttarakhand","latitude":30.6284,"longitude":78.0322,"temp":23.3,"humidity":40,"rain":0.0,"pressure":830.0,"uv_index":8.2,"wind_gusts":44.3,"aqi":72,"pm10":78.5,"pm2_5":20.5,"no2":5.9,"co":148.0,"o3":106.0,"so2":1.8,"mosquito_risk":0,"arthritis_risk":5,"migraine_risk":7,"frizz_risk":0,"updated_at":"2026-05-24T19:11:32.606490+05:30"},{"city":"Shimla","state":"Himachal Pradesh","latitude":31.1048,"longitude":77.1734,"temp":19.0,"humidity":36,"rain":0.0,"pressure":784.7,"uv_index":8.25,"wind_gusts":65.5,"aqi":76,"pm10":90.3,"pm2_5":24.3,"no2":4.1,"co":174.0,"o3":110.0,"so2":2.8,"mosquito_risk":0,"arthritis_risk":5,"migraine_risk":7,"frizz_risk":0,"updated_at":"2026-05-24T19:11:32.606499+05:30"},{"city":"Manali","state":"Himachal Pradesh","latitude":32.2396,"longitude":77.1887,"temp":15.4,"humidity":80,"rain":0.0,"pressure":819.1,"uv_index":9.65,"wind_gusts":45.0,"aqi":101,"pm10":25.6,"pm2_5":8.8,"no2":7.4,"co":152.0,"o3":127.0,"so2":0.7,"mosquito_risk":3,"arthritis_risk":5,"migraine_risk":7,"frizz_risk":0,"updated_at":"2026-05-24T19:11:32.606505+05:30"},{"city":"Gurgaon","state":"Haryana","latitude":28.4595,"longitude":77.0266,"temp":38.0,"humidity":19,"rain":0.0,"pressure":975.7,"uv_index":7.8,"wind_gusts":42.5,"aqi":1170,"pm10":1046.8,"pm2_5":171.4,"no2":21.6,"co":425.0,"o3":91.0,"so2":10.8,"mosquito_risk":0,"arthritis_risk":5,"migraine_risk":10,"frizz_risk":0,"updated_at":"2026-05-24T19:11:32.606511+05:30"},{"city":"Noida","state":"Uttar Pradesh","latitude":28.5355,"longitude":77.391,"temp":38.4,"humidity":21,"rain":0.0,"pressure":978.5,"uv_index":7.75,"wind_gusts":40.7,"aqi":1170,"pm10":1046.8,"pm2_5":171.4,"no2":21.6,"co":339.0,"o3":91.0,"so2":10.8,"mosquito_risk":0,"arthritis_risk":5,"migraine_risk":10,"frizz_risk":0,"updated_at":"2026-05-24T19:11:32.606518+05:30"},{"city":"Ghaziabad","state":"Uttar Pradesh","latitude":28.6692,"longitude":77.4538,"temp":38.2,"humidity":21,"rain":0.0,"pressure":976.9,"uv_index":7.7,"wind_gusts":45.7,"aqi":457,"pm10":525.3,"pm2_5":91.0,"no2":14.0,"co":258.0,"o3":124.0,"so2":14.2,"mosquito_risk":0,"arthritis_risk":5,"migraine_risk":10,"frizz_risk":0,"updated_at":"2026-05-24T19:11:32.606524+05:30"},{"city":"Faridabad","state":"Haryana","latitude":28.4089,"longitude":77.3178,"temp":40.0,"humidity":20,"rain":0.0,"pressure":978.0,"uv_index":7.8,"wind_gusts":46.4,"aqi":1170,"pm10":1046.8,"pm2_5":171.4,"no2":21.6,"co":363.0,"o3":91.0,"so2":10.8,"mosquito_risk":0,"arthritis_risk":5,"migraine_risk":10,"frizz_risk":0,"updated_at":"2026-05-24T19:11:32.606530+05:30"},{"city":"Meerut","state":"Uttar Pradesh","latitude":28.9845,"longitude":77.7064,"temp":36.5,"humidity":28,"rain":0.0,"pressure":975.9,"uv_index":7.65,"wind_gusts":51.1,"aqi":457,"pm10":525.3,"pm2_5":91.0,"no2":14.0,"co":248.0,"o3":124.0,"so2":14.2,"mosquito_risk":0,"arthritis_risk":5,"migraine_risk":10,"frizz_risk":0,"updated_at":"2026-05-24T19:11:32.606537+05:30"},{"city":"Agra","state":"Uttar Pradesh","latitude":27.1767,"longitude":78.0081,"temp":39.7,"humidity":18,"rain":0.0,"pressure":982.5,"uv_index":8.05,"wind_gusts":46.1,"aqi":752,"pm10":739.5,"pm2_5":118.7,"no2":15.6,"co":269.0,"o3":93.0,"so2":8.4,"mosquito_risk":0,"arthritis_risk":5,"migraine_risk":10,"frizz_risk":0,"updated_at":"2026-05-24T19:11:32.606543+05:30"},{"city":"Varanasi","state":"Uttar Pradesh","latitude":25.3176,"longitude":82.9739,"temp":39.7,"humidity":17,"rain":0.0,"pressure":991.5,"uv_index":8.75,"wind_gusts":49.3,"aqi":153,"pm10":98.5,"pm2_5":40.7,"no2":8.3,"co":359.0,"o3":120.0,"so2":8.9,"mosquito_risk":0,"arthritis_risk":5,"migraine_risk":10,"frizz_risk":0,"updated_at":"2026-05-24T19:11:32.606549+05:30"},{"city":"Prayagraj","state":"Uttar Pradesh","latitude":25.4358,"longitude":81.8463,"temp":38.4,"humidity":19,"rain":0.0,"pressure":990.2,"uv_index":8.6,"wind_gusts":45.0,"aqi":154,"pm10":115.5,"pm2_5":39.1,"no2":6.2,"co":201.0,"o3":124.0,"so2":7.8,"mosquito_risk":0,"arthritis_risk":5,"migraine_risk":10,"frizz_risk":0,"updated_at":"2026-05-24T19:11:32.606555+05:30"},{"city":"Gorakhpur","state":"Uttar Pradesh","latitude":26.7606,"longitude":83.3732,"temp":35.0,"humidity":35,"rain":0.0,"pressure":991.2,"uv_index":8.6,"wind_gusts":35.3,"aqi":179,"pm10":74.5,"pm2_5":44.2,"no2":9.8,"co":248.0,"o3":129.0,"so2":9.1,"mosquito_risk":0,"arthritis_risk":5,"migraine_risk":7,"frizz_risk":1,"updated_at":"2026-05-24T19:11:32.606564+05:30"},{"city":"Bareilly","state":"Uttar Pradesh","latitude":28.367,"longitude":79.4304,"temp":36.0,"humidity":26,"rain":0.0,"pressure":981.1,"uv_index":8.05,"wind_gusts":43.6,"aqi":162,"pm10":104.8,"pm2_5":43.4,"no2":7.6,"co":230.0,"o3":142.0,"so2":9.8,"mosquito_risk":0,"arthritis_risk":5,"migraine_risk":10,"frizz_risk":0,"updated_at":"2026-05-24T19:11:32.606570+05:30"},{"city":"Aligarh","state":"Uttar Pradesh","latitude":27.8974,"longitude":78.088,"temp":37.0,"humidity":27,"rain":0.0,"pressure":980.1,"uv_index":7.9,"wind_gusts":50.8,"aqi":782,"pm10":918.3,"pm2_5":153.2,"no2":13.2,"co":243.0,"o3":104.0,"so2":8.5,"mosquito_risk":0,"arthritis_risk":5,"migraine_risk":10,"frizz_risk":0,"updated_at":"2026-05-24T19:11:32.606577+05:30"},{"city":"Moradabad","state":"Uttar Pradesh","latitude":28.8386,"longitude":78.7733,"temp":36.5,"humidity":24,"rain":0.0,"pressure":978.1,"uv_index":7.85,"wind_gusts":51.1,"aqi":147,"pm10":227.7,"pm2_5":61.9,"no2":9.5,"co":253.0,"o3":122.0,"so2":8.2,"mosquito_risk":0,"arthritis_risk":5,"migraine_risk":10,"frizz_risk":0,"updated_at":"2026-05-24T19:11:32.606583+05:30"},{"city":"Saharanpur","state":"Uttar Pradesh","latitude":29.9637,"longitude":77.546,"temp":35.4,"humidity":24,"rain":0.0,"pressure":970.4,"uv_index":7.4,"wind_gusts":56.5,"aqi":122,"pm10":177.0,"pm2_5":46.1,"no2":10.8,"co":246.0,"o3":116.0,"so2":10.0,"mosquito_risk":0,"arthritis_risk":5,"migraine_risk":10,"frizz_risk":0,"updated_at":"2026-05-24T19:11:32.606589+05:30"},{"city":"Jhansi","state":"Uttar Pradesh","latitude":25.4484,"longitude":78.5685,"temp":39.0,"humidity":18,"rain":0.0,"pressure":974.0,"uv_index":8.45,"wind_gusts":45.7,"aqi":91,"pm10":58.4,"pm2_5":29.3,"no2":2.9,"co":155.0,"o3":99.0,"so2":3.8,"mosquito_risk":0,"arthritis_risk":5,"migraine_risk":10,"frizz_risk":0,"updated_at":"2026-05-24T19:11:35.856228+05:30"},{"city":"Surat","state":"Gujarat","latitude":21.1702,"longitude":72.8311,"temp":31.8,"humidity":69,"rain":0.0,"pressure":1005.4,"uv_index":7.65,"wind_gusts":45.0,"aqi":54,"pm10":21.3,"pm2_5":16.7,"no2":16.3,"co":257.0,"o3":36.0,"so2":35.4,"mosquito_risk":3,"arthritis_risk":5,"migraine_risk":4,"frizz_risk":1,"updated_at":"2026-05-24T19:11:35.856266+05:30"},{"city":"Vadodara","state":"Gujarat","latitude":22.3072,"longitude":73.1812,"temp":36.5,"humidity":45,"rain":0.0,"pressure":1001.6,"uv_index":8.1,"wind_gusts":43.6,"aqi":50,"pm10":14.3,"pm2_5":9.5,"no2":4.5,"co":146.0,"o3":79.0,"so2":5.8,"mosquito_risk":0,"arthritis_risk":5,"migraine_risk":7,"frizz_risk":1,"updated_at":"2026-05-24T19:11:35.856277+05:30"},{"city":"Rajkot","state":"Gujarat","latitude":22.3039,"longitude":70.8022,"temp":34.1,"humidity":54,"rain":0.0,"pressure":992.8,"uv_index":7.7,"wind_gusts":49.0,"aqi":56,"pm10":19.7,"pm2_5":13.5,"no2":2.4,"co":121.0,"o3":79.0,"so2":4.9,"mosquito_risk":0,"arthritis_risk":5,"migraine_risk":7,"frizz_risk":1,"updated_at":"2026-05-24T19:11:35.856285+05:30"},{"city":"Thane","state":"Maharashtra","latitude":19.2183,"longitude":72.9781,"temp":31.4,"humidity":66,"rain":0.0,"pressure":1007.7,"uv_index":7.1,"wind_gusts":40.3,"aqi":39,"pm10":13.4,"pm2_5":9.4,"no2":5.7,"co":207.0,"o3":51.0,"so2":4.2,"mosquito_risk":3,"arthritis_risk":5,"migraine_risk":4,"frizz_risk":1,"updated_at":"2026-05-24T19:11:35.856293+05:30"},{"city":"Nagpur","state":"Maharashtra","latitude":21.1458,"longitude":79.0882,"temp":40.9,"humidity":15,"rain":0.0,"pressure":969.4,"uv_index":8.9,"wind_gusts":47.2,"aqi":96,"pm10":44.6,"pm2_5":23.1,"no2":6.5,"co":167.0,"o3":116.0,"so2":11.7,"mosquito_risk":0,"arthritis_risk":5,"migraine_risk":10,"frizz_risk":0,"updated_at":"2026-05-24T19:11:35.856301+05:30"},{"city":"Nashik","state":"Maharashtra","latitude":19.9975,"longitude":73.7898,"temp":28.5,"humidity":70,"rain":0.0,"pressure":945.9,"uv_index":8.1,"wind_gusts":42.5,"aqi":32,"pm10":7.8,"pm2_5":5.4,"no2":1.7,"co":134.0,"o3":56.0,"so2":0.7,"mosquito_risk":7,"arthritis_risk":5,"migraine_risk":7,"frizz_risk":1,"updated_at":"2026-05-24T19:11:35.856308+05:30"},{"city":"Aurangabad","state":"Maharashtra","latitude":19.8762,"longitude":75.3433,"temp":35.9,"humidity":25,"rain":0.0,"pressure":943.2,"uv_index":8.95,"wind_gusts":43.2,"aqi":48,"pm10":22.7,"pm2_5":11.4,"no2":1.8,"co":152.0,"o3":94.0,"so2":1.4,"mosquito_risk":0,"arthritis_risk":5,"migraine_risk":10,"frizz_risk":0,"updated_at":"2026-05-24T19:11:35.856315+05:30"},{"city":"Solapur","state":"Maharashtra","latitude":17.6599,"longitude":75.9064,"temp":33.6,"humidity":40,"rain":0.0,"pressure":956.1,"uv_index":9.0,"wind_gusts":41.0,"aqi":64,"pm10":18.0,"pm2_5":12.7,"no2":3.3,"co":164.0,"o3":97.0,"so2":2.8,"mosquito_risk":0,"arthritis_risk":5,"migraine_risk":7,"frizz_risk":1,"updated_at":"2026-05-24T19:11:35.856323+05:30"},{"city":"Kolhapur","state":"Maharashtra","latitude":16.705,"longitude":74.2433,"temp":27.8,"humidity":71,"rain":0.0,"pressure":947.9,"uv_index":8.75,"wind_gusts":39.2,"aqi":40,"pm10":13.6,"pm2_5":10.5,"no2":3.9,"co":158.0,"o3":70.0,"so2":2.0,"mosquito_risk":7,"arthritis_risk":5,"migraine_risk":7,"frizz_risk":1,"updated_at":"2026-05-24T19:11:35.856330+05:30"},{"city":"Goa","state":"Goa","latitude":15.2993,"longitude":74.124,"temp":29.0,"humidity":77,"rain":0.0,"pressure":998.1,"uv_index":5.75,"wind_gusts":28.8,"aqi":45,"pm10":14.8,"pm2_5":10.0,"no2":1.9,"co":152.0,"o3":54.0,"so2":1.0,"mosquito_risk":7,"arthritis_risk":5,"migraine_risk":3,"frizz_risk":1,"updated_at":"2026-05-24T19:11:35.856337+05:30"},{"city":"Jodhpur","state":"Rajasthan","latitude":26.2389,"longitude":73.0243,"temp":38.8,"humidity":19,"rain":0.0,"pressure":979.3,"uv_index":8.45,"wind_gusts":54.7,"aqi":194,"pm10":419.1,"pm2_5":74.3,"no2":1.7,"co":129.0,"o3":98.0,"so2":1.9,"mosquito_risk":0,"arthritis_risk":5,"migraine_risk":10,"frizz_risk":0,"updated_at":"2026-05-24T19:11:35.856344+05:30"},{"city":"Udaipur","state":"Rajasthan","latitude":24.5854,"longitude":73.7125,"temp":35.3,"humidity":28,"rain":0.0,"pressure":945.3,"uv_index":8.8,"wind_gusts":54.0,"aqi":71,"pm10":34.3,"pm2_5":14.3,"no2":1.1,"co":135.0,"o3":85.0,"so2":1.6,"mosquito_risk":0,"arthritis_risk":5,"migraine_risk":10,"frizz_risk":0,"updated_at":"2026-05-24T19:11:35.856351+05:30"},{"city":"Kota","state":"Rajasthan","latitude":25.2138,"longitude":75.8648,"temp":40.1,"humidity":15,"rain":0.0,"pressure":975.1,"uv_index":8.4,"wind_gusts":42.8,"aqi":89,"pm10":88.0,"pm2_5":32.1,"no2":3.3,"co":154.0,"o3":98.0,"so2":3.8,"mosquito_risk":0,"arthritis_risk":5,"migraine_risk":10,"frizz_risk":0,"updated_at":"2026-05-24T19:11:35.856358+05:30"},{"city":"Bikaner","state":"Rajasthan","latitude":28.0229,"longitude":73.3119,"temp":41.6,"humidity":12,"rain":0.0,"pressure":975.8,"uv_index":8.45,"wind_gusts":59.8,"aqi":154,"pm10":323.2,"pm2_5":107.1,"no2":0.6,"co":124.0,"o3":100.0,"so2":1.5,"mosquito_risk":0,"arthritis_risk":5,"migraine_risk":10,"frizz_risk":0,"updated_at":"2026-05-24T19:11:35.856365+05:30"},{"city":"Ajmer","state":"Rajasthan","latitude":26.4499,"longitude":74.6399,"temp":36.0,"humidity":23,"rain":0.0,"pressure":952.2,"uv_index":8.4,"wind_gusts":62.6,"aqi":99,"pm10":114.3,"pm2_5":34.9,"no2":1.5,"co":137.0,"o3":101.0,"so2":1.9,"mosquito_risk":0,"arthritis_risk":5,"migraine_risk":10,"frizz_risk":0,"updated_at":"2026-05-24T19:11:35.856371+05:30"},{"city":"Gwalior","state":"Madhya Pradesh","latitude":26.2183,"longitude":78.1828,"temp":40.2,"humidity":17,"rain":0.0,"pressure":978.7,"uv_index":8.25,"wind_gusts":46.1,"aqi":104,"pm10":68.5,"pm2_5":32.0,"no2":2.5,"co":157.0,"o3":102.0,"so2":3.3,"mosquito_risk":0,"arthritis_risk":5,"migraine_risk":10,"frizz_risk":0,"updated_at":"2026-05-24T19:11:35.856378+05:30"},{"city":"Indore","state":"Madhya Pradesh","latitude":22.7196,"longitude":75.8577,"temp":36.5,"humidity":25,"rain":0.0,"pressure":947.1,"uv_index":8.7,"wind_gusts":44.6,"aqi":66,"pm10":58.3,"pm2_5":24.2,"no2":2.2,"co":188.0,"o3":109.0,"so2":3.9,"mosquito_risk":0,"arthritis_risk":5,"migraine_risk":10,"frizz_risk":0,"updated_at":"2026-05-24T19:11:35.856384+05:30"},{"city":"Bhopal","state":"Madhya Pradesh","latitude":23.2599,"longitude":77.4126,"temp":38.3,"humidity":16,"rain":0.0,"pressure":951.2,"uv_index":8.7,"wind_gusts":45.7,"aqi":78,"pm10":76.8,"pm2_5":29.0,"no2":2.5,"co":165.0,"o3":104.0,"so2":2.9,"mosquito_risk":0,"arthritis_risk":5,"migraine_risk":10,"frizz_risk":0,"updated_at":"2026-05-24T19:11:35.856391+05:30"},{"city":"Jabalpur","state":"Madhya Pradesh","latitude":23.1815,"longitude":79.9864,"temp":38.0,"humidity":17,"rain":0.0,"pressure":958.2,"uv_index":8.85,"wind_gusts":38.9,"aqi":84,"pm10":84.5,"pm2_5":31.2,"no2":3.5,"co":147.0,"o3":106.0,"so2":3.1,"mosquito_risk":0,"arthritis_risk":5,"migraine_risk":10,"frizz_risk":0,"updated_at":"2026-05-24T19:11:35.856397+05:30"},{"city":"Ujjain","state":"Madhya Pradesh","latitude":23.1765,"longitude":75.7885,"temp":36.9,"humidity":24,"rain":0.0,"pressure":952.5,"uv_index":8.6,"wind_gusts":45.4,"aqi":66,"pm10":52.0,"pm2_5":21.4,"no2":1.3,"co":169.0,"o3":106.0,"so2":3.9,"mosquito_risk":0,"arthritis_risk":5,"migraine_risk":10,"frizz_risk":0,"updated_at":"2026-05-24T19:11:35.856405+05:30"},{"city":"Visakhapatnam","state":"Andhra Pradesh","latitude":17.6868,"longitude":83.2185,"temp":32.5,"humidity":72,"rain":0.0,"pressure":999.0,"uv_index":8.9,"wind_gusts":32.8,"aqi":172,"pm10":56.3,"pm2_5":50.3,"no2":29.1,"co":588.0,"o3":141.0,"so2":59.9,"mosquito_risk":3,"arthritis_risk":5,"migraine_risk":7,"frizz_risk":1,"updated_at":"2026-05-24T19:11:35.856411+05:30"},{"city":"Vijayawada","state":"Andhra Pradesh","latitude":16.5062,"longitude":80.648,"temp":38.5,"humidity":32,"rain":0.0,"pressure":997.6,"uv_index":9.1,"wind_gusts":49.3,"aqi":119,"pm10":41.1,"pm2_5":33.5,"no2":9.5,"co":317.0,"o3":114.0,"so2":7.4,"mosquito_risk":0,"arthritis_risk":5,"migraine_risk":10,"frizz_risk":1,"updated_at":"2026-05-24T19:11:35.856418+05:30"},{"city":"Guntur","state":"Andhra Pradesh","latitude":16.3067,"longitude":80.4365,"temp":37.2,"humidity":38,"rain":0.0,"pressure":999.1,"uv_index":9.15,"wind_gusts":49.0,"aqi":110,"pm10":36.3,"pm2_5":28.2,"no2":8.2,"co":341.0,"o3":112.0,"so2":6.5,"mosquito_risk":0,"arthritis_risk":5,"migraine_risk":10,"frizz_risk":1,"updated_at":"2026-05-24T19:11:35.856425+05:30"},{"city":"Nellore","state":"Andhra Pradesh","latitude":14.4426,"longitude":79.9865,"temp":33.5,"humidity":52,"rain":0.0,"pressure":1002.7,"uv_index":9.05,"wind_gusts":45.0,"aqi":111,"pm10":29.0,"pm2_5":24.0,"no2":4.4,"co":200.0,"o3":135.0,"so2":4.4,"mosquito_risk":0,"arthritis_risk":5,"migraine_risk":4,"frizz_risk":1,"updated_at":"2026-05-24T19:11:35.856432+05:30"},{"city":"Kurnool","state":"Andhra Pradesh","latitude":15.8281,"longitude":78.0373,"temp":34.0,"humidity":49,"rain":0.0,"pressure":974.9,"uv_index":9.0,"wind_gusts":47.2,"aqi":75,"pm10":21.4,"pm2_5":17.3,"no2":4.8,"co":207.0,"o3":116.0,"so2":7.5,"mosquito_risk":0,"arthritis_risk":5,"migraine_risk":7,"frizz_risk":1,"updated_at":"2026-05-24T19:11:35.856439+05:30"},{"city":"Kakinada","state":"Andhra Pradesh","latitude":16.9891,"longitude":82.2475,"temp":35.0,"humidity":62,"rain":0.0,"pressure":1001.9,"uv_index":8.8,"wind_gusts":36.4,"aqi":157,"pm10":34.5,"pm2_5":26.4,"no2":3.3,"co":311.0,"o3":137.0,"so2":2.8,"mosquito_risk":3,"arthritis_risk":5,"migraine_risk":4,"frizz_risk":1,"updated_at":"2026-05-24T19:11:35.856446+05:30"},{"city":"Tirupati","state":"Andhra Pradesh","latitude":13.6288,"longitude":79.4192,"temp":32.5,"humidity":56,"rain":0.0,"pressure":989.2,"uv_index":9.1,"wind_gusts":42.5,"aqi":117,"pm10":38.9,"pm2_5":34.9,"no2":9.0,"co":217.0,"o3":127.0,"so2":4.9,"mosquito_risk":0,"arthritis_risk":5,"migraine_risk":7,"frizz_risk":1,"updated_at":"2026-05-24T19:11:35.856452+05:30"},{"city":"Warangal","state":"Telangana","latitude":17.9689,"longitude":79.5941,"temp":37.2,"humidity":27,"rain":0.0,"pressure":975.0,"uv_index":9.0,"wind_gusts":49.3,"aqi":105,"pm10":42.1,"pm2_5":27.9,"no2":6.7,"co":279.0,"o3":115.0,"so2":6.6,"mosquito_risk":0,"arthritis_risk":5,"migraine_risk":10,"frizz_risk":0,"updated_at":"2026-05-24T19:11:35.856459+05:30"},{"city":"Nizamabad","state":"Telangana","latitude":18.6725,"longitude":78.0941,"temp":37.0,"humidity":24,"rain":0.0,"pressure":962.4,"uv_index":9.1,"wind_gusts":45.4,"aqi":77,"pm10":37.1,"pm2_5":17.5,"no2":3.7,"co":219.0,"o3":102.0,"so2":2.9,"mosquito_risk":0,"arthritis_risk":5,"migraine_risk":10,"frizz_risk":0,"updated_at":"2026-05-24T19:11:35.856465+05:30"},{"city":"Mysore","state":"Karnataka","latitude":12.2958,"longitude":76.6396,"temp":23.7,"humidity":91,"rain":0.1,"pressure":929.6,"uv_index":9.0,"wind_gusts":37.8,"aqi":39,"pm10":12.7,"pm2_5":11.1,"no2":10.8,"co":194.0,"o3":71.0,"so2":2.7,"mosquito_risk":6,"arthritis_risk":5,"migraine_risk":7,"frizz_risk":1,"updated_at":"2026-05-24T19:11:35.856472+05:30"},{"city":"Mangalore","state":"Karnataka","latitude":12.9141,"longitude":74.856,"temp":27.8,"humidity":83,"rain":0.0,"pressure":1007.8,"uv_index":7.7,"wind_gusts":36.7,"aqi":54,"pm10":12.8,"pm2_5":8.4,"no2":3.5,"co":153.0,"o3":56.0,"so2":1.8,"mosquito_risk":7,"arthritis_risk":5,"migraine_risk":4,"frizz_risk":1,"updated_at":"2026-05-24T19:11:35.856478+05:30"},{"city":"Hubli-Dharwad","state":"Karnataka","latitude":15.3647,"longitude":75.124,"temp":27.9,"humidity":68,"rain":0.0,"pressure":941.1,"uv_index":8.95,"wind_gusts":35.6,"aqi":35,"pm10":11.1,"pm2_5":8.4,"no2":3.4,"co":171.0,"o3":66.0,"so2":1.3,"mosquito_risk":7,"arthritis_risk":5,"migraine_risk":7,"frizz_risk":1,"updated_at":"2026-05-24T19:11:35.856485+05:30"},{"city":"Belgaum","state":"Karnataka","latitude":15.8497,"longitude":74.4977,"temp":27.8,"humidity":65,"rain":0.0,"pressure":926.2,"uv_index":9.1,"wind_gusts":39.6,"aqi":35,"pm10":11.1,"pm2_5":8.7,"no2":4.6,"co":151.0,"o3":57.0,"so2":1.6,"mosquito_risk":7,"arthritis_risk":5,"migraine_risk":7,"frizz_risk":1,"updated_at":"2026-05-24T19:11:39.117166+05:30"},{"city":"Coimbatore","state":"Tamil Nadu","latitude":11.0168,"longitude":76.9558,"temp":25.7,"humidity":85,"rain":0.1,"pressure":962.8,"uv_index":8.5,"wind_gusts":49.7,"aqi":37,"pm10":7.9,"pm2_5":6.8,"no2":5.1,"co":199.0,"o3":64.0,"so2":2.3,"mosquito_risk":10,"arthritis_risk":5,"migraine_risk":7,"frizz_risk":1,"updated_at":"2026-05-24T19:11:39.117204+05:30"},{"city":"Madurai","state":"Tamil Nadu","latitude":9.9252,"longitude":78.1198,"temp":31.8,"humidity":57,"rain":0.0,"pressure":992.5,"uv_index":8.85,"wind_gusts":63.7,"aqi":60,"pm10":18.6,"pm2_5":14.8,"no2":8.8,"co":182.0,"o3":77.0,"so2":2.8,"mosquito_risk":0,"arthritis_risk":5,"migraine_risk":7,"frizz_risk":1,"updated_at":"2026-05-24T19:11:39.117216+05:30"},{"city":"Trichy","state":"Tamil Nadu","latitude":10.7905,"longitude":78.7047,"temp":30.3,"humidity":65,"rain":0.0,"pressure":999.7,"uv_index":8.3,"wind_gusts":52.6,"aqi":53,"pm10":22.1,"pm2_5":17.9,"no2":7.9,"co":190.0,"o3":88.0,"so2":3.5,"mosquito_risk":3,"arthritis_risk":5,"migraine_risk":7,"frizz_risk":1,"updated_at":"2026-05-24T19:11:39.117225+05:30"},{"city":"Salem","state":"Tamil Nadu","latitude":11.6643,"longitude":78.146,"temp":25.2,"humidity":92,"rain":0.4,"pressure":978.4,"uv_index":8.9,"wind_gusts":33.5,"aqi":64,"pm10":22.9,"pm2_5":18.9,"no2":9.8,"co":204.0,"o3":83.0,"so2":5.9,"mosquito_risk":10,"arthritis_risk":5,"migraine_risk":7,"frizz_risk":1,"updated_at":"2026-05-24T19:11:39.117235+05:30"},{"city":"Tirunelveli","state":"Tamil Nadu","latitude":8.7139,"longitude":77.7567,"temp":31.2,"humidity":55,"rain":0.0,"pressure":1003.0,"uv_index":8.8,"wind_gusts":39.2,"aqi":35,"pm10":7.3,"pm2_5":5.7,"no2":3.1,"co":155.0,"o3":67.0,"so2":1.3,"mosquito_risk":0,"arthritis_risk":5,"migraine_risk":4,"frizz_risk":1,"updated_at":"2026-05-24T19:11:39.117244+05:30"},{"city":"Vellore","state":"Tamil Nadu","latitude":12.9165,"longitude":79.1325,"temp":30.2,"humidity":61,"rain":0.0,"pressure":983.6,"uv_index":9.1,"wind_gusts":47.2,"aqi":64,"pm10":32.8,"pm2_5":29.3,"no2":8.3,"co":251.0,"o3":96.0,"so2":3.2,"mosquito_risk":3,"arthritis_risk":5,"migraine_risk":7,"frizz_risk":1,"updated_at":"2026-05-24T19:11:39.117252+05:30"},{"city":"Erode","state":"Tamil Nadu","latitude":11.341,"longitude":77.7172,"temp":26.0,"humidity":90,"rain":0.6,"pressure":990.5,"uv_index":8.95,"wind_gusts":52.6,"aqi":50,"pm10":11.9,"pm2_5":9.8,"no2":8.3,"co":235.0,"o3":76.0,"so2":2.3,"mosquito_risk":10,"arthritis_risk":5,"migraine_risk":7,"frizz_risk":1,"updated_at":"2026-05-24T19:11:39.117259+05:30"},{"city":"Kochi","state":"Kerala","latitude":9.9312,"longitude":76.2673,"temp":26.2,"humidity":94,"rain":0.1,"pressure":1010.8,"uv_index":8.5,"wind_gusts":39.2,"aqi":51,"pm10":12.7,"pm2_5":10.5,"no2":12.3,"co":182.0,"o3":41.0,"so2":4.0,"mosquito_risk":10,"arthritis_risk":0,"migraine_risk":4,"frizz_risk":1,"updated_at":"2026-05-24T19:11:39.117267+05:30"},{"city":"Thiruvananthapuram","state":"Kerala","latitude":8.5241,"longitude":76.9366,"temp":25.0,"humidity":97,"rain":0.0,"pressure":1010.1,"uv_index":8.4,"wind_gusts":46.4,"aqi":32,"pm10":10.6,"pm2_5":6.3,"no2":2.2,"co":178.0,"o3":60.0,"so2":0.8,"mosquito_risk":7,"arthritis_risk":0,"migraine_risk":4,"frizz_risk":1,"updated_at":"2026-05-24T19:11:39.117274+05:30"},{"city":"Kozhikode","state":"Kerala","latitude":11.2588,"longitude":75.7804,"temp":25.8,"humidity":98,"rain":0.0,"pressure":1009.5,"uv_index":8.05,"wind_gusts":42.1,"aqi":32,"pm10":9.7,"pm2_5":5.8,"no2":1.1,"co":164.0,"o3":63.0,"so2":0.8,"mosquito_risk":7,"arthritis_risk":0,"migraine_risk":4,"frizz_risk":1,"updated_at":"2026-05-24T19:11:39.117282+05:30"},{"city":"Thrissur","state":"Kerala","latitude":10.5276,"longitude":76.2144,"temp":25.9,"humidity":95,"rain":0.0,"pressure":1009.1,"uv_index":8.15,"wind_gusts":36.4,"aqi":53,"pm10":13.0,"pm2_5":11.3,"no2":8.5,"co":244.0,"o3":46.0,"so2":2.7,"mosquito_risk":7,"arthritis_risk":0,"migraine_risk":4,"frizz_risk":1,"updated_at":"2026-05-24T19:11:39.117290+05:30"},{"city":"Kannur","state":"Kerala","latitude":11.8745,"longitude":75.3704,"temp":26.5,"humidity":96,"rain":0.0,"pressure":1008.5,"uv_index":6.6,"wind_gusts":40.7,"aqi":48,"pm10":11.8,"pm2_5":8.0,"no2":4.0,"co":203.0,"o3":56.0,"so2":1.5,"mosquito_risk":7,"arthritis_risk":0,"migraine_risk":4,"frizz_risk":1,"updated_at":"2026-05-24T19:11:39.117296+05:30"},{"city":"Patna","state":"Bihar","latitude":25.5941,"longitude":85.1376,"temp":33.2,"humidity":65,"rain":0.0,"pressure":994.8,"uv_index":8.8,"wind_gusts":30.2,"aqi":191,"pm10":146.7,"pm2_5":70.3,"no2":16.2,"co":343.0,"o3":140.0,"so2":14.5,"mosquito_risk":3,"arthritis_risk":5,"migraine_risk":7,"frizz_risk":1,"updated_at":"2026-05-24T19:11:39.117304+05:30"},{"city":"Gaya","state":"Bihar","latitude":24.7914,"longitude":85.0002,"temp":35.5,"humidity":30,"rain":0.0,"pressure":988.1,"uv_index":8.85,"wind_gusts":31.7,"aqi":157,"pm10":259.8,"pm2_5":79.6,"no2":19.6,"co":352.0,"o3":108.0,"so2":12.4,"mosquito_risk":0,"arthritis_risk":5,"migraine_risk":10,"frizz_risk":0,"updated_at":"2026-05-24T19:11:39.117311+05:30"},{"city":"Muzaffarpur","state":"Bihar","latitude":26.1209,"longitude":85.3647,"temp":31.7,"humidity":67,"rain":0.0,"pressure":995.3,"uv_index":8.8,"wind_gusts":29.9,"aqi":196,"pm10":108.7,"pm2_5":69.4,"no2":15.3,"co":445.0,"o3":156.0,"so2":16.8,"mosquito_risk":3,"arthritis_risk":5,"migraine_risk":7,"frizz_risk":1,"updated_at":"2026-05-24T19:11:39.117318+05:30"},{"city":"Bhagalpur","state":"Bihar","latitude":25.2425,"longitude":87.0117,"temp":32.6,"humidity":70,"rain":0.0,"pressure":996.0,"uv_index":8.8,"wind_gusts":24.1,"aqi":178,"pm10":92.0,"pm2_5":51.6,"no2":8.3,"co":358.0,"o3":159.0,"so2":15.9,"mosquito_risk":3,"arthritis_risk":5,"migraine_risk":7,"frizz_risk":1,"updated_at":"2026-05-24T19:11:39.117325+05:30"},{"city":"Ranchi","state":"Jharkhand","latitude":23.3441,"longitude":85.3096,"temp":30.1,"humidity":50,"rain":0.0,"pressure":934.6,"uv_index":9.25,"wind_gusts":22.7,"aqi":124,"pm10":161.6,"pm2_5":53.9,"no2":12.0,"co":320.0,"o3":103.0,"so2":6.6,"mosquito_risk":0,"arthritis_risk":5,"migraine_risk":7,"frizz_risk":1,"updated_at":"2026-05-24T19:11:39.117332+05:30"},{"city":"Jamshedpur","state":"Jharkhand","latitude":22.8046,"longitude":86.2029,"temp":32.5,"humidity":55,"rain":0.0,"pressure":986.5,"uv_index":9.1,"wind_gusts":38.5,"aqi":190,"pm10":98.7,"pm2_5":51.2,"no2":9.2,"co":309.0,"o3":145.0,"so2":16.5,"mosquito_risk":0,"arthritis_risk":5,"migraine_risk":7,"frizz_risk":1,"updated_at":"2026-05-24T19:11:39.117340+05:30"},{"city":"Dhanbad","state":"Jharkhand","latitude":23.7957,"longitude":86.4304,"temp":33.9,"humidity":43,"rain":0.0,"pressure":975.6,"uv_index":9.0,"wind_gusts":30.2,"aqi":183,"pm10":193.7,"pm2_5":92.0,"no2":38.7,"co":257.0,"o3":112.0,"so2":95.8,"mosquito_risk":0,"arthritis_risk":5,"migraine_risk":7,"frizz_risk":1,"updated_at":"2026-05-24T19:11:39.117347+05:30"},{"city":"Bokaro","state":"Jharkhand","latitude":23.6693,"longitude":86.1511,"temp":34.5,"humidity":39,"rain":0.0,"pressure":979.1,"uv_index":9.05,"wind_gusts":26.6,"aqi":164,"pm10":269.2,"pm2_5":91.3,"no2":33.2,"co":637.0,"o3":106.0,"so2":86.5,"mosquito_risk":0,"arthritis_risk":5,"migraine_risk":7,"frizz_risk":1,"updated_at":"2026-05-24T19:11:39.117355+05:30"},{"city":"Bhubaneswar","state":"Odisha","latitude":20.2961,"longitude":85.8245,"temp":30.5,"humidity":84,"rain":0.0,"pressure":999.1,"uv_index":9.1,"wind_gusts":41.8,"aqi":107,"pm10":29.9,"pm2_5":23.6,"no2":4.3,"co":251.0,"o3":96.0,"so2":4.2,"mosquito_risk":3,"arthritis_risk":5,"migraine_risk":7,"frizz_risk":1,"updated_at":"2026-05-24T19:11:39.117363+05:30"},{"city":"Cuttack","state":"Odisha","latitude":20.4625,"longitude":85.8828,"temp":30.8,"humidity":83,"rain":0.0,"pressure":1000.7,"uv_index":9.2,"wind_gusts":39.2,"aqi":107,"pm10":29.9,"pm2_5":23.6,"no2":4.3,"co":260.0,"o3":96.0,"so2":4.2,"mosquito_risk":3,"arthritis_risk":5,"migraine_risk":4,"frizz_risk":1,"updated_at":"2026-05-24T19:11:39.117369+05:30"},{"city":"Rourkela","state":"Odisha","latitude":22.2604,"longitude":84.8536,"temp":34.8,"humidity":42,"rain":0.0,"pressure":980.2,"uv_index":8.95,"wind_gusts":42.5,"aqi":161,"pm10":163.4,"pm2_5":70.5,"no2":15.2,"co":360.0,"o3":119.0,"so2":11.6,"mosquito_risk":0,"arthritis_risk":5,"migraine_risk":7,"frizz_risk":1,"updated_at":"2026-05-24T19:11:39.117376+05:30"},{"city":"Raipur","state":"Chhattisgarh","latitude":21.2514,"longitude":81.6296,"temp":39.5,"humidity":20,"rain":0.0,"pressure":970.0,"uv_index":8.95,"wind_gusts":37.4,"aqi":113,"pm10":99.4,"pm2_5":57.6,"no2":27.6,"co":184.0,"o3":75.0,"so2":33.3,"mosquito_risk":0,"arthritis_risk":5,"migraine_risk":10,"frizz_risk":0,"updated_at":"2026-05-24T19:11:39.117384+05:30"},{"city":"Bhilai","state":"Chhattisgarh","latitude":21.1938,"longitude":81.3509,"temp":37.1,"humidity":29,"rain":0.0,"pressure":970.1,"uv_index":8.95,"wind_gusts":29.5,"aqi":105,"pm10":87.3,"pm2_5":50.1,"no2":26.2,"co":370.0,"o3":79.0,"so2":35.7,"mosquito_risk":0,"arthritis_risk":5,"migraine_risk":10,"frizz_risk":0,"updated_at":"2026-05-24T19:11:39.117392+05:30"},{"city":"Guwahati","state":"Assam","latitude":26.1158,"longitude":91.7086,"temp":24.6,"humidity":94,"rain":0.1,"pressure":999.1,"uv_index":8.75,"wind_gusts":27.7,"aqi":63,"pm10":25.0,"pm2_5":20.0,"no2":5.8,"co":331.0,"o3":85.0,"so2":3.8,"mosquito_risk":6,"arthritis_risk":5,"migraine_risk":7,"frizz_risk":1,"updated_at":"2026-05-24T19:11:39.117399+05:30"},{"city":"Agartala","state":"Tripura","latitude":23.8315,"longitude":91.2868,"temp":27.2,"humidity":91,"rain":0.0,"pressure":1004.4,"uv_index":7.15,"wind_gusts":37.8,"aqi":73,"pm10":29.9,"pm2_5":20.1,"no2":8.8,"co":210.0,"o3":69.0,"so2":2.0,"mosquito_risk":7,"arthritis_risk":5,"migraine_risk":4,"frizz_risk":1,"updated_at":"2026-05-24T19:11:39.117407+05:30"},{"city":"Shillong","state":"Meghalaya","latitude":25.5788,"longitude":91.8933,"temp":19.4,"humidity":94,"rain":0.0,"pressure":856.0,"uv_index":9.15,"wind_gusts":49.0,"aqi":49,"pm10":17.4,"pm2_5":12.4,"no2":4.3,"co":231.0,"o3":94.0,"so2":2.8,"mosquito_risk":3,"arthritis_risk":10,"migraine_risk":7,"frizz_risk":1,"updated_at":"2026-05-24T19:11:39.117415+05:30"},{"city":"Imphal","state":"Manipur","latitude":24.817,"longitude":93.9368,"temp":23.9,"humidity":81,"rain":0.0,"pressure":922.5,"uv_index":9.05,"wind_gusts":36.7,"aqi":78,"pm10":32.8,"pm2_5":21.8,"no2":8.3,"co":352.0,"o3":55.0,"so2":2.3,"mosquito_risk":3,"arthritis_risk":5,"migraine_risk":7,"frizz_risk":1,"updated_at":"2026-05-24T19:11:39.117422+05:30"},{"city":"Aizawl","state":"Mizoram","latitude":23.7271,"longitude":92.7176,"temp":20.7,"humidity":93,"rain":0.0,"pressure":891.9,"uv_index":8.65,"wind_gusts":38.9,"aqi":65,"pm10":19.8,"pm2_5":10.9,"no2":2.7,"co":189.0,"o3":77.0,"so2":1.3,"mosquito_risk":3,"arthritis_risk":5,"migraine_risk":7,"frizz_risk":1,"updated_at":"2026-05-24T19:11:39.117428+05:30"},{"city":"Kohima","state":"Nagaland","latitude":25.6701,"longitude":94.1077,"temp":19.1,"humidity":90,"rain":0.0,"pressure":853.9,"uv_index":9.3,"wind_gusts":34.2,"aqi":57,"pm10":34.3,"pm2_5":16.2,"no2":4.5,"co":272.0,"o3":67.0,"so2":1.6,"mosquito_risk":3,"arthritis_risk":10,"migraine_risk":7,"frizz_risk":1,"updated_at":"2026-05-24T19:11:39.117435+05:30"},{"city":"Gangtok","state":"Sikkim","latitude":27.3314,"longitude":88.6138,"temp":16.9,"humidity":86,"rain":0.1,"pressure":836.2,"uv_index":8.8,"wind_gusts":38.2,"aqi":103,"pm10":54.5,"pm2_5":27.0,"no2":4.8,"co":339.0,"o3":127.0,"so2":3.5,"mosquito_risk":6,"arthritis_risk":10,"migraine_risk":7,"frizz_risk":0,"updated_at":"2026-05-24T19:11:39.117442+05:30"},{"city":"Siliguri","state":"West Bengal","latitude":26.7271,"longitude":88.3953,"temp":26.8,"humidity":81,"rain":0.0,"pressure":990.1,"uv_index":8.7,"wind_gusts":24.1,"aqi":128,"pm10":65.0,"pm2_5":38.8,"no2":6.9,"co":580.0,"o3":138.0,"so2":8.1,"mosquito_risk":7,"arthritis_risk":5,"migraine_risk":7,"frizz_risk":1,"updated_at":"2026-05-24T19:11:42.365716+05:30"},{"city":"Durgapur","state":"West Bengal","latitude":23.5204,"longitude":87.3119,"temp":30.0,"humidity":81,"rain":0.0,"pressure":990.9,"uv_index":8.9,"wind_gusts":32.8,"aqi":208,"pm10":82.7,"pm2_5":68.2,"no2":21.2,"co":446.0,"o3":151.0,"so2":44.8,"mosquito_risk":7,"arthritis_risk":5,"migraine_risk":7,"frizz_risk":1,"updated_at":"2026-05-24T19:11:42.365751+05:30"},{"city":"Asansol","state":"West Bengal","latitude":23.6739,"longitude":86.9524,"temp":31.2,"humidity":73,"rain":0.0,"pressure":989.1,"uv_index":8.9,"wind_gusts":32.8,"aqi":205,"pm10":100.8,"pm2_5":68.0,"no2":23.1,"co":470.0,"o3":139.0,"so2":40.4,"mosquito_risk":3,"arthritis_risk":5,"migraine_risk":7,"frizz_risk":1,"updated_at":"2026-05-24T19:11:42.365762+05:30"},{"city":"Pondicherry","state":"Puducherry","latitude":11.9139,"longitude":79.8145,"temp":31.5,"humidity":71,"rain":0.0,"pressure":1006.9,"uv_index":8.75,"wind_gusts":36.7,"aqi":113,"pm10":33.1,"pm2_5":26.8,"no2":13.1,"co":268.0,"o3":140.0,"so2":16.2,"mosquito_risk":3,"arthritis_risk":5,"migraine_risk":4,"frizz_risk":1,"updated_at":"2026-05-24T19:11:42.365770+05:30"},{"city":"Port Blair","state":"Andaman and Nicobar Islands","latitude":11.6234,"longitude":92.7265,"temp":26.4,"humidity":93,"rain":0.0,"pressure":1008.2,"uv_index":8.9,"wind_gusts":36.7,"aqi":29,"pm10":8.2,"pm2_5":4.8,"no2":0.5,"co":112.0,"o3":59.0,"so2":0.4,"mosquito_risk":7,"arthritis_risk":0,"migraine_risk":4,"frizz_risk":1,"updated_at":"2026-05-24T19:11:42.365778+05:30"},{"city":"Haridwar","state":"Uttarakhand","latitude":29.9457,"longitude":78.1642,"temp":34.3,"humidity":25,"rain":0.0,"pressure":968.7,"uv_index":7.55,"wind_gusts":64.1,"aqi":130,"pm10":73.1,"pm2_5":28.5,"no2":5.9,"co":202.0,"o3":128.0,"so2":8.6,"mosquito_risk":0,"arthritis_risk":5,"migraine_risk":7,"frizz_risk":0,"updated_at":"2026-05-24T19:11:42.365787+05:30"},{"city":"Rishikesh","state":"Uttarakhand","latitude":30.0869,"longitude":78.2676,"temp":32.4,"humidity":29,"rain":0.0,"pressure":961.7,"uv_index":7.65,"wind_gusts":52.2,"aqi":122,"pm10":52.7,"pm2_5":22.8,"no2":2.8,"co":193.0,"o3":133.0,"so2":6.2,"mosquito_risk":0,"arthritis_risk":5,"migraine_risk":7,"frizz_risk":0,"updated_at":"2026-05-24T19:11:42.365795+05:30"},{"city":"Nainital","state":"Uttarakhand","latitude":29.3919,"longitude":79.4542,"temp":19.9,"humidity":42,"rain":0.0,"pressure":804.9,"uv_index":8.5,"wind_gusts":51.5,"aqi":153,"pm10":111.8,"pm2_5":34.2,"no2":3.3,"co":200.0,"o3":147.0,"so2":6.6,"mosquito_risk":0,"arthritis_risk":5,"migraine_risk":7,"frizz_risk":0,"updated_at":"2026-05-24T19:11:42.365803+05:30"},{"city":"Mussoorie","state":"Uttarakhand","latitude":30.4599,"longitude":78.0664,"temp":20.1,"humidity":43,"rain":0.0,"pressure":802.6,"uv_index":8.05,"wind_gusts":63.0,"aqi":101,"pm10":45.5,"pm2_5":22.1,"no2":4.3,"co":168.0,"o3":127.0,"so2":5.7,"mosquito_risk":0,"arthritis_risk":5,"migraine_risk":7,"frizz_risk":0,"updated_at":"2026-05-24T19:11:42.365811+05:30"},{"city":"Dharamshala","state":"Himachal Pradesh","latitude":32.219,"longitude":76.3234,"temp":23.4,"humidity":48,"rain":0.0,"pressure":867.3,"uv_index":8.4,"wind_gusts":43.9,"aqi":77,"pm10":42.1,"pm2_5":13.3,"no2":3.8,"co":171.0,"o3":101.0,"so2":1.7,"mosquito_risk":0,"arthritis_risk":5,"migraine_risk":7,"frizz_risk":0,"updated_at":"2026-05-24T19:11:42.365818+05:30"},{"city":"Dalhousie","state":"Himachal Pradesh","latitude":32.5387,"longitude":75.971,"temp":19.9,"humidity":39,"rain":0.0,"pressure":804.5,"uv_index":8.65,"wind_gusts":36.0,"aqi":88,"pm10":62.6,"pm2_5":20.4,"no2":7.7,"co":195.0,"o3":116.0,"so2":3.0,"mosquito_risk":0,"arthritis_risk":5,"migraine_risk":7,"frizz_risk":0,"updated_at":"2026-05-24T19:11:42.365826+05:30"},{"city":"Patiala","state":"Punjab","latitude":30.3398,"longitude":76.3869,"temp":37.0,"humidity":21,"rain":0.0,"pressure":972.2,"uv_index":7.65,"wind_gusts":50.8,"aqi":476,"pm10":199.3,"pm2_5":47.6,"no2":7.4,"co":197.0,"o3":108.0,"so2":4.7,"mosquito_risk":0,"arthritis_risk":5,"migraine_risk":10,"frizz_risk":0,"updated_at":"2026-05-24T19:11:42.365834+05:30"},{"city":"Bhatinda","state":"Punjab","latitude":30.211,"longitude":74.9455,"temp":37.4,"humidity":23,"rain":0.0,"pressure":977.2,"uv_index":8.3,"wind_gusts":28.1,"aqi":153,"pm10":104.3,"pm2_5":43.8,"no2":7.5,"co":185.0,"o3":120.0,"so2":10.6,"mosquito_risk":0,"arthritis_risk":5,"migraine_risk":10,"frizz_risk":0,"updated_at":"2026-05-24T19:11:42.365841+05:30"},{"city":"Rohtak","state":"Haryana","latitude":28.8955,"longitude":76.6066,"temp":37.3,"humidity":21,"rain":0.0,"pressure":975.3,"uv_index":7.75,"wind_gusts":38.9,"aqi":795,"pm10":599.8,"pm2_5":104.5,"no2":19.8,"co":394.0,"o3":87.0,"so2":6.5,"mosquito_risk":0,"arthritis_risk":5,"migraine_risk":10,"frizz_risk":0,"updated_at":"2026-05-24T19:11:42.365848+05:30"},{"city":"Panipat","state":"Haryana","latitude":29.3909,"longitude":76.9635,"temp":36.3,"humidity":26,"rain":0.0,"pressure":974.2,"uv_index":7.6,"wind_gusts":44.6,"aqi":1627,"pm10":1099.0,"pm2_5":162.5,"no2":15.1,"co":234.0,"o3":97.0,"so2":8.7,"mosquito_risk":0,"arthritis_risk":5,"migraine_risk":10,"frizz_risk":0,"updated_at":"2026-05-24T19:11:42.365855+05:30"},{"city":"Mathura","state":"Uttar Pradesh","latitude":27.4924,"longitude":77.6737,"temp":39.2,"humidity":19,"rain":0.0,"pressure":981.3,"uv_index":8.0,"wind_gusts":45.7,"aqi":645,"pm10":668.7,"pm2_5":111.8,"no2":15.7,"co":220.0,"o3":89.0,"so2":5.0,"mosquito_risk":0,"arthritis_risk":5,"migraine_risk":10,"frizz_risk":0,"updated_at":"2026-05-24T19:11:42.365883+05:30"},{"city":"Vrindavan","state":"Uttar Pradesh","latitude":27.5823,"longitude":77.7027,"temp":38.5,"humidity":20,"rain":0.0,"pressure":981.7,"uv_index":8.0,"wind_gusts":45.0,"aqi":645,"pm10":668.7,"pm2_5":111.8,"no2":15.7,"co":246.0,"o3":89.0,"so2":5.0,"mosquito_risk":0,"arthritis_risk":5,"migraine_risk":10,"frizz_risk":0,"updated_at":"2026-05-24T19:11:42.365890+05:30"},{"city":"Ayodhya","state":"Uttar Pradesh","latitude":26.7922,"longitude":82.1998,"temp":34.8,"humidity":37,"rain":0.0,"pressure":989.4,"uv_index":8.35,"wind_gusts":33.1,"aqi":156,"pm10":115.9,"pm2_5":47.8,"no2":7.6,"co":299.0,"o3":134.0,"so2":8.7,"mosquito_risk":0,"arthritis_risk":5,"migraine_risk":7,"frizz_risk":1,"updated_at":"2026-05-24T19:11:42.365897+05:30"},{"city":"Ratlam","state":"Madhya Pradesh","latitude":23.3315,"longitude":75.0367,"temp":35.7,"humidity":31,"rain":0.0,"pressure":953.8,"uv_index":8.55,"wind_gusts":49.7,"aqi":62,"pm10":50.1,"pm2_5":21.2,"no2":1.1,"co":136.0,"o3":106.0,"so2":4.0,"mosquito_risk":0,"arthritis_risk":5,"migraine_risk":10,"frizz_risk":1,"updated_at":"2026-05-24T19:11:42.365904+05:30"},{"city":"Sagar","state":"Madhya Pradesh","latitude":23.8388,"longitude":78.7378,"temp":37.4,"humidity":16,"rain":0.0,"pressure":947.8,"uv_index":8.75,"wind_gusts":45.7,"aqi":84,"pm10":79.9,"pm2_5":30.3,"no2":3.4,"co":158.0,"o3":109.0,"so2":3.4,"mosquito_risk":0,"arthritis_risk":5,"migraine_risk":10,"frizz_risk":0,"updated_at":"2026-05-24T19:11:42.365911+05:30"},{"city":"Satna","state":"Madhya Pradesh","latitude":24.6005,"longitude":80.8322,"temp":37.2,"humidity":22,"rain":0.0,"pressure":967.4,"uv_index":8.8,"wind_gusts":47.2,"aqi":112,"pm10":53.4,"pm2_5":24.2,"no2":3.5,"co":186.0,"o3":114.0,"so2":3.2,"mosquito_risk":0,"arthritis_risk":5,"migraine_risk":10,"frizz_risk":0,"updated_at":"2026-05-24T19:11:42.365918+05:30"},{"city":"Akola","state":"Maharashtra","latitude":20.7002,"longitude":77.0082,"temp":38.5,"humidity":23,"rain":0.0,"pressure":972.5,"uv_index":8.85,"wind_gusts":51.5,"aqi":61,"pm10":42.7,"pm2_5":19.3,"no2":4.2,"co":189.0,"o3":107.0,"so2":5.1,"mosquito_risk":0,"arthritis_risk":5,"migraine_risk":10,"frizz_risk":0,"updated_at":"2026-05-24T19:11:42.365926+05:30"},{"city":"Amravati","state":"Maharashtra","latitude":20.9374,"longitude":77.7796,"temp":39.5,"humidity":17,"rain":0.0,"pressure":964.6,"uv_index":8.85,"wind_gusts":47.5,"aqi":67,"pm10":43.5,"pm2_5":19.9,"no2":5.1,"co":145.0,"o3":106.0,"so2":5.9,"mosquito_risk":0,"arthritis_risk":5,"migraine_risk":10,"frizz_risk":0,"updated_at":"2026-05-24T19:11:42.365935+05:30"},{"city":"Latur","state":"Maharashtra","latitude":18.4088,"longitude":76.5604,"temp":33.5,"humidity":31,"rain":0.0,"pressure":938.8,"uv_index":9.05,"wind_gusts":38.9,"aqi":65,"pm10":22.7,"pm2_5":12.1,"no2":3.4,"co":210.0,"o3":117.0,"so2":3.4,"mosquito_risk":0,"arthritis_risk":5,"migraine_risk":7,"frizz_risk":0,"updated_at":"2026-05-24T19:11:42.365942+05:30"},{"city":"Nanded","state":"Maharashtra","latitude":19.1383,"longitude":77.3091,"temp":36.8,"humidity":24,"rain":0.0,"pressure":966.2,"uv_index":9.0,"wind_gusts":38.9,"aqi":59,"pm10":31.0,"pm2_5":15.3,"no2":4.0,"co":162.0,"o3":101.0,"so2":2.5,"mosquito_risk":0,"arthritis_risk":5,"migraine_risk":10,"frizz_risk":0,"updated_at":"2026-05-24T19:11:42.365949+05:30"},{"city":"Gulbarga","state":"Karnataka","latitude":17.3297,"longitude":76.8343,"temp":32.5,"humidity":44,"rain":0.0,"pressure":957.3,"uv_index":8.2,"wind_gusts":45.4,"aqi":67,"pm10":23.0,"pm2_5":16.5,"no2":5.1,"co":201.0,"o3":97.0,"so2":2.9,"mosquito_risk":0,"arthritis_risk":5,"migraine_risk":7,"frizz_risk":1,"updated_at":"2026-05-24T19:11:42.365956+05:30"},{"city":"Bidar","state":"Karnataka","latitude":17.9104,"longitude":77.5199,"temp":32.8,"humidity":38,"rain":0.0,"pressure":934.3,"uv_index":9.1,"wind_gusts":46.4,"aqi":78,"pm10":21.5,"pm2_5":13.6,"no2":7.0,"co":212.0,"o3":107.0,"so2":4.7,"mosquito_risk":0,"arthritis_risk":5,"migraine_risk":7,"frizz_risk":1,"updated_at":"2026-05-24T19:11:42.365963+05:30"},{"city":"Hospet","state":"Karnataka","latitude":15.2689,"longitude":76.3909,"temp":28.6,"humidity":62,"rain":0.0,"pressure":955.3,"uv_index":8.95,"wind_gusts":40.0,"aqi":39,"pm10":19.6,"pm2_5":16.3,"no2":4.9,"co":211.0,"o3":91.0,"so2":2.2,"mosquito_risk":7,"arthritis_risk":5,"migraine_risk":7,"frizz_risk":1,"updated_at":"2026-05-24T19:11:42.365970+05:30"},{"city":"Tirupur","state":"Tamil Nadu","latitude":11.1085,"longitude":77.3411,"temp":27.8,"humidity":73,"rain":0.0,"pressure":976.4,"uv_index":8.9,"wind_gusts":52.2,"aqi":50,"pm10":12.4,"pm2_5":10.3,"no2":8.2,"co":189.0,"o3":72.0,"so2":3.2,"mosquito_risk":7,"arthritis_risk":5,"migraine_risk":7,"frizz_risk":1,"updated_at":"2026-05-24T19:11:42.365977+05:30"},{"city":"Alappuzha","state":"Kerala","latitude":9.4981,"longitude":76.3388,"temp":26.0,"humidity":91,"rain":0.1,"pressure":1011.0,"uv_index":8.45,"wind_gusts":37.4,"aqi":42,"pm10":12.6,"pm2_5":9.1,"no2":7.5,"co":102.0,"o3":52.0,"so2":2.3,"mosquito_risk":10,"arthritis_risk":0,"migraine_risk":4,"frizz_risk":1,"updated_at":"2026-05-24T19:11:42.365985+05:30"},{"city":"Munnar","state":"Kerala","latitude":10.0889,"longitude":77.0595,"temp":17.9,"humidity":100,"rain":0.0,"pressure":857.8,"uv_index":8.65,"wind_gusts":31.3,"aqi":30,"pm10":4.2,"pm2_5":3.9,"no2":4.9,"co":147.0,"o3":54.0,"so2":1.2,"mosquito_risk":3,"arthritis_risk":10,"migraine_risk":7,"frizz_risk":1,"updated_at":"2026-05-24T19:11:42.365995+05:30"},{"city":"Silchar","state":"Assam","latitude":24.8333,"longitude":92.7789,"temp":27.5,"humidity":89,"rain":0.0,"pressure":1003.9,"uv_index":8.95,"wind_gusts":31.0,"aqi":65,"pm10":32.0,"pm2_5":19.9,"no2":4.7,"co":311.0,"o3":79.0,"so2":4.0,"mosquito_risk":7,"arthritis_risk":5,"migraine_risk":4,"frizz_risk":1,"updated_at":"2026-05-24T19:11:42.366003+05:30"},{"city":"Dibrugarh","state":"Assam","latitude":27.4728,"longitude":94.912,"temp":24.5,"humidity":87,"rain":0.0,"pressure":993.9,"uv_index":8.45,"wind_gusts":37.1,"aqi":63,"pm10":34.0,"pm2_5":23.5,"no2":7.1,"co":231.0,"o3":80.0,"so2":2.0,"mosquito_risk":3,"arthritis_risk":5,"migraine_risk":7,"frizz_risk":1,"updated_at":"2026-05-24T19:11:42.366010+05:30"}]