[{"city":"Delhi","state":"Delhi","latitude":28.6139,"longitude":77.209,"temp":30.3,"humidity":41,"rain":0.0,"pressure":987.2,"uv_index":6.9,"wind_gusts":18.0,"aqi":140,"pm10":132.2,"pm2_5":39.6,"mosquito_risk":0,"arthritis_risk":5,"migraine_risk":7,"frizz_risk":0,"updated_at":"2026-04-02T10:35:55.129926+05:30"},{"city":"Mumbai","state":"Maharashtra","latitude":19.076,"longitude":72.8777,"temp":27.5,"humidity":75,"rain":0.0,"pressure":1011.5,"uv_index":7.9,"wind_gusts":19.8,"aqi":66,"pm10":32.4,"pm2_5":21.8,"mosquito_risk":7,"arthritis_risk":0,"migraine_risk":4,"frizz_risk":1,"updated_at":"2026-04-02T10:35:55.129977+05:30"},{"city":"Bangalore","state":"Karnataka","latitude":12.9716,"longitude":77.5946,"temp":27.8,"humidity":51,"rain":0.0,"pressure":915.4,"uv_index":9.6,"wind_gusts":23.4,"aqi":56,"pm10":10.6,"pm2_5":9.0,"mosquito_risk":4,"arthritis_risk":5,"migraine_risk":7,"frizz_risk":1,"updated_at":"2026-04-02T10:35:55.129992+05:30"},{"city":"Hyderabad","state":"Telangana","latitude":17.385,"longitude":78.4867,"temp":31.0,"humidity":39,"rain":0.0,"pressure":958.2,"uv_index":9.1,"wind_gusts":26.6,"aqi":68,"pm10":13.4,"pm2_5":10.0,"mosquito_risk":0,"arthritis_risk":5,"migraine_risk":7,"frizz_risk":0,"updated_at":"2026-04-02T10:35:55.130002+05:30"},{"city":"Chennai","state":"Tamil Nadu","latitude":13.0827,"longitude":80.2707,"temp":32.1,"humidity":54,"rain":0.0,"pressure":1011.1,"uv_index":9.3,"wind_gusts":31.0,"aqi":36,"pm10":15.8,"pm2_5":11.9,"mosquito_risk":0,"arthritis_risk":0,"migraine_risk":4,"frizz_risk":1,"updated_at":"2026-04-02T10:35:55.130011+05:30"},{"city":"Kolkata","state":"West Bengal","latitude":22.5726,"longitude":88.3639,"temp":32.1,"humidity":66,"rain":0.0,"pressure":1008.9,"uv_index":8.6,"wind_gusts":24.5,"aqi":91,"pm10":31.3,"pm2_5":26.6,"mosquito_risk":3,"arthritis_risk":0,"migraine_risk":4,"frizz_risk":1,"updated_at":"2026-04-02T10:35:55.130020+05:30"},{"city":"Pune","state":"Maharashtra","latitude":18.5204,"longitude":73.8567,"temp":30.9,"humidity":61,"rain":0.0,"pressure":951.7,"uv_index":8.45,"wind_gusts":24.8,"aqi":113,"pm10":51.3,"pm2_5":42.7,"mosquito_risk":3,"arthritis_risk":5,"migraine_risk":7,"frizz_risk":1,"updated_at":"2026-04-02T10:35:55.130032+05:30"},{"city":"Ahmedabad","state":"Gujarat","latitude":23.0225,"longitude":72.5714,"temp":29.7,"humidity":49,"rain":0.0,"pressure":1005.3,"uv_index":7.8,"wind_gusts":38.5,"aqi":58,"pm10":36.1,"pm2_5":17.5,"mosquito_risk":4,"arthritis_risk":5,"migraine_risk":4,"frizz_risk":1,"updated_at":"2026-04-02T10:35:55.130040+05:30"},{"city":"Jaipur","state":"Rajasthan","latitude":26.9124,"longitude":75.7873,"temp":30.6,"humidity":42,"rain":0.0,"pressure":963.1,"uv_index":7.45,"wind_gusts":34.6,"aqi":110,"pm10":168.1,"pm2_5":30.5,"mosquito_risk":0,"arthritis_risk":5,"migraine_risk":7,"frizz_risk":1,"updated_at":"2026-04-02T10:35:55.130048+05:30"},{"city":"Lucknow","state":"Uttar Pradesh","latitude":26.8467,"longitude":80.9462,"temp":33.0,"humidity":36,"rain":0.0,"pressure":997.0,"uv_index":7.15,"wind_gusts":32.4,"aqi":70,"pm10":57.3,"pm2_5":23.0,"mosquito_risk":0,"arthritis_risk":5,"migraine_risk":7,"frizz_risk":0,"updated_at":"2026-04-02T10:35:55.130057+05:30"},{"city":"Kanpur","state":"Uttar Pradesh","latitude":26.4499,"longitude":80.3319,"temp":31.3,"humidity":47,"rain":0.0,"pressure":995.6,"uv_index":6.95,"wind_gusts":23.0,"aqi":98,"pm10":117.8,"pm2_5":31.5,"mosquito_risk":0,"arthritis_risk":5,"migraine_risk":7,"frizz_risk":1,"updated_at":"2026-04-02T10:35:55.130064+05:30"},{"city":"Chandigarh","state":"Chandigarh","latitude":30.7333,"longitude":76.7794,"temp":26.1,"humidity":63,"rain":0.0,"pressure":972.6,"uv_index":6.6,"wind_gusts":22.0,"aqi":72,"pm10":52.4,"pm2_5":18.7,"mosquito_risk":7,"arthritis_risk":5,"migraine_risk":7,"frizz_risk":1,"updated_at":"2026-04-02T10:35:55.130073+05:30"},{"city":"Srinagar","state":"Jammu and Kashmir","latitude":34.0837,"longitude":74.7973,"temp":13.0,"humidity":77,"rain":0.0,"pressure":846.6,"uv_index":7.1,"wind_gusts":14.4,"aqi":109,"pm10":39.6,"pm2_5":23.6,"mosquito_risk":3,"arthritis_risk":5,"migraine_risk":7,"frizz_risk":0,"updated_at":"2026-04-02T10:35:55.130080+05:30"},{"city":"Jammu","state":"Jammu and Kashmir","latitude":32.7266,"longitude":74.857,"temp":30.1,"humidity":35,"rain":0.0,"pressure":977.4,"uv_index":7.4,"wind_gusts":19.8,"aqi":83,"pm10":36.2,"pm2_5":15.4,"mosquito_risk":0,"arthritis_risk":5,"migraine_risk":7,"frizz_risk":0,"updated_at":"2026-04-02T10:35:55.130087+05:30"},{"city":"Amritsar","state":"Punjab","latitude":31.634,"longitude":74.8723,"temp":27.9,"humidity":53,"rain":0.0,"pressure":985.4,"uv_index":7.35,"wind_gusts":20.9,"aqi":104,"pm10":35.4,"pm2_5":18.5,"mosquito_risk":4,"arthritis_risk":5,"migraine_risk":7,"frizz_risk":1,"updated_at":"2026-04-02T10:35:55.130095+05:30"},{"city":"Ludhiana","state":"Punjab","latitude":30.901,"longitude":75.8573,"temp":27.0,"humidity":56,"rain":0.0,"pressure":983.2,"uv_index":6.75,"wind_gusts":20.2,"aqi":129,"pm10":53.6,"pm2_5":39.7,"mosquito_risk":4,"arthritis_risk":5,"migraine_risk":7,"frizz_risk":1,"updated_at":"2026-04-02T10:35:55.130102+05:30"},{"city":"Jalandhar","state":"Punjab","latitude":31.326,"longitude":75.5762,"temp":28.1,"humidity":53,"rain":0.0,"pressure":984.3,"uv_index":7.2,"wind_gusts":16.9,"aqi":101,"pm10":49.6,"pm2_5":30.3,"mosquito_risk":4,"arthritis_risk":5,"migraine_risk":7,"frizz_risk":1,"updated_at":"2026-04-02T10:35:55.130111+05:30"},{"city":"Dehradun","state":"Uttarakhand","latitude":30.6284,"longitude":78.0322,"temp":21.3,"humidity":35,"rain":0.0,"pressure":835.5,"uv_index":6.25,"wind_gusts":27.4,"aqi":31,"pm10":30.6,"pm2_5":7.4,"mosquito_risk":0,"arthritis_risk":5,"migraine_risk":7,"frizz_risk":0,"updated_at":"2026-04-02T10:35:55.130118+05:30"},{"city":"Shimla","state":"Himachal Pradesh","latitude":31.1048,"longitude":77.1734,"temp":19.7,"humidity":38,"rain":0.0,"pressure":790.5,"uv_index":6.9,"wind_gusts":31.3,"aqi":56,"pm10":41.9,"pm2_5":10.5,"mosquito_risk":0,"arthritis_risk":5,"migraine_risk":7,"frizz_risk":0,"updated_at":"2026-04-02T10:35:55.130126+05:30"},{"city":"Manali","state":"Himachal Pradesh","latitude":32.2396,"longitude":77.1887,"temp":18.5,"humidity":42,"rain":0.0,"pressure":826.0,"uv_index":8.4,"wind_gusts":26.6,"aqi":50,"pm10":13.0,"pm2_5":4.7,"mosquito_risk":0,"arthritis_risk":5,"migraine_risk":7,"frizz_risk":0,"updated_at":"2026-04-02T10:35:55.130133+05:30"},{"city":"Gurgaon","state":"Haryana","latitude":28.4595,"longitude":77.0266,"temp":30.9,"humidity":40,"rain":0.0,"pressure":985.6,"uv_index":6.35,"wind_gusts":18.4,"aqi":271,"pm10":448.9,"pm2_5":72.6,"mosquito_risk":0,"arthritis_risk":5,"migraine_risk":7,"frizz_risk":0,"updated_at":"2026-04-02T10:35:55.130140+05:30"},{"city":"Noida","state":"Uttar Pradesh","latitude":28.5355,"longitude":77.391,"temp":30.2,"humidity":43,"rain":0.0,"pressure":988.7,"uv_index":6.95,"wind_gusts":17.3,"aqi":271,"pm10":448.9,"pm2_5":72.6,"mosquito_risk":0,"arthritis_risk":5,"migraine_risk":7,"frizz_risk":1,"updated_at":"2026-04-02T10:35:55.130147+05:30"},{"city":"Ghaziabad","state":"Uttar Pradesh","latitude":28.6692,"longitude":77.4538,"temp":29.7,"humidity":50,"rain":0.0,"pressure":987.1,"uv_index":6.9,"wind_gusts":16.9,"aqi":126,"pm10":84.5,"pm2_5":27.9,"mosquito_risk":4,"arthritis_risk":5,"migraine_risk":7,"frizz_risk":1,"updated_at":"2026-04-02T10:35:55.130153+05:30"},{"city":"Faridabad","state":"Haryana","latitude":28.4089,"longitude":77.3178,"temp":30.6,"humidity":41,"rain":0.0,"pressure":988.1,"uv_index":6.95,"wind_gusts":19.8,"aqi":271,"pm10":448.9,"pm2_5":72.6,"mosquito_risk":0,"arthritis_risk":5,"migraine_risk":7,"frizz_risk":0,"updated_at":"2026-04-02T10:35:55.130160+05:30"},{"city":"Meerut","state":"Uttar Pradesh","latitude":28.9845,"longitude":77.7064,"temp":30.8,"humidity":46,"rain":0.0,"pressure":985.6,"uv_index":6.75,"wind_gusts":17.3,"aqi":126,"pm10":84.5,"pm2_5":27.9,"mosquito_risk":0,"arthritis_risk":5,"migraine_risk":7,"frizz_risk":1,"updated_at":"2026-04-02T10:35:55.130166+05:30"},{"city":"Agra","state":"Uttar Pradesh","latitude":27.1767,"longitude":78.0081,"temp":30.2,"humidity":47,"rain":0.0,"pressure":991.5,"uv_index":7.3,"wind_gusts":24.1,"aqi":191,"pm10":324.1,"pm2_5":57.2,"mosquito_risk":0,"arthritis_risk":5,"migraine_risk":7,"frizz_risk":1,"updated_at":"2026-04-02T10:35:55.130173+05:30"},{"city":"Varanasi","state":"Uttar Pradesh","latitude":25.3176,"longitude":82.9739,"temp":33.5,"humidity":46,"rain":0.0,"pressure":1000.7,"uv_index":7.5,"wind_gusts":33.8,"aqi":83,"pm10":68.2,"pm2_5":22.4,"mosquito_risk":0,"arthritis_risk":5,"migraine_risk":4,"frizz_risk":1,"updated_at":"2026-04-02T10:35:55.130182+05:30"},{"city":"Prayagraj","state":"Uttar Pradesh","latitude":25.4358,"longitude":81.8463,"temp":33.6,"humidity":42,"rain":0.0,"pressure":999.4,"uv_index":7.85,"wind_gusts":24.5,"aqi":69,"pm10":88.5,"pm2_5":27.7,"mosquito_risk":0,"arthritis_risk":5,"migraine_risk":7,"frizz_risk":1,"updated_at":"2026-04-02T10:35:55.130189+05:30"},{"city":"Gorakhpur","state":"Uttar Pradesh","latitude":26.7606,"longitude":83.3732,"temp":32.6,"humidity":36,"rain":0.0,"pressure":1000.1,"uv_index":7.85,"wind_gusts":41.0,"aqi":61,"pm10":37.6,"pm2_5":19.7,"mosquito_risk":0,"arthritis_risk":5,"migraine_risk":4,"frizz_risk":0,"updated_at":"2026-04-02T10:35:55.130196+05:30"},{"city":"Bareilly","state":"Uttar Pradesh","latitude":28.367,"longitude":79.4304,"temp":31.0,"humidity":42,"rain":0.0,"pressure":990.7,"uv_index":7.15,"wind_gusts":28.4,"aqi":93,"pm10":46.0,"pm2_5":16.5,"mosquito_risk":0,"arthritis_risk":5,"migraine_risk":7,"frizz_risk":1,"updated_at":"2026-04-02T10:35:55.130202+05:30"},{"city":"Aligarh","state":"Uttar Pradesh","latitude":27.8974,"longitude":78.088,"temp":31.6,"humidity":38,"rain":0.0,"pressure":989.7,"uv_index":7.05,"wind_gusts":15.5,"aqi":142,"pm10":118.5,"pm2_5":35.6,"mosquito_risk":0,"arthritis_risk":5,"migraine_risk":7,"frizz_risk":0,"updated_at":"2026-04-02T10:35:55.130209+05:30"},{"city":"Moradabad","state":"Uttar Pradesh","latitude":28.8386,"longitude":78.7733,"temp":30.4,"humidity":46,"rain":0.0,"pressure":987.7,"uv_index":7.0,"wind_gusts":25.6,"aqi":108,"pm10":48.4,"pm2_5":21.8,"mosquito_risk":0,"arthritis_risk":5,"migraine_risk":7,"frizz_risk":1,"updated_at":"2026-04-02T10:35:55.130215+05:30"},{"city":"Saharanpur","state":"Uttar Pradesh","latitude":29.9637,"longitude":77.546,"temp":27.6,"humidity":55,"rain":0.0,"pressure":979.9,"uv_index":5.9,"wind_gusts":22.0,"aqi":95,"pm10":34.0,"pm2_5":18.5,"mosquito_risk":4,"arthritis_risk":5,"migraine_risk":3,"frizz_risk":1,"updated_at":"2026-04-02T10:35:55.130246+05:30"},{"city":"Jhansi","state":"Uttar Pradesh","latitude":25.4484,"longitude":78.5685,"temp":33.1,"humidity":43,"rain":0.0,"pressure":981.6,"uv_index":6.9,"wind_gusts":28.1,"aqi":68,"pm10":67.3,"pm2_5":22.7,"mosquito_risk":0,"arthritis_risk":5,"migraine_risk":7,"frizz_risk":1,"updated_at":"2026-04-02T10:35:58.344926+05:30"},{"city":"Surat","state":"Gujarat","latitude":21.1702,"longitude":72.8311,"temp":29.6,"humidity":55,"rain":0.0,"pressure":1009.9,"uv_index":7.2,"wind_gusts":32.0,"aqi":87,"pm10":45.8,"pm2_5":37.1,"mosquito_risk":4,"arthritis_risk":0,"migraine_risk":4,"frizz_risk":1,"updated_at":"2026-04-02T10:35:58.344957+05:30"},{"city":"Vadodara","state":"Gujarat","latitude":22.3072,"longitude":73.1812,"temp":30.7,"humidity":49,"rain":0.0,"pressure":1007.6,"uv_index":7.6,"wind_gusts":35.3,"aqi":68,"pm10":30.3,"pm2_5":20.8,"mosquito_risk":0,"arthritis_risk":5,"migraine_risk":4,"frizz_risk":1,"updated_at":"2026-04-02T10:35:58.344966+05:30"},{"city":"Rajkot","state":"Gujarat","latitude":22.3039,"longitude":70.8022,"temp":28.7,"humidity":51,"rain":0.0,"pressure":997.3,"uv_index":7.15,"wind_gusts":42.8,"aqi":56,"pm10":36.2,"pm2_5":16.6,"mosquito_risk":4,"arthritis_risk":5,"migraine_risk":7,"frizz_risk":1,"updated_at":"2026-04-02T10:35:58.344974+05:30"},{"city":"Thane","state":"Maharashtra","latitude":19.2183,"longitude":72.9781,"temp":29.4,"humidity":63,"rain":0.0,"pressure":1011.0,"uv_index":7.9,"wind_gusts":30.2,"aqi":66,"pm10":32.4,"pm2_5":21.8,"mosquito_risk":7,"arthritis_risk":0,"migraine_risk":4,"frizz_risk":1,"updated_at":"2026-04-02T10:35:58.344981+05:30"},{"city":"Nagpur","state":"Maharashtra","latitude":21.1458,"longitude":79.0882,"temp":29.8,"humidity":53,"rain":0.0,"pressure":977.9,"uv_index":8.65,"wind_gusts":34.6,"aqi":88,"pm10":45.4,"pm2_5":33.6,"mosquito_risk":4,"arthritis_risk":5,"migraine_risk":7,"frizz_risk":1,"updated_at":"2026-04-02T10:35:58.344988+05:30"},{"city":"Nashik","state":"Maharashtra","latitude":19.9975,"longitude":73.7898,"temp":28.9,"humidity":63,"rain":0.0,"pressure":948.7,"uv_index":8.15,"wind_gusts":37.8,"aqi":65,"pm10":30.3,"pm2_5":22.8,"mosquito_risk":7,"arthritis_risk":5,"migraine_risk":7,"frizz_risk":1,"updated_at":"2026-04-02T10:35:58.344995+05:30"},{"city":"Aurangabad","state":"Maharashtra","latitude":19.8762,"longitude":75.3433,"temp":28.6,"humidity":53,"rain":0.0,"pressure":948.3,"uv_index":8.85,"wind_gusts":28.1,"aqi":106,"pm10":53.2,"pm2_5":41.4,"mosquito_risk":4,"arthritis_risk":5,"migraine_risk":7,"frizz_risk":1,"updated_at":"2026-04-02T10:35:58.345001+05:30"},{"city":"Solapur","state":"Maharashtra","latitude":17.6599,"longitude":75.9064,"temp":32.1,"humidity":44,"rain":0.0,"pressure":961.1,"uv_index":8.9,"wind_gusts":46.1,"aqi":123,"pm10":43.2,"pm2_5":36.4,"mosquito_risk":0,"arthritis_risk":5,"migraine_risk":7,"frizz_risk":1,"updated_at":"2026-04-02T10:35:58.345009+05:30"},{"city":"Kolhapur","state":"Maharashtra","latitude":16.705,"longitude":74.2433,"temp":29.0,"humidity":59,"rain":0.0,"pressure":951.4,"uv_index":8.95,"wind_gusts":34.9,"aqi":134,"pm10":58.2,"pm2_5":50.3,"mosquito_risk":4,"arthritis_risk":5,"migraine_risk":7,"frizz_risk":1,"updated_at":"2026-04-02T10:35:58.345016+05:30"},{"city":"Goa","state":"Goa","latitude":15.2993,"longitude":74.124,"temp":32.0,"humidity":63,"rain":0.0,"pressure":1000.5,"uv_index":8.85,"wind_gusts":31.3,"aqi":74,"pm10":34.5,"pm2_5":27.2,"mosquito_risk":3,"arthritis_risk":5,"migraine_risk":4,"frizz_risk":1,"updated_at":"2026-04-02T10:35:58.345022+05:30"},{"city":"Jodhpur","state":"Rajasthan","latitude":26.2389,"longitude":73.0243,"temp":30.9,"humidity":33,"rain":0.0,"pressure":985.6,"uv_index":7.65,"wind_gusts":37.8,"aqi":74,"pm10":69.2,"pm2_5":14.6,"mosquito_risk":0,"arthritis_risk":5,"migraine_risk":7,"frizz_risk":0,"updated_at":"2026-04-02T10:35:58.345029+05:30"},{"city":"Udaipur","state":"Rajasthan","latitude":24.5854,"longitude":73.7125,"temp":29.2,"humidity":37,"rain":0.0,"pressure":949.3,"uv_index":8.2,"wind_gusts":39.6,"aqi":45,"pm10":18.8,"pm2_5":9.6,"mosquito_risk":4,"arthritis_risk":5,"migraine_risk":7,"frizz_risk":0,"updated_at":"2026-04-02T10:35:58.345036+05:30"},{"city":"Kota","state":"Rajasthan","latitude":25.2138,"longitude":75.8648,"temp":33.2,"humidity":40,"rain":0.0,"pressure":981.6,"uv_index":7.55,"wind_gusts":29.5,"aqi":72,"pm10":51.5,"pm2_5":19.6,"mosquito_risk":0,"arthritis_risk":5,"migraine_risk":7,"frizz_risk":1,"updated_at":"2026-04-02T10:35:58.345042+05:30"},{"city":"Bikaner","state":"Rajasthan","latitude":28.0229,"longitude":73.3119,"temp":30.9,"humidity":30,"rain":0.0,"pressure":983.8,"uv_index":7.45,"wind_gusts":42.5,"aqi":63,"pm10":73.1,"pm2_5":26.1,"mosquito_risk":0,"arthritis_risk":5,"migraine_risk":7,"frizz_risk":0,"updated_at":"2026-04-02T10:35:58.345049+05:30"},{"city":"Ajmer","state":"Rajasthan","latitude":26.4499,"longitude":74.6399,"temp":29.7,"humidity":33,"rain":0.0,"pressure":957.8,"uv_index":6.35,"wind_gusts":31.3,"aqi":68,"pm10":65.9,"pm2_5":14.7,"mosquito_risk":4,"arthritis_risk":5,"migraine_risk":7,"frizz_risk":0,"updated_at":"2026-04-02T10:35:58.345055+05:30"},{"city":"Gwalior","state":"Madhya Pradesh","latitude":26.2183,"longitude":78.1828,"temp":32.9,"humidity":44,"rain":0.0,"pressure":986.9,"uv_index":6.8,"wind_gusts":23.4,"aqi":66,"pm10":86.1,"pm2_5":23.7,"mosquito_risk":0,"arthritis_risk":5,"migraine_risk":7,"frizz_risk":1,"updated_at":"2026-04-02T10:35:58.345061+05:30"},{"city":"Indore","state":"Madhya Pradesh","latitude":22.7196,"longitude":75.8577,"temp":30.5,"humidity":38,"rain":0.0,"pressure":951.8,"uv_index":8.2,"wind_gusts":41.0,"aqi":87,"pm10":29.2,"pm2_5":20.3,"mosquito_risk":0,"arthritis_risk":5,"migraine_risk":7,"frizz_risk":0,"updated_at":"2026-04-02T10:35:58.345067+05:30"},{"city":"Bhopal","state":"Madhya Pradesh","latitude":23.2599,"longitude":77.4126,"temp":32.2,"humidity":41,"rain":0.0,"pressure":957.9,"uv_index":7.85,"wind_gusts":34.6,"aqi":81,"pm10":34.9,"pm2_5":28.1,"mosquito_risk":0,"arthritis_risk":5,"migraine_risk":7,"frizz_risk":1,"updated_at":"2026-04-02T10:35:58.345074+05:30"},{"city":"Jabalpur","state":"Madhya Pradesh","latitude":23.1815,"longitude":79.9864,"temp":31.0,"humidity":46,"rain":0.0,"pressure":965.8,"uv_index":7.95,"wind_gusts":29.5,"aqi":84,"pm10":38.2,"pm2_5":26.5,"mosquito_risk":0,"arthritis_risk":5,"migraine_risk":7,"frizz_risk":1,"updated_at":"2026-04-02T10:35:58.345080+05:30"},{"city":"Ujjain","state":"Madhya Pradesh","latitude":23.1765,"longitude":75.7885,"temp":29.9,"humidity":43,"rain":0.0,"pressure":957.4,"uv_index":8.2,"wind_gusts":31.0,"aqi":73,"pm10":26.3,"pm2_5":16.2,"mosquito_risk":4,"arthritis_risk":5,"migraine_risk":7,"frizz_risk":0,"updated_at":"2026-04-02T10:35:58.345086+05:30"},{"city":"Visakhapatnam","state":"Andhra Pradesh","latitude":17.6868,"longitude":83.2185,"temp":32.3,"humidity":53,"rain":0.0,"pressure":1008.2,"uv_index":9.05,"wind_gusts":35.3,"aqi":55,"pm10":14.2,"pm2_5":11.7,"mosquito_risk":0,"arthritis_risk":0,"migraine_risk":4,"frizz_risk":1,"updated_at":"2026-04-02T10:35:58.345093+05:30"},{"city":"Vijayawada","state":"Andhra Pradesh","latitude":16.5062,"longitude":80.648,"temp":30.9,"humidity":59,"rain":0.0,"pressure":1007.6,"uv_index":9.15,"wind_gusts":27.4,"aqi":48,"pm10":10.4,"pm2_5":8.0,"mosquito_risk":0,"arthritis_risk":5,"migraine_risk":4,"frizz_risk":1,"updated_at":"2026-04-02T10:35:58.345100+05:30"},{"city":"Guntur","state":"Andhra Pradesh","latitude":16.3067,"longitude":80.4365,"temp":31.6,"humidity":56,"rain":0.0,"pressure":1008.7,"uv_index":9.15,"wind_gusts":26.6,"aqi":44,"pm10":9.3,"pm2_5":6.9,"mosquito_risk":0,"arthritis_risk":0,"migraine_risk":4,"frizz_risk":1,"updated_at":"2026-04-02T10:35:58.345106+05:30"},{"city":"Nellore","state":"Andhra Pradesh","latitude":14.4426,"longitude":79.9865,"temp":31.8,"humidity":56,"rain":0.0,"pressure":1010.2,"uv_index":9.15,"wind_gusts":28.8,"aqi":33,"pm10":17.5,"pm2_5":13.3,"mosquito_risk":0,"arthritis_risk":0,"migraine_risk":4,"frizz_risk":1,"updated_at":"2026-04-02T10:35:58.345113+05:30"},{"city":"Kurnool","state":"Andhra Pradesh","latitude":15.8281,"longitude":78.0373,"temp":32.9,"humidity":29,"rain":0.0,"pressure":981.3,"uv_index":9.15,"wind_gusts":24.8,"aqi":54,"pm10":6.3,"pm2_5":4.8,"mosquito_risk":0,"arthritis_risk":5,"migraine_risk":7,"frizz_risk":0,"updated_at":"2026-04-02T10:35:58.345120+05:30"},{"city":"Kakinada","state":"Andhra Pradesh","latitude":16.9891,"longitude":82.2475,"temp":32.3,"humidity":54,"rain":0.0,"pressure":1012.2,"uv_index":9.1,"wind_gusts":34.9,"aqi":30,"pm10":8.9,"pm2_5":6.5,"mosquito_risk":0,"arthritis_risk":0,"migraine_risk":4,"frizz_risk":1,"updated_at":"2026-04-02T10:35:58.345126+05:30"},{"city":"Tirupati","state":"Andhra Pradesh","latitude":13.6288,"longitude":79.4192,"temp":30.4,"humidity":49,"rain":0.0,"pressure":996.1,"uv_index":9.35,"wind_gusts":32.8,"aqi":51,"pm10":14.6,"pm2_5":11.0,"mosquito_risk":0,"arthritis_risk":5,"migraine_risk":7,"frizz_risk":1,"updated_at":"2026-04-02T10:35:58.345132+05:30"},{"city":"Warangal","state":"Telangana","latitude":17.9689,"longitude":79.5941,"temp":28.9,"humidity":60,"rain":0.0,"pressure":984.3,"uv_index":9.0,"wind_gusts":25.9,"aqi":73,"pm10":11.8,"pm2_5":10.3,"mosquito_risk":4,"arthritis_risk":5,"migraine_risk":7,"frizz_risk":1,"updated_at":"2026-04-02T10:35:58.345138+05:30"},{"city":"Nizamabad","state":"Telangana","latitude":18.6725,"longitude":78.0941,"temp":29.9,"humidity":58,"rain":0.0,"pressure":969.8,"uv_index":8.9,"wind_gusts":34.2,"aqi":119,"pm10":57.0,"pm2_5":47.1,"mosquito_risk":4,"arthritis_risk":5,"migraine_risk":7,"frizz_risk":1,"updated_at":"2026-04-02T10:35:58.345144+05:30"},{"city":"Mysore","state":"Karnataka","latitude":12.2958,"longitude":76.6396,"temp":27.9,"humidity":58,"rain":0.0,"pressure":931.9,"uv_index":9.5,"wind_gusts":34.2,"aqi":80,"pm10":21.4,"pm2_5":19.7,"mosquito_risk":4,"arthritis_risk":5,"migraine_risk":7,"frizz_risk":1,"updated_at":"2026-04-02T10:35:58.345151+05:30"},{"city":"Mangalore","state":"Karnataka","latitude":12.9141,"longitude":74.856,"temp":28.7,"humidity":81,"rain":0.0,"pressure":1009.7,"uv_index":8.45,"wind_gusts":22.3,"aqi":80,"pm10":31.4,"pm2_5":25.8,"mosquito_risk":7,"arthritis_risk":0,"migraine_risk":4,"frizz_risk":1,"updated_at":"2026-04-02T10:35:58.345157+05:30"},{"city":"Hubli-Dharwad","state":"Karnataka","latitude":15.3647,"longitude":75.124,"temp":29.6,"humidity":58,"rain":0.0,"pressure":944.2,"uv_index":9.15,"wind_gusts":35.3,"aqi":97,"pm10":35.5,"pm2_5":32.2,"mosquito_risk":4,"arthritis_risk":5,"migraine_risk":7,"frizz_risk":1,"updated_at":"2026-04-02T10:35:58.345164+05:30"},{"city":"Belgaum","state":"Karnataka","latitude":15.8497,"longitude":74.4977,"temp":28.2,"humidity":63,"rain":0.0,"pressure":929.0,"uv_index":9.1,"wind_gusts":32.0,"aqi":97,"pm10":46.0,"pm2_5":39.8,"mosquito_risk":7,"arthritis_risk":5,"migraine_risk":7,"frizz_risk":1,"updated_at":"2026-04-02T10:36:01.561335+05:30"},{"city":"Coimbatore","state":"Tamil Nadu","latitude":11.0168,"longitude":76.9558,"temp":29.7,"humidity":56,"rain":0.0,"pressure":965.6,"uv_index":9.4,"wind_gusts":44.3,"aqi":62,"pm10":10.1,"pm2_5":9.3,"mosquito_risk":4,"arthritis_risk":5,"migraine_risk":7,"frizz_risk":1,"updated_at":"2026-04-02T10:36:01.561369+05:30"},{"city":"Madurai","state":"Tamil Nadu","latitude":9.9252,"longitude":78.1198,"temp":30.5,"humidity":58,"rain":0.0,"pressure":996.8,"uv_index":9.35,"wind_gusts":31.0,"aqi":53,"pm10":10.9,"pm2_5":8.5,"mosquito_risk":0,"arthritis_risk":5,"migraine_risk":7,"frizz_risk":1,"updated_at":"2026-04-02T10:36:01.561381+05:30"},{"city":"Trichy","state":"Tamil Nadu","latitude":10.7905,"longitude":78.7047,"temp":30.1,"humidity":59,"rain":0.0,"pressure":1003.8,"uv_index":9.35,"wind_gusts":19.8,"aqi":54,"pm10":16.1,"pm2_5":12.0,"mosquito_risk":0,"arthritis_risk":5,"migraine_risk":4,"frizz_risk":1,"updated_at":"2026-04-02T10:36:01.561390+05:30"},{"city":"Salem","state":"Tamil Nadu","latitude":11.6643,"longitude":78.146,"temp":30.8,"humidity":50,"rain":0.0,"pressure":981.3,"uv_index":9.4,"wind_gusts":16.6,"aqi":67,"pm10":15.5,"pm2_5":14.4,"mosquito_risk":0,"arthritis_risk":5,"migraine_risk":7,"frizz_risk":1,"updated_at":"2026-04-02T10:36:01.561398+05:30"},{"city":"Tirunelveli","state":"Tamil Nadu","latitude":8.7139,"longitude":77.7567,"temp":32.8,"humidity":49,"rain":0.0,"pressure":1006.5,"uv_index":9.35,"wind_gusts":50.0,"aqi":44,"pm10":7.0,"pm2_5":6.2,"mosquito_risk":0,"arthritis_risk":5,"migraine_risk":4,"frizz_risk":1,"updated_at":"2026-04-02T10:36:01.561407+05:30"},{"city":"Vellore","state":"Tamil Nadu","latitude":12.9165,"longitude":79.1325,"temp":29.6,"humidity":48,"rain":0.0,"pressure":989.0,"uv_index":9.4,"wind_gusts":30.2,"aqi":56,"pm10":10.9,"pm2_5":8.4,"mosquito_risk":4,"arthritis_risk":5,"migraine_risk":7,"frizz_risk":1,"updated_at":"2026-04-02T10:36:01.561415+05:30"},{"city":"Erode","state":"Tamil Nadu","latitude":11.341,"longitude":77.7172,"temp":31.3,"humidity":51,"rain":0.0,"pressure":993.0,"uv_index":9.05,"wind_gusts":25.2,"aqi":55,"pm10":8.6,"pm2_5":7.2,"mosquito_risk":0,"arthritis_risk":5,"migraine_risk":7,"frizz_risk":1,"updated_at":"2026-04-02T10:36:01.561423+05:30"},{"city":"Kochi","state":"Kerala","latitude":9.9312,"longitude":76.2673,"temp":28.3,"humidity":80,"rain":0.0,"pressure":1011.6,"uv_index":9.2,"wind_gusts":29.5,"aqi":81,"pm10":24.1,"pm2_5":21.0,"mosquito_risk":7,"arthritis_risk":0,"migraine_risk":4,"frizz_risk":1,"updated_at":"2026-04-02T10:36:01.561431+05:30"},{"city":"Thiruvananthapuram","state":"Kerala","latitude":8.5241,"longitude":76.9366,"temp":28.7,"humidity":78,"rain":0.0,"pressure":1010.6,"uv_index":9.15,"wind_gusts":26.6,"aqi":54,"pm10":14.8,"pm2_5":12.8,"mosquito_risk":7,"arthritis_risk":0,"migraine_risk":4,"frizz_risk":1,"updated_at":"2026-04-02T10:36:01.561440+05:30"},{"city":"Kozhikode","state":"Kerala","latitude":11.2588,"longitude":75.7804,"temp":29.6,"humidity":74,"rain":0.0,"pressure":1010.9,"uv_index":9.05,"wind_gusts":25.9,"aqi":63,"pm10":18.7,"pm2_5":15.8,"mosquito_risk":7,"arthritis_risk":0,"migraine_risk":4,"frizz_risk":1,"updated_at":"2026-04-02T10:36:01.561447+05:30"},{"city":"Thrissur","state":"Kerala","latitude":10.5276,"longitude":76.2144,"temp":31.2,"humidity":66,"rain":0.0,"pressure":1010.0,"uv_index":9.2,"wind_gusts":33.1,"aqi":75,"pm10":23.0,"pm2_5":20.4,"mosquito_risk":3,"arthritis_risk":0,"migraine_risk":4,"frizz_risk":1,"updated_at":"2026-04-02T10:36:01.561456+05:30"},{"city":"Kannur","state":"Kerala","latitude":11.8745,"longitude":75.3704,"temp":30.3,"humidity":68,"rain":0.0,"pressure":1010.2,"uv_index":9.1,"wind_gusts":24.5,"aqi":78,"pm10":22.8,"pm2_5":19.2,"mosquito_risk":3,"arthritis_risk":0,"migraine_risk":4,"frizz_risk":1,"updated_at":"2026-04-02T10:36:01.561464+05:30"},{"city":"Patna","state":"Bihar","latitude":25.5941,"longitude":85.1376,"temp":32.8,"humidity":47,"rain":0.0,"pressure":1003.2,"uv_index":8.25,"wind_gusts":37.4,"aqi":81,"pm10":60.3,"pm2_5":22.6,"mosquito_risk":0,"arthritis_risk":5,"migraine_risk":4,"frizz_risk":1,"updated_at":"2026-04-02T10:36:01.561472+05:30"},{"city":"Gaya","state":"Bihar","latitude":24.7914,"longitude":85.0002,"temp":33.9,"humidity":44,"rain":0.0,"pressure":996.8,"uv_index":8.35,"wind_gusts":32.0,"aqi":81,"pm10":42.7,"pm2_5":15.9,"mosquito_risk":0,"arthritis_risk":5,"migraine_risk":7,"frizz_risk":1,"updated_at":"2026-04-02T10:36:01.561479+05:30"},{"city":"Muzaffarpur","state":"Bihar","latitude":26.1209,"longitude":85.3647,"temp":32.4,"humidity":47,"rain":0.0,"pressure":1003.1,"uv_index":8.25,"wind_gusts":35.6,"aqi":97,"pm10":56.6,"pm2_5":25.1,"mosquito_risk":0,"arthritis_risk":5,"migraine_risk":4,"frizz_risk":1,"updated_at":"2026-04-02T10:36:01.561487+05:30"},{"city":"Bhagalpur","state":"Bihar","latitude":25.2425,"longitude":87.0117,"temp":32.7,"humidity":50,"rain":0.0,"pressure":1003.7,"uv_index":8.25,"wind_gusts":30.6,"aqi":103,"pm10":29.9,"pm2_5":21.4,"mosquito_risk":0,"arthritis_risk":5,"migraine_risk":4,"frizz_risk":1,"updated_at":"2026-04-02T10:36:01.561495+05:30"},{"city":"Ranchi","state":"Jharkhand","latitude":23.3441,"longitude":85.3096,"temp":31.8,"humidity":38,"rain":0.0,"pressure":942.1,"uv_index":8.9,"wind_gusts":33.1,"aqi":74,"pm10":29.3,"pm2_5":14.9,"mosquito_risk":0,"arthritis_risk":5,"migraine_risk":7,"frizz_risk":0,"updated_at":"2026-04-02T10:36:01.561503+05:30"},{"city":"Jamshedpur","state":"Jharkhand","latitude":22.8046,"longitude":86.2029,"temp":34.5,"humidity":47,"rain":0.0,"pressure":994.1,"uv_index":8.75,"wind_gusts":33.8,"aqi":102,"pm10":56.7,"pm2_5":39.1,"mosquito_risk":0,"arthritis_risk":5,"migraine_risk":7,"frizz_risk":1,"updated_at":"2026-04-02T10:36:01.561511+05:30"},{"city":"Dhanbad","state":"Jharkhand","latitude":23.7957,"longitude":86.4304,"temp":34.6,"humidity":36,"rain":0.0,"pressure":982.9,"uv_index":8.65,"wind_gusts":31.7,"aqi":154,"pm10":46.2,"pm2_5":30.9,"mosquito_risk":0,"arthritis_risk":5,"migraine_risk":7,"frizz_risk":1,"updated_at":"2026-04-02T10:36:01.561519+05:30"},{"city":"Bokaro","state":"Jharkhand","latitude":23.6693,"longitude":86.1511,"temp":34.3,"humidity":38,"rain":0.0,"pressure":987.1,"uv_index":8.65,"wind_gusts":31.7,"aqi":152,"pm10":49.9,"pm2_5":34.0,"mosquito_risk":0,"arthritis_risk":5,"migraine_risk":7,"frizz_risk":1,"updated_at":"2026-04-02T10:36:01.561527+05:30"},{"city":"Bhubaneswar","state":"Odisha","latitude":20.2961,"longitude":85.8245,"temp":33.4,"humidity":53,"rain":0.0,"pressure":1006.4,"uv_index":8.9,"wind_gusts":32.0,"aqi":67,"pm10":17.2,"pm2_5":13.3,"mosquito_risk":0,"arthritis_risk":5,"migraine_risk":4,"frizz_risk":1,"updated_at":"2026-04-02T10:36:01.561535+05:30"},{"city":"Cuttack","state":"Odisha","latitude":20.4625,"longitude":85.8828,"temp":33.3,"humidity":58,"rain":0.0,"pressure":1008.2,"uv_index":8.95,"wind_gusts":24.5,"aqi":67,"pm10":17.2,"pm2_5":13.3,"mosquito_risk":0,"arthritis_risk":0,"migraine_risk":4,"frizz_risk":1,"updated_at":"2026-04-02T10:36:01.561542+05:30"},{"city":"Rourkela","state":"Odisha","latitude":22.2604,"longitude":84.8536,"temp":34.8,"humidity":46,"rain":0.0,"pressure":988.6,"uv_index":8.65,"wind_gusts":27.0,"aqi":122,"pm10":54.7,"pm2_5":35.4,"mosquito_risk":0,"arthritis_risk":5,"migraine_risk":7,"frizz_risk":1,"updated_at":"2026-04-02T10:36:01.561550+05:30"},{"city":"Raipur","state":"Chhattisgarh","latitude":21.2514,"longitude":81.6296,"temp":33.2,"humidity":39,"rain":0.0,"pressure":979.1,"uv_index":8.75,"wind_gusts":27.7,"aqi":132,"pm10":36.1,"pm2_5":33.9,"mosquito_risk":0,"arthritis_risk":5,"migraine_risk":7,"frizz_risk":1,"updated_at":"2026-04-02T10:36:01.561557+05:30"},{"city":"Bhilai","state":"Chhattisgarh","latitude":21.1938,"longitude":81.3509,"temp":33.1,"humidity":42,"rain":0.0,"pressure":979.4,"uv_index":8.75,"wind_gusts":29.2,"aqi":131,"pm10":33.6,"pm2_5":31.2,"mosquito_risk":0,"arthritis_risk":5,"migraine_risk":7,"frizz_risk":1,"updated_at":"2026-04-02T10:36:01.561564+05:30"},{"city":"Guwahati","state":"Assam","latitude":26.1158,"longitude":91.7086,"temp":25.7,"humidity":79,"rain":0.0,"pressure":1004.2,"uv_index":8.15,"wind_gusts":33.5,"aqi":96,"pm10":46.7,"pm2_5":38.3,"mosquito_risk":7,"arthritis_risk":5,"migraine_risk":4,"frizz_risk":1,"updated_at":"2026-04-02T10:36:01.561571+05:30"},{"city":"Agartala","state":"Tripura","latitude":23.8315,"longitude":91.2868,"temp":30.6,"humidity":68,"rain":0.0,"pressure":1009.5,"uv_index":8.4,"wind_gusts":43.2,"aqi":105,"pm10":56.2,"pm2_5":46.9,"mosquito_risk":3,"arthritis_risk":0,"migraine_risk":4,"frizz_risk":1,"updated_at":"2026-04-02T10:36:01.561579+05:30"},{"city":"Shillong","state":"Meghalaya","latitude":25.5788,"longitude":91.8933,"temp":20.6,"humidity":57,"rain":0.0,"pressure":859.9,"uv_index":8.55,"wind_gusts":70.9,"aqi":89,"pm10":39.1,"pm2_5":31.4,"mosquito_risk":0,"arthritis_risk":5,"migraine_risk":7,"frizz_risk":0,"updated_at":"2026-04-02T10:36:01.561586+05:30"},{"city":"Imphal","state":"Manipur","latitude":24.817,"longitude":93.9368,"temp":20.4,"humidity":82,"rain":0.0,"pressure":926.6,"uv_index":8.7,"wind_gusts":87.5,"aqi":106,"pm10":44.1,"pm2_5":31.8,"mosquito_risk":3,"arthritis_risk":5,"migraine_risk":7,"frizz_risk":1,"updated_at":"2026-04-02T10:36:01.561594+05:30"},{"city":"Aizawl","state":"Mizoram","latitude":23.7271,"longitude":92.7176,"temp":25.0,"humidity":61,"rain":0.0,"pressure":897.6,"uv_index":8.65,"wind_gusts":55.1,"aqi":91,"pm10":46.1,"pm2_5":29.9,"mosquito_risk":7,"arthritis_risk":5,"migraine_risk":7,"frizz_risk":1,"updated_at":"2026-04-02T10:36:01.561602+05:30"},{"city":"Kohima","state":"Nagaland","latitude":25.6701,"longitude":94.1077,"temp":20.8,"humidity":58,"rain":0.0,"pressure":858.6,"uv_index":8.65,"wind_gusts":105.5,"aqi":82,"pm10":29.6,"pm2_5":20.2,"mosquito_risk":0,"arthritis_risk":5,"migraine_risk":7,"frizz_risk":0,"updated_at":"2026-04-02T10:36:01.561610+05:30"},{"city":"Gangtok","state":"Sikkim","latitude":27.3314,"longitude":88.6138,"temp":20.7,"humidity":65,"rain":0.0,"pressure":840.8,"uv_index":8.4,"wind_gusts":20.9,"aqi":67,"pm10":22.1,"pm2_5":17.0,"mosquito_risk":3,"arthritis_risk":5,"migraine_risk":7,"frizz_risk":0,"updated_at":"2026-04-02T10:36:01.561617+05:30"},{"city":"Siliguri","state":"West Bengal","latitude":26.7271,"longitude":88.3953,"temp":24.8,"humidity":75,"rain":0.0,"pressure":996.1,"uv_index":8.2,"wind_gusts":24.5,"aqi":153,"pm10":57.0,"pm2_5":45.1,"mosquito_risk":3,"arthritis_risk":5,"migraine_risk":7,"frizz_risk":1,"updated_at":"2026-04-02T10:36:04.782202+05:30"},{"city":"Durgapur","state":"West Bengal","latitude":23.5204,"longitude":87.3119,"temp":34.5,"humidity":50,"rain":0.0,"pressure":997.9,"uv_index":8.6,"wind_gusts":27.4,"aqi":152,"pm10":70.3,"pm2_5":55.1,"mosquito_risk":0,"arthritis_risk":5,"migraine_risk":7,"frizz_risk":1,"updated_at":"2026-04-02T10:36:04.782264+05:30"},{"city":"Asansol","state":"West Bengal","latitude":23.6739,"longitude":86.9524,"temp":34.4,"humidity":49,"rain":0.0,"pressure":996.4,"uv_index":8.65,"wind_gusts":27.4,"aqi":129,"pm10":49.0,"pm2_5":34.2,"mosquito_risk":0,"arthritis_risk":5,"migraine_risk":7,"frizz_risk":1,"updated_at":"2026-04-02T10:36:04.782278+05:30"},{"city":"Pondicherry","state":"Puducherry","latitude":11.9139,"longitude":79.8145,"temp":30.5,"humidity":59,"rain":0.0,"pressure":1012.6,"uv_index":9.25,"wind_gusts":24.8,"aqi":31,"pm10":16.6,"pm2_5":12.6,"mosquito_risk":0,"arthritis_risk":0,"migraine_risk":4,"frizz_risk":1,"updated_at":"2026-04-02T10:36:04.782286+05:30"},{"city":"Port Blair","state":"Andaman and Nicobar Islands","latitude":11.6234,"longitude":92.7265,"temp":28.9,"humidity":81,"rain":0.0,"pressure":1009.3,"uv_index":9.15,"wind_gusts":31.3,"aqi":35,"pm10":7.5,"pm2_5":4.5,"mosquito_risk":7,"arthritis_risk":0,"migraine_risk":4,"frizz_risk":1,"updated_at":"2026-04-02T10:36:04.782294+05:30"},{"city":"Haridwar","state":"Uttarakhand","latitude":29.9457,"longitude":78.1642,"temp":29.6,"humidity":41,"rain":0.0,"pressure":978.5,"uv_index":6.25,"wind_gusts":25.2,"aqi":65,"pm10":25.8,"pm2_5":11.2,"mosquito_risk":4,"arthritis_risk":5,"migraine_risk":7,"frizz_risk":0,"updated_at":"2026-04-02T10:36:04.782302+05:30"},{"city":"Rishikesh","state":"Uttarakhand","latitude":30.0869,"longitude":78.2676,"temp":29.8,"humidity":34,"rain":0.0,"pressure":971.2,"uv_index":6.15,"wind_gusts":28.1,"aqi":51,"pm10":23.9,"pm2_5":7.5,"mosquito_risk":4,"arthritis_risk":5,"migraine_risk":7,"frizz_risk":0,"updated_at":"2026-04-02T10:36:04.782309+05:30"},{"city":"Nainital","state":"Uttarakhand","latitude":29.3919,"longitude":79.4542,"temp":25.9,"humidity":24,"rain":0.0,"pressure":812.4,"uv_index":7.25,"wind_gusts":44.3,"aqi":59,"pm10":24.0,"pm2_5":8.2,"mosquito_risk":4,"arthritis_risk":5,"migraine_risk":7,"frizz_risk":0,"updated_at":"2026-04-02T10:36:04.782317+05:30"},{"city":"Mussoorie","state":"Uttarakhand","latitude":30.4599,"longitude":78.0664,"temp":22.5,"humidity":35,"rain":0.0,"pressure":808.5,"uv_index":6.2,"wind_gusts":31.3,"aqi":58,"pm10":23.1,"pm2_5":8.1,"mosquito_risk":0,"arthritis_risk":5,"migraine_risk":7,"frizz_risk":0,"updated_at":"2026-04-02T10:36:04.782324+05:30"},{"city":"Dharamshala","state":"Himachal Pradesh","latitude":32.219,"longitude":76.3234,"temp":25.4,"humidity":38,"rain":0.0,"pressure":874.3,"uv_index":7.35,"wind_gusts":28.4,"aqi":43,"pm10":25.6,"pm2_5":7.0,"mosquito_risk":4,"arthritis_risk":5,"migraine_risk":7,"frizz_risk":0,"updated_at":"2026-04-02T10:36:04.782330+05:30"},{"city":"Dalhousie","state":"Himachal Pradesh","latitude":32.5387,"longitude":75.971,"temp":21.9,"humidity":39,"rain":0.0,"pressure":809.4,"uv_index":7.55,"wind_gusts":24.8,"aqi":64,"pm10":31.7,"pm2_5":10.0,"mosquito_risk":0,"arthritis_risk":5,"migraine_risk":7,"frizz_risk":0,"updated_at":"2026-04-02T10:36:04.782339+05:30"},{"city":"Patiala","state":"Punjab","latitude":30.3398,"longitude":76.3869,"temp":27.2,"humidity":56,"rain":0.0,"pressure":982.6,"uv_index":6.65,"wind_gusts":20.9,"aqi":116,"pm10":72.4,"pm2_5":34.3,"mosquito_risk":4,"arthritis_risk":5,"migraine_risk":7,"frizz_risk":1,"updated_at":"2026-04-02T10:36:04.782345+05:30"},{"city":"Bhatinda","state":"Punjab","latitude":30.211,"longitude":74.9455,"temp":27.5,"humidity":55,"rain":0.0,"pressure":987.8,"uv_index":7.3,"wind_gusts":50.4,"aqi":97,"pm10":64.5,"pm2_5":27.0,"mosquito_risk":4,"arthritis_risk":5,"migraine_risk":7,"frizz_risk":1,"updated_at":"2026-04-02T10:36:04.782352+05:30"},{"city":"Rohtak","state":"Haryana","latitude":28.8955,"longitude":76.6066,"temp":28.0,"humidity":52,"rain":0.0,"pressure":986.3,"uv_index":6.05,"wind_gusts":49.0,"aqi":151,"pm10":191.4,"pm2_5":48.4,"mosquito_risk":4,"arthritis_risk":5,"migraine_risk":7,"frizz_risk":1,"updated_at":"2026-04-02T10:36:04.782358+05:30"},{"city":"Panipat","state":"Haryana","latitude":29.3909,"longitude":76.9635,"temp":29.0,"humidity":53,"rain":0.0,"pressure":984.8,"uv_index":6.45,"wind_gusts":23.0,"aqi":157,"pm10":199.3,"pm2_5":45.3,"mosquito_risk":4,"arthritis_risk":5,"migraine_risk":7,"frizz_risk":1,"updated_at":"2026-04-02T10:36:04.782364+05:30"},{"city":"Mathura","state":"Uttar Pradesh","latitude":27.4924,"longitude":77.6737,"temp":30.1,"humidity":47,"rain":0.0,"pressure":991.1,"uv_index":7.15,"wind_gusts":21.6,"aqi":124,"pm10":243.1,"pm2_5":52.5,"mosquito_risk":0,"arthritis_risk":5,"migraine_risk":7,"frizz_risk":1,"updated_at":"2026-04-02T10:36:04.782370+05:30"},{"city":"Vrindavan","state":"Uttar Pradesh","latitude":27.5823,"longitude":77.7027,"temp":30.7,"humidity":43,"rain":0.0,"pressure":991.5,"uv_index":7.15,"wind_gusts":20.5,"aqi":124,"pm10":243.1,"pm2_5":52.5,"mosquito_risk":0,"arthritis_risk":5,"migraine_risk":7,"frizz_risk":1,"updated_at":"2026-04-02T10:36:04.782376+05:30"},{"city":"Ayodhya","state":"Uttar Pradesh","latitude":26.7922,"longitude":82.1998,"temp":33.0,"humidity":36,"rain":0.0,"pressure":998.6,"uv_index":7.65,"wind_gusts":37.1,"aqi":62,"pm10":37.0,"pm2_5":18.7,"mosquito_risk":0,"arthritis_risk":5,"migraine_risk":7,"frizz_risk":0,"updated_at":"2026-04-02T10:36:04.782382+05:30"},{"city":"Ratlam","state":"Madhya Pradesh","latitude":23.3315,"longitude":75.0367,"temp":29.1,"humidity":48,"rain":0.0,"pressure":958.3,"uv_index":8.15,"wind_gusts":35.3,"aqi":65,"pm10":24.7,"pm2_5":13.9,"mosquito_risk":4,"arthritis_risk":5,"migraine_risk":7,"frizz_risk":1,"updated_at":"2026-04-02T10:36:04.782389+05:30"},{"city":"Sagar","state":"Madhya Pradesh","latitude":23.8388,"longitude":78.7378,"temp":33.4,"humidity":35,"rain":0.0,"pressure":954.3,"uv_index":7.85,"wind_gusts":35.3,"aqi":58,"pm10":32.6,"pm2_5":21.7,"mosquito_risk":0,"arthritis_risk":5,"migraine_risk":7,"frizz_risk":0,"updated_at":"2026-04-02T10:36:04.782395+05:30"},{"city":"Satna","state":"Madhya Pradesh","latitude":24.6005,"longitude":80.8322,"temp":33.6,"humidity":37,"rain":0.0,"pressure":975.0,"uv_index":7.7,"wind_gusts":28.4,"aqi":57,"pm10":21.2,"pm2_5":11.8,"mosquito_risk":0,"arthritis_risk":5,"migraine_risk":7,"frizz_risk":1,"updated_at":"2026-04-02T10:36:04.782402+05:30"},{"city":"Akola","state":"Maharashtra","latitude":20.7002,"longitude":77.0082,"temp":31.8,"humidity":47,"rain":0.0,"pressure":979.4,"uv_index":7.8,"wind_gusts":24.1,"aqi":85,"pm10":52.3,"pm2_5":40.4,"mosquito_risk":0,"arthritis_risk":5,"migraine_risk":7,"frizz_risk":1,"updated_at":"2026-04-02T10:36:04.782409+05:30"},{"city":"Amravati","state":"Maharashtra","latitude":20.9374,"longitude":77.7796,"temp":31.6,"humidity":52,"rain":0.0,"pressure":971.8,"uv_index":8.6,"wind_gusts":24.1,"aqi":80,"pm10":51.1,"pm2_5":39.1,"mosquito_risk":0,"arthritis_risk":5,"migraine_risk":7,"frizz_risk":1,"updated_at":"2026-04-02T10:36:04.782416+05:30"},{"city":"Latur","state":"Maharashtra","latitude":18.4088,"longitude":76.5604,"temp":29.2,"humidity":54,"rain":0.0,"pressure":944.2,"uv_index":8.9,"wind_gusts":38.2,"aqi":123,"pm10":45.2,"pm2_5":37.7,"mosquito_risk":4,"arthritis_risk":5,"migraine_risk":7,"frizz_risk":1,"updated_at":"2026-04-02T10:36:04.782422+05:30"},{"city":"Nanded","state":"Maharashtra","latitude":19.1383,"longitude":77.3091,"temp":31.2,"humidity":52,"rain":0.0,"pressure":973.3,"uv_index":8.8,"wind_gusts":35.6,"aqi":104,"pm10":56.1,"pm2_5":45.8,"mosquito_risk":0,"arthritis_risk":5,"migraine_risk":7,"frizz_risk":1,"updated_at":"2026-04-02T10:36:04.782428+05:30"},{"city":"Gulbarga","state":"Karnataka","latitude":17.3297,"longitude":76.8343,"temp":31.4,"humidity":48,"rain":0.0,"pressure":963.0,"uv_index":8.95,"wind_gusts":39.2,"aqi":102,"pm10":15.0,"pm2_5":11.8,"mosquito_risk":0,"arthritis_risk":5,"migraine_risk":7,"frizz_risk":1,"updated_at":"2026-04-02T10:36:04.782434+05:30"},{"city":"Bidar","state":"Karnataka","latitude":17.9104,"longitude":77.5199,"temp":29.9,"humidity":52,"rain":0.0,"pressure":940.1,"uv_index":8.95,"wind_gusts":37.8,"aqi":113,"pm10":23.2,"pm2_5":20.0,"mosquito_risk":4,"arthritis_risk":5,"migraine_risk":7,"frizz_risk":1,"updated_at":"2026-04-02T10:36:04.782440+05:30"},{"city":"Hospet","state":"Karnataka","latitude":15.2689,"longitude":76.3909,"temp":30.2,"humidity":51,"rain":0.0,"pressure":959.5,"uv_index":9.15,"wind_gusts":35.3,"aqi":101,"pm10":19.6,"pm2_5":16.9,"mosquito_risk":0,"arthritis_risk":5,"migraine_risk":7,"frizz_risk":1,"updated_at":"2026-04-02T10:36:04.782445+05:30"},{"city":"Tirupur","state":"Tamil Nadu","latitude":11.1085,"longitude":77.3411,"temp":30.0,"humidity":56,"rain":0.0,"pressure":979.3,"uv_index":8.95,"wind_gusts":25.6,"aqi":59,"pm10":9.3,"pm2_5":8.1,"mosquito_risk":4,"arthritis_risk":5,"migraine_risk":7,"frizz_risk":1,"updated_at":"2026-04-02T10:36:04.782452+05:30"},{"city":"Alappuzha","state":"Kerala","latitude":9.4981,"longitude":76.3388,"temp":28.4,"humidity":80,"rain":0.0,"pressure":1011.6,"uv_index":9.2,"wind_gusts":26.6,"aqi":74,"pm10":25.8,"pm2_5":22.4,"mosquito_risk":7,"arthritis_risk":0,"migraine_risk":4,"frizz_risk":1,"updated_at":"2026-04-02T10:36:04.782458+05:30"},{"city":"Munnar","state":"Kerala","latitude":10.0889,"longitude":77.0595,"temp":27.3,"humidity":52,"rain":0.0,"pressure":861.3,"uv_index":9.75,"wind_gusts":33.1,"aqi":61,"pm10":10.1,"pm2_5":8.8,"mosquito_risk":4,"arthritis_risk":5,"migraine_risk":7,"frizz_risk":1,"updated_at":"2026-04-02T10:36:04.782465+05:30"},{"city":"Silchar","state":"Assam","latitude":24.8333,"longitude":92.7789,"temp":23.6,"humidity":89,"rain":0.0,"pressure":1010.0,"uv_index":8.45,"wind_gusts":34.2,"aqi":131,"pm10":56.2,"pm2_5":39.1,"mosquito_risk":3,"arthritis_risk":0,"migraine_risk":4,"frizz_risk":1,"updated_at":"2026-04-02T10:36:04.782471+05:30"},{"city":"Dibrugarh","state":"Assam","latitude":27.4728,"longitude":94.912,"temp":21.8,"humidity":92,"rain":0.0,"pressure":998.8,"uv_index":6.0,"wind_gusts":26.3,"aqi":101,"pm10":41.3,"pm2_5":35.4,"mosquito_risk":3,"arthritis_risk":5,"migraine_risk":3,"frizz_risk":1,"updated_at":"2026-04-02T10:36:04.782478+05:30"}]