[{"city":"Delhi","state":"Delhi","latitude":28.6139,"longitude":77.209,"temp":31.0,"humidity":36,"rain":0.0,"pressure":984.8,"uv_index":6.85,"wind_gusts":23.8,"aqi":151,"pm10":203.5,"pm2_5":49.4,"mosquito_risk":0,"arthritis_risk":5,"migraine_risk":7,"frizz_risk":0,"updated_at":"2026-04-01T16:30:54.960004+05:30"},{"city":"Mumbai","state":"Maharashtra","latitude":19.076,"longitude":72.8777,"temp":27.4,"humidity":76,"rain":0.0,"pressure":1007.1,"uv_index":7.85,"wind_gusts":23.8,"aqi":64,"pm10":29.9,"pm2_5":16.3,"mosquito_risk":7,"arthritis_risk":5,"migraine_risk":4,"frizz_risk":1,"updated_at":"2026-04-01T16:30:54.960045+05:30"},{"city":"Bangalore","state":"Karnataka","latitude":12.9716,"longitude":77.5946,"temp":33.5,"humidity":23,"rain":0.0,"pressure":910.1,"uv_index":9.55,"wind_gusts":28.8,"aqi":88,"pm10":22.3,"pm2_5":16.9,"mosquito_risk":0,"arthritis_risk":5,"migraine_risk":7,"frizz_risk":0,"updated_at":"2026-04-01T16:30:54.960060+05:30"},{"city":"Hyderabad","state":"Telangana","latitude":17.385,"longitude":78.4867,"temp":34.7,"humidity":34,"rain":0.0,"pressure":951.4,"uv_index":9.1,"wind_gusts":27.0,"aqi":106,"pm10":30.2,"pm2_5":24.2,"mosquito_risk":0,"arthritis_risk":5,"migraine_risk":7,"frizz_risk":1,"updated_at":"2026-04-01T16:30:54.960070+05:30"},{"city":"Chennai","state":"Tamil Nadu","latitude":13.0827,"longitude":80.2707,"temp":31.4,"humidity":50,"rain":0.0,"pressure":1006.1,"uv_index":9.15,"wind_gusts":29.5,"aqi":44,"pm10":9.5,"pm2_5":7.1,"mosquito_risk":0,"arthritis_risk":5,"migraine_risk":4,"frizz_risk":1,"updated_at":"2026-04-01T16:30:54.960078+05:30"},{"city":"Kolkata","state":"West Bengal","latitude":22.5726,"longitude":88.3639,"temp":32.8,"humidity":57,"rain":0.0,"pressure":1004.9,"uv_index":8.6,"wind_gusts":19.4,"aqi":143,"pm10":59.0,"pm2_5":42.0,"mosquito_risk":0,"arthritis_risk":5,"migraine_risk":4,"frizz_risk":1,"updated_at":"2026-04-01T16:30:54.960087+05:30"},{"city":"Pune","state":"Maharashtra","latitude":18.5204,"longitude":73.8567,"temp":34.2,"humidity":41,"rain":0.0,"pressure":947.1,"uv_index":8.5,"wind_gusts":32.0,"aqi":118,"pm10":42.5,"pm2_5":34.8,"mosquito_risk":0,"arthritis_risk":5,"migraine_risk":7,"frizz_risk":1,"updated_at":"2026-04-01T16:30:54.960098+05:30"},{"city":"Ahmedabad","state":"Gujarat","latitude":23.0225,"longitude":72.5714,"temp":36.2,"humidity":25,"rain":0.0,"pressure":999.9,"uv_index":7.85,"wind_gusts":25.9,"aqi":88,"pm10":32.7,"pm2_5":15.0,"mosquito_risk":0,"arthritis_risk":5,"migraine_risk":10,"frizz_risk":0,"updated_at":"2026-04-01T16:30:54.960105+05:30"},{"city":"Jaipur","state":"Rajasthan","latitude":26.9124,"longitude":75.7873,"temp":29.3,"humidity":46,"rain":0.0,"pressure":960.7,"uv_index":6.7,"wind_gusts":31.0,"aqi":120,"pm10":122.9,"pm2_5":21.9,"mosquito_risk":4,"arthritis_risk":5,"migraine_risk":7,"frizz_risk":1,"updated_at":"2026-04-01T16:30:54.960113+05:30"},{"city":"Lucknow","state":"Uttar Pradesh","latitude":26.8467,"longitude":80.9462,"temp":35.6,"humidity":27,"rain":0.0,"pressure":992.6,"uv_index":7.15,"wind_gusts":27.4,"aqi":91,"pm10":69.6,"pm2_5":18.3,"mosquito_risk":0,"arthritis_risk":5,"migraine_risk":10,"frizz_risk":0,"updated_at":"2026-04-01T16:30:54.960121+05:30"},{"city":"Kanpur","state":"Uttar Pradesh","latitude":26.4499,"longitude":80.3319,"temp":33.4,"humidity":37,"rain":0.0,"pressure":991.5,"uv_index":7.35,"wind_gusts":28.8,"aqi":138,"pm10":192.8,"pm2_5":30.2,"mosquito_risk":0,"arthritis_risk":5,"migraine_risk":7,"frizz_risk":1,"updated_at":"2026-04-01T16:30:54.960128+05:30"},{"city":"Chandigarh","state":"Chandigarh","latitude":30.7333,"longitude":76.7794,"temp":27.6,"humidity":47,"rain":0.0,"pressure":971.1,"uv_index":6.55,"wind_gusts":16.6,"aqi":81,"pm10":55.6,"pm2_5":17.1,"mosquito_risk":4,"arthritis_risk":5,"migraine_risk":7,"frizz_risk":0,"updated_at":"2026-04-01T16:30:54.960136+05:30"},{"city":"Srinagar","state":"Jammu and Kashmir","latitude":34.0837,"longitude":74.7973,"temp":17.0,"humidity":54,"rain":0.0,"pressure":843.9,"uv_index":7.1,"wind_gusts":20.5,"aqi":85,"pm10":31.7,"pm2_5":15.1,"mosquito_risk":0,"arthritis_risk":5,"migraine_risk":7,"frizz_risk":0,"updated_at":"2026-04-01T16:30:54.960142+05:30"},{"city":"Jammu","state":"Jammu and Kashmir","latitude":32.7266,"longitude":74.857,"temp":29.6,"humidity":35,"rain":0.0,"pressure":975.3,"uv_index":6.4,"wind_gusts":20.5,"aqi":80,"pm10":64.5,"pm2_5":20.8,"mosquito_risk":4,"arthritis_risk":5,"migraine_risk":7,"frizz_risk":0,"updated_at":"2026-04-01T16:30:54.960149+05:30"},{"city":"Amritsar","state":"Punjab","latitude":31.634,"longitude":74.8723,"temp":28.9,"humidity":39,"rain":0.0,"pressure":983.4,"uv_index":6.9,"wind_gusts":14.4,"aqi":120,"pm10":106.2,"pm2_5":29.7,"mosquito_risk":4,"arthritis_risk":5,"migraine_risk":7,"frizz_risk":0,"updated_at":"2026-04-01T16:30:54.960156+05:30"},{"city":"Ludhiana","state":"Punjab","latitude":30.901,"longitude":75.8573,"temp":28.7,"humidity":38,"rain":0.0,"pressure":981.4,"uv_index":6.65,"wind_gusts":18.4,"aqi":121,"pm10":57.7,"pm2_5":21.5,"mosquito_risk":4,"arthritis_risk":5,"migraine_risk":7,"frizz_risk":0,"updated_at":"2026-04-01T16:30:54.960162+05:30"},{"city":"Jalandhar","state":"Punjab","latitude":31.326,"longitude":75.5762,"temp":28.7,"humidity":39,"rain":0.0,"pressure":982.4,"uv_index":6.75,"wind_gusts":14.8,"aqi":111,"pm10":71.9,"pm2_5":23.7,"mosquito_risk":4,"arthritis_risk":5,"migraine_risk":7,"frizz_risk":0,"updated_at":"2026-04-01T16:30:54.960170+05:30"},{"city":"Dehradun","state":"Uttarakhand","latitude":30.6284,"longitude":78.0322,"temp":19.2,"humidity":48,"rain":0.0,"pressure":832.8,"uv_index":6.4,"wind_gusts":32.0,"aqi":66,"pm10":32.1,"pm2_5":9.5,"mosquito_risk":0,"arthritis_risk":5,"migraine_risk":7,"frizz_risk":0,"updated_at":"2026-04-01T16:30:54.960176+05:30"},{"city":"Shimla","state":"Himachal Pradesh","latitude":31.1048,"longitude":77.1734,"temp":16.8,"humidity":49,"rain":0.0,"pressure":787.3,"uv_index":6.1,"wind_gusts":30.2,"aqi":80,"pm10":45.8,"pm2_5":17.2,"mosquito_risk":0,"arthritis_risk":5,"migraine_risk":7,"frizz_risk":0,"updated_at":"2026-04-01T16:30:54.960183+05:30"},{"city":"Manali","state":"Himachal Pradesh","latitude":32.2396,"longitude":77.1887,"temp":17.1,"humidity":71,"rain":0.0,"pressure":822.4,"uv_index":8.45,"wind_gusts":29.9,"aqi":94,"pm10":14.0,"pm2_5":5.5,"mosquito_risk":3,"arthritis_risk":5,"migraine_risk":7,"frizz_risk":0,"updated_at":"2026-04-01T16:30:54.960190+05:30"},{"city":"Gurgaon","state":"Haryana","latitude":28.4595,"longitude":77.0266,"temp":30.0,"humidity":44,"rain":0.0,"pressure":983.4,"uv_index":6.95,"wind_gusts":30.6,"aqi":512,"pm10":468.5,"pm2_5":64.7,"mosquito_risk":4,"arthritis_risk":5,"migraine_risk":7,"frizz_risk":1,"updated_at":"2026-04-01T16:30:54.960199+05:30"},{"city":"Noida","state":"Uttar Pradesh","latitude":28.5355,"longitude":77.391,"temp":31.5,"humidity":34,"rain":0.0,"pressure":986.3,"uv_index":6.85,"wind_gusts":22.3,"aqi":512,"pm10":468.5,"pm2_5":64.7,"mosquito_risk":0,"arthritis_risk":5,"migraine_risk":7,"frizz_risk":0,"updated_at":"2026-04-01T16:30:54.960205+05:30"},{"city":"Ghaziabad","state":"Uttar Pradesh","latitude":28.6692,"longitude":77.4538,"temp":31.1,"humidity":35,"rain":0.0,"pressure":984.5,"uv_index":6.85,"wind_gusts":22.7,"aqi":134,"pm10":192.3,"pm2_5":44.4,"mosquito_risk":0,"arthritis_risk":5,"migraine_risk":7,"frizz_risk":0,"updated_at":"2026-04-01T16:30:54.960211+05:30"},{"city":"Faridabad","state":"Haryana","latitude":28.4089,"longitude":77.3178,"temp":30.6,"humidity":38,"rain":0.0,"pressure":985.5,"uv_index":6.9,"wind_gusts":26.6,"aqi":512,"pm10":468.5,"pm2_5":64.7,"mosquito_risk":0,"arthritis_risk":5,"migraine_risk":7,"frizz_risk":0,"updated_at":"2026-04-01T16:30:54.960218+05:30"},{"city":"Meerut","state":"Uttar Pradesh","latitude":28.9845,"longitude":77.7064,"temp":31.3,"humidity":36,"rain":0.0,"pressure":983.2,"uv_index":6.5,"wind_gusts":24.1,"aqi":134,"pm10":192.3,"pm2_5":44.4,"mosquito_risk":0,"arthritis_risk":5,"migraine_risk":7,"frizz_risk":0,"updated_at":"2026-04-01T16:30:54.960224+05:30"},{"city":"Agra","state":"Uttar Pradesh","latitude":27.1767,"longitude":78.0081,"temp":30.8,"humidity":41,"rain":0.0,"pressure":989.2,"uv_index":7.25,"wind_gusts":28.8,"aqi":442,"pm10":244.9,"pm2_5":34.8,"mosquito_risk":0,"arthritis_risk":5,"migraine_risk":7,"frizz_risk":0,"updated_at":"2026-04-01T16:30:54.960230+05:30"},{"city":"Varanasi","state":"Uttar Pradesh","latitude":25.3176,"longitude":82.9739,"temp":35.0,"humidity":36,"rain":0.0,"pressure":996.7,"uv_index":7.55,"wind_gusts":25.6,"aqi":99,"pm10":36.9,"pm2_5":17.3,"mosquito_risk":0,"arthritis_risk":5,"migraine_risk":7,"frizz_risk":1,"updated_at":"2026-04-01T16:30:54.960238+05:30"},{"city":"Prayagraj","state":"Uttar Pradesh","latitude":25.4358,"longitude":81.8463,"temp":35.1,"humidity":32,"rain":0.0,"pressure":995.2,"uv_index":7.9,"wind_gusts":36.0,"aqi":70,"pm10":34.8,"pm2_5":17.3,"mosquito_risk":0,"arthritis_risk":5,"migraine_risk":10,"frizz_risk":0,"updated_at":"2026-04-01T16:30:54.960246+05:30"},{"city":"Gorakhpur","state":"Uttar Pradesh","latitude":26.7606,"longitude":83.3732,"temp":33.5,"humidity":33,"rain":0.0,"pressure":996.0,"uv_index":7.8,"wind_gusts":23.8,"aqi":126,"pm10":25.6,"pm2_5":14.4,"mosquito_risk":0,"arthritis_risk":5,"migraine_risk":7,"frizz_risk":0,"updated_at":"2026-04-01T16:30:54.960252+05:30"},{"city":"Bareilly","state":"Uttar Pradesh","latitude":28.367,"longitude":79.4304,"temp":33.6,"humidity":26,"rain":0.0,"pressure":987.4,"uv_index":6.95,"wind_gusts":27.4,"aqi":102,"pm10":99.9,"pm2_5":28.2,"mosquito_risk":0,"arthritis_risk":5,"migraine_risk":7,"frizz_risk":0,"updated_at":"2026-04-01T16:30:54.960258+05:30"},{"city":"Aligarh","state":"Uttar Pradesh","latitude":27.8974,"longitude":78.088,"temp":32.3,"humidity":32,"rain":0.0,"pressure":987.1,"uv_index":7.0,"wind_gusts":21.6,"aqi":294,"pm10":314.8,"pm2_5":47.5,"mosquito_risk":0,"arthritis_risk":5,"migraine_risk":7,"frizz_risk":0,"updated_at":"2026-04-01T16:30:54.960264+05:30"},{"city":"Moradabad","state":"Uttar Pradesh","latitude":28.8386,"longitude":78.7733,"temp":32.3,"humidity":30,"rain":0.0,"pressure":984.8,"uv_index":6.85,"wind_gusts":27.4,"aqi":115,"pm10":106.2,"pm2_5":30.9,"mosquito_risk":0,"arthritis_risk":5,"migraine_risk":7,"frizz_risk":0,"updated_at":"2026-04-01T16:30:54.960270+05:30"},{"city":"Saharanpur","state":"Uttar Pradesh","latitude":29.9637,"longitude":77.546,"temp":27.8,"humidity":49,"rain":0.0,"pressure":977.8,"uv_index":6.2,"wind_gusts":21.2,"aqi":96,"pm10":63.3,"pm2_5":24.4,"mosquito_risk":4,"arthritis_risk":5,"migraine_risk":7,"frizz_risk":1,"updated_at":"2026-04-01T16:30:54.960276+05:30"},{"city":"Jhansi","state":"Uttar Pradesh","latitude":25.4484,"longitude":78.5685,"temp":34.5,"humidity":30,"rain":0.0,"pressure":977.1,"uv_index":7.8,"wind_gusts":32.0,"aqi":62,"pm10":41.4,"pm2_5":17.0,"mosquito_risk":0,"arthritis_risk":5,"migraine_risk":7,"frizz_risk":0,"updated_at":"2026-04-01T16:30:58.263717+05:30"},{"city":"Surat","state":"Gujarat","latitude":21.1702,"longitude":72.8311,"temp":30.8,"humidity":48,"rain":0.0,"pressure":1005.8,"uv_index":7.65,"wind_gusts":25.2,"aqi":88,"pm10":44.2,"pm2_5":32.6,"mosquito_risk":0,"arthritis_risk":5,"migraine_risk":4,"frizz_risk":1,"updated_at":"2026-04-01T16:30:58.263747+05:30"},{"city":"Vadodara","state":"Gujarat","latitude":22.3072,"longitude":73.1812,"temp":36.3,"humidity":22,"rain":0.0,"pressure":1002.3,"uv_index":7.9,"wind_gusts":29.2,"aqi":101,"pm10":27.2,"pm2_5":17.1,"mosquito_risk":0,"arthritis_risk":5,"migraine_risk":7,"frizz_risk":0,"updated_at":"2026-04-01T16:30:58.263758+05:30"},{"city":"Rajkot","state":"Gujarat","latitude":22.3039,"longitude":70.8022,"temp":33.1,"humidity":29,"rain":0.0,"pressure":993.0,"uv_index":7.25,"wind_gusts":33.8,"aqi":85,"pm10":21.7,"pm2_5":13.2,"mosquito_risk":0,"arthritis_risk":5,"migraine_risk":7,"frizz_risk":0,"updated_at":"2026-04-01T16:30:58.263766+05:30"},{"city":"Thane","state":"Maharashtra","latitude":19.2183,"longitude":72.9781,"temp":29.4,"humidity":61,"rain":0.0,"pressure":1006.6,"uv_index":7.85,"wind_gusts":34.2,"aqi":64,"pm10":29.9,"pm2_5":16.3,"mosquito_risk":7,"arthritis_risk":5,"migraine_risk":4,"frizz_risk":1,"updated_at":"2026-04-01T16:30:58.263774+05:30"},{"city":"Nagpur","state":"Maharashtra","latitude":21.1458,"longitude":79.0882,"temp":26.0,"humidity":72,"rain":0.0,"pressure":973.8,"uv_index":8.6,"wind_gusts":48.6,"aqi":163,"pm10":30.5,"pm2_5":23.9,"mosquito_risk":7,"arthritis_risk":5,"migraine_risk":7,"frizz_risk":1,"updated_at":"2026-04-01T16:30:58.263781+05:30"},{"city":"Nashik","state":"Maharashtra","latitude":19.9975,"longitude":73.7898,"temp":32.5,"humidity":42,"rain":0.0,"pressure":944.3,"uv_index":8.1,"wind_gusts":32.0,"aqi":58,"pm10":30.6,"pm2_5":21.2,"mosquito_risk":0,"arthritis_risk":5,"migraine_risk":7,"frizz_risk":1,"updated_at":"2026-04-01T16:30:58.263789+05:30"},{"city":"Aurangabad","state":"Maharashtra","latitude":19.8762,"longitude":75.3433,"temp":32.7,"humidity":39,"rain":0.0,"pressure":943.0,"uv_index":8.8,"wind_gusts":45.7,"aqi":109,"pm10":43.3,"pm2_5":33.1,"mosquito_risk":0,"arthritis_risk":5,"migraine_risk":7,"frizz_risk":1,"updated_at":"2026-04-01T16:30:58.263795+05:30"},{"city":"Solapur","state":"Maharashtra","latitude":17.6599,"longitude":75.9064,"temp":36.6,"humidity":27,"rain":0.0,"pressure":954.6,"uv_index":8.9,"wind_gusts":25.2,"aqi":113,"pm10":32.0,"pm2_5":26.1,"mosquito_risk":0,"arthritis_risk":5,"migraine_risk":10,"frizz_risk":0,"updated_at":"2026-04-01T16:30:58.263803+05:30"},{"city":"Kolhapur","state":"Maharashtra","latitude":16.705,"longitude":74.2433,"temp":30.4,"humidity":56,"rain":0.0,"pressure":946.8,"uv_index":8.95,"wind_gusts":34.2,"aqi":146,"pm10":43.4,"pm2_5":37.1,"mosquito_risk":0,"arthritis_risk":5,"migraine_risk":7,"frizz_risk":1,"updated_at":"2026-04-01T16:30:58.263810+05:30"},{"city":"Goa","state":"Goa","latitude":15.2993,"longitude":74.124,"temp":31.2,"humidity":67,"rain":0.0,"pressure":996.4,"uv_index":8.85,"wind_gusts":32.8,"aqi":70,"pm10":20.2,"pm2_5":15.6,"mosquito_risk":3,"arthritis_risk":5,"migraine_risk":7,"frizz_risk":1,"updated_at":"2026-04-01T16:30:58.263817+05:30"},{"city":"Jodhpur","state":"Rajasthan","latitude":26.2389,"longitude":73.0243,"temp":33.3,"humidity":28,"rain":0.0,"pressure":982.1,"uv_index":7.75,"wind_gusts":33.1,"aqi":102,"pm10":79.6,"pm2_5":14.7,"mosquito_risk":0,"arthritis_risk":5,"migraine_risk":7,"frizz_risk":0,"updated_at":"2026-04-01T16:30:58.263824+05:30"},{"city":"Udaipur","state":"Rajasthan","latitude":24.5854,"longitude":73.7125,"temp":32.8,"humidity":25,"rain":0.0,"pressure":945.7,"uv_index":8.4,"wind_gusts":36.7,"aqi":54,"pm10":26.0,"pm2_5":9.9,"mosquito_risk":0,"arthritis_risk":5,"migraine_risk":7,"frizz_risk":0,"updated_at":"2026-04-01T16:30:58.263831+05:30"},{"city":"Kota","state":"Rajasthan","latitude":25.2138,"longitude":75.8648,"temp":35.5,"humidity":28,"rain":0.0,"pressure":977.3,"uv_index":7.45,"wind_gusts":22.7,"aqi":60,"pm10":36.6,"pm2_5":15.6,"mosquito_risk":0,"arthritis_risk":5,"migraine_risk":10,"frizz_risk":0,"updated_at":"2026-04-01T16:30:58.263838+05:30"},{"city":"Bikaner","state":"Rajasthan","latitude":28.0229,"longitude":73.3119,"temp":33.6,"humidity":18,"rain":0.0,"pressure":981.3,"uv_index":6.85,"wind_gusts":19.4,"aqi":50,"pm10":48.2,"pm2_5":12.8,"mosquito_risk":0,"arthritis_risk":5,"migraine_risk":7,"frizz_risk":0,"updated_at":"2026-04-01T16:30:58.263845+05:30"},{"city":"Ajmer","state":"Rajasthan","latitude":26.4499,"longitude":74.6399,"temp":32.8,"humidity":26,"rain":0.0,"pressure":954.1,"uv_index":7.4,"wind_gusts":26.6,"aqi":59,"pm10":34.9,"pm2_5":11.8,"mosquito_risk":0,"arthritis_risk":5,"migraine_risk":7,"frizz_risk":0,"updated_at":"2026-04-01T16:30:58.263852+05:30"},{"city":"Gwalior","state":"Madhya Pradesh","latitude":26.2183,"longitude":78.1828,"temp":32.1,"humidity":37,"rain":0.0,"pressure":983.7,"uv_index":7.5,"wind_gusts":35.3,"aqi":75,"pm10":31.0,"pm2_5":12.9,"mosquito_risk":0,"arthritis_risk":5,"migraine_risk":7,"frizz_risk":0,"updated_at":"2026-04-01T16:30:58.263858+05:30"},{"city":"Indore","state":"Madhya Pradesh","latitude":22.7196,"longitude":75.8577,"temp":34.6,"humidity":28,"rain":0.0,"pressure":946.6,"uv_index":8.3,"wind_gusts":35.3,"aqi":81,"pm10":33.6,"pm2_5":24.3,"mosquito_risk":0,"arthritis_risk":5,"migraine_risk":7,"frizz_risk":0,"updated_at":"2026-04-01T16:30:58.263865+05:30"},{"city":"Bhopal","state":"Madhya Pradesh","latitude":23.2599,"longitude":77.4126,"temp":32.7,"humidity":37,"rain":0.0,"pressure":953.1,"uv_index":8.25,"wind_gusts":39.2,"aqi":68,"pm10":26.0,"pm2_5":17.9,"mosquito_risk":0,"arthritis_risk":5,"migraine_risk":7,"frizz_risk":1,"updated_at":"2026-04-01T16:30:58.263871+05:30"},{"city":"Jabalpur","state":"Madhya Pradesh","latitude":23.1815,"longitude":79.9864,"temp":35.0,"humidity":29,"rain":0.0,"pressure":960.5,"uv_index":8.2,"wind_gusts":40.7,"aqi":94,"pm10":23.7,"pm2_5":16.3,"mosquito_risk":0,"arthritis_risk":5,"migraine_risk":7,"frizz_risk":0,"updated_at":"2026-04-01T16:30:58.263878+05:30"},{"city":"Ujjain","state":"Madhya Pradesh","latitude":23.1765,"longitude":75.7885,"temp":34.8,"humidity":28,"rain":0.0,"pressure":952.1,"uv_index":8.2,"wind_gusts":30.2,"aqi":70,"pm10":31.9,"pm2_5":22.8,"mosquito_risk":0,"arthritis_risk":5,"migraine_risk":7,"frizz_risk":0,"updated_at":"2026-04-01T16:30:58.263885+05:30"},{"city":"Visakhapatnam","state":"Andhra Pradesh","latitude":17.6868,"longitude":83.2185,"temp":30.5,"humidity":62,"rain":0.0,"pressure":1003.2,"uv_index":9.05,"wind_gusts":35.6,"aqi":72,"pm10":19.2,"pm2_5":14.4,"mosquito_risk":3,"arthritis_risk":5,"migraine_risk":4,"frizz_risk":1,"updated_at":"2026-04-01T16:30:58.263892+05:30"},{"city":"Vijayawada","state":"Andhra Pradesh","latitude":16.5062,"longitude":80.648,"temp":34.9,"humidity":43,"rain":0.0,"pressure":1000.6,"uv_index":9.05,"wind_gusts":29.5,"aqi":63,"pm10":16.8,"pm2_5":12.3,"mosquito_risk":0,"arthritis_risk":5,"migraine_risk":4,"frizz_risk":1,"updated_at":"2026-04-01T16:30:58.263900+05:30"},{"city":"Guntur","state":"Andhra Pradesh","latitude":16.3067,"longitude":80.4365,"temp":34.0,"humidity":42,"rain":0.0,"pressure":1002.1,"uv_index":9.1,"wind_gusts":29.9,"aqi":62,"pm10":18.0,"pm2_5":12.9,"mosquito_risk":0,"arthritis_risk":5,"migraine_risk":4,"frizz_risk":1,"updated_at":"2026-04-01T16:30:58.263907+05:30"},{"city":"Nellore","state":"Andhra Pradesh","latitude":14.4426,"longitude":79.9865,"temp":32.5,"humidity":47,"rain":0.0,"pressure":1004.6,"uv_index":9.2,"wind_gusts":29.9,"aqi":47,"pm10":11.9,"pm2_5":8.3,"mosquito_risk":0,"arthritis_risk":5,"migraine_risk":4,"frizz_risk":1,"updated_at":"2026-04-01T16:30:58.263914+05:30"},{"city":"Kurnool","state":"Andhra Pradesh","latitude":15.8281,"longitude":78.0373,"temp":37.4,"humidity":28,"rain":0.0,"pressure":973.9,"uv_index":9.1,"wind_gusts":23.0,"aqi":80,"pm10":25.0,"pm2_5":18.6,"mosquito_risk":0,"arthritis_risk":5,"migraine_risk":10,"frizz_risk":0,"updated_at":"2026-04-01T16:30:58.263922+05:30"},{"city":"Kakinada","state":"Andhra Pradesh","latitude":16.9891,"longitude":82.2475,"temp":33.0,"humidity":47,"rain":0.0,"pressure":1006.3,"uv_index":9.05,"wind_gusts":35.3,"aqi":53,"pm10":11.2,"pm2_5":7.9,"mosquito_risk":0,"arthritis_risk":5,"migraine_risk":4,"frizz_risk":1,"updated_at":"2026-04-01T16:30:58.263928+05:30"},{"city":"Tirupati","state":"Andhra Pradesh","latitude":13.6288,"longitude":79.4192,"temp":34.7,"humidity":33,"rain":0.0,"pressure":989.4,"uv_index":9.35,"wind_gusts":31.7,"aqi":60,"pm10":16.9,"pm2_5":13.2,"mosquito_risk":0,"arthritis_risk":5,"migraine_risk":7,"frizz_risk":1,"updated_at":"2026-04-01T16:30:58.263935+05:30"},{"city":"Warangal","state":"Telangana","latitude":17.9689,"longitude":79.5941,"temp":35.4,"humidity":38,"rain":0.0,"pressure":976.6,"uv_index":8.95,"wind_gusts":30.6,"aqi":111,"pm10":38.0,"pm2_5":30.9,"mosquito_risk":0,"arthritis_risk":5,"migraine_risk":10,"frizz_risk":1,"updated_at":"2026-04-01T16:30:58.263942+05:30"},{"city":"Nizamabad","state":"Telangana","latitude":18.6725,"longitude":78.0941,"temp":36.3,"humidity":30,"rain":0.0,"pressure":962.4,"uv_index":8.85,"wind_gusts":23.0,"aqi":134,"pm10":35.3,"pm2_5":27.5,"mosquito_risk":0,"arthritis_risk":5,"migraine_risk":10,"frizz_risk":0,"updated_at":"2026-04-01T16:30:58.263949+05:30"},{"city":"Mysore","state":"Karnataka","latitude":12.2958,"longitude":76.6396,"temp":33.3,"humidity":26,"rain":0.0,"pressure":926.5,"uv_index":9.5,"wind_gusts":27.7,"aqi":122,"pm10":31.0,"pm2_5":23.8,"mosquito_risk":0,"arthritis_risk":5,"migraine_risk":7,"frizz_risk":0,"updated_at":"2026-04-01T16:30:58.263956+05:30"},{"city":"Mangalore","state":"Karnataka","latitude":12.9141,"longitude":74.856,"temp":29.7,"humidity":80,"rain":0.0,"pressure":1004.2,"uv_index":9.05,"wind_gusts":22.3,"aqi":93,"pm10":31.4,"pm2_5":24.5,"mosquito_risk":7,"arthritis_risk":5,"migraine_risk":4,"frizz_risk":1,"updated_at":"2026-04-01T16:30:58.263962+05:30"},{"city":"Hubli-Dharwad","state":"Karnataka","latitude":15.3647,"longitude":75.124,"temp":27.4,"humidity":67,"rain":0.0,"pressure":939.6,"uv_index":9.15,"wind_gusts":37.4,"aqi":124,"pm10":41.3,"pm2_5":32.9,"mosquito_risk":7,"arthritis_risk":5,"migraine_risk":7,"frizz_risk":1,"updated_at":"2026-04-01T16:30:58.263969+05:30"},{"city":"Belgaum","state":"Karnataka","latitude":15.8497,"longitude":74.4977,"temp":26.1,"humidity":77,"rain":0.0,"pressure":924.5,"uv_index":9.1,"wind_gusts":26.6,"aqi":142,"pm10":39.1,"pm2_5":33.6,"mosquito_risk":7,"arthritis_risk":5,"migraine_risk":7,"frizz_risk":1,"updated_at":"2026-04-01T16:31:01.600894+05:30"},{"city":"Coimbatore","state":"Tamil Nadu","latitude":11.0168,"longitude":76.9558,"temp":35.3,"humidity":23,"rain":0.0,"pressure":959.2,"uv_index":9.45,"wind_gusts":34.2,"aqi":75,"pm10":19.0,"pm2_5":12.1,"mosquito_risk":0,"arthritis_risk":5,"migraine_risk":10,"frizz_risk":0,"updated_at":"2026-04-01T16:31:01.600927+05:30"},{"city":"Madurai","state":"Tamil Nadu","latitude":9.9252,"longitude":78.1198,"temp":36.2,"humidity":28,"rain":0.0,"pressure":990.0,"uv_index":9.0,"wind_gusts":24.8,"aqi":59,"pm10":14.1,"pm2_5":7.5,"mosquito_risk":0,"arthritis_risk":5,"migraine_risk":10,"frizz_risk":0,"updated_at":"2026-04-01T16:31:01.600939+05:30"},{"city":"Trichy","state":"Tamil Nadu","latitude":10.7905,"longitude":78.7047,"temp":35.0,"humidity":31,"rain":0.0,"pressure":997.2,"uv_index":9.2,"wind_gusts":26.3,"aqi":56,"pm10":18.7,"pm2_5":14.9,"mosquito_risk":0,"arthritis_risk":5,"migraine_risk":7,"frizz_risk":0,"updated_at":"2026-04-01T16:31:01.600947+05:30"},{"city":"Salem","state":"Tamil Nadu","latitude":11.6643,"longitude":78.146,"temp":36.2,"humidity":28,"rain":0.0,"pressure":974.5,"uv_index":9.4,"wind_gusts":31.0,"aqi":79,"pm10":25.4,"pm2_5":18.8,"mosquito_risk":0,"arthritis_risk":5,"migraine_risk":10,"frizz_risk":0,"updated_at":"2026-04-01T16:31:01.600955+05:30"},{"city":"Tirunelveli","state":"Tamil Nadu","latitude":8.7139,"longitude":77.7567,"temp":37.4,"humidity":26,"rain":0.0,"pressure":999.8,"uv_index":9.35,"wind_gusts":41.0,"aqi":54,"pm10":12.9,"pm2_5":6.7,"mosquito_risk":0,"arthritis_risk":5,"migraine_risk":10,"frizz_risk":0,"updated_at":"2026-04-01T16:31:01.600963+05:30"},{"city":"Vellore","state":"Tamil Nadu","latitude":12.9165,"longitude":79.1325,"temp":33.8,"humidity":32,"rain":0.0,"pressure":982.6,"uv_index":9.4,"wind_gusts":32.8,"aqi":63,"pm10":13.9,"pm2_5":9.4,"mosquito_risk":0,"arthritis_risk":5,"migraine_risk":7,"frizz_risk":0,"updated_at":"2026-04-01T16:31:01.600970+05:30"},{"city":"Erode","state":"Tamil Nadu","latitude":11.341,"longitude":77.7172,"temp":36.8,"humidity":30,"rain":0.0,"pressure":985.8,"uv_index":9.3,"wind_gusts":21.2,"aqi":54,"pm10":21.5,"pm2_5":15.8,"mosquito_risk":0,"arthritis_risk":5,"migraine_risk":10,"frizz_risk":1,"updated_at":"2026-04-01T16:31:01.600977+05:30"},{"city":"Kochi","state":"Kerala","latitude":9.9312,"longitude":76.2673,"temp":29.7,"humidity":77,"rain":0.0,"pressure":1005.6,"uv_index":9.15,"wind_gusts":28.4,"aqi":129,"pm10":26.9,"pm2_5":22.5,"mosquito_risk":7,"arthritis_risk":5,"migraine_risk":4,"frizz_risk":1,"updated_at":"2026-04-01T16:31:01.600984+05:30"},{"city":"Thiruvananthapuram","state":"Kerala","latitude":8.5241,"longitude":76.9366,"temp":29.5,"humidity":75,"rain":0.0,"pressure":1005.1,"uv_index":9.15,"wind_gusts":28.4,"aqi":106,"pm10":16.1,"pm2_5":13.7,"mosquito_risk":7,"arthritis_risk":5,"migraine_risk":4,"frizz_risk":1,"updated_at":"2026-04-01T16:31:01.600991+05:30"},{"city":"Kozhikode","state":"Kerala","latitude":11.2588,"longitude":75.7804,"temp":30.6,"humidity":73,"rain":0.0,"pressure":1005.2,"uv_index":9.15,"wind_gusts":25.9,"aqi":66,"pm10":24.7,"pm2_5":18.2,"mosquito_risk":3,"arthritis_risk":5,"migraine_risk":4,"frizz_risk":1,"updated_at":"2026-04-01T16:31:01.600997+05:30"},{"city":"Thrissur","state":"Kerala","latitude":10.5276,"longitude":76.2144,"temp":32.0,"humidity":66,"rain":0.0,"pressure":1004.0,"uv_index":9.2,"wind_gusts":33.8,"aqi":98,"pm10":22.6,"pm2_5":16.1,"mosquito_risk":3,"arthritis_risk":5,"migraine_risk":4,"frizz_risk":1,"updated_at":"2026-04-01T16:31:01.601004+05:30"},{"city":"Kannur","state":"Kerala","latitude":11.8745,"longitude":75.3704,"temp":30.9,"humidity":71,"rain":0.0,"pressure":1004.6,"uv_index":9.1,"wind_gusts":26.3,"aqi":82,"pm10":33.4,"pm2_5":25.9,"mosquito_risk":3,"arthritis_risk":5,"migraine_risk":4,"frizz_risk":1,"updated_at":"2026-04-01T16:31:01.601011+05:30"},{"city":"Patna","state":"Bihar","latitude":25.5941,"longitude":85.1376,"temp":34.5,"humidity":37,"rain":0.0,"pressure":999.3,"uv_index":8.2,"wind_gusts":25.2,"aqi":164,"pm10":22.1,"pm2_5":12.4,"mosquito_risk":0,"arthritis_risk":5,"migraine_risk":7,"frizz_risk":1,"updated_at":"2026-04-01T16:31:01.601019+05:30"},{"city":"Gaya","state":"Bihar","latitude":24.7914,"longitude":85.0002,"temp":33.4,"humidity":40,"rain":0.0,"pressure":993.1,"uv_index":7.95,"wind_gusts":31.3,"aqi":103,"pm10":45.5,"pm2_5":17.8,"mosquito_risk":0,"arthritis_risk":5,"migraine_risk":7,"frizz_risk":1,"updated_at":"2026-04-01T16:31:01.601025+05:30"},{"city":"Muzaffarpur","state":"Bihar","latitude":26.1209,"longitude":85.3647,"temp":34.0,"humidity":38,"rain":0.0,"pressure":998.9,"uv_index":8.15,"wind_gusts":39.2,"aqi":167,"pm10":30.7,"pm2_5":20.2,"mosquito_risk":0,"arthritis_risk":5,"migraine_risk":7,"frizz_risk":1,"updated_at":"2026-04-01T16:31:01.601032+05:30"},{"city":"Bhagalpur","state":"Bihar","latitude":25.2425,"longitude":87.0117,"temp":31.1,"humidity":58,"rain":0.0,"pressure":1000.2,"uv_index":8.25,"wind_gusts":32.0,"aqi":160,"pm10":46.1,"pm2_5":32.9,"mosquito_risk":0,"arthritis_risk":5,"migraine_risk":4,"frizz_risk":1,"updated_at":"2026-04-01T16:31:01.601039+05:30"},{"city":"Ranchi","state":"Jharkhand","latitude":23.3441,"longitude":85.3096,"temp":30.0,"humidity":39,"rain":0.0,"pressure":938.6,"uv_index":8.85,"wind_gusts":31.3,"aqi":128,"pm10":72.2,"pm2_5":26.7,"mosquito_risk":4,"arthritis_risk":5,"migraine_risk":7,"frizz_risk":0,"updated_at":"2026-04-01T16:31:01.601046+05:30"},{"city":"Jamshedpur","state":"Jharkhand","latitude":22.8046,"longitude":86.2029,"temp":36.2,"humidity":29,"rain":0.0,"pressure":989.4,"uv_index":8.7,"wind_gusts":20.5,"aqi":161,"pm10":66.1,"pm2_5":32.8,"mosquito_risk":0,"arthritis_risk":5,"migraine_risk":10,"frizz_risk":0,"updated_at":"2026-04-01T16:31:01.601052+05:30"},{"city":"Dhanbad","state":"Jharkhand","latitude":23.7957,"longitude":86.4304,"temp":35.2,"humidity":28,"rain":0.0,"pressure":978.9,"uv_index":8.6,"wind_gusts":23.8,"aqi":162,"pm10":68.2,"pm2_5":31.4,"mosquito_risk":0,"arthritis_risk":5,"migraine_risk":10,"frizz_risk":0,"updated_at":"2026-04-01T16:31:01.601059+05:30"},{"city":"Bokaro","state":"Jharkhand","latitude":23.6693,"longitude":86.1511,"temp":34.7,"humidity":27,"rain":0.0,"pressure":983.1,"uv_index":8.6,"wind_gusts":28.4,"aqi":152,"pm10":69.8,"pm2_5":31.2,"mosquito_risk":0,"arthritis_risk":5,"migraine_risk":7,"frizz_risk":0,"updated_at":"2026-04-01T16:31:01.601066+05:30"},{"city":"Bhubaneswar","state":"Odisha","latitude":20.2961,"longitude":85.8245,"temp":33.8,"humidity":48,"rain":0.0,"pressure":1001.7,"uv_index":8.85,"wind_gusts":30.2,"aqi":103,"pm10":39.2,"pm2_5":29.0,"mosquito_risk":0,"arthritis_risk":5,"migraine_risk":4,"frizz_risk":1,"updated_at":"2026-04-01T16:31:01.601073+05:30"},{"city":"Cuttack","state":"Odisha","latitude":20.4625,"longitude":85.8828,"temp":35.2,"humidity":43,"rain":0.0,"pressure":1003.0,"uv_index":8.9,"wind_gusts":24.8,"aqi":103,"pm10":39.2,"pm2_5":29.0,"mosquito_risk":0,"arthritis_risk":5,"migraine_risk":7,"frizz_risk":1,"updated_at":"2026-04-01T16:31:01.601080+05:30"},{"city":"Rourkela","state":"Odisha","latitude":22.2604,"longitude":84.8536,"temp":35.7,"humidity":32,"rain":0.0,"pressure":984.0,"uv_index":8.6,"wind_gusts":14.0,"aqi":169,"pm10":80.8,"pm2_5":35.3,"mosquito_risk":0,"arthritis_risk":5,"migraine_risk":10,"frizz_risk":1,"updated_at":"2026-04-01T16:31:01.601087+05:30"},{"city":"Raipur","state":"Chhattisgarh","latitude":21.2514,"longitude":81.6296,"temp":36.5,"humidity":26,"rain":0.0,"pressure":973.3,"uv_index":8.7,"wind_gusts":18.0,"aqi":151,"pm10":29.3,"pm2_5":22.1,"mosquito_risk":0,"arthritis_risk":5,"migraine_risk":10,"frizz_risk":0,"updated_at":"2026-04-01T16:31:01.601093+05:30"},{"city":"Bhilai","state":"Chhattisgarh","latitude":21.1938,"longitude":81.3509,"temp":36.8,"humidity":26,"rain":0.0,"pressure":973.6,"uv_index":8.7,"wind_gusts":19.1,"aqi":129,"pm10":27.9,"pm2_5":22.0,"mosquito_risk":0,"arthritis_risk":5,"migraine_risk":10,"frizz_risk":0,"updated_at":"2026-04-01T16:31:01.601100+05:30"},{"city":"Guwahati","state":"Assam","latitude":26.1158,"longitude":91.7086,"temp":26.9,"humidity":78,"rain":0.0,"pressure":1000.1,"uv_index":8.05,"wind_gusts":34.6,"aqi":112,"pm10":36.4,"pm2_5":29.3,"mosquito_risk":7,"arthritis_risk":5,"migraine_risk":4,"frizz_risk":1,"updated_at":"2026-04-01T16:31:01.601107+05:30"},{"city":"Agartala","state":"Tripura","latitude":23.8315,"longitude":91.2868,"temp":31.4,"humidity":59,"rain":0.0,"pressure":1004.9,"uv_index":8.35,"wind_gusts":23.4,"aqi":104,"pm10":41.3,"pm2_5":32.2,"mosquito_risk":0,"arthritis_risk":5,"migraine_risk":4,"frizz_risk":1,"updated_at":"2026-04-01T16:31:01.601114+05:30"},{"city":"Shillong","state":"Meghalaya","latitude":25.5788,"longitude":91.8933,"temp":17.1,"humidity":76,"rain":0.0,"pressure":855.7,"uv_index":8.45,"wind_gusts":58.3,"aqi":88,"pm10":41.4,"pm2_5":31.3,"mosquito_risk":3,"arthritis_risk":5,"migraine_risk":7,"frizz_risk":0,"updated_at":"2026-04-01T16:31:01.601120+05:30"},{"city":"Imphal","state":"Manipur","latitude":24.817,"longitude":93.9368,"temp":20.8,"humidity":75,"rain":0.0,"pressure":922.9,"uv_index":8.7,"wind_gusts":63.4,"aqi":98,"pm10":42.0,"pm2_5":30.0,"mosquito_risk":3,"arthritis_risk":5,"migraine_risk":7,"frizz_risk":1,"updated_at":"2026-04-01T16:31:01.601127+05:30"},{"city":"Aizawl","state":"Mizoram","latitude":23.7271,"longitude":92.7176,"temp":24.1,"humidity":61,"rain":0.0,"pressure":893.4,"uv_index":8.6,"wind_gusts":41.4,"aqi":92,"pm10":38.5,"pm2_5":25.9,"mosquito_risk":3,"arthritis_risk":5,"migraine_risk":7,"frizz_risk":1,"updated_at":"2026-04-01T16:31:01.601134+05:30"},{"city":"Kohima","state":"Nagaland","latitude":25.6701,"longitude":94.1077,"temp":17.7,"humidity":81,"rain":0.0,"pressure":854.4,"uv_index":8.55,"wind_gusts":81.7,"aqi":86,"pm10":37.4,"pm2_5":27.0,"mosquito_risk":3,"arthritis_risk":10,"migraine_risk":7,"frizz_risk":0,"updated_at":"2026-04-01T16:31:01.601141+05:30"},{"city":"Gangtok","state":"Sikkim","latitude":27.3314,"longitude":88.6138,"temp":18.4,"humidity":74,"rain":0.0,"pressure":836.8,"uv_index":8.45,"wind_gusts":20.2,"aqi":104,"pm10":34.5,"pm2_5":26.0,"mosquito_risk":3,"arthritis_risk":5,"migraine_risk":7,"frizz_risk":0,"updated_at":"2026-04-01T16:31:01.601148+05:30"},{"city":"Siliguri","state":"West Bengal","latitude":26.7271,"longitude":88.3953,"temp":23.9,"humidity":79,"rain":0.0,"pressure":992.7,"uv_index":8.05,"wind_gusts":32.4,"aqi":154,"pm10":65.0,"pm2_5":51.1,"mosquito_risk":3,"arthritis_risk":5,"migraine_risk":7,"frizz_risk":1,"updated_at":"2026-04-01T16:31:04.911596+05:30"},{"city":"Durgapur","state":"West Bengal","latitude":23.5204,"longitude":87.3119,"temp":35.4,"humidity":32,"rain":0.0,"pressure":993.6,"uv_index":8.55,"wind_gusts":21.2,"aqi":155,"pm10":64.3,"pm2_5":34.9,"mosquito_risk":0,"arthritis_risk":5,"migraine_risk":10,"frizz_risk":1,"updated_at":"2026-04-01T16:31:04.911629+05:30"},{"city":"Asansol","state":"West Bengal","latitude":23.6739,"longitude":86.9524,"temp":35.0,"humidity":32,"rain":0.0,"pressure":992.2,"uv_index":8.6,"wind_gusts":22.0,"aqi":153,"pm10":65.9,"pm2_5":33.2,"mosquito_risk":0,"arthritis_risk":5,"migraine_risk":7,"frizz_risk":0,"updated_at":"2026-04-01T16:31:04.911639+05:30"},{"city":"Pondicherry","state":"Puducherry","latitude":11.9139,"longitude":79.8145,"temp":32.0,"humidity":52,"rain":0.0,"pressure":1006.6,"uv_index":8.6,"wind_gusts":26.6,"aqi":40,"pm10":9.1,"pm2_5":6.4,"mosquito_risk":0,"arthritis_risk":5,"migraine_risk":4,"frizz_risk":1,"updated_at":"2026-04-01T16:31:04.911648+05:30"},{"city":"Port Blair","state":"Andaman and Nicobar Islands","latitude":11.6234,"longitude":92.7265,"temp":27.7,"humidity":83,"rain":0.0,"pressure":1006.8,"uv_index":3.85,"wind_gusts":13.0,"aqi":42,"pm10":16.2,"pm2_5":14.4,"mosquito_risk":7,"arthritis_risk":5,"migraine_risk":0,"frizz_risk":1,"updated_at":"2026-04-01T16:31:04.911657+05:30"},{"city":"Haridwar","state":"Uttarakhand","latitude":29.9457,"longitude":78.1642,"temp":28.8,"humidity":40,"rain":0.0,"pressure":976.3,"uv_index":6.6,"wind_gusts":28.4,"aqi":76,"pm10":41.6,"pm2_5":17.8,"mosquito_risk":4,"arthritis_risk":5,"migraine_risk":7,"frizz_risk":0,"updated_at":"2026-04-01T16:31:04.911665+05:30"},{"city":"Rishikesh","state":"Uttarakhand","latitude":30.0869,"longitude":78.2676,"temp":28.5,"humidity":36,"rain":0.0,"pressure":969.3,"uv_index":6.6,"wind_gusts":32.0,"aqi":77,"pm10":34.5,"pm2_5":12.6,"mosquito_risk":4,"arthritis_risk":5,"migraine_risk":7,"frizz_risk":0,"updated_at":"2026-04-01T16:31:04.911673+05:30"},{"city":"Nainital","state":"Uttarakhand","latitude":29.3919,"longitude":79.4542,"temp":23.1,"humidity":36,"rain":0.0,"pressure":809.1,"uv_index":7.45,"wind_gusts":36.7,"aqi":94,"pm10":53.6,"pm2_5":19.8,"mosquito_risk":0,"arthritis_risk":5,"migraine_risk":7,"frizz_risk":0,"updated_at":"2026-04-01T16:31:04.911680+05:30"},{"city":"Mussoorie","state":"Uttarakhand","latitude":30.4599,"longitude":78.0664,"temp":19.8,"humidity":43,"rain":0.0,"pressure":805.7,"uv_index":6.4,"wind_gusts":38.9,"aqi":72,"pm10":44.4,"pm2_5":14.5,"mosquito_risk":0,"arthritis_risk":5,"migraine_risk":7,"frizz_risk":0,"updated_at":"2026-04-01T16:31:04.911687+05:30"},{"city":"Dharamshala","state":"Himachal Pradesh","latitude":32.219,"longitude":76.3234,"temp":22.5,"humidity":51,"rain":0.0,"pressure":871.8,"uv_index":6.25,"wind_gusts":24.5,"aqi":72,"pm10":38.0,"pm2_5":12.7,"mosquito_risk":0,"arthritis_risk":5,"migraine_risk":7,"frizz_risk":0,"updated_at":"2026-04-01T16:31:04.911695+05:30"},{"city":"Dalhousie","state":"Himachal Pradesh","latitude":32.5387,"longitude":75.971,"temp":20.8,"humidity":43,"rain":0.0,"pressure":806.9,"uv_index":5.7,"wind_gusts":20.9,"aqi":74,"pm10":37.6,"pm2_5":12.1,"mosquito_risk":0,"arthritis_risk":5,"migraine_risk":3,"frizz_risk":0,"updated_at":"2026-04-01T16:31:04.911702+05:30"},{"city":"Patiala","state":"Punjab","latitude":30.3398,"longitude":76.3869,"temp":28.8,"humidity":40,"rain":0.0,"pressure":980.8,"uv_index":5.7,"wind_gusts":16.2,"aqi":129,"pm10":117.3,"pm2_5":27.2,"mosquito_risk":4,"arthritis_risk":5,"migraine_risk":3,"frizz_risk":0,"updated_at":"2026-04-01T16:31:04.911709+05:30"},{"city":"Bhatinda","state":"Punjab","latitude":30.211,"longitude":74.9455,"temp":28.2,"humidity":43,"rain":0.0,"pressure":985.2,"uv_index":6.05,"wind_gusts":24.1,"aqi":110,"pm10":129.0,"pm2_5":30.6,"mosquito_risk":4,"arthritis_risk":5,"migraine_risk":7,"frizz_risk":0,"updated_at":"2026-04-01T16:31:04.911716+05:30"},{"city":"Rohtak","state":"Haryana","latitude":28.8955,"longitude":76.6066,"temp":29.4,"humidity":45,"rain":0.0,"pressure":983.8,"uv_index":6.6,"wind_gusts":26.3,"aqi":168,"pm10":231.9,"pm2_5":48.9,"mosquito_risk":4,"arthritis_risk":5,"migraine_risk":7,"frizz_risk":1,"updated_at":"2026-04-01T16:31:04.911722+05:30"},{"city":"Panipat","state":"Haryana","latitude":29.3909,"longitude":76.9635,"temp":29.5,"humidity":45,"rain":0.0,"pressure":982.6,"uv_index":6.25,"wind_gusts":15.1,"aqi":161,"pm10":181.6,"pm2_5":47.1,"mosquito_risk":4,"arthritis_risk":5,"migraine_risk":7,"frizz_risk":1,"updated_at":"2026-04-01T16:31:04.911729+05:30"},{"city":"Mathura","state":"Uttar Pradesh","latitude":27.4924,"longitude":77.6737,"temp":29.7,"humidity":47,"rain":0.0,"pressure":988.6,"uv_index":7.15,"wind_gusts":30.6,"aqi":411,"pm10":186.3,"pm2_5":31.8,"mosquito_risk":4,"arthritis_risk":5,"migraine_risk":7,"frizz_risk":1,"updated_at":"2026-04-01T16:31:04.911736+05:30"},{"city":"Vrindavan","state":"Uttar Pradesh","latitude":27.5823,"longitude":77.7027,"temp":30.2,"humidity":44,"rain":0.0,"pressure":989.3,"uv_index":7.1,"wind_gusts":26.3,"aqi":411,"pm10":186.3,"pm2_5":31.8,"mosquito_risk":0,"arthritis_risk":5,"migraine_risk":7,"frizz_risk":1,"updated_at":"2026-04-01T16:31:04.911743+05:30"},{"city":"Ayodhya","state":"Uttar Pradesh","latitude":26.7922,"longitude":82.1998,"temp":34.5,"humidity":33,"rain":0.0,"pressure":994.3,"uv_index":7.55,"wind_gusts":25.6,"aqi":80,"pm10":23.8,"pm2_5":14.1,"mosquito_risk":0,"arthritis_risk":5,"migraine_risk":7,"frizz_risk":0,"updated_at":"2026-04-01T16:31:04.911749+05:30"},{"city":"Ratlam","state":"Madhya Pradesh","latitude":23.3315,"longitude":75.0367,"temp":35.0,"humidity":28,"rain":0.0,"pressure":953.3,"uv_index":8.15,"wind_gusts":34.2,"aqi":67,"pm10":28.8,"pm2_5":21.0,"mosquito_risk":0,"arthritis_risk":5,"migraine_risk":7,"frizz_risk":0,"updated_at":"2026-04-01T16:31:04.911756+05:30"},{"city":"Sagar","state":"Madhya Pradesh","latitude":23.8388,"longitude":78.7378,"temp":35.3,"humidity":24,"rain":0.0,"pressure":949.1,"uv_index":8.25,"wind_gusts":33.1,"aqi":70,"pm10":23.9,"pm2_5":13.1,"mosquito_risk":0,"arthritis_risk":5,"migraine_risk":10,"frizz_risk":0,"updated_at":"2026-04-01T16:31:04.911762+05:30"},{"city":"Satna","state":"Madhya Pradesh","latitude":24.6005,"longitude":80.8322,"temp":34.0,"humidity":33,"rain":0.0,"pressure":971.0,"uv_index":8.0,"wind_gusts":26.6,"aqi":81,"pm10":30.7,"pm2_5":16.8,"mosquito_risk":0,"arthritis_risk":5,"migraine_risk":7,"frizz_risk":0,"updated_at":"2026-04-01T16:31:04.911769+05:30"},{"city":"Akola","state":"Maharashtra","latitude":20.7002,"longitude":77.0082,"temp":35.4,"humidity":36,"rain":0.0,"pressure":973.5,"uv_index":8.55,"wind_gusts":27.0,"aqi":98,"pm10":29.2,"pm2_5":20.4,"mosquito_risk":0,"arthritis_risk":5,"migraine_risk":10,"frizz_risk":1,"updated_at":"2026-04-01T16:31:04.911776+05:30"},{"city":"Amravati","state":"Maharashtra","latitude":20.9374,"longitude":77.7796,"temp":35.1,"humidity":31,"rain":0.0,"pressure":966.1,"uv_index":8.6,"wind_gusts":27.0,"aqi":99,"pm10":24.2,"pm2_5":16.6,"mosquito_risk":0,"arthritis_risk":5,"migraine_risk":10,"frizz_risk":0,"updated_at":"2026-04-01T16:31:04.911782+05:30"},{"city":"Latur","state":"Maharashtra","latitude":18.4088,"longitude":76.5604,"temp":33.4,"humidity":35,"rain":0.0,"pressure":938.1,"uv_index":8.85,"wind_gusts":25.6,"aqi":114,"pm10":31.0,"pm2_5":24.5,"mosquito_risk":0,"arthritis_risk":5,"migraine_risk":7,"frizz_risk":0,"updated_at":"2026-04-01T16:31:04.911789+05:30"},{"city":"Nanded","state":"Maharashtra","latitude":19.1383,"longitude":77.3091,"temp":35.6,"humidity":34,"rain":0.0,"pressure":966.6,"uv_index":8.75,"wind_gusts":23.0,"aqi":112,"pm10":33.3,"pm2_5":26.1,"mosquito_risk":0,"arthritis_risk":5,"migraine_risk":10,"frizz_risk":1,"updated_at":"2026-04-01T16:31:04.911795+05:30"},{"city":"Gulbarga","state":"Karnataka","latitude":17.3297,"longitude":76.8343,"temp":36.3,"humidity":27,"rain":0.0,"pressure":956.5,"uv_index":8.95,"wind_gusts":24.1,"aqi":109,"pm10":32.5,"pm2_5":27.0,"mosquito_risk":0,"arthritis_risk":5,"migraine_risk":10,"frizz_risk":0,"updated_at":"2026-04-01T16:31:04.911801+05:30"},{"city":"Bidar","state":"Karnataka","latitude":17.9104,"longitude":77.5199,"temp":34.0,"humidity":35,"rain":0.0,"pressure":933.9,"uv_index":8.95,"wind_gusts":26.6,"aqi":116,"pm10":30.9,"pm2_5":24.7,"mosquito_risk":0,"arthritis_risk":5,"migraine_risk":7,"frizz_risk":1,"updated_at":"2026-04-01T16:31:04.911807+05:30"},{"city":"Hospet","state":"Karnataka","latitude":15.2689,"longitude":76.3909,"temp":34.1,"humidity":36,"rain":0.0,"pressure":953.7,"uv_index":9.15,"wind_gusts":23.4,"aqi":142,"pm10":39.3,"pm2_5":32.4,"mosquito_risk":0,"arthritis_risk":5,"migraine_risk":7,"frizz_risk":1,"updated_at":"2026-04-01T16:31:04.911813+05:30"},{"city":"Tirupur","state":"Tamil Nadu","latitude":11.1085,"longitude":77.3411,"temp":36.1,"humidity":26,"rain":0.0,"pressure":972.5,"uv_index":9.4,"wind_gusts":21.6,"aqi":61,"pm10":21.2,"pm2_5":15.4,"mosquito_risk":0,"arthritis_risk":5,"migraine_risk":10,"frizz_risk":0,"updated_at":"2026-04-01T16:31:04.911820+05:30"},{"city":"Alappuzha","state":"Kerala","latitude":9.4981,"longitude":76.3388,"temp":29.6,"humidity":78,"rain":0.0,"pressure":1005.6,"uv_index":9.2,"wind_gusts":26.6,"aqi":147,"pm10":23.6,"pm2_5":21.0,"mosquito_risk":7,"arthritis_risk":5,"migraine_risk":4,"frizz_risk":1,"updated_at":"2026-04-01T16:31:04.911826+05:30"},{"city":"Munnar","state":"Kerala","latitude":10.0889,"longitude":77.0595,"temp":26.3,"humidity":67,"rain":0.0,"pressure":856.4,"uv_index":9.75,"wind_gusts":30.6,"aqi":69,"pm10":18.5,"pm2_5":9.9,"mosquito_risk":7,"arthritis_risk":5,"migraine_risk":7,"frizz_risk":1,"updated_at":"2026-04-01T16:31:04.911833+05:30"},{"city":"Silchar","state":"Assam","latitude":24.8333,"longitude":92.7789,"temp":27.9,"humidity":72,"rain":0.0,"pressure":1004.6,"uv_index":8.4,"wind_gusts":35.3,"aqi":118,"pm10":47.0,"pm2_5":37.7,"mosquito_risk":7,"arthritis_risk":5,"migraine_risk":4,"frizz_risk":1,"updated_at":"2026-04-01T16:31:04.911839+05:30"},{"city":"Dibrugarh","state":"Assam","latitude":27.4728,"longitude":94.912,"temp":24.5,"humidity":85,"rain":0.0,"pressure":995.1,"uv_index":7.65,"wind_gusts":31.3,"aqi":110,"pm10":45.6,"pm2_5":36.4,"mosquito_risk":3,"arthritis_risk":5,"migraine_risk":7,"frizz_risk":1,"updated_at":"2026-04-01T16:31:04.911846+05:30"}]