[{"city":"Delhi","state":"Delhi","latitude":28.6139,"longitude":77.209,"temp":30.6,"humidity":78,"rain":0.0,"pressure":973.7,"uv_index":7.65,"wind_gusts":28.4,"aqi":392,"pm10":456.3,"pm2_5":145.8,"no2":75.5,"co":1678.0,"o3":14.0,"so2":25.4,"mosquito_risk":3,"arthritis_risk":5,"migraine_risk":7,"frizz_risk":1,"updated_at":"2026-07-11T22:39:11.379029+05:30"},{"city":"Mumbai","state":"Maharashtra","latitude":19.076,"longitude":72.8777,"temp":27.5,"humidity":89,"rain":0.0,"pressure":1007.4,"uv_index":6.15,"wind_gusts":52.6,"aqi":55,"pm10":28.3,"pm2_5":12.5,"no2":6.3,"co":179.0,"o3":42.0,"so2":4.5,"mosquito_risk":7,"arthritis_risk":5,"migraine_risk":4,"frizz_risk":1,"updated_at":"2026-07-11T22:39:11.379084+05:30"},{"city":"Bangalore","state":"Karnataka","latitude":12.9716,"longitude":77.5946,"temp":23.8,"humidity":78,"rain":0.0,"pressure":912.7,"uv_index":7.2,"wind_gusts":46.8,"aqi":47,"pm10":18.9,"pm2_5":12.0,"no2":19.3,"co":472.0,"o3":35.0,"so2":5.0,"mosquito_risk":3,"arthritis_risk":5,"migraine_risk":7,"frizz_risk":1,"updated_at":"2026-07-11T22:39:11.379100+05:30"},{"city":"Hyderabad","state":"Telangana","latitude":17.385,"longitude":78.4867,"temp":28.7,"humidity":57,"rain":0.0,"pressure":951.2,"uv_index":8.35,"wind_gusts":47.9,"aqi":62,"pm10":36.6,"pm2_5":20.0,"no2":13.8,"co":417.0,"o3":48.0,"so2":5.0,"mosquito_risk":4,"arthritis_risk":5,"migraine_risk":7,"frizz_risk":1,"updated_at":"2026-07-11T22:39:11.379111+05:30"},{"city":"Chennai","state":"Tamil Nadu","latitude":13.0827,"longitude":80.2707,"temp":29.6,"humidity":80,"rain":0.0,"pressure":1005.5,"uv_index":8.15,"wind_gusts":33.1,"aqi":79,"pm10":33.8,"pm2_5":21.1,"no2":8.6,"co":204.0,"o3":104.0,"so2":6.8,"mosquito_risk":7,"arthritis_risk":5,"migraine_risk":4,"frizz_risk":1,"updated_at":"2026-07-11T22:39:11.379121+05:30"},{"city":"Kolkata","state":"West Bengal","latitude":22.5726,"longitude":88.3639,"temp":28.2,"humidity":94,"rain":0.0,"pressure":998.8,"uv_index":2.35,"wind_gusts":39.6,"aqi":114,"pm10":79.4,"pm2_5":62.4,"no2":20.6,"co":502.0,"o3":70.0,"so2":14.2,"mosquito_risk":7,"arthritis_risk":5,"migraine_risk":3,"frizz_risk":1,"updated_at":"2026-07-11T22:39:11.379130+05:30"},{"city":"Pune","state":"Maharashtra","latitude":18.5204,"longitude":73.8567,"temp":24.0,"humidity":89,"rain":0.0,"pressure":946.7,"uv_index":7.65,"wind_gusts":57.2,"aqi":34,"pm10":12.6,"pm2_5":6.9,"no2":8.1,"co":142.0,"o3":35.0,"so2":5.4,"mosquito_risk":3,"arthritis_risk":5,"migraine_risk":7,"frizz_risk":1,"updated_at":"2026-07-11T22:39:11.379139+05:30"},{"city":"Ahmedabad","state":"Gujarat","latitude":23.0225,"longitude":72.5714,"temp":30.3,"humidity":66,"rain":0.0,"pressure":996.9,"uv_index":6.1,"wind_gusts":48.6,"aqi":65,"pm10":42.5,"pm2_5":22.4,"no2":7.0,"co":140.0,"o3":51.0,"so2":4.4,"mosquito_risk":3,"arthritis_risk":5,"migraine_risk":7,"frizz_risk":1,"updated_at":"2026-07-11T22:39:11.379148+05:30"},{"city":"Jaipur","state":"Rajasthan","latitude":26.9124,"longitude":75.7873,"temp":29.3,"humidity":67,"rain":0.0,"pressure":951.7,"uv_index":7.7,"wind_gusts":41.0,"aqi":449,"pm10":478.7,"pm2_5":88.7,"no2":11.6,"co":220.0,"o3":58.0,"so2":5.1,"mosquito_risk":7,"arthritis_risk":5,"migraine_risk":7,"frizz_risk":1,"updated_at":"2026-07-11T22:39:11.379155+05:30"},{"city":"Lucknow","state":"Uttar Pradesh","latitude":26.8467,"longitude":80.9462,"temp":26.5,"humidity":95,"rain":0.1,"pressure":985.6,"uv_index":6.1,"wind_gusts":51.8,"aqi":153,"pm10":124.3,"pm2_5":68.2,"no2":28.0,"co":438.0,"o3":42.0,"so2":9.8,"mosquito_risk":10,"arthritis_risk":5,"migraine_risk":7,"frizz_risk":1,"updated_at":"2026-07-11T22:39:11.379184+05:30"},{"city":"Kanpur","state":"Uttar Pradesh","latitude":26.4499,"longitude":80.3319,"temp":30.2,"humidity":67,"rain":0.0,"pressure":983.5,"uv_index":8.05,"wind_gusts":47.2,"aqi":128,"pm10":117.3,"pm2_5":43.8,"no2":11.1,"co":178.0,"o3":81.0,"so2":7.9,"mosquito_risk":3,"arthritis_risk":5,"migraine_risk":7,"frizz_risk":1,"updated_at":"2026-07-11T22:39:11.379193+05:30"},{"city":"Chandigarh","state":"Chandigarh","latitude":30.7333,"longitude":76.7794,"temp":26.9,"humidity":87,"rain":0.0,"pressure":959.8,"uv_index":7.7,"wind_gusts":22.3,"aqi":154,"pm10":124.8,"pm2_5":94.3,"no2":68.5,"co":1338.0,"o3":29.0,"so2":14.6,"mosquito_risk":7,"arthritis_risk":5,"migraine_risk":7,"frizz_risk":1,"updated_at":"2026-07-11T22:39:11.379200+05:30"},{"city":"Srinagar","state":"Jammu and Kashmir","latitude":34.0837,"longitude":74.7973,"temp":20.1,"humidity":90,"rain":0.0,"pressure":836.5,"uv_index":9.0,"wind_gusts":26.6,"aqi":87,"pm10":17.1,"pm2_5":16.5,"no2":23.2,"co":628.0,"o3":67.0,"so2":1.7,"mosquito_risk":3,"arthritis_risk":5,"migraine_risk":7,"frizz_risk":1,"updated_at":"2026-07-11T22:39:11.379207+05:30"},{"city":"Jammu","state":"Jammu and Kashmir","latitude":32.7266,"longitude":74.857,"temp":28.2,"humidity":85,"rain":0.0,"pressure":963.3,"uv_index":8.55,"wind_gusts":29.9,"aqi":109,"pm10":31.1,"pm2_5":27.8,"no2":29.1,"co":534.0,"o3":69.0,"so2":4.5,"mosquito_risk":7,"arthritis_risk":5,"migraine_risk":7,"frizz_risk":1,"updated_at":"2026-07-11T22:39:11.379214+05:30"},{"city":"Amritsar","state":"Punjab","latitude":31.634,"longitude":74.8723,"temp":28.7,"humidity":86,"rain":0.0,"pressure":970.8,"uv_index":8.4,"wind_gusts":31.7,"aqi":160,"pm10":195.6,"pm2_5":99.0,"no2":23.1,"co":430.0,"o3":73.0,"so2":7.2,"mosquito_risk":7,"arthritis_risk":5,"migraine_risk":7,"frizz_risk":1,"updated_at":"2026-07-11T22:39:11.379221+05:30"},{"city":"Ludhiana","state":"Punjab","latitude":30.901,"longitude":75.8573,"temp":28.8,"humidity":85,"rain":0.0,"pressure":969.1,"uv_index":7.9,"wind_gusts":31.0,"aqi":162,"pm10":295.2,"pm2_5":147.1,"no2":50.7,"co":514.0,"o3":41.0,"so2":13.0,"mosquito_risk":7,"arthritis_risk":5,"migraine_risk":7,"frizz_risk":1,"updated_at":"2026-07-11T22:39:11.379227+05:30"},{"city":"Jalandhar","state":"Punjab","latitude":31.326,"longitude":75.5762,"temp":28.1,"humidity":87,"rain":0.0,"pressure":970.1,"uv_index":8.15,"wind_gusts":27.7,"aqi":166,"pm10":273.8,"pm2_5":140.6,"no2":47.5,"co":717.0,"o3":52.0,"so2":8.2,"mosquito_risk":7,"arthritis_risk":5,"migraine_risk":7,"frizz_risk":1,"updated_at":"2026-07-11T22:39:11.379234+05:30"},{"city":"Dehradun","state":"Uttarakhand","latitude":30.6284,"longitude":78.0322,"temp":17.7,"humidity":100,"rain":0.3,"pressure":824.4,"uv_index":7.85,"wind_gusts":21.6,"aqi":86,"pm10":14.7,"pm2_5":13.9,"no2":27.0,"co":255.0,"o3":82.0,"so2":2.7,"mosquito_risk":6,"arthritis_risk":10,"migraine_risk":7,"frizz_risk":1,"updated_at":"2026-07-11T22:39:11.379241+05:30"},{"city":"Shimla","state":"Himachal Pradesh","latitude":31.1048,"longitude":77.1734,"temp":15.4,"humidity":96,"rain":0.0,"pressure":779.0,"uv_index":3.75,"wind_gusts":31.3,"aqi":134,"pm10":61.0,"pm2_5":52.3,"no2":18.2,"co":565.0,"o3":111.0,"so2":4.8,"mosquito_risk":3,"arthritis_risk":10,"migraine_risk":3,"frizz_risk":0,"updated_at":"2026-07-11T22:39:11.379249+05:30"},{"city":"Manali","state":"Himachal Pradesh","latitude":32.2396,"longitude":77.1887,"temp":19.2,"humidity":98,"rain":0.1,"pressure":814.3,"uv_index":7.7,"wind_gusts":19.1,"aqi":88,"pm10":5.0,"pm2_5":4.9,"no2":51.5,"co":227.0,"o3":80.0,"so2":0.5,"mosquito_risk":6,"arthritis_risk":10,"migraine_risk":7,"frizz_risk":1,"updated_at":"2026-07-11T22:39:11.379261+05:30"},{"city":"Gurgaon","state":"Haryana","latitude":28.4595,"longitude":77.0266,"temp":30.4,"humidity":75,"rain":0.0,"pressure":972.3,"uv_index":7.7,"wind_gusts":30.2,"aqi":507,"pm10":802.8,"pm2_5":183.9,"no2":41.9,"co":936.0,"o3":36.0,"so2":11.8,"mosquito_risk":3,"arthritis_risk":5,"migraine_risk":7,"frizz_risk":1,"updated_at":"2026-07-11T22:39:11.379267+05:30"},{"city":"Noida","state":"Uttar Pradesh","latitude":28.5355,"longitude":77.391,"temp":30.2,"humidity":81,"rain":0.0,"pressure":975.2,"uv_index":7.65,"wind_gusts":29.2,"aqi":507,"pm10":802.8,"pm2_5":183.9,"no2":41.9,"co":844.0,"o3":36.0,"so2":11.8,"mosquito_risk":3,"arthritis_risk":5,"migraine_risk":7,"frizz_risk":1,"updated_at":"2026-07-11T22:39:11.379274+05:30"},{"city":"Ghaziabad","state":"Uttar Pradesh","latitude":28.6692,"longitude":77.4538,"temp":30.2,"humidity":79,"rain":0.0,"pressure":973.5,"uv_index":7.05,"wind_gusts":34.2,"aqi":253,"pm10":558.8,"pm2_5":177.0,"no2":63.5,"co":1235.0,"o3":25.0,"so2":22.5,"mosquito_risk":3,"arthritis_risk":5,"migraine_risk":7,"frizz_risk":1,"updated_at":"2026-07-11T22:39:11.379281+05:30"},{"city":"Faridabad","state":"Haryana","latitude":28.4089,"longitude":77.3178,"temp":30.3,"humidity":84,"rain":0.0,"pressure":974.5,"uv_index":7.65,"wind_gusts":31.3,"aqi":507,"pm10":802.8,"pm2_5":183.9,"no2":41.9,"co":625.0,"o3":36.0,"so2":11.8,"mosquito_risk":3,"arthritis_risk":5,"migraine_risk":7,"frizz_risk":1,"updated_at":"2026-07-11T22:39:11.379288+05:30"},{"city":"Meerut","state":"Uttar Pradesh","latitude":28.9845,"longitude":77.7064,"temp":28.5,"humidity":91,"rain":0.0,"pressure":972.4,"uv_index":7.6,"wind_gusts":28.4,"aqi":253,"pm10":558.8,"pm2_5":177.0,"no2":63.5,"co":887.0,"o3":25.0,"so2":22.5,"mosquito_risk":7,"arthritis_risk":5,"migraine_risk":7,"frizz_risk":1,"updated_at":"2026-07-11T22:39:11.379295+05:30"},{"city":"Agra","state":"Uttar Pradesh","latitude":27.1767,"longitude":78.0081,"temp":30.0,"humidity":67,"rain":0.0,"pressure":979.2,"uv_index":8.0,"wind_gusts":39.6,"aqi":156,"pm10":153.2,"pm2_5":45.3,"no2":22.0,"co":290.0,"o3":49.0,"so2":6.8,"mosquito_risk":7,"arthritis_risk":5,"migraine_risk":7,"frizz_risk":1,"updated_at":"2026-07-11T22:39:11.379302+05:30"},{"city":"Varanasi","state":"Uttar Pradesh","latitude":25.3176,"longitude":82.9739,"temp":29.0,"humidity":80,"rain":0.0,"pressure":989.7,"uv_index":6.3,"wind_gusts":47.5,"aqi":108,"pm10":51.0,"pm2_5":36.6,"no2":12.5,"co":277.0,"o3":70.0,"so2":8.1,"mosquito_risk":7,"arthritis_risk":5,"migraine_risk":7,"frizz_risk":1,"updated_at":"2026-07-11T22:39:11.379309+05:30"},{"city":"Prayagraj","state":"Uttar Pradesh","latitude":25.4358,"longitude":81.8463,"temp":30.6,"humidity":65,"rain":0.0,"pressure":988.2,"uv_index":8.25,"wind_gusts":43.9,"aqi":108,"pm10":72.4,"pm2_5":42.5,"no2":12.3,"co":193.0,"o3":72.0,"so2":7.7,"mosquito_risk":3,"arthritis_risk":5,"migraine_risk":7,"frizz_risk":1,"updated_at":"2026-07-11T22:39:11.379316+05:30"},{"city":"Gorakhpur","state":"Uttar Pradesh","latitude":26.7606,"longitude":83.3732,"temp":27.0,"humidity":95,"rain":0.0,"pressure":988.8,"uv_index":6.05,"wind_gusts":36.0,"aqi":108,"pm10":80.1,"pm2_5":55.1,"no2":17.2,"co":400.0,"o3":79.0,"so2":6.2,"mosquito_risk":7,"arthritis_risk":5,"migraine_risk":7,"frizz_risk":1,"updated_at":"2026-07-11T22:39:11.379322+05:30"},{"city":"Bareilly","state":"Uttar Pradesh","latitude":28.367,"longitude":79.4304,"temp":26.1,"humidity":95,"rain":0.1,"pressure":978.7,"uv_index":8.0,"wind_gusts":36.0,"aqi":153,"pm10":192.8,"pm2_5":87.3,"no2":28.3,"co":368.0,"o3":60.0,"so2":9.2,"mosquito_risk":10,"arthritis_risk":5,"migraine_risk":7,"frizz_risk":1,"updated_at":"2026-07-11T22:39:11.379332+05:30"},{"city":"Aligarh","state":"Uttar Pradesh","latitude":27.8974,"longitude":78.088,"temp":29.8,"humidity":68,"rain":0.0,"pressure":976.6,"uv_index":7.8,"wind_gusts":32.8,"aqi":348,"pm10":482.4,"pm2_5":113.2,"no2":17.7,"co":218.0,"o3":62.0,"so2":5.8,"mosquito_risk":7,"arthritis_risk":5,"migraine_risk":7,"frizz_risk":1,"updated_at":"2026-07-11T22:39:11.379339+05:30"},{"city":"Moradabad","state":"Uttar Pradesh","latitude":28.8386,"longitude":78.7733,"temp":26.4,"humidity":93,"rain":0.0,"pressure":975.2,"uv_index":7.8,"wind_gusts":33.5,"aqi":157,"pm10":138.3,"pm2_5":74.7,"no2":25.3,"co":556.0,"o3":75.0,"so2":9.3,"mosquito_risk":7,"arthritis_risk":5,"migraine_risk":7,"frizz_risk":1,"updated_at":"2026-07-11T22:39:11.379346+05:30"},{"city":"Saharanpur","state":"Uttar Pradesh","latitude":29.9637,"longitude":77.546,"temp":27.4,"humidity":90,"rain":0.0,"pressure":966.7,"uv_index":7.35,"wind_gusts":23.4,"aqi":133,"pm10":82.9,"pm2_5":67.1,"no2":26.1,"co":587.0,"o3":68.0,"so2":10.9,"mosquito_risk":7,"arthritis_risk":5,"migraine_risk":7,"frizz_risk":1,"updated_at":"2026-07-11T22:39:11.379352+05:30"},{"city":"Jhansi","state":"Uttar Pradesh","latitude":25.4484,"longitude":78.5685,"temp":30.1,"humidity":62,"rain":0.0,"pressure":970.8,"uv_index":8.4,"wind_gusts":46.8,"aqi":95,"pm10":36.9,"pm2_5":22.9,"no2":7.6,"co":155.0,"o3":71.0,"so2":6.6,"mosquito_risk":3,"arthritis_risk":5,"migraine_risk":7,"frizz_risk":1,"updated_at":"2026-07-11T22:39:14.626567+05:30"},{"city":"Surat","state":"Gujarat","latitude":21.1702,"longitude":72.8311,"temp":28.6,"humidity":85,"rain":0.0,"pressure":1003.7,"uv_index":5.1,"wind_gusts":61.6,"aqi":60,"pm10":23.3,"pm2_5":13.4,"no2":13.2,"co":215.0,"o3":35.0,"so2":21.4,"mosquito_risk":7,"arthritis_risk":5,"migraine_risk":0,"frizz_risk":1,"updated_at":"2026-07-11T22:39:14.626607+05:30"},{"city":"Vadodara","state":"Gujarat","latitude":22.3072,"longitude":73.1812,"temp":29.0,"humidity":81,"rain":0.0,"pressure":1000.0,"uv_index":7.75,"wind_gusts":54.0,"aqi":58,"pm10":31.0,"pm2_5":17.8,"no2":9.2,"co":140.0,"o3":42.0,"so2":6.8,"mosquito_risk":7,"arthritis_risk":5,"migraine_risk":4,"frizz_risk":1,"updated_at":"2026-07-11T22:39:14.626617+05:30"},{"city":"Rajkot","state":"Gujarat","latitude":22.3039,"longitude":70.8022,"temp":27.9,"humidity":80,"rain":0.0,"pressure":989.4,"uv_index":7.1,"wind_gusts":58.7,"aqi":60,"pm10":35.2,"pm2_5":17.2,"no2":4.1,"co":105.0,"o3":44.0,"so2":3.7,"mosquito_risk":7,"arthritis_risk":5,"migraine_risk":7,"frizz_risk":1,"updated_at":"2026-07-11T22:39:14.626627+05:30"},{"city":"Thane","state":"Maharashtra","latitude":19.2183,"longitude":72.9781,"temp":27.0,"humidity":91,"rain":0.0,"pressure":1006.7,"uv_index":6.2,"wind_gusts":44.6,"aqi":55,"pm10":28.3,"pm2_5":12.5,"no2":6.3,"co":213.0,"o3":42.0,"so2":4.5,"mosquito_risk":7,"arthritis_risk":5,"migraine_risk":4,"frizz_risk":1,"updated_at":"2026-07-11T22:39:14.626635+05:30"},{"city":"Nagpur","state":"Maharashtra","latitude":21.1458,"longitude":79.0882,"temp":27.9,"humidity":74,"rain":0.0,"pressure":969.0,"uv_index":6.8,"wind_gusts":47.2,"aqi":82,"pm10":47.1,"pm2_5":26.0,"no2":13.5,"co":231.0,"o3":56.0,"so2":10.3,"mosquito_risk":7,"arthritis_risk":5,"migraine_risk":7,"frizz_risk":1,"updated_at":"2026-07-11T22:39:14.626643+05:30"},{"city":"Nashik","state":"Maharashtra","latitude":19.9975,"longitude":73.7898,"temp":23.6,"humidity":90,"rain":0.0,"pressure":943.4,"uv_index":7.45,"wind_gusts":63.7,"aqi":36,"pm10":11.8,"pm2_5":6.8,"no2":8.1,"co":118.0,"o3":34.0,"so2":3.7,"mosquito_risk":3,"arthritis_risk":5,"migraine_risk":7,"frizz_risk":1,"updated_at":"2026-07-11T22:39:14.626650+05:30"},{"city":"Aurangabad","state":"Maharashtra","latitude":19.8762,"longitude":75.3433,"temp":24.9,"humidity":81,"rain":0.0,"pressure":941.6,"uv_index":8.9,"wind_gusts":60.5,"aqi":50,"pm10":21.9,"pm2_5":11.9,"no2":7.4,"co":141.0,"o3":45.0,"so2":7.2,"mosquito_risk":3,"arthritis_risk":5,"migraine_risk":7,"frizz_risk":1,"updated_at":"2026-07-11T22:39:14.626657+05:30"},{"city":"Solapur","state":"Maharashtra","latitude":17.6599,"longitude":75.9064,"temp":26.9,"humidity":69,"rain":0.0,"pressure":956.0,"uv_index":7.85,"wind_gusts":48.2,"aqi":44,"pm10":20.8,"pm2_5":11.1,"no2":5.6,"co":140.0,"o3":42.0,"so2":2.3,"mosquito_risk":7,"arthritis_risk":5,"migraine_risk":7,"frizz_risk":1,"updated_at":"2026-07-11T22:39:14.626665+05:30"},{"city":"Kolhapur","state":"Maharashtra","latitude":16.705,"longitude":74.2433,"temp":22.9,"humidity":92,"rain":0.0,"pressure":947.7,"uv_index":7.2,"wind_gusts":50.4,"aqi":38,"pm10":13.7,"pm2_5":7.3,"no2":5.9,"co":142.0,"o3":37.0,"so2":2.6,"mosquito_risk":3,"arthritis_risk":5,"migraine_risk":7,"frizz_risk":1,"updated_at":"2026-07-11T22:39:14.626673+05:30"},{"city":"Goa","state":"Goa","latitude":15.2993,"longitude":74.124,"temp":26.2,"humidity":92,"rain":0.0,"pressure":998.9,"uv_index":8.0,"wind_gusts":34.2,"aqi":55,"pm10":26.0,"pm2_5":13.5,"no2":4.0,"co":285.0,"o3":41.0,"so2":1.6,"mosquito_risk":7,"arthritis_risk":5,"migraine_risk":7,"frizz_risk":1,"updated_at":"2026-07-11T22:39:14.626681+05:30"},{"city":"Jodhpur","state":"Rajasthan","latitude":26.2389,"longitude":73.0243,"temp":32.6,"humidity":53,"rain":0.0,"pressure":974.2,"uv_index":8.4,"wind_gusts":53.6,"aqi":204,"pm10":373.5,"pm2_5":89.9,"no2":4.0,"co":116.0,"o3":65.0,"so2":2.5,"mosquito_risk":0,"arthritis_risk":5,"migraine_risk":7,"frizz_risk":1,"updated_at":"2026-07-11T22:39:14.626687+05:30"},{"city":"Udaipur","state":"Rajasthan","latitude":24.5854,"longitude":73.7125,"temp":26.7,"humidity":67,"rain":0.0,"pressure":940.3,"uv_index":8.6,"wind_gusts":53.3,"aqi":69,"pm10":42.3,"pm2_5":22.9,"no2":3.9,"co":113.0,"o3":71.0,"so2":3.6,"mosquito_risk":7,"arthritis_risk":5,"migraine_risk":7,"frizz_risk":1,"updated_at":"2026-07-11T22:39:14.626694+05:30"},{"city":"Kota","state":"Rajasthan","latitude":25.2138,"longitude":75.8648,"temp":30.0,"humidity":61,"rain":0.0,"pressure":971.7,"uv_index":8.3,"wind_gusts":42.5,"aqi":83,"pm10":39.5,"pm2_5":22.9,"no2":6.7,"co":160.0,"o3":74.0,"so2":5.9,"mosquito_risk":7,"arthritis_risk":5,"migraine_risk":7,"frizz_risk":1,"updated_at":"2026-07-11T22:39:14.626702+05:30"},{"city":"Bikaner","state":"Rajasthan","latitude":28.0229,"longitude":73.3119,"temp":33.5,"humidity":52,"rain":0.0,"pressure":971.6,"uv_index":8.45,"wind_gusts":42.5,"aqi":159,"pm10":322.2,"pm2_5":100.1,"no2":2.8,"co":122.0,"o3":71.0,"so2":4.0,"mosquito_risk":0,"arthritis_risk":5,"migraine_risk":7,"frizz_risk":1,"updated_at":"2026-07-11T22:39:14.626709+05:30"},{"city":"Ajmer","state":"Rajasthan","latitude":26.4499,"longitude":74.6399,"temp":29.4,"humidity":63,"rain":0.0,"pressure":946.8,"uv_index":8.25,"wind_gusts":52.2,"aqi":79,"pm10":35.3,"pm2_5":21.2,"no2":5.8,"co":137.0,"o3":70.0,"so2":3.5,"mosquito_risk":7,"arthritis_risk":5,"migraine_risk":7,"frizz_risk":1,"updated_at":"2026-07-11T22:39:14.626717+05:30"},{"city":"Gwalior","state":"Madhya Pradesh","latitude":26.2183,"longitude":78.1828,"temp":28.9,"humidity":70,"rain":0.0,"pressure":975.2,"uv_index":8.15,"wind_gusts":45.7,"aqi":89,"pm10":40.7,"pm2_5":26.2,"no2":9.7,"co":170.0,"o3":68.0,"so2":6.5,"mosquito_risk":7,"arthritis_risk":5,"migraine_risk":7,"frizz_risk":1,"updated_at":"2026-07-11T22:39:14.626724+05:30"},{"city":"Indore","state":"Madhya Pradesh","latitude":22.7196,"longitude":75.8577,"temp":25.7,"humidity":81,"rain":0.0,"pressure":943.7,"uv_index":8.45,"wind_gusts":61.2,"aqi":66,"pm10":26.0,"pm2_5":16.5,"no2":6.8,"co":193.0,"o3":62.0,"so2":7.6,"mosquito_risk":7,"arthritis_risk":5,"migraine_risk":7,"frizz_risk":1,"updated_at":"2026-07-11T22:39:14.626731+05:30"},{"city":"Bhopal","state":"Madhya Pradesh","latitude":23.2599,"longitude":77.4126,"temp":26.9,"humidity":74,"rain":0.0,"pressure":948.8,"uv_index":8.55,"wind_gusts":50.4,"aqi":77,"pm10":37.7,"pm2_5":22.4,"no2":6.2,"co":201.0,"o3":69.0,"so2":5.0,"mosquito_risk":7,"arthritis_risk":5,"migraine_risk":7,"frizz_risk":1,"updated_at":"2026-07-11T22:39:14.626738+05:30"},{"city":"Jabalpur","state":"Madhya Pradesh","latitude":23.1815,"longitude":79.9864,"temp":26.6,"humidity":76,"rain":0.0,"pressure":956.4,"uv_index":5.9,"wind_gusts":44.6,"aqi":83,"pm10":46.7,"pm2_5":25.6,"no2":5.3,"co":197.0,"o3":70.0,"so2":4.7,"mosquito_risk":7,"arthritis_risk":5,"migraine_risk":3,"frizz_risk":1,"updated_at":"2026-07-11T22:39:14.626745+05:30"},{"city":"Ujjain","state":"Madhya Pradesh","latitude":23.1765,"longitude":75.7885,"temp":26.4,"humidity":80,"rain":0.0,"pressure":949.1,"uv_index":7.35,"wind_gusts":54.7,"aqi":65,"pm10":27.2,"pm2_5":17.4,"no2":5.6,"co":182.0,"o3":63.0,"so2":7.3,"mosquito_risk":7,"arthritis_risk":5,"migraine_risk":7,"frizz_risk":1,"updated_at":"2026-07-11T22:39:14.626752+05:30"},{"city":"Visakhapatnam","state":"Andhra Pradesh","latitude":17.6868,"longitude":83.2185,"temp":29.5,"humidity":68,"rain":0.0,"pressure":999.3,"uv_index":7.7,"wind_gusts":37.8,"aqi":92,"pm10":43.1,"pm2_5":27.5,"no2":20.6,"co":302.0,"o3":60.0,"so2":31.8,"mosquito_risk":7,"arthritis_risk":5,"migraine_risk":7,"frizz_risk":1,"updated_at":"2026-07-11T22:39:14.626759+05:30"},{"city":"Vijayawada","state":"Andhra Pradesh","latitude":16.5062,"longitude":80.648,"temp":31.4,"humidity":59,"rain":0.0,"pressure":999.2,"uv_index":5.95,"wind_gusts":44.6,"aqi":83,"pm10":44.2,"pm2_5":29.6,"no2":18.5,"co":267.0,"o3":37.0,"so2":6.2,"mosquito_risk":0,"arthritis_risk":5,"migraine_risk":3,"frizz_risk":1,"updated_at":"2026-07-11T22:39:14.626765+05:30"},{"city":"Guntur","state":"Andhra Pradesh","latitude":16.3067,"longitude":80.4365,"temp":32.5,"humidity":45,"rain":0.0,"pressure":1000.5,"uv_index":5.5,"wind_gusts":47.5,"aqi":78,"pm10":44.1,"pm2_5":27.4,"no2":17.5,"co":377.0,"o3":40.0,"so2":5.8,"mosquito_risk":0,"arthritis_risk":5,"migraine_risk":0,"frizz_risk":1,"updated_at":"2026-07-11T22:39:14.626773+05:30"},{"city":"Nellore","state":"Andhra Pradesh","latitude":14.4426,"longitude":79.9865,"temp":29.9,"humidity":73,"rain":0.0,"pressure":1003.3,"uv_index":7.85,"wind_gusts":42.5,"aqi":66,"pm10":43.3,"pm2_5":26.8,"no2":12.4,"co":205.0,"o3":89.0,"so2":5.9,"mosquito_risk":7,"arthritis_risk":5,"migraine_risk":4,"frizz_risk":1,"updated_at":"2026-07-11T22:39:14.626780+05:30"},{"city":"Kurnool","state":"Andhra Pradesh","latitude":15.8281,"longitude":78.0373,"temp":30.9,"humidity":49,"rain":0.0,"pressure":975.4,"uv_index":7.7,"wind_gusts":47.5,"aqi":57,"pm10":29.3,"pm2_5":14.7,"no2":8.0,"co":141.0,"o3":55.0,"so2":5.5,"mosquito_risk":0,"arthritis_risk":5,"migraine_risk":7,"frizz_risk":1,"updated_at":"2026-07-11T22:39:14.626788+05:30"},{"city":"Kakinada","state":"Andhra Pradesh","latitude":16.9891,"longitude":82.2475,"temp":29.8,"humidity":72,"rain":0.0,"pressure":1003.5,"uv_index":7.9,"wind_gusts":49.0,"aqi":78,"pm10":38.5,"pm2_5":23.4,"no2":9.0,"co":302.0,"o3":75.0,"so2":5.3,"mosquito_risk":7,"arthritis_risk":5,"migraine_risk":4,"frizz_risk":1,"updated_at":"2026-07-11T22:39:14.626796+05:30"},{"city":"Tirupati","state":"Andhra Pradesh","latitude":13.6288,"longitude":79.4192,"temp":29.9,"humidity":59,"rain":0.0,"pressure":989.4,"uv_index":8.1,"wind_gusts":37.1,"aqi":68,"pm10":83.8,"pm2_5":52.0,"no2":56.8,"co":422.0,"o3":7.0,"so2":6.4,"mosquito_risk":4,"arthritis_risk":5,"migraine_risk":7,"frizz_risk":1,"updated_at":"2026-07-11T22:39:14.626803+05:30"},{"city":"Warangal","state":"Telangana","latitude":17.9689,"longitude":79.5941,"temp":28.2,"humidity":67,"rain":0.0,"pressure":975.6,"uv_index":5.6,"wind_gusts":44.3,"aqi":75,"pm10":58.2,"pm2_5":39.5,"no2":21.5,"co":303.0,"o3":29.0,"so2":5.6,"mosquito_risk":7,"arthritis_risk":5,"migraine_risk":3,"frizz_risk":1,"updated_at":"2026-07-11T22:39:14.626810+05:30"},{"city":"Nizamabad","state":"Telangana","latitude":18.6725,"longitude":78.0941,"temp":27.6,"humidity":63,"rain":0.0,"pressure":962.0,"uv_index":8.7,"wind_gusts":49.0,"aqi":68,"pm10":38.4,"pm2_5":21.7,"no2":9.6,"co":211.0,"o3":52.0,"so2":6.0,"mosquito_risk":7,"arthritis_risk":5,"migraine_risk":7,"frizz_risk":1,"updated_at":"2026-07-11T22:39:14.626816+05:30"},{"city":"Mysore","state":"Karnataka","latitude":12.2958,"longitude":76.6396,"temp":22.8,"humidity":92,"rain":0.0,"pressure":929.7,"uv_index":6.0,"wind_gusts":43.2,"aqi":33,"pm10":15.7,"pm2_5":8.8,"no2":11.5,"co":172.0,"o3":37.0,"so2":2.6,"mosquito_risk":3,"arthritis_risk":5,"migraine_risk":3,"frizz_risk":1,"updated_at":"2026-07-11T22:39:14.626823+05:30"},{"city":"Mangalore","state":"Karnataka","latitude":12.9141,"longitude":74.856,"temp":26.0,"humidity":93,"rain":0.1,"pressure":1008.7,"uv_index":8.15,"wind_gusts":44.6,"aqi":52,"pm10":19.5,"pm2_5":11.4,"no2":7.3,"co":179.0,"o3":35.0,"so2":2.5,"mosquito_risk":10,"arthritis_risk":0,"migraine_risk":4,"frizz_risk":1,"updated_at":"2026-07-11T22:39:14.626830+05:30"},{"city":"Hubli-Dharwad","state":"Karnataka","latitude":15.3647,"longitude":75.124,"temp":22.7,"humidity":92,"rain":0.0,"pressure":941.0,"uv_index":7.25,"wind_gusts":49.3,"aqi":31,"pm10":13.6,"pm2_5":7.1,"no2":6.1,"co":134.0,"o3":37.0,"so2":1.7,"mosquito_risk":3,"arthritis_risk":5,"migraine_risk":7,"frizz_risk":1,"updated_at":"2026-07-11T22:39:14.626838+05:30"},{"city":"Belgaum","state":"Karnataka","latitude":15.8497,"longitude":74.4977,"temp":21.2,"humidity":95,"rain":0.0,"pressure":925.5,"uv_index":8.35,"wind_gusts":49.7,"aqi":31,"pm10":14.0,"pm2_5":6.3,"no2":4.8,"co":124.0,"o3":38.0,"so2":1.6,"mosquito_risk":3,"arthritis_risk":5,"migraine_risk":7,"frizz_risk":1,"updated_at":"2026-07-11T22:39:17.875693+05:30"},{"city":"Coimbatore","state":"Tamil Nadu","latitude":11.0168,"longitude":76.9558,"temp":24.3,"humidity":94,"rain":0.0,"pressure":962.4,"uv_index":8.25,"wind_gusts":47.9,"aqi":36,"pm10":17.2,"pm2_5":12.5,"no2":15.5,"co":214.0,"o3":23.0,"so2":4.0,"mosquito_risk":3,"arthritis_risk":5,"migraine_risk":7,"frizz_risk":1,"updated_at":"2026-07-11T22:39:17.875730+05:30"},{"city":"Madurai","state":"Tamil Nadu","latitude":9.9252,"longitude":78.1198,"temp":30.3,"humidity":63,"rain":0.0,"pressure":992.9,"uv_index":8.15,"wind_gusts":28.1,"aqi":56,"pm10":34.8,"pm2_5":32.1,"no2":40.5,"co":221.0,"o3":4.0,"so2":12.7,"mosquito_risk":3,"arthritis_risk":5,"migraine_risk":7,"frizz_risk":1,"updated_at":"2026-07-11T22:39:17.875741+05:30"},{"city":"Trichy","state":"Tamil Nadu","latitude":10.7905,"longitude":78.7047,"temp":30.1,"humidity":63,"rain":0.0,"pressure":999.6,"uv_index":8.05,"wind_gusts":47.9,"aqi":47,"pm10":18.3,"pm2_5":11.6,"no2":11.5,"co":132.0,"o3":38.0,"so2":3.7,"mosquito_risk":3,"arthritis_risk":5,"migraine_risk":7,"frizz_risk":1,"updated_at":"2026-07-11T22:39:17.875750+05:30"},{"city":"Salem","state":"Tamil Nadu","latitude":11.6643,"longitude":78.146,"temp":27.8,"humidity":77,"rain":0.0,"pressure":977.9,"uv_index":7.8,"wind_gusts":27.4,"aqi":60,"pm10":31.8,"pm2_5":19.6,"no2":20.0,"co":426.0,"o3":38.0,"so2":6.6,"mosquito_risk":7,"arthritis_risk":5,"migraine_risk":7,"frizz_risk":1,"updated_at":"2026-07-11T22:39:17.875759+05:30"},{"city":"Tirunelveli","state":"Tamil Nadu","latitude":8.7139,"longitude":77.7567,"temp":30.1,"humidity":63,"rain":0.0,"pressure":1003.9,"uv_index":8.6,"wind_gusts":49.3,"aqi":28,"pm10":14.6,"pm2_5":8.5,"no2":6.7,"co":153.0,"o3":41.0,"so2":2.3,"mosquito_risk":3,"arthritis_risk":5,"migraine_risk":4,"frizz_risk":1,"updated_at":"2026-07-11T22:39:17.875767+05:30"},{"city":"Vellore","state":"Tamil Nadu","latitude":12.9165,"longitude":79.1325,"temp":31.6,"humidity":43,"rain":0.0,"pressure":983.5,"uv_index":8.75,"wind_gusts":41.4,"aqi":62,"pm10":40.7,"pm2_5":25.0,"no2":19.3,"co":180.0,"o3":39.0,"so2":4.6,"mosquito_risk":0,"arthritis_risk":5,"migraine_risk":7,"frizz_risk":1,"updated_at":"2026-07-11T22:39:17.875775+05:30"},{"city":"Erode","state":"Tamil Nadu","latitude":11.341,"longitude":77.7172,"temp":28.0,"humidity":74,"rain":0.0,"pressure":989.5,"uv_index":7.85,"wind_gusts":35.6,"aqi":53,"pm10":33.4,"pm2_5":19.4,"no2":21.7,"co":201.0,"o3":28.0,"so2":4.7,"mosquito_risk":7,"arthritis_risk":5,"migraine_risk":7,"frizz_risk":1,"updated_at":"2026-07-11T22:39:17.875782+05:30"},{"city":"Kochi","state":"Kerala","latitude":9.9312,"longitude":76.2673,"temp":27.4,"humidity":88,"rain":0.0,"pressure":1010.8,"uv_index":7.75,"wind_gusts":36.7,"aqi":50,"pm10":21.9,"pm2_5":17.2,"no2":18.7,"co":134.0,"o3":20.0,"so2":5.0,"mosquito_risk":7,"arthritis_risk":0,"migraine_risk":4,"frizz_risk":1,"updated_at":"2026-07-11T22:39:17.875789+05:30"},{"city":"Thiruvananthapuram","state":"Kerala","latitude":8.5241,"longitude":76.9366,"temp":26.1,"humidity":90,"rain":0.0,"pressure":1010.3,"uv_index":8.0,"wind_gusts":49.3,"aqi":35,"pm10":15.6,"pm2_5":9.0,"no2":5.2,"co":134.0,"o3":45.0,"so2":1.9,"mosquito_risk":7,"arthritis_risk":0,"migraine_risk":4,"frizz_risk":1,"updated_at":"2026-07-11T22:39:17.875796+05:30"},{"city":"Kozhikode","state":"Kerala","latitude":11.2588,"longitude":75.7804,"temp":25.8,"humidity":95,"rain":0.0,"pressure":1009.7,"uv_index":7.4,"wind_gusts":37.8,"aqi":39,"pm10":17.9,"pm2_5":9.4,"no2":3.1,"co":183.0,"o3":48.0,"so2":1.6,"mosquito_risk":7,"arthritis_risk":0,"migraine_risk":4,"frizz_risk":1,"updated_at":"2026-07-11T22:39:17.875802+05:30"},{"city":"Thrissur","state":"Kerala","latitude":10.5276,"longitude":76.2144,"temp":26.4,"humidity":89,"rain":0.0,"pressure":1009.0,"uv_index":7.1,"wind_gusts":36.7,"aqi":52,"pm10":21.5,"pm2_5":16.0,"no2":13.2,"co":251.0,"o3":25.0,"so2":4.1,"mosquito_risk":7,"arthritis_risk":0,"migraine_risk":4,"frizz_risk":1,"updated_at":"2026-07-11T22:39:17.875810+05:30"},{"city":"Kannur","state":"Kerala","latitude":11.8745,"longitude":75.3704,"temp":26.5,"humidity":89,"rain":0.0,"pressure":1009.2,"uv_index":8.05,"wind_gusts":41.4,"aqi":46,"pm10":17.0,"pm2_5":10.3,"no2":10.2,"co":213.0,"o3":31.0,"so2":2.5,"mosquito_risk":7,"arthritis_risk":0,"migraine_risk":4,"frizz_risk":1,"updated_at":"2026-07-11T22:39:17.875817+05:30"},{"city":"Patna","state":"Bihar","latitude":25.5941,"longitude":85.1376,"temp":26.9,"humidity":95,"rain":0.1,"pressure":992.6,"uv_index":4.8,"wind_gusts":31.0,"aqi":117,"pm10":88.2,"pm2_5":69.4,"no2":25.8,"co":385.0,"o3":59.0,"so2":11.0,"mosquito_risk":10,"arthritis_risk":5,"migraine_risk":3,"frizz_risk":1,"updated_at":"2026-07-11T22:39:17.875823+05:30"},{"city":"Gaya","state":"Bihar","latitude":24.7914,"longitude":85.0002,"temp":29.0,"humidity":78,"rain":0.0,"pressure":986.4,"uv_index":7.5,"wind_gusts":40.3,"aqi":99,"pm10":54.4,"pm2_5":40.4,"no2":20.0,"co":257.0,"o3":66.0,"so2":30.6,"mosquito_risk":7,"arthritis_risk":5,"migraine_risk":7,"frizz_risk":1,"updated_at":"2026-07-11T22:39:17.875830+05:30"},{"city":"Muzaffarpur","state":"Bihar","latitude":26.1209,"longitude":85.3647,"temp":27.2,"humidity":96,"rain":0.2,"pressure":992.5,"uv_index":4.95,"wind_gusts":29.5,"aqi":120,"pm10":87.1,"pm2_5":65.2,"no2":21.1,"co":424.0,"o3":71.0,"so2":7.6,"mosquito_risk":10,"arthritis_risk":5,"migraine_risk":3,"frizz_risk":1,"updated_at":"2026-07-11T22:39:17.875837+05:30"},{"city":"Bhagalpur","state":"Bihar","latitude":25.2425,"longitude":87.0117,"temp":28.4,"humidity":85,"rain":0.0,"pressure":993.1,"uv_index":7.65,"wind_gusts":34.2,"aqi":81,"pm10":35.4,"pm2_5":27.8,"no2":12.6,"co":328.0,"o3":75.0,"so2":5.7,"mosquito_risk":7,"arthritis_risk":5,"migraine_risk":7,"frizz_risk":1,"updated_at":"2026-07-11T22:39:17.875844+05:30"},{"city":"Ranchi","state":"Jharkhand","latitude":23.3441,"longitude":85.3096,"temp":24.5,"humidity":95,"rain":0.0,"pressure":932.1,"uv_index":7.0,"wind_gusts":40.7,"aqi":89,"pm10":45.4,"pm2_5":33.4,"no2":8.9,"co":234.0,"o3":69.0,"so2":6.2,"mosquito_risk":3,"arthritis_risk":5,"migraine_risk":7,"frizz_risk":1,"updated_at":"2026-07-11T22:39:17.875851+05:30"},{"city":"Jamshedpur","state":"Jharkhand","latitude":22.8046,"longitude":86.2029,"temp":28.1,"humidity":82,"rain":0.0,"pressure":984.6,"uv_index":8.5,"wind_gusts":34.2,"aqi":110,"pm10":56.1,"pm2_5":39.3,"no2":17.0,"co":308.0,"o3":62.0,"so2":20.3,"mosquito_risk":7,"arthritis_risk":5,"migraine_risk":7,"frizz_risk":1,"updated_at":"2026-07-11T22:39:17.875858+05:30"},{"city":"Dhanbad","state":"Jharkhand","latitude":23.7957,"longitude":86.4304,"temp":27.3,"humidity":89,"rain":0.0,"pressure":972.9,"uv_index":8.65,"wind_gusts":32.0,"aqi":118,"pm10":53.0,"pm2_5":40.2,"no2":36.3,"co":267.0,"o3":36.0,"so2":78.1,"mosquito_risk":7,"arthritis_risk":5,"migraine_risk":7,"frizz_risk":1,"updated_at":"2026-07-11T22:39:17.875865+05:30"},{"city":"Bokaro","state":"Jharkhand","latitude":23.6693,"longitude":86.1511,"temp":27.6,"humidity":81,"rain":0.0,"pressure":976.8,"uv_index":6.9,"wind_gusts":33.5,"aqi":109,"pm10":53.4,"pm2_5":39.0,"no2":26.4,"co":272.0,"o3":44.0,"so2":57.9,"mosquito_risk":7,"arthritis_risk":5,"migraine_risk":7,"frizz_risk":1,"updated_at":"2026-07-11T22:39:17.875872+05:30"},{"city":"Bhubaneswar","state":"Odisha","latitude":20.2961,"longitude":85.8245,"temp":28.4,"humidity":86,"rain":0.0,"pressure":997.0,"uv_index":8.45,"wind_gusts":35.3,"aqi":92,"pm10":57.6,"pm2_5":41.1,"no2":16.8,"co":401.0,"o3":66.0,"so2":8.8,"mosquito_risk":7,"arthritis_risk":5,"migraine_risk":7,"frizz_risk":1,"updated_at":"2026-07-11T22:39:17.875879+05:30"},{"city":"Cuttack","state":"Odisha","latitude":20.4625,"longitude":85.8828,"temp":28.7,"humidity":86,"rain":0.0,"pressure":998.7,"uv_index":8.55,"wind_gusts":36.0,"aqi":92,"pm10":57.6,"pm2_5":41.1,"no2":16.8,"co":407.0,"o3":66.0,"so2":8.8,"mosquito_risk":7,"arthritis_risk":5,"migraine_risk":7,"frizz_risk":1,"updated_at":"2026-07-11T22:39:17.875885+05:30"},{"city":"Rourkela","state":"Odisha","latitude":22.2604,"longitude":84.8536,"temp":27.6,"humidity":80,"rain":0.0,"pressure":979.5,"uv_index":8.2,"wind_gusts":32.8,"aqi":127,"pm10":54.5,"pm2_5":38.1,"no2":14.2,"co":337.0,"o3":83.0,"so2":25.3,"mosquito_risk":7,"arthritis_risk":5,"migraine_risk":7,"frizz_risk":1,"updated_at":"2026-07-11T22:39:17.875892+05:30"},{"city":"Raipur","state":"Chhattisgarh","latitude":21.2514,"longitude":81.6296,"temp":28.0,"humidity":68,"rain":0.0,"pressure":970.1,"uv_index":7.6,"wind_gusts":40.7,"aqi":113,"pm10":57.9,"pm2_5":36.2,"no2":21.7,"co":466.0,"o3":61.0,"so2":37.6,"mosquito_risk":7,"arthritis_risk":5,"migraine_risk":7,"frizz_risk":1,"updated_at":"2026-07-11T22:39:17.875898+05:30"},{"city":"Bhilai","state":"Chhattisgarh","latitude":21.1938,"longitude":81.3509,"temp":27.6,"humidity":69,"rain":0.0,"pressure":970.7,"uv_index":7.4,"wind_gusts":45.4,"aqi":106,"pm10":54.6,"pm2_5":33.1,"no2":17.3,"co":565.0,"o3":65.0,"so2":30.3,"mosquito_risk":7,"arthritis_risk":5,"migraine_risk":7,"frizz_risk":1,"updated_at":"2026-07-11T22:39:17.875904+05:30"},{"city":"Guwahati","state":"Assam","latitude":26.1158,"longitude":91.7086,"temp":26.0,"humidity":98,"rain":0.1,"pressure":993.6,"uv_index":8.55,"wind_gusts":24.5,"aqi":41,"pm10":23.9,"pm2_5":23.6,"no2":12.4,"co":363.0,"o3":46.0,"so2":2.6,"mosquito_risk":10,"arthritis_risk":5,"migraine_risk":7,"frizz_risk":1,"updated_at":"2026-07-11T22:39:17.875911+05:30"},{"city":"Agartala","state":"Tripura","latitude":23.8315,"longitude":91.2868,"temp":26.1,"humidity":99,"rain":0.0,"pressure":999.1,"uv_index":6.75,"wind_gusts":35.6,"aqi":82,"pm10":33.6,"pm2_5":26.3,"no2":9.5,"co":229.0,"o3":75.0,"so2":3.8,"mosquito_risk":7,"arthritis_risk":5,"migraine_risk":7,"frizz_risk":1,"updated_at":"2026-07-11T22:39:17.875917+05:30"},{"city":"Shillong","state":"Meghalaya","latitude":25.5788,"longitude":91.8933,"temp":21.2,"humidity":96,"rain":0.0,"pressure":851.8,"uv_index":3.95,"wind_gusts":27.4,"aqi":40,"pm10":3.9,"pm2_5":3.8,"no2":6.9,"co":327.0,"o3":82.0,"so2":3.4,"mosquito_risk":3,"arthritis_risk":5,"migraine_risk":3,"frizz_risk":1,"updated_at":"2026-07-11T22:39:17.875924+05:30"},{"city":"Imphal","state":"Manipur","latitude":24.817,"longitude":93.9368,"temp":23.5,"humidity":97,"rain":0.0,"pressure":917.3,"uv_index":8.55,"wind_gusts":33.1,"aqi":30,"pm10":12.5,"pm2_5":11.9,"no2":11.6,"co":408.0,"o3":48.0,"so2":3.0,"mosquito_risk":3,"arthritis_risk":5,"migraine_risk":7,"frizz_risk":1,"updated_at":"2026-07-11T22:39:17.875931+05:30"},{"city":"Aizawl","state":"Mizoram","latitude":23.7271,"longitude":92.7176,"temp":20.2,"humidity":96,"rain":0.0,"pressure":887.0,"uv_index":8.25,"wind_gusts":40.0,"aqi":39,"pm10":11.2,"pm2_5":7.4,"no2":3.3,"co":157.0,"o3":78.0,"so2":3.6,"mosquito_risk":3,"arthritis_risk":5,"migraine_risk":7,"frizz_risk":1,"updated_at":"2026-07-11T22:39:17.875938+05:30"},{"city":"Kohima","state":"Nagaland","latitude":25.6701,"longitude":94.1077,"temp":21.1,"humidity":95,"rain":0.0,"pressure":850.2,"uv_index":6.6,"wind_gusts":20.9,"aqi":30,"pm10":7.0,"pm2_5":6.9,"no2":7.9,"co":323.0,"o3":56.0,"so2":1.7,"mosquito_risk":3,"arthritis_risk":5,"migraine_risk":7,"frizz_risk":1,"updated_at":"2026-07-11T22:39:17.875944+05:30"},{"city":"Gangtok","state":"Sikkim","latitude":27.3314,"longitude":88.6138,"temp":19.6,"humidity":94,"rain":0.4,"pressure":832.5,"uv_index":8.5,"wind_gusts":30.6,"aqi":47,"pm10":5.3,"pm2_5":5.2,"no2":6.0,"co":367.0,"o3":96.0,"so2":1.1,"mosquito_risk":6,"arthritis_risk":10,"migraine_risk":7,"frizz_risk":1,"updated_at":"2026-07-11T22:39:17.875951+05:30"},{"city":"Siliguri","state":"West Bengal","latitude":26.7271,"longitude":88.3953,"temp":26.0,"humidity":97,"rain":0.1,"pressure":984.6,"uv_index":5.0,"wind_gusts":25.6,"aqi":85,"pm10":24.0,"pm2_5":23.9,"no2":12.2,"co":807.0,"o3":98.0,"so2":3.9,"mosquito_risk":10,"arthritis_risk":5,"migraine_risk":3,"frizz_risk":1,"updated_at":"2026-07-11T22:39:21.138508+05:30"},{"city":"Durgapur","state":"West Bengal","latitude":23.5204,"longitude":87.3119,"temp":28.4,"humidity":86,"rain":0.0,"pressure":987.7,"uv_index":6.3,"wind_gusts":35.3,"aqi":123,"pm10":46.7,"pm2_5":36.1,"no2":40.5,"co":287.0,"o3":32.0,"so2":60.7,"mosquito_risk":7,"arthritis_risk":5,"migraine_risk":7,"frizz_risk":1,"updated_at":"2026-07-11T22:39:21.138546+05:30"},{"city":"Asansol","state":"West Bengal","latitude":23.6739,"longitude":86.9524,"temp":28.3,"humidity":84,"rain":0.0,"pressure":986.3,"uv_index":7.05,"wind_gusts":38.2,"aqi":108,"pm10":44.1,"pm2_5":32.0,"no2":35.6,"co":1217.0,"o3":36.0,"so2":54.0,"mosquito_risk":7,"arthritis_risk":5,"migraine_risk":7,"frizz_risk":1,"updated_at":"2026-07-11T22:39:21.138558+05:30"},{"city":"Pondicherry","state":"Puducherry","latitude":11.9139,"longitude":79.8145,"temp":30.5,"humidity":69,"rain":0.0,"pressure":1007.0,"uv_index":8.15,"wind_gusts":38.2,"aqi":68,"pm10":33.9,"pm2_5":20.6,"no2":13.5,"co":213.0,"o3":74.0,"so2":8.2,"mosquito_risk":3,"arthritis_risk":5,"migraine_risk":4,"frizz_risk":1,"updated_at":"2026-07-11T22:39:21.138568+05:30"},{"city":"Port Blair","state":"Andaman and Nicobar Islands","latitude":11.6234,"longitude":92.7265,"temp":27.4,"humidity":87,"rain":0.0,"pressure":1006.4,"uv_index":8.8,"wind_gusts":57.6,"aqi":33,"pm10":17.2,"pm2_5":9.5,"no2":0.2,"co":88.0,"o3":54.0,"so2":0.4,"mosquito_risk":7,"arthritis_risk":5,"migraine_risk":4,"frizz_risk":1,"updated_at":"2026-07-11T22:39:21.138576+05:30"},{"city":"Haridwar","state":"Uttarakhand","latitude":29.9457,"longitude":78.1642,"temp":26.5,"humidity":96,"rain":0.0,"pressure":965.4,"uv_index":7.5,"wind_gusts":20.5,"aqi":106,"pm10":69.4,"pm2_5":57.3,"no2":20.6,"co":456.0,"o3":77.0,"so2":8.7,"mosquito_risk":7,"arthritis_risk":5,"migraine_risk":7,"frizz_risk":1,"updated_at":"2026-07-11T22:39:21.138584+05:30"},{"city":"Rishikesh","state":"Uttarakhand","latitude":30.0869,"longitude":78.2676,"temp":26.2,"humidity":95,"rain":0.0,"pressure":958.3,"uv_index":7.6,"wind_gusts":19.1,"aqi":112,"pm10":29.7,"pm2_5":23.6,"no2":7.1,"co":446.0,"o3":122.0,"so2":4.3,"mosquito_risk":7,"arthritis_risk":5,"migraine_risk":7,"frizz_risk":1,"updated_at":"2026-07-11T22:39:21.138592+05:30"},{"city":"Nainital","state":"Uttarakhand","latitude":29.3919,"longitude":79.4542,"temp":17.1,"humidity":100,"rain":0.0,"pressure":800.5,"uv_index":3.1,"wind_gusts":27.7,"aqi":77,"pm10":62.9,"pm2_5":42.7,"no2":15.1,"co":356.0,"o3":91.0,"so2":7.2,"mosquito_risk":3,"arthritis_risk":10,"migraine_risk":3,"frizz_risk":1,"updated_at":"2026-07-11T22:39:21.138599+05:30"},{"city":"Mussoorie","state":"Uttarakhand","latitude":30.4599,"longitude":78.0664,"temp":17.1,"humidity":99,"rain":0.1,"pressure":797.9,"uv_index":7.75,"wind_gusts":25.2,"aqi":104,"pm10":33.4,"pm2_5":29.6,"no2":28.2,"co":355.0,"o3":88.0,"so2":7.4,"mosquito_risk":6,"arthritis_risk":10,"migraine_risk":7,"frizz_risk":1,"updated_at":"2026-07-11T22:39:21.138607+05:30"},{"city":"Dharamshala","state":"Himachal Pradesh","latitude":32.219,"longitude":76.3234,"temp":22.1,"humidity":92,"rain":0.0,"pressure":863.1,"uv_index":8.4,"wind_gusts":27.4,"aqi":89,"pm10":16.4,"pm2_5":14.2,"no2":17.6,"co":688.0,"o3":75.0,"so2":1.6,"mosquito_risk":3,"arthritis_risk":5,"migraine_risk":7,"frizz_risk":1,"updated_at":"2026-07-11T22:39:21.138614+05:30"},{"city":"Dalhousie","state":"Himachal Pradesh","latitude":32.5387,"longitude":75.971,"temp":17.7,"humidity":93,"rain":0.0,"pressure":799.5,"uv_index":8.65,"wind_gusts":20.9,"aqi":142,"pm10":50.9,"pm2_5":42.3,"no2":43.2,"co":654.0,"o3":90.0,"so2":5.1,"mosquito_risk":3,"arthritis_risk":10,"migraine_risk":7,"frizz_risk":1,"updated_at":"2026-07-11T22:39:21.138622+05:30"},{"city":"Patiala","state":"Punjab","latitude":30.3398,"longitude":76.3869,"temp":28.9,"humidity":84,"rain":0.0,"pressure":968.8,"uv_index":7.5,"wind_gusts":24.5,"aqi":164,"pm10":265.4,"pm2_5":125.7,"no2":41.0,"co":692.0,"o3":47.0,"so2":9.4,"mosquito_risk":7,"arthritis_risk":5,"migraine_risk":7,"frizz_risk":1,"updated_at":"2026-07-11T22:39:21.138629+05:30"},{"city":"Bhatinda","state":"Punjab","latitude":30.211,"longitude":74.9455,"temp":31.7,"humidity":69,"rain":0.0,"pressure":973.2,"uv_index":8.1,"wind_gusts":27.0,"aqi":175,"pm10":249.6,"pm2_5":117.8,"no2":34.3,"co":414.0,"o3":56.0,"so2":11.6,"mosquito_risk":3,"arthritis_risk":5,"migraine_risk":7,"frizz_risk":1,"updated_at":"2026-07-11T22:39:21.138636+05:30"},{"city":"Rohtak","state":"Haryana","latitude":28.8955,"longitude":76.6066,"temp":30.7,"humidity":65,"rain":0.0,"pressure":972.2,"uv_index":7.6,"wind_gusts":32.0,"aqi":676,"pm10":1087.8,"pm2_5":181.6,"no2":26.0,"co":272.0,"o3":50.0,"so2":5.0,"mosquito_risk":3,"arthritis_risk":5,"migraine_risk":7,"frizz_risk":1,"updated_at":"2026-07-11T22:39:21.138643+05:30"},{"city":"Panipat","state":"Haryana","latitude":29.3909,"longitude":76.9635,"temp":29.7,"humidity":84,"rain":0.0,"pressure":971.0,"uv_index":7.1,"wind_gusts":25.6,"aqi":813,"pm10":1300.1,"pm2_5":240.3,"no2":46.5,"co":1084.0,"o3":29.0,"so2":9.8,"mosquito_risk":7,"arthritis_risk":5,"migraine_risk":7,"frizz_risk":1,"updated_at":"2026-07-11T22:39:21.138649+05:30"},{"city":"Mathura","state":"Uttar Pradesh","latitude":27.4924,"longitude":77.6737,"temp":30.9,"humidity":61,"rain":0.0,"pressure":978.1,"uv_index":7.6,"wind_gusts":32.4,"aqi":554,"pm10":720.8,"pm2_5":114.3,"no2":21.0,"co":219.0,"o3":55.0,"so2":4.7,"mosquito_risk":3,"arthritis_risk":5,"migraine_risk":7,"frizz_risk":1,"updated_at":"2026-07-11T22:39:21.138656+05:30"},{"city":"Vrindavan","state":"Uttar Pradesh","latitude":27.5823,"longitude":77.7027,"temp":31.1,"humidity":60,"rain":0.0,"pressure":978.4,"uv_index":7.75,"wind_gusts":30.6,"aqi":554,"pm10":720.8,"pm2_5":114.3,"no2":21.0,"co":206.0,"o3":55.0,"so2":4.7,"mosquito_risk":0,"arthritis_risk":5,"migraine_risk":7,"frizz_risk":1,"updated_at":"2026-07-11T22:39:21.138662+05:30"},{"city":"Ayodhya","state":"Uttar Pradesh","latitude":26.7922,"longitude":82.1998,"temp":27.3,"humidity":93,"rain":0.2,"pressure":987.1,"uv_index":6.95,"wind_gusts":37.4,"aqi":150,"pm10":115.7,"pm2_5":60.8,"no2":18.2,"co":372.0,"o3":61.0,"so2":5.5,"mosquito_risk":10,"arthritis_risk":5,"migraine_risk":7,"frizz_risk":1,"updated_at":"2026-07-11T22:39:21.138669+05:30"},{"city":"Ratlam","state":"Madhya Pradesh","latitude":23.3315,"longitude":75.0367,"temp":26.1,"humidity":84,"rain":0.0,"pressure":949.9,"uv_index":5.5,"wind_gusts":59.0,"aqi":63,"pm10":25.3,"pm2_5":15.8,"no2":5.9,"co":151.0,"o3":59.0,"so2":8.0,"mosquito_risk":7,"arthritis_risk":5,"migraine_risk":3,"frizz_risk":1,"updated_at":"2026-07-11T22:39:21.138676+05:30"},{"city":"Sagar","state":"Madhya Pradesh","latitude":23.8388,"longitude":78.7378,"temp":27.0,"humidity":73,"rain":0.0,"pressure":944.8,"uv_index":7.7,"wind_gusts":52.6,"aqi":85,"pm10":38.1,"pm2_5":22.3,"no2":5.2,"co":176.0,"o3":69.0,"so2":3.4,"mosquito_risk":7,"arthritis_risk":5,"migraine_risk":7,"frizz_risk":1,"updated_at":"2026-07-11T22:39:21.138683+05:30"},{"city":"Satna","state":"Madhya Pradesh","latitude":24.6005,"longitude":80.8322,"temp":28.5,"humidity":64,"rain":0.0,"pressure":965.2,"uv_index":8.15,"wind_gusts":45.0,"aqi":91,"pm10":46.3,"pm2_5":26.6,"no2":6.3,"co":161.0,"o3":70.0,"so2":3.7,"mosquito_risk":7,"arthritis_risk":5,"migraine_risk":7,"frizz_risk":1,"updated_at":"2026-07-11T22:39:21.138689+05:30"},{"city":"Akola","state":"Maharashtra","latitude":20.7002,"longitude":77.0082,"temp":29.5,"humidity":61,"rain":0.0,"pressure":971.8,"uv_index":8.7,"wind_gusts":50.4,"aqi":62,"pm10":23.2,"pm2_5":12.5,"no2":7.2,"co":124.0,"o3":48.0,"so2":6.4,"mosquito_risk":7,"arthritis_risk":5,"migraine_risk":7,"frizz_risk":1,"updated_at":"2026-07-11T22:39:21.138696+05:30"},{"city":"Amravati","state":"Maharashtra","latitude":20.9374,"longitude":77.7796,"temp":28.5,"humidity":66,"rain":0.0,"pressure":963.8,"uv_index":8.65,"wind_gusts":52.9,"aqi":65,"pm10":25.0,"pm2_5":13.4,"no2":8.4,"co":167.0,"o3":49.0,"so2":7.8,"mosquito_risk":7,"arthritis_risk":5,"migraine_risk":7,"frizz_risk":1,"updated_at":"2026-07-11T22:39:21.138703+05:30"},{"city":"Latur","state":"Maharashtra","latitude":18.4088,"longitude":76.5604,"temp":26.3,"humidity":66,"rain":0.0,"pressure":937.8,"uv_index":8.5,"wind_gusts":46.8,"aqi":51,"pm10":20.4,"pm2_5":10.9,"no2":4.2,"co":144.0,"o3":51.0,"so2":2.6,"mosquito_risk":7,"arthritis_risk":5,"migraine_risk":7,"frizz_risk":1,"updated_at":"2026-07-11T22:39:21.138710+05:30"},{"city":"Nanded","state":"Maharashtra","latitude":19.1383,"longitude":77.3091,"temp":28.5,"humidity":62,"rain":0.0,"pressure":965.8,"uv_index":8.1,"wind_gusts":46.4,"aqi":61,"pm10":29.0,"pm2_5":16.8,"no2":6.5,"co":177.0,"o3":60.0,"so2":4.0,"mosquito_risk":7,"arthritis_risk":5,"migraine_risk":7,"frizz_risk":1,"updated_at":"2026-07-11T22:39:21.138716+05:30"},{"city":"Gulbarga","state":"Karnataka","latitude":17.3297,"longitude":76.8343,"temp":27.8,"humidity":62,"rain":0.0,"pressure":957.1,"uv_index":7.65,"wind_gusts":49.3,"aqi":50,"pm10":25.3,"pm2_5":12.8,"no2":6.9,"co":133.0,"o3":47.0,"so2":2.7,"mosquito_risk":7,"arthritis_risk":5,"migraine_risk":7,"frizz_risk":1,"updated_at":"2026-07-11T22:39:21.138723+05:30"},{"city":"Bidar","state":"Karnataka","latitude":17.9104,"longitude":77.5199,"temp":26.8,"humidity":57,"rain":0.0,"pressure":933.6,"uv_index":6.4,"wind_gusts":44.3,"aqi":57,"pm10":32.7,"pm2_5":15.5,"no2":6.4,"co":150.0,"o3":56.0,"so2":2.4,"mosquito_risk":4,"arthritis_risk":5,"migraine_risk":7,"frizz_risk":1,"updated_at":"2026-07-11T22:39:21.138729+05:30"},{"city":"Hospet","state":"Karnataka","latitude":15.2689,"longitude":76.3909,"temp":25.7,"humidity":75,"rain":0.0,"pressure":956.0,"uv_index":8.3,"wind_gusts":49.0,"aqi":41,"pm10":14.5,"pm2_5":8.3,"no2":6.5,"co":136.0,"o3":40.0,"so2":2.0,"mosquito_risk":7,"arthritis_risk":5,"migraine_risk":7,"frizz_risk":1,"updated_at":"2026-07-11T22:39:21.138736+05:30"},{"city":"Tirupur","state":"Tamil Nadu","latitude":11.1085,"longitude":77.3411,"temp":25.8,"humidity":86,"rain":0.0,"pressure":975.9,"uv_index":8.1,"wind_gusts":50.0,"aqi":56,"pm10":40.4,"pm2_5":24.2,"no2":28.4,"co":177.0,"o3":21.0,"so2":6.6,"mosquito_risk":7,"arthritis_risk":5,"migraine_risk":7,"frizz_risk":1,"updated_at":"2026-07-11T22:39:21.138742+05:30"},{"city":"Alappuzha","state":"Kerala","latitude":9.4981,"longitude":76.3388,"temp":27.0,"humidity":91,"rain":0.1,"pressure":1011.0,"uv_index":8.2,"wind_gusts":41.8,"aqi":44,"pm10":19.4,"pm2_5":12.7,"no2":11.5,"co":83.0,"o3":36.0,"so2":3.5,"mosquito_risk":10,"arthritis_risk":0,"migraine_risk":4,"frizz_risk":1,"updated_at":"2026-07-11T22:39:21.138749+05:30"},{"city":"Munnar","state":"Kerala","latitude":10.0889,"longitude":77.0595,"temp":17.2,"humidity":97,"rain":0.0,"pressure":857.9,"uv_index":8.2,"wind_gusts":38.2,"aqi":20,"pm10":12.8,"pm2_5":9.0,"no2":11.6,"co":118.0,"o3":21.0,"so2":2.0,"mosquito_risk":3,"arthritis_risk":10,"migraine_risk":7,"frizz_risk":1,"updated_at":"2026-07-11T22:39:21.138756+05:30"},{"city":"Silchar","state":"Assam","latitude":24.8333,"longitude":92.7789,"temp":26.8,"humidity":95,"rain":0.1,"pressure":997.9,"uv_index":7.95,"wind_gusts":27.7,"aqi":37,"pm10":16.3,"pm2_5":13.9,"no2":6.4,"co":356.0,"o3":73.0,"so2":3.8,"mosquito_risk":10,"arthritis_risk":5,"migraine_risk":7,"frizz_risk":1,"updated_at":"2026-07-11T22:39:21.138762+05:30"},{"city":"Dibrugarh","state":"Assam","latitude":27.4728,"longitude":94.912,"temp":27.6,"humidity":94,"rain":0.1,"pressure":986.7,"uv_index":6.55,"wind_gusts":28.4,"aqi":43,"pm10":8.2,"pm2_5":8.1,"no2":8.9,"co":214.0,"o3":65.0,"so2":1.3,"mosquito_risk":10,"arthritis_risk":5,"migraine_risk":7,"frizz_risk":1,"updated_at":"2026-07-11T22:39:21.138768+05:30"}]