[{"city":"Delhi","state":"Delhi","latitude":28.6139,"longitude":77.209,"temp":17.6,"humidity":93,"rain":0.5,"pressure":986.6,"uv_index":2.3,"wind_gusts":21.2,"aqi":151,"pm10":117.8,"pm2_5":70.1,"mosquito_risk":6,"arthritis_risk":10,"migraine_risk":3,"frizz_risk":1,"updated_at":"2026-03-20T07:55:46.590800+05:30"},{"city":"Mumbai","state":"Maharashtra","latitude":19.076,"longitude":72.8777,"temp":25.9,"humidity":75,"rain":0.0,"pressure":1011.2,"uv_index":7.8,"wind_gusts":24.8,"aqi":71,"pm10":50.6,"pm2_5":28.7,"mosquito_risk":7,"arthritis_risk":0,"migraine_risk":4,"frizz_risk":1,"updated_at":"2026-03-20T07:55:46.590848+05:30"},{"city":"Bangalore","state":"Karnataka","latitude":12.9716,"longitude":77.5946,"temp":20.0,"humidity":85,"rain":0.0,"pressure":913.4,"uv_index":9.4,"wind_gusts":16.9,"aqi":95,"pm10":24.4,"pm2_5":22.2,"mosquito_risk":3,"arthritis_risk":5,"migraine_risk":7,"frizz_risk":1,"updated_at":"2026-03-20T07:55:46.590864+05:30"},{"city":"Hyderabad","state":"Telangana","latitude":17.385,"longitude":78.4867,"temp":21.3,"humidity":86,"rain":0.0,"pressure":955.8,"uv_index":8.8,"wind_gusts":25.2,"aqi":66,"pm10":24.3,"pm2_5":22.1,"mosquito_risk":3,"arthritis_risk":5,"migraine_risk":7,"frizz_risk":1,"updated_at":"2026-03-20T07:55:46.590874+05:30"},{"city":"Chennai","state":"Tamil Nadu","latitude":13.0827,"longitude":80.2707,"temp":25.9,"humidity":85,"rain":0.0,"pressure":1010.6,"uv_index":9.15,"wind_gusts":33.5,"aqi":29,"pm10":12.9,"pm2_5":10.9,"mosquito_risk":7,"arthritis_risk":0,"migraine_risk":4,"frizz_risk":1,"updated_at":"2026-03-20T07:55:46.590883+05:30"},{"city":"Kolkata","state":"West Bengal","latitude":22.5726,"longitude":88.3639,"temp":25.2,"humidity":90,"rain":0.0,"pressure":1009.9,"uv_index":6.75,"wind_gusts":39.6,"aqi":77,"pm10":28.5,"pm2_5":24.9,"mosquito_risk":7,"arthritis_risk":0,"migraine_risk":4,"frizz_risk":1,"updated_at":"2026-03-20T07:55:46.590893+05:30"},{"city":"Pune","state":"Maharashtra","latitude":18.5204,"longitude":73.8567,"temp":18.5,"humidity":88,"rain":0.0,"pressure":949.8,"uv_index":8.35,"wind_gusts":36.7,"aqi":79,"pm10":51.9,"pm2_5":42.4,"mosquito_risk":3,"arthritis_risk":10,"migraine_risk":7,"frizz_risk":1,"updated_at":"2026-03-20T07:55:46.590905+05:30"},{"city":"Ahmedabad","state":"Gujarat","latitude":23.0225,"longitude":72.5714,"temp":19.8,"humidity":83,"rain":0.0,"pressure":1006.4,"uv_index":7.6,"wind_gusts":33.8,"aqi":68,"pm10":77.1,"pm2_5":49.1,"mosquito_risk":3,"arthritis_risk":10,"migraine_risk":4,"frizz_risk":1,"updated_at":"2026-03-20T07:55:46.590914+05:30"},{"city":"Jaipur","state":"Rajasthan","latitude":26.9124,"longitude":75.7873,"temp":18.0,"humidity":88,"rain":0.0,"pressure":961.8,"uv_index":6.75,"wind_gusts":25.2,"aqi":104,"pm10":61.7,"pm2_5":25.4,"mosquito_risk":3,"arthritis_risk":10,"migraine_risk":7,"frizz_risk":0,"updated_at":"2026-03-20T07:55:46.590922+05:30"},{"city":"Lucknow","state":"Uttar Pradesh","latitude":26.8467,"longitude":80.9462,"temp":23.0,"humidity":59,"rain":0.0,"pressure":995.2,"uv_index":3.55,"wind_gusts":43.6,"aqi":91,"pm10":61.9,"pm2_5":45.4,"mosquito_risk":0,"arthritis_risk":5,"migraine_risk":3,"frizz_risk":0,"updated_at":"2026-03-20T07:55:46.590930+05:30"},{"city":"Kanpur","state":"Uttar Pradesh","latitude":26.4499,"longitude":80.3319,"temp":20.5,"humidity":84,"rain":0.0,"pressure":994.6,"uv_index":3.05,"wind_gusts":43.6,"aqi":115,"pm10":70.5,"pm2_5":51.1,"mosquito_risk":3,"arthritis_risk":5,"migraine_risk":3,"frizz_risk":1,"updated_at":"2026-03-20T07:55:46.590937+05:30"},{"city":"Chandigarh","state":"Chandigarh","latitude":30.7333,"longitude":76.7794,"temp":15.9,"humidity":96,"rain":0.0,"pressure":971.3,"uv_index":0.7,"wind_gusts":25.2,"aqi":90,"pm10":53.1,"pm2_5":23.5,"mosquito_risk":3,"arthritis_risk":10,"migraine_risk":3,"frizz_risk":0,"updated_at":"2026-03-20T07:55:46.590945+05:30"},{"city":"Srinagar","state":"Jammu and Kashmir","latitude":34.0837,"longitude":74.7973,"temp":5.9,"humidity":95,"rain":0.2,"pressure":838.0,"uv_index":4.25,"wind_gusts":12.6,"aqi":96,"pm10":18.5,"pm2_5":18.3,"mosquito_risk":6,"arthritis_risk":10,"migraine_risk":3,"frizz_risk":0,"updated_at":"2026-03-20T07:55:46.590952+05:30"},{"city":"Jammu","state":"Jammu and Kashmir","latitude":32.7266,"longitude":74.857,"temp":16.2,"humidity":91,"rain":0.0,"pressure":975.1,"uv_index":4.25,"wind_gusts":20.9,"aqi":94,"pm10":54.8,"pm2_5":40.6,"mosquito_risk":3,"arthritis_risk":10,"migraine_risk":3,"frizz_risk":0,"updated_at":"2026-03-20T07:55:46.590960+05:30"},{"city":"Amritsar","state":"Punjab","latitude":31.634,"longitude":74.8723,"temp":15.3,"humidity":97,"rain":0.0,"pressure":983.6,"uv_index":3.95,"wind_gusts":19.4,"aqi":97,"pm10":61.9,"pm2_5":46.3,"mosquito_risk":3,"arthritis_risk":10,"migraine_risk":3,"frizz_risk":0,"updated_at":"2026-03-20T07:55:46.590966+05:30"},{"city":"Ludhiana","state":"Punjab","latitude":30.901,"longitude":75.8573,"temp":15.6,"humidity":97,"rain":0.0,"pressure":981.7,"uv_index":2.9,"wind_gusts":17.3,"aqi":106,"pm10":54.0,"pm2_5":28.7,"mosquito_risk":3,"arthritis_risk":10,"migraine_risk":3,"frizz_risk":0,"updated_at":"2026-03-20T07:55:46.590973+05:30"},{"city":"Jalandhar","state":"Punjab","latitude":31.326,"longitude":75.5762,"temp":15.3,"humidity":97,"rain":0.0,"pressure":982.9,"uv_index":3.15,"wind_gusts":18.0,"aqi":93,"pm10":64.5,"pm2_5":37.7,"mosquito_risk":3,"arthritis_risk":10,"migraine_risk":3,"frizz_risk":0,"updated_at":"2026-03-20T07:55:46.590998+05:30"},{"city":"Dehradun","state":"Uttarakhand","latitude":30.6284,"longitude":78.0322,"temp":10.3,"humidity":80,"rain":0.0,"pressure":828.0,"uv_index":0.4,"wind_gusts":34.6,"aqi":47,"pm10":21.9,"pm2_5":8.8,"mosquito_risk":3,"arthritis_risk":5,"migraine_risk":3,"frizz_risk":0,"updated_at":"2026-03-20T07:55:46.591007+05:30"},{"city":"Shimla","state":"Himachal Pradesh","latitude":31.1048,"longitude":77.1734,"temp":7.8,"humidity":91,"rain":0.1,"pressure":780.3,"uv_index":0.7,"wind_gusts":40.7,"aqi":43,"pm10":34.5,"pm2_5":13.8,"mosquito_risk":6,"arthritis_risk":10,"migraine_risk":3,"frizz_risk":0,"updated_at":"2026-03-20T07:55:46.591014+05:30"},{"city":"Manali","state":"Himachal Pradesh","latitude":32.2396,"longitude":77.1887,"temp":10.6,"humidity":98,"rain":0.5,"pressure":813.9,"uv_index":2.95,"wind_gusts":28.8,"aqi":46,"pm10":1.0,"pm2_5":1.0,"mosquito_risk":6,"arthritis_risk":10,"migraine_risk":3,"frizz_risk":0,"updated_at":"2026-03-20T07:55:46.591023+05:30"},{"city":"Gurgaon","state":"Haryana","latitude":28.4595,"longitude":77.0266,"temp":17.0,"humidity":96,"rain":0.2,"pressure":984.8,"uv_index":3.1,"wind_gusts":18.0,"aqi":157,"pm10":124.8,"pm2_5":65.7,"mosquito_risk":6,"arthritis_risk":10,"migraine_risk":3,"frizz_risk":1,"updated_at":"2026-03-20T07:55:46.591030+05:30"},{"city":"Noida","state":"Uttar Pradesh","latitude":28.5355,"longitude":77.391,"temp":17.6,"humidity":93,"rain":0.6,"pressure":988.3,"uv_index":1.65,"wind_gusts":21.6,"aqi":157,"pm10":124.8,"pm2_5":65.7,"mosquito_risk":6,"arthritis_risk":10,"migraine_risk":3,"frizz_risk":1,"updated_at":"2026-03-20T07:55:46.591036+05:30"},{"city":"Ghaziabad","state":"Uttar Pradesh","latitude":28.6692,"longitude":77.4538,"temp":17.1,"humidity":95,"rain":0.5,"pressure":986.6,"uv_index":2.2,"wind_gusts":20.2,"aqi":132,"pm10":95.7,"pm2_5":60.5,"mosquito_risk":6,"arthritis_risk":10,"migraine_risk":3,"frizz_risk":1,"updated_at":"2026-03-20T07:55:46.591043+05:30"},{"city":"Faridabad","state":"Haryana","latitude":28.4089,"longitude":77.3178,"temp":17.1,"humidity":95,"rain":0.8,"pressure":987.1,"uv_index":1.95,"wind_gusts":19.4,"aqi":157,"pm10":124.8,"pm2_5":65.7,"mosquito_risk":6,"arthritis_risk":10,"migraine_risk":3,"frizz_risk":1,"updated_at":"2026-03-20T07:55:46.591050+05:30"},{"city":"Meerut","state":"Uttar Pradesh","latitude":28.9845,"longitude":77.7064,"temp":16.7,"humidity":96,"rain":0.3,"pressure":985.2,"uv_index":2.25,"wind_gusts":24.8,"aqi":132,"pm10":95.7,"pm2_5":60.5,"mosquito_risk":6,"arthritis_risk":10,"migraine_risk":3,"frizz_risk":0,"updated_at":"2026-03-20T07:55:46.591057+05:30"},{"city":"Agra","state":"Uttar Pradesh","latitude":27.1767,"longitude":78.0081,"temp":18.1,"humidity":88,"rain":0.0,"pressure":991.6,"uv_index":4.4,"wind_gusts":27.4,"aqi":623,"pm10":93.6,"pm2_5":51.1,"mosquito_risk":3,"arthritis_risk":10,"migraine_risk":3,"frizz_risk":1,"updated_at":"2026-03-20T07:55:46.591064+05:30"},{"city":"Varanasi","state":"Uttar Pradesh","latitude":25.3176,"longitude":82.9739,"temp":24.5,"humidity":66,"rain":0.0,"pressure":999.8,"uv_index":7.35,"wind_gusts":43.9,"aqi":107,"pm10":75.4,"pm2_5":68.5,"mosquito_risk":3,"arthritis_risk":5,"migraine_risk":7,"frizz_risk":1,"updated_at":"2026-03-20T07:55:46.591077+05:30"},{"city":"Prayagraj","state":"Uttar Pradesh","latitude":25.4358,"longitude":81.8463,"temp":23.1,"humidity":72,"rain":0.0,"pressure":997.9,"uv_index":4.7,"wind_gusts":51.5,"aqi":104,"pm10":75.2,"pm2_5":61.9,"mosquito_risk":3,"arthritis_risk":5,"migraine_risk":3,"frizz_risk":1,"updated_at":"2026-03-20T07:55:46.591085+05:30"},{"city":"Gorakhpur","state":"Uttar Pradesh","latitude":26.7606,"longitude":83.3732,"temp":20.9,"humidity":88,"rain":0.0,"pressure":1000.4,"uv_index":7.1,"wind_gusts":42.1,"aqi":131,"pm10":108.3,"pm2_5":84.3,"mosquito_risk":3,"arthritis_risk":5,"migraine_risk":4,"frizz_risk":1,"updated_at":"2026-03-20T07:55:46.591092+05:30"},{"city":"Bareilly","state":"Uttar Pradesh","latitude":28.367,"longitude":79.4304,"temp":18.8,"humidity":82,"rain":0.0,"pressure":989.5,"uv_index":3.7,"wind_gusts":35.6,"aqi":81,"pm10":35.0,"pm2_5":22.8,"mosquito_risk":3,"arthritis_risk":10,"migraine_risk":3,"frizz_risk":0,"updated_at":"2026-03-20T07:55:46.591100+05:30"},{"city":"Aligarh","state":"Uttar Pradesh","latitude":27.8974,"longitude":78.088,"temp":17.1,"humidity":91,"rain":0.0,"pressure":989.1,"uv_index":3.35,"wind_gusts":23.4,"aqi":127,"pm10":105.2,"pm2_5":55.6,"mosquito_risk":3,"arthritis_risk":10,"migraine_risk":3,"frizz_risk":0,"updated_at":"2026-03-20T07:55:46.591109+05:30"},{"city":"Moradabad","state":"Uttar Pradesh","latitude":28.8386,"longitude":78.7733,"temp":17.7,"humidity":88,"rain":0.0,"pressure":986.7,"uv_index":2.3,"wind_gusts":25.6,"aqi":90,"pm10":75.4,"pm2_5":38.6,"mosquito_risk":3,"arthritis_risk":10,"migraine_risk":3,"frizz_risk":0,"updated_at":"2026-03-20T07:55:46.591116+05:30"},{"city":"Saharanpur","state":"Uttar Pradesh","latitude":29.9637,"longitude":77.546,"temp":15.5,"humidity":94,"rain":0.0,"pressure":978.4,"uv_index":0.8,"wind_gusts":23.8,"aqi":125,"pm10":59.6,"pm2_5":44.6,"mosquito_risk":3,"arthritis_risk":10,"migraine_risk":3,"frizz_risk":0,"updated_at":"2026-03-20T07:55:46.591122+05:30"},{"city":"Jhansi","state":"Uttar Pradesh","latitude":25.4484,"longitude":78.5685,"temp":20.6,"humidity":78,"rain":0.0,"pressure":980.8,"uv_index":6.35,"wind_gusts":29.5,"aqi":88,"pm10":108.0,"pm2_5":48.5,"mosquito_risk":3,"arthritis_risk":5,"migraine_risk":7,"frizz_risk":1,"updated_at":"2026-03-20T07:55:49.812209+05:30"},{"city":"Surat","state":"Gujarat","latitude":21.1702,"longitude":72.8311,"temp":22.8,"humidity":86,"rain":0.0,"pressure":1010.3,"uv_index":7.5,"wind_gusts":26.3,"aqi":97,"pm10":55.9,"pm2_5":43.7,"mosquito_risk":3,"arthritis_risk":0,"migraine_risk":4,"frizz_risk":1,"updated_at":"2026-03-20T07:55:49.812243+05:30"},{"city":"Vadodara","state":"Gujarat","latitude":22.3072,"longitude":73.1812,"temp":21.2,"humidity":91,"rain":0.0,"pressure":1008.1,"uv_index":7.65,"wind_gusts":30.6,"aqi":59,"pm10":60.5,"pm2_5":38.2,"mosquito_risk":3,"arthritis_risk":0,"migraine_risk":4,"frizz_risk":1,"updated_at":"2026-03-20T07:55:49.812255+05:30"},{"city":"Rajkot","state":"Gujarat","latitude":22.3039,"longitude":70.8022,"temp":20.3,"humidity":89,"rain":0.0,"pressure":997.3,"uv_index":7.5,"wind_gusts":30.2,"aqi":65,"pm10":71.5,"pm2_5":29.7,"mosquito_risk":3,"arthritis_risk":5,"migraine_risk":7,"frizz_risk":1,"updated_at":"2026-03-20T07:55:49.812265+05:30"},{"city":"Thane","state":"Maharashtra","latitude":19.2183,"longitude":72.9781,"temp":23.3,"humidity":84,"rain":0.0,"pressure":1010.8,"uv_index":7.8,"wind_gusts":36.7,"aqi":71,"pm10":50.6,"pm2_5":28.7,"mosquito_risk":3,"arthritis_risk":0,"migraine_risk":4,"frizz_risk":1,"updated_at":"2026-03-20T07:55:49.812274+05:30"},{"city":"Nagpur","state":"Maharashtra","latitude":21.1458,"longitude":79.0882,"temp":21.1,"humidity":80,"rain":0.0,"pressure":977.0,"uv_index":7.6,"wind_gusts":39.2,"aqi":114,"pm10":41.1,"pm2_5":34.7,"mosquito_risk":3,"arthritis_risk":5,"migraine_risk":7,"frizz_risk":1,"updated_at":"2026-03-20T07:55:49.812283+05:30"},{"city":"Nashik","state":"Maharashtra","latitude":19.9975,"longitude":73.7898,"temp":18.8,"humidity":88,"rain":0.0,"pressure":947.3,"uv_index":8.0,"wind_gusts":33.5,"aqi":53,"pm10":29.9,"pm2_5":17.3,"mosquito_risk":3,"arthritis_risk":10,"migraine_risk":7,"frizz_risk":1,"updated_at":"2026-03-20T07:55:49.812292+05:30"},{"city":"Aurangabad","state":"Maharashtra","latitude":19.8762,"longitude":75.3433,"temp":21.0,"humidity":70,"rain":0.0,"pressure":946.2,"uv_index":8.5,"wind_gusts":34.9,"aqi":76,"pm10":27.3,"pm2_5":20.7,"mosquito_risk":3,"arthritis_risk":5,"migraine_risk":7,"frizz_risk":0,"updated_at":"2026-03-20T07:55:49.812301+05:30"},{"city":"Solapur","state":"Maharashtra","latitude":17.6599,"longitude":75.9064,"temp":22.3,"humidity":73,"rain":0.0,"pressure":959.4,"uv_index":8.7,"wind_gusts":28.8,"aqi":76,"pm10":43.5,"pm2_5":32.1,"mosquito_risk":3,"arthritis_risk":5,"migraine_risk":7,"frizz_risk":1,"updated_at":"2026-03-20T07:55:49.812310+05:30"},{"city":"Kolhapur","state":"Maharashtra","latitude":16.705,"longitude":74.2433,"temp":17.9,"humidity":91,"rain":0.0,"pressure":949.5,"uv_index":8.85,"wind_gusts":44.3,"aqi":84,"pm10":75.9,"pm2_5":69.6,"mosquito_risk":3,"arthritis_risk":10,"migraine_risk":7,"frizz_risk":1,"updated_at":"2026-03-20T07:55:49.812319+05:30"},{"city":"Goa","state":"Goa","latitude":15.2993,"longitude":74.124,"temp":24.5,"humidity":85,"rain":0.0,"pressure":1000.3,"uv_index":8.85,"wind_gusts":40.0,"aqi":64,"pm10":37.7,"pm2_5":32.7,"mosquito_risk":3,"arthritis_risk":5,"migraine_risk":4,"frizz_risk":1,"updated_at":"2026-03-20T07:55:49.812327+05:30"},{"city":"Jodhpur","state":"Rajasthan","latitude":26.2389,"longitude":73.0243,"temp":18.5,"humidity":86,"rain":0.0,"pressure":985.7,"uv_index":7.25,"wind_gusts":18.7,"aqi":72,"pm10":80.3,"pm2_5":22.2,"mosquito_risk":3,"arthritis_risk":10,"migraine_risk":7,"frizz_risk":1,"updated_at":"2026-03-20T07:55:49.812335+05:30"},{"city":"Udaipur","state":"Rajasthan","latitude":24.5854,"longitude":73.7125,"temp":17.1,"humidity":73,"rain":0.0,"pressure":947.6,"uv_index":7.95,"wind_gusts":30.6,"aqi":63,"pm10":63.1,"pm2_5":27.2,"mosquito_risk":3,"arthritis_risk":5,"migraine_risk":7,"frizz_risk":0,"updated_at":"2026-03-20T07:55:49.812343+05:30"},{"city":"Kota","state":"Rajasthan","latitude":25.2138,"longitude":75.8648,"temp":20.4,"humidity":81,"rain":0.0,"pressure":981.6,"uv_index":5.25,"wind_gusts":31.7,"aqi":72,"pm10":53.7,"pm2_5":22.4,"mosquito_risk":3,"arthritis_risk":5,"migraine_risk":3,"frizz_risk":1,"updated_at":"2026-03-20T07:55:49.812352+05:30"},{"city":"Bikaner","state":"Rajasthan","latitude":28.0229,"longitude":73.3119,"temp":18.6,"humidity":91,"rain":0.0,"pressure":984.5,"uv_index":6.9,"wind_gusts":17.3,"aqi":66,"pm10":30.4,"pm2_5":18.7,"mosquito_risk":3,"arthritis_risk":10,"migraine_risk":7,"frizz_risk":1,"updated_at":"2026-03-20T07:55:49.812361+05:30"},{"city":"Ajmer","state":"Rajasthan","latitude":26.4499,"longitude":74.6399,"temp":18.1,"humidity":89,"rain":0.0,"pressure":956.2,"uv_index":6.55,"wind_gusts":28.1,"aqi":67,"pm10":44.2,"pm2_5":18.0,"mosquito_risk":3,"arthritis_risk":10,"migraine_risk":7,"frizz_risk":1,"updated_at":"2026-03-20T07:55:49.812369+05:30"},{"city":"Gwalior","state":"Madhya Pradesh","latitude":26.2183,"longitude":78.1828,"temp":19.3,"humidity":89,"rain":0.0,"pressure":986.8,"uv_index":5.2,"wind_gusts":29.5,"aqi":123,"pm10":89.9,"pm2_5":45.3,"mosquito_risk":3,"arthritis_risk":10,"migraine_risk":3,"frizz_risk":1,"updated_at":"2026-03-20T07:55:49.812377+05:30"},{"city":"Indore","state":"Madhya Pradesh","latitude":22.7196,"longitude":75.8577,"temp":19.7,"humidity":80,"rain":0.0,"pressure":949.7,"uv_index":7.9,"wind_gusts":37.4,"aqi":59,"pm10":59.1,"pm2_5":24.9,"mosquito_risk":3,"arthritis_risk":5,"migraine_risk":7,"frizz_risk":1,"updated_at":"2026-03-20T07:55:49.812385+05:30"},{"city":"Bhopal","state":"Madhya Pradesh","latitude":23.2599,"longitude":77.4126,"temp":19.6,"humidity":75,"rain":0.0,"pressure":955.7,"uv_index":7.05,"wind_gusts":35.6,"aqi":68,"pm10":40.9,"pm2_5":18.2,"mosquito_risk":3,"arthritis_risk":5,"migraine_risk":7,"frizz_risk":0,"updated_at":"2026-03-20T07:55:49.812394+05:30"},{"city":"Jabalpur","state":"Madhya Pradesh","latitude":23.1815,"longitude":79.9864,"temp":22.1,"humidity":65,"rain":0.0,"pressure":964.0,"uv_index":4.35,"wind_gusts":29.9,"aqi":71,"pm10":34.8,"pm2_5":28.0,"mosquito_risk":3,"arthritis_risk":5,"migraine_risk":3,"frizz_risk":0,"updated_at":"2026-03-20T07:55:49.812401+05:30"},{"city":"Ujjain","state":"Madhya Pradesh","latitude":23.1765,"longitude":75.7885,"temp":19.5,"humidity":84,"rain":0.0,"pressure":955.6,"uv_index":7.8,"wind_gusts":40.3,"aqi":58,"pm10":54.2,"pm2_5":28.6,"mosquito_risk":3,"arthritis_risk":10,"migraine_risk":7,"frizz_risk":1,"updated_at":"2026-03-20T07:55:49.812410+05:30"},{"city":"Visakhapatnam","state":"Andhra Pradesh","latitude":17.6868,"longitude":83.2185,"temp":24.2,"humidity":81,"rain":0.0,"pressure":1007.5,"uv_index":8.8,"wind_gusts":37.4,"aqi":66,"pm10":28.1,"pm2_5":24.8,"mosquito_risk":3,"arthritis_risk":5,"migraine_risk":4,"frizz_risk":1,"updated_at":"2026-03-20T07:55:49.812418+05:30"},{"city":"Vijayawada","state":"Andhra Pradesh","latitude":16.5062,"longitude":80.648,"temp":24.6,"humidity":88,"rain":0.0,"pressure":1006.4,"uv_index":8.85,"wind_gusts":24.1,"aqi":61,"pm10":26.6,"pm2_5":24.9,"mosquito_risk":3,"arthritis_risk":5,"migraine_risk":4,"frizz_risk":1,"updated_at":"2026-03-20T07:55:49.812426+05:30"},{"city":"Guntur","state":"Andhra Pradesh","latitude":16.3067,"longitude":80.4365,"temp":24.6,"humidity":89,"rain":0.0,"pressure":1007.4,"uv_index":8.85,"wind_gusts":35.6,"aqi":54,"pm10":17.2,"pm2_5":15.3,"mosquito_risk":3,"arthritis_risk":5,"migraine_risk":4,"frizz_risk":1,"updated_at":"2026-03-20T07:55:49.812434+05:30"},{"city":"Nellore","state":"Andhra Pradesh","latitude":14.4426,"longitude":79.9865,"temp":25.9,"humidity":84,"rain":0.0,"pressure":1009.1,"uv_index":9.0,"wind_gusts":32.0,"aqi":30,"pm10":11.5,"pm2_5":9.5,"mosquito_risk":7,"arthritis_risk":0,"migraine_risk":4,"frizz_risk":1,"updated_at":"2026-03-20T07:55:49.812442+05:30"},{"city":"Kurnool","state":"Andhra Pradesh","latitude":15.8281,"longitude":78.0373,"temp":24.3,"humidity":76,"rain":0.0,"pressure":979.9,"uv_index":8.85,"wind_gusts":18.7,"aqi":63,"pm10":17.1,"pm2_5":15.8,"mosquito_risk":3,"arthritis_risk":5,"migraine_risk":7,"frizz_risk":1,"updated_at":"2026-03-20T07:55:49.812452+05:30"},{"city":"Kakinada","state":"Andhra Pradesh","latitude":16.9891,"longitude":82.2475,"temp":23.5,"humidity":82,"rain":0.0,"pressure":1011.3,"uv_index":8.8,"wind_gusts":27.7,"aqi":46,"pm10":22.6,"pm2_5":19.3,"mosquito_risk":3,"arthritis_risk":0,"migraine_risk":4,"frizz_risk":1,"updated_at":"2026-03-20T07:55:49.812460+05:30"},{"city":"Tirupati","state":"Andhra Pradesh","latitude":13.6288,"longitude":79.4192,"temp":24.2,"humidity":87,"rain":0.0,"pressure":995.0,"uv_index":9.15,"wind_gusts":20.5,"aqi":50,"pm10":22.7,"pm2_5":21.9,"mosquito_risk":3,"arthritis_risk":5,"migraine_risk":7,"frizz_risk":1,"updated_at":"2026-03-20T07:55:49.812467+05:30"},{"city":"Warangal","state":"Telangana","latitude":17.9689,"longitude":79.5941,"temp":22.8,"humidity":89,"rain":0.0,"pressure":982.6,"uv_index":8.65,"wind_gusts":25.6,"aqi":88,"pm10":16.8,"pm2_5":15.1,"mosquito_risk":3,"arthritis_risk":5,"migraine_risk":7,"frizz_risk":1,"updated_at":"2026-03-20T07:55:49.812475+05:30"},{"city":"Nizamabad","state":"Telangana","latitude":18.6725,"longitude":78.0941,"temp":21.8,"humidity":80,"rain":0.0,"pressure":967.8,"uv_index":8.55,"wind_gusts":25.2,"aqi":92,"pm10":52.6,"pm2_5":47.6,"mosquito_risk":3,"arthritis_risk":5,"migraine_risk":7,"frizz_risk":1,"updated_at":"2026-03-20T07:55:49.812483+05:30"},{"city":"Mysore","state":"Karnataka","latitude":12.2958,"longitude":76.6396,"temp":21.6,"humidity":87,"rain":0.0,"pressure":930.3,"uv_index":9.35,"wind_gusts":36.0,"aqi":79,"pm10":40.5,"pm2_5":38.9,"mosquito_risk":3,"arthritis_risk":5,"migraine_risk":7,"frizz_risk":1,"updated_at":"2026-03-20T07:55:49.812491+05:30"},{"city":"Mangalore","state":"Karnataka","latitude":12.9141,"longitude":74.856,"temp":27.8,"humidity":81,"rain":0.0,"pressure":1008.9,"uv_index":9.0,"wind_gusts":27.0,"aqi":72,"pm10":36.2,"pm2_5":32.6,"mosquito_risk":7,"arthritis_risk":0,"migraine_risk":4,"frizz_risk":1,"updated_at":"2026-03-20T07:55:49.812498+05:30"},{"city":"Hubli-Dharwad","state":"Karnataka","latitude":15.3647,"longitude":75.124,"temp":20.1,"humidity":91,"rain":0.0,"pressure":942.4,"uv_index":9.0,"wind_gusts":40.7,"aqi":75,"pm10":25.1,"pm2_5":22.4,"mosquito_risk":3,"arthritis_risk":5,"migraine_risk":7,"frizz_risk":1,"updated_at":"2026-03-20T07:55:49.812506+05:30"},{"city":"Belgaum","state":"Karnataka","latitude":15.8497,"longitude":74.4977,"temp":19.1,"humidity":88,"rain":0.0,"pressure":926.6,"uv_index":9.1,"wind_gusts":44.3,"aqi":74,"pm10":48.2,"pm2_5":43.4,"mosquito_risk":3,"arthritis_risk":10,"migraine_risk":7,"frizz_risk":1,"updated_at":"2026-03-20T07:55:53.029239+05:30"},{"city":"Coimbatore","state":"Tamil Nadu","latitude":11.0168,"longitude":76.9558,"temp":22.6,"humidity":84,"rain":0.0,"pressure":964.7,"uv_index":9.35,"wind_gusts":36.7,"aqi":62,"pm10":23.2,"pm2_5":21.1,"mosquito_risk":3,"arthritis_risk":5,"migraine_risk":7,"frizz_risk":1,"updated_at":"2026-03-20T07:55:53.029273+05:30"},{"city":"Madurai","state":"Tamil Nadu","latitude":9.9252,"longitude":78.1198,"temp":23.7,"humidity":83,"rain":0.0,"pressure":996.7,"uv_index":9.3,"wind_gusts":24.8,"aqi":57,"pm10":14.7,"pm2_5":13.9,"mosquito_risk":3,"arthritis_risk":5,"migraine_risk":7,"frizz_risk":1,"updated_at":"2026-03-20T07:55:53.029287+05:30"},{"city":"Trichy","state":"Tamil Nadu","latitude":10.7905,"longitude":78.7047,"temp":22.9,"humidity":84,"rain":0.0,"pressure":1003.5,"uv_index":9.25,"wind_gusts":20.2,"aqi":58,"pm10":18.0,"pm2_5":16.6,"mosquito_risk":3,"arthritis_risk":5,"migraine_risk":4,"frizz_risk":1,"updated_at":"2026-03-20T07:55:53.029299+05:30"},{"city":"Salem","state":"Tamil Nadu","latitude":11.6643,"longitude":78.146,"temp":23.1,"humidity":88,"rain":0.0,"pressure":980.7,"uv_index":9.3,"wind_gusts":20.9,"aqi":75,"pm10":29.0,"pm2_5":25.6,"mosquito_risk":3,"arthritis_risk":5,"migraine_risk":7,"frizz_risk":1,"updated_at":"2026-03-20T07:55:53.029309+05:30"},{"city":"Tirunelveli","state":"Tamil Nadu","latitude":8.7139,"longitude":77.7567,"temp":24.7,"humidity":91,"rain":0.0,"pressure":1006.8,"uv_index":9.3,"wind_gusts":41.4,"aqi":61,"pm10":20.8,"pm2_5":19.8,"mosquito_risk":3,"arthritis_risk":5,"migraine_risk":4,"frizz_risk":1,"updated_at":"2026-03-20T07:55:53.029319+05:30"},{"city":"Vellore","state":"Tamil Nadu","latitude":12.9165,"longitude":79.1325,"temp":23.8,"humidity":85,"rain":0.0,"pressure":987.9,"uv_index":9.2,"wind_gusts":24.1,"aqi":61,"pm10":18.8,"pm2_5":18.1,"mosquito_risk":3,"arthritis_risk":5,"migraine_risk":7,"frizz_risk":1,"updated_at":"2026-03-20T07:55:53.029330+05:30"},{"city":"Erode","state":"Tamil Nadu","latitude":11.341,"longitude":77.7172,"temp":23.4,"humidity":80,"rain":0.0,"pressure":992.7,"uv_index":9.3,"wind_gusts":26.6,"aqi":71,"pm10":20.5,"pm2_5":18.4,"mosquito_risk":3,"arthritis_risk":5,"migraine_risk":7,"frizz_risk":1,"updated_at":"2026-03-20T07:55:53.029340+05:30"},{"city":"Kochi","state":"Kerala","latitude":9.9312,"longitude":76.2673,"temp":27.8,"humidity":78,"rain":0.0,"pressure":1010.7,"uv_index":9.15,"wind_gusts":33.8,"aqi":62,"pm10":32.1,"pm2_5":31.2,"mosquito_risk":7,"arthritis_risk":0,"migraine_risk":4,"frizz_risk":1,"updated_at":"2026-03-20T07:55:53.029351+05:30"},{"city":"Thiruvananthapuram","state":"Kerala","latitude":8.5241,"longitude":76.9366,"temp":27.6,"humidity":81,"rain":0.0,"pressure":1010.3,"uv_index":9.15,"wind_gusts":25.9,"aqi":45,"pm10":16.9,"pm2_5":14.5,"mosquito_risk":7,"arthritis_risk":0,"migraine_risk":4,"frizz_risk":1,"updated_at":"2026-03-20T07:55:53.029361+05:30"},{"city":"Kozhikode","state":"Kerala","latitude":11.2588,"longitude":75.7804,"temp":26.5,"humidity":82,"rain":0.0,"pressure":1010.0,"uv_index":9.05,"wind_gusts":32.4,"aqi":52,"pm10":27.8,"pm2_5":21.4,"mosquito_risk":7,"arthritis_risk":0,"migraine_risk":4,"frizz_risk":1,"updated_at":"2026-03-20T07:55:53.029371+05:30"},{"city":"Thrissur","state":"Kerala","latitude":10.5276,"longitude":76.2144,"temp":26.6,"humidity":82,"rain":0.0,"pressure":1009.1,"uv_index":9.15,"wind_gusts":37.8,"aqi":62,"pm10":28.6,"pm2_5":27.1,"mosquito_risk":7,"arthritis_risk":0,"migraine_risk":4,"frizz_risk":1,"updated_at":"2026-03-20T07:55:53.029382+05:30"},{"city":"Kannur","state":"Kerala","latitude":11.8745,"longitude":75.3704,"temp":26.1,"humidity":73,"rain":0.0,"pressure":1009.3,"uv_index":9.05,"wind_gusts":37.4,"aqi":56,"pm10":26.7,"pm2_5":23.6,"mosquito_risk":7,"arthritis_risk":0,"migraine_risk":4,"frizz_risk":1,"updated_at":"2026-03-20T07:55:53.029392+05:30"},{"city":"Patna","state":"Bihar","latitude":25.5941,"longitude":85.1376,"temp":23.7,"humidity":86,"rain":0.0,"pressure":1003.9,"uv_index":7.7,"wind_gusts":33.1,"aqi":158,"pm10":85.9,"pm2_5":82.7,"mosquito_risk":3,"arthritis_risk":5,"migraine_risk":4,"frizz_risk":1,"updated_at":"2026-03-20T07:55:53.029402+05:30"},{"city":"Gaya","state":"Bihar","latitude":24.7914,"longitude":85.0002,"temp":24.5,"humidity":68,"rain":0.0,"pressure":996.5,"uv_index":7.8,"wind_gusts":20.2,"aqi":127,"pm10":44.8,"pm2_5":41.0,"mosquito_risk":3,"arthritis_risk":5,"migraine_risk":7,"frizz_risk":1,"updated_at":"2026-03-20T07:55:53.029412+05:30"},{"city":"Muzaffarpur","state":"Bihar","latitude":26.1209,"longitude":85.3647,"temp":22.1,"humidity":82,"rain":0.0,"pressure":1004.5,"uv_index":7.65,"wind_gusts":40.3,"aqi":161,"pm10":81.0,"pm2_5":77.8,"mosquito_risk":3,"arthritis_risk":5,"migraine_risk":4,"frizz_risk":1,"updated_at":"2026-03-20T07:55:53.029421+05:30"},{"city":"Bhagalpur","state":"Bihar","latitude":25.2425,"longitude":87.0117,"temp":22.7,"humidity":88,"rain":0.0,"pressure":1005.7,"uv_index":7.75,"wind_gusts":33.8,"aqi":140,"pm10":53.8,"pm2_5":50.5,"mosquito_risk":3,"arthritis_risk":5,"migraine_risk":4,"frizz_risk":1,"updated_at":"2026-03-20T07:55:53.029431+05:30"},{"city":"Ranchi","state":"Jharkhand","latitude":23.3441,"longitude":85.3096,"temp":22.5,"humidity":63,"rain":0.0,"pressure":940.1,"uv_index":7.4,"wind_gusts":35.3,"aqi":85,"pm10":31.7,"pm2_5":27.8,"mosquito_risk":3,"arthritis_risk":5,"migraine_risk":7,"frizz_risk":0,"updated_at":"2026-03-20T07:55:53.029441+05:30"},{"city":"Jamshedpur","state":"Jharkhand","latitude":22.8046,"longitude":86.2029,"temp":25.9,"humidity":63,"rain":0.0,"pressure":994.0,"uv_index":7.35,"wind_gusts":32.0,"aqi":116,"pm10":55.4,"pm2_5":49.6,"mosquito_risk":7,"arthritis_risk":5,"migraine_risk":7,"frizz_risk":1,"updated_at":"2026-03-20T07:55:53.029452+05:30"},{"city":"Dhanbad","state":"Jharkhand","latitude":23.7957,"longitude":86.4304,"temp":25.1,"humidity":62,"rain":0.0,"pressure":982.8,"uv_index":8.2,"wind_gusts":43.6,"aqi":155,"pm10":89.6,"pm2_5":84.1,"mosquito_risk":7,"arthritis_risk":5,"migraine_risk":7,"frizz_risk":1,"updated_at":"2026-03-20T07:55:53.029463+05:30"},{"city":"Bokaro","state":"Jharkhand","latitude":23.6693,"longitude":86.1511,"temp":24.5,"humidity":63,"rain":0.0,"pressure":986.9,"uv_index":8.15,"wind_gusts":40.3,"aqi":150,"pm10":69.4,"pm2_5":64.0,"mosquito_risk":3,"arthritis_risk":5,"migraine_risk":7,"frizz_risk":1,"updated_at":"2026-03-20T07:55:53.029473+05:30"},{"city":"Bhubaneswar","state":"Odisha","latitude":20.2961,"longitude":85.8245,"temp":25.5,"humidity":87,"rain":0.0,"pressure":1006.0,"uv_index":8.5,"wind_gusts":30.6,"aqi":74,"pm10":22.3,"pm2_5":18.7,"mosquito_risk":7,"arthritis_risk":5,"migraine_risk":4,"frizz_risk":1,"updated_at":"2026-03-20T07:55:53.029484+05:30"},{"city":"Cuttack","state":"Odisha","latitude":20.4625,"longitude":85.8828,"temp":25.6,"humidity":88,"rain":0.0,"pressure":1007.9,"uv_index":8.4,"wind_gusts":35.3,"aqi":74,"pm10":22.3,"pm2_5":18.7,"mosquito_risk":7,"arthritis_risk":5,"migraine_risk":4,"frizz_risk":1,"updated_at":"2026-03-20T07:55:53.029494+05:30"},{"city":"Rourkela","state":"Odisha","latitude":22.2604,"longitude":84.8536,"temp":24.3,"humidity":78,"rain":0.0,"pressure":988.3,"uv_index":8.2,"wind_gusts":38.9,"aqi":117,"pm10":67.8,"pm2_5":61.0,"mosquito_risk":3,"arthritis_risk":5,"migraine_risk":7,"frizz_risk":1,"updated_at":"2026-03-20T07:55:53.029504+05:30"},{"city":"Raipur","state":"Chhattisgarh","latitude":21.2514,"longitude":81.6296,"temp":22.1,"humidity":73,"rain":0.0,"pressure":978.4,"uv_index":7.15,"wind_gusts":28.1,"aqi":139,"pm10":54.5,"pm2_5":52.2,"mosquito_risk":3,"arthritis_risk":5,"migraine_risk":7,"frizz_risk":1,"updated_at":"2026-03-20T07:55:53.029513+05:30"},{"city":"Bhilai","state":"Chhattisgarh","latitude":21.1938,"longitude":81.3509,"temp":22.1,"humidity":74,"rain":0.0,"pressure":978.7,"uv_index":7.1,"wind_gusts":27.4,"aqi":137,"pm10":47.5,"pm2_5":45.5,"mosquito_risk":3,"arthritis_risk":5,"migraine_risk":7,"frizz_risk":1,"updated_at":"2026-03-20T07:55:53.029523+05:30"},{"city":"Guwahati","state":"Assam","latitude":26.1158,"longitude":91.7086,"temp":22.3,"humidity":86,"rain":0.0,"pressure":1008.2,"uv_index":6.8,"wind_gusts":26.6,"aqi":91,"pm10":42.3,"pm2_5":32.6,"mosquito_risk":3,"arthritis_risk":0,"migraine_risk":4,"frizz_risk":1,"updated_at":"2026-03-20T07:55:53.029533+05:30"},{"city":"Agartala","state":"Tripura","latitude":23.8315,"longitude":91.2868,"temp":22.5,"humidity":89,"rain":0.0,"pressure":1011.7,"uv_index":6.6,"wind_gusts":29.2,"aqi":90,"pm10":27.1,"pm2_5":25.0,"mosquito_risk":3,"arthritis_risk":0,"migraine_risk":4,"frizz_risk":1,"updated_at":"2026-03-20T07:55:53.029542+05:30"},{"city":"Shillong","state":"Meghalaya","latitude":25.5788,"longitude":91.8933,"temp":15.3,"humidity":73,"rain":0.0,"pressure":859.8,"uv_index":6.8,"wind_gusts":31.7,"aqi":79,"pm10":34.6,"pm2_5":27.4,"mosquito_risk":3,"arthritis_risk":5,"migraine_risk":7,"frizz_risk":0,"updated_at":"2026-03-20T07:55:53.029552+05:30"},{"city":"Imphal","state":"Manipur","latitude":24.817,"longitude":93.9368,"temp":18.7,"humidity":77,"rain":0.0,"pressure":927.6,"uv_index":8.1,"wind_gusts":43.9,"aqi":88,"pm10":41.3,"pm2_5":36.2,"mosquito_risk":3,"arthritis_risk":5,"migraine_risk":7,"frizz_risk":0,"updated_at":"2026-03-20T07:55:53.029562+05:30"},{"city":"Aizawl","state":"Mizoram","latitude":23.7271,"longitude":92.7176,"temp":17.8,"humidity":82,"rain":0.0,"pressure":896.2,"uv_index":7.6,"wind_gusts":40.0,"aqi":74,"pm10":26.3,"pm2_5":23.3,"mosquito_risk":3,"arthritis_risk":10,"migraine_risk":7,"frizz_risk":0,"updated_at":"2026-03-20T07:55:53.029572+05:30"},{"city":"Kohima","state":"Nagaland","latitude":25.6701,"longitude":94.1077,"temp":15.9,"humidity":72,"rain":0.0,"pressure":858.9,"uv_index":8.1,"wind_gusts":64.8,"aqi":68,"pm10":28.9,"pm2_5":20.4,"mosquito_risk":3,"arthritis_risk":5,"migraine_risk":7,"frizz_risk":0,"updated_at":"2026-03-20T07:55:53.029582+05:30"},{"city":"Gangtok","state":"Sikkim","latitude":27.3314,"longitude":88.6138,"temp":13.5,"humidity":93,"rain":0.0,"pressure":839.8,"uv_index":7.95,"wind_gusts":20.5,"aqi":99,"pm10":36.8,"pm2_5":26.4,"mosquito_risk":3,"arthritis_risk":10,"migraine_risk":7,"frizz_risk":0,"updated_at":"2026-03-20T07:55:53.029592+05:30"},{"city":"Siliguri","state":"West Bengal","latitude":26.7271,"longitude":88.3953,"temp":20.3,"humidity":77,"rain":0.0,"pressure":999.2,"uv_index":7.65,"wind_gusts":22.3,"aqi":150,"pm10":92.2,"pm2_5":70.1,"mosquito_risk":3,"arthritis_risk":5,"migraine_risk":7,"frizz_risk":1,"updated_at":"2026-03-20T07:55:56.256450+05:30"},{"city":"Durgapur","state":"West Bengal","latitude":23.5204,"longitude":87.3119,"temp":24.7,"humidity":88,"rain":0.0,"pressure":998.7,"uv_index":7.65,"wind_gusts":47.5,"aqi":153,"pm10":81.3,"pm2_5":75.7,"mosquito_risk":3,"arthritis_risk":5,"migraine_risk":7,"frizz_risk":1,"updated_at":"2026-03-20T07:55:56.256481+05:30"},{"city":"Asansol","state":"West Bengal","latitude":23.6739,"longitude":86.9524,"temp":24.9,"humidity":86,"rain":0.0,"pressure":997.1,"uv_index":7.95,"wind_gusts":46.4,"aqi":152,"pm10":73.8,"pm2_5":68.9,"mosquito_risk":3,"arthritis_risk":5,"migraine_risk":7,"frizz_risk":1,"updated_at":"2026-03-20T07:55:56.256491+05:30"},{"city":"Pondicherry","state":"Puducherry","latitude":11.9139,"longitude":79.8145,"temp":24.9,"humidity":88,"rain":0.0,"pressure":1012.0,"uv_index":9.1,"wind_gusts":25.6,"aqi":30,"pm10":14.0,"pm2_5":12.4,"mosquito_risk":3,"arthritis_risk":0,"migraine_risk":4,"frizz_risk":1,"updated_at":"2026-03-20T07:55:56.256499+05:30"},{"city":"Port Blair","state":"Andaman and Nicobar Islands","latitude":11.6234,"longitude":92.7265,"temp":28.1,"humidity":78,"rain":0.0,"pressure":1009.8,"uv_index":9.05,"wind_gusts":11.9,"aqi":47,"pm10":13.8,"pm2_5":10.7,"mosquito_risk":7,"arthritis_risk":0,"migraine_risk":4,"frizz_risk":1,"updated_at":"2026-03-20T07:55:56.256509+05:30"},{"city":"Haridwar","state":"Uttarakhand","latitude":29.9457,"longitude":78.1642,"temp":17.7,"humidity":87,"rain":0.0,"pressure":976.6,"uv_index":1.4,"wind_gusts":27.7,"aqi":76,"pm10":27.4,"pm2_5":15.6,"mosquito_risk":3,"arthritis_risk":10,"migraine_risk":3,"frizz_risk":0,"updated_at":"2026-03-20T07:55:56.256517+05:30"},{"city":"Rishikesh","state":"Uttarakhand","latitude":30.0869,"longitude":78.2676,"temp":18.7,"humidity":71,"rain":0.0,"pressure":968.8,"uv_index":1.3,"wind_gusts":27.7,"aqi":64,"pm10":31.2,"pm2_5":14.2,"mosquito_risk":3,"arthritis_risk":5,"migraine_risk":3,"frizz_risk":0,"updated_at":"2026-03-20T07:55:56.256526+05:30"},{"city":"Nainital","state":"Uttarakhand","latitude":29.3919,"longitude":79.4542,"temp":14.3,"humidity":72,"rain":0.0,"pressure":805.0,"uv_index":3.5,"wind_gusts":72.4,"aqi":63,"pm10":29.1,"pm2_5":17.5,"mosquito_risk":3,"arthritis_risk":5,"migraine_risk":3,"frizz_risk":0,"updated_at":"2026-03-20T07:55:56.256535+05:30"},{"city":"Mussoorie","state":"Uttarakhand","latitude":30.4599,"longitude":78.0664,"temp":11.8,"humidity":73,"rain":0.0,"pressure":800.7,"uv_index":0.4,"wind_gusts":46.8,"aqi":65,"pm10":35.0,"pm2_5":15.7,"mosquito_risk":3,"arthritis_risk":5,"migraine_risk":3,"frizz_risk":0,"updated_at":"2026-03-20T07:55:56.256542+05:30"},{"city":"Dharamshala","state":"Himachal Pradesh","latitude":32.219,"longitude":76.3234,"temp":11.9,"humidity":84,"rain":1.6,"pressure":866.5,"uv_index":1.45,"wind_gusts":26.3,"aqi":44,"pm10":3.4,"pm2_5":3.3,"mosquito_risk":6,"arthritis_risk":10,"migraine_risk":3,"frizz_risk":0,"updated_at":"2026-03-20T07:55:56.256550+05:30"},{"city":"Dalhousie","state":"Himachal Pradesh","latitude":32.5387,"longitude":75.971,"temp":8.4,"humidity":75,"rain":1.4,"pressure":799.6,"uv_index":1.85,"wind_gusts":24.5,"aqi":71,"pm10":13.2,"pm2_5":12.5,"mosquito_risk":6,"arthritis_risk":5,"migraine_risk":3,"frizz_risk":0,"updated_at":"2026-03-20T07:55:56.256558+05:30"},{"city":"Patiala","state":"Punjab","latitude":30.3398,"longitude":76.3869,"temp":15.7,"humidity":98,"rain":0.0,"pressure":981.2,"uv_index":3.65,"wind_gusts":18.4,"aqi":100,"pm10":49.8,"pm2_5":24.6,"mosquito_risk":3,"arthritis_risk":10,"migraine_risk":3,"frizz_risk":0,"updated_at":"2026-03-20T07:55:56.256565+05:30"},{"city":"Bhatinda","state":"Punjab","latitude":30.211,"longitude":74.9455,"temp":16.8,"humidity":97,"rain":0.0,"pressure":986.5,"uv_index":5.7,"wind_gusts":20.5,"aqi":100,"pm10":54.0,"pm2_5":41.4,"mosquito_risk":3,"arthritis_risk":10,"migraine_risk":3,"frizz_risk":1,"updated_at":"2026-03-20T07:55:56.256573+05:30"},{"city":"Rohtak","state":"Haryana","latitude":28.8955,"longitude":76.6066,"temp":16.7,"humidity":97,"rain":0.0,"pressure":985.1,"uv_index":2.2,"wind_gusts":12.2,"aqi":150,"pm10":128.5,"pm2_5":65.2,"mosquito_risk":3,"arthritis_risk":10,"migraine_risk":3,"frizz_risk":1,"updated_at":"2026-03-20T07:55:56.256580+05:30"},{"city":"Panipat","state":"Haryana","latitude":29.3909,"longitude":76.9635,"temp":15.8,"humidity":97,"rain":0.0,"pressure":983.5,"uv_index":2.65,"wind_gusts":15.5,"aqi":153,"pm10":132.2,"pm2_5":73.6,"mosquito_risk":3,"arthritis_risk":10,"migraine_risk":3,"frizz_risk":0,"updated_at":"2026-03-20T07:55:56.256588+05:30"},{"city":"Mathura","state":"Uttar Pradesh","latitude":27.4924,"longitude":77.6737,"temp":17.6,"humidity":94,"rain":1.0,"pressure":990.6,"uv_index":5.0,"wind_gusts":23.0,"aqi":147,"pm10":105.7,"pm2_5":52.0,"mosquito_risk":6,"arthritis_risk":10,"migraine_risk":3,"frizz_risk":1,"updated_at":"2026-03-20T07:55:56.256595+05:30"},{"city":"Vrindavan","state":"Uttar Pradesh","latitude":27.5823,"longitude":77.7027,"temp":17.3,"humidity":95,"rain":0.8,"pressure":991.2,"uv_index":5.0,"wind_gusts":22.3,"aqi":147,"pm10":105.7,"pm2_5":52.0,"mosquito_risk":6,"arthritis_risk":10,"migraine_risk":3,"frizz_risk":1,"updated_at":"2026-03-20T07:55:56.256602+05:30"},{"city":"Ayodhya","state":"Uttar Pradesh","latitude":26.7922,"longitude":82.1998,"temp":21.9,"humidity":61,"rain":0.0,"pressure":997.9,"uv_index":5.6,"wind_gusts":32.8,"aqi":127,"pm10":82.7,"pm2_5":67.3,"mosquito_risk":3,"arthritis_risk":5,"migraine_risk":3,"frizz_risk":0,"updated_at":"2026-03-20T07:55:56.256609+05:30"},{"city":"Ratlam","state":"Madhya Pradesh","latitude":23.3315,"longitude":75.0367,"temp":20.4,"humidity":79,"rain":0.0,"pressure":956.5,"uv_index":7.75,"wind_gusts":37.8,"aqi":55,"pm10":48.3,"pm2_5":26.4,"mosquito_risk":3,"arthritis_risk":5,"migraine_risk":7,"frizz_risk":1,"updated_at":"2026-03-20T07:55:56.256617+05:30"},{"city":"Sagar","state":"Madhya Pradesh","latitude":23.8388,"longitude":78.7378,"temp":20.1,"humidity":72,"rain":0.0,"pressure":951.8,"uv_index":7.35,"wind_gusts":29.9,"aqi":58,"pm10":26.0,"pm2_5":18.7,"mosquito_risk":3,"arthritis_risk":5,"migraine_risk":7,"frizz_risk":0,"updated_at":"2026-03-20T07:55:56.256625+05:30"},{"city":"Satna","state":"Madhya Pradesh","latitude":24.6005,"longitude":80.8322,"temp":24.8,"humidity":52,"rain":0.0,"pressure":972.9,"uv_index":4.55,"wind_gusts":49.0,"aqi":65,"pm10":27.2,"pm2_5":19.4,"mosquito_risk":0,"arthritis_risk":5,"migraine_risk":3,"frizz_risk":0,"updated_at":"2026-03-20T07:55:56.256632+05:30"},{"city":"Akola","state":"Maharashtra","latitude":20.7002,"longitude":77.0082,"temp":22.9,"humidity":73,"rain":0.0,"pressure":978.0,"uv_index":8.2,"wind_gusts":24.1,"aqi":82,"pm10":30.2,"pm2_5":21.2,"mosquito_risk":3,"arthritis_risk":5,"migraine_risk":7,"frizz_risk":1,"updated_at":"2026-03-20T07:55:56.256640+05:30"},{"city":"Amravati","state":"Maharashtra","latitude":20.9374,"longitude":77.7796,"temp":22.5,"humidity":72,"rain":0.0,"pressure":970.2,"uv_index":7.25,"wind_gusts":21.2,"aqi":87,"pm10":27.4,"pm2_5":19.3,"mosquito_risk":3,"arthritis_risk":5,"migraine_risk":7,"frizz_risk":1,"updated_at":"2026-03-20T07:55:56.256648+05:30"},{"city":"Latur","state":"Maharashtra","latitude":18.4088,"longitude":76.5604,"temp":20.2,"humidity":75,"rain":0.0,"pressure":941.8,"uv_index":8.6,"wind_gusts":29.2,"aqi":79,"pm10":53.2,"pm2_5":38.2,"mosquito_risk":3,"arthritis_risk":5,"migraine_risk":7,"frizz_risk":0,"updated_at":"2026-03-20T07:55:56.256655+05:30"},{"city":"Nanded","state":"Maharashtra","latitude":19.1383,"longitude":77.3091,"temp":22.4,"humidity":73,"rain":0.0,"pressure":971.6,"uv_index":8.4,"wind_gusts":26.6,"aqi":78,"pm10":34.2,"pm2_5":26.3,"mosquito_risk":3,"arthritis_risk":5,"migraine_risk":7,"frizz_risk":1,"updated_at":"2026-03-20T07:55:56.256662+05:30"},{"city":"Gulbarga","state":"Karnataka","latitude":17.3297,"longitude":76.8343,"temp":22.6,"humidity":67,"rain":0.0,"pressure":961.0,"uv_index":8.7,"wind_gusts":24.5,"aqi":72,"pm10":44.8,"pm2_5":31.5,"mosquito_risk":3,"arthritis_risk":5,"migraine_risk":7,"frizz_risk":1,"updated_at":"2026-03-20T07:55:56.256669+05:30"},{"city":"Bidar","state":"Karnataka","latitude":17.9104,"longitude":77.5199,"temp":22.1,"humidity":66,"rain":0.0,"pressure":937.5,"uv_index":8.65,"wind_gusts":24.5,"aqi":77,"pm10":47.3,"pm2_5":38.9,"mosquito_risk":3,"arthritis_risk":5,"migraine_risk":7,"frizz_risk":0,"updated_at":"2026-03-20T07:55:56.256676+05:30"},{"city":"Hospet","state":"Karnataka","latitude":15.2689,"longitude":76.3909,"temp":23.2,"humidity":75,"rain":0.0,"pressure":958.3,"uv_index":8.95,"wind_gusts":21.2,"aqi":71,"pm10":42.4,"pm2_5":35.6,"mosquito_risk":3,"arthritis_risk":5,"migraine_risk":7,"frizz_risk":1,"updated_at":"2026-03-20T07:55:56.256683+05:30"},{"city":"Tirupur","state":"Tamil Nadu","latitude":11.1085,"longitude":77.3411,"temp":22.9,"humidity":83,"rain":0.0,"pressure":978.8,"uv_index":9.35,"wind_gusts":28.1,"aqi":71,"pm10":27.5,"pm2_5":23.7,"mosquito_risk":3,"arthritis_risk":5,"migraine_risk":7,"frizz_risk":1,"updated_at":"2026-03-20T07:55:56.256690+05:30"},{"city":"Alappuzha","state":"Kerala","latitude":9.4981,"longitude":76.3388,"temp":27.6,"humidity":80,"rain":0.0,"pressure":1010.9,"uv_index":9.1,"wind_gusts":30.6,"aqi":60,"pm10":26.2,"pm2_5":24.1,"mosquito_risk":7,"arthritis_risk":0,"migraine_risk":4,"frizz_risk":1,"updated_at":"2026-03-20T07:55:56.256697+05:30"},{"city":"Munnar","state":"Kerala","latitude":10.0889,"longitude":77.0595,"temp":19.2,"humidity":66,"rain":0.0,"pressure":857.6,"uv_index":9.6,"wind_gusts":38.9,"aqi":48,"pm10":15.5,"pm2_5":14.1,"mosquito_risk":3,"arthritis_risk":5,"migraine_risk":7,"frizz_risk":0,"updated_at":"2026-03-20T07:55:56.256705+05:30"},{"city":"Silchar","state":"Assam","latitude":24.8333,"longitude":92.7789,"temp":21.3,"humidity":87,"rain":0.0,"pressure":1010.5,"uv_index":7.45,"wind_gusts":23.4,"aqi":98,"pm10":40.6,"pm2_5":38.0,"mosquito_risk":3,"arthritis_risk":0,"migraine_risk":4,"frizz_risk":1,"updated_at":"2026-03-20T07:55:56.256712+05:30"},{"city":"Dibrugarh","state":"Assam","latitude":27.4728,"longitude":94.912,"temp":20.5,"humidity":85,"rain":0.0,"pressure":1002.8,"uv_index":7.75,"wind_gusts":13.3,"aqi":85,"pm10":35.6,"pm2_5":28.6,"mosquito_risk":3,"arthritis_risk":5,"migraine_risk":4,"frizz_risk":1,"updated_at":"2026-03-20T07:55:56.256720+05:30"}]