[{"city":"Delhi","state":"Delhi","latitude":28.6139,"longitude":77.209,"temp":25.5,"humidity":54,"rain":0.0,"pressure":985.3,"uv_index":6.4,"wind_gusts":28.1,"aqi":180,"pm10":225.8,"pm2_5":67.1,"mosquito_risk":4,"arthritis_risk":5,"migraine_risk":7,"frizz_risk":0,"updated_at":"2026-03-25T20:33:19.256160+05:30"},{"city":"Mumbai","state":"Maharashtra","latitude":19.076,"longitude":72.8777,"temp":28.2,"humidity":75,"rain":0.0,"pressure":1008.4,"uv_index":7.95,"wind_gusts":24.8,"aqi":115,"pm10":39.0,"pm2_5":29.8,"mosquito_risk":7,"arthritis_risk":0,"migraine_risk":4,"frizz_risk":1,"updated_at":"2026-03-25T20:33:19.256206+05:30"},{"city":"Bangalore","state":"Karnataka","latitude":12.9716,"longitude":77.5946,"temp":27.5,"humidity":39,"rain":0.0,"pressure":912.1,"uv_index":9.5,"wind_gusts":32.0,"aqi":117,"pm10":30.2,"pm2_5":26.9,"mosquito_risk":4,"arthritis_risk":5,"migraine_risk":7,"frizz_risk":0,"updated_at":"2026-03-25T20:33:19.256221+05:30"},{"city":"Hyderabad","state":"Telangana","latitude":17.385,"longitude":78.4867,"temp":25.0,"humidity":77,"rain":0.0,"pressure":954.5,"uv_index":9.0,"wind_gusts":19.1,"aqi":119,"pm10":56.1,"pm2_5":47.0,"mosquito_risk":7,"arthritis_risk":5,"migraine_risk":7,"frizz_risk":1,"updated_at":"2026-03-25T20:33:19.256231+05:30"},{"city":"Chennai","state":"Tamil Nadu","latitude":13.0827,"longitude":80.2707,"temp":27.0,"humidity":75,"rain":0.0,"pressure":1009.1,"uv_index":9.2,"wind_gusts":32.8,"aqi":47,"pm10":24.7,"pm2_5":15.5,"mosquito_risk":7,"arthritis_risk":0,"migraine_risk":4,"frizz_risk":1,"updated_at":"2026-03-25T20:33:19.256240+05:30"},{"city":"Kolkata","state":"West Bengal","latitude":22.5726,"longitude":88.3639,"temp":26.2,"humidity":84,"rain":0.0,"pressure":1009.1,"uv_index":8.4,"wind_gusts":25.2,"aqi":80,"pm10":46.8,"pm2_5":41.3,"mosquito_risk":7,"arthritis_risk":0,"migraine_risk":4,"frizz_risk":1,"updated_at":"2026-03-25T20:33:19.256249+05:30"},{"city":"Pune","state":"Maharashtra","latitude":18.5204,"longitude":73.8567,"temp":29.0,"humidity":57,"rain":0.0,"pressure":948.9,"uv_index":8.5,"wind_gusts":32.8,"aqi":128,"pm10":35.7,"pm2_5":28.8,"mosquito_risk":4,"arthritis_risk":5,"migraine_risk":7,"frizz_risk":1,"updated_at":"2026-03-25T20:33:19.256266+05:30"},{"city":"Ahmedabad","state":"Gujarat","latitude":23.0225,"longitude":72.5714,"temp":30.7,"humidity":37,"rain":0.0,"pressure":1002.5,"uv_index":7.85,"wind_gusts":22.3,"aqi":77,"pm10":45.3,"pm2_5":32.5,"mosquito_risk":0,"arthritis_risk":5,"migraine_risk":4,"frizz_risk":0,"updated_at":"2026-03-25T20:33:19.256273+05:30"},{"city":"Jaipur","state":"Rajasthan","latitude":26.9124,"longitude":75.7873,"temp":26.5,"humidity":46,"rain":0.0,"pressure":962.0,"uv_index":7.35,"wind_gusts":27.7,"aqi":113,"pm10":77.5,"pm2_5":34.0,"mosquito_risk":4,"arthritis_risk":5,"migraine_risk":7,"frizz_risk":0,"updated_at":"2026-03-25T20:33:19.256281+05:30"},{"city":"Lucknow","state":"Uttar Pradesh","latitude":26.8467,"longitude":80.9462,"temp":25.7,"humidity":44,"rain":0.0,"pressure":995.8,"uv_index":7.1,"wind_gusts":37.1,"aqi":115,"pm10":221.7,"pm2_5":54.2,"mosquito_risk":4,"arthritis_risk":5,"migraine_risk":7,"frizz_risk":0,"updated_at":"2026-03-25T20:33:19.256288+05:30"},{"city":"Kanpur","state":"Uttar Pradesh","latitude":26.4499,"longitude":80.3319,"temp":24.8,"humidity":61,"rain":0.0,"pressure":994.1,"uv_index":7.15,"wind_gusts":29.2,"aqi":165,"pm10":302.7,"pm2_5":62.2,"mosquito_risk":3,"arthritis_risk":5,"migraine_risk":7,"frizz_risk":1,"updated_at":"2026-03-25T20:33:19.256295+05:30"},{"city":"Chandigarh","state":"Chandigarh","latitude":30.7333,"longitude":76.7794,"temp":20.7,"humidity":70,"rain":0.0,"pressure":971.3,"uv_index":6.55,"wind_gusts":29.9,"aqi":135,"pm10":40.2,"pm2_5":34.8,"mosquito_risk":3,"arthritis_risk":5,"migraine_risk":7,"frizz_risk":0,"updated_at":"2026-03-25T20:33:19.256303+05:30"},{"city":"Srinagar","state":"Jammu and Kashmir","latitude":34.0837,"longitude":74.7973,"temp":13.6,"humidity":63,"rain":0.0,"pressure":840.9,"uv_index":7.65,"wind_gusts":13.3,"aqi":101,"pm10":63.6,"pm2_5":48.3,"mosquito_risk":3,"arthritis_risk":5,"migraine_risk":7,"frizz_risk":0,"updated_at":"2026-03-25T20:33:19.256310+05:30"},{"city":"Jammu","state":"Jammu and Kashmir","latitude":32.7266,"longitude":74.857,"temp":22.5,"humidity":73,"rain":0.0,"pressure":975.6,"uv_index":6.9,"wind_gusts":18.7,"aqi":105,"pm10":49.9,"pm2_5":40.5,"mosquito_risk":3,"arthritis_risk":5,"migraine_risk":7,"frizz_risk":1,"updated_at":"2026-03-25T20:33:19.256317+05:30"},{"city":"Amritsar","state":"Punjab","latitude":31.634,"longitude":74.8723,"temp":22.4,"humidity":69,"rain":0.0,"pressure":983.6,"uv_index":6.85,"wind_gusts":27.7,"aqi":144,"pm10":44.4,"pm2_5":38.6,"mosquito_risk":3,"arthritis_risk":5,"migraine_risk":7,"frizz_risk":1,"updated_at":"2026-03-25T20:33:19.256323+05:30"},{"city":"Ludhiana","state":"Punjab","latitude":30.901,"longitude":75.8573,"temp":23.5,"humidity":63,"rain":0.0,"pressure":981.8,"uv_index":6.6,"wind_gusts":23.8,"aqi":119,"pm10":86.1,"pm2_5":57.4,"mosquito_risk":3,"arthritis_risk":5,"migraine_risk":7,"frizz_risk":0,"updated_at":"2026-03-25T20:33:19.256330+05:30"},{"city":"Jalandhar","state":"Punjab","latitude":31.326,"longitude":75.5762,"temp":23.1,"humidity":70,"rain":0.0,"pressure":983.1,"uv_index":6.75,"wind_gusts":22.0,"aqi":118,"pm10":64.3,"pm2_5":45.3,"mosquito_risk":3,"arthritis_risk":5,"migraine_risk":7,"frizz_risk":1,"updated_at":"2026-03-25T20:33:19.256338+05:30"},{"city":"Dehradun","state":"Uttarakhand","latitude":30.6284,"longitude":78.0322,"temp":14.2,"humidity":81,"rain":0.0,"pressure":830.4,"uv_index":7.0,"wind_gusts":23.8,"aqi":135,"pm10":34.6,"pm2_5":26.3,"mosquito_risk":3,"arthritis_risk":10,"migraine_risk":7,"frizz_risk":0,"updated_at":"2026-03-25T20:33:19.256345+05:30"},{"city":"Shimla","state":"Himachal Pradesh","latitude":31.1048,"longitude":77.1734,"temp":11.6,"humidity":78,"rain":0.0,"pressure":784.4,"uv_index":7.05,"wind_gusts":42.8,"aqi":126,"pm10":33.3,"pm2_5":24.7,"mosquito_risk":3,"arthritis_risk":5,"migraine_risk":7,"frizz_risk":0,"updated_at":"2026-03-25T20:33:19.256352+05:30"},{"city":"Manali","state":"Himachal Pradesh","latitude":32.2396,"longitude":77.1887,"temp":14.6,"humidity":87,"rain":0.0,"pressure":820.0,"uv_index":9.05,"wind_gusts":30.6,"aqi":159,"pm10":23.7,"pm2_5":13.2,"mosquito_risk":3,"arthritis_risk":10,"migraine_risk":7,"frizz_risk":0,"updated_at":"2026-03-25T20:33:19.256359+05:30"},{"city":"Gurgaon","state":"Haryana","latitude":28.4595,"longitude":77.0266,"temp":24.1,"humidity":59,"rain":0.0,"pressure":983.7,"uv_index":6.3,"wind_gusts":24.1,"aqi":562,"pm10":336.2,"pm2_5":82.9,"mosquito_risk":0,"arthritis_risk":5,"migraine_risk":7,"frizz_risk":0,"updated_at":"2026-03-25T20:33:19.256366+05:30"},{"city":"Noida","state":"Uttar Pradesh","latitude":28.5355,"longitude":77.391,"temp":25.1,"humidity":56,"rain":0.0,"pressure":986.9,"uv_index":6.35,"wind_gusts":27.4,"aqi":562,"pm10":336.2,"pm2_5":82.9,"mosquito_risk":4,"arthritis_risk":5,"migraine_risk":7,"frizz_risk":0,"updated_at":"2026-03-25T20:33:19.256373+05:30"},{"city":"Ghaziabad","state":"Uttar Pradesh","latitude":28.6692,"longitude":77.4538,"temp":23.9,"humidity":60,"rain":0.0,"pressure":985.1,"uv_index":6.4,"wind_gusts":28.4,"aqi":149,"pm10":259.8,"pm2_5":65.0,"mosquito_risk":0,"arthritis_risk":5,"migraine_risk":7,"frizz_risk":0,"updated_at":"2026-03-25T20:33:19.256379+05:30"},{"city":"Faridabad","state":"Haryana","latitude":28.4089,"longitude":77.3178,"temp":24.2,"humidity":56,"rain":0.0,"pressure":986.1,"uv_index":6.35,"wind_gusts":25.6,"aqi":562,"pm10":336.2,"pm2_5":82.9,"mosquito_risk":0,"arthritis_risk":5,"migraine_risk":7,"frizz_risk":0,"updated_at":"2026-03-25T20:33:19.256386+05:30"},{"city":"Meerut","state":"Uttar Pradesh","latitude":28.9845,"longitude":77.7064,"temp":22.0,"humidity":64,"rain":0.0,"pressure":983.7,"uv_index":6.5,"wind_gusts":32.0,"aqi":149,"pm10":259.8,"pm2_5":65.0,"mosquito_risk":3,"arthritis_risk":5,"migraine_risk":7,"frizz_risk":0,"updated_at":"2026-03-25T20:33:19.256392+05:30"},{"city":"Agra","state":"Uttar Pradesh","latitude":27.1767,"longitude":78.0081,"temp":25.7,"humidity":48,"rain":0.0,"pressure":990.1,"uv_index":7.0,"wind_gusts":31.7,"aqi":440,"pm10":347.4,"pm2_5":82.9,"mosquito_risk":4,"arthritis_risk":5,"migraine_risk":7,"frizz_risk":0,"updated_at":"2026-03-25T20:33:19.256399+05:30"},{"city":"Varanasi","state":"Uttar Pradesh","latitude":25.3176,"longitude":82.9739,"temp":24.5,"humidity":43,"rain":0.0,"pressure":999.8,"uv_index":7.8,"wind_gusts":30.6,"aqi":129,"pm10":78.5,"pm2_5":34.8,"mosquito_risk":0,"arthritis_risk":5,"migraine_risk":7,"frizz_risk":0,"updated_at":"2026-03-25T20:33:19.256408+05:30"},{"city":"Prayagraj","state":"Uttar Pradesh","latitude":25.4358,"longitude":81.8463,"temp":26.0,"humidity":42,"rain":0.0,"pressure":998.3,"uv_index":7.65,"wind_gusts":25.2,"aqi":119,"pm10":73.1,"pm2_5":30.3,"mosquito_risk":4,"arthritis_risk":5,"migraine_risk":7,"frizz_risk":0,"updated_at":"2026-03-25T20:33:19.256417+05:30"},{"city":"Gorakhpur","state":"Uttar Pradesh","latitude":26.7606,"longitude":83.3732,"temp":23.6,"humidity":43,"rain":0.0,"pressure":998.9,"uv_index":7.5,"wind_gusts":27.7,"aqi":122,"pm10":34.6,"pm2_5":29.3,"mosquito_risk":0,"arthritis_risk":5,"migraine_risk":7,"frizz_risk":0,"updated_at":"2026-03-25T20:33:19.256426+05:30"},{"city":"Bareilly","state":"Uttar Pradesh","latitude":28.367,"longitude":79.4304,"temp":22.7,"humidity":69,"rain":0.0,"pressure":988.9,"uv_index":6.85,"wind_gusts":28.8,"aqi":127,"pm10":115.5,"pm2_5":47.7,"mosquito_risk":3,"arthritis_risk":5,"migraine_risk":7,"frizz_risk":1,"updated_at":"2026-03-25T20:33:19.256434+05:30"},{"city":"Aligarh","state":"Uttar Pradesh","latitude":27.8974,"longitude":78.088,"temp":22.8,"humidity":58,"rain":0.0,"pressure":987.8,"uv_index":6.75,"wind_gusts":29.9,"aqi":395,"pm10":468.5,"pm2_5":86.1,"mosquito_risk":0,"arthritis_risk":5,"migraine_risk":7,"frizz_risk":0,"updated_at":"2026-03-25T20:33:19.256440+05:30"},{"city":"Moradabad","state":"Uttar Pradesh","latitude":28.8386,"longitude":78.7733,"temp":22.2,"humidity":64,"rain":0.0,"pressure":985.7,"uv_index":6.55,"wind_gusts":29.9,"aqi":113,"pm10":81.7,"pm2_5":51.7,"mosquito_risk":3,"arthritis_risk":5,"migraine_risk":7,"frizz_risk":0,"updated_at":"2026-03-25T20:33:19.256446+05:30"},{"city":"Saharanpur","state":"Uttar Pradesh","latitude":29.9637,"longitude":77.546,"temp":20.8,"humidity":59,"rain":0.0,"pressure":977.6,"uv_index":6.3,"wind_gusts":31.3,"aqi":117,"pm10":246.8,"pm2_5":54.8,"mosquito_risk":0,"arthritis_risk":5,"migraine_risk":7,"frizz_risk":0,"updated_at":"2026-03-25T20:33:19.256452+05:30"},{"city":"Jhansi","state":"Uttar Pradesh","latitude":25.4484,"longitude":78.5685,"temp":27.5,"humidity":38,"rain":0.0,"pressure":980.5,"uv_index":7.65,"wind_gusts":32.4,"aqi":116,"pm10":99.0,"pm2_5":28.0,"mosquito_risk":4,"arthritis_risk":5,"migraine_risk":7,"frizz_risk":0,"updated_at":"2026-03-25T20:33:22.616835+05:30"},{"city":"Surat","state":"Gujarat","latitude":21.1702,"longitude":72.8311,"temp":27.5,"humidity":72,"rain":0.0,"pressure":1007.0,"uv_index":7.7,"wind_gusts":24.1,"aqi":93,"pm10":66.1,"pm2_5":60.5,"mosquito_risk":7,"arthritis_risk":5,"migraine_risk":4,"frizz_risk":1,"updated_at":"2026-03-25T20:33:22.616864+05:30"},{"city":"Vadodara","state":"Gujarat","latitude":22.3072,"longitude":73.1812,"temp":30.2,"humidity":46,"rain":0.0,"pressure":1004.4,"uv_index":7.5,"wind_gusts":18.0,"aqi":115,"pm10":48.0,"pm2_5":38.6,"mosquito_risk":0,"arthritis_risk":5,"migraine_risk":4,"frizz_risk":1,"updated_at":"2026-03-25T20:33:22.616874+05:30"},{"city":"Rajkot","state":"Gujarat","latitude":22.3039,"longitude":70.8022,"temp":28.8,"humidity":43,"rain":0.0,"pressure":995.2,"uv_index":7.7,"wind_gusts":31.3,"aqi":60,"pm10":27.5,"pm2_5":16.4,"mosquito_risk":4,"arthritis_risk":5,"migraine_risk":7,"frizz_risk":0,"updated_at":"2026-03-25T20:33:22.616882+05:30"},{"city":"Thane","state":"Maharashtra","latitude":19.2183,"longitude":72.9781,"temp":27.6,"humidity":73,"rain":0.0,"pressure":1007.8,"uv_index":7.95,"wind_gusts":34.9,"aqi":115,"pm10":39.0,"pm2_5":29.8,"mosquito_risk":7,"arthritis_risk":5,"migraine_risk":4,"frizz_risk":1,"updated_at":"2026-03-25T20:33:22.616890+05:30"},{"city":"Nagpur","state":"Maharashtra","latitude":21.1458,"longitude":79.0882,"temp":28.7,"humidity":48,"rain":0.0,"pressure":973.9,"uv_index":8.4,"wind_gusts":20.5,"aqi":106,"pm10":29.7,"pm2_5":22.5,"mosquito_risk":4,"arthritis_risk":5,"migraine_risk":7,"frizz_risk":1,"updated_at":"2026-03-25T20:33:22.616897+05:30"},{"city":"Nashik","state":"Maharashtra","latitude":19.9975,"longitude":73.7898,"temp":28.0,"humidity":45,"rain":0.0,"pressure":946.3,"uv_index":8.15,"wind_gusts":26.6,"aqi":82,"pm10":36.7,"pm2_5":25.8,"mosquito_risk":4,"arthritis_risk":5,"migraine_risk":7,"frizz_risk":0,"updated_at":"2026-03-25T20:33:22.616904+05:30"},{"city":"Aurangabad","state":"Maharashtra","latitude":19.8762,"longitude":75.3433,"temp":29.6,"humidity":32,"rain":0.0,"pressure":944.8,"uv_index":8.7,"wind_gusts":32.8,"aqi":68,"pm10":22.4,"pm2_5":17.0,"mosquito_risk":4,"arthritis_risk":5,"migraine_risk":7,"frizz_risk":0,"updated_at":"2026-03-25T20:33:22.616912+05:30"},{"city":"Solapur","state":"Maharashtra","latitude":17.6599,"longitude":75.9064,"temp":27.6,"humidity":59,"rain":0.0,"pressure":957.6,"uv_index":8.85,"wind_gusts":29.2,"aqi":139,"pm10":39.8,"pm2_5":33.2,"mosquito_risk":4,"arthritis_risk":5,"migraine_risk":7,"frizz_risk":1,"updated_at":"2026-03-25T20:33:22.616919+05:30"},{"city":"Kolhapur","state":"Maharashtra","latitude":16.705,"longitude":74.2433,"temp":25.6,"humidity":77,"rain":0.0,"pressure":948.6,"uv_index":8.95,"wind_gusts":38.2,"aqi":133,"pm10":58.0,"pm2_5":53.9,"mosquito_risk":7,"arthritis_risk":5,"migraine_risk":7,"frizz_risk":1,"updated_at":"2026-03-25T20:33:22.616926+05:30"},{"city":"Goa","state":"Goa","latitude":15.2993,"longitude":74.124,"temp":28.4,"humidity":75,"rain":0.0,"pressure":998.1,"uv_index":8.95,"wind_gusts":29.9,"aqi":113,"pm10":46.8,"pm2_5":34.2,"mosquito_risk":7,"arthritis_risk":5,"migraine_risk":7,"frizz_risk":1,"updated_at":"2026-03-25T20:33:22.616933+05:30"},{"city":"Jodhpur","state":"Rajasthan","latitude":26.2389,"longitude":73.0243,"temp":29.8,"humidity":32,"rain":0.0,"pressure":983.9,"uv_index":7.45,"wind_gusts":26.6,"aqi":66,"pm10":119.2,"pm2_5":22.4,"mosquito_risk":4,"arthritis_risk":5,"migraine_risk":7,"frizz_risk":0,"updated_at":"2026-03-25T20:33:22.616940+05:30"},{"city":"Udaipur","state":"Rajasthan","latitude":24.5854,"longitude":73.7125,"temp":26.8,"humidity":42,"rain":0.0,"pressure":948.3,"uv_index":7.95,"wind_gusts":25.6,"aqi":55,"pm10":16.2,"pm2_5":9.1,"mosquito_risk":4,"arthritis_risk":5,"migraine_risk":7,"frizz_risk":0,"updated_at":"2026-03-25T20:33:22.616947+05:30"},{"city":"Kota","state":"Rajasthan","latitude":25.2138,"longitude":75.8648,"temp":28.1,"humidity":45,"rain":0.0,"pressure":980.8,"uv_index":7.7,"wind_gusts":17.3,"aqi":121,"pm10":40.6,"pm2_5":30.9,"mosquito_risk":4,"arthritis_risk":5,"migraine_risk":7,"frizz_risk":0,"updated_at":"2026-03-25T20:33:22.616953+05:30"},{"city":"Bikaner","state":"Rajasthan","latitude":28.0229,"longitude":73.3119,"temp":30.0,"humidity":27,"rain":0.0,"pressure":982.9,"uv_index":6.65,"wind_gusts":31.0,"aqi":75,"pm10":27.4,"pm2_5":10.9,"mosquito_risk":4,"arthritis_risk":5,"migraine_risk":7,"frizz_risk":0,"updated_at":"2026-03-25T20:33:22.616960+05:30"},{"city":"Ajmer","state":"Rajasthan","latitude":26.4499,"longitude":74.6399,"temp":27.5,"humidity":40,"rain":0.0,"pressure":956.3,"uv_index":7.5,"wind_gusts":28.8,"aqi":95,"pm10":42.6,"pm2_5":20.5,"mosquito_risk":4,"arthritis_risk":5,"migraine_risk":7,"frizz_risk":0,"updated_at":"2026-03-25T20:33:22.616967+05:30"},{"city":"Gwalior","state":"Madhya Pradesh","latitude":26.2183,"longitude":78.1828,"temp":27.2,"humidity":49,"rain":0.0,"pressure":985.7,"uv_index":7.25,"wind_gusts":29.9,"aqi":170,"pm10":74.7,"pm2_5":24.2,"mosquito_risk":4,"arthritis_risk":5,"migraine_risk":7,"frizz_risk":0,"updated_at":"2026-03-25T20:33:22.616973+05:30"},{"city":"Indore","state":"Madhya Pradesh","latitude":22.7196,"longitude":75.8577,"temp":27.0,"humidity":44,"rain":0.0,"pressure":949.1,"uv_index":8.15,"wind_gusts":23.0,"aqi":96,"pm10":40.2,"pm2_5":30.9,"mosquito_risk":4,"arthritis_risk":5,"migraine_risk":7,"frizz_risk":0,"updated_at":"2026-03-25T20:33:22.616979+05:30"},{"city":"Bhopal","state":"Madhya Pradesh","latitude":23.2599,"longitude":77.4126,"temp":27.4,"humidity":40,"rain":0.0,"pressure":955.3,"uv_index":8.05,"wind_gusts":22.0,"aqi":87,"pm10":29.8,"pm2_5":20.9,"mosquito_risk":4,"arthritis_risk":5,"migraine_risk":7,"frizz_risk":0,"updated_at":"2026-03-25T20:33:22.616985+05:30"},{"city":"Jabalpur","state":"Madhya Pradesh","latitude":23.1815,"longitude":79.9864,"temp":27.8,"humidity":40,"rain":0.0,"pressure":963.3,"uv_index":8.2,"wind_gusts":30.2,"aqi":86,"pm10":49.0,"pm2_5":26.5,"mosquito_risk":4,"arthritis_risk":5,"migraine_risk":7,"frizz_risk":0,"updated_at":"2026-03-25T20:33:22.616992+05:30"},{"city":"Ujjain","state":"Madhya Pradesh","latitude":23.1765,"longitude":75.7885,"temp":27.0,"humidity":45,"rain":0.0,"pressure":954.8,"uv_index":8.05,"wind_gusts":17.6,"aqi":79,"pm10":46.3,"pm2_5":34.8,"mosquito_risk":4,"arthritis_risk":5,"migraine_risk":7,"frizz_risk":0,"updated_at":"2026-03-25T20:33:22.616999+05:30"},{"city":"Visakhapatnam","state":"Andhra Pradesh","latitude":17.6868,"longitude":83.2185,"temp":26.8,"humidity":79,"rain":0.0,"pressure":1006.4,"uv_index":8.9,"wind_gusts":38.5,"aqi":68,"pm10":32.8,"pm2_5":22.8,"mosquito_risk":7,"arthritis_risk":5,"migraine_risk":4,"frizz_risk":1,"updated_at":"2026-03-25T20:33:22.617007+05:30"},{"city":"Vijayawada","state":"Andhra Pradesh","latitude":16.5062,"longitude":80.648,"temp":27.7,"humidity":70,"rain":0.0,"pressure":1004.3,"uv_index":9.0,"wind_gusts":24.5,"aqi":59,"pm10":21.8,"pm2_5":17.6,"mosquito_risk":7,"arthritis_risk":5,"migraine_risk":4,"frizz_risk":1,"updated_at":"2026-03-25T20:33:22.617013+05:30"},{"city":"Guntur","state":"Andhra Pradesh","latitude":16.3067,"longitude":80.4365,"temp":26.4,"humidity":80,"rain":0.0,"pressure":1005.5,"uv_index":9.0,"wind_gusts":24.8,"aqi":56,"pm10":24.7,"pm2_5":20.5,"mosquito_risk":7,"arthritis_risk":5,"migraine_risk":4,"frizz_risk":1,"updated_at":"2026-03-25T20:33:22.617020+05:30"},{"city":"Nellore","state":"Andhra Pradesh","latitude":14.4426,"longitude":79.9865,"temp":26.3,"humidity":81,"rain":0.0,"pressure":1007.7,"uv_index":9.1,"wind_gusts":29.5,"aqi":83,"pm10":21.1,"pm2_5":13.3,"mosquito_risk":7,"arthritis_risk":5,"migraine_risk":4,"frizz_risk":1,"updated_at":"2026-03-25T20:33:22.617027+05:30"},{"city":"Kurnool","state":"Andhra Pradesh","latitude":15.8281,"longitude":78.0373,"temp":30.8,"humidity":50,"rain":0.0,"pressure":977.8,"uv_index":8.65,"wind_gusts":24.1,"aqi":109,"pm10":55.5,"pm2_5":42.6,"mosquito_risk":0,"arthritis_risk":5,"migraine_risk":7,"frizz_risk":1,"updated_at":"2026-03-25T20:33:22.617035+05:30"},{"city":"Kakinada","state":"Andhra Pradesh","latitude":16.9891,"longitude":82.2475,"temp":26.5,"humidity":79,"rain":0.0,"pressure":1009.7,"uv_index":8.95,"wind_gusts":28.4,"aqi":54,"pm10":25.8,"pm2_5":14.9,"mosquito_risk":7,"arthritis_risk":0,"migraine_risk":4,"frizz_risk":1,"updated_at":"2026-03-25T20:33:22.617041+05:30"},{"city":"Tirupati","state":"Andhra Pradesh","latitude":13.6288,"longitude":79.4192,"temp":27.7,"humidity":70,"rain":0.0,"pressure":993.2,"uv_index":9.2,"wind_gusts":28.8,"aqi":107,"pm10":25.3,"pm2_5":21.7,"mosquito_risk":7,"arthritis_risk":5,"migraine_risk":7,"frizz_risk":1,"updated_at":"2026-03-25T20:33:22.617047+05:30"},{"city":"Warangal","state":"Telangana","latitude":17.9689,"longitude":79.5941,"temp":28.4,"humidity":66,"rain":0.0,"pressure":979.7,"uv_index":8.7,"wind_gusts":24.8,"aqi":98,"pm10":45.2,"pm2_5":38.9,"mosquito_risk":7,"arthritis_risk":5,"migraine_risk":7,"frizz_risk":1,"updated_at":"2026-03-25T20:33:22.617054+05:30"},{"city":"Nizamabad","state":"Telangana","latitude":18.6725,"longitude":78.0941,"temp":29.4,"humidity":49,"rain":0.0,"pressure":965.4,"uv_index":8.75,"wind_gusts":33.5,"aqi":94,"pm10":54.0,"pm2_5":44.4,"mosquito_risk":4,"arthritis_risk":5,"migraine_risk":7,"frizz_risk":1,"updated_at":"2026-03-25T20:33:22.617061+05:30"},{"city":"Mysore","state":"Karnataka","latitude":12.2958,"longitude":76.6396,"temp":29.2,"humidity":44,"rain":0.0,"pressure":928.4,"uv_index":9.4,"wind_gusts":32.0,"aqi":122,"pm10":38.1,"pm2_5":32.6,"mosquito_risk":4,"arthritis_risk":5,"migraine_risk":7,"frizz_risk":0,"updated_at":"2026-03-25T20:33:22.617067+05:30"},{"city":"Mangalore","state":"Karnataka","latitude":12.9141,"longitude":74.856,"temp":29.6,"humidity":80,"rain":0.0,"pressure":1006.3,"uv_index":9.05,"wind_gusts":23.8,"aqi":125,"pm10":40.7,"pm2_5":33.9,"mosquito_risk":7,"arthritis_risk":5,"migraine_risk":4,"frizz_risk":1,"updated_at":"2026-03-25T20:33:22.617073+05:30"},{"city":"Hubli-Dharwad","state":"Karnataka","latitude":15.3647,"longitude":75.124,"temp":24.5,"humidity":80,"rain":0.0,"pressure":941.4,"uv_index":9.1,"wind_gusts":38.2,"aqi":132,"pm10":46.8,"pm2_5":40.3,"mosquito_risk":3,"arthritis_risk":5,"migraine_risk":7,"frizz_risk":1,"updated_at":"2026-03-25T20:33:22.617080+05:30"},{"city":"Belgaum","state":"Karnataka","latitude":15.8497,"longitude":74.4977,"temp":24.1,"humidity":79,"rain":0.0,"pressure":926.3,"uv_index":9.1,"wind_gusts":24.8,"aqi":139,"pm10":48.8,"pm2_5":40.2,"mosquito_risk":3,"arthritis_risk":5,"migraine_risk":7,"frizz_risk":1,"updated_at":"2026-03-25T20:33:25.965765+05:30"},{"city":"Coimbatore","state":"Tamil Nadu","latitude":11.0168,"longitude":76.9558,"temp":28.0,"humidity":61,"rain":0.0,"pressure":961.8,"uv_index":9.4,"wind_gusts":34.6,"aqi":96,"pm10":22.1,"pm2_5":18.9,"mosquito_risk":7,"arthritis_risk":5,"migraine_risk":7,"frizz_risk":1,"updated_at":"2026-03-25T20:33:25.965794+05:30"},{"city":"Madurai","state":"Tamil Nadu","latitude":9.9252,"longitude":78.1198,"temp":29.2,"humidity":59,"rain":0.0,"pressure":993.5,"uv_index":9.35,"wind_gusts":25.9,"aqi":81,"pm10":15.7,"pm2_5":13.6,"mosquito_risk":4,"arthritis_risk":5,"migraine_risk":7,"frizz_risk":1,"updated_at":"2026-03-25T20:33:25.965804+05:30"},{"city":"Trichy","state":"Tamil Nadu","latitude":10.7905,"longitude":78.7047,"temp":27.8,"humidity":72,"rain":0.0,"pressure":1000.6,"uv_index":9.3,"wind_gusts":23.0,"aqi":96,"pm10":18.9,"pm2_5":17.0,"mosquito_risk":7,"arthritis_risk":5,"migraine_risk":4,"frizz_risk":1,"updated_at":"2026-03-25T20:33:25.965812+05:30"},{"city":"Salem","state":"Tamil Nadu","latitude":11.6643,"longitude":78.146,"temp":29.5,"humidity":52,"rain":0.0,"pressure":977.5,"uv_index":9.35,"wind_gusts":31.7,"aqi":133,"pm10":29.3,"pm2_5":25.6,"mosquito_risk":4,"arthritis_risk":5,"migraine_risk":7,"frizz_risk":1,"updated_at":"2026-03-25T20:33:25.965819+05:30"},{"city":"Tirunelveli","state":"Tamil Nadu","latitude":8.7139,"longitude":77.7567,"temp":28.3,"humidity":65,"rain":0.0,"pressure":1003.8,"uv_index":9.3,"wind_gusts":40.3,"aqi":69,"pm10":10.4,"pm2_5":8.7,"mosquito_risk":7,"arthritis_risk":5,"migraine_risk":4,"frizz_risk":1,"updated_at":"2026-03-25T20:33:25.965827+05:30"},{"city":"Vellore","state":"Tamil Nadu","latitude":12.9165,"longitude":79.1325,"temp":27.4,"humidity":66,"rain":0.0,"pressure":985.8,"uv_index":9.3,"wind_gusts":31.7,"aqi":105,"pm10":20.2,"pm2_5":17.2,"mosquito_risk":7,"arthritis_risk":5,"migraine_risk":7,"frizz_risk":1,"updated_at":"2026-03-25T20:33:25.965834+05:30"},{"city":"Erode","state":"Tamil Nadu","latitude":11.341,"longitude":77.7172,"temp":30.9,"humidity":48,"rain":0.0,"pressure":988.9,"uv_index":9.3,"wind_gusts":28.1,"aqi":105,"pm10":22.6,"pm2_5":19.5,"mosquito_risk":0,"arthritis_risk":5,"migraine_risk":7,"frizz_risk":1,"updated_at":"2026-03-25T20:33:25.965841+05:30"},{"city":"Kochi","state":"Kerala","latitude":9.9312,"longitude":76.2673,"temp":29.5,"humidity":76,"rain":0.0,"pressure":1008.1,"uv_index":9.15,"wind_gusts":33.1,"aqi":126,"pm10":36.2,"pm2_5":30.2,"mosquito_risk":7,"arthritis_risk":0,"migraine_risk":4,"frizz_risk":1,"updated_at":"2026-03-25T20:33:25.965848+05:30"},{"city":"Thiruvananthapuram","state":"Kerala","latitude":8.5241,"longitude":76.9366,"temp":29.4,"humidity":77,"rain":0.0,"pressure":1007.8,"uv_index":9.2,"wind_gusts":31.3,"aqi":116,"pm10":16.3,"pm2_5":11.8,"mosquito_risk":7,"arthritis_risk":5,"migraine_risk":4,"frizz_risk":1,"updated_at":"2026-03-25T20:33:25.965855+05:30"},{"city":"Kozhikode","state":"Kerala","latitude":11.2588,"longitude":75.7804,"temp":29.6,"humidity":78,"rain":0.0,"pressure":1007.0,"uv_index":9.1,"wind_gusts":28.4,"aqi":97,"pm10":42.0,"pm2_5":29.9,"mosquito_risk":7,"arthritis_risk":5,"migraine_risk":4,"frizz_risk":1,"updated_at":"2026-03-25T20:33:25.965862+05:30"},{"city":"Thrissur","state":"Kerala","latitude":10.5276,"longitude":76.2144,"temp":28.8,"humidity":80,"rain":0.0,"pressure":1006.5,"uv_index":9.15,"wind_gusts":39.2,"aqi":105,"pm10":38.1,"pm2_5":31.5,"mosquito_risk":7,"arthritis_risk":5,"migraine_risk":4,"frizz_risk":1,"updated_at":"2026-03-25T20:33:25.965869+05:30"},{"city":"Kannur","state":"Kerala","latitude":11.8745,"longitude":75.3704,"temp":29.6,"humidity":76,"rain":0.0,"pressure":1006.5,"uv_index":9.1,"wind_gusts":29.5,"aqi":106,"pm10":37.4,"pm2_5":28.9,"mosquito_risk":7,"arthritis_risk":5,"migraine_risk":4,"frizz_risk":1,"updated_at":"2026-03-25T20:33:25.965875+05:30"},{"city":"Patna","state":"Bihar","latitude":25.5941,"longitude":85.1376,"temp":27.3,"humidity":45,"rain":0.0,"pressure":1002.2,"uv_index":7.4,"wind_gusts":30.2,"aqi":114,"pm10":90.8,"pm2_5":57.0,"mosquito_risk":4,"arthritis_risk":5,"migraine_risk":4,"frizz_risk":0,"updated_at":"2026-03-25T20:33:25.965882+05:30"},{"city":"Gaya","state":"Bihar","latitude":24.7914,"longitude":85.0002,"temp":25.8,"humidity":45,"rain":0.0,"pressure":996.2,"uv_index":8.05,"wind_gusts":22.7,"aqi":111,"pm10":72.6,"pm2_5":41.2,"mosquito_risk":4,"arthritis_risk":5,"migraine_risk":7,"frizz_risk":0,"updated_at":"2026-03-25T20:33:25.965889+05:30"},{"city":"Muzaffarpur","state":"Bihar","latitude":26.1209,"longitude":85.3647,"temp":24.9,"humidity":59,"rain":0.0,"pressure":1002.2,"uv_index":7.9,"wind_gusts":24.1,"aqi":105,"pm10":99.4,"pm2_5":63.1,"mosquito_risk":0,"arthritis_risk":5,"migraine_risk":4,"frizz_risk":1,"updated_at":"2026-03-25T20:33:25.965896+05:30"},{"city":"Bhagalpur","state":"Bihar","latitude":25.2425,"longitude":87.0117,"temp":25.4,"humidity":58,"rain":0.0,"pressure":1003.7,"uv_index":8.0,"wind_gusts":24.1,"aqi":149,"pm10":75.7,"pm2_5":52.9,"mosquito_risk":4,"arthritis_risk":5,"migraine_risk":4,"frizz_risk":1,"updated_at":"2026-03-25T20:33:25.965903+05:30"},{"city":"Ranchi","state":"Jharkhand","latitude":23.3441,"longitude":85.3096,"temp":24.5,"humidity":41,"rain":0.0,"pressure":940.1,"uv_index":8.4,"wind_gusts":31.7,"aqi":89,"pm10":41.4,"pm2_5":24.0,"mosquito_risk":0,"arthritis_risk":5,"migraine_risk":7,"frizz_risk":0,"updated_at":"2026-03-25T20:33:25.965909+05:30"},{"city":"Jamshedpur","state":"Jharkhand","latitude":22.8046,"longitude":86.2029,"temp":28.5,"humidity":65,"rain":0.0,"pressure":993.0,"uv_index":8.55,"wind_gusts":30.2,"aqi":172,"pm10":72.2,"pm2_5":55.4,"mosquito_risk":7,"arthritis_risk":5,"migraine_risk":7,"frizz_risk":1,"updated_at":"2026-03-25T20:33:25.965916+05:30"},{"city":"Dhanbad","state":"Jharkhand","latitude":23.7957,"longitude":86.4304,"temp":27.9,"humidity":35,"rain":0.0,"pressure":982.4,"uv_index":8.45,"wind_gusts":27.0,"aqi":153,"pm10":96.4,"pm2_5":77.5,"mosquito_risk":4,"arthritis_risk":5,"migraine_risk":7,"frizz_risk":0,"updated_at":"2026-03-25T20:33:25.965923+05:30"},{"city":"Bokaro","state":"Jharkhand","latitude":23.6693,"longitude":86.1511,"temp":26.1,"humidity":44,"rain":0.0,"pressure":986.6,"uv_index":8.45,"wind_gusts":24.1,"aqi":148,"pm10":84.3,"pm2_5":65.4,"mosquito_risk":4,"arthritis_risk":5,"migraine_risk":7,"frizz_risk":0,"updated_at":"2026-03-25T20:33:25.965929+05:30"},{"city":"Bhubaneswar","state":"Odisha","latitude":20.2961,"longitude":85.8245,"temp":26.7,"humidity":84,"rain":0.0,"pressure":1005.7,"uv_index":8.75,"wind_gusts":28.1,"aqi":80,"pm10":36.1,"pm2_5":30.9,"mosquito_risk":7,"arthritis_risk":5,"migraine_risk":4,"frizz_risk":1,"updated_at":"2026-03-25T20:33:25.965936+05:30"},{"city":"Cuttack","state":"Odisha","latitude":20.4625,"longitude":85.8828,"temp":25.9,"humidity":85,"rain":0.0,"pressure":1007.7,"uv_index":8.8,"wind_gusts":27.4,"aqi":80,"pm10":36.1,"pm2_5":30.9,"mosquito_risk":7,"arthritis_risk":5,"migraine_risk":4,"frizz_risk":1,"updated_at":"2026-03-25T20:33:25.965943+05:30"},{"city":"Rourkela","state":"Odisha","latitude":22.2604,"longitude":84.8536,"temp":27.8,"humidity":66,"rain":0.0,"pressure":986.9,"uv_index":8.45,"wind_gusts":19.8,"aqi":126,"pm10":52.6,"pm2_5":39.6,"mosquito_risk":7,"arthritis_risk":5,"migraine_risk":7,"frizz_risk":1,"updated_at":"2026-03-25T20:33:25.965949+05:30"},{"city":"Raipur","state":"Chhattisgarh","latitude":21.2514,"longitude":81.6296,"temp":28.3,"humidity":54,"rain":0.0,"pressure":975.8,"uv_index":8.2,"wind_gusts":45.4,"aqi":146,"pm10":45.9,"pm2_5":39.2,"mosquito_risk":4,"arthritis_risk":5,"migraine_risk":7,"frizz_risk":1,"updated_at":"2026-03-25T20:33:25.965955+05:30"},{"city":"Bhilai","state":"Chhattisgarh","latitude":21.1938,"longitude":81.3509,"temp":27.8,"humidity":57,"rain":0.0,"pressure":976.1,"uv_index":8.2,"wind_gusts":40.0,"aqi":117,"pm10":52.7,"pm2_5":45.4,"mosquito_risk":4,"arthritis_risk":5,"migraine_risk":7,"frizz_risk":1,"updated_at":"2026-03-25T20:33:25.965962+05:30"},{"city":"Guwahati","state":"Assam","latitude":26.1158,"longitude":91.7086,"temp":23.5,"humidity":80,"rain":0.0,"pressure":1005.5,"uv_index":7.85,"wind_gusts":28.1,"aqi":116,"pm10":62.2,"pm2_5":49.7,"mosquito_risk":3,"arthritis_risk":5,"migraine_risk":4,"frizz_risk":1,"updated_at":"2026-03-25T20:33:25.965967+05:30"},{"city":"Agartala","state":"Tripura","latitude":23.8315,"longitude":91.2868,"temp":25.1,"humidity":79,"rain":0.0,"pressure":1009.5,"uv_index":8.15,"wind_gusts":27.4,"aqi":152,"pm10":52.3,"pm2_5":48.1,"mosquito_risk":7,"arthritis_risk":0,"migraine_risk":4,"frizz_risk":1,"updated_at":"2026-03-25T20:33:25.965974+05:30"},{"city":"Shillong","state":"Meghalaya","latitude":25.5788,"longitude":91.8933,"temp":11.7,"humidity":94,"rain":0.0,"pressure":857.2,"uv_index":8.25,"wind_gusts":67.0,"aqi":103,"pm10":57.3,"pm2_5":43.3,"mosquito_risk":3,"arthritis_risk":10,"migraine_risk":7,"frizz_risk":0,"updated_at":"2026-03-25T20:33:25.965981+05:30"},{"city":"Imphal","state":"Manipur","latitude":24.817,"longitude":93.9368,"temp":15.8,"humidity":84,"rain":0.0,"pressure":925.7,"uv_index":8.45,"wind_gusts":76.0,"aqi":120,"pm10":62.4,"pm2_5":48.1,"mosquito_risk":3,"arthritis_risk":10,"migraine_risk":7,"frizz_risk":0,"updated_at":"2026-03-25T20:33:25.965988+05:30"},{"city":"Aizawl","state":"Mizoram","latitude":23.7271,"longitude":92.7176,"temp":18.5,"humidity":71,"rain":0.0,"pressure":894.9,"uv_index":8.25,"wind_gusts":43.9,"aqi":114,"pm10":69.8,"pm2_5":47.6,"mosquito_risk":3,"arthritis_risk":5,"migraine_risk":7,"frizz_risk":0,"updated_at":"2026-03-25T20:33:25.965994+05:30"},{"city":"Kohima","state":"Nagaland","latitude":25.6701,"longitude":94.1077,"temp":13.6,"humidity":99,"rain":0.0,"pressure":856.5,"uv_index":7.8,"wind_gusts":76.7,"aqi":97,"pm10":58.0,"pm2_5":43.5,"mosquito_risk":3,"arthritis_risk":10,"migraine_risk":7,"frizz_risk":0,"updated_at":"2026-03-25T20:33:25.966000+05:30"},{"city":"Gangtok","state":"Sikkim","latitude":27.3314,"longitude":88.6138,"temp":13.3,"humidity":90,"rain":0.0,"pressure":838.3,"uv_index":8.1,"wind_gusts":18.7,"aqi":95,"pm10":44.0,"pm2_5":36.8,"mosquito_risk":3,"arthritis_risk":10,"migraine_risk":7,"frizz_risk":0,"updated_at":"2026-03-25T20:33:25.966006+05:30"},{"city":"Siliguri","state":"West Bengal","latitude":26.7271,"longitude":88.3953,"temp":20.5,"humidity":69,"rain":0.0,"pressure":996.8,"uv_index":7.8,"wind_gusts":25.2,"aqi":149,"pm10":82.0,"pm2_5":65.4,"mosquito_risk":3,"arthritis_risk":5,"migraine_risk":7,"frizz_risk":0,"updated_at":"2026-03-25T20:33:29.321583+05:30"},{"city":"Durgapur","state":"West Bengal","latitude":23.5204,"longitude":87.3119,"temp":27.0,"humidity":74,"rain":0.0,"pressure":997.8,"uv_index":8.4,"wind_gusts":22.7,"aqi":151,"pm10":83.1,"pm2_5":69.4,"mosquito_risk":7,"arthritis_risk":5,"migraine_risk":7,"frizz_risk":1,"updated_at":"2026-03-25T20:33:29.321612+05:30"},{"city":"Asansol","state":"West Bengal","latitude":23.6739,"longitude":86.9524,"temp":27.9,"humidity":67,"rain":0.0,"pressure":996.5,"uv_index":8.4,"wind_gusts":22.3,"aqi":131,"pm10":74.5,"pm2_5":58.6,"mosquito_risk":7,"arthritis_risk":5,"migraine_risk":7,"frizz_risk":1,"updated_at":"2026-03-25T20:33:29.321621+05:30"},{"city":"Pondicherry","state":"Puducherry","latitude":11.9139,"longitude":79.8145,"temp":25.0,"humidity":87,"rain":0.0,"pressure":1010.0,"uv_index":9.15,"wind_gusts":29.5,"aqi":40,"pm10":22.7,"pm2_5":13.6,"mosquito_risk":7,"arthritis_risk":0,"migraine_risk":4,"frizz_risk":1,"updated_at":"2026-03-25T20:33:29.321629+05:30"},{"city":"Port Blair","state":"Andaman and Nicobar Islands","latitude":11.6234,"longitude":92.7265,"temp":28.5,"humidity":75,"rain":0.0,"pressure":1008.4,"uv_index":9.1,"wind_gusts":25.2,"aqi":63,"pm10":17.1,"pm2_5":12.5,"mosquito_risk":7,"arthritis_risk":0,"migraine_risk":4,"frizz_risk":1,"updated_at":"2026-03-25T20:33:29.321636+05:30"},{"city":"Haridwar","state":"Uttarakhand","latitude":29.9457,"longitude":78.1642,"temp":22.2,"humidity":53,"rain":0.0,"pressure":976.4,"uv_index":6.45,"wind_gusts":25.2,"aqi":133,"pm10":102.7,"pm2_5":41.7,"mosquito_risk":0,"arthritis_risk":5,"migraine_risk":7,"frizz_risk":0,"updated_at":"2026-03-25T20:33:29.321644+05:30"},{"city":"Rishikesh","state":"Uttarakhand","latitude":30.0869,"longitude":78.2676,"temp":22.7,"humidity":63,"rain":0.0,"pressure":969.1,"uv_index":6.5,"wind_gusts":23.4,"aqi":136,"pm10":46.9,"pm2_5":30.4,"mosquito_risk":3,"arthritis_risk":5,"migraine_risk":7,"frizz_risk":0,"updated_at":"2026-03-25T20:33:29.321651+05:30"},{"city":"Nainital","state":"Uttarakhand","latitude":29.3919,"longitude":79.4542,"temp":16.6,"humidity":61,"rain":0.0,"pressure":806.8,"uv_index":7.35,"wind_gusts":27.7,"aqi":138,"pm10":34.6,"pm2_5":29.5,"mosquito_risk":3,"arthritis_risk":5,"migraine_risk":7,"frizz_risk":0,"updated_at":"2026-03-25T20:33:29.321658+05:30"},{"city":"Mussoorie","state":"Uttarakhand","latitude":30.4599,"longitude":78.0664,"temp":15.0,"humidity":70,"rain":0.0,"pressure":803.0,"uv_index":6.9,"wind_gusts":25.2,"aqi":143,"pm10":65.2,"pm2_5":39.1,"mosquito_risk":3,"arthritis_risk":5,"migraine_risk":7,"frizz_risk":0,"updated_at":"2026-03-25T20:33:29.321665+05:30"},{"city":"Dharamshala","state":"Himachal Pradesh","latitude":32.219,"longitude":76.3234,"temp":17.7,"humidity":72,"rain":0.0,"pressure":870.6,"uv_index":7.1,"wind_gusts":18.0,"aqi":123,"pm10":30.6,"pm2_5":21.8,"mosquito_risk":3,"arthritis_risk":5,"migraine_risk":7,"frizz_risk":0,"updated_at":"2026-03-25T20:33:29.321672+05:30"},{"city":"Dalhousie","state":"Himachal Pradesh","latitude":32.5387,"longitude":75.971,"temp":15.6,"humidity":77,"rain":0.0,"pressure":804.7,"uv_index":7.35,"wind_gusts":20.5,"aqi":125,"pm10":43.9,"pm2_5":36.3,"mosquito_risk":3,"arthritis_risk":5,"migraine_risk":7,"frizz_risk":0,"updated_at":"2026-03-25T20:33:29.321679+05:30"},{"city":"Patiala","state":"Punjab","latitude":30.3398,"longitude":76.3869,"temp":22.1,"humidity":68,"rain":0.0,"pressure":981.0,"uv_index":6.45,"wind_gusts":26.6,"aqi":126,"pm10":184.4,"pm2_5":57.6,"mosquito_risk":3,"arthritis_risk":5,"migraine_risk":7,"frizz_risk":0,"updated_at":"2026-03-25T20:33:29.321686+05:30"},{"city":"Bhatinda","state":"Punjab","latitude":30.211,"longitude":74.9455,"temp":23.9,"humidity":62,"rain":0.0,"pressure":986.1,"uv_index":6.35,"wind_gusts":22.3,"aqi":138,"pm10":60.1,"pm2_5":54.6,"mosquito_risk":3,"arthritis_risk":5,"migraine_risk":7,"frizz_risk":1,"updated_at":"2026-03-25T20:33:29.321692+05:30"},{"city":"Rohtak","state":"Haryana","latitude":28.8955,"longitude":76.6066,"temp":24.0,"humidity":59,"rain":0.0,"pressure":983.8,"uv_index":6.45,"wind_gusts":21.2,"aqi":253,"pm10":183.5,"pm2_5":69.2,"mosquito_risk":0,"arthritis_risk":5,"migraine_risk":7,"frizz_risk":0,"updated_at":"2026-03-25T20:33:29.321699+05:30"},{"city":"Panipat","state":"Haryana","latitude":29.3909,"longitude":76.9635,"temp":23.0,"humidity":62,"rain":0.0,"pressure":982.6,"uv_index":5.95,"wind_gusts":28.4,"aqi":453,"pm10":394.9,"pm2_5":84.3,"mosquito_risk":3,"arthritis_risk":5,"migraine_risk":3,"frizz_risk":0,"updated_at":"2026-03-25T20:33:29.321705+05:30"},{"city":"Mathura","state":"Uttar Pradesh","latitude":27.4924,"longitude":77.6737,"temp":24.7,"humidity":58,"rain":0.0,"pressure":989.2,"uv_index":6.85,"wind_gusts":20.9,"aqi":455,"pm10":285.9,"pm2_5":68.0,"mosquito_risk":0,"arthritis_risk":5,"migraine_risk":7,"frizz_risk":0,"updated_at":"2026-03-25T20:33:29.321712+05:30"},{"city":"Vrindavan","state":"Uttar Pradesh","latitude":27.5823,"longitude":77.7027,"temp":23.8,"humidity":59,"rain":0.0,"pressure":989.6,"uv_index":6.8,"wind_gusts":24.8,"aqi":455,"pm10":285.9,"pm2_5":68.0,"mosquito_risk":0,"arthritis_risk":5,"migraine_risk":7,"frizz_risk":0,"updated_at":"2026-03-25T20:33:29.321718+05:30"},{"city":"Ayodhya","state":"Uttar Pradesh","latitude":26.7922,"longitude":82.1998,"temp":24.5,"humidity":38,"rain":0.0,"pressure":997.3,"uv_index":7.3,"wind_gusts":35.3,"aqi":111,"pm10":45.3,"pm2_5":28.7,"mosquito_risk":0,"arthritis_risk":5,"migraine_risk":7,"frizz_risk":0,"updated_at":"2026-03-25T20:33:29.321724+05:30"},{"city":"Ratlam","state":"Madhya Pradesh","latitude":23.3315,"longitude":75.0367,"temp":27.5,"humidity":48,"rain":0.0,"pressure":955.6,"uv_index":8.05,"wind_gusts":24.5,"aqi":68,"pm10":38.9,"pm2_5":26.8,"mosquito_risk":4,"arthritis_risk":5,"migraine_risk":7,"frizz_risk":0,"updated_at":"2026-03-25T20:33:29.321731+05:30"},{"city":"Sagar","state":"Madhya Pradesh","latitude":23.8388,"longitude":78.7378,"temp":27.7,"humidity":41,"rain":0.0,"pressure":952.3,"uv_index":8.05,"wind_gusts":25.6,"aqi":84,"pm10":31.4,"pm2_5":12.3,"mosquito_risk":4,"arthritis_risk":5,"migraine_risk":7,"frizz_risk":0,"updated_at":"2026-03-25T20:33:29.321737+05:30"},{"city":"Satna","state":"Madhya Pradesh","latitude":24.6005,"longitude":80.8322,"temp":27.1,"humidity":37,"rain":0.0,"pressure":973.7,"uv_index":7.85,"wind_gusts":29.9,"aqi":101,"pm10":78.7,"pm2_5":22.5,"mosquito_risk":4,"arthritis_risk":5,"migraine_risk":7,"frizz_risk":0,"updated_at":"2026-03-25T20:33:29.321743+05:30"},{"city":"Akola","state":"Maharashtra","latitude":20.7002,"longitude":77.0082,"temp":29.3,"humidity":42,"rain":0.0,"pressure":975.4,"uv_index":8.45,"wind_gusts":23.8,"aqi":75,"pm10":21.5,"pm2_5":15.8,"mosquito_risk":4,"arthritis_risk":5,"migraine_risk":7,"frizz_risk":0,"updated_at":"2026-03-25T20:33:29.321750+05:30"},{"city":"Amravati","state":"Maharashtra","latitude":20.9374,"longitude":77.7796,"temp":29.8,"humidity":44,"rain":0.0,"pressure":967.8,"uv_index":8.45,"wind_gusts":22.7,"aqi":78,"pm10":27.8,"pm2_5":20.7,"mosquito_risk":4,"arthritis_risk":5,"migraine_risk":7,"frizz_risk":1,"updated_at":"2026-03-25T20:33:29.321756+05:30"},{"city":"Latur","state":"Maharashtra","latitude":18.4088,"longitude":76.5604,"temp":28.4,"humidity":45,"rain":0.0,"pressure":940.4,"uv_index":8.8,"wind_gusts":19.8,"aqi":105,"pm10":40.3,"pm2_5":31.9,"mosquito_risk":4,"arthritis_risk":5,"migraine_risk":7,"frizz_risk":0,"updated_at":"2026-03-25T20:33:29.321763+05:30"},{"city":"Nanded","state":"Maharashtra","latitude":19.1383,"longitude":77.3091,"temp":30.2,"humidity":39,"rain":0.0,"pressure":968.8,"uv_index":8.65,"wind_gusts":22.7,"aqi":93,"pm10":44.2,"pm2_5":34.5,"mosquito_risk":0,"arthritis_risk":5,"migraine_risk":7,"frizz_risk":0,"updated_at":"2026-03-25T20:33:29.321768+05:30"},{"city":"Gulbarga","state":"Karnataka","latitude":17.3297,"longitude":76.8343,"temp":26.4,"humidity":70,"rain":0.0,"pressure":959.9,"uv_index":8.85,"wind_gusts":26.3,"aqi":137,"pm10":41.0,"pm2_5":35.0,"mosquito_risk":7,"arthritis_risk":5,"migraine_risk":7,"frizz_risk":1,"updated_at":"2026-03-25T20:33:29.321774+05:30"},{"city":"Bidar","state":"Karnataka","latitude":17.9104,"longitude":77.5199,"temp":27.7,"humidity":56,"rain":0.0,"pressure":936.8,"uv_index":8.85,"wind_gusts":24.1,"aqi":105,"pm10":43.7,"pm2_5":36.8,"mosquito_risk":4,"arthritis_risk":5,"migraine_risk":7,"frizz_risk":1,"updated_at":"2026-03-25T20:33:29.321780+05:30"},{"city":"Hospet","state":"Karnataka","latitude":15.2689,"longitude":76.3909,"temp":27.9,"humidity":69,"rain":0.0,"pressure":956.6,"uv_index":9.05,"wind_gusts":21.2,"aqi":152,"pm10":48.4,"pm2_5":43.4,"mosquito_risk":7,"arthritis_risk":5,"migraine_risk":7,"frizz_risk":1,"updated_at":"2026-03-25T20:33:29.321786+05:30"},{"city":"Tirupur","state":"Tamil Nadu","latitude":11.1085,"longitude":77.3411,"temp":31.3,"humidity":39,"rain":0.0,"pressure":975.1,"uv_index":9.4,"wind_gusts":31.7,"aqi":108,"pm10":26.1,"pm2_5":22.2,"mosquito_risk":0,"arthritis_risk":5,"migraine_risk":7,"frizz_risk":0,"updated_at":"2026-03-25T20:33:29.321791+05:30"},{"city":"Alappuzha","state":"Kerala","latitude":9.4981,"longitude":76.3388,"temp":29.4,"humidity":78,"rain":0.0,"pressure":1008.4,"uv_index":9.15,"wind_gusts":29.2,"aqi":121,"pm10":35.6,"pm2_5":27.6,"mosquito_risk":7,"arthritis_risk":0,"migraine_risk":4,"frizz_risk":1,"updated_at":"2026-03-25T20:33:29.321797+05:30"},{"city":"Munnar","state":"Kerala","latitude":10.0889,"longitude":77.0595,"temp":24.2,"humidity":71,"rain":0.0,"pressure":857.8,"uv_index":9.65,"wind_gusts":30.6,"aqi":70,"pm10":28.9,"pm2_5":23.9,"mosquito_risk":3,"arthritis_risk":5,"migraine_risk":7,"frizz_risk":1,"updated_at":"2026-03-25T20:33:29.321804+05:30"},{"city":"Silchar","state":"Assam","latitude":24.8333,"longitude":92.7789,"temp":23.6,"humidity":85,"rain":0.0,"pressure":1008.5,"uv_index":8.15,"wind_gusts":36.0,"aqi":160,"pm10":114.3,"pm2_5":89.6,"mosquito_risk":3,"arthritis_risk":0,"migraine_risk":4,"frizz_risk":1,"updated_at":"2026-03-25T20:33:29.321811+05:30"},{"city":"Dibrugarh","state":"Assam","latitude":27.4728,"longitude":94.912,"temp":20.4,"humidity":82,"rain":0.0,"pressure":1000.9,"uv_index":6.95,"wind_gusts":27.4,"aqi":81,"pm10":31.1,"pm2_5":28.2,"mosquito_risk":3,"arthritis_risk":5,"migraine_risk":4,"frizz_risk":1,"updated_at":"2026-03-25T20:33:29.321817+05:30"}]