[{"city":"Delhi","state":"Delhi","latitude":28.6139,"longitude":77.209,"temp":38.5,"humidity":26,"rain":0.0,"pressure":979.7,"uv_index":7.65,"wind_gusts":27.0,"aqi":209,"pm10":319.4,"pm2_5":74.0,"no2":7.7,"co":436.0,"o3":257.0,"so2":26.3,"mosquito_risk":0,"arthritis_risk":5,"migraine_risk":10,"frizz_risk":0,"updated_at":"2026-05-11T16:56:50.248209+05:30"},{"city":"Mumbai","state":"Maharashtra","latitude":19.076,"longitude":72.8777,"temp":33.8,"humidity":49,"rain":0.0,"pressure":1002.9,"uv_index":7.9,"wind_gusts":54.7,"aqi":168,"pm10":48.4,"pm2_5":28.5,"no2":13.0,"co":278.0,"o3":148.0,"so2":10.0,"mosquito_risk":0,"arthritis_risk":5,"migraine_risk":4,"frizz_risk":1,"updated_at":"2026-05-11T16:56:50.248270+05:30"},{"city":"Bangalore","state":"Karnataka","latitude":12.9716,"longitude":77.5946,"temp":34.2,"humidity":21,"rain":0.0,"pressure":908.8,"uv_index":7.8,"wind_gusts":46.4,"aqi":104,"pm10":29.8,"pm2_5":15.6,"no2":8.0,"co":304.0,"o3":138.0,"so2":4.4,"mosquito_risk":0,"arthritis_risk":5,"migraine_risk":7,"frizz_risk":0,"updated_at":"2026-05-11T16:56:50.248288+05:30"},{"city":"Hyderabad","state":"Telangana","latitude":17.385,"longitude":78.4867,"temp":36.7,"humidity":23,"rain":0.0,"pressure":949.9,"uv_index":9.25,"wind_gusts":36.0,"aqi":64,"pm10":44.1,"pm2_5":20.7,"no2":3.1,"co":288.0,"o3":156.0,"so2":5.3,"mosquito_risk":0,"arthritis_risk":5,"migraine_risk":10,"frizz_risk":0,"updated_at":"2026-05-11T16:56:50.248322+05:30"},{"city":"Chennai","state":"Tamil Nadu","latitude":13.0827,"longitude":80.2707,"temp":30.9,"humidity":67,"rain":0.0,"pressure":1003.2,"uv_index":8.95,"wind_gusts":39.6,"aqi":25,"pm10":6.7,"pm2_5":4.4,"no2":2.3,"co":148.0,"o3":47.0,"so2":3.7,"mosquito_risk":3,"arthritis_risk":5,"migraine_risk":4,"frizz_risk":1,"updated_at":"2026-05-11T16:56:50.248340+05:30"},{"city":"Kolkata","state":"West Bengal","latitude":22.5726,"longitude":88.3639,"temp":30.0,"humidity":64,"rain":0.0,"pressure":1004.7,"uv_index":8.6,"wind_gusts":42.8,"aqi":148,"pm10":28.9,"pm2_5":21.8,"no2":6.7,"co":413.0,"o3":120.0,"so2":9.1,"mosquito_risk":7,"arthritis_risk":5,"migraine_risk":4,"frizz_risk":1,"updated_at":"2026-05-11T16:56:50.248353+05:30"},{"city":"Pune","state":"Maharashtra","latitude":18.5204,"longitude":73.8567,"temp":40.0,"humidity":12,"rain":0.0,"pressure":943.5,"uv_index":8.5,"wind_gusts":45.0,"aqi":123,"pm10":32.0,"pm2_5":12.7,"no2":1.7,"co":209.0,"o3":160.0,"so2":5.6,"mosquito_risk":0,"arthritis_risk":5,"migraine_risk":10,"frizz_risk":0,"updated_at":"2026-05-11T16:56:50.248364+05:30"},{"city":"Ahmedabad","state":"Gujarat","latitude":23.0225,"longitude":72.5714,"temp":44.6,"humidity":11,"rain":0.0,"pressure":996.3,"uv_index":8.15,"wind_gusts":33.5,"aqi":72,"pm10":45.4,"pm2_5":14.2,"no2":0.4,"co":203.0,"o3":141.0,"so2":2.9,"mosquito_risk":0,"arthritis_risk":5,"migraine_risk":10,"frizz_risk":0,"updated_at":"2026-05-11T16:56:50.248380+05:30"},{"city":"Jaipur","state":"Rajasthan","latitude":26.9124,"longitude":75.7873,"temp":38.5,"humidity":23,"rain":0.0,"pressure":957.0,"uv_index":8.2,"wind_gusts":30.6,"aqi":167,"pm10":163.9,"pm2_5":37.5,"no2":0.3,"co":289.0,"o3":168.0,"so2":9.6,"mosquito_risk":0,"arthritis_risk":5,"migraine_risk":10,"frizz_risk":0,"updated_at":"2026-05-11T16:56:50.248391+05:30"},{"city":"Lucknow","state":"Uttar Pradesh","latitude":26.8467,"longitude":80.9462,"temp":35.5,"humidity":32,"rain":0.0,"pressure":990.5,"uv_index":8.15,"wind_gusts":30.6,"aqi":154,"pm10":46.9,"pm2_5":27.8,"no2":2.8,"co":317.0,"o3":168.0,"so2":5.5,"mosquito_risk":0,"arthritis_risk":5,"migraine_risk":10,"frizz_risk":1,"updated_at":"2026-05-11T16:56:50.248402+05:30"},{"city":"Kanpur","state":"Uttar Pradesh","latitude":26.4499,"longitude":80.3319,"temp":36.7,"humidity":26,"rain":0.0,"pressure":988.4,"uv_index":8.15,"wind_gusts":37.4,"aqi":171,"pm10":153.7,"pm2_5":38.3,"no2":2.2,"co":300.0,"o3":186.0,"so2":6.9,"mosquito_risk":0,"arthritis_risk":5,"migraine_risk":10,"frizz_risk":0,"updated_at":"2026-05-11T16:56:50.248412+05:30"},{"city":"Chandigarh","state":"Chandigarh","latitude":30.7333,"longitude":76.7794,"temp":33.0,"humidity":39,"rain":0.0,"pressure":967.7,"uv_index":7.7,"wind_gusts":39.2,"aqi":194,"pm10":170.0,"pm2_5":53.8,"no2":2.5,"co":354.0,"o3":208.0,"so2":16.6,"mosquito_risk":0,"arthritis_risk":5,"migraine_risk":7,"frizz_risk":1,"updated_at":"2026-05-11T16:56:50.248422+05:30"},{"city":"Srinagar","state":"Jammu and Kashmir","latitude":34.0837,"longitude":74.7973,"temp":20.3,"humidity":60,"rain":0.0,"pressure":843.9,"uv_index":8.85,"wind_gusts":28.8,"aqi":116,"pm10":56.9,"pm2_5":23.7,"no2":2.8,"co":242.0,"o3":133.0,"so2":2.2,"mosquito_risk":0,"arthritis_risk":5,"migraine_risk":7,"frizz_risk":0,"updated_at":"2026-05-11T16:56:50.248433+05:30"},{"city":"Jammu","state":"Jammu and Kashmir","latitude":32.7266,"longitude":74.857,"temp":33.0,"humidity":34,"rain":0.0,"pressure":972.0,"uv_index":8.45,"wind_gusts":30.6,"aqi":157,"pm10":126.7,"pm2_5":47.6,"no2":2.1,"co":352.0,"o3":178.0,"so2":5.8,"mosquito_risk":0,"arthritis_risk":5,"migraine_risk":7,"frizz_risk":0,"updated_at":"2026-05-11T16:56:50.248443+05:30"},{"city":"Amritsar","state":"Punjab","latitude":31.634,"longitude":74.8723,"temp":34.3,"humidity":39,"rain":0.0,"pressure":979.5,"uv_index":8.35,"wind_gusts":29.9,"aqi":169,"pm10":320.4,"pm2_5":73.3,"no2":1.0,"co":375.0,"o3":195.0,"so2":11.9,"mosquito_risk":0,"arthritis_risk":5,"migraine_risk":7,"frizz_risk":1,"updated_at":"2026-05-11T16:56:50.248452+05:30"},{"city":"Ludhiana","state":"Punjab","latitude":30.901,"longitude":75.8573,"temp":34.7,"humidity":36,"rain":0.0,"pressure":976.8,"uv_index":7.9,"wind_gusts":30.2,"aqi":174,"pm10":384.6,"pm2_5":74.5,"no2":1.1,"co":353.0,"o3":191.0,"so2":9.6,"mosquito_risk":0,"arthritis_risk":5,"migraine_risk":7,"frizz_risk":1,"updated_at":"2026-05-11T16:56:50.248463+05:30"},{"city":"Jalandhar","state":"Punjab","latitude":31.326,"longitude":75.5762,"temp":33.0,"humidity":44,"rain":0.0,"pressure":978.4,"uv_index":8.1,"wind_gusts":25.6,"aqi":168,"pm10":300.8,"pm2_5":69.2,"no2":1.3,"co":369.0,"o3":183.0,"so2":10.5,"mosquito_risk":0,"arthritis_risk":5,"migraine_risk":7,"frizz_risk":1,"updated_at":"2026-05-11T16:56:50.248473+05:30"},{"city":"Dehradun","state":"Uttarakhand","latitude":30.6284,"longitude":78.0322,"temp":19.7,"humidity":72,"rain":0.1,"pressure":831.3,"uv_index":5.55,"wind_gusts":31.3,"aqi":130,"pm10":52.5,"pm2_5":31.0,"no2":0.6,"co":277.0,"o3":160.0,"so2":1.7,"mosquito_risk":6,"arthritis_risk":5,"migraine_risk":3,"frizz_risk":0,"updated_at":"2026-05-11T16:56:50.248486+05:30"},{"city":"Shimla","state":"Himachal Pradesh","latitude":31.1048,"longitude":77.1734,"temp":17.2,"humidity":65,"rain":0.0,"pressure":785.9,"uv_index":6.35,"wind_gusts":39.2,"aqi":163,"pm10":79.4,"pm2_5":45.9,"no2":0.9,"co":302.0,"o3":187.0,"so2":11.2,"mosquito_risk":3,"arthritis_risk":5,"migraine_risk":7,"frizz_risk":0,"updated_at":"2026-05-11T16:56:50.248495+05:30"},{"city":"Manali","state":"Himachal Pradesh","latitude":32.2396,"longitude":77.1887,"temp":17.2,"humidity":73,"rain":0.0,"pressure":819.0,"uv_index":9.85,"wind_gusts":38.5,"aqi":156,"pm10":35.6,"pm2_5":16.2,"no2":0.0,"co":209.0,"o3":173.0,"so2":0.4,"mosquito_risk":3,"arthritis_risk":5,"migraine_risk":7,"frizz_risk":0,"updated_at":"2026-05-11T16:56:50.248505+05:30"},{"city":"Gurgaon","state":"Haryana","latitude":28.4595,"longitude":77.0266,"temp":37.2,"humidity":27,"rain":0.0,"pressure":978.5,"uv_index":7.75,"wind_gusts":29.2,"aqi":664,"pm10":495.5,"pm2_5":82.7,"no2":4.6,"co":328.0,"o3":213.0,"so2":16.6,"mosquito_risk":0,"arthritis_risk":5,"migraine_risk":10,"frizz_risk":0,"updated_at":"2026-05-11T16:56:50.248514+05:30"},{"city":"Noida","state":"Uttar Pradesh","latitude":28.5355,"longitude":77.391,"temp":35.7,"humidity":35,"rain":0.0,"pressure":981.6,"uv_index":7.65,"wind_gusts":25.2,"aqi":664,"pm10":495.5,"pm2_5":82.7,"no2":4.6,"co":592.0,"o3":213.0,"so2":16.6,"mosquito_risk":0,"arthritis_risk":5,"migraine_risk":10,"frizz_risk":1,"updated_at":"2026-05-11T16:56:50.248522+05:30"},{"city":"Ghaziabad","state":"Uttar Pradesh","latitude":28.6692,"longitude":77.4538,"temp":36.2,"humidity":32,"rain":0.0,"pressure":979.9,"uv_index":7.65,"wind_gusts":28.1,"aqi":190,"pm10":315.7,"pm2_5":69.8,"no2":5.8,"co":357.0,"o3":244.0,"so2":16.8,"mosquito_risk":0,"arthritis_risk":5,"migraine_risk":10,"frizz_risk":1,"updated_at":"2026-05-11T16:56:50.248531+05:30"},{"city":"Faridabad","state":"Haryana","latitude":28.4089,"longitude":77.3178,"temp":36.7,"humidity":30,"rain":0.0,"pressure":980.7,"uv_index":7.7,"wind_gusts":26.3,"aqi":664,"pm10":495.5,"pm2_5":82.7,"no2":4.6,"co":407.0,"o3":213.0,"so2":16.6,"mosquito_risk":0,"arthritis_risk":5,"migraine_risk":10,"frizz_risk":0,"updated_at":"2026-05-11T16:56:50.248539+05:30"},{"city":"Meerut","state":"Uttar Pradesh","latitude":28.9845,"longitude":77.7064,"temp":34.1,"humidity":40,"rain":0.0,"pressure":979.1,"uv_index":7.55,"wind_gusts":27.4,"aqi":190,"pm10":315.7,"pm2_5":69.8,"no2":5.8,"co":343.0,"o3":244.0,"so2":16.8,"mosquito_risk":0,"arthritis_risk":5,"migraine_risk":7,"frizz_risk":1,"updated_at":"2026-05-11T16:56:50.248548+05:30"},{"city":"Agra","state":"Uttar Pradesh","latitude":27.1767,"longitude":78.0081,"temp":37.0,"humidity":30,"rain":0.0,"pressure":984.5,"uv_index":8.0,"wind_gusts":25.2,"aqi":368,"pm10":258.9,"pm2_5":53.8,"no2":2.6,"co":327.0,"o3":193.0,"so2":10.3,"mosquito_risk":0,"arthritis_risk":5,"migraine_risk":10,"frizz_risk":1,"updated_at":"2026-05-11T16:56:50.248557+05:30"},{"city":"Varanasi","state":"Uttar Pradesh","latitude":25.3176,"longitude":82.9739,"temp":37.2,"humidity":27,"rain":0.0,"pressure":993.6,"uv_index":8.65,"wind_gusts":29.5,"aqi":204,"pm10":65.0,"pm2_5":37.4,"no2":3.5,"co":308.0,"o3":206.0,"so2":12.5,"mosquito_risk":0,"arthritis_risk":5,"migraine_risk":10,"frizz_risk":0,"updated_at":"2026-05-11T16:56:50.248566+05:30"},{"city":"Prayagraj","state":"Uttar Pradesh","latitude":25.4358,"longitude":81.8463,"temp":38.2,"humidity":24,"rain":0.0,"pressure":991.8,"uv_index":8.55,"wind_gusts":32.0,"aqi":188,"pm10":54.4,"pm2_5":31.2,"no2":2.7,"co":316.0,"o3":190.0,"so2":8.7,"mosquito_risk":0,"arthritis_risk":5,"migraine_risk":10,"frizz_risk":0,"updated_at":"2026-05-11T16:56:50.248577+05:30"},{"city":"Gorakhpur","state":"Uttar Pradesh","latitude":26.7606,"longitude":83.3732,"temp":34.0,"humidity":38,"rain":0.0,"pressure":994.6,"uv_index":8.5,"wind_gusts":32.0,"aqi":164,"pm10":34.8,"pm2_5":24.5,"no2":1.7,"co":352.0,"o3":182.0,"so2":6.4,"mosquito_risk":0,"arthritis_risk":5,"migraine_risk":7,"frizz_risk":1,"updated_at":"2026-05-11T16:56:50.248585+05:30"},{"city":"Bareilly","state":"Uttar Pradesh","latitude":28.367,"longitude":79.4304,"temp":34.2,"humidity":39,"rain":0.0,"pressure":984.4,"uv_index":7.95,"wind_gusts":27.0,"aqi":158,"pm10":129.9,"pm2_5":42.7,"no2":2.2,"co":305.0,"o3":186.0,"so2":8.3,"mosquito_risk":0,"arthritis_risk":5,"migraine_risk":7,"frizz_risk":1,"updated_at":"2026-05-11T16:56:50.248594+05:30"},{"city":"Aligarh","state":"Uttar Pradesh","latitude":27.8974,"longitude":78.088,"temp":36.0,"humidity":33,"rain":0.0,"pressure":982.7,"uv_index":7.8,"wind_gusts":29.9,"aqi":177,"pm10":305.5,"pm2_5":61.9,"no2":2.8,"co":328.0,"o3":200.0,"so2":14.2,"mosquito_risk":0,"arthritis_risk":5,"migraine_risk":10,"frizz_risk":1,"updated_at":"2026-05-11T16:56:50.248602+05:30"},{"city":"Moradabad","state":"Uttar Pradesh","latitude":28.8386,"longitude":78.7733,"temp":33.3,"humidity":42,"rain":0.0,"pressure":981.7,"uv_index":7.25,"wind_gusts":29.9,"aqi":169,"pm10":115.9,"pm2_5":47.1,"no2":5.4,"co":346.0,"o3":184.0,"so2":18.7,"mosquito_risk":0,"arthritis_risk":5,"migraine_risk":7,"frizz_risk":1,"updated_at":"2026-05-11T16:56:50.248609+05:30"},{"city":"Saharanpur","state":"Uttar Pradesh","latitude":29.9637,"longitude":77.546,"temp":32.1,"humidity":47,"rain":0.0,"pressure":974.4,"uv_index":7.35,"wind_gusts":27.7,"aqi":174,"pm10":89.6,"pm2_5":41.7,"no2":3.2,"co":323.0,"o3":195.0,"so2":8.8,"mosquito_risk":0,"arthritis_risk":5,"migraine_risk":7,"frizz_risk":1,"updated_at":"2026-05-11T16:56:50.248617+05:30"},{"city":"Jhansi","state":"Uttar Pradesh","latitude":25.4484,"longitude":78.5685,"temp":37.5,"humidity":27,"rain":0.0,"pressure":974.8,"uv_index":8.45,"wind_gusts":35.3,"aqi":171,"pm10":126.2,"pm2_5":43.7,"no2":1.6,"co":277.0,"o3":184.0,"so2":15.4,"mosquito_risk":0,"arthritis_risk":5,"migraine_risk":10,"frizz_risk":0,"updated_at":"2026-05-11T16:56:53.489628+05:30"},{"city":"Surat","state":"Gujarat","latitude":21.1702,"longitude":72.8311,"temp":42.9,"humidity":14,"rain":0.0,"pressure":1001.0,"uv_index":7.75,"wind_gusts":37.8,"aqi":102,"pm10":63.3,"pm2_5":39.2,"no2":41.8,"co":160.0,"o3":109.0,"so2":89.8,"mosquito_risk":0,"arthritis_risk":5,"migraine_risk":7,"frizz_risk":0,"updated_at":"2026-05-11T16:56:53.489664+05:30"},{"city":"Vadodara","state":"Gujarat","latitude":22.3072,"longitude":73.1812,"temp":44.2,"humidity":12,"rain":0.0,"pressure":998.3,"uv_index":8.1,"wind_gusts":33.5,"aqi":109,"pm10":50.9,"pm2_5":18.7,"no2":1.6,"co":168.0,"o3":180.0,"so2":9.9,"mosquito_risk":0,"arthritis_risk":5,"migraine_risk":10,"frizz_risk":0,"updated_at":"2026-05-11T16:56:53.489675+05:30"},{"city":"Rajkot","state":"Gujarat","latitude":22.3039,"longitude":70.8022,"temp":41.2,"humidity":17,"rain":0.0,"pressure":990.0,"uv_index":7.7,"wind_gusts":46.1,"aqi":55,"pm10":39.6,"pm2_5":14.3,"no2":1.1,"co":148.0,"o3":138.0,"so2":5.5,"mosquito_risk":0,"arthritis_risk":5,"migraine_risk":10,"frizz_risk":0,"updated_at":"2026-05-11T16:56:53.489686+05:30"},{"city":"Thane","state":"Maharashtra","latitude":19.2183,"longitude":72.9781,"temp":36.5,"humidity":34,"rain":0.0,"pressure":1001.8,"uv_index":7.9,"wind_gusts":56.2,"aqi":168,"pm10":48.4,"pm2_5":28.5,"no2":13.0,"co":263.0,"o3":148.0,"so2":10.0,"mosquito_risk":0,"arthritis_risk":5,"migraine_risk":7,"frizz_risk":1,"updated_at":"2026-05-11T16:56:53.489696+05:30"},{"city":"Nagpur","state":"Maharashtra","latitude":21.1458,"longitude":79.0882,"temp":40.1,"humidity":18,"rain":0.0,"pressure":968.8,"uv_index":8.95,"wind_gusts":36.4,"aqi":158,"pm10":65.0,"pm2_5":27.8,"no2":4.5,"co":221.0,"o3":186.0,"so2":19.0,"mosquito_risk":0,"arthritis_risk":5,"migraine_risk":10,"frizz_risk":0,"updated_at":"2026-05-11T16:56:53.489706+05:30"},{"city":"Nashik","state":"Maharashtra","latitude":19.9975,"longitude":73.7898,"temp":41.0,"humidity":10,"rain":0.0,"pressure":941.4,"uv_index":8.2,"wind_gusts":46.1,"aqi":110,"pm10":37.0,"pm2_5":15.7,"no2":1.7,"co":174.0,"o3":162.0,"so2":8.1,"mosquito_risk":0,"arthritis_risk":5,"migraine_risk":10,"frizz_risk":0,"updated_at":"2026-05-11T16:56:53.489716+05:30"},{"city":"Aurangabad","state":"Maharashtra","latitude":19.8762,"longitude":75.3433,"temp":40.3,"humidity":11,"rain":0.0,"pressure":940.4,"uv_index":9.05,"wind_gusts":38.5,"aqi":140,"pm10":36.8,"pm2_5":17.5,"no2":1.0,"co":192.0,"o3":175.0,"so2":8.8,"mosquito_risk":0,"arthritis_risk":5,"migraine_risk":10,"frizz_risk":0,"updated_at":"2026-05-11T16:56:53.489725+05:30"},{"city":"Solapur","state":"Maharashtra","latitude":17.6599,"longitude":75.9064,"temp":41.2,"humidity":15,"rain":0.0,"pressure":951.8,"uv_index":9.05,"wind_gusts":33.5,"aqi":140,"pm10":38.2,"pm2_5":18.9,"no2":1.0,"co":226.0,"o3":171.0,"so2":5.4,"mosquito_risk":0,"arthritis_risk":5,"migraine_risk":10,"frizz_risk":0,"updated_at":"2026-05-11T16:56:53.489734+05:30"},{"city":"Kolhapur","state":"Maharashtra","latitude":16.705,"longitude":74.2433,"temp":39.2,"humidity":17,"rain":0.0,"pressure":943.2,"uv_index":8.9,"wind_gusts":54.4,"aqi":124,"pm10":41.6,"pm2_5":24.2,"no2":8.6,"co":193.0,"o3":157.0,"so2":7.3,"mosquito_risk":0,"arthritis_risk":5,"migraine_risk":10,"frizz_risk":0,"updated_at":"2026-05-11T16:56:53.489743+05:30"},{"city":"Goa","state":"Goa","latitude":15.2993,"longitude":74.124,"temp":33.5,"humidity":56,"rain":0.0,"pressure":993.4,"uv_index":8.85,"wind_gusts":34.9,"aqi":83,"pm10":42.7,"pm2_5":17.9,"no2":1.0,"co":134.0,"o3":88.0,"so2":1.7,"mosquito_risk":0,"arthritis_risk":5,"migraine_risk":7,"frizz_risk":1,"updated_at":"2026-05-11T16:56:53.489753+05:30"},{"city":"Jodhpur","state":"Rajasthan","latitude":26.2389,"longitude":73.0243,"temp":43.0,"humidity":10,"rain":0.0,"pressure":978.6,"uv_index":8.4,"wind_gusts":34.9,"aqi":104,"pm10":164.4,"pm2_5":22.2,"no2":0.7,"co":148.0,"o3":144.0,"so2":2.6,"mosquito_risk":0,"arthritis_risk":5,"migraine_risk":10,"frizz_risk":0,"updated_at":"2026-05-11T16:56:53.489763+05:30"},{"city":"Udaipur","state":"Rajasthan","latitude":24.5854,"longitude":73.7125,"temp":40.2,"humidity":12,"rain":0.0,"pressure":943.5,"uv_index":8.85,"wind_gusts":38.9,"aqi":80,"pm10":47.0,"pm2_5":10.4,"no2":0.3,"co":142.0,"o3":136.0,"so2":2.9,"mosquito_risk":0,"arthritis_risk":5,"migraine_risk":10,"frizz_risk":0,"updated_at":"2026-05-11T16:56:53.489773+05:30"},{"city":"Kota","state":"Rajasthan","latitude":25.2138,"longitude":75.8648,"temp":40.8,"humidity":16,"rain":0.0,"pressure":974.5,"uv_index":8.4,"wind_gusts":35.3,"aqi":148,"pm10":150.9,"pm2_5":29.8,"no2":0.6,"co":236.0,"o3":156.0,"so2":7.0,"mosquito_risk":0,"arthritis_risk":5,"migraine_risk":10,"frizz_risk":0,"updated_at":"2026-05-11T16:56:53.489783+05:30"},{"city":"Bikaner","state":"Rajasthan","latitude":28.0229,"longitude":73.3119,"temp":43.3,"humidity":9,"rain":0.0,"pressure":976.6,"uv_index":8.3,"wind_gusts":41.4,"aqi":90,"pm10":79.6,"pm2_5":18.6,"no2":0.1,"co":152.0,"o3":123.0,"so2":6.3,"mosquito_risk":0,"arthritis_risk":5,"migraine_risk":10,"frizz_risk":0,"updated_at":"2026-05-11T16:56:53.489793+05:30"},{"city":"Ajmer","state":"Rajasthan","latitude":26.4499,"longitude":74.6399,"temp":40.0,"humidity":11,"rain":0.0,"pressure":951.8,"uv_index":8.35,"wind_gusts":38.9,"aqi":127,"pm10":105.0,"pm2_5":21.0,"no2":0.1,"co":173.0,"o3":135.0,"so2":2.4,"mosquito_risk":0,"arthritis_risk":5,"migraine_risk":10,"frizz_risk":0,"updated_at":"2026-05-11T16:56:53.489802+05:30"},{"city":"Gwalior","state":"Madhya Pradesh","latitude":26.2183,"longitude":78.1828,"temp":36.7,"humidity":28,"rain":0.0,"pressure":980.3,"uv_index":8.2,"wind_gusts":33.5,"aqi":161,"pm10":129.0,"pm2_5":42.7,"no2":0.9,"co":307.0,"o3":179.0,"so2":8.5,"mosquito_risk":0,"arthritis_risk":5,"migraine_risk":10,"frizz_risk":0,"updated_at":"2026-05-11T16:56:53.489812+05:30"},{"city":"Indore","state":"Madhya Pradesh","latitude":22.7196,"longitude":75.8577,"temp":40.6,"humidity":12,"rain":0.0,"pressure":944.4,"uv_index":8.7,"wind_gusts":45.4,"aqi":129,"pm10":40.2,"pm2_5":15.0,"no2":1.0,"co":231.0,"o3":149.0,"so2":6.2,"mosquito_risk":0,"arthritis_risk":5,"migraine_risk":10,"frizz_risk":0,"updated_at":"2026-05-11T16:56:53.489822+05:30"},{"city":"Bhopal","state":"Madhya Pradesh","latitude":23.2599,"longitude":77.4126,"temp":39.4,"humidity":18,"rain":0.0,"pressure":950.4,"uv_index":8.7,"wind_gusts":40.3,"aqi":135,"pm10":77.8,"pm2_5":25.7,"no2":0.2,"co":254.0,"o3":154.0,"so2":5.6,"mosquito_risk":0,"arthritis_risk":5,"migraine_risk":10,"frizz_risk":0,"updated_at":"2026-05-11T16:56:53.489831+05:30"},{"city":"Jabalpur","state":"Madhya Pradesh","latitude":23.1815,"longitude":79.9864,"temp":38.5,"humidity":18,"rain":0.0,"pressure":957.3,"uv_index":8.85,"wind_gusts":41.8,"aqi":161,"pm10":87.8,"pm2_5":30.2,"no2":1.4,"co":236.0,"o3":167.0,"so2":5.2,"mosquito_risk":0,"arthritis_risk":5,"migraine_risk":10,"frizz_risk":0,"updated_at":"2026-05-11T16:56:53.489841+05:30"},{"city":"Ujjain","state":"Madhya Pradesh","latitude":23.1765,"longitude":75.7885,"temp":41.0,"humidity":12,"rain":0.0,"pressure":950.2,"uv_index":8.65,"wind_gusts":47.9,"aqi":113,"pm10":36.8,"pm2_5":12.6,"no2":0.6,"co":192.0,"o3":140.0,"so2":6.4,"mosquito_risk":0,"arthritis_risk":5,"migraine_risk":10,"frizz_risk":0,"updated_at":"2026-05-11T16:56:53.489852+05:30"},{"city":"Visakhapatnam","state":"Andhra Pradesh","latitude":17.6868,"longitude":83.2185,"temp":30.9,"humidity":64,"rain":0.0,"pressure":1001.0,"uv_index":9.1,"wind_gusts":36.4,"aqi":72,"pm10":11.3,"pm2_5":9.1,"no2":17.2,"co":467.0,"o3":43.0,"so2":14.7,"mosquito_risk":3,"arthritis_risk":5,"migraine_risk":4,"frizz_risk":1,"updated_at":"2026-05-11T16:56:53.489861+05:30"},{"city":"Vijayawada","state":"Andhra Pradesh","latitude":16.5062,"longitude":80.648,"temp":35.7,"humidity":41,"rain":0.0,"pressure":998.3,"uv_index":8.55,"wind_gusts":37.4,"aqi":49,"pm10":20.4,"pm2_5":12.1,"no2":2.7,"co":167.0,"o3":106.0,"so2":5.4,"mosquito_risk":0,"arthritis_risk":5,"migraine_risk":10,"frizz_risk":1,"updated_at":"2026-05-11T16:56:53.489871+05:30"},{"city":"Guntur","state":"Andhra Pradesh","latitude":16.3067,"longitude":80.4365,"temp":34.7,"humidity":47,"rain":0.0,"pressure":999.6,"uv_index":8.5,"wind_gusts":38.2,"aqi":50,"pm10":27.8,"pm2_5":16.1,"no2":2.4,"co":174.0,"o3":129.0,"so2":4.7,"mosquito_risk":0,"arthritis_risk":5,"migraine_risk":7,"frizz_risk":1,"updated_at":"2026-05-11T16:56:53.489882+05:30"},{"city":"Nellore","state":"Andhra Pradesh","latitude":14.4426,"longitude":79.9865,"temp":32.3,"humidity":59,"rain":0.0,"pressure":1001.9,"uv_index":9.15,"wind_gusts":38.9,"aqi":31,"pm10":11.5,"pm2_5":6.2,"no2":1.3,"co":122.0,"o3":61.0,"so2":1.6,"mosquito_risk":0,"arthritis_risk":5,"migraine_risk":4,"frizz_risk":1,"updated_at":"2026-05-11T16:56:53.489892+05:30"},{"city":"Kurnool","state":"Andhra Pradesh","latitude":15.8281,"longitude":78.0373,"temp":38.3,"humidity":22,"rain":0.0,"pressure":972.2,"uv_index":8.6,"wind_gusts":40.3,"aqi":51,"pm10":37.6,"pm2_5":16.4,"no2":0.5,"co":183.0,"o3":131.0,"so2":2.5,"mosquito_risk":0,"arthritis_risk":5,"migraine_risk":10,"frizz_risk":0,"updated_at":"2026-05-11T16:56:53.489904+05:30"},{"city":"Kakinada","state":"Andhra Pradesh","latitude":16.9891,"longitude":82.2475,"temp":30.9,"humidity":65,"rain":0.0,"pressure":1004.4,"uv_index":9.1,"wind_gusts":38.9,"aqi":29,"pm10":7.3,"pm2_5":4.5,"no2":0.8,"co":141.0,"o3":58.0,"so2":0.5,"mosquito_risk":3,"arthritis_risk":5,"migraine_risk":4,"frizz_risk":1,"updated_at":"2026-05-11T16:56:53.489915+05:30"},{"city":"Tirupati","state":"Andhra Pradesh","latitude":13.6288,"longitude":79.4192,"temp":34.7,"humidity":39,"rain":0.0,"pressure":986.7,"uv_index":9.2,"wind_gusts":43.9,"aqi":44,"pm10":14.2,"pm2_5":7.1,"no2":1.3,"co":152.0,"o3":90.0,"so2":1.2,"mosquito_risk":0,"arthritis_risk":5,"migraine_risk":7,"frizz_risk":1,"updated_at":"2026-05-11T16:56:53.489924+05:30"},{"city":"Warangal","state":"Telangana","latitude":17.9689,"longitude":79.5941,"temp":37.4,"humidity":27,"rain":0.0,"pressure":974.7,"uv_index":9.15,"wind_gusts":43.6,"aqi":62,"pm10":43.0,"pm2_5":21.0,"no2":2.0,"co":204.0,"o3":144.0,"so2":5.1,"mosquito_risk":0,"arthritis_risk":5,"migraine_risk":10,"frizz_risk":0,"updated_at":"2026-05-11T16:56:53.489934+05:30"},{"city":"Nizamabad","state":"Telangana","latitude":18.6725,"longitude":78.0941,"temp":37.5,"humidity":22,"rain":0.0,"pressure":960.8,"uv_index":9.15,"wind_gusts":32.0,"aqi":96,"pm10":42.7,"pm2_5":18.9,"no2":0.0,"co":199.0,"o3":161.0,"so2":3.2,"mosquito_risk":0,"arthritis_risk":5,"migraine_risk":10,"frizz_risk":0,"updated_at":"2026-05-11T16:56:53.489944+05:30"},{"city":"Mysore","state":"Karnataka","latitude":12.2958,"longitude":76.6396,"temp":32.8,"humidity":31,"rain":0.0,"pressure":925.1,"uv_index":8.75,"wind_gusts":31.7,"aqi":115,"pm10":33.6,"pm2_5":19.6,"no2":2.0,"co":217.0,"o3":157.0,"so2":4.1,"mosquito_risk":0,"arthritis_risk":5,"migraine_risk":7,"frizz_risk":0,"updated_at":"2026-05-11T16:56:53.489954+05:30"},{"city":"Mangalore","state":"Karnataka","latitude":12.9141,"longitude":74.856,"temp":30.0,"humidity":79,"rain":0.0,"pressure":1002.9,"uv_index":8.4,"wind_gusts":34.6,"aqi":67,"pm10":26.1,"pm2_5":16.1,"no2":2.0,"co":168.0,"o3":109.0,"so2":1.7,"mosquito_risk":7,"arthritis_risk":5,"migraine_risk":4,"frizz_risk":1,"updated_at":"2026-05-11T16:56:53.489964+05:30"},{"city":"Hubli-Dharwad","state":"Karnataka","latitude":15.3647,"longitude":75.124,"temp":37.5,"humidity":21,"rain":0.0,"pressure":937.0,"uv_index":8.9,"wind_gusts":51.8,"aqi":141,"pm10":51.6,"pm2_5":26.5,"no2":1.6,"co":213.0,"o3":180.0,"so2":4.6,"mosquito_risk":0,"arthritis_risk":5,"migraine_risk":10,"frizz_risk":0,"updated_at":"2026-05-11T16:56:53.489973+05:30"},{"city":"Belgaum","state":"Karnataka","latitude":15.8497,"longitude":74.4977,"temp":34.1,"humidity":26,"rain":0.0,"pressure":922.6,"uv_index":8.7,"wind_gusts":50.8,"aqi":129,"pm10":48.1,"pm2_5":24.3,"no2":3.3,"co":196.0,"o3":166.0,"so2":6.0,"mosquito_risk":0,"arthritis_risk":5,"migraine_risk":7,"frizz_risk":0,"updated_at":"2026-05-11T16:56:56.728580+05:30"},{"city":"Coimbatore","state":"Tamil Nadu","latitude":11.0168,"longitude":76.9558,"temp":32.6,"humidity":49,"rain":0.0,"pressure":957.6,"uv_index":9.2,"wind_gusts":27.4,"aqi":109,"pm10":31.9,"pm2_5":19.7,"no2":3.0,"co":255.0,"o3":153.0,"so2":3.8,"mosquito_risk":0,"arthritis_risk":5,"migraine_risk":7,"frizz_risk":1,"updated_at":"2026-05-11T16:56:56.728620+05:30"},{"city":"Madurai","state":"Tamil Nadu","latitude":9.9252,"longitude":78.1198,"temp":35.8,"humidity":38,"rain":0.0,"pressure":987.6,"uv_index":9.0,"wind_gusts":30.2,"aqi":99,"pm10":29.3,"pm2_5":21.2,"no2":6.8,"co":309.0,"o3":148.0,"so2":6.1,"mosquito_risk":0,"arthritis_risk":5,"migraine_risk":10,"frizz_risk":1,"updated_at":"2026-05-11T16:56:56.728636+05:30"},{"city":"Trichy","state":"Tamil Nadu","latitude":10.7905,"longitude":78.7047,"temp":35.0,"humidity":41,"rain":0.0,"pressure":994.2,"uv_index":9.15,"wind_gusts":28.1,"aqi":77,"pm10":19.8,"pm2_5":12.3,"no2":5.0,"co":194.0,"o3":118.0,"so2":8.6,"mosquito_risk":0,"arthritis_risk":5,"migraine_risk":7,"frizz_risk":1,"updated_at":"2026-05-11T16:56:56.728647+05:30"},{"city":"Salem","state":"Tamil Nadu","latitude":11.6643,"longitude":78.146,"temp":35.4,"humidity":37,"rain":0.0,"pressure":972.3,"uv_index":9.1,"wind_gusts":32.4,"aqi":105,"pm10":28.2,"pm2_5":15.9,"no2":2.7,"co":254.0,"o3":147.0,"so2":8.0,"mosquito_risk":0,"arthritis_risk":5,"migraine_risk":10,"frizz_risk":1,"updated_at":"2026-05-11T16:56:56.728659+05:30"},{"city":"Tirunelveli","state":"Tamil Nadu","latitude":8.7139,"longitude":77.7567,"temp":33.7,"humidity":49,"rain":0.0,"pressure":998.2,"uv_index":9.05,"wind_gusts":40.3,"aqi":67,"pm10":20.4,"pm2_5":14.1,"no2":2.5,"co":207.0,"o3":128.0,"so2":1.6,"mosquito_risk":0,"arthritis_risk":5,"migraine_risk":7,"frizz_risk":1,"updated_at":"2026-05-11T16:56:56.728670+05:30"},{"city":"Vellore","state":"Tamil Nadu","latitude":12.9165,"longitude":79.1325,"temp":35.0,"humidity":38,"rain":0.0,"pressure":979.8,"uv_index":8.9,"wind_gusts":34.6,"aqi":56,"pm10":18.9,"pm2_5":11.6,"no2":1.9,"co":182.0,"o3":118.0,"so2":4.2,"mosquito_risk":0,"arthritis_risk":5,"migraine_risk":7,"frizz_risk":1,"updated_at":"2026-05-11T16:56:56.728682+05:30"},{"city":"Erode","state":"Tamil Nadu","latitude":11.341,"longitude":77.7172,"temp":35.2,"humidity":38,"rain":0.0,"pressure":983.5,"uv_index":9.15,"wind_gusts":24.1,"aqi":116,"pm10":32.8,"pm2_5":21.8,"no2":1.9,"co":327.0,"o3":165.0,"so2":6.0,"mosquito_risk":0,"arthritis_risk":5,"migraine_risk":10,"frizz_risk":1,"updated_at":"2026-05-11T16:56:56.728693+05:30"},{"city":"Kochi","state":"Kerala","latitude":9.9312,"longitude":76.2673,"temp":29.9,"humidity":79,"rain":0.0,"pressure":1004.2,"uv_index":8.95,"wind_gusts":31.3,"aqi":71,"pm10":11.4,"pm2_5":9.9,"no2":1.4,"co":188.0,"o3":124.0,"so2":1.5,"mosquito_risk":7,"arthritis_risk":5,"migraine_risk":4,"frizz_risk":1,"updated_at":"2026-05-11T16:56:56.728705+05:30"},{"city":"Thiruvananthapuram","state":"Kerala","latitude":8.5241,"longitude":76.9366,"temp":29.0,"humidity":77,"rain":0.2,"pressure":1004.0,"uv_index":8.35,"wind_gusts":35.3,"aqi":51,"pm10":7.6,"pm2_5":5.0,"no2":1.9,"co":180.0,"o3":103.0,"so2":0.9,"mosquito_risk":10,"arthritis_risk":5,"migraine_risk":4,"frizz_risk":1,"updated_at":"2026-05-11T16:56:56.728716+05:30"},{"city":"Kozhikode","state":"Kerala","latitude":11.2588,"longitude":75.7804,"temp":29.7,"humidity":79,"rain":0.0,"pressure":1003.7,"uv_index":8.85,"wind_gusts":33.1,"aqi":73,"pm10":11.9,"pm2_5":8.6,"no2":0.7,"co":188.0,"o3":108.0,"so2":0.6,"mosquito_risk":7,"arthritis_risk":5,"migraine_risk":4,"frizz_risk":1,"updated_at":"2026-05-11T16:56:56.728727+05:30"},{"city":"Thrissur","state":"Kerala","latitude":10.5276,"longitude":76.2144,"temp":30.9,"humidity":70,"rain":0.0,"pressure":1002.6,"uv_index":8.95,"wind_gusts":29.9,"aqi":66,"pm10":13.4,"pm2_5":12.0,"no2":1.7,"co":179.0,"o3":123.0,"so2":1.5,"mosquito_risk":3,"arthritis_risk":5,"migraine_risk":4,"frizz_risk":1,"updated_at":"2026-05-11T16:56:56.728739+05:30"},{"city":"Kannur","state":"Kerala","latitude":11.8745,"longitude":75.3704,"temp":30.0,"humidity":75,"rain":0.0,"pressure":1003.4,"uv_index":8.8,"wind_gusts":34.9,"aqi":59,"pm10":14.8,"pm2_5":10.3,"no2":0.7,"co":196.0,"o3":111.0,"so2":1.0,"mosquito_risk":7,"arthritis_risk":5,"migraine_risk":4,"frizz_risk":1,"updated_at":"2026-05-11T16:56:56.728750+05:30"},{"city":"Patna","state":"Bihar","latitude":25.5941,"longitude":85.1376,"temp":33.1,"humidity":45,"rain":0.0,"pressure":997.8,"uv_index":8.7,"wind_gusts":26.3,"aqi":204,"pm10":48.5,"pm2_5":41.4,"no2":5.9,"co":373.0,"o3":217.0,"so2":20.2,"mosquito_risk":0,"arthritis_risk":5,"migraine_risk":7,"frizz_risk":1,"updated_at":"2026-05-11T16:56:56.728761+05:30"},{"city":"Gaya","state":"Bihar","latitude":24.7914,"longitude":85.0002,"temp":34.8,"humidity":34,"rain":0.0,"pressure":990.7,"uv_index":8.75,"wind_gusts":31.3,"aqi":191,"pm10":60.1,"pm2_5":38.2,"no2":3.7,"co":358.0,"o3":201.0,"so2":14.8,"mosquito_risk":0,"arthritis_risk":5,"migraine_risk":7,"frizz_risk":1,"updated_at":"2026-05-11T16:56:56.728772+05:30"},{"city":"Muzaffarpur","state":"Bihar","latitude":26.1209,"longitude":85.3647,"temp":31.8,"humidity":53,"rain":0.0,"pressure":998.1,"uv_index":8.7,"wind_gusts":27.4,"aqi":196,"pm10":42.4,"pm2_5":36.2,"no2":6.6,"co":414.0,"o3":197.0,"so2":15.9,"mosquito_risk":0,"arthritis_risk":5,"migraine_risk":7,"frizz_risk":1,"updated_at":"2026-05-11T16:56:56.728782+05:30"},{"city":"Bhagalpur","state":"Bihar","latitude":25.2425,"longitude":87.0117,"temp":31.2,"humidity":54,"rain":0.0,"pressure":999.4,"uv_index":8.5,"wind_gusts":27.0,"aqi":202,"pm10":46.2,"pm2_5":40.5,"no2":6.8,"co":325.0,"o3":215.0,"so2":15.3,"mosquito_risk":0,"arthritis_risk":5,"migraine_risk":7,"frizz_risk":1,"updated_at":"2026-05-11T16:56:56.728794+05:30"},{"city":"Ranchi","state":"Jharkhand","latitude":23.3441,"longitude":85.3096,"temp":28.0,"humidity":56,"rain":0.0,"pressure":936.1,"uv_index":9.25,"wind_gusts":30.6,"aqi":129,"pm10":76.1,"pm2_5":44.4,"no2":4.3,"co":243.0,"o3":165.0,"so2":11.7,"mosquito_risk":4,"arthritis_risk":5,"migraine_risk":7,"frizz_risk":1,"updated_at":"2026-05-11T16:56:56.728805+05:30"},{"city":"Jamshedpur","state":"Jharkhand","latitude":22.8046,"longitude":86.2029,"temp":31.1,"humidity":55,"rain":0.0,"pressure":989.2,"uv_index":9.05,"wind_gusts":49.0,"aqi":119,"pm10":22.1,"pm2_5":18.7,"no2":3.9,"co":315.0,"o3":144.0,"so2":9.5,"mosquito_risk":0,"arthritis_risk":5,"migraine_risk":7,"frizz_risk":1,"updated_at":"2026-05-11T16:56:56.728815+05:30"},{"city":"Dhanbad","state":"Jharkhand","latitude":23.7957,"longitude":86.4304,"temp":30.6,"humidity":58,"rain":0.0,"pressure":978.3,"uv_index":8.95,"wind_gusts":40.3,"aqi":156,"pm10":47.6,"pm2_5":43.1,"no2":28.7,"co":883.0,"o3":152.0,"so2":64.7,"mosquito_risk":0,"arthritis_risk":5,"migraine_risk":7,"frizz_risk":1,"updated_at":"2026-05-11T16:56:56.728826+05:30"},{"city":"Bokaro","state":"Jharkhand","latitude":23.6693,"longitude":86.1511,"temp":31.2,"humidity":54,"rain":0.0,"pressure":981.9,"uv_index":8.95,"wind_gusts":42.8,"aqi":154,"pm10":51.8,"pm2_5":45.4,"no2":29.2,"co":954.0,"o3":164.0,"so2":65.0,"mosquito_risk":0,"arthritis_risk":5,"migraine_risk":7,"frizz_risk":1,"updated_at":"2026-05-11T16:56:56.728836+05:30"},{"city":"Bhubaneswar","state":"Odisha","latitude":20.2961,"longitude":85.8245,"temp":30.9,"humidity":63,"rain":0.0,"pressure":1000.7,"uv_index":9.1,"wind_gusts":34.6,"aqi":76,"pm10":13.7,"pm2_5":9.7,"no2":3.4,"co":186.0,"o3":84.0,"so2":3.7,"mosquito_risk":3,"arthritis_risk":5,"migraine_risk":4,"frizz_risk":1,"updated_at":"2026-05-11T16:56:56.728847+05:30"},{"city":"Cuttack","state":"Odisha","latitude":20.4625,"longitude":85.8828,"temp":31.8,"humidity":59,"rain":0.0,"pressure":1002.4,"uv_index":9.15,"wind_gusts":36.7,"aqi":76,"pm10":13.7,"pm2_5":9.7,"no2":3.4,"co":188.0,"o3":84.0,"so2":3.7,"mosquito_risk":0,"arthritis_risk":5,"migraine_risk":4,"frizz_risk":1,"updated_at":"2026-05-11T16:56:56.728857+05:30"},{"city":"Rourkela","state":"Odisha","latitude":22.2604,"longitude":84.8536,"temp":32.8,"humidity":47,"rain":0.1,"pressure":982.6,"uv_index":8.95,"wind_gusts":35.6,"aqi":114,"pm10":76.8,"pm2_5":41.0,"no2":4.4,"co":259.0,"o3":175.0,"so2":27.8,"mosquito_risk":3,"arthritis_risk":5,"migraine_risk":7,"frizz_risk":1,"updated_at":"2026-05-11T16:56:56.728869+05:30"},{"city":"Raipur","state":"Chhattisgarh","latitude":21.2514,"longitude":81.6296,"temp":38.3,"humidity":24,"rain":0.0,"pressure":970.8,"uv_index":9.0,"wind_gusts":31.7,"aqi":180,"pm10":64.0,"pm2_5":29.7,"no2":7.9,"co":187.0,"o3":203.0,"so2":6.0,"mosquito_risk":0,"arthritis_risk":5,"migraine_risk":10,"frizz_risk":0,"updated_at":"2026-05-11T16:56:56.728880+05:30"},{"city":"Bhilai","state":"Chhattisgarh","latitude":21.1938,"longitude":81.3509,"temp":37.4,"humidity":27,"rain":0.0,"pressure":971.3,"uv_index":9.0,"wind_gusts":32.0,"aqi":144,"pm10":60.8,"pm2_5":28.3,"no2":8.1,"co":353.0,"o3":182.0,"so2":6.3,"mosquito_risk":0,"arthritis_risk":5,"migraine_risk":10,"frizz_risk":0,"updated_at":"2026-05-11T16:56:56.728890+05:30"},{"city":"Guwahati","state":"Assam","latitude":26.1158,"longitude":91.7086,"temp":27.0,"humidity":69,"rain":0.0,"pressure":1001.5,"uv_index":8.6,"wind_gusts":32.4,"aqi":108,"pm10":22.9,"pm2_5":18.7,"no2":2.3,"co":349.0,"o3":127.0,"so2":1.3,"mosquito_risk":7,"arthritis_risk":5,"migraine_risk":4,"frizz_risk":1,"updated_at":"2026-05-11T16:56:56.728902+05:30"},{"city":"Agartala","state":"Tripura","latitude":23.8315,"longitude":91.2868,"temp":28.5,"humidity":71,"rain":0.0,"pressure":1005.3,"uv_index":8.8,"wind_gusts":27.7,"aqi":162,"pm10":38.4,"pm2_5":30.5,"no2":11.7,"co":298.0,"o3":179.0,"so2":4.0,"mosquito_risk":7,"arthritis_risk":5,"migraine_risk":4,"frizz_risk":1,"updated_at":"2026-05-11T16:56:56.728912+05:30"},{"city":"Shillong","state":"Meghalaya","latitude":25.5788,"longitude":91.8933,"temp":18.8,"humidity":74,"rain":0.1,"pressure":856.9,"uv_index":8.85,"wind_gusts":24.8,"aqi":133,"pm10":24.0,"pm2_5":18.7,"no2":3.6,"co":304.0,"o3":140.0,"so2":1.7,"mosquito_risk":6,"arthritis_risk":5,"migraine_risk":7,"frizz_risk":0,"updated_at":"2026-05-11T16:56:56.728923+05:30"},{"city":"Imphal","state":"Manipur","latitude":24.817,"longitude":93.9368,"temp":21.1,"humidity":78,"rain":0.0,"pressure":923.7,"uv_index":8.5,"wind_gusts":33.8,"aqi":84,"pm10":13.0,"pm2_5":10.2,"no2":4.2,"co":295.0,"o3":88.0,"so2":1.3,"mosquito_risk":3,"arthritis_risk":5,"migraine_risk":7,"frizz_risk":1,"updated_at":"2026-05-11T16:56:56.728934+05:30"},{"city":"Aizawl","state":"Mizoram","latitude":23.7271,"longitude":92.7176,"temp":22.2,"humidity":61,"rain":0.0,"pressure":892.4,"uv_index":9.0,"wind_gusts":25.6,"aqi":86,"pm10":24.5,"pm2_5":19.4,"no2":3.0,"co":252.0,"o3":103.0,"so2":1.2,"mosquito_risk":3,"arthritis_risk":5,"migraine_risk":7,"frizz_risk":0,"updated_at":"2026-05-11T16:56:56.728944+05:30"},{"city":"Kohima","state":"Nagaland","latitude":25.6701,"longitude":94.1077,"temp":17.9,"humidity":86,"rain":0.1,"pressure":855.4,"uv_index":8.65,"wind_gusts":23.8,"aqi":57,"pm10":13.0,"pm2_5":10.4,"no2":3.9,"co":256.0,"o3":99.0,"so2":0.8,"mosquito_risk":6,"arthritis_risk":10,"migraine_risk":7,"frizz_risk":0,"updated_at":"2026-05-11T16:56:56.728955+05:30"},{"city":"Gangtok","state":"Sikkim","latitude":27.3314,"longitude":88.6138,"temp":17.9,"humidity":73,"rain":0.1,"pressure":837.3,"uv_index":8.95,"wind_gusts":45.7,"aqi":99,"pm10":28.6,"pm2_5":20.0,"no2":1.7,"co":218.0,"o3":141.0,"so2":1.6,"mosquito_risk":6,"arthritis_risk":5,"migraine_risk":7,"frizz_risk":0,"updated_at":"2026-05-11T16:56:56.728965+05:30"},{"city":"Siliguri","state":"West Bengal","latitude":26.7271,"longitude":88.3953,"temp":26.6,"humidity":72,"rain":0.1,"pressure":992.7,"uv_index":8.55,"wind_gusts":27.0,"aqi":123,"pm10":37.0,"pm2_5":24.3,"no2":4.6,"co":433.0,"o3":139.0,"so2":2.0,"mosquito_risk":10,"arthritis_risk":5,"migraine_risk":7,"frizz_risk":1,"updated_at":"2026-05-11T16:56:59.963267+05:30"},{"city":"Durgapur","state":"West Bengal","latitude":23.5204,"longitude":87.3119,"temp":29.6,"humidity":69,"rain":0.0,"pressure":993.7,"uv_index":8.9,"wind_gusts":40.0,"aqi":163,"pm10":42.0,"pm2_5":37.8,"no2":19.0,"co":265.0,"o3":158.0,"so2":44.3,"mosquito_risk":7,"arthritis_risk":5,"migraine_risk":7,"frizz_risk":1,"updated_at":"2026-05-11T16:56:59.963325+05:30"},{"city":"Asansol","state":"West Bengal","latitude":23.6739,"longitude":86.9524,"temp":30.8,"humidity":58,"rain":0.0,"pressure":992.0,"uv_index":8.9,"wind_gusts":38.5,"aqi":156,"pm10":44.9,"pm2_5":40.4,"no2":23.3,"co":595.0,"o3":149.0,"so2":54.8,"mosquito_risk":0,"arthritis_risk":5,"migraine_risk":7,"frizz_risk":1,"updated_at":"2026-05-11T16:56:59.963342+05:30"},{"city":"Pondicherry","state":"Puducherry","latitude":11.9139,"longitude":79.8145,"temp":29.6,"humidity":77,"rain":0.0,"pressure":1003.9,"uv_index":8.8,"wind_gusts":33.8,"aqi":39,"pm10":9.3,"pm2_5":6.7,"no2":1.7,"co":164.0,"o3":67.0,"so2":2.4,"mosquito_risk":7,"arthritis_risk":5,"migraine_risk":4,"frizz_risk":1,"updated_at":"2026-05-11T16:56:59.963354+05:30"},{"city":"Port Blair","state":"Andaman and Nicobar Islands","latitude":11.6234,"longitude":92.7265,"temp":26.1,"humidity":91,"rain":0.0,"pressure":1004.9,"uv_index":8.35,"wind_gusts":36.0,"aqi":28,"pm10":3.5,"pm2_5":2.4,"no2":0.7,"co":172.0,"o3":57.0,"so2":0.1,"mosquito_risk":7,"arthritis_risk":5,"migraine_risk":4,"frizz_risk":1,"updated_at":"2026-05-11T16:56:59.963366+05:30"},{"city":"Haridwar","state":"Uttarakhand","latitude":29.9457,"longitude":78.1642,"temp":31.5,"humidity":49,"rain":0.0,"pressure":972.8,"uv_index":6.3,"wind_gusts":30.6,"aqi":170,"pm10":75.0,"pm2_5":37.8,"no2":1.0,"co":303.0,"o3":192.0,"so2":8.9,"mosquito_risk":0,"arthritis_risk":5,"migraine_risk":7,"frizz_risk":1,"updated_at":"2026-05-11T16:56:59.963377+05:30"},{"city":"Rishikesh","state":"Uttarakhand","latitude":30.0869,"longitude":78.2676,"temp":29.8,"humidity":54,"rain":0.0,"pressure":965.7,"uv_index":5.95,"wind_gusts":24.1,"aqi":166,"pm10":103.6,"pm2_5":50.4,"no2":0.5,"co":284.0,"o3":184.0,"so2":7.8,"mosquito_risk":4,"arthritis_risk":5,"migraine_risk":3,"frizz_risk":1,"updated_at":"2026-05-11T16:56:59.963388+05:30"},{"city":"Nainital","state":"Uttarakhand","latitude":29.3919,"longitude":79.4542,"temp":18.3,"humidity":69,"rain":0.1,"pressure":806.6,"uv_index":7.05,"wind_gusts":28.8,"aqi":149,"pm10":52.6,"pm2_5":33.5,"no2":0.8,"co":270.0,"o3":192.0,"so2":7.0,"mosquito_risk":6,"arthritis_risk":5,"migraine_risk":7,"frizz_risk":0,"updated_at":"2026-05-11T16:56:59.963399+05:30"},{"city":"Mussoorie","state":"Uttarakhand","latitude":30.4599,"longitude":78.0664,"temp":17.4,"humidity":75,"rain":0.0,"pressure":803.7,"uv_index":7.6,"wind_gusts":42.1,"aqi":159,"pm10":58.4,"pm2_5":36.4,"no2":1.4,"co":279.0,"o3":187.0,"so2":6.6,"mosquito_risk":3,"arthritis_risk":5,"migraine_risk":7,"frizz_risk":0,"updated_at":"2026-05-11T16:56:59.963410+05:30"},{"city":"Dharamshala","state":"Himachal Pradesh","latitude":32.219,"longitude":76.3234,"temp":23.8,"humidity":57,"rain":0.0,"pressure":870.0,"uv_index":8.35,"wind_gusts":38.9,"aqi":132,"pm10":81.5,"pm2_5":34.7,"no2":0.4,"co":327.0,"o3":156.0,"so2":1.5,"mosquito_risk":0,"arthritis_risk":5,"migraine_risk":7,"frizz_risk":0,"updated_at":"2026-05-11T16:56:59.963421+05:30"},{"city":"Dalhousie","state":"Himachal Pradesh","latitude":32.5387,"longitude":75.971,"temp":20.0,"humidity":58,"rain":0.0,"pressure":806.6,"uv_index":8.55,"wind_gusts":34.2,"aqi":160,"pm10":152.3,"pm2_5":55.6,"no2":0.9,"co":296.0,"o3":180.0,"so2":5.1,"mosquito_risk":0,"arthritis_risk":5,"migraine_risk":7,"frizz_risk":0,"updated_at":"2026-05-11T16:56:59.963432+05:30"},{"city":"Patiala","state":"Punjab","latitude":30.3398,"longitude":76.3869,"temp":33.8,"humidity":35,"rain":0.0,"pressure":976.3,"uv_index":7.55,"wind_gusts":38.9,"aqi":474,"pm10":558.8,"pm2_5":86.4,"no2":2.1,"co":330.0,"o3":202.0,"so2":13.3,"mosquito_risk":0,"arthritis_risk":5,"migraine_risk":7,"frizz_risk":1,"updated_at":"2026-05-11T16:56:59.963442+05:30"},{"city":"Bhatinda","state":"Punjab","latitude":30.211,"longitude":74.9455,"temp":36.8,"humidity":28,"rain":0.0,"pressure":981.5,"uv_index":8.2,"wind_gusts":37.8,"aqi":481,"pm10":413.5,"pm2_5":84.8,"no2":2.6,"co":327.0,"o3":201.0,"so2":17.7,"mosquito_risk":0,"arthritis_risk":5,"migraine_risk":10,"frizz_risk":0,"updated_at":"2026-05-11T16:56:59.963453+05:30"},{"city":"Rohtak","state":"Haryana","latitude":28.8955,"longitude":76.6066,"temp":37.5,"humidity":28,"rain":0.0,"pressure":978.9,"uv_index":7.65,"wind_gusts":31.0,"aqi":318,"pm10":306.4,"pm2_5":65.7,"no2":1.3,"co":323.0,"o3":205.0,"so2":8.8,"mosquito_risk":0,"arthritis_risk":5,"migraine_risk":10,"frizz_risk":0,"updated_at":"2026-05-11T16:56:59.963464+05:30"},{"city":"Panipat","state":"Haryana","latitude":29.3909,"longitude":76.9635,"temp":35.5,"humidity":35,"rain":0.0,"pressure":978.2,"uv_index":7.5,"wind_gusts":31.7,"aqi":623,"pm10":430.3,"pm2_5":82.7,"no2":4.2,"co":327.0,"o3":241.0,"so2":24.6,"mosquito_risk":0,"arthritis_risk":5,"migraine_risk":10,"frizz_risk":1,"updated_at":"2026-05-11T16:56:59.963474+05:30"},{"city":"Mathura","state":"Uttar Pradesh","latitude":27.4924,"longitude":77.6737,"temp":36.7,"humidity":32,"rain":0.0,"pressure":983.5,"uv_index":7.95,"wind_gusts":27.0,"aqi":373,"pm10":268.2,"pm2_5":56.0,"no2":2.3,"co":347.0,"o3":189.0,"so2":8.3,"mosquito_risk":0,"arthritis_risk":5,"migraine_risk":10,"frizz_risk":1,"updated_at":"2026-05-11T16:56:59.963485+05:30"},{"city":"Vrindavan","state":"Uttar Pradesh","latitude":27.5823,"longitude":77.7027,"temp":37.0,"humidity":31,"rain":0.0,"pressure":984.0,"uv_index":7.9,"wind_gusts":27.7,"aqi":373,"pm10":268.2,"pm2_5":56.0,"no2":2.3,"co":338.0,"o3":189.0,"so2":8.3,"mosquito_risk":0,"arthritis_risk":5,"migraine_risk":10,"frizz_risk":1,"updated_at":"2026-05-11T16:56:59.963495+05:30"},{"city":"Ayodhya","state":"Uttar Pradesh","latitude":26.7922,"longitude":82.1998,"temp":34.3,"humidity":36,"rain":0.0,"pressure":992.5,"uv_index":8.3,"wind_gusts":33.5,"aqi":152,"pm10":34.1,"pm2_5":23.7,"no2":3.0,"co":301.0,"o3":163.0,"so2":5.3,"mosquito_risk":0,"arthritis_risk":5,"migraine_risk":7,"frizz_risk":1,"updated_at":"2026-05-11T16:56:59.963506+05:30"},{"city":"Ratlam","state":"Madhya Pradesh","latitude":23.3315,"longitude":75.0367,"temp":41.2,"humidity":12,"rain":0.0,"pressure":951.1,"uv_index":8.55,"wind_gusts":35.3,"aqi":98,"pm10":37.3,"pm2_5":11.8,"no2":0.6,"co":197.0,"o3":139.0,"so2":5.5,"mosquito_risk":0,"arthritis_risk":5,"migraine_risk":10,"frizz_risk":0,"updated_at":"2026-05-11T16:56:59.963517+05:30"},{"city":"Sagar","state":"Madhya Pradesh","latitude":23.8388,"longitude":78.7378,"temp":36.9,"humidity":24,"rain":0.0,"pressure":947.4,"uv_index":8.75,"wind_gusts":43.9,"aqi":143,"pm10":105.9,"pm2_5":33.4,"no2":0.5,"co":242.0,"o3":162.0,"so2":5.3,"mosquito_risk":0,"arthritis_risk":5,"migraine_risk":10,"frizz_risk":0,"updated_at":"2026-05-11T16:56:59.963527+05:30"},{"city":"Satna","state":"Madhya Pradesh","latitude":24.6005,"longitude":80.8322,"temp":37.7,"humidity":23,"rain":0.0,"pressure":967.6,"uv_index":8.75,"wind_gusts":43.6,"aqi":176,"pm10":75.9,"pm2_5":35.4,"no2":1.1,"co":234.0,"o3":193.0,"so2":8.2,"mosquito_risk":0,"arthritis_risk":5,"migraine_risk":10,"frizz_risk":0,"updated_at":"2026-05-11T16:56:59.963537+05:30"},{"city":"Akola","state":"Maharashtra","latitude":20.7002,"longitude":77.0082,"temp":42.5,"humidity":13,"rain":0.0,"pressure":969.3,"uv_index":8.9,"wind_gusts":49.7,"aqi":142,"pm10":59.8,"pm2_5":23.8,"no2":1.5,"co":220.0,"o3":170.0,"so2":11.9,"mosquito_risk":0,"arthritis_risk":5,"migraine_risk":10,"frizz_risk":0,"updated_at":"2026-05-11T16:56:59.963550+05:30"},{"city":"Amravati","state":"Maharashtra","latitude":20.9374,"longitude":77.7796,"temp":40.7,"humidity":15,"rain":0.0,"pressure":962.6,"uv_index":8.9,"wind_gusts":40.3,"aqi":140,"pm10":62.4,"pm2_5":24.6,"no2":2.1,"co":195.0,"o3":174.0,"so2":6.6,"mosquito_risk":0,"arthritis_risk":5,"migraine_risk":10,"frizz_risk":0,"updated_at":"2026-05-11T16:56:59.963561+05:30"},{"city":"Latur","state":"Maharashtra","latitude":18.4088,"longitude":76.5604,"temp":40.2,"humidity":12,"rain":0.0,"pressure":935.7,"uv_index":9.05,"wind_gusts":36.7,"aqi":126,"pm10":38.1,"pm2_5":19.8,"no2":1.0,"co":183.0,"o3":173.0,"so2":11.1,"mosquito_risk":0,"arthritis_risk":5,"migraine_risk":10,"frizz_risk":0,"updated_at":"2026-05-11T16:56:59.963572+05:30"},{"city":"Nanded","state":"Maharashtra","latitude":19.1383,"longitude":77.3091,"temp":40.5,"humidity":15,"rain":0.0,"pressure":963.5,"uv_index":9.0,"wind_gusts":32.4,"aqi":131,"pm10":41.4,"pm2_5":19.4,"no2":1.1,"co":208.0,"o3":170.0,"so2":5.2,"mosquito_risk":0,"arthritis_risk":5,"migraine_risk":10,"frizz_risk":0,"updated_at":"2026-05-11T16:56:59.963582+05:30"},{"city":"Gulbarga","state":"Karnataka","latitude":17.3297,"longitude":76.8343,"temp":40.2,"humidity":15,"rain":0.0,"pressure":953.7,"uv_index":9.1,"wind_gusts":30.2,"aqi":99,"pm10":38.9,"pm2_5":19.0,"no2":1.8,"co":204.0,"o3":170.0,"so2":5.9,"mosquito_risk":0,"arthritis_risk":5,"migraine_risk":10,"frizz_risk":0,"updated_at":"2026-05-11T16:56:59.963590+05:30"},{"city":"Bidar","state":"Karnataka","latitude":17.9104,"longitude":77.5199,"temp":37.2,"humidity":20,"rain":0.0,"pressure":932.2,"uv_index":9.1,"wind_gusts":32.8,"aqi":92,"pm10":37.7,"pm2_5":17.2,"no2":1.0,"co":203.0,"o3":161.0,"so2":3.7,"mosquito_risk":0,"arthritis_risk":5,"migraine_risk":10,"frizz_risk":0,"updated_at":"2026-05-11T16:56:59.963597+05:30"},{"city":"Hospet","state":"Karnataka","latitude":15.2689,"longitude":76.3909,"temp":36.8,"humidity":24,"rain":0.0,"pressure":951.2,"uv_index":8.7,"wind_gusts":35.6,"aqi":129,"pm10":39.0,"pm2_5":21.1,"no2":3.3,"co":245.0,"o3":177.0,"so2":7.1,"mosquito_risk":0,"arthritis_risk":5,"migraine_risk":10,"frizz_risk":0,"updated_at":"2026-05-11T16:56:59.963604+05:30"},{"city":"Tirupur","state":"Tamil Nadu","latitude":11.1085,"longitude":77.3411,"temp":34.7,"humidity":39,"rain":0.0,"pressure":970.4,"uv_index":9.25,"wind_gusts":31.3,"aqi":124,"pm10":32.1,"pm2_5":21.3,"no2":3.9,"co":247.0,"o3":163.0,"so2":4.4,"mosquito_risk":0,"arthritis_risk":5,"migraine_risk":7,"frizz_risk":1,"updated_at":"2026-05-11T16:56:59.963610+05:30"},{"city":"Alappuzha","state":"Kerala","latitude":9.4981,"longitude":76.3388,"temp":30.1,"humidity":76,"rain":0.0,"pressure":1004.6,"uv_index":8.7,"wind_gusts":34.9,"aqi":65,"pm10":11.4,"pm2_5":8.6,"no2":2.9,"co":166.0,"o3":110.0,"so2":2.1,"mosquito_risk":3,"arthritis_risk":5,"migraine_risk":4,"frizz_risk":1,"updated_at":"2026-05-11T16:56:59.963617+05:30"},{"city":"Munnar","state":"Kerala","latitude":10.0889,"longitude":77.0595,"temp":21.5,"humidity":72,"rain":0.0,"pressure":854.9,"uv_index":9.45,"wind_gusts":18.0,"aqi":67,"pm10":27.8,"pm2_5":17.5,"no2":1.9,"co":195.0,"o3":135.0,"so2":2.4,"mosquito_risk":3,"arthritis_risk":5,"migraine_risk":7,"frizz_risk":1,"updated_at":"2026-05-11T16:56:59.963624+05:30"},{"city":"Silchar","state":"Assam","latitude":24.8333,"longitude":92.7789,"temp":29.2,"humidity":64,"rain":0.0,"pressure":1004.2,"uv_index":8.8,"wind_gusts":18.0,"aqi":133,"pm10":34.8,"pm2_5":27.5,"no2":5.6,"co":342.0,"o3":128.0,"so2":5.4,"mosquito_risk":7,"arthritis_risk":5,"migraine_risk":4,"frizz_risk":1,"updated_at":"2026-05-11T16:56:59.963630+05:30"},{"city":"Dibrugarh","state":"Assam","latitude":27.4728,"longitude":94.912,"temp":25.4,"humidity":70,"rain":0.0,"pressure":996.3,"uv_index":5.25,"wind_gusts":22.0,"aqi":77,"pm10":18.3,"pm2_5":12.7,"no2":3.9,"co":312.0,"o3":105.0,"so2":1.0,"mosquito_risk":7,"arthritis_risk":5,"migraine_risk":3,"frizz_risk":1,"updated_at":"2026-05-11T16:56:59.963637+05:30"}]