[{"city":"Delhi","state":"Delhi","latitude":28.6139,"longitude":77.209,"temp":19.9,"humidity":85,"rain":0.0,"pressure":987.9,"uv_index":6.4,"wind_gusts":26.3,"aqi":154,"pm10":87.3,"pm2_5":69.2,"mosquito_risk":3,"arthritis_risk":10,"migraine_risk":7,"frizz_risk":1,"updated_at":"2026-03-24T00:29:48.541973+05:30"},{"city":"Mumbai","state":"Maharashtra","latitude":19.076,"longitude":72.8777,"temp":28.9,"humidity":68,"rain":0.0,"pressure":1009.5,"uv_index":7.9,"wind_gusts":23.0,"aqi":128,"pm10":48.8,"pm2_5":34.9,"mosquito_risk":7,"arthritis_risk":0,"migraine_risk":4,"frizz_risk":1,"updated_at":"2026-03-24T00:29:48.542018+05:30"},{"city":"Bangalore","state":"Karnataka","latitude":12.9716,"longitude":77.5946,"temp":23.2,"humidity":67,"rain":0.0,"pressure":912.4,"uv_index":9.45,"wind_gusts":25.6,"aqi":90,"pm10":31.7,"pm2_5":28.0,"mosquito_risk":3,"arthritis_risk":5,"migraine_risk":7,"frizz_risk":1,"updated_at":"2026-03-24T00:29:48.542033+05:30"},{"city":"Hyderabad","state":"Telangana","latitude":17.385,"longitude":78.4867,"temp":25.9,"humidity":60,"rain":0.0,"pressure":954.4,"uv_index":8.9,"wind_gusts":24.5,"aqi":89,"pm10":39.6,"pm2_5":33.4,"mosquito_risk":4,"arthritis_risk":5,"migraine_risk":7,"frizz_risk":1,"updated_at":"2026-03-24T00:29:48.542043+05:30"},{"city":"Chennai","state":"Tamil Nadu","latitude":13.0827,"longitude":80.2707,"temp":26.9,"humidity":79,"rain":0.0,"pressure":1009.2,"uv_index":9.2,"wind_gusts":31.7,"aqi":36,"pm10":12.0,"pm2_5":7.7,"mosquito_risk":7,"arthritis_risk":0,"migraine_risk":4,"frizz_risk":1,"updated_at":"2026-03-24T00:29:48.542051+05:30"},{"city":"Kolkata","state":"West Bengal","latitude":22.5726,"longitude":88.3639,"temp":22.9,"humidity":89,"rain":0.0,"pressure":1009.6,"uv_index":8.3,"wind_gusts":20.5,"aqi":153,"pm10":52.3,"pm2_5":47.8,"mosquito_risk":3,"arthritis_risk":0,"migraine_risk":4,"frizz_risk":1,"updated_at":"2026-03-24T00:29:48.542058+05:30"},{"city":"Pune","state":"Maharashtra","latitude":18.5204,"longitude":73.8567,"temp":24.3,"humidity":58,"rain":0.0,"pressure":949.7,"uv_index":8.45,"wind_gusts":45.4,"aqi":101,"pm10":34.7,"pm2_5":31.3,"mosquito_risk":0,"arthritis_risk":5,"migraine_risk":7,"frizz_risk":0,"updated_at":"2026-03-24T00:29:48.542068+05:30"},{"city":"Ahmedabad","state":"Gujarat","latitude":23.0225,"longitude":72.5714,"temp":25.7,"humidity":57,"rain":0.0,"pressure":1004.5,"uv_index":7.85,"wind_gusts":32.4,"aqi":85,"pm10":51.7,"pm2_5":37.4,"mosquito_risk":4,"arthritis_risk":5,"migraine_risk":4,"frizz_risk":1,"updated_at":"2026-03-24T00:29:48.542075+05:30"},{"city":"Jaipur","state":"Rajasthan","latitude":26.9124,"longitude":75.7873,"temp":20.7,"humidity":81,"rain":0.0,"pressure":963.0,"uv_index":7.25,"wind_gusts":40.3,"aqi":117,"pm10":165.3,"pm2_5":58.6,"mosquito_risk":3,"arthritis_risk":5,"migraine_risk":7,"frizz_risk":1,"updated_at":"2026-03-24T00:29:48.542082+05:30"},{"city":"Lucknow","state":"Uttar Pradesh","latitude":26.8467,"longitude":80.9462,"temp":21.9,"humidity":72,"rain":0.0,"pressure":998.3,"uv_index":6.6,"wind_gusts":37.8,"aqi":151,"pm10":73.1,"pm2_5":43.2,"mosquito_risk":3,"arthritis_risk":5,"migraine_risk":7,"frizz_risk":1,"updated_at":"2026-03-24T00:29:48.542088+05:30"},{"city":"Kanpur","state":"Uttar Pradesh","latitude":26.4499,"longitude":80.3319,"temp":20.7,"humidity":78,"rain":0.0,"pressure":996.4,"uv_index":4.7,"wind_gusts":29.2,"aqi":230,"pm10":234.7,"pm2_5":58.7,"mosquito_risk":3,"arthritis_risk":5,"migraine_risk":3,"frizz_risk":1,"updated_at":"2026-03-24T00:29:48.542093+05:30"},{"city":"Chandigarh","state":"Chandigarh","latitude":30.7333,"longitude":76.7794,"temp":18.1,"humidity":76,"rain":0.0,"pressure":972.3,"uv_index":6.45,"wind_gusts":27.4,"aqi":97,"pm10":61.9,"pm2_5":55.1,"mosquito_risk":3,"arthritis_risk":5,"migraine_risk":7,"frizz_risk":0,"updated_at":"2026-03-24T00:29:48.542100+05:30"},{"city":"Srinagar","state":"Jammu and Kashmir","latitude":34.0837,"longitude":74.7973,"temp":7.6,"humidity":93,"rain":0.0,"pressure":842.6,"uv_index":6.3,"wind_gusts":19.8,"aqi":93,"pm10":50.9,"pm2_5":47.5,"mosquito_risk":3,"arthritis_risk":10,"migraine_risk":7,"frizz_risk":0,"updated_at":"2026-03-24T00:29:48.542106+05:30"},{"city":"Jammu","state":"Jammu and Kashmir","latitude":32.7266,"longitude":74.857,"temp":18.2,"humidity":80,"rain":0.0,"pressure":976.6,"uv_index":7.0,"wind_gusts":16.2,"aqi":85,"pm10":47.5,"pm2_5":44.6,"mosquito_risk":3,"arthritis_risk":5,"migraine_risk":7,"frizz_risk":0,"updated_at":"2026-03-24T00:29:48.542112+05:30"},{"city":"Amritsar","state":"Punjab","latitude":31.634,"longitude":74.8723,"temp":18.7,"humidity":78,"rain":0.0,"pressure":984.6,"uv_index":7.05,"wind_gusts":16.9,"aqi":126,"pm10":56.1,"pm2_5":48.0,"mosquito_risk":3,"arthritis_risk":5,"migraine_risk":7,"frizz_risk":0,"updated_at":"2026-03-24T00:29:48.542118+05:30"},{"city":"Ludhiana","state":"Punjab","latitude":30.901,"longitude":75.8573,"temp":19.2,"humidity":76,"rain":0.0,"pressure":982.8,"uv_index":6.65,"wind_gusts":23.4,"aqi":141,"pm10":93.6,"pm2_5":78.2,"mosquito_risk":3,"arthritis_risk":5,"migraine_risk":7,"frizz_risk":0,"updated_at":"2026-03-24T00:29:48.542124+05:30"},{"city":"Jalandhar","state":"Punjab","latitude":31.326,"longitude":75.5762,"temp":18.2,"humidity":83,"rain":0.0,"pressure":983.9,"uv_index":6.85,"wind_gusts":23.0,"aqi":135,"pm10":65.4,"pm2_5":57.4,"mosquito_risk":3,"arthritis_risk":10,"migraine_risk":7,"frizz_risk":0,"updated_at":"2026-03-24T00:29:48.542132+05:30"},{"city":"Dehradun","state":"Uttarakhand","latitude":30.6284,"longitude":78.0322,"temp":9.5,"humidity":86,"rain":0.0,"pressure":829.7,"uv_index":6.85,"wind_gusts":21.6,"aqi":62,"pm10":29.5,"pm2_5":24.1,"mosquito_risk":3,"arthritis_risk":10,"migraine_risk":7,"frizz_risk":0,"updated_at":"2026-03-24T00:29:48.542138+05:30"},{"city":"Shimla","state":"Himachal Pradesh","latitude":31.1048,"longitude":77.1734,"temp":8.2,"humidity":83,"rain":0.0,"pressure":783.0,"uv_index":6.9,"wind_gusts":33.1,"aqi":75,"pm10":45.9,"pm2_5":40.4,"mosquito_risk":3,"arthritis_risk":10,"migraine_risk":7,"frizz_risk":0,"updated_at":"2026-03-24T00:29:48.542143+05:30"},{"city":"Manali","state":"Himachal Pradesh","latitude":32.2396,"longitude":77.1887,"temp":10.5,"humidity":56,"rain":0.0,"pressure":817.9,"uv_index":8.85,"wind_gusts":27.7,"aqi":87,"pm10":20.4,"pm2_5":16.5,"mosquito_risk":0,"arthritis_risk":5,"migraine_risk":7,"frizz_risk":0,"updated_at":"2026-03-24T00:29:48.542149+05:30"},{"city":"Gurgaon","state":"Haryana","latitude":28.4595,"longitude":77.0266,"temp":20.0,"humidity":90,"rain":0.0,"pressure":986.1,"uv_index":6.55,"wind_gusts":18.4,"aqi":179,"pm10":115.3,"pm2_5":74.0,"mosquito_risk":3,"arthritis_risk":5,"migraine_risk":7,"frizz_risk":1,"updated_at":"2026-03-24T00:29:48.542154+05:30"},{"city":"Noida","state":"Uttar Pradesh","latitude":28.5355,"longitude":77.391,"temp":19.6,"humidity":87,"rain":0.0,"pressure":989.5,"uv_index":6.4,"wind_gusts":29.5,"aqi":179,"pm10":115.3,"pm2_5":74.0,"mosquito_risk":3,"arthritis_risk":10,"migraine_risk":7,"frizz_risk":1,"updated_at":"2026-03-24T00:29:48.542161+05:30"},{"city":"Ghaziabad","state":"Uttar Pradesh","latitude":28.6692,"longitude":77.4538,"temp":18.6,"humidity":90,"rain":0.0,"pressure":987.5,"uv_index":6.35,"wind_gusts":34.2,"aqi":153,"pm10":84.3,"pm2_5":70.8,"mosquito_risk":3,"arthritis_risk":10,"migraine_risk":7,"frizz_risk":1,"updated_at":"2026-03-24T00:29:48.542166+05:30"},{"city":"Faridabad","state":"Haryana","latitude":28.4089,"longitude":77.3178,"temp":19.5,"humidity":86,"rain":0.0,"pressure":988.7,"uv_index":6.4,"wind_gusts":24.5,"aqi":179,"pm10":115.3,"pm2_5":74.0,"mosquito_risk":3,"arthritis_risk":10,"migraine_risk":7,"frizz_risk":1,"updated_at":"2026-03-24T00:29:48.542172+05:30"},{"city":"Meerut","state":"Uttar Pradesh","latitude":28.9845,"longitude":77.7064,"temp":17.9,"humidity":92,"rain":0.0,"pressure":985.9,"uv_index":6.25,"wind_gusts":30.2,"aqi":153,"pm10":84.3,"pm2_5":70.8,"mosquito_risk":3,"arthritis_risk":10,"migraine_risk":7,"frizz_risk":1,"updated_at":"2026-03-24T00:29:48.542177+05:30"},{"city":"Agra","state":"Uttar Pradesh","latitude":27.1767,"longitude":78.0081,"temp":19.7,"humidity":87,"rain":0.0,"pressure":992.1,"uv_index":5.15,"wind_gusts":24.8,"aqi":186,"pm10":188.1,"pm2_5":67.5,"mosquito_risk":3,"arthritis_risk":10,"migraine_risk":3,"frizz_risk":1,"updated_at":"2026-03-24T00:29:48.542182+05:30"},{"city":"Varanasi","state":"Uttar Pradesh","latitude":25.3176,"longitude":82.9739,"temp":22.4,"humidity":65,"rain":0.0,"pressure":1001.7,"uv_index":7.65,"wind_gusts":27.4,"aqi":122,"pm10":116.6,"pm2_5":56.0,"mosquito_risk":3,"arthritis_risk":5,"migraine_risk":4,"frizz_risk":0,"updated_at":"2026-03-24T00:29:48.542189+05:30"},{"city":"Prayagraj","state":"Uttar Pradesh","latitude":25.4358,"longitude":81.8463,"temp":23.2,"humidity":65,"rain":0.0,"pressure":1000.4,"uv_index":7.55,"wind_gusts":20.5,"aqi":122,"pm10":74.3,"pm2_5":41.1,"mosquito_risk":3,"arthritis_risk":5,"migraine_risk":4,"frizz_risk":1,"updated_at":"2026-03-24T00:29:48.542195+05:30"},{"city":"Gorakhpur","state":"Uttar Pradesh","latitude":26.7606,"longitude":83.3732,"temp":21.0,"humidity":82,"rain":0.0,"pressure":1001.5,"uv_index":7.4,"wind_gusts":23.0,"aqi":142,"pm10":56.2,"pm2_5":37.6,"mosquito_risk":3,"arthritis_risk":5,"migraine_risk":4,"frizz_risk":1,"updated_at":"2026-03-24T00:29:48.542201+05:30"},{"city":"Bareilly","state":"Uttar Pradesh","latitude":28.367,"longitude":79.4304,"temp":19.0,"humidity":95,"rain":0.0,"pressure":991.5,"uv_index":5.25,"wind_gusts":25.2,"aqi":107,"pm10":60.3,"pm2_5":34.1,"mosquito_risk":3,"arthritis_risk":10,"migraine_risk":3,"frizz_risk":1,"updated_at":"2026-03-24T00:29:48.542208+05:30"},{"city":"Aligarh","state":"Uttar Pradesh","latitude":27.8974,"longitude":78.088,"temp":18.6,"humidity":94,"rain":0.0,"pressure":990.2,"uv_index":4.35,"wind_gusts":20.9,"aqi":152,"pm10":158.8,"pm2_5":73.3,"mosquito_risk":3,"arthritis_risk":10,"migraine_risk":3,"frizz_risk":1,"updated_at":"2026-03-24T00:29:48.542213+05:30"},{"city":"Moradabad","state":"Uttar Pradesh","latitude":28.8386,"longitude":78.7733,"temp":18.0,"humidity":96,"rain":0.0,"pressure":988.5,"uv_index":5.9,"wind_gusts":27.4,"aqi":129,"pm10":71.7,"pm2_5":58.9,"mosquito_risk":3,"arthritis_risk":10,"migraine_risk":3,"frizz_risk":1,"updated_at":"2026-03-24T00:29:48.542219+05:30"},{"city":"Saharanpur","state":"Uttar Pradesh","latitude":29.9637,"longitude":77.546,"temp":16.9,"humidity":93,"rain":0.0,"pressure":980.1,"uv_index":6.2,"wind_gusts":25.2,"aqi":149,"pm10":88.5,"pm2_5":70.5,"mosquito_risk":3,"arthritis_risk":10,"migraine_risk":7,"frizz_risk":0,"updated_at":"2026-03-24T00:29:48.542225+05:30"},{"city":"Jhansi","state":"Uttar Pradesh","latitude":25.4484,"longitude":78.5685,"temp":21.3,"humidity":76,"rain":0.0,"pressure":981.1,"uv_index":7.4,"wind_gusts":33.1,"aqi":83,"pm10":98.0,"pm2_5":43.2,"mosquito_risk":3,"arthritis_risk":5,"migraine_risk":7,"frizz_risk":1,"updated_at":"2026-03-24T00:29:51.810785+05:30"},{"city":"Surat","state":"Gujarat","latitude":21.1702,"longitude":72.8311,"temp":26.2,"humidity":70,"rain":0.0,"pressure":1008.3,"uv_index":7.65,"wind_gusts":25.6,"aqi":123,"pm10":103.4,"pm2_5":83.6,"mosquito_risk":7,"arthritis_risk":0,"migraine_risk":4,"frizz_risk":1,"updated_at":"2026-03-24T00:29:51.810815+05:30"},{"city":"Vadodara","state":"Gujarat","latitude":22.3072,"longitude":73.1812,"temp":26.8,"humidity":47,"rain":0.0,"pressure":1006.2,"uv_index":7.85,"wind_gusts":25.9,"aqi":88,"pm10":73.6,"pm2_5":47.3,"mosquito_risk":4,"arthritis_risk":5,"migraine_risk":4,"frizz_risk":0,"updated_at":"2026-03-24T00:29:51.810825+05:30"},{"city":"Rajkot","state":"Gujarat","latitude":22.3039,"longitude":70.8022,"temp":24.0,"humidity":50,"rain":0.0,"pressure":996.9,"uv_index":7.7,"wind_gusts":35.6,"aqi":66,"pm10":16.5,"pm2_5":15.0,"mosquito_risk":0,"arthritis_risk":5,"migraine_risk":7,"frizz_risk":0,"updated_at":"2026-03-24T00:29:51.810834+05:30"},{"city":"Thane","state":"Maharashtra","latitude":19.2183,"longitude":72.9781,"temp":27.0,"humidity":64,"rain":0.0,"pressure":1008.9,"uv_index":7.9,"wind_gusts":37.8,"aqi":128,"pm10":48.8,"pm2_5":34.9,"mosquito_risk":7,"arthritis_risk":0,"migraine_risk":4,"frizz_risk":1,"updated_at":"2026-03-24T00:29:51.810841+05:30"},{"city":"Nagpur","state":"Maharashtra","latitude":21.1458,"longitude":79.0882,"temp":26.1,"humidity":47,"rain":0.0,"pressure":974.6,"uv_index":8.1,"wind_gusts":20.5,"aqi":86,"pm10":67.5,"pm2_5":58.8,"mosquito_risk":4,"arthritis_risk":5,"migraine_risk":7,"frizz_risk":0,"updated_at":"2026-03-24T00:29:51.810849+05:30"},{"city":"Nashik","state":"Maharashtra","latitude":19.9975,"longitude":73.7898,"temp":24.1,"humidity":61,"rain":0.0,"pressure":947.2,"uv_index":8.15,"wind_gusts":36.4,"aqi":82,"pm10":46.9,"pm2_5":26.5,"mosquito_risk":3,"arthritis_risk":5,"migraine_risk":7,"frizz_risk":1,"updated_at":"2026-03-24T00:29:51.810856+05:30"},{"city":"Aurangabad","state":"Maharashtra","latitude":19.8762,"longitude":75.3433,"temp":24.8,"humidity":48,"rain":0.0,"pressure":945.0,"uv_index":8.65,"wind_gusts":27.0,"aqi":64,"pm10":30.2,"pm2_5":23.9,"mosquito_risk":0,"arthritis_risk":5,"migraine_risk":7,"frizz_risk":0,"updated_at":"2026-03-24T00:29:51.810864+05:30"},{"city":"Solapur","state":"Maharashtra","latitude":17.6599,"longitude":75.9064,"temp":27.1,"humidity":57,"rain":0.0,"pressure":957.7,"uv_index":8.8,"wind_gusts":27.4,"aqi":86,"pm10":42.1,"pm2_5":35.0,"mosquito_risk":4,"arthritis_risk":5,"migraine_risk":7,"frizz_risk":1,"updated_at":"2026-03-24T00:29:51.810871+05:30"},{"city":"Kolhapur","state":"Maharashtra","latitude":16.705,"longitude":74.2433,"temp":20.8,"humidity":87,"rain":0.0,"pressure":948.5,"uv_index":8.85,"wind_gusts":34.9,"aqi":101,"pm10":63.8,"pm2_5":58.8,"mosquito_risk":3,"arthritis_risk":5,"migraine_risk":7,"frizz_risk":1,"updated_at":"2026-03-24T00:29:51.810909+05:30"},{"city":"Goa","state":"Goa","latitude":15.2993,"longitude":74.124,"temp":28.1,"humidity":80,"rain":0.0,"pressure":999.1,"uv_index":8.9,"wind_gusts":33.8,"aqi":84,"pm10":50.8,"pm2_5":36.7,"mosquito_risk":7,"arthritis_risk":5,"migraine_risk":7,"frizz_risk":1,"updated_at":"2026-03-24T00:29:51.810916+05:30"},{"city":"Jodhpur","state":"Rajasthan","latitude":26.2389,"longitude":73.0243,"temp":26.8,"humidity":45,"rain":0.0,"pressure":985.6,"uv_index":7.5,"wind_gusts":27.4,"aqi":74,"pm10":53.2,"pm2_5":21.7,"mosquito_risk":4,"arthritis_risk":5,"migraine_risk":7,"frizz_risk":0,"updated_at":"2026-03-24T00:29:51.810922+05:30"},{"city":"Udaipur","state":"Rajasthan","latitude":24.5854,"longitude":73.7125,"temp":23.0,"humidity":54,"rain":0.0,"pressure":949.2,"uv_index":7.55,"wind_gusts":38.5,"aqi":58,"pm10":42.3,"pm2_5":20.8,"mosquito_risk":0,"arthritis_risk":5,"migraine_risk":7,"frizz_risk":0,"updated_at":"2026-03-24T00:29:51.810928+05:30"},{"city":"Kota","state":"Rajasthan","latitude":25.2138,"longitude":75.8648,"temp":22.6,"humidity":74,"rain":0.0,"pressure":981.6,"uv_index":7.1,"wind_gusts":34.2,"aqi":78,"pm10":93.6,"pm2_5":35.0,"mosquito_risk":3,"arthritis_risk":5,"migraine_risk":7,"frizz_risk":1,"updated_at":"2026-03-24T00:29:51.810934+05:30"},{"city":"Bikaner","state":"Rajasthan","latitude":28.0229,"longitude":73.3119,"temp":26.1,"humidity":48,"rain":0.0,"pressure":984.7,"uv_index":7.25,"wind_gusts":15.8,"aqi":73,"pm10":40.6,"pm2_5":20.4,"mosquito_risk":4,"arthritis_risk":5,"migraine_risk":7,"frizz_risk":0,"updated_at":"2026-03-24T00:29:51.810940+05:30"},{"city":"Ajmer","state":"Rajasthan","latitude":26.4499,"longitude":74.6399,"temp":23.2,"humidity":62,"rain":0.0,"pressure":957.2,"uv_index":7.5,"wind_gusts":31.7,"aqi":67,"pm10":76.1,"pm2_5":33.6,"mosquito_risk":3,"arthritis_risk":5,"migraine_risk":7,"frizz_risk":0,"updated_at":"2026-03-24T00:29:51.810946+05:30"},{"city":"Gwalior","state":"Madhya Pradesh","latitude":26.2183,"longitude":78.1828,"temp":21.2,"humidity":82,"rain":0.0,"pressure":987.0,"uv_index":4.35,"wind_gusts":31.7,"aqi":100,"pm10":79.6,"pm2_5":41.0,"mosquito_risk":3,"arthritis_risk":5,"migraine_risk":3,"frizz_risk":1,"updated_at":"2026-03-24T00:29:51.810951+05:30"},{"city":"Indore","state":"Madhya Pradesh","latitude":22.7196,"longitude":75.8577,"temp":21.7,"humidity":59,"rain":0.0,"pressure":949.5,"uv_index":8.1,"wind_gusts":26.6,"aqi":62,"pm10":31.2,"pm2_5":20.1,"mosquito_risk":0,"arthritis_risk":5,"migraine_risk":7,"frizz_risk":0,"updated_at":"2026-03-24T00:29:51.810957+05:30"},{"city":"Bhopal","state":"Madhya Pradesh","latitude":23.2599,"longitude":77.4126,"temp":23.3,"humidity":55,"rain":0.0,"pressure":955.3,"uv_index":8.0,"wind_gusts":33.8,"aqi":51,"pm10":32.2,"pm2_5":17.8,"mosquito_risk":0,"arthritis_risk":5,"migraine_risk":7,"frizz_risk":0,"updated_at":"2026-03-24T00:29:51.810963+05:30"},{"city":"Jabalpur","state":"Madhya Pradesh","latitude":23.1815,"longitude":79.9864,"temp":24.2,"humidity":56,"rain":0.0,"pressure":963.9,"uv_index":7.8,"wind_gusts":20.9,"aqi":61,"pm10":37.4,"pm2_5":27.6,"mosquito_risk":0,"arthritis_risk":5,"migraine_risk":7,"frizz_risk":0,"updated_at":"2026-03-24T00:29:51.810969+05:30"},{"city":"Ujjain","state":"Madhya Pradesh","latitude":23.1765,"longitude":75.7885,"temp":21.9,"humidity":59,"rain":0.0,"pressure":955.3,"uv_index":8.0,"wind_gusts":25.6,"aqi":78,"pm10":28.9,"pm2_5":17.7,"mosquito_risk":0,"arthritis_risk":5,"migraine_risk":7,"frizz_risk":0,"updated_at":"2026-03-24T00:29:51.810975+05:30"},{"city":"Visakhapatnam","state":"Andhra Pradesh","latitude":17.6868,"longitude":83.2185,"temp":25.2,"humidity":88,"rain":0.0,"pressure":1006.5,"uv_index":8.85,"wind_gusts":33.8,"aqi":92,"pm10":30.0,"pm2_5":22.7,"mosquito_risk":7,"arthritis_risk":5,"migraine_risk":4,"frizz_risk":1,"updated_at":"2026-03-24T00:29:51.810980+05:30"},{"city":"Vijayawada","state":"Andhra Pradesh","latitude":16.5062,"longitude":80.648,"temp":25.1,"humidity":87,"rain":0.0,"pressure":1004.9,"uv_index":8.95,"wind_gusts":23.0,"aqi":68,"pm10":25.2,"pm2_5":21.2,"mosquito_risk":7,"arthritis_risk":5,"migraine_risk":4,"frizz_risk":1,"updated_at":"2026-03-24T00:29:51.810986+05:30"},{"city":"Guntur","state":"Andhra Pradesh","latitude":16.3067,"longitude":80.4365,"temp":25.0,"humidity":88,"rain":0.0,"pressure":1006.1,"uv_index":8.95,"wind_gusts":27.0,"aqi":66,"pm10":24.9,"pm2_5":21.4,"mosquito_risk":7,"arthritis_risk":5,"migraine_risk":4,"frizz_risk":1,"updated_at":"2026-03-24T00:29:51.810992+05:30"},{"city":"Nellore","state":"Andhra Pradesh","latitude":14.4426,"longitude":79.9865,"temp":25.5,"humidity":86,"rain":0.0,"pressure":1008.0,"uv_index":9.1,"wind_gusts":28.4,"aqi":43,"pm10":10.5,"pm2_5":6.5,"mosquito_risk":7,"arthritis_risk":0,"migraine_risk":4,"frizz_risk":1,"updated_at":"2026-03-24T00:29:51.810998+05:30"},{"city":"Kurnool","state":"Andhra Pradesh","latitude":15.8281,"longitude":78.0373,"temp":28.7,"humidity":51,"rain":0.0,"pressure":977.5,"uv_index":8.95,"wind_gusts":25.9,"aqi":67,"pm10":30.5,"pm2_5":24.7,"mosquito_risk":4,"arthritis_risk":5,"migraine_risk":7,"frizz_risk":1,"updated_at":"2026-03-24T00:29:51.811004+05:30"},{"city":"Kakinada","state":"Andhra Pradesh","latitude":16.9891,"longitude":82.2475,"temp":24.5,"humidity":89,"rain":0.0,"pressure":1010.0,"uv_index":8.9,"wind_gusts":30.6,"aqi":57,"pm10":20.1,"pm2_5":12.2,"mosquito_risk":3,"arthritis_risk":0,"migraine_risk":4,"frizz_risk":1,"updated_at":"2026-03-24T00:29:51.811010+05:30"},{"city":"Tirupati","state":"Andhra Pradesh","latitude":13.6288,"longitude":79.4192,"temp":24.6,"humidity":84,"rain":0.0,"pressure":993.9,"uv_index":9.2,"wind_gusts":27.0,"aqi":67,"pm10":22.0,"pm2_5":19.0,"mosquito_risk":3,"arthritis_risk":5,"migraine_risk":7,"frizz_risk":1,"updated_at":"2026-03-24T00:29:51.811015+05:30"},{"city":"Warangal","state":"Telangana","latitude":17.9689,"longitude":79.5941,"temp":26.2,"humidity":67,"rain":0.0,"pressure":980.0,"uv_index":8.8,"wind_gusts":24.1,"aqi":111,"pm10":37.4,"pm2_5":34.0,"mosquito_risk":7,"arthritis_risk":5,"migraine_risk":7,"frizz_risk":1,"updated_at":"2026-03-24T00:29:51.811021+05:30"},{"city":"Nizamabad","state":"Telangana","latitude":18.6725,"longitude":78.0941,"temp":27.3,"humidity":49,"rain":0.0,"pressure":965.6,"uv_index":8.7,"wind_gusts":25.2,"aqi":129,"pm10":57.9,"pm2_5":51.7,"mosquito_risk":4,"arthritis_risk":5,"migraine_risk":7,"frizz_risk":0,"updated_at":"2026-03-24T00:29:51.811027+05:30"},{"city":"Mysore","state":"Karnataka","latitude":12.2958,"longitude":76.6396,"temp":24.0,"humidity":76,"rain":0.0,"pressure":929.2,"uv_index":9.4,"wind_gusts":26.6,"aqi":110,"pm10":38.3,"pm2_5":32.6,"mosquito_risk":3,"arthritis_risk":5,"migraine_risk":7,"frizz_risk":1,"updated_at":"2026-03-24T00:29:51.811032+05:30"},{"city":"Mangalore","state":"Karnataka","latitude":12.9141,"longitude":74.856,"temp":29.4,"humidity":78,"rain":0.0,"pressure":1007.7,"uv_index":9.05,"wind_gusts":26.6,"aqi":74,"pm10":29.5,"pm2_5":23.5,"mosquito_risk":7,"arthritis_risk":5,"migraine_risk":4,"frizz_risk":1,"updated_at":"2026-03-24T00:29:51.811038+05:30"},{"city":"Hubli-Dharwad","state":"Karnataka","latitude":15.3647,"longitude":75.124,"temp":23.8,"humidity":86,"rain":0.0,"pressure":941.6,"uv_index":9.1,"wind_gusts":31.3,"aqi":104,"pm10":20.4,"pm2_5":18.6,"mosquito_risk":3,"arthritis_risk":5,"migraine_risk":7,"frizz_risk":1,"updated_at":"2026-03-24T00:29:51.811044+05:30"},{"city":"Belgaum","state":"Karnataka","latitude":15.8497,"longitude":74.4977,"temp":22.4,"humidity":92,"rain":0.0,"pressure":926.5,"uv_index":9.15,"wind_gusts":41.8,"aqi":96,"pm10":34.9,"pm2_5":29.4,"mosquito_risk":3,"arthritis_risk":5,"migraine_risk":7,"frizz_risk":1,"updated_at":"2026-03-24T00:29:55.071984+05:30"},{"city":"Coimbatore","state":"Tamil Nadu","latitude":11.0168,"longitude":76.9558,"temp":23.4,"humidity":75,"rain":0.0,"pressure":963.0,"uv_index":9.4,"wind_gusts":37.1,"aqi":84,"pm10":32.4,"pm2_5":26.7,"mosquito_risk":3,"arthritis_risk":5,"migraine_risk":7,"frizz_risk":1,"updated_at":"2026-03-24T00:29:55.072014+05:30"},{"city":"Madurai","state":"Tamil Nadu","latitude":9.9252,"longitude":78.1198,"temp":26.0,"humidity":81,"rain":0.0,"pressure":995.1,"uv_index":9.35,"wind_gusts":30.6,"aqi":63,"pm10":21.2,"pm2_5":18.5,"mosquito_risk":7,"arthritis_risk":5,"migraine_risk":7,"frizz_risk":1,"updated_at":"2026-03-24T00:29:55.072023+05:30"},{"city":"Trichy","state":"Tamil Nadu","latitude":10.7905,"longitude":78.7047,"temp":24.9,"humidity":87,"rain":0.0,"pressure":1001.7,"uv_index":9.3,"wind_gusts":23.8,"aqi":57,"pm10":17.3,"pm2_5":15.3,"mosquito_risk":3,"arthritis_risk":5,"migraine_risk":4,"frizz_risk":1,"updated_at":"2026-03-24T00:29:55.072032+05:30"},{"city":"Salem","state":"Tamil Nadu","latitude":11.6643,"longitude":78.146,"temp":26.0,"humidity":78,"rain":0.0,"pressure":978.7,"uv_index":9.35,"wind_gusts":27.4,"aqi":81,"pm10":36.2,"pm2_5":31.4,"mosquito_risk":7,"arthritis_risk":5,"migraine_risk":7,"frizz_risk":1,"updated_at":"2026-03-24T00:29:55.072040+05:30"},{"city":"Tirunelveli","state":"Tamil Nadu","latitude":8.7139,"longitude":77.7567,"temp":26.6,"humidity":72,"rain":0.0,"pressure":1005.1,"uv_index":9.3,"wind_gusts":33.1,"aqi":64,"pm10":25.8,"pm2_5":22.1,"mosquito_risk":7,"arthritis_risk":5,"migraine_risk":4,"frizz_risk":1,"updated_at":"2026-03-24T00:29:55.072048+05:30"},{"city":"Vellore","state":"Tamil Nadu","latitude":12.9165,"longitude":79.1325,"temp":24.4,"humidity":79,"rain":0.0,"pressure":986.8,"uv_index":9.25,"wind_gusts":30.6,"aqi":75,"pm10":30.5,"pm2_5":27.3,"mosquito_risk":3,"arthritis_risk":5,"migraine_risk":7,"frizz_risk":1,"updated_at":"2026-03-24T00:29:55.072055+05:30"},{"city":"Erode","state":"Tamil Nadu","latitude":11.341,"longitude":77.7172,"temp":26.5,"humidity":79,"rain":0.0,"pressure":990.5,"uv_index":9.35,"wind_gusts":18.4,"aqi":60,"pm10":22.5,"pm2_5":19.0,"mosquito_risk":7,"arthritis_risk":5,"migraine_risk":7,"frizz_risk":1,"updated_at":"2026-03-24T00:29:55.072062+05:30"},{"city":"Kochi","state":"Kerala","latitude":9.9312,"longitude":76.2673,"temp":28.2,"humidity":81,"rain":0.0,"pressure":1009.8,"uv_index":9.15,"wind_gusts":33.5,"aqi":84,"pm10":49.9,"pm2_5":45.9,"mosquito_risk":7,"arthritis_risk":0,"migraine_risk":4,"frizz_risk":1,"updated_at":"2026-03-24T00:29:55.072069+05:30"},{"city":"Thiruvananthapuram","state":"Kerala","latitude":8.5241,"longitude":76.9366,"temp":28.9,"humidity":77,"rain":0.0,"pressure":1008.9,"uv_index":9.15,"wind_gusts":24.1,"aqi":99,"pm10":24.6,"pm2_5":16.6,"mosquito_risk":7,"arthritis_risk":0,"migraine_risk":4,"frizz_risk":1,"updated_at":"2026-03-24T00:29:55.072076+05:30"},{"city":"Kozhikode","state":"Kerala","latitude":11.2588,"longitude":75.7804,"temp":29.7,"humidity":75,"rain":0.0,"pressure":1008.6,"uv_index":9.1,"wind_gusts":28.4,"aqi":66,"pm10":26.8,"pm2_5":16.3,"mosquito_risk":7,"arthritis_risk":0,"migraine_risk":4,"frizz_risk":1,"updated_at":"2026-03-24T00:29:55.072083+05:30"},{"city":"Thrissur","state":"Kerala","latitude":10.5276,"longitude":76.2144,"temp":27.5,"humidity":84,"rain":0.0,"pressure":1008.2,"uv_index":9.1,"wind_gusts":38.9,"aqi":77,"pm10":47.7,"pm2_5":39.2,"mosquito_risk":7,"arthritis_risk":0,"migraine_risk":4,"frizz_risk":1,"updated_at":"2026-03-24T00:29:55.072091+05:30"},{"city":"Kannur","state":"Kerala","latitude":11.8745,"longitude":75.3704,"temp":29.0,"humidity":76,"rain":0.0,"pressure":1007.9,"uv_index":9.1,"wind_gusts":27.4,"aqi":68,"pm10":26.0,"pm2_5":19.8,"mosquito_risk":7,"arthritis_risk":5,"migraine_risk":4,"frizz_risk":1,"updated_at":"2026-03-24T00:29:55.072099+05:30"},{"city":"Patna","state":"Bihar","latitude":25.5941,"longitude":85.1376,"temp":22.9,"humidity":71,"rain":0.0,"pressure":1004.0,"uv_index":7.85,"wind_gusts":20.9,"aqi":150,"pm10":150.4,"pm2_5":100.1,"mosquito_risk":3,"arthritis_risk":5,"migraine_risk":4,"frizz_risk":1,"updated_at":"2026-03-24T00:29:55.072105+05:30"},{"city":"Gaya","state":"Bihar","latitude":24.7914,"longitude":85.0002,"temp":22.5,"humidity":66,"rain":0.0,"pressure":997.1,"uv_index":7.95,"wind_gusts":17.6,"aqi":103,"pm10":126.2,"pm2_5":53.1,"mosquito_risk":3,"arthritis_risk":5,"migraine_risk":7,"frizz_risk":0,"updated_at":"2026-03-24T00:29:55.072112+05:30"},{"city":"Muzaffarpur","state":"Bihar","latitude":26.1209,"longitude":85.3647,"temp":21.5,"humidity":77,"rain":0.0,"pressure":1004.4,"uv_index":7.8,"wind_gusts":15.8,"aqi":152,"pm10":150.9,"pm2_5":117.1,"mosquito_risk":3,"arthritis_risk":5,"migraine_risk":4,"frizz_risk":1,"updated_at":"2026-03-24T00:29:55.072119+05:30"},{"city":"Bhagalpur","state":"Bihar","latitude":25.2425,"longitude":87.0117,"temp":22.1,"humidity":77,"rain":0.0,"pressure":1005.0,"uv_index":7.85,"wind_gusts":14.4,"aqi":133,"pm10":58.4,"pm2_5":54.5,"mosquito_risk":3,"arthritis_risk":5,"migraine_risk":4,"frizz_risk":1,"updated_at":"2026-03-24T00:29:55.072126+05:30"},{"city":"Ranchi","state":"Jharkhand","latitude":23.3441,"longitude":85.3096,"temp":20.1,"humidity":58,"rain":0.0,"pressure":940.2,"uv_index":8.55,"wind_gusts":27.7,"aqi":70,"pm10":49.9,"pm2_5":22.5,"mosquito_risk":0,"arthritis_risk":5,"migraine_risk":7,"frizz_risk":0,"updated_at":"2026-03-24T00:29:55.072132+05:30"},{"city":"Jamshedpur","state":"Jharkhand","latitude":22.8046,"longitude":86.2029,"temp":24.8,"humidity":59,"rain":0.0,"pressure":994.0,"uv_index":8.4,"wind_gusts":18.7,"aqi":145,"pm10":81.3,"pm2_5":67.5,"mosquito_risk":0,"arthritis_risk":5,"migraine_risk":7,"frizz_risk":1,"updated_at":"2026-03-24T00:29:55.072139+05:30"},{"city":"Dhanbad","state":"Jharkhand","latitude":23.7957,"longitude":86.4304,"temp":21.4,"humidity":73,"rain":0.0,"pressure":983.0,"uv_index":8.3,"wind_gusts":16.9,"aqi":156,"pm10":105.7,"pm2_5":87.1,"mosquito_risk":3,"arthritis_risk":5,"migraine_risk":7,"frizz_risk":1,"updated_at":"2026-03-24T00:29:55.072146+05:30"},{"city":"Bokaro","state":"Jharkhand","latitude":23.6693,"longitude":86.1511,"temp":23.9,"humidity":56,"rain":0.0,"pressure":987.4,"uv_index":8.3,"wind_gusts":18.7,"aqi":154,"pm10":108.5,"pm2_5":82.9,"mosquito_risk":0,"arthritis_risk":5,"migraine_risk":7,"frizz_risk":0,"updated_at":"2026-03-24T00:29:55.072153+05:30"},{"city":"Bhubaneswar","state":"Odisha","latitude":20.2961,"longitude":85.8245,"temp":25.3,"humidity":89,"rain":0.0,"pressure":1005.6,"uv_index":8.65,"wind_gusts":29.5,"aqi":123,"pm10":21.9,"pm2_5":18.6,"mosquito_risk":7,"arthritis_risk":5,"migraine_risk":4,"frizz_risk":1,"updated_at":"2026-03-24T00:29:55.072161+05:30"},{"city":"Cuttack","state":"Odisha","latitude":20.4625,"longitude":85.8828,"temp":25.1,"humidity":92,"rain":0.0,"pressure":1007.7,"uv_index":8.7,"wind_gusts":25.9,"aqi":123,"pm10":21.9,"pm2_5":18.6,"mosquito_risk":7,"arthritis_risk":5,"migraine_risk":4,"frizz_risk":1,"updated_at":"2026-03-24T00:29:55.072168+05:30"},{"city":"Rourkela","state":"Odisha","latitude":22.2604,"longitude":84.8536,"temp":20.3,"humidity":82,"rain":0.0,"pressure":987.4,"uv_index":8.3,"wind_gusts":19.1,"aqi":91,"pm10":56.0,"pm2_5":38.9,"mosquito_risk":3,"arthritis_risk":5,"migraine_risk":7,"frizz_risk":1,"updated_at":"2026-03-24T00:29:55.072175+05:30"},{"city":"Raipur","state":"Chhattisgarh","latitude":21.2514,"longitude":81.6296,"temp":26.2,"humidity":43,"rain":0.0,"pressure":976.2,"uv_index":8.45,"wind_gusts":18.7,"aqi":122,"pm10":55.5,"pm2_5":43.1,"mosquito_risk":4,"arthritis_risk":5,"migraine_risk":7,"frizz_risk":0,"updated_at":"2026-03-24T00:29:55.072181+05:30"},{"city":"Bhilai","state":"Chhattisgarh","latitude":21.1938,"longitude":81.3509,"temp":25.7,"humidity":47,"rain":0.0,"pressure":976.5,"uv_index":8.45,"wind_gusts":16.6,"aqi":127,"pm10":55.8,"pm2_5":44.7,"mosquito_risk":4,"arthritis_risk":5,"migraine_risk":7,"frizz_risk":0,"updated_at":"2026-03-24T00:29:55.072188+05:30"},{"city":"Guwahati","state":"Assam","latitude":26.1158,"longitude":91.7086,"temp":21.3,"humidity":85,"rain":0.0,"pressure":1005.7,"uv_index":7.6,"wind_gusts":20.9,"aqi":76,"pm10":32.2,"pm2_5":30.5,"mosquito_risk":3,"arthritis_risk":5,"migraine_risk":4,"frizz_risk":1,"updated_at":"2026-03-24T00:29:55.072194+05:30"},{"city":"Agartala","state":"Tripura","latitude":23.8315,"longitude":91.2868,"temp":22.2,"humidity":71,"rain":0.0,"pressure":1009.7,"uv_index":8.05,"wind_gusts":13.3,"aqi":157,"pm10":90.6,"pm2_5":86.8,"mosquito_risk":3,"arthritis_risk":0,"migraine_risk":4,"frizz_risk":1,"updated_at":"2026-03-24T00:29:55.072201+05:30"},{"city":"Shillong","state":"Meghalaya","latitude":25.5788,"longitude":91.8933,"temp":8.6,"humidity":85,"rain":0.0,"pressure":855.1,"uv_index":7.15,"wind_gusts":25.2,"aqi":65,"pm10":23.6,"pm2_5":22.5,"mosquito_risk":3,"arthritis_risk":10,"migraine_risk":7,"frizz_risk":0,"updated_at":"2026-03-24T00:29:55.072208+05:30"},{"city":"Imphal","state":"Manipur","latitude":24.817,"longitude":93.9368,"temp":13.9,"humidity":87,"rain":0.0,"pressure":925.1,"uv_index":8.35,"wind_gusts":36.7,"aqi":77,"pm10":41.1,"pm2_5":39.2,"mosquito_risk":3,"arthritis_risk":10,"migraine_risk":7,"frizz_risk":0,"updated_at":"2026-03-24T00:29:55.072215+05:30"},{"city":"Aizawl","state":"Mizoram","latitude":23.7271,"longitude":92.7176,"temp":14.2,"humidity":76,"rain":0.0,"pressure":893.6,"uv_index":8.3,"wind_gusts":33.5,"aqi":75,"pm10":36.9,"pm2_5":33.5,"mosquito_risk":3,"arthritis_risk":5,"migraine_risk":7,"frizz_risk":0,"updated_at":"2026-03-24T00:29:55.072222+05:30"},{"city":"Kohima","state":"Nagaland","latitude":25.6701,"longitude":94.1077,"temp":11.8,"humidity":95,"rain":0.0,"pressure":855.1,"uv_index":8.0,"wind_gusts":39.2,"aqi":67,"pm10":30.2,"pm2_5":27.4,"mosquito_risk":3,"arthritis_risk":10,"migraine_risk":7,"frizz_risk":0,"updated_at":"2026-03-24T00:29:55.072228+05:30"},{"city":"Gangtok","state":"Sikkim","latitude":27.3314,"longitude":88.6138,"temp":11.1,"humidity":97,"rain":0.3,"pressure":837.4,"uv_index":6.5,"wind_gusts":18.7,"aqi":73,"pm10":21.9,"pm2_5":21.2,"mosquito_risk":6,"arthritis_risk":10,"migraine_risk":7,"frizz_risk":0,"updated_at":"2026-03-24T00:29:55.072235+05:30"},{"city":"Siliguri","state":"West Bengal","latitude":26.7271,"longitude":88.3953,"temp":18.2,"humidity":67,"rain":0.0,"pressure":997.6,"uv_index":7.1,"wind_gusts":20.5,"aqi":102,"pm10":45.3,"pm2_5":43.7,"mosquito_risk":3,"arthritis_risk":5,"migraine_risk":7,"frizz_risk":0,"updated_at":"2026-03-24T00:29:58.336742+05:30"},{"city":"Durgapur","state":"West Bengal","latitude":23.5204,"longitude":87.3119,"temp":23.3,"humidity":70,"rain":0.0,"pressure":998.5,"uv_index":8.25,"wind_gusts":16.2,"aqi":158,"pm10":95.9,"pm2_5":89.2,"mosquito_risk":3,"arthritis_risk":5,"migraine_risk":7,"frizz_risk":1,"updated_at":"2026-03-24T00:29:58.336771+05:30"},{"city":"Asansol","state":"West Bengal","latitude":23.6739,"longitude":86.9524,"temp":23.9,"humidity":62,"rain":0.0,"pressure":997.1,"uv_index":8.25,"wind_gusts":16.6,"aqi":134,"pm10":67.8,"pm2_5":57.2,"mosquito_risk":3,"arthritis_risk":5,"migraine_risk":7,"frizz_risk":1,"updated_at":"2026-03-24T00:29:58.336780+05:30"},{"city":"Pondicherry","state":"Puducherry","latitude":11.9139,"longitude":79.8145,"temp":25.5,"humidity":88,"rain":0.0,"pressure":1010.5,"uv_index":9.15,"wind_gusts":29.2,"aqi":30,"pm10":10.2,"pm2_5":6.3,"mosquito_risk":7,"arthritis_risk":0,"migraine_risk":4,"frizz_risk":1,"updated_at":"2026-03-24T00:29:58.336788+05:30"},{"city":"Port Blair","state":"Andaman and Nicobar Islands","latitude":11.6234,"longitude":92.7265,"temp":27.9,"humidity":79,"rain":0.0,"pressure":1007.7,"uv_index":9.1,"wind_gusts":23.4,"aqi":32,"pm10":7.2,"pm2_5":4.4,"mosquito_risk":7,"arthritis_risk":5,"migraine_risk":4,"frizz_risk":1,"updated_at":"2026-03-24T00:29:58.336796+05:30"},{"city":"Haridwar","state":"Uttarakhand","latitude":29.9457,"longitude":78.1642,"temp":17.4,"humidity":96,"rain":0.0,"pressure":978.8,"uv_index":6.35,"wind_gusts":24.8,"aqi":109,"pm10":79.6,"pm2_5":63.1,"mosquito_risk":3,"arthritis_risk":10,"migraine_risk":7,"frizz_risk":1,"updated_at":"2026-03-24T00:29:58.336804+05:30"},{"city":"Rishikesh","state":"Uttarakhand","latitude":30.0869,"longitude":78.2676,"temp":17.6,"humidity":85,"rain":0.0,"pressure":971.2,"uv_index":6.4,"wind_gusts":21.2,"aqi":86,"pm10":63.8,"pm2_5":43.7,"mosquito_risk":3,"arthritis_risk":10,"migraine_risk":7,"frizz_risk":0,"updated_at":"2026-03-24T00:29:58.336812+05:30"},{"city":"Nainital","state":"Uttarakhand","latitude":29.3919,"longitude":79.4542,"temp":13.3,"humidity":77,"rain":0.0,"pressure":806.4,"uv_index":7.0,"wind_gusts":45.0,"aqi":77,"pm10":54.9,"pm2_5":44.4,"mosquito_risk":3,"arthritis_risk":5,"migraine_risk":7,"frizz_risk":0,"updated_at":"2026-03-24T00:29:58.336819+05:30"},{"city":"Mussoorie","state":"Uttarakhand","latitude":30.4599,"longitude":78.0664,"temp":11.3,"humidity":75,"rain":0.0,"pressure":802.4,"uv_index":6.65,"wind_gusts":24.5,"aqi":88,"pm10":58.2,"pm2_5":48.9,"mosquito_risk":3,"arthritis_risk":5,"migraine_risk":7,"frizz_risk":0,"updated_at":"2026-03-24T00:29:58.336827+05:30"},{"city":"Dharamshala","state":"Himachal Pradesh","latitude":32.219,"longitude":76.3234,"temp":15.3,"humidity":56,"rain":0.0,"pressure":870.0,"uv_index":6.95,"wind_gusts":19.4,"aqi":91,"pm10":24.7,"pm2_5":19.3,"mosquito_risk":0,"arthritis_risk":5,"migraine_risk":7,"frizz_risk":0,"updated_at":"2026-03-24T00:29:58.336834+05:30"},{"city":"Dalhousie","state":"Himachal Pradesh","latitude":32.5387,"longitude":75.971,"temp":11.5,"humidity":62,"rain":0.0,"pressure":803.1,"uv_index":7.15,"wind_gusts":17.3,"aqi":78,"pm10":44.6,"pm2_5":40.9,"mosquito_risk":3,"arthritis_risk":5,"migraine_risk":7,"frizz_risk":0,"updated_at":"2026-03-24T00:29:58.336843+05:30"},{"city":"Patiala","state":"Punjab","latitude":30.3398,"longitude":76.3869,"temp":18.6,"humidity":80,"rain":0.0,"pressure":982.2,"uv_index":6.3,"wind_gusts":23.8,"aqi":135,"pm10":84.3,"pm2_5":67.5,"mosquito_risk":3,"arthritis_risk":5,"migraine_risk":7,"frizz_risk":0,"updated_at":"2026-03-24T00:29:58.336850+05:30"},{"city":"Bhatinda","state":"Punjab","latitude":30.211,"longitude":74.9455,"temp":20.4,"humidity":75,"rain":0.0,"pressure":987.8,"uv_index":7.0,"wind_gusts":18.4,"aqi":135,"pm10":78.2,"pm2_5":55.5,"mosquito_risk":3,"arthritis_risk":5,"migraine_risk":7,"frizz_risk":0,"updated_at":"2026-03-24T00:29:58.336856+05:30"},{"city":"Rohtak","state":"Haryana","latitude":28.8955,"longitude":76.6066,"temp":19.7,"humidity":91,"rain":0.0,"pressure":986.0,"uv_index":6.45,"wind_gusts":20.5,"aqi":145,"pm10":80.6,"pm2_5":61.0,"mosquito_risk":3,"arthritis_risk":10,"migraine_risk":7,"frizz_risk":1,"updated_at":"2026-03-24T00:29:58.336864+05:30"},{"city":"Panipat","state":"Haryana","latitude":29.3909,"longitude":76.9635,"temp":18.0,"humidity":95,"rain":0.0,"pressure":984.8,"uv_index":6.3,"wind_gusts":23.0,"aqi":150,"pm10":100.1,"pm2_5":73.3,"mosquito_risk":3,"arthritis_risk":10,"migraine_risk":7,"frizz_risk":1,"updated_at":"2026-03-24T00:29:58.336871+05:30"},{"city":"Mathura","state":"Uttar Pradesh","latitude":27.4924,"longitude":77.6737,"temp":19.7,"humidity":89,"rain":0.0,"pressure":991.3,"uv_index":5.9,"wind_gusts":20.2,"aqi":166,"pm10":123.9,"pm2_5":70.8,"mosquito_risk":3,"arthritis_risk":10,"migraine_risk":3,"frizz_risk":1,"updated_at":"2026-03-24T00:29:58.336911+05:30"},{"city":"Vrindavan","state":"Uttar Pradesh","latitude":27.5823,"longitude":77.7027,"temp":19.0,"humidity":91,"rain":0.0,"pressure":991.9,"uv_index":6.05,"wind_gusts":19.8,"aqi":166,"pm10":123.9,"pm2_5":70.8,"mosquito_risk":3,"arthritis_risk":10,"migraine_risk":7,"frizz_risk":1,"updated_at":"2026-03-24T00:29:58.336919+05:30"},{"city":"Ayodhya","state":"Uttar Pradesh","latitude":26.7922,"longitude":82.1998,"temp":21.4,"humidity":71,"rain":0.0,"pressure":1000.0,"uv_index":7.1,"wind_gusts":29.2,"aqi":141,"pm10":56.5,"pm2_5":37.7,"mosquito_risk":3,"arthritis_risk":5,"migraine_risk":4,"frizz_risk":0,"updated_at":"2026-03-24T00:29:58.336927+05:30"},{"city":"Ratlam","state":"Madhya Pradesh","latitude":23.3315,"longitude":75.0367,"temp":24.9,"humidity":51,"rain":0.0,"pressure":956.3,"uv_index":7.95,"wind_gusts":29.2,"aqi":72,"pm10":28.6,"pm2_5":16.5,"mosquito_risk":0,"arthritis_risk":5,"migraine_risk":7,"frizz_risk":0,"updated_at":"2026-03-24T00:29:58.336935+05:30"},{"city":"Sagar","state":"Madhya Pradesh","latitude":23.8388,"longitude":78.7378,"temp":23.9,"humidity":56,"rain":0.0,"pressure":952.6,"uv_index":8.0,"wind_gusts":31.0,"aqi":62,"pm10":41.3,"pm2_5":25.7,"mosquito_risk":0,"arthritis_risk":5,"migraine_risk":7,"frizz_risk":0,"updated_at":"2026-03-24T00:29:58.336942+05:30"},{"city":"Satna","state":"Madhya Pradesh","latitude":24.6005,"longitude":80.8322,"temp":23.2,"humidity":61,"rain":0.0,"pressure":975.0,"uv_index":7.95,"wind_gusts":23.4,"aqi":67,"pm10":72.4,"pm2_5":25.5,"mosquito_risk":3,"arthritis_risk":5,"migraine_risk":7,"frizz_risk":0,"updated_at":"2026-03-24T00:29:58.336949+05:30"},{"city":"Akola","state":"Maharashtra","latitude":20.7002,"longitude":77.0082,"temp":25.6,"humidity":58,"rain":0.0,"pressure":976.2,"uv_index":8.35,"wind_gusts":16.6,"aqi":80,"pm10":40.6,"pm2_5":35.3,"mosquito_risk":4,"arthritis_risk":5,"migraine_risk":7,"frizz_risk":1,"updated_at":"2026-03-24T00:29:58.336957+05:30"},{"city":"Amravati","state":"Maharashtra","latitude":20.9374,"longitude":77.7796,"temp":24.4,"humidity":57,"rain":0.0,"pressure":968.2,"uv_index":8.35,"wind_gusts":22.0,"aqi":84,"pm10":42.0,"pm2_5":36.9,"mosquito_risk":0,"arthritis_risk":5,"migraine_risk":7,"frizz_risk":0,"updated_at":"2026-03-24T00:29:58.336965+05:30"},{"city":"Latur","state":"Maharashtra","latitude":18.4088,"longitude":76.5604,"temp":25.3,"humidity":51,"rain":0.0,"pressure":940.3,"uv_index":8.6,"wind_gusts":22.3,"aqi":87,"pm10":41.8,"pm2_5":36.2,"mosquito_risk":4,"arthritis_risk":5,"migraine_risk":7,"frizz_risk":0,"updated_at":"2026-03-24T00:29:58.336972+05:30"},{"city":"Nanded","state":"Maharashtra","latitude":19.1383,"longitude":77.3091,"temp":26.9,"humidity":54,"rain":0.0,"pressure":969.4,"uv_index":8.55,"wind_gusts":18.0,"aqi":101,"pm10":68.9,"pm2_5":59.6,"mosquito_risk":4,"arthritis_risk":5,"migraine_risk":7,"frizz_risk":1,"updated_at":"2026-03-24T00:29:58.336979+05:30"},{"city":"Gulbarga","state":"Karnataka","latitude":17.3297,"longitude":76.8343,"temp":27.5,"humidity":54,"rain":0.0,"pressure":959.2,"uv_index":8.8,"wind_gusts":26.3,"aqi":96,"pm10":44.9,"pm2_5":35.4,"mosquito_risk":4,"arthritis_risk":5,"migraine_risk":7,"frizz_risk":1,"updated_at":"2026-03-24T00:29:58.336986+05:30"},{"city":"Bidar","state":"Karnataka","latitude":17.9104,"longitude":77.5199,"temp":27.2,"humidity":58,"rain":0.0,"pressure":936.3,"uv_index":8.8,"wind_gusts":22.7,"aqi":112,"pm10":60.1,"pm2_5":49.0,"mosquito_risk":4,"arthritis_risk":5,"migraine_risk":7,"frizz_risk":1,"updated_at":"2026-03-24T00:29:58.336993+05:30"},{"city":"Hospet","state":"Karnataka","latitude":15.2689,"longitude":76.3909,"temp":27.2,"humidity":67,"rain":0.0,"pressure":956.7,"uv_index":9.05,"wind_gusts":19.1,"aqi":114,"pm10":46.9,"pm2_5":37.4,"mosquito_risk":7,"arthritis_risk":5,"migraine_risk":7,"frizz_risk":1,"updated_at":"2026-03-24T00:29:58.337000+05:30"},{"city":"Tirupur","state":"Tamil Nadu","latitude":11.1085,"longitude":77.3411,"temp":27.0,"humidity":61,"rain":0.0,"pressure":976.9,"uv_index":9.4,"wind_gusts":31.3,"aqi":70,"pm10":29.6,"pm2_5":23.9,"mosquito_risk":7,"arthritis_risk":5,"migraine_risk":7,"frizz_risk":1,"updated_at":"2026-03-24T00:29:58.337006+05:30"},{"city":"Alappuzha","state":"Kerala","latitude":9.4981,"longitude":76.3388,"temp":28.1,"humidity":81,"rain":0.0,"pressure":1010.2,"uv_index":9.15,"wind_gusts":33.1,"aqi":82,"pm10":53.1,"pm2_5":40.5,"mosquito_risk":7,"arthritis_risk":0,"migraine_risk":4,"frizz_risk":1,"updated_at":"2026-03-24T00:29:58.337013+05:30"},{"city":"Munnar","state":"Kerala","latitude":10.0889,"longitude":77.0595,"temp":20.5,"humidity":81,"rain":0.0,"pressure":857.5,"uv_index":9.65,"wind_gusts":29.5,"aqi":71,"pm10":38.9,"pm2_5":31.1,"mosquito_risk":3,"arthritis_risk":5,"migraine_risk":7,"frizz_risk":1,"updated_at":"2026-03-24T00:29:58.337020+05:30"},{"city":"Silchar","state":"Assam","latitude":24.8333,"longitude":92.7789,"temp":20.0,"humidity":83,"rain":0.0,"pressure":1008.9,"uv_index":8.05,"wind_gusts":18.7,"aqi":120,"pm10":69.4,"pm2_5":66.4,"mosquito_risk":3,"arthritis_risk":0,"migraine_risk":4,"frizz_risk":1,"updated_at":"2026-03-24T00:29:58.337028+05:30"},{"city":"Dibrugarh","state":"Assam","latitude":27.4728,"longitude":94.912,"temp":20.3,"humidity":94,"rain":0.0,"pressure":1000.1,"uv_index":7.75,"wind_gusts":14.8,"aqi":66,"pm10":26.9,"pm2_5":26.6,"mosquito_risk":3,"arthritis_risk":5,"migraine_risk":4,"frizz_risk":1,"updated_at":"2026-03-24T00:29:58.337035+05:30"}]