[{"city":"Delhi","state":"Delhi","latitude":28.6139,"longitude":77.209,"temp":29.1,"humidity":84,"rain":0.0,"pressure":976.4,"uv_index":6.7,"wind_gusts":29.9,"aqi":198,"pm10":269.2,"pm2_5":92.4,"no2":36.7,"co":279.0,"o3":39.0,"so2":31.3,"mosquito_risk":7,"arthritis_risk":5,"migraine_risk":7,"frizz_risk":1,"updated_at":"2026-07-20T03:25:41.291318+05:30"},{"city":"Mumbai","state":"Maharashtra","latitude":19.076,"longitude":72.8777,"temp":25.6,"humidity":92,"rain":0.1,"pressure":1005.5,"uv_index":7.7,"wind_gusts":45.0,"aqi":58,"pm10":22.8,"pm2_5":10.3,"no2":6.4,"co":129.0,"o3":44.0,"so2":5.6,"mosquito_risk":10,"arthritis_risk":5,"migraine_risk":4,"frizz_risk":1,"updated_at":"2026-07-20T03:25:41.291369+05:30"},{"city":"Bangalore","state":"Karnataka","latitude":12.9716,"longitude":77.5946,"temp":21.0,"humidity":91,"rain":0.0,"pressure":910.7,"uv_index":8.5,"wind_gusts":51.1,"aqi":50,"pm10":6.0,"pm2_5":4.5,"no2":6.7,"co":151.0,"o3":36.0,"so2":3.5,"mosquito_risk":3,"arthritis_risk":5,"migraine_risk":7,"frizz_risk":1,"updated_at":"2026-07-20T03:25:41.291386+05:30"},{"city":"Hyderabad","state":"Telangana","latitude":17.385,"longitude":78.4867,"temp":23.2,"humidity":90,"rain":0.0,"pressure":950.2,"uv_index":5.05,"wind_gusts":49.0,"aqi":41,"pm10":4.7,"pm2_5":3.6,"no2":5.7,"co":134.0,"o3":37.0,"so2":3.2,"mosquito_risk":3,"arthritis_risk":5,"migraine_risk":3,"frizz_risk":1,"updated_at":"2026-07-20T03:25:41.291395+05:30"},{"city":"Chennai","state":"Tamil Nadu","latitude":13.0827,"longitude":80.2707,"temp":27.8,"humidity":82,"rain":0.0,"pressure":1005.2,"uv_index":7.75,"wind_gusts":37.1,"aqi":75,"pm10":26.3,"pm2_5":17.2,"no2":9.1,"co":274.0,"o3":64.0,"so2":7.8,"mosquito_risk":7,"arthritis_risk":5,"migraine_risk":4,"frizz_risk":1,"updated_at":"2026-07-20T03:25:41.291403+05:30"},{"city":"Kolkata","state":"West Bengal","latitude":22.5726,"longitude":88.3639,"temp":26.9,"humidity":92,"rain":0.0,"pressure":1001.6,"uv_index":3.5,"wind_gusts":29.9,"aqi":66,"pm10":38.1,"pm2_5":26.8,"no2":5.8,"co":210.0,"o3":83.0,"so2":5.0,"mosquito_risk":7,"arthritis_risk":5,"migraine_risk":0,"frizz_risk":1,"updated_at":"2026-07-20T03:25:41.291410+05:30"},{"city":"Pune","state":"Maharashtra","latitude":18.5204,"longitude":73.8567,"temp":23.0,"humidity":89,"rain":0.0,"pressure":945.0,"uv_index":8.05,"wind_gusts":47.2,"aqi":22,"pm10":2.3,"pm2_5":1.9,"no2":6.0,"co":118.0,"o3":34.0,"so2":5.6,"mosquito_risk":3,"arthritis_risk":5,"migraine_risk":7,"frizz_risk":1,"updated_at":"2026-07-20T03:25:41.291416+05:30"},{"city":"Ahmedabad","state":"Gujarat","latitude":23.0225,"longitude":72.5714,"temp":26.7,"humidity":92,"rain":0.1,"pressure":997.0,"uv_index":6.1,"wind_gusts":34.6,"aqi":65,"pm10":24.7,"pm2_5":14.6,"no2":9.0,"co":148.0,"o3":37.0,"so2":4.2,"mosquito_risk":10,"arthritis_risk":5,"migraine_risk":7,"frizz_risk":1,"updated_at":"2026-07-20T03:25:41.291423+05:30"},{"city":"Jaipur","state":"Rajasthan","latitude":26.9124,"longitude":75.7873,"temp":29.8,"humidity":66,"rain":0.0,"pressure":954.4,"uv_index":5.35,"wind_gusts":29.5,"aqi":128,"pm10":339.0,"pm2_5":61.5,"no2":10.8,"co":167.0,"o3":53.0,"so2":5.8,"mosquito_risk":7,"arthritis_risk":5,"migraine_risk":3,"frizz_risk":1,"updated_at":"2026-07-20T03:25:41.291429+05:30"},{"city":"Lucknow","state":"Uttar Pradesh","latitude":26.8467,"longitude":80.9462,"temp":26.0,"humidity":98,"rain":0.2,"pressure":988.2,"uv_index":6.15,"wind_gusts":26.6,"aqi":141,"pm10":61.2,"pm2_5":46.3,"no2":24.0,"co":276.0,"o3":50.0,"so2":9.6,"mosquito_risk":10,"arthritis_risk":5,"migraine_risk":7,"frizz_risk":1,"updated_at":"2026-07-20T03:25:41.291437+05:30"},{"city":"Kanpur","state":"Uttar Pradesh","latitude":26.4499,"longitude":80.3319,"temp":26.9,"humidity":97,"rain":0.2,"pressure":986.2,"uv_index":5.45,"wind_gusts":32.4,"aqi":136,"pm10":50.5,"pm2_5":32.6,"no2":18.4,"co":310.0,"o3":49.0,"so2":2.9,"mosquito_risk":10,"arthritis_risk":5,"migraine_risk":3,"frizz_risk":1,"updated_at":"2026-07-20T03:25:41.291443+05:30"},{"city":"Chandigarh","state":"Chandigarh","latitude":30.7333,"longitude":76.7794,"temp":26.8,"humidity":92,"rain":0.0,"pressure":963.0,"uv_index":1.6,"wind_gusts":29.9,"aqi":163,"pm10":125.3,"pm2_5":66.8,"no2":18.3,"co":291.0,"o3":63.0,"so2":14.2,"mosquito_risk":7,"arthritis_risk":5,"migraine_risk":3,"frizz_risk":1,"updated_at":"2026-07-20T03:25:41.291452+05:30"},{"city":"Srinagar","state":"Jammu and Kashmir","latitude":34.0837,"longitude":74.7973,"temp":21.3,"humidity":99,"rain":0.2,"pressure":838.2,"uv_index":8.7,"wind_gusts":20.9,"aqi":74,"pm10":38.2,"pm2_5":35.7,"no2":25.3,"co":454.0,"o3":23.0,"so2":1.8,"mosquito_risk":6,"arthritis_risk":5,"migraine_risk":7,"frizz_risk":1,"updated_at":"2026-07-20T03:25:41.291459+05:30"},{"city":"Jammu","state":"Jammu and Kashmir","latitude":32.7266,"longitude":74.857,"temp":27.0,"humidity":95,"rain":0.2,"pressure":966.3,"uv_index":6.85,"wind_gusts":22.3,"aqi":141,"pm10":72.4,"pm2_5":38.6,"no2":17.8,"co":294.0,"o3":57.0,"so2":4.3,"mosquito_risk":10,"arthritis_risk":5,"migraine_risk":7,"frizz_risk":1,"updated_at":"2026-07-20T03:25:41.291464+05:30"},{"city":"Amritsar","state":"Punjab","latitude":31.634,"longitude":74.8723,"temp":29.5,"humidity":84,"rain":0.0,"pressure":973.5,"uv_index":6.85,"wind_gusts":36.7,"aqi":174,"pm10":144.8,"pm2_5":83.4,"no2":17.3,"co":635.0,"o3":55.0,"so2":7.4,"mosquito_risk":7,"arthritis_risk":5,"migraine_risk":7,"frizz_risk":1,"updated_at":"2026-07-20T03:25:41.291469+05:30"},{"city":"Ludhiana","state":"Punjab","latitude":30.901,"longitude":75.8573,"temp":28.8,"humidity":87,"rain":0.0,"pressure":972.1,"uv_index":7.0,"wind_gusts":35.3,"aqi":189,"pm10":476.8,"pm2_5":139.7,"no2":17.5,"co":457.0,"o3":76.0,"so2":16.8,"mosquito_risk":7,"arthritis_risk":5,"migraine_risk":7,"frizz_risk":1,"updated_at":"2026-07-20T03:25:41.291475+05:30"},{"city":"Jalandhar","state":"Punjab","latitude":31.326,"longitude":75.5762,"temp":29.5,"humidity":85,"rain":0.0,"pressure":973.0,"uv_index":7.9,"wind_gusts":36.0,"aqi":175,"pm10":237.5,"pm2_5":110.6,"no2":24.8,"co":470.0,"o3":51.0,"so2":19.0,"mosquito_risk":7,"arthritis_risk":5,"migraine_risk":7,"frizz_risk":1,"updated_at":"2026-07-20T03:25:41.291481+05:30"},{"city":"Dehradun","state":"Uttarakhand","latitude":30.6284,"longitude":78.0322,"temp":18.5,"humidity":100,"rain":0.1,"pressure":827.1,"uv_index":2.65,"wind_gusts":19.4,"aqi":55,"pm10":28.5,"pm2_5":12.9,"no2":8.3,"co":248.0,"o3":65.0,"so2":0.7,"mosquito_risk":6,"arthritis_risk":10,"migraine_risk":3,"frizz_risk":1,"updated_at":"2026-07-20T03:25:41.291489+05:30"},{"city":"Shimla","state":"Himachal Pradesh","latitude":31.1048,"longitude":77.1734,"temp":17.1,"humidity":94,"rain":0.0,"pressure":782.0,"uv_index":2.75,"wind_gusts":26.6,"aqi":81,"pm10":52.4,"pm2_5":23.9,"no2":13.8,"co":223.0,"o3":50.0,"so2":4.3,"mosquito_risk":3,"arthritis_risk":10,"migraine_risk":3,"frizz_risk":0,"updated_at":"2026-07-20T03:25:41.291495+05:30"},{"city":"Manali","state":"Himachal Pradesh","latitude":32.2396,"longitude":77.1887,"temp":20.2,"humidity":98,"rain":0.0,"pressure":816.6,"uv_index":7.8,"wind_gusts":31.0,"aqi":45,"pm10":6.7,"pm2_5":6.3,"no2":25.1,"co":219.0,"o3":14.0,"so2":0.0,"mosquito_risk":3,"arthritis_risk":5,"migraine_risk":7,"frizz_risk":1,"updated_at":"2026-07-20T03:25:41.291501+05:30"},{"city":"Gurgaon","state":"Haryana","latitude":28.4595,"longitude":77.0266,"temp":29.3,"humidity":81,"rain":0.0,"pressure":974.7,"uv_index":6.75,"wind_gusts":25.2,"aqi":306,"pm10":702.2,"pm2_5":144.4,"no2":18.5,"co":276.0,"o3":59.0,"so2":12.0,"mosquito_risk":7,"arthritis_risk":5,"migraine_risk":7,"frizz_risk":1,"updated_at":"2026-07-20T03:25:41.291507+05:30"},{"city":"Noida","state":"Uttar Pradesh","latitude":28.5355,"longitude":77.391,"temp":28.0,"humidity":91,"rain":0.0,"pressure":978.0,"uv_index":6.95,"wind_gusts":35.6,"aqi":306,"pm10":702.2,"pm2_5":144.4,"no2":18.5,"co":294.0,"o3":59.0,"so2":12.0,"mosquito_risk":7,"arthritis_risk":5,"migraine_risk":7,"frizz_risk":1,"updated_at":"2026-07-20T03:25:41.291512+05:30"},{"city":"Ghaziabad","state":"Uttar Pradesh","latitude":28.6692,"longitude":77.4538,"temp":28.0,"humidity":93,"rain":0.0,"pressure":976.4,"uv_index":7.4,"wind_gusts":32.0,"aqi":180,"pm10":133.2,"pm2_5":67.5,"no2":25.1,"co":355.0,"o3":38.0,"so2":10.6,"mosquito_risk":7,"arthritis_risk":5,"migraine_risk":7,"frizz_risk":1,"updated_at":"2026-07-20T03:25:41.291518+05:30"},{"city":"Faridabad","state":"Haryana","latitude":28.4089,"longitude":77.3178,"temp":28.5,"humidity":88,"rain":0.0,"pressure":977.1,"uv_index":6.85,"wind_gusts":36.7,"aqi":306,"pm10":702.2,"pm2_5":144.4,"no2":18.5,"co":283.0,"o3":59.0,"so2":12.0,"mosquito_risk":7,"arthritis_risk":5,"migraine_risk":7,"frizz_risk":1,"updated_at":"2026-07-20T03:25:41.291523+05:30"},{"city":"Meerut","state":"Uttar Pradesh","latitude":28.9845,"longitude":77.7064,"temp":26.1,"humidity":98,"rain":0.2,"pressure":975.7,"uv_index":5.25,"wind_gusts":30.6,"aqi":180,"pm10":133.2,"pm2_5":67.5,"no2":25.1,"co":399.0,"o3":38.0,"so2":10.6,"mosquito_risk":10,"arthritis_risk":5,"migraine_risk":3,"frizz_risk":1,"updated_at":"2026-07-20T03:25:41.291529+05:30"},{"city":"Agra","state":"Uttar Pradesh","latitude":27.1767,"longitude":78.0081,"temp":28.4,"humidity":87,"rain":0.0,"pressure":981.7,"uv_index":4.35,"wind_gusts":30.2,"aqi":133,"pm10":27.5,"pm2_5":20.1,"no2":9.3,"co":190.0,"o3":71.0,"so2":3.5,"mosquito_risk":7,"arthritis_risk":5,"migraine_risk":3,"frizz_risk":1,"updated_at":"2026-07-20T03:25:41.291534+05:30"},{"city":"Varanasi","state":"Uttar Pradesh","latitude":25.3176,"longitude":82.9739,"temp":25.9,"humidity":99,"rain":0.0,"pressure":992.8,"uv_index":6.9,"wind_gusts":25.9,"aqi":107,"pm10":61.7,"pm2_5":59.8,"no2":39.0,"co":474.0,"o3":25.0,"so2":16.0,"mosquito_risk":7,"arthritis_risk":5,"migraine_risk":7,"frizz_risk":1,"updated_at":"2026-07-20T03:25:41.291540+05:30"},{"city":"Prayagraj","state":"Uttar Pradesh","latitude":25.4358,"longitude":81.8463,"temp":27.5,"humidity":92,"rain":0.1,"pressure":990.8,"uv_index":7.6,"wind_gusts":29.9,"aqi":120,"pm10":57.0,"pm2_5":53.8,"no2":39.3,"co":238.0,"o3":21.0,"so2":12.7,"mosquito_risk":10,"arthritis_risk":5,"migraine_risk":7,"frizz_risk":1,"updated_at":"2026-07-20T03:25:41.291545+05:30"},{"city":"Gorakhpur","state":"Uttar Pradesh","latitude":26.7606,"longitude":83.3732,"temp":25.3,"humidity":98,"rain":0.1,"pressure":992.6,"uv_index":7.65,"wind_gusts":24.1,"aqi":73,"pm10":24.8,"pm2_5":24.7,"no2":11.8,"co":389.0,"o3":77.0,"so2":7.0,"mosquito_risk":10,"arthritis_risk":5,"migraine_risk":7,"frizz_risk":1,"updated_at":"2026-07-20T03:25:41.291551+05:30"},{"city":"Bareilly","state":"Uttar Pradesh","latitude":28.367,"longitude":79.4304,"temp":25.4,"humidity":97,"rain":0.0,"pressure":981.5,"uv_index":7.05,"wind_gusts":27.4,"aqi":128,"pm10":42.4,"pm2_5":32.8,"no2":16.4,"co":281.0,"o3":66.0,"so2":7.4,"mosquito_risk":7,"arthritis_risk":5,"migraine_risk":7,"frizz_risk":1,"updated_at":"2026-07-20T03:25:41.291558+05:30"},{"city":"Aligarh","state":"Uttar Pradesh","latitude":27.8974,"longitude":78.088,"temp":27.6,"humidity":94,"rain":0.1,"pressure":979.6,"uv_index":5.85,"wind_gusts":21.6,"aqi":166,"pm10":69.2,"pm2_5":40.3,"no2":19.0,"co":226.0,"o3":50.0,"so2":8.0,"mosquito_risk":10,"arthritis_risk":5,"migraine_risk":3,"frizz_risk":1,"updated_at":"2026-07-20T03:25:41.291563+05:30"},{"city":"Moradabad","state":"Uttar Pradesh","latitude":28.8386,"longitude":78.7733,"temp":26.0,"humidity":97,"rain":0.1,"pressure":978.7,"uv_index":5.3,"wind_gusts":24.8,"aqi":152,"pm10":41.9,"pm2_5":27.3,"no2":9.5,"co":283.0,"o3":90.0,"so2":6.2,"mosquito_risk":10,"arthritis_risk":5,"migraine_risk":3,"frizz_risk":1,"updated_at":"2026-07-20T03:25:41.291568+05:30"},{"city":"Saharanpur","state":"Uttar Pradesh","latitude":29.9637,"longitude":77.546,"temp":25.3,"humidity":97,"rain":0.1,"pressure":970.3,"uv_index":5.3,"wind_gusts":27.0,"aqi":162,"pm10":102.2,"pm2_5":60.1,"no2":14.3,"co":262.0,"o3":76.0,"so2":14.9,"mosquito_risk":10,"arthritis_risk":5,"migraine_risk":3,"frizz_risk":1,"updated_at":"2026-07-20T03:25:41.291574+05:30"},{"city":"Jhansi","state":"Uttar Pradesh","latitude":25.4484,"longitude":78.5685,"temp":27.2,"humidity":95,"rain":0.0,"pressure":972.7,"uv_index":1.55,"wind_gusts":29.5,"aqi":88,"pm10":30.9,"pm2_5":21.6,"no2":9.3,"co":189.0,"o3":63.0,"so2":4.7,"mosquito_risk":7,"arthritis_risk":5,"migraine_risk":3,"frizz_risk":1,"updated_at":"2026-07-20T03:25:44.606632+05:30"},{"city":"Surat","state":"Gujarat","latitude":21.1702,"longitude":72.8311,"temp":25.8,"humidity":94,"rain":0.0,"pressure":1002.3,"uv_index":7.3,"wind_gusts":49.3,"aqi":67,"pm10":19.8,"pm2_5":13.4,"no2":18.0,"co":254.0,"o3":28.0,"so2":27.0,"mosquito_risk":7,"arthritis_risk":5,"migraine_risk":4,"frizz_risk":1,"updated_at":"2026-07-20T03:25:44.606665+05:30"},{"city":"Vadodara","state":"Gujarat","latitude":22.3072,"longitude":73.1812,"temp":25.7,"humidity":96,"rain":0.0,"pressure":999.7,"uv_index":7.65,"wind_gusts":45.0,"aqi":64,"pm10":18.2,"pm2_5":12.6,"no2":16.1,"co":136.0,"o3":27.0,"so2":15.5,"mosquito_risk":7,"arthritis_risk":5,"migraine_risk":7,"frizz_risk":1,"updated_at":"2026-07-20T03:25:44.606674+05:30"},{"city":"Rajkot","state":"Gujarat","latitude":22.3039,"longitude":70.8022,"temp":26.4,"humidity":88,"rain":0.0,"pressure":988.7,"uv_index":6.8,"wind_gusts":51.1,"aqi":60,"pm10":17.1,"pm2_5":8.7,"no2":5.5,"co":103.0,"o3":37.0,"so2":4.4,"mosquito_risk":7,"arthritis_risk":5,"migraine_risk":7,"frizz_risk":1,"updated_at":"2026-07-20T03:25:44.606682+05:30"},{"city":"Thane","state":"Maharashtra","latitude":19.2183,"longitude":72.9781,"temp":24.5,"humidity":99,"rain":0.1,"pressure":1005.0,"uv_index":7.35,"wind_gusts":42.8,"aqi":58,"pm10":22.8,"pm2_5":10.3,"no2":6.4,"co":152.0,"o3":44.0,"so2":5.6,"mosquito_risk":6,"arthritis_risk":5,"migraine_risk":4,"frizz_risk":1,"updated_at":"2026-07-20T03:25:44.606689+05:30"},{"city":"Nagpur","state":"Maharashtra","latitude":21.1458,"longitude":79.0882,"temp":26.2,"humidity":89,"rain":0.0,"pressure":968.4,"uv_index":6.95,"wind_gusts":34.6,"aqi":65,"pm10":35.9,"pm2_5":24.1,"no2":18.2,"co":189.0,"o3":29.0,"so2":9.1,"mosquito_risk":7,"arthritis_risk":5,"migraine_risk":7,"frizz_risk":1,"updated_at":"2026-07-20T03:25:44.606695+05:30"},{"city":"Nashik","state":"Maharashtra","latitude":19.9975,"longitude":73.7898,"temp":22.3,"humidity":96,"rain":0.0,"pressure":941.6,"uv_index":7.95,"wind_gusts":51.8,"aqi":24,"pm10":4.5,"pm2_5":3.1,"no2":10.2,"co":130.0,"o3":30.0,"so2":11.1,"mosquito_risk":3,"arthritis_risk":5,"migraine_risk":7,"frizz_risk":1,"updated_at":"2026-07-20T03:25:44.606701+05:30"},{"city":"Aurangabad","state":"Maharashtra","latitude":19.8762,"longitude":75.3433,"temp":22.9,"humidity":91,"rain":0.0,"pressure":940.6,"uv_index":7.2,"wind_gusts":48.2,"aqi":32,"pm10":5.2,"pm2_5":3.6,"no2":9.1,"co":149.0,"o3":30.0,"so2":8.2,"mosquito_risk":3,"arthritis_risk":5,"migraine_risk":7,"frizz_risk":1,"updated_at":"2026-07-20T03:25:44.606707+05:30"},{"city":"Solapur","state":"Maharashtra","latitude":17.6599,"longitude":75.9064,"temp":23.9,"humidity":91,"rain":0.0,"pressure":954.9,"uv_index":5.45,"wind_gusts":53.3,"aqi":36,"pm10":4.5,"pm2_5":3.8,"no2":6.7,"co":138.0,"o3":29.0,"so2":2.1,"mosquito_risk":3,"arthritis_risk":5,"migraine_risk":3,"frizz_risk":1,"updated_at":"2026-07-20T03:25:44.606714+05:30"},{"city":"Kolhapur","state":"Maharashtra","latitude":16.705,"longitude":74.2433,"temp":22.6,"humidity":92,"rain":0.0,"pressure":946.0,"uv_index":7.05,"wind_gusts":53.6,"aqi":28,"pm10":2.2,"pm2_5":2.2,"no2":4.1,"co":115.0,"o3":36.0,"so2":2.0,"mosquito_risk":3,"arthritis_risk":5,"migraine_risk":7,"frizz_risk":1,"updated_at":"2026-07-20T03:25:44.606719+05:30"},{"city":"Goa","state":"Goa","latitude":15.2993,"longitude":74.124,"temp":23.8,"humidity":97,"rain":0.2,"pressure":997.6,"uv_index":7.75,"wind_gusts":36.0,"aqi":61,"pm10":20.9,"pm2_5":11.3,"no2":3.9,"co":201.0,"o3":39.0,"so2":1.3,"mosquito_risk":6,"arthritis_risk":5,"migraine_risk":7,"frizz_risk":1,"updated_at":"2026-07-20T03:25:44.606725+05:30"},{"city":"Jodhpur","state":"Rajasthan","latitude":26.2389,"longitude":73.0243,"temp":30.6,"humidity":59,"rain":0.0,"pressure":976.8,"uv_index":7.8,"wind_gusts":40.0,"aqi":93,"pm10":57.3,"pm2_5":19.4,"no2":7.5,"co":119.0,"o3":49.0,"so2":2.5,"mosquito_risk":0,"arthritis_risk":5,"migraine_risk":7,"frizz_risk":1,"updated_at":"2026-07-20T03:25:44.606731+05:30"},{"city":"Udaipur","state":"Rajasthan","latitude":24.5854,"longitude":73.7125,"temp":25.0,"humidity":85,"rain":0.0,"pressure":941.5,"uv_index":7.2,"wind_gusts":29.5,"aqi":65,"pm10":25.0,"pm2_5":15.5,"no2":9.7,"co":145.0,"o3":51.0,"so2":14.2,"mosquito_risk":7,"arthritis_risk":5,"migraine_risk":7,"frizz_risk":1,"updated_at":"2026-07-20T03:25:44.606737+05:30"},{"city":"Kota","state":"Rajasthan","latitude":25.2138,"longitude":75.8648,"temp":28.5,"humidity":77,"rain":0.1,"pressure":973.4,"uv_index":2.25,"wind_gusts":21.6,"aqi":76,"pm10":27.4,"pm2_5":19.4,"no2":10.4,"co":209.0,"o3":58.0,"so2":6.7,"mosquito_risk":10,"arthritis_risk":5,"migraine_risk":3,"frizz_risk":1,"updated_at":"2026-07-20T03:25:44.606743+05:30"},{"city":"Bikaner","state":"Rajasthan","latitude":28.0229,"longitude":73.3119,"temp":32.3,"humidity":48,"rain":0.0,"pressure":975.0,"uv_index":7.7,"wind_gusts":39.6,"aqi":114,"pm10":132.2,"pm2_5":36.8,"no2":2.0,"co":111.0,"o3":61.0,"so2":1.3,"mosquito_risk":0,"arthritis_risk":5,"migraine_risk":7,"frizz_risk":1,"updated_at":"2026-07-20T03:25:44.606748+05:30"},{"city":"Ajmer","state":"Rajasthan","latitude":26.4499,"longitude":74.6399,"temp":28.7,"humidity":65,"rain":0.0,"pressure":949.2,"uv_index":7.25,"wind_gusts":37.4,"aqi":69,"pm10":24.0,"pm2_5":16.2,"no2":9.6,"co":144.0,"o3":48.0,"so2":5.0,"mosquito_risk":7,"arthritis_risk":5,"migraine_risk":7,"frizz_risk":1,"updated_at":"2026-07-20T03:25:44.606754+05:30"},{"city":"Gwalior","state":"Madhya Pradesh","latitude":26.2183,"longitude":78.1828,"temp":27.0,"humidity":95,"rain":0.4,"pressure":977.7,"uv_index":0.5,"wind_gusts":24.1,"aqi":84,"pm10":22.7,"pm2_5":15.6,"no2":7.4,"co":163.0,"o3":65.0,"so2":3.8,"mosquito_risk":10,"arthritis_risk":5,"migraine_risk":3,"frizz_risk":1,"updated_at":"2026-07-20T03:25:44.606760+05:30"},{"city":"Indore","state":"Madhya Pradesh","latitude":22.7196,"longitude":75.8577,"temp":24.7,"humidity":88,"rain":0.0,"pressure":943.8,"uv_index":6.0,"wind_gusts":37.1,"aqi":61,"pm10":21.0,"pm2_5":15.5,"no2":8.6,"co":206.0,"o3":56.0,"so2":7.3,"mosquito_risk":3,"arthritis_risk":5,"migraine_risk":3,"frizz_risk":1,"updated_at":"2026-07-20T03:25:44.606765+05:30"},{"city":"Bhopal","state":"Madhya Pradesh","latitude":23.2599,"longitude":77.4126,"temp":25.0,"humidity":89,"rain":0.0,"pressure":949.2,"uv_index":4.75,"wind_gusts":29.2,"aqi":71,"pm10":25.4,"pm2_5":20.3,"no2":11.8,"co":213.0,"o3":44.0,"so2":3.2,"mosquito_risk":7,"arthritis_risk":5,"migraine_risk":3,"frizz_risk":1,"updated_at":"2026-07-20T03:25:44.606771+05:30"},{"city":"Jabalpur","state":"Madhya Pradesh","latitude":23.1815,"longitude":79.9864,"temp":25.2,"humidity":94,"rain":0.0,"pressure":956.4,"uv_index":4.7,"wind_gusts":25.9,"aqi":85,"pm10":34.9,"pm2_5":24.5,"no2":6.9,"co":269.0,"o3":74.0,"so2":2.8,"mosquito_risk":7,"arthritis_risk":5,"migraine_risk":3,"frizz_risk":1,"updated_at":"2026-07-20T03:25:44.606777+05:30"},{"city":"Ujjain","state":"Madhya Pradesh","latitude":23.1765,"longitude":75.7885,"temp":24.7,"humidity":90,"rain":0.0,"pressure":949.3,"uv_index":4.25,"wind_gusts":34.2,"aqi":62,"pm10":21.0,"pm2_5":15.7,"no2":7.7,"co":221.0,"o3":58.0,"so2":8.2,"mosquito_risk":3,"arthritis_risk":5,"migraine_risk":3,"frizz_risk":1,"updated_at":"2026-07-20T03:25:44.606783+05:30"},{"city":"Visakhapatnam","state":"Andhra Pradesh","latitude":17.6868,"longitude":83.2185,"temp":26.1,"humidity":97,"rain":0.1,"pressure":998.9,"uv_index":8.0,"wind_gusts":38.2,"aqi":82,"pm10":22.3,"pm2_5":18.5,"no2":19.0,"co":298.0,"o3":45.0,"so2":28.3,"mosquito_risk":10,"arthritis_risk":5,"migraine_risk":7,"frizz_risk":1,"updated_at":"2026-07-20T03:25:44.606788+05:30"},{"city":"Vijayawada","state":"Andhra Pradesh","latitude":16.5062,"longitude":80.648,"temp":28.1,"humidity":75,"rain":0.0,"pressure":999.3,"uv_index":6.5,"wind_gusts":41.4,"aqi":61,"pm10":21.1,"pm2_5":15.4,"no2":8.6,"co":199.0,"o3":46.0,"so2":3.9,"mosquito_risk":7,"arthritis_risk":5,"migraine_risk":7,"frizz_risk":1,"updated_at":"2026-07-20T03:25:44.606794+05:30"},{"city":"Guntur","state":"Andhra Pradesh","latitude":16.3067,"longitude":80.4365,"temp":28.6,"humidity":67,"rain":0.0,"pressure":1000.7,"uv_index":7.1,"wind_gusts":51.8,"aqi":56,"pm10":21.9,"pm2_5":14.7,"no2":7.7,"co":190.0,"o3":46.0,"so2":4.4,"mosquito_risk":7,"arthritis_risk":5,"migraine_risk":4,"frizz_risk":1,"updated_at":"2026-07-20T03:25:44.606800+05:30"},{"city":"Nellore","state":"Andhra Pradesh","latitude":14.4426,"longitude":79.9865,"temp":27.6,"humidity":74,"rain":0.0,"pressure":1003.8,"uv_index":8.1,"wind_gusts":34.9,"aqi":61,"pm10":28.1,"pm2_5":17.1,"no2":8.7,"co":208.0,"o3":45.0,"so2":7.4,"mosquito_risk":7,"arthritis_risk":5,"migraine_risk":4,"frizz_risk":1,"updated_at":"2026-07-20T03:25:44.606807+05:30"},{"city":"Kurnool","state":"Andhra Pradesh","latitude":15.8281,"longitude":78.0373,"temp":24.9,"humidity":91,"rain":0.0,"pressure":975.2,"uv_index":7.1,"wind_gusts":70.2,"aqi":42,"pm10":6.0,"pm2_5":4.7,"no2":7.6,"co":142.0,"o3":34.0,"so2":1.7,"mosquito_risk":3,"arthritis_risk":5,"migraine_risk":7,"frizz_risk":1,"updated_at":"2026-07-20T03:25:44.606814+05:30"},{"city":"Kakinada","state":"Andhra Pradesh","latitude":16.9891,"longitude":82.2475,"temp":27.3,"humidity":83,"rain":0.0,"pressure":1003.4,"uv_index":8.55,"wind_gusts":46.8,"aqi":64,"pm10":26.5,"pm2_5":20.9,"no2":8.2,"co":155.0,"o3":62.0,"so2":4.7,"mosquito_risk":7,"arthritis_risk":5,"migraine_risk":4,"frizz_risk":1,"updated_at":"2026-07-20T03:25:44.606819+05:30"},{"city":"Tirupati","state":"Andhra Pradesh","latitude":13.6288,"longitude":79.4192,"temp":26.0,"humidity":86,"rain":0.0,"pressure":989.5,"uv_index":3.6,"wind_gusts":34.9,"aqi":61,"pm10":26.1,"pm2_5":16.7,"no2":17.9,"co":150.0,"o3":23.0,"so2":3.4,"mosquito_risk":7,"arthritis_risk":5,"migraine_risk":3,"frizz_risk":1,"updated_at":"2026-07-20T03:25:44.606825+05:30"},{"city":"Warangal","state":"Telangana","latitude":17.9689,"longitude":79.5941,"temp":25.3,"humidity":86,"rain":0.0,"pressure":975.2,"uv_index":4.85,"wind_gusts":40.7,"aqi":57,"pm10":16.8,"pm2_5":12.3,"no2":7.9,"co":136.0,"o3":44.0,"so2":3.0,"mosquito_risk":7,"arthritis_risk":5,"migraine_risk":3,"frizz_risk":1,"updated_at":"2026-07-20T03:25:44.606830+05:30"},{"city":"Nizamabad","state":"Telangana","latitude":18.6725,"longitude":78.0941,"temp":23.2,"humidity":94,"rain":0.0,"pressure":961.6,"uv_index":4.15,"wind_gusts":45.4,"aqi":52,"pm10":8.7,"pm2_5":6.8,"no2":7.5,"co":145.0,"o3":38.0,"so2":5.3,"mosquito_risk":3,"arthritis_risk":5,"migraine_risk":3,"frizz_risk":1,"updated_at":"2026-07-20T03:25:44.606835+05:30"},{"city":"Mysore","state":"Karnataka","latitude":12.2958,"longitude":76.6396,"temp":21.3,"humidity":91,"rain":0.0,"pressure":928.2,"uv_index":8.85,"wind_gusts":49.3,"aqi":37,"pm10":3.8,"pm2_5":3.0,"no2":5.1,"co":117.0,"o3":33.0,"so2":1.9,"mosquito_risk":3,"arthritis_risk":5,"migraine_risk":7,"frizz_risk":1,"updated_at":"2026-07-20T03:25:44.606840+05:30"},{"city":"Mangalore","state":"Karnataka","latitude":12.9141,"longitude":74.856,"temp":23.4,"humidity":99,"rain":0.1,"pressure":1007.7,"uv_index":8.6,"wind_gusts":39.6,"aqi":55,"pm10":19.9,"pm2_5":10.6,"no2":5.4,"co":135.0,"o3":30.0,"so2":1.8,"mosquito_risk":6,"arthritis_risk":5,"migraine_risk":4,"frizz_risk":1,"updated_at":"2026-07-20T03:25:44.606846+05:30"},{"city":"Hubli-Dharwad","state":"Karnataka","latitude":15.3647,"longitude":75.124,"temp":22.1,"humidity":94,"rain":0.0,"pressure":939.7,"uv_index":5.85,"wind_gusts":57.6,"aqi":25,"pm10":1.3,"pm2_5":0.9,"no2":2.9,"co":103.0,"o3":37.0,"so2":1.0,"mosquito_risk":3,"arthritis_risk":5,"migraine_risk":3,"frizz_risk":1,"updated_at":"2026-07-20T03:25:44.606852+05:30"},{"city":"Belgaum","state":"Karnataka","latitude":15.8497,"longitude":74.4977,"temp":21.1,"humidity":97,"rain":0.0,"pressure":924.1,"uv_index":7.95,"wind_gusts":54.0,"aqi":24,"pm10":1.5,"pm2_5":1.3,"no2":3.3,"co":109.0,"o3":38.0,"so2":1.6,"mosquito_risk":3,"arthritis_risk":5,"migraine_risk":7,"frizz_risk":1,"updated_at":"2026-07-20T03:25:47.891197+05:30"},{"city":"Coimbatore","state":"Tamil Nadu","latitude":11.0168,"longitude":76.9558,"temp":22.7,"humidity":95,"rain":0.0,"pressure":961.4,"uv_index":8.75,"wind_gusts":51.5,"aqi":42,"pm10":8.3,"pm2_5":6.1,"no2":6.6,"co":143.0,"o3":28.0,"so2":2.9,"mosquito_risk":3,"arthritis_risk":5,"migraine_risk":7,"frizz_risk":1,"updated_at":"2026-07-20T03:25:47.891275+05:30"},{"city":"Madurai","state":"Tamil Nadu","latitude":9.9252,"longitude":78.1198,"temp":27.7,"humidity":67,"rain":0.0,"pressure":992.6,"uv_index":5.65,"wind_gusts":37.4,"aqi":68,"pm10":28.5,"pm2_5":22.5,"no2":26.5,"co":131.0,"o3":15.0,"so2":6.2,"mosquito_risk":7,"arthritis_risk":5,"migraine_risk":3,"frizz_risk":1,"updated_at":"2026-07-20T03:25:47.891286+05:30"},{"city":"Trichy","state":"Tamil Nadu","latitude":10.7905,"longitude":78.7047,"temp":27.3,"humidity":72,"rain":0.0,"pressure":999.1,"uv_index":6.85,"wind_gusts":51.5,"aqi":53,"pm10":10.4,"pm2_5":7.2,"no2":6.4,"co":111.0,"o3":33.0,"so2":3.1,"mosquito_risk":7,"arthritis_risk":5,"migraine_risk":7,"frizz_risk":1,"updated_at":"2026-07-20T03:25:47.891294+05:30"},{"city":"Salem","state":"Tamil Nadu","latitude":11.6643,"longitude":78.146,"temp":24.5,"humidity":95,"rain":0.0,"pressure":977.1,"uv_index":7.7,"wind_gusts":31.7,"aqi":59,"pm10":17.6,"pm2_5":13.2,"no2":16.0,"co":391.0,"o3":26.0,"so2":7.5,"mosquito_risk":3,"arthritis_risk":5,"migraine_risk":7,"frizz_risk":1,"updated_at":"2026-07-20T03:25:47.891301+05:30"},{"city":"Tirunelveli","state":"Tamil Nadu","latitude":8.7139,"longitude":77.7567,"temp":27.8,"humidity":70,"rain":0.0,"pressure":1003.1,"uv_index":7.8,"wind_gusts":44.3,"aqi":34,"pm10":7.0,"pm2_5":5.2,"no2":5.4,"co":135.0,"o3":33.0,"so2":2.1,"mosquito_risk":7,"arthritis_risk":5,"migraine_risk":4,"frizz_risk":1,"updated_at":"2026-07-20T03:25:47.891308+05:30"},{"city":"Vellore","state":"Tamil Nadu","latitude":12.9165,"longitude":79.1325,"temp":28.3,"humidity":63,"rain":0.0,"pressure":983.1,"uv_index":8.05,"wind_gusts":43.9,"aqi":73,"pm10":42.8,"pm2_5":31.7,"no2":29.4,"co":178.0,"o3":11.0,"so2":5.3,"mosquito_risk":7,"arthritis_risk":5,"migraine_risk":7,"frizz_risk":1,"updated_at":"2026-07-20T03:25:47.891314+05:30"},{"city":"Erode","state":"Tamil Nadu","latitude":11.341,"longitude":77.7172,"temp":25.5,"humidity":82,"rain":0.0,"pressure":988.9,"uv_index":8.05,"wind_gusts":33.8,"aqi":53,"pm10":14.1,"pm2_5":10.7,"no2":12.0,"co":137.0,"o3":28.0,"so2":3.9,"mosquito_risk":7,"arthritis_risk":5,"migraine_risk":7,"frizz_risk":1,"updated_at":"2026-07-20T03:25:47.891320+05:30"},{"city":"Kochi","state":"Kerala","latitude":9.9312,"longitude":76.2673,"temp":24.0,"humidity":98,"rain":0.1,"pressure":1010.4,"uv_index":8.35,"wind_gusts":35.3,"aqi":54,"pm10":15.5,"pm2_5":10.7,"no2":8.5,"co":162.0,"o3":25.0,"so2":3.0,"mosquito_risk":6,"arthritis_risk":0,"migraine_risk":4,"frizz_risk":1,"updated_at":"2026-07-20T03:25:47.891326+05:30"},{"city":"Thiruvananthapuram","state":"Kerala","latitude":8.5241,"longitude":76.9366,"temp":23.7,"humidity":99,"rain":0.0,"pressure":1009.8,"uv_index":7.1,"wind_gusts":45.0,"aqi":48,"pm10":13.6,"pm2_5":7.7,"no2":3.1,"co":110.0,"o3":43.0,"so2":1.9,"mosquito_risk":3,"arthritis_risk":0,"migraine_risk":4,"frizz_risk":1,"updated_at":"2026-07-20T03:25:47.891331+05:30"},{"city":"Kozhikode","state":"Kerala","latitude":11.2588,"longitude":75.7804,"temp":23.8,"humidity":98,"rain":0.0,"pressure":1009.2,"uv_index":8.3,"wind_gusts":32.4,"aqi":38,"pm10":13.6,"pm2_5":5.8,"no2":1.4,"co":105.0,"o3":46.0,"so2":1.0,"mosquito_risk":3,"arthritis_risk":0,"migraine_risk":4,"frizz_risk":1,"updated_at":"2026-07-20T03:25:47.891337+05:30"},{"city":"Thrissur","state":"Kerala","latitude":10.5276,"longitude":76.2144,"temp":24.3,"humidity":97,"rain":0.1,"pressure":1008.7,"uv_index":8.25,"wind_gusts":37.4,"aqi":53,"pm10":13.0,"pm2_5":8.3,"no2":5.0,"co":170.0,"o3":33.0,"so2":2.2,"mosquito_risk":6,"arthritis_risk":0,"migraine_risk":4,"frizz_risk":1,"updated_at":"2026-07-20T03:25:47.891343+05:30"},{"city":"Kannur","state":"Kerala","latitude":11.8745,"longitude":75.3704,"temp":23.2,"humidity":98,"rain":0.1,"pressure":1008.7,"uv_index":8.75,"wind_gusts":28.8,"aqi":49,"pm10":13.1,"pm2_5":6.9,"no2":5.2,"co":147.0,"o3":31.0,"so2":1.5,"mosquito_risk":6,"arthritis_risk":0,"migraine_risk":4,"frizz_risk":1,"updated_at":"2026-07-20T03:25:47.891349+05:30"},{"city":"Patna","state":"Bihar","latitude":25.5941,"longitude":85.1376,"temp":25.8,"humidity":98,"rain":0.0,"pressure":996.0,"uv_index":8.35,"wind_gusts":23.4,"aqi":80,"pm10":38.9,"pm2_5":38.5,"no2":13.3,"co":331.0,"o3":78.0,"so2":10.9,"mosquito_risk":7,"arthritis_risk":5,"migraine_risk":7,"frizz_risk":1,"updated_at":"2026-07-20T03:25:47.891355+05:30"},{"city":"Gaya","state":"Bihar","latitude":24.7914,"longitude":85.0002,"temp":26.0,"humidity":98,"rain":0.1,"pressure":989.2,"uv_index":3.4,"wind_gusts":21.6,"aqi":74,"pm10":44.9,"pm2_5":44.4,"no2":16.4,"co":422.0,"o3":61.0,"so2":10.7,"mosquito_risk":10,"arthritis_risk":5,"migraine_risk":3,"frizz_risk":1,"updated_at":"2026-07-20T03:25:47.891360+05:30"},{"city":"Muzaffarpur","state":"Bihar","latitude":26.1209,"longitude":85.3647,"temp":25.9,"humidity":97,"rain":0.2,"pressure":996.2,"uv_index":7.15,"wind_gusts":27.7,"aqi":71,"pm10":25.3,"pm2_5":25.0,"no2":10.5,"co":384.0,"o3":83.0,"so2":8.3,"mosquito_risk":10,"arthritis_risk":5,"migraine_risk":7,"frizz_risk":1,"updated_at":"2026-07-20T03:25:47.891366+05:30"},{"city":"Bhagalpur","state":"Bihar","latitude":25.2425,"longitude":87.0117,"temp":26.7,"humidity":95,"rain":0.1,"pressure":996.8,"uv_index":1.55,"wind_gusts":33.8,"aqi":80,"pm10":26.8,"pm2_5":26.1,"no2":12.3,"co":308.0,"o3":71.0,"so2":11.4,"mosquito_risk":10,"arthritis_risk":5,"migraine_risk":3,"frizz_risk":1,"updated_at":"2026-07-20T03:25:47.891372+05:30"},{"city":"Ranchi","state":"Jharkhand","latitude":23.3441,"longitude":85.3096,"temp":23.2,"humidity":97,"rain":0.0,"pressure":932.9,"uv_index":4.1,"wind_gusts":26.3,"aqi":71,"pm10":26.3,"pm2_5":22.5,"no2":5.9,"co":278.0,"o3":87.0,"so2":5.0,"mosquito_risk":3,"arthritis_risk":5,"migraine_risk":3,"frizz_risk":1,"updated_at":"2026-07-20T03:25:47.891378+05:30"},{"city":"Jamshedpur","state":"Jharkhand","latitude":22.8046,"longitude":86.2029,"temp":25.5,"humidity":99,"rain":0.1,"pressure":985.9,"uv_index":3.65,"wind_gusts":24.1,"aqi":91,"pm10":36.9,"pm2_5":32.7,"no2":16.1,"co":414.0,"o3":58.0,"so2":19.3,"mosquito_risk":10,"arthritis_risk":5,"migraine_risk":3,"frizz_risk":1,"updated_at":"2026-07-20T03:25:47.891383+05:30"},{"city":"Dhanbad","state":"Jharkhand","latitude":23.7957,"longitude":86.4304,"temp":25.4,"humidity":99,"rain":0.0,"pressure":975.5,"uv_index":3.25,"wind_gusts":27.4,"aqi":143,"pm10":53.9,"pm2_5":50.4,"no2":40.1,"co":561.0,"o3":37.0,"so2":98.0,"mosquito_risk":7,"arthritis_risk":5,"migraine_risk":3,"frizz_risk":1,"updated_at":"2026-07-20T03:25:47.891389+05:30"},{"city":"Bokaro","state":"Jharkhand","latitude":23.6693,"longitude":86.1511,"temp":25.4,"humidity":97,"rain":0.1,"pressure":979.3,"uv_index":3.15,"wind_gusts":23.8,"aqi":142,"pm10":61.9,"pm2_5":60.1,"no2":43.4,"co":3652.0,"o3":35.0,"so2":100.7,"mosquito_risk":10,"arthritis_risk":5,"migraine_risk":3,"frizz_risk":1,"updated_at":"2026-07-20T03:25:47.891394+05:30"},{"city":"Bhubaneswar","state":"Odisha","latitude":20.2961,"longitude":85.8245,"temp":26.7,"humidity":99,"rain":0.0,"pressure":997.1,"uv_index":8.5,"wind_gusts":27.7,"aqi":85,"pm10":35.2,"pm2_5":30.7,"no2":8.5,"co":319.0,"o3":98.0,"so2":6.8,"mosquito_risk":7,"arthritis_risk":5,"migraine_risk":7,"frizz_risk":1,"updated_at":"2026-07-20T03:25:47.891400+05:30"},{"city":"Cuttack","state":"Odisha","latitude":20.4625,"longitude":85.8828,"temp":27.2,"humidity":97,"rain":0.0,"pressure":998.9,"uv_index":8.6,"wind_gusts":22.0,"aqi":85,"pm10":35.2,"pm2_5":30.7,"no2":8.5,"co":330.0,"o3":98.0,"so2":6.8,"mosquito_risk":7,"arthritis_risk":5,"migraine_risk":7,"frizz_risk":1,"updated_at":"2026-07-20T03:25:47.891406+05:30"},{"city":"Rourkela","state":"Odisha","latitude":22.2604,"longitude":84.8536,"temp":25.5,"humidity":97,"rain":0.1,"pressure":980.2,"uv_index":8.05,"wind_gusts":28.8,"aqi":80,"pm10":29.0,"pm2_5":22.3,"no2":6.2,"co":276.0,"o3":99.0,"so2":4.1,"mosquito_risk":10,"arthritis_risk":5,"migraine_risk":7,"frizz_risk":1,"updated_at":"2026-07-20T03:25:47.891412+05:30"},{"city":"Raipur","state":"Chhattisgarh","latitude":21.2514,"longitude":81.6296,"temp":25.7,"humidity":93,"rain":0.0,"pressure":969.6,"uv_index":7.3,"wind_gusts":31.7,"aqi":92,"pm10":23.7,"pm2_5":20.7,"no2":18.1,"co":575.0,"o3":64.0,"so2":26.7,"mosquito_risk":7,"arthritis_risk":5,"migraine_risk":7,"frizz_risk":1,"updated_at":"2026-07-20T03:25:47.891417+05:30"},{"city":"Bhilai","state":"Chhattisgarh","latitude":21.1938,"longitude":81.3509,"temp":25.5,"humidity":95,"rain":0.0,"pressure":970.1,"uv_index":7.9,"wind_gusts":32.4,"aqi":85,"pm10":25.1,"pm2_5":22.9,"no2":17.9,"co":623.0,"o3":59.0,"so2":26.5,"mosquito_risk":7,"arthritis_risk":5,"migraine_risk":7,"frizz_risk":1,"updated_at":"2026-07-20T03:25:47.891422+05:30"},{"city":"Guwahati","state":"Assam","latitude":26.1158,"longitude":91.7086,"temp":24.5,"humidity":98,"rain":0.2,"pressure":999.1,"uv_index":1.7,"wind_gusts":22.0,"aqi":56,"pm10":7.1,"pm2_5":6.8,"no2":9.9,"co":194.0,"o3":31.0,"so2":1.2,"mosquito_risk":6,"arthritis_risk":5,"migraine_risk":3,"frizz_risk":1,"updated_at":"2026-07-20T03:25:47.891427+05:30"},{"city":"Agartala","state":"Tripura","latitude":23.8315,"longitude":91.2868,"temp":24.9,"humidity":97,"rain":0.0,"pressure":1003.6,"uv_index":7.6,"wind_gusts":35.6,"aqi":51,"pm10":10.3,"pm2_5":8.8,"no2":9.5,"co":154.0,"o3":32.0,"so2":2.7,"mosquito_risk":3,"arthritis_risk":5,"migraine_risk":4,"frizz_risk":1,"updated_at":"2026-07-20T03:25:47.891433+05:30"},{"city":"Shillong","state":"Meghalaya","latitude":25.5788,"longitude":91.8933,"temp":19.1,"humidity":98,"rain":0.0,"pressure":855.1,"uv_index":1.8,"wind_gusts":19.1,"aqi":23,"pm10":0.7,"pm2_5":0.7,"no2":4.5,"co":185.0,"o3":38.0,"so2":1.2,"mosquito_risk":3,"arthritis_risk":10,"migraine_risk":3,"frizz_risk":1,"updated_at":"2026-07-20T03:25:47.891439+05:30"},{"city":"Imphal","state":"Manipur","latitude":24.817,"longitude":93.9368,"temp":21.4,"humidity":99,"rain":0.0,"pressure":921.3,"uv_index":1.1,"wind_gusts":26.3,"aqi":44,"pm10":8.3,"pm2_5":8.0,"no2":6.4,"co":268.0,"o3":31.0,"so2":0.9,"mosquito_risk":3,"arthritis_risk":5,"migraine_risk":3,"frizz_risk":1,"updated_at":"2026-07-20T03:25:47.891444+05:30"},{"city":"Aizawl","state":"Mizoram","latitude":23.7271,"longitude":92.7176,"temp":18.6,"humidity":98,"rain":0.3,"pressure":890.0,"uv_index":0.65,"wind_gusts":20.2,"aqi":45,"pm10":10.7,"pm2_5":7.2,"no2":3.1,"co":117.0,"o3":33.0,"so2":0.4,"mosquito_risk":6,"arthritis_risk":10,"migraine_risk":3,"frizz_risk":1,"updated_at":"2026-07-20T03:25:47.891449+05:30"},{"city":"Kohima","state":"Nagaland","latitude":25.6701,"longitude":94.1077,"temp":19.7,"humidity":97,"rain":1.0,"pressure":854.0,"uv_index":2.15,"wind_gusts":21.2,"aqi":19,"pm10":2.6,"pm2_5":2.6,"no2":4.5,"co":178.0,"o3":36.0,"so2":0.4,"mosquito_risk":6,"arthritis_risk":10,"migraine_risk":3,"frizz_risk":1,"updated_at":"2026-07-20T03:25:47.891455+05:30"},{"city":"Gangtok","state":"Sikkim","latitude":27.3314,"longitude":88.6138,"temp":18.3,"humidity":98,"rain":0.2,"pressure":836.3,"uv_index":3.8,"wind_gusts":28.8,"aqi":38,"pm10":3.7,"pm2_5":3.6,"no2":3.4,"co":197.0,"o3":84.0,"so2":0.7,"mosquito_risk":6,"arthritis_risk":10,"migraine_risk":3,"frizz_risk":1,"updated_at":"2026-07-20T03:25:47.891460+05:30"},{"city":"Siliguri","state":"West Bengal","latitude":26.7271,"longitude":88.3953,"temp":24.5,"humidity":99,"rain":0.0,"pressure":990.5,"uv_index":2.5,"wind_gusts":24.1,"aqi":52,"pm10":8.8,"pm2_5":8.5,"no2":5.9,"co":221.0,"o3":81.0,"so2":1.2,"mosquito_risk":3,"arthritis_risk":5,"migraine_risk":3,"frizz_risk":1,"updated_at":"2026-07-20T03:25:51.186364+05:30"},{"city":"Durgapur","state":"West Bengal","latitude":23.5204,"longitude":87.3119,"temp":25.5,"humidity":97,"rain":0.3,"pressure":990.6,"uv_index":5.5,"wind_gusts":30.2,"aqi":107,"pm10":38.5,"pm2_5":32.1,"no2":18.9,"co":290.0,"o3":62.0,"so2":27.0,"mosquito_risk":10,"arthritis_risk":5,"migraine_risk":3,"frizz_risk":1,"updated_at":"2026-07-20T03:25:51.186399+05:30"},{"city":"Asansol","state":"West Bengal","latitude":23.6739,"longitude":86.9524,"temp":25.5,"humidity":98,"rain":0.0,"pressure":989.4,"uv_index":1.6,"wind_gusts":24.8,"aqi":106,"pm10":35.2,"pm2_5":30.2,"no2":19.9,"co":394.0,"o3":60.0,"so2":28.6,"mosquito_risk":7,"arthritis_risk":5,"migraine_risk":3,"frizz_risk":1,"updated_at":"2026-07-20T03:25:51.186409+05:30"},{"city":"Pondicherry","state":"Puducherry","latitude":11.9139,"longitude":79.8145,"temp":27.9,"humidity":72,"rain":0.0,"pressure":1007.0,"uv_index":8.0,"wind_gusts":38.5,"aqi":71,"pm10":15.5,"pm2_5":11.4,"no2":10.9,"co":182.0,"o3":54.0,"so2":10.0,"mosquito_risk":7,"arthritis_risk":5,"migraine_risk":4,"frizz_risk":1,"updated_at":"2026-07-20T03:25:51.186416+05:30"},{"city":"Port Blair","state":"Andaman and Nicobar Islands","latitude":11.6234,"longitude":92.7265,"temp":26.8,"humidity":85,"rain":0.0,"pressure":1007.4,"uv_index":8.35,"wind_gusts":44.3,"aqi":53,"pm10":14.7,"pm2_5":8.2,"no2":0.1,"co":80.0,"o3":44.0,"so2":0.4,"mosquito_risk":7,"arthritis_risk":5,"migraine_risk":4,"frizz_risk":1,"updated_at":"2026-07-20T03:25:51.186423+05:30"},{"city":"Haridwar","state":"Uttarakhand","latitude":29.9457,"longitude":78.1642,"temp":25.2,"humidity":99,"rain":0.1,"pressure":968.7,"uv_index":2.2,"wind_gusts":25.2,"aqi":156,"pm10":86.4,"pm2_5":51.9,"no2":10.2,"co":229.0,"o3":87.0,"so2":14.8,"mosquito_risk":10,"arthritis_risk":5,"migraine_risk":3,"frizz_risk":1,"updated_at":"2026-07-20T03:25:51.186430+05:30"},{"city":"Rishikesh","state":"Uttarakhand","latitude":30.0869,"longitude":78.2676,"temp":24.8,"humidity":99,"rain":0.0,"pressure":961.5,"uv_index":0.6,"wind_gusts":17.3,"aqi":134,"pm10":58.0,"pm2_5":28.8,"no2":5.3,"co":211.0,"o3":115.0,"so2":14.0,"mosquito_risk":3,"arthritis_risk":5,"migraine_risk":3,"frizz_risk":1,"updated_at":"2026-07-20T03:25:51.186437+05:30"},{"city":"Nainital","state":"Uttarakhand","latitude":29.3919,"longitude":79.4542,"temp":17.3,"humidity":99,"rain":0.7,"pressure":802.9,"uv_index":6.4,"wind_gusts":34.6,"aqi":64,"pm10":13.9,"pm2_5":10.5,"no2":4.1,"co":233.0,"o3":105.0,"so2":1.9,"mosquito_risk":6,"arthritis_risk":10,"migraine_risk":7,"frizz_risk":1,"updated_at":"2026-07-20T03:25:51.186444+05:30"},{"city":"Mussoorie","state":"Uttarakhand","latitude":30.4599,"longitude":78.0664,"temp":17.1,"humidity":100,"rain":0.3,"pressure":799.8,"uv_index":0.8,"wind_gusts":28.4,"aqi":99,"pm10":44.6,"pm2_5":20.1,"no2":7.1,"co":257.0,"o3":109.0,"so2":9.5,"mosquito_risk":6,"arthritis_risk":10,"migraine_risk":3,"frizz_risk":1,"updated_at":"2026-07-20T03:25:51.186450+05:30"},{"city":"Dharamshala","state":"Himachal Pradesh","latitude":32.219,"longitude":76.3234,"temp":21.7,"humidity":99,"rain":0.1,"pressure":865.2,"uv_index":5.95,"wind_gusts":27.7,"aqi":44,"pm10":17.5,"pm2_5":7.8,"no2":9.8,"co":279.0,"o3":51.0,"so2":0.8,"mosquito_risk":6,"arthritis_risk":5,"migraine_risk":3,"frizz_risk":1,"updated_at":"2026-07-20T03:25:51.186456+05:30"},{"city":"Dalhousie","state":"Himachal Pradesh","latitude":32.5387,"longitude":75.971,"temp":18.5,"humidity":98,"rain":0.7,"pressure":801.6,"uv_index":3.05,"wind_gusts":25.6,"aqi":91,"pm10":64.0,"pm2_5":26.3,"no2":8.1,"co":284.0,"o3":83.0,"so2":2.1,"mosquito_risk":6,"arthritis_risk":10,"migraine_risk":3,"frizz_risk":1,"updated_at":"2026-07-20T03:25:51.186463+05:30"},{"city":"Patiala","state":"Punjab","latitude":30.3398,"longitude":76.3869,"temp":28.1,"humidity":92,"rain":0.0,"pressure":971.6,"uv_index":5.05,"wind_gusts":35.6,"aqi":243,"pm10":455.4,"pm2_5":115.3,"no2":15.2,"co":411.0,"o3":81.0,"so2":15.5,"mosquito_risk":7,"arthritis_risk":5,"migraine_risk":3,"frizz_risk":1,"updated_at":"2026-07-20T03:25:51.186468+05:30"},{"city":"Bhatinda","state":"Punjab","latitude":30.211,"longitude":74.9455,"temp":31.8,"humidity":68,"rain":0.0,"pressure":976.2,"uv_index":5.9,"wind_gusts":34.2,"aqi":183,"pm10":815.8,"pm2_5":213.7,"no2":20.3,"co":287.0,"o3":55.0,"so2":8.3,"mosquito_risk":3,"arthritis_risk":5,"migraine_risk":3,"frizz_risk":1,"updated_at":"2026-07-20T03:25:51.186474+05:30"},{"city":"Rohtak","state":"Haryana","latitude":28.8955,"longitude":76.6066,"temp":29.7,"humidity":77,"rain":0.0,"pressure":974.8,"uv_index":4.55,"wind_gusts":23.4,"aqi":545,"pm10":657.5,"pm2_5":147.6,"no2":22.9,"co":394.0,"o3":49.0,"so2":13.4,"mosquito_risk":7,"arthritis_risk":5,"migraine_risk":3,"frizz_risk":1,"updated_at":"2026-07-20T03:25:51.186480+05:30"},{"city":"Panipat","state":"Haryana","latitude":29.3909,"longitude":76.9635,"temp":27.6,"humidity":93,"rain":0.0,"pressure":973.9,"uv_index":6.8,"wind_gusts":32.8,"aqi":680,"pm10":519.7,"pm2_5":131.3,"no2":27.8,"co":518.0,"o3":40.0,"so2":20.2,"mosquito_risk":7,"arthritis_risk":5,"migraine_risk":7,"frizz_risk":1,"updated_at":"2026-07-20T03:25:51.186486+05:30"},{"city":"Mathura","state":"Uttar Pradesh","latitude":27.4924,"longitude":77.6737,"temp":28.7,"humidity":84,"rain":0.0,"pressure":980.7,"uv_index":1.1,"wind_gusts":25.6,"aqi":184,"pm10":478.7,"pm2_5":73.3,"no2":10.1,"co":180.0,"o3":73.0,"so2":3.5,"mosquito_risk":7,"arthritis_risk":5,"migraine_risk":3,"frizz_risk":1,"updated_at":"2026-07-20T03:25:51.186492+05:30"},{"city":"Vrindavan","state":"Uttar Pradesh","latitude":27.5823,"longitude":77.7027,"temp":28.7,"humidity":84,"rain":0.0,"pressure":981.0,"uv_index":1.8,"wind_gusts":28.8,"aqi":184,"pm10":478.7,"pm2_5":73.3,"no2":10.1,"co":180.0,"o3":73.0,"so2":3.5,"mosquito_risk":7,"arthritis_risk":5,"migraine_risk":3,"frizz_risk":1,"updated_at":"2026-07-20T03:25:51.186497+05:30"},{"city":"Ayodhya","state":"Uttar Pradesh","latitude":26.7922,"longitude":82.1998,"temp":25.4,"humidity":97,"rain":0.0,"pressure":990.6,"uv_index":7.75,"wind_gusts":23.4,"aqi":85,"pm10":38.0,"pm2_5":37.3,"no2":18.3,"co":361.0,"o3":71.0,"so2":7.2,"mosquito_risk":7,"arthritis_risk":5,"migraine_risk":7,"frizz_risk":1,"updated_at":"2026-07-20T03:25:51.186502+05:30"},{"city":"Ratlam","state":"Madhya Pradesh","latitude":23.3315,"longitude":75.0367,"temp":24.8,"humidity":90,"rain":0.0,"pressure":950.2,"uv_index":5.25,"wind_gusts":35.3,"aqi":62,"pm10":15.9,"pm2_5":11.9,"no2":7.5,"co":168.0,"o3":52.0,"so2":10.7,"mosquito_risk":3,"arthritis_risk":5,"migraine_risk":3,"frizz_risk":1,"updated_at":"2026-07-20T03:25:51.186507+05:30"},{"city":"Sagar","state":"Madhya Pradesh","latitude":23.8388,"longitude":78.7378,"temp":24.8,"humidity":91,"rain":0.0,"pressure":945.3,"uv_index":5.95,"wind_gusts":29.5,"aqi":78,"pm10":28.9,"pm2_5":21.9,"no2":7.2,"co":251.0,"o3":61.0,"so2":2.4,"mosquito_risk":3,"arthritis_risk":5,"migraine_risk":3,"frizz_risk":1,"updated_at":"2026-07-20T03:25:51.186513+05:30"},{"city":"Satna","state":"Madhya Pradesh","latitude":24.6005,"longitude":80.8322,"temp":25.7,"humidity":97,"rain":0.0,"pressure":966.3,"uv_index":1.75,"wind_gusts":29.9,"aqi":94,"pm10":68.0,"pm2_5":38.5,"no2":17.0,"co":226.0,"o3":34.0,"so2":5.5,"mosquito_risk":7,"arthritis_risk":5,"migraine_risk":3,"frizz_risk":1,"updated_at":"2026-07-20T03:25:51.186518+05:30"},{"city":"Akola","state":"Maharashtra","latitude":20.7002,"longitude":77.0082,"temp":26.0,"humidity":86,"rain":0.0,"pressure":971.5,"uv_index":8.3,"wind_gusts":42.5,"aqi":50,"pm10":8.3,"pm2_5":6.7,"no2":8.7,"co":133.0,"o3":37.0,"so2":6.5,"mosquito_risk":7,"arthritis_risk":5,"migraine_risk":7,"frizz_risk":1,"updated_at":"2026-07-20T03:25:51.186524+05:30"},{"city":"Amravati","state":"Maharashtra","latitude":20.9374,"longitude":77.7796,"temp":24.2,"humidity":96,"rain":0.3,"pressure":963.7,"uv_index":7.65,"wind_gusts":41.8,"aqi":51,"pm10":8.2,"pm2_5":6.7,"no2":9.1,"co":146.0,"o3":41.0,"so2":8.1,"mosquito_risk":6,"arthritis_risk":5,"migraine_risk":7,"frizz_risk":1,"updated_at":"2026-07-20T03:25:51.186530+05:30"},{"city":"Latur","state":"Maharashtra","latitude":18.4088,"longitude":76.5604,"temp":22.9,"humidity":94,"rain":0.1,"pressure":936.6,"uv_index":1.0,"wind_gusts":50.8,"aqi":34,"pm10":3.8,"pm2_5":3.2,"no2":5.9,"co":116.0,"o3":32.0,"so2":2.2,"mosquito_risk":6,"arthritis_risk":5,"migraine_risk":3,"frizz_risk":1,"updated_at":"2026-07-20T03:25:51.186536+05:30"},{"city":"Nanded","state":"Maharashtra","latitude":19.1383,"longitude":77.3091,"temp":23.7,"humidity":95,"rain":0.0,"pressure":965.4,"uv_index":2.2,"wind_gusts":41.8,"aqi":51,"pm10":7.0,"pm2_5":5.6,"no2":6.2,"co":150.0,"o3":35.0,"so2":3.1,"mosquito_risk":3,"arthritis_risk":5,"migraine_risk":3,"frizz_risk":1,"updated_at":"2026-07-20T03:25:51.186542+05:30"},{"city":"Gulbarga","state":"Karnataka","latitude":17.3297,"longitude":76.8343,"temp":23.4,"humidity":96,"rain":0.0,"pressure":956.3,"uv_index":5.3,"wind_gusts":54.4,"aqi":33,"pm10":5.0,"pm2_5":3.6,"no2":6.6,"co":118.0,"o3":31.0,"so2":2.4,"mosquito_risk":3,"arthritis_risk":5,"migraine_risk":3,"frizz_risk":1,"updated_at":"2026-07-20T03:25:51.186548+05:30"},{"city":"Bidar","state":"Karnataka","latitude":17.9104,"longitude":77.5199,"temp":22.1,"humidity":97,"rain":0.0,"pressure":932.4,"uv_index":2.4,"wind_gusts":48.6,"aqi":48,"pm10":4.7,"pm2_5":3.6,"no2":5.8,"co":124.0,"o3":34.0,"so2":1.8,"mosquito_risk":3,"arthritis_risk":5,"migraine_risk":3,"frizz_risk":1,"updated_at":"2026-07-20T03:25:51.186553+05:30"},{"city":"Hospet","state":"Karnataka","latitude":15.2689,"longitude":76.3909,"temp":23.2,"humidity":89,"rain":0.0,"pressure":954.8,"uv_index":6.8,"wind_gusts":54.7,"aqi":35,"pm10":1.8,"pm2_5":1.5,"no2":4.3,"co":109.0,"o3":35.0,"so2":1.4,"mosquito_risk":3,"arthritis_risk":5,"migraine_risk":7,"frizz_risk":1,"updated_at":"2026-07-20T03:25:51.186559+05:30"},{"city":"Tirupur","state":"Tamil Nadu","latitude":11.1085,"longitude":77.3411,"temp":23.5,"humidity":91,"rain":0.0,"pressure":975.0,"uv_index":7.35,"wind_gusts":51.8,"aqi":56,"pm10":16.7,"pm2_5":12.9,"no2":15.0,"co":125.0,"o3":23.0,"so2":5.0,"mosquito_risk":3,"arthritis_risk":5,"migraine_risk":7,"frizz_risk":1,"updated_at":"2026-07-20T03:25:51.186564+05:30"},{"city":"Alappuzha","state":"Kerala","latitude":9.4981,"longitude":76.3388,"temp":24.9,"humidity":94,"rain":0.2,"pressure":1010.5,"uv_index":8.4,"wind_gusts":37.8,"aqi":52,"pm10":16.6,"pm2_5":9.3,"no2":5.6,"co":91.0,"o3":39.0,"so2":2.5,"mosquito_risk":6,"arthritis_risk":0,"migraine_risk":4,"frizz_risk":1,"updated_at":"2026-07-20T03:25:51.186570+05:30"},{"city":"Munnar","state":"Kerala","latitude":10.0889,"longitude":77.0595,"temp":16.4,"humidity":99,"rain":0.1,"pressure":856.6,"uv_index":8.0,"wind_gusts":41.0,"aqi":28,"pm10":5.4,"pm2_5":3.7,"no2":3.7,"co":94.0,"o3":29.0,"so2":1.3,"mosquito_risk":6,"arthritis_risk":10,"migraine_risk":7,"frizz_risk":1,"updated_at":"2026-07-20T03:25:51.186576+05:30"},{"city":"Silchar","state":"Assam","latitude":24.8333,"longitude":92.7789,"temp":25.2,"humidity":96,"rain":0.3,"pressure":1003.1,"uv_index":1.15,"wind_gusts":21.2,"aqi":62,"pm10":18.3,"pm2_5":14.5,"no2":6.9,"co":197.0,"o3":47.0,"so2":3.6,"mosquito_risk":10,"arthritis_risk":5,"migraine_risk":0,"frizz_risk":1,"updated_at":"2026-07-20T03:25:51.186582+05:30"},{"city":"Dibrugarh","state":"Assam","latitude":27.4728,"longitude":94.912,"temp":24.2,"humidity":99,"rain":0.0,"pressure":993.5,"uv_index":8.35,"wind_gusts":27.0,"aqi":66,"pm10":41.0,"pm2_5":39.1,"no2":38.0,"co":207.0,"o3":6.0,"so2":3.5,"mosquito_risk":3,"arthritis_risk":5,"migraine_risk":7,"frizz_risk":1,"updated_at":"2026-07-20T03:25:51.186588+05:30"}]