[{"city":"Delhi","state":"Delhi","latitude":28.6139,"longitude":77.209,"temp":26.4,"humidity":46,"rain":0.0,"pressure":986.6,"uv_index":5.8,"wind_gusts":36.7,"aqi":327,"pm10":694.8,"pm2_5":107.6,"mosquito_risk":4,"arthritis_risk":5,"migraine_risk":3,"frizz_risk":0,"updated_at":"2026-03-03T18:34:46.885006+05:30"},{"city":"Mumbai","state":"Maharashtra","latitude":19.076,"longitude":72.8777,"temp":28.0,"humidity":68,"rain":0.0,"pressure":1009.5,"uv_index":7.35,"wind_gusts":25.9,"aqi":177,"pm10":58.4,"pm2_5":54.4,"mosquito_risk":7,"arthritis_risk":0,"migraine_risk":4,"frizz_risk":1,"updated_at":"2026-03-03T18:34:46.885039+05:30"},{"city":"Bangalore","state":"Karnataka","latitude":12.9716,"longitude":77.5946,"temp":28.7,"humidity":31,"rain":0.0,"pressure":913.2,"uv_index":9.1,"wind_gusts":36.0,"aqi":123,"pm10":34.5,"pm2_5":33.9,"mosquito_risk":4,"arthritis_risk":5,"migraine_risk":7,"frizz_risk":0,"updated_at":"2026-03-03T18:34:46.885053+05:30"},{"city":"Hyderabad","state":"Telangana","latitude":17.385,"longitude":78.4867,"temp":30.2,"humidity":40,"rain":0.0,"pressure":955.3,"uv_index":8.35,"wind_gusts":23.4,"aqi":161,"pm10":34.9,"pm2_5":34.2,"mosquito_risk":0,"arthritis_risk":5,"migraine_risk":7,"frizz_risk":0,"updated_at":"2026-03-03T18:34:46.885062+05:30"},{"city":"Chennai","state":"Tamil Nadu","latitude":13.0827,"longitude":80.2707,"temp":27.8,"humidity":61,"rain":0.0,"pressure":1009.9,"uv_index":8.8,"wind_gusts":30.2,"aqi":112,"pm10":34.0,"pm2_5":30.3,"mosquito_risk":7,"arthritis_risk":0,"migraine_risk":4,"frizz_risk":1,"updated_at":"2026-03-03T18:34:46.885069+05:30"},{"city":"Kolkata","state":"West Bengal","latitude":22.5726,"longitude":88.3639,"temp":28.0,"humidity":45,"rain":0.0,"pressure":1009.0,"uv_index":7.7,"wind_gusts":16.2,"aqi":171,"pm10":109.0,"pm2_5":77.5,"mosquito_risk":4,"arthritis_risk":0,"migraine_risk":4,"frizz_risk":0,"updated_at":"2026-03-03T18:34:46.885076+05:30"},{"city":"Pune","state":"Maharashtra","latitude":18.5204,"longitude":73.8567,"temp":34.0,"humidity":27,"rain":0.0,"pressure":949.7,"uv_index":7.9,"wind_gusts":32.8,"aqi":140,"pm10":21.0,"pm2_5":20.7,"mosquito_risk":0,"arthritis_risk":5,"migraine_risk":7,"frizz_risk":0,"updated_at":"2026-03-03T18:34:46.885085+05:30"},{"city":"Ahmedabad","state":"Gujarat","latitude":23.0225,"longitude":72.5714,"temp":34.7,"humidity":27,"rain":0.0,"pressure":1004.6,"uv_index":7.15,"wind_gusts":14.4,"aqi":115,"pm10":25.7,"pm2_5":18.9,"mosquito_risk":0,"arthritis_risk":5,"migraine_risk":4,"frizz_risk":0,"updated_at":"2026-03-03T18:34:46.885092+05:30"},{"city":"Jaipur","state":"Rajasthan","latitude":26.9124,"longitude":75.7873,"temp":30.3,"humidity":14,"rain":0.0,"pressure":964.1,"uv_index":6.55,"wind_gusts":29.9,"aqi":108,"pm10":89.9,"pm2_5":28.8,"mosquito_risk":0,"arthritis_risk":5,"migraine_risk":7,"frizz_risk":1,"updated_at":"2026-03-03T18:34:46.885098+05:30"},{"city":"Lucknow","state":"Uttar Pradesh","latitude":26.8467,"longitude":80.9462,"temp":27.2,"humidity":42,"rain":0.0,"pressure":997.1,"uv_index":6.3,"wind_gusts":35.6,"aqi":152,"pm10":200.2,"pm2_5":53.0,"mosquito_risk":4,"arthritis_risk":5,"migraine_risk":7,"frizz_risk":0,"updated_at":"2026-03-03T18:34:46.885104+05:30"},{"city":"Kanpur","state":"Uttar Pradesh","latitude":26.4499,"longitude":80.3319,"temp":26.5,"humidity":46,"rain":0.0,"pressure":995.2,"uv_index":6.3,"wind_gusts":28.4,"aqi":185,"pm10":272.9,"pm2_5":58.3,"mosquito_risk":4,"arthritis_risk":5,"migraine_risk":7,"frizz_risk":0,"updated_at":"2026-03-03T18:34:46.885110+05:30"},{"city":"Chandigarh","state":"Chandigarh","latitude":30.7333,"longitude":76.7794,"temp":23.0,"humidity":55,"rain":0.0,"pressure":971.9,"uv_index":5.7,"wind_gusts":33.5,"aqi":141,"pm10":32.7,"pm2_5":30.4,"mosquito_risk":0,"arthritis_risk":5,"migraine_risk":3,"frizz_risk":0,"updated_at":"2026-03-03T18:34:46.885117+05:30"},{"city":"Srinagar","state":"Jammu and Kashmir","latitude":34.0837,"longitude":74.7973,"temp":17.4,"humidity":27,"rain":0.0,"pressure":844.3,"uv_index":6.6,"wind_gusts":18.0,"aqi":152,"pm10":50.1,"pm2_5":41.9,"mosquito_risk":0,"arthritis_risk":5,"migraine_risk":7,"frizz_risk":1,"updated_at":"2026-03-03T18:34:46.885123+05:30"},{"city":"Jammu","state":"Jammu and Kashmir","latitude":32.7266,"longitude":74.857,"temp":24.7,"humidity":61,"rain":0.0,"pressure":975.6,"uv_index":6.3,"wind_gusts":20.9,"aqi":104,"pm10":44.5,"pm2_5":35.4,"mosquito_risk":3,"arthritis_risk":5,"migraine_risk":7,"frizz_risk":1,"updated_at":"2026-03-03T18:34:46.885128+05:30"},{"city":"Amritsar","state":"Punjab","latitude":31.634,"longitude":74.8723,"temp":24.4,"humidity":51,"rain":0.0,"pressure":984.1,"uv_index":6.25,"wind_gusts":25.9,"aqi":109,"pm10":33.2,"pm2_5":27.0,"mosquito_risk":0,"arthritis_risk":5,"migraine_risk":7,"frizz_risk":0,"updated_at":"2026-03-03T18:34:46.885134+05:30"},{"city":"Ludhiana","state":"Punjab","latitude":30.901,"longitude":75.8573,"temp":25.4,"humidity":51,"rain":0.0,"pressure":982.3,"uv_index":5.9,"wind_gusts":29.9,"aqi":139,"pm10":82.2,"pm2_5":43.4,"mosquito_risk":4,"arthritis_risk":5,"migraine_risk":3,"frizz_risk":0,"updated_at":"2026-03-03T18:34:46.885139+05:30"},{"city":"Jalandhar","state":"Punjab","latitude":31.326,"longitude":75.5762,"temp":25.9,"humidity":51,"rain":0.0,"pressure":983.4,"uv_index":6.05,"wind_gusts":25.9,"aqi":138,"pm10":48.5,"pm2_5":30.6,"mosquito_risk":4,"arthritis_risk":5,"migraine_risk":7,"frizz_risk":0,"updated_at":"2026-03-03T18:34:46.885147+05:30"},{"city":"Dehradun","state":"Uttarakhand","latitude":30.6284,"longitude":78.0322,"temp":16.0,"humidity":74,"rain":0.0,"pressure":831.8,"uv_index":6.05,"wind_gusts":31.0,"aqi":110,"pm10":23.5,"pm2_5":20.5,"mosquito_risk":3,"arthritis_risk":5,"migraine_risk":7,"frizz_risk":0,"updated_at":"2026-03-03T18:34:46.885169+05:30"},{"city":"Shimla","state":"Himachal Pradesh","latitude":31.1048,"longitude":77.1734,"temp":14.6,"humidity":59,"rain":0.0,"pressure":786.7,"uv_index":6.1,"wind_gusts":44.6,"aqi":112,"pm10":22.8,"pm2_5":17.7,"mosquito_risk":0,"arthritis_risk":5,"migraine_risk":7,"frizz_risk":0,"updated_at":"2026-03-03T18:34:46.885175+05:30"},{"city":"Manali","state":"Himachal Pradesh","latitude":32.2396,"longitude":77.1887,"temp":19.2,"humidity":49,"rain":0.0,"pressure":823.3,"uv_index":7.7,"wind_gusts":34.6,"aqi":102,"pm10":15.3,"pm2_5":11.9,"mosquito_risk":0,"arthritis_risk":5,"migraine_risk":7,"frizz_risk":0,"updated_at":"2026-03-03T18:34:46.885181+05:30"},{"city":"Gurgaon","state":"Haryana","latitude":28.4595,"longitude":77.0266,"temp":24.0,"humidity":54,"rain":0.0,"pressure":985.1,"uv_index":5.9,"wind_gusts":33.8,"aqi":1152,"pm10":1467.8,"pm2_5":179.7,"mosquito_risk":0,"arthritis_risk":5,"migraine_risk":3,"frizz_risk":0,"updated_at":"2026-03-03T18:34:46.885186+05:30"},{"city":"Noida","state":"Uttar Pradesh","latitude":28.5355,"longitude":77.391,"temp":26.9,"humidity":43,"rain":0.0,"pressure":988.2,"uv_index":5.8,"wind_gusts":36.4,"aqi":1152,"pm10":1467.8,"pm2_5":179.7,"mosquito_risk":4,"arthritis_risk":5,"migraine_risk":3,"frizz_risk":0,"updated_at":"2026-03-03T18:34:46.885192+05:30"},{"city":"Ghaziabad","state":"Uttar Pradesh","latitude":28.6692,"longitude":77.4538,"temp":25.7,"humidity":50,"rain":0.0,"pressure":986.2,"uv_index":5.75,"wind_gusts":36.0,"aqi":233,"pm10":607.2,"pm2_5":100.4,"mosquito_risk":4,"arthritis_risk":5,"migraine_risk":3,"frizz_risk":0,"updated_at":"2026-03-03T18:34:46.885198+05:30"},{"city":"Faridabad","state":"Haryana","latitude":28.4089,"longitude":77.3178,"temp":25.2,"humidity":46,"rain":0.0,"pressure":987.5,"uv_index":5.85,"wind_gusts":32.8,"aqi":1152,"pm10":1467.8,"pm2_5":179.7,"mosquito_risk":4,"arthritis_risk":5,"migraine_risk":3,"frizz_risk":0,"updated_at":"2026-03-03T18:34:46.885203+05:30"},{"city":"Meerut","state":"Uttar Pradesh","latitude":28.9845,"longitude":77.7064,"temp":24.5,"humidity":56,"rain":0.0,"pressure":984.6,"uv_index":5.65,"wind_gusts":41.4,"aqi":233,"pm10":607.2,"pm2_5":100.4,"mosquito_risk":0,"arthritis_risk":5,"migraine_risk":3,"frizz_risk":0,"updated_at":"2026-03-03T18:34:46.885208+05:30"},{"city":"Agra","state":"Uttar Pradesh","latitude":27.1767,"longitude":78.0081,"temp":26.5,"humidity":39,"rain":0.0,"pressure":991.5,"uv_index":6.15,"wind_gusts":30.6,"aqi":478,"pm10":463.8,"pm2_5":71.2,"mosquito_risk":4,"arthritis_risk":5,"migraine_risk":7,"frizz_risk":0,"updated_at":"2026-03-03T18:34:46.885214+05:30"},{"city":"Varanasi","state":"Uttar Pradesh","latitude":25.3176,"longitude":82.9739,"temp":25.3,"humidity":55,"rain":0.0,"pressure":1001.6,"uv_index":6.95,"wind_gusts":23.0,"aqi":135,"pm10":69.8,"pm2_5":46.9,"mosquito_risk":4,"arthritis_risk":5,"migraine_risk":4,"frizz_risk":0,"updated_at":"2026-03-03T18:34:46.885223+05:30"},{"city":"Prayagraj","state":"Uttar Pradesh","latitude":25.4358,"longitude":81.8463,"temp":26.0,"humidity":53,"rain":0.0,"pressure":999.9,"uv_index":6.8,"wind_gusts":23.0,"aqi":123,"pm10":65.7,"pm2_5":41.8,"mosquito_risk":4,"arthritis_risk":5,"migraine_risk":7,"frizz_risk":0,"updated_at":"2026-03-03T18:34:46.885229+05:30"},{"city":"Gorakhpur","state":"Uttar Pradesh","latitude":26.7606,"longitude":83.3732,"temp":24.9,"humidity":55,"rain":0.0,"pressure":1001.0,"uv_index":6.65,"wind_gusts":16.9,"aqi":145,"pm10":85.2,"pm2_5":55.4,"mosquito_risk":0,"arthritis_risk":5,"migraine_risk":4,"frizz_risk":0,"updated_at":"2026-03-03T18:34:46.885234+05:30"},{"city":"Bareilly","state":"Uttar Pradesh","latitude":28.367,"longitude":79.4304,"temp":24.8,"humidity":65,"rain":0.0,"pressure":989.9,"uv_index":6.0,"wind_gusts":28.8,"aqi":134,"pm10":181.1,"pm2_5":67.5,"mosquito_risk":3,"arthritis_risk":5,"migraine_risk":3,"frizz_risk":1,"updated_at":"2026-03-03T18:34:46.885240+05:30"},{"city":"Aligarh","state":"Uttar Pradesh","latitude":27.8974,"longitude":78.088,"temp":24.8,"humidity":47,"rain":0.0,"pressure":989.1,"uv_index":5.9,"wind_gusts":34.9,"aqi":659,"pm10":1028.2,"pm2_5":144.8,"mosquito_risk":0,"arthritis_risk":5,"migraine_risk":3,"frizz_risk":0,"updated_at":"2026-03-03T18:34:46.885245+05:30"},{"city":"Moradabad","state":"Uttar Pradesh","latitude":28.8386,"longitude":78.7733,"temp":24.5,"humidity":52,"rain":0.0,"pressure":986.7,"uv_index":5.8,"wind_gusts":28.8,"aqi":136,"pm10":164.8,"pm2_5":57.4,"mosquito_risk":0,"arthritis_risk":5,"migraine_risk":3,"frizz_risk":0,"updated_at":"2026-03-03T18:34:46.885251+05:30"},{"city":"Saharanpur","state":"Uttar Pradesh","latitude":29.9637,"longitude":77.546,"temp":23.8,"humidity":46,"rain":0.0,"pressure":978.1,"uv_index":5.45,"wind_gusts":43.2,"aqi":131,"pm10":193.2,"pm2_5":55.9,"mosquito_risk":0,"arthritis_risk":5,"migraine_risk":3,"frizz_risk":0,"updated_at":"2026-03-03T18:34:46.885256+05:30"},{"city":"Jhansi","state":"Uttar Pradesh","latitude":25.4484,"longitude":78.5685,"temp":29.0,"humidity":37,"rain":0.0,"pressure":981.8,"uv_index":6.7,"wind_gusts":26.6,"aqi":80,"pm10":37.6,"pm2_5":21.9,"mosquito_risk":4,"arthritis_risk":5,"migraine_risk":7,"frizz_risk":0,"updated_at":"2026-03-03T18:34:50.218271+05:30"},{"city":"Surat","state":"Gujarat","latitude":21.1702,"longitude":72.8311,"temp":29.9,"humidity":52,"rain":0.0,"pressure":1009.0,"uv_index":7.05,"wind_gusts":27.0,"aqi":160,"pm10":67.3,"pm2_5":65.2,"mosquito_risk":4,"arthritis_risk":0,"migraine_risk":4,"frizz_risk":1,"updated_at":"2026-03-03T18:34:50.218295+05:30"},{"city":"Vadodara","state":"Gujarat","latitude":22.3072,"longitude":73.1812,"temp":34.1,"humidity":31,"rain":0.0,"pressure":1006.6,"uv_index":7.15,"wind_gusts":13.3,"aqi":156,"pm10":36.8,"pm2_5":34.2,"mosquito_risk":0,"arthritis_risk":5,"migraine_risk":4,"frizz_risk":0,"updated_at":"2026-03-03T18:34:50.218306+05:30"},{"city":"Rajkot","state":"Gujarat","latitude":22.3039,"longitude":70.8022,"temp":34.5,"humidity":22,"rain":0.0,"pressure":996.8,"uv_index":7.0,"wind_gusts":17.6,"aqi":87,"pm10":17.1,"pm2_5":13.6,"mosquito_risk":0,"arthritis_risk":5,"migraine_risk":7,"frizz_risk":0,"updated_at":"2026-03-03T18:34:50.218314+05:30"},{"city":"Thane","state":"Maharashtra","latitude":19.2183,"longitude":72.9781,"temp":29.5,"humidity":50,"rain":0.0,"pressure":1009.1,"uv_index":7.35,"wind_gusts":36.7,"aqi":177,"pm10":58.4,"pm2_5":54.4,"mosquito_risk":4,"arthritis_risk":0,"migraine_risk":4,"frizz_risk":1,"updated_at":"2026-03-03T18:34:50.218322+05:30"},{"city":"Nagpur","state":"Maharashtra","latitude":21.1458,"longitude":79.0882,"temp":30.8,"humidity":35,"rain":0.0,"pressure":975.6,"uv_index":7.7,"wind_gusts":17.6,"aqi":105,"pm10":34.1,"pm2_5":26.2,"mosquito_risk":0,"arthritis_risk":5,"migraine_risk":7,"frizz_risk":0,"updated_at":"2026-03-03T18:34:50.218330+05:30"},{"city":"Nashik","state":"Maharashtra","latitude":19.9975,"longitude":73.7898,"temp":31.7,"humidity":26,"rain":0.0,"pressure":947.7,"uv_index":7.55,"wind_gusts":31.0,"aqi":147,"pm10":24.0,"pm2_5":23.3,"mosquito_risk":0,"arthritis_risk":5,"migraine_risk":7,"frizz_risk":0,"updated_at":"2026-03-03T18:34:50.218337+05:30"},{"city":"Aurangabad","state":"Maharashtra","latitude":19.8762,"longitude":75.3433,"temp":32.4,"humidity":29,"rain":0.0,"pressure":946.3,"uv_index":8.05,"wind_gusts":25.2,"aqi":133,"pm10":21.2,"pm2_5":20.3,"mosquito_risk":0,"arthritis_risk":5,"migraine_risk":7,"frizz_risk":0,"updated_at":"2026-03-03T18:34:50.218345+05:30"},{"city":"Solapur","state":"Maharashtra","latitude":17.6599,"longitude":75.9064,"temp":31.4,"humidity":41,"rain":0.0,"pressure":958.6,"uv_index":8.25,"wind_gusts":18.0,"aqi":153,"pm10":30.7,"pm2_5":30.3,"mosquito_risk":0,"arthritis_risk":5,"migraine_risk":7,"frizz_risk":1,"updated_at":"2026-03-03T18:34:50.218352+05:30"},{"city":"Kolhapur","state":"Maharashtra","latitude":16.705,"longitude":74.2433,"temp":31.5,"humidity":33,"rain":0.0,"pressure":949.0,"uv_index":8.4,"wind_gusts":39.2,"aqi":169,"pm10":60.1,"pm2_5":59.5,"mosquito_risk":0,"arthritis_risk":5,"migraine_risk":7,"frizz_risk":0,"updated_at":"2026-03-03T18:34:50.218360+05:30"},{"city":"Goa","state":"Goa","latitude":15.2993,"longitude":74.124,"temp":28.0,"humidity":75,"rain":0.0,"pressure":998.9,"uv_index":8.45,"wind_gusts":34.2,"aqi":86,"pm10":30.4,"pm2_5":24.2,"mosquito_risk":7,"arthritis_risk":5,"migraine_risk":7,"frizz_risk":1,"updated_at":"2026-03-03T18:34:50.218367+05:30"},{"city":"Jodhpur","state":"Rajasthan","latitude":26.2389,"longitude":73.0243,"temp":33.3,"humidity":26,"rain":0.0,"pressure":986.8,"uv_index":6.85,"wind_gusts":15.8,"aqi":82,"pm10":53.9,"pm2_5":18.7,"mosquito_risk":0,"arthritis_risk":5,"migraine_risk":7,"frizz_risk":0,"updated_at":"2026-03-03T18:34:50.218374+05:30"},{"city":"Udaipur","state":"Rajasthan","latitude":24.5854,"longitude":73.7125,"temp":29.9,"humidity":28,"rain":0.0,"pressure":950.4,"uv_index":7.45,"wind_gusts":18.4,"aqi":104,"pm10":29.7,"pm2_5":17.2,"mosquito_risk":4,"arthritis_risk":5,"migraine_risk":7,"frizz_risk":0,"updated_at":"2026-03-03T18:34:50.218382+05:30"},{"city":"Kota","state":"Rajasthan","latitude":25.2138,"longitude":75.8648,"temp":31.2,"humidity":34,"rain":0.0,"pressure":982.4,"uv_index":6.85,"wind_gusts":19.4,"aqi":86,"pm10":39.0,"pm2_5":24.5,"mosquito_risk":0,"arthritis_risk":5,"migraine_risk":7,"frizz_risk":0,"updated_at":"2026-03-03T18:34:50.218389+05:30"},{"city":"Bikaner","state":"Rajasthan","latitude":28.0229,"longitude":73.3119,"temp":31.1,"humidity":26,"rain":0.0,"pressure":986.2,"uv_index":6.55,"wind_gusts":21.6,"aqi":85,"pm10":35.9,"pm2_5":17.1,"mosquito_risk":0,"arthritis_risk":5,"migraine_risk":7,"frizz_risk":0,"updated_at":"2026-03-03T18:34:50.218397+05:30"},{"city":"Ajmer","state":"Rajasthan","latitude":26.4499,"longitude":74.6399,"temp":29.3,"humidity":20,"rain":0.0,"pressure":958.8,"uv_index":6.8,"wind_gusts":25.9,"aqi":89,"pm10":35.0,"pm2_5":18.3,"mosquito_risk":4,"arthritis_risk":5,"migraine_risk":7,"frizz_risk":0,"updated_at":"2026-03-03T18:34:50.218404+05:30"},{"city":"Gwalior","state":"Madhya Pradesh","latitude":26.2183,"longitude":78.1828,"temp":26.7,"humidity":57,"rain":0.0,"pressure":987.2,"uv_index":6.45,"wind_gusts":29.5,"aqi":124,"pm10":46.8,"pm2_5":27.0,"mosquito_risk":4,"arthritis_risk":5,"migraine_risk":7,"frizz_risk":1,"updated_at":"2026-03-03T18:34:50.218411+05:30"},{"city":"Indore","state":"Madhya Pradesh","latitude":22.7196,"longitude":75.8577,"temp":27.4,"humidity":46,"rain":0.0,"pressure":951.3,"uv_index":7.4,"wind_gusts":16.9,"aqi":105,"pm10":23.1,"pm2_5":20.8,"mosquito_risk":4,"arthritis_risk":5,"migraine_risk":7,"frizz_risk":0,"updated_at":"2026-03-03T18:34:50.218418+05:30"},{"city":"Bhopal","state":"Madhya Pradesh","latitude":23.2599,"longitude":77.4126,"temp":27.5,"humidity":45,"rain":0.0,"pressure":957.2,"uv_index":7.3,"wind_gusts":22.3,"aqi":106,"pm10":28.6,"pm2_5":20.2,"mosquito_risk":4,"arthritis_risk":5,"migraine_risk":7,"frizz_risk":0,"updated_at":"2026-03-03T18:34:50.218425+05:30"},{"city":"Jabalpur","state":"Madhya Pradesh","latitude":23.1815,"longitude":79.9864,"temp":28.7,"humidity":37,"rain":0.0,"pressure":965.1,"uv_index":7.4,"wind_gusts":17.6,"aqi":88,"pm10":32.4,"pm2_5":20.5,"mosquito_risk":4,"arthritis_risk":5,"migraine_risk":7,"frizz_risk":0,"updated_at":"2026-03-03T18:34:50.218433+05:30"},{"city":"Ujjain","state":"Madhya Pradesh","latitude":23.1765,"longitude":75.7885,"temp":27.9,"humidity":46,"rain":0.0,"pressure":957.2,"uv_index":7.3,"wind_gusts":15.5,"aqi":106,"pm10":30.3,"pm2_5":27.2,"mosquito_risk":4,"arthritis_risk":5,"migraine_risk":7,"frizz_risk":0,"updated_at":"2026-03-03T18:34:50.218440+05:30"},{"city":"Visakhapatnam","state":"Andhra Pradesh","latitude":17.6868,"longitude":83.2185,"temp":27.3,"humidity":68,"rain":0.0,"pressure":1006.5,"uv_index":8.35,"wind_gusts":34.2,"aqi":130,"pm10":46.0,"pm2_5":41.3,"mosquito_risk":7,"arthritis_risk":5,"migraine_risk":4,"frizz_risk":1,"updated_at":"2026-03-03T18:34:50.218447+05:30"},{"city":"Vijayawada","state":"Andhra Pradesh","latitude":16.5062,"longitude":80.648,"temp":31.5,"humidity":44,"rain":0.0,"pressure":1004.3,"uv_index":8.4,"wind_gusts":27.7,"aqi":142,"pm10":57.9,"pm2_5":56.5,"mosquito_risk":0,"arthritis_risk":5,"migraine_risk":4,"frizz_risk":1,"updated_at":"2026-03-03T18:34:50.218454+05:30"},{"city":"Guntur","state":"Andhra Pradesh","latitude":16.3067,"longitude":80.4365,"temp":29.9,"humidity":43,"rain":0.0,"pressure":1006.0,"uv_index":8.4,"wind_gusts":28.8,"aqi":131,"pm10":54.6,"pm2_5":53.8,"mosquito_risk":4,"arthritis_risk":5,"migraine_risk":4,"frizz_risk":0,"updated_at":"2026-03-03T18:34:50.218462+05:30"},{"city":"Nellore","state":"Andhra Pradesh","latitude":14.4426,"longitude":79.9865,"temp":28.9,"humidity":47,"rain":0.0,"pressure":1008.5,"uv_index":8.6,"wind_gusts":29.2,"aqi":133,"pm10":31.2,"pm2_5":28.0,"mosquito_risk":4,"arthritis_risk":0,"migraine_risk":4,"frizz_risk":1,"updated_at":"2026-03-03T18:34:50.218469+05:30"},{"city":"Kurnool","state":"Andhra Pradesh","latitude":15.8281,"longitude":78.0373,"temp":34.2,"humidity":27,"rain":0.0,"pressure":978.1,"uv_index":8.45,"wind_gusts":29.2,"aqi":119,"pm10":32.4,"pm2_5":31.4,"mosquito_risk":0,"arthritis_risk":5,"migraine_risk":7,"frizz_risk":0,"updated_at":"2026-03-03T18:34:50.218478+05:30"},{"city":"Kakinada","state":"Andhra Pradesh","latitude":16.9891,"longitude":82.2475,"temp":28.0,"humidity":58,"rain":0.0,"pressure":1009.7,"uv_index":8.35,"wind_gusts":34.9,"aqi":127,"pm10":37.3,"pm2_5":31.7,"mosquito_risk":4,"arthritis_risk":0,"migraine_risk":4,"frizz_risk":1,"updated_at":"2026-03-03T18:34:50.218485+05:30"},{"city":"Tirupati","state":"Andhra Pradesh","latitude":13.6288,"longitude":79.4192,"temp":29.8,"humidity":34,"rain":0.0,"pressure":993.8,"uv_index":8.75,"wind_gusts":37.1,"aqi":151,"pm10":40.5,"pm2_5":38.8,"mosquito_risk":4,"arthritis_risk":5,"migraine_risk":7,"frizz_risk":0,"updated_at":"2026-03-03T18:34:50.218492+05:30"},{"city":"Warangal","state":"Telangana","latitude":17.9689,"longitude":79.5941,"temp":31.5,"humidity":40,"rain":0.0,"pressure":980.7,"uv_index":8.2,"wind_gusts":14.0,"aqi":145,"pm10":34.8,"pm2_5":33.9,"mosquito_risk":0,"arthritis_risk":5,"migraine_risk":7,"frizz_risk":1,"updated_at":"2026-03-03T18:34:50.218499+05:30"},{"city":"Nizamabad","state":"Telangana","latitude":18.6725,"longitude":78.0941,"temp":31.3,"humidity":38,"rain":0.0,"pressure":966.9,"uv_index":8.1,"wind_gusts":24.5,"aqi":118,"pm10":28.5,"pm2_5":26.3,"mosquito_risk":0,"arthritis_risk":5,"migraine_risk":7,"frizz_risk":0,"updated_at":"2026-03-03T18:34:50.218506+05:30"},{"city":"Mysore","state":"Karnataka","latitude":12.2958,"longitude":76.6396,"temp":30.4,"humidity":26,"rain":0.0,"pressure":929.0,"uv_index":9.15,"wind_gusts":32.8,"aqi":140,"pm10":31.4,"pm2_5":30.9,"mosquito_risk":0,"arthritis_risk":5,"migraine_risk":7,"frizz_risk":0,"updated_at":"2026-03-03T18:34:50.218513+05:30"},{"city":"Mangalore","state":"Karnataka","latitude":12.9141,"longitude":74.856,"temp":28.5,"humidity":78,"rain":0.0,"pressure":1007.5,"uv_index":8.7,"wind_gusts":29.2,"aqi":75,"pm10":24.7,"pm2_5":18.1,"mosquito_risk":7,"arthritis_risk":5,"migraine_risk":4,"frizz_risk":1,"updated_at":"2026-03-03T18:34:50.218521+05:30"},{"city":"Hubli-Dharwad","state":"Karnataka","latitude":15.3647,"longitude":75.124,"temp":32.0,"humidity":31,"rain":0.0,"pressure":941.7,"uv_index":8.6,"wind_gusts":25.6,"aqi":161,"pm10":40.9,"pm2_5":40.3,"mosquito_risk":0,"arthritis_risk":5,"migraine_risk":7,"frizz_risk":0,"updated_at":"2026-03-03T18:34:50.218528+05:30"},{"city":"Belgaum","state":"Karnataka","latitude":15.8497,"longitude":74.4977,"temp":29.3,"humidity":51,"rain":0.0,"pressure":926.8,"uv_index":8.65,"wind_gusts":32.0,"aqi":178,"pm10":46.0,"pm2_5":45.3,"mosquito_risk":4,"arthritis_risk":5,"migraine_risk":7,"frizz_risk":1,"updated_at":"2026-03-03T18:34:53.555407+05:30"},{"city":"Coimbatore","state":"Tamil Nadu","latitude":11.0168,"longitude":76.9558,"temp":30.9,"humidity":29,"rain":0.0,"pressure":962.3,"uv_index":9.15,"wind_gusts":43.6,"aqi":131,"pm10":38.1,"pm2_5":37.4,"mosquito_risk":0,"arthritis_risk":5,"migraine_risk":7,"frizz_risk":0,"updated_at":"2026-03-03T18:34:53.555429+05:30"},{"city":"Madurai","state":"Tamil Nadu","latitude":9.9252,"longitude":78.1198,"temp":32.2,"humidity":29,"rain":0.0,"pressure":993.6,"uv_index":9.1,"wind_gusts":33.8,"aqi":118,"pm10":24.9,"pm2_5":24.2,"mosquito_risk":0,"arthritis_risk":5,"migraine_risk":7,"frizz_risk":0,"updated_at":"2026-03-03T18:34:53.555438+05:30"},{"city":"Trichy","state":"Tamil Nadu","latitude":10.7905,"longitude":78.7047,"temp":30.8,"humidity":46,"rain":0.0,"pressure":1001.0,"uv_index":9.0,"wind_gusts":31.0,"aqi":126,"pm10":29.6,"pm2_5":28.7,"mosquito_risk":0,"arthritis_risk":5,"migraine_risk":4,"frizz_risk":1,"updated_at":"2026-03-03T18:34:53.555445+05:30"},{"city":"Salem","state":"Tamil Nadu","latitude":11.6643,"longitude":78.146,"temp":32.2,"humidity":28,"rain":0.0,"pressure":978.2,"uv_index":9.0,"wind_gusts":40.7,"aqi":147,"pm10":31.0,"pm2_5":30.2,"mosquito_risk":0,"arthritis_risk":5,"migraine_risk":7,"frizz_risk":0,"updated_at":"2026-03-03T18:34:53.555451+05:30"},{"city":"Tirunelveli","state":"Tamil Nadu","latitude":8.7139,"longitude":77.7567,"temp":28.9,"humidity":53,"rain":0.0,"pressure":1004.3,"uv_index":9.1,"wind_gusts":42.5,"aqi":105,"pm10":17.2,"pm2_5":16.6,"mosquito_risk":4,"arthritis_risk":5,"migraine_risk":4,"frizz_risk":1,"updated_at":"2026-03-03T18:34:53.555457+05:30"},{"city":"Vellore","state":"Tamil Nadu","latitude":12.9165,"longitude":79.1325,"temp":29.7,"humidity":42,"rain":0.0,"pressure":986.4,"uv_index":8.85,"wind_gusts":38.5,"aqi":142,"pm10":31.0,"pm2_5":29.5,"mosquito_risk":4,"arthritis_risk":5,"migraine_risk":7,"frizz_risk":0,"updated_at":"2026-03-03T18:34:53.555464+05:30"},{"city":"Erode","state":"Tamil Nadu","latitude":11.341,"longitude":77.7172,"temp":33.7,"humidity":26,"rain":0.0,"pressure":989.3,"uv_index":9.05,"wind_gusts":36.0,"aqi":134,"pm10":33.8,"pm2_5":32.8,"mosquito_risk":0,"arthritis_risk":5,"migraine_risk":7,"frizz_risk":0,"updated_at":"2026-03-03T18:34:53.555470+05:30"},{"city":"Kochi","state":"Kerala","latitude":9.9312,"longitude":76.2673,"temp":28.3,"humidity":79,"rain":0.0,"pressure":1009.2,"uv_index":8.95,"wind_gusts":33.1,"aqi":122,"pm10":30.0,"pm2_5":28.2,"mosquito_risk":7,"arthritis_risk":0,"migraine_risk":4,"frizz_risk":1,"updated_at":"2026-03-03T18:34:53.555476+05:30"},{"city":"Thiruvananthapuram","state":"Kerala","latitude":8.5241,"longitude":76.9366,"temp":28.2,"humidity":71,"rain":0.0,"pressure":1008.9,"uv_index":8.95,"wind_gusts":27.0,"aqi":136,"pm10":32.4,"pm2_5":29.8,"mosquito_risk":7,"arthritis_risk":0,"migraine_risk":4,"frizz_risk":1,"updated_at":"2026-03-03T18:34:53.555482+05:30"},{"city":"Kozhikode","state":"Kerala","latitude":11.2588,"longitude":75.7804,"temp":28.7,"humidity":77,"rain":0.0,"pressure":1008.3,"uv_index":8.85,"wind_gusts":36.4,"aqi":72,"pm10":25.3,"pm2_5":18.2,"mosquito_risk":7,"arthritis_risk":0,"migraine_risk":4,"frizz_risk":1,"updated_at":"2026-03-03T18:34:53.555487+05:30"},{"city":"Thrissur","state":"Kerala","latitude":10.5276,"longitude":76.2144,"temp":29.0,"humidity":73,"rain":0.0,"pressure":1007.4,"uv_index":8.9,"wind_gusts":38.9,"aqi":125,"pm10":28.8,"pm2_5":27.4,"mosquito_risk":7,"arthritis_risk":5,"migraine_risk":4,"frizz_risk":1,"updated_at":"2026-03-03T18:34:53.555494+05:30"},{"city":"Kannur","state":"Kerala","latitude":11.8745,"longitude":75.3704,"temp":29.0,"humidity":71,"rain":0.0,"pressure":1008.0,"uv_index":8.8,"wind_gusts":38.2,"aqi":77,"pm10":26.2,"pm2_5":19.2,"mosquito_risk":7,"arthritis_risk":0,"migraine_risk":4,"frizz_risk":1,"updated_at":"2026-03-03T18:34:53.555500+05:30"},{"city":"Patna","state":"Bihar","latitude":25.5941,"longitude":85.1376,"temp":27.0,"humidity":45,"rain":0.0,"pressure":1004.6,"uv_index":7.1,"wind_gusts":16.9,"aqi":143,"pm10":82.2,"pm2_5":48.3,"mosquito_risk":4,"arthritis_risk":5,"migraine_risk":4,"frizz_risk":0,"updated_at":"2026-03-03T18:34:53.555505+05:30"},{"city":"Gaya","state":"Bihar","latitude":24.7914,"longitude":85.0002,"temp":24.4,"humidity":48,"rain":0.0,"pressure":997.9,"uv_index":7.2,"wind_gusts":23.0,"aqi":122,"pm10":63.8,"pm2_5":39.0,"mosquito_risk":0,"arthritis_risk":5,"migraine_risk":7,"frizz_risk":0,"updated_at":"2026-03-03T18:34:53.555511+05:30"},{"city":"Muzaffarpur","state":"Bihar","latitude":26.1209,"longitude":85.3647,"temp":25.1,"humidity":49,"rain":0.0,"pressure":1004.6,"uv_index":7.05,"wind_gusts":10.4,"aqi":153,"pm10":100.6,"pm2_5":55.8,"mosquito_risk":4,"arthritis_risk":5,"migraine_risk":4,"frizz_risk":0,"updated_at":"2026-03-03T18:34:53.555517+05:30"},{"city":"Bhagalpur","state":"Bihar","latitude":25.2425,"longitude":87.0117,"temp":24.2,"humidity":55,"rain":0.0,"pressure":1005.4,"uv_index":7.15,"wind_gusts":13.0,"aqi":152,"pm10":85.2,"pm2_5":55.6,"mosquito_risk":0,"arthritis_risk":5,"migraine_risk":4,"frizz_risk":0,"updated_at":"2026-03-03T18:34:53.555522+05:30"},{"city":"Ranchi","state":"Jharkhand","latitude":23.3441,"longitude":85.3096,"temp":24.4,"humidity":34,"rain":0.0,"pressure":940.9,"uv_index":7.9,"wind_gusts":40.7,"aqi":108,"pm10":43.7,"pm2_5":24.4,"mosquito_risk":0,"arthritis_risk":5,"migraine_risk":7,"frizz_risk":0,"updated_at":"2026-03-03T18:34:53.555527+05:30"},{"city":"Jamshedpur","state":"Jharkhand","latitude":22.8046,"longitude":86.2029,"temp":28.1,"humidity":41,"rain":0.0,"pressure":993.5,"uv_index":7.75,"wind_gusts":14.4,"aqi":117,"pm10":59.3,"pm2_5":31.2,"mosquito_risk":4,"arthritis_risk":5,"migraine_risk":7,"frizz_risk":0,"updated_at":"2026-03-03T18:34:53.555542+05:30"},{"city":"Dhanbad","state":"Jharkhand","latitude":23.7957,"longitude":86.4304,"temp":28.9,"humidity":21,"rain":0.0,"pressure":983.2,"uv_index":7.65,"wind_gusts":27.7,"aqi":111,"pm10":56.3,"pm2_5":34.5,"mosquito_risk":4,"arthritis_risk":5,"migraine_risk":7,"frizz_risk":0,"updated_at":"2026-03-03T18:34:53.555555+05:30"},{"city":"Bokaro","state":"Jharkhand","latitude":23.6693,"longitude":86.1511,"temp":27.1,"humidity":25,"rain":0.0,"pressure":987.3,"uv_index":7.65,"wind_gusts":32.8,"aqi":109,"pm10":61.0,"pm2_5":36.1,"mosquito_risk":4,"arthritis_risk":5,"migraine_risk":7,"frizz_risk":0,"updated_at":"2026-03-03T18:34:53.555568+05:30"},{"city":"Bhubaneswar","state":"Odisha","latitude":20.2961,"longitude":85.8245,"temp":30.3,"humidity":33,"rain":0.0,"pressure":1005.0,"uv_index":8.1,"wind_gusts":26.6,"aqi":152,"pm10":55.4,"pm2_5":45.1,"mosquito_risk":0,"arthritis_risk":5,"migraine_risk":4,"frizz_risk":0,"updated_at":"2026-03-03T18:34:53.555578+05:30"},{"city":"Cuttack","state":"Odisha","latitude":20.4625,"longitude":85.8828,"temp":31.0,"humidity":27,"rain":0.0,"pressure":1006.5,"uv_index":8.1,"wind_gusts":26.3,"aqi":152,"pm10":55.4,"pm2_5":45.1,"mosquito_risk":0,"arthritis_risk":5,"migraine_risk":4,"frizz_risk":0,"updated_at":"2026-03-03T18:34:53.555587+05:30"},{"city":"Rourkela","state":"Odisha","latitude":22.2604,"longitude":84.8536,"temp":30.4,"humidity":33,"rain":0.0,"pressure":987.5,"uv_index":7.7,"wind_gusts":27.4,"aqi":107,"pm10":58.3,"pm2_5":31.4,"mosquito_risk":0,"arthritis_risk":5,"migraine_risk":7,"frizz_risk":0,"updated_at":"2026-03-03T18:34:53.555596+05:30"},{"city":"Raipur","state":"Chhattisgarh","latitude":21.2514,"longitude":81.6296,"temp":30.4,"humidity":28,"rain":0.0,"pressure":977.5,"uv_index":7.8,"wind_gusts":14.4,"aqi":124,"pm10":54.2,"pm2_5":44.2,"mosquito_risk":0,"arthritis_risk":5,"migraine_risk":7,"frizz_risk":0,"updated_at":"2026-03-03T18:34:53.555606+05:30"},{"city":"Bhilai","state":"Chhattisgarh","latitude":21.1938,"longitude":81.3509,"temp":30.2,"humidity":31,"rain":0.0,"pressure":977.7,"uv_index":7.8,"wind_gusts":13.7,"aqi":122,"pm10":52.3,"pm2_5":43.3,"mosquito_risk":0,"arthritis_risk":5,"migraine_risk":7,"frizz_risk":0,"updated_at":"2026-03-03T18:34:53.555615+05:30"},{"city":"Guwahati","state":"Assam","latitude":26.1158,"longitude":91.7086,"temp":26.1,"humidity":51,"rain":0.0,"pressure":1005.6,"uv_index":7.1,"wind_gusts":22.0,"aqi":154,"pm10":88.7,"pm2_5":71.7,"mosquito_risk":4,"arthritis_risk":5,"migraine_risk":4,"frizz_risk":0,"updated_at":"2026-03-03T18:34:53.555624+05:30"},{"city":"Agartala","state":"Tripura","latitude":23.8315,"longitude":91.2868,"temp":24.5,"humidity":71,"rain":0.0,"pressure":1009.6,"uv_index":7.45,"wind_gusts":15.8,"aqi":177,"pm10":99.9,"pm2_5":87.1,"mosquito_risk":3,"arthritis_risk":0,"migraine_risk":4,"frizz_risk":1,"updated_at":"2026-03-03T18:34:53.555633+05:30"},{"city":"Shillong","state":"Meghalaya","latitude":25.5788,"longitude":91.8933,"temp":12.5,"humidity":80,"rain":0.0,"pressure":857.7,"uv_index":7.45,"wind_gusts":28.4,"aqi":152,"pm10":105.9,"pm2_5":85.7,"mosquito_risk":3,"arthritis_risk":5,"migraine_risk":7,"frizz_risk":0,"updated_at":"2026-03-03T18:34:53.555642+05:30"},{"city":"Imphal","state":"Manipur","latitude":24.817,"longitude":93.9368,"temp":16.0,"humidity":70,"rain":0.0,"pressure":925.2,"uv_index":7.65,"wind_gusts":32.8,"aqi":157,"pm10":63.1,"pm2_5":55.5,"mosquito_risk":3,"arthritis_risk":5,"migraine_risk":7,"frizz_risk":0,"updated_at":"2026-03-03T18:34:53.555652+05:30"},{"city":"Aizawl","state":"Mizoram","latitude":23.7271,"longitude":92.7176,"temp":17.8,"humidity":61,"rain":0.0,"pressure":894.2,"uv_index":7.65,"wind_gusts":32.8,"aqi":162,"pm10":64.7,"pm2_5":54.6,"mosquito_risk":3,"arthritis_risk":5,"migraine_risk":7,"frizz_risk":0,"updated_at":"2026-03-03T18:34:53.555660+05:30"},{"city":"Kohima","state":"Nagaland","latitude":25.6701,"longitude":94.1077,"temp":12.9,"humidity":100,"rain":0.0,"pressure":856.2,"uv_index":6.65,"wind_gusts":45.0,"aqi":152,"pm10":75.4,"pm2_5":62.9,"mosquito_risk":3,"arthritis_risk":10,"migraine_risk":7,"frizz_risk":0,"updated_at":"2026-03-03T18:34:53.555670+05:30"},{"city":"Gangtok","state":"Sikkim","latitude":27.3314,"longitude":88.6138,"temp":13.7,"humidity":85,"rain":0.0,"pressure":839.4,"uv_index":7.4,"wind_gusts":19.4,"aqi":153,"pm10":101.3,"pm2_5":71.0,"mosquito_risk":3,"arthritis_risk":10,"migraine_risk":7,"frizz_risk":0,"updated_at":"2026-03-03T18:34:53.555679+05:30"},{"city":"Siliguri","state":"West Bengal","latitude":26.7271,"longitude":88.3953,"temp":19.8,"humidity":75,"rain":0.0,"pressure":998.3,"uv_index":7.1,"wind_gusts":20.2,"aqi":164,"pm10":97.1,"pm2_5":63.8,"mosquito_risk":3,"arthritis_risk":5,"migraine_risk":7,"frizz_risk":0,"updated_at":"2026-03-03T18:34:56.898782+05:30"},{"city":"Durgapur","state":"West Bengal","latitude":23.5204,"longitude":87.3119,"temp":28.8,"humidity":30,"rain":0.0,"pressure":998.0,"uv_index":7.65,"wind_gusts":26.6,"aqi":117,"pm10":60.5,"pm2_5":30.3,"mosquito_risk":4,"arthritis_risk":5,"migraine_risk":7,"frizz_risk":0,"updated_at":"2026-03-03T18:34:56.898809+05:30"},{"city":"Asansol","state":"West Bengal","latitude":23.6739,"longitude":86.9524,"temp":29.0,"humidity":31,"rain":0.0,"pressure":996.5,"uv_index":7.65,"wind_gusts":22.7,"aqi":114,"pm10":53.2,"pm2_5":28.1,"mosquito_risk":4,"arthritis_risk":5,"migraine_risk":7,"frizz_risk":0,"updated_at":"2026-03-03T18:34:56.898821+05:30"},{"city":"Pondicherry","state":"Puducherry","latitude":11.9139,"longitude":79.8145,"temp":26.7,"humidity":67,"rain":0.0,"pressure":1010.8,"uv_index":8.85,"wind_gusts":28.1,"aqi":105,"pm10":28.9,"pm2_5":25.7,"mosquito_risk":7,"arthritis_risk":0,"migraine_risk":4,"frizz_risk":1,"updated_at":"2026-03-03T18:34:56.898830+05:30"},{"city":"Port Blair","state":"Andaman and Nicobar Islands","latitude":11.6234,"longitude":92.7265,"temp":27.5,"humidity":74,"rain":0.0,"pressure":1009.1,"uv_index":8.8,"wind_gusts":15.5,"aqi":84,"pm10":32.5,"pm2_5":24.2,"mosquito_risk":7,"arthritis_risk":0,"migraine_risk":4,"frizz_risk":1,"updated_at":"2026-03-03T18:34:56.898838+05:30"},{"city":"Haridwar","state":"Uttarakhand","latitude":29.9457,"longitude":78.1642,"temp":25.1,"humidity":44,"rain":0.0,"pressure":977.1,"uv_index":5.55,"wind_gusts":22.3,"aqi":149,"pm10":124.3,"pm2_5":47.3,"mosquito_risk":4,"arthritis_risk":5,"migraine_risk":3,"frizz_risk":0,"updated_at":"2026-03-03T18:34:56.898845+05:30"},{"city":"Rishikesh","state":"Uttarakhand","latitude":30.0869,"longitude":78.2676,"temp":24.8,"humidity":56,"rain":0.0,"pressure":969.8,"uv_index":5.6,"wind_gusts":23.8,"aqi":149,"pm10":53.3,"pm2_5":34.0,"mosquito_risk":0,"arthritis_risk":5,"migraine_risk":3,"frizz_risk":0,"updated_at":"2026-03-03T18:34:56.898853+05:30"},{"city":"Nainital","state":"Uttarakhand","latitude":29.3919,"longitude":79.4542,"temp":15.8,"humidity":77,"rain":0.0,"pressure":807.2,"uv_index":6.4,"wind_gusts":54.7,"aqi":151,"pm10":64.3,"pm2_5":49.6,"mosquito_risk":3,"arthritis_risk":5,"migraine_risk":7,"frizz_risk":0,"updated_at":"2026-03-03T18:34:56.898860+05:30"},{"city":"Mussoorie","state":"Uttarakhand","latitude":30.4599,"longitude":78.0664,"temp":16.3,"humidity":69,"rain":0.0,"pressure":804.2,"uv_index":5.95,"wind_gusts":41.8,"aqi":158,"pm10":48.2,"pm2_5":35.4,"mosquito_risk":3,"arthritis_risk":5,"migraine_risk":3,"frizz_risk":0,"updated_at":"2026-03-03T18:34:56.898867+05:30"},{"city":"Dharamshala","state":"Himachal Pradesh","latitude":32.219,"longitude":76.3234,"temp":20.3,"humidity":55,"rain":0.0,"pressure":871.9,"uv_index":6.2,"wind_gusts":23.4,"aqi":107,"pm10":24.4,"pm2_5":19.7,"mosquito_risk":0,"arthritis_risk":5,"migraine_risk":7,"frizz_risk":0,"updated_at":"2026-03-03T18:34:56.898874+05:30"},{"city":"Dalhousie","state":"Himachal Pradesh","latitude":32.5387,"longitude":75.971,"temp":18.4,"humidity":48,"rain":0.0,"pressure":806.6,"uv_index":6.4,"wind_gusts":19.8,"aqi":120,"pm10":39.2,"pm2_5":34.6,"mosquito_risk":0,"arthritis_risk":5,"migraine_risk":7,"frizz_risk":0,"updated_at":"2026-03-03T18:34:56.898881+05:30"},{"city":"Patiala","state":"Punjab","latitude":30.3398,"longitude":76.3869,"temp":24.0,"humidity":54,"rain":0.0,"pressure":981.6,"uv_index":5.6,"wind_gusts":34.2,"aqi":246,"pm10":473.1,"pm2_5":80.8,"mosquito_risk":0,"arthritis_risk":5,"migraine_risk":3,"frizz_risk":0,"updated_at":"2026-03-03T18:34:56.898888+05:30"},{"city":"Bhatinda","state":"Punjab","latitude":30.211,"longitude":74.9455,"temp":25.1,"humidity":56,"rain":0.0,"pressure":987.5,"uv_index":6.25,"wind_gusts":28.1,"aqi":134,"pm10":61.7,"pm2_5":45.2,"mosquito_risk":4,"arthritis_risk":5,"migraine_risk":7,"frizz_risk":0,"updated_at":"2026-03-03T18:34:56.898896+05:30"},{"city":"Rohtak","state":"Haryana","latitude":28.8955,"longitude":76.6066,"temp":24.5,"humidity":55,"rain":0.0,"pressure":985.6,"uv_index":5.8,"wind_gusts":33.8,"aqi":460,"pm10":784.2,"pm2_5":112.9,"mosquito_risk":0,"arthritis_risk":5,"migraine_risk":3,"frizz_risk":0,"updated_at":"2026-03-03T18:34:56.898903+05:30"},{"city":"Panipat","state":"Haryana","latitude":29.3909,"longitude":76.9635,"temp":24.1,"humidity":56,"rain":0.0,"pressure":983.8,"uv_index":5.6,"wind_gusts":37.4,"aqi":1033,"pm10":1534.8,"pm2_5":190.0,"mosquito_risk":0,"arthritis_risk":5,"migraine_risk":3,"frizz_risk":0,"updated_at":"2026-03-03T18:34:56.898910+05:30"},{"city":"Mathura","state":"Uttar Pradesh","latitude":27.4924,"longitude":77.6737,"temp":27.0,"humidity":40,"rain":0.0,"pressure":990.6,"uv_index":6.1,"wind_gusts":29.9,"aqi":530,"pm10":568.1,"pm2_5":80.8,"mosquito_risk":4,"arthritis_risk":5,"migraine_risk":7,"frizz_risk":0,"updated_at":"2026-03-03T18:34:56.898919+05:30"},{"city":"Vrindavan","state":"Uttar Pradesh","latitude":27.5823,"longitude":77.7027,"temp":25.8,"humidity":45,"rain":0.0,"pressure":991.0,"uv_index":6.05,"wind_gusts":32.4,"aqi":530,"pm10":568.1,"pm2_5":80.8,"mosquito_risk":4,"arthritis_risk":5,"migraine_risk":7,"frizz_risk":0,"updated_at":"2026-03-03T18:34:56.898928+05:30"},{"city":"Ayodhya","state":"Uttar Pradesh","latitude":26.7922,"longitude":82.1998,"temp":26.0,"humidity":52,"rain":0.0,"pressure":998.9,"uv_index":6.45,"wind_gusts":25.6,"aqi":144,"pm10":69.8,"pm2_5":47.1,"mosquito_risk":4,"arthritis_risk":5,"migraine_risk":7,"frizz_risk":0,"updated_at":"2026-03-03T18:34:56.898935+05:30"},{"city":"Ratlam","state":"Madhya Pradesh","latitude":23.3315,"longitude":75.0367,"temp":29.5,"humidity":42,"rain":0.0,"pressure":957.8,"uv_index":7.25,"wind_gusts":13.0,"aqi":103,"pm10":22.8,"pm2_5":20.4,"mosquito_risk":4,"arthritis_risk":5,"migraine_risk":7,"frizz_risk":0,"updated_at":"2026-03-03T18:34:56.898942+05:30"},{"city":"Sagar","state":"Madhya Pradesh","latitude":23.8388,"longitude":78.7378,"temp":28.6,"humidity":44,"rain":0.0,"pressure":953.8,"uv_index":7.2,"wind_gusts":25.6,"aqi":99,"pm10":31.5,"pm2_5":19.2,"mosquito_risk":4,"arthritis_risk":5,"migraine_risk":7,"frizz_risk":0,"updated_at":"2026-03-03T18:34:56.898949+05:30"},{"city":"Satna","state":"Madhya Pradesh","latitude":24.6005,"longitude":80.8322,"temp":27.5,"humidity":34,"rain":0.0,"pressure":975.1,"uv_index":7.2,"wind_gusts":30.2,"aqi":93,"pm10":39.0,"pm2_5":20.6,"mosquito_risk":4,"arthritis_risk":5,"migraine_risk":7,"frizz_risk":0,"updated_at":"2026-03-03T18:34:56.898956+05:30"},{"city":"Akola","state":"Maharashtra","latitude":20.7002,"longitude":77.0082,"temp":32.3,"humidity":26,"rain":0.0,"pressure":977.2,"uv_index":7.75,"wind_gusts":20.2,"aqi":122,"pm10":25.6,"pm2_5":23.1,"mosquito_risk":0,"arthritis_risk":5,"migraine_risk":7,"frizz_risk":0,"updated_at":"2026-03-03T18:34:56.898964+05:30"},{"city":"Amravati","state":"Maharashtra","latitude":20.9374,"longitude":77.7796,"temp":31.8,"humidity":37,"rain":0.0,"pressure":969.3,"uv_index":7.75,"wind_gusts":16.6,"aqi":120,"pm10":26.3,"pm2_5":23.0,"mosquito_risk":0,"arthritis_risk":5,"migraine_risk":7,"frizz_risk":0,"updated_at":"2026-03-03T18:34:56.898971+05:30"},{"city":"Latur","state":"Maharashtra","latitude":18.4088,"longitude":76.5604,"temp":30.3,"humidity":36,"rain":0.0,"pressure":941.8,"uv_index":8.2,"wind_gusts":31.0,"aqi":151,"pm10":23.4,"pm2_5":22.5,"mosquito_risk":0,"arthritis_risk":5,"migraine_risk":7,"frizz_risk":0,"updated_at":"2026-03-03T18:34:56.898979+05:30"},{"city":"Nanded","state":"Maharashtra","latitude":19.1383,"longitude":77.3091,"temp":32.4,"humidity":33,"rain":0.0,"pressure":970.5,"uv_index":8.0,"wind_gusts":19.4,"aqi":112,"pm10":21.3,"pm2_5":19.4,"mosquito_risk":0,"arthritis_risk":5,"migraine_risk":7,"frizz_risk":0,"updated_at":"2026-03-03T18:34:56.898985+05:30"},{"city":"Gulbarga","state":"Karnataka","latitude":17.3297,"longitude":76.8343,"temp":33.1,"humidity":30,"rain":0.0,"pressure":960.2,"uv_index":8.3,"wind_gusts":17.3,"aqi":156,"pm10":28.1,"pm2_5":27.6,"mosquito_risk":0,"arthritis_risk":5,"migraine_risk":7,"frizz_risk":0,"updated_at":"2026-03-03T18:34:56.898992+05:30"},{"city":"Bidar","state":"Karnataka","latitude":17.9104,"longitude":77.5199,"temp":30.8,"humidity":29,"rain":0.0,"pressure":937.5,"uv_index":8.25,"wind_gusts":19.8,"aqi":130,"pm10":25.2,"pm2_5":24.4,"mosquito_risk":0,"arthritis_risk":5,"migraine_risk":7,"frizz_risk":0,"updated_at":"2026-03-03T18:34:56.898999+05:30"},{"city":"Hospet","state":"Karnataka","latitude":15.2689,"longitude":76.3909,"temp":33.6,"humidity":29,"rain":0.0,"pressure":956.9,"uv_index":8.6,"wind_gusts":25.6,"aqi":159,"pm10":38.4,"pm2_5":37.7,"mosquito_risk":0,"arthritis_risk":5,"migraine_risk":7,"frizz_risk":0,"updated_at":"2026-03-03T18:34:56.899006+05:30"},{"city":"Tirupur","state":"Tamil Nadu","latitude":11.1085,"longitude":77.3411,"temp":32.7,"humidity":31,"rain":0.0,"pressure":975.7,"uv_index":9.15,"wind_gusts":33.8,"aqi":140,"pm10":42.7,"pm2_5":41.7,"mosquito_risk":0,"arthritis_risk":5,"migraine_risk":7,"frizz_risk":0,"updated_at":"2026-03-03T18:34:56.899012+05:30"},{"city":"Alappuzha","state":"Kerala","latitude":9.4981,"longitude":76.3388,"temp":28.4,"humidity":77,"rain":0.0,"pressure":1009.2,"uv_index":8.95,"wind_gusts":30.6,"aqi":128,"pm10":26.6,"pm2_5":24.0,"mosquito_risk":7,"arthritis_risk":0,"migraine_risk":4,"frizz_risk":1,"updated_at":"2026-03-03T18:34:56.899021+05:30"},{"city":"Munnar","state":"Kerala","latitude":10.0889,"longitude":77.0595,"temp":25.6,"humidity":45,"rain":0.0,"pressure":858.6,"uv_index":9.45,"wind_gusts":20.9,"aqi":102,"pm10":34.3,"pm2_5":33.2,"mosquito_risk":4,"arthritis_risk":5,"migraine_risk":7,"frizz_risk":0,"updated_at":"2026-03-03T18:34:56.899028+05:30"},{"city":"Silchar","state":"Assam","latitude":24.8333,"longitude":92.7789,"temp":26.0,"humidity":56,"rain":0.0,"pressure":1008.0,"uv_index":7.4,"wind_gusts":20.2,"aqi":163,"pm10":79.9,"pm2_5":65.9,"mosquito_risk":4,"arthritis_risk":0,"migraine_risk":4,"frizz_risk":1,"updated_at":"2026-03-03T18:34:56.899035+05:30"},{"city":"Dibrugarh","state":"Assam","latitude":27.4728,"longitude":94.912,"temp":24.5,"humidity":69,"rain":0.0,"pressure":999.1,"uv_index":7.1,"wind_gusts":11.2,"aqi":151,"pm10":75.4,"pm2_5":58.6,"mosquito_risk":3,"arthritis_risk":5,"migraine_risk":7,"frizz_risk":1,"updated_at":"2026-03-03T18:34:56.899042+05:30"}]