[{"city":"Delhi","state":"Delhi","latitude":28.6139,"longitude":77.209,"temp":28.9,"humidity":37,"rain":0.0,"pressure":981.6,"uv_index":6.85,"wind_gusts":40.7,"aqi":152,"pm10":192.8,"pm2_5":34.9,"mosquito_risk":4,"arthritis_risk":5,"migraine_risk":7,"frizz_risk":0,"updated_at":"2026-04-05T15:11:58.697228+05:30"},{"city":"Mumbai","state":"Maharashtra","latitude":19.076,"longitude":72.8777,"temp":27.8,"humidity":67,"rain":0.0,"pressure":1008.4,"uv_index":7.9,"wind_gusts":23.8,"aqi":69,"pm10":36.2,"pm2_5":19.8,"mosquito_risk":7,"arthritis_risk":0,"migraine_risk":4,"frizz_risk":1,"updated_at":"2026-04-05T15:11:58.697273+05:30"},{"city":"Bangalore","state":"Karnataka","latitude":12.9716,"longitude":77.5946,"temp":30.7,"humidity":46,"rain":0.0,"pressure":910.9,"uv_index":9.65,"wind_gusts":32.4,"aqi":111,"pm10":35.5,"pm2_5":29.7,"mosquito_risk":0,"arthritis_risk":5,"migraine_risk":7,"frizz_risk":1,"updated_at":"2026-04-05T15:11:58.697289+05:30"},{"city":"Hyderabad","state":"Telangana","latitude":17.385,"longitude":78.4867,"temp":35.6,"humidity":30,"rain":0.0,"pressure":951.2,"uv_index":9.1,"wind_gusts":27.4,"aqi":131,"pm10":43.4,"pm2_5":36.0,"mosquito_risk":0,"arthritis_risk":5,"migraine_risk":10,"frizz_risk":0,"updated_at":"2026-04-05T15:11:58.697299+05:30"},{"city":"Chennai","state":"Tamil Nadu","latitude":13.0827,"longitude":80.2707,"temp":34.6,"humidity":56,"rain":0.0,"pressure":1004.4,"uv_index":9.3,"wind_gusts":31.7,"aqi":59,"pm10":27.0,"pm2_5":21.7,"mosquito_risk":0,"arthritis_risk":5,"migraine_risk":4,"frizz_risk":1,"updated_at":"2026-04-05T15:11:58.697308+05:30"},{"city":"Kolkata","state":"West Bengal","latitude":22.5726,"longitude":88.3639,"temp":33.9,"humidity":45,"rain":0.0,"pressure":1003.1,"uv_index":8.6,"wind_gusts":29.2,"aqi":149,"pm10":53.9,"pm2_5":34.7,"mosquito_risk":0,"arthritis_risk":5,"migraine_risk":4,"frizz_risk":1,"updated_at":"2026-04-05T15:11:58.697317+05:30"},{"city":"Pune","state":"Maharashtra","latitude":18.5204,"longitude":73.8567,"temp":32.5,"humidity":39,"rain":0.0,"pressure":948.0,"uv_index":8.5,"wind_gusts":40.7,"aqi":79,"pm10":43.7,"pm2_5":20.8,"mosquito_risk":0,"arthritis_risk":5,"migraine_risk":7,"frizz_risk":1,"updated_at":"2026-04-05T15:11:58.697330+05:30"},{"city":"Ahmedabad","state":"Gujarat","latitude":23.0225,"longitude":72.5714,"temp":34.9,"humidity":20,"rain":0.0,"pressure":1001.2,"uv_index":7.9,"wind_gusts":25.6,"aqi":55,"pm10":36.1,"pm2_5":11.1,"mosquito_risk":0,"arthritis_risk":5,"migraine_risk":4,"frizz_risk":0,"updated_at":"2026-04-05T15:11:58.697338+05:30"},{"city":"Jaipur","state":"Rajasthan","latitude":26.9124,"longitude":75.7873,"temp":30.9,"humidity":21,"rain":0.0,"pressure":958.3,"uv_index":7.55,"wind_gusts":37.8,"aqi":80,"pm10":184.9,"pm2_5":23.6,"mosquito_risk":0,"arthritis_risk":5,"migraine_risk":7,"frizz_risk":0,"updated_at":"2026-04-05T15:11:58.697346+05:30"},{"city":"Lucknow","state":"Uttar Pradesh","latitude":26.8467,"longitude":80.9462,"temp":30.3,"humidity":45,"rain":0.0,"pressure":991.2,"uv_index":7.4,"wind_gusts":46.8,"aqi":112,"pm10":82.0,"pm2_5":20.4,"mosquito_risk":0,"arthritis_risk":5,"migraine_risk":7,"frizz_risk":1,"updated_at":"2026-04-05T15:11:58.697353+05:30"},{"city":"Kanpur","state":"Uttar Pradesh","latitude":26.4499,"longitude":80.3319,"temp":30.2,"humidity":45,"rain":0.0,"pressure":989.6,"uv_index":7.45,"wind_gusts":40.7,"aqi":131,"pm10":248.7,"pm2_5":34.2,"mosquito_risk":0,"arthritis_risk":5,"migraine_risk":7,"frizz_risk":1,"updated_at":"2026-04-05T15:11:58.697361+05:30"},{"city":"Chandigarh","state":"Chandigarh","latitude":30.7333,"longitude":76.7794,"temp":29.3,"humidity":28,"rain":0.0,"pressure":967.2,"uv_index":6.85,"wind_gusts":31.7,"aqi":75,"pm10":58.4,"pm2_5":15.7,"mosquito_risk":4,"arthritis_risk":5,"migraine_risk":7,"frizz_risk":0,"updated_at":"2026-04-05T15:11:58.697368+05:30"},{"city":"Srinagar","state":"Jammu and Kashmir","latitude":34.0837,"longitude":74.7973,"temp":16.3,"humidity":56,"rain":0.0,"pressure":839.5,"uv_index":7.1,"wind_gusts":19.1,"aqi":60,"pm10":28.5,"pm2_5":9.1,"mosquito_risk":0,"arthritis_risk":5,"migraine_risk":7,"frizz_risk":0,"updated_at":"2026-04-05T15:11:58.697376+05:30"},{"city":"Jammu","state":"Jammu and Kashmir","latitude":32.7266,"longitude":74.857,"temp":28.2,"humidity":37,"rain":0.0,"pressure":972.1,"uv_index":7.5,"wind_gusts":28.4,"aqi":65,"pm10":53.1,"pm2_5":14.8,"mosquito_risk":4,"arthritis_risk":5,"migraine_risk":7,"frizz_risk":0,"updated_at":"2026-04-05T15:11:58.697383+05:30"},{"city":"Amritsar","state":"Punjab","latitude":31.634,"longitude":74.8723,"temp":28.5,"humidity":32,"rain":0.0,"pressure":980.1,"uv_index":7.45,"wind_gusts":26.3,"aqi":98,"pm10":62.6,"pm2_5":20.2,"mosquito_risk":4,"arthritis_risk":5,"migraine_risk":7,"frizz_risk":0,"updated_at":"2026-04-05T15:11:58.697390+05:30"},{"city":"Ludhiana","state":"Punjab","latitude":30.901,"longitude":75.8573,"temp":29.0,"humidity":33,"rain":0.0,"pressure":977.9,"uv_index":7.05,"wind_gusts":31.0,"aqi":91,"pm10":85.0,"pm2_5":20.3,"mosquito_risk":4,"arthritis_risk":5,"migraine_risk":7,"frizz_risk":0,"updated_at":"2026-04-05T15:11:58.697397+05:30"},{"city":"Jalandhar","state":"Punjab","latitude":31.326,"longitude":75.5762,"temp":28.8,"humidity":33,"rain":0.0,"pressure":979.2,"uv_index":7.25,"wind_gusts":24.8,"aqi":85,"pm10":74.3,"pm2_5":18.3,"mosquito_risk":4,"arthritis_risk":5,"migraine_risk":7,"frizz_risk":0,"updated_at":"2026-04-05T15:11:58.697406+05:30"},{"city":"Dehradun","state":"Uttarakhand","latitude":30.6284,"longitude":78.0322,"temp":17.4,"humidity":63,"rain":0.0,"pressure":828.4,"uv_index":6.65,"wind_gusts":39.2,"aqi":57,"pm10":20.5,"pm2_5":6.8,"mosquito_risk":3,"arthritis_risk":5,"migraine_risk":7,"frizz_risk":0,"updated_at":"2026-04-05T15:11:58.697413+05:30"},{"city":"Shimla","state":"Himachal Pradesh","latitude":31.1048,"longitude":77.1734,"temp":14.4,"humidity":69,"rain":0.0,"pressure":782.7,"uv_index":5.35,"wind_gusts":32.0,"aqi":59,"pm10":37.4,"pm2_5":14.3,"mosquito_risk":3,"arthritis_risk":5,"migraine_risk":3,"frizz_risk":0,"updated_at":"2026-04-05T15:11:58.697420+05:30"},{"city":"Manali","state":"Himachal Pradesh","latitude":32.2396,"longitude":77.1887,"temp":17.7,"humidity":54,"rain":0.0,"pressure":817.2,"uv_index":9.4,"wind_gusts":27.4,"aqi":65,"pm10":11.2,"pm2_5":4.5,"mosquito_risk":0,"arthritis_risk":5,"migraine_risk":7,"frizz_risk":0,"updated_at":"2026-04-05T15:11:58.697427+05:30"},{"city":"Gurgaon","state":"Haryana","latitude":28.4595,"longitude":77.0266,"temp":28.8,"humidity":41,"rain":0.0,"pressure":980.3,"uv_index":6.65,"wind_gusts":35.6,"aqi":186,"pm10":653.8,"pm2_5":76.8,"mosquito_risk":4,"arthritis_risk":5,"migraine_risk":7,"frizz_risk":0,"updated_at":"2026-04-05T15:11:58.697435+05:30"},{"city":"Noida","state":"Uttar Pradesh","latitude":28.5355,"longitude":77.391,"temp":29.3,"humidity":37,"rain":0.0,"pressure":983.2,"uv_index":6.9,"wind_gusts":39.2,"aqi":186,"pm10":653.8,"pm2_5":76.8,"mosquito_risk":4,"arthritis_risk":5,"migraine_risk":7,"frizz_risk":0,"updated_at":"2026-04-05T15:11:58.697441+05:30"},{"city":"Ghaziabad","state":"Uttar Pradesh","latitude":28.6692,"longitude":77.4538,"temp":29.5,"humidity":36,"rain":0.0,"pressure":981.2,"uv_index":6.05,"wind_gusts":42.1,"aqi":148,"pm10":135.0,"pm2_5":28.6,"mosquito_risk":4,"arthritis_risk":5,"migraine_risk":7,"frizz_risk":0,"updated_at":"2026-04-05T15:11:58.697448+05:30"},{"city":"Faridabad","state":"Haryana","latitude":28.4089,"longitude":77.3178,"temp":28.4,"humidity":41,"rain":0.0,"pressure":982.6,"uv_index":6.2,"wind_gusts":36.4,"aqi":186,"pm10":653.8,"pm2_5":76.8,"mosquito_risk":4,"arthritis_risk":5,"migraine_risk":7,"frizz_risk":0,"updated_at":"2026-04-05T15:11:58.697455+05:30"},{"city":"Meerut","state":"Uttar Pradesh","latitude":28.9845,"longitude":77.7064,"temp":31.1,"humidity":27,"rain":0.0,"pressure":979.5,"uv_index":6.5,"wind_gusts":34.6,"aqi":148,"pm10":135.0,"pm2_5":28.6,"mosquito_risk":0,"arthritis_risk":5,"migraine_risk":7,"frizz_risk":0,"updated_at":"2026-04-05T15:11:58.697464+05:30"},{"city":"Agra","state":"Uttar Pradesh","latitude":27.1767,"longitude":78.0081,"temp":29.3,"humidity":45,"rain":0.0,"pressure":986.6,"uv_index":7.3,"wind_gusts":32.4,"aqi":308,"pm10":357.6,"pm2_5":44.9,"mosquito_risk":4,"arthritis_risk":5,"migraine_risk":7,"frizz_risk":1,"updated_at":"2026-04-05T15:11:58.697474+05:30"},{"city":"Varanasi","state":"Uttar Pradesh","latitude":25.3176,"longitude":82.9739,"temp":31.9,"humidity":46,"rain":0.0,"pressure":995.0,"uv_index":8.1,"wind_gusts":35.6,"aqi":84,"pm10":35.7,"pm2_5":18.3,"mosquito_risk":0,"arthritis_risk":5,"migraine_risk":7,"frizz_risk":1,"updated_at":"2026-04-05T15:11:58.697483+05:30"},{"city":"Prayagraj","state":"Uttar Pradesh","latitude":25.4358,"longitude":81.8463,"temp":32.1,"humidity":42,"rain":0.0,"pressure":993.4,"uv_index":7.95,"wind_gusts":32.4,"aqi":87,"pm10":37.6,"pm2_5":17.2,"mosquito_risk":0,"arthritis_risk":5,"migraine_risk":7,"frizz_risk":1,"updated_at":"2026-04-05T15:11:58.697490+05:30"},{"city":"Gorakhpur","state":"Uttar Pradesh","latitude":26.7606,"longitude":83.3732,"temp":33.8,"humidity":24,"rain":0.0,"pressure":994.1,"uv_index":7.85,"wind_gusts":45.4,"aqi":98,"pm10":49.1,"pm2_5":16.1,"mosquito_risk":0,"arthritis_risk":5,"migraine_risk":7,"frizz_risk":0,"updated_at":"2026-04-05T15:11:58.697496+05:30"},{"city":"Bareilly","state":"Uttar Pradesh","latitude":28.367,"longitude":79.4304,"temp":28.4,"humidity":48,"rain":0.0,"pressure":985.1,"uv_index":7.2,"wind_gusts":35.3,"aqi":81,"pm10":32.9,"pm2_5":13.0,"mosquito_risk":4,"arthritis_risk":5,"migraine_risk":7,"frizz_risk":1,"updated_at":"2026-04-05T15:11:58.697503+05:30"},{"city":"Aligarh","state":"Uttar Pradesh","latitude":27.8974,"longitude":78.088,"temp":24.6,"humidity":66,"rain":0.0,"pressure":984.7,"uv_index":7.1,"wind_gusts":45.0,"aqi":180,"pm10":232.8,"pm2_5":41.6,"mosquito_risk":3,"arthritis_risk":5,"migraine_risk":7,"frizz_risk":1,"updated_at":"2026-04-05T15:11:58.697511+05:30"},{"city":"Moradabad","state":"Uttar Pradesh","latitude":28.8386,"longitude":78.7733,"temp":29.3,"humidity":38,"rain":0.0,"pressure":981.7,"uv_index":7.0,"wind_gusts":26.3,"aqi":90,"pm10":43.3,"pm2_5":12.6,"mosquito_risk":4,"arthritis_risk":5,"migraine_risk":7,"frizz_risk":0,"updated_at":"2026-04-05T15:11:58.697520+05:30"},{"city":"Saharanpur","state":"Uttar Pradesh","latitude":29.9637,"longitude":77.546,"temp":31.1,"humidity":24,"rain":0.0,"pressure":973.3,"uv_index":6.6,"wind_gusts":30.6,"aqi":88,"pm10":66.8,"pm2_5":16.3,"mosquito_risk":0,"arthritis_risk":5,"migraine_risk":7,"frizz_risk":0,"updated_at":"2026-04-05T15:11:58.697526+05:30"},{"city":"Jhansi","state":"Uttar Pradesh","latitude":25.4484,"longitude":78.5685,"temp":33.4,"humidity":23,"rain":0.0,"pressure":975.2,"uv_index":7.85,"wind_gusts":28.4,"aqi":57,"pm10":23.0,"pm2_5":11.0,"mosquito_risk":0,"arthritis_risk":5,"migraine_risk":7,"frizz_risk":0,"updated_at":"2026-04-05T15:12:01.953626+05:30"},{"city":"Surat","state":"Gujarat","latitude":21.1702,"longitude":72.8311,"temp":29.8,"humidity":48,"rain":0.0,"pressure":1006.8,"uv_index":7.65,"wind_gusts":27.7,"aqi":79,"pm10":43.5,"pm2_5":34.5,"mosquito_risk":4,"arthritis_risk":5,"migraine_risk":4,"frizz_risk":1,"updated_at":"2026-04-05T15:12:01.953659+05:30"},{"city":"Vadodara","state":"Gujarat","latitude":22.3072,"longitude":73.1812,"temp":33.8,"humidity":28,"rain":0.0,"pressure":1003.4,"uv_index":7.9,"wind_gusts":20.5,"aqi":76,"pm10":26.3,"pm2_5":11.7,"mosquito_risk":0,"arthritis_risk":5,"migraine_risk":4,"frizz_risk":0,"updated_at":"2026-04-05T15:12:01.953671+05:30"},{"city":"Rajkot","state":"Gujarat","latitude":22.3039,"longitude":70.8022,"temp":33.5,"humidity":27,"rain":0.0,"pressure":993.9,"uv_index":7.65,"wind_gusts":33.5,"aqi":54,"pm10":29.2,"pm2_5":9.4,"mosquito_risk":0,"arthritis_risk":5,"migraine_risk":7,"frizz_risk":0,"updated_at":"2026-04-05T15:12:01.953681+05:30"},{"city":"Thane","state":"Maharashtra","latitude":19.2183,"longitude":72.9781,"temp":30.3,"humidity":52,"rain":0.0,"pressure":1007.9,"uv_index":7.9,"wind_gusts":34.6,"aqi":69,"pm10":36.2,"pm2_5":19.8,"mosquito_risk":0,"arthritis_risk":5,"migraine_risk":4,"frizz_risk":1,"updated_at":"2026-04-05T15:12:01.953690+05:30"},{"city":"Nagpur","state":"Maharashtra","latitude":21.1458,"longitude":79.0882,"temp":35.0,"humidity":27,"rain":0.0,"pressure":970.8,"uv_index":8.7,"wind_gusts":31.3,"aqi":97,"pm10":38.4,"pm2_5":27.0,"mosquito_risk":0,"arthritis_risk":5,"migraine_risk":7,"frizz_risk":0,"updated_at":"2026-04-05T15:12:01.953699+05:30"},{"city":"Nashik","state":"Maharashtra","latitude":19.9975,"longitude":73.7898,"temp":29.8,"humidity":42,"rain":0.0,"pressure":944.9,"uv_index":8.15,"wind_gusts":36.4,"aqi":54,"pm10":37.8,"pm2_5":13.3,"mosquito_risk":4,"arthritis_risk":5,"migraine_risk":7,"frizz_risk":0,"updated_at":"2026-04-05T15:12:01.953707+05:30"},{"city":"Aurangabad","state":"Maharashtra","latitude":19.8762,"longitude":75.3433,"temp":34.0,"humidity":25,"rain":0.0,"pressure":942.6,"uv_index":8.85,"wind_gusts":40.0,"aqi":58,"pm10":44.2,"pm2_5":14.8,"mosquito_risk":0,"arthritis_risk":5,"migraine_risk":7,"frizz_risk":0,"updated_at":"2026-04-05T15:12:01.953715+05:30"},{"city":"Solapur","state":"Maharashtra","latitude":17.6599,"longitude":75.9064,"temp":36.3,"humidity":22,"rain":0.0,"pressure":955.5,"uv_index":8.6,"wind_gusts":29.9,"aqi":78,"pm10":24.3,"pm2_5":13.0,"mosquito_risk":0,"arthritis_risk":5,"migraine_risk":10,"frizz_risk":0,"updated_at":"2026-04-05T15:12:01.953724+05:30"},{"city":"Kolhapur","state":"Maharashtra","latitude":16.705,"longitude":74.2433,"temp":31.8,"humidity":37,"rain":0.0,"pressure":947.6,"uv_index":9.05,"wind_gusts":44.6,"aqi":71,"pm10":30.7,"pm2_5":15.8,"mosquito_risk":0,"arthritis_risk":5,"migraine_risk":7,"frizz_risk":0,"updated_at":"2026-04-05T15:12:01.953733+05:30"},{"city":"Goa","state":"Goa","latitude":15.2993,"longitude":74.124,"temp":31.9,"humidity":57,"rain":0.0,"pressure":997.4,"uv_index":9.05,"wind_gusts":37.4,"aqi":63,"pm10":41.6,"pm2_5":16.3,"mosquito_risk":0,"arthritis_risk":5,"migraine_risk":7,"frizz_risk":1,"updated_at":"2026-04-05T15:12:01.953741+05:30"},{"city":"Jodhpur","state":"Rajasthan","latitude":26.2389,"longitude":73.0243,"temp":32.0,"humidity":22,"rain":0.0,"pressure":982.6,"uv_index":7.6,"wind_gusts":26.3,"aqi":77,"pm10":72.9,"pm2_5":11.8,"mosquito_risk":0,"arthritis_risk":5,"migraine_risk":7,"frizz_risk":0,"updated_at":"2026-04-05T15:12:01.953749+05:30"},{"city":"Udaipur","state":"Rajasthan","latitude":24.5854,"longitude":73.7125,"temp":29.0,"humidity":25,"rain":0.0,"pressure":946.2,"uv_index":8.3,"wind_gusts":35.3,"aqi":61,"pm10":40.2,"pm2_5":8.4,"mosquito_risk":4,"arthritis_risk":5,"migraine_risk":7,"frizz_risk":0,"updated_at":"2026-04-05T15:12:01.953757+05:30"},{"city":"Kota","state":"Rajasthan","latitude":25.2138,"longitude":75.8648,"temp":33.5,"humidity":17,"rain":0.0,"pressure":976.9,"uv_index":7.6,"wind_gusts":29.9,"aqi":62,"pm10":57.0,"pm2_5":13.0,"mosquito_risk":0,"arthritis_risk":5,"migraine_risk":7,"frizz_risk":0,"updated_at":"2026-04-05T15:12:01.953766+05:30"},{"city":"Bikaner","state":"Rajasthan","latitude":28.0229,"longitude":73.3119,"temp":31.2,"humidity":25,"rain":0.0,"pressure":981.7,"uv_index":7.6,"wind_gusts":27.4,"aqi":50,"pm10":19.0,"pm2_5":9.2,"mosquito_risk":0,"arthritis_risk":5,"migraine_risk":7,"frizz_risk":0,"updated_at":"2026-04-05T15:12:01.953774+05:30"},{"city":"Ajmer","state":"Rajasthan","latitude":26.4499,"longitude":74.6399,"temp":30.0,"humidity":24,"rain":0.0,"pressure":953.6,"uv_index":7.75,"wind_gusts":30.6,"aqi":54,"pm10":59.3,"pm2_5":12.0,"mosquito_risk":4,"arthritis_risk":5,"migraine_risk":7,"frizz_risk":0,"updated_at":"2026-04-05T15:12:01.953782+05:30"},{"city":"Gwalior","state":"Madhya Pradesh","latitude":26.2183,"longitude":78.1828,"temp":32.6,"humidity":26,"rain":0.0,"pressure":980.6,"uv_index":7.6,"wind_gusts":50.8,"aqi":63,"pm10":35.0,"pm2_5":12.5,"mosquito_risk":0,"arthritis_risk":5,"migraine_risk":7,"frizz_risk":0,"updated_at":"2026-04-05T15:12:01.953791+05:30"},{"city":"Indore","state":"Madhya Pradesh","latitude":22.7196,"longitude":75.8577,"temp":30.8,"humidity":25,"rain":0.0,"pressure":947.0,"uv_index":8.3,"wind_gusts":29.5,"aqi":65,"pm10":17.0,"pm2_5":10.2,"mosquito_risk":0,"arthritis_risk":5,"migraine_risk":7,"frizz_risk":0,"updated_at":"2026-04-05T15:12:01.953799+05:30"},{"city":"Bhopal","state":"Madhya Pradesh","latitude":23.2599,"longitude":77.4126,"temp":32.4,"humidity":23,"rain":0.0,"pressure":952.1,"uv_index":8.3,"wind_gusts":34.6,"aqi":59,"pm10":16.9,"pm2_5":7.6,"mosquito_risk":0,"arthritis_risk":5,"migraine_risk":7,"frizz_risk":0,"updated_at":"2026-04-05T15:12:01.953806+05:30"},{"city":"Jabalpur","state":"Madhya Pradesh","latitude":23.1815,"longitude":79.9864,"temp":32.4,"humidity":34,"rain":0.0,"pressure":959.6,"uv_index":8.5,"wind_gusts":33.5,"aqi":76,"pm10":44.0,"pm2_5":17.9,"mosquito_risk":0,"arthritis_risk":5,"migraine_risk":7,"frizz_risk":0,"updated_at":"2026-04-05T15:12:01.953814+05:30"},{"city":"Ujjain","state":"Madhya Pradesh","latitude":23.1765,"longitude":75.7885,"temp":31.3,"humidity":22,"rain":0.0,"pressure":952.7,"uv_index":8.2,"wind_gusts":32.4,"aqi":61,"pm10":17.9,"pm2_5":7.6,"mosquito_risk":0,"arthritis_risk":5,"migraine_risk":7,"frizz_risk":0,"updated_at":"2026-04-05T15:12:01.953823+05:30"},{"city":"Visakhapatnam","state":"Andhra Pradesh","latitude":17.6868,"longitude":83.2185,"temp":32.0,"humidity":63,"rain":0.0,"pressure":1001.5,"uv_index":9.1,"wind_gusts":36.7,"aqi":75,"pm10":44.1,"pm2_5":38.9,"mosquito_risk":3,"arthritis_risk":5,"migraine_risk":4,"frizz_risk":1,"updated_at":"2026-04-05T15:12:01.953831+05:30"},{"city":"Vijayawada","state":"Andhra Pradesh","latitude":16.5062,"longitude":80.648,"temp":35.0,"humidity":51,"rain":0.0,"pressure":999.6,"uv_index":8.45,"wind_gusts":23.8,"aqi":72,"pm10":37.8,"pm2_5":32.0,"mosquito_risk":0,"arthritis_risk":5,"migraine_risk":7,"frizz_risk":1,"updated_at":"2026-04-05T15:12:01.953838+05:30"},{"city":"Guntur","state":"Andhra Pradesh","latitude":16.3067,"longitude":80.4365,"temp":37.5,"humidity":32,"rain":0.0,"pressure":1000.0,"uv_index":8.7,"wind_gusts":33.5,"aqi":72,"pm10":38.0,"pm2_5":31.5,"mosquito_risk":0,"arthritis_risk":5,"migraine_risk":7,"frizz_risk":1,"updated_at":"2026-04-05T15:12:01.953845+05:30"},{"city":"Nellore","state":"Andhra Pradesh","latitude":14.4426,"longitude":79.9865,"temp":35.5,"humidity":48,"rain":0.0,"pressure":1002.8,"uv_index":9.3,"wind_gusts":27.7,"aqi":70,"pm10":30.5,"pm2_5":26.0,"mosquito_risk":0,"arthritis_risk":5,"migraine_risk":7,"frizz_risk":1,"updated_at":"2026-04-05T15:12:01.953853+05:30"},{"city":"Kurnool","state":"Andhra Pradesh","latitude":15.8281,"longitude":78.0373,"temp":38.4,"humidity":25,"rain":0.0,"pressure":973.7,"uv_index":9.2,"wind_gusts":33.8,"aqi":105,"pm10":46.6,"pm2_5":39.1,"mosquito_risk":0,"arthritis_risk":5,"migraine_risk":10,"frizz_risk":0,"updated_at":"2026-04-05T15:12:01.953861+05:30"},{"city":"Kakinada","state":"Andhra Pradesh","latitude":16.9891,"longitude":82.2475,"temp":32.2,"humidity":64,"rain":0.0,"pressure":1005.2,"uv_index":9.15,"wind_gusts":29.9,"aqi":55,"pm10":22.6,"pm2_5":16.7,"mosquito_risk":3,"arthritis_risk":5,"migraine_risk":4,"frizz_risk":1,"updated_at":"2026-04-05T15:12:01.953868+05:30"},{"city":"Tirupati","state":"Andhra Pradesh","latitude":13.6288,"longitude":79.4192,"temp":36.2,"humidity":39,"rain":0.0,"pressure":988.6,"uv_index":8.6,"wind_gusts":36.0,"aqi":77,"pm10":29.2,"pm2_5":24.2,"mosquito_risk":0,"arthritis_risk":5,"migraine_risk":10,"frizz_risk":1,"updated_at":"2026-04-05T15:12:01.953874+05:30"},{"city":"Warangal","state":"Telangana","latitude":17.9689,"longitude":79.5941,"temp":34.3,"humidity":45,"rain":0.0,"pressure":976.3,"uv_index":8.8,"wind_gusts":37.4,"aqi":152,"pm10":70.8,"pm2_5":57.7,"mosquito_risk":0,"arthritis_risk":5,"migraine_risk":7,"frizz_risk":1,"updated_at":"2026-04-05T15:12:01.953880+05:30"},{"city":"Nizamabad","state":"Telangana","latitude":18.6725,"longitude":78.0941,"temp":35.5,"humidity":25,"rain":0.0,"pressure":963.0,"uv_index":8.85,"wind_gusts":55.1,"aqi":115,"pm10":33.5,"pm2_5":23.6,"mosquito_risk":0,"arthritis_risk":5,"migraine_risk":10,"frizz_risk":0,"updated_at":"2026-04-05T15:12:01.953887+05:30"},{"city":"Mysore","state":"Karnataka","latitude":12.2958,"longitude":76.6396,"temp":32.0,"humidity":42,"rain":0.0,"pressure":927.3,"uv_index":9.15,"wind_gusts":33.1,"aqi":85,"pm10":32.2,"pm2_5":27.0,"mosquito_risk":0,"arthritis_risk":5,"migraine_risk":7,"frizz_risk":1,"updated_at":"2026-04-05T15:12:01.953893+05:30"},{"city":"Mangalore","state":"Karnataka","latitude":12.9141,"longitude":74.856,"temp":29.2,"humidity":77,"rain":0.0,"pressure":1005.5,"uv_index":9.15,"wind_gusts":34.2,"aqi":66,"pm10":24.0,"pm2_5":13.7,"mosquito_risk":7,"arthritis_risk":5,"migraine_risk":4,"frizz_risk":1,"updated_at":"2026-04-05T15:12:01.953900+05:30"},{"city":"Hubli-Dharwad","state":"Karnataka","latitude":15.3647,"longitude":75.124,"temp":33.7,"humidity":30,"rain":0.0,"pressure":939.9,"uv_index":9.25,"wind_gusts":37.1,"aqi":64,"pm10":21.2,"pm2_5":16.8,"mosquito_risk":0,"arthritis_risk":5,"migraine_risk":7,"frizz_risk":0,"updated_at":"2026-04-05T15:12:01.953907+05:30"},{"city":"Belgaum","state":"Karnataka","latitude":15.8497,"longitude":74.4977,"temp":31.0,"humidity":39,"rain":0.0,"pressure":925.2,"uv_index":9.3,"wind_gusts":38.5,"aqi":61,"pm10":22.1,"pm2_5":12.6,"mosquito_risk":0,"arthritis_risk":5,"migraine_risk":7,"frizz_risk":0,"updated_at":"2026-04-05T15:12:05.202834+05:30"},{"city":"Coimbatore","state":"Tamil Nadu","latitude":11.0168,"longitude":76.9558,"temp":32.9,"humidity":48,"rain":0.0,"pressure":959.9,"uv_index":9.5,"wind_gusts":49.7,"aqi":92,"pm10":28.9,"pm2_5":25.1,"mosquito_risk":0,"arthritis_risk":5,"migraine_risk":7,"frizz_risk":1,"updated_at":"2026-04-05T15:12:05.202868+05:30"},{"city":"Madurai","state":"Tamil Nadu","latitude":9.9252,"longitude":78.1198,"temp":37.6,"humidity":34,"rain":0.0,"pressure":989.1,"uv_index":2.05,"wind_gusts":28.4,"aqi":103,"pm10":26.2,"pm2_5":23.0,"mosquito_risk":0,"arthritis_risk":5,"migraine_risk":6,"frizz_risk":1,"updated_at":"2026-04-05T15:12:05.202881+05:30"},{"city":"Trichy","state":"Tamil Nadu","latitude":10.7905,"longitude":78.7047,"temp":38.4,"humidity":34,"rain":0.0,"pressure":995.6,"uv_index":9.2,"wind_gusts":38.5,"aqi":101,"pm10":39.1,"pm2_5":34.0,"mosquito_risk":0,"arthritis_risk":5,"migraine_risk":10,"frizz_risk":1,"updated_at":"2026-04-05T15:12:05.202892+05:30"},{"city":"Salem","state":"Tamil Nadu","latitude":11.6643,"longitude":78.146,"temp":37.3,"humidity":34,"rain":0.0,"pressure":974.1,"uv_index":9.2,"wind_gusts":27.0,"aqi":118,"pm10":40.3,"pm2_5":34.7,"mosquito_risk":0,"arthritis_risk":5,"migraine_risk":10,"frizz_risk":1,"updated_at":"2026-04-05T15:12:05.202901+05:30"},{"city":"Tirunelveli","state":"Tamil Nadu","latitude":8.7139,"longitude":77.7567,"temp":38.5,"humidity":28,"rain":0.0,"pressure":999.2,"uv_index":9.4,"wind_gusts":24.5,"aqi":62,"pm10":15.4,"pm2_5":13.5,"mosquito_risk":0,"arthritis_risk":5,"migraine_risk":10,"frizz_risk":1,"updated_at":"2026-04-05T15:12:05.202911+05:30"},{"city":"Vellore","state":"Tamil Nadu","latitude":12.9165,"longitude":79.1325,"temp":35.7,"humidity":38,"rain":0.0,"pressure":981.2,"uv_index":9.45,"wind_gusts":36.4,"aqi":117,"pm10":39.2,"pm2_5":34.1,"mosquito_risk":0,"arthritis_risk":5,"migraine_risk":10,"frizz_risk":1,"updated_at":"2026-04-05T15:12:05.202920+05:30"},{"city":"Erode","state":"Tamil Nadu","latitude":11.341,"longitude":77.7172,"temp":38.8,"humidity":32,"rain":0.0,"pressure":985.2,"uv_index":9.45,"wind_gusts":29.5,"aqi":112,"pm10":34.8,"pm2_5":29.8,"mosquito_risk":0,"arthritis_risk":5,"migraine_risk":10,"frizz_risk":1,"updated_at":"2026-04-05T15:12:05.202930+05:30"},{"city":"Kochi","state":"Kerala","latitude":9.9312,"longitude":76.2673,"temp":29.4,"humidity":78,"rain":0.0,"pressure":1006.7,"uv_index":8.25,"wind_gusts":29.9,"aqi":65,"pm10":18.7,"pm2_5":15.3,"mosquito_risk":7,"arthritis_risk":5,"migraine_risk":4,"frizz_risk":1,"updated_at":"2026-04-05T15:12:05.202939+05:30"},{"city":"Thiruvananthapuram","state":"Kerala","latitude":8.5241,"longitude":76.9366,"temp":29.3,"humidity":78,"rain":0.0,"pressure":1005.7,"uv_index":9.2,"wind_gusts":36.0,"aqi":57,"pm10":20.4,"pm2_5":14.8,"mosquito_risk":7,"arthritis_risk":5,"migraine_risk":4,"frizz_risk":1,"updated_at":"2026-04-05T15:12:05.202948+05:30"},{"city":"Kozhikode","state":"Kerala","latitude":11.2588,"longitude":75.7804,"temp":30.3,"humidity":76,"rain":0.0,"pressure":1006.1,"uv_index":9.2,"wind_gusts":32.4,"aqi":56,"pm10":28.5,"pm2_5":16.5,"mosquito_risk":3,"arthritis_risk":5,"migraine_risk":4,"frizz_risk":1,"updated_at":"2026-04-05T15:12:05.202956+05:30"},{"city":"Thrissur","state":"Kerala","latitude":10.5276,"longitude":76.2144,"temp":33.0,"humidity":62,"rain":0.0,"pressure":1005.1,"uv_index":9.15,"wind_gusts":35.6,"aqi":64,"pm10":22.7,"pm2_5":18.6,"mosquito_risk":3,"arthritis_risk":5,"migraine_risk":4,"frizz_risk":1,"updated_at":"2026-04-05T15:12:05.202965+05:30"},{"city":"Kannur","state":"Kerala","latitude":11.8745,"longitude":75.3704,"temp":31.5,"humidity":65,"rain":0.0,"pressure":1005.5,"uv_index":9.2,"wind_gusts":36.7,"aqi":68,"pm10":28.6,"pm2_5":16.1,"mosquito_risk":3,"arthritis_risk":5,"migraine_risk":4,"frizz_risk":1,"updated_at":"2026-04-05T15:12:05.202973+05:30"},{"city":"Patna","state":"Bihar","latitude":25.5941,"longitude":85.1376,"temp":34.6,"humidity":33,"rain":0.0,"pressure":997.1,"uv_index":8.25,"wind_gusts":45.0,"aqi":84,"pm10":30.7,"pm2_5":16.4,"mosquito_risk":0,"arthritis_risk":5,"migraine_risk":7,"frizz_risk":0,"updated_at":"2026-04-05T15:12:05.202980+05:30"},{"city":"Gaya","state":"Bihar","latitude":24.7914,"longitude":85.0002,"temp":34.3,"humidity":33,"rain":0.0,"pressure":990.8,"uv_index":8.35,"wind_gusts":46.8,"aqi":76,"pm10":28.0,"pm2_5":19.1,"mosquito_risk":0,"arthritis_risk":5,"migraine_risk":7,"frizz_risk":0,"updated_at":"2026-04-05T15:12:05.202987+05:30"},{"city":"Muzaffarpur","state":"Bihar","latitude":26.1209,"longitude":85.3647,"temp":35.1,"humidity":26,"rain":0.0,"pressure":996.8,"uv_index":8.2,"wind_gusts":34.6,"aqi":88,"pm10":38.0,"pm2_5":15.9,"mosquito_risk":0,"arthritis_risk":5,"migraine_risk":10,"frizz_risk":0,"updated_at":"2026-04-05T15:12:05.202994+05:30"},{"city":"Bhagalpur","state":"Bihar","latitude":25.2425,"longitude":87.0117,"temp":34.2,"humidity":36,"rain":0.0,"pressure":998.0,"uv_index":8.35,"wind_gusts":34.6,"aqi":82,"pm10":32.5,"pm2_5":19.4,"mosquito_risk":0,"arthritis_risk":5,"migraine_risk":7,"frizz_risk":1,"updated_at":"2026-04-05T15:12:05.203002+05:30"},{"city":"Ranchi","state":"Jharkhand","latitude":23.3441,"longitude":85.3096,"temp":31.2,"humidity":39,"rain":0.0,"pressure":936.5,"uv_index":8.9,"wind_gusts":46.4,"aqi":85,"pm10":39.6,"pm2_5":23.3,"mosquito_risk":0,"arthritis_risk":5,"migraine_risk":7,"frizz_risk":0,"updated_at":"2026-04-05T15:12:05.203009+05:30"},{"city":"Jamshedpur","state":"Jharkhand","latitude":22.8046,"longitude":86.2029,"temp":34.8,"humidity":38,"rain":0.0,"pressure":988.9,"uv_index":8.6,"wind_gusts":23.4,"aqi":108,"pm10":52.3,"pm2_5":33.2,"mosquito_risk":0,"arthritis_risk":5,"migraine_risk":7,"frizz_risk":1,"updated_at":"2026-04-05T15:12:05.203016+05:30"},{"city":"Dhanbad","state":"Jharkhand","latitude":23.7957,"longitude":86.4304,"temp":35.0,"humidity":30,"rain":0.0,"pressure":977.6,"uv_index":8.7,"wind_gusts":39.6,"aqi":103,"pm10":43.5,"pm2_5":28.4,"mosquito_risk":0,"arthritis_risk":5,"migraine_risk":7,"frizz_risk":0,"updated_at":"2026-04-05T15:12:05.203024+05:30"},{"city":"Bokaro","state":"Jharkhand","latitude":23.6693,"longitude":86.1511,"temp":34.7,"humidity":32,"rain":0.0,"pressure":981.7,"uv_index":8.65,"wind_gusts":53.6,"aqi":102,"pm10":38.3,"pm2_5":25.5,"mosquito_risk":0,"arthritis_risk":5,"migraine_risk":7,"frizz_risk":0,"updated_at":"2026-04-05T15:12:05.203031+05:30"},{"city":"Bhubaneswar","state":"Odisha","latitude":20.2961,"longitude":85.8245,"temp":28.0,"humidity":79,"rain":0.0,"pressure":1001.5,"uv_index":8.65,"wind_gusts":26.3,"aqi":138,"pm10":58.9,"pm2_5":52.7,"mosquito_risk":7,"arthritis_risk":5,"migraine_risk":4,"frizz_risk":1,"updated_at":"2026-04-05T15:12:05.203038+05:30"},{"city":"Cuttack","state":"Odisha","latitude":20.4625,"longitude":85.8828,"temp":28.6,"humidity":74,"rain":0.0,"pressure":1003.3,"uv_index":8.6,"wind_gusts":28.8,"aqi":138,"pm10":58.9,"pm2_5":52.7,"mosquito_risk":7,"arthritis_risk":5,"migraine_risk":4,"frizz_risk":1,"updated_at":"2026-04-05T15:12:05.203045+05:30"},{"city":"Rourkela","state":"Odisha","latitude":22.2604,"longitude":84.8536,"temp":34.9,"humidity":38,"rain":0.0,"pressure":982.8,"uv_index":8.65,"wind_gusts":33.8,"aqi":88,"pm10":37.4,"pm2_5":28.0,"mosquito_risk":0,"arthritis_risk":5,"migraine_risk":7,"frizz_risk":1,"updated_at":"2026-04-05T15:12:05.203052+05:30"},{"city":"Raipur","state":"Chhattisgarh","latitude":21.2514,"longitude":81.6296,"temp":35.8,"humidity":31,"rain":0.0,"pressure":972.1,"uv_index":8.7,"wind_gusts":31.3,"aqi":144,"pm10":40.2,"pm2_5":33.6,"mosquito_risk":0,"arthritis_risk":5,"migraine_risk":10,"frizz_risk":0,"updated_at":"2026-04-05T15:12:05.203059+05:30"},{"city":"Bhilai","state":"Chhattisgarh","latitude":21.1938,"longitude":81.3509,"temp":35.7,"humidity":34,"rain":0.0,"pressure":972.5,"uv_index":8.7,"wind_gusts":32.0,"aqi":137,"pm10":37.4,"pm2_5":29.8,"mosquito_risk":0,"arthritis_risk":5,"migraine_risk":10,"frizz_risk":1,"updated_at":"2026-04-05T15:12:05.203066+05:30"},{"city":"Guwahati","state":"Assam","latitude":26.1158,"longitude":91.7086,"temp":33.0,"humidity":42,"rain":0.0,"pressure":996.8,"uv_index":7.45,"wind_gusts":51.8,"aqi":142,"pm10":34.5,"pm2_5":22.8,"mosquito_risk":0,"arthritis_risk":5,"migraine_risk":7,"frizz_risk":1,"updated_at":"2026-04-05T15:12:05.203072+05:30"},{"city":"Agartala","state":"Tripura","latitude":23.8315,"longitude":91.2868,"temp":29.3,"humidity":79,"rain":0.0,"pressure":1003.9,"uv_index":8.4,"wind_gusts":27.0,"aqi":115,"pm10":64.0,"pm2_5":51.9,"mosquito_risk":7,"arthritis_risk":5,"migraine_risk":4,"frizz_risk":1,"updated_at":"2026-04-05T15:12:05.203099+05:30"},{"city":"Shillong","state":"Meghalaya","latitude":25.5788,"longitude":91.8933,"temp":19.4,"humidity":65,"rain":0.0,"pressure":854.9,"uv_index":8.1,"wind_gusts":67.3,"aqi":102,"pm10":32.0,"pm2_5":23.2,"mosquito_risk":3,"arthritis_risk":5,"migraine_risk":7,"frizz_risk":0,"updated_at":"2026-04-05T15:12:05.203109+05:30"},{"city":"Imphal","state":"Manipur","latitude":24.817,"longitude":93.9368,"temp":21.6,"humidity":78,"rain":0.0,"pressure":920.9,"uv_index":8.85,"wind_gusts":83.9,"aqi":140,"pm10":45.1,"pm2_5":36.6,"mosquito_risk":3,"arthritis_risk":5,"migraine_risk":7,"frizz_risk":1,"updated_at":"2026-04-05T15:12:05.203117+05:30"},{"city":"Aizawl","state":"Mizoram","latitude":23.7271,"longitude":92.7176,"temp":21.9,"humidity":81,"rain":0.0,"pressure":891.7,"uv_index":8.5,"wind_gusts":55.8,"aqi":145,"pm10":49.7,"pm2_5":40.4,"mosquito_risk":3,"arthritis_risk":5,"migraine_risk":7,"frizz_risk":1,"updated_at":"2026-04-05T15:12:05.203125+05:30"},{"city":"Kohima","state":"Nagaland","latitude":25.6701,"longitude":94.1077,"temp":21.9,"humidity":55,"rain":0.0,"pressure":853.5,"uv_index":8.2,"wind_gusts":95.0,"aqi":107,"pm10":38.2,"pm2_5":29.7,"mosquito_risk":0,"arthritis_risk":5,"migraine_risk":7,"frizz_risk":0,"updated_at":"2026-04-05T15:12:05.203132+05:30"},{"city":"Gangtok","state":"Sikkim","latitude":27.3314,"longitude":88.6138,"temp":18.8,"humidity":78,"rain":0.0,"pressure":836.7,"uv_index":8.35,"wind_gusts":19.8,"aqi":106,"pm10":36.6,"pm2_5":25.2,"mosquito_risk":3,"arthritis_risk":5,"migraine_risk":7,"frizz_risk":0,"updated_at":"2026-04-05T15:12:05.203139+05:30"},{"city":"Siliguri","state":"West Bengal","latitude":26.7271,"longitude":88.3953,"temp":28.3,"humidity":54,"rain":0.0,"pressure":990.5,"uv_index":8.2,"wind_gusts":34.9,"aqi":157,"pm10":57.5,"pm2_5":40.5,"mosquito_risk":4,"arthritis_risk":5,"migraine_risk":7,"frizz_risk":1,"updated_at":"2026-04-05T15:12:08.453941+05:30"},{"city":"Durgapur","state":"West Bengal","latitude":23.5204,"longitude":87.3119,"temp":35.7,"humidity":32,"rain":0.0,"pressure":993.0,"uv_index":8.0,"wind_gusts":38.2,"aqi":114,"pm10":48.3,"pm2_5":27.5,"mosquito_risk":0,"arthritis_risk":5,"migraine_risk":10,"frizz_risk":1,"updated_at":"2026-04-05T15:12:08.453972+05:30"},{"city":"Asansol","state":"West Bengal","latitude":23.6739,"longitude":86.9524,"temp":35.5,"humidity":33,"rain":0.0,"pressure":991.5,"uv_index":8.05,"wind_gusts":36.0,"aqi":91,"pm10":46.2,"pm2_5":27.8,"mosquito_risk":0,"arthritis_risk":5,"migraine_risk":10,"frizz_risk":1,"updated_at":"2026-04-05T15:12:08.453983+05:30"},{"city":"Pondicherry","state":"Puducherry","latitude":11.9139,"longitude":79.8145,"temp":37.6,"humidity":38,"rain":0.0,"pressure":1004.0,"uv_index":9.35,"wind_gusts":27.7,"aqi":57,"pm10":28.1,"pm2_5":24.0,"mosquito_risk":0,"arthritis_risk":5,"migraine_risk":7,"frizz_risk":1,"updated_at":"2026-04-05T15:12:08.453991+05:30"},{"city":"Port Blair","state":"Andaman and Nicobar Islands","latitude":11.6234,"longitude":92.7265,"temp":29.5,"humidity":71,"rain":0.0,"pressure":1004.9,"uv_index":9.25,"wind_gusts":19.8,"aqi":45,"pm10":16.4,"pm2_5":11.1,"mosquito_risk":7,"arthritis_risk":5,"migraine_risk":4,"frizz_risk":1,"updated_at":"2026-04-05T15:12:08.453999+05:30"},{"city":"Haridwar","state":"Uttarakhand","latitude":29.9457,"longitude":78.1642,"temp":29.5,"humidity":35,"rain":0.0,"pressure":972.2,"uv_index":6.7,"wind_gusts":18.7,"aqi":65,"pm10":38.2,"pm2_5":11.5,"mosquito_risk":4,"arthritis_risk":5,"migraine_risk":7,"frizz_risk":0,"updated_at":"2026-04-05T15:12:08.454007+05:30"},{"city":"Rishikesh","state":"Uttarakhand","latitude":30.0869,"longitude":78.2676,"temp":27.8,"humidity":41,"rain":0.0,"pressure":964.9,"uv_index":6.65,"wind_gusts":22.3,"aqi":54,"pm10":32.4,"pm2_5":9.4,"mosquito_risk":4,"arthritis_risk":5,"migraine_risk":7,"frizz_risk":0,"updated_at":"2026-04-05T15:12:08.454015+05:30"},{"city":"Nainital","state":"Uttarakhand","latitude":29.3919,"longitude":79.4542,"temp":18.7,"humidity":67,"rain":0.0,"pressure":804.1,"uv_index":6.8,"wind_gusts":28.1,"aqi":57,"pm10":29.7,"pm2_5":11.4,"mosquito_risk":3,"arthritis_risk":5,"migraine_risk":7,"frizz_risk":0,"updated_at":"2026-04-05T15:12:08.454023+05:30"},{"city":"Mussoorie","state":"Uttarakhand","latitude":30.4599,"longitude":78.0664,"temp":18.6,"humidity":55,"rain":0.0,"pressure":801.3,"uv_index":5.8,"wind_gusts":45.7,"aqi":53,"pm10":30.4,"pm2_5":9.4,"mosquito_risk":0,"arthritis_risk":5,"migraine_risk":3,"frizz_risk":0,"updated_at":"2026-04-05T15:12:08.454031+05:30"},{"city":"Dharamshala","state":"Himachal Pradesh","latitude":32.219,"longitude":76.3234,"temp":18.4,"humidity":71,"rain":0.0,"pressure":867.9,"uv_index":7.3,"wind_gusts":32.8,"aqi":57,"pm10":20.7,"pm2_5":6.7,"mosquito_risk":3,"arthritis_risk":5,"migraine_risk":7,"frizz_risk":0,"updated_at":"2026-04-05T15:12:08.454038+05:30"},{"city":"Dalhousie","state":"Himachal Pradesh","latitude":32.5387,"longitude":75.971,"temp":17.9,"humidity":53,"rain":0.0,"pressure":803.4,"uv_index":7.25,"wind_gusts":25.2,"aqi":56,"pm10":50.6,"pm2_5":13.4,"mosquito_risk":0,"arthritis_risk":5,"migraine_risk":7,"frizz_risk":0,"updated_at":"2026-04-05T15:12:08.454046+05:30"},{"city":"Patiala","state":"Punjab","latitude":30.3398,"longitude":76.3869,"temp":29.2,"humidity":33,"rain":0.0,"pressure":977.7,"uv_index":6.75,"wind_gusts":34.2,"aqi":110,"pm10":451.7,"pm2_5":47.3,"mosquito_risk":4,"arthritis_risk":5,"migraine_risk":7,"frizz_risk":0,"updated_at":"2026-04-05T15:12:08.454054+05:30"},{"city":"Bhatinda","state":"Punjab","latitude":30.211,"longitude":74.9455,"temp":29.1,"humidity":32,"rain":0.0,"pressure":983.9,"uv_index":7.3,"wind_gusts":30.2,"aqi":88,"pm10":70.1,"pm2_5":19.4,"mosquito_risk":4,"arthritis_risk":5,"migraine_risk":7,"frizz_risk":0,"updated_at":"2026-04-05T15:12:08.454061+05:30"},{"city":"Rohtak","state":"Haryana","latitude":28.8955,"longitude":76.6066,"temp":30.2,"humidity":33,"rain":0.0,"pressure":980.8,"uv_index":5.7,"wind_gusts":36.7,"aqi":152,"pm10":283.1,"pm2_5":40.0,"mosquito_risk":0,"arthritis_risk":5,"migraine_risk":3,"frizz_risk":0,"updated_at":"2026-04-05T15:12:08.454068+05:30"},{"city":"Panipat","state":"Haryana","latitude":29.3909,"longitude":76.9635,"temp":30.4,"humidity":30,"rain":0.0,"pressure":979.4,"uv_index":6.75,"wind_gusts":32.0,"aqi":215,"pm10":495.5,"pm2_5":53.8,"mosquito_risk":0,"arthritis_risk":5,"migraine_risk":7,"frizz_risk":0,"updated_at":"2026-04-05T15:12:08.454102+05:30"},{"city":"Mathura","state":"Uttar Pradesh","latitude":27.4924,"longitude":77.6737,"temp":28.2,"humidity":51,"rain":0.0,"pressure":986.5,"uv_index":6.3,"wind_gusts":31.7,"aqi":217,"pm10":308.3,"pm2_5":45.4,"mosquito_risk":4,"arthritis_risk":5,"migraine_risk":7,"frizz_risk":1,"updated_at":"2026-04-05T15:12:08.454120+05:30"},{"city":"Vrindavan","state":"Uttar Pradesh","latitude":27.5823,"longitude":77.7027,"temp":26.9,"humidity":55,"rain":0.0,"pressure":987.0,"uv_index":6.05,"wind_gusts":42.5,"aqi":217,"pm10":308.3,"pm2_5":45.4,"mosquito_risk":4,"arthritis_risk":5,"migraine_risk":7,"frizz_risk":1,"updated_at":"2026-04-05T15:12:08.454128+05:30"},{"city":"Ayodhya","state":"Uttar Pradesh","latitude":26.7922,"longitude":82.1998,"temp":32.0,"humidity":38,"rain":0.0,"pressure":992.7,"uv_index":7.6,"wind_gusts":46.1,"aqi":105,"pm10":37.1,"pm2_5":14.6,"mosquito_risk":0,"arthritis_risk":5,"migraine_risk":7,"frizz_risk":0,"updated_at":"2026-04-05T15:12:08.454136+05:30"},{"city":"Ratlam","state":"Madhya Pradesh","latitude":23.3315,"longitude":75.0367,"temp":30.9,"humidity":25,"rain":0.0,"pressure":954.5,"uv_index":8.1,"wind_gusts":33.5,"aqi":55,"pm10":17.7,"pm2_5":6.8,"mosquito_risk":0,"arthritis_risk":5,"migraine_risk":7,"frizz_risk":0,"updated_at":"2026-04-05T15:12:08.454143+05:30"},{"city":"Sagar","state":"Madhya Pradesh","latitude":23.8388,"longitude":78.7378,"temp":32.3,"humidity":23,"rain":0.0,"pressure":948.5,"uv_index":7.8,"wind_gusts":34.2,"aqi":58,"pm10":12.0,"pm2_5":5.9,"mosquito_risk":0,"arthritis_risk":5,"migraine_risk":7,"frizz_risk":0,"updated_at":"2026-04-05T15:12:08.454150+05:30"},{"city":"Satna","state":"Madhya Pradesh","latitude":24.6005,"longitude":80.8322,"temp":32.1,"humidity":36,"rain":0.0,"pressure":969.4,"uv_index":8.3,"wind_gusts":30.2,"aqi":71,"pm10":30.4,"pm2_5":11.6,"mosquito_risk":0,"arthritis_risk":5,"migraine_risk":7,"frizz_risk":0,"updated_at":"2026-04-05T15:12:08.454157+05:30"},{"city":"Akola","state":"Maharashtra","latitude":20.7002,"longitude":77.0082,"temp":35.9,"humidity":26,"rain":0.0,"pressure":973.1,"uv_index":8.65,"wind_gusts":33.8,"aqi":72,"pm10":39.8,"pm2_5":15.3,"mosquito_risk":0,"arthritis_risk":5,"migraine_risk":10,"frizz_risk":0,"updated_at":"2026-04-05T15:12:08.454164+05:30"},{"city":"Amravati","state":"Maharashtra","latitude":20.9374,"longitude":77.7796,"temp":36.0,"humidity":23,"rain":0.0,"pressure":965.1,"uv_index":8.65,"wind_gusts":34.2,"aqi":79,"pm10":38.3,"pm2_5":15.6,"mosquito_risk":0,"arthritis_risk":5,"migraine_risk":10,"frizz_risk":0,"updated_at":"2026-04-05T15:12:08.454172+05:30"},{"city":"Latur","state":"Maharashtra","latitude":18.4088,"longitude":76.5604,"temp":34.0,"humidity":23,"rain":0.0,"pressure":938.4,"uv_index":9.0,"wind_gusts":30.2,"aqi":91,"pm10":33.3,"pm2_5":14.3,"mosquito_risk":0,"arthritis_risk":5,"migraine_risk":7,"frizz_risk":0,"updated_at":"2026-04-05T15:12:08.454179+05:30"},{"city":"Nanded","state":"Maharashtra","latitude":19.1383,"longitude":77.3091,"temp":35.8,"humidity":25,"rain":0.0,"pressure":966.8,"uv_index":8.85,"wind_gusts":28.4,"aqi":101,"pm10":31.5,"pm2_5":17.2,"mosquito_risk":0,"arthritis_risk":5,"migraine_risk":10,"frizz_risk":0,"updated_at":"2026-04-05T15:12:08.454186+05:30"},{"city":"Gulbarga","state":"Karnataka","latitude":17.3297,"longitude":76.8343,"temp":36.3,"humidity":22,"rain":0.0,"pressure":956.8,"uv_index":8.95,"wind_gusts":34.6,"aqi":110,"pm10":37.1,"pm2_5":28.2,"mosquito_risk":0,"arthritis_risk":5,"migraine_risk":10,"frizz_risk":0,"updated_at":"2026-04-05T15:12:08.454195+05:30"},{"city":"Bidar","state":"Karnataka","latitude":17.9104,"longitude":77.5199,"temp":34.8,"humidity":23,"rain":0.0,"pressure":934.1,"uv_index":8.9,"wind_gusts":33.5,"aqi":130,"pm10":45.4,"pm2_5":34.5,"mosquito_risk":0,"arthritis_risk":5,"migraine_risk":7,"frizz_risk":0,"updated_at":"2026-04-05T15:12:08.454204+05:30"},{"city":"Hospet","state":"Karnataka","latitude":15.2689,"longitude":76.3909,"temp":35.0,"humidity":29,"rain":0.0,"pressure":954.1,"uv_index":9.2,"wind_gusts":27.0,"aqi":82,"pm10":24.7,"pm2_5":20.4,"mosquito_risk":0,"arthritis_risk":5,"migraine_risk":7,"frizz_risk":0,"updated_at":"2026-04-05T15:12:08.454210+05:30"},{"city":"Tirupur","state":"Tamil Nadu","latitude":11.1085,"longitude":77.3411,"temp":35.7,"humidity":39,"rain":0.0,"pressure":972.3,"uv_index":9.55,"wind_gusts":36.0,"aqi":109,"pm10":33.1,"pm2_5":28.3,"mosquito_risk":0,"arthritis_risk":5,"migraine_risk":10,"frizz_risk":1,"updated_at":"2026-04-05T15:12:08.454217+05:30"},{"city":"Alappuzha","state":"Kerala","latitude":9.4981,"longitude":76.3388,"temp":29.4,"humidity":77,"rain":0.0,"pressure":1006.8,"uv_index":8.9,"wind_gusts":28.8,"aqi":65,"pm10":20.5,"pm2_5":15.8,"mosquito_risk":7,"arthritis_risk":5,"migraine_risk":4,"frizz_risk":1,"updated_at":"2026-04-05T15:12:08.454224+05:30"},{"city":"Munnar","state":"Kerala","latitude":10.0889,"longitude":77.0595,"temp":26.3,"humidity":67,"rain":0.0,"pressure":857.3,"uv_index":9.75,"wind_gusts":38.5,"aqi":60,"pm10":21.6,"pm2_5":19.2,"mosquito_risk":7,"arthritis_risk":5,"migraine_risk":7,"frizz_risk":1,"updated_at":"2026-04-05T15:12:08.454232+05:30"},{"city":"Silchar","state":"Assam","latitude":24.8333,"longitude":92.7789,"temp":27.7,"humidity":80,"rain":0.0,"pressure":1002.4,"uv_index":8.4,"wind_gusts":33.1,"aqi":157,"pm10":62.6,"pm2_5":55.4,"mosquito_risk":7,"arthritis_risk":5,"migraine_risk":4,"frizz_risk":1,"updated_at":"2026-04-05T15:12:08.454239+05:30"},{"city":"Dibrugarh","state":"Assam","latitude":27.4728,"longitude":94.912,"temp":23.8,"humidity":86,"rain":0.0,"pressure":991.4,"uv_index":7.5,"wind_gusts":50.4,"aqi":152,"pm10":55.6,"pm2_5":42.0,"mosquito_risk":3,"arthritis_risk":5,"migraine_risk":7,"frizz_risk":1,"updated_at":"2026-04-05T15:12:08.454246+05:30"}]