[{"city":"Delhi","state":"Delhi","latitude":28.6139,"longitude":77.209,"temp":26.6,"humidity":44,"rain":0.0,"pressure":986.0,"uv_index":6.45,"wind_gusts":28.4,"aqi":155,"pm10":540.2,"pm2_5":76.4,"mosquito_risk":4,"arthritis_risk":5,"migraine_risk":7,"frizz_risk":0,"updated_at":"2026-03-22T18:28:24.453374+05:30"},{"city":"Mumbai","state":"Maharashtra","latitude":19.076,"longitude":72.8777,"temp":29.0,"humidity":60,"rain":0.0,"pressure":1008.6,"uv_index":7.9,"wind_gusts":28.4,"aqi":173,"pm10":52.2,"pm2_5":39.3,"mosquito_risk":4,"arthritis_risk":0,"migraine_risk":4,"frizz_risk":1,"updated_at":"2026-03-22T18:28:24.453450+05:30"},{"city":"Bangalore","state":"Karnataka","latitude":12.9716,"longitude":77.5946,"temp":28.2,"humidity":48,"rain":0.0,"pressure":912.3,"uv_index":9.45,"wind_gusts":25.2,"aqi":132,"pm10":47.1,"pm2_5":36.9,"mosquito_risk":4,"arthritis_risk":5,"migraine_risk":7,"frizz_risk":1,"updated_at":"2026-03-22T18:28:24.453468+05:30"},{"city":"Hyderabad","state":"Telangana","latitude":17.385,"longitude":78.4867,"temp":30.0,"humidity":44,"rain":0.0,"pressure":953.8,"uv_index":8.9,"wind_gusts":26.6,"aqi":137,"pm10":52.2,"pm2_5":33.2,"mosquito_risk":4,"arthritis_risk":5,"migraine_risk":7,"frizz_risk":1,"updated_at":"2026-03-22T18:28:24.453479+05:30"},{"city":"Chennai","state":"Tamil Nadu","latitude":13.0827,"longitude":80.2707,"temp":29.0,"humidity":68,"rain":0.0,"pressure":1008.6,"uv_index":9.15,"wind_gusts":32.4,"aqi":39,"pm10":13.7,"pm2_5":8.4,"mosquito_risk":7,"arthritis_risk":0,"migraine_risk":4,"frizz_risk":1,"updated_at":"2026-03-22T18:28:24.453489+05:30"},{"city":"Kolkata","state":"West Bengal","latitude":22.5726,"longitude":88.3639,"temp":25.2,"humidity":65,"rain":0.0,"pressure":1009.4,"uv_index":8.25,"wind_gusts":16.6,"aqi":157,"pm10":50.1,"pm2_5":47.1,"mosquito_risk":7,"arthritis_risk":0,"migraine_risk":4,"frizz_risk":1,"updated_at":"2026-03-22T18:28:24.453499+05:30"},{"city":"Pune","state":"Maharashtra","latitude":18.5204,"longitude":73.8567,"temp":33.3,"humidity":22,"rain":0.0,"pressure":948.6,"uv_index":8.45,"wind_gusts":29.5,"aqi":115,"pm10":19.9,"pm2_5":12.8,"mosquito_risk":0,"arthritis_risk":5,"migraine_risk":7,"frizz_risk":0,"updated_at":"2026-03-22T18:28:24.453513+05:30"},{"city":"Ahmedabad","state":"Gujarat","latitude":23.0225,"longitude":72.5714,"temp":33.3,"humidity":27,"rain":0.0,"pressure":1003.8,"uv_index":7.65,"wind_gusts":22.7,"aqi":95,"pm10":43.3,"pm2_5":15.4,"mosquito_risk":0,"arthritis_risk":5,"migraine_risk":4,"frizz_risk":0,"updated_at":"2026-03-22T18:28:24.453522+05:30"},{"city":"Jaipur","state":"Rajasthan","latitude":26.9124,"longitude":75.7873,"temp":28.6,"humidity":32,"rain":0.0,"pressure":962.2,"uv_index":7.25,"wind_gusts":29.9,"aqi":98,"pm10":114.1,"pm2_5":21.5,"mosquito_risk":4,"arthritis_risk":5,"migraine_risk":7,"frizz_risk":0,"updated_at":"2026-03-22T18:28:24.453530+05:30"},{"city":"Lucknow","state":"Uttar Pradesh","latitude":26.8467,"longitude":80.9462,"temp":27.2,"humidity":39,"rain":0.0,"pressure":996.6,"uv_index":6.95,"wind_gusts":26.6,"aqi":115,"pm10":156.5,"pm2_5":32.9,"mosquito_risk":4,"arthritis_risk":5,"migraine_risk":7,"frizz_risk":0,"updated_at":"2026-03-22T18:28:24.453539+05:30"},{"city":"Kanpur","state":"Uttar Pradesh","latitude":26.4499,"longitude":80.3319,"temp":25.8,"humidity":54,"rain":0.0,"pressure":995.0,"uv_index":7.0,"wind_gusts":27.7,"aqi":134,"pm10":478.7,"pm2_5":64.3,"mosquito_risk":4,"arthritis_risk":5,"migraine_risk":7,"frizz_risk":0,"updated_at":"2026-03-22T18:28:24.453548+05:30"},{"city":"Chandigarh","state":"Chandigarh","latitude":30.7333,"longitude":76.7794,"temp":21.7,"humidity":65,"rain":0.0,"pressure":971.7,"uv_index":6.4,"wind_gusts":33.1,"aqi":116,"pm10":34.1,"pm2_5":30.4,"mosquito_risk":3,"arthritis_risk":5,"migraine_risk":7,"frizz_risk":0,"updated_at":"2026-03-22T18:28:24.453557+05:30"},{"city":"Srinagar","state":"Jammu and Kashmir","latitude":34.0837,"longitude":74.7973,"temp":15.9,"humidity":42,"rain":0.0,"pressure":841.1,"uv_index":7.5,"wind_gusts":14.0,"aqi":152,"pm10":21.1,"pm2_5":11.8,"mosquito_risk":0,"arthritis_risk":5,"migraine_risk":7,"frizz_risk":0,"updated_at":"2026-03-22T18:28:24.453566+05:30"},{"city":"Jammu","state":"Jammu and Kashmir","latitude":32.7266,"longitude":74.857,"temp":23.9,"humidity":58,"rain":0.0,"pressure":975.5,"uv_index":6.85,"wind_gusts":22.0,"aqi":104,"pm10":27.3,"pm2_5":22.0,"mosquito_risk":0,"arthritis_risk":5,"migraine_risk":7,"frizz_risk":0,"updated_at":"2026-03-22T18:28:24.453575+05:30"},{"city":"Amritsar","state":"Punjab","latitude":31.634,"longitude":74.8723,"temp":23.8,"humidity":56,"rain":0.0,"pressure":983.9,"uv_index":7.05,"wind_gusts":20.5,"aqi":157,"pm10":55.4,"pm2_5":34.1,"mosquito_risk":0,"arthritis_risk":5,"migraine_risk":7,"frizz_risk":0,"updated_at":"2026-03-22T18:28:24.453582+05:30"},{"city":"Ludhiana","state":"Punjab","latitude":30.901,"longitude":75.8573,"temp":23.3,"humidity":59,"rain":0.0,"pressure":982.1,"uv_index":6.6,"wind_gusts":26.6,"aqi":132,"pm10":63.1,"pm2_5":37.6,"mosquito_risk":0,"arthritis_risk":5,"migraine_risk":7,"frizz_risk":0,"updated_at":"2026-03-22T18:28:24.453590+05:30"},{"city":"Jalandhar","state":"Punjab","latitude":31.326,"longitude":75.5762,"temp":23.6,"humidity":60,"rain":0.0,"pressure":983.3,"uv_index":6.85,"wind_gusts":21.6,"aqi":150,"pm10":83.1,"pm2_5":38.3,"mosquito_risk":0,"arthritis_risk":5,"migraine_risk":7,"frizz_risk":0,"updated_at":"2026-03-22T18:28:24.453600+05:30"},{"city":"Dehradun","state":"Uttarakhand","latitude":30.6284,"longitude":78.0322,"temp":14.1,"humidity":69,"rain":0.0,"pressure":830.1,"uv_index":6.8,"wind_gusts":24.1,"aqi":114,"pm10":25.8,"pm2_5":22.2,"mosquito_risk":3,"arthritis_risk":5,"migraine_risk":7,"frizz_risk":0,"updated_at":"2026-03-22T18:28:24.453608+05:30"},{"city":"Shimla","state":"Himachal Pradesh","latitude":31.1048,"longitude":77.1734,"temp":11.4,"humidity":78,"rain":0.0,"pressure":784.0,"uv_index":6.85,"wind_gusts":41.0,"aqi":100,"pm10":27.7,"pm2_5":23.6,"mosquito_risk":3,"arthritis_risk":5,"migraine_risk":7,"frizz_risk":0,"updated_at":"2026-03-22T18:28:24.453616+05:30"},{"city":"Manali","state":"Himachal Pradesh","latitude":32.2396,"longitude":77.1887,"temp":15.2,"humidity":61,"rain":0.0,"pressure":818.8,"uv_index":8.9,"wind_gusts":33.8,"aqi":141,"pm10":17.1,"pm2_5":8.6,"mosquito_risk":3,"arthritis_risk":5,"migraine_risk":7,"frizz_risk":0,"updated_at":"2026-03-22T18:28:24.453625+05:30"},{"city":"Gurgaon","state":"Haryana","latitude":28.4595,"longitude":77.0266,"temp":25.5,"humidity":52,"rain":0.0,"pressure":984.5,"uv_index":6.55,"wind_gusts":23.8,"aqi":463,"pm10":1046.8,"pm2_5":118.3,"mosquito_risk":4,"arthritis_risk":5,"migraine_risk":7,"frizz_risk":0,"updated_at":"2026-03-22T18:28:24.453633+05:30"},{"city":"Noida","state":"Uttar Pradesh","latitude":28.5355,"longitude":77.391,"temp":26.5,"humidity":45,"rain":0.0,"pressure":987.5,"uv_index":6.45,"wind_gusts":27.7,"aqi":463,"pm10":1046.8,"pm2_5":118.3,"mosquito_risk":4,"arthritis_risk":5,"migraine_risk":7,"frizz_risk":0,"updated_at":"2026-03-22T18:28:24.453644+05:30"},{"city":"Ghaziabad","state":"Uttar Pradesh","latitude":28.6692,"longitude":77.4538,"temp":25.5,"humidity":52,"rain":0.0,"pressure":985.5,"uv_index":6.45,"wind_gusts":28.1,"aqi":150,"pm10":459.1,"pm2_5":70.5,"mosquito_risk":4,"arthritis_risk":5,"migraine_risk":7,"frizz_risk":0,"updated_at":"2026-03-22T18:28:24.453651+05:30"},{"city":"Faridabad","state":"Haryana","latitude":28.4089,"longitude":77.3178,"temp":25.8,"humidity":47,"rain":0.0,"pressure":986.7,"uv_index":6.5,"wind_gusts":24.8,"aqi":463,"pm10":1046.8,"pm2_5":118.3,"mosquito_risk":4,"arthritis_risk":5,"migraine_risk":7,"frizz_risk":0,"updated_at":"2026-03-22T18:28:24.453658+05:30"},{"city":"Meerut","state":"Uttar Pradesh","latitude":28.9845,"longitude":77.7064,"temp":24.3,"humidity":54,"rain":0.0,"pressure":984.2,"uv_index":6.3,"wind_gusts":31.7,"aqi":150,"pm10":459.1,"pm2_5":70.5,"mosquito_risk":0,"arthritis_risk":5,"migraine_risk":7,"frizz_risk":0,"updated_at":"2026-03-22T18:28:24.453666+05:30"},{"city":"Agra","state":"Uttar Pradesh","latitude":27.1767,"longitude":78.0081,"temp":27.4,"humidity":39,"rain":0.0,"pressure":990.6,"uv_index":6.45,"wind_gusts":29.9,"aqi":557,"pm10":713.4,"pm2_5":75.4,"mosquito_risk":4,"arthritis_risk":5,"migraine_risk":7,"frizz_risk":0,"updated_at":"2026-03-22T18:28:24.453673+05:30"},{"city":"Varanasi","state":"Uttar Pradesh","latitude":25.3176,"longitude":82.9739,"temp":25.6,"humidity":51,"rain":0.0,"pressure":1001.2,"uv_index":7.1,"wind_gusts":28.4,"aqi":109,"pm10":23.9,"pm2_5":19.6,"mosquito_risk":4,"arthritis_risk":5,"migraine_risk":4,"frizz_risk":0,"updated_at":"2026-03-22T18:28:24.453686+05:30"},{"city":"Prayagraj","state":"Uttar Pradesh","latitude":25.4358,"longitude":81.8463,"temp":25.7,"humidity":48,"rain":0.0,"pressure":999.6,"uv_index":7.5,"wind_gusts":24.8,"aqi":118,"pm10":39.5,"pm2_5":22.8,"mosquito_risk":4,"arthritis_risk":5,"migraine_risk":7,"frizz_risk":0,"updated_at":"2026-03-22T18:28:24.453693+05:30"},{"city":"Gorakhpur","state":"Uttar Pradesh","latitude":26.7606,"longitude":83.3732,"temp":23.9,"humidity":63,"rain":0.0,"pressure":1001.0,"uv_index":7.25,"wind_gusts":11.2,"aqi":159,"pm10":24.0,"pm2_5":20.1,"mosquito_risk":3,"arthritis_risk":5,"migraine_risk":4,"frizz_risk":1,"updated_at":"2026-03-22T18:28:24.453701+05:30"},{"city":"Bareilly","state":"Uttar Pradesh","latitude":28.367,"longitude":79.4304,"temp":24.3,"humidity":56,"rain":0.0,"pressure":989.4,"uv_index":6.65,"wind_gusts":29.5,"aqi":115,"pm10":53.7,"pm2_5":29.7,"mosquito_risk":0,"arthritis_risk":5,"migraine_risk":7,"frizz_risk":0,"updated_at":"2026-03-22T18:28:24.453707+05:30"},{"city":"Aligarh","state":"Uttar Pradesh","latitude":27.8974,"longitude":78.088,"temp":25.6,"humidity":49,"rain":0.0,"pressure":988.4,"uv_index":6.6,"wind_gusts":27.7,"aqi":297,"pm10":938.8,"pm2_5":112.9,"mosquito_risk":4,"arthritis_risk":5,"migraine_risk":7,"frizz_risk":0,"updated_at":"2026-03-22T18:28:24.453715+05:30"},{"city":"Moradabad","state":"Uttar Pradesh","latitude":28.8386,"longitude":78.7733,"temp":24.4,"humidity":55,"rain":0.0,"pressure":986.1,"uv_index":6.5,"wind_gusts":30.6,"aqi":136,"pm10":59.6,"pm2_5":29.5,"mosquito_risk":0,"arthritis_risk":5,"migraine_risk":7,"frizz_risk":0,"updated_at":"2026-03-22T18:28:24.453721+05:30"},{"city":"Saharanpur","state":"Uttar Pradesh","latitude":29.9637,"longitude":77.546,"temp":23.4,"humidity":53,"rain":0.0,"pressure":978.2,"uv_index":6.15,"wind_gusts":34.2,"aqi":145,"pm10":262.6,"pm2_5":55.6,"mosquito_risk":0,"arthritis_risk":5,"migraine_risk":7,"frizz_risk":0,"updated_at":"2026-03-22T18:28:24.453727+05:30"},{"city":"Jhansi","state":"Uttar Pradesh","latitude":25.4484,"longitude":78.5685,"temp":28.1,"humidity":36,"rain":0.0,"pressure":981.1,"uv_index":7.45,"wind_gusts":32.4,"aqi":89,"pm10":50.2,"pm2_5":16.6,"mosquito_risk":4,"arthritis_risk":5,"migraine_risk":7,"frizz_risk":0,"updated_at":"2026-03-22T18:28:27.673759+05:30"},{"city":"Surat","state":"Gujarat","latitude":21.1702,"longitude":72.8311,"temp":31.1,"humidity":38,"rain":0.0,"pressure":1008.1,"uv_index":7.65,"wind_gusts":24.5,"aqi":103,"pm10":49.8,"pm2_5":32.9,"mosquito_risk":0,"arthritis_risk":0,"migraine_risk":4,"frizz_risk":0,"updated_at":"2026-03-22T18:28:27.673796+05:30"},{"city":"Vadodara","state":"Gujarat","latitude":22.3072,"longitude":73.1812,"temp":33.7,"humidity":28,"rain":0.0,"pressure":1005.5,"uv_index":7.8,"wind_gusts":20.2,"aqi":121,"pm10":39.8,"pm2_5":20.1,"mosquito_risk":0,"arthritis_risk":5,"migraine_risk":4,"frizz_risk":0,"updated_at":"2026-03-22T18:28:27.673806+05:30"},{"city":"Rajkot","state":"Gujarat","latitude":22.3039,"longitude":70.8022,"temp":33.0,"humidity":30,"rain":0.0,"pressure":996.5,"uv_index":7.6,"wind_gusts":28.8,"aqi":64,"pm10":62.9,"pm2_5":18.4,"mosquito_risk":0,"arthritis_risk":5,"migraine_risk":7,"frizz_risk":0,"updated_at":"2026-03-22T18:28:27.673815+05:30"},{"city":"Thane","state":"Maharashtra","latitude":19.2183,"longitude":72.9781,"temp":30.4,"humidity":46,"rain":0.0,"pressure":1008.1,"uv_index":7.85,"wind_gusts":41.0,"aqi":173,"pm10":52.2,"pm2_5":39.3,"mosquito_risk":0,"arthritis_risk":0,"migraine_risk":4,"frizz_risk":1,"updated_at":"2026-03-22T18:28:27.673822+05:30"},{"city":"Nagpur","state":"Maharashtra","latitude":21.1458,"longitude":79.0882,"temp":31.3,"humidity":29,"rain":0.0,"pressure":974.8,"uv_index":8.35,"wind_gusts":19.4,"aqi":108,"pm10":24.0,"pm2_5":12.8,"mosquito_risk":0,"arthritis_risk":5,"migraine_risk":7,"frizz_risk":0,"updated_at":"2026-03-22T18:28:27.673830+05:30"},{"city":"Nashik","state":"Maharashtra","latitude":19.9975,"longitude":73.7898,"temp":30.3,"humidity":28,"rain":0.0,"pressure":946.7,"uv_index":8.1,"wind_gusts":28.8,"aqi":83,"pm10":23.1,"pm2_5":10.6,"mosquito_risk":0,"arthritis_risk":5,"migraine_risk":7,"frizz_risk":0,"updated_at":"2026-03-22T18:28:27.673837+05:30"},{"city":"Aurangabad","state":"Maharashtra","latitude":19.8762,"longitude":75.3433,"temp":31.0,"humidity":26,"rain":0.0,"pressure":945.2,"uv_index":8.6,"wind_gusts":28.4,"aqi":110,"pm10":17.8,"pm2_5":11.1,"mosquito_risk":0,"arthritis_risk":5,"migraine_risk":7,"frizz_risk":0,"updated_at":"2026-03-22T18:28:27.673845+05:30"},{"city":"Solapur","state":"Maharashtra","latitude":17.6599,"longitude":75.9064,"temp":33.3,"humidity":22,"rain":0.0,"pressure":957.2,"uv_index":8.75,"wind_gusts":24.5,"aqi":107,"pm10":26.1,"pm2_5":13.6,"mosquito_risk":0,"arthritis_risk":5,"migraine_risk":7,"frizz_risk":0,"updated_at":"2026-03-22T18:28:27.673852+05:30"},{"city":"Kolhapur","state":"Maharashtra","latitude":16.705,"longitude":74.2433,"temp":30.2,"humidity":36,"rain":0.0,"pressure":947.9,"uv_index":8.85,"wind_gusts":33.1,"aqi":105,"pm10":29.0,"pm2_5":20.4,"mosquito_risk":0,"arthritis_risk":5,"migraine_risk":7,"frizz_risk":0,"updated_at":"2026-03-22T18:28:27.673859+05:30"},{"city":"Goa","state":"Goa","latitude":15.2993,"longitude":74.124,"temp":29.1,"humidity":76,"rain":0.0,"pressure":997.5,"uv_index":8.85,"wind_gusts":35.3,"aqi":131,"pm10":35.3,"pm2_5":22.8,"mosquito_risk":7,"arthritis_risk":5,"migraine_risk":7,"frizz_risk":1,"updated_at":"2026-03-22T18:28:27.673866+05:30"},{"city":"Jodhpur","state":"Rajasthan","latitude":26.2389,"longitude":73.0243,"temp":27.2,"humidity":53,"rain":0.0,"pressure":986.7,"uv_index":7.55,"wind_gusts":39.2,"aqi":69,"pm10":106.9,"pm2_5":21.7,"mosquito_risk":4,"arthritis_risk":5,"migraine_risk":7,"frizz_risk":1,"updated_at":"2026-03-22T18:28:27.673873+05:30"},{"city":"Udaipur","state":"Rajasthan","latitude":24.5854,"longitude":73.7125,"temp":28.2,"humidity":33,"rain":0.0,"pressure":948.8,"uv_index":8.15,"wind_gusts":26.6,"aqi":72,"pm10":38.5,"pm2_5":11.6,"mosquito_risk":4,"arthritis_risk":5,"migraine_risk":7,"frizz_risk":0,"updated_at":"2026-03-22T18:28:27.673879+05:30"},{"city":"Kota","state":"Rajasthan","latitude":25.2138,"longitude":75.8648,"temp":31.2,"humidity":25,"rain":0.0,"pressure":980.4,"uv_index":7.4,"wind_gusts":12.6,"aqi":109,"pm10":37.4,"pm2_5":20.9,"mosquito_risk":0,"arthritis_risk":5,"migraine_risk":7,"frizz_risk":0,"updated_at":"2026-03-22T18:28:27.673886+05:30"},{"city":"Bikaner","state":"Rajasthan","latitude":28.0229,"longitude":73.3119,"temp":27.9,"humidity":46,"rain":0.0,"pressure":984.7,"uv_index":7.1,"wind_gusts":22.3,"aqi":70,"pm10":72.9,"pm2_5":18.5,"mosquito_risk":4,"arthritis_risk":5,"migraine_risk":7,"frizz_risk":0,"updated_at":"2026-03-22T18:28:27.673893+05:30"},{"city":"Ajmer","state":"Rajasthan","latitude":26.4499,"longitude":74.6399,"temp":28.7,"humidity":31,"rain":0.0,"pressure":956.8,"uv_index":7.35,"wind_gusts":25.9,"aqi":82,"pm10":39.6,"pm2_5":11.7,"mosquito_risk":4,"arthritis_risk":5,"migraine_risk":7,"frizz_risk":0,"updated_at":"2026-03-22T18:28:27.673899+05:30"},{"city":"Gwalior","state":"Madhya Pradesh","latitude":26.2183,"longitude":78.1828,"temp":28.0,"humidity":44,"rain":0.0,"pressure":986.3,"uv_index":7.15,"wind_gusts":29.9,"aqi":136,"pm10":49.4,"pm2_5":16.6,"mosquito_risk":4,"arthritis_risk":5,"migraine_risk":7,"frizz_risk":0,"updated_at":"2026-03-22T18:28:27.673905+05:30"},{"city":"Indore","state":"Madhya Pradesh","latitude":22.7196,"longitude":75.8577,"temp":28.2,"humidity":32,"rain":0.0,"pressure":949.9,"uv_index":8.05,"wind_gusts":17.6,"aqi":89,"pm10":26.8,"pm2_5":13.6,"mosquito_risk":4,"arthritis_risk":5,"migraine_risk":7,"frizz_risk":0,"updated_at":"2026-03-22T18:28:27.673912+05:30"},{"city":"Bhopal","state":"Madhya Pradesh","latitude":23.2599,"longitude":77.4126,"temp":28.4,"humidity":27,"rain":0.0,"pressure":956.0,"uv_index":7.9,"wind_gusts":25.9,"aqi":97,"pm10":27.8,"pm2_5":13.6,"mosquito_risk":4,"arthritis_risk":5,"migraine_risk":7,"frizz_risk":0,"updated_at":"2026-03-22T18:28:27.673918+05:30"},{"city":"Jabalpur","state":"Madhya Pradesh","latitude":23.1815,"longitude":79.9864,"temp":27.6,"humidity":38,"rain":0.0,"pressure":964.3,"uv_index":8.05,"wind_gusts":29.9,"aqi":89,"pm10":42.4,"pm2_5":16.2,"mosquito_risk":4,"arthritis_risk":5,"migraine_risk":7,"frizz_risk":0,"updated_at":"2026-03-22T18:28:27.673924+05:30"},{"city":"Ujjain","state":"Madhya Pradesh","latitude":23.1765,"longitude":75.7885,"temp":28.9,"humidity":41,"rain":0.0,"pressure":955.7,"uv_index":8.0,"wind_gusts":13.3,"aqi":78,"pm10":27.7,"pm2_5":13.8,"mosquito_risk":4,"arthritis_risk":5,"migraine_risk":7,"frizz_risk":0,"updated_at":"2026-03-22T18:28:27.673932+05:30"},{"city":"Visakhapatnam","state":"Andhra Pradesh","latitude":17.6868,"longitude":83.2185,"temp":27.6,"humidity":74,"rain":0.0,"pressure":1005.7,"uv_index":8.85,"wind_gusts":36.7,"aqi":82,"pm10":24.9,"pm2_5":18.5,"mosquito_risk":7,"arthritis_risk":5,"migraine_risk":4,"frizz_risk":1,"updated_at":"2026-03-22T18:28:27.673939+05:30"},{"city":"Vijayawada","state":"Andhra Pradesh","latitude":16.5062,"longitude":80.648,"temp":29.7,"humidity":64,"rain":0.0,"pressure":1003.8,"uv_index":8.9,"wind_gusts":18.7,"aqi":66,"pm10":28.4,"pm2_5":21.0,"mosquito_risk":7,"arthritis_risk":5,"migraine_risk":4,"frizz_risk":1,"updated_at":"2026-03-22T18:28:27.673946+05:30"},{"city":"Guntur","state":"Andhra Pradesh","latitude":16.3067,"longitude":80.4365,"temp":29.1,"humidity":66,"rain":0.0,"pressure":1005.2,"uv_index":8.9,"wind_gusts":19.4,"aqi":70,"pm10":30.3,"pm2_5":21.2,"mosquito_risk":7,"arthritis_risk":5,"migraine_risk":4,"frizz_risk":1,"updated_at":"2026-03-22T18:28:27.673953+05:30"},{"city":"Nellore","state":"Andhra Pradesh","latitude":14.4426,"longitude":79.9865,"temp":29.1,"humidity":65,"rain":0.0,"pressure":1007.2,"uv_index":9.05,"wind_gusts":27.7,"aqi":51,"pm10":16.4,"pm2_5":10.7,"mosquito_risk":7,"arthritis_risk":5,"migraine_risk":4,"frizz_risk":1,"updated_at":"2026-03-22T18:28:27.673961+05:30"},{"city":"Kurnool","state":"Andhra Pradesh","latitude":15.8281,"longitude":78.0373,"temp":34.5,"humidity":32,"rain":0.0,"pressure":976.3,"uv_index":8.9,"wind_gusts":20.2,"aqi":103,"pm10":39.9,"pm2_5":24.7,"mosquito_risk":0,"arthritis_risk":5,"migraine_risk":7,"frizz_risk":0,"updated_at":"2026-03-22T18:28:27.673968+05:30"},{"city":"Kakinada","state":"Andhra Pradesh","latitude":16.9891,"longitude":82.2475,"temp":28.6,"humidity":68,"rain":0.0,"pressure":1009.1,"uv_index":8.8,"wind_gusts":28.8,"aqi":41,"pm10":17.5,"pm2_5":10.8,"mosquito_risk":7,"arthritis_risk":0,"migraine_risk":4,"frizz_risk":1,"updated_at":"2026-03-22T18:28:27.673975+05:30"},{"city":"Tirupati","state":"Andhra Pradesh","latitude":13.6288,"longitude":79.4192,"temp":30.8,"humidity":49,"rain":0.0,"pressure":992.0,"uv_index":9.2,"wind_gusts":28.4,"aqi":74,"pm10":23.9,"pm2_5":16.8,"mosquito_risk":0,"arthritis_risk":5,"migraine_risk":7,"frizz_risk":1,"updated_at":"2026-03-22T18:28:27.673981+05:30"},{"city":"Warangal","state":"Telangana","latitude":17.9689,"longitude":79.5941,"temp":30.7,"humidity":48,"rain":0.0,"pressure":979.8,"uv_index":8.75,"wind_gusts":21.2,"aqi":128,"pm10":45.1,"pm2_5":29.3,"mosquito_risk":0,"arthritis_risk":5,"migraine_risk":7,"frizz_risk":1,"updated_at":"2026-03-22T18:28:27.673987+05:30"},{"city":"Nizamabad","state":"Telangana","latitude":18.6725,"longitude":78.0941,"temp":31.1,"humidity":37,"rain":0.0,"pressure":965.3,"uv_index":8.65,"wind_gusts":27.4,"aqi":116,"pm10":20.4,"pm2_5":13.6,"mosquito_risk":0,"arthritis_risk":5,"migraine_risk":7,"frizz_risk":0,"updated_at":"2026-03-22T18:28:27.673994+05:30"},{"city":"Mysore","state":"Karnataka","latitude":12.2958,"longitude":76.6396,"temp":29.4,"humidity":45,"rain":0.0,"pressure":928.6,"uv_index":9.4,"wind_gusts":37.4,"aqi":130,"pm10":36.3,"pm2_5":25.3,"mosquito_risk":4,"arthritis_risk":5,"migraine_risk":7,"frizz_risk":1,"updated_at":"2026-03-22T18:28:27.674001+05:30"},{"city":"Mangalore","state":"Karnataka","latitude":12.9141,"longitude":74.856,"temp":29.3,"humidity":75,"rain":0.0,"pressure":1006.3,"uv_index":9.05,"wind_gusts":28.4,"aqi":102,"pm10":37.4,"pm2_5":20.4,"mosquito_risk":7,"arthritis_risk":5,"migraine_risk":4,"frizz_risk":1,"updated_at":"2026-03-22T18:28:27.674007+05:30"},{"city":"Hubli-Dharwad","state":"Karnataka","latitude":15.3647,"longitude":75.124,"temp":32.0,"humidity":30,"rain":0.0,"pressure":940.5,"uv_index":9.05,"wind_gusts":26.3,"aqi":152,"pm10":27.1,"pm2_5":17.2,"mosquito_risk":0,"arthritis_risk":5,"migraine_risk":7,"frizz_risk":0,"updated_at":"2026-03-22T18:28:27.674014+05:30"},{"city":"Belgaum","state":"Karnataka","latitude":15.8497,"longitude":74.4977,"temp":29.1,"humidity":45,"rain":0.0,"pressure":925.8,"uv_index":9.1,"wind_gusts":35.3,"aqi":136,"pm10":29.8,"pm2_5":17.9,"mosquito_risk":4,"arthritis_risk":5,"migraine_risk":7,"frizz_risk":0,"updated_at":"2026-03-22T18:28:30.897830+05:30"},{"city":"Coimbatore","state":"Tamil Nadu","latitude":11.0168,"longitude":76.9558,"temp":32.1,"humidity":36,"rain":0.0,"pressure":961.3,"uv_index":9.3,"wind_gusts":33.5,"aqi":115,"pm10":33.1,"pm2_5":23.1,"mosquito_risk":0,"arthritis_risk":5,"migraine_risk":7,"frizz_risk":0,"updated_at":"2026-03-22T18:28:30.897867+05:30"},{"city":"Madurai","state":"Tamil Nadu","latitude":9.9252,"longitude":78.1198,"temp":33.5,"humidity":40,"rain":0.0,"pressure":992.4,"uv_index":9.35,"wind_gusts":29.5,"aqi":67,"pm10":22.5,"pm2_5":13.8,"mosquito_risk":0,"arthritis_risk":5,"migraine_risk":7,"frizz_risk":1,"updated_at":"2026-03-22T18:28:30.897878+05:30"},{"city":"Trichy","state":"Tamil Nadu","latitude":10.7905,"longitude":78.7047,"temp":32.7,"humidity":47,"rain":0.0,"pressure":999.3,"uv_index":9.25,"wind_gusts":23.8,"aqi":64,"pm10":21.7,"pm2_5":15.4,"mosquito_risk":0,"arthritis_risk":5,"migraine_risk":7,"frizz_risk":1,"updated_at":"2026-03-22T18:28:30.897887+05:30"},{"city":"Salem","state":"Tamil Nadu","latitude":11.6643,"longitude":78.146,"temp":32.7,"humidity":39,"rain":0.0,"pressure":976.8,"uv_index":9.3,"wind_gusts":21.2,"aqi":98,"pm10":34.1,"pm2_5":23.1,"mosquito_risk":0,"arthritis_risk":5,"migraine_risk":7,"frizz_risk":1,"updated_at":"2026-03-22T18:28:30.897894+05:30"},{"city":"Tirunelveli","state":"Tamil Nadu","latitude":8.7139,"longitude":77.7567,"temp":32.8,"humidity":37,"rain":0.0,"pressure":1002.8,"uv_index":9.3,"wind_gusts":33.1,"aqi":91,"pm10":18.9,"pm2_5":13.3,"mosquito_risk":0,"arthritis_risk":5,"migraine_risk":4,"frizz_risk":1,"updated_at":"2026-03-22T18:28:30.897902+05:30"},{"city":"Vellore","state":"Tamil Nadu","latitude":12.9165,"longitude":79.1325,"temp":30.8,"humidity":48,"rain":0.0,"pressure":984.8,"uv_index":9.25,"wind_gusts":34.9,"aqi":94,"pm10":23.6,"pm2_5":16.6,"mosquito_risk":0,"arthritis_risk":5,"migraine_risk":7,"frizz_risk":1,"updated_at":"2026-03-22T18:28:30.897910+05:30"},{"city":"Erode","state":"Tamil Nadu","latitude":11.341,"longitude":77.7172,"temp":33.7,"humidity":39,"rain":0.0,"pressure":988.1,"uv_index":9.3,"wind_gusts":32.8,"aqi":81,"pm10":26.7,"pm2_5":17.8,"mosquito_risk":0,"arthritis_risk":5,"migraine_risk":7,"frizz_risk":1,"updated_at":"2026-03-22T18:28:30.897917+05:30"},{"city":"Kochi","state":"Kerala","latitude":9.9312,"longitude":76.2673,"temp":29.6,"humidity":74,"rain":0.0,"pressure":1007.9,"uv_index":9.15,"wind_gusts":34.9,"aqi":115,"pm10":30.0,"pm2_5":21.4,"mosquito_risk":7,"arthritis_risk":5,"migraine_risk":4,"frizz_risk":1,"updated_at":"2026-03-22T18:28:30.897924+05:30"},{"city":"Thiruvananthapuram","state":"Kerala","latitude":8.5241,"longitude":76.9366,"temp":29.0,"humidity":77,"rain":0.0,"pressure":1007.8,"uv_index":9.15,"wind_gusts":26.3,"aqi":107,"pm10":16.7,"pm2_5":13.1,"mosquito_risk":7,"arthritis_risk":5,"migraine_risk":4,"frizz_risk":1,"updated_at":"2026-03-22T18:28:30.897931+05:30"},{"city":"Kozhikode","state":"Kerala","latitude":11.2588,"longitude":75.7804,"temp":29.9,"humidity":74,"rain":0.0,"pressure":1007.1,"uv_index":9.1,"wind_gusts":31.0,"aqi":61,"pm10":30.9,"pm2_5":16.8,"mosquito_risk":7,"arthritis_risk":5,"migraine_risk":4,"frizz_risk":1,"updated_at":"2026-03-22T18:28:30.897938+05:30"},{"city":"Thrissur","state":"Kerala","latitude":10.5276,"longitude":76.2144,"temp":30.1,"humidity":71,"rain":0.0,"pressure":1006.3,"uv_index":9.1,"wind_gusts":38.2,"aqi":92,"pm10":33.5,"pm2_5":23.4,"mosquito_risk":3,"arthritis_risk":5,"migraine_risk":4,"frizz_risk":1,"updated_at":"2026-03-22T18:28:30.897946+05:30"},{"city":"Kannur","state":"Kerala","latitude":11.8745,"longitude":75.3704,"temp":29.8,"humidity":74,"rain":0.0,"pressure":1006.8,"uv_index":9.05,"wind_gusts":34.9,"aqi":67,"pm10":36.1,"pm2_5":19.1,"mosquito_risk":7,"arthritis_risk":5,"migraine_risk":4,"frizz_risk":1,"updated_at":"2026-03-22T18:28:30.897953+05:30"},{"city":"Patna","state":"Bihar","latitude":25.5941,"longitude":85.1376,"temp":24.9,"humidity":52,"rain":0.0,"pressure":1004.2,"uv_index":7.55,"wind_gusts":19.1,"aqi":161,"pm10":39.3,"pm2_5":35.2,"mosquito_risk":0,"arthritis_risk":5,"migraine_risk":4,"frizz_risk":0,"updated_at":"2026-03-22T18:28:30.897961+05:30"},{"city":"Gaya","state":"Bihar","latitude":24.7914,"longitude":85.0002,"temp":24.0,"humidity":62,"rain":0.0,"pressure":997.6,"uv_index":7.5,"wind_gusts":21.6,"aqi":144,"pm10":30.2,"pm2_5":24.7,"mosquito_risk":3,"arthritis_risk":5,"migraine_risk":7,"frizz_risk":1,"updated_at":"2026-03-22T18:28:30.897967+05:30"},{"city":"Muzaffarpur","state":"Bihar","latitude":26.1209,"longitude":85.3647,"temp":23.4,"humidity":62,"rain":0.0,"pressure":1004.2,"uv_index":6.15,"wind_gusts":11.5,"aqi":163,"pm10":41.6,"pm2_5":36.8,"mosquito_risk":3,"arthritis_risk":5,"migraine_risk":4,"frizz_risk":0,"updated_at":"2026-03-22T18:28:30.897974+05:30"},{"city":"Bhagalpur","state":"Bihar","latitude":25.2425,"longitude":87.0117,"temp":23.3,"humidity":67,"rain":0.0,"pressure":1004.9,"uv_index":7.05,"wind_gusts":17.3,"aqi":155,"pm10":46.9,"pm2_5":41.4,"mosquito_risk":3,"arthritis_risk":5,"migraine_risk":4,"frizz_risk":1,"updated_at":"2026-03-22T18:28:30.897981+05:30"},{"city":"Ranchi","state":"Jharkhand","latitude":23.3441,"longitude":85.3096,"temp":23.0,"humidity":41,"rain":0.0,"pressure":940.1,"uv_index":8.45,"wind_gusts":29.5,"aqi":118,"pm10":48.0,"pm2_5":20.8,"mosquito_risk":0,"arthritis_risk":5,"migraine_risk":7,"frizz_risk":0,"updated_at":"2026-03-22T18:28:30.897988+05:30"},{"city":"Jamshedpur","state":"Jharkhand","latitude":22.8046,"longitude":86.2029,"temp":27.5,"humidity":37,"rain":0.0,"pressure":993.6,"uv_index":8.35,"wind_gusts":19.1,"aqi":119,"pm10":43.8,"pm2_5":18.7,"mosquito_risk":4,"arthritis_risk":5,"migraine_risk":7,"frizz_risk":0,"updated_at":"2026-03-22T18:28:30.897994+05:30"},{"city":"Dhanbad","state":"Jharkhand","latitude":23.7957,"longitude":86.4304,"temp":25.4,"humidity":43,"rain":0.0,"pressure":982.8,"uv_index":8.2,"wind_gusts":23.8,"aqi":137,"pm10":39.8,"pm2_5":28.9,"mosquito_risk":4,"arthritis_risk":5,"migraine_risk":7,"frizz_risk":0,"updated_at":"2026-03-22T18:28:30.898000+05:30"},{"city":"Bokaro","state":"Jharkhand","latitude":23.6693,"longitude":86.1511,"temp":25.2,"humidity":45,"rain":0.0,"pressure":986.8,"uv_index":8.2,"wind_gusts":24.5,"aqi":134,"pm10":48.9,"pm2_5":29.8,"mosquito_risk":4,"arthritis_risk":5,"migraine_risk":7,"frizz_risk":0,"updated_at":"2026-03-22T18:28:30.898007+05:30"},{"city":"Bhubaneswar","state":"Odisha","latitude":20.2961,"longitude":85.8245,"temp":28.4,"humidity":62,"rain":0.0,"pressure":1004.6,"uv_index":8.65,"wind_gusts":28.4,"aqi":142,"pm10":41.2,"pm2_5":35.6,"mosquito_risk":7,"arthritis_risk":5,"migraine_risk":4,"frizz_risk":1,"updated_at":"2026-03-22T18:28:30.898013+05:30"},{"city":"Cuttack","state":"Odisha","latitude":20.4625,"longitude":85.8828,"temp":29.7,"humidity":44,"rain":0.0,"pressure":1006.0,"uv_index":8.65,"wind_gusts":20.9,"aqi":142,"pm10":41.2,"pm2_5":35.6,"mosquito_risk":4,"arthritis_risk":5,"migraine_risk":4,"frizz_risk":1,"updated_at":"2026-03-22T18:28:30.898019+05:30"},{"city":"Rourkela","state":"Odisha","latitude":22.2604,"longitude":84.8536,"temp":27.5,"humidity":38,"rain":0.0,"pressure":987.8,"uv_index":8.2,"wind_gusts":20.5,"aqi":123,"pm10":30.6,"pm2_5":15.8,"mosquito_risk":4,"arthritis_risk":5,"migraine_risk":7,"frizz_risk":0,"updated_at":"2026-03-22T18:28:30.898025+05:30"},{"city":"Raipur","state":"Chhattisgarh","latitude":21.2514,"longitude":81.6296,"temp":31.1,"humidity":28,"rain":0.0,"pressure":976.3,"uv_index":8.4,"wind_gusts":23.0,"aqi":95,"pm10":34.7,"pm2_5":21.9,"mosquito_risk":0,"arthritis_risk":5,"migraine_risk":7,"frizz_risk":0,"updated_at":"2026-03-22T18:28:30.898031+05:30"},{"city":"Bhilai","state":"Chhattisgarh","latitude":21.1938,"longitude":81.3509,"temp":30.5,"humidity":23,"rain":0.0,"pressure":976.7,"uv_index":8.4,"wind_gusts":16.9,"aqi":79,"pm10":32.2,"pm2_5":18.6,"mosquito_risk":0,"arthritis_risk":5,"migraine_risk":7,"frizz_risk":0,"updated_at":"2026-03-22T18:28:30.898038+05:30"},{"city":"Guwahati","state":"Assam","latitude":26.1158,"longitude":91.7086,"temp":23.3,"humidity":76,"rain":0.0,"pressure":1004.1,"uv_index":7.6,"wind_gusts":20.5,"aqi":87,"pm10":28.9,"pm2_5":25.1,"mosquito_risk":3,"arthritis_risk":5,"migraine_risk":4,"frizz_risk":1,"updated_at":"2026-03-22T18:28:30.898043+05:30"},{"city":"Agartala","state":"Tripura","latitude":23.8315,"longitude":91.2868,"temp":24.6,"humidity":61,"rain":0.0,"pressure":1009.0,"uv_index":7.85,"wind_gusts":22.0,"aqi":135,"pm10":46.7,"pm2_5":42.0,"mosquito_risk":3,"arthritis_risk":0,"migraine_risk":4,"frizz_risk":1,"updated_at":"2026-03-22T18:28:30.898049+05:30"},{"city":"Shillong","state":"Meghalaya","latitude":25.5788,"longitude":91.8933,"temp":12.2,"humidity":82,"rain":0.0,"pressure":855.7,"uv_index":6.7,"wind_gusts":24.8,"aqi":74,"pm10":22.4,"pm2_5":19.3,"mosquito_risk":3,"arthritis_risk":10,"migraine_risk":7,"frizz_risk":0,"updated_at":"2026-03-22T18:28:30.898055+05:30"},{"city":"Imphal","state":"Manipur","latitude":24.817,"longitude":93.9368,"temp":15.3,"humidity":84,"rain":0.0,"pressure":924.1,"uv_index":8.15,"wind_gusts":51.5,"aqi":68,"pm10":10.7,"pm2_5":9.7,"mosquito_risk":3,"arthritis_risk":10,"migraine_risk":7,"frizz_risk":0,"updated_at":"2026-03-22T18:28:30.898062+05:30"},{"city":"Aizawl","state":"Mizoram","latitude":23.7271,"longitude":92.7176,"temp":16.5,"humidity":81,"rain":0.0,"pressure":893.7,"uv_index":8.2,"wind_gusts":44.6,"aqi":60,"pm10":13.0,"pm2_5":11.7,"mosquito_risk":3,"arthritis_risk":10,"migraine_risk":7,"frizz_risk":0,"updated_at":"2026-03-22T18:28:30.898068+05:30"},{"city":"Kohima","state":"Nagaland","latitude":25.6701,"longitude":94.1077,"temp":12.5,"humidity":98,"rain":0.0,"pressure":854.4,"uv_index":7.8,"wind_gusts":56.9,"aqi":61,"pm10":10.4,"pm2_5":9.4,"mosquito_risk":3,"arthritis_risk":10,"migraine_risk":7,"frizz_risk":0,"updated_at":"2026-03-22T18:28:30.898074+05:30"},{"city":"Gangtok","state":"Sikkim","latitude":27.3314,"longitude":88.6138,"temp":13.1,"humidity":82,"rain":0.0,"pressure":837.0,"uv_index":7.85,"wind_gusts":19.4,"aqi":93,"pm10":17.6,"pm2_5":16.8,"mosquito_risk":3,"arthritis_risk":10,"migraine_risk":7,"frizz_risk":0,"updated_at":"2026-03-22T18:28:30.898080+05:30"},{"city":"Siliguri","state":"West Bengal","latitude":26.7271,"longitude":88.3953,"temp":19.1,"humidity":71,"rain":0.0,"pressure":996.7,"uv_index":7.45,"wind_gusts":17.3,"aqi":105,"pm10":26.3,"pm2_5":25.0,"mosquito_risk":3,"arthritis_risk":5,"migraine_risk":7,"frizz_risk":0,"updated_at":"2026-03-22T18:28:34.153969+05:30"},{"city":"Durgapur","state":"West Bengal","latitude":23.5204,"longitude":87.3119,"temp":25.8,"humidity":47,"rain":0.0,"pressure":998.3,"uv_index":8.1,"wind_gusts":18.4,"aqi":121,"pm10":33.9,"pm2_5":29.0,"mosquito_risk":4,"arthritis_risk":5,"migraine_risk":7,"frizz_risk":0,"updated_at":"2026-03-22T18:28:34.154006+05:30"},{"city":"Asansol","state":"West Bengal","latitude":23.6739,"longitude":86.9524,"temp":25.7,"humidity":46,"rain":0.0,"pressure":996.8,"uv_index":8.2,"wind_gusts":20.5,"aqi":118,"pm10":32.9,"pm2_5":26.4,"mosquito_risk":4,"arthritis_risk":5,"migraine_risk":7,"frizz_risk":0,"updated_at":"2026-03-22T18:28:34.154016+05:30"},{"city":"Pondicherry","state":"Puducherry","latitude":11.9139,"longitude":79.8145,"temp":28.8,"humidity":70,"rain":0.0,"pressure":1009.2,"uv_index":9.15,"wind_gusts":28.8,"aqi":36,"pm10":13.4,"pm2_5":7.6,"mosquito_risk":7,"arthritis_risk":0,"migraine_risk":4,"frizz_risk":1,"updated_at":"2026-03-22T18:28:34.154025+05:30"},{"city":"Port Blair","state":"Andaman and Nicobar Islands","latitude":11.6234,"longitude":92.7265,"temp":28.6,"humidity":78,"rain":0.0,"pressure":1008.3,"uv_index":9.1,"wind_gusts":20.9,"aqi":44,"pm10":12.2,"pm2_5":9.1,"mosquito_risk":7,"arthritis_risk":0,"migraine_risk":4,"frizz_risk":1,"updated_at":"2026-03-22T18:28:34.154034+05:30"},{"city":"Haridwar","state":"Uttarakhand","latitude":29.9457,"longitude":78.1642,"temp":23.8,"humidity":50,"rain":0.0,"pressure":976.7,"uv_index":6.25,"wind_gusts":25.9,"aqi":124,"pm10":117.3,"pm2_5":36.7,"mosquito_risk":0,"arthritis_risk":5,"migraine_risk":7,"frizz_risk":0,"updated_at":"2026-03-22T18:28:34.154043+05:30"},{"city":"Rishikesh","state":"Uttarakhand","latitude":30.0869,"longitude":78.2676,"temp":23.5,"humidity":55,"rain":0.0,"pressure":969.4,"uv_index":6.3,"wind_gusts":25.6,"aqi":120,"pm10":50.8,"pm2_5":28.5,"mosquito_risk":0,"arthritis_risk":5,"migraine_risk":7,"frizz_risk":0,"updated_at":"2026-03-22T18:28:34.154051+05:30"},{"city":"Nainital","state":"Uttarakhand","latitude":29.3919,"longitude":79.4542,"temp":15.7,"humidity":66,"rain":0.0,"pressure":806.0,"uv_index":7.15,"wind_gusts":37.8,"aqi":124,"pm10":34.1,"pm2_5":29.7,"mosquito_risk":3,"arthritis_risk":5,"migraine_risk":7,"frizz_risk":0,"updated_at":"2026-03-22T18:28:34.154059+05:30"},{"city":"Mussoorie","state":"Uttarakhand","latitude":30.4599,"longitude":78.0664,"temp":14.3,"humidity":69,"rain":0.0,"pressure":802.7,"uv_index":6.65,"wind_gusts":25.9,"aqi":126,"pm10":50.6,"pm2_5":30.3,"mosquito_risk":3,"arthritis_risk":5,"migraine_risk":7,"frizz_risk":0,"updated_at":"2026-03-22T18:28:34.154067+05:30"},{"city":"Dharamshala","state":"Himachal Pradesh","latitude":32.219,"longitude":76.3234,"temp":16.9,"humidity":74,"rain":0.0,"pressure":870.0,"uv_index":6.75,"wind_gusts":20.9,"aqi":126,"pm10":26.5,"pm2_5":20.4,"mosquito_risk":3,"arthritis_risk":5,"migraine_risk":7,"frizz_risk":0,"updated_at":"2026-03-22T18:28:34.154074+05:30"},{"city":"Dalhousie","state":"Himachal Pradesh","latitude":32.5387,"longitude":75.971,"temp":14.8,"humidity":72,"rain":0.0,"pressure":804.1,"uv_index":7.0,"wind_gusts":19.1,"aqi":109,"pm10":33.6,"pm2_5":29.0,"mosquito_risk":3,"arthritis_risk":5,"migraine_risk":7,"frizz_risk":0,"updated_at":"2026-03-22T18:28:34.154082+05:30"},{"city":"Patiala","state":"Punjab","latitude":30.3398,"longitude":76.3869,"temp":23.1,"humidity":58,"rain":0.0,"pressure":981.3,"uv_index":6.3,"wind_gusts":31.3,"aqi":152,"pm10":687.3,"pm2_5":90.6,"mosquito_risk":0,"arthritis_risk":5,"migraine_risk":7,"frizz_risk":0,"updated_at":"2026-03-22T18:28:34.154090+05:30"},{"city":"Bhatinda","state":"Punjab","latitude":30.211,"longitude":74.9455,"temp":24.9,"humidity":55,"rain":0.0,"pressure":986.8,"uv_index":6.9,"wind_gusts":19.4,"aqi":151,"pm10":97.8,"pm2_5":38.8,"mosquito_risk":0,"arthritis_risk":5,"migraine_risk":7,"frizz_risk":0,"updated_at":"2026-03-22T18:28:34.154097+05:30"},{"city":"Rohtak","state":"Haryana","latitude":28.8955,"longitude":76.6066,"temp":25.3,"humidity":54,"rain":0.0,"pressure":984.8,"uv_index":6.45,"wind_gusts":24.8,"aqi":185,"pm10":577.4,"pm2_5":75.7,"mosquito_risk":4,"arthritis_risk":5,"migraine_risk":7,"frizz_risk":0,"updated_at":"2026-03-22T18:28:34.154105+05:30"},{"city":"Panipat","state":"Haryana","latitude":29.3909,"longitude":76.9635,"temp":24.0,"humidity":57,"rain":0.0,"pressure":983.2,"uv_index":6.25,"wind_gusts":29.5,"aqi":412,"pm10":1251.7,"pm2_5":139.2,"mosquito_risk":0,"arthritis_risk":5,"migraine_risk":7,"frizz_risk":0,"updated_at":"2026-03-22T18:28:34.154111+05:30"},{"city":"Mathura","state":"Uttar Pradesh","latitude":27.4924,"longitude":77.6737,"temp":26.5,"humidity":48,"rain":0.0,"pressure":989.7,"uv_index":6.6,"wind_gusts":28.1,"aqi":428,"pm10":426.5,"pm2_5":55.9,"mosquito_risk":4,"arthritis_risk":5,"migraine_risk":7,"frizz_risk":0,"updated_at":"2026-03-22T18:28:34.154118+05:30"},{"city":"Vrindavan","state":"Uttar Pradesh","latitude":27.5823,"longitude":77.7027,"temp":26.4,"humidity":48,"rain":0.0,"pressure":990.2,"uv_index":6.45,"wind_gusts":28.1,"aqi":428,"pm10":426.5,"pm2_5":55.9,"mosquito_risk":4,"arthritis_risk":5,"migraine_risk":7,"frizz_risk":0,"updated_at":"2026-03-22T18:28:34.154124+05:30"},{"city":"Ayodhya","state":"Uttar Pradesh","latitude":26.7922,"longitude":82.1998,"temp":25.5,"humidity":52,"rain":0.0,"pressure":998.5,"uv_index":7.0,"wind_gusts":18.7,"aqi":99,"pm10":21.9,"pm2_5":19.3,"mosquito_risk":4,"arthritis_risk":5,"migraine_risk":7,"frizz_risk":0,"updated_at":"2026-03-22T18:28:34.154130+05:30"},{"city":"Ratlam","state":"Madhya Pradesh","latitude":23.3315,"longitude":75.0367,"temp":29.3,"humidity":39,"rain":0.0,"pressure":956.3,"uv_index":7.95,"wind_gusts":14.4,"aqi":79,"pm10":26.1,"pm2_5":11.5,"mosquito_risk":4,"arthritis_risk":5,"migraine_risk":7,"frizz_risk":0,"updated_at":"2026-03-22T18:28:34.154137+05:30"},{"city":"Sagar","state":"Madhya Pradesh","latitude":23.8388,"longitude":78.7378,"temp":27.3,"humidity":36,"rain":0.0,"pressure":952.7,"uv_index":7.95,"wind_gusts":29.9,"aqi":100,"pm10":36.1,"pm2_5":15.5,"mosquito_risk":4,"arthritis_risk":5,"migraine_risk":7,"frizz_risk":0,"updated_at":"2026-03-22T18:28:34.154143+05:30"},{"city":"Satna","state":"Madhya Pradesh","latitude":24.6005,"longitude":80.8322,"temp":26.2,"humidity":40,"rain":0.0,"pressure":974.4,"uv_index":7.9,"wind_gusts":32.4,"aqi":107,"pm10":54.6,"pm2_5":17.5,"mosquito_risk":4,"arthritis_risk":5,"migraine_risk":7,"frizz_risk":0,"updated_at":"2026-03-22T18:28:34.154149+05:30"},{"city":"Akola","state":"Maharashtra","latitude":20.7002,"longitude":77.0082,"temp":31.5,"humidity":31,"rain":0.0,"pressure":976.5,"uv_index":8.3,"wind_gusts":21.2,"aqi":113,"pm10":20.1,"pm2_5":13.4,"mosquito_risk":0,"arthritis_risk":5,"migraine_risk":7,"frizz_risk":0,"updated_at":"2026-03-22T18:28:34.154156+05:30"},{"city":"Amravati","state":"Maharashtra","latitude":20.9374,"longitude":77.7796,"temp":31.5,"humidity":27,"rain":0.0,"pressure":968.7,"uv_index":8.3,"wind_gusts":22.3,"aqi":111,"pm10":18.6,"pm2_5":11.5,"mosquito_risk":0,"arthritis_risk":5,"migraine_risk":7,"frizz_risk":0,"updated_at":"2026-03-22T18:28:34.154163+05:30"},{"city":"Latur","state":"Maharashtra","latitude":18.4088,"longitude":76.5604,"temp":30.8,"humidity":27,"rain":0.0,"pressure":940.4,"uv_index":8.7,"wind_gusts":28.8,"aqi":105,"pm10":20.8,"pm2_5":14.1,"mosquito_risk":0,"arthritis_risk":5,"migraine_risk":7,"frizz_risk":0,"updated_at":"2026-03-22T18:28:34.154170+05:30"},{"city":"Nanded","state":"Maharashtra","latitude":19.1383,"longitude":77.3091,"temp":33.0,"humidity":22,"rain":0.0,"pressure":969.3,"uv_index":8.5,"wind_gusts":28.4,"aqi":115,"pm10":16.1,"pm2_5":10.0,"mosquito_risk":0,"arthritis_risk":5,"migraine_risk":7,"frizz_risk":0,"updated_at":"2026-03-22T18:28:34.154176+05:30"},{"city":"Gulbarga","state":"Karnataka","latitude":17.3297,"longitude":76.8343,"temp":34.2,"humidity":23,"rain":0.0,"pressure":958.4,"uv_index":8.75,"wind_gusts":18.4,"aqi":120,"pm10":36.7,"pm2_5":21.3,"mosquito_risk":0,"arthritis_risk":5,"migraine_risk":7,"frizz_risk":0,"updated_at":"2026-03-22T18:28:34.154182+05:30"},{"city":"Bidar","state":"Karnataka","latitude":17.9104,"longitude":77.5199,"temp":32.1,"humidity":26,"rain":0.0,"pressure":935.9,"uv_index":8.75,"wind_gusts":20.5,"aqi":115,"pm10":32.6,"pm2_5":20.8,"mosquito_risk":0,"arthritis_risk":5,"migraine_risk":7,"frizz_risk":0,"updated_at":"2026-03-22T18:28:34.154189+05:30"},{"city":"Hospet","state":"Karnataka","latitude":15.2689,"longitude":76.3909,"temp":33.9,"humidity":28,"rain":0.0,"pressure":955.1,"uv_index":9.0,"wind_gusts":15.1,"aqi":177,"pm10":34.8,"pm2_5":25.8,"mosquito_risk":0,"arthritis_risk":5,"migraine_risk":7,"frizz_risk":0,"updated_at":"2026-03-22T18:28:34.154195+05:30"},{"city":"Tirupur","state":"Tamil Nadu","latitude":11.1085,"longitude":77.3411,"temp":33.6,"humidity":32,"rain":0.0,"pressure":974.6,"uv_index":9.4,"wind_gusts":31.0,"aqi":107,"pm10":29.6,"pm2_5":19.8,"mosquito_risk":0,"arthritis_risk":5,"migraine_risk":7,"frizz_risk":0,"updated_at":"2026-03-22T18:28:34.154201+05:30"},{"city":"Alappuzha","state":"Kerala","latitude":9.4981,"longitude":76.3388,"temp":29.4,"humidity":76,"rain":0.0,"pressure":1008.2,"uv_index":9.15,"wind_gusts":33.5,"aqi":127,"pm10":22.2,"pm2_5":16.2,"mosquito_risk":7,"arthritis_risk":0,"migraine_risk":4,"frizz_risk":1,"updated_at":"2026-03-22T18:28:34.154208+05:30"},{"city":"Munnar","state":"Kerala","latitude":10.0889,"longitude":77.0595,"temp":25.2,"humidity":63,"rain":0.0,"pressure":858.2,"uv_index":8.65,"wind_gusts":26.6,"aqi":81,"pm10":28.9,"pm2_5":18.5,"mosquito_risk":7,"arthritis_risk":5,"migraine_risk":7,"frizz_risk":1,"updated_at":"2026-03-22T18:28:34.154215+05:30"},{"city":"Silchar","state":"Assam","latitude":24.8333,"longitude":92.7789,"temp":22.4,"humidity":83,"rain":0.0,"pressure":1008.4,"uv_index":7.95,"wind_gusts":22.7,"aqi":85,"pm10":28.7,"pm2_5":25.4,"mosquito_risk":3,"arthritis_risk":0,"migraine_risk":4,"frizz_risk":1,"updated_at":"2026-03-22T18:28:34.154221+05:30"},{"city":"Dibrugarh","state":"Assam","latitude":27.4728,"longitude":94.912,"temp":21.3,"humidity":85,"rain":0.0,"pressure":998.8,"uv_index":4.5,"wind_gusts":28.4,"aqi":133,"pm10":27.2,"pm2_5":24.6,"mosquito_risk":3,"arthritis_risk":5,"migraine_risk":3,"frizz_risk":1,"updated_at":"2026-03-22T18:28:34.154227+05:30"}]