[{"city":"Delhi","state":"Delhi","latitude":28.6139,"longitude":77.209,"temp":31.0,"humidity":24,"rain":0.0,"pressure":982.7,"uv_index":5.8,"wind_gusts":24.5,"aqi":418,"pm10":231.4,"pm2_5":35.3,"mosquito_risk":0,"arthritis_risk":5,"migraine_risk":3,"frizz_risk":0,"updated_at":"2026-03-14T16:02:45.011792+05:30"},{"city":"Mumbai","state":"Maharashtra","latitude":19.076,"longitude":72.8777,"temp":28.2,"humidity":76,"rain":0.0,"pressure":1008.2,"uv_index":7.7,"wind_gusts":18.4,"aqi":184,"pm10":49.6,"pm2_5":38.5,"mosquito_risk":7,"arthritis_risk":0,"migraine_risk":4,"frizz_risk":1,"updated_at":"2026-03-14T16:02:45.011832+05:30"},{"city":"Bangalore","state":"Karnataka","latitude":12.9716,"longitude":77.5946,"temp":32.1,"humidity":25,"rain":0.0,"pressure":912.0,"uv_index":9.3,"wind_gusts":32.8,"aqi":103,"pm10":39.7,"pm2_5":30.9,"mosquito_risk":0,"arthritis_risk":5,"migraine_risk":7,"frizz_risk":0,"updated_at":"2026-03-14T16:02:45.011847+05:30"},{"city":"Hyderabad","state":"Telangana","latitude":17.385,"longitude":78.4867,"temp":36.0,"humidity":20,"rain":0.0,"pressure":952.8,"uv_index":8.7,"wind_gusts":30.2,"aqi":103,"pm10":45.6,"pm2_5":30.3,"mosquito_risk":0,"arthritis_risk":5,"migraine_risk":10,"frizz_risk":0,"updated_at":"2026-03-14T16:02:45.011858+05:30"},{"city":"Chennai","state":"Tamil Nadu","latitude":13.0827,"longitude":80.2707,"temp":32.0,"humidity":51,"rain":0.0,"pressure":1008.2,"uv_index":9.05,"wind_gusts":32.0,"aqi":58,"pm10":17.5,"pm2_5":13.4,"mosquito_risk":0,"arthritis_risk":0,"migraine_risk":4,"frizz_risk":1,"updated_at":"2026-03-14T16:02:45.011866+05:30"},{"city":"Kolkata","state":"West Bengal","latitude":22.5726,"longitude":88.3639,"temp":30.5,"humidity":63,"rain":0.0,"pressure":1006.1,"uv_index":8.1,"wind_gusts":33.8,"aqi":80,"pm10":32.2,"pm2_5":23.6,"mosquito_risk":3,"arthritis_risk":5,"migraine_risk":4,"frizz_risk":1,"updated_at":"2026-03-14T16:02:45.011875+05:30"},{"city":"Pune","state":"Maharashtra","latitude":18.5204,"longitude":73.8567,"temp":37.0,"humidity":16,"rain":0.0,"pressure":947.9,"uv_index":8.25,"wind_gusts":47.5,"aqi":111,"pm10":35.7,"pm2_5":30.3,"mosquito_risk":0,"arthritis_risk":5,"migraine_risk":10,"frizz_risk":0,"updated_at":"2026-03-14T16:02:45.011887+05:30"},{"city":"Ahmedabad","state":"Gujarat","latitude":23.0225,"longitude":72.5714,"temp":37.1,"humidity":20,"rain":0.0,"pressure":1000.7,"uv_index":7.5,"wind_gusts":24.8,"aqi":79,"pm10":49.2,"pm2_5":18.8,"mosquito_risk":0,"arthritis_risk":5,"migraine_risk":7,"frizz_risk":0,"updated_at":"2026-03-14T16:02:45.011895+05:30"},{"city":"Jaipur","state":"Rajasthan","latitude":26.9124,"longitude":75.7873,"temp":33.2,"humidity":19,"rain":0.0,"pressure":959.2,"uv_index":6.95,"wind_gusts":28.8,"aqi":139,"pm10":129.9,"pm2_5":29.9,"mosquito_risk":0,"arthritis_risk":5,"migraine_risk":7,"frizz_risk":0,"updated_at":"2026-03-14T16:02:45.011903+05:30"},{"city":"Lucknow","state":"Uttar Pradesh","latitude":26.8467,"longitude":80.9462,"temp":33.8,"humidity":21,"rain":0.0,"pressure":992.8,"uv_index":6.7,"wind_gusts":24.5,"aqi":170,"pm10":136.4,"pm2_5":38.8,"mosquito_risk":0,"arthritis_risk":5,"migraine_risk":7,"frizz_risk":0,"updated_at":"2026-03-14T16:02:45.011910+05:30"},{"city":"Kanpur","state":"Uttar Pradesh","latitude":26.4499,"longitude":80.3319,"temp":33.4,"humidity":26,"rain":0.0,"pressure":991.0,"uv_index":6.65,"wind_gusts":17.3,"aqi":371,"pm10":258.9,"pm2_5":47.5,"mosquito_risk":0,"arthritis_risk":5,"migraine_risk":7,"frizz_risk":0,"updated_at":"2026-03-14T16:02:45.011917+05:30"},{"city":"Chandigarh","state":"Chandigarh","latitude":30.7333,"longitude":76.7794,"temp":27.3,"humidity":38,"rain":0.0,"pressure":968.7,"uv_index":5.25,"wind_gusts":20.2,"aqi":71,"pm10":20.3,"pm2_5":14.3,"mosquito_risk":4,"arthritis_risk":5,"migraine_risk":3,"frizz_risk":0,"updated_at":"2026-03-14T16:02:45.011924+05:30"},{"city":"Srinagar","state":"Jammu and Kashmir","latitude":34.0837,"longitude":74.7973,"temp":16.6,"humidity":45,"rain":0.0,"pressure":841.6,"uv_index":5.6,"wind_gusts":19.1,"aqi":91,"pm10":29.2,"pm2_5":11.1,"mosquito_risk":0,"arthritis_risk":5,"migraine_risk":3,"frizz_risk":0,"updated_at":"2026-03-14T16:02:45.011931+05:30"},{"city":"Jammu","state":"Jammu and Kashmir","latitude":32.7266,"longitude":74.857,"temp":29.4,"humidity":34,"rain":0.0,"pressure":972.1,"uv_index":6.45,"wind_gusts":19.1,"aqi":79,"pm10":21.6,"pm2_5":11.2,"mosquito_risk":4,"arthritis_risk":5,"migraine_risk":7,"frizz_risk":0,"updated_at":"2026-03-14T16:02:45.011938+05:30"},{"city":"Amritsar","state":"Punjab","latitude":31.634,"longitude":74.8723,"temp":27.0,"humidity":50,"rain":0.0,"pressure":980.3,"uv_index":4.85,"wind_gusts":17.6,"aqi":73,"pm10":10.9,"pm2_5":8.2,"mosquito_risk":4,"arthritis_risk":5,"migraine_risk":3,"frizz_risk":0,"updated_at":"2026-03-14T16:02:45.011946+05:30"},{"city":"Ludhiana","state":"Punjab","latitude":30.901,"longitude":75.8573,"temp":28.1,"humidity":32,"rain":0.0,"pressure":978.8,"uv_index":5.25,"wind_gusts":20.2,"aqi":85,"pm10":21.8,"pm2_5":14.6,"mosquito_risk":4,"arthritis_risk":5,"migraine_risk":3,"frizz_risk":0,"updated_at":"2026-03-14T16:02:45.011953+05:30"},{"city":"Jalandhar","state":"Punjab","latitude":31.326,"longitude":75.5762,"temp":28.1,"humidity":30,"rain":0.0,"pressure":979.7,"uv_index":6.35,"wind_gusts":23.0,"aqi":91,"pm10":32.5,"pm2_5":13.0,"mosquito_risk":4,"arthritis_risk":5,"migraine_risk":7,"frizz_risk":0,"updated_at":"2026-03-14T16:02:45.011962+05:30"},{"city":"Dehradun","state":"Uttarakhand","latitude":30.6284,"longitude":78.0322,"temp":19.9,"humidity":48,"rain":0.0,"pressure":830.6,"uv_index":4.2,"wind_gusts":21.6,"aqi":53,"pm10":22.9,"pm2_5":9.1,"mosquito_risk":0,"arthritis_risk":5,"migraine_risk":3,"frizz_risk":0,"updated_at":"2026-03-14T16:02:45.011969+05:30"},{"city":"Shimla","state":"Himachal Pradesh","latitude":31.1048,"longitude":77.1734,"temp":17.0,"humidity":52,"rain":0.0,"pressure":784.9,"uv_index":5.75,"wind_gusts":22.3,"aqi":57,"pm10":19.8,"pm2_5":9.2,"mosquito_risk":0,"arthritis_risk":5,"migraine_risk":3,"frizz_risk":0,"updated_at":"2026-03-14T16:02:45.011976+05:30"},{"city":"Manali","state":"Himachal Pradesh","latitude":32.2396,"longitude":77.1887,"temp":17.1,"humidity":32,"rain":0.0,"pressure":820.1,"uv_index":7.5,"wind_gusts":29.2,"aqi":59,"pm10":38.3,"pm2_5":8.6,"mosquito_risk":0,"arthritis_risk":5,"migraine_risk":7,"frizz_risk":0,"updated_at":"2026-03-14T16:02:45.011982+05:30"},{"city":"Gurgaon","state":"Haryana","latitude":28.4595,"longitude":77.0266,"temp":31.2,"humidity":25,"rain":0.0,"pressure":981.1,"uv_index":5.9,"wind_gusts":19.4,"aqi":1228,"pm10":827.0,"pm2_5":86.6,"mosquito_risk":0,"arthritis_risk":5,"migraine_risk":3,"frizz_risk":0,"updated_at":"2026-03-14T16:02:45.011991+05:30"},{"city":"Noida","state":"Uttar Pradesh","latitude":28.5355,"longitude":77.391,"temp":31.2,"humidity":23,"rain":0.0,"pressure":984.3,"uv_index":5.8,"wind_gusts":23.8,"aqi":1228,"pm10":827.0,"pm2_5":86.6,"mosquito_risk":0,"arthritis_risk":5,"migraine_risk":3,"frizz_risk":0,"updated_at":"2026-03-14T16:02:45.011997+05:30"},{"city":"Ghaziabad","state":"Uttar Pradesh","latitude":28.6692,"longitude":77.4538,"temp":30.8,"humidity":27,"rain":0.0,"pressure":982.4,"uv_index":5.9,"wind_gusts":23.8,"aqi":286,"pm10":163.9,"pm2_5":29.0,"mosquito_risk":0,"arthritis_risk":5,"migraine_risk":3,"frizz_risk":0,"updated_at":"2026-03-14T16:02:45.012003+05:30"},{"city":"Faridabad","state":"Haryana","latitude":28.4089,"longitude":77.3178,"temp":30.1,"humidity":27,"rain":0.0,"pressure":983.5,"uv_index":5.6,"wind_gusts":22.7,"aqi":1228,"pm10":827.0,"pm2_5":86.6,"mosquito_risk":0,"arthritis_risk":5,"migraine_risk":3,"frizz_risk":0,"updated_at":"2026-03-14T16:02:45.012010+05:30"},{"city":"Meerut","state":"Uttar Pradesh","latitude":28.9845,"longitude":77.7064,"temp":30.4,"humidity":28,"rain":0.0,"pressure":981.2,"uv_index":5.8,"wind_gusts":27.4,"aqi":286,"pm10":163.9,"pm2_5":29.0,"mosquito_risk":0,"arthritis_risk":5,"migraine_risk":3,"frizz_risk":0,"updated_at":"2026-03-14T16:02:45.012016+05:30"},{"city":"Agra","state":"Uttar Pradesh","latitude":27.1767,"longitude":78.0081,"temp":34.7,"humidity":17,"rain":0.0,"pressure":987.0,"uv_index":6.3,"wind_gusts":15.5,"aqi":717,"pm10":399.5,"pm2_5":56.9,"mosquito_risk":0,"arthritis_risk":5,"migraine_risk":7,"frizz_risk":0,"updated_at":"2026-03-14T16:02:45.012022+05:30"},{"city":"Varanasi","state":"Uttar Pradesh","latitude":25.3176,"longitude":82.9739,"temp":34.8,"humidity":31,"rain":0.0,"pressure":996.7,"uv_index":7.05,"wind_gusts":27.7,"aqi":135,"pm10":85.9,"pm2_5":29.8,"mosquito_risk":0,"arthritis_risk":5,"migraine_risk":7,"frizz_risk":0,"updated_at":"2026-03-14T16:02:45.012031+05:30"},{"city":"Prayagraj","state":"Uttar Pradesh","latitude":25.4358,"longitude":81.8463,"temp":34.4,"humidity":36,"rain":0.0,"pressure":995.0,"uv_index":7.1,"wind_gusts":15.5,"aqi":151,"pm10":114.8,"pm2_5":35.0,"mosquito_risk":0,"arthritis_risk":5,"migraine_risk":7,"frizz_risk":1,"updated_at":"2026-03-14T16:02:45.012037+05:30"},{"city":"Gorakhpur","state":"Uttar Pradesh","latitude":26.7606,"longitude":83.3732,"temp":31.1,"humidity":35,"rain":0.0,"pressure":996.5,"uv_index":6.7,"wind_gusts":24.8,"aqi":136,"pm10":156.5,"pm2_5":48.9,"mosquito_risk":0,"arthritis_risk":5,"migraine_risk":7,"frizz_risk":0,"updated_at":"2026-03-14T16:02:45.012043+05:30"},{"city":"Bareilly","state":"Uttar Pradesh","latitude":28.367,"longitude":79.4304,"temp":29.0,"humidity":45,"rain":0.0,"pressure":986.4,"uv_index":6.4,"wind_gusts":19.4,"aqi":144,"pm10":33.9,"pm2_5":24.2,"mosquito_risk":4,"arthritis_risk":5,"migraine_risk":7,"frizz_risk":0,"updated_at":"2026-03-14T16:02:45.012050+05:30"},{"city":"Aligarh","state":"Uttar Pradesh","latitude":27.8974,"longitude":78.088,"temp":32.1,"humidity":22,"rain":0.0,"pressure":985.4,"uv_index":6.3,"wind_gusts":26.6,"aqi":698,"pm10":575.6,"pm2_5":83.6,"mosquito_risk":0,"arthritis_risk":5,"migraine_risk":7,"frizz_risk":0,"updated_at":"2026-03-14T16:02:45.012059+05:30"},{"city":"Moradabad","state":"Uttar Pradesh","latitude":28.8386,"longitude":78.7733,"temp":29.8,"humidity":34,"rain":0.0,"pressure":983.1,"uv_index":5.8,"wind_gusts":23.0,"aqi":145,"pm10":39.6,"pm2_5":23.0,"mosquito_risk":4,"arthritis_risk":5,"migraine_risk":3,"frizz_risk":0,"updated_at":"2026-03-14T16:02:45.012065+05:30"},{"city":"Saharanpur","state":"Uttar Pradesh","latitude":29.9637,"longitude":77.546,"temp":29.5,"humidity":34,"rain":0.0,"pressure":975.1,"uv_index":4.8,"wind_gusts":23.8,"aqi":137,"pm10":67.1,"pm2_5":25.0,"mosquito_risk":4,"arthritis_risk":5,"migraine_risk":3,"frizz_risk":0,"updated_at":"2026-03-14T16:02:45.012071+05:30"},{"city":"Jhansi","state":"Uttar Pradesh","latitude":25.4484,"longitude":78.5685,"temp":36.1,"humidity":21,"rain":0.0,"pressure":976.3,"uv_index":7.2,"wind_gusts":20.2,"aqi":133,"pm10":137.8,"pm2_5":38.0,"mosquito_risk":0,"arthritis_risk":5,"migraine_risk":10,"frizz_risk":0,"updated_at":"2026-03-14T16:02:48.360586+05:30"},{"city":"Surat","state":"Gujarat","latitude":21.1702,"longitude":72.8311,"temp":31.1,"humidity":38,"rain":0.0,"pressure":1006.7,"uv_index":7.35,"wind_gusts":23.4,"aqi":140,"pm10":95.2,"pm2_5":50.3,"mosquito_risk":0,"arthritis_risk":5,"migraine_risk":4,"frizz_risk":0,"updated_at":"2026-03-14T16:02:48.360616+05:30"},{"city":"Vadodara","state":"Gujarat","latitude":22.3072,"longitude":73.1812,"temp":37.3,"humidity":16,"rain":0.0,"pressure":1003.2,"uv_index":7.5,"wind_gusts":28.1,"aqi":99,"pm10":63.1,"pm2_5":24.4,"mosquito_risk":0,"arthritis_risk":5,"migraine_risk":7,"frizz_risk":0,"updated_at":"2026-03-14T16:02:48.360626+05:30"},{"city":"Rajkot","state":"Gujarat","latitude":22.3039,"longitude":70.8022,"temp":36.5,"humidity":22,"rain":0.0,"pressure":993.7,"uv_index":7.35,"wind_gusts":34.9,"aqi":92,"pm10":76.4,"pm2_5":23.7,"mosquito_risk":0,"arthritis_risk":5,"migraine_risk":10,"frizz_risk":0,"updated_at":"2026-03-14T16:02:48.360669+05:30"},{"city":"Thane","state":"Maharashtra","latitude":19.2183,"longitude":72.9781,"temp":32.1,"humidity":46,"rain":0.0,"pressure":1007.9,"uv_index":7.65,"wind_gusts":31.7,"aqi":184,"pm10":49.6,"pm2_5":38.5,"mosquito_risk":0,"arthritis_risk":5,"migraine_risk":4,"frizz_risk":1,"updated_at":"2026-03-14T16:02:48.360678+05:30"},{"city":"Nagpur","state":"Maharashtra","latitude":21.1458,"longitude":79.0882,"temp":37.2,"humidity":15,"rain":0.0,"pressure":972.0,"uv_index":8.1,"wind_gusts":19.8,"aqi":151,"pm10":36.4,"pm2_5":31.2,"mosquito_risk":0,"arthritis_risk":5,"migraine_risk":10,"frizz_risk":0,"updated_at":"2026-03-14T16:02:48.360686+05:30"},{"city":"Nashik","state":"Maharashtra","latitude":19.9975,"longitude":73.7898,"temp":33.6,"humidity":20,"rain":0.0,"pressure":946.0,"uv_index":7.9,"wind_gusts":39.2,"aqi":91,"pm10":26.8,"pm2_5":23.3,"mosquito_risk":0,"arthritis_risk":5,"migraine_risk":7,"frizz_risk":0,"updated_at":"2026-03-14T16:02:48.360693+05:30"},{"city":"Aurangabad","state":"Maharashtra","latitude":19.8762,"longitude":75.3433,"temp":35.3,"humidity":19,"rain":0.0,"pressure":944.0,"uv_index":8.4,"wind_gusts":32.8,"aqi":112,"pm10":30.7,"pm2_5":24.2,"mosquito_risk":0,"arthritis_risk":5,"migraine_risk":10,"frizz_risk":0,"updated_at":"2026-03-14T16:02:48.360699+05:30"},{"city":"Solapur","state":"Maharashtra","latitude":17.6599,"longitude":75.9064,"temp":36.1,"humidity":22,"rain":0.0,"pressure":956.3,"uv_index":8.6,"wind_gusts":18.7,"aqi":132,"pm10":43.3,"pm2_5":34.7,"mosquito_risk":0,"arthritis_risk":5,"migraine_risk":10,"frizz_risk":0,"updated_at":"2026-03-14T16:02:48.360706+05:30"},{"city":"Kolhapur","state":"Maharashtra","latitude":16.705,"longitude":74.2433,"temp":30.3,"humidity":57,"rain":0.0,"pressure":948.3,"uv_index":8.7,"wind_gusts":44.6,"aqi":152,"pm10":42.7,"pm2_5":37.5,"mosquito_risk":0,"arthritis_risk":5,"migraine_risk":7,"frizz_risk":1,"updated_at":"2026-03-14T16:02:48.360712+05:30"},{"city":"Goa","state":"Goa","latitude":15.2993,"longitude":74.124,"temp":31.2,"humidity":63,"rain":0.0,"pressure":997.8,"uv_index":8.75,"wind_gusts":32.4,"aqi":133,"pm10":39.6,"pm2_5":35.0,"mosquito_risk":3,"arthritis_risk":5,"migraine_risk":7,"frizz_risk":1,"updated_at":"2026-03-14T16:02:48.360719+05:30"},{"city":"Jodhpur","state":"Rajasthan","latitude":26.2389,"longitude":73.0243,"temp":36.3,"humidity":15,"rain":0.0,"pressure":980.9,"uv_index":7.1,"wind_gusts":37.4,"aqi":84,"pm10":124.8,"pm2_5":28.5,"mosquito_risk":0,"arthritis_risk":5,"migraine_risk":10,"frizz_risk":0,"updated_at":"2026-03-14T16:02:48.360726+05:30"},{"city":"Udaipur","state":"Rajasthan","latitude":24.5854,"longitude":73.7125,"temp":33.8,"humidity":18,"rain":0.0,"pressure":945.9,"uv_index":7.85,"wind_gusts":37.1,"aqi":67,"pm10":42.5,"pm2_5":14.5,"mosquito_risk":0,"arthritis_risk":5,"migraine_risk":7,"frizz_risk":0,"updated_at":"2026-03-14T16:02:48.360732+05:30"},{"city":"Kota","state":"Rajasthan","latitude":25.2138,"longitude":75.8648,"temp":36.5,"humidity":18,"rain":0.0,"pressure":976.9,"uv_index":7.25,"wind_gusts":13.7,"aqi":68,"pm10":36.4,"pm2_5":18.7,"mosquito_risk":0,"arthritis_risk":5,"migraine_risk":10,"frizz_risk":0,"updated_at":"2026-03-14T16:02:48.360738+05:30"},{"city":"Bikaner","state":"Rajasthan","latitude":28.0229,"longitude":73.3119,"temp":34.3,"humidity":19,"rain":0.0,"pressure":980.0,"uv_index":6.7,"wind_gusts":21.6,"aqi":58,"pm10":74.7,"pm2_5":20.0,"mosquito_risk":0,"arthritis_risk":5,"migraine_risk":7,"frizz_risk":0,"updated_at":"2026-03-14T16:02:48.360744+05:30"},{"city":"Ajmer","state":"Rajasthan","latitude":26.4499,"longitude":74.6399,"temp":34.2,"humidity":17,"rain":0.0,"pressure":953.2,"uv_index":7.1,"wind_gusts":41.4,"aqi":84,"pm10":68.7,"pm2_5":22.5,"mosquito_risk":0,"arthritis_risk":5,"migraine_risk":7,"frizz_risk":0,"updated_at":"2026-03-14T16:02:48.360751+05:30"},{"city":"Gwalior","state":"Madhya Pradesh","latitude":26.2183,"longitude":78.1828,"temp":32.8,"humidity":35,"rain":0.0,"pressure":982.4,"uv_index":6.7,"wind_gusts":22.0,"aqi":224,"pm10":99.9,"pm2_5":29.1,"mosquito_risk":0,"arthritis_risk":5,"migraine_risk":7,"frizz_risk":0,"updated_at":"2026-03-14T16:02:48.360758+05:30"},{"city":"Indore","state":"Madhya Pradesh","latitude":22.7196,"longitude":75.8577,"temp":35.9,"humidity":15,"rain":0.0,"pressure":947.3,"uv_index":7.8,"wind_gusts":38.2,"aqi":92,"pm10":23.3,"pm2_5":18.3,"mosquito_risk":0,"arthritis_risk":5,"migraine_risk":10,"frizz_risk":0,"updated_at":"2026-03-14T16:02:48.360764+05:30"},{"city":"Bhopal","state":"Madhya Pradesh","latitude":23.2599,"longitude":77.4126,"temp":35.9,"humidity":17,"rain":0.0,"pressure":952.9,"uv_index":7.65,"wind_gusts":35.3,"aqi":93,"pm10":23.6,"pm2_5":18.1,"mosquito_risk":0,"arthritis_risk":5,"migraine_risk":10,"frizz_risk":0,"updated_at":"2026-03-14T16:02:48.360771+05:30"},{"city":"Jabalpur","state":"Madhya Pradesh","latitude":23.1815,"longitude":79.9864,"temp":36.0,"humidity":16,"rain":0.0,"pressure":960.9,"uv_index":7.8,"wind_gusts":27.0,"aqi":92,"pm10":14.1,"pm2_5":13.0,"mosquito_risk":0,"arthritis_risk":5,"migraine_risk":10,"frizz_risk":0,"updated_at":"2026-03-14T16:02:48.360778+05:30"},{"city":"Ujjain","state":"Madhya Pradesh","latitude":23.1765,"longitude":75.7885,"temp":35.0,"humidity":16,"rain":0.0,"pressure":953.1,"uv_index":7.7,"wind_gusts":41.8,"aqi":83,"pm10":22.6,"pm2_5":16.2,"mosquito_risk":0,"arthritis_risk":5,"migraine_risk":7,"frizz_risk":0,"updated_at":"2026-03-14T16:02:48.360785+05:30"},{"city":"Visakhapatnam","state":"Andhra Pradesh","latitude":17.6868,"longitude":83.2185,"temp":29.5,"humidity":65,"rain":0.0,"pressure":1004.9,"uv_index":8.65,"wind_gusts":41.0,"aqi":64,"pm10":19.6,"pm2_5":14.7,"mosquito_risk":7,"arthritis_risk":5,"migraine_risk":4,"frizz_risk":1,"updated_at":"2026-03-14T16:02:48.360791+05:30"},{"city":"Vijayawada","state":"Andhra Pradesh","latitude":16.5062,"longitude":80.648,"temp":33.3,"humidity":49,"rain":0.0,"pressure":1002.9,"uv_index":8.75,"wind_gusts":31.3,"aqi":64,"pm10":21.0,"pm2_5":15.1,"mosquito_risk":0,"arthritis_risk":5,"migraine_risk":4,"frizz_risk":1,"updated_at":"2026-03-14T16:02:48.360798+05:30"},{"city":"Guntur","state":"Andhra Pradesh","latitude":16.3067,"longitude":80.4365,"temp":32.6,"humidity":51,"rain":0.0,"pressure":1004.4,"uv_index":8.75,"wind_gusts":33.8,"aqi":63,"pm10":26.2,"pm2_5":19.0,"mosquito_risk":0,"arthritis_risk":5,"migraine_risk":4,"frizz_risk":1,"updated_at":"2026-03-14T16:02:48.360805+05:30"},{"city":"Nellore","state":"Andhra Pradesh","latitude":14.4426,"longitude":79.9865,"temp":33.1,"humidity":47,"rain":0.0,"pressure":1006.4,"uv_index":8.9,"wind_gusts":33.1,"aqi":62,"pm10":33.3,"pm2_5":24.1,"mosquito_risk":0,"arthritis_risk":5,"migraine_risk":4,"frizz_risk":1,"updated_at":"2026-03-14T16:02:48.360812+05:30"},{"city":"Kurnool","state":"Andhra Pradesh","latitude":15.8281,"longitude":78.0373,"temp":37.6,"humidity":19,"rain":0.0,"pressure":975.8,"uv_index":8.75,"wind_gusts":23.4,"aqi":98,"pm10":44.7,"pm2_5":31.0,"mosquito_risk":0,"arthritis_risk":5,"migraine_risk":10,"frizz_risk":0,"updated_at":"2026-03-14T16:02:48.360819+05:30"},{"city":"Kakinada","state":"Andhra Pradesh","latitude":16.9891,"longitude":82.2475,"temp":32.0,"humidity":54,"rain":0.0,"pressure":1008.1,"uv_index":8.7,"wind_gusts":34.6,"aqi":58,"pm10":17.1,"pm2_5":11.8,"mosquito_risk":0,"arthritis_risk":0,"migraine_risk":4,"frizz_risk":1,"updated_at":"2026-03-14T16:02:48.360826+05:30"},{"city":"Tirupati","state":"Andhra Pradesh","latitude":13.6288,"longitude":79.4192,"temp":33.9,"humidity":32,"rain":0.0,"pressure":991.7,"uv_index":9.0,"wind_gusts":32.4,"aqi":74,"pm10":32.4,"pm2_5":24.4,"mosquito_risk":0,"arthritis_risk":5,"migraine_risk":7,"frizz_risk":0,"updated_at":"2026-03-14T16:02:48.360832+05:30"},{"city":"Warangal","state":"Telangana","latitude":17.9689,"longitude":79.5941,"temp":34.2,"humidity":37,"rain":0.0,"pressure":978.5,"uv_index":8.5,"wind_gusts":27.7,"aqi":96,"pm10":47.7,"pm2_5":34.8,"mosquito_risk":0,"arthritis_risk":5,"migraine_risk":7,"frizz_risk":1,"updated_at":"2026-03-14T16:02:48.360839+05:30"},{"city":"Nizamabad","state":"Telangana","latitude":18.6725,"longitude":78.0941,"temp":36.4,"humidity":22,"rain":0.0,"pressure":964.0,"uv_index":8.45,"wind_gusts":30.2,"aqi":120,"pm10":49.8,"pm2_5":36.2,"mosquito_risk":0,"arthritis_risk":5,"migraine_risk":10,"frizz_risk":0,"updated_at":"2026-03-14T16:02:48.360844+05:30"},{"city":"Mysore","state":"Karnataka","latitude":12.2958,"longitude":76.6396,"temp":33.4,"humidity":20,"rain":0.0,"pressure":928.4,"uv_index":9.3,"wind_gusts":32.8,"aqi":101,"pm10":37.8,"pm2_5":30.2,"mosquito_risk":0,"arthritis_risk":5,"migraine_risk":7,"frizz_risk":0,"updated_at":"2026-03-14T16:02:48.360851+05:30"},{"city":"Mangalore","state":"Karnataka","latitude":12.9141,"longitude":74.856,"temp":29.1,"humidity":81,"rain":0.0,"pressure":1006.0,"uv_index":8.95,"wind_gusts":24.8,"aqi":104,"pm10":31.9,"pm2_5":26.9,"mosquito_risk":7,"arthritis_risk":5,"migraine_risk":4,"frizz_risk":1,"updated_at":"2026-03-14T16:02:48.360857+05:30"},{"city":"Hubli-Dharwad","state":"Karnataka","latitude":15.3647,"longitude":75.124,"temp":34.4,"humidity":28,"rain":0.0,"pressure":940.3,"uv_index":8.95,"wind_gusts":46.4,"aqi":110,"pm10":40.3,"pm2_5":32.9,"mosquito_risk":0,"arthritis_risk":5,"migraine_risk":7,"frizz_risk":0,"updated_at":"2026-03-14T16:02:48.360864+05:30"},{"city":"Belgaum","state":"Karnataka","latitude":15.8497,"longitude":74.4977,"temp":27.8,"humidity":65,"rain":0.0,"pressure":926.1,"uv_index":8.95,"wind_gusts":44.3,"aqi":161,"pm10":47.5,"pm2_5":41.7,"mosquito_risk":7,"arthritis_risk":5,"migraine_risk":7,"frizz_risk":1,"updated_at":"2026-03-14T16:02:51.711384+05:30"},{"city":"Coimbatore","state":"Tamil Nadu","latitude":11.0168,"longitude":76.9558,"temp":34.8,"humidity":19,"rain":0.0,"pressure":961.0,"uv_index":9.3,"wind_gusts":37.1,"aqi":72,"pm10":22.7,"pm2_5":17.6,"mosquito_risk":0,"arthritis_risk":5,"migraine_risk":7,"frizz_risk":0,"updated_at":"2026-03-14T16:02:51.711413+05:30"},{"city":"Madurai","state":"Tamil Nadu","latitude":9.9252,"longitude":78.1198,"temp":35.8,"humidity":31,"rain":0.0,"pressure":991.7,"uv_index":9.25,"wind_gusts":28.8,"aqi":62,"pm10":7.5,"pm2_5":6.1,"mosquito_risk":0,"arthritis_risk":5,"migraine_risk":10,"frizz_risk":1,"updated_at":"2026-03-14T16:02:51.711423+05:30"},{"city":"Trichy","state":"Tamil Nadu","latitude":10.7905,"longitude":78.7047,"temp":35.2,"humidity":34,"rain":0.0,"pressure":998.9,"uv_index":9.2,"wind_gusts":27.0,"aqi":67,"pm10":11.4,"pm2_5":9.2,"mosquito_risk":0,"arthritis_risk":5,"migraine_risk":10,"frizz_risk":1,"updated_at":"2026-03-14T16:02:51.711430+05:30"},{"city":"Salem","state":"Tamil Nadu","latitude":11.6643,"longitude":78.146,"temp":35.2,"humidity":23,"rain":0.0,"pressure":976.8,"uv_index":9.2,"wind_gusts":23.8,"aqi":97,"pm10":25.3,"pm2_5":20.8,"mosquito_risk":0,"arthritis_risk":5,"migraine_risk":10,"frizz_risk":0,"updated_at":"2026-03-14T16:02:51.711438+05:30"},{"city":"Tirunelveli","state":"Tamil Nadu","latitude":8.7139,"longitude":77.7567,"temp":34.1,"humidity":44,"rain":0.0,"pressure":1002.4,"uv_index":9.25,"wind_gusts":36.4,"aqi":50,"pm10":6.7,"pm2_5":5.5,"mosquito_risk":0,"arthritis_risk":5,"migraine_risk":4,"frizz_risk":1,"updated_at":"2026-03-14T16:02:51.711445+05:30"},{"city":"Vellore","state":"Tamil Nadu","latitude":12.9165,"longitude":79.1325,"temp":34.1,"humidity":27,"rain":0.0,"pressure":984.7,"uv_index":9.1,"wind_gusts":32.8,"aqi":100,"pm10":34.0,"pm2_5":28.8,"mosquito_risk":0,"arthritis_risk":5,"migraine_risk":7,"frizz_risk":0,"updated_at":"2026-03-14T16:02:51.711451+05:30"},{"city":"Erode","state":"Tamil Nadu","latitude":11.341,"longitude":77.7172,"temp":35.9,"humidity":29,"rain":0.0,"pressure":988.1,"uv_index":9.2,"wind_gusts":24.8,"aqi":65,"pm10":17.7,"pm2_5":13.9,"mosquito_risk":0,"arthritis_risk":5,"migraine_risk":10,"frizz_risk":0,"updated_at":"2026-03-14T16:02:51.711458+05:30"},{"city":"Kochi","state":"Kerala","latitude":9.9312,"longitude":76.2673,"temp":28.6,"humidity":79,"rain":0.0,"pressure":1007.5,"uv_index":9.1,"wind_gusts":31.3,"aqi":105,"pm10":18.8,"pm2_5":17.5,"mosquito_risk":7,"arthritis_risk":5,"migraine_risk":4,"frizz_risk":1,"updated_at":"2026-03-14T16:02:51.711466+05:30"},{"city":"Thiruvananthapuram","state":"Kerala","latitude":8.5241,"longitude":76.9366,"temp":28.6,"humidity":77,"rain":0.0,"pressure":1007.2,"uv_index":9.1,"wind_gusts":26.3,"aqi":70,"pm10":14.6,"pm2_5":12.5,"mosquito_risk":7,"arthritis_risk":5,"migraine_risk":4,"frizz_risk":1,"updated_at":"2026-03-14T16:02:51.711472+05:30"},{"city":"Kozhikode","state":"Kerala","latitude":11.2588,"longitude":75.7804,"temp":29.8,"humidity":75,"rain":0.0,"pressure":1006.9,"uv_index":9.0,"wind_gusts":24.8,"aqi":76,"pm10":26.3,"pm2_5":23.2,"mosquito_risk":7,"arthritis_risk":5,"migraine_risk":4,"frizz_risk":1,"updated_at":"2026-03-14T16:02:51.711478+05:30"},{"city":"Thrissur","state":"Kerala","latitude":10.5276,"longitude":76.2144,"temp":31.6,"humidity":66,"rain":0.0,"pressure":1005.8,"uv_index":9.05,"wind_gusts":36.0,"aqi":100,"pm10":22.8,"pm2_5":20.3,"mosquito_risk":3,"arthritis_risk":5,"migraine_risk":4,"frizz_risk":1,"updated_at":"2026-03-14T16:02:51.711485+05:30"},{"city":"Kannur","state":"Kerala","latitude":11.8745,"longitude":75.3704,"temp":30.2,"humidity":73,"rain":0.0,"pressure":1006.5,"uv_index":9.0,"wind_gusts":29.2,"aqi":94,"pm10":28.1,"pm2_5":24.2,"mosquito_risk":3,"arthritis_risk":5,"migraine_risk":4,"frizz_risk":1,"updated_at":"2026-03-14T16:02:51.711492+05:30"},{"city":"Patna","state":"Bihar","latitude":25.5941,"longitude":85.1376,"temp":33.0,"humidity":39,"rain":0.0,"pressure":999.7,"uv_index":7.5,"wind_gusts":20.2,"aqi":143,"pm10":92.9,"pm2_5":35.5,"mosquito_risk":0,"arthritis_risk":5,"migraine_risk":7,"frizz_risk":1,"updated_at":"2026-03-14T16:02:51.711498+05:30"},{"city":"Gaya","state":"Bihar","latitude":24.7914,"longitude":85.0002,"temp":33.7,"humidity":33,"rain":0.0,"pressure":993.3,"uv_index":7.6,"wind_gusts":21.2,"aqi":124,"pm10":79.6,"pm2_5":27.8,"mosquito_risk":0,"arthritis_risk":5,"migraine_risk":7,"frizz_risk":0,"updated_at":"2026-03-14T16:02:51.711505+05:30"},{"city":"Muzaffarpur","state":"Bihar","latitude":26.1209,"longitude":85.3647,"temp":32.4,"humidity":37,"rain":0.0,"pressure":999.6,"uv_index":7.45,"wind_gusts":24.5,"aqi":160,"pm10":79.4,"pm2_5":37.3,"mosquito_risk":0,"arthritis_risk":5,"migraine_risk":7,"frizz_risk":0,"updated_at":"2026-03-14T16:02:51.711512+05:30"},{"city":"Bhagalpur","state":"Bihar","latitude":25.2425,"longitude":87.0117,"temp":32.9,"humidity":36,"rain":0.0,"pressure":1000.4,"uv_index":7.5,"wind_gusts":20.5,"aqi":160,"pm10":136.0,"pm2_5":50.4,"mosquito_risk":0,"arthritis_risk":5,"migraine_risk":4,"frizz_risk":0,"updated_at":"2026-03-14T16:02:51.711518+05:30"},{"city":"Ranchi","state":"Jharkhand","latitude":23.3441,"longitude":85.3096,"temp":33.5,"humidity":18,"rain":0.0,"pressure":938.0,"uv_index":8.25,"wind_gusts":24.5,"aqi":111,"pm10":28.1,"pm2_5":12.9,"mosquito_risk":0,"arthritis_risk":5,"migraine_risk":7,"frizz_risk":0,"updated_at":"2026-03-14T16:02:51.711562+05:30"},{"city":"Jamshedpur","state":"Jharkhand","latitude":22.8046,"longitude":86.2029,"temp":36.8,"humidity":20,"rain":0.0,"pressure":989.8,"uv_index":8.1,"wind_gusts":29.2,"aqi":147,"pm10":58.6,"pm2_5":32.7,"mosquito_risk":0,"arthritis_risk":5,"migraine_risk":10,"frizz_risk":0,"updated_at":"2026-03-14T16:02:51.711569+05:30"},{"city":"Dhanbad","state":"Jharkhand","latitude":23.7957,"longitude":86.4304,"temp":36.4,"humidity":18,"rain":0.0,"pressure":979.1,"uv_index":8.0,"wind_gusts":19.8,"aqi":155,"pm10":60.1,"pm2_5":29.2,"mosquito_risk":0,"arthritis_risk":5,"migraine_risk":10,"frizz_risk":0,"updated_at":"2026-03-14T16:02:51.711575+05:30"},{"city":"Bokaro","state":"Jharkhand","latitude":23.6693,"longitude":86.1511,"temp":36.5,"humidity":14,"rain":0.0,"pressure":983.1,"uv_index":8.0,"wind_gusts":20.2,"aqi":151,"pm10":43.5,"pm2_5":21.1,"mosquito_risk":0,"arthritis_risk":5,"migraine_risk":10,"frizz_risk":0,"updated_at":"2026-03-14T16:02:51.711582+05:30"},{"city":"Bhubaneswar","state":"Odisha","latitude":20.2961,"longitude":85.8245,"temp":30.2,"humidity":63,"rain":0.0,"pressure":1003.3,"uv_index":8.45,"wind_gusts":38.9,"aqi":69,"pm10":28.0,"pm2_5":20.6,"mosquito_risk":3,"arthritis_risk":5,"migraine_risk":4,"frizz_risk":1,"updated_at":"2026-03-14T16:02:51.711588+05:30"},{"city":"Cuttack","state":"Odisha","latitude":20.4625,"longitude":85.8828,"temp":32.7,"humidity":53,"rain":0.0,"pressure":1004.6,"uv_index":8.45,"wind_gusts":34.2,"aqi":69,"pm10":28.0,"pm2_5":20.6,"mosquito_risk":0,"arthritis_risk":5,"migraine_risk":4,"frizz_risk":1,"updated_at":"2026-03-14T16:02:51.711594+05:30"},{"city":"Rourkela","state":"Odisha","latitude":22.2604,"longitude":84.8536,"temp":38.3,"humidity":15,"rain":0.0,"pressure":983.7,"uv_index":8.05,"wind_gusts":25.2,"aqi":152,"pm10":28.1,"pm2_5":23.7,"mosquito_risk":0,"arthritis_risk":5,"migraine_risk":10,"frizz_risk":0,"updated_at":"2026-03-14T16:02:51.711600+05:30"},{"city":"Raipur","state":"Chhattisgarh","latitude":21.2514,"longitude":81.6296,"temp":37.4,"humidity":23,"rain":0.0,"pressure":973.5,"uv_index":8.2,"wind_gusts":34.2,"aqi":144,"pm10":30.6,"pm2_5":26.2,"mosquito_risk":0,"arthritis_risk":5,"migraine_risk":10,"frizz_risk":0,"updated_at":"2026-03-14T16:02:51.711606+05:30"},{"city":"Bhilai","state":"Chhattisgarh","latitude":21.1938,"longitude":81.3509,"temp":38.1,"humidity":21,"rain":0.0,"pressure":973.7,"uv_index":8.2,"wind_gusts":27.7,"aqi":128,"pm10":30.5,"pm2_5":25.8,"mosquito_risk":0,"arthritis_risk":5,"migraine_risk":10,"frizz_risk":0,"updated_at":"2026-03-14T16:02:51.711612+05:30"},{"city":"Guwahati","state":"Assam","latitude":26.1158,"longitude":91.7086,"temp":23.9,"humidity":82,"rain":0.0,"pressure":1002.6,"uv_index":7.4,"wind_gusts":32.0,"aqi":77,"pm10":39.0,"pm2_5":24.7,"mosquito_risk":3,"arthritis_risk":5,"migraine_risk":4,"frizz_risk":1,"updated_at":"2026-03-14T16:02:51.711618+05:30"},{"city":"Agartala","state":"Tripura","latitude":23.8315,"longitude":91.2868,"temp":29.0,"humidity":62,"rain":0.0,"pressure":1007.0,"uv_index":7.8,"wind_gusts":48.6,"aqi":79,"pm10":36.3,"pm2_5":28.3,"mosquito_risk":7,"arthritis_risk":5,"migraine_risk":4,"frizz_risk":1,"updated_at":"2026-03-14T16:02:51.711624+05:30"},{"city":"Shillong","state":"Meghalaya","latitude":25.5788,"longitude":91.8933,"temp":16.2,"humidity":75,"rain":0.0,"pressure":856.1,"uv_index":7.85,"wind_gusts":73.8,"aqi":50,"pm10":26.1,"pm2_5":17.8,"mosquito_risk":3,"arthritis_risk":5,"migraine_risk":7,"frizz_risk":0,"updated_at":"2026-03-14T16:02:51.711645+05:30"},{"city":"Imphal","state":"Manipur","latitude":24.817,"longitude":93.9368,"temp":18.8,"humidity":79,"rain":0.0,"pressure":924.2,"uv_index":7.1,"wind_gusts":82.8,"aqi":144,"pm10":52.3,"pm2_5":39.3,"mosquito_risk":3,"arthritis_risk":5,"migraine_risk":7,"frizz_risk":0,"updated_at":"2026-03-14T16:02:51.711652+05:30"},{"city":"Aizawl","state":"Mizoram","latitude":23.7271,"longitude":92.7176,"temp":20.4,"humidity":73,"rain":0.0,"pressure":894.6,"uv_index":8.0,"wind_gusts":63.4,"aqi":114,"pm10":52.2,"pm2_5":39.0,"mosquito_risk":3,"arthritis_risk":5,"migraine_risk":7,"frizz_risk":0,"updated_at":"2026-03-14T16:02:51.711658+05:30"},{"city":"Kohima","state":"Nagaland","latitude":25.6701,"longitude":94.1077,"temp":16.4,"humidity":74,"rain":0.0,"pressure":855.0,"uv_index":6.9,"wind_gusts":100.8,"aqi":108,"pm10":55.9,"pm2_5":37.7,"mosquito_risk":3,"arthritis_risk":5,"migraine_risk":7,"frizz_risk":0,"updated_at":"2026-03-14T16:02:51.711664+05:30"},{"city":"Gangtok","state":"Sikkim","latitude":27.3314,"longitude":88.6138,"temp":15.4,"humidity":82,"rain":0.0,"pressure":837.1,"uv_index":7.55,"wind_gusts":20.2,"aqi":88,"pm10":27.9,"pm2_5":19.2,"mosquito_risk":3,"arthritis_risk":10,"migraine_risk":7,"frizz_risk":0,"updated_at":"2026-03-14T16:02:51.711670+05:30"},{"city":"Siliguri","state":"West Bengal","latitude":26.7271,"longitude":88.3953,"temp":22.7,"humidity":78,"rain":0.0,"pressure":994.3,"uv_index":7.4,"wind_gusts":31.7,"aqi":128,"pm10":77.5,"pm2_5":48.4,"mosquito_risk":3,"arthritis_risk":5,"migraine_risk":7,"frizz_risk":1,"updated_at":"2026-03-14T16:02:55.065501+05:30"},{"city":"Durgapur","state":"West Bengal","latitude":23.5204,"longitude":87.3119,"temp":33.6,"humidity":35,"rain":0.0,"pressure":994.6,"uv_index":7.95,"wind_gusts":23.4,"aqi":152,"pm10":71.0,"pm2_5":39.2,"mosquito_risk":0,"arthritis_risk":5,"migraine_risk":7,"frizz_risk":0,"updated_at":"2026-03-14T16:02:55.065541+05:30"},{"city":"Asansol","state":"West Bengal","latitude":23.6739,"longitude":86.9524,"temp":35.2,"humidity":32,"rain":0.0,"pressure":992.8,"uv_index":7.95,"wind_gusts":21.2,"aqi":140,"pm10":67.1,"pm2_5":34.3,"mosquito_risk":0,"arthritis_risk":5,"migraine_risk":10,"frizz_risk":1,"updated_at":"2026-03-14T16:02:55.065551+05:30"},{"city":"Pondicherry","state":"Puducherry","latitude":11.9139,"longitude":79.8145,"temp":32.7,"humidity":54,"rain":0.0,"pressure":1008.7,"uv_index":9.05,"wind_gusts":29.9,"aqi":55,"pm10":15.5,"pm2_5":11.6,"mosquito_risk":0,"arthritis_risk":0,"migraine_risk":4,"frizz_risk":1,"updated_at":"2026-03-14T16:02:55.065559+05:30"},{"city":"Port Blair","state":"Andaman and Nicobar Islands","latitude":11.6234,"longitude":92.7265,"temp":28.1,"humidity":76,"rain":0.0,"pressure":1008.2,"uv_index":8.95,"wind_gusts":23.0,"aqi":82,"pm10":12.0,"pm2_5":9.4,"mosquito_risk":7,"arthritis_risk":0,"migraine_risk":4,"frizz_risk":1,"updated_at":"2026-03-14T16:02:55.065567+05:30"},{"city":"Haridwar","state":"Uttarakhand","latitude":29.9457,"longitude":78.1642,"temp":29.5,"humidity":38,"rain":0.0,"pressure":973.7,"uv_index":4.95,"wind_gusts":21.2,"aqi":106,"pm10":30.4,"pm2_5":18.5,"mosquito_risk":4,"arthritis_risk":5,"migraine_risk":3,"frizz_risk":0,"updated_at":"2026-03-14T16:02:55.065575+05:30"},{"city":"Rishikesh","state":"Uttarakhand","latitude":30.0869,"longitude":78.2676,"temp":28.8,"humidity":44,"rain":0.0,"pressure":966.5,"uv_index":4.5,"wind_gusts":20.9,"aqi":71,"pm10":27.5,"pm2_5":14.0,"mosquito_risk":4,"arthritis_risk":5,"migraine_risk":3,"frizz_risk":0,"updated_at":"2026-03-14T16:02:55.065583+05:30"},{"city":"Nainital","state":"Uttarakhand","latitude":29.3919,"longitude":79.4542,"temp":21.1,"humidity":54,"rain":0.0,"pressure":806.9,"uv_index":6.3,"wind_gusts":34.9,"aqi":85,"pm10":41.4,"pm2_5":25.0,"mosquito_risk":0,"arthritis_risk":5,"migraine_risk":7,"frizz_risk":0,"updated_at":"2026-03-14T16:02:55.065590+05:30"},{"city":"Mussoorie","state":"Uttarakhand","latitude":30.4599,"longitude":78.0664,"temp":20.7,"humidity":46,"rain":0.0,"pressure":803.6,"uv_index":4.5,"wind_gusts":25.2,"aqi":77,"pm10":28.4,"pm2_5":13.9,"mosquito_risk":0,"arthritis_risk":5,"migraine_risk":3,"frizz_risk":0,"updated_at":"2026-03-14T16:02:55.065598+05:30"},{"city":"Dharamshala","state":"Himachal Pradesh","latitude":32.219,"longitude":76.3234,"temp":23.3,"humidity":26,"rain":0.0,"pressure":869.2,"uv_index":5.65,"wind_gusts":17.6,"aqi":49,"pm10":24.0,"pm2_5":7.9,"mosquito_risk":0,"arthritis_risk":5,"migraine_risk":3,"frizz_risk":0,"updated_at":"2026-03-14T16:02:55.065604+05:30"},{"city":"Dalhousie","state":"Himachal Pradesh","latitude":32.5387,"longitude":75.971,"temp":21.1,"humidity":26,"rain":0.0,"pressure":804.6,"uv_index":6.2,"wind_gusts":18.7,"aqi":66,"pm10":21.9,"pm2_5":9.9,"mosquito_risk":0,"arthritis_risk":5,"migraine_risk":7,"frizz_risk":0,"updated_at":"2026-03-14T16:02:55.065611+05:30"},{"city":"Patiala","state":"Punjab","latitude":30.3398,"longitude":76.3869,"temp":28.8,"humidity":23,"rain":0.0,"pressure":978.1,"uv_index":5.65,"wind_gusts":27.0,"aqi":290,"pm10":267.3,"pm2_5":34.9,"mosquito_risk":4,"arthritis_risk":5,"migraine_risk":3,"frizz_risk":0,"updated_at":"2026-03-14T16:02:55.065618+05:30"},{"city":"Bhatinda","state":"Punjab","latitude":30.211,"longitude":74.9455,"temp":30.6,"humidity":30,"rain":0.0,"pressure":983.5,"uv_index":5.9,"wind_gusts":22.0,"aqi":87,"pm10":19.6,"pm2_5":15.3,"mosquito_risk":0,"arthritis_risk":5,"migraine_risk":3,"frizz_risk":0,"updated_at":"2026-03-14T16:02:55.065624+05:30"},{"city":"Rohtak","state":"Haryana","latitude":28.8955,"longitude":76.6066,"temp":31.3,"humidity":26,"rain":0.0,"pressure":981.4,"uv_index":6.0,"wind_gusts":22.0,"aqi":514,"pm10":319.4,"pm2_5":39.6,"mosquito_risk":0,"arthritis_risk":5,"migraine_risk":3,"frizz_risk":0,"updated_at":"2026-03-14T16:02:55.065648+05:30"},{"city":"Panipat","state":"Haryana","latitude":29.3909,"longitude":76.9635,"temp":30.7,"humidity":28,"rain":0.0,"pressure":980.1,"uv_index":5.75,"wind_gusts":23.0,"aqi":948,"pm10":525.3,"pm2_5":57.7,"mosquito_risk":0,"arthritis_risk":5,"migraine_risk":3,"frizz_risk":0,"updated_at":"2026-03-14T16:02:55.065655+05:30"},{"city":"Mathura","state":"Uttar Pradesh","latitude":27.4924,"longitude":77.6737,"temp":32.5,"humidity":21,"rain":0.0,"pressure":986.5,"uv_index":5.85,"wind_gusts":29.2,"aqi":695,"pm10":484.3,"pm2_5":64.3,"mosquito_risk":0,"arthritis_risk":5,"migraine_risk":3,"frizz_risk":0,"updated_at":"2026-03-14T16:02:55.065661+05:30"},{"city":"Vrindavan","state":"Uttar Pradesh","latitude":27.5823,"longitude":77.7027,"temp":31.8,"humidity":23,"rain":0.0,"pressure":987.1,"uv_index":5.95,"wind_gusts":35.3,"aqi":695,"pm10":484.3,"pm2_5":64.3,"mosquito_risk":0,"arthritis_risk":5,"migraine_risk":3,"frizz_risk":0,"updated_at":"2026-03-14T16:02:55.065668+05:30"},{"city":"Ayodhya","state":"Uttar Pradesh","latitude":26.7922,"longitude":82.1998,"temp":32.8,"humidity":33,"rain":0.0,"pressure":994.5,"uv_index":6.85,"wind_gusts":21.6,"aqi":153,"pm10":131.3,"pm2_5":44.6,"mosquito_risk":0,"arthritis_risk":5,"migraine_risk":7,"frizz_risk":0,"updated_at":"2026-03-14T16:02:55.065674+05:30"},{"city":"Ratlam","state":"Madhya Pradesh","latitude":23.3315,"longitude":75.0367,"temp":35.2,"humidity":17,"rain":0.0,"pressure":954.2,"uv_index":7.65,"wind_gusts":39.6,"aqi":77,"pm10":21.8,"pm2_5":14.5,"mosquito_risk":0,"arthritis_risk":5,"migraine_risk":10,"frizz_risk":0,"updated_at":"2026-03-14T16:02:55.065681+05:30"},{"city":"Sagar","state":"Madhya Pradesh","latitude":23.8388,"longitude":78.7378,"temp":35.0,"humidity":19,"rain":0.0,"pressure":949.6,"uv_index":7.65,"wind_gusts":34.2,"aqi":89,"pm10":17.9,"pm2_5":15.5,"mosquito_risk":0,"arthritis_risk":5,"migraine_risk":7,"frizz_risk":0,"updated_at":"2026-03-14T16:02:55.065687+05:30"},{"city":"Satna","state":"Madhya Pradesh","latitude":24.6005,"longitude":80.8322,"temp":37.0,"humidity":13,"rain":0.0,"pressure":970.3,"uv_index":7.6,"wind_gusts":26.3,"aqi":87,"pm10":60.3,"pm2_5":20.3,"mosquito_risk":0,"arthritis_risk":5,"migraine_risk":10,"frizz_risk":0,"updated_at":"2026-03-14T16:02:55.065694+05:30"},{"city":"Akola","state":"Maharashtra","latitude":20.7002,"longitude":77.0082,"temp":38.4,"humidity":15,"rain":0.0,"pressure":974.0,"uv_index":8.1,"wind_gusts":17.3,"aqi":106,"pm10":25.0,"pm2_5":21.6,"mosquito_risk":0,"arthritis_risk":5,"migraine_risk":10,"frizz_risk":0,"updated_at":"2026-03-14T16:02:55.065700+05:30"},{"city":"Amravati","state":"Maharashtra","latitude":20.9374,"longitude":77.7796,"temp":38.3,"humidity":13,"rain":0.0,"pressure":966.4,"uv_index":8.1,"wind_gusts":22.3,"aqi":103,"pm10":23.6,"pm2_5":20.8,"mosquito_risk":0,"arthritis_risk":5,"migraine_risk":10,"frizz_risk":0,"updated_at":"2026-03-14T16:02:55.065708+05:30"},{"city":"Latur","state":"Maharashtra","latitude":18.4088,"longitude":76.5604,"temp":34.1,"humidity":24,"rain":0.0,"pressure":939.7,"uv_index":8.5,"wind_gusts":26.6,"aqi":115,"pm10":41.4,"pm2_5":33.1,"mosquito_risk":0,"arthritis_risk":5,"migraine_risk":7,"frizz_risk":0,"updated_at":"2026-03-14T16:02:55.065715+05:30"},{"city":"Nanded","state":"Maharashtra","latitude":19.1383,"longitude":77.3091,"temp":37.9,"humidity":18,"rain":0.0,"pressure":967.4,"uv_index":8.3,"wind_gusts":31.0,"aqi":126,"pm10":47.7,"pm2_5":37.8,"mosquito_risk":0,"arthritis_risk":5,"migraine_risk":10,"frizz_risk":0,"updated_at":"2026-03-14T16:02:55.065720+05:30"},{"city":"Gulbarga","state":"Karnataka","latitude":17.3297,"longitude":76.8343,"temp":37.1,"humidity":18,"rain":0.0,"pressure":957.8,"uv_index":8.6,"wind_gusts":38.9,"aqi":115,"pm10":44.0,"pm2_5":34.6,"mosquito_risk":0,"arthritis_risk":5,"migraine_risk":10,"frizz_risk":0,"updated_at":"2026-03-14T16:02:55.065726+05:30"},{"city":"Bidar","state":"Karnataka","latitude":17.9104,"longitude":77.5199,"temp":34.7,"humidity":23,"rain":0.0,"pressure":935.5,"uv_index":8.55,"wind_gusts":37.1,"aqi":120,"pm10":44.1,"pm2_5":32.4,"mosquito_risk":0,"arthritis_risk":5,"migraine_risk":7,"frizz_risk":0,"updated_at":"2026-03-14T16:02:55.065732+05:30"},{"city":"Hospet","state":"Karnataka","latitude":15.2689,"longitude":76.3909,"temp":34.5,"humidity":30,"rain":0.0,"pressure":955.3,"uv_index":8.9,"wind_gusts":28.1,"aqi":111,"pm10":44.4,"pm2_5":35.3,"mosquito_risk":0,"arthritis_risk":5,"migraine_risk":7,"frizz_risk":0,"updated_at":"2026-03-14T16:02:55.065738+05:30"},{"city":"Tirupur","state":"Tamil Nadu","latitude":11.1085,"longitude":77.3411,"temp":36.1,"humidity":18,"rain":0.0,"pressure":974.3,"uv_index":9.3,"wind_gusts":30.2,"aqi":69,"pm10":19.7,"pm2_5":15.4,"mosquito_risk":0,"arthritis_risk":5,"migraine_risk":10,"frizz_risk":0,"updated_at":"2026-03-14T16:02:55.065744+05:30"},{"city":"Alappuzha","state":"Kerala","latitude":9.4981,"longitude":76.3388,"temp":28.7,"humidity":76,"rain":0.0,"pressure":1007.7,"uv_index":9.1,"wind_gusts":28.4,"aqi":96,"pm10":17.5,"pm2_5":15.9,"mosquito_risk":7,"arthritis_risk":5,"migraine_risk":4,"frizz_risk":1,"updated_at":"2026-03-14T16:02:55.065751+05:30"},{"city":"Munnar","state":"Kerala","latitude":10.0889,"longitude":77.0595,"temp":28.1,"humidity":47,"rain":0.0,"pressure":858.2,"uv_index":9.6,"wind_gusts":28.8,"aqi":57,"pm10":10.5,"pm2_5":8.8,"mosquito_risk":4,"arthritis_risk":5,"migraine_risk":7,"frizz_risk":0,"updated_at":"2026-03-14T16:02:55.065758+05:30"},{"city":"Silchar","state":"Assam","latitude":24.8333,"longitude":92.7789,"temp":21.9,"humidity":86,"rain":0.0,"pressure":1008.1,"uv_index":7.4,"wind_gusts":39.6,"aqi":113,"pm10":42.3,"pm2_5":30.6,"mosquito_risk":3,"arthritis_risk":0,"migraine_risk":4,"frizz_risk":1,"updated_at":"2026-03-14T16:02:55.065765+05:30"},{"city":"Dibrugarh","state":"Assam","latitude":27.4728,"longitude":94.912,"temp":20.8,"humidity":86,"rain":0.0,"pressure":997.6,"uv_index":4.6,"wind_gusts":22.0,"aqi":93,"pm10":37.7,"pm2_5":32.7,"mosquito_risk":3,"arthritis_risk":5,"migraine_risk":3,"frizz_risk":1,"updated_at":"2026-03-14T16:02:55.065771+05:30"}]