[{"city":"Delhi","state":"Delhi","latitude":28.6139,"longitude":77.209,"temp":25.6,"humidity":41,"rain":0.0,"pressure":980.5,"uv_index":7.35,"wind_gusts":36.0,"aqi":152,"pm10":295.2,"pm2_5":65.0,"no2":25.2,"co":449.0,"o3":76.0,"so2":16.2,"mosquito_risk":4,"arthritis_risk":5,"migraine_risk":7,"frizz_risk":0,"updated_at":"2026-05-07T03:29:35.844591+05:30"},{"city":"Mumbai","state":"Maharashtra","latitude":19.076,"longitude":72.8777,"temp":27.0,"humidity":91,"rain":0.0,"pressure":1004.7,"uv_index":7.85,"wind_gusts":43.9,"aqi":85,"pm10":74.7,"pm2_5":27.8,"no2":16.1,"co":427.0,"o3":69.0,"so2":21.8,"mosquito_risk":7,"arthritis_risk":5,"migraine_risk":4,"frizz_risk":1,"updated_at":"2026-05-07T03:29:35.844648+05:30"},{"city":"Bangalore","state":"Karnataka","latitude":12.9716,"longitude":77.5946,"temp":21.7,"humidity":92,"rain":0.0,"pressure":909.2,"uv_index":9.5,"wind_gusts":31.3,"aqi":91,"pm10":42.6,"pm2_5":38.6,"no2":10.6,"co":252.0,"o3":108.0,"so2":12.2,"mosquito_risk":3,"arthritis_risk":5,"migraine_risk":7,"frizz_risk":1,"updated_at":"2026-05-07T03:29:35.844665+05:30"},{"city":"Hyderabad","state":"Telangana","latitude":17.385,"longitude":78.4867,"temp":26.4,"humidity":66,"rain":0.0,"pressure":950.7,"uv_index":9.25,"wind_gusts":27.0,"aqi":83,"pm10":24.2,"pm2_5":20.3,"no2":8.0,"co":239.0,"o3":80.0,"so2":4.4,"mosquito_risk":7,"arthritis_risk":5,"migraine_risk":7,"frizz_risk":1,"updated_at":"2026-05-07T03:29:35.844676+05:30"},{"city":"Chennai","state":"Tamil Nadu","latitude":13.0827,"longitude":80.2707,"temp":28.1,"humidity":78,"rain":0.0,"pressure":1004.8,"uv_index":9.05,"wind_gusts":40.7,"aqi":48,"pm10":14.7,"pm2_5":10.1,"no2":8.7,"co":170.0,"o3":50.0,"so2":3.3,"mosquito_risk":7,"arthritis_risk":5,"migraine_risk":4,"frizz_risk":1,"updated_at":"2026-05-07T03:29:35.844686+05:30"},{"city":"Kolkata","state":"West Bengal","latitude":22.5726,"longitude":88.3639,"temp":24.4,"humidity":95,"rain":0.0,"pressure":1005.7,"uv_index":8.9,"wind_gusts":54.4,"aqi":98,"pm10":62.6,"pm2_5":58.1,"no2":33.2,"co":335.0,"o3":31.0,"so2":14.4,"mosquito_risk":3,"arthritis_risk":5,"migraine_risk":4,"frizz_risk":1,"updated_at":"2026-05-07T03:29:35.844696+05:30"},{"city":"Pune","state":"Maharashtra","latitude":18.5204,"longitude":73.8567,"temp":24.9,"humidity":77,"rain":0.0,"pressure":944.5,"uv_index":8.5,"wind_gusts":48.6,"aqi":77,"pm10":43.4,"pm2_5":28.5,"no2":19.8,"co":388.0,"o3":67.0,"so2":20.3,"mosquito_risk":3,"arthritis_risk":5,"migraine_risk":7,"frizz_risk":1,"updated_at":"2026-05-07T03:29:35.844704+05:30"},{"city":"Ahmedabad","state":"Gujarat","latitude":23.0225,"longitude":72.5714,"temp":31.2,"humidity":37,"rain":0.0,"pressure":998.3,"uv_index":8.1,"wind_gusts":31.0,"aqi":108,"pm10":128.1,"pm2_5":65.7,"no2":37.0,"co":301.0,"o3":39.0,"so2":21.2,"mosquito_risk":0,"arthritis_risk":5,"migraine_risk":7,"frizz_risk":0,"updated_at":"2026-05-07T03:29:35.844715+05:30"},{"city":"Jaipur","state":"Rajasthan","latitude":26.9124,"longitude":75.7873,"temp":24.0,"humidity":45,"rain":0.0,"pressure":956.2,"uv_index":8.1,"wind_gusts":39.6,"aqi":115,"pm10":137.4,"pm2_5":44.1,"no2":18.7,"co":313.0,"o3":61.0,"so2":7.0,"mosquito_risk":0,"arthritis_risk":5,"migraine_risk":7,"frizz_risk":0,"updated_at":"2026-05-07T03:29:35.844723+05:30"},{"city":"Lucknow","state":"Uttar Pradesh","latitude":26.8467,"longitude":80.9462,"temp":20.9,"humidity":76,"rain":0.0,"pressure":992.3,"uv_index":8.05,"wind_gusts":32.4,"aqi":114,"pm10":72.2,"pm2_5":49.9,"no2":21.3,"co":367.0,"o3":61.0,"so2":12.5,"mosquito_risk":3,"arthritis_risk":5,"migraine_risk":7,"frizz_risk":1,"updated_at":"2026-05-07T03:29:35.844731+05:30"},{"city":"Kanpur","state":"Uttar Pradesh","latitude":26.4499,"longitude":80.3319,"temp":21.6,"humidity":75,"rain":0.0,"pressure":990.3,"uv_index":7.55,"wind_gusts":33.1,"aqi":119,"pm10":110.4,"pm2_5":45.1,"no2":13.7,"co":326.0,"o3":76.0,"so2":9.5,"mosquito_risk":3,"arthritis_risk":5,"migraine_risk":7,"frizz_risk":1,"updated_at":"2026-05-07T03:29:35.844740+05:30"},{"city":"Chandigarh","state":"Chandigarh","latitude":30.7333,"longitude":76.7794,"temp":20.2,"humidity":55,"rain":0.0,"pressure":965.7,"uv_index":7.15,"wind_gusts":38.2,"aqi":77,"pm10":24.6,"pm2_5":20.4,"no2":17.9,"co":598.0,"o3":62.0,"so2":4.4,"mosquito_risk":0,"arthritis_risk":5,"migraine_risk":7,"frizz_risk":0,"updated_at":"2026-05-07T03:29:35.844749+05:30"},{"city":"Srinagar","state":"Jammu and Kashmir","latitude":34.0837,"longitude":74.7973,"temp":7.4,"humidity":82,"rain":0.0,"pressure":835.3,"uv_index":8.7,"wind_gusts":24.5,"aqi":73,"pm10":38.3,"pm2_5":27.6,"no2":23.8,"co":378.0,"o3":42.0,"so2":3.2,"mosquito_risk":3,"arthritis_risk":10,"migraine_risk":7,"frizz_risk":0,"updated_at":"2026-05-07T03:29:35.844758+05:30"},{"city":"Jammu","state":"Jammu and Kashmir","latitude":32.7266,"longitude":74.857,"temp":19.9,"humidity":61,"rain":0.0,"pressure":969.8,"uv_index":8.05,"wind_gusts":30.2,"aqi":69,"pm10":33.8,"pm2_5":31.2,"no2":30.6,"co":324.0,"o3":22.0,"so2":2.9,"mosquito_risk":3,"arthritis_risk":5,"migraine_risk":7,"frizz_risk":0,"updated_at":"2026-05-07T03:29:35.844766+05:30"},{"city":"Amritsar","state":"Punjab","latitude":31.634,"longitude":74.8723,"temp":21.0,"humidity":63,"rain":0.0,"pressure":977.9,"uv_index":8.2,"wind_gusts":31.7,"aqi":100,"pm10":27.7,"pm2_5":21.1,"no2":3.7,"co":464.0,"o3":97.0,"so2":4.2,"mosquito_risk":3,"arthritis_risk":5,"migraine_risk":7,"frizz_risk":0,"updated_at":"2026-05-07T03:29:35.844773+05:30"},{"city":"Ludhiana","state":"Punjab","latitude":30.901,"longitude":75.8573,"temp":20.4,"humidity":67,"rain":0.0,"pressure":975.5,"uv_index":7.8,"wind_gusts":31.0,"aqi":122,"pm10":157.9,"pm2_5":54.7,"no2":16.1,"co":628.0,"o3":62.0,"so2":8.5,"mosquito_risk":3,"arthritis_risk":5,"migraine_risk":7,"frizz_risk":0,"updated_at":"2026-05-07T03:29:35.844780+05:30"},{"city":"Jalandhar","state":"Punjab","latitude":31.326,"longitude":75.5762,"temp":19.0,"humidity":73,"rain":0.0,"pressure":976.6,"uv_index":7.95,"wind_gusts":29.5,"aqi":111,"pm10":110.1,"pm2_5":47.0,"no2":18.3,"co":654.0,"o3":58.0,"so2":8.1,"mosquito_risk":3,"arthritis_risk":5,"migraine_risk":7,"frizz_risk":0,"updated_at":"2026-05-07T03:29:35.844790+05:30"},{"city":"Dehradun","state":"Uttarakhand","latitude":30.6284,"longitude":78.0322,"temp":8.9,"humidity":91,"rain":0.0,"pressure":825.2,"uv_index":7.25,"wind_gusts":33.5,"aqi":56,"pm10":21.8,"pm2_5":14.1,"no2":21.8,"co":178.0,"o3":33.0,"so2":0.1,"mosquito_risk":3,"arthritis_risk":10,"migraine_risk":7,"frizz_risk":0,"updated_at":"2026-05-07T03:29:35.844800+05:30"},{"city":"Shimla","state":"Himachal Pradesh","latitude":31.1048,"longitude":77.1734,"temp":5.8,"humidity":78,"rain":0.0,"pressure":777.0,"uv_index":4.8,"wind_gusts":34.9,"aqi":59,"pm10":23.7,"pm2_5":15.9,"no2":15.7,"co":285.0,"o3":76.0,"so2":0.4,"mosquito_risk":3,"arthritis_risk":5,"migraine_risk":3,"frizz_risk":0,"updated_at":"2026-05-07T03:29:35.844807+05:30"},{"city":"Manali","state":"Himachal Pradesh","latitude":32.2396,"longitude":77.1887,"temp":7.7,"humidity":69,"rain":0.0,"pressure":811.9,"uv_index":8.2,"wind_gusts":33.1,"aqi":102,"pm10":19.7,"pm2_5":8.2,"no2":18.6,"co":284.0,"o3":128.0,"so2":0.6,"mosquito_risk":3,"arthritis_risk":5,"migraine_risk":7,"frizz_risk":0,"updated_at":"2026-05-07T03:29:35.844814+05:30"},{"city":"Gurgaon","state":"Haryana","latitude":28.4595,"longitude":77.0266,"temp":24.3,"humidity":46,"rain":0.0,"pressure":978.7,"uv_index":7.65,"wind_gusts":45.0,"aqi":398,"pm10":432.1,"pm2_5":85.9,"no2":20.2,"co":384.0,"o3":82.0,"so2":15.5,"mosquito_risk":0,"arthritis_risk":5,"migraine_risk":7,"frizz_risk":0,"updated_at":"2026-05-07T03:29:35.844821+05:30"},{"city":"Noida","state":"Uttar Pradesh","latitude":28.5355,"longitude":77.391,"temp":22.5,"humidity":54,"rain":0.0,"pressure":981.9,"uv_index":7.55,"wind_gusts":30.2,"aqi":398,"pm10":432.1,"pm2_5":85.9,"no2":20.2,"co":299.0,"o3":82.0,"so2":15.5,"mosquito_risk":0,"arthritis_risk":5,"migraine_risk":7,"frizz_risk":0,"updated_at":"2026-05-07T03:29:35.844828+05:30"},{"city":"Ghaziabad","state":"Uttar Pradesh","latitude":28.6692,"longitude":77.4538,"temp":22.1,"humidity":57,"rain":0.0,"pressure":980.2,"uv_index":7.55,"wind_gusts":32.8,"aqi":134,"pm10":208.2,"pm2_5":52.5,"no2":11.9,"co":394.0,"o3":84.0,"so2":9.0,"mosquito_risk":0,"arthritis_risk":5,"migraine_risk":7,"frizz_risk":0,"updated_at":"2026-05-07T03:29:35.844835+05:30"},{"city":"Faridabad","state":"Haryana","latitude":28.4089,"longitude":77.3178,"temp":24.0,"humidity":51,"rain":0.0,"pressure":981.2,"uv_index":7.6,"wind_gusts":34.9,"aqi":398,"pm10":432.1,"pm2_5":85.9,"no2":20.2,"co":238.0,"o3":82.0,"so2":15.5,"mosquito_risk":0,"arthritis_risk":5,"migraine_risk":7,"frizz_risk":0,"updated_at":"2026-05-07T03:29:35.844842+05:30"},{"city":"Meerut","state":"Uttar Pradesh","latitude":28.9845,"longitude":77.7064,"temp":21.2,"humidity":67,"rain":0.0,"pressure":979.1,"uv_index":7.45,"wind_gusts":32.8,"aqi":134,"pm10":208.2,"pm2_5":52.5,"no2":11.9,"co":451.0,"o3":84.0,"so2":9.0,"mosquito_risk":3,"arthritis_risk":5,"migraine_risk":7,"frizz_risk":0,"updated_at":"2026-05-07T03:29:35.844849+05:30"},{"city":"Agra","state":"Uttar Pradesh","latitude":27.1767,"longitude":78.0081,"temp":22.9,"humidity":59,"rain":0.0,"pressure":986.0,"uv_index":7.85,"wind_gusts":43.9,"aqi":364,"pm10":795.3,"pm2_5":101.7,"no2":7.4,"co":311.0,"o3":98.0,"so2":9.8,"mosquito_risk":0,"arthritis_risk":5,"migraine_risk":7,"frizz_risk":0,"updated_at":"2026-05-07T03:29:35.844855+05:30"},{"city":"Varanasi","state":"Uttar Pradesh","latitude":25.3176,"longitude":82.9739,"temp":21.8,"humidity":85,"rain":0.0,"pressure":997.2,"uv_index":8.6,"wind_gusts":25.9,"aqi":129,"pm10":61.0,"pm2_5":51.9,"no2":21.6,"co":586.0,"o3":72.0,"so2":16.2,"mosquito_risk":3,"arthritis_risk":5,"migraine_risk":7,"frizz_risk":1,"updated_at":"2026-05-07T03:29:35.844863+05:30"},{"city":"Prayagraj","state":"Uttar Pradesh","latitude":25.4358,"longitude":81.8463,"temp":22.2,"humidity":78,"rain":0.0,"pressure":995.4,"uv_index":8.45,"wind_gusts":39.2,"aqi":126,"pm10":46.6,"pm2_5":38.2,"no2":19.4,"co":382.0,"o3":67.0,"so2":10.6,"mosquito_risk":3,"arthritis_risk":5,"migraine_risk":7,"frizz_risk":1,"updated_at":"2026-05-07T03:29:35.844872+05:30"},{"city":"Gorakhpur","state":"Uttar Pradesh","latitude":26.7606,"longitude":83.3732,"temp":21.2,"humidity":91,"rain":0.0,"pressure":997.6,"uv_index":8.4,"wind_gusts":35.6,"aqi":92,"pm10":51.1,"pm2_5":36.0,"no2":21.0,"co":518.0,"o3":67.0,"so2":7.2,"mosquito_risk":3,"arthritis_risk":5,"migraine_risk":7,"frizz_risk":1,"updated_at":"2026-05-07T03:29:35.844879+05:30"},{"city":"Bareilly","state":"Uttar Pradesh","latitude":28.367,"longitude":79.4304,"temp":20.9,"humidity":69,"rain":0.0,"pressure":984.9,"uv_index":7.8,"wind_gusts":30.2,"aqi":105,"pm10":48.1,"pm2_5":28.9,"no2":11.0,"co":378.0,"o3":75.0,"so2":5.2,"mosquito_risk":3,"arthritis_risk":5,"migraine_risk":7,"frizz_risk":0,"updated_at":"2026-05-07T03:29:35.844886+05:30"},{"city":"Aligarh","state":"Uttar Pradesh","latitude":27.8974,"longitude":78.088,"temp":24.0,"humidity":49,"rain":0.0,"pressure":983.3,"uv_index":7.7,"wind_gusts":35.3,"aqi":151,"pm10":220.3,"pm2_5":52.4,"no2":11.0,"co":308.0,"o3":85.0,"so2":9.1,"mosquito_risk":0,"arthritis_risk":5,"migraine_risk":7,"frizz_risk":0,"updated_at":"2026-05-07T03:29:35.844892+05:30"},{"city":"Moradabad","state":"Uttar Pradesh","latitude":28.8386,"longitude":78.7733,"temp":20.6,"humidity":73,"rain":0.0,"pressure":981.8,"uv_index":7.65,"wind_gusts":36.7,"aqi":143,"pm10":45.2,"pm2_5":36.7,"no2":16.9,"co":384.0,"o3":70.0,"so2":8.0,"mosquito_risk":3,"arthritis_risk":5,"migraine_risk":7,"frizz_risk":0,"updated_at":"2026-05-07T03:29:35.844899+05:30"},{"city":"Saharanpur","state":"Uttar Pradesh","latitude":29.9637,"longitude":77.546,"temp":21.1,"humidity":63,"rain":0.0,"pressure":973.3,"uv_index":7.15,"wind_gusts":33.8,"aqi":119,"pm10":42.8,"pm2_5":37.1,"no2":24.8,"co":459.0,"o3":42.0,"so2":7.8,"mosquito_risk":3,"arthritis_risk":5,"migraine_risk":7,"frizz_risk":0,"updated_at":"2026-05-07T03:29:35.844905+05:30"},{"city":"Jhansi","state":"Uttar Pradesh","latitude":25.4484,"longitude":78.5685,"temp":24.3,"humidity":49,"rain":0.0,"pressure":975.8,"uv_index":8.35,"wind_gusts":32.0,"aqi":80,"pm10":90.6,"pm2_5":30.7,"no2":4.5,"co":304.0,"o3":91.0,"so2":5.1,"mosquito_risk":0,"arthritis_risk":5,"migraine_risk":7,"frizz_risk":0,"updated_at":"2026-05-07T03:29:39.121851+05:30"},{"city":"Surat","state":"Gujarat","latitude":21.1702,"longitude":72.8311,"temp":27.1,"humidity":90,"rain":0.0,"pressure":1002.6,"uv_index":7.7,"wind_gusts":32.4,"aqi":100,"pm10":58.8,"pm2_5":31.9,"no2":39.1,"co":502.0,"o3":37.0,"so2":60.4,"mosquito_risk":7,"arthritis_risk":5,"migraine_risk":4,"frizz_risk":1,"updated_at":"2026-05-07T03:29:39.121886+05:30"},{"city":"Vadodara","state":"Gujarat","latitude":22.3072,"longitude":73.1812,"temp":28.9,"humidity":63,"rain":0.0,"pressure":1000.3,"uv_index":8.05,"wind_gusts":32.4,"aqi":106,"pm10":111.1,"pm2_5":57.4,"no2":34.9,"co":265.0,"o3":48.0,"so2":17.7,"mosquito_risk":7,"arthritis_risk":5,"migraine_risk":4,"frizz_risk":1,"updated_at":"2026-05-07T03:29:39.121897+05:30"},{"city":"Rajkot","state":"Gujarat","latitude":22.3039,"longitude":70.8022,"temp":25.1,"humidity":90,"rain":0.0,"pressure":990.9,"uv_index":7.7,"wind_gusts":44.3,"aqi":71,"pm10":42.8,"pm2_5":15.5,"no2":7.0,"co":180.0,"o3":53.0,"so2":5.9,"mosquito_risk":7,"arthritis_risk":5,"migraine_risk":7,"frizz_risk":1,"updated_at":"2026-05-07T03:29:39.121907+05:30"},{"city":"Thane","state":"Maharashtra","latitude":19.2183,"longitude":72.9781,"temp":26.1,"humidity":95,"rain":0.0,"pressure":1004.1,"uv_index":7.9,"wind_gusts":37.1,"aqi":85,"pm10":74.7,"pm2_5":27.8,"no2":16.1,"co":293.0,"o3":69.0,"so2":21.8,"mosquito_risk":7,"arthritis_risk":5,"migraine_risk":4,"frizz_risk":1,"updated_at":"2026-05-07T03:29:39.121915+05:30"},{"city":"Nagpur","state":"Maharashtra","latitude":21.1458,"longitude":79.0882,"temp":28.8,"humidity":43,"rain":0.0,"pressure":970.8,"uv_index":8.9,"wind_gusts":31.7,"aqi":105,"pm10":70.8,"pm2_5":49.5,"no2":37.8,"co":492.0,"o3":34.0,"so2":20.7,"mosquito_risk":4,"arthritis_risk":5,"migraine_risk":7,"frizz_risk":0,"updated_at":"2026-05-07T03:29:39.121923+05:30"},{"city":"Nashik","state":"Maharashtra","latitude":19.9975,"longitude":73.7898,"temp":24.5,"humidity":71,"rain":0.0,"pressure":941.5,"uv_index":8.15,"wind_gusts":31.7,"aqi":71,"pm10":71.0,"pm2_5":34.6,"no2":33.9,"co":325.0,"o3":40.0,"so2":6.1,"mosquito_risk":3,"arthritis_risk":5,"migraine_risk":7,"frizz_risk":1,"updated_at":"2026-05-07T03:29:39.121929+05:30"},{"city":"Aurangabad","state":"Maharashtra","latitude":19.8762,"longitude":75.3433,"temp":28.6,"humidity":33,"rain":0.0,"pressure":940.7,"uv_index":9.05,"wind_gusts":30.6,"aqi":66,"pm10":69.6,"pm2_5":24.3,"no2":10.5,"co":181.0,"o3":94.0,"so2":3.4,"mosquito_risk":4,"arthritis_risk":5,"migraine_risk":7,"frizz_risk":0,"updated_at":"2026-05-07T03:29:39.121937+05:30"},{"city":"Solapur","state":"Maharashtra","latitude":17.6599,"longitude":75.9064,"temp":29.1,"humidity":42,"rain":0.0,"pressure":953.9,"uv_index":9.05,"wind_gusts":29.9,"aqi":65,"pm10":39.6,"pm2_5":28.9,"no2":7.5,"co":333.0,"o3":103.0,"so2":9.3,"mosquito_risk":4,"arthritis_risk":5,"migraine_risk":7,"frizz_risk":0,"updated_at":"2026-05-07T03:29:39.121945+05:30"},{"city":"Kolhapur","state":"Maharashtra","latitude":16.705,"longitude":74.2433,"temp":24.2,"humidity":77,"rain":0.0,"pressure":944.7,"uv_index":8.95,"wind_gusts":48.6,"aqi":68,"pm10":35.0,"pm2_5":24.9,"no2":15.7,"co":237.0,"o3":45.0,"so2":4.2,"mosquito_risk":3,"arthritis_risk":5,"migraine_risk":7,"frizz_risk":1,"updated_at":"2026-05-07T03:29:39.121952+05:30"},{"city":"Goa","state":"Goa","latitude":15.2993,"longitude":74.124,"temp":25.3,"humidity":92,"rain":0.0,"pressure":994.1,"uv_index":8.95,"wind_gusts":32.0,"aqi":68,"pm10":40.4,"pm2_5":24.6,"no2":11.2,"co":264.0,"o3":53.0,"so2":2.4,"mosquito_risk":7,"arthritis_risk":5,"migraine_risk":7,"frizz_risk":1,"updated_at":"2026-05-07T03:29:39.121959+05:30"},{"city":"Jodhpur","state":"Rajasthan","latitude":26.2389,"longitude":73.0243,"temp":28.4,"humidity":28,"rain":0.0,"pressure":978.7,"uv_index":8.3,"wind_gusts":37.8,"aqi":88,"pm10":149.9,"pm2_5":27.4,"no2":3.6,"co":389.0,"o3":89.0,"so2":2.6,"mosquito_risk":4,"arthritis_risk":5,"migraine_risk":7,"frizz_risk":0,"updated_at":"2026-05-07T03:29:39.121966+05:30"},{"city":"Udaipur","state":"Rajasthan","latitude":24.5854,"longitude":73.7125,"temp":22.6,"humidity":51,"rain":0.0,"pressure":942.1,"uv_index":8.75,"wind_gusts":28.4,"aqi":74,"pm10":66.6,"pm2_5":23.2,"no2":4.9,"co":250.0,"o3":86.0,"so2":4.7,"mosquito_risk":0,"arthritis_risk":5,"migraine_risk":7,"frizz_risk":0,"updated_at":"2026-05-07T03:29:39.121974+05:30"},{"city":"Kota","state":"Rajasthan","latitude":25.2138,"longitude":75.8648,"temp":24.1,"humidity":42,"rain":0.0,"pressure":975.4,"uv_index":8.3,"wind_gusts":38.2,"aqi":79,"pm10":49.6,"pm2_5":25.7,"no2":9.0,"co":555.0,"o3":71.0,"so2":17.7,"mosquito_risk":0,"arthritis_risk":5,"migraine_risk":7,"frizz_risk":0,"updated_at":"2026-05-07T03:29:39.121981+05:30"},{"city":"Bikaner","state":"Rajasthan","latitude":28.0229,"longitude":73.3119,"temp":26.4,"humidity":31,"rain":0.0,"pressure":976.9,"uv_index":8.25,"wind_gusts":32.4,"aqi":81,"pm10":55.4,"pm2_5":24.6,"no2":6.2,"co":207.0,"o3":56.0,"so2":5.0,"mosquito_risk":4,"arthritis_risk":5,"migraine_risk":7,"frizz_risk":0,"updated_at":"2026-05-07T03:29:39.121987+05:30"},{"city":"Ajmer","state":"Rajasthan","latitude":26.4499,"longitude":74.6399,"temp":27.0,"humidity":27,"rain":0.0,"pressure":950.5,"uv_index":8.25,"wind_gusts":46.4,"aqi":81,"pm10":103.6,"pm2_5":30.3,"no2":13.0,"co":335.0,"o3":68.0,"so2":6.4,"mosquito_risk":4,"arthritis_risk":5,"migraine_risk":7,"frizz_risk":0,"updated_at":"2026-05-07T03:29:39.121994+05:30"},{"city":"Gwalior","state":"Madhya Pradesh","latitude":26.2183,"longitude":78.1828,"temp":23.0,"humidity":57,"rain":0.0,"pressure":980.8,"uv_index":8.1,"wind_gusts":38.5,"aqi":103,"pm10":147.1,"pm2_5":41.6,"no2":4.4,"co":291.0,"o3":102.0,"so2":6.4,"mosquito_risk":0,"arthritis_risk":5,"migraine_risk":7,"frizz_risk":0,"updated_at":"2026-05-07T03:29:39.122001+05:30"},{"city":"Indore","state":"Madhya Pradesh","latitude":22.7196,"longitude":75.8577,"temp":27.5,"humidity":22,"rain":0.0,"pressure":945.3,"uv_index":8.65,"wind_gusts":36.0,"aqi":71,"pm10":32.4,"pm2_5":20.4,"no2":5.9,"co":340.0,"o3":96.0,"so2":6.5,"mosquito_risk":4,"arthritis_risk":5,"migraine_risk":7,"frizz_risk":0,"updated_at":"2026-05-07T03:29:39.122007+05:30"},{"city":"Bhopal","state":"Madhya Pradesh","latitude":23.2599,"longitude":77.4126,"temp":25.6,"humidity":34,"rain":0.0,"pressure":951.5,"uv_index":8.65,"wind_gusts":34.2,"aqi":59,"pm10":31.2,"pm2_5":21.0,"no2":5.0,"co":251.0,"o3":90.0,"so2":8.1,"mosquito_risk":4,"arthritis_risk":5,"migraine_risk":7,"frizz_risk":0,"updated_at":"2026-05-07T03:29:39.122014+05:30"},{"city":"Jabalpur","state":"Madhya Pradesh","latitude":23.1815,"longitude":79.9864,"temp":23.5,"humidity":47,"rain":0.0,"pressure":959.9,"uv_index":8.8,"wind_gusts":32.8,"aqi":75,"pm10":34.0,"pm2_5":20.7,"no2":9.9,"co":261.0,"o3":87.0,"so2":6.6,"mosquito_risk":0,"arthritis_risk":5,"migraine_risk":7,"frizz_risk":0,"updated_at":"2026-05-07T03:29:39.122021+05:30"},{"city":"Ujjain","state":"Madhya Pradesh","latitude":23.1765,"longitude":75.7885,"temp":25.9,"humidity":25,"rain":0.0,"pressure":950.8,"uv_index":8.55,"wind_gusts":30.2,"aqi":84,"pm10":46.4,"pm2_5":32.8,"no2":10.5,"co":349.0,"o3":77.0,"so2":6.3,"mosquito_risk":4,"arthritis_risk":5,"migraine_risk":7,"frizz_risk":0,"updated_at":"2026-05-07T03:29:39.122029+05:30"},{"city":"Visakhapatnam","state":"Andhra Pradesh","latitude":17.6868,"longitude":83.2185,"temp":25.9,"humidity":95,"rain":0.0,"pressure":1002.4,"uv_index":9.15,"wind_gusts":32.0,"aqi":78,"pm10":31.1,"pm2_5":26.1,"no2":34.1,"co":599.0,"o3":26.0,"so2":4.9,"mosquito_risk":7,"arthritis_risk":5,"migraine_risk":4,"frizz_risk":1,"updated_at":"2026-05-07T03:29:39.122036+05:30"},{"city":"Vijayawada","state":"Andhra Pradesh","latitude":16.5062,"longitude":80.648,"temp":27.6,"humidity":85,"rain":0.0,"pressure":1000.9,"uv_index":9.2,"wind_gusts":33.1,"aqi":58,"pm10":19.0,"pm2_5":15.1,"no2":10.4,"co":237.0,"o3":38.0,"so2":4.7,"mosquito_risk":7,"arthritis_risk":5,"migraine_risk":4,"frizz_risk":1,"updated_at":"2026-05-07T03:29:39.122043+05:30"},{"city":"Guntur","state":"Andhra Pradesh","latitude":16.3067,"longitude":80.4365,"temp":27.7,"humidity":86,"rain":0.0,"pressure":1002.1,"uv_index":9.2,"wind_gusts":34.6,"aqi":61,"pm10":16.4,"pm2_5":12.6,"no2":8.7,"co":195.0,"o3":44.0,"so2":4.6,"mosquito_risk":7,"arthritis_risk":5,"migraine_risk":4,"frizz_risk":1,"updated_at":"2026-05-07T03:29:39.122050+05:30"},{"city":"Nellore","state":"Andhra Pradesh","latitude":14.4426,"longitude":79.9865,"temp":27.5,"humidity":84,"rain":0.0,"pressure":1003.9,"uv_index":9.2,"wind_gusts":40.0,"aqi":46,"pm10":13.8,"pm2_5":8.8,"no2":4.9,"co":176.0,"o3":59.0,"so2":3.7,"mosquito_risk":7,"arthritis_risk":5,"migraine_risk":4,"frizz_risk":1,"updated_at":"2026-05-07T03:29:39.122058+05:30"},{"city":"Kurnool","state":"Andhra Pradesh","latitude":15.8281,"longitude":78.0373,"temp":27.6,"humidity":74,"rain":0.0,"pressure":974.3,"uv_index":9.15,"wind_gusts":39.2,"aqi":77,"pm10":16.2,"pm2_5":13.6,"no2":4.0,"co":177.0,"o3":74.0,"so2":2.6,"mosquito_risk":7,"arthritis_risk":5,"migraine_risk":7,"frizz_risk":1,"updated_at":"2026-05-07T03:29:39.122065+05:30"},{"city":"Kakinada","state":"Andhra Pradesh","latitude":16.9891,"longitude":82.2475,"temp":26.2,"humidity":95,"rain":0.0,"pressure":1005.9,"uv_index":9.15,"wind_gusts":32.4,"aqi":42,"pm10":12.5,"pm2_5":8.1,"no2":2.3,"co":360.0,"o3":48.0,"so2":0.8,"mosquito_risk":7,"arthritis_risk":5,"migraine_risk":4,"frizz_risk":1,"updated_at":"2026-05-07T03:29:39.122072+05:30"},{"city":"Tirupati","state":"Andhra Pradesh","latitude":13.6288,"longitude":79.4192,"temp":25.9,"humidity":92,"rain":0.0,"pressure":989.4,"uv_index":9.3,"wind_gusts":44.6,"aqi":72,"pm10":22.6,"pm2_5":19.4,"no2":25.0,"co":222.0,"o3":31.0,"so2":13.6,"mosquito_risk":7,"arthritis_risk":5,"migraine_risk":7,"frizz_risk":1,"updated_at":"2026-05-07T03:29:39.122079+05:30"},{"city":"Warangal","state":"Telangana","latitude":17.9689,"longitude":79.5941,"temp":27.0,"humidity":68,"rain":0.0,"pressure":976.5,"uv_index":9.1,"wind_gusts":41.4,"aqi":81,"pm10":22.9,"pm2_5":20.7,"no2":9.5,"co":259.0,"o3":62.0,"so2":10.2,"mosquito_risk":7,"arthritis_risk":5,"migraine_risk":7,"frizz_risk":1,"updated_at":"2026-05-07T03:29:39.122086+05:30"},{"city":"Nizamabad","state":"Telangana","latitude":18.6725,"longitude":78.0941,"temp":28.0,"humidity":52,"rain":0.0,"pressure":962.0,"uv_index":9.1,"wind_gusts":39.6,"aqi":94,"pm10":47.1,"pm2_5":36.6,"no2":10.4,"co":253.0,"o3":81.0,"so2":4.9,"mosquito_risk":4,"arthritis_risk":5,"migraine_risk":7,"frizz_risk":1,"updated_at":"2026-05-07T03:29:39.122092+05:30"},{"city":"Mysore","state":"Karnataka","latitude":12.2958,"longitude":76.6396,"temp":22.5,"humidity":83,"rain":0.0,"pressure":925.7,"uv_index":9.4,"wind_gusts":32.0,"aqi":75,"pm10":54.1,"pm2_5":38.9,"no2":11.5,"co":305.0,"o3":99.0,"so2":6.9,"mosquito_risk":3,"arthritis_risk":5,"migraine_risk":7,"frizz_risk":1,"updated_at":"2026-05-07T03:29:39.122099+05:30"},{"city":"Mangalore","state":"Karnataka","latitude":12.9141,"longitude":74.856,"temp":28.5,"humidity":78,"rain":0.0,"pressure":1003.0,"uv_index":6.9,"wind_gusts":40.7,"aqi":63,"pm10":36.4,"pm2_5":18.7,"no2":7.0,"co":195.0,"o3":50.0,"so2":2.0,"mosquito_risk":7,"arthritis_risk":5,"migraine_risk":4,"frizz_risk":1,"updated_at":"2026-05-07T03:29:39.122106+05:30"},{"city":"Hubli-Dharwad","state":"Karnataka","latitude":15.3647,"longitude":75.124,"temp":23.1,"humidity":82,"rain":0.0,"pressure":937.0,"uv_index":9.2,"wind_gusts":41.0,"aqi":66,"pm10":38.0,"pm2_5":23.1,"no2":19.9,"co":285.0,"o3":33.0,"so2":3.3,"mosquito_risk":3,"arthritis_risk":5,"migraine_risk":7,"frizz_risk":1,"updated_at":"2026-05-07T03:29:39.122113+05:30"},{"city":"Belgaum","state":"Karnataka","latitude":15.8497,"longitude":74.4977,"temp":23.0,"humidity":69,"rain":0.0,"pressure":921.6,"uv_index":8.35,"wind_gusts":42.5,"aqi":68,"pm10":41.7,"pm2_5":27.4,"no2":23.4,"co":238.0,"o3":32.0,"so2":3.8,"mosquito_risk":3,"arthritis_risk":5,"migraine_risk":7,"frizz_risk":1,"updated_at":"2026-05-07T03:29:42.401325+05:30"},{"city":"Coimbatore","state":"Tamil Nadu","latitude":11.0168,"longitude":76.9558,"temp":23.6,"humidity":89,"rain":0.0,"pressure":959.0,"uv_index":9.05,"wind_gusts":28.8,"aqi":72,"pm10":35.6,"pm2_5":26.8,"no2":7.8,"co":248.0,"o3":106.0,"so2":5.1,"mosquito_risk":3,"arthritis_risk":5,"migraine_risk":7,"frizz_risk":1,"updated_at":"2026-05-07T03:29:42.401360+05:30"},{"city":"Madurai","state":"Tamil Nadu","latitude":9.9252,"longitude":78.1198,"temp":27.0,"humidity":77,"rain":0.0,"pressure":990.2,"uv_index":8.15,"wind_gusts":46.1,"aqi":81,"pm10":21.6,"pm2_5":16.2,"no2":11.0,"co":223.0,"o3":76.0,"so2":3.1,"mosquito_risk":7,"arthritis_risk":5,"migraine_risk":7,"frizz_risk":1,"updated_at":"2026-05-07T03:29:42.401371+05:30"},{"city":"Trichy","state":"Tamil Nadu","latitude":10.7905,"longitude":78.7047,"temp":26.8,"humidity":87,"rain":0.0,"pressure":997.2,"uv_index":6.7,"wind_gusts":31.0,"aqi":74,"pm10":20.1,"pm2_5":15.4,"no2":11.6,"co":222.0,"o3":63.0,"so2":4.5,"mosquito_risk":7,"arthritis_risk":5,"migraine_risk":7,"frizz_risk":1,"updated_at":"2026-05-07T03:29:42.401380+05:30"},{"city":"Salem","state":"Tamil Nadu","latitude":11.6643,"longitude":78.146,"temp":24.3,"humidity":99,"rain":0.0,"pressure":975.0,"uv_index":7.55,"wind_gusts":42.8,"aqi":91,"pm10":38.9,"pm2_5":31.4,"no2":9.3,"co":247.0,"o3":94.0,"so2":10.8,"mosquito_risk":3,"arthritis_risk":5,"migraine_risk":7,"frizz_risk":1,"updated_at":"2026-05-07T03:29:42.401388+05:30"},{"city":"Tirunelveli","state":"Tamil Nadu","latitude":8.7139,"longitude":77.7567,"temp":27.2,"humidity":81,"rain":0.0,"pressure":1000.5,"uv_index":6.05,"wind_gusts":40.7,"aqi":72,"pm10":31.9,"pm2_5":26.0,"no2":9.6,"co":240.0,"o3":70.0,"so2":5.3,"mosquito_risk":7,"arthritis_risk":5,"migraine_risk":4,"frizz_risk":1,"updated_at":"2026-05-07T03:29:42.401397+05:30"},{"city":"Vellore","state":"Tamil Nadu","latitude":12.9165,"longitude":79.1325,"temp":25.8,"humidity":90,"rain":0.0,"pressure":982.6,"uv_index":8.95,"wind_gusts":34.9,"aqi":92,"pm10":23.2,"pm2_5":19.7,"no2":12.6,"co":210.0,"o3":49.0,"so2":2.2,"mosquito_risk":7,"arthritis_risk":5,"migraine_risk":7,"frizz_risk":1,"updated_at":"2026-05-07T03:29:42.401404+05:30"},{"city":"Erode","state":"Tamil Nadu","latitude":11.341,"longitude":77.7172,"temp":24.5,"humidity":94,"rain":0.0,"pressure":986.8,"uv_index":8.0,"wind_gusts":29.9,"aqi":84,"pm10":38.1,"pm2_5":29.1,"no2":8.9,"co":254.0,"o3":95.0,"so2":4.4,"mosquito_risk":3,"arthritis_risk":5,"migraine_risk":7,"frizz_risk":1,"updated_at":"2026-05-07T03:29:42.401411+05:30"},{"city":"Kochi","state":"Kerala","latitude":9.9312,"longitude":76.2673,"temp":25.5,"humidity":96,"rain":0.1,"pressure":1005.7,"uv_index":6.0,"wind_gusts":29.2,"aqi":76,"pm10":25.6,"pm2_5":19.9,"no2":9.7,"co":240.0,"o3":67.0,"so2":4.0,"mosquito_risk":10,"arthritis_risk":5,"migraine_risk":0,"frizz_risk":1,"updated_at":"2026-05-07T03:29:42.401419+05:30"},{"city":"Thiruvananthapuram","state":"Kerala","latitude":8.5241,"longitude":76.9366,"temp":25.0,"humidity":99,"rain":0.0,"pressure":1004.9,"uv_index":5.0,"wind_gusts":28.8,"aqi":53,"pm10":20.9,"pm2_5":12.1,"no2":5.4,"co":369.0,"o3":90.0,"so2":3.0,"mosquito_risk":7,"arthritis_risk":5,"migraine_risk":0,"frizz_risk":1,"updated_at":"2026-05-07T03:29:42.401426+05:30"},{"city":"Kozhikode","state":"Kerala","latitude":11.2588,"longitude":75.7804,"temp":24.4,"humidity":97,"rain":0.0,"pressure":1005.4,"uv_index":7.55,"wind_gusts":33.5,"aqi":63,"pm10":38.5,"pm2_5":19.3,"no2":4.0,"co":216.0,"o3":79.0,"so2":2.5,"mosquito_risk":3,"arthritis_risk":5,"migraine_risk":4,"frizz_risk":1,"updated_at":"2026-05-07T03:29:42.401434+05:30"},{"city":"Thrissur","state":"Kerala","latitude":10.5276,"longitude":76.2144,"temp":24.2,"humidity":99,"rain":0.3,"pressure":1004.2,"uv_index":6.75,"wind_gusts":34.6,"aqi":84,"pm10":24.5,"pm2_5":19.2,"no2":8.9,"co":303.0,"o3":71.0,"so2":2.6,"mosquito_risk":6,"arthritis_risk":5,"migraine_risk":4,"frizz_risk":1,"updated_at":"2026-05-07T03:29:42.401442+05:30"},{"city":"Kannur","state":"Kerala","latitude":11.8745,"longitude":75.3704,"temp":25.3,"humidity":95,"rain":0.0,"pressure":1004.6,"uv_index":7.9,"wind_gusts":36.7,"aqi":61,"pm10":30.3,"pm2_5":18.7,"no2":15.2,"co":209.0,"o3":32.0,"so2":2.2,"mosquito_risk":7,"arthritis_risk":5,"migraine_risk":4,"frizz_risk":1,"updated_at":"2026-05-07T03:29:42.401449+05:30"},{"city":"Patna","state":"Bihar","latitude":25.5941,"longitude":85.1376,"temp":21.7,"humidity":89,"rain":0.0,"pressure":1000.8,"uv_index":8.7,"wind_gusts":41.0,"aqi":126,"pm10":82.7,"pm2_5":68.7,"no2":35.1,"co":398.0,"o3":59.0,"so2":18.9,"mosquito_risk":3,"arthritis_risk":5,"migraine_risk":4,"frizz_risk":1,"updated_at":"2026-05-07T03:29:42.401456+05:30"},{"city":"Gaya","state":"Bihar","latitude":24.7914,"longitude":85.0002,"temp":22.6,"humidity":83,"rain":0.0,"pressure":993.1,"uv_index":8.75,"wind_gusts":34.2,"aqi":126,"pm10":70.8,"pm2_5":59.8,"no2":34.6,"co":352.0,"o3":36.0,"so2":9.6,"mosquito_risk":3,"arthritis_risk":5,"migraine_risk":7,"frizz_risk":1,"updated_at":"2026-05-07T03:29:42.401463+05:30"},{"city":"Muzaffarpur","state":"Bihar","latitude":26.1209,"longitude":85.3647,"temp":20.8,"humidity":92,"rain":0.0,"pressure":1001.0,"uv_index":8.7,"wind_gusts":55.8,"aqi":131,"pm10":87.8,"pm2_5":74.5,"no2":36.1,"co":443.0,"o3":45.0,"so2":16.4,"mosquito_risk":3,"arthritis_risk":5,"migraine_risk":4,"frizz_risk":1,"updated_at":"2026-05-07T03:29:42.401469+05:30"},{"city":"Bhagalpur","state":"Bihar","latitude":25.2425,"longitude":87.0117,"temp":21.6,"humidity":91,"rain":0.0,"pressure":1002.2,"uv_index":8.7,"wind_gusts":51.5,"aqi":114,"pm10":66.8,"pm2_5":60.3,"no2":16.9,"co":338.0,"o3":82.0,"so2":13.2,"mosquito_risk":3,"arthritis_risk":5,"migraine_risk":4,"frizz_risk":1,"updated_at":"2026-05-07T03:29:42.401476+05:30"},{"city":"Ranchi","state":"Jharkhand","latitude":23.3441,"longitude":85.3096,"temp":20.5,"humidity":94,"rain":0.0,"pressure":936.3,"uv_index":9.2,"wind_gusts":37.4,"aqi":103,"pm10":96.2,"pm2_5":81.0,"no2":18.4,"co":542.0,"o3":121.0,"so2":28.9,"mosquito_risk":3,"arthritis_risk":5,"migraine_risk":7,"frizz_risk":1,"updated_at":"2026-05-07T03:29:42.401483+05:30"},{"city":"Jamshedpur","state":"Jharkhand","latitude":22.8046,"longitude":86.2029,"temp":23.6,"humidity":90,"rain":0.0,"pressure":990.3,"uv_index":9.05,"wind_gusts":37.8,"aqi":129,"pm10":71.0,"pm2_5":62.6,"no2":35.7,"co":310.0,"o3":57.0,"so2":15.9,"mosquito_risk":3,"arthritis_risk":5,"migraine_risk":7,"frizz_risk":1,"updated_at":"2026-05-07T03:29:42.401489+05:30"},{"city":"Dhanbad","state":"Jharkhand","latitude":23.7957,"longitude":86.4304,"temp":22.8,"humidity":95,"rain":0.0,"pressure":979.5,"uv_index":8.95,"wind_gusts":50.0,"aqi":162,"pm10":162.5,"pm2_5":151.3,"no2":79.1,"co":430.0,"o3":42.0,"so2":92.3,"mosquito_risk":3,"arthritis_risk":5,"migraine_risk":7,"frizz_risk":1,"updated_at":"2026-05-07T03:29:42.401495+05:30"},{"city":"Bokaro","state":"Jharkhand","latitude":23.6693,"longitude":86.1511,"temp":22.5,"humidity":95,"rain":0.0,"pressure":983.4,"uv_index":9.0,"wind_gusts":42.5,"aqi":161,"pm10":174.2,"pm2_5":160.2,"no2":88.8,"co":500.0,"o3":23.0,"so2":95.4,"mosquito_risk":3,"arthritis_risk":5,"migraine_risk":7,"frizz_risk":1,"updated_at":"2026-05-07T03:29:42.401502+05:30"},{"city":"Bhubaneswar","state":"Odisha","latitude":20.2961,"longitude":85.8245,"temp":26.0,"humidity":96,"rain":0.0,"pressure":1001.5,"uv_index":8.45,"wind_gusts":29.9,"aqi":63,"pm10":13.9,"pm2_5":11.0,"no2":7.1,"co":152.0,"o3":40.0,"so2":3.7,"mosquito_risk":7,"arthritis_risk":5,"migraine_risk":4,"frizz_risk":1,"updated_at":"2026-05-07T03:29:42.401509+05:30"},{"city":"Cuttack","state":"Odisha","latitude":20.4625,"longitude":85.8828,"temp":26.0,"humidity":96,"rain":0.0,"pressure":1003.3,"uv_index":8.5,"wind_gusts":31.0,"aqi":63,"pm10":13.9,"pm2_5":11.0,"no2":7.1,"co":173.0,"o3":40.0,"so2":3.7,"mosquito_risk":7,"arthritis_risk":5,"migraine_risk":4,"frizz_risk":1,"updated_at":"2026-05-07T03:29:42.401532+05:30"},{"city":"Rourkela","state":"Odisha","latitude":22.2604,"longitude":84.8536,"temp":22.5,"humidity":77,"rain":0.0,"pressure":983.9,"uv_index":8.95,"wind_gusts":38.5,"aqi":107,"pm10":66.6,"pm2_5":58.8,"no2":19.7,"co":500.0,"o3":83.0,"so2":44.5,"mosquito_risk":3,"arthritis_risk":5,"migraine_risk":7,"frizz_risk":1,"updated_at":"2026-05-07T03:29:42.401539+05:30"},{"city":"Raipur","state":"Chhattisgarh","latitude":21.2514,"longitude":81.6296,"temp":26.5,"humidity":48,"rain":0.0,"pressure":973.2,"uv_index":8.95,"wind_gusts":30.6,"aqi":123,"pm10":75.4,"pm2_5":58.4,"no2":39.4,"co":551.0,"o3":55.0,"so2":12.9,"mosquito_risk":4,"arthritis_risk":5,"migraine_risk":7,"frizz_risk":0,"updated_at":"2026-05-07T03:29:42.401546+05:30"},{"city":"Bhilai","state":"Chhattisgarh","latitude":21.1938,"longitude":81.3509,"temp":26.5,"humidity":51,"rain":0.0,"pressure":973.2,"uv_index":8.95,"wind_gusts":28.4,"aqi":118,"pm10":87.1,"pm2_5":65.7,"no2":59.8,"co":728.0,"o3":26.0,"so2":13.4,"mosquito_risk":4,"arthritis_risk":5,"migraine_risk":7,"frizz_risk":0,"updated_at":"2026-05-07T03:29:42.401553+05:30"},{"city":"Guwahati","state":"Assam","latitude":26.1158,"longitude":91.7086,"temp":21.3,"humidity":94,"rain":0.0,"pressure":1002.8,"uv_index":8.65,"wind_gusts":37.4,"aqi":80,"pm10":25.8,"pm2_5":22.4,"no2":7.7,"co":270.0,"o3":76.0,"so2":1.9,"mosquito_risk":3,"arthritis_risk":5,"migraine_risk":4,"frizz_risk":1,"updated_at":"2026-05-07T03:29:42.401559+05:30"},{"city":"Agartala","state":"Tripura","latitude":23.8315,"longitude":91.2868,"temp":22.6,"humidity":97,"rain":0.0,"pressure":1006.9,"uv_index":8.85,"wind_gusts":25.2,"aqi":113,"pm10":29.7,"pm2_5":24.7,"no2":12.1,"co":349.0,"o3":86.0,"so2":3.0,"mosquito_risk":3,"arthritis_risk":5,"migraine_risk":4,"frizz_risk":1,"updated_at":"2026-05-07T03:29:42.401566+05:30"},{"city":"Shillong","state":"Meghalaya","latitude":25.5788,"longitude":91.8933,"temp":14.6,"humidity":93,"rain":0.0,"pressure":855.7,"uv_index":9.0,"wind_gusts":23.8,"aqi":77,"pm10":17.2,"pm2_5":14.2,"no2":7.9,"co":270.0,"o3":72.0,"so2":1.0,"mosquito_risk":3,"arthritis_risk":10,"migraine_risk":7,"frizz_risk":0,"updated_at":"2026-05-07T03:29:42.401573+05:30"},{"city":"Imphal","state":"Manipur","latitude":24.817,"longitude":93.9368,"temp":19.6,"humidity":98,"rain":0.0,"pressure":923.1,"uv_index":9.2,"wind_gusts":31.3,"aqi":83,"pm10":48.0,"pm2_5":43.7,"no2":16.6,"co":557.0,"o3":31.0,"so2":0.4,"mosquito_risk":3,"arthritis_risk":10,"migraine_risk":7,"frizz_risk":1,"updated_at":"2026-05-07T03:29:42.401580+05:30"},{"city":"Aizawl","state":"Mizoram","latitude":23.7271,"longitude":92.7176,"temp":16.7,"humidity":100,"rain":0.0,"pressure":891.6,"uv_index":9.05,"wind_gusts":27.4,"aqi":63,"pm10":27.1,"pm2_5":19.0,"no2":3.9,"co":247.0,"o3":68.0,"so2":1.0,"mosquito_risk":3,"arthritis_risk":10,"migraine_risk":7,"frizz_risk":1,"updated_at":"2026-05-07T03:29:42.401587+05:30"},{"city":"Kohima","state":"Nagaland","latitude":25.6701,"longitude":94.1077,"temp":16.4,"humidity":95,"rain":0.0,"pressure":854.1,"uv_index":9.15,"wind_gusts":25.2,"aqi":78,"pm10":27.0,"pm2_5":19.8,"no2":6.4,"co":231.0,"o3":54.0,"so2":0.4,"mosquito_risk":3,"arthritis_risk":10,"migraine_risk":7,"frizz_risk":0,"updated_at":"2026-05-07T03:29:42.401593+05:30"},{"city":"Gangtok","state":"Sikkim","latitude":27.3314,"longitude":88.6138,"temp":10.7,"humidity":80,"rain":0.1,"pressure":835.9,"uv_index":9.0,"wind_gusts":47.2,"aqi":64,"pm10":25.1,"pm2_5":19.0,"no2":13.0,"co":335.0,"o3":82.0,"so2":0.8,"mosquito_risk":6,"arthritis_risk":5,"migraine_risk":7,"frizz_risk":0,"updated_at":"2026-05-07T03:29:42.401600+05:30"},{"city":"Siliguri","state":"West Bengal","latitude":26.7271,"longitude":88.3953,"temp":21.4,"humidity":86,"rain":0.1,"pressure":994.3,"uv_index":8.6,"wind_gusts":29.2,"aqi":99,"pm10":59.4,"pm2_5":49.6,"no2":30.8,"co":488.0,"o3":54.0,"so2":5.0,"mosquito_risk":6,"arthritis_risk":5,"migraine_risk":7,"frizz_risk":1,"updated_at":"2026-05-07T03:29:45.678632+05:30"},{"city":"Durgapur","state":"West Bengal","latitude":23.5204,"longitude":87.3119,"temp":23.0,"humidity":96,"rain":0.0,"pressure":994.7,"uv_index":8.9,"wind_gusts":54.0,"aqi":158,"pm10":102.2,"pm2_5":96.4,"no2":40.3,"co":626.0,"o3":70.0,"so2":46.9,"mosquito_risk":3,"arthritis_risk":5,"migraine_risk":7,"frizz_risk":1,"updated_at":"2026-05-07T03:29:45.678669+05:30"},{"city":"Asansol","state":"West Bengal","latitude":23.6739,"longitude":86.9524,"temp":22.5,"humidity":96,"rain":0.0,"pressure":993.3,"uv_index":8.95,"wind_gusts":56.9,"aqi":156,"pm10":118.0,"pm2_5":109.9,"no2":39.6,"co":736.0,"o3":66.0,"so2":67.2,"mosquito_risk":3,"arthritis_risk":5,"migraine_risk":7,"frizz_risk":1,"updated_at":"2026-05-07T03:29:45.678681+05:30"},{"city":"Pondicherry","state":"Puducherry","latitude":11.9139,"longitude":79.8145,"temp":28.2,"humidity":80,"rain":0.0,"pressure":1005.8,"uv_index":8.2,"wind_gusts":36.0,"aqi":52,"pm10":14.2,"pm2_5":8.5,"no2":1.6,"co":204.0,"o3":72.0,"so2":0.4,"mosquito_risk":7,"arthritis_risk":5,"migraine_risk":4,"frizz_risk":1,"updated_at":"2026-05-07T03:29:45.678691+05:30"},{"city":"Port Blair","state":"Andaman and Nicobar Islands","latitude":11.6234,"longitude":92.7265,"temp":24.7,"humidity":97,"rain":0.0,"pressure":1004.7,"uv_index":9.05,"wind_gusts":33.5,"aqi":32,"pm10":6.2,"pm2_5":4.8,"no2":0.3,"co":219.0,"o3":70.0,"so2":0.1,"mosquito_risk":3,"arthritis_risk":5,"migraine_risk":4,"frizz_risk":1,"updated_at":"2026-05-07T03:29:45.678699+05:30"},{"city":"Haridwar","state":"Uttarakhand","latitude":29.9457,"longitude":78.1642,"temp":18.6,"humidity":69,"rain":0.0,"pressure":971.5,"uv_index":6.0,"wind_gusts":28.4,"aqi":86,"pm10":41.2,"pm2_5":33.3,"no2":28.2,"co":250.0,"o3":28.0,"so2":4.5,"mosquito_risk":3,"arthritis_risk":5,"migraine_risk":3,"frizz_risk":0,"updated_at":"2026-05-07T03:29:45.678708+05:30"},{"city":"Rishikesh","state":"Uttarakhand","latitude":30.0869,"longitude":78.2676,"temp":16.8,"humidity":75,"rain":0.0,"pressure":964.1,"uv_index":6.05,"wind_gusts":20.5,"aqi":72,"pm10":43.3,"pm2_5":27.0,"no2":15.7,"co":283.0,"o3":58.0,"so2":3.0,"mosquito_risk":3,"arthritis_risk":5,"migraine_risk":7,"frizz_risk":0,"updated_at":"2026-05-07T03:29:45.678716+05:30"},{"city":"Nainital","state":"Uttarakhand","latitude":29.3919,"longitude":79.4542,"temp":11.2,"humidity":64,"rain":0.0,"pressure":801.9,"uv_index":6.65,"wind_gusts":27.7,"aqi":70,"pm10":27.9,"pm2_5":18.6,"no2":9.4,"co":204.0,"o3":90.0,"so2":1.7,"mosquito_risk":3,"arthritis_risk":5,"migraine_risk":7,"frizz_risk":0,"updated_at":"2026-05-07T03:29:45.678724+05:30"},{"city":"Mussoorie","state":"Uttarakhand","latitude":30.4599,"longitude":78.0664,"temp":7.9,"humidity":77,"rain":0.0,"pressure":796.7,"uv_index":6.9,"wind_gusts":38.5,"aqi":77,"pm10":34.8,"pm2_5":26.0,"no2":28.0,"co":218.0,"o3":32.0,"so2":5.0,"mosquito_risk":3,"arthritis_risk":5,"migraine_risk":7,"frizz_risk":0,"updated_at":"2026-05-07T03:29:45.678732+05:30"},{"city":"Dharamshala","state":"Himachal Pradesh","latitude":32.219,"longitude":76.3234,"temp":17.5,"humidity":45,"rain":0.0,"pressure":865.6,"uv_index":7.6,"wind_gusts":38.9,"aqi":44,"pm10":11.9,"pm2_5":8.7,"no2":10.6,"co":197.0,"o3":62.0,"so2":0.4,"mosquito_risk":0,"arthritis_risk":5,"migraine_risk":7,"frizz_risk":0,"updated_at":"2026-05-07T03:29:45.678740+05:30"},{"city":"Dalhousie","state":"Himachal Pradesh","latitude":32.5387,"longitude":75.971,"temp":8.9,"humidity":71,"rain":0.0,"pressure":798.1,"uv_index":7.8,"wind_gusts":31.0,"aqi":58,"pm10":21.6,"pm2_5":18.5,"no2":28.5,"co":336.0,"o3":42.0,"so2":1.2,"mosquito_risk":3,"arthritis_risk":5,"migraine_risk":7,"frizz_risk":0,"updated_at":"2026-05-07T03:29:45.678749+05:30"},{"city":"Patiala","state":"Punjab","latitude":30.3398,"longitude":76.3869,"temp":21.0,"humidity":58,"rain":0.0,"pressure":975.3,"uv_index":7.45,"wind_gusts":37.1,"aqi":145,"pm10":349.2,"pm2_5":59.1,"no2":11.7,"co":384.0,"o3":83.0,"so2":8.1,"mosquito_risk":0,"arthritis_risk":5,"migraine_risk":7,"frizz_risk":0,"updated_at":"2026-05-07T03:29:45.678756+05:30"},{"city":"Bhatinda","state":"Punjab","latitude":30.211,"longitude":74.9455,"temp":23.8,"humidity":46,"rain":0.0,"pressure":980.5,"uv_index":8.1,"wind_gusts":30.2,"aqi":146,"pm10":273.8,"pm2_5":77.8,"no2":15.7,"co":329.0,"o3":63.0,"so2":8.6,"mosquito_risk":0,"arthritis_risk":5,"migraine_risk":7,"frizz_risk":0,"updated_at":"2026-05-07T03:29:45.678763+05:30"},{"city":"Rohtak","state":"Haryana","latitude":28.8955,"longitude":76.6066,"temp":23.6,"humidity":50,"rain":0.0,"pressure":979.1,"uv_index":7.6,"wind_gusts":41.4,"aqi":215,"pm10":371.6,"pm2_5":75.2,"no2":23.8,"co":380.0,"o3":76.0,"so2":18.4,"mosquito_risk":0,"arthritis_risk":5,"migraine_risk":7,"frizz_risk":0,"updated_at":"2026-05-07T03:29:45.678770+05:30"},{"city":"Panipat","state":"Haryana","latitude":29.3909,"longitude":76.9635,"temp":21.7,"humidity":63,"rain":0.0,"pressure":977.7,"uv_index":7.4,"wind_gusts":36.4,"aqi":500,"pm10":378.1,"pm2_5":78.0,"no2":18.1,"co":387.0,"o3":76.0,"so2":10.3,"mosquito_risk":3,"arthritis_risk":5,"migraine_risk":7,"frizz_risk":0,"updated_at":"2026-05-07T03:29:45.678778+05:30"},{"city":"Mathura","state":"Uttar Pradesh","latitude":27.4924,"longitude":77.6737,"temp":23.3,"humidity":51,"rain":0.0,"pressure":984.9,"uv_index":7.3,"wind_gusts":40.7,"aqi":305,"pm10":750.6,"pm2_5":100.8,"no2":7.1,"co":323.0,"o3":108.0,"so2":9.5,"mosquito_risk":0,"arthritis_risk":5,"migraine_risk":7,"frizz_risk":0,"updated_at":"2026-05-07T03:29:45.678785+05:30"},{"city":"Vrindavan","state":"Uttar Pradesh","latitude":27.5823,"longitude":77.7027,"temp":23.5,"humidity":50,"rain":0.0,"pressure":985.2,"uv_index":7.25,"wind_gusts":42.8,"aqi":305,"pm10":750.6,"pm2_5":100.8,"no2":7.1,"co":325.0,"o3":108.0,"so2":9.5,"mosquito_risk":0,"arthritis_risk":5,"migraine_risk":7,"frizz_risk":0,"updated_at":"2026-05-07T03:29:45.678792+05:30"},{"city":"Ayodhya","state":"Uttar Pradesh","latitude":26.7922,"longitude":82.1998,"temp":19.8,"humidity":91,"rain":0.0,"pressure":994.9,"uv_index":8.2,"wind_gusts":29.2,"aqi":93,"pm10":41.7,"pm2_5":31.5,"no2":18.5,"co":429.0,"o3":68.0,"so2":6.1,"mosquito_risk":3,"arthritis_risk":10,"migraine_risk":7,"frizz_risk":1,"updated_at":"2026-05-07T03:29:45.678799+05:30"},{"city":"Ratlam","state":"Madhya Pradesh","latitude":23.3315,"longitude":75.0367,"temp":24.8,"humidity":37,"rain":0.0,"pressure":951.3,"uv_index":8.45,"wind_gusts":32.4,"aqi":83,"pm10":66.4,"pm2_5":49.1,"no2":15.8,"co":269.0,"o3":60.0,"so2":9.4,"mosquito_risk":0,"arthritis_risk":5,"migraine_risk":7,"frizz_risk":0,"updated_at":"2026-05-07T03:29:45.678807+05:30"},{"city":"Sagar","state":"Madhya Pradesh","latitude":23.8388,"longitude":78.7378,"temp":23.9,"humidity":42,"rain":0.0,"pressure":947.9,"uv_index":8.65,"wind_gusts":34.9,"aqi":63,"pm10":42.0,"pm2_5":22.3,"no2":14.3,"co":254.0,"o3":75.0,"so2":6.0,"mosquito_risk":0,"arthritis_risk":5,"migraine_risk":7,"frizz_risk":0,"updated_at":"2026-05-07T03:29:45.678813+05:30"},{"city":"Satna","state":"Madhya Pradesh","latitude":24.6005,"longitude":80.8322,"temp":20.8,"humidity":74,"rain":0.0,"pressure":970.0,"uv_index":8.7,"wind_gusts":36.7,"aqi":85,"pm10":58.1,"pm2_5":32.8,"no2":13.0,"co":337.0,"o3":87.0,"so2":9.0,"mosquito_risk":3,"arthritis_risk":5,"migraine_risk":7,"frizz_risk":0,"updated_at":"2026-05-07T03:29:45.678821+05:30"},{"city":"Akola","state":"Maharashtra","latitude":20.7002,"longitude":77.0082,"temp":28.0,"humidity":45,"rain":0.0,"pressure":971.5,"uv_index":8.85,"wind_gusts":32.0,"aqi":71,"pm10":59.0,"pm2_5":34.1,"no2":25.9,"co":273.0,"o3":47.0,"so2":6.1,"mosquito_risk":4,"arthritis_risk":5,"migraine_risk":7,"frizz_risk":0,"updated_at":"2026-05-07T03:29:45.678829+05:30"},{"city":"Amravati","state":"Maharashtra","latitude":20.9374,"longitude":77.7796,"temp":29.0,"humidity":41,"rain":0.0,"pressure":964.3,"uv_index":8.1,"wind_gusts":33.5,"aqi":72,"pm10":55.3,"pm2_5":31.3,"no2":22.0,"co":281.0,"o3":58.0,"so2":6.8,"mosquito_risk":4,"arthritis_risk":5,"migraine_risk":7,"frizz_risk":0,"updated_at":"2026-05-07T03:29:45.678837+05:30"},{"city":"Latur","state":"Maharashtra","latitude":18.4088,"longitude":76.5604,"temp":27.6,"humidity":44,"rain":0.0,"pressure":936.7,"uv_index":8.35,"wind_gusts":41.0,"aqi":73,"pm10":61.9,"pm2_5":38.0,"no2":26.9,"co":278.0,"o3":56.0,"so2":10.3,"mosquito_risk":4,"arthritis_risk":5,"migraine_risk":7,"frizz_risk":0,"updated_at":"2026-05-07T03:29:45.678844+05:30"},{"city":"Nanded","state":"Maharashtra","latitude":19.1383,"longitude":77.3091,"temp":28.5,"humidity":43,"rain":0.0,"pressure":965.5,"uv_index":8.3,"wind_gusts":29.5,"aqi":79,"pm10":55.3,"pm2_5":36.9,"no2":22.4,"co":288.0,"o3":54.0,"so2":5.8,"mosquito_risk":4,"arthritis_risk":5,"migraine_risk":7,"frizz_risk":0,"updated_at":"2026-05-07T03:29:45.678851+05:30"},{"city":"Gulbarga","state":"Karnataka","latitude":17.3297,"longitude":76.8343,"temp":28.8,"humidity":44,"rain":0.0,"pressure":955.8,"uv_index":9.1,"wind_gusts":31.0,"aqi":71,"pm10":32.8,"pm2_5":26.0,"no2":7.5,"co":218.0,"o3":94.0,"so2":6.5,"mosquito_risk":4,"arthritis_risk":5,"migraine_risk":7,"frizz_risk":0,"updated_at":"2026-05-07T03:29:45.678857+05:30"},{"city":"Bidar","state":"Karnataka","latitude":17.9104,"longitude":77.5199,"temp":26.7,"humidity":54,"rain":0.0,"pressure":932.6,"uv_index":8.95,"wind_gusts":46.4,"aqi":87,"pm10":38.5,"pm2_5":30.9,"no2":10.2,"co":215.0,"o3":92.0,"so2":8.1,"mosquito_risk":4,"arthritis_risk":5,"migraine_risk":7,"frizz_risk":1,"updated_at":"2026-05-07T03:29:45.678864+05:30"},{"city":"Hospet","state":"Karnataka","latitude":15.2689,"longitude":76.3909,"temp":26.5,"humidity":57,"rain":0.0,"pressure":953.2,"uv_index":9.25,"wind_gusts":27.0,"aqi":71,"pm10":33.8,"pm2_5":29.2,"no2":8.1,"co":248.0,"o3":96.0,"so2":10.3,"mosquito_risk":4,"arthritis_risk":5,"migraine_risk":7,"frizz_risk":1,"updated_at":"2026-05-07T03:29:45.678871+05:30"},{"city":"Tirupur","state":"Tamil Nadu","latitude":11.1085,"longitude":77.3411,"temp":24.1,"humidity":90,"rain":0.0,"pressure":972.8,"uv_index":9.05,"wind_gusts":33.8,"aqi":82,"pm10":46.0,"pm2_5":35.0,"no2":9.8,"co":243.0,"o3":111.0,"so2":6.8,"mosquito_risk":3,"arthritis_risk":5,"migraine_risk":7,"frizz_risk":1,"updated_at":"2026-05-07T03:29:45.678877+05:30"},{"city":"Alappuzha","state":"Kerala","latitude":9.4981,"longitude":76.3388,"temp":25.5,"humidity":96,"rain":0.0,"pressure":1005.8,"uv_index":4.5,"wind_gusts":33.1,"aqi":68,"pm10":28.6,"pm2_5":18.9,"no2":10.1,"co":187.0,"o3":67.0,"so2":4.7,"mosquito_risk":7,"arthritis_risk":5,"migraine_risk":0,"frizz_risk":1,"updated_at":"2026-05-07T03:29:45.678884+05:30"},{"city":"Munnar","state":"Kerala","latitude":10.0889,"longitude":77.0595,"temp":16.2,"humidity":99,"rain":0.0,"pressure":853.0,"uv_index":6.5,"wind_gusts":25.9,"aqi":69,"pm10":41.6,"pm2_5":33.5,"no2":15.1,"co":205.0,"o3":33.0,"so2":2.7,"mosquito_risk":3,"arthritis_risk":10,"migraine_risk":7,"frizz_risk":1,"updated_at":"2026-05-07T03:29:45.678891+05:30"},{"city":"Silchar","state":"Assam","latitude":24.8333,"longitude":92.7789,"temp":22.5,"humidity":99,"rain":0.0,"pressure":1005.9,"uv_index":8.85,"wind_gusts":27.0,"aqi":110,"pm10":50.8,"pm2_5":42.0,"no2":18.7,"co":370.0,"o3":54.0,"so2":5.9,"mosquito_risk":3,"arthritis_risk":5,"migraine_risk":4,"frizz_risk":1,"updated_at":"2026-05-07T03:29:45.678897+05:30"},{"city":"Dibrugarh","state":"Assam","latitude":27.4728,"longitude":94.912,"temp":21.8,"humidity":96,"rain":0.1,"pressure":996.7,"uv_index":8.75,"wind_gusts":31.3,"aqi":71,"pm10":11.9,"pm2_5":9.8,"no2":10.6,"co":231.0,"o3":44.0,"so2":0.3,"mosquito_risk":6,"arthritis_risk":5,"migraine_risk":7,"frizz_risk":1,"updated_at":"2026-05-07T03:29:45.678903+05:30"}]