[{"city":"Delhi","state":"Delhi","latitude":28.6139,"longitude":77.209,"temp":28.2,"humidity":37,"rain":0.0,"pressure":982.8,"uv_index":7.3,"wind_gusts":22.7,"aqi":317,"pm10":340.9,"pm2_5":114.8,"mosquito_risk":4,"arthritis_risk":5,"migraine_risk":7,"frizz_risk":0,"updated_at":"2026-04-16T08:24:49.357705+05:30"},{"city":"Mumbai","state":"Maharashtra","latitude":19.076,"longitude":72.8777,"temp":28.3,"humidity":75,"rain":0.0,"pressure":1008.2,"uv_index":8.0,"wind_gusts":20.2,"aqi":82,"pm10":47.8,"pm2_5":25.6,"mosquito_risk":7,"arthritis_risk":0,"migraine_risk":4,"frizz_risk":1,"updated_at":"2026-04-16T08:24:49.357736+05:30"},{"city":"Bangalore","state":"Karnataka","latitude":12.9716,"longitude":77.5946,"temp":25.5,"humidity":79,"rain":0.0,"pressure":912.4,"uv_index":9.6,"wind_gusts":32.4,"aqi":75,"pm10":42.7,"pm2_5":38.8,"mosquito_risk":7,"arthritis_risk":5,"migraine_risk":7,"frizz_risk":1,"updated_at":"2026-04-16T08:24:49.357750+05:30"},{"city":"Hyderabad","state":"Telangana","latitude":17.385,"longitude":78.4867,"temp":31.6,"humidity":45,"rain":0.0,"pressure":953.3,"uv_index":9.2,"wind_gusts":27.7,"aqi":90,"pm10":20.9,"pm2_5":19.7,"mosquito_risk":0,"arthritis_risk":5,"migraine_risk":7,"frizz_risk":1,"updated_at":"2026-04-16T08:24:49.357759+05:30"},{"city":"Chennai","state":"Tamil Nadu","latitude":13.0827,"longitude":80.2707,"temp":30.7,"humidity":72,"rain":0.0,"pressure":1007.0,"uv_index":9.35,"wind_gusts":32.8,"aqi":30,"pm10":10.1,"pm2_5":7.3,"mosquito_risk":3,"arthritis_risk":5,"migraine_risk":4,"frizz_risk":1,"updated_at":"2026-04-16T08:24:49.357766+05:30"},{"city":"Kolkata","state":"West Bengal","latitude":22.5726,"longitude":88.3639,"temp":29.3,"humidity":80,"rain":0.0,"pressure":1007.5,"uv_index":8.85,"wind_gusts":34.9,"aqi":88,"pm10":28.7,"pm2_5":20.7,"mosquito_risk":7,"arthritis_risk":5,"migraine_risk":4,"frizz_risk":1,"updated_at":"2026-04-16T08:24:49.357773+05:30"},{"city":"Pune","state":"Maharashtra","latitude":18.5204,"longitude":73.8567,"temp":25.6,"humidity":48,"rain":0.0,"pressure":948.2,"uv_index":8.6,"wind_gusts":41.0,"aqi":65,"pm10":28.9,"pm2_5":21.0,"mosquito_risk":4,"arthritis_risk":5,"migraine_risk":7,"frizz_risk":0,"updated_at":"2026-04-16T08:24:49.357783+05:30"},{"city":"Ahmedabad","state":"Gujarat","latitude":23.0225,"longitude":72.5714,"temp":26.8,"humidity":59,"rain":0.0,"pressure":1001.7,"uv_index":8.1,"wind_gusts":16.2,"aqi":86,"pm10":38.8,"pm2_5":19.2,"mosquito_risk":4,"arthritis_risk":5,"migraine_risk":4,"frizz_risk":1,"updated_at":"2026-04-16T08:24:49.357789+05:30"},{"city":"Jaipur","state":"Rajasthan","latitude":26.9124,"longitude":75.7873,"temp":30.2,"humidity":26,"rain":0.0,"pressure":959.6,"uv_index":7.95,"wind_gusts":29.5,"aqi":143,"pm10":285.9,"pm2_5":43.3,"mosquito_risk":0,"arthritis_risk":5,"migraine_risk":7,"frizz_risk":0,"updated_at":"2026-04-16T08:24:49.357795+05:30"},{"city":"Lucknow","state":"Uttar Pradesh","latitude":26.8467,"longitude":80.9462,"temp":27.3,"humidity":42,"rain":0.0,"pressure":993.4,"uv_index":7.85,"wind_gusts":21.2,"aqi":106,"pm10":150.4,"pm2_5":55.6,"mosquito_risk":4,"arthritis_risk":5,"migraine_risk":7,"frizz_risk":0,"updated_at":"2026-04-16T08:24:49.357802+05:30"},{"city":"Kanpur","state":"Uttar Pradesh","latitude":26.4499,"longitude":80.3319,"temp":27.2,"humidity":50,"rain":0.0,"pressure":991.3,"uv_index":7.85,"wind_gusts":20.2,"aqi":141,"pm10":155.5,"pm2_5":45.8,"mosquito_risk":4,"arthritis_risk":5,"migraine_risk":7,"frizz_risk":0,"updated_at":"2026-04-16T08:24:49.357807+05:30"},{"city":"Chandigarh","state":"Chandigarh","latitude":30.7333,"longitude":76.7794,"temp":25.2,"humidity":52,"rain":0.0,"pressure":968.4,"uv_index":7.2,"wind_gusts":21.2,"aqi":44,"pm10":17.3,"pm2_5":16.7,"mosquito_risk":4,"arthritis_risk":5,"migraine_risk":7,"frizz_risk":0,"updated_at":"2026-04-16T08:24:49.357813+05:30"},{"city":"Srinagar","state":"Jammu and Kashmir","latitude":34.0837,"longitude":74.7973,"temp":14.5,"humidity":73,"rain":0.0,"pressure":843.0,"uv_index":7.85,"wind_gusts":25.2,"aqi":68,"pm10":30.0,"pm2_5":25.6,"mosquito_risk":3,"arthritis_risk":5,"migraine_risk":7,"frizz_risk":0,"updated_at":"2026-04-16T08:24:49.357820+05:30"},{"city":"Jammu","state":"Jammu and Kashmir","latitude":32.7266,"longitude":74.857,"temp":25.4,"humidity":63,"rain":0.0,"pressure":972.3,"uv_index":7.45,"wind_gusts":29.5,"aqi":61,"pm10":19.9,"pm2_5":19.0,"mosquito_risk":7,"arthritis_risk":5,"migraine_risk":7,"frizz_risk":1,"updated_at":"2026-04-16T08:24:49.357826+05:30"},{"city":"Amritsar","state":"Punjab","latitude":31.634,"longitude":74.8723,"temp":24.5,"humidity":59,"rain":0.0,"pressure":980.3,"uv_index":7.95,"wind_gusts":26.3,"aqi":75,"pm10":28.2,"pm2_5":27.1,"mosquito_risk":0,"arthritis_risk":5,"migraine_risk":7,"frizz_risk":0,"updated_at":"2026-04-16T08:24:49.357831+05:30"},{"city":"Ludhiana","state":"Punjab","latitude":30.901,"longitude":75.8573,"temp":24.6,"humidity":50,"rain":0.0,"pressure":978.6,"uv_index":7.5,"wind_gusts":18.4,"aqi":73,"pm10":36.3,"pm2_5":34.9,"mosquito_risk":0,"arthritis_risk":5,"migraine_risk":7,"frizz_risk":0,"updated_at":"2026-04-16T08:24:49.357837+05:30"},{"city":"Jalandhar","state":"Punjab","latitude":31.326,"longitude":75.5762,"temp":23.5,"humidity":59,"rain":0.0,"pressure":979.5,"uv_index":7.0,"wind_gusts":22.7,"aqi":64,"pm10":29.9,"pm2_5":28.8,"mosquito_risk":0,"arthritis_risk":5,"migraine_risk":7,"frizz_risk":0,"updated_at":"2026-04-16T08:24:49.357844+05:30"},{"city":"Dehradun","state":"Uttarakhand","latitude":30.6284,"longitude":78.0322,"temp":18.3,"humidity":51,"rain":0.0,"pressure":831.7,"uv_index":7.35,"wind_gusts":34.6,"aqi":29,"pm10":6.7,"pm2_5":6.5,"mosquito_risk":0,"arthritis_risk":5,"migraine_risk":7,"frizz_risk":0,"updated_at":"2026-04-16T08:24:49.357850+05:30"},{"city":"Shimla","state":"Himachal Pradesh","latitude":31.1048,"longitude":77.1734,"temp":17.2,"humidity":62,"rain":0.0,"pressure":786.4,"uv_index":7.3,"wind_gusts":42.5,"aqi":39,"pm10":10.8,"pm2_5":10.6,"mosquito_risk":3,"arthritis_risk":5,"migraine_risk":7,"frizz_risk":0,"updated_at":"2026-04-16T08:24:49.357855+05:30"},{"city":"Manali","state":"Himachal Pradesh","latitude":32.2396,"longitude":77.1887,"temp":19.2,"humidity":34,"rain":0.0,"pressure":822.2,"uv_index":8.65,"wind_gusts":31.7,"aqi":48,"pm10":13.6,"pm2_5":10.9,"mosquito_risk":0,"arthritis_risk":5,"migraine_risk":7,"frizz_risk":0,"updated_at":"2026-04-16T08:24:49.357861+05:30"},{"city":"Gurgaon","state":"Haryana","latitude":28.4595,"longitude":77.0266,"temp":26.1,"humidity":48,"rain":0.0,"pressure":981.1,"uv_index":7.4,"wind_gusts":19.1,"aqi":691,"pm10":517.8,"pm2_5":134.6,"mosquito_risk":4,"arthritis_risk":5,"migraine_risk":7,"frizz_risk":0,"updated_at":"2026-04-16T08:24:49.357866+05:30"},{"city":"Noida","state":"Uttar Pradesh","latitude":28.5355,"longitude":77.391,"temp":27.3,"humidity":43,"rain":0.0,"pressure":984.3,"uv_index":7.35,"wind_gusts":26.6,"aqi":691,"pm10":517.8,"pm2_5":134.6,"mosquito_risk":4,"arthritis_risk":5,"migraine_risk":7,"frizz_risk":0,"updated_at":"2026-04-16T08:24:49.357872+05:30"},{"city":"Ghaziabad","state":"Uttar Pradesh","latitude":28.6692,"longitude":77.4538,"temp":26.5,"humidity":46,"rain":0.0,"pressure":982.4,"uv_index":7.35,"wind_gusts":20.2,"aqi":158,"pm10":159.3,"pm2_5":74.7,"mosquito_risk":4,"arthritis_risk":5,"migraine_risk":7,"frizz_risk":0,"updated_at":"2026-04-16T08:24:49.357877+05:30"},{"city":"Faridabad","state":"Haryana","latitude":28.4089,"longitude":77.3178,"temp":27.1,"humidity":44,"rain":0.0,"pressure":983.6,"uv_index":7.4,"wind_gusts":23.4,"aqi":691,"pm10":517.8,"pm2_5":134.6,"mosquito_risk":4,"arthritis_risk":5,"migraine_risk":7,"frizz_risk":0,"updated_at":"2026-04-16T08:24:49.357883+05:30"},{"city":"Meerut","state":"Uttar Pradesh","latitude":28.9845,"longitude":77.7064,"temp":25.0,"humidity":54,"rain":0.0,"pressure":981.1,"uv_index":7.25,"wind_gusts":25.9,"aqi":158,"pm10":159.3,"pm2_5":74.7,"mosquito_risk":4,"arthritis_risk":5,"migraine_risk":7,"frizz_risk":0,"updated_at":"2026-04-16T08:24:49.357888+05:30"},{"city":"Agra","state":"Uttar Pradesh","latitude":27.1767,"longitude":78.0081,"temp":27.7,"humidity":40,"rain":0.0,"pressure":987.7,"uv_index":7.75,"wind_gusts":19.1,"aqi":404,"pm10":556.9,"pm2_5":114.8,"mosquito_risk":4,"arthritis_risk":5,"migraine_risk":7,"frizz_risk":0,"updated_at":"2026-04-16T08:24:49.357894+05:30"},{"city":"Varanasi","state":"Uttar Pradesh","latitude":25.3176,"longitude":82.9739,"temp":28.2,"humidity":58,"rain":0.0,"pressure":997.5,"uv_index":8.45,"wind_gusts":21.2,"aqi":84,"pm10":98.5,"pm2_5":53.9,"mosquito_risk":4,"arthritis_risk":5,"migraine_risk":7,"frizz_risk":1,"updated_at":"2026-04-16T08:24:49.357902+05:30"},{"city":"Prayagraj","state":"Uttar Pradesh","latitude":25.4358,"longitude":81.8463,"temp":28.7,"humidity":45,"rain":0.0,"pressure":995.9,"uv_index":8.3,"wind_gusts":22.3,"aqi":79,"pm10":74.3,"pm2_5":44.0,"mosquito_risk":4,"arthritis_risk":5,"migraine_risk":7,"frizz_risk":0,"updated_at":"2026-04-16T08:24:49.357908+05:30"},{"city":"Gorakhpur","state":"Uttar Pradesh","latitude":26.7606,"longitude":83.3732,"temp":27.3,"humidity":68,"rain":0.0,"pressure":998.4,"uv_index":8.25,"wind_gusts":29.5,"aqi":98,"pm10":75.2,"pm2_5":63.1,"mosquito_risk":7,"arthritis_risk":5,"migraine_risk":7,"frizz_risk":1,"updated_at":"2026-04-16T08:24:49.357916+05:30"},{"city":"Bareilly","state":"Uttar Pradesh","latitude":28.367,"longitude":79.4304,"temp":24.0,"humidity":63,"rain":0.0,"pressure":986.7,"uv_index":7.6,"wind_gusts":23.8,"aqi":62,"pm10":43.5,"pm2_5":42.1,"mosquito_risk":3,"arthritis_risk":5,"migraine_risk":7,"frizz_risk":1,"updated_at":"2026-04-16T08:24:49.357921+05:30"},{"city":"Aligarh","state":"Uttar Pradesh","latitude":27.8974,"longitude":78.088,"temp":27.1,"humidity":44,"rain":0.0,"pressure":985.3,"uv_index":7.5,"wind_gusts":24.1,"aqi":331,"pm10":187.2,"pm2_5":68.0,"mosquito_risk":4,"arthritis_risk":5,"migraine_risk":7,"frizz_risk":0,"updated_at":"2026-04-16T08:24:49.357929+05:30"},{"city":"Moradabad","state":"Uttar Pradesh","latitude":28.8386,"longitude":78.7733,"temp":24.7,"humidity":58,"rain":0.0,"pressure":983.4,"uv_index":7.45,"wind_gusts":26.6,"aqi":81,"pm10":43.8,"pm2_5":41.3,"mosquito_risk":0,"arthritis_risk":5,"migraine_risk":7,"frizz_risk":0,"updated_at":"2026-04-16T08:24:49.357935+05:30"},{"city":"Saharanpur","state":"Uttar Pradesh","latitude":29.9637,"longitude":77.546,"temp":23.6,"humidity":63,"rain":0.0,"pressure":975.4,"uv_index":6.9,"wind_gusts":26.3,"aqi":72,"pm10":42.1,"pm2_5":41.2,"mosquito_risk":3,"arthritis_risk":5,"migraine_risk":7,"frizz_risk":1,"updated_at":"2026-04-16T08:24:49.357940+05:30"},{"city":"Jhansi","state":"Uttar Pradesh","latitude":25.4484,"longitude":78.5685,"temp":30.5,"humidity":38,"rain":0.0,"pressure":978.2,"uv_index":8.2,"wind_gusts":32.4,"aqi":70,"pm10":123.4,"pm2_5":31.1,"mosquito_risk":0,"arthritis_risk":5,"migraine_risk":7,"frizz_risk":0,"updated_at":"2026-04-16T08:24:52.674923+05:30"},{"city":"Surat","state":"Gujarat","latitude":21.1702,"longitude":72.8311,"temp":27.6,"humidity":75,"rain":0.0,"pressure":1006.4,"uv_index":7.8,"wind_gusts":27.7,"aqi":99,"pm10":41.0,"pm2_5":31.5,"mosquito_risk":7,"arthritis_risk":5,"migraine_risk":4,"frizz_risk":1,"updated_at":"2026-04-16T08:24:52.674945+05:30"},{"city":"Vadodara","state":"Gujarat","latitude":22.3072,"longitude":73.1812,"temp":27.9,"humidity":76,"rain":0.0,"pressure":1004.0,"uv_index":8.1,"wind_gusts":22.7,"aqi":84,"pm10":26.4,"pm2_5":22.4,"mosquito_risk":7,"arthritis_risk":5,"migraine_risk":4,"frizz_risk":1,"updated_at":"2026-04-16T08:24:52.674954+05:30"},{"city":"Rajkot","state":"Gujarat","latitude":22.3039,"longitude":70.8022,"temp":24.4,"humidity":85,"rain":0.0,"pressure":993.8,"uv_index":7.7,"wind_gusts":29.9,"aqi":62,"pm10":33.2,"pm2_5":15.7,"mosquito_risk":3,"arthritis_risk":5,"migraine_risk":7,"frizz_risk":1,"updated_at":"2026-04-16T08:24:52.674962+05:30"},{"city":"Thane","state":"Maharashtra","latitude":19.2183,"longitude":72.9781,"temp":27.6,"humidity":80,"rain":0.0,"pressure":1007.8,"uv_index":8.0,"wind_gusts":32.4,"aqi":82,"pm10":47.8,"pm2_5":25.6,"mosquito_risk":7,"arthritis_risk":5,"migraine_risk":4,"frizz_risk":1,"updated_at":"2026-04-16T08:24:52.674968+05:30"},{"city":"Nagpur","state":"Maharashtra","latitude":21.1458,"longitude":79.0882,"temp":29.5,"humidity":46,"rain":0.0,"pressure":972.7,"uv_index":8.85,"wind_gusts":15.1,"aqi":59,"pm10":23.9,"pm2_5":18.2,"mosquito_risk":4,"arthritis_risk":5,"migraine_risk":7,"frizz_risk":1,"updated_at":"2026-04-16T08:24:52.674975+05:30"},{"city":"Nashik","state":"Maharashtra","latitude":19.9975,"longitude":73.7898,"temp":24.6,"humidity":48,"rain":0.0,"pressure":945.4,"uv_index":8.3,"wind_gusts":31.7,"aqi":58,"pm10":29.5,"pm2_5":20.9,"mosquito_risk":0,"arthritis_risk":5,"migraine_risk":7,"frizz_risk":0,"updated_at":"2026-04-16T08:24:52.674981+05:30"},{"city":"Aurangabad","state":"Maharashtra","latitude":19.8762,"longitude":75.3433,"temp":27.4,"humidity":32,"rain":0.0,"pressure":944.3,"uv_index":9.0,"wind_gusts":27.0,"aqi":37,"pm10":24.0,"pm2_5":12.0,"mosquito_risk":4,"arthritis_risk":5,"migraine_risk":7,"frizz_risk":0,"updated_at":"2026-04-16T08:24:52.674987+05:30"},{"city":"Solapur","state":"Maharashtra","latitude":17.6599,"longitude":75.9064,"temp":28.1,"humidity":42,"rain":0.0,"pressure":957.5,"uv_index":9.05,"wind_gusts":23.8,"aqi":71,"pm10":18.1,"pm2_5":14.7,"mosquito_risk":4,"arthritis_risk":5,"migraine_risk":7,"frizz_risk":0,"updated_at":"2026-04-16T08:24:52.674993+05:30"},{"city":"Kolhapur","state":"Maharashtra","latitude":16.705,"longitude":74.2433,"temp":23.8,"humidity":74,"rain":0.0,"pressure":947.8,"uv_index":9.0,"wind_gusts":38.9,"aqi":78,"pm10":52.0,"pm2_5":42.4,"mosquito_risk":3,"arthritis_risk":5,"migraine_risk":7,"frizz_risk":1,"updated_at":"2026-04-16T08:24:52.674999+05:30"},{"city":"Goa","state":"Goa","latitude":15.2993,"longitude":74.124,"temp":28.4,"humidity":70,"rain":0.0,"pressure":997.9,"uv_index":9.0,"wind_gusts":29.2,"aqi":76,"pm10":56.7,"pm2_5":30.2,"mosquito_risk":7,"arthritis_risk":5,"migraine_risk":7,"frizz_risk":1,"updated_at":"2026-04-16T08:24:52.675005+05:30"},{"city":"Jodhpur","state":"Rajasthan","latitude":26.2389,"longitude":73.0243,"temp":28.2,"humidity":50,"rain":0.0,"pressure":981.6,"uv_index":8.15,"wind_gusts":25.6,"aqi":68,"pm10":74.3,"pm2_5":23.7,"mosquito_risk":4,"arthritis_risk":5,"migraine_risk":7,"frizz_risk":1,"updated_at":"2026-04-16T08:24:52.675010+05:30"},{"city":"Udaipur","state":"Rajasthan","latitude":24.5854,"longitude":73.7125,"temp":28.6,"humidity":45,"rain":0.0,"pressure":946.4,"uv_index":8.7,"wind_gusts":29.2,"aqi":71,"pm10":75.7,"pm2_5":23.9,"mosquito_risk":4,"arthritis_risk":5,"migraine_risk":7,"frizz_risk":0,"updated_at":"2026-04-16T08:24:52.675016+05:30"},{"city":"Kota","state":"Rajasthan","latitude":25.2138,"longitude":75.8648,"temp":28.5,"humidity":53,"rain":0.0,"pressure":978.0,"uv_index":8.2,"wind_gusts":16.9,"aqi":68,"pm10":71.5,"pm2_5":33.6,"mosquito_risk":4,"arthritis_risk":5,"migraine_risk":7,"frizz_risk":1,"updated_at":"2026-04-16T08:24:52.675022+05:30"},{"city":"Bikaner","state":"Rajasthan","latitude":28.0229,"longitude":73.3119,"temp":29.1,"humidity":33,"rain":0.0,"pressure":980.4,"uv_index":7.8,"wind_gusts":24.1,"aqi":57,"pm10":20.1,"pm2_5":9.9,"mosquito_risk":4,"arthritis_risk":5,"migraine_risk":7,"frizz_risk":0,"updated_at":"2026-04-16T08:24:52.675028+05:30"},{"city":"Ajmer","state":"Rajasthan","latitude":26.4499,"longitude":74.6399,"temp":29.8,"humidity":32,"rain":0.0,"pressure":954.1,"uv_index":8.15,"wind_gusts":31.3,"aqi":68,"pm10":39.5,"pm2_5":17.6,"mosquito_risk":4,"arthritis_risk":5,"migraine_risk":7,"frizz_risk":0,"updated_at":"2026-04-16T08:24:52.675033+05:30"},{"city":"Gwalior","state":"Madhya Pradesh","latitude":26.2183,"longitude":78.1828,"temp":30.6,"humidity":39,"rain":0.0,"pressure":983.3,"uv_index":7.95,"wind_gusts":26.6,"aqi":120,"pm10":197.0,"pm2_5":42.3,"mosquito_risk":0,"arthritis_risk":5,"migraine_risk":7,"frizz_risk":0,"updated_at":"2026-04-16T08:24:52.675039+05:30"},{"city":"Indore","state":"Madhya Pradesh","latitude":22.7196,"longitude":75.8577,"temp":26.9,"humidity":46,"rain":0.0,"pressure":948.1,"uv_index":8.55,"wind_gusts":25.2,"aqi":67,"pm10":42.3,"pm2_5":24.6,"mosquito_risk":4,"arthritis_risk":5,"migraine_risk":7,"frizz_risk":0,"updated_at":"2026-04-16T08:24:52.675044+05:30"},{"city":"Bhopal","state":"Madhya Pradesh","latitude":23.2599,"longitude":77.4126,"temp":30.3,"humidity":42,"rain":0.0,"pressure":954.0,"uv_index":8.55,"wind_gusts":20.5,"aqi":62,"pm10":37.8,"pm2_5":26.8,"mosquito_risk":0,"arthritis_risk":5,"migraine_risk":7,"frizz_risk":0,"updated_at":"2026-04-16T08:24:52.675050+05:30"},{"city":"Jabalpur","state":"Madhya Pradesh","latitude":23.1815,"longitude":79.9864,"temp":28.0,"humidity":54,"rain":0.0,"pressure":961.1,"uv_index":8.7,"wind_gusts":23.4,"aqi":44,"pm10":27.0,"pm2_5":19.6,"mosquito_risk":4,"arthritis_risk":5,"migraine_risk":7,"frizz_risk":1,"updated_at":"2026-04-16T08:24:52.675055+05:30"},{"city":"Ujjain","state":"Madhya Pradesh","latitude":23.1765,"longitude":75.7885,"temp":26.8,"humidity":51,"rain":0.0,"pressure":953.6,"uv_index":8.5,"wind_gusts":24.1,"aqi":73,"pm10":42.4,"pm2_5":25.3,"mosquito_risk":4,"arthritis_risk":5,"migraine_risk":7,"frizz_risk":0,"updated_at":"2026-04-16T08:24:52.675061+05:30"},{"city":"Visakhapatnam","state":"Andhra Pradesh","latitude":17.6868,"longitude":83.2185,"temp":29.5,"humidity":75,"rain":0.0,"pressure":1004.1,"uv_index":9.15,"wind_gusts":45.0,"aqi":52,"pm10":15.9,"pm2_5":13.4,"mosquito_risk":7,"arthritis_risk":5,"migraine_risk":4,"frizz_risk":1,"updated_at":"2026-04-16T08:24:52.675066+05:30"},{"city":"Vijayawada","state":"Andhra Pradesh","latitude":16.5062,"longitude":80.648,"temp":29.4,"humidity":79,"rain":0.0,"pressure":1002.7,"uv_index":9.2,"wind_gusts":31.0,"aqi":43,"pm10":11.1,"pm2_5":8.6,"mosquito_risk":7,"arthritis_risk":5,"migraine_risk":4,"frizz_risk":1,"updated_at":"2026-04-16T08:24:52.675072+05:30"},{"city":"Guntur","state":"Andhra Pradesh","latitude":16.3067,"longitude":80.4365,"temp":29.9,"humidity":77,"rain":0.0,"pressure":1003.9,"uv_index":9.2,"wind_gusts":32.4,"aqi":49,"pm10":11.1,"pm2_5":8.6,"mosquito_risk":7,"arthritis_risk":5,"migraine_risk":4,"frizz_risk":1,"updated_at":"2026-04-16T08:24:52.675078+05:30"},{"city":"Nellore","state":"Andhra Pradesh","latitude":14.4426,"longitude":79.9865,"temp":29.6,"humidity":77,"rain":0.0,"pressure":1005.4,"uv_index":9.3,"wind_gusts":38.2,"aqi":44,"pm10":12.5,"pm2_5":11.8,"mosquito_risk":7,"arthritis_risk":5,"migraine_risk":4,"frizz_risk":1,"updated_at":"2026-04-16T08:24:52.675084+05:30"},{"city":"Kurnool","state":"Andhra Pradesh","latitude":15.8281,"longitude":78.0373,"temp":32.3,"humidity":56,"rain":0.0,"pressure":976.5,"uv_index":9.2,"wind_gusts":19.4,"aqi":86,"pm10":18.1,"pm2_5":17.1,"mosquito_risk":0,"arthritis_risk":5,"migraine_risk":7,"frizz_risk":1,"updated_at":"2026-04-16T08:24:52.675090+05:30"},{"city":"Kakinada","state":"Andhra Pradesh","latitude":16.9891,"longitude":82.2475,"temp":29.9,"humidity":75,"rain":0.0,"pressure":1008.0,"uv_index":9.2,"wind_gusts":36.0,"aqi":34,"pm10":12.0,"pm2_5":8.6,"mosquito_risk":7,"arthritis_risk":0,"migraine_risk":4,"frizz_risk":1,"updated_at":"2026-04-16T08:24:52.675096+05:30"},{"city":"Tirupati","state":"Andhra Pradesh","latitude":13.6288,"longitude":79.4192,"temp":28.6,"humidity":80,"rain":0.0,"pressure":991.9,"uv_index":9.4,"wind_gusts":32.8,"aqi":60,"pm10":20.8,"pm2_5":20.1,"mosquito_risk":7,"arthritis_risk":5,"migraine_risk":7,"frizz_risk":1,"updated_at":"2026-04-16T08:24:52.675101+05:30"},{"city":"Warangal","state":"Telangana","latitude":17.9689,"longitude":79.5941,"temp":28.5,"humidity":78,"rain":0.0,"pressure":978.6,"uv_index":9.1,"wind_gusts":26.3,"aqi":72,"pm10":12.2,"pm2_5":11.5,"mosquito_risk":7,"arthritis_risk":5,"migraine_risk":7,"frizz_risk":1,"updated_at":"2026-04-16T08:24:52.675107+05:30"},{"city":"Nizamabad","state":"Telangana","latitude":18.6725,"longitude":78.0941,"temp":31.0,"humidity":40,"rain":0.0,"pressure":964.9,"uv_index":9.05,"wind_gusts":27.4,"aqi":79,"pm10":40.3,"pm2_5":36.2,"mosquito_risk":0,"arthritis_risk":5,"migraine_risk":7,"frizz_risk":0,"updated_at":"2026-04-16T08:24:52.675112+05:30"},{"city":"Mysore","state":"Karnataka","latitude":12.2958,"longitude":76.6396,"temp":25.6,"humidity":79,"rain":0.0,"pressure":928.7,"uv_index":9.5,"wind_gusts":38.5,"aqi":80,"pm10":37.4,"pm2_5":30.9,"mosquito_risk":7,"arthritis_risk":5,"migraine_risk":7,"frizz_risk":1,"updated_at":"2026-04-16T08:24:52.675118+05:30"},{"city":"Mangalore","state":"Karnataka","latitude":12.9141,"longitude":74.856,"temp":29.6,"humidity":77,"rain":0.0,"pressure":1006.1,"uv_index":8.75,"wind_gusts":22.3,"aqi":80,"pm10":53.4,"pm2_5":32.4,"mosquito_risk":7,"arthritis_risk":5,"migraine_risk":4,"frizz_risk":1,"updated_at":"2026-04-16T08:24:52.675123+05:30"},{"city":"Hubli-Dharwad","state":"Karnataka","latitude":15.3647,"longitude":75.124,"temp":24.5,"humidity":87,"rain":0.0,"pressure":941.1,"uv_index":8.35,"wind_gusts":29.5,"aqi":69,"pm10":39.3,"pm2_5":20.6,"mosquito_risk":3,"arthritis_risk":5,"migraine_risk":7,"frizz_risk":1,"updated_at":"2026-04-16T08:24:52.675129+05:30"},{"city":"Belgaum","state":"Karnataka","latitude":15.8497,"longitude":74.4977,"temp":23.8,"humidity":80,"rain":0.0,"pressure":925.6,"uv_index":9.25,"wind_gusts":36.7,"aqi":67,"pm10":37.4,"pm2_5":23.1,"mosquito_risk":3,"arthritis_risk":5,"migraine_risk":7,"frizz_risk":1,"updated_at":"2026-04-16T08:24:55.993447+05:30"},{"city":"Coimbatore","state":"Tamil Nadu","latitude":11.0168,"longitude":76.9558,"temp":28.0,"humidity":73,"rain":0.0,"pressure":962.5,"uv_index":9.45,"wind_gusts":37.1,"aqi":96,"pm10":46.9,"pm2_5":38.3,"mosquito_risk":7,"arthritis_risk":5,"migraine_risk":7,"frizz_risk":1,"updated_at":"2026-04-16T08:24:55.993478+05:30"},{"city":"Madurai","state":"Tamil Nadu","latitude":9.9252,"longitude":78.1198,"temp":29.4,"humidity":76,"rain":0.0,"pressure":993.7,"uv_index":9.05,"wind_gusts":36.7,"aqi":55,"pm10":27.2,"pm2_5":25.8,"mosquito_risk":7,"arthritis_risk":5,"migraine_risk":7,"frizz_risk":1,"updated_at":"2026-04-16T08:24:55.993490+05:30"},{"city":"Trichy","state":"Tamil Nadu","latitude":10.7905,"longitude":78.7047,"temp":29.9,"humidity":76,"rain":0.0,"pressure":1000.2,"uv_index":9.35,"wind_gusts":27.0,"aqi":47,"pm10":17.1,"pm2_5":15.3,"mosquito_risk":7,"arthritis_risk":5,"migraine_risk":4,"frizz_risk":1,"updated_at":"2026-04-16T08:24:55.993500+05:30"},{"city":"Salem","state":"Tamil Nadu","latitude":11.6643,"longitude":78.146,"temp":28.9,"humidity":71,"rain":0.0,"pressure":977.9,"uv_index":9.45,"wind_gusts":24.5,"aqi":61,"pm10":14.2,"pm2_5":13.8,"mosquito_risk":7,"arthritis_risk":5,"migraine_risk":7,"frizz_risk":1,"updated_at":"2026-04-16T08:24:55.993510+05:30"},{"city":"Tirunelveli","state":"Tamil Nadu","latitude":8.7139,"longitude":77.7567,"temp":30.7,"humidity":64,"rain":0.0,"pressure":1003.4,"uv_index":8.45,"wind_gusts":41.4,"aqi":67,"pm10":39.5,"pm2_5":32.0,"mosquito_risk":3,"arthritis_risk":5,"migraine_risk":4,"frizz_risk":1,"updated_at":"2026-04-16T08:24:55.993520+05:30"},{"city":"Vellore","state":"Tamil Nadu","latitude":12.9165,"longitude":79.1325,"temp":28.3,"humidity":79,"rain":0.0,"pressure":984.9,"uv_index":9.4,"wind_gusts":32.4,"aqi":74,"pm10":39.6,"pm2_5":39.0,"mosquito_risk":7,"arthritis_risk":5,"migraine_risk":7,"frizz_risk":1,"updated_at":"2026-04-16T08:24:55.993530+05:30"},{"city":"Erode","state":"Tamil Nadu","latitude":11.341,"longitude":77.7172,"temp":29.9,"humidity":75,"rain":0.0,"pressure":989.4,"uv_index":9.4,"wind_gusts":30.2,"aqi":60,"pm10":26.3,"pm2_5":24.9,"mosquito_risk":7,"arthritis_risk":5,"migraine_risk":7,"frizz_risk":1,"updated_at":"2026-04-16T08:24:55.993540+05:30"},{"city":"Kochi","state":"Kerala","latitude":9.9312,"longitude":76.2673,"temp":28.7,"humidity":83,"rain":0.0,"pressure":1008.3,"uv_index":9.2,"wind_gusts":31.7,"aqi":96,"pm10":51.1,"pm2_5":44.8,"mosquito_risk":7,"arthritis_risk":0,"migraine_risk":4,"frizz_risk":1,"updated_at":"2026-04-16T08:24:55.993549+05:30"},{"city":"Thiruvananthapuram","state":"Kerala","latitude":8.5241,"longitude":76.9366,"temp":28.9,"humidity":84,"rain":0.0,"pressure":1007.4,"uv_index":8.7,"wind_gusts":25.9,"aqi":75,"pm10":37.3,"pm2_5":26.8,"mosquito_risk":7,"arthritis_risk":5,"migraine_risk":4,"frizz_risk":1,"updated_at":"2026-04-16T08:24:55.993559+05:30"},{"city":"Kozhikode","state":"Kerala","latitude":11.2588,"longitude":75.7804,"temp":29.9,"humidity":80,"rain":0.0,"pressure":1007.3,"uv_index":9.15,"wind_gusts":31.0,"aqi":80,"pm10":48.8,"pm2_5":32.7,"mosquito_risk":7,"arthritis_risk":5,"migraine_risk":4,"frizz_risk":1,"updated_at":"2026-04-16T08:24:55.993568+05:30"},{"city":"Thrissur","state":"Kerala","latitude":10.5276,"longitude":76.2144,"temp":30.6,"humidity":75,"rain":0.0,"pressure":1006.6,"uv_index":9.1,"wind_gusts":38.5,"aqi":98,"pm10":54.0,"pm2_5":42.8,"mosquito_risk":3,"arthritis_risk":5,"migraine_risk":4,"frizz_risk":1,"updated_at":"2026-04-16T08:24:55.993600+05:30"},{"city":"Kannur","state":"Kerala","latitude":11.8745,"longitude":75.3704,"temp":30.2,"humidity":74,"rain":0.0,"pressure":1006.6,"uv_index":9.15,"wind_gusts":30.2,"aqi":81,"pm10":45.4,"pm2_5":32.6,"mosquito_risk":3,"arthritis_risk":5,"migraine_risk":4,"frizz_risk":1,"updated_at":"2026-04-16T08:24:55.993612+05:30"},{"city":"Patna","state":"Bihar","latitude":25.5941,"longitude":85.1376,"temp":27.4,"humidity":76,"rain":0.0,"pressure":1001.0,"uv_index":8.55,"wind_gusts":33.1,"aqi":121,"pm10":72.4,"pm2_5":62.9,"mosquito_risk":7,"arthritis_risk":5,"migraine_risk":4,"frizz_risk":1,"updated_at":"2026-04-16T08:24:55.993623+05:30"},{"city":"Gaya","state":"Bihar","latitude":24.7914,"longitude":85.0002,"temp":27.5,"humidity":71,"rain":0.0,"pressure":993.5,"uv_index":8.65,"wind_gusts":27.0,"aqi":76,"pm10":48.7,"pm2_5":36.8,"mosquito_risk":7,"arthritis_risk":5,"migraine_risk":7,"frizz_risk":1,"updated_at":"2026-04-16T08:24:55.993632+05:30"},{"city":"Muzaffarpur","state":"Bihar","latitude":26.1209,"longitude":85.3647,"temp":26.5,"humidity":78,"rain":0.0,"pressure":1001.6,"uv_index":8.55,"wind_gusts":34.2,"aqi":142,"pm10":78.7,"pm2_5":65.9,"mosquito_risk":7,"arthritis_risk":5,"migraine_risk":4,"frizz_risk":1,"updated_at":"2026-04-16T08:24:55.993644+05:30"},{"city":"Bhagalpur","state":"Bihar","latitude":25.2425,"longitude":87.0117,"temp":25.9,"humidity":87,"rain":0.0,"pressure":1002.6,"uv_index":8.55,"wind_gusts":35.6,"aqi":138,"pm10":62.6,"pm2_5":54.2,"mosquito_risk":7,"arthritis_risk":5,"migraine_risk":4,"frizz_risk":1,"updated_at":"2026-04-16T08:24:55.993654+05:30"},{"city":"Ranchi","state":"Jharkhand","latitude":23.3441,"longitude":85.3096,"temp":28.7,"humidity":73,"rain":0.0,"pressure":938.3,"uv_index":9.15,"wind_gusts":44.3,"aqi":99,"pm10":71.9,"pm2_5":47.6,"mosquito_risk":7,"arthritis_risk":5,"migraine_risk":7,"frizz_risk":1,"updated_at":"2026-04-16T08:24:55.993670+05:30"},{"city":"Jamshedpur","state":"Jharkhand","latitude":22.8046,"longitude":86.2029,"temp":29.5,"humidity":79,"rain":0.0,"pressure":991.3,"uv_index":9.0,"wind_gusts":43.6,"aqi":127,"pm10":72.9,"pm2_5":58.0,"mosquito_risk":7,"arthritis_risk":5,"migraine_risk":7,"frizz_risk":1,"updated_at":"2026-04-16T08:24:55.993679+05:30"},{"city":"Dhanbad","state":"Jharkhand","latitude":23.7957,"longitude":86.4304,"temp":30.0,"humidity":74,"rain":0.0,"pressure":980.1,"uv_index":8.95,"wind_gusts":42.5,"aqi":149,"pm10":84.1,"pm2_5":74.7,"mosquito_risk":7,"arthritis_risk":5,"migraine_risk":7,"frizz_risk":1,"updated_at":"2026-04-16T08:24:55.993688+05:30"},{"city":"Bokaro","state":"Jharkhand","latitude":23.6693,"longitude":86.1511,"temp":30.1,"humidity":70,"rain":0.0,"pressure":984.1,"uv_index":8.95,"wind_gusts":48.6,"aqi":129,"pm10":100.8,"pm2_5":88.5,"mosquito_risk":3,"arthritis_risk":5,"migraine_risk":7,"frizz_risk":1,"updated_at":"2026-04-16T08:24:55.993698+05:30"},{"city":"Bhubaneswar","state":"Odisha","latitude":20.2961,"longitude":85.8245,"temp":29.2,"humidity":81,"rain":0.0,"pressure":1003.3,"uv_index":9.1,"wind_gusts":40.3,"aqi":63,"pm10":14.8,"pm2_5":10.8,"mosquito_risk":7,"arthritis_risk":5,"migraine_risk":4,"frizz_risk":1,"updated_at":"2026-04-16T08:24:55.993707+05:30"},{"city":"Cuttack","state":"Odisha","latitude":20.4625,"longitude":85.8828,"temp":28.5,"humidity":85,"rain":0.0,"pressure":1005.0,"uv_index":9.15,"wind_gusts":37.4,"aqi":63,"pm10":14.8,"pm2_5":10.8,"mosquito_risk":7,"arthritis_risk":5,"migraine_risk":4,"frizz_risk":1,"updated_at":"2026-04-16T08:24:55.993716+05:30"},{"city":"Rourkela","state":"Odisha","latitude":22.2604,"longitude":84.8536,"temp":31.3,"humidity":71,"rain":0.0,"pressure":984.6,"uv_index":8.9,"wind_gusts":38.9,"aqi":141,"pm10":67.1,"pm2_5":58.1,"mosquito_risk":3,"arthritis_risk":5,"migraine_risk":7,"frizz_risk":1,"updated_at":"2026-04-16T08:24:55.993725+05:30"},{"city":"Raipur","state":"Chhattisgarh","latitude":21.2514,"longitude":81.6296,"temp":31.8,"humidity":50,"rain":0.0,"pressure":974.2,"uv_index":8.95,"wind_gusts":32.0,"aqi":94,"pm10":36.1,"pm2_5":34.9,"mosquito_risk":0,"arthritis_risk":5,"migraine_risk":7,"frizz_risk":1,"updated_at":"2026-04-16T08:24:55.993734+05:30"},{"city":"Bhilai","state":"Chhattisgarh","latitude":21.1938,"longitude":81.3509,"temp":31.2,"humidity":56,"rain":0.0,"pressure":974.3,"uv_index":8.95,"wind_gusts":31.0,"aqi":75,"pm10":31.1,"pm2_5":30.3,"mosquito_risk":0,"arthritis_risk":5,"migraine_risk":7,"frizz_risk":1,"updated_at":"2026-04-16T08:24:55.993744+05:30"},{"city":"Guwahati","state":"Assam","latitude":26.1158,"longitude":91.7086,"temp":24.7,"humidity":85,"rain":0.0,"pressure":1005.5,"uv_index":8.45,"wind_gusts":24.8,"aqi":130,"pm10":62.9,"pm2_5":46.0,"mosquito_risk":3,"arthritis_risk":5,"migraine_risk":4,"frizz_risk":1,"updated_at":"2026-04-16T08:24:55.993752+05:30"},{"city":"Agartala","state":"Tripura","latitude":23.8315,"longitude":91.2868,"temp":26.5,"humidity":87,"rain":0.0,"pressure":1009.0,"uv_index":8.7,"wind_gusts":27.4,"aqi":111,"pm10":43.4,"pm2_5":33.2,"mosquito_risk":7,"arthritis_risk":0,"migraine_risk":4,"frizz_risk":1,"updated_at":"2026-04-16T08:24:55.993762+05:30"},{"city":"Shillong","state":"Meghalaya","latitude":25.5788,"longitude":91.8933,"temp":18.9,"humidity":63,"rain":0.0,"pressure":859.5,"uv_index":7.6,"wind_gusts":53.6,"aqi":100,"pm10":64.0,"pm2_5":38.0,"mosquito_risk":3,"arthritis_risk":5,"migraine_risk":7,"frizz_risk":0,"updated_at":"2026-04-16T08:24:55.993772+05:30"},{"city":"Imphal","state":"Manipur","latitude":24.817,"longitude":93.9368,"temp":20.9,"humidity":82,"rain":0.0,"pressure":926.5,"uv_index":8.45,"wind_gusts":68.0,"aqi":112,"pm10":83.8,"pm2_5":49.1,"mosquito_risk":3,"arthritis_risk":5,"migraine_risk":7,"frizz_risk":1,"updated_at":"2026-04-16T08:24:55.993781+05:30"},{"city":"Aizawl","state":"Mizoram","latitude":23.7271,"longitude":92.7176,"temp":24.1,"humidity":70,"rain":0.0,"pressure":896.3,"uv_index":8.95,"wind_gusts":32.8,"aqi":126,"pm10":74.3,"pm2_5":44.5,"mosquito_risk":3,"arthritis_risk":5,"migraine_risk":7,"frizz_risk":1,"updated_at":"2026-04-16T08:24:55.993790+05:30"},{"city":"Kohima","state":"Nagaland","latitude":25.6701,"longitude":94.1077,"temp":18.4,"humidity":75,"rain":0.0,"pressure":858.1,"uv_index":8.7,"wind_gusts":54.4,"aqi":92,"pm10":85.4,"pm2_5":38.9,"mosquito_risk":3,"arthritis_risk":5,"migraine_risk":7,"frizz_risk":0,"updated_at":"2026-04-16T08:24:55.993799+05:30"},{"city":"Gangtok","state":"Sikkim","latitude":27.3314,"longitude":88.6138,"temp":17.1,"humidity":82,"rain":0.0,"pressure":840.4,"uv_index":8.8,"wind_gusts":18.7,"aqi":140,"pm10":32.4,"pm2_5":22.1,"mosquito_risk":3,"arthritis_risk":10,"migraine_risk":7,"frizz_risk":0,"updated_at":"2026-04-16T08:24:55.993808+05:30"},{"city":"Siliguri","state":"West Bengal","latitude":26.7271,"longitude":88.3953,"temp":22.2,"humidity":84,"rain":0.0,"pressure":997.9,"uv_index":8.45,"wind_gusts":23.4,"aqi":165,"pm10":124.8,"pm2_5":78.7,"mosquito_risk":3,"arthritis_risk":5,"migraine_risk":7,"frizz_risk":1,"updated_at":"2026-04-16T08:24:59.309268+05:30"},{"city":"Durgapur","state":"West Bengal","latitude":23.5204,"longitude":87.3119,"temp":28.9,"humidity":80,"rain":0.0,"pressure":995.7,"uv_index":8.85,"wind_gusts":40.7,"aqi":126,"pm10":45.2,"pm2_5":39.3,"mosquito_risk":7,"arthritis_risk":5,"migraine_risk":7,"frizz_risk":1,"updated_at":"2026-04-16T08:24:59.309293+05:30"},{"city":"Asansol","state":"West Bengal","latitude":23.6739,"longitude":86.9524,"temp":29.5,"humidity":79,"rain":0.0,"pressure":994.2,"uv_index":8.9,"wind_gusts":50.4,"aqi":123,"pm10":51.5,"pm2_5":46.4,"mosquito_risk":7,"arthritis_risk":5,"migraine_risk":7,"frizz_risk":1,"updated_at":"2026-04-16T08:24:59.309302+05:30"},{"city":"Pondicherry","state":"Puducherry","latitude":11.9139,"longitude":79.8145,"temp":30.2,"humidity":79,"rain":0.0,"pressure":1008.5,"uv_index":9.25,"wind_gusts":28.8,"aqi":35,"pm10":9.2,"pm2_5":6.5,"mosquito_risk":3,"arthritis_risk":0,"migraine_risk":4,"frizz_risk":1,"updated_at":"2026-04-16T08:24:59.309308+05:30"},{"city":"Port Blair","state":"Andaman and Nicobar Islands","latitude":11.6234,"longitude":92.7265,"temp":29.3,"humidity":67,"rain":0.0,"pressure":1008.6,"uv_index":9.2,"wind_gusts":13.3,"aqi":64,"pm10":23.6,"pm2_5":17.2,"mosquito_risk":7,"arthritis_risk":0,"migraine_risk":4,"frizz_risk":1,"updated_at":"2026-04-16T08:24:59.309315+05:30"},{"city":"Haridwar","state":"Uttarakhand","latitude":29.9457,"longitude":78.1642,"temp":26.5,"humidity":57,"rain":0.0,"pressure":974.3,"uv_index":7.05,"wind_gusts":31.7,"aqi":54,"pm10":21.8,"pm2_5":21.7,"mosquito_risk":4,"arthritis_risk":5,"migraine_risk":7,"frizz_risk":1,"updated_at":"2026-04-16T08:24:59.309321+05:30"},{"city":"Rishikesh","state":"Uttarakhand","latitude":30.0869,"longitude":78.2676,"temp":26.5,"humidity":56,"rain":0.0,"pressure":967.3,"uv_index":7.0,"wind_gusts":33.1,"aqi":41,"pm10":14.4,"pm2_5":14.3,"mosquito_risk":4,"arthritis_risk":5,"migraine_risk":7,"frizz_risk":1,"updated_at":"2026-04-16T08:24:59.309327+05:30"},{"city":"Nainital","state":"Uttarakhand","latitude":29.3919,"longitude":79.4542,"temp":23.8,"humidity":35,"rain":0.0,"pressure":808.9,"uv_index":8.1,"wind_gusts":50.0,"aqi":45,"pm10":12.4,"pm2_5":10.4,"mosquito_risk":0,"arthritis_risk":5,"migraine_risk":7,"frizz_risk":0,"updated_at":"2026-04-16T08:24:59.309333+05:30"},{"city":"Mussoorie","state":"Uttarakhand","latitude":30.4599,"longitude":78.0664,"temp":20.2,"humidity":54,"rain":0.0,"pressure":804.6,"uv_index":7.1,"wind_gusts":38.2,"aqi":51,"pm10":17.8,"pm2_5":17.7,"mosquito_risk":0,"arthritis_risk":5,"migraine_risk":7,"frizz_risk":0,"updated_at":"2026-04-16T08:24:59.309339+05:30"},{"city":"Dharamshala","state":"Himachal Pradesh","latitude":32.219,"longitude":76.3234,"temp":23.3,"humidity":53,"rain":0.0,"pressure":870.0,"uv_index":7.2,"wind_gusts":25.2,"aqi":47,"pm10":7.2,"pm2_5":6.4,"mosquito_risk":0,"arthritis_risk":5,"migraine_risk":7,"frizz_risk":0,"updated_at":"2026-04-16T08:24:59.309345+05:30"},{"city":"Dalhousie","state":"Himachal Pradesh","latitude":32.5387,"longitude":75.971,"temp":20.4,"humidity":41,"rain":0.0,"pressure":805.1,"uv_index":7.75,"wind_gusts":25.6,"aqi":50,"pm10":13.9,"pm2_5":13.0,"mosquito_risk":0,"arthritis_risk":5,"migraine_risk":7,"frizz_risk":0,"updated_at":"2026-04-16T08:24:59.309351+05:30"},{"city":"Patiala","state":"Punjab","latitude":30.3398,"longitude":76.3869,"temp":24.0,"humidity":52,"rain":0.0,"pressure":977.8,"uv_index":7.1,"wind_gusts":19.8,"aqi":155,"pm10":45.8,"pm2_5":39.3,"mosquito_risk":0,"arthritis_risk":5,"migraine_risk":7,"frizz_risk":0,"updated_at":"2026-04-16T08:24:59.309357+05:30"},{"city":"Bhatinda","state":"Punjab","latitude":30.211,"longitude":74.9455,"temp":27.3,"humidity":43,"rain":0.0,"pressure":983.6,"uv_index":7.45,"wind_gusts":23.0,"aqi":63,"pm10":37.3,"pm2_5":25.1,"mosquito_risk":4,"arthritis_risk":5,"migraine_risk":7,"frizz_risk":0,"updated_at":"2026-04-16T08:24:59.309363+05:30"},{"city":"Rohtak","state":"Haryana","latitude":28.8955,"longitude":76.6066,"temp":25.1,"humidity":52,"rain":0.0,"pressure":981.5,"uv_index":7.35,"wind_gusts":27.0,"aqi":473,"pm10":510.4,"pm2_5":129.0,"mosquito_risk":4,"arthritis_risk":5,"migraine_risk":7,"frizz_risk":0,"updated_at":"2026-04-16T08:24:59.309369+05:30"},{"city":"Panipat","state":"Haryana","latitude":29.3909,"longitude":76.9635,"temp":24.7,"humidity":56,"rain":0.0,"pressure":980.0,"uv_index":7.2,"wind_gusts":23.0,"aqi":677,"pm10":257.0,"pm2_5":98.0,"mosquito_risk":0,"arthritis_risk":5,"migraine_risk":7,"frizz_risk":0,"updated_at":"2026-04-16T08:24:59.309375+05:30"},{"city":"Mathura","state":"Uttar Pradesh","latitude":27.4924,"longitude":77.6737,"temp":27.6,"humidity":42,"rain":0.0,"pressure":986.5,"uv_index":7.65,"wind_gusts":25.2,"aqi":423,"pm10":439.6,"pm2_5":102.4,"mosquito_risk":4,"arthritis_risk":5,"migraine_risk":7,"frizz_risk":0,"updated_at":"2026-04-16T08:24:59.309380+05:30"},{"city":"Vrindavan","state":"Uttar Pradesh","latitude":27.5823,"longitude":77.7027,"temp":27.5,"humidity":42,"rain":0.0,"pressure":986.9,"uv_index":7.6,"wind_gusts":26.6,"aqi":423,"pm10":439.6,"pm2_5":102.4,"mosquito_risk":4,"arthritis_risk":5,"migraine_risk":7,"frizz_risk":0,"updated_at":"2026-04-16T08:24:59.309386+05:30"},{"city":"Ayodhya","state":"Uttar Pradesh","latitude":26.7922,"longitude":82.1998,"temp":28.3,"humidity":55,"rain":0.0,"pressure":996.0,"uv_index":8.0,"wind_gusts":22.7,"aqi":84,"pm10":64.5,"pm2_5":34.9,"mosquito_risk":4,"arthritis_risk":5,"migraine_risk":7,"frizz_risk":1,"updated_at":"2026-04-16T08:24:59.309391+05:30"},{"city":"Ratlam","state":"Madhya Pradesh","latitude":23.3315,"longitude":75.0367,"temp":25.8,"humidity":65,"rain":0.0,"pressure":954.1,"uv_index":8.4,"wind_gusts":28.8,"aqi":67,"pm10":35.2,"pm2_5":20.8,"mosquito_risk":7,"arthritis_risk":5,"migraine_risk":7,"frizz_risk":1,"updated_at":"2026-04-16T08:24:59.309397+05:30"},{"city":"Sagar","state":"Madhya Pradesh","latitude":23.8388,"longitude":78.7378,"temp":28.7,"humidity":49,"rain":0.0,"pressure":950.1,"uv_index":8.55,"wind_gusts":21.6,"aqi":50,"pm10":52.2,"pm2_5":18.6,"mosquito_risk":4,"arthritis_risk":5,"migraine_risk":7,"frizz_risk":1,"updated_at":"2026-04-16T08:24:59.309403+05:30"},{"city":"Satna","state":"Madhya Pradesh","latitude":24.6005,"longitude":80.8322,"temp":31.6,"humidity":34,"rain":0.0,"pressure":971.3,"uv_index":8.6,"wind_gusts":28.8,"aqi":56,"pm10":65.2,"pm2_5":22.9,"mosquito_risk":0,"arthritis_risk":5,"migraine_risk":7,"frizz_risk":0,"updated_at":"2026-04-16T08:24:59.309408+05:30"},{"city":"Akola","state":"Maharashtra","latitude":20.7002,"longitude":77.0082,"temp":28.6,"humidity":45,"rain":0.0,"pressure":975.2,"uv_index":8.8,"wind_gusts":24.1,"aqi":53,"pm10":31.1,"pm2_5":21.4,"mosquito_risk":4,"arthritis_risk":5,"migraine_risk":7,"frizz_risk":0,"updated_at":"2026-04-16T08:24:59.309414+05:30"},{"city":"Amravati","state":"Maharashtra","latitude":20.9374,"longitude":77.7796,"temp":27.7,"humidity":55,"rain":0.0,"pressure":967.1,"uv_index":8.8,"wind_gusts":19.1,"aqi":50,"pm10":30.5,"pm2_5":21.2,"mosquito_risk":4,"arthritis_risk":5,"migraine_risk":7,"frizz_risk":1,"updated_at":"2026-04-16T08:24:59.309421+05:30"},{"city":"Latur","state":"Maharashtra","latitude":18.4088,"longitude":76.5604,"temp":27.4,"humidity":37,"rain":0.0,"pressure":940.2,"uv_index":9.05,"wind_gusts":23.4,"aqi":62,"pm10":24.2,"pm2_5":12.7,"mosquito_risk":4,"arthritis_risk":5,"migraine_risk":7,"frizz_risk":0,"updated_at":"2026-04-16T08:24:59.309426+05:30"},{"city":"Nanded","state":"Maharashtra","latitude":19.1383,"longitude":77.3091,"temp":27.8,"humidity":53,"rain":0.0,"pressure":968.9,"uv_index":8.95,"wind_gusts":17.3,"aqi":63,"pm10":26.0,"pm2_5":19.7,"mosquito_risk":4,"arthritis_risk":5,"migraine_risk":7,"frizz_risk":1,"updated_at":"2026-04-16T08:24:59.309432+05:30"},{"city":"Gulbarga","state":"Karnataka","latitude":17.3297,"longitude":76.8343,"temp":31.0,"humidity":36,"rain":0.0,"pressure":958.7,"uv_index":9.05,"wind_gusts":27.4,"aqi":89,"pm10":23.5,"pm2_5":22.0,"mosquito_risk":0,"arthritis_risk":5,"migraine_risk":7,"frizz_risk":0,"updated_at":"2026-04-16T08:24:59.309437+05:30"},{"city":"Bidar","state":"Karnataka","latitude":17.9104,"longitude":77.5199,"temp":30.3,"humidity":34,"rain":0.0,"pressure":935.9,"uv_index":9.1,"wind_gusts":33.8,"aqi":105,"pm10":46.4,"pm2_5":40.6,"mosquito_risk":0,"arthritis_risk":5,"migraine_risk":7,"frizz_risk":0,"updated_at":"2026-04-16T08:24:59.309443+05:30"},{"city":"Hospet","state":"Karnataka","latitude":15.2689,"longitude":76.3909,"temp":26.3,"humidity":80,"rain":0.0,"pressure":956.0,"uv_index":9.25,"wind_gusts":31.7,"aqi":79,"pm10":29.2,"pm2_5":20.8,"mosquito_risk":7,"arthritis_risk":5,"migraine_risk":7,"frizz_risk":1,"updated_at":"2026-04-16T08:24:59.309448+05:30"},{"city":"Tirupur","state":"Tamil Nadu","latitude":11.1085,"longitude":77.3411,"temp":29.2,"humidity":73,"rain":0.0,"pressure":975.9,"uv_index":9.5,"wind_gusts":32.8,"aqi":75,"pm10":41.7,"pm2_5":35.2,"mosquito_risk":7,"arthritis_risk":5,"migraine_risk":7,"frizz_risk":1,"updated_at":"2026-04-16T08:24:59.309453+05:30"},{"city":"Alappuzha","state":"Kerala","latitude":9.4981,"longitude":76.3388,"temp":28.7,"humidity":84,"rain":0.0,"pressure":1008.4,"uv_index":8.65,"wind_gusts":29.5,"aqi":93,"pm10":50.4,"pm2_5":40.3,"mosquito_risk":7,"arthritis_risk":0,"migraine_risk":4,"frizz_risk":1,"updated_at":"2026-04-16T08:24:59.309459+05:30"},{"city":"Munnar","state":"Kerala","latitude":10.0889,"longitude":77.0595,"temp":24.4,"humidity":62,"rain":0.0,"pressure":858.0,"uv_index":9.05,"wind_gusts":22.0,"aqi":72,"pm10":31.5,"pm2_5":26.6,"mosquito_risk":3,"arthritis_risk":5,"migraine_risk":7,"frizz_risk":1,"updated_at":"2026-04-16T08:24:59.309465+05:30"},{"city":"Silchar","state":"Assam","latitude":24.8333,"longitude":92.7789,"temp":24.9,"humidity":81,"rain":0.0,"pressure":1008.8,"uv_index":8.7,"wind_gusts":26.6,"aqi":113,"pm10":63.8,"pm2_5":38.8,"mosquito_risk":3,"arthritis_risk":0,"migraine_risk":4,"frizz_risk":1,"updated_at":"2026-04-16T08:24:59.309470+05:30"},{"city":"Dibrugarh","state":"Assam","latitude":27.4728,"longitude":94.912,"temp":23.0,"humidity":80,"rain":0.0,"pressure":1000.1,"uv_index":8.55,"wind_gusts":9.4,"aqi":150,"pm10":62.9,"pm2_5":35.2,"mosquito_risk":3,"arthritis_risk":5,"migraine_risk":4,"frizz_risk":1,"updated_at":"2026-04-16T08:24:59.309475+05:30"}]