[{"city":"Delhi","state":"Delhi","latitude":28.6139,"longitude":77.209,"temp":22.7,"humidity":54,"rain":0.0,"pressure":987.0,"uv_index":7.15,"wind_gusts":38.5,"aqi":723,"pm10":1009.6,"pm2_5":161.6,"mosquito_risk":0,"arthritis_risk":5,"migraine_risk":7,"frizz_risk":0,"updated_at":"2026-04-11T00:28:56.623443+05:30"},{"city":"Mumbai","state":"Maharashtra","latitude":19.076,"longitude":72.8777,"temp":28.7,"humidity":78,"rain":0.0,"pressure":1010.0,"uv_index":7.95,"wind_gusts":25.2,"aqi":100,"pm10":65.7,"pm2_5":40.3,"mosquito_risk":7,"arthritis_risk":0,"migraine_risk":4,"frizz_risk":1,"updated_at":"2026-04-11T00:28:56.623498+05:30"},{"city":"Bangalore","state":"Karnataka","latitude":12.9716,"longitude":77.5946,"temp":25.2,"humidity":74,"rain":0.0,"pressure":913.9,"uv_index":9.65,"wind_gusts":42.8,"aqi":120,"pm10":38.8,"pm2_5":36.0,"mosquito_risk":7,"arthritis_risk":5,"migraine_risk":7,"frizz_risk":1,"updated_at":"2026-04-11T00:28:56.623514+05:30"},{"city":"Hyderabad","state":"Telangana","latitude":17.385,"longitude":78.4867,"temp":30.4,"humidity":39,"rain":0.0,"pressure":954.9,"uv_index":9.15,"wind_gusts":19.4,"aqi":100,"pm10":79.4,"pm2_5":50.5,"mosquito_risk":0,"arthritis_risk":5,"migraine_risk":7,"frizz_risk":0,"updated_at":"2026-04-11T00:28:56.623524+05:30"},{"city":"Chennai","state":"Tamil Nadu","latitude":13.0827,"longitude":80.2707,"temp":28.8,"humidity":81,"rain":0.0,"pressure":1009.5,"uv_index":9.4,"wind_gusts":36.4,"aqi":63,"pm10":21.1,"pm2_5":14.8,"mosquito_risk":7,"arthritis_risk":0,"migraine_risk":4,"frizz_risk":1,"updated_at":"2026-04-11T00:28:56.623533+05:30"},{"city":"Kolkata","state":"West Bengal","latitude":22.5726,"longitude":88.3639,"temp":24.3,"humidity":91,"rain":0.0,"pressure":1008.1,"uv_index":8.7,"wind_gusts":21.2,"aqi":155,"pm10":60.3,"pm2_5":45.5,"mosquito_risk":3,"arthritis_risk":0,"migraine_risk":4,"frizz_risk":1,"updated_at":"2026-04-11T00:28:56.623542+05:30"},{"city":"Pune","state":"Maharashtra","latitude":18.5204,"longitude":73.8567,"temp":26.2,"humidity":76,"rain":0.0,"pressure":950.4,"uv_index":8.5,"wind_gusts":27.4,"aqi":103,"pm10":58.3,"pm2_5":38.1,"mosquito_risk":7,"arthritis_risk":5,"migraine_risk":7,"frizz_risk":1,"updated_at":"2026-04-11T00:28:56.623554+05:30"},{"city":"Ahmedabad","state":"Gujarat","latitude":23.0225,"longitude":72.5714,"temp":29.0,"humidity":34,"rain":0.0,"pressure":1004.8,"uv_index":8.0,"wind_gusts":36.7,"aqi":79,"pm10":51.1,"pm2_5":28.5,"mosquito_risk":4,"arthritis_risk":5,"migraine_risk":4,"frizz_risk":0,"updated_at":"2026-04-11T00:28:56.623562+05:30"},{"city":"Jaipur","state":"Rajasthan","latitude":26.9124,"longitude":75.7873,"temp":25.2,"humidity":41,"rain":0.0,"pressure":964.2,"uv_index":7.75,"wind_gusts":28.4,"aqi":164,"pm10":139.2,"pm2_5":35.5,"mosquito_risk":4,"arthritis_risk":5,"migraine_risk":7,"frizz_risk":0,"updated_at":"2026-04-11T00:28:56.623571+05:30"},{"city":"Lucknow","state":"Uttar Pradesh","latitude":26.8467,"longitude":80.9462,"temp":22.1,"humidity":51,"rain":0.0,"pressure":996.2,"uv_index":7.65,"wind_gusts":40.0,"aqi":159,"pm10":713.4,"pm2_5":129.0,"mosquito_risk":0,"arthritis_risk":5,"migraine_risk":7,"frizz_risk":0,"updated_at":"2026-04-11T00:28:56.623580+05:30"},{"city":"Kanpur","state":"Uttar Pradesh","latitude":26.4499,"longitude":80.3319,"temp":20.6,"humidity":63,"rain":0.0,"pressure":994.9,"uv_index":7.65,"wind_gusts":35.3,"aqi":378,"pm10":814.0,"pm2_5":118.5,"mosquito_risk":3,"arthritis_risk":5,"migraine_risk":7,"frizz_risk":0,"updated_at":"2026-04-11T00:28:56.623588+05:30"},{"city":"Chandigarh","state":"Chandigarh","latitude":30.7333,"longitude":76.7794,"temp":19.5,"humidity":61,"rain":0.0,"pressure":972.7,"uv_index":7.15,"wind_gusts":42.1,"aqi":101,"pm10":18.2,"pm2_5":17.3,"mosquito_risk":3,"arthritis_risk":5,"migraine_risk":7,"frizz_risk":0,"updated_at":"2026-04-11T00:28:56.623598+05:30"},{"city":"Srinagar","state":"Jammu and Kashmir","latitude":34.0837,"longitude":74.7973,"temp":10.1,"humidity":82,"rain":0.0,"pressure":842.7,"uv_index":8.1,"wind_gusts":12.6,"aqi":67,"pm10":67.1,"pm2_5":50.9,"mosquito_risk":3,"arthritis_risk":10,"migraine_risk":7,"frizz_risk":0,"updated_at":"2026-04-11T00:28:56.623606+05:30"},{"city":"Jammu","state":"Jammu and Kashmir","latitude":32.7266,"longitude":74.857,"temp":19.3,"humidity":67,"rain":0.0,"pressure":977.6,"uv_index":7.75,"wind_gusts":34.2,"aqi":66,"pm10":40.3,"pm2_5":31.1,"mosquito_risk":3,"arthritis_risk":5,"migraine_risk":7,"frizz_risk":0,"updated_at":"2026-04-11T00:28:56.623614+05:30"},{"city":"Amritsar","state":"Punjab","latitude":31.634,"longitude":74.8723,"temp":20.3,"humidity":69,"rain":0.0,"pressure":986.0,"uv_index":7.7,"wind_gusts":29.2,"aqi":89,"pm10":38.3,"pm2_5":20.5,"mosquito_risk":3,"arthritis_risk":5,"migraine_risk":7,"frizz_risk":0,"updated_at":"2026-04-11T00:28:56.623622+05:30"},{"city":"Ludhiana","state":"Punjab","latitude":30.901,"longitude":75.8573,"temp":21.2,"humidity":58,"rain":0.0,"pressure":983.8,"uv_index":7.3,"wind_gusts":32.8,"aqi":94,"pm10":32.4,"pm2_5":26.8,"mosquito_risk":0,"arthritis_risk":5,"migraine_risk":7,"frizz_risk":0,"updated_at":"2026-04-11T00:28:56.623629+05:30"},{"city":"Jalandhar","state":"Punjab","latitude":31.326,"longitude":75.5762,"temp":20.4,"humidity":63,"rain":0.0,"pressure":985.2,"uv_index":7.5,"wind_gusts":29.9,"aqi":99,"pm10":42.5,"pm2_5":24.4,"mosquito_risk":3,"arthritis_risk":5,"migraine_risk":7,"frizz_risk":0,"updated_at":"2026-04-11T00:28:56.623637+05:30"},{"city":"Dehradun","state":"Uttarakhand","latitude":30.6284,"longitude":78.0322,"temp":11.7,"humidity":64,"rain":0.0,"pressure":829.9,"uv_index":7.55,"wind_gusts":29.5,"aqi":92,"pm10":15.1,"pm2_5":12.7,"mosquito_risk":3,"arthritis_risk":5,"migraine_risk":7,"frizz_risk":0,"updated_at":"2026-04-11T00:28:56.623644+05:30"},{"city":"Shimla","state":"Himachal Pradesh","latitude":31.1048,"longitude":77.1734,"temp":9.0,"humidity":57,"rain":0.0,"pressure":783.8,"uv_index":7.6,"wind_gusts":50.8,"aqi":89,"pm10":18.3,"pm2_5":15.1,"mosquito_risk":0,"arthritis_risk":5,"migraine_risk":7,"frizz_risk":0,"updated_at":"2026-04-11T00:28:56.623651+05:30"},{"city":"Manali","state":"Himachal Pradesh","latitude":32.2396,"longitude":77.1887,"temp":12.9,"humidity":63,"rain":0.0,"pressure":820.0,"uv_index":9.9,"wind_gusts":32.4,"aqi":137,"pm10":21.5,"pm2_5":13.2,"mosquito_risk":3,"arthritis_risk":5,"migraine_risk":7,"frizz_risk":0,"updated_at":"2026-04-11T00:28:56.623658+05:30"},{"city":"Gurgaon","state":"Haryana","latitude":28.4595,"longitude":77.0266,"temp":20.4,"humidity":66,"rain":0.0,"pressure":985.5,"uv_index":7.25,"wind_gusts":35.6,"aqi":2044,"pm10":2607.7,"pm2_5":312.0,"mosquito_risk":3,"arthritis_risk":5,"migraine_risk":7,"frizz_risk":0,"updated_at":"2026-04-11T00:28:56.623665+05:30"},{"city":"Noida","state":"Uttar Pradesh","latitude":28.5355,"longitude":77.391,"temp":22.2,"humidity":57,"rain":0.0,"pressure":988.4,"uv_index":7.15,"wind_gusts":37.8,"aqi":2044,"pm10":2607.7,"pm2_5":312.0,"mosquito_risk":0,"arthritis_risk":5,"migraine_risk":7,"frizz_risk":0,"updated_at":"2026-04-11T00:28:56.623672+05:30"},{"city":"Ghaziabad","state":"Uttar Pradesh","latitude":28.6692,"longitude":77.4538,"temp":21.1,"humidity":60,"rain":0.0,"pressure":986.4,"uv_index":7.15,"wind_gusts":37.8,"aqi":538,"pm10":882.9,"pm2_5":148.1,"mosquito_risk":0,"arthritis_risk":5,"migraine_risk":7,"frizz_risk":0,"updated_at":"2026-04-11T00:28:56.623678+05:30"},{"city":"Faridabad","state":"Haryana","latitude":28.4089,"longitude":77.3178,"temp":22.6,"humidity":54,"rain":0.0,"pressure":987.8,"uv_index":7.2,"wind_gusts":36.4,"aqi":2044,"pm10":2607.7,"pm2_5":312.0,"mosquito_risk":0,"arthritis_risk":5,"migraine_risk":7,"frizz_risk":0,"updated_at":"2026-04-11T00:28:56.623684+05:30"},{"city":"Meerut","state":"Uttar Pradesh","latitude":28.9845,"longitude":77.7064,"temp":19.5,"humidity":64,"rain":0.0,"pressure":984.9,"uv_index":7.05,"wind_gusts":42.5,"aqi":538,"pm10":882.9,"pm2_5":148.1,"mosquito_risk":3,"arthritis_risk":5,"migraine_risk":7,"frizz_risk":0,"updated_at":"2026-04-11T00:28:56.623691+05:30"},{"city":"Agra","state":"Uttar Pradesh","latitude":27.1767,"longitude":78.0081,"temp":20.8,"humidity":61,"rain":0.0,"pressure":991.7,"uv_index":7.5,"wind_gusts":36.0,"aqi":1081,"pm10":1445.4,"pm2_5":172.8,"mosquito_risk":3,"arthritis_risk":5,"migraine_risk":7,"frizz_risk":0,"updated_at":"2026-04-11T00:28:56.623698+05:30"},{"city":"Varanasi","state":"Uttar Pradesh","latitude":25.3176,"longitude":82.9739,"temp":21.3,"humidity":50,"rain":0.0,"pressure":1000.4,"uv_index":8.2,"wind_gusts":39.2,"aqi":96,"pm10":132.2,"pm2_5":38.0,"mosquito_risk":0,"arthritis_risk":5,"migraine_risk":4,"frizz_risk":0,"updated_at":"2026-04-11T00:28:56.623706+05:30"},{"city":"Prayagraj","state":"Uttar Pradesh","latitude":25.4358,"longitude":81.8463,"temp":22.3,"humidity":52,"rain":0.0,"pressure":999.2,"uv_index":8.05,"wind_gusts":31.7,"aqi":102,"pm10":286.8,"pm2_5":56.8,"mosquito_risk":0,"arthritis_risk":5,"migraine_risk":7,"frizz_risk":0,"updated_at":"2026-04-11T00:28:56.623713+05:30"},{"city":"Gorakhpur","state":"Uttar Pradesh","latitude":26.7606,"longitude":83.3732,"temp":21.5,"humidity":39,"rain":0.0,"pressure":999.2,"uv_index":8.05,"wind_gusts":43.2,"aqi":108,"pm10":273.8,"pm2_5":51.8,"mosquito_risk":0,"arthritis_risk":5,"migraine_risk":7,"frizz_risk":0,"updated_at":"2026-04-11T00:28:56.623720+05:30"},{"city":"Bareilly","state":"Uttar Pradesh","latitude":28.367,"longitude":79.4304,"temp":19.1,"humidity":67,"rain":0.0,"pressure":989.7,"uv_index":7.4,"wind_gusts":38.2,"aqi":94,"pm10":400.5,"pm2_5":88.2,"mosquito_risk":3,"arthritis_risk":5,"migraine_risk":7,"frizz_risk":0,"updated_at":"2026-04-11T00:28:56.623727+05:30"},{"city":"Aligarh","state":"Uttar Pradesh","latitude":27.8974,"longitude":78.088,"temp":20.4,"humidity":60,"rain":0.0,"pressure":989.1,"uv_index":7.3,"wind_gusts":38.9,"aqi":1110,"pm10":1732.3,"pm2_5":245.9,"mosquito_risk":0,"arthritis_risk":5,"migraine_risk":7,"frizz_risk":0,"updated_at":"2026-04-11T00:28:56.623733+05:30"},{"city":"Moradabad","state":"Uttar Pradesh","latitude":28.8386,"longitude":78.7733,"temp":19.3,"humidity":66,"rain":0.0,"pressure":986.7,"uv_index":7.25,"wind_gusts":38.2,"aqi":116,"pm10":380.9,"pm2_5":86.8,"mosquito_risk":3,"arthritis_risk":5,"migraine_risk":7,"frizz_risk":0,"updated_at":"2026-04-11T00:28:56.623739+05:30"},{"city":"Saharanpur","state":"Uttar Pradesh","latitude":29.9637,"longitude":77.546,"temp":19.9,"humidity":59,"rain":0.0,"pressure":978.7,"uv_index":6.85,"wind_gusts":50.4,"aqi":106,"pm10":44.1,"pm2_5":19.0,"mosquito_risk":0,"arthritis_risk":5,"migraine_risk":7,"frizz_risk":0,"updated_at":"2026-04-11T00:28:56.623747+05:30"},{"city":"Jhansi","state":"Uttar Pradesh","latitude":25.4484,"longitude":78.5685,"temp":23.8,"humidity":42,"rain":0.0,"pressure":981.8,"uv_index":8.0,"wind_gusts":33.5,"aqi":78,"pm10":18.5,"pm2_5":13.3,"mosquito_risk":0,"arthritis_risk":5,"migraine_risk":7,"frizz_risk":0,"updated_at":"2026-04-11T00:28:59.877138+05:30"},{"city":"Surat","state":"Gujarat","latitude":21.1702,"longitude":72.8311,"temp":27.4,"humidity":59,"rain":0.0,"pressure":1008.2,"uv_index":7.75,"wind_gusts":19.4,"aqi":139,"pm10":50.5,"pm2_5":37.7,"mosquito_risk":4,"arthritis_risk":0,"migraine_risk":4,"frizz_risk":1,"updated_at":"2026-04-11T00:28:59.877172+05:30"},{"city":"Vadodara","state":"Gujarat","latitude":22.3072,"longitude":73.1812,"temp":27.2,"humidity":44,"rain":0.0,"pressure":1006.5,"uv_index":8.0,"wind_gusts":31.7,"aqi":75,"pm10":38.9,"pm2_5":28.6,"mosquito_risk":4,"arthritis_risk":5,"migraine_risk":4,"frizz_risk":0,"updated_at":"2026-04-11T00:28:59.877183+05:30"},{"city":"Rajkot","state":"Gujarat","latitude":22.3039,"longitude":70.8022,"temp":27.2,"humidity":57,"rain":0.0,"pressure":997.4,"uv_index":7.7,"wind_gusts":25.9,"aqi":107,"pm10":55.8,"pm2_5":39.3,"mosquito_risk":4,"arthritis_risk":5,"migraine_risk":7,"frizz_risk":1,"updated_at":"2026-04-11T00:28:59.877192+05:30"},{"city":"Thane","state":"Maharashtra","latitude":19.2183,"longitude":72.9781,"temp":27.0,"humidity":83,"rain":0.0,"pressure":1009.4,"uv_index":7.95,"wind_gusts":37.8,"aqi":100,"pm10":65.7,"pm2_5":40.3,"mosquito_risk":7,"arthritis_risk":0,"migraine_risk":4,"frizz_risk":1,"updated_at":"2026-04-11T00:28:59.877200+05:30"},{"city":"Nagpur","state":"Maharashtra","latitude":21.1458,"longitude":79.0882,"temp":27.3,"humidity":60,"rain":0.0,"pressure":975.3,"uv_index":8.75,"wind_gusts":24.1,"aqi":93,"pm10":34.9,"pm2_5":21.1,"mosquito_risk":4,"arthritis_risk":5,"migraine_risk":7,"frizz_risk":1,"updated_at":"2026-04-11T00:28:59.877234+05:30"},{"city":"Nashik","state":"Maharashtra","latitude":19.9975,"longitude":73.7898,"temp":26.0,"humidity":56,"rain":0.0,"pressure":947.7,"uv_index":8.2,"wind_gusts":28.1,"aqi":111,"pm10":63.3,"pm2_5":49.5,"mosquito_risk":4,"arthritis_risk":5,"migraine_risk":7,"frizz_risk":1,"updated_at":"2026-04-11T00:28:59.877245+05:30"},{"city":"Aurangabad","state":"Maharashtra","latitude":19.8762,"longitude":75.3433,"temp":27.8,"humidity":44,"rain":0.0,"pressure":946.1,"uv_index":8.85,"wind_gusts":28.4,"aqi":106,"pm10":45.4,"pm2_5":29.6,"mosquito_risk":4,"arthritis_risk":5,"migraine_risk":7,"frizz_risk":0,"updated_at":"2026-04-11T00:28:59.877254+05:30"},{"city":"Solapur","state":"Maharashtra","latitude":17.6599,"longitude":75.9064,"temp":31.0,"humidity":40,"rain":0.0,"pressure":958.0,"uv_index":9.0,"wind_gusts":23.4,"aqi":86,"pm10":29.1,"pm2_5":22.1,"mosquito_risk":0,"arthritis_risk":5,"migraine_risk":7,"frizz_risk":0,"updated_at":"2026-04-11T00:28:59.877264+05:30"},{"city":"Kolhapur","state":"Maharashtra","latitude":16.705,"longitude":74.2433,"temp":23.8,"humidity":71,"rain":0.0,"pressure":949.0,"uv_index":9.0,"wind_gusts":32.8,"aqi":89,"pm10":67.8,"pm2_5":43.4,"mosquito_risk":3,"arthritis_risk":5,"migraine_risk":7,"frizz_risk":1,"updated_at":"2026-04-11T00:28:59.877272+05:30"},{"city":"Goa","state":"Goa","latitude":15.2993,"longitude":74.124,"temp":27.7,"humidity":79,"rain":0.0,"pressure":999.1,"uv_index":9.0,"wind_gusts":37.1,"aqi":86,"pm10":96.4,"pm2_5":40.2,"mosquito_risk":7,"arthritis_risk":5,"migraine_risk":7,"frizz_risk":1,"updated_at":"2026-04-11T00:28:59.877281+05:30"},{"city":"Jodhpur","state":"Rajasthan","latitude":26.2389,"longitude":73.0243,"temp":27.5,"humidity":33,"rain":0.0,"pressure":986.7,"uv_index":8.0,"wind_gusts":22.7,"aqi":65,"pm10":61.9,"pm2_5":24.1,"mosquito_risk":4,"arthritis_risk":5,"migraine_risk":7,"frizz_risk":0,"updated_at":"2026-04-11T00:28:59.877289+05:30"},{"city":"Udaipur","state":"Rajasthan","latitude":24.5854,"longitude":73.7125,"temp":23.5,"humidity":36,"rain":0.0,"pressure":950.6,"uv_index":8.55,"wind_gusts":29.9,"aqi":66,"pm10":50.1,"pm2_5":17.4,"mosquito_risk":0,"arthritis_risk":5,"migraine_risk":7,"frizz_risk":0,"updated_at":"2026-04-11T00:28:59.877297+05:30"},{"city":"Kota","state":"Rajasthan","latitude":25.2138,"longitude":75.8648,"temp":23.8,"humidity":49,"rain":0.0,"pressure":982.9,"uv_index":8.0,"wind_gusts":23.8,"aqi":79,"pm10":78.9,"pm2_5":42.5,"mosquito_risk":0,"arthritis_risk":5,"migraine_risk":7,"frizz_risk":0,"updated_at":"2026-04-11T00:28:59.877304+05:30"},{"city":"Bikaner","state":"Rajasthan","latitude":28.0229,"longitude":73.3119,"temp":27.3,"humidity":37,"rain":0.0,"pressure":985.9,"uv_index":7.8,"wind_gusts":19.8,"aqi":84,"pm10":38.4,"pm2_5":18.4,"mosquito_risk":4,"arthritis_risk":5,"migraine_risk":7,"frizz_risk":0,"updated_at":"2026-04-11T00:28:59.877312+05:30"},{"city":"Ajmer","state":"Rajasthan","latitude":26.4499,"longitude":74.6399,"temp":25.4,"humidity":36,"rain":0.0,"pressure":958.5,"uv_index":7.95,"wind_gusts":20.2,"aqi":75,"pm10":66.4,"pm2_5":35.5,"mosquito_risk":4,"arthritis_risk":5,"migraine_risk":7,"frizz_risk":0,"updated_at":"2026-04-11T00:28:59.877320+05:30"},{"city":"Gwalior","state":"Madhya Pradesh","latitude":26.2183,"longitude":78.1828,"temp":23.5,"humidity":53,"rain":0.0,"pressure":987.2,"uv_index":7.75,"wind_gusts":33.1,"aqi":99,"pm10":74.7,"pm2_5":22.3,"mosquito_risk":0,"arthritis_risk":5,"migraine_risk":7,"frizz_risk":0,"updated_at":"2026-04-11T00:28:59.877328+05:30"},{"city":"Indore","state":"Madhya Pradesh","latitude":22.7196,"longitude":75.8577,"temp":23.3,"humidity":45,"rain":0.0,"pressure":950.7,"uv_index":8.45,"wind_gusts":31.0,"aqi":97,"pm10":32.8,"pm2_5":19.1,"mosquito_risk":0,"arthritis_risk":5,"migraine_risk":7,"frizz_risk":0,"updated_at":"2026-04-11T00:28:59.877337+05:30"},{"city":"Bhopal","state":"Madhya Pradesh","latitude":23.2599,"longitude":77.4126,"temp":24.7,"humidity":34,"rain":0.0,"pressure":956.9,"uv_index":8.45,"wind_gusts":30.2,"aqi":89,"pm10":25.9,"pm2_5":14.1,"mosquito_risk":0,"arthritis_risk":5,"migraine_risk":7,"frizz_risk":0,"updated_at":"2026-04-11T00:28:59.877346+05:30"},{"city":"Jabalpur","state":"Madhya Pradesh","latitude":23.1815,"longitude":79.9864,"temp":26.4,"humidity":40,"rain":0.0,"pressure":964.4,"uv_index":8.55,"wind_gusts":24.5,"aqi":81,"pm10":38.3,"pm2_5":19.2,"mosquito_risk":4,"arthritis_risk":5,"migraine_risk":7,"frizz_risk":0,"updated_at":"2026-04-11T00:28:59.877354+05:30"},{"city":"Ujjain","state":"Madhya Pradesh","latitude":23.1765,"longitude":75.7885,"temp":23.7,"humidity":42,"rain":0.0,"pressure":956.9,"uv_index":8.35,"wind_gusts":29.5,"aqi":84,"pm10":34.9,"pm2_5":21.0,"mosquito_risk":0,"arthritis_risk":5,"migraine_risk":7,"frizz_risk":0,"updated_at":"2026-04-11T00:28:59.877363+05:30"},{"city":"Visakhapatnam","state":"Andhra Pradesh","latitude":17.6868,"longitude":83.2185,"temp":27.9,"humidity":86,"rain":0.0,"pressure":1005.8,"uv_index":9.1,"wind_gusts":37.1,"aqi":94,"pm10":26.7,"pm2_5":20.7,"mosquito_risk":7,"arthritis_risk":5,"migraine_risk":4,"frizz_risk":1,"updated_at":"2026-04-11T00:28:59.877372+05:30"},{"city":"Vijayawada","state":"Andhra Pradesh","latitude":16.5062,"longitude":80.648,"temp":28.1,"humidity":84,"rain":0.0,"pressure":1004.3,"uv_index":9.2,"wind_gusts":30.2,"aqi":78,"pm10":20.9,"pm2_5":18.2,"mosquito_risk":7,"arthritis_risk":5,"migraine_risk":4,"frizz_risk":1,"updated_at":"2026-04-11T00:28:59.877381+05:30"},{"city":"Guntur","state":"Andhra Pradesh","latitude":16.3067,"longitude":80.4365,"temp":28.0,"humidity":87,"rain":0.0,"pressure":1005.5,"uv_index":9.2,"wind_gusts":33.5,"aqi":78,"pm10":22.5,"pm2_5":20.0,"mosquito_risk":7,"arthritis_risk":5,"migraine_risk":4,"frizz_risk":1,"updated_at":"2026-04-11T00:28:59.877389+05:30"},{"city":"Nellore","state":"Andhra Pradesh","latitude":14.4426,"longitude":79.9865,"temp":28.2,"humidity":84,"rain":0.0,"pressure":1007.7,"uv_index":9.3,"wind_gusts":34.9,"aqi":71,"pm10":18.2,"pm2_5":14.4,"mosquito_risk":7,"arthritis_risk":5,"migraine_risk":4,"frizz_risk":1,"updated_at":"2026-04-11T00:28:59.877397+05:30"},{"city":"Kurnool","state":"Andhra Pradesh","latitude":15.8281,"longitude":78.0373,"temp":31.8,"humidity":53,"rain":0.0,"pressure":978.0,"uv_index":9.15,"wind_gusts":26.3,"aqi":86,"pm10":50.8,"pm2_5":32.5,"mosquito_risk":0,"arthritis_risk":5,"migraine_risk":7,"frizz_risk":1,"updated_at":"2026-04-11T00:28:59.877404+05:30"},{"city":"Kakinada","state":"Andhra Pradesh","latitude":16.9891,"longitude":82.2475,"temp":28.0,"humidity":87,"rain":0.0,"pressure":1009.6,"uv_index":9.15,"wind_gusts":37.1,"aqi":70,"pm10":23.1,"pm2_5":15.8,"mosquito_risk":7,"arthritis_risk":0,"migraine_risk":4,"frizz_risk":1,"updated_at":"2026-04-11T00:28:59.877411+05:30"},{"city":"Tirupati","state":"Andhra Pradesh","latitude":13.6288,"longitude":79.4192,"temp":27.2,"humidity":84,"rain":0.0,"pressure":994.4,"uv_index":9.05,"wind_gusts":30.6,"aqi":90,"pm10":20.4,"pm2_5":18.5,"mosquito_risk":7,"arthritis_risk":5,"migraine_risk":7,"frizz_risk":1,"updated_at":"2026-04-11T00:28:59.877419+05:30"},{"city":"Warangal","state":"Telangana","latitude":17.9689,"longitude":79.5941,"temp":29.4,"humidity":54,"rain":0.0,"pressure":979.7,"uv_index":9.0,"wind_gusts":23.4,"aqi":112,"pm10":67.1,"pm2_5":49.0,"mosquito_risk":4,"arthritis_risk":5,"migraine_risk":7,"frizz_risk":1,"updated_at":"2026-04-11T00:28:59.877426+05:30"},{"city":"Nizamabad","state":"Telangana","latitude":18.6725,"longitude":78.0941,"temp":28.3,"humidity":57,"rain":0.0,"pressure":966.1,"uv_index":8.95,"wind_gusts":29.5,"aqi":83,"pm10":48.8,"pm2_5":33.2,"mosquito_risk":4,"arthritis_risk":5,"migraine_risk":7,"frizz_risk":1,"updated_at":"2026-04-11T00:28:59.877433+05:30"},{"city":"Mysore","state":"Karnataka","latitude":12.2958,"longitude":76.6396,"temp":24.2,"humidity":85,"rain":0.0,"pressure":930.6,"uv_index":9.55,"wind_gusts":33.5,"aqi":143,"pm10":41.9,"pm2_5":35.7,"mosquito_risk":3,"arthritis_risk":5,"migraine_risk":7,"frizz_risk":1,"updated_at":"2026-04-11T00:28:59.877440+05:30"},{"city":"Mangalore","state":"Karnataka","latitude":12.9141,"longitude":74.856,"temp":29.9,"humidity":80,"rain":0.0,"pressure":1008.6,"uv_index":9.15,"wind_gusts":32.4,"aqi":69,"pm10":94.5,"pm2_5":32.0,"mosquito_risk":7,"arthritis_risk":0,"migraine_risk":4,"frizz_risk":1,"updated_at":"2026-04-11T00:28:59.877447+05:30"},{"city":"Hubli-Dharwad","state":"Karnataka","latitude":15.3647,"longitude":75.124,"temp":25.4,"humidity":73,"rain":0.0,"pressure":941.8,"uv_index":9.2,"wind_gusts":36.0,"aqi":73,"pm10":59.6,"pm2_5":34.9,"mosquito_risk":7,"arthritis_risk":5,"migraine_risk":7,"frizz_risk":1,"updated_at":"2026-04-11T00:28:59.877455+05:30"},{"city":"Belgaum","state":"Karnataka","latitude":15.8497,"longitude":74.4977,"temp":23.9,"humidity":76,"rain":0.0,"pressure":926.8,"uv_index":9.25,"wind_gusts":34.9,"aqi":80,"pm10":78.9,"pm2_5":41.9,"mosquito_risk":3,"arthritis_risk":5,"migraine_risk":7,"frizz_risk":1,"updated_at":"2026-04-11T00:29:03.128693+05:30"},{"city":"Coimbatore","state":"Tamil Nadu","latitude":11.0168,"longitude":76.9558,"temp":25.4,"humidity":82,"rain":0.0,"pressure":964.2,"uv_index":9.5,"wind_gusts":36.7,"aqi":88,"pm10":40.2,"pm2_5":33.2,"mosquito_risk":7,"arthritis_risk":5,"migraine_risk":7,"frizz_risk":1,"updated_at":"2026-04-11T00:29:03.128724+05:30"},{"city":"Madurai","state":"Tamil Nadu","latitude":9.9252,"longitude":78.1198,"temp":28.0,"humidity":84,"rain":0.0,"pressure":995.6,"uv_index":9.4,"wind_gusts":35.3,"aqi":85,"pm10":19.2,"pm2_5":17.0,"mosquito_risk":7,"arthritis_risk":5,"migraine_risk":7,"frizz_risk":1,"updated_at":"2026-04-11T00:29:03.128734+05:30"},{"city":"Trichy","state":"Tamil Nadu","latitude":10.7905,"longitude":78.7047,"temp":27.9,"humidity":88,"rain":0.0,"pressure":1002.2,"uv_index":9.4,"wind_gusts":29.9,"aqi":67,"pm10":17.8,"pm2_5":16.2,"mosquito_risk":7,"arthritis_risk":5,"migraine_risk":4,"frizz_risk":1,"updated_at":"2026-04-11T00:29:03.128743+05:30"},{"city":"Salem","state":"Tamil Nadu","latitude":11.6643,"longitude":78.146,"temp":28.5,"humidity":77,"rain":0.0,"pressure":979.3,"uv_index":9.3,"wind_gusts":24.1,"aqi":111,"pm10":29.3,"pm2_5":26.7,"mosquito_risk":7,"arthritis_risk":5,"migraine_risk":7,"frizz_risk":1,"updated_at":"2026-04-11T00:29:03.128751+05:30"},{"city":"Tirunelveli","state":"Tamil Nadu","latitude":8.7139,"longitude":77.7567,"temp":26.6,"humidity":79,"rain":0.0,"pressure":1005.4,"uv_index":9.35,"wind_gusts":38.2,"aqi":85,"pm10":32.6,"pm2_5":27.9,"mosquito_risk":7,"arthritis_risk":5,"migraine_risk":4,"frizz_risk":1,"updated_at":"2026-04-11T00:29:03.128758+05:30"},{"city":"Vellore","state":"Tamil Nadu","latitude":12.9165,"longitude":79.1325,"temp":27.7,"humidity":73,"rain":0.0,"pressure":986.9,"uv_index":9.45,"wind_gusts":35.3,"aqi":96,"pm10":25.8,"pm2_5":23.7,"mosquito_risk":7,"arthritis_risk":5,"migraine_risk":7,"frizz_risk":1,"updated_at":"2026-04-11T00:29:03.128765+05:30"},{"city":"Erode","state":"Tamil Nadu","latitude":11.341,"longitude":77.7172,"temp":29.7,"humidity":71,"rain":0.0,"pressure":991.1,"uv_index":9.45,"wind_gusts":30.6,"aqi":105,"pm10":27.9,"pm2_5":25.0,"mosquito_risk":7,"arthritis_risk":5,"migraine_risk":7,"frizz_risk":1,"updated_at":"2026-04-11T00:29:03.128772+05:30"},{"city":"Kochi","state":"Kerala","latitude":9.9312,"longitude":76.2673,"temp":26.9,"humidity":83,"rain":0.0,"pressure":1011.5,"uv_index":9.25,"wind_gusts":31.7,"aqi":75,"pm10":28.2,"pm2_5":25.4,"mosquito_risk":7,"arthritis_risk":0,"migraine_risk":4,"frizz_risk":1,"updated_at":"2026-04-11T00:29:03.128780+05:30"},{"city":"Thiruvananthapuram","state":"Kerala","latitude":8.5241,"longitude":76.9366,"temp":27.3,"humidity":81,"rain":0.0,"pressure":1010.3,"uv_index":9.2,"wind_gusts":28.1,"aqi":67,"pm10":35.0,"pm2_5":19.0,"mosquito_risk":7,"arthritis_risk":0,"migraine_risk":4,"frizz_risk":1,"updated_at":"2026-04-11T00:29:03.128787+05:30"},{"city":"Kozhikode","state":"Kerala","latitude":11.2588,"longitude":75.7804,"temp":29.1,"humidity":80,"rain":0.0,"pressure":1010.2,"uv_index":9.15,"wind_gusts":30.2,"aqi":68,"pm10":54.4,"pm2_5":19.0,"mosquito_risk":7,"arthritis_risk":0,"migraine_risk":4,"frizz_risk":1,"updated_at":"2026-04-11T00:29:03.128794+05:30"},{"city":"Thrissur","state":"Kerala","latitude":10.5276,"longitude":76.2144,"temp":26.9,"humidity":88,"rain":0.0,"pressure":1009.8,"uv_index":9.2,"wind_gusts":36.0,"aqi":79,"pm10":26.0,"pm2_5":21.0,"mosquito_risk":7,"arthritis_risk":0,"migraine_risk":4,"frizz_risk":1,"updated_at":"2026-04-11T00:29:03.128801+05:30"},{"city":"Kannur","state":"Kerala","latitude":11.8745,"longitude":75.3704,"temp":28.8,"humidity":82,"rain":0.0,"pressure":1009.1,"uv_index":9.15,"wind_gusts":36.4,"aqi":69,"pm10":70.5,"pm2_5":24.4,"mosquito_risk":7,"arthritis_risk":0,"migraine_risk":4,"frizz_risk":1,"updated_at":"2026-04-11T00:29:03.128809+05:30"},{"city":"Patna","state":"Bihar","latitude":25.5941,"longitude":85.1376,"temp":23.7,"humidity":49,"rain":0.0,"pressure":1002.3,"uv_index":8.35,"wind_gusts":38.9,"aqi":84,"pm10":53.4,"pm2_5":31.7,"mosquito_risk":0,"arthritis_risk":5,"migraine_risk":4,"frizz_risk":0,"updated_at":"2026-04-11T00:29:03.128815+05:30"},{"city":"Gaya","state":"Bihar","latitude":24.7914,"longitude":85.0002,"temp":23.8,"humidity":47,"rain":0.0,"pressure":996.2,"uv_index":8.45,"wind_gusts":37.8,"aqi":98,"pm10":57.6,"pm2_5":30.0,"mosquito_risk":0,"arthritis_risk":5,"migraine_risk":7,"frizz_risk":0,"updated_at":"2026-04-11T00:29:03.128822+05:30"},{"city":"Muzaffarpur","state":"Bihar","latitude":26.1209,"longitude":85.3647,"temp":21.5,"humidity":48,"rain":0.0,"pressure":1002.2,"uv_index":8.35,"wind_gusts":36.0,"aqi":85,"pm10":48.4,"pm2_5":29.0,"mosquito_risk":0,"arthritis_risk":5,"migraine_risk":4,"frizz_risk":0,"updated_at":"2026-04-11T00:29:03.128829+05:30"},{"city":"Bhagalpur","state":"Bihar","latitude":25.2425,"longitude":87.0117,"temp":23.1,"humidity":59,"rain":0.0,"pressure":1002.8,"uv_index":8.35,"wind_gusts":34.2,"aqi":90,"pm10":39.8,"pm2_5":21.8,"mosquito_risk":0,"arthritis_risk":5,"migraine_risk":4,"frizz_risk":0,"updated_at":"2026-04-11T00:29:03.128835+05:30"},{"city":"Ranchi","state":"Jharkhand","latitude":23.3441,"longitude":85.3096,"temp":21.4,"humidity":44,"rain":0.0,"pressure":939.6,"uv_index":9.0,"wind_gusts":37.4,"aqi":99,"pm10":56.8,"pm2_5":24.6,"mosquito_risk":0,"arthritis_risk":5,"migraine_risk":7,"frizz_risk":0,"updated_at":"2026-04-11T00:29:03.128841+05:30"},{"city":"Jamshedpur","state":"Jharkhand","latitude":22.8046,"longitude":86.2029,"temp":25.6,"humidity":67,"rain":0.0,"pressure":992.7,"uv_index":8.85,"wind_gusts":16.9,"aqi":128,"pm10":90.3,"pm2_5":57.5,"mosquito_risk":7,"arthritis_risk":5,"migraine_risk":7,"frizz_risk":1,"updated_at":"2026-04-11T00:29:03.128851+05:30"},{"city":"Dhanbad","state":"Jharkhand","latitude":23.7957,"longitude":86.4304,"temp":22.3,"humidity":58,"rain":0.0,"pressure":982.0,"uv_index":8.75,"wind_gusts":31.0,"aqi":140,"pm10":85.7,"pm2_5":59.6,"mosquito_risk":0,"arthritis_risk":5,"migraine_risk":7,"frizz_risk":0,"updated_at":"2026-04-11T00:29:03.128860+05:30"},{"city":"Bokaro","state":"Jharkhand","latitude":23.6693,"longitude":86.1511,"temp":24.0,"humidity":49,"rain":0.0,"pressure":986.4,"uv_index":8.8,"wind_gusts":32.8,"aqi":125,"pm10":85.2,"pm2_5":58.2,"mosquito_risk":0,"arthritis_risk":5,"migraine_risk":7,"frizz_risk":0,"updated_at":"2026-04-11T00:29:03.128866+05:30"},{"city":"Bhubaneswar","state":"Odisha","latitude":20.2961,"longitude":85.8245,"temp":27.0,"humidity":95,"rain":0.0,"pressure":1004.6,"uv_index":9.0,"wind_gusts":26.3,"aqi":124,"pm10":33.1,"pm2_5":29.2,"mosquito_risk":7,"arthritis_risk":5,"migraine_risk":4,"frizz_risk":1,"updated_at":"2026-04-11T00:29:03.128873+05:30"},{"city":"Cuttack","state":"Odisha","latitude":20.4625,"longitude":85.8828,"temp":27.1,"humidity":96,"rain":0.0,"pressure":1006.5,"uv_index":9.0,"wind_gusts":27.4,"aqi":124,"pm10":33.1,"pm2_5":29.2,"mosquito_risk":7,"arthritis_risk":5,"migraine_risk":4,"frizz_risk":1,"updated_at":"2026-04-11T00:29:03.128879+05:30"},{"city":"Rourkela","state":"Odisha","latitude":22.2604,"longitude":84.8536,"temp":25.0,"humidity":68,"rain":0.0,"pressure":986.9,"uv_index":8.75,"wind_gusts":20.2,"aqi":78,"pm10":68.9,"pm2_5":41.4,"mosquito_risk":7,"arthritis_risk":5,"migraine_risk":7,"frizz_risk":1,"updated_at":"2026-04-11T00:29:03.128885+05:30"},{"city":"Raipur","state":"Chhattisgarh","latitude":21.2514,"longitude":81.6296,"temp":27.4,"humidity":30,"rain":0.0,"pressure":976.4,"uv_index":8.8,"wind_gusts":24.1,"aqi":129,"pm10":93.4,"pm2_5":65.4,"mosquito_risk":4,"arthritis_risk":5,"migraine_risk":7,"frizz_risk":0,"updated_at":"2026-04-11T00:29:03.128892+05:30"},{"city":"Bhilai","state":"Chhattisgarh","latitude":21.1938,"longitude":81.3509,"temp":25.8,"humidity":37,"rain":0.0,"pressure":976.7,"uv_index":8.8,"wind_gusts":22.3,"aqi":121,"pm10":95.9,"pm2_5":70.1,"mosquito_risk":4,"arthritis_risk":5,"migraine_risk":7,"frizz_risk":0,"updated_at":"2026-04-11T00:29:03.128898+05:30"},{"city":"Guwahati","state":"Assam","latitude":26.1158,"longitude":91.7086,"temp":22.0,"humidity":85,"rain":0.0,"pressure":1004.4,"uv_index":8.2,"wind_gusts":32.4,"aqi":79,"pm10":50.1,"pm2_5":44.5,"mosquito_risk":3,"arthritis_risk":5,"migraine_risk":4,"frizz_risk":1,"updated_at":"2026-04-11T00:29:03.128904+05:30"},{"city":"Agartala","state":"Tripura","latitude":23.8315,"longitude":91.2868,"temp":21.5,"humidity":94,"rain":0.0,"pressure":1008.5,"uv_index":8.55,"wind_gusts":28.8,"aqi":152,"pm10":91.3,"pm2_5":74.7,"mosquito_risk":3,"arthritis_risk":0,"migraine_risk":4,"frizz_risk":1,"updated_at":"2026-04-11T00:29:03.128913+05:30"},{"city":"Shillong","state":"Meghalaya","latitude":25.5788,"longitude":91.8933,"temp":10.2,"humidity":66,"rain":0.0,"pressure":855.2,"uv_index":7.05,"wind_gusts":50.4,"aqi":71,"pm10":37.7,"pm2_5":31.1,"mosquito_risk":3,"arthritis_risk":5,"migraine_risk":7,"frizz_risk":0,"updated_at":"2026-04-11T00:29:03.128921+05:30"},{"city":"Imphal","state":"Manipur","latitude":24.817,"longitude":93.9368,"temp":14.8,"humidity":85,"rain":0.0,"pressure":924.3,"uv_index":8.9,"wind_gusts":57.6,"aqi":92,"pm10":63.1,"pm2_5":48.1,"mosquito_risk":3,"arthritis_risk":10,"migraine_risk":7,"frizz_risk":0,"updated_at":"2026-04-11T00:29:03.128929+05:30"},{"city":"Aizawl","state":"Mizoram","latitude":23.7271,"longitude":92.7176,"temp":16.8,"humidity":81,"rain":0.0,"pressure":893.8,"uv_index":8.8,"wind_gusts":58.0,"aqi":73,"pm10":58.0,"pm2_5":30.0,"mosquito_risk":3,"arthritis_risk":10,"migraine_risk":7,"frizz_risk":0,"updated_at":"2026-04-11T00:29:03.128938+05:30"},{"city":"Kohima","state":"Nagaland","latitude":25.6701,"longitude":94.1077,"temp":11.1,"humidity":92,"rain":0.0,"pressure":854.1,"uv_index":8.4,"wind_gusts":72.0,"aqi":67,"pm10":39.7,"pm2_5":29.5,"mosquito_risk":3,"arthritis_risk":10,"migraine_risk":7,"frizz_risk":0,"updated_at":"2026-04-11T00:29:03.128945+05:30"},{"city":"Gangtok","state":"Sikkim","latitude":27.3314,"longitude":88.6138,"temp":11.9,"humidity":92,"rain":0.1,"pressure":836.2,"uv_index":8.5,"wind_gusts":15.1,"aqi":67,"pm10":40.2,"pm2_5":32.0,"mosquito_risk":6,"arthritis_risk":10,"migraine_risk":7,"frizz_risk":0,"updated_at":"2026-04-11T00:29:03.128952+05:30"},{"city":"Siliguri","state":"West Bengal","latitude":26.7271,"longitude":88.3953,"temp":19.0,"humidity":63,"rain":0.0,"pressure":995.6,"uv_index":8.2,"wind_gusts":26.6,"aqi":98,"pm10":63.1,"pm2_5":51.5,"mosquito_risk":3,"arthritis_risk":5,"migraine_risk":7,"frizz_risk":0,"updated_at":"2026-04-11T00:29:06.386765+05:30"},{"city":"Durgapur","state":"West Bengal","latitude":23.5204,"longitude":87.3119,"temp":25.1,"humidity":55,"rain":0.0,"pressure":997.3,"uv_index":8.7,"wind_gusts":20.9,"aqi":134,"pm10":76.6,"pm2_5":53.8,"mosquito_risk":4,"arthritis_risk":5,"migraine_risk":7,"frizz_risk":0,"updated_at":"2026-04-11T00:29:06.386797+05:30"},{"city":"Asansol","state":"West Bengal","latitude":23.6739,"longitude":86.9524,"temp":25.4,"humidity":44,"rain":0.0,"pressure":995.8,"uv_index":8.75,"wind_gusts":23.0,"aqi":113,"pm10":64.3,"pm2_5":41.1,"mosquito_risk":4,"arthritis_risk":5,"migraine_risk":7,"frizz_risk":0,"updated_at":"2026-04-11T00:29:06.386807+05:30"},{"city":"Pondicherry","state":"Puducherry","latitude":11.9139,"longitude":79.8145,"temp":27.4,"humidity":89,"rain":0.0,"pressure":1010.8,"uv_index":8.85,"wind_gusts":33.8,"aqi":60,"pm10":19.9,"pm2_5":13.5,"mosquito_risk":7,"arthritis_risk":0,"migraine_risk":4,"frizz_risk":1,"updated_at":"2026-04-11T00:29:06.386816+05:30"},{"city":"Port Blair","state":"Andaman and Nicobar Islands","latitude":11.6234,"longitude":92.7265,"temp":29.2,"humidity":74,"rain":0.0,"pressure":1008.6,"uv_index":9.15,"wind_gusts":16.6,"aqi":36,"pm10":3.9,"pm2_5":2.7,"mosquito_risk":7,"arthritis_risk":0,"migraine_risk":4,"frizz_risk":1,"updated_at":"2026-04-11T00:29:06.386825+05:30"},{"city":"Haridwar","state":"Uttarakhand","latitude":29.9457,"longitude":78.1642,"temp":16.3,"humidity":80,"rain":0.0,"pressure":976.9,"uv_index":6.95,"wind_gusts":45.4,"aqi":98,"pm10":27.1,"pm2_5":25.5,"mosquito_risk":3,"arthritis_risk":5,"migraine_risk":7,"frizz_risk":0,"updated_at":"2026-04-11T00:29:06.386833+05:30"},{"city":"Rishikesh","state":"Uttarakhand","latitude":30.0869,"longitude":78.2676,"temp":16.7,"humidity":71,"rain":0.0,"pressure":969.6,"uv_index":7.0,"wind_gusts":37.1,"aqi":118,"pm10":38.1,"pm2_5":23.9,"mosquito_risk":3,"arthritis_risk":5,"migraine_risk":7,"frizz_risk":0,"updated_at":"2026-04-11T00:29:06.386841+05:30"},{"city":"Nainital","state":"Uttarakhand","latitude":29.3919,"longitude":79.4542,"temp":15.4,"humidity":48,"rain":0.0,"pressure":805.9,"uv_index":7.9,"wind_gusts":57.2,"aqi":108,"pm10":91.3,"pm2_5":27.6,"mosquito_risk":0,"arthritis_risk":5,"migraine_risk":7,"frizz_risk":0,"updated_at":"2026-04-11T00:29:06.386849+05:30"},{"city":"Mussoorie","state":"Uttarakhand","latitude":30.4599,"longitude":78.0664,"temp":13.1,"humidity":63,"rain":0.0,"pressure":802.4,"uv_index":7.4,"wind_gusts":37.8,"aqi":91,"pm10":33.2,"pm2_5":30.4,"mosquito_risk":3,"arthritis_risk":5,"migraine_risk":7,"frizz_risk":0,"updated_at":"2026-04-11T00:29:06.386857+05:30"},{"city":"Dharamshala","state":"Himachal Pradesh","latitude":32.219,"longitude":76.3234,"temp":17.3,"humidity":49,"rain":0.0,"pressure":871.4,"uv_index":7.6,"wind_gusts":24.8,"aqi":122,"pm10":20.7,"pm2_5":13.2,"mosquito_risk":0,"arthritis_risk":5,"migraine_risk":7,"frizz_risk":0,"updated_at":"2026-04-11T00:29:06.386865+05:30"},{"city":"Dalhousie","state":"Himachal Pradesh","latitude":32.5387,"longitude":75.971,"temp":13.1,"humidity":65,"rain":0.0,"pressure":804.7,"uv_index":7.85,"wind_gusts":19.4,"aqi":80,"pm10":30.7,"pm2_5":25.4,"mosquito_risk":3,"arthritis_risk":5,"migraine_risk":7,"frizz_risk":0,"updated_at":"2026-04-11T00:29:06.386873+05:30"},{"city":"Patiala","state":"Punjab","latitude":30.3398,"longitude":76.3869,"temp":20.2,"humidity":60,"rain":0.0,"pressure":982.5,"uv_index":7.0,"wind_gusts":38.5,"aqi":728,"pm10":732.0,"pm2_5":87.5,"mosquito_risk":0,"arthritis_risk":5,"migraine_risk":7,"frizz_risk":0,"updated_at":"2026-04-11T00:29:06.386881+05:30"},{"city":"Bhatinda","state":"Punjab","latitude":30.211,"longitude":74.9455,"temp":21.9,"humidity":58,"rain":0.0,"pressure":988.8,"uv_index":7.65,"wind_gusts":31.7,"aqi":94,"pm10":36.7,"pm2_5":25.8,"mosquito_risk":0,"arthritis_risk":5,"migraine_risk":7,"frizz_risk":0,"updated_at":"2026-04-11T00:29:06.386888+05:30"},{"city":"Rohtak","state":"Haryana","latitude":28.8955,"longitude":76.6066,"temp":20.9,"humidity":60,"rain":0.0,"pressure":985.9,"uv_index":7.15,"wind_gusts":38.5,"aqi":1077,"pm10":1262.9,"pm2_5":174.2,"mosquito_risk":0,"arthritis_risk":5,"migraine_risk":7,"frizz_risk":0,"updated_at":"2026-04-11T00:29:06.386896+05:30"},{"city":"Panipat","state":"Haryana","latitude":29.3909,"longitude":76.9635,"temp":20.4,"humidity":58,"rain":0.0,"pressure":984.3,"uv_index":7.0,"wind_gusts":41.0,"aqi":1962,"pm10":2108.5,"pm2_5":257.0,"mosquito_risk":0,"arthritis_risk":5,"migraine_risk":7,"frizz_risk":0,"updated_at":"2026-04-11T00:29:06.386903+05:30"},{"city":"Mathura","state":"Uttar Pradesh","latitude":27.4924,"longitude":77.6737,"temp":24.8,"humidity":41,"rain":0.0,"pressure":990.8,"uv_index":7.45,"wind_gusts":34.2,"aqi":1200,"pm10":1508.7,"pm2_5":188.1,"mosquito_risk":0,"arthritis_risk":5,"migraine_risk":7,"frizz_risk":0,"updated_at":"2026-04-11T00:29:06.386910+05:30"},{"city":"Vrindavan","state":"Uttar Pradesh","latitude":27.5823,"longitude":77.7027,"temp":20.9,"humidity":60,"rain":0.0,"pressure":991.1,"uv_index":7.4,"wind_gusts":37.4,"aqi":1200,"pm10":1508.7,"pm2_5":188.1,"mosquito_risk":0,"arthritis_risk":5,"migraine_risk":7,"frizz_risk":0,"updated_at":"2026-04-11T00:29:06.386917+05:30"},{"city":"Ayodhya","state":"Uttar Pradesh","latitude":26.7922,"longitude":82.1998,"temp":21.2,"humidity":45,"rain":0.0,"pressure":997.8,"uv_index":7.8,"wind_gusts":49.7,"aqi":98,"pm10":508.5,"pm2_5":92.7,"mosquito_risk":0,"arthritis_risk":5,"migraine_risk":7,"frizz_risk":0,"updated_at":"2026-04-11T00:29:06.386924+05:30"},{"city":"Ratlam","state":"Madhya Pradesh","latitude":23.3315,"longitude":75.0367,"temp":23.1,"humidity":51,"rain":0.0,"pressure":957.5,"uv_index":8.3,"wind_gusts":32.4,"aqi":88,"pm10":32.8,"pm2_5":19.2,"mosquito_risk":0,"arthritis_risk":5,"migraine_risk":7,"frizz_risk":0,"updated_at":"2026-04-11T00:29:06.386931+05:30"},{"city":"Sagar","state":"Madhya Pradesh","latitude":23.8388,"longitude":78.7378,"temp":24.8,"humidity":31,"rain":0.0,"pressure":953.4,"uv_index":8.4,"wind_gusts":29.9,"aqi":89,"pm10":33.3,"pm2_5":15.0,"mosquito_risk":0,"arthritis_risk":5,"migraine_risk":7,"frizz_risk":0,"updated_at":"2026-04-11T00:29:06.386938+05:30"},{"city":"Satna","state":"Madhya Pradesh","latitude":24.6005,"longitude":80.8322,"temp":24.1,"humidity":37,"rain":0.0,"pressure":974.7,"uv_index":8.45,"wind_gusts":34.6,"aqi":110,"pm10":22.4,"pm2_5":15.1,"mosquito_risk":0,"arthritis_risk":5,"migraine_risk":7,"frizz_risk":0,"updated_at":"2026-04-11T00:29:06.386945+05:30"},{"city":"Akola","state":"Maharashtra","latitude":20.7002,"longitude":77.0082,"temp":29.1,"humidity":36,"rain":0.0,"pressure":976.8,"uv_index":8.7,"wind_gusts":21.6,"aqi":93,"pm10":65.0,"pm2_5":42.3,"mosquito_risk":4,"arthritis_risk":5,"migraine_risk":7,"frizz_risk":0,"updated_at":"2026-04-11T00:29:06.386953+05:30"},{"city":"Amravati","state":"Maharashtra","latitude":20.9374,"longitude":77.7796,"temp":27.5,"humidity":42,"rain":0.0,"pressure":969.1,"uv_index":8.7,"wind_gusts":28.4,"aqi":96,"pm10":58.8,"pm2_5":35.3,"mosquito_risk":4,"arthritis_risk":5,"migraine_risk":7,"frizz_risk":0,"updated_at":"2026-04-11T00:29:06.386961+05:30"},{"city":"Latur","state":"Maharashtra","latitude":18.4088,"longitude":76.5604,"temp":27.3,"humidity":55,"rain":0.0,"pressure":941.2,"uv_index":8.95,"wind_gusts":30.2,"aqi":95,"pm10":41.1,"pm2_5":26.4,"mosquito_risk":4,"arthritis_risk":5,"migraine_risk":7,"frizz_risk":1,"updated_at":"2026-04-11T00:29:06.386968+05:30"},{"city":"Nanded","state":"Maharashtra","latitude":19.1383,"longitude":77.3091,"temp":29.4,"humidity":47,"rain":0.0,"pressure":969.7,"uv_index":8.85,"wind_gusts":19.4,"aqi":76,"pm10":54.6,"pm2_5":38.5,"mosquito_risk":4,"arthritis_risk":5,"migraine_risk":7,"frizz_risk":1,"updated_at":"2026-04-11T00:29:06.386975+05:30"},{"city":"Gulbarga","state":"Karnataka","latitude":17.3297,"longitude":76.8343,"temp":31.0,"humidity":40,"rain":0.0,"pressure":959.9,"uv_index":9.05,"wind_gusts":26.3,"aqi":94,"pm10":29.7,"pm2_5":22.1,"mosquito_risk":0,"arthritis_risk":5,"migraine_risk":7,"frizz_risk":0,"updated_at":"2026-04-11T00:29:06.386981+05:30"},{"city":"Bidar","state":"Karnataka","latitude":17.9104,"longitude":77.5199,"temp":28.0,"humidity":48,"rain":0.0,"pressure":936.9,"uv_index":9.05,"wind_gusts":28.8,"aqi":88,"pm10":42.8,"pm2_5":27.2,"mosquito_risk":4,"arthritis_risk":5,"migraine_risk":7,"frizz_risk":0,"updated_at":"2026-04-11T00:29:06.386988+05:30"},{"city":"Hospet","state":"Karnataka","latitude":15.2689,"longitude":76.3909,"temp":31.1,"humidity":52,"rain":0.0,"pressure":957.0,"uv_index":9.25,"wind_gusts":23.4,"aqi":127,"pm10":51.5,"pm2_5":34.0,"mosquito_risk":0,"arthritis_risk":5,"migraine_risk":7,"frizz_risk":1,"updated_at":"2026-04-11T00:29:06.386995+05:30"},{"city":"Tirupur","state":"Tamil Nadu","latitude":11.1085,"longitude":77.3411,"temp":27.8,"humidity":76,"rain":0.0,"pressure":977.6,"uv_index":9.5,"wind_gusts":33.1,"aqi":115,"pm10":45.4,"pm2_5":40.6,"mosquito_risk":7,"arthritis_risk":5,"migraine_risk":7,"frizz_risk":1,"updated_at":"2026-04-11T00:29:06.387002+05:30"},{"city":"Alappuzha","state":"Kerala","latitude":9.4981,"longitude":76.3388,"temp":26.6,"humidity":88,"rain":0.0,"pressure":1011.7,"uv_index":9.2,"wind_gusts":26.6,"aqi":75,"pm10":36.2,"pm2_5":23.9,"mosquito_risk":7,"arthritis_risk":0,"migraine_risk":4,"frizz_risk":1,"updated_at":"2026-04-11T00:29:06.387009+05:30"},{"city":"Munnar","state":"Kerala","latitude":10.0889,"longitude":77.0595,"temp":22.2,"humidity":87,"rain":0.0,"pressure":859.1,"uv_index":8.1,"wind_gusts":31.3,"aqi":78,"pm10":29.7,"pm2_5":28.3,"mosquito_risk":3,"arthritis_risk":5,"migraine_risk":7,"frizz_risk":1,"updated_at":"2026-04-11T00:29:06.387017+05:30"},{"city":"Silchar","state":"Assam","latitude":24.8333,"longitude":92.7789,"temp":20.6,"humidity":89,"rain":0.0,"pressure":1008.4,"uv_index":8.55,"wind_gusts":23.8,"aqi":127,"pm10":81.3,"pm2_5":62.2,"mosquito_risk":3,"arthritis_risk":0,"migraine_risk":4,"frizz_risk":1,"updated_at":"2026-04-11T00:29:06.387024+05:30"},{"city":"Dibrugarh","state":"Assam","latitude":27.4728,"longitude":94.912,"temp":19.9,"humidity":93,"rain":0.0,"pressure":999.1,"uv_index":8.35,"wind_gusts":16.2,"aqi":95,"pm10":28.7,"pm2_5":23.3,"mosquito_risk":3,"arthritis_risk":10,"migraine_risk":7,"frizz_risk":1,"updated_at":"2026-04-11T00:29:06.387031+05:30"}]