[{"city":"Delhi","state":"Delhi","latitude":28.6139,"longitude":77.209,"temp":23.3,"humidity":61,"rain":0.0,"pressure":987.3,"uv_index":6.45,"wind_gusts":28.4,"aqi":167,"pm10":519.7,"pm2_5":104.3,"mosquito_risk":3,"arthritis_risk":5,"migraine_risk":7,"frizz_risk":0,"updated_at":"2026-03-22T22:05:14.104676+05:30"},{"city":"Mumbai","state":"Maharashtra","latitude":19.076,"longitude":72.8777,"temp":29.5,"humidity":58,"rain":0.0,"pressure":1010.1,"uv_index":7.9,"wind_gusts":28.4,"aqi":170,"pm10":56.6,"pm2_5":39.9,"mosquito_risk":4,"arthritis_risk":0,"migraine_risk":4,"frizz_risk":1,"updated_at":"2026-03-22T22:05:14.104716+05:30"},{"city":"Bangalore","state":"Karnataka","latitude":12.9716,"longitude":77.5946,"temp":25.8,"humidity":58,"rain":0.0,"pressure":913.4,"uv_index":9.45,"wind_gusts":25.2,"aqi":109,"pm10":77.5,"pm2_5":65.9,"mosquito_risk":4,"arthritis_risk":5,"migraine_risk":7,"frizz_risk":1,"updated_at":"2026-03-22T22:05:14.104731+05:30"},{"city":"Hyderabad","state":"Telangana","latitude":17.385,"longitude":78.4867,"temp":25.8,"humidity":70,"rain":0.0,"pressure":956.1,"uv_index":8.9,"wind_gusts":24.5,"aqi":127,"pm10":44.7,"pm2_5":36.1,"mosquito_risk":7,"arthritis_risk":5,"migraine_risk":7,"frizz_risk":1,"updated_at":"2026-03-22T22:05:14.104741+05:30"},{"city":"Chennai","state":"Tamil Nadu","latitude":13.0827,"longitude":80.2707,"temp":27.5,"humidity":76,"rain":0.0,"pressure":1010.2,"uv_index":9.15,"wind_gusts":32.4,"aqi":37,"pm10":12.4,"pm2_5":7.9,"mosquito_risk":7,"arthritis_risk":0,"migraine_risk":4,"frizz_risk":1,"updated_at":"2026-03-22T22:05:14.104750+05:30"},{"city":"Kolkata","state":"West Bengal","latitude":22.5726,"longitude":88.3639,"temp":23.5,"humidity":72,"rain":0.0,"pressure":1011.3,"uv_index":8.25,"wind_gusts":16.6,"aqi":132,"pm10":81.3,"pm2_5":78.7,"mosquito_risk":3,"arthritis_risk":0,"migraine_risk":4,"frizz_risk":1,"updated_at":"2026-03-22T22:05:14.104759+05:30"},{"city":"Pune","state":"Maharashtra","latitude":18.5204,"longitude":73.8567,"temp":26.8,"humidity":50,"rain":0.0,"pressure":950.8,"uv_index":8.45,"wind_gusts":26.6,"aqi":110,"pm10":30.7,"pm2_5":23.1,"mosquito_risk":4,"arthritis_risk":5,"migraine_risk":7,"frizz_risk":0,"updated_at":"2026-03-22T22:05:14.104771+05:30"},{"city":"Ahmedabad","state":"Gujarat","latitude":23.0225,"longitude":72.5714,"temp":27.0,"humidity":44,"rain":0.0,"pressure":1005.4,"uv_index":7.65,"wind_gusts":22.7,"aqi":74,"pm10":67.3,"pm2_5":40.6,"mosquito_risk":4,"arthritis_risk":5,"migraine_risk":4,"frizz_risk":0,"updated_at":"2026-03-22T22:05:14.104778+05:30"},{"city":"Jaipur","state":"Rajasthan","latitude":26.9124,"longitude":75.7873,"temp":25.4,"humidity":43,"rain":0.0,"pressure":963.1,"uv_index":7.25,"wind_gusts":29.9,"aqi":88,"pm10":113.9,"pm2_5":46.0,"mosquito_risk":4,"arthritis_risk":5,"migraine_risk":7,"frizz_risk":0,"updated_at":"2026-03-22T22:05:14.104786+05:30"},{"city":"Lucknow","state":"Uttar Pradesh","latitude":26.8467,"longitude":80.9462,"temp":23.3,"humidity":56,"rain":0.0,"pressure":998.1,"uv_index":6.95,"wind_gusts":26.6,"aqi":118,"pm10":284.1,"pm2_5":60.8,"mosquito_risk":0,"arthritis_risk":5,"migraine_risk":7,"frizz_risk":0,"updated_at":"2026-03-22T22:05:14.104793+05:30"},{"city":"Kanpur","state":"Uttar Pradesh","latitude":26.4499,"longitude":80.3319,"temp":22.3,"humidity":71,"rain":0.0,"pressure":996.4,"uv_index":7.0,"wind_gusts":27.7,"aqi":147,"pm10":464.7,"pm2_5":78.2,"mosquito_risk":3,"arthritis_risk":5,"migraine_risk":7,"frizz_risk":1,"updated_at":"2026-03-22T22:05:14.104800+05:30"},{"city":"Chandigarh","state":"Chandigarh","latitude":30.7333,"longitude":76.7794,"temp":19.0,"humidity":79,"rain":0.0,"pressure":972.7,"uv_index":6.4,"wind_gusts":33.1,"aqi":113,"pm10":49.2,"pm2_5":46.3,"mosquito_risk":3,"arthritis_risk":5,"migraine_risk":7,"frizz_risk":0,"updated_at":"2026-03-22T22:05:14.104807+05:30"},{"city":"Srinagar","state":"Jammu and Kashmir","latitude":34.0837,"longitude":74.7973,"temp":9.8,"humidity":79,"rain":0.0,"pressure":839.9,"uv_index":7.5,"wind_gusts":14.0,"aqi":118,"pm10":83.4,"pm2_5":72.2,"mosquito_risk":3,"arthritis_risk":5,"migraine_risk":7,"frizz_risk":0,"updated_at":"2026-03-22T22:05:14.104813+05:30"},{"city":"Jammu","state":"Jammu and Kashmir","latitude":32.7266,"longitude":74.857,"temp":21.1,"humidity":71,"rain":0.0,"pressure":976.7,"uv_index":6.85,"wind_gusts":22.0,"aqi":103,"pm10":59.3,"pm2_5":54.8,"mosquito_risk":3,"arthritis_risk":5,"migraine_risk":7,"frizz_risk":0,"updated_at":"2026-03-22T22:05:14.104820+05:30"},{"city":"Amritsar","state":"Punjab","latitude":31.634,"longitude":74.8723,"temp":20.5,"humidity":70,"rain":0.0,"pressure":985.3,"uv_index":7.05,"wind_gusts":20.5,"aqi":156,"pm10":82.7,"pm2_5":60.8,"mosquito_risk":3,"arthritis_risk":5,"migraine_risk":7,"frizz_risk":0,"updated_at":"2026-03-22T22:05:14.104827+05:30"},{"city":"Ludhiana","state":"Punjab","latitude":30.901,"longitude":75.8573,"temp":21.2,"humidity":70,"rain":0.0,"pressure":983.4,"uv_index":6.6,"wind_gusts":26.6,"aqi":135,"pm10":122.9,"pm2_5":68.7,"mosquito_risk":3,"arthritis_risk":5,"migraine_risk":7,"frizz_risk":0,"updated_at":"2026-03-22T22:05:14.104833+05:30"},{"city":"Jalandhar","state":"Punjab","latitude":31.326,"longitude":75.5762,"temp":20.5,"humidity":72,"rain":0.0,"pressure":984.4,"uv_index":6.85,"wind_gusts":21.6,"aqi":151,"pm10":101.7,"pm2_5":72.6,"mosquito_risk":3,"arthritis_risk":5,"migraine_risk":7,"frizz_risk":0,"updated_at":"2026-03-22T22:05:14.104842+05:30"},{"city":"Dehradun","state":"Uttarakhand","latitude":30.6284,"longitude":78.0322,"temp":11.4,"humidity":89,"rain":0.0,"pressure":830.2,"uv_index":6.8,"wind_gusts":24.1,"aqi":118,"pm10":37.8,"pm2_5":33.2,"mosquito_risk":3,"arthritis_risk":10,"migraine_risk":7,"frizz_risk":0,"updated_at":"2026-03-22T22:05:14.104848+05:30"},{"city":"Shimla","state":"Himachal Pradesh","latitude":31.1048,"longitude":77.1734,"temp":9.6,"humidity":90,"rain":0.0,"pressure":783.9,"uv_index":6.85,"wind_gusts":41.0,"aqi":106,"pm10":38.6,"pm2_5":34.2,"mosquito_risk":3,"arthritis_risk":10,"migraine_risk":7,"frizz_risk":0,"updated_at":"2026-03-22T22:05:14.104855+05:30"},{"city":"Manali","state":"Himachal Pradesh","latitude":32.2396,"longitude":77.1887,"temp":13.1,"humidity":37,"rain":0.0,"pressure":818.8,"uv_index":8.9,"wind_gusts":33.8,"aqi":131,"pm10":23.9,"pm2_5":15.0,"mosquito_risk":0,"arthritis_risk":5,"migraine_risk":7,"frizz_risk":1,"updated_at":"2026-03-22T22:05:14.104862+05:30"},{"city":"Gurgaon","state":"Haryana","latitude":28.4595,"longitude":77.0266,"temp":21.5,"humidity":70,"rain":0.0,"pressure":985.6,"uv_index":6.55,"wind_gusts":23.8,"aqi":452,"pm10":484.3,"pm2_5":102.7,"mosquito_risk":3,"arthritis_risk":5,"migraine_risk":7,"frizz_risk":0,"updated_at":"2026-03-22T22:05:14.104871+05:30"},{"city":"Noida","state":"Uttar Pradesh","latitude":28.5355,"longitude":77.391,"temp":23.0,"humidity":62,"rain":0.0,"pressure":988.9,"uv_index":6.45,"wind_gusts":27.7,"aqi":452,"pm10":484.3,"pm2_5":102.7,"mosquito_risk":3,"arthritis_risk":5,"migraine_risk":7,"frizz_risk":0,"updated_at":"2026-03-22T22:05:14.104877+05:30"},{"city":"Ghaziabad","state":"Uttar Pradesh","latitude":28.6692,"longitude":77.4538,"temp":21.8,"humidity":67,"rain":0.0,"pressure":987.0,"uv_index":6.45,"wind_gusts":28.1,"aqi":153,"pm10":468.5,"pm2_5":95.7,"mosquito_risk":3,"arthritis_risk":5,"migraine_risk":7,"frizz_risk":0,"updated_at":"2026-03-22T22:05:14.104884+05:30"},{"city":"Faridabad","state":"Haryana","latitude":28.4089,"longitude":77.3178,"temp":21.9,"humidity":64,"rain":0.0,"pressure":988.0,"uv_index":6.5,"wind_gusts":24.8,"aqi":452,"pm10":484.3,"pm2_5":102.7,"mosquito_risk":3,"arthritis_risk":5,"migraine_risk":7,"frizz_risk":0,"updated_at":"2026-03-22T22:05:14.104890+05:30"},{"city":"Meerut","state":"Uttar Pradesh","latitude":28.9845,"longitude":77.7064,"temp":19.9,"humidity":74,"rain":0.0,"pressure":985.6,"uv_index":6.3,"wind_gusts":31.7,"aqi":153,"pm10":468.5,"pm2_5":95.7,"mosquito_risk":3,"arthritis_risk":5,"migraine_risk":7,"frizz_risk":0,"updated_at":"2026-03-22T22:05:14.104897+05:30"},{"city":"Agra","state":"Uttar Pradesh","latitude":27.1767,"longitude":78.0081,"temp":22.9,"humidity":58,"rain":0.0,"pressure":992.0,"uv_index":6.45,"wind_gusts":29.9,"aqi":511,"pm10":373.5,"pm2_5":82.4,"mosquito_risk":0,"arthritis_risk":5,"migraine_risk":7,"frizz_risk":0,"updated_at":"2026-03-22T22:05:14.104903+05:30"},{"city":"Varanasi","state":"Uttar Pradesh","latitude":25.3176,"longitude":82.9739,"temp":22.4,"humidity":67,"rain":0.0,"pressure":1002.6,"uv_index":7.1,"wind_gusts":28.4,"aqi":103,"pm10":67.8,"pm2_5":59.8,"mosquito_risk":3,"arthritis_risk":5,"migraine_risk":4,"frizz_risk":0,"updated_at":"2026-03-22T22:05:14.104912+05:30"},{"city":"Prayagraj","state":"Uttar Pradesh","latitude":25.4358,"longitude":81.8463,"temp":23.3,"humidity":56,"rain":0.0,"pressure":1000.9,"uv_index":7.5,"wind_gusts":24.8,"aqi":117,"pm10":84.8,"pm2_5":41.4,"mosquito_risk":0,"arthritis_risk":5,"migraine_risk":4,"frizz_risk":0,"updated_at":"2026-03-22T22:05:14.104918+05:30"},{"city":"Gorakhpur","state":"Uttar Pradesh","latitude":26.7606,"longitude":83.3732,"temp":20.1,"humidity":80,"rain":0.0,"pressure":1002.3,"uv_index":7.25,"wind_gusts":11.2,"aqi":158,"pm10":45.2,"pm2_5":43.0,"mosquito_risk":3,"arthritis_risk":5,"migraine_risk":4,"frizz_risk":1,"updated_at":"2026-03-22T22:05:14.104927+05:30"},{"city":"Bareilly","state":"Uttar Pradesh","latitude":28.367,"longitude":79.4304,"temp":19.7,"humidity":78,"rain":0.0,"pressure":991.1,"uv_index":6.65,"wind_gusts":29.5,"aqi":114,"pm10":144.8,"pm2_5":51.3,"mosquito_risk":3,"arthritis_risk":5,"migraine_risk":7,"frizz_risk":0,"updated_at":"2026-03-22T22:05:14.104934+05:30"},{"city":"Aligarh","state":"Uttar Pradesh","latitude":27.8974,"longitude":78.088,"temp":21.1,"humidity":68,"rain":0.0,"pressure":989.8,"uv_index":6.6,"wind_gusts":27.7,"aqi":340,"pm10":620.3,"pm2_5":109.7,"mosquito_risk":3,"arthritis_risk":5,"migraine_risk":7,"frizz_risk":0,"updated_at":"2026-03-22T22:05:14.104940+05:30"},{"city":"Moradabad","state":"Uttar Pradesh","latitude":28.8386,"longitude":78.7733,"temp":19.6,"humidity":76,"rain":0.0,"pressure":987.8,"uv_index":6.5,"wind_gusts":30.6,"aqi":134,"pm10":156.9,"pm2_5":53.1,"mosquito_risk":3,"arthritis_risk":5,"migraine_risk":7,"frizz_risk":0,"updated_at":"2026-03-22T22:05:14.104946+05:30"},{"city":"Saharanpur","state":"Uttar Pradesh","latitude":29.9637,"longitude":77.546,"temp":19.4,"humidity":76,"rain":0.0,"pressure":979.7,"uv_index":6.15,"wind_gusts":34.2,"aqi":151,"pm10":296.2,"pm2_5":74.3,"mosquito_risk":3,"arthritis_risk":5,"migraine_risk":7,"frizz_risk":0,"updated_at":"2026-03-22T22:05:14.104952+05:30"},{"city":"Jhansi","state":"Uttar Pradesh","latitude":25.4484,"longitude":78.5685,"temp":24.3,"humidity":50,"rain":0.0,"pressure":982.1,"uv_index":7.45,"wind_gusts":32.4,"aqi":78,"pm10":55.8,"pm2_5":24.9,"mosquito_risk":0,"arthritis_risk":5,"migraine_risk":7,"frizz_risk":0,"updated_at":"2026-03-22T22:05:17.451904+05:30"},{"city":"Surat","state":"Gujarat","latitude":21.1702,"longitude":72.8311,"temp":27.4,"humidity":51,"rain":0.0,"pressure":1009.6,"uv_index":7.65,"wind_gusts":24.5,"aqi":109,"pm10":72.9,"pm2_5":56.0,"mosquito_risk":4,"arthritis_risk":0,"migraine_risk":4,"frizz_risk":1,"updated_at":"2026-03-22T22:05:17.451933+05:30"},{"city":"Vadodara","state":"Gujarat","latitude":22.3072,"longitude":73.1812,"temp":27.5,"humidity":54,"rain":0.0,"pressure":1007.4,"uv_index":7.8,"wind_gusts":20.5,"aqi":114,"pm10":54.5,"pm2_5":38.8,"mosquito_risk":4,"arthritis_risk":5,"migraine_risk":4,"frizz_risk":1,"updated_at":"2026-03-22T22:05:17.451943+05:30"},{"city":"Rajkot","state":"Gujarat","latitude":22.3039,"longitude":70.8022,"temp":26.0,"humidity":54,"rain":0.0,"pressure":997.9,"uv_index":7.6,"wind_gusts":25.9,"aqi":65,"pm10":39.3,"pm2_5":22.5,"mosquito_risk":4,"arthritis_risk":5,"migraine_risk":7,"frizz_risk":0,"updated_at":"2026-03-22T22:05:17.451952+05:30"},{"city":"Thane","state":"Maharashtra","latitude":19.2183,"longitude":72.9781,"temp":29.6,"humidity":42,"rain":0.0,"pressure":1009.6,"uv_index":7.85,"wind_gusts":41.0,"aqi":170,"pm10":56.6,"pm2_5":39.9,"mosquito_risk":4,"arthritis_risk":0,"migraine_risk":4,"frizz_risk":0,"updated_at":"2026-03-22T22:05:17.451959+05:30"},{"city":"Nagpur","state":"Maharashtra","latitude":21.1458,"longitude":79.0882,"temp":27.2,"humidity":38,"rain":0.0,"pressure":976.7,"uv_index":8.35,"wind_gusts":19.4,"aqi":91,"pm10":48.8,"pm2_5":38.1,"mosquito_risk":4,"arthritis_risk":5,"migraine_risk":7,"frizz_risk":0,"updated_at":"2026-03-22T22:05:17.451966+05:30"},{"city":"Nashik","state":"Maharashtra","latitude":19.9975,"longitude":73.7898,"temp":24.8,"humidity":50,"rain":0.0,"pressure":948.4,"uv_index":8.1,"wind_gusts":24.8,"aqi":89,"pm10":31.8,"pm2_5":23.0,"mosquito_risk":0,"arthritis_risk":5,"migraine_risk":7,"frizz_risk":0,"updated_at":"2026-03-22T22:05:17.451974+05:30"},{"city":"Aurangabad","state":"Maharashtra","latitude":19.8762,"longitude":75.3433,"temp":25.9,"humidity":43,"rain":0.0,"pressure":946.7,"uv_index":8.6,"wind_gusts":27.0,"aqi":96,"pm10":34.8,"pm2_5":26.4,"mosquito_risk":4,"arthritis_risk":5,"migraine_risk":7,"frizz_risk":0,"updated_at":"2026-03-22T22:05:17.451981+05:30"},{"city":"Solapur","state":"Maharashtra","latitude":17.6599,"longitude":75.9064,"temp":27.2,"humidity":41,"rain":0.0,"pressure":958.8,"uv_index":8.75,"wind_gusts":24.5,"aqi":94,"pm10":31.3,"pm2_5":23.5,"mosquito_risk":4,"arthritis_risk":5,"migraine_risk":7,"frizz_risk":0,"updated_at":"2026-03-22T22:05:17.451989+05:30"},{"city":"Kolhapur","state":"Maharashtra","latitude":16.705,"longitude":74.2433,"temp":22.8,"humidity":64,"rain":0.0,"pressure":949.7,"uv_index":8.85,"wind_gusts":29.2,"aqi":89,"pm10":40.4,"pm2_5":35.7,"mosquito_risk":3,"arthritis_risk":5,"migraine_risk":7,"frizz_risk":0,"updated_at":"2026-03-22T22:05:17.451997+05:30"},{"city":"Goa","state":"Goa","latitude":15.2993,"longitude":74.124,"temp":28.3,"humidity":81,"rain":0.0,"pressure":999.8,"uv_index":8.85,"wind_gusts":35.3,"aqi":112,"pm10":48.5,"pm2_5":37.4,"mosquito_risk":7,"arthritis_risk":5,"migraine_risk":7,"frizz_risk":1,"updated_at":"2026-03-22T22:05:17.452004+05:30"},{"city":"Jodhpur","state":"Rajasthan","latitude":26.2389,"longitude":73.0243,"temp":25.2,"humidity":63,"rain":0.0,"pressure":987.2,"uv_index":7.55,"wind_gusts":33.8,"aqi":70,"pm10":88.0,"pm2_5":22.3,"mosquito_risk":7,"arthritis_risk":5,"migraine_risk":7,"frizz_risk":1,"updated_at":"2026-03-22T22:05:17.452011+05:30"},{"city":"Udaipur","state":"Rajasthan","latitude":24.5854,"longitude":73.7125,"temp":24.4,"humidity":44,"rain":0.0,"pressure":950.0,"uv_index":8.15,"wind_gusts":27.0,"aqi":59,"pm10":35.7,"pm2_5":14.4,"mosquito_risk":0,"arthritis_risk":5,"migraine_risk":7,"frizz_risk":0,"updated_at":"2026-03-22T22:05:17.452018+05:30"},{"city":"Kota","state":"Rajasthan","latitude":25.2138,"longitude":75.8648,"temp":26.3,"humidity":45,"rain":0.0,"pressure":982.1,"uv_index":7.4,"wind_gusts":12.6,"aqi":94,"pm10":43.1,"pm2_5":29.8,"mosquito_risk":4,"arthritis_risk":5,"migraine_risk":7,"frizz_risk":0,"updated_at":"2026-03-22T22:05:17.452025+05:30"},{"city":"Bikaner","state":"Rajasthan","latitude":28.0229,"longitude":73.3119,"temp":24.9,"humidity":56,"rain":0.0,"pressure":986.6,"uv_index":7.1,"wind_gusts":27.4,"aqi":68,"pm10":50.9,"pm2_5":18.0,"mosquito_risk":0,"arthritis_risk":5,"migraine_risk":7,"frizz_risk":0,"updated_at":"2026-03-22T22:05:17.452032+05:30"},{"city":"Ajmer","state":"Rajasthan","latitude":26.4499,"longitude":74.6399,"temp":25.8,"humidity":42,"rain":0.0,"pressure":958.2,"uv_index":7.35,"wind_gusts":25.9,"aqi":70,"pm10":40.7,"pm2_5":17.8,"mosquito_risk":4,"arthritis_risk":5,"migraine_risk":7,"frizz_risk":0,"updated_at":"2026-03-22T22:05:17.452039+05:30"},{"city":"Gwalior","state":"Madhya Pradesh","latitude":26.2183,"longitude":78.1828,"temp":24.8,"humidity":57,"rain":0.0,"pressure":987.3,"uv_index":7.15,"wind_gusts":29.9,"aqi":134,"pm10":132.2,"pm2_5":35.3,"mosquito_risk":0,"arthritis_risk":5,"migraine_risk":7,"frizz_risk":0,"updated_at":"2026-03-22T22:05:17.452046+05:30"},{"city":"Indore","state":"Madhya Pradesh","latitude":22.7196,"longitude":75.8577,"temp":24.2,"humidity":47,"rain":0.0,"pressure":951.1,"uv_index":8.05,"wind_gusts":17.6,"aqi":65,"pm10":37.0,"pm2_5":26.7,"mosquito_risk":0,"arthritis_risk":5,"migraine_risk":7,"frizz_risk":0,"updated_at":"2026-03-22T22:05:17.452053+05:30"},{"city":"Bhopal","state":"Madhya Pradesh","latitude":23.2599,"longitude":77.4126,"temp":24.5,"humidity":40,"rain":0.0,"pressure":957.0,"uv_index":7.9,"wind_gusts":25.9,"aqi":75,"pm10":30.9,"pm2_5":21.2,"mosquito_risk":0,"arthritis_risk":5,"migraine_risk":7,"frizz_risk":0,"updated_at":"2026-03-22T22:05:17.452059+05:30"},{"city":"Jabalpur","state":"Madhya Pradesh","latitude":23.1815,"longitude":79.9864,"temp":24.2,"humidity":53,"rain":0.0,"pressure":965.2,"uv_index":8.05,"wind_gusts":29.9,"aqi":69,"pm10":52.4,"pm2_5":23.3,"mosquito_risk":0,"arthritis_risk":5,"migraine_risk":7,"frizz_risk":0,"updated_at":"2026-03-22T22:05:17.452066+05:30"},{"city":"Ujjain","state":"Madhya Pradesh","latitude":23.1765,"longitude":75.7885,"temp":24.3,"humidity":51,"rain":0.0,"pressure":956.9,"uv_index":8.0,"wind_gusts":13.3,"aqi":68,"pm10":48.0,"pm2_5":36.6,"mosquito_risk":0,"arthritis_risk":5,"migraine_risk":7,"frizz_risk":0,"updated_at":"2026-03-22T22:05:17.452073+05:30"},{"city":"Visakhapatnam","state":"Andhra Pradesh","latitude":17.6868,"longitude":83.2185,"temp":25.9,"humidity":86,"rain":0.0,"pressure":1007.6,"uv_index":8.85,"wind_gusts":36.7,"aqi":80,"pm10":25.6,"pm2_5":20.7,"mosquito_risk":7,"arthritis_risk":5,"migraine_risk":4,"frizz_risk":1,"updated_at":"2026-03-22T22:05:17.452080+05:30"},{"city":"Vijayawada","state":"Andhra Pradesh","latitude":16.5062,"longitude":80.648,"temp":27.0,"humidity":80,"rain":0.0,"pressure":1006.3,"uv_index":8.9,"wind_gusts":18.7,"aqi":65,"pm10":30.6,"pm2_5":26.4,"mosquito_risk":7,"arthritis_risk":5,"migraine_risk":4,"frizz_risk":1,"updated_at":"2026-03-22T22:05:17.452087+05:30"},{"city":"Guntur","state":"Andhra Pradesh","latitude":16.3067,"longitude":80.4365,"temp":26.2,"humidity":86,"rain":0.0,"pressure":1007.4,"uv_index":8.9,"wind_gusts":19.4,"aqi":67,"pm10":33.4,"pm2_5":29.2,"mosquito_risk":7,"arthritis_risk":5,"migraine_risk":4,"frizz_risk":1,"updated_at":"2026-03-22T22:05:17.452094+05:30"},{"city":"Nellore","state":"Andhra Pradesh","latitude":14.4426,"longitude":79.9865,"temp":26.5,"humidity":84,"rain":0.0,"pressure":1009.2,"uv_index":9.05,"wind_gusts":27.7,"aqi":48,"pm10":10.9,"pm2_5":6.9,"mosquito_risk":7,"arthritis_risk":0,"migraine_risk":4,"frizz_risk":1,"updated_at":"2026-03-22T22:05:17.452102+05:30"},{"city":"Kurnool","state":"Andhra Pradesh","latitude":15.8281,"longitude":78.0373,"temp":30.6,"humidity":48,"rain":0.0,"pressure":979.0,"uv_index":8.9,"wind_gusts":22.0,"aqi":89,"pm10":51.0,"pm2_5":35.7,"mosquito_risk":0,"arthritis_risk":5,"migraine_risk":7,"frizz_risk":1,"updated_at":"2026-03-22T22:05:17.452109+05:30"},{"city":"Kakinada","state":"Andhra Pradesh","latitude":16.9891,"longitude":82.2475,"temp":25.8,"humidity":83,"rain":0.0,"pressure":1011.3,"uv_index":8.8,"wind_gusts":28.8,"aqi":42,"pm10":16.4,"pm2_5":11.1,"mosquito_risk":7,"arthritis_risk":0,"migraine_risk":4,"frizz_risk":1,"updated_at":"2026-03-22T22:05:17.452116+05:30"},{"city":"Tirupati","state":"Andhra Pradesh","latitude":13.6288,"longitude":79.4192,"temp":26.5,"humidity":74,"rain":0.0,"pressure":995.0,"uv_index":9.2,"wind_gusts":30.2,"aqi":70,"pm10":20.4,"pm2_5":17.3,"mosquito_risk":7,"arthritis_risk":5,"migraine_risk":7,"frizz_risk":1,"updated_at":"2026-03-22T22:05:17.452123+05:30"},{"city":"Warangal","state":"Telangana","latitude":17.9689,"longitude":79.5941,"temp":26.6,"humidity":72,"rain":0.0,"pressure":981.8,"uv_index":8.75,"wind_gusts":19.8,"aqi":116,"pm10":88.0,"pm2_5":73.3,"mosquito_risk":7,"arthritis_risk":5,"migraine_risk":7,"frizz_risk":1,"updated_at":"2026-03-22T22:05:17.452130+05:30"},{"city":"Nizamabad","state":"Telangana","latitude":18.6725,"longitude":78.0941,"temp":27.2,"humidity":52,"rain":0.0,"pressure":967.3,"uv_index":8.65,"wind_gusts":27.4,"aqi":99,"pm10":59.3,"pm2_5":52.7,"mosquito_risk":4,"arthritis_risk":5,"migraine_risk":7,"frizz_risk":1,"updated_at":"2026-03-22T22:05:17.452137+05:30"},{"city":"Mysore","state":"Karnataka","latitude":12.2958,"longitude":76.6396,"temp":25.1,"humidity":72,"rain":0.0,"pressure":930.1,"uv_index":9.4,"wind_gusts":29.2,"aqi":100,"pm10":43.9,"pm2_5":34.3,"mosquito_risk":7,"arthritis_risk":5,"migraine_risk":7,"frizz_risk":1,"updated_at":"2026-03-22T22:05:17.452144+05:30"},{"city":"Mangalore","state":"Karnataka","latitude":12.9141,"longitude":74.856,"temp":29.6,"humidity":76,"rain":0.0,"pressure":1008.7,"uv_index":9.05,"wind_gusts":28.4,"aqi":77,"pm10":32.8,"pm2_5":20.7,"mosquito_risk":7,"arthritis_risk":0,"migraine_risk":4,"frizz_risk":1,"updated_at":"2026-03-22T22:05:17.452151+05:30"},{"city":"Hubli-Dharwad","state":"Karnataka","latitude":15.3647,"longitude":75.124,"temp":25.2,"humidity":68,"rain":0.0,"pressure":942.5,"uv_index":9.05,"wind_gusts":25.2,"aqi":129,"pm10":33.3,"pm2_5":28.1,"mosquito_risk":7,"arthritis_risk":5,"migraine_risk":7,"frizz_risk":1,"updated_at":"2026-03-22T22:05:17.452158+05:30"},{"city":"Belgaum","state":"Karnataka","latitude":15.8497,"longitude":74.4977,"temp":23.7,"humidity":67,"rain":0.0,"pressure":927.6,"uv_index":9.1,"wind_gusts":33.1,"aqi":121,"pm10":31.9,"pm2_5":27.0,"mosquito_risk":3,"arthritis_risk":5,"migraine_risk":7,"frizz_risk":1,"updated_at":"2026-03-22T22:05:20.799514+05:30"},{"city":"Coimbatore","state":"Tamil Nadu","latitude":11.0168,"longitude":76.9558,"temp":26.1,"humidity":73,"rain":0.0,"pressure":963.8,"uv_index":9.3,"wind_gusts":33.5,"aqi":82,"pm10":50.8,"pm2_5":43.4,"mosquito_risk":7,"arthritis_risk":5,"migraine_risk":7,"frizz_risk":1,"updated_at":"2026-03-22T22:05:20.799578+05:30"},{"city":"Madurai","state":"Tamil Nadu","latitude":9.9252,"longitude":78.1198,"temp":27.9,"humidity":66,"rain":0.0,"pressure":995.3,"uv_index":9.35,"wind_gusts":25.9,"aqi":63,"pm10":21.7,"pm2_5":18.2,"mosquito_risk":7,"arthritis_risk":5,"migraine_risk":7,"frizz_risk":1,"updated_at":"2026-03-22T22:05:20.799590+05:30"},{"city":"Trichy","state":"Tamil Nadu","latitude":10.7905,"longitude":78.7047,"temp":27.7,"humidity":78,"rain":0.0,"pressure":1002.1,"uv_index":9.25,"wind_gusts":23.8,"aqi":65,"pm10":21.1,"pm2_5":18.5,"mosquito_risk":7,"arthritis_risk":5,"migraine_risk":4,"frizz_risk":1,"updated_at":"2026-03-22T22:05:20.799600+05:30"},{"city":"Salem","state":"Tamil Nadu","latitude":11.6643,"longitude":78.146,"temp":28.2,"humidity":63,"rain":0.0,"pressure":979.2,"uv_index":9.3,"wind_gusts":20.9,"aqi":101,"pm10":33.1,"pm2_5":27.5,"mosquito_risk":7,"arthritis_risk":5,"migraine_risk":7,"frizz_risk":1,"updated_at":"2026-03-22T22:05:20.799608+05:30"},{"city":"Tirunelveli","state":"Tamil Nadu","latitude":8.7139,"longitude":77.7567,"temp":27.6,"humidity":70,"rain":0.0,"pressure":1005.3,"uv_index":9.3,"wind_gusts":32.8,"aqi":67,"pm10":20.0,"pm2_5":17.3,"mosquito_risk":7,"arthritis_risk":5,"migraine_risk":4,"frizz_risk":1,"updated_at":"2026-03-22T22:05:20.799615+05:30"},{"city":"Vellore","state":"Tamil Nadu","latitude":12.9165,"longitude":79.1325,"temp":26.9,"humidity":67,"rain":0.0,"pressure":987.7,"uv_index":9.25,"wind_gusts":32.8,"aqi":88,"pm10":23.8,"pm2_5":20.4,"mosquito_risk":7,"arthritis_risk":5,"migraine_risk":7,"frizz_risk":1,"updated_at":"2026-03-22T22:05:20.799623+05:30"},{"city":"Erode","state":"Tamil Nadu","latitude":11.341,"longitude":77.7172,"temp":29.2,"humidity":59,"rain":0.0,"pressure":990.6,"uv_index":9.3,"wind_gusts":32.8,"aqi":77,"pm10":27.1,"pm2_5":22.5,"mosquito_risk":4,"arthritis_risk":5,"migraine_risk":7,"frizz_risk":1,"updated_at":"2026-03-22T22:05:20.799629+05:30"},{"city":"Kochi","state":"Kerala","latitude":9.9312,"longitude":76.2673,"temp":27.4,"humidity":82,"rain":0.0,"pressure":1011.1,"uv_index":9.15,"wind_gusts":34.9,"aqi":75,"pm10":44.4,"pm2_5":40.7,"mosquito_risk":7,"arthritis_risk":0,"migraine_risk":4,"frizz_risk":1,"updated_at":"2026-03-22T22:05:20.799636+05:30"},{"city":"Thiruvananthapuram","state":"Kerala","latitude":8.5241,"longitude":76.9366,"temp":27.7,"humidity":82,"rain":0.0,"pressure":1010.0,"uv_index":9.15,"wind_gusts":26.3,"aqi":108,"pm10":18.5,"pm2_5":13.4,"mosquito_risk":7,"arthritis_risk":0,"migraine_risk":4,"frizz_risk":1,"updated_at":"2026-03-22T22:05:20.799643+05:30"},{"city":"Kozhikode","state":"Kerala","latitude":11.2588,"longitude":75.7804,"temp":29.9,"humidity":74,"rain":0.0,"pressure":1009.3,"uv_index":9.1,"wind_gusts":31.0,"aqi":64,"pm10":35.2,"pm2_5":18.6,"mosquito_risk":7,"arthritis_risk":0,"migraine_risk":4,"frizz_risk":1,"updated_at":"2026-03-22T22:05:20.799649+05:30"},{"city":"Thrissur","state":"Kerala","latitude":10.5276,"longitude":76.2144,"temp":28.3,"humidity":79,"rain":0.0,"pressure":1009.0,"uv_index":9.1,"wind_gusts":38.2,"aqi":71,"pm10":50.4,"pm2_5":44.7,"mosquito_risk":7,"arthritis_risk":0,"migraine_risk":4,"frizz_risk":1,"updated_at":"2026-03-22T22:05:20.799657+05:30"},{"city":"Kannur","state":"Kerala","latitude":11.8745,"longitude":75.3704,"temp":29.5,"humidity":76,"rain":0.0,"pressure":1008.9,"uv_index":9.05,"wind_gusts":34.9,"aqi":69,"pm10":37.1,"pm2_5":20.0,"mosquito_risk":7,"arthritis_risk":0,"migraine_risk":4,"frizz_risk":1,"updated_at":"2026-03-22T22:05:20.799664+05:30"},{"city":"Patna","state":"Bihar","latitude":25.5941,"longitude":85.1376,"temp":21.8,"humidity":75,"rain":0.0,"pressure":1006.1,"uv_index":7.55,"wind_gusts":19.1,"aqi":160,"pm10":71.0,"pm2_5":68.2,"mosquito_risk":3,"arthritis_risk":5,"migraine_risk":4,"frizz_risk":1,"updated_at":"2026-03-22T22:05:20.799670+05:30"},{"city":"Gaya","state":"Bihar","latitude":24.7914,"longitude":85.0002,"temp":20.8,"humidity":82,"rain":0.0,"pressure":999.4,"uv_index":7.5,"wind_gusts":21.6,"aqi":138,"pm10":62.2,"pm2_5":54.9,"mosquito_risk":3,"arthritis_risk":5,"migraine_risk":7,"frizz_risk":1,"updated_at":"2026-03-22T22:05:20.799677+05:30"},{"city":"Muzaffarpur","state":"Bihar","latitude":26.1209,"longitude":85.3647,"temp":20.5,"humidity":75,"rain":0.0,"pressure":1005.9,"uv_index":6.15,"wind_gusts":11.5,"aqi":163,"pm10":79.2,"pm2_5":75.7,"mosquito_risk":3,"arthritis_risk":5,"migraine_risk":4,"frizz_risk":0,"updated_at":"2026-03-22T22:05:20.799683+05:30"},{"city":"Bhagalpur","state":"Bihar","latitude":25.2425,"longitude":87.0117,"temp":21.2,"humidity":77,"rain":0.0,"pressure":1007.0,"uv_index":7.05,"wind_gusts":17.3,"aqi":156,"pm10":79.4,"pm2_5":72.9,"mosquito_risk":3,"arthritis_risk":5,"migraine_risk":4,"frizz_risk":1,"updated_at":"2026-03-22T22:05:20.799690+05:30"},{"city":"Ranchi","state":"Jharkhand","latitude":23.3441,"longitude":85.3096,"temp":19.6,"humidity":60,"rain":0.0,"pressure":941.6,"uv_index":8.45,"wind_gusts":29.5,"aqi":107,"pm10":64.3,"pm2_5":31.4,"mosquito_risk":0,"arthritis_risk":5,"migraine_risk":7,"frizz_risk":0,"updated_at":"2026-03-22T22:05:20.799697+05:30"},{"city":"Jamshedpur","state":"Jharkhand","latitude":22.8046,"longitude":86.2029,"temp":25.5,"humidity":50,"rain":0.0,"pressure":995.5,"uv_index":8.35,"wind_gusts":19.1,"aqi":119,"pm10":64.5,"pm2_5":45.4,"mosquito_risk":4,"arthritis_risk":5,"migraine_risk":7,"frizz_risk":0,"updated_at":"2026-03-22T22:05:20.799703+05:30"},{"city":"Dhanbad","state":"Jharkhand","latitude":23.7957,"longitude":86.4304,"temp":22.1,"humidity":66,"rain":0.0,"pressure":984.9,"uv_index":8.2,"wind_gusts":23.8,"aqi":137,"pm10":70.8,"pm2_5":59.6,"mosquito_risk":3,"arthritis_risk":5,"migraine_risk":7,"frizz_risk":0,"updated_at":"2026-03-22T22:05:20.799710+05:30"},{"city":"Bokaro","state":"Jharkhand","latitude":23.6693,"longitude":86.1511,"temp":21.9,"humidity":67,"rain":0.0,"pressure":989.1,"uv_index":8.2,"wind_gusts":24.5,"aqi":136,"pm10":77.8,"pm2_5":58.9,"mosquito_risk":3,"arthritis_risk":5,"migraine_risk":7,"frizz_risk":0,"updated_at":"2026-03-22T22:05:20.799718+05:30"},{"city":"Bhubaneswar","state":"Odisha","latitude":20.2961,"longitude":85.8245,"temp":25.1,"humidity":85,"rain":0.0,"pressure":1007.1,"uv_index":8.65,"wind_gusts":26.3,"aqi":123,"pm10":35.0,"pm2_5":30.5,"mosquito_risk":7,"arthritis_risk":5,"migraine_risk":4,"frizz_risk":1,"updated_at":"2026-03-22T22:05:20.799724+05:30"},{"city":"Cuttack","state":"Odisha","latitude":20.4625,"longitude":85.8828,"temp":25.3,"humidity":84,"rain":0.0,"pressure":1009.2,"uv_index":8.65,"wind_gusts":21.2,"aqi":123,"pm10":35.0,"pm2_5":30.5,"mosquito_risk":7,"arthritis_risk":0,"migraine_risk":4,"frizz_risk":1,"updated_at":"2026-03-22T22:05:20.799731+05:30"},{"city":"Rourkela","state":"Odisha","latitude":22.2604,"longitude":84.8536,"temp":23.1,"humidity":67,"rain":0.0,"pressure":989.4,"uv_index":8.2,"wind_gusts":20.5,"aqi":109,"pm10":43.5,"pm2_5":32.7,"mosquito_risk":3,"arthritis_risk":5,"migraine_risk":7,"frizz_risk":1,"updated_at":"2026-03-22T22:05:20.799737+05:30"},{"city":"Raipur","state":"Chhattisgarh","latitude":21.2514,"longitude":81.6296,"temp":25.8,"humidity":37,"rain":0.0,"pressure":978.5,"uv_index":8.4,"wind_gusts":23.0,"aqi":90,"pm10":48.3,"pm2_5":41.9,"mosquito_risk":4,"arthritis_risk":5,"migraine_risk":7,"frizz_risk":0,"updated_at":"2026-03-22T22:05:20.799743+05:30"},{"city":"Bhilai","state":"Chhattisgarh","latitude":21.1938,"longitude":81.3509,"temp":24.3,"humidity":42,"rain":0.0,"pressure":978.6,"uv_index":8.4,"wind_gusts":16.9,"aqi":76,"pm10":68.0,"pm2_5":58.3,"mosquito_risk":0,"arthritis_risk":5,"migraine_risk":7,"frizz_risk":0,"updated_at":"2026-03-22T22:05:20.799750+05:30"},{"city":"Guwahati","state":"Assam","latitude":26.1158,"longitude":91.7086,"temp":21.8,"humidity":87,"rain":0.0,"pressure":1006.5,"uv_index":7.6,"wind_gusts":20.5,"aqi":83,"pm10":23.9,"pm2_5":22.3,"mosquito_risk":3,"arthritis_risk":5,"migraine_risk":4,"frizz_risk":1,"updated_at":"2026-03-22T22:05:20.799756+05:30"},{"city":"Agartala","state":"Tripura","latitude":23.8315,"longitude":91.2868,"temp":21.3,"humidity":83,"rain":0.0,"pressure":1011.6,"uv_index":7.85,"wind_gusts":22.0,"aqi":136,"pm10":86.1,"pm2_5":81.5,"mosquito_risk":3,"arthritis_risk":0,"migraine_risk":4,"frizz_risk":1,"updated_at":"2026-03-22T22:05:20.799762+05:30"},{"city":"Shillong","state":"Meghalaya","latitude":25.5788,"longitude":91.8933,"temp":9.8,"humidity":91,"rain":0.0,"pressure":856.7,"uv_index":6.7,"wind_gusts":26.3,"aqi":60,"pm10":25.1,"pm2_5":22.5,"mosquito_risk":3,"arthritis_risk":10,"migraine_risk":7,"frizz_risk":0,"updated_at":"2026-03-22T22:05:20.799769+05:30"},{"city":"Imphal","state":"Manipur","latitude":24.817,"longitude":93.9368,"temp":14.3,"humidity":92,"rain":0.0,"pressure":926.2,"uv_index":8.15,"wind_gusts":51.5,"aqi":62,"pm10":24.3,"pm2_5":23.1,"mosquito_risk":3,"arthritis_risk":10,"migraine_risk":7,"frizz_risk":0,"updated_at":"2026-03-22T22:05:20.799776+05:30"},{"city":"Aizawl","state":"Mizoram","latitude":23.7271,"longitude":92.7176,"temp":15.2,"humidity":86,"rain":0.0,"pressure":895.2,"uv_index":8.2,"wind_gusts":44.6,"aqi":52,"pm10":20.1,"pm2_5":18.6,"mosquito_risk":3,"arthritis_risk":10,"migraine_risk":7,"frizz_risk":0,"updated_at":"2026-03-22T22:05:20.799783+05:30"},{"city":"Kohima","state":"Nagaland","latitude":25.6701,"longitude":94.1077,"temp":11.1,"humidity":86,"rain":0.0,"pressure":855.5,"uv_index":7.8,"wind_gusts":56.9,"aqi":55,"pm10":17.6,"pm2_5":16.3,"mosquito_risk":3,"arthritis_risk":10,"migraine_risk":7,"frizz_risk":0,"updated_at":"2026-03-22T22:05:20.799790+05:30"},{"city":"Gangtok","state":"Sikkim","latitude":27.3314,"longitude":88.6138,"temp":11.4,"humidity":92,"rain":0.1,"pressure":837.6,"uv_index":7.85,"wind_gusts":19.4,"aqi":72,"pm10":21.0,"pm2_5":20.3,"mosquito_risk":6,"arthritis_risk":10,"migraine_risk":7,"frizz_risk":0,"updated_at":"2026-03-22T22:05:20.799796+05:30"},{"city":"Siliguri","state":"West Bengal","latitude":26.7271,"longitude":88.3953,"temp":17.9,"humidity":75,"rain":0.0,"pressure":998.5,"uv_index":7.45,"wind_gusts":17.3,"aqi":100,"pm10":51.2,"pm2_5":49.8,"mosquito_risk":3,"arthritis_risk":5,"migraine_risk":7,"frizz_risk":0,"updated_at":"2026-03-22T22:05:24.150788+05:30"},{"city":"Durgapur","state":"West Bengal","latitude":23.5204,"longitude":87.3119,"temp":23.1,"humidity":68,"rain":0.0,"pressure":1000.2,"uv_index":8.1,"wind_gusts":18.4,"aqi":126,"pm10":74.0,"pm2_5":70.1,"mosquito_risk":3,"arthritis_risk":5,"migraine_risk":4,"frizz_risk":1,"updated_at":"2026-03-22T22:05:24.150817+05:30"},{"city":"Asansol","state":"West Bengal","latitude":23.6739,"longitude":86.9524,"temp":23.4,"humidity":64,"rain":0.0,"pressure":998.7,"uv_index":8.2,"wind_gusts":20.5,"aqi":117,"pm10":51.5,"pm2_5":46.3,"mosquito_risk":3,"arthritis_risk":5,"migraine_risk":7,"frizz_risk":1,"updated_at":"2026-03-22T22:05:24.150827+05:30"},{"city":"Pondicherry","state":"Puducherry","latitude":11.9139,"longitude":79.8145,"temp":25.6,"humidity":90,"rain":0.0,"pressure":1011.3,"uv_index":9.15,"wind_gusts":28.8,"aqi":35,"pm10":13.4,"pm2_5":7.9,"mosquito_risk":7,"arthritis_risk":0,"migraine_risk":4,"frizz_risk":1,"updated_at":"2026-03-22T22:05:24.150835+05:30"},{"city":"Port Blair","state":"Andaman and Nicobar Islands","latitude":11.6234,"longitude":92.7265,"temp":28.5,"humidity":79,"rain":0.0,"pressure":1009.5,"uv_index":9.1,"wind_gusts":20.9,"aqi":43,"pm10":11.4,"pm2_5":8.4,"mosquito_risk":7,"arthritis_risk":0,"migraine_risk":4,"frizz_risk":1,"updated_at":"2026-03-22T22:05:24.150843+05:30"},{"city":"Haridwar","state":"Uttarakhand","latitude":29.9457,"longitude":78.1642,"temp":18.9,"humidity":80,"rain":0.0,"pressure":978.1,"uv_index":6.25,"wind_gusts":25.9,"aqi":115,"pm10":203.0,"pm2_5":61.9,"mosquito_risk":3,"arthritis_risk":5,"migraine_risk":7,"frizz_risk":0,"updated_at":"2026-03-22T22:05:24.150851+05:30"},{"city":"Rishikesh","state":"Uttarakhand","latitude":30.0869,"longitude":78.2676,"temp":17.9,"humidity":81,"rain":0.0,"pressure":970.6,"uv_index":6.3,"wind_gusts":25.6,"aqi":128,"pm10":90.3,"pm2_5":43.5,"mosquito_risk":3,"arthritis_risk":10,"migraine_risk":7,"frizz_risk":0,"updated_at":"2026-03-22T22:05:24.150859+05:30"},{"city":"Nainital","state":"Uttarakhand","latitude":29.3919,"longitude":79.4542,"temp":14.0,"humidity":71,"rain":0.0,"pressure":806.3,"uv_index":7.15,"wind_gusts":37.8,"aqi":125,"pm10":43.2,"pm2_5":34.1,"mosquito_risk":3,"arthritis_risk":5,"migraine_risk":7,"frizz_risk":0,"updated_at":"2026-03-22T22:05:24.150866+05:30"},{"city":"Mussoorie","state":"Uttarakhand","latitude":30.4599,"longitude":78.0664,"temp":12.3,"humidity":79,"rain":0.0,"pressure":802.7,"uv_index":6.65,"wind_gusts":25.9,"aqi":121,"pm10":92.0,"pm2_5":52.3,"mosquito_risk":3,"arthritis_risk":5,"migraine_risk":7,"frizz_risk":0,"updated_at":"2026-03-22T22:05:24.150873+05:30"},{"city":"Dharamshala","state":"Himachal Pradesh","latitude":32.219,"longitude":76.3234,"temp":15.9,"humidity":72,"rain":0.0,"pressure":870.5,"uv_index":6.75,"wind_gusts":20.9,"aqi":124,"pm10":33.9,"pm2_5":27.4,"mosquito_risk":3,"arthritis_risk":5,"migraine_risk":7,"frizz_risk":0,"updated_at":"2026-03-22T22:05:24.150880+05:30"},{"city":"Dalhousie","state":"Himachal Pradesh","latitude":32.5387,"longitude":75.971,"temp":12.4,"humidity":81,"rain":0.0,"pressure":803.7,"uv_index":7.0,"wind_gusts":19.1,"aqi":104,"pm10":59.4,"pm2_5":54.8,"mosquito_risk":3,"arthritis_risk":10,"migraine_risk":7,"frizz_risk":0,"updated_at":"2026-03-22T22:05:24.150888+05:30"},{"city":"Patiala","state":"Punjab","latitude":30.3398,"longitude":76.3869,"temp":19.4,"humidity":79,"rain":0.0,"pressure":982.7,"uv_index":6.3,"wind_gusts":31.3,"aqi":161,"pm10":251.5,"pm2_5":74.0,"mosquito_risk":3,"arthritis_risk":5,"migraine_risk":7,"frizz_risk":0,"updated_at":"2026-03-22T22:05:24.150895+05:30"},{"city":"Bhatinda","state":"Punjab","latitude":30.211,"longitude":74.9455,"temp":21.5,"humidity":74,"rain":0.0,"pressure":988.4,"uv_index":6.9,"wind_gusts":19.4,"aqi":151,"pm10":127.6,"pm2_5":65.9,"mosquito_risk":3,"arthritis_risk":5,"migraine_risk":7,"frizz_risk":1,"updated_at":"2026-03-22T22:05:24.150903+05:30"},{"city":"Rohtak","state":"Haryana","latitude":28.8955,"longitude":76.6066,"temp":21.0,"humidity":73,"rain":0.0,"pressure":986.1,"uv_index":6.45,"wind_gusts":24.8,"aqi":191,"pm10":530.9,"pm2_5":102.4,"mosquito_risk":3,"arthritis_risk":5,"migraine_risk":7,"frizz_risk":0,"updated_at":"2026-03-22T22:05:24.150910+05:30"},{"city":"Panipat","state":"Haryana","latitude":29.3909,"longitude":76.9635,"temp":19.4,"humidity":77,"rain":0.0,"pressure":984.5,"uv_index":6.25,"wind_gusts":29.5,"aqi":446,"pm10":715.3,"pm2_5":121.5,"mosquito_risk":3,"arthritis_risk":5,"migraine_risk":7,"frizz_risk":0,"updated_at":"2026-03-22T22:05:24.150917+05:30"},{"city":"Mathura","state":"Uttar Pradesh","latitude":27.4924,"longitude":77.6737,"temp":21.4,"humidity":69,"rain":0.0,"pressure":991.0,"uv_index":6.6,"wind_gusts":28.1,"aqi":356,"pm10":423.8,"pm2_5":81.3,"mosquito_risk":3,"arthritis_risk":5,"migraine_risk":7,"frizz_risk":0,"updated_at":"2026-03-22T22:05:24.150923+05:30"},{"city":"Vrindavan","state":"Uttar Pradesh","latitude":27.5823,"longitude":77.7027,"temp":21.7,"humidity":68,"rain":0.0,"pressure":991.5,"uv_index":6.45,"wind_gusts":28.1,"aqi":356,"pm10":423.8,"pm2_5":81.3,"mosquito_risk":3,"arthritis_risk":5,"migraine_risk":7,"frizz_risk":0,"updated_at":"2026-03-22T22:05:24.150930+05:30"},{"city":"Ayodhya","state":"Uttar Pradesh","latitude":26.7922,"longitude":82.1998,"temp":21.6,"humidity":73,"rain":0.0,"pressure":1000.0,"uv_index":7.0,"wind_gusts":18.7,"aqi":103,"pm10":52.7,"pm2_5":40.3,"mosquito_risk":3,"arthritis_risk":5,"migraine_risk":4,"frizz_risk":1,"updated_at":"2026-03-22T22:05:24.150936+05:30"},{"city":"Ratlam","state":"Madhya Pradesh","latitude":23.3315,"longitude":75.0367,"temp":25.6,"humidity":49,"rain":0.0,"pressure":957.6,"uv_index":7.95,"wind_gusts":14.4,"aqi":63,"pm10":47.8,"pm2_5":36.0,"mosquito_risk":4,"arthritis_risk":5,"migraine_risk":7,"frizz_risk":0,"updated_at":"2026-03-22T22:05:24.150943+05:30"},{"city":"Sagar","state":"Madhya Pradesh","latitude":23.8388,"longitude":78.7378,"temp":24.5,"humidity":48,"rain":0.0,"pressure":953.8,"uv_index":7.95,"wind_gusts":29.9,"aqi":85,"pm10":44.4,"pm2_5":21.7,"mosquito_risk":0,"arthritis_risk":5,"migraine_risk":7,"frizz_risk":0,"updated_at":"2026-03-22T22:05:24.150949+05:30"},{"city":"Satna","state":"Madhya Pradesh","latitude":24.6005,"longitude":80.8322,"temp":23.6,"humidity":49,"rain":0.0,"pressure":975.9,"uv_index":7.9,"wind_gusts":32.4,"aqi":84,"pm10":67.1,"pm2_5":23.0,"mosquito_risk":0,"arthritis_risk":5,"migraine_risk":7,"frizz_risk":0,"updated_at":"2026-03-22T22:05:24.150956+05:30"},{"city":"Akola","state":"Maharashtra","latitude":20.7002,"longitude":77.0082,"temp":26.0,"humidity":47,"rain":0.0,"pressure":978.3,"uv_index":8.3,"wind_gusts":21.2,"aqi":110,"pm10":30.6,"pm2_5":25.6,"mosquito_risk":4,"arthritis_risk":5,"migraine_risk":7,"frizz_risk":0,"updated_at":"2026-03-22T22:05:24.150963+05:30"},{"city":"Amravati","state":"Maharashtra","latitude":20.9374,"longitude":77.7796,"temp":25.7,"humidity":50,"rain":0.0,"pressure":970.4,"uv_index":8.3,"wind_gusts":22.3,"aqi":109,"pm10":26.3,"pm2_5":21.0,"mosquito_risk":4,"arthritis_risk":5,"migraine_risk":7,"frizz_risk":0,"updated_at":"2026-03-22T22:05:24.150970+05:30"},{"city":"Latur","state":"Maharashtra","latitude":18.4088,"longitude":76.5604,"temp":25.0,"humidity":50,"rain":0.0,"pressure":941.9,"uv_index":8.7,"wind_gusts":28.8,"aqi":109,"pm10":21.4,"pm2_5":16.5,"mosquito_risk":4,"arthritis_risk":5,"migraine_risk":7,"frizz_risk":0,"updated_at":"2026-03-22T22:05:24.150977+05:30"},{"city":"Nanded","state":"Maharashtra","latitude":19.1383,"longitude":77.3091,"temp":27.1,"humidity":43,"rain":0.0,"pressure":971.2,"uv_index":8.5,"wind_gusts":28.4,"aqi":94,"pm10":33.3,"pm2_5":29.5,"mosquito_risk":4,"arthritis_risk":5,"migraine_risk":7,"frizz_risk":0,"updated_at":"2026-03-22T22:05:24.150983+05:30"},{"city":"Gulbarga","state":"Karnataka","latitude":17.3297,"longitude":76.8343,"temp":30.0,"humidity":33,"rain":0.0,"pressure":960.6,"uv_index":8.75,"wind_gusts":18.4,"aqi":112,"pm10":42.3,"pm2_5":32.7,"mosquito_risk":4,"arthritis_risk":5,"migraine_risk":7,"frizz_risk":0,"updated_at":"2026-03-22T22:05:24.150989+05:30"},{"city":"Bidar","state":"Karnataka","latitude":17.9104,"longitude":77.5199,"temp":27.6,"humidity":42,"rain":0.0,"pressure":937.8,"uv_index":8.75,"wind_gusts":20.5,"aqi":109,"pm10":25.6,"pm2_5":21.2,"mosquito_risk":4,"arthritis_risk":5,"migraine_risk":7,"frizz_risk":0,"updated_at":"2026-03-22T22:05:24.150995+05:30"},{"city":"Hospet","state":"Karnataka","latitude":15.2689,"longitude":76.3909,"temp":28.6,"humidity":55,"rain":0.0,"pressure":957.3,"uv_index":9.0,"wind_gusts":15.1,"aqi":172,"pm10":35.5,"pm2_5":29.6,"mosquito_risk":4,"arthritis_risk":5,"migraine_risk":7,"frizz_risk":1,"updated_at":"2026-03-22T22:05:24.151002+05:30"},{"city":"Tirupur","state":"Tamil Nadu","latitude":11.1085,"longitude":77.3411,"temp":29.4,"humidity":48,"rain":0.0,"pressure":977.1,"uv_index":9.4,"wind_gusts":31.0,"aqi":82,"pm10":50.1,"pm2_5":42.1,"mosquito_risk":4,"arthritis_risk":5,"migraine_risk":7,"frizz_risk":1,"updated_at":"2026-03-22T22:05:24.151008+05:30"},{"city":"Alappuzha","state":"Kerala","latitude":9.4981,"longitude":76.3388,"temp":28.4,"humidity":80,"rain":0.0,"pressure":1010.8,"uv_index":9.15,"wind_gusts":33.5,"aqi":75,"pm10":36.2,"pm2_5":29.0,"mosquito_risk":7,"arthritis_risk":0,"migraine_risk":4,"frizz_risk":1,"updated_at":"2026-03-22T22:05:24.151014+05:30"},{"city":"Munnar","state":"Kerala","latitude":10.0889,"longitude":77.0595,"temp":21.2,"humidity":89,"rain":0.0,"pressure":858.7,"uv_index":8.65,"wind_gusts":26.6,"aqi":70,"pm10":38.1,"pm2_5":29.8,"mosquito_risk":3,"arthritis_risk":5,"migraine_risk":7,"frizz_risk":1,"updated_at":"2026-03-22T22:05:24.151021+05:30"},{"city":"Silchar","state":"Assam","latitude":24.8333,"longitude":92.7789,"temp":20.3,"humidity":91,"rain":0.0,"pressure":1010.9,"uv_index":7.95,"wind_gusts":22.3,"aqi":82,"pm10":60.1,"pm2_5":55.5,"mosquito_risk":3,"arthritis_risk":0,"migraine_risk":4,"frizz_risk":1,"updated_at":"2026-03-22T22:05:24.151028+05:30"},{"city":"Dibrugarh","state":"Assam","latitude":27.4728,"longitude":94.912,"temp":21.1,"humidity":92,"rain":0.0,"pressure":1000.5,"uv_index":4.5,"wind_gusts":28.4,"aqi":120,"pm10":36.3,"pm2_5":34.0,"mosquito_risk":3,"arthritis_risk":5,"migraine_risk":0,"frizz_risk":1,"updated_at":"2026-03-22T22:05:24.151035+05:30"}]