[{"city":"Delhi","state":"Delhi","latitude":28.6139,"longitude":77.209,"temp":30.9,"humidity":73,"rain":0.0,"pressure":975.9,"uv_index":5.85,"wind_gusts":28.1,"aqi":105,"pm10":15.0,"pm2_5":14.7,"no2":10.0,"co":507.0,"o3":142.0,"so2":20.0,"mosquito_risk":3,"arthritis_risk":5,"migraine_risk":3,"frizz_risk":1,"updated_at":"2026-07-21T14:58:27.781142+05:30"},{"city":"Mumbai","state":"Maharashtra","latitude":19.076,"longitude":72.8777,"temp":28.1,"humidity":80,"rain":0.0,"pressure":1004.5,"uv_index":6.95,"wind_gusts":56.9,"aqi":64,"pm10":43.9,"pm2_5":20.0,"no2":7.3,"co":239.0,"o3":59.0,"so2":6.3,"mosquito_risk":7,"arthritis_risk":5,"migraine_risk":4,"frizz_risk":1,"updated_at":"2026-07-21T14:58:27.781186+05:30"},{"city":"Bangalore","state":"Karnataka","latitude":12.9716,"longitude":77.5946,"temp":27.0,"humidity":61,"rain":0.2,"pressure":911.1,"uv_index":8.4,"wind_gusts":47.9,"aqi":40,"pm10":15.6,"pm2_5":8.4,"no2":4.2,"co":235.0,"o3":69.0,"so2":2.6,"mosquito_risk":10,"arthritis_risk":5,"migraine_risk":7,"frizz_risk":1,"updated_at":"2026-07-21T14:58:27.781199+05:30"},{"city":"Hyderabad","state":"Telangana","latitude":17.385,"longitude":78.4867,"temp":26.4,"humidity":81,"rain":0.1,"pressure":950.2,"uv_index":4.0,"wind_gusts":39.2,"aqi":39,"pm10":24.9,"pm2_5":11.9,"no2":1.8,"co":237.0,"o3":83.0,"so2":2.8,"mosquito_risk":10,"arthritis_risk":5,"migraine_risk":3,"frizz_risk":1,"updated_at":"2026-07-21T14:58:27.781208+05:30"},{"city":"Chennai","state":"Tamil Nadu","latitude":13.0827,"longitude":80.2707,"temp":34.4,"humidity":53,"rain":0.0,"pressure":1004.1,"uv_index":7.9,"wind_gusts":30.2,"aqi":69,"pm10":39.0,"pm2_5":26.8,"no2":4.8,"co":243.0,"o3":139.0,"so2":5.9,"mosquito_risk":0,"arthritis_risk":5,"migraine_risk":4,"frizz_risk":1,"updated_at":"2026-07-21T14:58:27.781215+05:30"},{"city":"Kolkata","state":"West Bengal","latitude":22.5726,"longitude":88.3639,"temp":28.0,"humidity":85,"rain":0.2,"pressure":999.8,"uv_index":6.65,"wind_gusts":28.1,"aqi":63,"pm10":13.4,"pm2_5":13.1,"no2":8.2,"co":348.0,"o3":87.0,"so2":8.7,"mosquito_risk":10,"arthritis_risk":5,"migraine_risk":7,"frizz_risk":1,"updated_at":"2026-07-21T14:58:27.781222+05:30"},{"city":"Pune","state":"Maharashtra","latitude":18.5204,"longitude":73.8567,"temp":25.7,"humidity":83,"rain":0.1,"pressure":944.3,"uv_index":4.7,"wind_gusts":56.9,"aqi":26,"pm10":13.3,"pm2_5":7.2,"no2":3.3,"co":153.0,"o3":57.0,"so2":3.5,"mosquito_risk":10,"arthritis_risk":5,"migraine_risk":3,"frizz_risk":1,"updated_at":"2026-07-21T14:58:27.781228+05:30"},{"city":"Ahmedabad","state":"Gujarat","latitude":23.0225,"longitude":72.5714,"temp":33.6,"humidity":56,"rain":0.0,"pressure":994.4,"uv_index":4.85,"wind_gusts":34.2,"aqi":62,"pm10":38.2,"pm2_5":17.2,"no2":3.7,"co":149.0,"o3":75.0,"so2":5.6,"mosquito_risk":0,"arthritis_risk":5,"migraine_risk":3,"frizz_risk":1,"updated_at":"2026-07-21T14:58:27.781235+05:30"},{"city":"Jaipur","state":"Rajasthan","latitude":26.9124,"longitude":75.7873,"temp":26.3,"humidity":92,"rain":0.3,"pressure":952.8,"uv_index":1.1,"wind_gusts":23.8,"aqi":67,"pm10":26.2,"pm2_5":13.7,"no2":7.2,"co":237.0,"o3":90.0,"so2":4.5,"mosquito_risk":10,"arthritis_risk":5,"migraine_risk":3,"frizz_risk":1,"updated_at":"2026-07-21T14:58:27.781240+05:30"},{"city":"Lucknow","state":"Uttar Pradesh","latitude":26.8467,"longitude":80.9462,"temp":31.0,"humidity":74,"rain":0.0,"pressure":986.7,"uv_index":6.95,"wind_gusts":38.9,"aqi":66,"pm10":11.6,"pm2_5":11.5,"no2":3.0,"co":316.0,"o3":127.0,"so2":7.4,"mosquito_risk":3,"arthritis_risk":5,"migraine_risk":7,"frizz_risk":1,"updated_at":"2026-07-21T14:58:27.781249+05:30"},{"city":"Kanpur","state":"Uttar Pradesh","latitude":26.4499,"longitude":80.3319,"temp":27.4,"humidity":91,"rain":0.1,"pressure":985.2,"uv_index":6.95,"wind_gusts":32.4,"aqi":69,"pm10":6.9,"pm2_5":6.7,"no2":4.8,"co":213.0,"o3":118.0,"so2":6.3,"mosquito_risk":10,"arthritis_risk":5,"migraine_risk":7,"frizz_risk":1,"updated_at":"2026-07-21T14:58:27.781255+05:30"},{"city":"Chandigarh","state":"Chandigarh","latitude":30.7333,"longitude":76.7794,"temp":30.4,"humidity":71,"rain":0.0,"pressure":963.7,"uv_index":6.5,"wind_gusts":33.1,"aqi":71,"pm10":15.4,"pm2_5":15.4,"no2":10.0,"co":404.0,"o3":113.0,"so2":6.5,"mosquito_risk":3,"arthritis_risk":5,"migraine_risk":7,"frizz_risk":1,"updated_at":"2026-07-21T14:58:27.781262+05:30"},{"city":"Srinagar","state":"Jammu and Kashmir","latitude":34.0837,"longitude":74.7973,"temp":20.3,"humidity":94,"rain":0.4,"pressure":839.5,"uv_index":8.15,"wind_gusts":21.2,"aqi":53,"pm10":8.1,"pm2_5":7.9,"no2":8.7,"co":620.0,"o3":91.0,"so2":3.0,"mosquito_risk":6,"arthritis_risk":5,"migraine_risk":7,"frizz_risk":1,"updated_at":"2026-07-21T14:58:27.781268+05:30"},{"city":"Jammu","state":"Jammu and Kashmir","latitude":32.7266,"longitude":74.857,"temp":26.8,"humidity":91,"rain":0.1,"pressure":967.9,"uv_index":6.8,"wind_gusts":32.4,"aqi":94,"pm10":19.8,"pm2_5":12.4,"no2":7.5,"co":308.0,"o3":96.0,"so2":4.4,"mosquito_risk":10,"arthritis_risk":5,"migraine_risk":7,"frizz_risk":1,"updated_at":"2026-07-21T14:58:27.781273+05:30"},{"city":"Amritsar","state":"Punjab","latitude":31.634,"longitude":74.8723,"temp":32.0,"humidity":68,"rain":0.0,"pressure":974.7,"uv_index":8.05,"wind_gusts":42.5,"aqi":122,"pm10":49.0,"pm2_5":24.6,"no2":4.2,"co":336.0,"o3":110.0,"so2":4.7,"mosquito_risk":3,"arthritis_risk":5,"migraine_risk":7,"frizz_risk":1,"updated_at":"2026-07-21T14:58:27.781278+05:30"},{"city":"Ludhiana","state":"Punjab","latitude":30.901,"longitude":75.8573,"temp":31.3,"humidity":69,"rain":0.0,"pressure":972.8,"uv_index":3.75,"wind_gusts":42.1,"aqi":88,"pm10":20.1,"pm2_5":19.7,"no2":7.7,"co":376.0,"o3":114.0,"so2":8.2,"mosquito_risk":3,"arthritis_risk":5,"migraine_risk":3,"frizz_risk":1,"updated_at":"2026-07-21T14:58:27.781283+05:30"},{"city":"Jalandhar","state":"Punjab","latitude":31.326,"longitude":75.5762,"temp":31.8,"humidity":65,"rain":0.0,"pressure":973.8,"uv_index":5.1,"wind_gusts":38.2,"aqi":95,"pm10":18.2,"pm2_5":15.9,"no2":5.3,"co":365.0,"o3":130.0,"so2":7.2,"mosquito_risk":3,"arthritis_risk":5,"migraine_risk":3,"frizz_risk":1,"updated_at":"2026-07-21T14:58:27.781290+05:30"},{"city":"Dehradun","state":"Uttarakhand","latitude":30.6284,"longitude":78.0322,"temp":22.4,"humidity":85,"rain":0.1,"pressure":829.1,"uv_index":2.35,"wind_gusts":25.2,"aqi":58,"pm10":3.0,"pm2_5":2.9,"no2":3.4,"co":236.0,"o3":111.0,"so2":1.1,"mosquito_risk":6,"arthritis_risk":5,"migraine_risk":3,"frizz_risk":1,"updated_at":"2026-07-21T14:58:27.781296+05:30"},{"city":"Shimla","state":"Himachal Pradesh","latitude":31.1048,"longitude":77.1734,"temp":18.6,"humidity":94,"rain":0.1,"pressure":783.7,"uv_index":3.8,"wind_gusts":21.2,"aqi":49,"pm10":4.1,"pm2_5":4.0,"no2":5.6,"co":282.0,"o3":106.0,"so2":1.0,"mosquito_risk":6,"arthritis_risk":10,"migraine_risk":3,"frizz_risk":1,"updated_at":"2026-07-21T14:58:27.781302+05:30"},{"city":"Manali","state":"Himachal Pradesh","latitude":32.2396,"longitude":77.1887,"temp":21.3,"humidity":98,"rain":0.3,"pressure":818.5,"uv_index":5.8,"wind_gusts":24.1,"aqi":42,"pm10":1.2,"pm2_5":1.1,"no2":4.1,"co":198.0,"o3":101.0,"so2":0.5,"mosquito_risk":6,"arthritis_risk":5,"migraine_risk":3,"frizz_risk":1,"updated_at":"2026-07-21T14:58:27.781309+05:30"},{"city":"Gurgaon","state":"Haryana","latitude":28.4595,"longitude":77.0266,"temp":31.0,"humidity":72,"rain":0.0,"pressure":974.2,"uv_index":4.7,"wind_gusts":29.2,"aqi":97,"pm10":13.5,"pm2_5":12.7,"no2":7.9,"co":480.0,"o3":129.0,"so2":13.3,"mosquito_risk":3,"arthritis_risk":5,"migraine_risk":3,"frizz_risk":1,"updated_at":"2026-07-21T14:58:27.781315+05:30"},{"city":"Noida","state":"Uttar Pradesh","latitude":28.5355,"longitude":77.391,"temp":30.9,"humidity":72,"rain":0.1,"pressure":977.4,"uv_index":3.45,"wind_gusts":31.7,"aqi":97,"pm10":13.5,"pm2_5":12.7,"no2":7.9,"co":337.0,"o3":129.0,"so2":13.3,"mosquito_risk":6,"arthritis_risk":5,"migraine_risk":3,"frizz_risk":1,"updated_at":"2026-07-21T14:58:27.781320+05:30"},{"city":"Ghaziabad","state":"Uttar Pradesh","latitude":28.6692,"longitude":77.4538,"temp":30.5,"humidity":73,"rain":0.1,"pressure":975.7,"uv_index":2.6,"wind_gusts":33.5,"aqi":87,"pm10":10.6,"pm2_5":10.5,"no2":4.5,"co":285.0,"o3":129.0,"so2":9.8,"mosquito_risk":6,"arthritis_risk":5,"migraine_risk":3,"frizz_risk":1,"updated_at":"2026-07-21T14:58:27.781324+05:30"},{"city":"Faridabad","state":"Haryana","latitude":28.4089,"longitude":77.3178,"temp":31.1,"humidity":71,"rain":0.0,"pressure":976.6,"uv_index":3.6,"wind_gusts":32.8,"aqi":97,"pm10":13.5,"pm2_5":12.7,"no2":7.9,"co":400.0,"o3":129.0,"so2":13.3,"mosquito_risk":3,"arthritis_risk":5,"migraine_risk":3,"frizz_risk":1,"updated_at":"2026-07-21T14:58:27.781329+05:30"},{"city":"Meerut","state":"Uttar Pradesh","latitude":28.9845,"longitude":77.7064,"temp":28.5,"humidity":86,"rain":0.0,"pressure":975.1,"uv_index":2.25,"wind_gusts":43.6,"aqi":87,"pm10":10.6,"pm2_5":10.5,"no2":4.5,"co":276.0,"o3":129.0,"so2":9.8,"mosquito_risk":7,"arthritis_risk":5,"migraine_risk":3,"frizz_risk":1,"updated_at":"2026-07-21T14:58:27.781334+05:30"},{"city":"Agra","state":"Uttar Pradesh","latitude":27.1767,"longitude":78.0081,"temp":31.5,"humidity":68,"rain":0.0,"pressure":980.5,"uv_index":7.05,"wind_gusts":20.9,"aqi":67,"pm10":23.4,"pm2_5":14.1,"no2":3.1,"co":261.0,"o3":138.0,"so2":4.4,"mosquito_risk":3,"arthritis_risk":5,"migraine_risk":7,"frizz_risk":1,"updated_at":"2026-07-21T14:58:27.781339+05:30"},{"city":"Varanasi","state":"Uttar Pradesh","latitude":25.3176,"longitude":82.9739,"temp":32.5,"humidity":65,"rain":0.1,"pressure":990.3,"uv_index":8.25,"wind_gusts":39.2,"aqi":73,"pm10":25.0,"pm2_5":23.3,"no2":2.7,"co":545.0,"o3":144.0,"so2":11.7,"mosquito_risk":6,"arthritis_risk":5,"migraine_risk":7,"frizz_risk":1,"updated_at":"2026-07-21T14:58:27.781345+05:30"},{"city":"Prayagraj","state":"Uttar Pradesh","latitude":25.4358,"longitude":81.8463,"temp":28.8,"humidity":83,"rain":0.4,"pressure":989.2,"uv_index":7.35,"wind_gusts":32.8,"aqi":67,"pm10":27.0,"pm2_5":26.2,"no2":3.5,"co":324.0,"o3":154.0,"so2":13.4,"mosquito_risk":10,"arthritis_risk":5,"migraine_risk":7,"frizz_risk":1,"updated_at":"2026-07-21T14:58:27.781350+05:30"},{"city":"Gorakhpur","state":"Uttar Pradesh","latitude":26.7606,"longitude":83.3732,"temp":32.2,"humidity":65,"rain":0.1,"pressure":991.0,"uv_index":7.65,"wind_gusts":40.7,"aqi":66,"pm10":18.8,"pm2_5":18.0,"no2":1.9,"co":271.0,"o3":134.0,"so2":4.2,"mosquito_risk":6,"arthritis_risk":5,"migraine_risk":7,"frizz_risk":1,"updated_at":"2026-07-21T14:58:27.781355+05:30"},{"city":"Bareilly","state":"Uttar Pradesh","latitude":28.367,"longitude":79.4304,"temp":30.9,"humidity":76,"rain":0.3,"pressure":980.4,"uv_index":3.85,"wind_gusts":50.8,"aqi":62,"pm10":11.7,"pm2_5":11.6,"no2":3.1,"co":302.0,"o3":125.0,"so2":8.6,"mosquito_risk":6,"arthritis_risk":5,"migraine_risk":3,"frizz_risk":1,"updated_at":"2026-07-21T14:58:27.781362+05:30"},{"city":"Aligarh","state":"Uttar Pradesh","latitude":27.8974,"longitude":78.088,"temp":31.0,"humidity":72,"rain":0.1,"pressure":978.3,"uv_index":6.85,"wind_gusts":27.7,"aqi":86,"pm10":12.6,"pm2_5":10.9,"no2":2.7,"co":222.0,"o3":140.0,"so2":7.6,"mosquito_risk":6,"arthritis_risk":5,"migraine_risk":7,"frizz_risk":1,"updated_at":"2026-07-21T14:58:27.781367+05:30"},{"city":"Moradabad","state":"Uttar Pradesh","latitude":28.8386,"longitude":78.7733,"temp":31.6,"humidity":72,"rain":0.0,"pressure":977.4,"uv_index":3.8,"wind_gusts":51.8,"aqi":63,"pm10":11.8,"pm2_5":11.8,"no2":3.4,"co":294.0,"o3":129.0,"so2":8.8,"mosquito_risk":3,"arthritis_risk":5,"migraine_risk":3,"frizz_risk":1,"updated_at":"2026-07-21T14:58:27.781372+05:30"},{"city":"Saharanpur","state":"Uttar Pradesh","latitude":29.9637,"longitude":77.546,"temp":31.3,"humidity":67,"rain":0.0,"pressure":970.1,"uv_index":6.4,"wind_gusts":46.1,"aqi":81,"pm10":11.2,"pm2_5":11.1,"no2":2.3,"co":312.0,"o3":122.0,"so2":3.7,"mosquito_risk":3,"arthritis_risk":5,"migraine_risk":7,"frizz_risk":1,"updated_at":"2026-07-21T14:58:27.781377+05:30"},{"city":"Jhansi","state":"Uttar Pradesh","latitude":25.4484,"longitude":78.5685,"temp":31.1,"humidity":66,"rain":0.0,"pressure":970.9,"uv_index":3.8,"wind_gusts":15.8,"aqi":66,"pm10":39.1,"pm2_5":19.0,"no2":2.0,"co":162.0,"o3":128.0,"so2":9.1,"mosquito_risk":3,"arthritis_risk":5,"migraine_risk":3,"frizz_risk":1,"updated_at":"2026-07-21T14:58:31.152348+05:30"},{"city":"Surat","state":"Gujarat","latitude":21.1702,"longitude":72.8311,"temp":29.1,"humidity":83,"rain":0.0,"pressure":1000.3,"uv_index":4.7,"wind_gusts":52.2,"aqi":68,"pm10":29.5,"pm2_5":18.8,"no2":15.3,"co":363.0,"o3":42.0,"so2":36.9,"mosquito_risk":7,"arthritis_risk":5,"migraine_risk":0,"frizz_risk":1,"updated_at":"2026-07-21T14:58:31.152379+05:30"},{"city":"Vadodara","state":"Gujarat","latitude":22.3072,"longitude":73.1812,"temp":29.2,"humidity":79,"rain":0.1,"pressure":997.3,"uv_index":6.3,"wind_gusts":34.9,"aqi":59,"pm10":32.8,"pm2_5":14.7,"no2":3.4,"co":171.0,"o3":68.0,"so2":4.2,"mosquito_risk":10,"arthritis_risk":5,"migraine_risk":7,"frizz_risk":1,"updated_at":"2026-07-21T14:58:31.152389+05:30"},{"city":"Rajkot","state":"Gujarat","latitude":22.3039,"longitude":70.8022,"temp":30.9,"humidity":69,"rain":0.1,"pressure":986.5,"uv_index":4.9,"wind_gusts":38.9,"aqi":62,"pm10":35.6,"pm2_5":16.0,"no2":1.5,"co":102.0,"o3":77.0,"so2":3.9,"mosquito_risk":6,"arthritis_risk":5,"migraine_risk":3,"frizz_risk":1,"updated_at":"2026-07-21T14:58:31.152397+05:30"},{"city":"Thane","state":"Maharashtra","latitude":19.2183,"longitude":72.9781,"temp":28.7,"humidity":79,"rain":0.1,"pressure":1003.7,"uv_index":6.35,"wind_gusts":46.8,"aqi":64,"pm10":43.9,"pm2_5":20.0,"no2":7.3,"co":268.0,"o3":59.0,"so2":6.3,"mosquito_risk":10,"arthritis_risk":5,"migraine_risk":4,"frizz_risk":1,"updated_at":"2026-07-21T14:58:31.152403+05:30"},{"city":"Nagpur","state":"Maharashtra","latitude":21.1458,"longitude":79.0882,"temp":25.9,"humidity":93,"rain":0.2,"pressure":967.6,"uv_index":0.95,"wind_gusts":31.3,"aqi":53,"pm10":12.2,"pm2_5":9.2,"no2":9.3,"co":220.0,"o3":59.0,"so2":12.1,"mosquito_risk":10,"arthritis_risk":5,"migraine_risk":3,"frizz_risk":1,"updated_at":"2026-07-21T14:58:31.152409+05:30"},{"city":"Nashik","state":"Maharashtra","latitude":19.9975,"longitude":73.7898,"temp":25.3,"humidity":86,"rain":0.1,"pressure":940.6,"uv_index":3.5,"wind_gusts":57.2,"aqi":23,"pm10":12.9,"pm2_5":6.9,"no2":2.5,"co":143.0,"o3":55.0,"so2":1.9,"mosquito_risk":10,"arthritis_risk":5,"migraine_risk":3,"frizz_risk":1,"updated_at":"2026-07-21T14:58:31.152416+05:30"},{"city":"Aurangabad","state":"Maharashtra","latitude":19.8762,"longitude":75.3433,"temp":25.3,"humidity":84,"rain":0.2,"pressure":939.3,"uv_index":2.95,"wind_gusts":50.8,"aqi":28,"pm10":11.8,"pm2_5":6.8,"no2":2.0,"co":126.0,"o3":73.0,"so2":5.1,"mosquito_risk":10,"arthritis_risk":5,"migraine_risk":3,"frizz_risk":1,"updated_at":"2026-07-21T14:58:31.152421+05:30"},{"city":"Solapur","state":"Maharashtra","latitude":17.6599,"longitude":75.9064,"temp":28.4,"humidity":64,"rain":0.0,"pressure":953.9,"uv_index":4.65,"wind_gusts":53.3,"aqi":32,"pm10":23.7,"pm2_5":9.4,"no2":1.0,"co":125.0,"o3":69.0,"so2":1.5,"mosquito_risk":7,"arthritis_risk":5,"migraine_risk":3,"frizz_risk":1,"updated_at":"2026-07-21T14:58:31.152427+05:30"},{"city":"Kolhapur","state":"Maharashtra","latitude":16.705,"longitude":74.2433,"temp":24.7,"humidity":84,"rain":0.0,"pressure":946.0,"uv_index":6.65,"wind_gusts":54.4,"aqi":30,"pm10":13.6,"pm2_5":7.1,"no2":2.0,"co":125.0,"o3":55.0,"so2":1.6,"mosquito_risk":3,"arthritis_risk":5,"migraine_risk":7,"frizz_risk":1,"updated_at":"2026-07-21T14:58:31.152433+05:30"},{"city":"Goa","state":"Goa","latitude":15.2993,"longitude":74.124,"temp":25.5,"humidity":93,"rain":0.1,"pressure":997.8,"uv_index":7.65,"wind_gusts":33.5,"aqi":58,"pm10":18.8,"pm2_5":9.7,"no2":0.8,"co":111.0,"o3":53.0,"so2":1.0,"mosquito_risk":10,"arthritis_risk":5,"migraine_risk":7,"frizz_risk":1,"updated_at":"2026-07-21T14:58:31.152439+05:30"},{"city":"Jodhpur","state":"Rajasthan","latitude":26.2389,"longitude":73.0243,"temp":36.5,"humidity":42,"rain":0.0,"pressure":975.2,"uv_index":7.15,"wind_gusts":35.6,"aqi":88,"pm10":108.7,"pm2_5":30.2,"no2":0.9,"co":115.0,"o3":89.0,"so2":1.8,"mosquito_risk":0,"arthritis_risk":5,"migraine_risk":10,"frizz_risk":1,"updated_at":"2026-07-21T14:58:31.152444+05:30"},{"city":"Udaipur","state":"Rajasthan","latitude":24.5854,"longitude":73.7125,"temp":25.4,"humidity":94,"rain":0.0,"pressure":939.8,"uv_index":3.0,"wind_gusts":28.4,"aqi":57,"pm10":36.3,"pm2_5":15.3,"no2":1.2,"co":115.0,"o3":78.0,"so2":3.1,"mosquito_risk":7,"arthritis_risk":5,"migraine_risk":3,"frizz_risk":1,"updated_at":"2026-07-21T14:58:31.152449+05:30"},{"city":"Kota","state":"Rajasthan","latitude":25.2138,"longitude":75.8648,"temp":28.5,"humidity":85,"rain":0.1,"pressure":972.1,"uv_index":2.7,"wind_gusts":28.8,"aqi":65,"pm10":12.8,"pm2_5":9.9,"no2":3.4,"co":175.0,"o3":93.0,"so2":5.5,"mosquito_risk":10,"arthritis_risk":5,"migraine_risk":3,"frizz_risk":1,"updated_at":"2026-07-21T14:58:31.152455+05:30"},{"city":"Bikaner","state":"Rajasthan","latitude":28.0229,"longitude":73.3119,"temp":39.9,"humidity":34,"rain":0.0,"pressure":973.1,"uv_index":8.15,"wind_gusts":36.4,"aqi":83,"pm10":90.6,"pm2_5":27.7,"no2":0.6,"co":115.0,"o3":87.0,"so2":2.9,"mosquito_risk":0,"arthritis_risk":5,"migraine_risk":10,"frizz_risk":1,"updated_at":"2026-07-21T14:58:31.152461+05:30"},{"city":"Ajmer","state":"Rajasthan","latitude":26.4499,"longitude":74.6399,"temp":27.2,"humidity":87,"rain":0.1,"pressure":948.0,"uv_index":4.55,"wind_gusts":31.0,"aqi":59,"pm10":40.9,"pm2_5":19.2,"no2":1.9,"co":128.0,"o3":99.0,"so2":2.9,"mosquito_risk":10,"arthritis_risk":5,"migraine_risk":3,"frizz_risk":1,"updated_at":"2026-07-21T14:58:31.152466+05:30"},{"city":"Gwalior","state":"Madhya Pradesh","latitude":26.2183,"longitude":78.1828,"temp":31.0,"humidity":68,"rain":0.0,"pressure":976.0,"uv_index":5.45,"wind_gusts":17.6,"aqi":60,"pm10":27.2,"pm2_5":15.5,"no2":1.5,"co":171.0,"o3":118.0,"so2":3.7,"mosquito_risk":3,"arthritis_risk":5,"migraine_risk":3,"frizz_risk":1,"updated_at":"2026-07-21T14:58:31.152471+05:30"},{"city":"Indore","state":"Madhya Pradesh","latitude":22.7196,"longitude":75.8577,"temp":25.6,"humidity":89,"rain":0.1,"pressure":941.9,"uv_index":5.65,"wind_gusts":32.8,"aqi":52,"pm10":18.3,"pm2_5":11.5,"no2":6.2,"co":209.0,"o3":56.0,"so2":6.2,"mosquito_risk":10,"arthritis_risk":5,"migraine_risk":3,"frizz_risk":1,"updated_at":"2026-07-21T14:58:31.152477+05:30"},{"city":"Bhopal","state":"Madhya Pradesh","latitude":23.2599,"longitude":77.4126,"temp":25.9,"humidity":88,"rain":0.1,"pressure":947.1,"uv_index":1.15,"wind_gusts":31.3,"aqi":59,"pm10":6.0,"pm2_5":5.8,"no2":6.2,"co":235.0,"o3":58.0,"so2":2.7,"mosquito_risk":10,"arthritis_risk":5,"migraine_risk":3,"frizz_risk":1,"updated_at":"2026-07-21T14:58:31.152482+05:30"},{"city":"Jabalpur","state":"Madhya Pradesh","latitude":23.1815,"longitude":79.9864,"temp":27.4,"humidity":82,"rain":0.1,"pressure":954.9,"uv_index":5.2,"wind_gusts":20.9,"aqi":52,"pm10":4.3,"pm2_5":3.9,"no2":2.1,"co":173.0,"o3":95.0,"so2":2.3,"mosquito_risk":10,"arthritis_risk":5,"migraine_risk":3,"frizz_risk":1,"updated_at":"2026-07-21T14:58:31.152487+05:30"},{"city":"Ujjain","state":"Madhya Pradesh","latitude":23.1765,"longitude":75.7885,"temp":25.1,"humidity":93,"rain":0.4,"pressure":947.4,"uv_index":1.8,"wind_gusts":27.0,"aqi":52,"pm10":14.6,"pm2_5":9.1,"no2":3.9,"co":188.0,"o3":60.0,"so2":5.3,"mosquito_risk":10,"arthritis_risk":5,"migraine_risk":3,"frizz_risk":1,"updated_at":"2026-07-21T14:58:31.152493+05:30"},{"city":"Visakhapatnam","state":"Andhra Pradesh","latitude":17.6868,"longitude":83.2185,"temp":31.2,"humidity":65,"rain":0.0,"pressure":998.1,"uv_index":8.35,"wind_gusts":40.7,"aqi":68,"pm10":17.3,"pm2_5":13.9,"no2":12.1,"co":338.0,"o3":92.0,"so2":28.2,"mosquito_risk":3,"arthritis_risk":5,"migraine_risk":7,"frizz_risk":1,"updated_at":"2026-07-21T14:58:31.152498+05:30"},{"city":"Vijayawada","state":"Andhra Pradesh","latitude":16.5062,"longitude":80.648,"temp":33.0,"humidity":52,"rain":0.0,"pressure":998.9,"uv_index":5.0,"wind_gusts":49.3,"aqi":58,"pm10":34.2,"pm2_5":17.0,"no2":2.0,"co":132.0,"o3":85.0,"so2":4.3,"mosquito_risk":0,"arthritis_risk":5,"migraine_risk":3,"frizz_risk":1,"updated_at":"2026-07-21T14:58:31.152503+05:30"},{"city":"Guntur","state":"Andhra Pradesh","latitude":16.3067,"longitude":80.4365,"temp":35.2,"humidity":41,"rain":0.0,"pressure":1000.0,"uv_index":4.75,"wind_gusts":51.8,"aqi":55,"pm10":35.3,"pm2_5":16.8,"no2":1.5,"co":127.0,"o3":85.0,"so2":3.6,"mosquito_risk":0,"arthritis_risk":5,"migraine_risk":3,"frizz_risk":1,"updated_at":"2026-07-21T14:58:31.152508+05:30"},{"city":"Nellore","state":"Andhra Pradesh","latitude":14.4426,"longitude":79.9865,"temp":35.2,"humidity":44,"rain":0.0,"pressure":1002.6,"uv_index":6.7,"wind_gusts":40.3,"aqi":55,"pm10":35.3,"pm2_5":16.3,"no2":2.1,"co":116.0,"o3":90.0,"so2":4.8,"mosquito_risk":0,"arthritis_risk":5,"migraine_risk":7,"frizz_risk":1,"updated_at":"2026-07-21T14:58:31.152514+05:30"},{"city":"Kurnool","state":"Andhra Pradesh","latitude":15.8281,"longitude":78.0373,"temp":33.1,"humidity":48,"rain":0.0,"pressure":973.9,"uv_index":4.55,"wind_gusts":52.2,"aqi":45,"pm10":30.0,"pm2_5":12.1,"no2":1.2,"co":127.0,"o3":77.0,"so2":1.9,"mosquito_risk":0,"arthritis_risk":5,"migraine_risk":3,"frizz_risk":1,"updated_at":"2026-07-21T14:58:31.152520+05:30"},{"city":"Kakinada","state":"Andhra Pradesh","latitude":16.9891,"longitude":82.2475,"temp":31.2,"humidity":63,"rain":0.0,"pressure":1003.1,"uv_index":6.85,"wind_gusts":55.1,"aqi":57,"pm10":21.2,"pm2_5":12.4,"no2":2.3,"co":195.0,"o3":95.0,"so2":3.8,"mosquito_risk":3,"arthritis_risk":5,"migraine_risk":4,"frizz_risk":1,"updated_at":"2026-07-21T14:58:31.152526+05:30"},{"city":"Tirupati","state":"Andhra Pradesh","latitude":13.6288,"longitude":79.4192,"temp":34.7,"humidity":43,"rain":0.0,"pressure":988.1,"uv_index":8.35,"wind_gusts":34.2,"aqi":55,"pm10":31.4,"pm2_5":13.2,"no2":1.0,"co":115.0,"o3":73.0,"so2":1.1,"mosquito_risk":0,"arthritis_risk":5,"migraine_risk":7,"frizz_risk":1,"updated_at":"2026-07-21T14:58:31.152531+05:30"},{"city":"Warangal","state":"Telangana","latitude":17.9689,"longitude":79.5941,"temp":28.6,"humidity":69,"rain":0.0,"pressure":975.6,"uv_index":3.8,"wind_gusts":46.8,"aqi":44,"pm10":17.2,"pm2_5":10.2,"no2":3.2,"co":141.0,"o3":58.0,"so2":2.6,"mosquito_risk":7,"arthritis_risk":5,"migraine_risk":3,"frizz_risk":1,"updated_at":"2026-07-21T14:58:31.152536+05:30"},{"city":"Nizamabad","state":"Telangana","latitude":18.6725,"longitude":78.0941,"temp":25.9,"humidity":90,"rain":0.2,"pressure":961.0,"uv_index":2.55,"wind_gusts":39.2,"aqi":40,"pm10":10.8,"pm2_5":8.4,"no2":5.9,"co":121.0,"o3":50.0,"so2":6.1,"mosquito_risk":10,"arthritis_risk":5,"migraine_risk":3,"frizz_risk":1,"updated_at":"2026-07-21T14:58:31.152541+05:30"},{"city":"Mysore","state":"Karnataka","latitude":12.2958,"longitude":76.6396,"temp":27.1,"humidity":66,"rain":0.0,"pressure":928.3,"uv_index":7.95,"wind_gusts":47.2,"aqi":30,"pm10":14.3,"pm2_5":7.2,"no2":1.8,"co":124.0,"o3":71.0,"so2":1.4,"mosquito_risk":7,"arthritis_risk":5,"migraine_risk":7,"frizz_risk":1,"updated_at":"2026-07-21T14:58:31.152547+05:30"},{"city":"Mangalore","state":"Karnataka","latitude":12.9141,"longitude":74.856,"temp":28.6,"humidity":80,"rain":0.0,"pressure":1007.4,"uv_index":7.75,"wind_gusts":32.4,"aqi":52,"pm10":16.2,"pm2_5":8.9,"no2":1.2,"co":103.0,"o3":57.0,"so2":2.0,"mosquito_risk":7,"arthritis_risk":5,"migraine_risk":4,"frizz_risk":1,"updated_at":"2026-07-21T14:58:31.152553+05:30"},{"city":"Hubli-Dharwad","state":"Karnataka","latitude":15.3647,"longitude":75.124,"temp":28.0,"humidity":61,"rain":0.0,"pressure":939.9,"uv_index":5.55,"wind_gusts":58.0,"aqi":21,"pm10":11.3,"pm2_5":5.8,"no2":1.7,"co":106.0,"o3":58.0,"so2":1.1,"mosquito_risk":7,"arthritis_risk":5,"migraine_risk":3,"frizz_risk":1,"updated_at":"2026-07-21T14:58:31.152558+05:30"},{"city":"Belgaum","state":"Karnataka","latitude":15.8497,"longitude":74.4977,"temp":24.2,"humidity":81,"rain":0.0,"pressure":924.6,"uv_index":8.15,"wind_gusts":54.7,"aqi":23,"pm10":14.2,"pm2_5":6.8,"no2":1.3,"co":116.0,"o3":55.0,"so2":1.4,"mosquito_risk":3,"arthritis_risk":5,"migraine_risk":7,"frizz_risk":1,"updated_at":"2026-07-21T14:58:34.506430+05:30"},{"city":"Coimbatore","state":"Tamil Nadu","latitude":11.0168,"longitude":76.9558,"temp":31.6,"humidity":53,"rain":0.0,"pressure":960.8,"uv_index":8.8,"wind_gusts":51.1,"aqi":38,"pm10":14.8,"pm2_5":7.9,"no2":1.6,"co":146.0,"o3":73.0,"so2":2.1,"mosquito_risk":0,"arthritis_risk":5,"migraine_risk":7,"frizz_risk":1,"updated_at":"2026-07-21T14:58:34.506460+05:30"},{"city":"Madurai","state":"Tamil Nadu","latitude":9.9252,"longitude":78.1198,"temp":38.0,"humidity":29,"rain":0.0,"pressure":990.3,"uv_index":8.45,"wind_gusts":29.2,"aqi":57,"pm10":30.0,"pm2_5":14.0,"no2":2.3,"co":150.0,"o3":110.0,"so2":3.1,"mosquito_risk":0,"arthritis_risk":5,"migraine_risk":10,"frizz_risk":1,"updated_at":"2026-07-21T14:58:34.506470+05:30"},{"city":"Trichy","state":"Tamil Nadu","latitude":10.7905,"longitude":78.7047,"temp":38.1,"humidity":31,"rain":0.0,"pressure":996.6,"uv_index":8.75,"wind_gusts":46.1,"aqi":43,"pm10":20.6,"pm2_5":10.4,"no2":1.9,"co":117.0,"o3":81.0,"so2":2.3,"mosquito_risk":0,"arthritis_risk":5,"migraine_risk":10,"frizz_risk":1,"updated_at":"2026-07-21T14:58:34.506477+05:30"},{"city":"Salem","state":"Tamil Nadu","latitude":11.6643,"longitude":78.146,"temp":33.2,"humidity":49,"rain":0.0,"pressure":975.5,"uv_index":8.15,"wind_gusts":23.8,"aqi":58,"pm10":32.2,"pm2_5":16.0,"no2":2.2,"co":131.0,"o3":106.0,"so2":5.7,"mosquito_risk":0,"arthritis_risk":5,"migraine_risk":7,"frizz_risk":1,"updated_at":"2026-07-21T14:58:34.506483+05:30"},{"city":"Tirunelveli","state":"Tamil Nadu","latitude":8.7139,"longitude":77.7567,"temp":38.0,"humidity":31,"rain":0.0,"pressure":1001.1,"uv_index":8.6,"wind_gusts":41.8,"aqi":40,"pm10":15.7,"pm2_5":10.8,"no2":1.7,"co":108.0,"o3":86.0,"so2":1.7,"mosquito_risk":0,"arthritis_risk":5,"migraine_risk":7,"frizz_risk":1,"updated_at":"2026-07-21T14:58:34.506489+05:30"},{"city":"Vellore","state":"Tamil Nadu","latitude":12.9165,"longitude":79.1325,"temp":31.1,"humidity":57,"rain":0.0,"pressure":982.0,"uv_index":8.0,"wind_gusts":39.6,"aqi":60,"pm10":26.3,"pm2_5":13.6,"no2":2.0,"co":168.0,"o3":91.0,"so2":2.5,"mosquito_risk":0,"arthritis_risk":5,"migraine_risk":7,"frizz_risk":1,"updated_at":"2026-07-21T14:58:34.506495+05:30"},{"city":"Erode","state":"Tamil Nadu","latitude":11.341,"longitude":77.7172,"temp":36.8,"humidity":35,"rain":0.0,"pressure":986.7,"uv_index":8.55,"wind_gusts":40.0,"aqi":52,"pm10":21.7,"pm2_5":11.9,"no2":2.2,"co":153.0,"o3":99.0,"so2":2.5,"mosquito_risk":0,"arthritis_risk":5,"migraine_risk":10,"frizz_risk":1,"updated_at":"2026-07-21T14:58:34.506502+05:30"},{"city":"Kochi","state":"Kerala","latitude":9.9312,"longitude":76.2673,"temp":28.8,"humidity":80,"rain":0.0,"pressure":1009.2,"uv_index":8.65,"wind_gusts":30.2,"aqi":56,"pm10":12.9,"pm2_5":8.5,"no2":2.6,"co":119.0,"o3":66.0,"so2":3.4,"mosquito_risk":7,"arthritis_risk":0,"migraine_risk":4,"frizz_risk":1,"updated_at":"2026-07-21T14:58:34.506508+05:30"},{"city":"Thiruvananthapuram","state":"Kerala","latitude":8.5241,"longitude":76.9366,"temp":29.3,"humidity":76,"rain":0.0,"pressure":1008.3,"uv_index":7.9,"wind_gusts":36.7,"aqi":53,"pm10":15.3,"pm2_5":10.1,"no2":2.4,"co":105.0,"o3":71.0,"so2":1.7,"mosquito_risk":7,"arthritis_risk":0,"migraine_risk":4,"frizz_risk":1,"updated_at":"2026-07-21T14:58:34.506513+05:30"},{"city":"Kozhikode","state":"Kerala","latitude":11.2588,"longitude":75.7804,"temp":28.7,"humidity":78,"rain":0.0,"pressure":1008.6,"uv_index":8.2,"wind_gusts":30.2,"aqi":35,"pm10":10.7,"pm2_5":6.1,"no2":0.6,"co":122.0,"o3":58.0,"so2":1.4,"mosquito_risk":7,"arthritis_risk":0,"migraine_risk":4,"frizz_risk":1,"updated_at":"2026-07-21T14:58:34.506518+05:30"},{"city":"Thrissur","state":"Kerala","latitude":10.5276,"longitude":76.2144,"temp":29.9,"humidity":72,"rain":0.0,"pressure":1007.4,"uv_index":8.3,"wind_gusts":32.0,"aqi":53,"pm10":11.1,"pm2_5":7.1,"no2":1.6,"co":108.0,"o3":59.0,"so2":2.0,"mosquito_risk":7,"arthritis_risk":5,"migraine_risk":4,"frizz_risk":1,"updated_at":"2026-07-21T14:58:34.506525+05:30"},{"city":"Kannur","state":"Kerala","latitude":11.8745,"longitude":75.3704,"temp":28.4,"humidity":79,"rain":0.0,"pressure":1008.0,"uv_index":8.05,"wind_gusts":29.2,"aqi":43,"pm10":13.5,"pm2_5":7.5,"no2":1.5,"co":108.0,"o3":56.0,"so2":1.7,"mosquito_risk":7,"arthritis_risk":0,"migraine_risk":4,"frizz_risk":1,"updated_at":"2026-07-21T14:58:34.506531+05:30"},{"city":"Patna","state":"Bihar","latitude":25.5941,"longitude":85.1376,"temp":32.3,"humidity":61,"rain":0.1,"pressure":994.0,"uv_index":8.1,"wind_gusts":44.6,"aqi":70,"pm10":14.6,"pm2_5":14.1,"no2":2.9,"co":232.0,"o3":138.0,"so2":9.0,"mosquito_risk":6,"arthritis_risk":5,"migraine_risk":7,"frizz_risk":1,"updated_at":"2026-07-21T14:58:34.506537+05:30"},{"city":"Gaya","state":"Bihar","latitude":24.7914,"longitude":85.0002,"temp":32.9,"humidity":60,"rain":0.0,"pressure":986.8,"uv_index":8.25,"wind_gusts":37.4,"aqi":69,"pm10":9.1,"pm2_5":8.7,"no2":2.1,"co":287.0,"o3":116.0,"so2":6.0,"mosquito_risk":0,"arthritis_risk":5,"migraine_risk":7,"frizz_risk":1,"updated_at":"2026-07-21T14:58:34.506543+05:30"},{"city":"Muzaffarpur","state":"Bihar","latitude":26.1209,"longitude":85.3647,"temp":32.0,"humidity":68,"rain":0.0,"pressure":994.4,"uv_index":8.75,"wind_gusts":42.8,"aqi":70,"pm10":14.8,"pm2_5":14.3,"no2":2.6,"co":248.0,"o3":136.0,"so2":6.8,"mosquito_risk":3,"arthritis_risk":5,"migraine_risk":7,"frizz_risk":1,"updated_at":"2026-07-21T14:58:34.506548+05:30"},{"city":"Bhagalpur","state":"Bihar","latitude":25.2425,"longitude":87.0117,"temp":31.0,"humidity":71,"rain":0.0,"pressure":995.6,"uv_index":7.4,"wind_gusts":38.5,"aqi":61,"pm10":12.3,"pm2_5":12.2,"no2":5.5,"co":183.0,"o3":99.0,"so2":9.5,"mosquito_risk":3,"arthritis_risk":5,"migraine_risk":7,"frizz_risk":1,"updated_at":"2026-07-21T14:58:34.506553+05:30"},{"city":"Ranchi","state":"Jharkhand","latitude":23.3441,"longitude":85.3096,"temp":26.1,"humidity":80,"rain":0.0,"pressure":932.0,"uv_index":7.6,"wind_gusts":38.9,"aqi":64,"pm10":9.5,"pm2_5":9.3,"no2":12.9,"co":231.0,"o3":72.0,"so2":16.4,"mosquito_risk":7,"arthritis_risk":5,"migraine_risk":7,"frizz_risk":1,"updated_at":"2026-07-21T14:58:34.506559+05:30"},{"city":"Jamshedpur","state":"Jharkhand","latitude":22.8046,"longitude":86.2029,"temp":28.6,"humidity":79,"rain":0.2,"pressure":984.5,"uv_index":7.8,"wind_gusts":30.6,"aqi":69,"pm10":7.9,"pm2_5":7.7,"no2":5.3,"co":307.0,"o3":98.0,"so2":8.2,"mosquito_risk":10,"arthritis_risk":5,"migraine_risk":7,"frizz_risk":1,"updated_at":"2026-07-21T14:58:34.506565+05:30"},{"city":"Dhanbad","state":"Jharkhand","latitude":23.7957,"longitude":86.4304,"temp":27.2,"humidity":85,"rain":0.1,"pressure":974.3,"uv_index":5.8,"wind_gusts":37.1,"aqi":102,"pm10":17.5,"pm2_5":17.4,"no2":20.6,"co":374.0,"o3":77.0,"so2":53.9,"mosquito_risk":10,"arthritis_risk":5,"migraine_risk":3,"frizz_risk":1,"updated_at":"2026-07-21T14:58:34.506570+05:30"},{"city":"Bokaro","state":"Jharkhand","latitude":23.6693,"longitude":86.1511,"temp":27.7,"humidity":84,"rain":0.1,"pressure":978.0,"uv_index":6.15,"wind_gusts":41.4,"aqi":109,"pm10":18.0,"pm2_5":17.8,"no2":23.0,"co":477.0,"o3":80.0,"so2":62.3,"mosquito_risk":10,"arthritis_risk":5,"migraine_risk":7,"frizz_risk":1,"updated_at":"2026-07-21T14:58:34.506576+05:30"},{"city":"Bhubaneswar","state":"Odisha","latitude":20.2961,"longitude":85.8245,"temp":29.7,"humidity":82,"rain":0.1,"pressure":996.1,"uv_index":8.25,"wind_gusts":31.0,"aqi":80,"pm10":13.8,"pm2_5":12.6,"no2":4.8,"co":274.0,"o3":114.0,"so2":6.1,"mosquito_risk":10,"arthritis_risk":5,"migraine_risk":7,"frizz_risk":1,"updated_at":"2026-07-21T14:58:34.506581+05:30"},{"city":"Cuttack","state":"Odisha","latitude":20.4625,"longitude":85.8828,"temp":30.2,"humidity":81,"rain":0.0,"pressure":997.8,"uv_index":8.55,"wind_gusts":28.4,"aqi":80,"pm10":13.8,"pm2_5":12.6,"no2":4.8,"co":261.0,"o3":114.0,"so2":6.1,"mosquito_risk":3,"arthritis_risk":5,"migraine_risk":7,"frizz_risk":1,"updated_at":"2026-07-21T14:58:34.506587+05:30"},{"city":"Rourkela","state":"Odisha","latitude":22.2604,"longitude":84.8536,"temp":26.3,"humidity":92,"rain":0.2,"pressure":978.6,"uv_index":1.1,"wind_gusts":23.4,"aqi":90,"pm10":8.6,"pm2_5":8.2,"no2":10.7,"co":306.0,"o3":89.0,"so2":12.5,"mosquito_risk":10,"arthritis_risk":5,"migraine_risk":3,"frizz_risk":1,"updated_at":"2026-07-21T14:58:34.506593+05:30"},{"city":"Raipur","state":"Chhattisgarh","latitude":21.2514,"longitude":81.6296,"temp":25.9,"humidity":93,"rain":0.5,"pressure":968.8,"uv_index":1.55,"wind_gusts":34.9,"aqi":83,"pm10":22.4,"pm2_5":21.8,"no2":28.2,"co":478.0,"o3":45.0,"so2":60.1,"mosquito_risk":10,"arthritis_risk":5,"migraine_risk":3,"frizz_risk":1,"updated_at":"2026-07-21T14:58:34.506598+05:30"},{"city":"Bhilai","state":"Chhattisgarh","latitude":21.1938,"longitude":81.3509,"temp":25.5,"humidity":94,"rain":0.6,"pressure":969.4,"uv_index":1.75,"wind_gusts":38.5,"aqi":76,"pm10":19.3,"pm2_5":18.7,"no2":21.5,"co":963.0,"o3":57.0,"so2":52.9,"mosquito_risk":10,"arthritis_risk":5,"migraine_risk":3,"frizz_risk":1,"updated_at":"2026-07-21T14:58:34.506603+05:30"},{"city":"Guwahati","state":"Assam","latitude":26.1158,"longitude":91.7086,"temp":31.1,"humidity":76,"rain":0.1,"pressure":996.1,"uv_index":7.25,"wind_gusts":22.0,"aqi":45,"pm10":6.2,"pm2_5":6.1,"no2":1.7,"co":209.0,"o3":87.0,"so2":1.6,"mosquito_risk":6,"arthritis_risk":5,"migraine_risk":7,"frizz_risk":1,"updated_at":"2026-07-21T14:58:34.506609+05:30"},{"city":"Agartala","state":"Tripura","latitude":23.8315,"longitude":91.2868,"temp":28.7,"humidity":84,"rain":0.0,"pressure":1001.4,"uv_index":7.5,"wind_gusts":35.6,"aqi":50,"pm10":5.3,"pm2_5":5.2,"no2":3.5,"co":158.0,"o3":85.0,"so2":1.3,"mosquito_risk":7,"arthritis_risk":5,"migraine_risk":4,"frizz_risk":1,"updated_at":"2026-07-21T14:58:34.506614+05:30"},{"city":"Shillong","state":"Meghalaya","latitude":25.5788,"longitude":91.8933,"temp":23.9,"humidity":71,"rain":0.0,"pressure":855.6,"uv_index":6.95,"wind_gusts":20.9,"aqi":27,"pm10":3.3,"pm2_5":3.2,"no2":3.7,"co":162.0,"o3":62.0,"so2":1.5,"mosquito_risk":3,"arthritis_risk":5,"migraine_risk":7,"frizz_risk":1,"updated_at":"2026-07-21T14:58:34.506619+05:30"},{"city":"Imphal","state":"Manipur","latitude":24.817,"longitude":93.9368,"temp":28.1,"humidity":71,"rain":0.0,"pressure":919.7,"uv_index":8.8,"wind_gusts":25.9,"aqi":57,"pm10":4.5,"pm2_5":3.9,"no2":1.3,"co":166.0,"o3":72.0,"so2":0.9,"mosquito_risk":7,"arthritis_risk":5,"migraine_risk":7,"frizz_risk":1,"updated_at":"2026-07-21T14:58:34.506625+05:30"},{"city":"Aizawl","state":"Mizoram","latitude":23.7271,"longitude":92.7176,"temp":21.2,"humidity":96,"rain":0.1,"pressure":889.5,"uv_index":7.85,"wind_gusts":24.5,"aqi":32,"pm10":3.3,"pm2_5":3.0,"no2":1.2,"co":121.0,"o3":73.0,"so2":0.4,"mosquito_risk":6,"arthritis_risk":5,"migraine_risk":7,"frizz_risk":1,"updated_at":"2026-07-21T14:58:34.506631+05:30"},{"city":"Kohima","state":"Nagaland","latitude":25.6701,"longitude":94.1077,"temp":24.5,"humidity":84,"rain":0.0,"pressure":853.4,"uv_index":8.6,"wind_gusts":22.7,"aqi":33,"pm10":4.4,"pm2_5":4.1,"no2":1.3,"co":143.0,"o3":72.0,"so2":0.5,"mosquito_risk":3,"arthritis_risk":5,"migraine_risk":7,"frizz_risk":1,"updated_at":"2026-07-21T14:58:34.506637+05:30"},{"city":"Gangtok","state":"Sikkim","latitude":27.3314,"longitude":88.6138,"temp":19.8,"humidity":97,"rain":0.1,"pressure":836.5,"uv_index":6.8,"wind_gusts":25.6,"aqi":33,"pm10":1.8,"pm2_5":1.8,"no2":3.2,"co":181.0,"o3":70.0,"so2":0.6,"mosquito_risk":6,"arthritis_risk":10,"migraine_risk":7,"frizz_risk":1,"updated_at":"2026-07-21T14:58:34.506642+05:30"},{"city":"Siliguri","state":"West Bengal","latitude":26.7271,"longitude":88.3953,"temp":30.9,"humidity":67,"rain":0.0,"pressure":988.5,"uv_index":6.9,"wind_gusts":41.0,"aqi":48,"pm10":5.2,"pm2_5":5.1,"no2":2.2,"co":213.0,"o3":93.0,"so2":1.3,"mosquito_risk":3,"arthritis_risk":5,"migraine_risk":7,"frizz_risk":1,"updated_at":"2026-07-21T14:58:37.937337+05:30"},{"city":"Durgapur","state":"West Bengal","latitude":23.5204,"longitude":87.3119,"temp":27.6,"humidity":86,"rain":0.0,"pressure":989.1,"uv_index":6.35,"wind_gusts":35.3,"aqi":83,"pm10":10.6,"pm2_5":10.6,"no2":13.7,"co":207.0,"o3":84.0,"so2":27.8,"mosquito_risk":7,"arthritis_risk":5,"migraine_risk":7,"frizz_risk":1,"updated_at":"2026-07-21T14:58:37.937370+05:30"},{"city":"Asansol","state":"West Bengal","latitude":23.6739,"longitude":86.9524,"temp":28.2,"humidity":82,"rain":0.1,"pressure":987.8,"uv_index":7.95,"wind_gusts":34.6,"aqi":84,"pm10":12.1,"pm2_5":12.0,"no2":15.0,"co":271.0,"o3":84.0,"so2":30.5,"mosquito_risk":10,"arthritis_risk":5,"migraine_risk":7,"frizz_risk":1,"updated_at":"2026-07-21T14:58:37.937379+05:30"},{"city":"Pondicherry","state":"Puducherry","latitude":11.9139,"longitude":79.8145,"temp":32.4,"humidity":67,"rain":0.0,"pressure":1005.8,"uv_index":8.2,"wind_gusts":36.4,"aqi":85,"pm10":35.2,"pm2_5":26.4,"no2":10.4,"co":230.0,"o3":128.0,"so2":12.9,"mosquito_risk":3,"arthritis_risk":5,"migraine_risk":4,"frizz_risk":1,"updated_at":"2026-07-21T14:58:37.937386+05:30"},{"city":"Port Blair","state":"Andaman and Nicobar Islands","latitude":11.6234,"longitude":92.7265,"temp":30.4,"humidity":69,"rain":0.0,"pressure":1006.3,"uv_index":8.55,"wind_gusts":42.5,"aqi":58,"pm10":16.9,"pm2_5":10.0,"no2":0.2,"co":94.0,"o3":48.0,"so2":0.6,"mosquito_risk":3,"arthritis_risk":5,"migraine_risk":4,"frizz_risk":1,"updated_at":"2026-07-21T14:58:37.937392+05:30"},{"city":"Haridwar","state":"Uttarakhand","latitude":29.9457,"longitude":78.1642,"temp":31.9,"humidity":64,"rain":0.0,"pressure":968.6,"uv_index":6.65,"wind_gusts":33.1,"aqi":81,"pm10":9.5,"pm2_5":9.5,"no2":2.0,"co":272.0,"o3":114.0,"so2":3.9,"mosquito_risk":3,"arthritis_risk":5,"migraine_risk":7,"frizz_risk":1,"updated_at":"2026-07-21T14:58:37.937397+05:30"},{"city":"Rishikesh","state":"Uttarakhand","latitude":30.0869,"longitude":78.2676,"temp":30.3,"humidity":74,"rain":0.0,"pressure":961.6,"uv_index":4.6,"wind_gusts":21.2,"aqi":55,"pm10":6.4,"pm2_5":6.4,"no2":1.6,"co":269.0,"o3":101.0,"so2":2.2,"mosquito_risk":3,"arthritis_risk":5,"migraine_risk":3,"frizz_risk":1,"updated_at":"2026-07-21T14:58:37.937403+05:30"},{"city":"Nainital","state":"Uttarakhand","latitude":29.3919,"longitude":79.4542,"temp":23.2,"humidity":61,"rain":0.0,"pressure":805.5,"uv_index":5.45,"wind_gusts":49.3,"aqi":44,"pm10":6.0,"pm2_5":5.8,"no2":1.0,"co":212.0,"o3":98.0,"so2":1.1,"mosquito_risk":3,"arthritis_risk":5,"migraine_risk":3,"frizz_risk":0,"updated_at":"2026-07-21T14:58:37.937409+05:30"},{"city":"Mussoorie","state":"Uttarakhand","latitude":30.4599,"longitude":78.0664,"temp":21.1,"humidity":84,"rain":0.0,"pressure":802.4,"uv_index":3.45,"wind_gusts":31.3,"aqi":65,"pm10":5.7,"pm2_5":5.7,"no2":2.5,"co":266.0,"o3":113.0,"so2":2.7,"mosquito_risk":3,"arthritis_risk":5,"migraine_risk":3,"frizz_risk":1,"updated_at":"2026-07-21T14:58:37.937415+05:30"},{"city":"Dharamshala","state":"Himachal Pradesh","latitude":32.219,"longitude":76.3234,"temp":23.4,"humidity":90,"rain":0.1,"pressure":867.0,"uv_index":1.95,"wind_gusts":36.7,"aqi":37,"pm10":1.6,"pm2_5":1.5,"no2":3.8,"co":241.0,"o3":89.0,"so2":0.6,"mosquito_risk":6,"arthritis_risk":5,"migraine_risk":3,"frizz_risk":1,"updated_at":"2026-07-21T14:58:37.937421+05:30"},{"city":"Dalhousie","state":"Himachal Pradesh","latitude":32.5387,"longitude":75.971,"temp":19.0,"humidity":98,"rain":0.0,"pressure":803.7,"uv_index":1.95,"wind_gusts":31.7,"aqi":70,"pm10":8.2,"pm2_5":7.1,"no2":5.8,"co":290.0,"o3":118.0,"so2":2.9,"mosquito_risk":3,"arthritis_risk":10,"migraine_risk":3,"frizz_risk":1,"updated_at":"2026-07-21T14:58:37.937427+05:30"},{"city":"Patiala","state":"Punjab","latitude":30.3398,"longitude":76.3869,"temp":29.8,"humidity":78,"rain":0.0,"pressure":972.5,"uv_index":4.95,"wind_gusts":29.5,"aqi":84,"pm10":23.9,"pm2_5":23.7,"no2":6.1,"co":336.0,"o3":126.0,"so2":7.5,"mosquito_risk":7,"arthritis_risk":5,"migraine_risk":3,"frizz_risk":1,"updated_at":"2026-07-21T14:58:37.937434+05:30"},{"city":"Bhatinda","state":"Punjab","latitude":30.211,"longitude":74.9455,"temp":33.6,"humidity":58,"rain":0.0,"pressure":976.9,"uv_index":8.05,"wind_gusts":42.1,"aqi":172,"pm10":155.5,"pm2_5":45.5,"no2":3.1,"co":211.0,"o3":136.0,"so2":10.1,"mosquito_risk":0,"arthritis_risk":5,"migraine_risk":7,"frizz_risk":1,"updated_at":"2026-07-21T14:58:37.937440+05:30"},{"city":"Rohtak","state":"Haryana","latitude":28.8955,"longitude":76.6066,"temp":31.1,"humidity":67,"rain":0.0,"pressure":974.8,"uv_index":1.85,"wind_gusts":26.6,"aqi":112,"pm10":18.0,"pm2_5":17.4,"no2":8.4,"co":332.0,"o3":153.0,"so2":19.3,"mosquito_risk":3,"arthritis_risk":5,"migraine_risk":3,"frizz_risk":1,"updated_at":"2026-07-21T14:58:37.937445+05:30"},{"city":"Panipat","state":"Haryana","latitude":29.3909,"longitude":76.9635,"temp":29.9,"humidity":78,"rain":0.1,"pressure":974.1,"uv_index":1.3,"wind_gusts":30.6,"aqi":117,"pm10":17.3,"pm2_5":16.9,"no2":6.1,"co":271.0,"o3":146.0,"so2":15.8,"mosquito_risk":10,"arthritis_risk":5,"migraine_risk":3,"frizz_risk":1,"updated_at":"2026-07-21T14:58:37.937451+05:30"},{"city":"Mathura","state":"Uttar Pradesh","latitude":27.4924,"longitude":77.6737,"temp":31.5,"humidity":70,"rain":0.0,"pressure":979.4,"uv_index":6.65,"wind_gusts":30.2,"aqi":78,"pm10":15.1,"pm2_5":10.2,"no2":2.9,"co":283.0,"o3":130.0,"so2":2.9,"mosquito_risk":3,"arthritis_risk":5,"migraine_risk":7,"frizz_risk":1,"updated_at":"2026-07-21T14:58:37.937457+05:30"},{"city":"Vrindavan","state":"Uttar Pradesh","latitude":27.5823,"longitude":77.7027,"temp":31.5,"humidity":71,"rain":0.0,"pressure":979.8,"uv_index":6.75,"wind_gusts":29.5,"aqi":78,"pm10":15.1,"pm2_5":10.2,"no2":2.9,"co":275.0,"o3":130.0,"so2":2.9,"mosquito_risk":3,"arthritis_risk":5,"migraine_risk":7,"frizz_risk":1,"updated_at":"2026-07-21T14:58:37.937462+05:30"},{"city":"Ayodhya","state":"Uttar Pradesh","latitude":26.7922,"longitude":82.1998,"temp":32.3,"humidity":68,"rain":0.1,"pressure":988.6,"uv_index":7.15,"wind_gusts":42.1,"aqi":67,"pm10":22.4,"pm2_5":21.7,"no2":2.0,"co":300.0,"o3":149.0,"so2":7.6,"mosquito_risk":6,"arthritis_risk":5,"migraine_risk":7,"frizz_risk":1,"updated_at":"2026-07-21T14:58:37.937468+05:30"},{"city":"Ratlam","state":"Madhya Pradesh","latitude":23.3315,"longitude":75.0367,"temp":25.0,"humidity":92,"rain":0.2,"pressure":948.4,"uv_index":1.1,"wind_gusts":27.7,"aqi":51,"pm10":17.0,"pm2_5":10.0,"no2":3.3,"co":124.0,"o3":64.0,"so2":4.9,"mosquito_risk":10,"arthritis_risk":5,"migraine_risk":3,"frizz_risk":1,"updated_at":"2026-07-21T14:58:37.937474+05:30"},{"city":"Sagar","state":"Madhya Pradesh","latitude":23.8388,"longitude":78.7378,"temp":27.4,"humidity":77,"rain":0.1,"pressure":943.3,"uv_index":1.0,"wind_gusts":32.0,"aqi":51,"pm10":15.1,"pm2_5":10.3,"no2":2.3,"co":188.0,"o3":90.0,"so2":4.1,"mosquito_risk":10,"arthritis_risk":5,"migraine_risk":3,"frizz_risk":1,"updated_at":"2026-07-21T14:58:37.937480+05:30"},{"city":"Satna","state":"Madhya Pradesh","latitude":24.6005,"longitude":80.8322,"temp":29.7,"humidity":71,"rain":0.0,"pressure":964.5,"uv_index":5.75,"wind_gusts":20.2,"aqi":53,"pm10":6.5,"pm2_5":6.3,"no2":2.7,"co":175.0,"o3":125.0,"so2":3.6,"mosquito_risk":7,"arthritis_risk":5,"migraine_risk":3,"frizz_risk":1,"updated_at":"2026-07-21T14:58:37.937485+05:30"},{"city":"Akola","state":"Maharashtra","latitude":20.7002,"longitude":77.0082,"temp":26.5,"humidity":89,"rain":0.4,"pressure":970.1,"uv_index":1.5,"wind_gusts":44.3,"aqi":35,"pm10":7.0,"pm2_5":5.0,"no2":3.3,"co":125.0,"o3":69.0,"so2":7.6,"mosquito_risk":10,"arthritis_risk":5,"migraine_risk":3,"frizz_risk":1,"updated_at":"2026-07-21T14:58:37.937491+05:30"},{"city":"Amravati","state":"Maharashtra","latitude":20.9374,"longitude":77.7796,"temp":25.9,"humidity":93,"rain":0.2,"pressure":962.1,"uv_index":1.2,"wind_gusts":47.2,"aqi":38,"pm10":8.4,"pm2_5":5.7,"no2":4.0,"co":125.0,"o3":66.0,"so2":8.1,"mosquito_risk":10,"arthritis_risk":5,"migraine_risk":3,"frizz_risk":1,"updated_at":"2026-07-21T14:58:37.937498+05:30"},{"city":"Latur","state":"Maharashtra","latitude":18.4088,"longitude":76.5604,"temp":25.9,"humidity":82,"rain":0.1,"pressure":936.1,"uv_index":3.8,"wind_gusts":46.8,"aqi":32,"pm10":15.8,"pm2_5":8.4,"no2":2.0,"co":133.0,"o3":65.0,"so2":1.7,"mosquito_risk":10,"arthritis_risk":5,"migraine_risk":3,"frizz_risk":1,"updated_at":"2026-07-21T14:58:37.937503+05:30"},{"city":"Nanded","state":"Maharashtra","latitude":19.1383,"longitude":77.3091,"temp":26.5,"humidity":88,"rain":0.0,"pressure":964.6,"uv_index":1.35,"wind_gusts":35.3,"aqi":38,"pm10":14.0,"pm2_5":8.3,"no2":2.9,"co":129.0,"o3":62.0,"so2":2.9,"mosquito_risk":7,"arthritis_risk":5,"migraine_risk":3,"frizz_risk":1,"updated_at":"2026-07-21T14:58:37.937509+05:30"},{"city":"Gulbarga","state":"Karnataka","latitude":17.3297,"longitude":76.8343,"temp":30.7,"humidity":55,"rain":0.2,"pressure":955.3,"uv_index":3.5,"wind_gusts":55.1,"aqi":34,"pm10":25.3,"pm2_5":10.3,"no2":1.4,"co":112.0,"o3":75.0,"so2":1.8,"mosquito_risk":3,"arthritis_risk":5,"migraine_risk":3,"frizz_risk":1,"updated_at":"2026-07-21T14:58:37.937515+05:30"},{"city":"Bidar","state":"Karnataka","latitude":17.9104,"longitude":77.5199,"temp":25.1,"humidity":88,"rain":0.1,"pressure":932.2,"uv_index":4.3,"wind_gusts":50.8,"aqi":34,"pm10":17.3,"pm2_5":8.6,"no2":1.9,"co":141.0,"o3":72.0,"so2":1.6,"mosquito_risk":10,"arthritis_risk":5,"migraine_risk":3,"frizz_risk":1,"updated_at":"2026-07-21T14:58:37.937521+05:30"},{"city":"Hospet","state":"Karnataka","latitude":15.2689,"longitude":76.3909,"temp":30.6,"humidity":53,"rain":0.0,"pressure":953.9,"uv_index":4.7,"wind_gusts":51.8,"aqi":23,"pm10":19.3,"pm2_5":8.0,"no2":1.5,"co":113.0,"o3":66.0,"so2":1.6,"mosquito_risk":0,"arthritis_risk":5,"migraine_risk":3,"frizz_risk":1,"updated_at":"2026-07-21T14:58:37.937526+05:30"},{"city":"Tirupur","state":"Tamil Nadu","latitude":11.1085,"longitude":77.3411,"temp":33.5,"humidity":48,"rain":0.0,"pressure":973.4,"uv_index":8.8,"wind_gusts":56.2,"aqi":54,"pm10":19.3,"pm2_5":11.1,"no2":2.3,"co":141.0,"o3":96.0,"so2":3.0,"mosquito_risk":0,"arthritis_risk":5,"migraine_risk":7,"frizz_risk":1,"updated_at":"2026-07-21T14:58:37.937532+05:30"},{"city":"Alappuzha","state":"Kerala","latitude":9.4981,"longitude":76.3388,"temp":29.5,"humidity":76,"rain":0.0,"pressure":1009.1,"uv_index":8.6,"wind_gusts":31.7,"aqi":53,"pm10":14.9,"pm2_5":10.4,"no2":3.3,"co":93.0,"o3":65.0,"so2":3.9,"mosquito_risk":7,"arthritis_risk":0,"migraine_risk":4,"frizz_risk":1,"updated_at":"2026-07-21T14:58:37.937537+05:30"},{"city":"Munnar","state":"Kerala","latitude":10.0889,"longitude":77.0595,"temp":21.3,"humidity":78,"rain":0.1,"pressure":858.3,"uv_index":9.05,"wind_gusts":33.8,"aqi":33,"pm10":11.5,"pm2_5":6.3,"no2":1.2,"co":99.0,"o3":66.0,"so2":1.4,"mosquito_risk":6,"arthritis_risk":5,"migraine_risk":7,"frizz_risk":1,"updated_at":"2026-07-21T14:58:37.937542+05:30"},{"city":"Silchar","state":"Assam","latitude":24.8333,"longitude":92.7789,"temp":32.7,"humidity":62,"rain":0.0,"pressure":999.4,"uv_index":8.1,"wind_gusts":27.0,"aqi":64,"pm10":8.0,"pm2_5":7.5,"no2":2.0,"co":149.0,"o3":82.0,"so2":3.3,"mosquito_risk":3,"arthritis_risk":5,"migraine_risk":7,"frizz_risk":1,"updated_at":"2026-07-21T14:58:37.937547+05:30"},{"city":"Dibrugarh","state":"Assam","latitude":27.4728,"longitude":94.912,"temp":33.4,"humidity":61,"rain":0.0,"pressure":988.6,"uv_index":8.6,"wind_gusts":31.0,"aqi":75,"pm10":11.6,"pm2_5":10.9,"no2":1.3,"co":165.0,"o3":120.0,"so2":1.4,"mosquito_risk":3,"arthritis_risk":5,"migraine_risk":7,"frizz_risk":1,"updated_at":"2026-07-21T14:58:37.937552+05:30"}]