[{"city":"Delhi","state":"Delhi","latitude":28.6139,"longitude":77.209,"temp":31.8,"humidity":51,"rain":0.0,"pressure":974.3,"uv_index":7.85,"wind_gusts":68.0,"aqi":638,"pm10":440.5,"pm2_5":137.8,"no2":31.3,"co":631.0,"o3":49.0,"so2":22.3,"mosquito_risk":0,"arthritis_risk":5,"migraine_risk":7,"frizz_risk":1,"updated_at":"2026-06-11T04:57:13.884985+05:30"},{"city":"Mumbai","state":"Maharashtra","latitude":19.076,"longitude":72.8777,"temp":29.3,"humidity":80,"rain":0.0,"pressure":1004.6,"uv_index":7.7,"wind_gusts":40.3,"aqi":74,"pm10":55.9,"pm2_5":24.6,"no2":3.5,"co":150.0,"o3":54.0,"so2":3.0,"mosquito_risk":7,"arthritis_risk":5,"migraine_risk":4,"frizz_risk":1,"updated_at":"2026-06-11T04:57:13.885033+05:30"},{"city":"Bangalore","state":"Karnataka","latitude":12.9716,"longitude":77.5946,"temp":20.2,"humidity":97,"rain":0.0,"pressure":909.5,"uv_index":9.1,"wind_gusts":42.1,"aqi":39,"pm10":8.2,"pm2_5":6.1,"no2":11.6,"co":170.0,"o3":31.0,"so2":4.4,"mosquito_risk":3,"arthritis_risk":5,"migraine_risk":7,"frizz_risk":1,"updated_at":"2026-06-11T04:57:13.885048+05:30"},{"city":"Hyderabad","state":"Telangana","latitude":17.385,"longitude":78.4867,"temp":25.7,"humidity":79,"rain":0.0,"pressure":949.7,"uv_index":9.05,"wind_gusts":37.4,"aqi":71,"pm10":24.7,"pm2_5":15.7,"no2":8.7,"co":178.0,"o3":43.0,"so2":4.5,"mosquito_risk":7,"arthritis_risk":5,"migraine_risk":7,"frizz_risk":1,"updated_at":"2026-06-11T04:57:13.885058+05:30"},{"city":"Chennai","state":"Tamil Nadu","latitude":13.0827,"longitude":80.2707,"temp":27.4,"humidity":83,"rain":0.0,"pressure":1003.7,"uv_index":4.3,"wind_gusts":37.8,"aqi":61,"pm10":21.1,"pm2_5":12.9,"no2":11.1,"co":198.0,"o3":53.0,"so2":8.6,"mosquito_risk":7,"arthritis_risk":5,"migraine_risk":0,"frizz_risk":1,"updated_at":"2026-06-11T04:57:13.885066+05:30"},{"city":"Kolkata","state":"West Bengal","latitude":22.5726,"longitude":88.3639,"temp":28.4,"humidity":94,"rain":0.0,"pressure":1000.1,"uv_index":9.0,"wind_gusts":28.8,"aqi":129,"pm10":49.8,"pm2_5":42.8,"no2":13.0,"co":331.0,"o3":57.0,"so2":7.2,"mosquito_risk":7,"arthritis_risk":5,"migraine_risk":4,"frizz_risk":1,"updated_at":"2026-06-11T04:57:13.885073+05:30"},{"city":"Pune","state":"Maharashtra","latitude":18.5204,"longitude":73.8567,"temp":25.4,"humidity":84,"rain":0.0,"pressure":945.0,"uv_index":8.35,"wind_gusts":41.0,"aqi":58,"pm10":17.2,"pm2_5":10.4,"no2":8.0,"co":107.0,"o3":38.0,"so2":6.0,"mosquito_risk":7,"arthritis_risk":5,"migraine_risk":7,"frizz_risk":1,"updated_at":"2026-06-11T04:57:13.885079+05:30"},{"city":"Ahmedabad","state":"Gujarat","latitude":23.0225,"longitude":72.5714,"temp":30.0,"humidity":67,"rain":0.0,"pressure":996.4,"uv_index":8.05,"wind_gusts":47.2,"aqi":77,"pm10":47.8,"pm2_5":24.3,"no2":3.9,"co":112.0,"o3":48.0,"so2":3.9,"mosquito_risk":7,"arthritis_risk":5,"migraine_risk":7,"frizz_risk":1,"updated_at":"2026-06-11T04:57:13.885085+05:30"},{"city":"Jaipur","state":"Rajasthan","latitude":26.9124,"longitude":75.7873,"temp":31.1,"humidity":54,"rain":0.0,"pressure":952.3,"uv_index":8.25,"wind_gusts":38.5,"aqi":139,"pm10":233.3,"pm2_5":48.7,"no2":4.3,"co":160.0,"o3":64.0,"so2":3.7,"mosquito_risk":0,"arthritis_risk":5,"migraine_risk":7,"frizz_risk":1,"updated_at":"2026-06-11T04:57:13.885096+05:30"},{"city":"Lucknow","state":"Uttar Pradesh","latitude":26.8467,"longitude":80.9462,"temp":27.9,"humidity":72,"rain":0.0,"pressure":987.5,"uv_index":8.3,"wind_gusts":42.8,"aqi":162,"pm10":94.3,"pm2_5":66.6,"no2":8.9,"co":333.0,"o3":113.0,"so2":11.5,"mosquito_risk":7,"arthritis_risk":5,"migraine_risk":7,"frizz_risk":1,"updated_at":"2026-06-11T04:57:13.885103+05:30"},{"city":"Kanpur","state":"Uttar Pradesh","latitude":26.4499,"longitude":80.3319,"temp":31.0,"humidity":51,"rain":0.0,"pressure":984.8,"uv_index":8.2,"wind_gusts":39.6,"aqi":359,"pm10":301.7,"pm2_5":87.3,"no2":13.9,"co":281.0,"o3":88.0,"so2":10.8,"mosquito_risk":0,"arthritis_risk":5,"migraine_risk":7,"frizz_risk":1,"updated_at":"2026-06-11T04:57:13.885109+05:30"},{"city":"Chandigarh","state":"Chandigarh","latitude":30.7333,"longitude":76.7794,"temp":30.7,"humidity":49,"rain":0.0,"pressure":961.1,"uv_index":7.85,"wind_gusts":51.5,"aqi":112,"pm10":40.2,"pm2_5":28.9,"no2":17.6,"co":258.0,"o3":87.0,"so2":7.2,"mosquito_risk":0,"arthritis_risk":5,"migraine_risk":7,"frizz_risk":1,"updated_at":"2026-06-11T04:57:13.885116+05:30"},{"city":"Srinagar","state":"Jammu and Kashmir","latitude":34.0837,"longitude":74.7973,"temp":14.0,"humidity":93,"rain":0.0,"pressure":835.8,"uv_index":8.95,"wind_gusts":29.2,"aqi":76,"pm10":40.5,"pm2_5":36.4,"no2":28.3,"co":276.0,"o3":3.0,"so2":0.8,"mosquito_risk":3,"arthritis_risk":10,"migraine_risk":7,"frizz_risk":0,"updated_at":"2026-06-11T04:57:13.885123+05:30"},{"city":"Jammu","state":"Jammu and Kashmir","latitude":32.7266,"longitude":74.857,"temp":27.8,"humidity":45,"rain":0.0,"pressure":963.5,"uv_index":8.65,"wind_gusts":38.5,"aqi":83,"pm10":31.3,"pm2_5":28.6,"no2":27.3,"co":313.0,"o3":28.0,"so2":2.9,"mosquito_risk":4,"arthritis_risk":5,"migraine_risk":7,"frizz_risk":0,"updated_at":"2026-06-11T04:57:13.885130+05:30"},{"city":"Amritsar","state":"Punjab","latitude":31.634,"longitude":74.8723,"temp":30.8,"humidity":50,"rain":0.0,"pressure":971.3,"uv_index":8.5,"wind_gusts":61.2,"aqi":116,"pm10":41.2,"pm2_5":34.6,"no2":19.1,"co":684.0,"o3":70.0,"so2":6.3,"mosquito_risk":0,"arthritis_risk":5,"migraine_risk":7,"frizz_risk":1,"updated_at":"2026-06-11T04:57:13.885136+05:30"},{"city":"Ludhiana","state":"Punjab","latitude":30.901,"longitude":75.8573,"temp":30.4,"humidity":59,"rain":0.0,"pressure":969.9,"uv_index":8.05,"wind_gusts":50.4,"aqi":159,"pm10":538.3,"pm2_5":135.0,"no2":8.8,"co":403.0,"o3":109.0,"so2":13.0,"mosquito_risk":0,"arthritis_risk":5,"migraine_risk":7,"frizz_risk":1,"updated_at":"2026-06-11T04:57:13.885143+05:30"},{"city":"Jalandhar","state":"Punjab","latitude":31.326,"longitude":75.5762,"temp":30.4,"humidity":57,"rain":0.0,"pressure":970.8,"uv_index":8.25,"wind_gusts":45.0,"aqi":128,"pm10":381.8,"pm2_5":115.3,"no2":18.5,"co":464.0,"o3":76.0,"so2":12.8,"mosquito_risk":0,"arthritis_risk":5,"migraine_risk":7,"frizz_risk":1,"updated_at":"2026-06-11T04:57:13.885149+05:30"},{"city":"Dehradun","state":"Uttarakhand","latitude":30.6284,"longitude":78.0322,"temp":15.7,"humidity":92,"rain":0.0,"pressure":825.0,"uv_index":8.2,"wind_gusts":37.8,"aqi":68,"pm10":20.0,"pm2_5":17.8,"no2":14.7,"co":271.0,"o3":41.0,"so2":0.2,"mosquito_risk":3,"arthritis_risk":10,"migraine_risk":7,"frizz_risk":0,"updated_at":"2026-06-11T04:57:13.885156+05:30"},{"city":"Shimla","state":"Himachal Pradesh","latitude":31.1048,"longitude":77.1734,"temp":13.2,"humidity":65,"rain":0.0,"pressure":778.3,"uv_index":8.35,"wind_gusts":43.9,"aqi":76,"pm10":28.4,"pm2_5":25.9,"no2":24.9,"co":286.0,"o3":38.0,"so2":2.0,"mosquito_risk":3,"arthritis_risk":5,"migraine_risk":7,"frizz_risk":0,"updated_at":"2026-06-11T04:57:13.885172+05:30"},{"city":"Manali","state":"Himachal Pradesh","latitude":32.2396,"longitude":77.1887,"temp":12.5,"humidity":69,"rain":0.0,"pressure":812.2,"uv_index":7.7,"wind_gusts":37.4,"aqi":54,"pm10":7.7,"pm2_5":4.3,"no2":47.1,"co":192.0,"o3":54.0,"so2":0.0,"mosquito_risk":3,"arthritis_risk":5,"migraine_risk":7,"frizz_risk":0,"updated_at":"2026-06-11T04:57:13.885178+05:30"},{"city":"Gurgaon","state":"Haryana","latitude":28.4595,"longitude":77.0266,"temp":31.4,"humidity":48,"rain":0.0,"pressure":972.6,"uv_index":7.85,"wind_gusts":77.8,"aqi":1008,"pm10":344.6,"pm2_5":106.4,"no2":51.7,"co":592.0,"o3":12.0,"so2":15.2,"mosquito_risk":0,"arthritis_risk":5,"migraine_risk":7,"frizz_risk":1,"updated_at":"2026-06-11T04:57:13.885185+05:30"},{"city":"Noida","state":"Uttar Pradesh","latitude":28.5355,"longitude":77.391,"temp":29.1,"humidity":63,"rain":0.0,"pressure":975.8,"uv_index":7.75,"wind_gusts":64.1,"aqi":1008,"pm10":344.6,"pm2_5":106.4,"no2":51.7,"co":366.0,"o3":12.0,"so2":15.2,"mosquito_risk":7,"arthritis_risk":5,"migraine_risk":7,"frizz_risk":1,"updated_at":"2026-06-11T04:57:13.885190+05:30"},{"city":"Ghaziabad","state":"Uttar Pradesh","latitude":28.6692,"longitude":77.4538,"temp":29.1,"humidity":62,"rain":0.0,"pressure":974.4,"uv_index":7.7,"wind_gusts":68.0,"aqi":551,"pm10":629.6,"pm2_5":139.7,"no2":13.9,"co":301.0,"o3":72.0,"so2":11.5,"mosquito_risk":7,"arthritis_risk":5,"migraine_risk":7,"frizz_risk":1,"updated_at":"2026-06-11T04:57:13.885199+05:30"},{"city":"Faridabad","state":"Haryana","latitude":28.4089,"longitude":77.3178,"temp":30.3,"humidity":55,"rain":0.0,"pressure":975.1,"uv_index":7.8,"wind_gusts":72.4,"aqi":1008,"pm10":344.6,"pm2_5":106.4,"no2":51.7,"co":634.0,"o3":12.0,"so2":15.2,"mosquito_risk":0,"arthritis_risk":5,"migraine_risk":7,"frizz_risk":1,"updated_at":"2026-06-11T04:57:13.885205+05:30"},{"city":"Meerut","state":"Uttar Pradesh","latitude":28.9845,"longitude":77.7064,"temp":29.1,"humidity":60,"rain":0.0,"pressure":973.8,"uv_index":7.65,"wind_gusts":52.6,"aqi":551,"pm10":629.6,"pm2_5":139.7,"no2":13.9,"co":324.0,"o3":72.0,"so2":11.5,"mosquito_risk":4,"arthritis_risk":5,"migraine_risk":7,"frizz_risk":1,"updated_at":"2026-06-11T04:57:13.885211+05:30"},{"city":"Agra","state":"Uttar Pradesh","latitude":27.1767,"longitude":78.0081,"temp":32.7,"humidity":51,"rain":0.0,"pressure":979.4,"uv_index":8.15,"wind_gusts":69.1,"aqi":716,"pm10":2011.7,"pm2_5":258.0,"no2":10.3,"co":186.0,"o3":57.0,"so2":5.9,"mosquito_risk":0,"arthritis_risk":5,"migraine_risk":7,"frizz_risk":1,"updated_at":"2026-06-11T04:57:13.885216+05:30"},{"city":"Varanasi","state":"Uttar Pradesh","latitude":25.3176,"longitude":82.9739,"temp":28.4,"humidity":75,"rain":0.0,"pressure":991.4,"uv_index":8.65,"wind_gusts":42.8,"aqi":149,"pm10":83.4,"pm2_5":66.8,"no2":18.3,"co":605.0,"o3":75.0,"so2":16.8,"mosquito_risk":7,"arthritis_risk":5,"migraine_risk":7,"frizz_risk":1,"updated_at":"2026-06-11T04:57:13.885223+05:30"},{"city":"Prayagraj","state":"Uttar Pradesh","latitude":25.4358,"longitude":81.8463,"temp":30.0,"humidity":56,"rain":0.0,"pressure":989.2,"uv_index":8.35,"wind_gusts":33.8,"aqi":151,"pm10":89.9,"pm2_5":76.4,"no2":15.9,"co":465.0,"o3":88.0,"so2":15.9,"mosquito_risk":4,"arthritis_risk":5,"migraine_risk":7,"frizz_risk":1,"updated_at":"2026-06-11T04:57:13.885229+05:30"},{"city":"Gorakhpur","state":"Uttar Pradesh","latitude":26.7606,"longitude":83.3732,"temp":25.0,"humidity":86,"rain":0.0,"pressure":992.8,"uv_index":8.7,"wind_gusts":41.4,"aqi":157,"pm10":81.0,"pm2_5":52.2,"no2":6.7,"co":386.0,"o3":126.0,"so2":6.6,"mosquito_risk":7,"arthritis_risk":5,"migraine_risk":7,"frizz_risk":1,"updated_at":"2026-06-11T04:57:13.885238+05:30"},{"city":"Bareilly","state":"Uttar Pradesh","latitude":28.367,"longitude":79.4304,"temp":27.9,"humidity":67,"rain":0.0,"pressure":980.4,"uv_index":8.15,"wind_gusts":42.1,"aqi":150,"pm10":169.0,"pm2_5":70.1,"no2":8.6,"co":402.0,"o3":118.0,"so2":9.0,"mosquito_risk":7,"arthritis_risk":5,"migraine_risk":7,"frizz_risk":1,"updated_at":"2026-06-11T04:57:13.885244+05:30"},{"city":"Aligarh","state":"Uttar Pradesh","latitude":27.8974,"longitude":78.088,"temp":29.3,"humidity":57,"rain":0.0,"pressure":977.0,"uv_index":7.45,"wind_gusts":60.8,"aqi":452,"pm10":530.9,"pm2_5":136.4,"no2":31.9,"co":327.0,"o3":23.0,"so2":9.3,"mosquito_risk":4,"arthritis_risk":5,"migraine_risk":7,"frizz_risk":1,"updated_at":"2026-06-11T04:57:13.885250+05:30"},{"city":"Moradabad","state":"Uttar Pradesh","latitude":28.8386,"longitude":78.7733,"temp":29.3,"humidity":59,"rain":0.0,"pressure":976.8,"uv_index":7.95,"wind_gusts":51.1,"aqi":162,"pm10":105.2,"pm2_5":57.3,"no2":8.2,"co":369.0,"o3":123.0,"so2":10.6,"mosquito_risk":4,"arthritis_risk":5,"migraine_risk":7,"frizz_risk":1,"updated_at":"2026-06-11T04:57:13.885256+05:30"},{"city":"Saharanpur","state":"Uttar Pradesh","latitude":29.9637,"longitude":77.546,"temp":29.2,"humidity":56,"rain":0.0,"pressure":968.4,"uv_index":7.5,"wind_gusts":51.5,"aqi":140,"pm10":45.1,"pm2_5":34.3,"no2":19.2,"co":338.0,"o3":63.0,"so2":6.7,"mosquito_risk":4,"arthritis_risk":5,"migraine_risk":7,"frizz_risk":1,"updated_at":"2026-06-11T04:57:13.885262+05:30"},{"city":"Jhansi","state":"Uttar Pradesh","latitude":25.4484,"longitude":78.5685,"temp":32.1,"humidity":51,"rain":0.0,"pressure":971.0,"uv_index":8.5,"wind_gusts":51.1,"aqi":73,"pm10":31.9,"pm2_5":21.0,"no2":6.2,"co":149.0,"o3":72.0,"so2":7.5,"mosquito_risk":0,"arthritis_risk":5,"migraine_risk":7,"frizz_risk":1,"updated_at":"2026-06-11T04:57:17.137186+05:30"},{"city":"Surat","state":"Gujarat","latitude":21.1702,"longitude":72.8311,"temp":29.7,"humidity":78,"rain":0.0,"pressure":1001.9,"uv_index":7.6,"wind_gusts":56.2,"aqi":87,"pm10":56.9,"pm2_5":31.0,"no2":15.9,"co":248.0,"o3":43.0,"so2":27.8,"mosquito_risk":7,"arthritis_risk":5,"migraine_risk":4,"frizz_risk":1,"updated_at":"2026-06-11T04:57:17.137222+05:30"},{"city":"Vadodara","state":"Gujarat","latitude":22.3072,"longitude":73.1812,"temp":29.5,"humidity":75,"rain":0.0,"pressure":998.9,"uv_index":8.05,"wind_gusts":53.3,"aqi":82,"pm10":45.5,"pm2_5":25.5,"no2":6.2,"co":117.0,"o3":45.0,"so2":4.8,"mosquito_risk":7,"arthritis_risk":5,"migraine_risk":7,"frizz_risk":1,"updated_at":"2026-06-11T04:57:17.137233+05:30"},{"city":"Rajkot","state":"Gujarat","latitude":22.3039,"longitude":70.8022,"temp":28.4,"humidity":79,"rain":0.0,"pressure":988.7,"uv_index":7.55,"wind_gusts":50.4,"aqi":74,"pm10":38.1,"pm2_5":19.2,"no2":2.9,"co":95.0,"o3":51.0,"so2":2.8,"mosquito_risk":7,"arthritis_risk":5,"migraine_risk":7,"frizz_risk":1,"updated_at":"2026-06-11T04:57:17.137242+05:30"},{"city":"Thane","state":"Maharashtra","latitude":19.2183,"longitude":72.9781,"temp":28.1,"humidity":90,"rain":0.0,"pressure":1004.1,"uv_index":7.7,"wind_gusts":37.1,"aqi":74,"pm10":55.9,"pm2_5":24.6,"no2":3.5,"co":159.0,"o3":54.0,"so2":3.0,"mosquito_risk":7,"arthritis_risk":5,"migraine_risk":4,"frizz_risk":1,"updated_at":"2026-06-11T04:57:17.137250+05:30"},{"city":"Nagpur","state":"Maharashtra","latitude":21.1458,"longitude":79.0882,"temp":30.8,"humidity":53,"rain":0.0,"pressure":967.8,"uv_index":8.85,"wind_gusts":33.5,"aqi":95,"pm10":49.8,"pm2_5":35.5,"no2":14.0,"co":342.0,"o3":64.0,"so2":14.1,"mosquito_risk":0,"arthritis_risk":5,"migraine_risk":7,"frizz_risk":1,"updated_at":"2026-06-11T04:57:17.137258+05:30"},{"city":"Nashik","state":"Maharashtra","latitude":19.9975,"longitude":73.7898,"temp":24.6,"humidity":91,"rain":0.0,"pressure":941.9,"uv_index":8.1,"wind_gusts":47.2,"aqi":65,"pm10":28.2,"pm2_5":15.0,"no2":5.3,"co":108.0,"o3":45.0,"so2":3.5,"mosquito_risk":3,"arthritis_risk":5,"migraine_risk":7,"frizz_risk":1,"updated_at":"2026-06-11T04:57:17.137265+05:30"},{"city":"Aurangabad","state":"Maharashtra","latitude":19.8762,"longitude":75.3433,"temp":25.6,"humidity":80,"rain":0.0,"pressure":940.5,"uv_index":8.95,"wind_gusts":45.4,"aqi":69,"pm10":27.4,"pm2_5":15.5,"no2":10.3,"co":116.0,"o3":38.0,"so2":9.8,"mosquito_risk":7,"arthritis_risk":5,"migraine_risk":7,"frizz_risk":1,"updated_at":"2026-06-11T04:57:17.137272+05:30"},{"city":"Solapur","state":"Maharashtra","latitude":17.6599,"longitude":75.9064,"temp":26.6,"humidity":78,"rain":0.0,"pressure":954.4,"uv_index":8.9,"wind_gusts":39.2,"aqi":58,"pm10":17.5,"pm2_5":10.9,"no2":6.4,"co":139.0,"o3":38.0,"so2":2.2,"mosquito_risk":7,"arthritis_risk":5,"migraine_risk":7,"frizz_risk":1,"updated_at":"2026-06-11T04:57:17.137279+05:30"},{"city":"Kolhapur","state":"Maharashtra","latitude":16.705,"longitude":74.2433,"temp":23.8,"humidity":91,"rain":0.0,"pressure":945.5,"uv_index":8.6,"wind_gusts":44.6,"aqi":37,"pm10":11.0,"pm2_5":6.1,"no2":4.4,"co":123.0,"o3":41.0,"so2":2.0,"mosquito_risk":3,"arthritis_risk":5,"migraine_risk":7,"frizz_risk":1,"updated_at":"2026-06-11T04:57:17.137286+05:30"},{"city":"Goa","state":"Goa","latitude":15.2993,"longitude":74.124,"temp":24.7,"humidity":97,"rain":0.0,"pressure":996.3,"uv_index":8.3,"wind_gusts":32.4,"aqi":51,"pm10":44.7,"pm2_5":23.2,"no2":5.8,"co":290.0,"o3":39.0,"so2":1.7,"mosquito_risk":3,"arthritis_risk":5,"migraine_risk":7,"frizz_risk":1,"updated_at":"2026-06-11T04:57:17.137293+05:30"},{"city":"Jodhpur","state":"Rajasthan","latitude":26.2389,"longitude":73.0243,"temp":30.6,"humidity":65,"rain":0.0,"pressure":975.2,"uv_index":8.45,"wind_gusts":51.8,"aqi":169,"pm10":333.4,"pm2_5":77.3,"no2":2.3,"co":108.0,"o3":59.0,"so2":2.1,"mosquito_risk":3,"arthritis_risk":5,"migraine_risk":7,"frizz_risk":1,"updated_at":"2026-06-11T04:57:17.137300+05:30"},{"city":"Udaipur","state":"Rajasthan","latitude":24.5854,"longitude":73.7125,"temp":26.2,"humidity":75,"rain":0.0,"pressure":940.7,"uv_index":8.85,"wind_gusts":44.6,"aqi":74,"pm10":49.4,"pm2_5":23.7,"no2":4.0,"co":124.0,"o3":56.0,"so2":4.2,"mosquito_risk":7,"arthritis_risk":5,"migraine_risk":7,"frizz_risk":1,"updated_at":"2026-06-11T04:57:17.137307+05:30"},{"city":"Kota","state":"Rajasthan","latitude":25.2138,"longitude":75.8648,"temp":30.8,"humidity":62,"rain":0.0,"pressure":972.0,"uv_index":8.4,"wind_gusts":39.6,"aqi":80,"pm10":33.9,"pm2_5":24.3,"no2":6.6,"co":146.0,"o3":68.0,"so2":10.6,"mosquito_risk":3,"arthritis_risk":5,"migraine_risk":7,"frizz_risk":1,"updated_at":"2026-06-11T04:57:17.137314+05:30"},{"city":"Bikaner","state":"Rajasthan","latitude":28.0229,"longitude":73.3119,"temp":33.0,"humidity":55,"rain":0.0,"pressure":972.3,"uv_index":8.5,"wind_gusts":45.0,"aqi":155,"pm10":153.7,"pm2_5":63.8,"no2":2.4,"co":110.0,"o3":60.0,"so2":5.0,"mosquito_risk":0,"arthritis_risk":5,"migraine_risk":7,"frizz_risk":1,"updated_at":"2026-06-11T04:57:17.137321+05:30"},{"city":"Ajmer","state":"Rajasthan","latitude":26.4499,"longitude":74.6399,"temp":28.9,"humidity":68,"rain":0.0,"pressure":947.6,"uv_index":8.4,"wind_gusts":46.1,"aqi":66,"pm10":37.8,"pm2_5":20.5,"no2":3.7,"co":122.0,"o3":66.0,"so2":3.2,"mosquito_risk":7,"arthritis_risk":5,"migraine_risk":7,"frizz_risk":1,"updated_at":"2026-06-11T04:57:17.137328+05:30"},{"city":"Gwalior","state":"Madhya Pradesh","latitude":26.2183,"longitude":78.1828,"temp":32.7,"humidity":51,"rain":0.0,"pressure":975.6,"uv_index":8.3,"wind_gusts":47.9,"aqi":69,"pm10":28.2,"pm2_5":21.2,"no2":6.1,"co":149.0,"o3":69.0,"so2":8.6,"mosquito_risk":0,"arthritis_risk":5,"migraine_risk":7,"frizz_risk":1,"updated_at":"2026-06-11T04:57:17.137334+05:30"},{"city":"Indore","state":"Madhya Pradesh","latitude":22.7196,"longitude":75.8577,"temp":26.7,"humidity":77,"rain":0.0,"pressure":943.7,"uv_index":8.65,"wind_gusts":45.4,"aqi":77,"pm10":36.1,"pm2_5":21.5,"no2":5.7,"co":141.0,"o3":52.0,"so2":8.3,"mosquito_risk":7,"arthritis_risk":5,"migraine_risk":7,"frizz_risk":1,"updated_at":"2026-06-11T04:57:17.137341+05:30"},{"city":"Bhopal","state":"Madhya Pradesh","latitude":23.2599,"longitude":77.4126,"temp":28.9,"humidity":60,"rain":0.0,"pressure":948.9,"uv_index":8.7,"wind_gusts":40.0,"aqi":75,"pm10":41.8,"pm2_5":28.6,"no2":6.0,"co":208.0,"o3":74.0,"so2":6.6,"mosquito_risk":4,"arthritis_risk":5,"migraine_risk":7,"frizz_risk":1,"updated_at":"2026-06-11T04:57:17.137347+05:30"},{"city":"Jabalpur","state":"Madhya Pradesh","latitude":23.1815,"longitude":79.9864,"temp":28.5,"humidity":59,"rain":0.0,"pressure":956.0,"uv_index":8.8,"wind_gusts":34.6,"aqi":73,"pm10":26.7,"pm2_5":19.1,"no2":12.1,"co":200.0,"o3":53.0,"so2":3.4,"mosquito_risk":4,"arthritis_risk":5,"migraine_risk":7,"frizz_risk":1,"updated_at":"2026-06-11T04:57:17.137354+05:30"},{"city":"Ujjain","state":"Madhya Pradesh","latitude":23.1765,"longitude":75.7885,"temp":26.9,"humidity":78,"rain":0.0,"pressure":949.3,"uv_index":8.6,"wind_gusts":46.4,"aqi":77,"pm10":33.8,"pm2_5":20.3,"no2":5.8,"co":140.0,"o3":49.0,"so2":8.8,"mosquito_risk":7,"arthritis_risk":5,"migraine_risk":7,"frizz_risk":1,"updated_at":"2026-06-11T04:57:17.137361+05:30"},{"city":"Visakhapatnam","state":"Andhra Pradesh","latitude":17.6868,"longitude":83.2185,"temp":28.4,"humidity":91,"rain":0.0,"pressure":997.0,"uv_index":8.85,"wind_gusts":37.4,"aqi":138,"pm10":42.8,"pm2_5":32.9,"no2":30.4,"co":1031.0,"o3":60.0,"so2":36.6,"mosquito_risk":7,"arthritis_risk":5,"migraine_risk":7,"frizz_risk":1,"updated_at":"2026-06-11T04:57:17.137368+05:30"},{"city":"Vijayawada","state":"Andhra Pradesh","latitude":16.5062,"longitude":80.648,"temp":29.0,"humidity":68,"rain":0.0,"pressure":998.2,"uv_index":7.75,"wind_gusts":59.8,"aqi":100,"pm10":38.5,"pm2_5":29.1,"no2":15.4,"co":204.0,"o3":54.0,"so2":5.9,"mosquito_risk":7,"arthritis_risk":5,"migraine_risk":7,"frizz_risk":1,"updated_at":"2026-06-11T04:57:17.137375+05:30"},{"city":"Guntur","state":"Andhra Pradesh","latitude":16.3067,"longitude":80.4365,"temp":28.7,"humidity":71,"rain":0.0,"pressure":999.7,"uv_index":6.9,"wind_gusts":49.0,"aqi":89,"pm10":38.3,"pm2_5":28.5,"no2":13.8,"co":213.0,"o3":57.0,"so2":7.1,"mosquito_risk":7,"arthritis_risk":5,"migraine_risk":7,"frizz_risk":1,"updated_at":"2026-06-11T04:57:17.137382+05:30"},{"city":"Nellore","state":"Andhra Pradesh","latitude":14.4426,"longitude":79.9865,"temp":28.2,"humidity":70,"rain":0.0,"pressure":1001.8,"uv_index":7.75,"wind_gusts":44.6,"aqi":57,"pm10":11.8,"pm2_5":7.4,"no2":6.9,"co":141.0,"o3":48.0,"so2":4.6,"mosquito_risk":7,"arthritis_risk":5,"migraine_risk":4,"frizz_risk":1,"updated_at":"2026-06-11T04:57:17.137389+05:30"},{"city":"Kurnool","state":"Andhra Pradesh","latitude":15.8281,"longitude":78.0373,"temp":26.0,"humidity":79,"rain":0.0,"pressure":974.2,"uv_index":8.95,"wind_gusts":37.8,"aqi":58,"pm10":12.8,"pm2_5":8.4,"no2":10.5,"co":150.0,"o3":31.0,"so2":3.0,"mosquito_risk":7,"arthritis_risk":5,"migraine_risk":7,"frizz_risk":1,"updated_at":"2026-06-11T04:57:17.137396+05:30"},{"city":"Kakinada","state":"Andhra Pradesh","latitude":16.9891,"longitude":82.2475,"temp":26.1,"humidity":93,"rain":0.0,"pressure":1001.9,"uv_index":9.05,"wind_gusts":63.0,"aqi":89,"pm10":37.7,"pm2_5":24.2,"no2":6.7,"co":310.0,"o3":85.0,"so2":4.2,"mosquito_risk":7,"arthritis_risk":5,"migraine_risk":4,"frizz_risk":1,"updated_at":"2026-06-11T04:57:17.137403+05:30"},{"city":"Tirupati","state":"Andhra Pradesh","latitude":13.6288,"longitude":79.4192,"temp":27.0,"humidity":70,"rain":0.0,"pressure":987.4,"uv_index":5.05,"wind_gusts":46.1,"aqi":54,"pm10":12.5,"pm2_5":6.7,"no2":5.1,"co":123.0,"o3":47.0,"so2":1.2,"mosquito_risk":7,"arthritis_risk":5,"migraine_risk":3,"frizz_risk":1,"updated_at":"2026-06-11T04:57:17.137410+05:30"},{"city":"Warangal","state":"Telangana","latitude":17.9689,"longitude":79.5941,"temp":25.7,"humidity":87,"rain":0.0,"pressure":974.2,"uv_index":8.75,"wind_gusts":44.3,"aqi":97,"pm10":42.3,"pm2_5":31.0,"no2":16.9,"co":206.0,"o3":43.0,"so2":5.6,"mosquito_risk":7,"arthritis_risk":5,"migraine_risk":7,"frizz_risk":1,"updated_at":"2026-06-11T04:57:17.137417+05:30"},{"city":"Nizamabad","state":"Telangana","latitude":18.6725,"longitude":78.0941,"temp":28.8,"humidity":58,"rain":0.0,"pressure":960.7,"uv_index":8.85,"wind_gusts":36.0,"aqi":82,"pm10":35.9,"pm2_5":24.9,"no2":8.5,"co":197.0,"o3":65.0,"so2":7.1,"mosquito_risk":4,"arthritis_risk":5,"migraine_risk":7,"frizz_risk":1,"updated_at":"2026-06-11T04:57:17.137423+05:30"},{"city":"Mysore","state":"Karnataka","latitude":12.2958,"longitude":76.6396,"temp":20.9,"humidity":95,"rain":0.0,"pressure":926.7,"uv_index":9.05,"wind_gusts":42.5,"aqi":22,"pm10":7.9,"pm2_5":5.7,"no2":8.0,"co":130.0,"o3":30.0,"so2":1.7,"mosquito_risk":3,"arthritis_risk":5,"migraine_risk":7,"frizz_risk":1,"updated_at":"2026-06-11T04:57:17.137429+05:30"},{"city":"Mangalore","state":"Karnataka","latitude":12.9141,"longitude":74.856,"temp":23.9,"humidity":98,"rain":0.0,"pressure":1006.1,"uv_index":8.35,"wind_gusts":36.0,"aqi":41,"pm10":12.3,"pm2_5":8.3,"no2":10.2,"co":202.0,"o3":26.0,"so2":3.0,"mosquito_risk":3,"arthritis_risk":5,"migraine_risk":4,"frizz_risk":1,"updated_at":"2026-06-11T04:57:17.137436+05:30"},{"city":"Hubli-Dharwad","state":"Karnataka","latitude":15.3647,"longitude":75.124,"temp":22.7,"humidity":97,"rain":0.0,"pressure":938.9,"uv_index":8.3,"wind_gusts":46.4,"aqi":19,"pm10":6.7,"pm2_5":3.0,"no2":2.9,"co":109.0,"o3":42.0,"so2":1.0,"mosquito_risk":3,"arthritis_risk":5,"migraine_risk":7,"frizz_risk":1,"updated_at":"2026-06-11T04:57:17.137442+05:30"},{"city":"Belgaum","state":"Karnataka","latitude":15.8497,"longitude":74.4977,"temp":22.0,"humidity":98,"rain":0.0,"pressure":923.4,"uv_index":6.5,"wind_gusts":44.6,"aqi":28,"pm10":13.9,"pm2_5":6.6,"no2":3.2,"co":108.0,"o3":44.0,"so2":1.5,"mosquito_risk":3,"arthritis_risk":5,"migraine_risk":7,"frizz_risk":1,"updated_at":"2026-06-11T04:57:20.373874+05:30"},{"city":"Coimbatore","state":"Tamil Nadu","latitude":11.0168,"longitude":76.9558,"temp":23.1,"humidity":93,"rain":0.0,"pressure":959.9,"uv_index":7.65,"wind_gusts":54.7,"aqi":19,"pm10":4.7,"pm2_5":3.4,"no2":7.0,"co":164.0,"o3":29.0,"so2":2.4,"mosquito_risk":3,"arthritis_risk":5,"migraine_risk":7,"frizz_risk":1,"updated_at":"2026-06-11T04:57:20.373910+05:30"},{"city":"Madurai","state":"Tamil Nadu","latitude":9.9252,"longitude":78.1198,"temp":28.3,"humidity":66,"rain":0.0,"pressure":991.1,"uv_index":7.45,"wind_gusts":41.0,"aqi":24,"pm10":8.8,"pm2_5":7.9,"no2":17.3,"co":169.0,"o3":18.0,"so2":4.7,"mosquito_risk":7,"arthritis_risk":5,"migraine_risk":7,"frizz_risk":1,"updated_at":"2026-06-11T04:57:20.373921+05:30"},{"city":"Trichy","state":"Tamil Nadu","latitude":10.7905,"longitude":78.7047,"temp":28.2,"humidity":68,"rain":0.0,"pressure":997.8,"uv_index":6.8,"wind_gusts":38.2,"aqi":21,"pm10":4.2,"pm2_5":3.3,"no2":5.9,"co":107.0,"o3":38.0,"so2":2.7,"mosquito_risk":7,"arthritis_risk":5,"migraine_risk":7,"frizz_risk":1,"updated_at":"2026-06-11T04:57:20.373949+05:30"},{"city":"Salem","state":"Tamil Nadu","latitude":11.6643,"longitude":78.146,"temp":25.9,"humidity":79,"rain":0.0,"pressure":975.7,"uv_index":6.5,"wind_gusts":37.8,"aqi":43,"pm10":14.0,"pm2_5":12.1,"no2":20.4,"co":259.0,"o3":22.0,"so2":6.4,"mosquito_risk":7,"arthritis_risk":5,"migraine_risk":7,"frizz_risk":1,"updated_at":"2026-06-11T04:57:20.373958+05:30"},{"city":"Tirunelveli","state":"Tamil Nadu","latitude":8.7139,"longitude":77.7567,"temp":27.3,"humidity":77,"rain":0.0,"pressure":1002.0,"uv_index":8.6,"wind_gusts":44.3,"aqi":18,"pm10":4.1,"pm2_5":3.4,"no2":5.8,"co":144.0,"o3":35.0,"so2":2.2,"mosquito_risk":7,"arthritis_risk":5,"migraine_risk":4,"frizz_risk":1,"updated_at":"2026-06-11T04:57:20.373966+05:30"},{"city":"Vellore","state":"Tamil Nadu","latitude":12.9165,"longitude":79.1325,"temp":27.1,"humidity":68,"rain":0.0,"pressure":981.4,"uv_index":8.5,"wind_gusts":43.2,"aqi":55,"pm10":13.2,"pm2_5":9.6,"no2":12.9,"co":188.0,"o3":39.0,"so2":4.9,"mosquito_risk":7,"arthritis_risk":5,"migraine_risk":7,"frizz_risk":1,"updated_at":"2026-06-11T04:57:20.373974+05:30"},{"city":"Erode","state":"Tamil Nadu","latitude":11.341,"longitude":77.7172,"temp":24.7,"humidity":84,"rain":0.0,"pressure":987.6,"uv_index":7.65,"wind_gusts":46.8,"aqi":27,"pm10":8.4,"pm2_5":7.4,"no2":13.7,"co":152.0,"o3":30.0,"so2":3.9,"mosquito_risk":3,"arthritis_risk":5,"migraine_risk":7,"frizz_risk":1,"updated_at":"2026-06-11T04:57:20.373982+05:30"},{"city":"Kochi","state":"Kerala","latitude":9.9312,"longitude":76.2673,"temp":25.7,"humidity":97,"rain":0.0,"pressure":1008.0,"uv_index":7.75,"wind_gusts":41.0,"aqi":39,"pm10":12.4,"pm2_5":9.0,"no2":14.0,"co":209.0,"o3":21.0,"so2":4.4,"mosquito_risk":7,"arthritis_risk":0,"migraine_risk":4,"frizz_risk":1,"updated_at":"2026-06-11T04:57:20.373990+05:30"},{"city":"Thiruvananthapuram","state":"Kerala","latitude":8.5241,"longitude":76.9366,"temp":25.0,"humidity":96,"rain":0.0,"pressure":1007.8,"uv_index":7.85,"wind_gusts":42.8,"aqi":29,"pm10":14.1,"pm2_5":7.0,"no2":1.9,"co":92.0,"o3":56.0,"so2":0.7,"mosquito_risk":7,"arthritis_risk":5,"migraine_risk":4,"frizz_risk":1,"updated_at":"2026-06-11T04:57:20.373997+05:30"},{"city":"Kozhikode","state":"Kerala","latitude":11.2588,"longitude":75.7804,"temp":24.3,"humidity":97,"rain":0.0,"pressure":1007.4,"uv_index":8.05,"wind_gusts":33.1,"aqi":27,"pm10":10.4,"pm2_5":4.8,"no2":3.0,"co":333.0,"o3":53.0,"so2":1.6,"mosquito_risk":3,"arthritis_risk":5,"migraine_risk":4,"frizz_risk":1,"updated_at":"2026-06-11T04:57:20.374004+05:30"},{"city":"Thrissur","state":"Kerala","latitude":10.5276,"longitude":76.2144,"temp":24.0,"humidity":99,"rain":0.0,"pressure":1006.5,"uv_index":7.75,"wind_gusts":33.8,"aqi":33,"pm10":6.0,"pm2_5":5.5,"no2":13.8,"co":211.0,"o3":15.0,"so2":3.6,"mosquito_risk":3,"arthritis_risk":5,"migraine_risk":4,"frizz_risk":1,"updated_at":"2026-06-11T04:57:20.374013+05:30"},{"city":"Kannur","state":"Kerala","latitude":11.8745,"longitude":75.3704,"temp":24.3,"humidity":95,"rain":0.0,"pressure":1006.5,"uv_index":8.35,"wind_gusts":31.3,"aqi":29,"pm10":8.2,"pm2_5":6.0,"no2":12.4,"co":390.0,"o3":20.0,"so2":2.3,"mosquito_risk":3,"arthritis_risk":5,"migraine_risk":4,"frizz_risk":1,"updated_at":"2026-06-11T04:57:20.374020+05:30"},{"city":"Patna","state":"Bihar","latitude":25.5941,"longitude":85.1376,"temp":24.9,"humidity":90,"rain":0.0,"pressure":995.3,"uv_index":8.7,"wind_gusts":38.2,"aqi":162,"pm10":51.7,"pm2_5":39.7,"no2":8.8,"co":424.0,"o3":114.0,"so2":17.5,"mosquito_risk":3,"arthritis_risk":5,"migraine_risk":7,"frizz_risk":1,"updated_at":"2026-06-11T04:57:20.374027+05:30"},{"city":"Gaya","state":"Bihar","latitude":24.7914,"longitude":85.0002,"temp":27.3,"humidity":84,"rain":0.0,"pressure":987.8,"uv_index":8.85,"wind_gusts":39.2,"aqi":153,"pm10":69.2,"pm2_5":58.3,"no2":18.5,"co":436.0,"o3":58.0,"so2":27.9,"mosquito_risk":7,"arthritis_risk":5,"migraine_risk":7,"frizz_risk":1,"updated_at":"2026-06-11T04:57:20.374035+05:30"},{"city":"Muzaffarpur","state":"Bihar","latitude":26.1209,"longitude":85.3647,"temp":23.8,"humidity":90,"rain":0.0,"pressure":996.0,"uv_index":7.05,"wind_gusts":43.6,"aqi":160,"pm10":64.5,"pm2_5":50.3,"no2":8.2,"co":397.0,"o3":108.0,"so2":12.3,"mosquito_risk":3,"arthritis_risk":5,"migraine_risk":7,"frizz_risk":1,"updated_at":"2026-06-11T04:57:20.374041+05:30"},{"city":"Bhagalpur","state":"Bihar","latitude":25.2425,"longitude":87.0117,"temp":24.9,"humidity":90,"rain":0.0,"pressure":997.2,"uv_index":8.8,"wind_gusts":38.5,"aqi":155,"pm10":68.5,"pm2_5":53.4,"no2":11.8,"co":427.0,"o3":87.0,"so2":10.8,"mosquito_risk":3,"arthritis_risk":5,"migraine_risk":7,"frizz_risk":1,"updated_at":"2026-06-11T04:57:20.374047+05:30"},{"city":"Ranchi","state":"Jharkhand","latitude":23.3441,"longitude":85.3096,"temp":24.3,"humidity":74,"rain":0.0,"pressure":932.3,"uv_index":8.7,"wind_gusts":24.5,"aqi":147,"pm10":116.6,"pm2_5":51.2,"no2":17.5,"co":454.0,"o3":63.0,"so2":11.1,"mosquito_risk":3,"arthritis_risk":5,"migraine_risk":7,"frizz_risk":1,"updated_at":"2026-06-11T04:57:20.374054+05:30"},{"city":"Jamshedpur","state":"Jharkhand","latitude":22.8046,"longitude":86.2029,"temp":27.0,"humidity":86,"rain":0.0,"pressure":985.1,"uv_index":9.05,"wind_gusts":36.7,"aqi":155,"pm10":63.8,"pm2_5":54.8,"no2":20.2,"co":510.0,"o3":61.0,"so2":25.4,"mosquito_risk":7,"arthritis_risk":5,"migraine_risk":7,"frizz_risk":1,"updated_at":"2026-06-11T04:57:20.374061+05:30"},{"city":"Dhanbad","state":"Jharkhand","latitude":23.7957,"longitude":86.4304,"temp":27.1,"humidity":96,"rain":0.0,"pressure":974.4,"uv_index":9.05,"wind_gusts":40.7,"aqi":161,"pm10":77.3,"pm2_5":70.3,"no2":40.0,"co":618.0,"o3":48.0,"so2":93.0,"mosquito_risk":7,"arthritis_risk":5,"migraine_risk":7,"frizz_risk":1,"updated_at":"2026-06-11T04:57:20.374068+05:30"},{"city":"Bokaro","state":"Jharkhand","latitude":23.6693,"longitude":86.1511,"temp":26.5,"humidity":90,"rain":0.0,"pressure":978.1,"uv_index":8.85,"wind_gusts":40.0,"aqi":156,"pm10":94.5,"pm2_5":84.5,"no2":47.8,"co":1567.0,"o3":32.0,"so2":105.9,"mosquito_risk":7,"arthritis_risk":5,"migraine_risk":7,"frizz_risk":1,"updated_at":"2026-06-11T04:57:20.374075+05:30"},{"city":"Bhubaneswar","state":"Odisha","latitude":20.2961,"longitude":85.8245,"temp":28.0,"humidity":87,"rain":0.0,"pressure":996.1,"uv_index":9.05,"wind_gusts":26.6,"aqi":158,"pm10":88.9,"pm2_5":74.0,"no2":26.3,"co":395.0,"o3":56.0,"so2":8.7,"mosquito_risk":7,"arthritis_risk":5,"migraine_risk":7,"frizz_risk":1,"updated_at":"2026-06-11T04:57:20.374082+05:30"},{"city":"Cuttack","state":"Odisha","latitude":20.4625,"longitude":85.8828,"temp":28.2,"humidity":90,"rain":0.0,"pressure":998.0,"uv_index":9.15,"wind_gusts":35.6,"aqi":158,"pm10":88.9,"pm2_5":74.0,"no2":26.3,"co":465.0,"o3":56.0,"so2":8.7,"mosquito_risk":7,"arthritis_risk":5,"migraine_risk":7,"frizz_risk":1,"updated_at":"2026-06-11T04:57:20.374089+05:30"},{"city":"Rourkela","state":"Odisha","latitude":22.2604,"longitude":84.8536,"temp":26.1,"humidity":92,"rain":0.0,"pressure":979.4,"uv_index":9.0,"wind_gusts":27.0,"aqi":151,"pm10":139.7,"pm2_5":76.8,"no2":42.3,"co":931.0,"o3":31.0,"so2":17.7,"mosquito_risk":7,"arthritis_risk":5,"migraine_risk":7,"frizz_risk":1,"updated_at":"2026-06-11T04:57:20.374097+05:30"},{"city":"Raipur","state":"Chhattisgarh","latitude":21.2514,"longitude":81.6296,"temp":30.2,"humidity":55,"rain":0.0,"pressure":969.1,"uv_index":8.85,"wind_gusts":41.8,"aqi":126,"pm10":46.3,"pm2_5":39.8,"no2":33.9,"co":404.0,"o3":51.0,"so2":45.6,"mosquito_risk":0,"arthritis_risk":5,"migraine_risk":7,"frizz_risk":1,"updated_at":"2026-06-11T04:57:20.374103+05:30"},{"city":"Bhilai","state":"Chhattisgarh","latitude":21.1938,"longitude":81.3509,"temp":29.6,"humidity":61,"rain":0.0,"pressure":969.6,"uv_index":8.7,"wind_gusts":37.8,"aqi":119,"pm10":46.6,"pm2_5":37.4,"no2":30.6,"co":677.0,"o3":59.0,"so2":44.5,"mosquito_risk":7,"arthritis_risk":5,"migraine_risk":7,"frizz_risk":1,"updated_at":"2026-06-11T04:57:20.374110+05:30"},{"city":"Guwahati","state":"Assam","latitude":26.1158,"longitude":91.7086,"temp":23.9,"humidity":99,"rain":0.0,"pressure":999.1,"uv_index":8.75,"wind_gusts":23.0,"aqi":88,"pm10":43.9,"pm2_5":32.9,"no2":10.5,"co":391.0,"o3":38.0,"so2":1.8,"mosquito_risk":3,"arthritis_risk":5,"migraine_risk":7,"frizz_risk":1,"updated_at":"2026-06-11T04:57:20.374117+05:30"},{"city":"Agartala","state":"Tripura","latitude":23.8315,"longitude":91.2868,"temp":25.4,"humidity":92,"rain":0.0,"pressure":1002.8,"uv_index":8.6,"wind_gusts":38.2,"aqi":78,"pm10":40.6,"pm2_5":37.4,"no2":18.3,"co":197.0,"o3":25.0,"so2":3.7,"mosquito_risk":7,"arthritis_risk":5,"migraine_risk":4,"frizz_risk":1,"updated_at":"2026-06-11T04:57:20.374123+05:30"},{"city":"Shillong","state":"Meghalaya","latitude":25.5788,"longitude":91.8933,"temp":16.9,"humidity":99,"rain":0.0,"pressure":854.0,"uv_index":6.8,"wind_gusts":23.4,"aqi":54,"pm10":12.7,"pm2_5":8.3,"no2":5.5,"co":203.0,"o3":74.0,"so2":2.3,"mosquito_risk":3,"arthritis_risk":10,"migraine_risk":7,"frizz_risk":1,"updated_at":"2026-06-11T04:57:20.374130+05:30"},{"city":"Imphal","state":"Manipur","latitude":24.817,"longitude":93.9368,"temp":22.4,"humidity":96,"rain":0.0,"pressure":920.8,"uv_index":9.25,"wind_gusts":24.5,"aqi":98,"pm10":53.1,"pm2_5":47.1,"no2":11.7,"co":626.0,"o3":39.0,"so2":3.0,"mosquito_risk":3,"arthritis_risk":5,"migraine_risk":7,"frizz_risk":1,"updated_at":"2026-06-11T04:57:20.374136+05:30"},{"city":"Aizawl","state":"Mizoram","latitude":23.7271,"longitude":92.7176,"temp":18.4,"humidity":99,"rain":0.0,"pressure":889.1,"uv_index":9.1,"wind_gusts":25.6,"aqi":64,"pm10":25.1,"pm2_5":23.4,"no2":14.3,"co":304.0,"o3":12.0,"so2":0.6,"mosquito_risk":3,"arthritis_risk":10,"migraine_risk":7,"frizz_risk":1,"updated_at":"2026-06-11T04:57:20.374143+05:30"},{"city":"Kohima","state":"Nagaland","latitude":25.6701,"longitude":94.1077,"temp":19.5,"humidity":90,"rain":0.0,"pressure":853.3,"uv_index":9.25,"wind_gusts":33.5,"aqi":68,"pm10":29.6,"pm2_5":21.6,"no2":7.0,"co":273.0,"o3":50.0,"so2":2.0,"mosquito_risk":3,"arthritis_risk":10,"migraine_risk":7,"frizz_risk":1,"updated_at":"2026-06-11T04:57:20.374149+05:30"},{"city":"Gangtok","state":"Sikkim","latitude":27.3314,"longitude":88.6138,"temp":15.6,"humidity":93,"rain":0.1,"pressure":834.5,"uv_index":9.1,"wind_gusts":37.4,"aqi":108,"pm10":32.2,"pm2_5":23.4,"no2":8.3,"co":671.0,"o3":122.0,"so2":4.4,"mosquito_risk":6,"arthritis_risk":10,"migraine_risk":7,"frizz_risk":0,"updated_at":"2026-06-11T04:57:20.374156+05:30"},{"city":"Siliguri","state":"West Bengal","latitude":26.7271,"longitude":88.3953,"temp":22.9,"humidity":99,"rain":0.0,"pressure":990.5,"uv_index":8.75,"wind_gusts":31.7,"aqi":142,"pm10":92.9,"pm2_5":64.7,"no2":9.6,"co":369.0,"o3":125.0,"so2":9.3,"mosquito_risk":3,"arthritis_risk":5,"migraine_risk":7,"frizz_risk":1,"updated_at":"2026-06-11T04:57:23.632929+05:30"},{"city":"Durgapur","state":"West Bengal","latitude":23.5204,"longitude":87.3119,"temp":28.2,"humidity":95,"rain":0.0,"pressure":989.6,"uv_index":9.0,"wind_gusts":32.4,"aqi":168,"pm10":74.7,"pm2_5":67.8,"no2":26.6,"co":367.0,"o3":49.0,"so2":34.9,"mosquito_risk":7,"arthritis_risk":5,"migraine_risk":7,"frizz_risk":1,"updated_at":"2026-06-11T04:57:23.632984+05:30"},{"city":"Asansol","state":"West Bengal","latitude":23.6739,"longitude":86.9524,"temp":28.4,"humidity":95,"rain":0.0,"pressure":988.2,"uv_index":9.0,"wind_gusts":38.2,"aqi":162,"pm10":63.1,"pm2_5":56.9,"no2":22.6,"co":606.0,"o3":64.0,"so2":36.1,"mosquito_risk":7,"arthritis_risk":5,"migraine_risk":7,"frizz_risk":1,"updated_at":"2026-06-11T04:57:23.632995+05:30"},{"city":"Pondicherry","state":"Puducherry","latitude":11.9139,"longitude":79.8145,"temp":27.6,"humidity":83,"rain":0.0,"pressure":1005.4,"uv_index":7.4,"wind_gusts":31.3,"aqi":58,"pm10":19.0,"pm2_5":15.1,"no2":14.7,"co":250.0,"o3":41.0,"so2":5.0,"mosquito_risk":7,"arthritis_risk":5,"migraine_risk":4,"frizz_risk":1,"updated_at":"2026-06-11T04:57:23.633003+05:30"},{"city":"Port Blair","state":"Andaman and Nicobar Islands","latitude":11.6234,"longitude":92.7265,"temp":25.1,"humidity":97,"rain":0.0,"pressure":1006.1,"uv_index":2.85,"wind_gusts":49.7,"aqi":26,"pm10":8.4,"pm2_5":5.1,"no2":0.3,"co":90.0,"o3":61.0,"so2":0.2,"mosquito_risk":7,"arthritis_risk":5,"migraine_risk":0,"frizz_risk":1,"updated_at":"2026-06-11T04:57:23.633010+05:30"},{"city":"Haridwar","state":"Uttarakhand","latitude":29.9457,"longitude":78.1642,"temp":26.8,"humidity":69,"rain":0.0,"pressure":967.0,"uv_index":7.6,"wind_gusts":50.0,"aqi":118,"pm10":33.3,"pm2_5":29.6,"no2":20.9,"co":313.0,"o3":49.0,"so2":4.1,"mosquito_risk":7,"arthritis_risk":5,"migraine_risk":7,"frizz_risk":1,"updated_at":"2026-06-11T04:57:23.633018+05:30"},{"city":"Rishikesh","state":"Uttarakhand","latitude":30.0869,"longitude":78.2676,"temp":24.7,"humidity":65,"rain":0.0,"pressure":960.0,"uv_index":7.7,"wind_gusts":40.7,"aqi":92,"pm10":29.6,"pm2_5":25.3,"no2":13.3,"co":362.0,"o3":61.0,"so2":2.5,"mosquito_risk":3,"arthritis_risk":5,"migraine_risk":7,"frizz_risk":1,"updated_at":"2026-06-11T04:57:23.633025+05:30"},{"city":"Nainital","state":"Uttarakhand","latitude":29.3919,"longitude":79.4542,"temp":11.5,"humidity":97,"rain":0.1,"pressure":800.9,"uv_index":7.95,"wind_gusts":36.4,"aqi":107,"pm10":58.3,"pm2_5":40.9,"no2":15.0,"co":297.0,"o3":73.0,"so2":3.4,"mosquito_risk":6,"arthritis_risk":10,"migraine_risk":7,"frizz_risk":0,"updated_at":"2026-06-11T04:57:23.633032+05:30"},{"city":"Mussoorie","state":"Uttarakhand","latitude":30.4599,"longitude":78.0664,"temp":15.8,"humidity":83,"rain":0.0,"pressure":799.1,"uv_index":8.15,"wind_gusts":39.2,"aqi":89,"pm10":29.0,"pm2_5":25.3,"no2":24.2,"co":318.0,"o3":34.0,"so2":3.2,"mosquito_risk":3,"arthritis_risk":10,"migraine_risk":7,"frizz_risk":0,"updated_at":"2026-06-11T04:57:23.633039+05:30"},{"city":"Dharamshala","state":"Himachal Pradesh","latitude":32.219,"longitude":76.3234,"temp":23.2,"humidity":46,"rain":0.0,"pressure":864.5,"uv_index":8.5,"wind_gusts":41.0,"aqi":61,"pm10":12.8,"pm2_5":10.6,"no2":15.4,"co":234.0,"o3":22.0,"so2":0.0,"mosquito_risk":0,"arthritis_risk":5,"migraine_risk":7,"frizz_risk":0,"updated_at":"2026-06-11T04:57:23.633046+05:30"},{"city":"Dalhousie","state":"Himachal Pradesh","latitude":32.5387,"longitude":75.971,"temp":13.0,"humidity":78,"rain":0.0,"pressure":797.5,"uv_index":8.75,"wind_gusts":32.4,"aqi":86,"pm10":34.0,"pm2_5":32.4,"no2":30.1,"co":355.0,"o3":10.0,"so2":0.7,"mosquito_risk":3,"arthritis_risk":5,"migraine_risk":7,"frizz_risk":0,"updated_at":"2026-06-11T04:57:23.633053+05:30"},{"city":"Patiala","state":"Punjab","latitude":30.3398,"longitude":76.3869,"temp":30.0,"humidity":58,"rain":0.0,"pressure":969.9,"uv_index":7.65,"wind_gusts":52.2,"aqi":760,"pm10":1780.7,"pm2_5":244.9,"no2":6.6,"co":378.0,"o3":113.0,"so2":12.1,"mosquito_risk":4,"arthritis_risk":5,"migraine_risk":7,"frizz_risk":1,"updated_at":"2026-06-11T04:57:23.633061+05:30"},{"city":"Bhatinda","state":"Punjab","latitude":30.211,"longitude":74.9455,"temp":31.9,"humidity":45,"rain":0.0,"pressure":973.5,"uv_index":8.35,"wind_gusts":72.4,"aqi":155,"pm10":232.4,"pm2_5":80.1,"no2":39.6,"co":246.0,"o3":33.0,"so2":7.8,"mosquito_risk":0,"arthritis_risk":5,"migraine_risk":7,"frizz_risk":1,"updated_at":"2026-06-11T04:57:23.633067+05:30"},{"city":"Rohtak","state":"Haryana","latitude":28.8955,"longitude":76.6066,"temp":30.7,"humidity":54,"rain":0.0,"pressure":972.5,"uv_index":7.85,"wind_gusts":73.4,"aqi":822,"pm10":480.6,"pm2_5":108.7,"no2":45.5,"co":621.0,"o3":21.0,"so2":14.5,"mosquito_risk":0,"arthritis_risk":5,"migraine_risk":7,"frizz_risk":1,"updated_at":"2026-06-11T04:57:23.633074+05:30"},{"city":"Panipat","state":"Haryana","latitude":29.3909,"longitude":76.9635,"temp":29.5,"humidity":60,"rain":0.0,"pressure":971.9,"uv_index":7.65,"wind_gusts":48.2,"aqi":1406,"pm10":2421.4,"pm2_5":349.2,"no2":27.4,"co":345.0,"o3":54.0,"so2":17.0,"mosquito_risk":4,"arthritis_risk":5,"migraine_risk":7,"frizz_risk":1,"updated_at":"2026-06-11T04:57:23.633080+05:30"},{"city":"Mathura","state":"Uttar Pradesh","latitude":27.4924,"longitude":77.6737,"temp":30.6,"humidity":59,"rain":0.0,"pressure":978.1,"uv_index":7.2,"wind_gusts":63.7,"aqi":422,"pm10":1076.6,"pm2_5":137.8,"no2":15.3,"co":222.0,"o3":45.0,"so2":4.3,"mosquito_risk":0,"arthritis_risk":5,"migraine_risk":7,"frizz_risk":1,"updated_at":"2026-06-11T04:57:23.633086+05:30"},{"city":"Vrindavan","state":"Uttar Pradesh","latitude":27.5823,"longitude":77.7027,"temp":30.4,"humidity":63,"rain":0.0,"pressure":978.6,"uv_index":7.15,"wind_gusts":65.2,"aqi":422,"pm10":1076.6,"pm2_5":137.8,"no2":15.3,"co":243.0,"o3":45.0,"so2":4.3,"mosquito_risk":3,"arthritis_risk":5,"migraine_risk":7,"frizz_risk":1,"updated_at":"2026-06-11T04:57:23.633092+05:30"},{"city":"Ayodhya","state":"Uttar Pradesh","latitude":26.7922,"longitude":82.1998,"temp":24.4,"humidity":92,"rain":0.1,"pressure":990.9,"uv_index":8.45,"wind_gusts":42.5,"aqi":154,"pm10":90.8,"pm2_5":63.6,"no2":7.7,"co":478.0,"o3":123.0,"so2":10.1,"mosquito_risk":6,"arthritis_risk":5,"migraine_risk":7,"frizz_risk":1,"updated_at":"2026-06-11T04:57:23.633099+05:30"},{"city":"Ratlam","state":"Madhya Pradesh","latitude":23.3315,"longitude":75.0367,"temp":26.4,"humidity":83,"rain":0.0,"pressure":950.0,"uv_index":8.55,"wind_gusts":46.8,"aqi":76,"pm10":30.0,"pm2_5":18.7,"no2":6.3,"co":137.0,"o3":45.0,"so2":9.4,"mosquito_risk":7,"arthritis_risk":5,"migraine_risk":7,"frizz_risk":1,"updated_at":"2026-06-11T04:57:23.633105+05:30"},{"city":"Sagar","state":"Madhya Pradesh","latitude":23.8388,"longitude":78.7378,"temp":29.2,"humidity":53,"rain":0.0,"pressure":945.2,"uv_index":8.75,"wind_gusts":39.6,"aqi":67,"pm10":31.3,"pm2_5":21.5,"no2":7.8,"co":205.0,"o3":62.0,"so2":4.3,"mosquito_risk":4,"arthritis_risk":5,"migraine_risk":7,"frizz_risk":1,"updated_at":"2026-06-11T04:57:23.633111+05:30"},{"city":"Satna","state":"Madhya Pradesh","latitude":24.6005,"longitude":80.8322,"temp":30.5,"humidity":40,"rain":0.0,"pressure":964.7,"uv_index":8.35,"wind_gusts":49.3,"aqi":71,"pm10":22.2,"pm2_5":16.2,"no2":15.4,"co":223.0,"o3":47.0,"so2":3.7,"mosquito_risk":0,"arthritis_risk":5,"migraine_risk":7,"frizz_risk":0,"updated_at":"2026-06-11T04:57:23.633117+05:30"},{"city":"Akola","state":"Maharashtra","latitude":20.7002,"longitude":77.0082,"temp":30.4,"humidity":57,"rain":0.0,"pressure":970.9,"uv_index":8.8,"wind_gusts":38.9,"aqi":74,"pm10":34.9,"pm2_5":21.1,"no2":7.9,"co":123.0,"o3":49.0,"so2":8.6,"mosquito_risk":0,"arthritis_risk":5,"migraine_risk":7,"frizz_risk":1,"updated_at":"2026-06-11T04:57:23.633125+05:30"},{"city":"Amravati","state":"Maharashtra","latitude":20.9374,"longitude":77.7796,"temp":30.1,"humidity":55,"rain":0.0,"pressure":962.8,"uv_index":8.85,"wind_gusts":38.9,"aqi":75,"pm10":38.9,"pm2_5":23.8,"no2":8.5,"co":147.0,"o3":55.0,"so2":9.6,"mosquito_risk":0,"arthritis_risk":5,"migraine_risk":7,"frizz_risk":1,"updated_at":"2026-06-11T04:57:23.633132+05:30"},{"city":"Latur","state":"Maharashtra","latitude":18.4088,"longitude":76.5604,"temp":25.8,"humidity":79,"rain":0.0,"pressure":936.5,"uv_index":8.85,"wind_gusts":33.8,"aqi":69,"pm10":26.3,"pm2_5":14.6,"no2":6.1,"co":133.0,"o3":41.0,"so2":3.2,"mosquito_risk":7,"arthritis_risk":5,"migraine_risk":7,"frizz_risk":1,"updated_at":"2026-06-11T04:57:23.633139+05:30"},{"city":"Nanded","state":"Maharashtra","latitude":19.1383,"longitude":77.3091,"temp":29.5,"humidity":61,"rain":0.0,"pressure":964.7,"uv_index":8.9,"wind_gusts":40.7,"aqi":78,"pm10":33.8,"pm2_5":21.4,"no2":6.5,"co":138.0,"o3":62.0,"so2":7.0,"mosquito_risk":7,"arthritis_risk":5,"migraine_risk":7,"frizz_risk":1,"updated_at":"2026-06-11T04:57:23.633146+05:30"},{"city":"Gulbarga","state":"Karnataka","latitude":17.3297,"longitude":76.8343,"temp":25.9,"humidity":80,"rain":0.0,"pressure":955.5,"uv_index":8.75,"wind_gusts":39.6,"aqi":56,"pm10":17.1,"pm2_5":10.7,"no2":7.1,"co":123.0,"o3":37.0,"so2":3.0,"mosquito_risk":7,"arthritis_risk":5,"migraine_risk":7,"frizz_risk":1,"updated_at":"2026-06-11T04:57:23.633152+05:30"},{"city":"Bidar","state":"Karnataka","latitude":17.9104,"longitude":77.5199,"temp":25.8,"humidity":69,"rain":0.0,"pressure":932.1,"uv_index":8.8,"wind_gusts":37.1,"aqi":73,"pm10":27.9,"pm2_5":17.9,"no2":7.1,"co":124.0,"o3":46.0,"so2":2.7,"mosquito_risk":7,"arthritis_risk":5,"migraine_risk":7,"frizz_risk":1,"updated_at":"2026-06-11T04:57:23.633159+05:30"},{"city":"Hospet","state":"Karnataka","latitude":15.2689,"longitude":76.3909,"temp":23.7,"humidity":90,"rain":0.0,"pressure":954.0,"uv_index":9.0,"wind_gusts":41.0,"aqi":33,"pm10":9.7,"pm2_5":5.2,"no2":4.3,"co":115.0,"o3":40.0,"so2":1.1,"mosquito_risk":3,"arthritis_risk":5,"migraine_risk":7,"frizz_risk":1,"updated_at":"2026-06-11T04:57:23.633165+05:30"},{"city":"Tirupur","state":"Tamil Nadu","latitude":11.1085,"longitude":77.3411,"temp":23.5,"humidity":92,"rain":0.0,"pressure":973.6,"uv_index":7.95,"wind_gusts":57.6,"aqi":32,"pm10":11.1,"pm2_5":9.7,"no2":17.9,"co":132.0,"o3":22.0,"so2":4.7,"mosquito_risk":3,"arthritis_risk":5,"migraine_risk":7,"frizz_risk":1,"updated_at":"2026-06-11T04:57:23.633171+05:30"},{"city":"Alappuzha","state":"Kerala","latitude":9.4981,"longitude":76.3388,"temp":25.8,"humidity":96,"rain":0.0,"pressure":1008.2,"uv_index":7.35,"wind_gusts":36.4,"aqi":30,"pm10":12.5,"pm2_5":6.9,"no2":5.9,"co":93.0,"o3":45.0,"so2":2.3,"mosquito_risk":7,"arthritis_risk":0,"migraine_risk":4,"frizz_risk":1,"updated_at":"2026-06-11T04:57:23.633177+05:30"},{"city":"Munnar","state":"Kerala","latitude":10.0889,"longitude":77.0595,"temp":17.1,"humidity":99,"rain":0.0,"pressure":855.4,"uv_index":7.8,"wind_gusts":37.4,"aqi":17,"pm10":1.4,"pm2_5":1.3,"no2":3.2,"co":96.0,"o3":35.0,"so2":1.3,"mosquito_risk":3,"arthritis_risk":10,"migraine_risk":7,"frizz_risk":1,"updated_at":"2026-06-11T04:57:23.633184+05:30"},{"city":"Silchar","state":"Assam","latitude":24.8333,"longitude":92.7789,"temp":25.4,"humidity":100,"rain":0.0,"pressure":1002.2,"uv_index":8.9,"wind_gusts":44.6,"aqi":97,"pm10":40.7,"pm2_5":34.5,"no2":16.0,"co":420.0,"o3":21.0,"so2":3.0,"mosquito_risk":7,"arthritis_risk":5,"migraine_risk":4,"frizz_risk":1,"updated_at":"2026-06-11T04:57:23.633190+05:30"},{"city":"Dibrugarh","state":"Assam","latitude":27.4728,"longitude":94.912,"temp":23.8,"humidity":99,"rain":0.2,"pressure":993.0,"uv_index":8.75,"wind_gusts":19.4,"aqi":78,"pm10":27.0,"pm2_5":20.2,"no2":11.2,"co":264.0,"o3":60.0,"so2":1.2,"mosquito_risk":6,"arthritis_risk":5,"migraine_risk":7,"frizz_risk":1,"updated_at":"2026-06-11T04:57:23.633197+05:30"}]