[{"city":"Delhi","state":"Delhi","latitude":28.6139,"longitude":77.209,"temp":32.8,"humidity":50,"rain":0.0,"pressure":978.9,"uv_index":7.75,"wind_gusts":31.0,"aqi":161,"pm10":291.5,"pm2_5":117.3,"no2":78.4,"co":959.0,"o3":19.0,"so2":28.3,"mosquito_risk":0,"arthritis_risk":5,"migraine_risk":7,"frizz_risk":1,"updated_at":"2026-06-27T01:22:18.123656+05:30"},{"city":"Mumbai","state":"Maharashtra","latitude":19.076,"longitude":72.8777,"temp":27.2,"humidity":87,"rain":0.1,"pressure":1006.7,"uv_index":6.8,"wind_gusts":36.0,"aqi":61,"pm10":22.2,"pm2_5":12.7,"no2":11.5,"co":375.0,"o3":40.0,"so2":7.7,"mosquito_risk":10,"arthritis_risk":5,"migraine_risk":4,"frizz_risk":1,"updated_at":"2026-06-27T01:22:18.123700+05:30"},{"city":"Bangalore","state":"Karnataka","latitude":12.9716,"longitude":77.5946,"temp":21.0,"humidity":90,"rain":0.0,"pressure":910.5,"uv_index":9.1,"wind_gusts":39.6,"aqi":31,"pm10":10.7,"pm2_5":8.4,"no2":16.8,"co":356.0,"o3":41.0,"so2":5.3,"mosquito_risk":3,"arthritis_risk":5,"migraine_risk":7,"frizz_risk":1,"updated_at":"2026-06-27T01:22:18.123732+05:30"},{"city":"Hyderabad","state":"Telangana","latitude":17.385,"longitude":78.4867,"temp":25.4,"humidity":86,"rain":0.0,"pressure":950.9,"uv_index":6.35,"wind_gusts":33.8,"aqi":64,"pm10":35.3,"pm2_5":23.5,"no2":14.1,"co":433.0,"o3":63.0,"so2":6.7,"mosquito_risk":7,"arthritis_risk":5,"migraine_risk":7,"frizz_risk":1,"updated_at":"2026-06-27T01:22:18.123742+05:30"},{"city":"Chennai","state":"Tamil Nadu","latitude":13.0827,"longitude":80.2707,"temp":27.6,"humidity":78,"rain":0.0,"pressure":1004.7,"uv_index":8.0,"wind_gusts":42.8,"aqi":64,"pm10":24.6,"pm2_5":17.9,"no2":13.4,"co":253.0,"o3":72.0,"so2":7.9,"mosquito_risk":7,"arthritis_risk":5,"migraine_risk":4,"frizz_risk":1,"updated_at":"2026-06-27T01:22:18.123751+05:30"},{"city":"Kolkata","state":"West Bengal","latitude":22.5726,"longitude":88.3639,"temp":27.6,"humidity":92,"rain":0.0,"pressure":1003.2,"uv_index":8.85,"wind_gusts":29.5,"aqi":90,"pm10":28.8,"pm2_5":26.5,"no2":14.1,"co":310.0,"o3":53.0,"so2":6.5,"mosquito_risk":7,"arthritis_risk":5,"migraine_risk":4,"frizz_risk":1,"updated_at":"2026-06-27T01:22:18.123759+05:30"},{"city":"Pune","state":"Maharashtra","latitude":18.5204,"longitude":73.8567,"temp":23.6,"humidity":89,"rain":0.0,"pressure":946.3,"uv_index":7.95,"wind_gusts":39.2,"aqi":44,"pm10":12.8,"pm2_5":9.3,"no2":13.2,"co":167.0,"o3":33.0,"so2":9.2,"mosquito_risk":3,"arthritis_risk":5,"migraine_risk":7,"frizz_risk":1,"updated_at":"2026-06-27T01:22:18.123766+05:30"},{"city":"Ahmedabad","state":"Gujarat","latitude":23.0225,"longitude":72.5714,"temp":31.6,"humidity":55,"rain":0.0,"pressure":998.6,"uv_index":8.05,"wind_gusts":34.2,"aqi":69,"pm10":51.2,"pm2_5":25.0,"no2":8.7,"co":168.0,"o3":56.0,"so2":4.3,"mosquito_risk":0,"arthritis_risk":5,"migraine_risk":7,"frizz_risk":1,"updated_at":"2026-06-27T01:22:18.123773+05:30"},{"city":"Jaipur","state":"Rajasthan","latitude":26.9124,"longitude":75.7873,"temp":29.0,"humidity":67,"rain":0.0,"pressure":956.7,"uv_index":8.2,"wind_gusts":41.4,"aqi":99,"pm10":122.5,"pm2_5":41.7,"no2":20.5,"co":409.0,"o3":39.0,"so2":6.9,"mosquito_risk":7,"arthritis_risk":5,"migraine_risk":7,"frizz_risk":1,"updated_at":"2026-06-27T01:22:18.123780+05:30"},{"city":"Lucknow","state":"Uttar Pradesh","latitude":26.8467,"longitude":80.9462,"temp":31.7,"humidity":52,"rain":0.0,"pressure":989.7,"uv_index":8.2,"wind_gusts":31.0,"aqi":127,"pm10":91.7,"pm2_5":51.5,"no2":21.2,"co":377.0,"o3":78.0,"so2":10.7,"mosquito_risk":0,"arthritis_risk":5,"migraine_risk":7,"frizz_risk":1,"updated_at":"2026-06-27T01:22:18.123790+05:30"},{"city":"Kanpur","state":"Uttar Pradesh","latitude":26.4499,"longitude":80.3319,"temp":33.3,"humidity":52,"rain":0.0,"pressure":987.8,"uv_index":7.95,"wind_gusts":28.4,"aqi":130,"pm10":101.3,"pm2_5":47.0,"no2":21.1,"co":246.0,"o3":66.0,"so2":7.5,"mosquito_risk":0,"arthritis_risk":5,"migraine_risk":7,"frizz_risk":1,"updated_at":"2026-06-27T01:22:18.123796+05:30"},{"city":"Chandigarh","state":"Chandigarh","latitude":30.7333,"longitude":76.7794,"temp":27.9,"humidity":76,"rain":0.0,"pressure":964.8,"uv_index":7.8,"wind_gusts":27.0,"aqi":151,"pm10":105.5,"pm2_5":77.8,"no2":69.1,"co":1237.0,"o3":9.0,"so2":9.9,"mosquito_risk":7,"arthritis_risk":5,"migraine_risk":7,"frizz_risk":1,"updated_at":"2026-06-27T01:22:18.123805+05:30"},{"city":"Srinagar","state":"Jammu and Kashmir","latitude":34.0837,"longitude":74.7973,"temp":18.2,"humidity":83,"rain":0.0,"pressure":839.6,"uv_index":9.1,"wind_gusts":25.2,"aqi":81,"pm10":38.3,"pm2_5":37.6,"no2":38.1,"co":873.0,"o3":0.0,"so2":1.5,"mosquito_risk":3,"arthritis_risk":10,"migraine_risk":7,"frizz_risk":0,"updated_at":"2026-06-27T01:22:18.123812+05:30"},{"city":"Jammu","state":"Jammu and Kashmir","latitude":32.7266,"longitude":74.857,"temp":29.0,"humidity":68,"rain":0.0,"pressure":969.1,"uv_index":8.65,"wind_gusts":31.0,"aqi":138,"pm10":126.2,"pm2_5":74.7,"no2":55.3,"co":541.0,"o3":57.0,"so2":11.0,"mosquito_risk":7,"arthritis_risk":5,"migraine_risk":7,"frizz_risk":1,"updated_at":"2026-06-27T01:22:18.123818+05:30"},{"city":"Amritsar","state":"Punjab","latitude":31.634,"longitude":74.8723,"temp":28.9,"humidity":83,"rain":0.0,"pressure":976.5,"uv_index":8.5,"wind_gusts":15.8,"aqi":152,"pm10":99.0,"pm2_5":76.1,"no2":38.7,"co":829.0,"o3":52.0,"so2":7.7,"mosquito_risk":7,"arthritis_risk":5,"migraine_risk":7,"frizz_risk":1,"updated_at":"2026-06-27T01:22:18.123825+05:30"},{"city":"Ludhiana","state":"Punjab","latitude":30.901,"longitude":75.8573,"temp":31.2,"humidity":63,"rain":0.0,"pressure":974.7,"uv_index":8.05,"wind_gusts":25.9,"aqi":157,"pm10":115.3,"pm2_5":85.0,"no2":56.5,"co":897.0,"o3":28.0,"so2":11.4,"mosquito_risk":3,"arthritis_risk":5,"migraine_risk":7,"frizz_risk":1,"updated_at":"2026-06-27T01:22:18.123831+05:30"},{"city":"Jalandhar","state":"Punjab","latitude":31.326,"longitude":75.5762,"temp":30.2,"humidity":65,"rain":0.0,"pressure":975.7,"uv_index":8.25,"wind_gusts":24.8,"aqi":151,"pm10":128.5,"pm2_5":96.6,"no2":62.8,"co":975.0,"o3":24.0,"so2":10.4,"mosquito_risk":3,"arthritis_risk":5,"migraine_risk":7,"frizz_risk":1,"updated_at":"2026-06-27T01:22:18.123836+05:30"},{"city":"Dehradun","state":"Uttarakhand","latitude":30.6284,"longitude":78.0322,"temp":17.1,"humidity":97,"rain":0.0,"pressure":828.8,"uv_index":7.9,"wind_gusts":27.0,"aqi":76,"pm10":42.4,"pm2_5":26.3,"no2":35.7,"co":221.0,"o3":33.0,"so2":0.9,"mosquito_risk":3,"arthritis_risk":10,"migraine_risk":7,"frizz_risk":1,"updated_at":"2026-06-27T01:22:18.123842+05:30"},{"city":"Shimla","state":"Himachal Pradesh","latitude":31.1048,"longitude":77.1734,"temp":13.3,"humidity":96,"rain":0.0,"pressure":782.0,"uv_index":4.85,"wind_gusts":31.3,"aqi":86,"pm10":50.1,"pm2_5":32.0,"no2":17.7,"co":387.0,"o3":77.0,"so2":0.7,"mosquito_risk":3,"arthritis_risk":10,"migraine_risk":3,"frizz_risk":0,"updated_at":"2026-06-27T01:22:18.123848+05:30"},{"city":"Manali","state":"Himachal Pradesh","latitude":32.2396,"longitude":77.1887,"temp":16.5,"humidity":80,"rain":0.1,"pressure":817.8,"uv_index":8.25,"wind_gusts":34.9,"aqi":49,"pm10":6.7,"pm2_5":6.0,"no2":87.2,"co":309.0,"o3":21.0,"so2":0.0,"mosquito_risk":6,"arthritis_risk":5,"migraine_risk":7,"frizz_risk":0,"updated_at":"2026-06-27T01:22:18.123859+05:30"},{"city":"Gurgaon","state":"Haryana","latitude":28.4595,"longitude":77.0266,"temp":31.2,"humidity":61,"rain":0.0,"pressure":977.2,"uv_index":7.55,"wind_gusts":33.1,"aqi":154,"pm10":210.0,"pm2_5":88.0,"no2":69.8,"co":1181.0,"o3":11.0,"so2":20.4,"mosquito_risk":3,"arthritis_risk":5,"migraine_risk":7,"frizz_risk":1,"updated_at":"2026-06-27T01:22:18.123865+05:30"},{"city":"Noida","state":"Uttar Pradesh","latitude":28.5355,"longitude":77.391,"temp":30.9,"humidity":65,"rain":0.0,"pressure":980.1,"uv_index":7.8,"wind_gusts":24.1,"aqi":154,"pm10":210.0,"pm2_5":88.0,"no2":69.8,"co":1606.0,"o3":11.0,"so2":20.4,"mosquito_risk":3,"arthritis_risk":5,"migraine_risk":7,"frizz_risk":1,"updated_at":"2026-06-27T01:22:18.123871+05:30"},{"city":"Ghaziabad","state":"Uttar Pradesh","latitude":28.6692,"longitude":77.4538,"temp":30.9,"humidity":69,"rain":0.0,"pressure":978.4,"uv_index":7.75,"wind_gusts":27.0,"aqi":159,"pm10":211.4,"pm2_5":108.0,"no2":61.4,"co":1182.0,"o3":52.0,"so2":29.2,"mosquito_risk":3,"arthritis_risk":5,"migraine_risk":7,"frizz_risk":1,"updated_at":"2026-06-27T01:22:18.123877+05:30"},{"city":"Faridabad","state":"Haryana","latitude":28.4089,"longitude":77.3178,"temp":31.6,"humidity":54,"rain":0.0,"pressure":979.5,"uv_index":7.8,"wind_gusts":31.3,"aqi":154,"pm10":210.0,"pm2_5":88.0,"no2":69.8,"co":1063.0,"o3":11.0,"so2":20.4,"mosquito_risk":0,"arthritis_risk":5,"migraine_risk":7,"frizz_risk":1,"updated_at":"2026-06-27T01:22:18.123883+05:30"},{"city":"Meerut","state":"Uttar Pradesh","latitude":28.9845,"longitude":77.7064,"temp":32.3,"humidity":49,"rain":0.0,"pressure":977.3,"uv_index":7.55,"wind_gusts":34.9,"aqi":159,"pm10":211.4,"pm2_5":108.0,"no2":61.4,"co":630.0,"o3":52.0,"so2":29.2,"mosquito_risk":0,"arthritis_risk":5,"migraine_risk":7,"frizz_risk":1,"updated_at":"2026-06-27T01:22:18.123890+05:30"},{"city":"Agra","state":"Uttar Pradesh","latitude":27.1767,"longitude":78.0081,"temp":32.1,"humidity":55,"rain":0.0,"pressure":983.7,"uv_index":8.1,"wind_gusts":36.0,"aqi":149,"pm10":107.6,"pm2_5":62.2,"no2":62.3,"co":469.0,"o3":9.0,"so2":15.0,"mosquito_risk":0,"arthritis_risk":5,"migraine_risk":7,"frizz_risk":1,"updated_at":"2026-06-27T01:22:18.123896+05:30"},{"city":"Varanasi","state":"Uttar Pradesh","latitude":25.3176,"longitude":82.9739,"temp":32.2,"humidity":67,"rain":0.0,"pressure":993.9,"uv_index":7.9,"wind_gusts":33.8,"aqi":96,"pm10":32.4,"pm2_5":29.0,"no2":13.0,"co":431.0,"o3":89.0,"so2":6.8,"mosquito_risk":3,"arthritis_risk":5,"migraine_risk":7,"frizz_risk":1,"updated_at":"2026-06-27T01:22:18.123902+05:30"},{"city":"Prayagraj","state":"Uttar Pradesh","latitude":25.4358,"longitude":81.8463,"temp":32.1,"humidity":68,"rain":0.0,"pressure":992.2,"uv_index":8.7,"wind_gusts":23.0,"aqi":109,"pm10":35.9,"pm2_5":29.9,"no2":12.9,"co":225.0,"o3":83.0,"so2":7.0,"mosquito_risk":3,"arthritis_risk":5,"migraine_risk":7,"frizz_risk":1,"updated_at":"2026-06-27T01:22:18.123908+05:30"},{"city":"Gorakhpur","state":"Uttar Pradesh","latitude":26.7606,"longitude":83.3732,"temp":30.8,"humidity":70,"rain":0.0,"pressure":993.2,"uv_index":8.3,"wind_gusts":37.1,"aqi":151,"pm10":104.5,"pm2_5":76.6,"no2":29.5,"co":622.0,"o3":56.0,"so2":11.9,"mosquito_risk":3,"arthritis_risk":5,"migraine_risk":7,"frizz_risk":1,"updated_at":"2026-06-27T01:22:18.123914+05:30"},{"city":"Bareilly","state":"Uttar Pradesh","latitude":28.367,"longitude":79.4304,"temp":32.4,"humidity":49,"rain":0.0,"pressure":982.5,"uv_index":8.1,"wind_gusts":26.6,"aqi":153,"pm10":121.1,"pm2_5":81.0,"no2":50.9,"co":505.0,"o3":51.0,"so2":18.8,"mosquito_risk":0,"arthritis_risk":5,"migraine_risk":7,"frizz_risk":1,"updated_at":"2026-06-27T01:22:18.123923+05:30"},{"city":"Aligarh","state":"Uttar Pradesh","latitude":27.8974,"longitude":78.088,"temp":31.3,"humidity":63,"rain":0.0,"pressure":981.4,"uv_index":7.35,"wind_gusts":33.8,"aqi":147,"pm10":172.3,"pm2_5":66.8,"no2":48.0,"co":468.0,"o3":24.0,"so2":8.2,"mosquito_risk":3,"arthritis_risk":5,"migraine_risk":7,"frizz_risk":1,"updated_at":"2026-06-27T01:22:18.123929+05:30"},{"city":"Moradabad","state":"Uttar Pradesh","latitude":28.8386,"longitude":78.7733,"temp":32.6,"humidity":46,"rain":0.0,"pressure":979.4,"uv_index":7.95,"wind_gusts":32.0,"aqi":155,"pm10":171.8,"pm2_5":118.3,"no2":76.6,"co":585.0,"o3":13.0,"so2":21.3,"mosquito_risk":0,"arthritis_risk":5,"migraine_risk":7,"frizz_risk":1,"updated_at":"2026-06-27T01:22:18.123935+05:30"},{"city":"Saharanpur","state":"Uttar Pradesh","latitude":29.9637,"longitude":77.546,"temp":30.6,"humidity":61,"rain":0.0,"pressure":971.9,"uv_index":7.45,"wind_gusts":26.6,"aqi":156,"pm10":307.3,"pm2_5":151.3,"no2":94.3,"co":882.0,"o3":0.0,"so2":27.7,"mosquito_risk":3,"arthritis_risk":5,"migraine_risk":7,"frizz_risk":1,"updated_at":"2026-06-27T01:22:18.123941+05:30"},{"city":"Jhansi","state":"Uttar Pradesh","latitude":25.4484,"longitude":78.5685,"temp":30.4,"humidity":56,"rain":0.0,"pressure":974.5,"uv_index":8.45,"wind_gusts":23.4,"aqi":86,"pm10":59.3,"pm2_5":31.9,"no2":13.6,"co":192.0,"o3":57.0,"so2":4.9,"mosquito_risk":0,"arthritis_risk":5,"migraine_risk":7,"frizz_risk":1,"updated_at":"2026-06-27T01:22:21.418509+05:30"},{"city":"Surat","state":"Gujarat","latitude":21.1702,"longitude":72.8311,"temp":28.8,"humidity":81,"rain":0.0,"pressure":1004.4,"uv_index":7.6,"wind_gusts":40.0,"aqi":85,"pm10":39.9,"pm2_5":22.9,"no2":17.1,"co":274.0,"o3":33.0,"so2":28.8,"mosquito_risk":7,"arthritis_risk":5,"migraine_risk":4,"frizz_risk":1,"updated_at":"2026-06-27T01:22:21.418544+05:30"},{"city":"Vadodara","state":"Gujarat","latitude":22.3072,"longitude":73.1812,"temp":30.1,"humidity":72,"rain":0.0,"pressure":1001.1,"uv_index":8.0,"wind_gusts":47.5,"aqi":78,"pm10":31.5,"pm2_5":20.8,"no2":18.0,"co":143.0,"o3":27.0,"so2":16.7,"mosquito_risk":3,"arthritis_risk":5,"migraine_risk":4,"frizz_risk":1,"updated_at":"2026-06-27T01:22:21.418554+05:30"},{"city":"Rajkot","state":"Gujarat","latitude":22.3039,"longitude":70.8022,"temp":28.9,"humidity":69,"rain":0.0,"pressure":991.8,"uv_index":7.55,"wind_gusts":38.9,"aqi":64,"pm10":36.7,"pm2_5":17.4,"no2":6.9,"co":115.0,"o3":40.0,"so2":5.8,"mosquito_risk":7,"arthritis_risk":5,"migraine_risk":7,"frizz_risk":1,"updated_at":"2026-06-27T01:22:21.418563+05:30"},{"city":"Thane","state":"Maharashtra","latitude":19.2183,"longitude":72.9781,"temp":26.5,"humidity":93,"rain":0.1,"pressure":1006.1,"uv_index":6.5,"wind_gusts":31.0,"aqi":61,"pm10":22.2,"pm2_5":12.7,"no2":11.5,"co":423.0,"o3":40.0,"so2":7.7,"mosquito_risk":10,"arthritis_risk":5,"migraine_risk":4,"frizz_risk":1,"updated_at":"2026-06-27T01:22:21.418570+05:30"},{"city":"Nagpur","state":"Maharashtra","latitude":21.1458,"longitude":79.0882,"temp":26.2,"humidity":96,"rain":0.0,"pressure":970.5,"uv_index":8.85,"wind_gusts":37.1,"aqi":80,"pm10":28.5,"pm2_5":25.5,"no2":22.6,"co":354.0,"o3":44.0,"so2":15.9,"mosquito_risk":7,"arthritis_risk":5,"migraine_risk":7,"frizz_risk":1,"updated_at":"2026-06-27T01:22:21.418578+05:30"},{"city":"Nashik","state":"Maharashtra","latitude":19.9975,"longitude":73.7898,"temp":23.3,"humidity":96,"rain":0.0,"pressure":943.6,"uv_index":7.9,"wind_gusts":38.9,"aqi":52,"pm10":19.1,"pm2_5":12.7,"no2":11.6,"co":151.0,"o3":40.0,"so2":8.9,"mosquito_risk":3,"arthritis_risk":5,"migraine_risk":7,"frizz_risk":1,"updated_at":"2026-06-27T01:22:21.418585+05:30"},{"city":"Aurangabad","state":"Maharashtra","latitude":19.8762,"longitude":75.3433,"temp":24.8,"humidity":83,"rain":0.0,"pressure":941.9,"uv_index":7.3,"wind_gusts":28.8,"aqi":61,"pm10":25.8,"pm2_5":16.0,"no2":8.2,"co":145.0,"o3":51.0,"so2":5.6,"mosquito_risk":3,"arthritis_risk":5,"migraine_risk":7,"frizz_risk":1,"updated_at":"2026-06-27T01:22:21.418592+05:30"},{"city":"Solapur","state":"Maharashtra","latitude":17.6599,"longitude":75.9064,"temp":27.5,"humidity":70,"rain":0.0,"pressure":955.1,"uv_index":1.6,"wind_gusts":33.8,"aqi":57,"pm10":28.9,"pm2_5":17.9,"no2":11.2,"co":201.0,"o3":46.0,"so2":4.2,"mosquito_risk":7,"arthritis_risk":5,"migraine_risk":3,"frizz_risk":1,"updated_at":"2026-06-27T01:22:21.418600+05:30"},{"city":"Kolhapur","state":"Maharashtra","latitude":16.705,"longitude":74.2433,"temp":22.8,"humidity":91,"rain":0.0,"pressure":946.6,"uv_index":6.35,"wind_gusts":43.6,"aqi":39,"pm10":16.4,"pm2_5":12.7,"no2":11.9,"co":167.0,"o3":29.0,"so2":3.0,"mosquito_risk":3,"arthritis_risk":5,"migraine_risk":7,"frizz_risk":1,"updated_at":"2026-06-27T01:22:21.418606+05:30"},{"city":"Goa","state":"Goa","latitude":15.2993,"longitude":74.124,"temp":24.9,"humidity":99,"rain":0.0,"pressure":997.2,"uv_index":7.4,"wind_gusts":29.2,"aqi":49,"pm10":21.8,"pm2_5":15.1,"no2":8.7,"co":333.0,"o3":39.0,"so2":2.3,"mosquito_risk":3,"arthritis_risk":5,"migraine_risk":7,"frizz_risk":1,"updated_at":"2026-06-27T01:22:21.418613+05:30"},{"city":"Jodhpur","state":"Rajasthan","latitude":26.2389,"longitude":73.0243,"temp":30.3,"humidity":69,"rain":0.0,"pressure":979.3,"uv_index":8.45,"wind_gusts":29.2,"aqi":98,"pm10":115.9,"pm2_5":34.7,"no2":12.0,"co":193.0,"o3":43.0,"so2":2.6,"mosquito_risk":3,"arthritis_risk":5,"migraine_risk":7,"frizz_risk":1,"updated_at":"2026-06-27T01:22:21.418620+05:30"},{"city":"Udaipur","state":"Rajasthan","latitude":24.5854,"longitude":73.7125,"temp":25.5,"humidity":82,"rain":0.0,"pressure":943.8,"uv_index":8.65,"wind_gusts":48.2,"aqi":75,"pm10":53.6,"pm2_5":27.1,"no2":20.9,"co":243.0,"o3":32.0,"so2":4.5,"mosquito_risk":7,"arthritis_risk":5,"migraine_risk":7,"frizz_risk":1,"updated_at":"2026-06-27T01:22:21.418627+05:30"},{"city":"Kota","state":"Rajasthan","latitude":25.2138,"longitude":75.8648,"temp":29.1,"humidity":69,"rain":0.0,"pressure":975.6,"uv_index":8.3,"wind_gusts":25.9,"aqi":91,"pm10":41.7,"pm2_5":26.1,"no2":9.7,"co":241.0,"o3":60.0,"so2":4.5,"mosquito_risk":7,"arthritis_risk":5,"migraine_risk":7,"frizz_risk":1,"updated_at":"2026-06-27T01:22:21.418635+05:30"},{"city":"Bikaner","state":"Rajasthan","latitude":28.0229,"longitude":73.3119,"temp":32.6,"humidity":52,"rain":0.0,"pressure":977.6,"uv_index":8.45,"wind_gusts":31.7,"aqi":112,"pm10":129.9,"pm2_5":46.4,"no2":5.3,"co":217.0,"o3":55.0,"so2":2.7,"mosquito_risk":0,"arthritis_risk":5,"migraine_risk":7,"frizz_risk":1,"updated_at":"2026-06-27T01:22:21.418641+05:30"},{"city":"Ajmer","state":"Rajasthan","latitude":26.4499,"longitude":74.6399,"temp":28.4,"humidity":66,"rain":0.0,"pressure":951.7,"uv_index":8.35,"wind_gusts":36.7,"aqi":87,"pm10":43.1,"pm2_5":24.6,"no2":8.7,"co":169.0,"o3":54.0,"so2":3.8,"mosquito_risk":7,"arthritis_risk":5,"migraine_risk":7,"frizz_risk":1,"updated_at":"2026-06-27T01:22:21.418647+05:30"},{"city":"Gwalior","state":"Madhya Pradesh","latitude":26.2183,"longitude":78.1828,"temp":31.2,"humidity":53,"rain":0.0,"pressure":979.7,"uv_index":7.65,"wind_gusts":30.2,"aqi":73,"pm10":38.0,"pm2_5":22.7,"no2":8.4,"co":173.0,"o3":59.0,"so2":2.6,"mosquito_risk":0,"arthritis_risk":5,"migraine_risk":7,"frizz_risk":1,"updated_at":"2026-06-27T01:22:21.418654+05:30"},{"city":"Indore","state":"Madhya Pradesh","latitude":22.7196,"longitude":75.8577,"temp":25.1,"humidity":86,"rain":0.0,"pressure":945.3,"uv_index":8.6,"wind_gusts":28.4,"aqi":97,"pm10":42.3,"pm2_5":31.2,"no2":20.8,"co":515.0,"o3":39.0,"so2":6.4,"mosquito_risk":7,"arthritis_risk":5,"migraine_risk":7,"frizz_risk":1,"updated_at":"2026-06-27T01:22:21.418661+05:30"},{"city":"Bhopal","state":"Madhya Pradesh","latitude":23.2599,"longitude":77.4126,"temp":25.8,"humidity":89,"rain":0.0,"pressure":950.8,"uv_index":8.65,"wind_gusts":20.2,"aqi":88,"pm10":39.3,"pm2_5":31.3,"no2":10.9,"co":366.0,"o3":61.0,"so2":4.4,"mosquito_risk":7,"arthritis_risk":5,"migraine_risk":7,"frizz_risk":1,"updated_at":"2026-06-27T01:22:21.418668+05:30"},{"city":"Jabalpur","state":"Madhya Pradesh","latitude":23.1815,"longitude":79.9864,"temp":27.6,"humidity":81,"rain":0.0,"pressure":958.7,"uv_index":8.85,"wind_gusts":31.0,"aqi":68,"pm10":25.5,"pm2_5":23.1,"no2":14.1,"co":328.0,"o3":56.0,"so2":3.9,"mosquito_risk":7,"arthritis_risk":5,"migraine_risk":7,"frizz_risk":1,"updated_at":"2026-06-27T01:22:21.418675+05:30"},{"city":"Ujjain","state":"Madhya Pradesh","latitude":23.1765,"longitude":75.7885,"temp":25.5,"humidity":88,"rain":0.0,"pressure":951.0,"uv_index":8.5,"wind_gusts":35.6,"aqi":92,"pm10":47.3,"pm2_5":34.1,"no2":13.5,"co":519.0,"o3":43.0,"so2":4.1,"mosquito_risk":7,"arthritis_risk":5,"migraine_risk":7,"frizz_risk":1,"updated_at":"2026-06-27T01:22:21.418681+05:30"},{"city":"Visakhapatnam","state":"Andhra Pradesh","latitude":17.6868,"longitude":83.2185,"temp":27.8,"humidity":98,"rain":0.0,"pressure":999.4,"uv_index":6.45,"wind_gusts":33.8,"aqi":90,"pm10":38.6,"pm2_5":33.6,"no2":41.3,"co":577.0,"o3":51.0,"so2":52.9,"mosquito_risk":7,"arthritis_risk":5,"migraine_risk":7,"frizz_risk":1,"updated_at":"2026-06-27T01:22:21.418688+05:30"},{"city":"Vijayawada","state":"Andhra Pradesh","latitude":16.5062,"longitude":80.648,"temp":26.9,"humidity":89,"rain":0.2,"pressure":999.2,"uv_index":8.35,"wind_gusts":36.4,"aqi":77,"pm10":37.5,"pm2_5":34.5,"no2":18.6,"co":435.0,"o3":51.0,"so2":6.7,"mosquito_risk":10,"arthritis_risk":5,"migraine_risk":7,"frizz_risk":1,"updated_at":"2026-06-27T01:22:21.418695+05:30"},{"city":"Guntur","state":"Andhra Pradesh","latitude":16.3067,"longitude":80.4365,"temp":28.0,"humidity":76,"rain":0.0,"pressure":1000.4,"uv_index":7.7,"wind_gusts":37.1,"aqi":75,"pm10":31.8,"pm2_5":27.8,"no2":16.5,"co":429.0,"o3":57.0,"so2":6.8,"mosquito_risk":7,"arthritis_risk":5,"migraine_risk":4,"frizz_risk":1,"updated_at":"2026-06-27T01:22:21.418702+05:30"},{"city":"Nellore","state":"Andhra Pradesh","latitude":14.4426,"longitude":79.9865,"temp":25.9,"humidity":91,"rain":0.4,"pressure":1004.1,"uv_index":8.1,"wind_gusts":34.6,"aqi":54,"pm10":20.3,"pm2_5":14.7,"no2":8.8,"co":137.0,"o3":61.0,"so2":3.8,"mosquito_risk":10,"arthritis_risk":5,"migraine_risk":4,"frizz_risk":1,"updated_at":"2026-06-27T01:22:21.418728+05:30"},{"city":"Kurnool","state":"Andhra Pradesh","latitude":15.8281,"longitude":78.0373,"temp":27.6,"humidity":79,"rain":0.0,"pressure":974.5,"uv_index":8.05,"wind_gusts":39.6,"aqi":54,"pm10":33.9,"pm2_5":21.8,"no2":17.0,"co":177.0,"o3":46.0,"so2":6.8,"mosquito_risk":7,"arthritis_risk":5,"migraine_risk":7,"frizz_risk":1,"updated_at":"2026-06-27T01:22:21.418736+05:30"},{"city":"Kakinada","state":"Andhra Pradesh","latitude":16.9891,"longitude":82.2475,"temp":28.0,"humidity":89,"rain":0.0,"pressure":1003.3,"uv_index":6.95,"wind_gusts":36.7,"aqi":66,"pm10":29.0,"pm2_5":26.0,"no2":10.5,"co":600.0,"o3":81.0,"so2":6.6,"mosquito_risk":7,"arthritis_risk":5,"migraine_risk":4,"frizz_risk":1,"updated_at":"2026-06-27T01:22:21.418743+05:30"},{"city":"Tirupati","state":"Andhra Pradesh","latitude":13.6288,"longitude":79.4192,"temp":25.4,"humidity":87,"rain":0.1,"pressure":989.3,"uv_index":8.35,"wind_gusts":35.6,"aqi":51,"pm10":14.8,"pm2_5":12.6,"no2":25.6,"co":221.0,"o3":15.0,"so2":2.6,"mosquito_risk":10,"arthritis_risk":5,"migraine_risk":7,"frizz_risk":1,"updated_at":"2026-06-27T01:22:21.418750+05:30"},{"city":"Warangal","state":"Telangana","latitude":17.9689,"longitude":79.5941,"temp":26.9,"humidity":80,"rain":0.0,"pressure":975.5,"uv_index":6.7,"wind_gusts":35.6,"aqi":73,"pm10":32.0,"pm2_5":26.1,"no2":14.1,"co":371.0,"o3":52.0,"so2":4.6,"mosquito_risk":7,"arthritis_risk":5,"migraine_risk":7,"frizz_risk":1,"updated_at":"2026-06-27T01:22:21.418756+05:30"},{"city":"Nizamabad","state":"Telangana","latitude":18.6725,"longitude":78.0941,"temp":26.0,"humidity":91,"rain":0.0,"pressure":962.1,"uv_index":7.25,"wind_gusts":38.9,"aqi":72,"pm10":27.5,"pm2_5":21.0,"no2":9.3,"co":272.0,"o3":63.0,"so2":2.6,"mosquito_risk":7,"arthritis_risk":5,"migraine_risk":7,"frizz_risk":1,"updated_at":"2026-06-27T01:22:21.418762+05:30"},{"city":"Mysore","state":"Karnataka","latitude":12.2958,"longitude":76.6396,"temp":21.3,"humidity":95,"rain":0.0,"pressure":927.7,"uv_index":9.0,"wind_gusts":42.8,"aqi":26,"pm10":10.5,"pm2_5":7.7,"no2":9.5,"co":157.0,"o3":41.0,"so2":2.6,"mosquito_risk":3,"arthritis_risk":5,"migraine_risk":7,"frizz_risk":1,"updated_at":"2026-06-27T01:22:21.418769+05:30"},{"city":"Mangalore","state":"Karnataka","latitude":12.9141,"longitude":74.856,"temp":24.3,"humidity":100,"rain":0.0,"pressure":1007.0,"uv_index":8.65,"wind_gusts":37.4,"aqi":42,"pm10":18.1,"pm2_5":12.0,"no2":8.7,"co":284.0,"o3":36.0,"so2":3.3,"mosquito_risk":3,"arthritis_risk":5,"migraine_risk":4,"frizz_risk":1,"updated_at":"2026-06-27T01:22:21.418775+05:30"},{"city":"Hubli-Dharwad","state":"Karnataka","latitude":15.3647,"longitude":75.124,"temp":22.5,"humidity":94,"rain":0.0,"pressure":939.6,"uv_index":8.4,"wind_gusts":43.2,"aqi":23,"pm10":6.5,"pm2_5":4.5,"no2":5.9,"co":126.0,"o3":38.0,"so2":1.6,"mosquito_risk":3,"arthritis_risk":5,"migraine_risk":7,"frizz_risk":1,"updated_at":"2026-06-27T01:22:21.418782+05:30"},{"city":"Belgaum","state":"Karnataka","latitude":15.8497,"longitude":74.4977,"temp":21.8,"humidity":95,"rain":0.0,"pressure":924.4,"uv_index":8.5,"wind_gusts":40.3,"aqi":29,"pm10":15.2,"pm2_5":10.9,"no2":9.2,"co":111.0,"o3":31.0,"so2":1.8,"mosquito_risk":3,"arthritis_risk":5,"migraine_risk":7,"frizz_risk":1,"updated_at":"2026-06-27T01:22:24.703505+05:30"},{"city":"Coimbatore","state":"Tamil Nadu","latitude":11.0168,"longitude":76.9558,"temp":23.5,"humidity":93,"rain":0.0,"pressure":960.8,"uv_index":8.85,"wind_gusts":43.6,"aqi":32,"pm10":11.8,"pm2_5":8.9,"no2":9.4,"co":221.0,"o3":32.0,"so2":3.6,"mosquito_risk":3,"arthritis_risk":5,"migraine_risk":7,"frizz_risk":1,"updated_at":"2026-06-27T01:22:24.703541+05:30"},{"city":"Madurai","state":"Tamil Nadu","latitude":9.9252,"longitude":78.1198,"temp":29.4,"humidity":58,"rain":0.0,"pressure":991.8,"uv_index":8.6,"wind_gusts":37.4,"aqi":70,"pm10":39.1,"pm2_5":35.7,"no2":43.1,"co":234.0,"o3":2.0,"so2":10.9,"mosquito_risk":4,"arthritis_risk":5,"migraine_risk":7,"frizz_risk":1,"updated_at":"2026-06-27T01:22:24.703552+05:30"},{"city":"Trichy","state":"Tamil Nadu","latitude":10.7905,"longitude":78.7047,"temp":28.4,"humidity":64,"rain":0.0,"pressure":998.3,"uv_index":8.6,"wind_gusts":40.7,"aqi":45,"pm10":15.3,"pm2_5":12.1,"no2":15.6,"co":138.0,"o3":29.0,"so2":4.6,"mosquito_risk":7,"arthritis_risk":5,"migraine_risk":7,"frizz_risk":1,"updated_at":"2026-06-27T01:22:24.703561+05:30"},{"city":"Salem","state":"Tamil Nadu","latitude":11.6643,"longitude":78.146,"temp":25.9,"humidity":80,"rain":0.0,"pressure":976.3,"uv_index":8.85,"wind_gusts":25.6,"aqi":60,"pm10":18.3,"pm2_5":15.3,"no2":20.6,"co":492.0,"o3":34.0,"so2":7.1,"mosquito_risk":7,"arthritis_risk":5,"migraine_risk":7,"frizz_risk":1,"updated_at":"2026-06-27T01:22:24.703569+05:30"},{"city":"Tirunelveli","state":"Tamil Nadu","latitude":8.7139,"longitude":77.7567,"temp":28.4,"humidity":65,"rain":0.0,"pressure":1002.0,"uv_index":7.95,"wind_gusts":50.4,"aqi":27,"pm10":11.1,"pm2_5":9.2,"no2":8.5,"co":160.0,"o3":38.0,"so2":2.6,"mosquito_risk":7,"arthritis_risk":5,"migraine_risk":4,"frizz_risk":1,"updated_at":"2026-06-27T01:22:24.703576+05:30"},{"city":"Vellore","state":"Tamil Nadu","latitude":12.9165,"longitude":79.1325,"temp":26.6,"humidity":72,"rain":0.0,"pressure":982.4,"uv_index":8.9,"wind_gusts":37.1,"aqi":49,"pm10":16.2,"pm2_5":14.2,"no2":20.5,"co":311.0,"o3":28.0,"so2":4.5,"mosquito_risk":7,"arthritis_risk":5,"migraine_risk":7,"frizz_risk":1,"updated_at":"2026-06-27T01:22:24.703585+05:30"},{"city":"Erode","state":"Tamil Nadu","latitude":11.341,"longitude":77.7172,"temp":26.7,"humidity":75,"rain":0.0,"pressure":988.1,"uv_index":8.8,"wind_gusts":46.8,"aqi":51,"pm10":16.7,"pm2_5":13.7,"no2":17.1,"co":182.0,"o3":28.0,"so2":4.0,"mosquito_risk":7,"arthritis_risk":5,"migraine_risk":7,"frizz_risk":1,"updated_at":"2026-06-27T01:22:24.703592+05:30"},{"city":"Kochi","state":"Kerala","latitude":9.9312,"longitude":76.2673,"temp":26.0,"humidity":93,"rain":0.0,"pressure":1008.8,"uv_index":8.55,"wind_gusts":38.2,"aqi":48,"pm10":21.0,"pm2_5":16.9,"no2":19.7,"co":318.0,"o3":19.0,"so2":5.1,"mosquito_risk":7,"arthritis_risk":0,"migraine_risk":4,"frizz_risk":1,"updated_at":"2026-06-27T01:22:24.703600+05:30"},{"city":"Thiruvananthapuram","state":"Kerala","latitude":8.5241,"longitude":76.9366,"temp":24.8,"humidity":95,"rain":0.0,"pressure":1008.1,"uv_index":7.5,"wind_gusts":42.5,"aqi":31,"pm10":12.6,"pm2_5":7.6,"no2":3.2,"co":242.0,"o3":51.0,"so2":1.7,"mosquito_risk":3,"arthritis_risk":0,"migraine_risk":4,"frizz_risk":1,"updated_at":"2026-06-27T01:22:24.703607+05:30"},{"city":"Kozhikode","state":"Kerala","latitude":11.2588,"longitude":75.7804,"temp":24.9,"humidity":97,"rain":0.0,"pressure":1008.3,"uv_index":8.5,"wind_gusts":38.9,"aqi":27,"pm10":14.0,"pm2_5":6.9,"no2":1.7,"co":339.0,"o3":56.0,"so2":1.0,"mosquito_risk":3,"arthritis_risk":0,"migraine_risk":4,"frizz_risk":1,"updated_at":"2026-06-27T01:22:24.703613+05:30"},{"city":"Thrissur","state":"Kerala","latitude":10.5276,"longitude":76.2144,"temp":24.5,"humidity":100,"rain":0.0,"pressure":1007.3,"uv_index":8.55,"wind_gusts":37.1,"aqi":50,"pm10":17.6,"pm2_5":15.1,"no2":15.3,"co":609.0,"o3":20.0,"so2":4.3,"mosquito_risk":3,"arthritis_risk":5,"migraine_risk":4,"frizz_risk":1,"updated_at":"2026-06-27T01:22:24.703621+05:30"},{"city":"Kannur","state":"Kerala","latitude":11.8745,"longitude":75.3704,"temp":24.5,"humidity":100,"rain":0.0,"pressure":1007.8,"uv_index":8.65,"wind_gusts":36.4,"aqi":34,"pm10":17.2,"pm2_5":11.8,"no2":11.9,"co":401.0,"o3":28.0,"so2":2.7,"mosquito_risk":3,"arthritis_risk":5,"migraine_risk":4,"frizz_risk":1,"updated_at":"2026-06-27T01:22:24.703628+05:30"},{"city":"Patna","state":"Bihar","latitude":25.5941,"longitude":85.1376,"temp":30.8,"humidity":76,"rain":0.0,"pressure":996.8,"uv_index":8.75,"wind_gusts":25.6,"aqi":139,"pm10":63.1,"pm2_5":56.1,"no2":15.8,"co":626.0,"o3":104.0,"so2":16.9,"mosquito_risk":3,"arthritis_risk":5,"migraine_risk":7,"frizz_risk":1,"updated_at":"2026-06-27T01:22:24.703634+05:30"},{"city":"Gaya","state":"Bihar","latitude":24.7914,"longitude":85.0002,"temp":29.9,"humidity":73,"rain":0.0,"pressure":990.2,"uv_index":8.9,"wind_gusts":28.1,"aqi":92,"pm10":40.6,"pm2_5":38.5,"no2":17.9,"co":250.0,"o3":80.0,"so2":13.7,"mosquito_risk":7,"arthritis_risk":5,"migraine_risk":7,"frizz_risk":1,"updated_at":"2026-06-27T01:22:24.703641+05:30"},{"city":"Muzaffarpur","state":"Bihar","latitude":26.1209,"longitude":85.3647,"temp":29.3,"humidity":81,"rain":0.0,"pressure":996.9,"uv_index":8.9,"wind_gusts":26.3,"aqi":153,"pm10":66.4,"pm2_5":59.5,"no2":15.9,"co":1072.0,"o3":105.0,"so2":15.8,"mosquito_risk":7,"arthritis_risk":5,"migraine_risk":7,"frizz_risk":1,"updated_at":"2026-06-27T01:22:24.703648+05:30"},{"city":"Bhagalpur","state":"Bihar","latitude":25.2425,"longitude":87.0117,"temp":28.8,"humidity":87,"rain":0.0,"pressure":997.8,"uv_index":8.65,"wind_gusts":22.7,"aqi":106,"pm10":43.7,"pm2_5":42.8,"no2":14.5,"co":427.0,"o3":109.0,"so2":29.7,"mosquito_risk":7,"arthritis_risk":5,"migraine_risk":7,"frizz_risk":1,"updated_at":"2026-06-27T01:22:24.703655+05:30"},{"city":"Ranchi","state":"Jharkhand","latitude":23.3441,"longitude":85.3096,"temp":24.1,"humidity":95,"rain":0.0,"pressure":934.9,"uv_index":8.8,"wind_gusts":31.7,"aqi":84,"pm10":26.5,"pm2_5":25.7,"no2":11.4,"co":365.0,"o3":89.0,"so2":20.9,"mosquito_risk":3,"arthritis_risk":5,"migraine_risk":7,"frizz_risk":1,"updated_at":"2026-06-27T01:22:24.703662+05:30"},{"city":"Jamshedpur","state":"Jharkhand","latitude":22.8046,"longitude":86.2029,"temp":26.5,"humidity":98,"rain":0.0,"pressure":988.1,"uv_index":9.1,"wind_gusts":32.4,"aqi":87,"pm10":36.3,"pm2_5":34.9,"no2":28.1,"co":1283.0,"o3":43.0,"so2":28.8,"mosquito_risk":7,"arthritis_risk":5,"migraine_risk":7,"frizz_risk":1,"updated_at":"2026-06-27T01:22:24.703669+05:30"},{"city":"Dhanbad","state":"Jharkhand","latitude":23.7957,"longitude":86.4304,"temp":27.8,"humidity":83,"rain":0.0,"pressure":977.0,"uv_index":8.85,"wind_gusts":27.0,"aqi":143,"pm10":46.9,"pm2_5":45.4,"no2":49.3,"co":1639.0,"o3":36.0,"so2":119.9,"mosquito_risk":7,"arthritis_risk":5,"migraine_risk":7,"frizz_risk":1,"updated_at":"2026-06-27T01:22:24.703675+05:30"},{"city":"Bokaro","state":"Jharkhand","latitude":23.6693,"longitude":86.1511,"temp":27.9,"humidity":88,"rain":0.0,"pressure":980.8,"uv_index":8.85,"wind_gusts":31.0,"aqi":145,"pm10":47.5,"pm2_5":46.0,"no2":40.7,"co":1095.0,"o3":54.0,"so2":109.0,"mosquito_risk":7,"arthritis_risk":5,"migraine_risk":7,"frizz_risk":1,"updated_at":"2026-06-27T01:22:24.703683+05:30"},{"city":"Bhubaneswar","state":"Odisha","latitude":20.2961,"longitude":85.8245,"temp":27.6,"humidity":97,"rain":0.0,"pressure":999.2,"uv_index":8.75,"wind_gusts":27.7,"aqi":76,"pm10":33.6,"pm2_5":30.2,"no2":16.6,"co":263.0,"o3":65.0,"so2":6.5,"mosquito_risk":7,"arthritis_risk":5,"migraine_risk":7,"frizz_risk":1,"updated_at":"2026-06-27T01:22:24.703689+05:30"},{"city":"Cuttack","state":"Odisha","latitude":20.4625,"longitude":85.8828,"temp":28.0,"humidity":95,"rain":0.0,"pressure":1001.0,"uv_index":9.1,"wind_gusts":29.2,"aqi":76,"pm10":33.6,"pm2_5":30.2,"no2":16.6,"co":308.0,"o3":65.0,"so2":6.5,"mosquito_risk":7,"arthritis_risk":5,"migraine_risk":4,"frizz_risk":1,"updated_at":"2026-06-27T01:22:24.703695+05:30"},{"city":"Rourkela","state":"Odisha","latitude":22.2604,"longitude":84.8536,"temp":28.4,"humidity":86,"rain":0.0,"pressure":982.2,"uv_index":8.95,"wind_gusts":44.6,"aqi":118,"pm10":20.1,"pm2_5":19.2,"no2":10.7,"co":487.0,"o3":97.0,"so2":20.5,"mosquito_risk":7,"arthritis_risk":5,"migraine_risk":7,"frizz_risk":1,"updated_at":"2026-06-27T01:22:24.703702+05:30"},{"city":"Raipur","state":"Chhattisgarh","latitude":21.2514,"longitude":81.6296,"temp":27.3,"humidity":82,"rain":0.0,"pressure":971.5,"uv_index":8.25,"wind_gusts":33.5,"aqi":94,"pm10":34.8,"pm2_5":34.5,"no2":45.0,"co":850.0,"o3":33.0,"so2":64.3,"mosquito_risk":7,"arthritis_risk":5,"migraine_risk":7,"frizz_risk":1,"updated_at":"2026-06-27T01:22:24.703732+05:30"},{"city":"Bhilai","state":"Chhattisgarh","latitude":21.1938,"longitude":81.3509,"temp":27.5,"humidity":78,"rain":0.0,"pressure":971.8,"uv_index":8.95,"wind_gusts":33.5,"aqi":98,"pm10":33.3,"pm2_5":32.9,"no2":37.1,"co":1325.0,"o3":42.0,"so2":52.2,"mosquito_risk":7,"arthritis_risk":5,"migraine_risk":7,"frizz_risk":1,"updated_at":"2026-06-27T01:22:24.703745+05:30"},{"city":"Guwahati","state":"Assam","latitude":26.1158,"longitude":91.7086,"temp":27.4,"humidity":87,"rain":0.0,"pressure":998.5,"uv_index":8.5,"wind_gusts":35.3,"aqi":84,"pm10":30.6,"pm2_5":29.4,"no2":16.9,"co":401.0,"o3":35.0,"so2":3.8,"mosquito_risk":7,"arthritis_risk":5,"migraine_risk":7,"frizz_risk":1,"updated_at":"2026-06-27T01:22:24.703755+05:30"},{"city":"Agartala","state":"Tripura","latitude":23.8315,"longitude":91.2868,"temp":26.3,"humidity":93,"rain":0.0,"pressure":1004.2,"uv_index":8.5,"wind_gusts":31.0,"aqi":75,"pm10":16.4,"pm2_5":15.2,"no2":10.9,"co":176.0,"o3":37.0,"so2":2.2,"mosquito_risk":7,"arthritis_risk":5,"migraine_risk":4,"frizz_risk":1,"updated_at":"2026-06-27T01:22:24.703765+05:30"},{"city":"Shillong","state":"Meghalaya","latitude":25.5788,"longitude":91.8933,"temp":19.8,"humidity":92,"rain":0.0,"pressure":855.8,"uv_index":6.3,"wind_gusts":29.5,"aqi":57,"pm10":7.6,"pm2_5":6.9,"no2":5.3,"co":245.0,"o3":89.0,"so2":2.5,"mosquito_risk":3,"arthritis_risk":10,"migraine_risk":7,"frizz_risk":1,"updated_at":"2026-06-27T01:22:24.703775+05:30"},{"city":"Imphal","state":"Manipur","latitude":24.817,"longitude":93.9368,"temp":23.1,"humidity":96,"rain":0.0,"pressure":920.9,"uv_index":8.35,"wind_gusts":28.4,"aqi":53,"pm10":28.3,"pm2_5":26.3,"no2":19.8,"co":515.0,"o3":31.0,"so2":4.0,"mosquito_risk":3,"arthritis_risk":5,"migraine_risk":7,"frizz_risk":1,"updated_at":"2026-06-27T01:22:24.703784+05:30"},{"city":"Aizawl","state":"Mizoram","latitude":23.7271,"longitude":92.7176,"temp":19.9,"humidity":97,"rain":0.1,"pressure":891.0,"uv_index":8.1,"wind_gusts":27.7,"aqi":58,"pm10":7.5,"pm2_5":6.3,"no2":3.1,"co":147.0,"o3":59.0,"so2":1.5,"mosquito_risk":6,"arthritis_risk":10,"migraine_risk":7,"frizz_risk":1,"updated_at":"2026-06-27T01:22:24.703794+05:30"},{"city":"Kohima","state":"Nagaland","latitude":25.6701,"longitude":94.1077,"temp":20.0,"humidity":97,"rain":0.0,"pressure":853.7,"uv_index":8.15,"wind_gusts":24.1,"aqi":50,"pm10":13.1,"pm2_5":11.5,"no2":9.2,"co":287.0,"o3":48.0,"so2":1.3,"mosquito_risk":3,"arthritis_risk":5,"migraine_risk":7,"frizz_risk":1,"updated_at":"2026-06-27T01:22:24.703804+05:30"},{"city":"Gangtok","state":"Sikkim","latitude":27.3314,"longitude":88.6138,"temp":18.0,"humidity":87,"rain":0.1,"pressure":836.5,"uv_index":8.55,"wind_gusts":37.4,"aqi":82,"pm10":7.4,"pm2_5":7.0,"no2":9.6,"co":655.0,"o3":113.0,"so2":2.2,"mosquito_risk":6,"arthritis_risk":10,"migraine_risk":7,"frizz_risk":0,"updated_at":"2026-06-27T01:22:24.703814+05:30"},{"city":"Siliguri","state":"West Bengal","latitude":26.7271,"longitude":88.3953,"temp":24.9,"humidity":100,"rain":0.3,"pressure":991.0,"uv_index":8.8,"wind_gusts":18.7,"aqi":112,"pm10":28.0,"pm2_5":25.2,"no2":9.7,"co":490.0,"o3":120.0,"so2":4.2,"mosquito_risk":6,"arthritis_risk":5,"migraine_risk":7,"frizz_risk":1,"updated_at":"2026-06-27T01:22:28.000838+05:30"},{"city":"Durgapur","state":"West Bengal","latitude":23.5204,"longitude":87.3119,"temp":27.5,"humidity":93,"rain":0.0,"pressure":992.2,"uv_index":9.05,"wind_gusts":28.4,"aqi":114,"pm10":39.6,"pm2_5":38.6,"no2":28.8,"co":470.0,"o3":53.0,"so2":40.4,"mosquito_risk":7,"arthritis_risk":5,"migraine_risk":7,"frizz_risk":1,"updated_at":"2026-06-27T01:22:28.000875+05:30"},{"city":"Asansol","state":"West Bengal","latitude":23.6739,"longitude":86.9524,"temp":27.3,"humidity":89,"rain":0.0,"pressure":990.8,"uv_index":9.05,"wind_gusts":24.5,"aqi":105,"pm10":29.9,"pm2_5":28.8,"no2":25.6,"co":372.0,"o3":55.0,"so2":36.1,"mosquito_risk":7,"arthritis_risk":5,"migraine_risk":7,"frizz_risk":1,"updated_at":"2026-06-27T01:22:28.000887+05:30"},{"city":"Pondicherry","state":"Puducherry","latitude":11.9139,"longitude":79.8145,"temp":26.9,"humidity":89,"rain":0.0,"pressure":1006.4,"uv_index":8.5,"wind_gusts":46.4,"aqi":74,"pm10":32.2,"pm2_5":22.2,"no2":18.3,"co":279.0,"o3":64.0,"so2":15.9,"mosquito_risk":7,"arthritis_risk":5,"migraine_risk":4,"frizz_risk":1,"updated_at":"2026-06-27T01:22:28.000896+05:30"},{"city":"Port Blair","state":"Andaman and Nicobar Islands","latitude":11.6234,"longitude":92.7265,"temp":25.5,"humidity":97,"rain":0.0,"pressure":1006.4,"uv_index":8.75,"wind_gusts":38.9,"aqi":22,"pm10":4.0,"pm2_5":2.4,"no2":0.2,"co":90.0,"o3":49.0,"so2":0.2,"mosquito_risk":7,"arthritis_risk":5,"migraine_risk":4,"frizz_risk":1,"updated_at":"2026-06-27T01:22:28.000904+05:30"},{"city":"Haridwar","state":"Uttarakhand","latitude":29.9457,"longitude":78.1642,"temp":27.6,"humidity":77,"rain":0.0,"pressure":970.2,"uv_index":7.6,"wind_gusts":25.6,"aqi":140,"pm10":232.8,"pm2_5":86.6,"no2":25.2,"co":316.0,"o3":88.0,"so2":16.8,"mosquito_risk":7,"arthritis_risk":5,"migraine_risk":7,"frizz_risk":1,"updated_at":"2026-06-27T01:22:28.000912+05:30"},{"city":"Rishikesh","state":"Uttarakhand","latitude":30.0869,"longitude":78.2676,"temp":25.8,"humidity":84,"rain":0.0,"pressure":962.9,"uv_index":7.65,"wind_gusts":26.3,"aqi":104,"pm10":134.1,"pm2_5":51.1,"no2":13.4,"co":374.0,"o3":102.0,"so2":6.8,"mosquito_risk":7,"arthritis_risk":5,"migraine_risk":7,"frizz_risk":1,"updated_at":"2026-06-27T01:22:28.000919+05:30"},{"city":"Nainital","state":"Uttarakhand","latitude":29.3919,"longitude":79.4542,"temp":16.8,"humidity":79,"rain":0.0,"pressure":805.1,"uv_index":6.8,"wind_gusts":28.8,"aqi":94,"pm10":90.1,"pm2_5":42.1,"no2":23.1,"co":350.0,"o3":59.0,"so2":4.6,"mosquito_risk":3,"arthritis_risk":5,"migraine_risk":7,"frizz_risk":0,"updated_at":"2026-06-27T01:22:28.000926+05:30"},{"city":"Mussoorie","state":"Uttarakhand","latitude":30.4599,"longitude":78.0664,"temp":17.8,"humidity":79,"rain":0.0,"pressure":802.9,"uv_index":7.55,"wind_gusts":41.4,"aqi":105,"pm10":114.6,"pm2_5":53.0,"no2":43.1,"co":342.0,"o3":58.0,"so2":10.3,"mosquito_risk":3,"arthritis_risk":5,"migraine_risk":7,"frizz_risk":0,"updated_at":"2026-06-27T01:22:28.000934+05:30"},{"city":"Dharamshala","state":"Himachal Pradesh","latitude":32.219,"longitude":76.3234,"temp":22.9,"humidity":72,"rain":0.0,"pressure":868.5,"uv_index":7.85,"wind_gusts":28.1,"aqi":63,"pm10":19.9,"pm2_5":18.6,"no2":21.4,"co":412.0,"o3":27.0,"so2":0.0,"mosquito_risk":3,"arthritis_risk":5,"migraine_risk":7,"frizz_risk":1,"updated_at":"2026-06-27T01:22:28.000941+05:30"},{"city":"Dalhousie","state":"Himachal Pradesh","latitude":32.5387,"longitude":75.971,"temp":15.2,"humidity":95,"rain":0.0,"pressure":803.1,"uv_index":8.3,"wind_gusts":28.4,"aqi":123,"pm10":91.3,"pm2_5":51.9,"no2":34.9,"co":534.0,"o3":51.0,"so2":2.5,"mosquito_risk":3,"arthritis_risk":10,"migraine_risk":7,"frizz_risk":0,"updated_at":"2026-06-27T01:22:28.000949+05:30"},{"city":"Patiala","state":"Punjab","latitude":30.3398,"longitude":76.3869,"temp":31.2,"humidity":63,"rain":0.0,"pressure":974.2,"uv_index":7.65,"wind_gusts":26.6,"aqi":158,"pm10":208.6,"pm2_5":112.2,"no2":58.3,"co":827.0,"o3":20.0,"so2":12.6,"mosquito_risk":3,"arthritis_risk":5,"migraine_risk":7,"frizz_risk":1,"updated_at":"2026-06-27T01:22:28.000956+05:30"},{"city":"Bhatinda","state":"Punjab","latitude":30.211,"longitude":74.9455,"temp":32.0,"humidity":66,"rain":0.0,"pressure":979.3,"uv_index":7.9,"wind_gusts":22.7,"aqi":154,"pm10":131.3,"pm2_5":99.0,"no2":65.2,"co":497.0,"o3":23.0,"so2":13.7,"mosquito_risk":3,"arthritis_risk":5,"migraine_risk":7,"frizz_risk":1,"updated_at":"2026-06-27T01:22:28.000963+05:30"},{"city":"Rohtak","state":"Haryana","latitude":28.8955,"longitude":76.6066,"temp":30.4,"humidity":70,"rain":0.0,"pressure":977.5,"uv_index":7.75,"wind_gusts":27.7,"aqi":157,"pm10":303.6,"pm2_5":112.9,"no2":82.9,"co":839.0,"o3":0.0,"so2":16.2,"mosquito_risk":3,"arthritis_risk":5,"migraine_risk":7,"frizz_risk":1,"updated_at":"2026-06-27T01:22:28.000970+05:30"},{"city":"Panipat","state":"Haryana","latitude":29.3909,"longitude":76.9635,"temp":30.0,"humidity":72,"rain":0.0,"pressure":976.0,"uv_index":7.6,"wind_gusts":22.0,"aqi":166,"pm10":320.4,"pm2_5":131.3,"no2":82.5,"co":735.0,"o3":0.0,"so2":15.3,"mosquito_risk":7,"arthritis_risk":5,"migraine_risk":7,"frizz_risk":1,"updated_at":"2026-06-27T01:22:28.000977+05:30"},{"city":"Mathura","state":"Uttar Pradesh","latitude":27.4924,"longitude":77.6737,"temp":31.2,"humidity":61,"rain":0.0,"pressure":982.7,"uv_index":6.0,"wind_gusts":30.6,"aqi":129,"pm10":94.8,"pm2_5":48.2,"no2":61.1,"co":352.0,"o3":9.0,"so2":7.3,"mosquito_risk":3,"arthritis_risk":5,"migraine_risk":3,"frizz_risk":1,"updated_at":"2026-06-27T01:22:28.000984+05:30"},{"city":"Vrindavan","state":"Uttar Pradesh","latitude":27.5823,"longitude":77.7027,"temp":30.9,"humidity":66,"rain":0.0,"pressure":983.1,"uv_index":4.6,"wind_gusts":31.7,"aqi":129,"pm10":94.8,"pm2_5":48.2,"no2":61.1,"co":338.0,"o3":9.0,"so2":7.3,"mosquito_risk":3,"arthritis_risk":5,"migraine_risk":3,"frizz_risk":1,"updated_at":"2026-06-27T01:22:28.000991+05:30"},{"city":"Ayodhya","state":"Uttar Pradesh","latitude":26.7922,"longitude":82.1998,"temp":28.4,"humidity":76,"rain":0.2,"pressure":991.7,"uv_index":8.4,"wind_gusts":23.4,"aqi":145,"pm10":59.1,"pm2_5":40.7,"no2":13.6,"co":487.0,"o3":94.0,"so2":7.8,"mosquito_risk":10,"arthritis_risk":5,"migraine_risk":7,"frizz_risk":1,"updated_at":"2026-06-27T01:22:28.000997+05:30"},{"city":"Ratlam","state":"Madhya Pradesh","latitude":23.3315,"longitude":75.0367,"temp":25.5,"humidity":87,"rain":0.0,"pressure":951.7,"uv_index":8.45,"wind_gusts":29.5,"aqi":86,"pm10":52.4,"pm2_5":36.4,"no2":14.1,"co":333.0,"o3":39.0,"so2":5.4,"mosquito_risk":7,"arthritis_risk":5,"migraine_risk":7,"frizz_risk":1,"updated_at":"2026-06-27T01:22:28.001004+05:30"},{"city":"Sagar","state":"Madhya Pradesh","latitude":23.8388,"longitude":78.7378,"temp":26.6,"humidity":82,"rain":0.0,"pressure":947.3,"uv_index":8.7,"wind_gusts":34.2,"aqi":66,"pm10":22.9,"pm2_5":19.0,"no2":12.1,"co":222.0,"o3":62.0,"so2":2.7,"mosquito_risk":7,"arthritis_risk":5,"migraine_risk":7,"frizz_risk":1,"updated_at":"2026-06-27T01:22:28.001010+05:30"},{"city":"Satna","state":"Madhya Pradesh","latitude":24.6005,"longitude":80.8322,"temp":29.2,"humidity":73,"rain":0.0,"pressure":968.2,"uv_index":8.8,"wind_gusts":24.1,"aqi":68,"pm10":32.8,"pm2_5":26.4,"no2":16.5,"co":199.0,"o3":51.0,"so2":4.4,"mosquito_risk":7,"arthritis_risk":5,"migraine_risk":7,"frizz_risk":1,"updated_at":"2026-06-27T01:22:28.001017+05:30"},{"city":"Akola","state":"Maharashtra","latitude":20.7002,"longitude":77.0082,"temp":26.2,"humidity":100,"rain":0.0,"pressure":972.4,"uv_index":8.5,"wind_gusts":42.5,"aqi":77,"pm10":28.6,"pm2_5":19.3,"no2":10.9,"co":217.0,"o3":63.0,"so2":4.2,"mosquito_risk":7,"arthritis_risk":5,"migraine_risk":7,"frizz_risk":1,"updated_at":"2026-06-27T01:22:28.001024+05:30"},{"city":"Amravati","state":"Maharashtra","latitude":20.9374,"longitude":77.7796,"temp":25.4,"humidity":99,"rain":0.0,"pressure":964.7,"uv_index":8.0,"wind_gusts":33.1,"aqi":79,"pm10":25.9,"pm2_5":18.1,"no2":11.2,"co":257.0,"o3":62.0,"so2":4.3,"mosquito_risk":7,"arthritis_risk":5,"migraine_risk":7,"frizz_risk":1,"updated_at":"2026-06-27T01:22:28.001031+05:30"},{"city":"Latur","state":"Maharashtra","latitude":18.4088,"longitude":76.5604,"temp":25.3,"humidity":89,"rain":0.0,"pressure":937.3,"uv_index":6.45,"wind_gusts":30.6,"aqi":66,"pm10":41.3,"pm2_5":24.2,"no2":12.3,"co":351.0,"o3":53.0,"so2":4.1,"mosquito_risk":7,"arthritis_risk":5,"migraine_risk":7,"frizz_risk":1,"updated_at":"2026-06-27T01:22:28.001039+05:30"},{"city":"Nanded","state":"Maharashtra","latitude":19.1383,"longitude":77.3091,"temp":26.8,"humidity":88,"rain":0.0,"pressure":966.1,"uv_index":7.0,"wind_gusts":33.5,"aqi":73,"pm10":26.0,"pm2_5":18.4,"no2":9.6,"co":262.0,"o3":63.0,"so2":1.8,"mosquito_risk":7,"arthritis_risk":5,"migraine_risk":7,"frizz_risk":1,"updated_at":"2026-06-27T01:22:28.001045+05:30"},{"city":"Gulbarga","state":"Karnataka","latitude":17.3297,"longitude":76.8343,"temp":26.1,"humidity":77,"rain":0.0,"pressure":956.4,"uv_index":4.3,"wind_gusts":45.4,"aqi":60,"pm10":53.4,"pm2_5":30.7,"no2":29.9,"co":269.0,"o3":27.0,"so2":5.9,"mosquito_risk":7,"arthritis_risk":5,"migraine_risk":3,"frizz_risk":1,"updated_at":"2026-06-27T01:22:28.001052+05:30"},{"city":"Bidar","state":"Karnataka","latitude":17.9104,"longitude":77.5199,"temp":25.1,"humidity":88,"rain":0.0,"pressure":932.9,"uv_index":2.5,"wind_gusts":41.8,"aqi":68,"pm10":36.0,"pm2_5":23.7,"no2":18.9,"co":215.0,"o3":51.0,"so2":6.1,"mosquito_risk":7,"arthritis_risk":5,"migraine_risk":3,"frizz_risk":1,"updated_at":"2026-06-27T01:22:28.001059+05:30"},{"city":"Hospet","state":"Karnataka","latitude":15.2689,"longitude":76.3909,"temp":24.2,"humidity":83,"rain":0.0,"pressure":954.6,"uv_index":7.05,"wind_gusts":44.6,"aqi":25,"pm10":8.4,"pm2_5":6.0,"no2":6.8,"co":147.0,"o3":40.0,"so2":1.7,"mosquito_risk":3,"arthritis_risk":5,"migraine_risk":7,"frizz_risk":1,"updated_at":"2026-06-27T01:22:28.001065+05:30"},{"city":"Tirupur","state":"Tamil Nadu","latitude":11.1085,"longitude":77.3411,"temp":24.7,"humidity":88,"rain":0.0,"pressure":974.4,"uv_index":8.75,"wind_gusts":45.0,"aqi":55,"pm10":19.2,"pm2_5":16.6,"no2":21.8,"co":165.0,"o3":22.0,"so2":5.4,"mosquito_risk":3,"arthritis_risk":5,"migraine_risk":7,"frizz_risk":1,"updated_at":"2026-06-27T01:22:28.001071+05:30"},{"city":"Alappuzha","state":"Kerala","latitude":9.4981,"longitude":76.3388,"temp":25.7,"humidity":97,"rain":0.0,"pressure":1008.9,"uv_index":8.4,"wind_gusts":40.3,"aqi":41,"pm10":18.5,"pm2_5":12.8,"no2":11.4,"co":126.0,"o3":39.0,"so2":3.4,"mosquito_risk":7,"arthritis_risk":0,"migraine_risk":4,"frizz_risk":1,"updated_at":"2026-06-27T01:22:28.001078+05:30"},{"city":"Munnar","state":"Kerala","latitude":10.0889,"longitude":77.0595,"temp":16.0,"humidity":94,"rain":0.0,"pressure":855.7,"uv_index":9.05,"wind_gusts":32.8,"aqi":23,"pm10":9.6,"pm2_5":7.9,"no2":9.5,"co":102.0,"o3":26.0,"so2":2.0,"mosquito_risk":3,"arthritis_risk":10,"migraine_risk":7,"frizz_risk":0,"updated_at":"2026-06-27T01:22:28.001085+05:30"},{"city":"Silchar","state":"Assam","latitude":24.8333,"longitude":92.7789,"temp":25.7,"humidity":99,"rain":0.1,"pressure":1003.3,"uv_index":8.85,"wind_gusts":27.7,"aqi":80,"pm10":23.3,"pm2_5":18.7,"no2":5.7,"co":216.0,"o3":97.0,"so2":3.7,"mosquito_risk":10,"arthritis_risk":5,"migraine_risk":4,"frizz_risk":1,"updated_at":"2026-06-27T01:22:28.001092+05:30"},{"city":"Dibrugarh","state":"Assam","latitude":27.4728,"longitude":94.912,"temp":25.7,"humidity":95,"rain":0.2,"pressure":991.9,"uv_index":6.65,"wind_gusts":28.1,"aqi":74,"pm10":21.9,"pm2_5":18.7,"no2":7.8,"co":284.0,"o3":83.0,"so2":1.6,"mosquito_risk":10,"arthritis_risk":5,"migraine_risk":7,"frizz_risk":1,"updated_at":"2026-06-27T01:22:28.001099+05:30"}]