[{"city":"Delhi","state":"Delhi","latitude":28.6139,"longitude":77.209,"temp":24.1,"humidity":44,"rain":0.0,"pressure":980.6,"uv_index":7.3,"wind_gusts":33.8,"aqi":502,"pm10":512.2,"pm2_5":97.8,"mosquito_risk":0,"arthritis_risk":5,"migraine_risk":7,"frizz_risk":0,"updated_at":"2026-04-21T05:16:20.422237+05:30"},{"city":"Mumbai","state":"Maharashtra","latitude":19.076,"longitude":72.8777,"temp":28.3,"humidity":82,"rain":0.0,"pressure":1006.4,"uv_index":7.85,"wind_gusts":20.5,"aqi":79,"pm10":56.1,"pm2_5":26.2,"mosquito_risk":7,"arthritis_risk":5,"migraine_risk":4,"frizz_risk":1,"updated_at":"2026-04-21T05:16:20.422276+05:30"},{"city":"Bangalore","state":"Karnataka","latitude":12.9716,"longitude":77.5946,"temp":23.0,"humidity":77,"rain":0.0,"pressure":910.3,"uv_index":9.6,"wind_gusts":26.3,"aqi":81,"pm10":25.4,"pm2_5":24.0,"mosquito_risk":3,"arthritis_risk":5,"migraine_risk":7,"frizz_risk":1,"updated_at":"2026-04-21T05:16:20.422292+05:30"},{"city":"Hyderabad","state":"Telangana","latitude":17.385,"longitude":78.4867,"temp":25.5,"humidity":68,"rain":0.0,"pressure":951.4,"uv_index":9.3,"wind_gusts":32.8,"aqi":110,"pm10":22.0,"pm2_5":20.5,"mosquito_risk":7,"arthritis_risk":5,"migraine_risk":7,"frizz_risk":1,"updated_at":"2026-04-21T05:16:20.422302+05:30"},{"city":"Chennai","state":"Tamil Nadu","latitude":13.0827,"longitude":80.2707,"temp":28.1,"humidity":87,"rain":0.0,"pressure":1005.7,"uv_index":9.3,"wind_gusts":34.6,"aqi":38,"pm10":10.1,"pm2_5":6.9,"mosquito_risk":7,"arthritis_risk":5,"migraine_risk":4,"frizz_risk":1,"updated_at":"2026-04-21T05:16:20.422310+05:30"},{"city":"Kolkata","state":"West Bengal","latitude":22.5726,"longitude":88.3639,"temp":27.3,"humidity":92,"rain":0.0,"pressure":1002.5,"uv_index":8.95,"wind_gusts":31.3,"aqi":83,"pm10":23.0,"pm2_5":19.2,"mosquito_risk":7,"arthritis_risk":5,"migraine_risk":4,"frizz_risk":1,"updated_at":"2026-04-21T05:16:20.422323+05:30"},{"city":"Pune","state":"Maharashtra","latitude":18.5204,"longitude":73.8567,"temp":24.5,"humidity":70,"rain":0.0,"pressure":946.6,"uv_index":8.6,"wind_gusts":37.8,"aqi":111,"pm10":47.8,"pm2_5":41.7,"mosquito_risk":3,"arthritis_risk":5,"migraine_risk":7,"frizz_risk":1,"updated_at":"2026-04-21T05:16:20.422330+05:30"},{"city":"Ahmedabad","state":"Gujarat","latitude":23.0225,"longitude":72.5714,"temp":26.0,"humidity":60,"rain":0.0,"pressure":1000.8,"uv_index":8.05,"wind_gusts":26.6,"aqi":53,"pm10":15.8,"pm2_5":10.4,"mosquito_risk":4,"arthritis_risk":5,"migraine_risk":4,"frizz_risk":1,"updated_at":"2026-04-21T05:16:20.422338+05:30"},{"city":"Jaipur","state":"Rajasthan","latitude":26.9124,"longitude":75.7873,"temp":29.3,"humidity":29,"rain":0.0,"pressure":958.3,"uv_index":7.95,"wind_gusts":27.0,"aqi":146,"pm10":170.0,"pm2_5":29.6,"mosquito_risk":4,"arthritis_risk":5,"migraine_risk":7,"frizz_risk":0,"updated_at":"2026-04-21T05:16:20.422346+05:30"},{"city":"Lucknow","state":"Uttar Pradesh","latitude":26.8467,"longitude":80.9462,"temp":25.4,"humidity":51,"rain":0.0,"pressure":989.8,"uv_index":7.9,"wind_gusts":43.2,"aqi":115,"pm10":136.4,"pm2_5":40.3,"mosquito_risk":4,"arthritis_risk":5,"migraine_risk":7,"frizz_risk":0,"updated_at":"2026-04-21T05:16:20.422353+05:30"},{"city":"Kanpur","state":"Uttar Pradesh","latitude":26.4499,"longitude":80.3319,"temp":24.1,"humidity":60,"rain":0.0,"pressure":988.2,"uv_index":7.9,"wind_gusts":32.4,"aqi":196,"pm10":435.9,"pm2_5":76.1,"mosquito_risk":0,"arthritis_risk":5,"migraine_risk":7,"frizz_risk":0,"updated_at":"2026-04-21T05:16:20.422360+05:30"},{"city":"Chandigarh","state":"Chandigarh","latitude":30.7333,"longitude":76.7794,"temp":21.4,"humidity":49,"rain":0.0,"pressure":965.8,"uv_index":7.25,"wind_gusts":30.6,"aqi":56,"pm10":20.7,"pm2_5":14.6,"mosquito_risk":0,"arthritis_risk":5,"migraine_risk":7,"frizz_risk":0,"updated_at":"2026-04-21T05:16:20.422367+05:30"},{"city":"Srinagar","state":"Jammu and Kashmir","latitude":34.0837,"longitude":74.7973,"temp":7.5,"humidity":78,"rain":0.0,"pressure":838.5,"uv_index":8.45,"wind_gusts":16.2,"aqi":86,"pm10":49.4,"pm2_5":32.1,"mosquito_risk":3,"arthritis_risk":5,"migraine_risk":7,"frizz_risk":0,"updated_at":"2026-04-21T05:16:20.422376+05:30"},{"city":"Jammu","state":"Jammu and Kashmir","latitude":32.7266,"longitude":74.857,"temp":20.0,"humidity":57,"rain":0.0,"pressure":969.8,"uv_index":8.0,"wind_gusts":29.9,"aqi":61,"pm10":21.7,"pm2_5":16.2,"mosquito_risk":0,"arthritis_risk":5,"migraine_risk":7,"frizz_risk":0,"updated_at":"2026-04-21T05:16:20.422383+05:30"},{"city":"Amritsar","state":"Punjab","latitude":31.634,"longitude":74.8723,"temp":21.5,"humidity":63,"rain":0.0,"pressure":978.4,"uv_index":7.95,"wind_gusts":29.5,"aqi":70,"pm10":32.8,"pm2_5":22.5,"mosquito_risk":3,"arthritis_risk":5,"migraine_risk":7,"frizz_risk":0,"updated_at":"2026-04-21T05:16:20.422389+05:30"},{"city":"Ludhiana","state":"Punjab","latitude":30.901,"longitude":75.8573,"temp":22.8,"humidity":51,"rain":0.0,"pressure":976.4,"uv_index":7.5,"wind_gusts":31.3,"aqi":65,"pm10":35.9,"pm2_5":28.5,"mosquito_risk":0,"arthritis_risk":5,"migraine_risk":7,"frizz_risk":0,"updated_at":"2026-04-21T05:16:20.422398+05:30"},{"city":"Jalandhar","state":"Punjab","latitude":31.326,"longitude":75.5762,"temp":22.1,"humidity":60,"rain":0.0,"pressure":977.4,"uv_index":7.7,"wind_gusts":31.3,"aqi":72,"pm10":44.5,"pm2_5":33.9,"mosquito_risk":0,"arthritis_risk":5,"migraine_risk":7,"frizz_risk":0,"updated_at":"2026-04-21T05:16:20.422404+05:30"},{"city":"Dehradun","state":"Uttarakhand","latitude":30.6284,"longitude":78.0322,"temp":15.5,"humidity":41,"rain":0.0,"pressure":828.1,"uv_index":7.7,"wind_gusts":42.8,"aqi":44,"pm10":13.2,"pm2_5":10.6,"mosquito_risk":0,"arthritis_risk":5,"migraine_risk":7,"frizz_risk":0,"updated_at":"2026-04-21T05:16:20.422410+05:30"},{"city":"Shimla","state":"Himachal Pradesh","latitude":31.1048,"longitude":77.1734,"temp":13.4,"humidity":45,"rain":0.0,"pressure":782.2,"uv_index":7.75,"wind_gusts":48.6,"aqi":47,"pm10":32.0,"pm2_5":14.9,"mosquito_risk":0,"arthritis_risk":5,"migraine_risk":7,"frizz_risk":0,"updated_at":"2026-04-21T05:16:20.422416+05:30"},{"city":"Manali","state":"Himachal Pradesh","latitude":32.2396,"longitude":77.1887,"temp":15.3,"humidity":34,"rain":0.0,"pressure":818.8,"uv_index":9.2,"wind_gusts":31.7,"aqi":49,"pm10":26.2,"pm2_5":14.0,"mosquito_risk":0,"arthritis_risk":5,"migraine_risk":7,"frizz_risk":1,"updated_at":"2026-04-21T05:16:20.422423+05:30"},{"city":"Gurgaon","state":"Haryana","latitude":28.4595,"longitude":77.0266,"temp":21.9,"humidity":53,"rain":0.0,"pressure":979.0,"uv_index":7.4,"wind_gusts":32.4,"aqi":1403,"pm10":1043.1,"pm2_5":147.1,"mosquito_risk":0,"arthritis_risk":5,"migraine_risk":7,"frizz_risk":0,"updated_at":"2026-04-21T05:16:20.422429+05:30"},{"city":"Noida","state":"Uttar Pradesh","latitude":28.5355,"longitude":77.391,"temp":23.9,"humidity":46,"rain":0.0,"pressure":982.0,"uv_index":7.35,"wind_gusts":33.5,"aqi":1403,"pm10":1043.1,"pm2_5":147.1,"mosquito_risk":0,"arthritis_risk":5,"migraine_risk":7,"frizz_risk":0,"updated_at":"2026-04-21T05:16:20.422435+05:30"},{"city":"Ghaziabad","state":"Uttar Pradesh","latitude":28.6692,"longitude":77.4538,"temp":22.9,"humidity":48,"rain":0.0,"pressure":980.1,"uv_index":7.3,"wind_gusts":33.8,"aqi":337,"pm10":380.0,"pm2_5":82.7,"mosquito_risk":0,"arthritis_risk":5,"migraine_risk":7,"frizz_risk":0,"updated_at":"2026-04-21T05:16:20.422441+05:30"},{"city":"Faridabad","state":"Haryana","latitude":28.4089,"longitude":77.3178,"temp":23.8,"humidity":42,"rain":0.0,"pressure":981.3,"uv_index":7.4,"wind_gusts":32.0,"aqi":1403,"pm10":1043.1,"pm2_5":147.1,"mosquito_risk":0,"arthritis_risk":5,"migraine_risk":7,"frizz_risk":0,"updated_at":"2026-04-21T05:16:20.422447+05:30"},{"city":"Meerut","state":"Uttar Pradesh","latitude":28.9845,"longitude":77.7064,"temp":21.6,"humidity":50,"rain":0.0,"pressure":978.6,"uv_index":7.2,"wind_gusts":37.1,"aqi":337,"pm10":380.0,"pm2_5":82.7,"mosquito_risk":0,"arthritis_risk":5,"migraine_risk":7,"frizz_risk":0,"updated_at":"2026-04-21T05:16:20.422454+05:30"},{"city":"Agra","state":"Uttar Pradesh","latitude":27.1767,"longitude":78.0081,"temp":25.0,"humidity":48,"rain":0.0,"pressure":985.0,"uv_index":7.7,"wind_gusts":26.6,"aqi":1026,"pm10":1058.0,"pm2_5":155.1,"mosquito_risk":4,"arthritis_risk":5,"migraine_risk":7,"frizz_risk":0,"updated_at":"2026-04-21T05:16:20.422462+05:30"},{"city":"Varanasi","state":"Uttar Pradesh","latitude":25.3176,"longitude":82.9739,"temp":25.1,"humidity":51,"rain":0.0,"pressure":993.6,"uv_index":8.55,"wind_gusts":40.7,"aqi":87,"pm10":58.7,"pm2_5":28.6,"mosquito_risk":4,"arthritis_risk":5,"migraine_risk":7,"frizz_risk":0,"updated_at":"2026-04-21T05:16:20.422468+05:30"},{"city":"Prayagraj","state":"Uttar Pradesh","latitude":25.4358,"longitude":81.8463,"temp":27.0,"humidity":51,"rain":0.0,"pressure":992.4,"uv_index":8.4,"wind_gusts":34.2,"aqi":86,"pm10":116.9,"pm2_5":38.9,"mosquito_risk":4,"arthritis_risk":5,"migraine_risk":7,"frizz_risk":0,"updated_at":"2026-04-21T05:16:20.422475+05:30"},{"city":"Gorakhpur","state":"Uttar Pradesh","latitude":26.7606,"longitude":83.3732,"temp":23.4,"humidity":81,"rain":0.0,"pressure":993.0,"uv_index":8.3,"wind_gusts":43.9,"aqi":109,"pm10":28.2,"pm2_5":18.5,"mosquito_risk":3,"arthritis_risk":5,"migraine_risk":7,"frizz_risk":1,"updated_at":"2026-04-21T05:16:20.422484+05:30"},{"city":"Bareilly","state":"Uttar Pradesh","latitude":28.367,"longitude":79.4304,"temp":21.9,"humidity":54,"rain":0.0,"pressure":983.4,"uv_index":7.6,"wind_gusts":41.8,"aqi":76,"pm10":128.5,"pm2_5":42.7,"mosquito_risk":0,"arthritis_risk":5,"migraine_risk":7,"frizz_risk":0,"updated_at":"2026-04-21T05:16:20.422490+05:30"},{"city":"Aligarh","state":"Uttar Pradesh","latitude":27.8974,"longitude":78.088,"temp":23.3,"humidity":50,"rain":0.0,"pressure":982.8,"uv_index":7.5,"wind_gusts":34.9,"aqi":767,"pm10":903.4,"pm2_5":134.1,"mosquito_risk":0,"arthritis_risk":5,"migraine_risk":7,"frizz_risk":0,"updated_at":"2026-04-21T05:16:20.422496+05:30"},{"city":"Moradabad","state":"Uttar Pradesh","latitude":28.8386,"longitude":78.7733,"temp":21.6,"humidity":53,"rain":0.0,"pressure":980.3,"uv_index":7.4,"wind_gusts":40.0,"aqi":92,"pm10":152.7,"pm2_5":53.1,"mosquito_risk":0,"arthritis_risk":5,"migraine_risk":7,"frizz_risk":0,"updated_at":"2026-04-21T05:16:20.422502+05:30"},{"city":"Saharanpur","state":"Uttar Pradesh","latitude":29.9637,"longitude":77.546,"temp":21.6,"humidity":53,"rain":0.0,"pressure":972.5,"uv_index":7.0,"wind_gusts":31.0,"aqi":74,"pm10":48.2,"pm2_5":27.7,"mosquito_risk":0,"arthritis_risk":5,"migraine_risk":7,"frizz_risk":0,"updated_at":"2026-04-21T05:16:20.422508+05:30"},{"city":"Jhansi","state":"Uttar Pradesh","latitude":25.4484,"longitude":78.5685,"temp":27.1,"humidity":40,"rain":0.0,"pressure":975.1,"uv_index":8.25,"wind_gusts":32.8,"aqi":62,"pm10":184.4,"pm2_5":29.6,"mosquito_risk":4,"arthritis_risk":5,"migraine_risk":7,"frizz_risk":0,"updated_at":"2026-04-21T05:16:23.681034+05:30"},{"city":"Surat","state":"Gujarat","latitude":21.1702,"longitude":72.8311,"temp":25.8,"humidity":96,"rain":0.0,"pressure":1005.0,"uv_index":7.85,"wind_gusts":29.2,"aqi":96,"pm10":38.8,"pm2_5":31.2,"mosquito_risk":7,"arthritis_risk":5,"migraine_risk":4,"frizz_risk":1,"updated_at":"2026-04-21T05:16:23.681062+05:30"},{"city":"Vadodara","state":"Gujarat","latitude":22.3072,"longitude":73.1812,"temp":27.1,"humidity":58,"rain":0.0,"pressure":1003.0,"uv_index":8.15,"wind_gusts":26.3,"aqi":89,"pm10":34.8,"pm2_5":27.1,"mosquito_risk":4,"arthritis_risk":5,"migraine_risk":4,"frizz_risk":1,"updated_at":"2026-04-21T05:16:23.681072+05:30"},{"city":"Rajkot","state":"Gujarat","latitude":22.3039,"longitude":70.8022,"temp":23.3,"humidity":91,"rain":0.0,"pressure":993.6,"uv_index":7.9,"wind_gusts":24.5,"aqi":52,"pm10":43.5,"pm2_5":15.5,"mosquito_risk":3,"arthritis_risk":5,"migraine_risk":7,"frizz_risk":1,"updated_at":"2026-04-21T05:16:23.681079+05:30"},{"city":"Thane","state":"Maharashtra","latitude":19.2183,"longitude":72.9781,"temp":25.5,"humidity":94,"rain":0.0,"pressure":1005.9,"uv_index":7.3,"wind_gusts":33.1,"aqi":79,"pm10":56.1,"pm2_5":26.2,"mosquito_risk":7,"arthritis_risk":5,"migraine_risk":4,"frizz_risk":1,"updated_at":"2026-04-21T05:16:23.681086+05:30"},{"city":"Nagpur","state":"Maharashtra","latitude":21.1458,"longitude":79.0882,"temp":26.8,"humidity":61,"rain":0.0,"pressure":971.7,"uv_index":8.9,"wind_gusts":23.8,"aqi":86,"pm10":36.3,"pm2_5":33.2,"mosquito_risk":7,"arthritis_risk":5,"migraine_risk":7,"frizz_risk":1,"updated_at":"2026-04-21T05:16:23.681093+05:30"},{"city":"Nashik","state":"Maharashtra","latitude":19.9975,"longitude":73.7898,"temp":24.4,"humidity":57,"rain":0.0,"pressure":944.2,"uv_index":8.3,"wind_gusts":34.9,"aqi":73,"pm10":37.0,"pm2_5":24.8,"mosquito_risk":0,"arthritis_risk":5,"migraine_risk":7,"frizz_risk":0,"updated_at":"2026-04-21T05:16:23.681100+05:30"},{"city":"Aurangabad","state":"Maharashtra","latitude":19.8762,"longitude":75.3433,"temp":27.7,"humidity":38,"rain":0.0,"pressure":943.0,"uv_index":9.0,"wind_gusts":24.8,"aqi":88,"pm10":37.5,"pm2_5":28.7,"mosquito_risk":4,"arthritis_risk":5,"migraine_risk":7,"frizz_risk":0,"updated_at":"2026-04-21T05:16:23.681107+05:30"},{"city":"Solapur","state":"Maharashtra","latitude":17.6599,"longitude":75.9064,"temp":26.2,"humidity":67,"rain":0.0,"pressure":955.4,"uv_index":9.1,"wind_gusts":20.9,"aqi":106,"pm10":42.0,"pm2_5":39.0,"mosquito_risk":7,"arthritis_risk":5,"migraine_risk":7,"frizz_risk":1,"updated_at":"2026-04-21T05:16:23.681115+05:30"},{"city":"Kolhapur","state":"Maharashtra","latitude":16.705,"longitude":74.2433,"temp":23.6,"humidity":82,"rain":0.0,"pressure":946.4,"uv_index":9.05,"wind_gusts":43.6,"aqi":111,"pm10":46.1,"pm2_5":42.0,"mosquito_risk":3,"arthritis_risk":5,"migraine_risk":7,"frizz_risk":1,"updated_at":"2026-04-21T05:16:23.681121+05:30"},{"city":"Goa","state":"Goa","latitude":15.2993,"longitude":74.124,"temp":25.8,"humidity":88,"rain":0.0,"pressure":996.5,"uv_index":9.05,"wind_gusts":25.2,"aqi":83,"pm10":40.5,"pm2_5":29.0,"mosquito_risk":7,"arthritis_risk":5,"migraine_risk":7,"frizz_risk":1,"updated_at":"2026-04-21T05:16:23.681128+05:30"},{"city":"Jodhpur","state":"Rajasthan","latitude":26.2389,"longitude":73.0243,"temp":28.4,"humidity":40,"rain":0.0,"pressure":981.1,"uv_index":7.6,"wind_gusts":36.7,"aqi":106,"pm10":182.5,"pm2_5":30.2,"mosquito_risk":4,"arthritis_risk":5,"migraine_risk":7,"frizz_risk":0,"updated_at":"2026-04-21T05:16:23.681134+05:30"},{"city":"Udaipur","state":"Rajasthan","latitude":24.5854,"longitude":73.7125,"temp":25.1,"humidity":33,"rain":0.0,"pressure":945.6,"uv_index":8.7,"wind_gusts":38.2,"aqi":43,"pm10":29.9,"pm2_5":11.5,"mosquito_risk":4,"arthritis_risk":5,"migraine_risk":7,"frizz_risk":0,"updated_at":"2026-04-21T05:16:23.681141+05:30"},{"city":"Kota","state":"Rajasthan","latitude":25.2138,"longitude":75.8648,"temp":25.5,"humidity":36,"rain":0.0,"pressure":976.7,"uv_index":8.2,"wind_gusts":27.0,"aqi":42,"pm10":13.7,"pm2_5":9.6,"mosquito_risk":4,"arthritis_risk":5,"migraine_risk":7,"frizz_risk":0,"updated_at":"2026-04-21T05:16:23.681148+05:30"},{"city":"Bikaner","state":"Rajasthan","latitude":28.0229,"longitude":73.3119,"temp":28.7,"humidity":35,"rain":0.0,"pressure":979.8,"uv_index":8.05,"wind_gusts":22.7,"aqi":54,"pm10":27.5,"pm2_5":15.2,"mosquito_risk":4,"arthritis_risk":5,"migraine_risk":7,"frizz_risk":0,"updated_at":"2026-04-21T05:16:23.681155+05:30"},{"city":"Ajmer","state":"Rajasthan","latitude":26.4499,"longitude":74.6399,"temp":25.5,"humidity":42,"rain":0.0,"pressure":952.8,"uv_index":8.15,"wind_gusts":45.4,"aqi":62,"pm10":25.4,"pm2_5":10.5,"mosquito_risk":4,"arthritis_risk":5,"migraine_risk":7,"frizz_risk":0,"updated_at":"2026-04-21T05:16:23.681162+05:30"},{"city":"Gwalior","state":"Madhya Pradesh","latitude":26.2183,"longitude":78.1828,"temp":27.7,"humidity":43,"rain":0.0,"pressure":980.6,"uv_index":7.95,"wind_gusts":27.4,"aqi":150,"pm10":953.7,"pm2_5":113.9,"mosquito_risk":4,"arthritis_risk":5,"migraine_risk":7,"frizz_risk":0,"updated_at":"2026-04-21T05:16:23.681169+05:30"},{"city":"Indore","state":"Madhya Pradesh","latitude":22.7196,"longitude":75.8577,"temp":24.6,"humidity":54,"rain":0.0,"pressure":946.8,"uv_index":8.6,"wind_gusts":39.6,"aqi":61,"pm10":23.3,"pm2_5":16.6,"mosquito_risk":0,"arthritis_risk":5,"migraine_risk":7,"frizz_risk":0,"updated_at":"2026-04-21T05:16:23.681175+05:30"},{"city":"Bhopal","state":"Madhya Pradesh","latitude":23.2599,"longitude":77.4126,"temp":25.6,"humidity":47,"rain":0.0,"pressure":952.2,"uv_index":8.6,"wind_gusts":31.3,"aqi":60,"pm10":17.3,"pm2_5":13.1,"mosquito_risk":4,"arthritis_risk":5,"migraine_risk":7,"frizz_risk":0,"updated_at":"2026-04-21T05:16:23.681182+05:30"},{"city":"Jabalpur","state":"Madhya Pradesh","latitude":23.1815,"longitude":79.9864,"temp":25.6,"humidity":61,"rain":0.0,"pressure":959.1,"uv_index":8.8,"wind_gusts":28.4,"aqi":72,"pm10":38.2,"pm2_5":34.3,"mosquito_risk":7,"arthritis_risk":5,"migraine_risk":7,"frizz_risk":1,"updated_at":"2026-04-21T05:16:23.681188+05:30"},{"city":"Ujjain","state":"Madhya Pradesh","latitude":23.1765,"longitude":75.7885,"temp":25.3,"humidity":51,"rain":0.0,"pressure":952.6,"uv_index":8.55,"wind_gusts":41.4,"aqi":57,"pm10":25.7,"pm2_5":17.4,"mosquito_risk":4,"arthritis_risk":5,"migraine_risk":7,"frizz_risk":0,"updated_at":"2026-04-21T05:16:23.681195+05:30"},{"city":"Visakhapatnam","state":"Andhra Pradesh","latitude":17.6868,"longitude":83.2185,"temp":26.9,"humidity":88,"rain":0.0,"pressure":1001.9,"uv_index":9.15,"wind_gusts":41.8,"aqi":55,"pm10":18.1,"pm2_5":14.2,"mosquito_risk":7,"arthritis_risk":5,"migraine_risk":4,"frizz_risk":1,"updated_at":"2026-04-21T05:16:23.681202+05:30"},{"city":"Vijayawada","state":"Andhra Pradesh","latitude":16.5062,"longitude":80.648,"temp":27.4,"humidity":88,"rain":0.0,"pressure":1001.5,"uv_index":8.85,"wind_gusts":28.1,"aqi":56,"pm10":13.1,"pm2_5":9.9,"mosquito_risk":7,"arthritis_risk":5,"migraine_risk":4,"frizz_risk":1,"updated_at":"2026-04-21T05:16:23.681208+05:30"},{"city":"Guntur","state":"Andhra Pradesh","latitude":16.3067,"longitude":80.4365,"temp":27.1,"humidity":89,"rain":0.0,"pressure":1002.2,"uv_index":8.9,"wind_gusts":27.0,"aqi":58,"pm10":12.3,"pm2_5":9.3,"mosquito_risk":7,"arthritis_risk":5,"migraine_risk":4,"frizz_risk":1,"updated_at":"2026-04-21T05:16:23.681215+05:30"},{"city":"Nellore","state":"Andhra Pradesh","latitude":14.4426,"longitude":79.9865,"temp":26.7,"humidity":89,"rain":0.0,"pressure":1004.2,"uv_index":9.3,"wind_gusts":35.6,"aqi":49,"pm10":10.1,"pm2_5":7.9,"mosquito_risk":7,"arthritis_risk":5,"migraine_risk":4,"frizz_risk":1,"updated_at":"2026-04-21T05:16:23.681222+05:30"},{"city":"Kurnool","state":"Andhra Pradesh","latitude":15.8281,"longitude":78.0373,"temp":28.3,"humidity":69,"rain":0.0,"pressure":975.0,"uv_index":9.25,"wind_gusts":50.0,"aqi":91,"pm10":15.1,"pm2_5":14.3,"mosquito_risk":7,"arthritis_risk":5,"migraine_risk":7,"frizz_risk":1,"updated_at":"2026-04-21T05:16:23.681229+05:30"},{"city":"Kakinada","state":"Andhra Pradesh","latitude":16.9891,"longitude":82.2475,"temp":26.7,"humidity":92,"rain":0.0,"pressure":1006.3,"uv_index":9.2,"wind_gusts":29.2,"aqi":45,"pm10":16.0,"pm2_5":10.6,"mosquito_risk":7,"arthritis_risk":5,"migraine_risk":4,"frizz_risk":1,"updated_at":"2026-04-21T05:16:23.681236+05:30"},{"city":"Tirupati","state":"Andhra Pradesh","latitude":13.6288,"longitude":79.4192,"temp":24.7,"humidity":88,"rain":0.0,"pressure":990.8,"uv_index":9.35,"wind_gusts":32.0,"aqi":59,"pm10":10.2,"pm2_5":8.4,"mosquito_risk":3,"arthritis_risk":5,"migraine_risk":7,"frizz_risk":1,"updated_at":"2026-04-21T05:16:23.681242+05:30"},{"city":"Warangal","state":"Telangana","latitude":17.9689,"longitude":79.5941,"temp":27.8,"humidity":83,"rain":0.0,"pressure":976.9,"uv_index":8.9,"wind_gusts":24.8,"aqi":105,"pm10":17.8,"pm2_5":17.3,"mosquito_risk":7,"arthritis_risk":5,"migraine_risk":7,"frizz_risk":1,"updated_at":"2026-04-21T05:16:23.681248+05:30"},{"city":"Nizamabad","state":"Telangana","latitude":18.6725,"longitude":78.0941,"temp":28.1,"humidity":60,"rain":0.0,"pressure":963.1,"uv_index":8.15,"wind_gusts":25.9,"aqi":113,"pm10":61.0,"pm2_5":57.0,"mosquito_risk":4,"arthritis_risk":5,"migraine_risk":7,"frizz_risk":1,"updated_at":"2026-04-21T05:16:23.681255+05:30"},{"city":"Mysore","state":"Karnataka","latitude":12.2958,"longitude":76.6396,"temp":22.9,"humidity":91,"rain":0.0,"pressure":926.9,"uv_index":9.5,"wind_gusts":37.8,"aqi":87,"pm10":33.8,"pm2_5":30.7,"mosquito_risk":3,"arthritis_risk":5,"migraine_risk":7,"frizz_risk":1,"updated_at":"2026-04-21T05:16:23.681261+05:30"},{"city":"Mangalore","state":"Karnataka","latitude":12.9141,"longitude":74.856,"temp":27.8,"humidity":84,"rain":0.0,"pressure":1004.9,"uv_index":9.1,"wind_gusts":24.5,"aqi":83,"pm10":44.7,"pm2_5":32.5,"mosquito_risk":7,"arthritis_risk":5,"migraine_risk":4,"frizz_risk":1,"updated_at":"2026-04-21T05:16:23.681267+05:30"},{"city":"Hubli-Dharwad","state":"Karnataka","latitude":15.3647,"longitude":75.124,"temp":24.1,"humidity":88,"rain":0.0,"pressure":939.4,"uv_index":9.25,"wind_gusts":28.8,"aqi":102,"pm10":28.2,"pm2_5":25.0,"mosquito_risk":3,"arthritis_risk":5,"migraine_risk":7,"frizz_risk":1,"updated_at":"2026-04-21T05:16:23.681273+05:30"},{"city":"Belgaum","state":"Karnataka","latitude":15.8497,"longitude":74.4977,"temp":22.5,"humidity":93,"rain":0.0,"pressure":924.0,"uv_index":9.25,"wind_gusts":36.4,"aqi":94,"pm10":40.0,"pm2_5":32.9,"mosquito_risk":3,"arthritis_risk":5,"migraine_risk":7,"frizz_risk":1,"updated_at":"2026-04-21T05:16:26.934615+05:30"},{"city":"Coimbatore","state":"Tamil Nadu","latitude":11.0168,"longitude":76.9558,"temp":24.2,"humidity":90,"rain":0.0,"pressure":960.5,"uv_index":9.4,"wind_gusts":53.6,"aqi":90,"pm10":34.1,"pm2_5":28.9,"mosquito_risk":3,"arthritis_risk":5,"migraine_risk":7,"frizz_risk":1,"updated_at":"2026-04-21T05:16:26.934644+05:30"},{"city":"Madurai","state":"Tamil Nadu","latitude":9.9252,"longitude":78.1198,"temp":26.4,"humidity":90,"rain":0.0,"pressure":991.5,"uv_index":9.1,"wind_gusts":40.0,"aqi":61,"pm10":23.5,"pm2_5":21.5,"mosquito_risk":7,"arthritis_risk":5,"migraine_risk":7,"frizz_risk":1,"updated_at":"2026-04-21T05:16:26.934656+05:30"},{"city":"Trichy","state":"Tamil Nadu","latitude":10.7905,"longitude":78.7047,"temp":26.3,"humidity":90,"rain":0.0,"pressure":998.4,"uv_index":9.3,"wind_gusts":27.0,"aqi":58,"pm10":13.4,"pm2_5":11.7,"mosquito_risk":7,"arthritis_risk":5,"migraine_risk":7,"frizz_risk":1,"updated_at":"2026-04-21T05:16:26.934666+05:30"},{"city":"Salem","state":"Tamil Nadu","latitude":11.6643,"longitude":78.146,"temp":26.5,"humidity":81,"rain":0.0,"pressure":976.0,"uv_index":9.4,"wind_gusts":18.7,"aqi":65,"pm10":16.4,"pm2_5":15.5,"mosquito_risk":7,"arthritis_risk":5,"migraine_risk":7,"frizz_risk":1,"updated_at":"2026-04-21T05:16:26.934674+05:30"},{"city":"Tirunelveli","state":"Tamil Nadu","latitude":8.7139,"longitude":77.7567,"temp":25.6,"humidity":85,"rain":0.0,"pressure":1001.7,"uv_index":8.8,"wind_gusts":45.0,"aqi":60,"pm10":22.7,"pm2_5":20.7,"mosquito_risk":7,"arthritis_risk":5,"migraine_risk":4,"frizz_risk":1,"updated_at":"2026-04-21T05:16:26.934683+05:30"},{"city":"Vellore","state":"Tamil Nadu","latitude":12.9165,"longitude":79.1325,"temp":24.5,"humidity":83,"rain":0.0,"pressure":983.6,"uv_index":9.4,"wind_gusts":28.4,"aqi":65,"pm10":19.7,"pm2_5":18.2,"mosquito_risk":3,"arthritis_risk":5,"migraine_risk":7,"frizz_risk":1,"updated_at":"2026-04-21T05:16:26.934691+05:30"},{"city":"Erode","state":"Tamil Nadu","latitude":11.341,"longitude":77.7172,"temp":28.1,"humidity":81,"rain":0.0,"pressure":987.6,"uv_index":9.35,"wind_gusts":24.8,"aqi":65,"pm10":10.2,"pm2_5":9.8,"mosquito_risk":7,"arthritis_risk":5,"migraine_risk":7,"frizz_risk":1,"updated_at":"2026-04-21T05:16:26.934699+05:30"},{"city":"Kochi","state":"Kerala","latitude":9.9312,"longitude":76.2673,"temp":27.8,"humidity":85,"rain":0.0,"pressure":1007.2,"uv_index":9.05,"wind_gusts":31.3,"aqi":66,"pm10":28.6,"pm2_5":24.6,"mosquito_risk":7,"arthritis_risk":5,"migraine_risk":4,"frizz_risk":1,"updated_at":"2026-04-21T05:16:26.934707+05:30"},{"city":"Thiruvananthapuram","state":"Kerala","latitude":8.5241,"longitude":76.9366,"temp":28.0,"humidity":85,"rain":0.0,"pressure":1006.2,"uv_index":8.4,"wind_gusts":28.8,"aqi":57,"pm10":19.2,"pm2_5":14.8,"mosquito_risk":7,"arthritis_risk":5,"migraine_risk":4,"frizz_risk":1,"updated_at":"2026-04-21T05:16:26.934715+05:30"},{"city":"Kozhikode","state":"Kerala","latitude":11.2588,"longitude":75.7804,"temp":27.4,"humidity":83,"rain":0.0,"pressure":1006.6,"uv_index":9.1,"wind_gusts":29.9,"aqi":69,"pm10":34.0,"pm2_5":21.2,"mosquito_risk":7,"arthritis_risk":5,"migraine_risk":4,"frizz_risk":1,"updated_at":"2026-04-21T05:16:26.934722+05:30"},{"city":"Thrissur","state":"Kerala","latitude":10.5276,"longitude":76.2144,"temp":27.0,"humidity":89,"rain":0.0,"pressure":1005.6,"uv_index":9.05,"wind_gusts":36.7,"aqi":69,"pm10":30.3,"pm2_5":26.4,"mosquito_risk":7,"arthritis_risk":5,"migraine_risk":4,"frizz_risk":1,"updated_at":"2026-04-21T05:16:26.934731+05:30"},{"city":"Kannur","state":"Kerala","latitude":11.8745,"longitude":75.3704,"temp":28.1,"humidity":83,"rain":0.0,"pressure":1005.4,"uv_index":9.1,"wind_gusts":31.7,"aqi":75,"pm10":38.4,"pm2_5":25.8,"mosquito_risk":7,"arthritis_risk":5,"migraine_risk":4,"frizz_risk":1,"updated_at":"2026-04-21T05:16:26.934738+05:30"},{"city":"Patna","state":"Bihar","latitude":25.5941,"longitude":85.1376,"temp":27.1,"humidity":82,"rain":0.0,"pressure":995.4,"uv_index":8.7,"wind_gusts":33.1,"aqi":117,"pm10":80.1,"pm2_5":38.8,"mosquito_risk":7,"arthritis_risk":5,"migraine_risk":7,"frizz_risk":1,"updated_at":"2026-04-21T05:16:26.934746+05:30"},{"city":"Gaya","state":"Bihar","latitude":24.7914,"longitude":85.0002,"temp":27.3,"humidity":50,"rain":0.0,"pressure":989.4,"uv_index":8.75,"wind_gusts":30.2,"aqi":93,"pm10":50.4,"pm2_5":31.4,"mosquito_risk":4,"arthritis_risk":5,"migraine_risk":7,"frizz_risk":0,"updated_at":"2026-04-21T05:16:26.934753+05:30"},{"city":"Muzaffarpur","state":"Bihar","latitude":26.1209,"longitude":85.3647,"temp":25.5,"humidity":92,"rain":0.0,"pressure":995.6,"uv_index":8.65,"wind_gusts":30.6,"aqi":131,"pm10":89.9,"pm2_5":44.6,"mosquito_risk":7,"arthritis_risk":5,"migraine_risk":7,"frizz_risk":1,"updated_at":"2026-04-21T05:16:26.934761+05:30"},{"city":"Bhagalpur","state":"Bihar","latitude":25.2425,"longitude":87.0117,"temp":27.0,"humidity":87,"rain":0.0,"pressure":995.7,"uv_index":8.7,"wind_gusts":25.2,"aqi":148,"pm10":67.5,"pm2_5":57.6,"mosquito_risk":7,"arthritis_risk":5,"migraine_risk":7,"frizz_risk":1,"updated_at":"2026-04-21T05:16:26.934768+05:30"},{"city":"Ranchi","state":"Jharkhand","latitude":23.3441,"longitude":85.3096,"temp":24.4,"humidity":69,"rain":0.0,"pressure":934.7,"uv_index":9.25,"wind_gusts":35.6,"aqi":83,"pm10":40.9,"pm2_5":25.1,"mosquito_risk":3,"arthritis_risk":5,"migraine_risk":7,"frizz_risk":1,"updated_at":"2026-04-21T05:16:26.934775+05:30"},{"city":"Jamshedpur","state":"Jharkhand","latitude":22.8046,"longitude":86.2029,"temp":27.8,"humidity":80,"rain":0.0,"pressure":987.1,"uv_index":9.05,"wind_gusts":21.6,"aqi":135,"pm10":57.9,"pm2_5":52.6,"mosquito_risk":7,"arthritis_risk":5,"migraine_risk":7,"frizz_risk":1,"updated_at":"2026-04-21T05:16:26.934782+05:30"},{"city":"Dhanbad","state":"Jharkhand","latitude":23.7957,"longitude":86.4304,"temp":29.1,"humidity":66,"rain":0.0,"pressure":975.7,"uv_index":9.0,"wind_gusts":29.2,"aqi":145,"pm10":91.3,"pm2_5":68.2,"mosquito_risk":7,"arthritis_risk":5,"migraine_risk":7,"frizz_risk":1,"updated_at":"2026-04-21T05:16:26.934790+05:30"},{"city":"Bokaro","state":"Jharkhand","latitude":23.6693,"longitude":86.1511,"temp":27.5,"humidity":61,"rain":0.0,"pressure":979.9,"uv_index":9.05,"wind_gusts":33.1,"aqi":121,"pm10":79.4,"pm2_5":57.7,"mosquito_risk":7,"arthritis_risk":5,"migraine_risk":7,"frizz_risk":1,"updated_at":"2026-04-21T05:16:26.934797+05:30"},{"city":"Bhubaneswar","state":"Odisha","latitude":20.2961,"longitude":85.8245,"temp":26.8,"humidity":95,"rain":0.0,"pressure":999.4,"uv_index":9.15,"wind_gusts":30.2,"aqi":70,"pm10":17.3,"pm2_5":15.0,"mosquito_risk":7,"arthritis_risk":5,"migraine_risk":7,"frizz_risk":1,"updated_at":"2026-04-21T05:16:26.934804+05:30"},{"city":"Cuttack","state":"Odisha","latitude":20.4625,"longitude":85.8828,"temp":26.9,"humidity":95,"rain":0.0,"pressure":1001.3,"uv_index":9.2,"wind_gusts":31.3,"aqi":70,"pm10":17.3,"pm2_5":15.0,"mosquito_risk":7,"arthritis_risk":5,"migraine_risk":4,"frizz_risk":1,"updated_at":"2026-04-21T05:16:26.934811+05:30"},{"city":"Rourkela","state":"Odisha","latitude":22.2604,"longitude":84.8536,"temp":26.6,"humidity":83,"rain":0.0,"pressure":981.6,"uv_index":8.95,"wind_gusts":27.7,"aqi":120,"pm10":57.5,"pm2_5":49.4,"mosquito_risk":7,"arthritis_risk":5,"migraine_risk":7,"frizz_risk":1,"updated_at":"2026-04-21T05:16:26.934818+05:30"},{"city":"Raipur","state":"Chhattisgarh","latitude":21.2514,"longitude":81.6296,"temp":28.4,"humidity":49,"rain":0.0,"pressure":972.2,"uv_index":9.0,"wind_gusts":35.3,"aqi":98,"pm10":44.9,"pm2_5":41.1,"mosquito_risk":4,"arthritis_risk":5,"migraine_risk":7,"frizz_risk":1,"updated_at":"2026-04-21T05:16:26.934872+05:30"},{"city":"Bhilai","state":"Chhattisgarh","latitude":21.1938,"longitude":81.3509,"temp":27.5,"humidity":54,"rain":0.0,"pressure":972.4,"uv_index":9.0,"wind_gusts":33.5,"aqi":93,"pm10":41.6,"pm2_5":37.6,"mosquito_risk":4,"arthritis_risk":5,"migraine_risk":7,"frizz_risk":1,"updated_at":"2026-04-21T05:16:26.934885+05:30"},{"city":"Guwahati","state":"Assam","latitude":26.1158,"longitude":91.7086,"temp":23.1,"humidity":92,"rain":0.0,"pressure":999.0,"uv_index":8.55,"wind_gusts":49.3,"aqi":81,"pm10":22.1,"pm2_5":18.5,"mosquito_risk":3,"arthritis_risk":5,"migraine_risk":7,"frizz_risk":1,"updated_at":"2026-04-21T05:16:26.934894+05:30"},{"city":"Agartala","state":"Tripura","latitude":23.8315,"longitude":91.2868,"temp":27.1,"humidity":91,"rain":0.0,"pressure":1003.8,"uv_index":8.8,"wind_gusts":40.7,"aqi":87,"pm10":27.0,"pm2_5":22.1,"mosquito_risk":7,"arthritis_risk":5,"migraine_risk":4,"frizz_risk":1,"updated_at":"2026-04-21T05:16:26.934906+05:30"},{"city":"Shillong","state":"Meghalaya","latitude":25.5788,"longitude":91.8933,"temp":16.7,"humidity":92,"rain":0.0,"pressure":854.4,"uv_index":9.05,"wind_gusts":73.4,"aqi":59,"pm10":2.6,"pm2_5":2.2,"mosquito_risk":3,"arthritis_risk":10,"migraine_risk":7,"frizz_risk":0,"updated_at":"2026-04-21T05:16:26.934915+05:30"},{"city":"Imphal","state":"Manipur","latitude":24.817,"longitude":93.9368,"temp":19.4,"humidity":89,"rain":0.0,"pressure":921.9,"uv_index":9.2,"wind_gusts":82.4,"aqi":134,"pm10":98.3,"pm2_5":88.5,"mosquito_risk":3,"arthritis_risk":10,"migraine_risk":7,"frizz_risk":1,"updated_at":"2026-04-21T05:16:26.934923+05:30"},{"city":"Aizawl","state":"Mizoram","latitude":23.7271,"longitude":92.7176,"temp":20.7,"humidity":82,"rain":0.0,"pressure":891.6,"uv_index":9.05,"wind_gusts":58.7,"aqi":104,"pm10":45.1,"pm2_5":35.2,"mosquito_risk":3,"arthritis_risk":5,"migraine_risk":7,"frizz_risk":1,"updated_at":"2026-04-21T05:16:26.934931+05:30"},{"city":"Kohima","state":"Nagaland","latitude":25.6701,"longitude":94.1077,"temp":18.3,"humidity":79,"rain":0.0,"pressure":853.4,"uv_index":9.15,"wind_gusts":108.0,"aqi":85,"pm10":33.9,"pm2_5":27.8,"mosquito_risk":3,"arthritis_risk":5,"migraine_risk":7,"frizz_risk":0,"updated_at":"2026-04-21T05:16:26.934938+05:30"},{"city":"Gangtok","state":"Sikkim","latitude":27.3314,"longitude":88.6138,"temp":15.2,"humidity":74,"rain":0.0,"pressure":833.9,"uv_index":9.0,"wind_gusts":17.3,"aqi":64,"pm10":24.7,"pm2_5":18.6,"mosquito_risk":3,"arthritis_risk":5,"migraine_risk":7,"frizz_risk":0,"updated_at":"2026-04-21T05:16:26.934946+05:30"},{"city":"Siliguri","state":"West Bengal","latitude":26.7271,"longitude":88.3953,"temp":22.6,"humidity":81,"rain":0.0,"pressure":990.0,"uv_index":8.5,"wind_gusts":31.3,"aqi":114,"pm10":52.9,"pm2_5":44.0,"mosquito_risk":3,"arthritis_risk":5,"migraine_risk":7,"frizz_risk":1,"updated_at":"2026-04-21T05:16:30.196327+05:30"},{"city":"Durgapur","state":"West Bengal","latitude":23.5204,"longitude":87.3119,"temp":27.5,"humidity":90,"rain":0.0,"pressure":990.8,"uv_index":8.95,"wind_gusts":38.2,"aqi":151,"pm10":72.2,"pm2_5":65.9,"mosquito_risk":7,"arthritis_risk":5,"migraine_risk":7,"frizz_risk":1,"updated_at":"2026-04-21T05:16:30.196356+05:30"},{"city":"Asansol","state":"West Bengal","latitude":23.6739,"longitude":86.9524,"temp":28.1,"humidity":85,"rain":0.0,"pressure":989.2,"uv_index":9.0,"wind_gusts":30.6,"aqi":144,"pm10":82.9,"pm2_5":65.2,"mosquito_risk":7,"arthritis_risk":5,"migraine_risk":7,"frizz_risk":1,"updated_at":"2026-04-21T05:16:30.196365+05:30"},{"city":"Pondicherry","state":"Puducherry","latitude":11.9139,"longitude":79.8145,"temp":27.4,"humidity":92,"rain":0.0,"pressure":1007.0,"uv_index":9.25,"wind_gusts":32.8,"aqi":30,"pm10":8.8,"pm2_5":6.0,"mosquito_risk":7,"arthritis_risk":5,"migraine_risk":4,"frizz_risk":1,"updated_at":"2026-04-21T05:16:30.196373+05:30"},{"city":"Port Blair","state":"Andaman and Nicobar Islands","latitude":11.6234,"longitude":92.7265,"temp":29.6,"humidity":72,"rain":0.0,"pressure":1005.9,"uv_index":9.05,"wind_gusts":14.0,"aqi":63,"pm10":19.0,"pm2_5":15.5,"mosquito_risk":7,"arthritis_risk":5,"migraine_risk":4,"frizz_risk":1,"updated_at":"2026-04-21T05:16:30.196380+05:30"},{"city":"Haridwar","state":"Uttarakhand","latitude":29.9457,"longitude":78.1642,"temp":20.5,"humidity":57,"rain":0.0,"pressure":971.0,"uv_index":7.1,"wind_gusts":35.3,"aqi":61,"pm10":29.3,"pm2_5":26.0,"mosquito_risk":0,"arthritis_risk":5,"migraine_risk":7,"frizz_risk":0,"updated_at":"2026-04-21T05:16:30.196388+05:30"},{"city":"Rishikesh","state":"Uttarakhand","latitude":30.0869,"longitude":78.2676,"temp":20.7,"humidity":51,"rain":0.0,"pressure":964.1,"uv_index":7.2,"wind_gusts":35.3,"aqi":53,"pm10":23.5,"pm2_5":18.5,"mosquito_risk":0,"arthritis_risk":5,"migraine_risk":7,"frizz_risk":0,"updated_at":"2026-04-21T05:16:30.196395+05:30"},{"city":"Nainital","state":"Uttarakhand","latitude":29.3919,"longitude":79.4542,"temp":21.4,"humidity":27,"rain":0.0,"pressure":805.2,"uv_index":8.05,"wind_gusts":65.2,"aqi":59,"pm10":22.7,"pm2_5":16.1,"mosquito_risk":0,"arthritis_risk":5,"migraine_risk":7,"frizz_risk":0,"updated_at":"2026-04-21T05:16:30.196402+05:30"},{"city":"Mussoorie","state":"Uttarakhand","latitude":30.4599,"longitude":78.0664,"temp":17.9,"humidity":34,"rain":0.0,"pressure":801.2,"uv_index":7.6,"wind_gusts":41.8,"aqi":56,"pm10":20.8,"pm2_5":17.9,"mosquito_risk":0,"arthritis_risk":5,"migraine_risk":7,"frizz_risk":0,"updated_at":"2026-04-21T05:16:30.196409+05:30"},{"city":"Dharamshala","state":"Himachal Pradesh","latitude":32.219,"longitude":76.3234,"temp":21.8,"humidity":28,"rain":0.0,"pressure":867.5,"uv_index":7.85,"wind_gusts":31.7,"aqi":40,"pm10":17.9,"pm2_5":7.7,"mosquito_risk":0,"arthritis_risk":5,"migraine_risk":7,"frizz_risk":0,"updated_at":"2026-04-21T05:16:30.196417+05:30"},{"city":"Dalhousie","state":"Himachal Pradesh","latitude":32.5387,"longitude":75.971,"temp":18.1,"humidity":28,"rain":0.0,"pressure":802.1,"uv_index":8.1,"wind_gusts":30.6,"aqi":52,"pm10":17.8,"pm2_5":12.9,"mosquito_risk":0,"arthritis_risk":5,"migraine_risk":7,"frizz_risk":1,"updated_at":"2026-04-21T05:16:30.196425+05:30"},{"city":"Patiala","state":"Punjab","latitude":30.3398,"longitude":76.3869,"temp":21.6,"humidity":52,"rain":0.0,"pressure":975.5,"uv_index":7.2,"wind_gusts":26.6,"aqi":370,"pm10":360.4,"pm2_5":58.9,"mosquito_risk":0,"arthritis_risk":5,"migraine_risk":7,"frizz_risk":0,"updated_at":"2026-04-21T05:16:30.196432+05:30"},{"city":"Bhatinda","state":"Punjab","latitude":30.211,"longitude":74.9455,"temp":24.5,"humidity":49,"rain":0.0,"pressure":981.4,"uv_index":7.85,"wind_gusts":32.4,"aqi":72,"pm10":41.9,"pm2_5":32.9,"mosquito_risk":0,"arthritis_risk":5,"migraine_risk":7,"frizz_risk":0,"updated_at":"2026-04-21T05:16:30.196439+05:30"},{"city":"Rohtak","state":"Haryana","latitude":28.8955,"longitude":76.6066,"temp":20.9,"humidity":56,"rain":0.0,"pressure":979.1,"uv_index":7.35,"wind_gusts":37.1,"aqi":699,"pm10":648.2,"pm2_5":104.8,"mosquito_risk":0,"arthritis_risk":5,"migraine_risk":7,"frizz_risk":0,"updated_at":"2026-04-21T05:16:30.196446+05:30"},{"city":"Panipat","state":"Haryana","latitude":29.3909,"longitude":76.9635,"temp":21.9,"humidity":46,"rain":0.0,"pressure":977.7,"uv_index":7.2,"wind_gusts":33.8,"aqi":1205,"pm10":1195.8,"pm2_5":157.4,"mosquito_risk":0,"arthritis_risk":5,"migraine_risk":7,"frizz_risk":0,"updated_at":"2026-04-21T05:16:30.196452+05:30"},{"city":"Mathura","state":"Uttar Pradesh","latitude":27.4924,"longitude":77.6737,"temp":25.6,"humidity":41,"rain":0.0,"pressure":984.1,"uv_index":7.6,"wind_gusts":27.7,"aqi":1148,"pm10":1192.1,"pm2_5":175.6,"mosquito_risk":4,"arthritis_risk":5,"migraine_risk":7,"frizz_risk":0,"updated_at":"2026-04-21T05:16:30.196459+05:30"},{"city":"Vrindavan","state":"Uttar Pradesh","latitude":27.5823,"longitude":77.7027,"temp":24.0,"humidity":46,"rain":0.0,"pressure":984.6,"uv_index":7.6,"wind_gusts":31.7,"aqi":1148,"pm10":1192.1,"pm2_5":175.6,"mosquito_risk":0,"arthritis_risk":5,"migraine_risk":7,"frizz_risk":0,"updated_at":"2026-04-21T05:16:30.196465+05:30"},{"city":"Ayodhya","state":"Uttar Pradesh","latitude":26.7922,"longitude":82.1998,"temp":24.8,"humidity":54,"rain":0.0,"pressure":991.3,"uv_index":8.05,"wind_gusts":47.2,"aqi":102,"pm10":43.2,"pm2_5":24.2,"mosquito_risk":0,"arthritis_risk":5,"migraine_risk":7,"frizz_risk":0,"updated_at":"2026-04-21T05:16:30.196471+05:30"},{"city":"Ratlam","state":"Madhya Pradesh","latitude":23.3315,"longitude":75.0367,"temp":26.5,"humidity":50,"rain":0.0,"pressure":953.4,"uv_index":8.45,"wind_gusts":33.8,"aqi":60,"pm10":27.7,"pm2_5":17.5,"mosquito_risk":4,"arthritis_risk":5,"migraine_risk":7,"frizz_risk":0,"updated_at":"2026-04-21T05:16:30.196477+05:30"},{"city":"Sagar","state":"Madhya Pradesh","latitude":23.8388,"longitude":78.7378,"temp":25.8,"humidity":42,"rain":0.0,"pressure":948.3,"uv_index":8.65,"wind_gusts":30.6,"aqi":54,"pm10":11.4,"pm2_5":10.1,"mosquito_risk":4,"arthritis_risk":5,"migraine_risk":7,"frizz_risk":0,"updated_at":"2026-04-21T05:16:30.196483+05:30"},{"city":"Satna","state":"Madhya Pradesh","latitude":24.6005,"longitude":80.8322,"temp":26.3,"humidity":48,"rain":0.0,"pressure":968.5,"uv_index":8.65,"wind_gusts":35.3,"aqi":59,"pm10":20.0,"pm2_5":11.5,"mosquito_risk":4,"arthritis_risk":5,"migraine_risk":7,"frizz_risk":0,"updated_at":"2026-04-21T05:16:30.196489+05:30"},{"city":"Akola","state":"Maharashtra","latitude":20.7002,"longitude":77.0082,"temp":27.3,"humidity":63,"rain":0.0,"pressure":973.5,"uv_index":8.85,"wind_gusts":27.7,"aqi":89,"pm10":48.8,"pm2_5":44.1,"mosquito_risk":7,"arthritis_risk":5,"migraine_risk":7,"frizz_risk":1,"updated_at":"2026-04-21T05:16:30.196496+05:30"},{"city":"Amravati","state":"Maharashtra","latitude":20.9374,"longitude":77.7796,"temp":26.2,"humidity":62,"rain":0.0,"pressure":965.4,"uv_index":8.8,"wind_gusts":41.0,"aqi":82,"pm10":45.8,"pm2_5":41.7,"mosquito_risk":7,"arthritis_risk":5,"migraine_risk":7,"frizz_risk":1,"updated_at":"2026-04-21T05:16:30.196504+05:30"},{"city":"Latur","state":"Maharashtra","latitude":18.4088,"longitude":76.5604,"temp":24.1,"humidity":67,"rain":0.0,"pressure":937.9,"uv_index":9.1,"wind_gusts":37.8,"aqi":104,"pm10":53.7,"pm2_5":45.5,"mosquito_risk":3,"arthritis_risk":5,"migraine_risk":7,"frizz_risk":1,"updated_at":"2026-04-21T05:16:30.196510+05:30"},{"city":"Nanded","state":"Maharashtra","latitude":19.1383,"longitude":77.3091,"temp":26.5,"humidity":63,"rain":0.0,"pressure":966.9,"uv_index":9.0,"wind_gusts":26.3,"aqi":104,"pm10":42.3,"pm2_5":39.0,"mosquito_risk":7,"arthritis_risk":5,"migraine_risk":7,"frizz_risk":1,"updated_at":"2026-04-21T05:16:30.196516+05:30"},{"city":"Gulbarga","state":"Karnataka","latitude":17.3297,"longitude":76.8343,"temp":26.5,"humidity":63,"rain":0.0,"pressure":957.7,"uv_index":9.15,"wind_gusts":27.4,"aqi":108,"pm10":40.2,"pm2_5":36.3,"mosquito_risk":7,"arthritis_risk":5,"migraine_risk":7,"frizz_risk":1,"updated_at":"2026-04-21T05:16:30.196523+05:30"},{"city":"Bidar","state":"Karnataka","latitude":17.9104,"longitude":77.5199,"temp":26.3,"humidity":61,"rain":0.0,"pressure":934.0,"uv_index":8.9,"wind_gusts":31.7,"aqi":114,"pm10":48.4,"pm2_5":44.4,"mosquito_risk":7,"arthritis_risk":5,"migraine_risk":7,"frizz_risk":1,"updated_at":"2026-04-21T05:16:30.196528+05:30"},{"city":"Hospet","state":"Karnataka","latitude":15.2689,"longitude":76.3909,"temp":26.3,"humidity":88,"rain":0.0,"pressure":954.4,"uv_index":9.3,"wind_gusts":38.2,"aqi":126,"pm10":36.1,"pm2_5":33.8,"mosquito_risk":7,"arthritis_risk":5,"migraine_risk":7,"frizz_risk":1,"updated_at":"2026-04-21T05:16:30.196535+05:30"},{"city":"Tirupur","state":"Tamil Nadu","latitude":11.1085,"longitude":77.3411,"temp":26.9,"humidity":81,"rain":0.0,"pressure":974.0,"uv_index":9.35,"wind_gusts":34.6,"aqi":78,"pm10":23.7,"pm2_5":21.1,"mosquito_risk":7,"arthritis_risk":5,"migraine_risk":7,"frizz_risk":1,"updated_at":"2026-04-21T05:16:30.196541+05:30"},{"city":"Alappuzha","state":"Kerala","latitude":9.4981,"longitude":76.3388,"temp":27.1,"humidity":85,"rain":0.0,"pressure":1007.3,"uv_index":8.9,"wind_gusts":28.4,"aqi":65,"pm10":30.7,"pm2_5":25.3,"mosquito_risk":7,"arthritis_risk":5,"migraine_risk":4,"frizz_risk":1,"updated_at":"2026-04-21T05:16:30.196548+05:30"},{"city":"Munnar","state":"Kerala","latitude":10.0889,"longitude":77.0595,"temp":20.7,"humidity":89,"rain":0.0,"pressure":855.1,"uv_index":9.0,"wind_gusts":33.8,"aqi":68,"pm10":28.2,"pm2_5":26.5,"mosquito_risk":3,"arthritis_risk":5,"migraine_risk":7,"frizz_risk":1,"updated_at":"2026-04-21T05:16:30.196554+05:30"},{"city":"Silchar","state":"Assam","latitude":24.8333,"longitude":92.7789,"temp":23.3,"humidity":94,"rain":0.0,"pressure":1004.1,"uv_index":8.1,"wind_gusts":43.6,"aqi":136,"pm10":81.3,"pm2_5":65.0,"mosquito_risk":3,"arthritis_risk":5,"migraine_risk":4,"frizz_risk":1,"updated_at":"2026-04-21T05:16:30.196561+05:30"},{"city":"Dibrugarh","state":"Assam","latitude":27.4728,"longitude":94.912,"temp":23.1,"humidity":93,"rain":0.0,"pressure":993.0,"uv_index":7.55,"wind_gusts":31.0,"aqi":73,"pm10":23.2,"pm2_5":20.6,"mosquito_risk":3,"arthritis_risk":5,"migraine_risk":7,"frizz_risk":1,"updated_at":"2026-04-21T05:16:30.196567+05:30"}]