[{"city":"Delhi","state":"Delhi","latitude":28.6139,"longitude":77.209,"temp":23.5,"humidity":60,"rain":0.0,"pressure":986.2,"uv_index":5.6,"aqi":152,"mosquito_risk":0,"arthritis_risk":5,"migraine_risk":3,"frizz_risk":0,"updated_at":"2026-02-27T10:17:46.172461+05:30"},{"city":"Mumbai","state":"Maharashtra","latitude":19.076,"longitude":72.8777,"temp":25.6,"humidity":68,"rain":0.0,"pressure":1011.7,"uv_index":7.3,"aqi":70,"mosquito_risk":7,"arthritis_risk":0,"migraine_risk":4,"frizz_risk":1,"updated_at":"2026-02-27T10:17:46.172510+05:30"},{"city":"Bangalore","state":"Karnataka","latitude":12.9716,"longitude":77.5946,"temp":26.1,"humidity":55,"rain":0.0,"pressure":913.5,"uv_index":8.95,"aqi":113,"mosquito_risk":4,"arthritis_risk":5,"migraine_risk":7,"frizz_risk":1,"updated_at":"2026-02-27T10:17:46.172525+05:30"},{"city":"Hyderabad","state":"Telangana","latitude":17.385,"longitude":78.4867,"temp":27.4,"humidity":58,"rain":0.0,"pressure":955.7,"uv_index":8.15,"aqi":133,"mosquito_risk":4,"arthritis_risk":5,"migraine_risk":7,"frizz_risk":1,"updated_at":"2026-02-27T10:17:46.172535+05:30"},{"city":"Chennai","state":"Tamil Nadu","latitude":13.0827,"longitude":80.2707,"temp":29.8,"humidity":60,"rain":0.0,"pressure":1009.7,"uv_index":8.65,"aqi":101,"mosquito_risk":4,"arthritis_risk":0,"migraine_risk":4,"frizz_risk":1,"updated_at":"2026-02-27T10:17:46.172544+05:30"},{"city":"Kolkata","state":"West Bengal","latitude":22.5726,"longitude":88.3639,"temp":27.2,"humidity":70,"rain":0.0,"pressure":1009.0,"uv_index":7.5,"aqi":165,"mosquito_risk":7,"arthritis_risk":0,"migraine_risk":4,"frizz_risk":1,"updated_at":"2026-02-27T10:17:46.172551+05:30"},{"city":"Pune","state":"Maharashtra","latitude":18.5204,"longitude":73.8567,"temp":27.1,"humidity":37,"rain":0.0,"pressure":950.7,"uv_index":7.85,"aqi":68,"mosquito_risk":4,"arthritis_risk":5,"migraine_risk":7,"frizz_risk":0,"updated_at":"2026-02-27T10:17:46.172559+05:30"},{"city":"Ahmedabad","state":"Gujarat","latitude":23.0225,"longitude":72.5714,"temp":24.6,"humidity":63,"rain":0.0,"pressure":1005.4,"uv_index":7.1,"aqi":63,"mosquito_risk":3,"arthritis_risk":5,"migraine_risk":4,"frizz_risk":1,"updated_at":"2026-02-27T10:17:46.172566+05:30"},{"city":"Jaipur","state":"Rajasthan","latitude":26.9124,"longitude":75.7873,"temp":26.5,"humidity":33,"rain":0.0,"pressure":962.5,"uv_index":6.4,"aqi":75,"mosquito_risk":4,"arthritis_risk":5,"migraine_risk":7,"frizz_risk":0,"updated_at":"2026-02-27T10:17:46.172576+05:30"},{"city":"Lucknow","state":"Uttar Pradesh","latitude":26.8467,"longitude":80.9462,"temp":24.2,"humidity":56,"rain":0.0,"pressure":997.1,"uv_index":6.05,"aqi":131,"mosquito_risk":0,"arthritis_risk":5,"migraine_risk":7,"frizz_risk":0,"updated_at":"2026-02-27T10:17:46.172583+05:30"},{"city":"Kanpur","state":"Uttar Pradesh","latitude":26.4499,"longitude":80.3319,"temp":24.8,"humidity":59,"rain":0.0,"pressure":995.4,"uv_index":6.05,"aqi":138,"mosquito_risk":0,"arthritis_risk":5,"migraine_risk":7,"frizz_risk":1,"updated_at":"2026-02-27T10:17:46.172590+05:30"},{"city":"Chandigarh","state":"Chandigarh","latitude":30.7333,"longitude":76.7794,"temp":22.0,"humidity":59,"rain":0.0,"pressure":970.7,"uv_index":5.45,"aqi":123,"mosquito_risk":0,"arthritis_risk":5,"migraine_risk":3,"frizz_risk":0,"updated_at":"2026-02-27T10:17:46.172598+05:30"},{"city":"Srinagar","state":"Jammu and Kashmir","latitude":34.0837,"longitude":74.7973,"temp":12.1,"humidity":46,"rain":0.0,"pressure":841.4,"uv_index":6.35,"aqi":154,"mosquito_risk":0,"arthritis_risk":5,"migraine_risk":7,"frizz_risk":0,"updated_at":"2026-02-27T10:17:46.172604+05:30"},{"city":"Jammu","state":"Jammu and Kashmir","latitude":32.7266,"longitude":74.857,"temp":22.8,"humidity":61,"rain":0.0,"pressure":974.4,"uv_index":6.1,"aqi":118,"mosquito_risk":3,"arthritis_risk":5,"migraine_risk":7,"frizz_risk":0,"updated_at":"2026-02-27T10:17:46.172611+05:30"},{"city":"Amritsar","state":"Punjab","latitude":31.634,"longitude":74.8723,"temp":21.6,"humidity":77,"rain":0.0,"pressure":982.9,"uv_index":6.05,"aqi":165,"mosquito_risk":3,"arthritis_risk":5,"migraine_risk":7,"frizz_risk":1,"updated_at":"2026-02-27T10:17:46.172617+05:30"},{"city":"Ludhiana","state":"Punjab","latitude":30.901,"longitude":75.8573,"temp":22.2,"humidity":68,"rain":0.0,"pressure":981.3,"uv_index":5.75,"aqi":175,"mosquito_risk":3,"arthritis_risk":5,"migraine_risk":3,"frizz_risk":0,"updated_at":"2026-02-27T10:17:46.172624+05:30"},{"city":"Jalandhar","state":"Punjab","latitude":31.326,"longitude":75.5762,"temp":21.9,"humidity":71,"rain":0.0,"pressure":982.2,"uv_index":5.9,"aqi":178,"mosquito_risk":3,"arthritis_risk":5,"migraine_risk":3,"frizz_risk":1,"updated_at":"2026-02-27T10:17:46.172630+05:30"},{"city":"Dehradun","state":"Uttarakhand","latitude":30.6284,"longitude":78.0322,"temp":15.7,"humidity":48,"rain":0.0,"pressure":829.7,"uv_index":5.85,"aqi":80,"mosquito_risk":0,"arthritis_risk":5,"migraine_risk":3,"frizz_risk":0,"updated_at":"2026-02-27T10:17:46.172639+05:30"},{"city":"Shimla","state":"Himachal Pradesh","latitude":31.1048,"longitude":77.1734,"temp":14.4,"humidity":42,"rain":0.0,"pressure":784.5,"uv_index":5.9,"aqi":96,"mosquito_risk":0,"arthritis_risk":5,"migraine_risk":3,"frizz_risk":0,"updated_at":"2026-02-27T10:17:46.172647+05:30"},{"city":"Manali","state":"Himachal Pradesh","latitude":32.2396,"longitude":77.1887,"temp":15.2,"humidity":24,"rain":0.0,"pressure":818.0,"uv_index":7.35,"aqi":74,"mosquito_risk":0,"arthritis_risk":5,"migraine_risk":7,"frizz_risk":1,"updated_at":"2026-02-27T10:17:46.172654+05:30"},{"city":"Gurgaon","state":"Haryana","latitude":28.4595,"longitude":77.0266,"temp":23.2,"humidity":66,"rain":0.0,"pressure":984.6,"uv_index":5.7,"aqi":188,"mosquito_risk":3,"arthritis_risk":5,"migraine_risk":3,"frizz_risk":1,"updated_at":"2026-02-27T10:17:46.172660+05:30"},{"city":"Noida","state":"Uttar Pradesh","latitude":28.5355,"longitude":77.391,"temp":23.9,"humidity":60,"rain":0.0,"pressure":987.9,"uv_index":5.6,"aqi":188,"mosquito_risk":0,"arthritis_risk":5,"migraine_risk":3,"frizz_risk":0,"updated_at":"2026-02-27T10:17:46.172667+05:30"},{"city":"Ghaziabad","state":"Uttar Pradesh","latitude":28.6692,"longitude":77.4538,"temp":22.4,"humidity":69,"rain":0.0,"pressure":985.9,"uv_index":5.55,"aqi":151,"mosquito_risk":3,"arthritis_risk":5,"migraine_risk":3,"frizz_risk":1,"updated_at":"2026-02-27T10:17:46.172673+05:30"},{"city":"Faridabad","state":"Haryana","latitude":28.4089,"longitude":77.3178,"temp":23.5,"humidity":66,"rain":0.0,"pressure":986.9,"uv_index":5.65,"aqi":188,"mosquito_risk":3,"arthritis_risk":5,"migraine_risk":3,"frizz_risk":1,"updated_at":"2026-02-27T10:17:46.172696+05:30"},{"city":"Meerut","state":"Uttar Pradesh","latitude":28.9845,"longitude":77.7064,"temp":22.5,"humidity":68,"rain":0.0,"pressure":984.5,"uv_index":5.45,"aqi":151,"mosquito_risk":3,"arthritis_risk":5,"migraine_risk":3,"frizz_risk":1,"updated_at":"2026-02-27T10:17:46.172703+05:30"},{"city":"Agra","state":"Uttar Pradesh","latitude":27.1767,"longitude":78.0081,"temp":24.5,"humidity":57,"rain":0.0,"pressure":991.2,"uv_index":5.95,"aqi":146,"mosquito_risk":0,"arthritis_risk":5,"migraine_risk":3,"frizz_risk":0,"updated_at":"2026-02-27T10:17:46.172709+05:30"},{"city":"Varanasi","state":"Uttar Pradesh","latitude":25.3176,"longitude":82.9739,"temp":26.1,"humidity":60,"rain":0.0,"pressure":1001.1,"uv_index":6.75,"aqi":128,"mosquito_risk":4,"arthritis_risk":5,"migraine_risk":4,"frizz_risk":1,"updated_at":"2026-02-27T10:17:46.172716+05:30"},{"city":"Prayagraj","state":"Uttar Pradesh","latitude":25.4358,"longitude":81.8463,"temp":25.8,"humidity":61,"rain":0.0,"pressure":999.7,"uv_index":6.6,"aqi":152,"mosquito_risk":7,"arthritis_risk":5,"migraine_risk":7,"frizz_risk":1,"updated_at":"2026-02-27T10:17:46.172723+05:30"},{"city":"Gorakhpur","state":"Uttar Pradesh","latitude":26.7606,"longitude":83.3732,"temp":23.4,"humidity":65,"rain":0.0,"pressure":1000.9,"uv_index":6.45,"aqi":155,"mosquito_risk":3,"arthritis_risk":5,"migraine_risk":4,"frizz_risk":1,"updated_at":"2026-02-27T10:17:46.172732+05:30"},{"city":"Bareilly","state":"Uttar Pradesh","latitude":28.367,"longitude":79.4304,"temp":21.9,"humidity":72,"rain":0.0,"pressure":989.9,"uv_index":5.75,"aqi":151,"mosquito_risk":3,"arthritis_risk":5,"migraine_risk":3,"frizz_risk":1,"updated_at":"2026-02-27T10:17:46.172739+05:30"},{"city":"Aligarh","state":"Uttar Pradesh","latitude":27.8974,"longitude":78.088,"temp":23.2,"humidity":67,"rain":0.0,"pressure":988.9,"uv_index":5.7,"aqi":155,"mosquito_risk":3,"arthritis_risk":5,"migraine_risk":3,"frizz_risk":1,"updated_at":"2026-02-27T10:17:46.172745+05:30"},{"city":"Moradabad","state":"Uttar Pradesh","latitude":28.8386,"longitude":78.7733,"temp":21.7,"humidity":72,"rain":0.0,"pressure":986.6,"uv_index":5.6,"aqi":151,"mosquito_risk":3,"arthritis_risk":5,"migraine_risk":3,"frizz_risk":1,"updated_at":"2026-02-27T10:17:46.172751+05:30"},{"city":"Saharanpur","state":"Uttar Pradesh","latitude":29.9637,"longitude":77.546,"temp":21.1,"humidity":68,"rain":0.0,"pressure":978.2,"uv_index":5.25,"aqi":158,"mosquito_risk":3,"arthritis_risk":5,"migraine_risk":3,"frizz_risk":0,"updated_at":"2026-02-27T10:17:46.172756+05:30"},{"city":"Jhansi","state":"Uttar Pradesh","latitude":25.4484,"longitude":78.5685,"temp":27.2,"humidity":46,"rain":0.0,"pressure":981.4,"uv_index":6.55,"aqi":76,"mosquito_risk":4,"arthritis_risk":5,"migraine_risk":7,"frizz_risk":0,"updated_at":"2026-02-27T10:17:49.487756+05:30"},{"city":"Surat","state":"Gujarat","latitude":21.1702,"longitude":72.8311,"temp":25.9,"humidity":57,"rain":0.0,"pressure":1010.1,"uv_index":7.05,"aqi":83,"mosquito_risk":4,"arthritis_risk":0,"migraine_risk":4,"frizz_risk":1,"updated_at":"2026-02-27T10:17:49.487790+05:30"},{"city":"Vadodara","state":"Gujarat","latitude":22.3072,"longitude":73.1812,"temp":26.3,"humidity":57,"rain":0.0,"pressure":1007.9,"uv_index":7.1,"aqi":65,"mosquito_risk":4,"arthritis_risk":5,"migraine_risk":4,"frizz_risk":1,"updated_at":"2026-02-27T10:17:49.487804+05:30"},{"city":"Rajkot","state":"Gujarat","latitude":22.3039,"longitude":70.8022,"temp":25.8,"humidity":57,"rain":0.0,"pressure":996.8,"uv_index":7.0,"aqi":59,"mosquito_risk":4,"arthritis_risk":5,"migraine_risk":7,"frizz_risk":1,"updated_at":"2026-02-27T10:17:49.487811+05:30"},{"city":"Thane","state":"Maharashtra","latitude":19.2183,"longitude":72.9781,"temp":26.3,"humidity":63,"rain":0.0,"pressure":1011.2,"uv_index":7.3,"aqi":70,"mosquito_risk":7,"arthritis_risk":0,"migraine_risk":4,"frizz_risk":1,"updated_at":"2026-02-27T10:17:49.487818+05:30"},{"city":"Nagpur","state":"Maharashtra","latitude":21.1458,"longitude":79.0882,"temp":27.3,"humidity":45,"rain":0.0,"pressure":976.6,"uv_index":7.5,"aqi":106,"mosquito_risk":4,"arthritis_risk":5,"migraine_risk":7,"frizz_risk":0,"updated_at":"2026-02-27T10:17:49.487825+05:30"},{"city":"Nashik","state":"Maharashtra","latitude":19.9975,"longitude":73.7898,"temp":23.0,"humidity":61,"rain":0.0,"pressure":947.9,"uv_index":7.5,"aqi":48,"mosquito_risk":3,"arthritis_risk":5,"migraine_risk":7,"frizz_risk":0,"updated_at":"2026-02-27T10:17:49.487831+05:30"},{"city":"Aurangabad","state":"Maharashtra","latitude":19.8762,"longitude":75.3433,"temp":26.6,"humidity":35,"rain":0.0,"pressure":946.6,"uv_index":7.8,"aqi":62,"mosquito_risk":4,"arthritis_risk":5,"migraine_risk":7,"frizz_risk":0,"updated_at":"2026-02-27T10:17:49.487838+05:30"},{"city":"Solapur","state":"Maharashtra","latitude":17.6599,"longitude":75.9064,"temp":25.9,"humidity":46,"rain":0.0,"pressure":959.7,"uv_index":8.1,"aqi":69,"mosquito_risk":4,"arthritis_risk":5,"migraine_risk":7,"frizz_risk":0,"updated_at":"2026-02-27T10:17:49.487844+05:30"},{"city":"Kolhapur","state":"Maharashtra","latitude":16.705,"longitude":74.2433,"temp":27.0,"humidity":34,"rain":0.0,"pressure":950.0,"uv_index":8.3,"aqi":51,"mosquito_risk":4,"arthritis_risk":5,"migraine_risk":7,"frizz_risk":0,"updated_at":"2026-02-27T10:17:49.487850+05:30"},{"city":"Goa","state":"Goa","latitude":15.2993,"longitude":74.124,"temp":28.9,"humidity":50,"rain":0.0,"pressure":1000.2,"uv_index":8.3,"aqi":45,"mosquito_risk":4,"arthritis_risk":5,"migraine_risk":4,"frizz_risk":1,"updated_at":"2026-02-27T10:17:49.487856+05:30"},{"city":"Jodhpur","state":"Rajasthan","latitude":26.2389,"longitude":73.0243,"temp":26.3,"humidity":46,"rain":0.0,"pressure":984.9,"uv_index":6.7,"aqi":74,"mosquito_risk":4,"arthritis_risk":5,"migraine_risk":7,"frizz_risk":0,"updated_at":"2026-02-27T10:17:49.487862+05:30"},{"city":"Udaipur","state":"Rajasthan","latitude":24.5854,"longitude":73.7125,"temp":26.4,"humidity":37,"rain":0.0,"pressure":948.6,"uv_index":7.35,"aqi":71,"mosquito_risk":4,"arthritis_risk":5,"migraine_risk":7,"frizz_risk":0,"updated_at":"2026-02-27T10:17:49.487868+05:30"},{"city":"Kota","state":"Rajasthan","latitude":25.2138,"longitude":75.8648,"temp":26.0,"humidity":56,"rain":0.0,"pressure":981.4,"uv_index":6.75,"aqi":82,"mosquito_risk":4,"arthritis_risk":5,"migraine_risk":7,"frizz_risk":1,"updated_at":"2026-02-27T10:17:49.487874+05:30"},{"city":"Bikaner","state":"Rajasthan","latitude":28.0229,"longitude":73.3119,"temp":24.9,"humidity":39,"rain":0.0,"pressure":983.4,"uv_index":6.35,"aqi":56,"mosquito_risk":0,"arthritis_risk":5,"migraine_risk":7,"frizz_risk":0,"updated_at":"2026-02-27T10:17:49.487880+05:30"},{"city":"Ajmer","state":"Rajasthan","latitude":26.4499,"longitude":74.6399,"temp":26.0,"humidity":43,"rain":0.0,"pressure":956.6,"uv_index":6.7,"aqi":71,"mosquito_risk":4,"arthritis_risk":5,"migraine_risk":7,"frizz_risk":0,"updated_at":"2026-02-27T10:17:49.487886+05:30"},{"city":"Gwalior","state":"Madhya Pradesh","latitude":26.2183,"longitude":78.1828,"temp":26.6,"humidity":55,"rain":0.0,"pressure":986.5,"uv_index":6.25,"aqi":87,"mosquito_risk":4,"arthritis_risk":5,"migraine_risk":7,"frizz_risk":1,"updated_at":"2026-02-27T10:17:49.487893+05:30"},{"city":"Indore","state":"Madhya Pradesh","latitude":22.7196,"longitude":75.8577,"temp":24.6,"humidity":50,"rain":0.0,"pressure":950.6,"uv_index":7.25,"aqi":91,"mosquito_risk":0,"arthritis_risk":5,"migraine_risk":7,"frizz_risk":0,"updated_at":"2026-02-27T10:17:49.487899+05:30"},{"city":"Bhopal","state":"Madhya Pradesh","latitude":23.2599,"longitude":77.4126,"temp":26.3,"humidity":51,"rain":0.0,"pressure":956.5,"uv_index":7.1,"aqi":83,"mosquito_risk":4,"arthritis_risk":5,"migraine_risk":7,"frizz_risk":0,"updated_at":"2026-02-27T10:17:49.487905+05:30"},{"city":"Jabalpur","state":"Madhya Pradesh","latitude":23.1815,"longitude":79.9864,"temp":27.8,"humidity":42,"rain":0.0,"pressure":964.9,"uv_index":7.15,"aqi":73,"mosquito_risk":4,"arthritis_risk":5,"migraine_risk":7,"frizz_risk":0,"updated_at":"2026-02-27T10:17:49.487911+05:30"},{"city":"Ujjain","state":"Madhya Pradesh","latitude":23.1765,"longitude":75.7885,"temp":24.6,"humidity":49,"rain":0.0,"pressure":956.5,"uv_index":7.15,"aqi":96,"mosquito_risk":0,"arthritis_risk":5,"migraine_risk":7,"frizz_risk":0,"updated_at":"2026-02-27T10:17:49.487917+05:30"},{"city":"Visakhapatnam","state":"Andhra Pradesh","latitude":17.6868,"longitude":83.2185,"temp":29.1,"humidity":59,"rain":0.0,"pressure":1006.6,"uv_index":8.15,"aqi":117,"mosquito_risk":4,"arthritis_risk":5,"migraine_risk":4,"frizz_risk":1,"updated_at":"2026-02-27T10:17:49.487924+05:30"},{"city":"Vijayawada","state":"Andhra Pradesh","latitude":16.5062,"longitude":80.648,"temp":28.6,"humidity":69,"rain":0.0,"pressure":1005.5,"uv_index":8.2,"aqi":110,"mosquito_risk":7,"arthritis_risk":5,"migraine_risk":4,"frizz_risk":1,"updated_at":"2026-02-27T10:17:49.487930+05:30"},{"city":"Guntur","state":"Andhra Pradesh","latitude":16.3067,"longitude":80.4365,"temp":29.2,"humidity":66,"rain":0.0,"pressure":1006.7,"uv_index":8.2,"aqi":106,"mosquito_risk":7,"arthritis_risk":5,"migraine_risk":4,"frizz_risk":1,"updated_at":"2026-02-27T10:17:49.487936+05:30"},{"city":"Nellore","state":"Andhra Pradesh","latitude":14.4426,"longitude":79.9865,"temp":30.8,"humidity":55,"rain":0.0,"pressure":1008.1,"uv_index":8.45,"aqi":89,"mosquito_risk":0,"arthritis_risk":0,"migraine_risk":4,"frizz_risk":1,"updated_at":"2026-02-27T10:17:49.487942+05:30"},{"city":"Kurnool","state":"Andhra Pradesh","latitude":15.8281,"longitude":78.0373,"temp":29.7,"humidity":47,"rain":0.0,"pressure":979.4,"uv_index":8.25,"aqi":102,"mosquito_risk":4,"arthritis_risk":5,"migraine_risk":7,"frizz_risk":1,"updated_at":"2026-02-27T10:17:49.487949+05:30"},{"city":"Kakinada","state":"Andhra Pradesh","latitude":16.9891,"longitude":82.2475,"temp":30.1,"humidity":60,"rain":0.0,"pressure":1010.3,"uv_index":8.15,"aqi":89,"mosquito_risk":0,"arthritis_risk":0,"migraine_risk":4,"frizz_risk":1,"updated_at":"2026-02-27T10:17:49.487955+05:30"},{"city":"Tirupati","state":"Andhra Pradesh","latitude":13.6288,"longitude":79.4192,"temp":29.6,"humidity":45,"rain":0.0,"pressure":994.1,"uv_index":8.6,"aqi":108,"mosquito_risk":4,"arthritis_risk":5,"migraine_risk":7,"frizz_risk":1,"updated_at":"2026-02-27T10:17:49.487961+05:30"},{"city":"Warangal","state":"Telangana","latitude":17.9689,"longitude":79.5941,"temp":27.5,"humidity":72,"rain":0.0,"pressure":981.6,"uv_index":7.95,"aqi":154,"mosquito_risk":7,"arthritis_risk":5,"migraine_risk":7,"frizz_risk":1,"updated_at":"2026-02-27T10:17:49.487967+05:30"},{"city":"Nizamabad","state":"Telangana","latitude":18.6725,"longitude":78.0941,"temp":28.3,"humidity":53,"rain":0.0,"pressure":967.4,"uv_index":7.85,"aqi":151,"mosquito_risk":4,"arthritis_risk":5,"migraine_risk":7,"frizz_risk":1,"updated_at":"2026-02-27T10:17:49.487973+05:30"},{"city":"Mysore","state":"Karnataka","latitude":12.2958,"longitude":76.6396,"temp":26.2,"humidity":60,"rain":0.0,"pressure":929.9,"uv_index":8.95,"aqi":114,"mosquito_risk":4,"arthritis_risk":5,"migraine_risk":7,"frizz_risk":1,"updated_at":"2026-02-27T10:17:49.487979+05:30"},{"city":"Mangalore","state":"Karnataka","latitude":12.9141,"longitude":74.856,"temp":28.3,"humidity":75,"rain":0.0,"pressure":1008.4,"uv_index":8.55,"aqi":51,"mosquito_risk":7,"arthritis_risk":0,"migraine_risk":4,"frizz_risk":1,"updated_at":"2026-02-27T10:17:49.487985+05:30"},{"city":"Hubli-Dharwad","state":"Karnataka","latitude":15.3647,"longitude":75.124,"temp":28.0,"humidity":30,"rain":0.0,"pressure":942.9,"uv_index":8.45,"aqi":45,"mosquito_risk":4,"arthritis_risk":5,"migraine_risk":7,"frizz_risk":0,"updated_at":"2026-02-27T10:17:49.487991+05:30"},{"city":"Belgaum","state":"Karnataka","latitude":15.8497,"longitude":74.4977,"temp":27.8,"humidity":26,"rain":0.0,"pressure":927.8,"uv_index":8.55,"aqi":35,"mosquito_risk":4,"arthritis_risk":5,"migraine_risk":7,"frizz_risk":0,"updated_at":"2026-02-27T10:17:52.799523+05:30"},{"city":"Coimbatore","state":"Tamil Nadu","latitude":11.0168,"longitude":76.9558,"temp":26.9,"humidity":64,"rain":0.0,"pressure":963.8,"uv_index":9.0,"aqi":113,"mosquito_risk":7,"arthritis_risk":5,"migraine_risk":7,"frizz_risk":1,"updated_at":"2026-02-27T10:17:52.799558+05:30"},{"city":"Madurai","state":"Tamil Nadu","latitude":9.9252,"longitude":78.1198,"temp":27.1,"humidity":75,"rain":0.0,"pressure":995.3,"uv_index":8.95,"aqi":152,"mosquito_risk":7,"arthritis_risk":5,"migraine_risk":7,"frizz_risk":1,"updated_at":"2026-02-27T10:17:52.799570+05:30"},{"city":"Trichy","state":"Tamil Nadu","latitude":10.7905,"longitude":78.7047,"temp":27.5,"humidity":74,"rain":0.0,"pressure":1002.2,"uv_index":8.85,"aqi":107,"mosquito_risk":7,"arthritis_risk":5,"migraine_risk":4,"frizz_risk":1,"updated_at":"2026-02-27T10:17:52.799580+05:30"},{"city":"Salem","state":"Tamil Nadu","latitude":11.6643,"longitude":78.146,"temp":27.7,"humidity":67,"rain":0.0,"pressure":979.6,"uv_index":8.8,"aqi":120,"mosquito_risk":7,"arthritis_risk":5,"migraine_risk":7,"frizz_risk":1,"updated_at":"2026-02-27T10:17:52.799588+05:30"},{"city":"Tirunelveli","state":"Tamil Nadu","latitude":8.7139,"longitude":77.7567,"temp":29.0,"humidity":67,"rain":0.0,"pressure":1005.2,"uv_index":9.0,"aqi":107,"mosquito_risk":7,"arthritis_risk":5,"migraine_risk":4,"frizz_risk":1,"updated_at":"2026-02-27T10:17:52.799598+05:30"},{"city":"Vellore","state":"Tamil Nadu","latitude":12.9165,"longitude":79.1325,"temp":29.1,"humidity":47,"rain":0.0,"pressure":987.1,"uv_index":8.7,"aqi":110,"mosquito_risk":4,"arthritis_risk":5,"migraine_risk":7,"frizz_risk":1,"updated_at":"2026-02-27T10:17:52.799606+05:30"},{"city":"Erode","state":"Tamil Nadu","latitude":11.341,"longitude":77.7172,"temp":27.0,"humidity":78,"rain":0.0,"pressure":991.4,"uv_index":8.9,"aqi":112,"mosquito_risk":7,"arthritis_risk":5,"migraine_risk":7,"frizz_risk":1,"updated_at":"2026-02-27T10:17:52.799613+05:30"},{"city":"Kochi","state":"Kerala","latitude":9.9312,"longitude":76.2673,"temp":26.7,"humidity":79,"rain":0.0,"pressure":1010.2,"uv_index":8.8,"aqi":86,"mosquito_risk":7,"arthritis_risk":0,"migraine_risk":4,"frizz_risk":1,"updated_at":"2026-02-27T10:17:52.799620+05:30"},{"city":"Thiruvananthapuram","state":"Kerala","latitude":8.5241,"longitude":76.9366,"temp":27.4,"humidity":79,"rain":0.0,"pressure":1009.3,"uv_index":8.8,"aqi":76,"mosquito_risk":7,"arthritis_risk":0,"migraine_risk":4,"frizz_risk":1,"updated_at":"2026-02-27T10:17:52.799627+05:30"},{"city":"Kozhikode","state":"Kerala","latitude":11.2588,"longitude":75.7804,"temp":27.8,"humidity":76,"rain":0.0,"pressure":1009.6,"uv_index":8.7,"aqi":63,"mosquito_risk":7,"arthritis_risk":0,"migraine_risk":4,"frizz_risk":1,"updated_at":"2026-02-27T10:17:52.799633+05:30"},{"city":"Thrissur","state":"Kerala","latitude":10.5276,"longitude":76.2144,"temp":26.3,"humidity":81,"rain":0.0,"pressure":1008.9,"uv_index":8.8,"aqi":103,"mosquito_risk":7,"arthritis_risk":0,"migraine_risk":4,"frizz_risk":1,"updated_at":"2026-02-27T10:17:52.799641+05:30"},{"city":"Kannur","state":"Kerala","latitude":11.8745,"longitude":75.3704,"temp":29.4,"humidity":65,"rain":0.0,"pressure":1008.6,"uv_index":8.65,"aqi":64,"mosquito_risk":7,"arthritis_risk":0,"migraine_risk":4,"frizz_risk":1,"updated_at":"2026-02-27T10:17:52.799648+05:30"},{"city":"Patna","state":"Bihar","latitude":25.5941,"longitude":85.1376,"temp":25.1,"humidity":55,"rain":0.0,"pressure":1004.3,"uv_index":6.9,"aqi":152,"mosquito_risk":4,"arthritis_risk":5,"migraine_risk":4,"frizz_risk":0,"updated_at":"2026-02-27T10:17:52.799656+05:30"},{"city":"Gaya","state":"Bihar","latitude":24.7914,"longitude":85.0002,"temp":25.6,"humidity":58,"rain":0.0,"pressure":997.6,"uv_index":7.0,"aqi":109,"mosquito_risk":4,"arthritis_risk":5,"migraine_risk":7,"frizz_risk":1,"updated_at":"2026-02-27T10:17:52.799662+05:30"},{"city":"Muzaffarpur","state":"Bihar","latitude":26.1209,"longitude":85.3647,"temp":24.9,"humidity":61,"rain":0.0,"pressure":1004.3,"uv_index":6.85,"aqi":156,"mosquito_risk":3,"arthritis_risk":5,"migraine_risk":4,"frizz_risk":1,"updated_at":"2026-02-27T10:17:52.799669+05:30"},{"city":"Bhagalpur","state":"Bihar","latitude":25.2425,"longitude":87.0117,"temp":25.1,"humidity":58,"rain":0.0,"pressure":1004.7,"uv_index":6.95,"aqi":127,"mosquito_risk":4,"arthritis_risk":5,"migraine_risk":4,"frizz_risk":1,"updated_at":"2026-02-27T10:17:52.799675+05:30"},{"city":"Ranchi","state":"Jharkhand","latitude":23.3441,"longitude":85.3096,"temp":25.0,"humidity":31,"rain":0.0,"pressure":940.4,"uv_index":7.65,"aqi":76,"mosquito_risk":4,"arthritis_risk":5,"migraine_risk":7,"frizz_risk":0,"updated_at":"2026-02-27T10:17:52.799700+05:30"},{"city":"Jamshedpur","state":"Jharkhand","latitude":22.8046,"longitude":86.2029,"temp":26.1,"humidity":41,"rain":0.0,"pressure":994.6,"uv_index":7.55,"aqi":128,"mosquito_risk":4,"arthritis_risk":5,"migraine_risk":7,"frizz_risk":0,"updated_at":"2026-02-27T10:17:52.799706+05:30"},{"city":"Dhanbad","state":"Jharkhand","latitude":23.7957,"longitude":86.4304,"temp":27.7,"humidity":27,"rain":0.0,"pressure":983.3,"uv_index":7.45,"aqi":129,"mosquito_risk":4,"arthritis_risk":5,"migraine_risk":7,"frizz_risk":0,"updated_at":"2026-02-27T10:17:52.799713+05:30"},{"city":"Bokaro","state":"Jharkhand","latitude":23.6693,"longitude":86.1511,"temp":27.4,"humidity":30,"rain":0.0,"pressure":987.2,"uv_index":7.45,"aqi":131,"mosquito_risk":4,"arthritis_risk":5,"migraine_risk":7,"frizz_risk":0,"updated_at":"2026-02-27T10:17:52.799720+05:30"},{"city":"Bhubaneswar","state":"Odisha","latitude":20.2961,"longitude":85.8245,"temp":29.0,"humidity":52,"rain":0.0,"pressure":1006.0,"uv_index":7.85,"aqi":130,"mosquito_risk":4,"arthritis_risk":5,"migraine_risk":4,"frizz_risk":1,"updated_at":"2026-02-27T10:17:52.799726+05:30"},{"city":"Cuttack","state":"Odisha","latitude":20.4625,"longitude":85.8828,"temp":28.7,"humidity":60,"rain":0.0,"pressure":1007.9,"uv_index":7.9,"aqi":130,"mosquito_risk":4,"arthritis_risk":5,"migraine_risk":4,"frizz_risk":1,"updated_at":"2026-02-27T10:17:52.799733+05:30"},{"city":"Rourkela","state":"Odisha","latitude":22.2604,"longitude":84.8536,"temp":27.0,"humidity":39,"rain":0.0,"pressure":988.9,"uv_index":7.45,"aqi":89,"mosquito_risk":4,"arthritis_risk":5,"migraine_risk":7,"frizz_risk":0,"updated_at":"2026-02-27T10:17:52.799739+05:30"},{"city":"Raipur","state":"Chhattisgarh","latitude":21.2514,"longitude":81.6296,"temp":27.7,"humidity":39,"rain":0.0,"pressure":978.4,"uv_index":7.55,"aqi":141,"mosquito_risk":4,"arthritis_risk":5,"migraine_risk":7,"frizz_risk":0,"updated_at":"2026-02-27T10:17:52.799746+05:30"},{"city":"Bhilai","state":"Chhattisgarh","latitude":21.1938,"longitude":81.3509,"temp":27.0,"humidity":49,"rain":0.0,"pressure":978.7,"uv_index":7.55,"aqi":151,"mosquito_risk":4,"arthritis_risk":5,"migraine_risk":7,"frizz_risk":0,"updated_at":"2026-02-27T10:17:52.799752+05:30"},{"city":"Guwahati","state":"Assam","latitude":26.1158,"longitude":91.7086,"temp":23.5,"humidity":72,"rain":0.0,"pressure":1004.6,"uv_index":6.9,"aqi":150,"mosquito_risk":3,"arthritis_risk":5,"migraine_risk":4,"frizz_risk":1,"updated_at":"2026-02-27T10:17:52.799760+05:30"},{"city":"Agartala","state":"Tripura","latitude":23.8315,"longitude":91.2868,"temp":25.2,"humidity":71,"rain":0.0,"pressure":1009.3,"uv_index":7.25,"aqi":164,"mosquito_risk":7,"arthritis_risk":0,"migraine_risk":4,"frizz_risk":1,"updated_at":"2026-02-27T10:17:52.799769+05:30"},{"city":"Shillong","state":"Meghalaya","latitude":25.5788,"longitude":91.8933,"temp":15.1,"humidity":46,"rain":0.0,"pressure":856.3,"uv_index":5.55,"aqi":125,"mosquito_risk":0,"arthritis_risk":5,"migraine_risk":3,"frizz_risk":0,"updated_at":"2026-02-27T10:17:52.799775+05:30"},{"city":"Imphal","state":"Manipur","latitude":24.817,"longitude":93.9368,"temp":20.4,"humidity":45,"rain":0.0,"pressure":924.3,"uv_index":7.45,"aqi":158,"mosquito_risk":0,"arthritis_risk":5,"migraine_risk":7,"frizz_risk":0,"updated_at":"2026-02-27T10:17:52.799781+05:30"},{"city":"Aizawl","state":"Mizoram","latitude":23.7271,"longitude":92.7176,"temp":21.5,"humidity":44,"rain":0.0,"pressure":894.5,"uv_index":7.4,"aqi":173,"mosquito_risk":0,"arthritis_risk":5,"migraine_risk":7,"frizz_risk":0,"updated_at":"2026-02-27T10:17:52.799788+05:30"},{"city":"Kohima","state":"Nagaland","latitude":25.6701,"longitude":94.1077,"temp":15.3,"humidity":58,"rain":0.0,"pressure":855.0,"uv_index":5.35,"aqi":157,"mosquito_risk":0,"arthritis_risk":5,"migraine_risk":3,"frizz_risk":0,"updated_at":"2026-02-27T10:17:52.799794+05:30"},{"city":"Gangtok","state":"Sikkim","latitude":27.3314,"longitude":88.6138,"temp":12.5,"humidity":82,"rain":0.1,"pressure":836.7,"uv_index":5.05,"aqi":156,"mosquito_risk":6,"arthritis_risk":10,"migraine_risk":3,"frizz_risk":0,"updated_at":"2026-02-27T10:17:52.799800+05:30"},{"city":"Siliguri","state":"West Bengal","latitude":26.7271,"longitude":88.3953,"temp":21.4,"humidity":62,"rain":0.0,"pressure":996.5,"uv_index":6.9,"aqi":163,"mosquito_risk":3,"arthritis_risk":5,"migraine_risk":7,"frizz_risk":0,"updated_at":"2026-02-27T10:17:56.110746+05:30"},{"city":"Durgapur","state":"West Bengal","latitude":23.5204,"longitude":87.3119,"temp":28.5,"humidity":28,"rain":0.0,"pressure":998.3,"uv_index":7.4,"aqi":116,"mosquito_risk":4,"arthritis_risk":5,"migraine_risk":7,"frizz_risk":0,"updated_at":"2026-02-27T10:17:56.110780+05:30"},{"city":"Asansol","state":"West Bengal","latitude":23.6739,"longitude":86.9524,"temp":28.5,"humidity":28,"rain":0.0,"pressure":997.0,"uv_index":7.4,"aqi":103,"mosquito_risk":4,"arthritis_risk":5,"migraine_risk":7,"frizz_risk":0,"updated_at":"2026-02-27T10:17:56.110792+05:30"},{"city":"Pondicherry","state":"Puducherry","latitude":11.9139,"longitude":79.8145,"temp":29.0,"humidity":67,"rain":0.0,"pressure":1011.0,"uv_index":8.7,"aqi":93,"mosquito_risk":7,"arthritis_risk":0,"migraine_risk":4,"frizz_risk":1,"updated_at":"2026-02-27T10:17:56.110802+05:30"},{"city":"Port Blair","state":"Andaman and Nicobar Islands","latitude":11.6234,"longitude":92.7265,"temp":26.6,"humidity":84,"rain":0.0,"pressure":1006.6,"uv_index":8.5,"aqi":30,"mosquito_risk":7,"arthritis_risk":5,"migraine_risk":4,"frizz_risk":1,"updated_at":"2026-02-27T10:17:56.110811+05:30"},{"city":"Haridwar","state":"Uttarakhand","latitude":29.9457,"longitude":78.1642,"temp":23.3,"humidity":64,"rain":0.0,"pressure":976.6,"uv_index":5.3,"aqi":145,"mosquito_risk":3,"arthritis_risk":5,"migraine_risk":3,"frizz_risk":1,"updated_at":"2026-02-27T10:17:56.110819+05:30"},{"city":"Rishikesh","state":"Uttarakhand","latitude":30.0869,"longitude":78.2676,"temp":23.9,"humidity":61,"rain":0.0,"pressure":968.8,"uv_index":5.4,"aqi":120,"mosquito_risk":3,"arthritis_risk":5,"migraine_risk":3,"frizz_risk":0,"updated_at":"2026-02-27T10:17:56.110826+05:30"},{"city":"Nainital","state":"Uttarakhand","latitude":29.3919,"longitude":79.4542,"temp":17.1,"humidity":60,"rain":0.0,"pressure":806.1,"uv_index":6.2,"aqi":140,"mosquito_risk":0,"arthritis_risk":5,"migraine_risk":7,"frizz_risk":0,"updated_at":"2026-02-27T10:17:56.110832+05:30"},{"city":"Mussoorie","state":"Uttarakhand","latitude":30.4599,"longitude":78.0664,"temp":16.3,"humidity":61,"rain":0.0,"pressure":802.6,"uv_index":5.75,"aqi":118,"mosquito_risk":3,"arthritis_risk":5,"migraine_risk":3,"frizz_risk":0,"updated_at":"2026-02-27T10:17:56.110838+05:30"},{"city":"Dharamshala","state":"Himachal Pradesh","latitude":32.219,"longitude":76.3234,"temp":19.0,"humidity":54,"rain":0.0,"pressure":869.1,"uv_index":5.95,"aqi":72,"mosquito_risk":0,"arthritis_risk":5,"migraine_risk":3,"frizz_risk":0,"updated_at":"2026-02-27T10:17:56.110845+05:30"},{"city":"Dalhousie","state":"Himachal Pradesh","latitude":32.5387,"longitude":75.971,"temp":17.2,"humidity":34,"rain":0.0,"pressure":803.9,"uv_index":6.2,"aqi":133,"mosquito_risk":0,"arthritis_risk":5,"migraine_risk":7,"frizz_risk":0,"updated_at":"2026-02-27T10:17:56.110853+05:30"},{"city":"Patiala","state":"Punjab","latitude":30.3398,"longitude":76.3869,"temp":22.2,"humidity":73,"rain":0.0,"pressure":980.8,"uv_index":5.4,"aqi":167,"mosquito_risk":3,"arthritis_risk":5,"migraine_risk":3,"frizz_risk":1,"updated_at":"2026-02-27T10:17:56.110862+05:30"},{"city":"Bhatinda","state":"Punjab","latitude":30.211,"longitude":74.9455,"temp":23.1,"humidity":68,"rain":0.0,"pressure":986.2,"uv_index":6.1,"aqi":161,"mosquito_risk":3,"arthritis_risk":5,"migraine_risk":7,"frizz_risk":1,"updated_at":"2026-02-27T10:17:56.110869+05:30"},{"city":"Rohtak","state":"Haryana","latitude":28.8955,"longitude":76.6066,"temp":23.3,"humidity":66,"rain":0.0,"pressure":984.9,"uv_index":5.6,"aqi":154,"mosquito_risk":3,"arthritis_risk":5,"migraine_risk":3,"frizz_risk":1,"updated_at":"2026-02-27T10:17:56.110875+05:30"},{"city":"Panipat","state":"Haryana","latitude":29.3909,"longitude":76.9635,"temp":22.3,"humidity":72,"rain":0.0,"pressure":983.4,"uv_index":5.4,"aqi":178,"mosquito_risk":3,"arthritis_risk":5,"migraine_risk":3,"frizz_risk":1,"updated_at":"2026-02-27T10:17:56.110882+05:30"},{"city":"Mathura","state":"Uttar Pradesh","latitude":27.4924,"longitude":77.6737,"temp":23.8,"humidity":61,"rain":0.0,"pressure":990.0,"uv_index":5.85,"aqi":135,"mosquito_risk":3,"arthritis_risk":5,"migraine_risk":3,"frizz_risk":0,"updated_at":"2026-02-27T10:17:56.110888+05:30"},{"city":"Vrindavan","state":"Uttar Pradesh","latitude":27.5823,"longitude":77.7027,"temp":23.4,"humidity":63,"rain":0.0,"pressure":990.5,"uv_index":5.8,"aqi":135,"mosquito_risk":3,"arthritis_risk":5,"migraine_risk":3,"frizz_risk":0,"updated_at":"2026-02-27T10:17:56.110894+05:30"},{"city":"Ayodhya","state":"Uttar Pradesh","latitude":26.7922,"longitude":82.1998,"temp":24.0,"humidity":61,"rain":0.0,"pressure":998.9,"uv_index":6.25,"aqi":150,"mosquito_risk":3,"arthritis_risk":5,"migraine_risk":7,"frizz_risk":0,"updated_at":"2026-02-27T10:17:56.110900+05:30"},{"city":"Ratlam","state":"Madhya Pradesh","latitude":23.3315,"longitude":75.0367,"temp":23.7,"humidity":52,"rain":0.0,"pressure":957.3,"uv_index":7.15,"aqi":79,"mosquito_risk":0,"arthritis_risk":5,"migraine_risk":7,"frizz_risk":0,"updated_at":"2026-02-27T10:17:56.110907+05:30"},{"city":"Sagar","state":"Madhya Pradesh","latitude":23.8388,"longitude":78.7378,"temp":27.8,"humidity":41,"rain":0.0,"pressure":953.0,"uv_index":7.05,"aqi":61,"mosquito_risk":4,"arthritis_risk":5,"migraine_risk":7,"frizz_risk":0,"updated_at":"2026-02-27T10:17:56.110913+05:30"},{"city":"Satna","state":"Madhya Pradesh","latitude":24.6005,"longitude":80.8322,"temp":27.8,"humidity":37,"rain":0.0,"pressure":974.9,"uv_index":7.0,"aqi":72,"mosquito_risk":4,"arthritis_risk":5,"migraine_risk":7,"frizz_risk":0,"updated_at":"2026-02-27T10:17:56.110919+05:30"},{"city":"Akola","state":"Maharashtra","latitude":20.7002,"longitude":77.0082,"temp":27.3,"humidity":48,"rain":0.0,"pressure":978.1,"uv_index":7.55,"aqi":122,"mosquito_risk":4,"arthritis_risk":5,"migraine_risk":7,"frizz_risk":0,"updated_at":"2026-02-27T10:17:56.110926+05:30"},{"city":"Amravati","state":"Maharashtra","latitude":20.9374,"longitude":77.7796,"temp":28.8,"humidity":41,"rain":0.0,"pressure":970.3,"uv_index":7.5,"aqi":125,"mosquito_risk":4,"arthritis_risk":5,"migraine_risk":7,"frizz_risk":0,"updated_at":"2026-02-27T10:17:56.110933+05:30"},{"city":"Latur","state":"Maharashtra","latitude":18.4088,"longitude":76.5604,"temp":27.6,"humidity":42,"rain":0.0,"pressure":942.1,"uv_index":8.0,"aqi":116,"mosquito_risk":4,"arthritis_risk":5,"migraine_risk":7,"frizz_risk":0,"updated_at":"2026-02-27T10:17:56.110939+05:30"},{"city":"Nanded","state":"Maharashtra","latitude":19.1383,"longitude":77.3091,"temp":27.8,"humidity":50,"rain":0.0,"pressure":971.3,"uv_index":7.75,"aqi":151,"mosquito_risk":4,"arthritis_risk":5,"migraine_risk":7,"frizz_risk":1,"updated_at":"2026-02-27T10:17:56.110945+05:30"},{"city":"Gulbarga","state":"Karnataka","latitude":17.3297,"longitude":76.8343,"temp":28.3,"humidity":43,"rain":0.0,"pressure":961.3,"uv_index":8.1,"aqi":116,"mosquito_risk":4,"arthritis_risk":5,"migraine_risk":7,"frizz_risk":0,"updated_at":"2026-02-27T10:17:56.110950+05:30"},{"city":"Bidar","state":"Karnataka","latitude":17.9104,"longitude":77.5199,"temp":27.5,"humidity":49,"rain":0.0,"pressure":937.7,"uv_index":8.05,"aqi":141,"mosquito_risk":4,"arthritis_risk":5,"migraine_risk":7,"frizz_risk":0,"updated_at":"2026-02-27T10:17:56.110956+05:30"},{"city":"Hospet","state":"Karnataka","latitude":15.2689,"longitude":76.3909,"temp":28.8,"humidity":42,"rain":0.0,"pressure":957.8,"uv_index":8.4,"aqi":96,"mosquito_risk":4,"arthritis_risk":5,"migraine_risk":7,"frizz_risk":0,"updated_at":"2026-02-27T10:17:56.110962+05:30"},{"city":"Tirupur","state":"Tamil Nadu","latitude":11.1085,"longitude":77.3411,"temp":26.9,"humidity":72,"rain":0.0,"pressure":977.5,"uv_index":9.0,"aqi":137,"mosquito_risk":7,"arthritis_risk":5,"migraine_risk":7,"frizz_risk":1,"updated_at":"2026-02-27T10:17:56.110968+05:30"},{"city":"Alappuzha","state":"Kerala","latitude":9.4981,"longitude":76.3388,"temp":26.9,"humidity":80,"rain":0.0,"pressure":1010.3,"uv_index":8.85,"aqi":94,"mosquito_risk":7,"arthritis_risk":0,"migraine_risk":4,"frizz_risk":1,"updated_at":"2026-02-27T10:17:56.110974+05:30"},{"city":"Munnar","state":"Kerala","latitude":10.0889,"longitude":77.0595,"temp":24.8,"humidity":59,"rain":0.0,"pressure":858.9,"uv_index":6.35,"aqi":95,"mosquito_risk":0,"arthritis_risk":5,"migraine_risk":7,"frizz_risk":1,"updated_at":"2026-02-27T10:17:56.110980+05:30"},{"city":"Silchar","state":"Assam","latitude":24.8333,"longitude":92.7789,"temp":26.4,"humidity":58,"rain":0.0,"pressure":1007.9,"uv_index":7.2,"aqi":164,"mosquito_risk":4,"arthritis_risk":5,"migraine_risk":4,"frizz_risk":1,"updated_at":"2026-02-27T10:17:56.110986+05:30"},{"city":"Dibrugarh","state":"Assam","latitude":27.4728,"longitude":94.912,"temp":21.2,"humidity":74,"rain":0.0,"pressure":999.4,"uv_index":6.95,"aqi":152,"mosquito_risk":3,"arthritis_risk":5,"migraine_risk":7,"frizz_risk":1,"updated_at":"2026-02-27T10:17:56.110992+05:30"}]