[{"city":"Delhi","state":"Delhi","latitude":28.6139,"longitude":77.209,"temp":19.3,"humidity":67,"rain":0.0,"pressure":986.8,"uv_index":5.85,"wind_gusts":34.9,"aqi":347,"pm10":339.0,"pm2_5":82.2,"mosquito_risk":3,"arthritis_risk":5,"migraine_risk":3,"frizz_risk":0,"updated_at":"2026-03-04T01:11:25.923017+05:30"},{"city":"Mumbai","state":"Maharashtra","latitude":19.076,"longitude":72.8777,"temp":28.7,"humidity":57,"rain":0.0,"pressure":1010.0,"uv_index":7.4,"wind_gusts":26.6,"aqi":116,"pm10":41.6,"pm2_5":40.9,"mosquito_risk":4,"arthritis_risk":0,"migraine_risk":4,"frizz_risk":1,"updated_at":"2026-03-04T01:11:25.923060+05:30"},{"city":"Bangalore","state":"Karnataka","latitude":12.9716,"longitude":77.5946,"temp":21.4,"humidity":60,"rain":0.0,"pressure":913.2,"uv_index":9.1,"wind_gusts":35.6,"aqi":99,"pm10":30.7,"pm2_5":29.8,"mosquito_risk":0,"arthritis_risk":5,"migraine_risk":7,"frizz_risk":0,"updated_at":"2026-03-04T01:11:25.923075+05:30"},{"city":"Hyderabad","state":"Telangana","latitude":17.385,"longitude":78.4867,"temp":24.7,"humidity":59,"rain":0.0,"pressure":955.6,"uv_index":8.4,"wind_gusts":21.6,"aqi":125,"pm10":46.8,"pm2_5":45.8,"mosquito_risk":0,"arthritis_risk":5,"migraine_risk":7,"frizz_risk":1,"updated_at":"2026-03-04T01:11:25.923084+05:30"},{"city":"Chennai","state":"Tamil Nadu","latitude":13.0827,"longitude":80.2707,"temp":24.7,"humidity":83,"rain":0.0,"pressure":1010.2,"uv_index":8.8,"wind_gusts":29.5,"aqi":105,"pm10":33.9,"pm2_5":30.0,"mosquito_risk":3,"arthritis_risk":0,"migraine_risk":4,"frizz_risk":1,"updated_at":"2026-03-04T01:11:25.923093+05:30"},{"city":"Kolkata","state":"West Bengal","latitude":22.5726,"longitude":88.3639,"temp":21.5,"humidity":66,"rain":0.0,"pressure":1009.6,"uv_index":7.75,"wind_gusts":16.9,"aqi":167,"pm10":127.1,"pm2_5":98.5,"mosquito_risk":3,"arthritis_risk":0,"migraine_risk":4,"frizz_risk":0,"updated_at":"2026-03-04T01:11:25.923102+05:30"},{"city":"Pune","state":"Maharashtra","latitude":18.5204,"longitude":73.8567,"temp":23.0,"humidity":69,"rain":0.0,"pressure":950.2,"uv_index":7.95,"wind_gusts":31.0,"aqi":83,"pm10":34.6,"pm2_5":34.0,"mosquito_risk":3,"arthritis_risk":5,"migraine_risk":7,"frizz_risk":1,"updated_at":"2026-03-04T01:11:25.923113+05:30"},{"city":"Ahmedabad","state":"Gujarat","latitude":23.0225,"longitude":72.5714,"temp":24.6,"humidity":54,"rain":0.0,"pressure":1005.9,"uv_index":7.2,"wind_gusts":22.3,"aqi":92,"pm10":59.8,"pm2_5":49.7,"mosquito_risk":0,"arthritis_risk":5,"migraine_risk":4,"frizz_risk":0,"updated_at":"2026-03-04T01:11:25.923121+05:30"},{"city":"Jaipur","state":"Rajasthan","latitude":26.9124,"longitude":75.7873,"temp":23.9,"humidity":29,"rain":0.0,"pressure":963.9,"uv_index":6.6,"wind_gusts":33.1,"aqi":107,"pm10":79.2,"pm2_5":50.5,"mosquito_risk":0,"arthritis_risk":5,"migraine_risk":7,"frizz_risk":0,"updated_at":"2026-03-04T01:11:25.923128+05:30"},{"city":"Lucknow","state":"Uttar Pradesh","latitude":26.8467,"longitude":80.9462,"temp":20.4,"humidity":65,"rain":0.0,"pressure":997.4,"uv_index":6.35,"wind_gusts":27.0,"aqi":153,"pm10":307.3,"pm2_5":69.4,"mosquito_risk":3,"arthritis_risk":5,"migraine_risk":7,"frizz_risk":0,"updated_at":"2026-03-04T01:11:25.923136+05:30"},{"city":"Kanpur","state":"Uttar Pradesh","latitude":26.4499,"longitude":80.3319,"temp":18.4,"humidity":79,"rain":0.0,"pressure":995.6,"uv_index":6.35,"wind_gusts":29.5,"aqi":183,"pm10":343.7,"pm2_5":67.1,"mosquito_risk":3,"arthritis_risk":5,"migraine_risk":7,"frizz_risk":0,"updated_at":"2026-03-04T01:11:25.923143+05:30"},{"city":"Chandigarh","state":"Chandigarh","latitude":30.7333,"longitude":76.7794,"temp":18.5,"humidity":66,"rain":0.0,"pressure":972.0,"uv_index":5.75,"wind_gusts":34.6,"aqi":87,"pm10":35.7,"pm2_5":33.2,"mosquito_risk":3,"arthritis_risk":5,"migraine_risk":3,"frizz_risk":0,"updated_at":"2026-03-04T01:11:25.923151+05:30"},{"city":"Srinagar","state":"Jammu and Kashmir","latitude":34.0837,"longitude":74.7973,"temp":5.8,"humidity":77,"rain":0.0,"pressure":841.2,"uv_index":6.45,"wind_gusts":15.1,"aqi":139,"pm10":97.6,"pm2_5":86.6,"mosquito_risk":3,"arthritis_risk":5,"migraine_risk":7,"frizz_risk":0,"updated_at":"2026-03-04T01:11:25.923157+05:30"},{"city":"Jammu","state":"Jammu and Kashmir","latitude":32.7266,"longitude":74.857,"temp":16.2,"humidity":85,"rain":0.0,"pressure":976.3,"uv_index":6.35,"wind_gusts":27.7,"aqi":109,"pm10":60.1,"pm2_5":54.5,"mosquito_risk":3,"arthritis_risk":10,"migraine_risk":7,"frizz_risk":0,"updated_at":"2026-03-04T01:11:25.923164+05:30"},{"city":"Amritsar","state":"Punjab","latitude":31.634,"longitude":74.8723,"temp":18.8,"humidity":61,"rain":0.0,"pressure":984.7,"uv_index":6.3,"wind_gusts":23.4,"aqi":99,"pm10":90.3,"pm2_5":75.4,"mosquito_risk":3,"arthritis_risk":5,"migraine_risk":7,"frizz_risk":0,"updated_at":"2026-03-04T01:11:25.923170+05:30"},{"city":"Ludhiana","state":"Punjab","latitude":30.901,"longitude":75.8573,"temp":19.9,"humidity":63,"rain":0.0,"pressure":982.6,"uv_index":6.0,"wind_gusts":29.2,"aqi":143,"pm10":93.1,"pm2_5":83.1,"mosquito_risk":3,"arthritis_risk":5,"migraine_risk":3,"frizz_risk":0,"updated_at":"2026-03-04T01:11:25.923178+05:30"},{"city":"Jalandhar","state":"Punjab","latitude":31.326,"longitude":75.5762,"temp":17.6,"humidity":73,"rain":0.0,"pressure":983.7,"uv_index":6.15,"wind_gusts":26.6,"aqi":142,"pm10":99.4,"pm2_5":86.4,"mosquito_risk":3,"arthritis_risk":5,"migraine_risk":7,"frizz_risk":0,"updated_at":"2026-03-04T01:11:25.923186+05:30"},{"city":"Dehradun","state":"Uttarakhand","latitude":30.6284,"longitude":78.0322,"temp":12.2,"humidity":68,"rain":0.0,"pressure":830.3,"uv_index":6.1,"wind_gusts":30.2,"aqi":61,"pm10":28.2,"pm2_5":26.3,"mosquito_risk":3,"arthritis_risk":5,"migraine_risk":7,"frizz_risk":0,"updated_at":"2026-03-04T01:11:25.923193+05:30"},{"city":"Shimla","state":"Himachal Pradesh","latitude":31.1048,"longitude":77.1734,"temp":10.8,"humidity":58,"rain":0.0,"pressure":784.5,"uv_index":6.15,"wind_gusts":52.9,"aqi":74,"pm10":38.5,"pm2_5":31.9,"mosquito_risk":0,"arthritis_risk":5,"migraine_risk":7,"frizz_risk":0,"updated_at":"2026-03-04T01:11:25.923199+05:30"},{"city":"Manali","state":"Himachal Pradesh","latitude":32.2396,"longitude":77.1887,"temp":17.0,"humidity":17,"rain":0.0,"pressure":822.2,"uv_index":7.35,"wind_gusts":37.4,"aqi":50,"pm10":19.5,"pm2_5":15.8,"mosquito_risk":0,"arthritis_risk":5,"migraine_risk":7,"frizz_risk":1,"updated_at":"2026-03-04T01:11:25.923206+05:30"},{"city":"Gurgaon","state":"Haryana","latitude":28.4595,"longitude":77.0266,"temp":17.2,"humidity":71,"rain":0.0,"pressure":985.1,"uv_index":5.95,"wind_gusts":33.8,"aqi":1210,"pm10":1002.1,"pm2_5":140.2,"mosquito_risk":3,"arthritis_risk":5,"migraine_risk":3,"frizz_risk":0,"updated_at":"2026-03-04T01:11:25.923214+05:30"},{"city":"Noida","state":"Uttar Pradesh","latitude":28.5355,"longitude":77.391,"temp":19.4,"humidity":65,"rain":0.0,"pressure":988.3,"uv_index":5.85,"wind_gusts":33.8,"aqi":1210,"pm10":1002.1,"pm2_5":140.2,"mosquito_risk":3,"arthritis_risk":5,"migraine_risk":3,"frizz_risk":0,"updated_at":"2026-03-04T01:11:25.923221+05:30"},{"city":"Ghaziabad","state":"Uttar Pradesh","latitude":28.6692,"longitude":77.4538,"temp":19.1,"humidity":70,"rain":0.0,"pressure":986.4,"uv_index":5.85,"wind_gusts":30.6,"aqi":264,"pm10":329.7,"pm2_5":85.7,"mosquito_risk":3,"arthritis_risk":5,"migraine_risk":3,"frizz_risk":0,"updated_at":"2026-03-04T01:11:25.923227+05:30"},{"city":"Faridabad","state":"Haryana","latitude":28.4089,"longitude":77.3178,"temp":20.4,"humidity":53,"rain":0.0,"pressure":987.5,"uv_index":5.9,"wind_gusts":32.0,"aqi":1210,"pm10":1002.1,"pm2_5":140.2,"mosquito_risk":0,"arthritis_risk":5,"migraine_risk":3,"frizz_risk":0,"updated_at":"2026-03-04T01:11:25.923233+05:30"},{"city":"Meerut","state":"Uttar Pradesh","latitude":28.9845,"longitude":77.7064,"temp":17.4,"humidity":79,"rain":0.0,"pressure":985.1,"uv_index":5.7,"wind_gusts":33.5,"aqi":264,"pm10":329.7,"pm2_5":85.7,"mosquito_risk":3,"arthritis_risk":5,"migraine_risk":3,"frizz_risk":0,"updated_at":"2026-03-04T01:11:25.923240+05:30"},{"city":"Agra","state":"Uttar Pradesh","latitude":27.1767,"longitude":78.0081,"temp":17.9,"humidity":63,"rain":0.0,"pressure":991.6,"uv_index":6.2,"wind_gusts":37.4,"aqi":430,"pm10":395.8,"pm2_5":72.6,"mosquito_risk":3,"arthritis_risk":5,"migraine_risk":7,"frizz_risk":0,"updated_at":"2026-03-04T01:11:25.923247+05:30"},{"city":"Varanasi","state":"Uttar Pradesh","latitude":25.3176,"longitude":82.9739,"temp":20.5,"humidity":59,"rain":0.0,"pressure":1001.7,"uv_index":7.0,"wind_gusts":18.4,"aqi":130,"pm10":106.9,"pm2_5":79.4,"mosquito_risk":0,"arthritis_risk":5,"migraine_risk":4,"frizz_risk":0,"updated_at":"2026-03-04T01:11:25.923258+05:30"},{"city":"Prayagraj","state":"Uttar Pradesh","latitude":25.4358,"longitude":81.8463,"temp":20.2,"humidity":67,"rain":0.0,"pressure":1000.3,"uv_index":6.9,"wind_gusts":25.2,"aqi":136,"pm10":138.8,"pm2_5":74.5,"mosquito_risk":3,"arthritis_risk":5,"migraine_risk":4,"frizz_risk":0,"updated_at":"2026-03-04T01:11:25.923265+05:30"},{"city":"Gorakhpur","state":"Uttar Pradesh","latitude":26.7606,"longitude":83.3732,"temp":19.5,"humidity":69,"rain":0.0,"pressure":1001.2,"uv_index":6.75,"wind_gusts":10.8,"aqi":155,"pm10":143.9,"pm2_5":116.9,"mosquito_risk":3,"arthritis_risk":5,"migraine_risk":4,"frizz_risk":0,"updated_at":"2026-03-04T01:11:25.923272+05:30"},{"city":"Bareilly","state":"Uttar Pradesh","latitude":28.367,"longitude":79.4304,"temp":17.3,"humidity":87,"rain":0.0,"pressure":990.4,"uv_index":6.05,"wind_gusts":19.4,"aqi":154,"pm10":445.2,"pm2_5":119.2,"mosquito_risk":3,"arthritis_risk":10,"migraine_risk":7,"frizz_risk":0,"updated_at":"2026-03-04T01:11:25.923278+05:30"},{"city":"Aligarh","state":"Uttar Pradesh","latitude":27.8974,"longitude":78.088,"temp":17.5,"humidity":66,"rain":0.0,"pressure":989.3,"uv_index":5.95,"wind_gusts":30.2,"aqi":687,"pm10":616.5,"pm2_5":114.8,"mosquito_risk":3,"arthritis_risk":5,"migraine_risk":3,"frizz_risk":0,"updated_at":"2026-03-04T01:11:25.923287+05:30"},{"city":"Moradabad","state":"Uttar Pradesh","latitude":28.8386,"longitude":78.7733,"temp":18.1,"humidity":75,"rain":0.0,"pressure":987.2,"uv_index":5.9,"wind_gusts":22.3,"aqi":151,"pm10":360.4,"pm2_5":99.0,"mosquito_risk":3,"arthritis_risk":5,"migraine_risk":3,"frizz_risk":0,"updated_at":"2026-03-04T01:11:25.923294+05:30"},{"city":"Saharanpur","state":"Uttar Pradesh","latitude":29.9637,"longitude":77.546,"temp":17.6,"humidity":74,"rain":0.0,"pressure":979.0,"uv_index":5.5,"wind_gusts":40.0,"aqi":145,"pm10":131.8,"pm2_5":77.5,"mosquito_risk":3,"arthritis_risk":5,"migraine_risk":3,"frizz_risk":0,"updated_at":"2026-03-04T01:11:25.923300+05:30"},{"city":"Jhansi","state":"Uttar Pradesh","latitude":25.4484,"longitude":78.5685,"temp":19.3,"humidity":64,"rain":0.0,"pressure":981.8,"uv_index":6.8,"wind_gusts":33.5,"aqi":79,"pm10":36.1,"pm2_5":27.6,"mosquito_risk":3,"arthritis_risk":5,"migraine_risk":7,"frizz_risk":0,"updated_at":"2026-03-04T01:11:29.274194+05:30"},{"city":"Surat","state":"Gujarat","latitude":21.1702,"longitude":72.8311,"temp":25.5,"humidity":59,"rain":0.0,"pressure":1009.6,"uv_index":7.1,"wind_gusts":28.4,"aqi":158,"pm10":51.2,"pm2_5":49.2,"mosquito_risk":4,"arthritis_risk":0,"migraine_risk":4,"frizz_risk":1,"updated_at":"2026-03-04T01:11:29.274227+05:30"},{"city":"Vadodara","state":"Gujarat","latitude":22.3072,"longitude":73.1812,"temp":24.3,"humidity":62,"rain":0.0,"pressure":1007.7,"uv_index":7.2,"wind_gusts":17.6,"aqi":151,"pm10":88.5,"pm2_5":84.5,"mosquito_risk":3,"arthritis_risk":5,"migraine_risk":4,"frizz_risk":1,"updated_at":"2026-03-04T01:11:29.274240+05:30"},{"city":"Rajkot","state":"Gujarat","latitude":22.3039,"longitude":70.8022,"temp":23.2,"humidity":60,"rain":0.0,"pressure":998.5,"uv_index":7.0,"wind_gusts":26.3,"aqi":62,"pm10":30.7,"pm2_5":25.7,"mosquito_risk":0,"arthritis_risk":5,"migraine_risk":7,"frizz_risk":0,"updated_at":"2026-03-04T01:11:29.274250+05:30"},{"city":"Thane","state":"Maharashtra","latitude":19.2183,"longitude":72.9781,"temp":27.1,"humidity":50,"rain":0.0,"pressure":1009.6,"uv_index":7.4,"wind_gusts":36.4,"aqi":116,"pm10":41.6,"pm2_5":40.9,"mosquito_risk":4,"arthritis_risk":0,"migraine_risk":4,"frizz_risk":0,"updated_at":"2026-03-04T01:11:29.274259+05:30"},{"city":"Nagpur","state":"Maharashtra","latitude":21.1458,"longitude":79.0882,"temp":23.8,"humidity":60,"rain":0.0,"pressure":976.6,"uv_index":7.75,"wind_gusts":22.7,"aqi":71,"pm10":25.4,"pm2_5":21.4,"mosquito_risk":0,"arthritis_risk":5,"migraine_risk":7,"frizz_risk":0,"updated_at":"2026-03-04T01:11:29.274267+05:30"},{"city":"Nashik","state":"Maharashtra","latitude":19.9975,"longitude":73.7898,"temp":23.8,"humidity":48,"rain":0.0,"pressure":948.2,"uv_index":7.55,"wind_gusts":24.1,"aqi":92,"pm10":31.4,"pm2_5":30.7,"mosquito_risk":0,"arthritis_risk":5,"migraine_risk":7,"frizz_risk":0,"updated_at":"2026-03-04T01:11:29.274275+05:30"},{"city":"Aurangabad","state":"Maharashtra","latitude":19.8762,"longitude":75.3433,"temp":24.0,"humidity":44,"rain":0.0,"pressure":946.5,"uv_index":8.1,"wind_gusts":28.8,"aqi":78,"pm10":39.0,"pm2_5":38.0,"mosquito_risk":0,"arthritis_risk":5,"migraine_risk":7,"frizz_risk":0,"updated_at":"2026-03-04T01:11:29.274283+05:30"},{"city":"Solapur","state":"Maharashtra","latitude":17.6599,"longitude":75.9064,"temp":23.9,"humidity":69,"rain":0.0,"pressure":958.6,"uv_index":8.35,"wind_gusts":18.0,"aqi":94,"pm10":23.5,"pm2_5":22.9,"mosquito_risk":3,"arthritis_risk":5,"migraine_risk":7,"frizz_risk":1,"updated_at":"2026-03-04T01:11:29.274292+05:30"},{"city":"Kolhapur","state":"Maharashtra","latitude":16.705,"longitude":74.2433,"temp":21.4,"humidity":86,"rain":0.0,"pressure":949.4,"uv_index":8.45,"wind_gusts":34.6,"aqi":151,"pm10":91.5,"pm2_5":90.8,"mosquito_risk":3,"arthritis_risk":5,"migraine_risk":7,"frizz_risk":1,"updated_at":"2026-03-04T01:11:29.274301+05:30"},{"city":"Goa","state":"Goa","latitude":15.2993,"longitude":74.124,"temp":26.7,"humidity":86,"rain":0.0,"pressure":999.8,"uv_index":8.5,"wind_gusts":35.3,"aqi":80,"pm10":42.1,"pm2_5":37.7,"mosquito_risk":7,"arthritis_risk":5,"migraine_risk":7,"frizz_risk":1,"updated_at":"2026-03-04T01:11:29.274309+05:30"},{"city":"Jodhpur","state":"Rajasthan","latitude":26.2389,"longitude":73.0243,"temp":25.2,"humidity":44,"rain":0.0,"pressure":987.2,"uv_index":6.9,"wind_gusts":12.2,"aqi":73,"pm10":71.2,"pm2_5":37.7,"mosquito_risk":4,"arthritis_risk":5,"migraine_risk":7,"frizz_risk":0,"updated_at":"2026-03-04T01:11:29.274318+05:30"},{"city":"Udaipur","state":"Rajasthan","latitude":24.5854,"longitude":73.7125,"temp":18.9,"humidity":53,"rain":0.0,"pressure":950.3,"uv_index":7.5,"wind_gusts":13.3,"aqi":65,"pm10":44.8,"pm2_5":23.9,"mosquito_risk":0,"arthritis_risk":5,"migraine_risk":7,"frizz_risk":0,"updated_at":"2026-03-04T01:11:29.274326+05:30"},{"city":"Kota","state":"Rajasthan","latitude":25.2138,"longitude":75.8648,"temp":18.3,"humidity":81,"rain":0.0,"pressure":982.6,"uv_index":6.9,"wind_gusts":16.9,"aqi":89,"pm10":59.6,"pm2_5":43.2,"mosquito_risk":3,"arthritis_risk":10,"migraine_risk":7,"frizz_risk":0,"updated_at":"2026-03-04T01:11:29.274334+05:30"},{"city":"Bikaner","state":"Rajasthan","latitude":28.0229,"longitude":73.3119,"temp":23.6,"humidity":43,"rain":0.0,"pressure":986.0,"uv_index":6.6,"wind_gusts":23.4,"aqi":67,"pm10":43.1,"pm2_5":20.2,"mosquito_risk":0,"arthritis_risk":5,"migraine_risk":7,"frizz_risk":0,"updated_at":"2026-03-04T01:11:29.274340+05:30"},{"city":"Ajmer","state":"Rajasthan","latitude":26.4499,"longitude":74.6399,"temp":23.2,"humidity":26,"rain":0.0,"pressure":958.3,"uv_index":6.85,"wind_gusts":19.8,"aqi":76,"pm10":57.3,"pm2_5":35.3,"mosquito_risk":0,"arthritis_risk":5,"migraine_risk":7,"frizz_risk":0,"updated_at":"2026-03-04T01:11:29.274346+05:30"},{"city":"Gwalior","state":"Madhya Pradesh","latitude":26.2183,"longitude":78.1828,"temp":20.6,"humidity":56,"rain":0.0,"pressure":987.2,"uv_index":6.55,"wind_gusts":31.0,"aqi":120,"pm10":71.2,"pm2_5":43.3,"mosquito_risk":0,"arthritis_risk":5,"migraine_risk":7,"frizz_risk":0,"updated_at":"2026-03-04T01:11:29.274353+05:30"},{"city":"Indore","state":"Madhya Pradesh","latitude":22.7196,"longitude":75.8577,"temp":21.9,"humidity":54,"rain":0.0,"pressure":951.3,"uv_index":7.45,"wind_gusts":18.7,"aqi":90,"pm10":39.1,"pm2_5":33.8,"mosquito_risk":0,"arthritis_risk":5,"migraine_risk":7,"frizz_risk":0,"updated_at":"2026-03-04T01:11:29.274359+05:30"},{"city":"Bhopal","state":"Madhya Pradesh","latitude":23.2599,"longitude":77.4126,"temp":22.4,"humidity":49,"rain":0.0,"pressure":957.2,"uv_index":7.35,"wind_gusts":24.5,"aqi":80,"pm10":49.2,"pm2_5":37.7,"mosquito_risk":0,"arthritis_risk":5,"migraine_risk":7,"frizz_risk":0,"updated_at":"2026-03-04T01:11:29.274366+05:30"},{"city":"Jabalpur","state":"Madhya Pradesh","latitude":23.1815,"longitude":79.9864,"temp":21.7,"humidity":55,"rain":0.0,"pressure":964.9,"uv_index":7.4,"wind_gusts":27.0,"aqi":76,"pm10":46.1,"pm2_5":31.9,"mosquito_risk":0,"arthritis_risk":5,"migraine_risk":7,"frizz_risk":0,"updated_at":"2026-03-04T01:11:29.274372+05:30"},{"city":"Ujjain","state":"Madhya Pradesh","latitude":23.1765,"longitude":75.7885,"temp":21.9,"humidity":55,"rain":0.0,"pressure":957.2,"uv_index":7.35,"wind_gusts":16.9,"aqi":111,"pm10":53.4,"pm2_5":48.9,"mosquito_risk":0,"arthritis_risk":5,"migraine_risk":7,"frizz_risk":0,"updated_at":"2026-03-04T01:11:29.274379+05:30"},{"city":"Visakhapatnam","state":"Andhra Pradesh","latitude":17.6868,"longitude":83.2185,"temp":24.3,"humidity":91,"rain":0.0,"pressure":1006.8,"uv_index":8.4,"wind_gusts":36.7,"aqi":132,"pm10":56.9,"pm2_5":51.8,"mosquito_risk":3,"arthritis_risk":5,"migraine_risk":4,"frizz_risk":1,"updated_at":"2026-03-04T01:11:29.274385+05:30"},{"city":"Vijayawada","state":"Andhra Pradesh","latitude":16.5062,"longitude":80.648,"temp":24.1,"humidity":84,"rain":0.0,"pressure":1005.7,"uv_index":8.45,"wind_gusts":22.3,"aqi":135,"pm10":35.9,"pm2_5":32.8,"mosquito_risk":3,"arthritis_risk":5,"migraine_risk":4,"frizz_risk":1,"updated_at":"2026-03-04T01:11:29.274392+05:30"},{"city":"Guntur","state":"Andhra Pradesh","latitude":16.3067,"longitude":80.4365,"temp":23.5,"humidity":85,"rain":0.0,"pressure":1006.7,"uv_index":8.45,"wind_gusts":27.0,"aqi":126,"pm10":31.4,"pm2_5":28.8,"mosquito_risk":3,"arthritis_risk":5,"migraine_risk":4,"frizz_risk":1,"updated_at":"2026-03-04T01:11:29.274399+05:30"},{"city":"Nellore","state":"Andhra Pradesh","latitude":14.4426,"longitude":79.9865,"temp":23.6,"humidity":90,"rain":0.0,"pressure":1008.8,"uv_index":8.65,"wind_gusts":29.2,"aqi":100,"pm10":28.5,"pm2_5":26.3,"mosquito_risk":3,"arthritis_risk":0,"migraine_risk":4,"frizz_risk":1,"updated_at":"2026-03-04T01:11:29.274422+05:30"},{"city":"Kurnool","state":"Andhra Pradesh","latitude":15.8281,"longitude":78.0373,"temp":27.2,"humidity":48,"rain":0.0,"pressure":979.1,"uv_index":8.45,"wind_gusts":28.4,"aqi":109,"pm10":33.5,"pm2_5":32.9,"mosquito_risk":4,"arthritis_risk":5,"migraine_risk":7,"frizz_risk":0,"updated_at":"2026-03-04T01:11:29.274431+05:30"},{"city":"Kakinada","state":"Andhra Pradesh","latitude":16.9891,"longitude":82.2475,"temp":22.8,"humidity":92,"rain":0.0,"pressure":1010.7,"uv_index":8.4,"wind_gusts":34.2,"aqi":119,"pm10":40.5,"pm2_5":34.1,"mosquito_risk":3,"arthritis_risk":0,"migraine_risk":4,"frizz_risk":1,"updated_at":"2026-03-04T01:11:29.274438+05:30"},{"city":"Tirupati","state":"Andhra Pradesh","latitude":13.6288,"longitude":79.4192,"temp":23.1,"humidity":60,"rain":0.0,"pressure":994.7,"uv_index":8.8,"wind_gusts":31.0,"aqi":147,"pm10":64.7,"pm2_5":62.9,"mosquito_risk":0,"arthritis_risk":5,"migraine_risk":7,"frizz_risk":0,"updated_at":"2026-03-04T01:11:29.274445+05:30"},{"city":"Warangal","state":"Telangana","latitude":17.9689,"longitude":79.5941,"temp":26.4,"humidity":48,"rain":0.0,"pressure":980.9,"uv_index":8.2,"wind_gusts":23.0,"aqi":125,"pm10":45.4,"pm2_5":44.5,"mosquito_risk":4,"arthritis_risk":5,"migraine_risk":7,"frizz_risk":0,"updated_at":"2026-03-04T01:11:29.274451+05:30"},{"city":"Nizamabad","state":"Telangana","latitude":18.6725,"longitude":78.0941,"temp":22.0,"humidity":72,"rain":0.0,"pressure":966.8,"uv_index":8.1,"wind_gusts":23.0,"aqi":91,"pm10":26.8,"pm2_5":24.2,"mosquito_risk":3,"arthritis_risk":5,"migraine_risk":7,"frizz_risk":1,"updated_at":"2026-03-04T01:11:29.274458+05:30"},{"city":"Mysore","state":"Karnataka","latitude":12.2958,"longitude":76.6396,"temp":21.4,"humidity":85,"rain":0.0,"pressure":929.5,"uv_index":9.15,"wind_gusts":39.2,"aqi":113,"pm10":30.3,"pm2_5":29.7,"mosquito_risk":3,"arthritis_risk":5,"migraine_risk":7,"frizz_risk":1,"updated_at":"2026-03-04T01:11:29.274465+05:30"},{"city":"Mangalore","state":"Karnataka","latitude":12.9141,"longitude":74.856,"temp":28.2,"humidity":81,"rain":0.0,"pressure":1008.5,"uv_index":8.75,"wind_gusts":29.9,"aqi":66,"pm10":28.2,"pm2_5":23.5,"mosquito_risk":7,"arthritis_risk":0,"migraine_risk":4,"frizz_risk":1,"updated_at":"2026-03-04T01:11:29.274471+05:30"},{"city":"Hubli-Dharwad","state":"Karnataka","latitude":15.3647,"longitude":75.124,"temp":23.3,"humidity":88,"rain":0.0,"pressure":942.2,"uv_index":8.65,"wind_gusts":23.4,"aqi":114,"pm10":35.4,"pm2_5":34.8,"mosquito_risk":3,"arthritis_risk":5,"migraine_risk":7,"frizz_risk":1,"updated_at":"2026-03-04T01:11:29.274478+05:30"},{"city":"Belgaum","state":"Karnataka","latitude":15.8497,"longitude":74.4977,"temp":21.9,"humidity":93,"rain":0.0,"pressure":927.0,"uv_index":8.7,"wind_gusts":27.4,"aqi":107,"pm10":61.2,"pm2_5":59.6,"mosquito_risk":3,"arthritis_risk":5,"migraine_risk":7,"frizz_risk":1,"updated_at":"2026-03-04T01:11:32.629342+05:30"},{"city":"Coimbatore","state":"Tamil Nadu","latitude":11.0168,"longitude":76.9558,"temp":22.2,"humidity":67,"rain":0.0,"pressure":963.5,"uv_index":9.15,"wind_gusts":43.9,"aqi":117,"pm10":38.1,"pm2_5":37.4,"mosquito_risk":3,"arthritis_risk":5,"migraine_risk":7,"frizz_risk":0,"updated_at":"2026-03-04T01:11:32.629373+05:30"},{"city":"Madurai","state":"Tamil Nadu","latitude":9.9252,"longitude":78.1198,"temp":23.3,"humidity":79,"rain":0.0,"pressure":995.3,"uv_index":9.1,"wind_gusts":26.3,"aqi":104,"pm10":40.0,"pm2_5":39.3,"mosquito_risk":3,"arthritis_risk":5,"migraine_risk":7,"frizz_risk":1,"updated_at":"2026-03-04T01:11:32.629385+05:30"},{"city":"Trichy","state":"Tamil Nadu","latitude":10.7905,"longitude":78.7047,"temp":22.7,"humidity":91,"rain":0.0,"pressure":1002.5,"uv_index":9.0,"wind_gusts":28.4,"aqi":98,"pm10":33.9,"pm2_5":32.2,"mosquito_risk":3,"arthritis_risk":5,"migraine_risk":4,"frizz_risk":1,"updated_at":"2026-03-04T01:11:32.629395+05:30"},{"city":"Salem","state":"Tamil Nadu","latitude":11.6643,"longitude":78.146,"temp":24.0,"humidity":71,"rain":0.0,"pressure":979.2,"uv_index":9.05,"wind_gusts":37.1,"aqi":128,"pm10":52.0,"pm2_5":51.0,"mosquito_risk":3,"arthritis_risk":5,"migraine_risk":7,"frizz_risk":1,"updated_at":"2026-03-04T01:11:32.629404+05:30"},{"city":"Tirunelveli","state":"Tamil Nadu","latitude":8.7139,"longitude":77.7567,"temp":22.7,"humidity":85,"rain":0.0,"pressure":1005.5,"uv_index":9.15,"wind_gusts":34.9,"aqi":93,"pm10":31.3,"pm2_5":30.5,"mosquito_risk":3,"arthritis_risk":5,"migraine_risk":4,"frizz_risk":1,"updated_at":"2026-03-04T01:11:32.629444+05:30"},{"city":"Vellore","state":"Tamil Nadu","latitude":12.9165,"longitude":79.1325,"temp":21.7,"humidity":86,"rain":0.0,"pressure":987.7,"uv_index":8.9,"wind_gusts":34.9,"aqi":135,"pm10":61.2,"pm2_5":59.6,"mosquito_risk":3,"arthritis_risk":5,"migraine_risk":7,"frizz_risk":1,"updated_at":"2026-03-04T01:11:32.629453+05:30"},{"city":"Erode","state":"Tamil Nadu","latitude":11.341,"longitude":77.7172,"temp":23.9,"humidity":77,"rain":0.0,"pressure":991.3,"uv_index":9.05,"wind_gusts":24.5,"aqi":110,"pm10":36.3,"pm2_5":35.6,"mosquito_risk":3,"arthritis_risk":5,"migraine_risk":7,"frizz_risk":1,"updated_at":"2026-03-04T01:11:32.629462+05:30"},{"city":"Kochi","state":"Kerala","latitude":9.9312,"longitude":76.2673,"temp":26.6,"humidity":84,"rain":0.0,"pressure":1010.5,"uv_index":8.95,"wind_gusts":35.6,"aqi":99,"pm10":35.6,"pm2_5":34.6,"mosquito_risk":7,"arthritis_risk":0,"migraine_risk":4,"frizz_risk":1,"updated_at":"2026-03-04T01:11:32.629470+05:30"},{"city":"Thiruvananthapuram","state":"Kerala","latitude":8.5241,"longitude":76.9366,"temp":27.9,"humidity":73,"rain":0.0,"pressure":1009.4,"uv_index":9.0,"wind_gusts":25.9,"aqi":123,"pm10":33.5,"pm2_5":31.1,"mosquito_risk":7,"arthritis_risk":0,"migraine_risk":4,"frizz_risk":1,"updated_at":"2026-03-04T01:11:32.629479+05:30"},{"city":"Kozhikode","state":"Kerala","latitude":11.2588,"longitude":75.7804,"temp":28.0,"humidity":81,"rain":0.0,"pressure":1009.5,"uv_index":8.85,"wind_gusts":30.6,"aqi":65,"pm10":28.9,"pm2_5":21.8,"mosquito_risk":7,"arthritis_risk":0,"migraine_risk":4,"frizz_risk":1,"updated_at":"2026-03-04T01:11:32.629487+05:30"},{"city":"Thrissur","state":"Kerala","latitude":10.5276,"longitude":76.2144,"temp":25.2,"humidity":92,"rain":0.0,"pressure":1008.8,"uv_index":8.9,"wind_gusts":38.9,"aqi":101,"pm10":37.1,"pm2_5":35.6,"mosquito_risk":7,"arthritis_risk":0,"migraine_risk":4,"frizz_risk":1,"updated_at":"2026-03-04T01:11:32.629496+05:30"},{"city":"Kannur","state":"Kerala","latitude":11.8745,"longitude":75.3704,"temp":27.4,"humidity":82,"rain":0.0,"pressure":1008.6,"uv_index":8.85,"wind_gusts":34.9,"aqi":65,"pm10":23.5,"pm2_5":19.4,"mosquito_risk":7,"arthritis_risk":0,"migraine_risk":4,"frizz_risk":1,"updated_at":"2026-03-04T01:11:32.629510+05:30"},{"city":"Patna","state":"Bihar","latitude":25.5941,"longitude":85.1376,"temp":21.5,"humidity":61,"rain":0.0,"pressure":1004.6,"uv_index":7.2,"wind_gusts":12.2,"aqi":151,"pm10":112.7,"pm2_5":84.8,"mosquito_risk":3,"arthritis_risk":5,"migraine_risk":4,"frizz_risk":0,"updated_at":"2026-03-04T01:11:32.629518+05:30"},{"city":"Gaya","state":"Bihar","latitude":24.7914,"longitude":85.0002,"temp":18.2,"humidity":58,"rain":0.0,"pressure":998.2,"uv_index":7.3,"wind_gusts":18.7,"aqi":112,"pm10":119.0,"pm2_5":75.0,"mosquito_risk":0,"arthritis_risk":5,"migraine_risk":7,"frizz_risk":0,"updated_at":"2026-03-04T01:11:32.629526+05:30"},{"city":"Muzaffarpur","state":"Bihar","latitude":26.1209,"longitude":85.3647,"temp":20.0,"humidity":60,"rain":0.0,"pressure":1004.5,"uv_index":7.15,"wind_gusts":11.9,"aqi":156,"pm10":133.2,"pm2_5":102.7,"mosquito_risk":0,"arthritis_risk":5,"migraine_risk":4,"frizz_risk":0,"updated_at":"2026-03-04T01:11:32.629534+05:30"},{"city":"Bhagalpur","state":"Bihar","latitude":25.2425,"longitude":87.0117,"temp":18.8,"humidity":69,"rain":0.0,"pressure":1005.3,"uv_index":7.2,"wind_gusts":8.3,"aqi":146,"pm10":132.7,"pm2_5":93.8,"mosquito_risk":3,"arthritis_risk":5,"migraine_risk":4,"frizz_risk":0,"updated_at":"2026-03-04T01:11:32.629541+05:30"},{"city":"Ranchi","state":"Jharkhand","latitude":23.3441,"longitude":85.3096,"temp":18.8,"humidity":52,"rain":0.0,"pressure":940.7,"uv_index":7.95,"wind_gusts":30.2,"aqi":76,"pm10":69.2,"pm2_5":39.0,"mosquito_risk":0,"arthritis_risk":5,"migraine_risk":7,"frizz_risk":0,"updated_at":"2026-03-04T01:11:32.629549+05:30"},{"city":"Jamshedpur","state":"Jharkhand","latitude":22.8046,"longitude":86.2029,"temp":20.3,"humidity":64,"rain":0.0,"pressure":994.4,"uv_index":7.85,"wind_gusts":25.6,"aqi":103,"pm10":71.5,"pm2_5":48.0,"mosquito_risk":3,"arthritis_risk":5,"migraine_risk":7,"frizz_risk":0,"updated_at":"2026-03-04T01:11:32.629557+05:30"},{"city":"Dhanbad","state":"Jharkhand","latitude":23.7957,"longitude":86.4304,"temp":19.7,"humidity":47,"rain":0.0,"pressure":983.6,"uv_index":7.7,"wind_gusts":23.8,"aqi":110,"pm10":73.1,"pm2_5":51.1,"mosquito_risk":0,"arthritis_risk":5,"migraine_risk":7,"frizz_risk":0,"updated_at":"2026-03-04T01:11:32.629564+05:30"},{"city":"Bokaro","state":"Jharkhand","latitude":23.6693,"longitude":86.1511,"temp":19.5,"humidity":46,"rain":0.0,"pressure":988.0,"uv_index":7.7,"wind_gusts":27.0,"aqi":114,"pm10":79.4,"pm2_5":55.1,"mosquito_risk":0,"arthritis_risk":5,"migraine_risk":7,"frizz_risk":0,"updated_at":"2026-03-04T01:11:32.629572+05:30"},{"city":"Bhubaneswar","state":"Odisha","latitude":20.2961,"longitude":85.8245,"temp":23.9,"humidity":97,"rain":0.0,"pressure":1005.4,"uv_index":8.1,"wind_gusts":28.8,"aqi":144,"pm10":47.4,"pm2_5":42.3,"mosquito_risk":3,"arthritis_risk":5,"migraine_risk":4,"frizz_risk":1,"updated_at":"2026-03-04T01:11:32.629580+05:30"},{"city":"Cuttack","state":"Odisha","latitude":20.4625,"longitude":85.8828,"temp":23.5,"humidity":97,"rain":0.0,"pressure":1007.3,"uv_index":8.15,"wind_gusts":28.1,"aqi":144,"pm10":47.4,"pm2_5":42.3,"mosquito_risk":3,"arthritis_risk":5,"migraine_risk":4,"frizz_risk":1,"updated_at":"2026-03-04T01:11:32.629588+05:30"},{"city":"Rourkela","state":"Odisha","latitude":22.2604,"longitude":84.8536,"temp":19.7,"humidity":65,"rain":0.0,"pressure":988.2,"uv_index":7.75,"wind_gusts":18.7,"aqi":91,"pm10":64.5,"pm2_5":43.8,"mosquito_risk":3,"arthritis_risk":5,"migraine_risk":7,"frizz_risk":0,"updated_at":"2026-03-04T01:11:32.629596+05:30"},{"city":"Raipur","state":"Chhattisgarh","latitude":21.2514,"longitude":81.6296,"temp":22.7,"humidity":49,"rain":0.0,"pressure":977.6,"uv_index":7.8,"wind_gusts":24.1,"aqi":132,"pm10":85.2,"pm2_5":75.0,"mosquito_risk":0,"arthritis_risk":5,"migraine_risk":7,"frizz_risk":0,"updated_at":"2026-03-04T01:11:32.629605+05:30"},{"city":"Bhilai","state":"Chhattisgarh","latitude":21.1938,"longitude":81.3509,"temp":21.4,"humidity":58,"rain":0.0,"pressure":977.8,"uv_index":7.8,"wind_gusts":21.6,"aqi":127,"pm10":83.4,"pm2_5":74.7,"mosquito_risk":0,"arthritis_risk":5,"migraine_risk":7,"frizz_risk":0,"updated_at":"2026-03-04T01:11:32.629612+05:30"},{"city":"Guwahati","state":"Assam","latitude":26.1158,"longitude":91.7086,"temp":21.8,"humidity":73,"rain":0.0,"pressure":1005.3,"uv_index":7.1,"wind_gusts":20.2,"aqi":156,"pm10":97.1,"pm2_5":85.4,"mosquito_risk":3,"arthritis_risk":5,"migraine_risk":4,"frizz_risk":1,"updated_at":"2026-03-04T01:11:32.629619+05:30"},{"city":"Agartala","state":"Tripura","latitude":23.8315,"longitude":91.2868,"temp":20.2,"humidity":76,"rain":0.0,"pressure":1009.5,"uv_index":7.5,"wind_gusts":19.1,"aqi":170,"pm10":109.4,"pm2_5":98.0,"mosquito_risk":3,"arthritis_risk":0,"migraine_risk":4,"frizz_risk":0,"updated_at":"2026-03-04T01:11:32.629625+05:30"},{"city":"Shillong","state":"Meghalaya","latitude":25.5788,"longitude":91.8933,"temp":10.4,"humidity":81,"rain":0.0,"pressure":856.3,"uv_index":7.5,"wind_gusts":20.2,"aqi":155,"pm10":85.4,"pm2_5":73.1,"mosquito_risk":3,"arthritis_risk":10,"migraine_risk":7,"frizz_risk":0,"updated_at":"2026-03-04T01:11:32.629632+05:30"},{"city":"Imphal","state":"Manipur","latitude":24.817,"longitude":93.9368,"temp":13.6,"humidity":84,"rain":0.0,"pressure":924.9,"uv_index":7.7,"wind_gusts":26.3,"aqi":156,"pm10":89.6,"pm2_5":81.0,"mosquito_risk":3,"arthritis_risk":10,"migraine_risk":7,"frizz_risk":0,"updated_at":"2026-03-04T01:11:32.629639+05:30"},{"city":"Aizawl","state":"Mizoram","latitude":23.7271,"longitude":92.7176,"temp":15.5,"humidity":68,"rain":0.0,"pressure":893.5,"uv_index":7.7,"wind_gusts":23.4,"aqi":157,"pm10":76.8,"pm2_5":65.9,"mosquito_risk":3,"arthritis_risk":5,"migraine_risk":7,"frizz_risk":0,"updated_at":"2026-03-04T01:11:32.629645+05:30"},{"city":"Kohima","state":"Nagaland","latitude":25.6701,"longitude":94.1077,"temp":11.7,"humidity":66,"rain":0.0,"pressure":855.4,"uv_index":7.55,"wind_gusts":39.2,"aqi":152,"pm10":85.9,"pm2_5":74.3,"mosquito_risk":3,"arthritis_risk":5,"migraine_risk":7,"frizz_risk":0,"updated_at":"2026-03-04T01:11:32.629652+05:30"},{"city":"Gangtok","state":"Sikkim","latitude":27.3314,"longitude":88.6138,"temp":10.5,"humidity":92,"rain":0.0,"pressure":837.4,"uv_index":7.45,"wind_gusts":22.7,"aqi":153,"pm10":69.6,"pm2_5":53.2,"mosquito_risk":3,"arthritis_risk":10,"migraine_risk":7,"frizz_risk":0,"updated_at":"2026-03-04T01:11:32.629659+05:30"},{"city":"Siliguri","state":"West Bengal","latitude":26.7271,"longitude":88.3953,"temp":18.7,"humidity":68,"rain":0.0,"pressure":997.8,"uv_index":7.15,"wind_gusts":22.3,"aqi":163,"pm10":115.9,"pm2_5":92.4,"mosquito_risk":3,"arthritis_risk":5,"migraine_risk":7,"frizz_risk":0,"updated_at":"2026-03-04T01:11:35.981822+05:30"},{"city":"Durgapur","state":"West Bengal","latitude":23.5204,"longitude":87.3119,"temp":22.7,"humidity":53,"rain":0.0,"pressure":998.9,"uv_index":7.7,"wind_gusts":24.1,"aqi":91,"pm10":71.2,"pm2_5":42.3,"mosquito_risk":0,"arthritis_risk":5,"migraine_risk":7,"frizz_risk":0,"updated_at":"2026-03-04T01:11:35.981857+05:30"},{"city":"Asansol","state":"West Bengal","latitude":23.6739,"longitude":86.9524,"temp":22.9,"humidity":54,"rain":0.0,"pressure":997.7,"uv_index":7.7,"wind_gusts":24.1,"aqi":89,"pm10":58.0,"pm2_5":32.8,"mosquito_risk":0,"arthritis_risk":5,"migraine_risk":7,"frizz_risk":0,"updated_at":"2026-03-04T01:11:35.981870+05:30"},{"city":"Pondicherry","state":"Puducherry","latitude":11.9139,"longitude":79.8145,"temp":22.1,"humidity":94,"rain":0.0,"pressure":1011.4,"uv_index":8.85,"wind_gusts":27.0,"aqi":98,"pm10":28.5,"pm2_5":24.8,"mosquito_risk":3,"arthritis_risk":0,"migraine_risk":4,"frizz_risk":1,"updated_at":"2026-03-04T01:11:35.981880+05:30"},{"city":"Port Blair","state":"Andaman and Nicobar Islands","latitude":11.6234,"longitude":92.7265,"temp":27.1,"humidity":77,"rain":0.0,"pressure":1008.7,"uv_index":8.8,"wind_gusts":24.8,"aqi":78,"pm10":34.9,"pm2_5":25.8,"mosquito_risk":7,"arthritis_risk":0,"migraine_risk":4,"frizz_risk":1,"updated_at":"2026-03-04T01:11:35.981891+05:30"},{"city":"Haridwar","state":"Uttarakhand","latitude":29.9457,"longitude":78.1642,"temp":16.5,"humidity":84,"rain":0.0,"pressure":977.4,"uv_index":5.6,"wind_gusts":20.5,"aqi":124,"pm10":88.5,"pm2_5":69.6,"mosquito_risk":3,"arthritis_risk":10,"migraine_risk":3,"frizz_risk":0,"updated_at":"2026-03-04T01:11:35.981902+05:30"},{"city":"Rishikesh","state":"Uttarakhand","latitude":30.0869,"longitude":78.2676,"temp":17.8,"humidity":80,"rain":0.0,"pressure":970.1,"uv_index":5.65,"wind_gusts":23.8,"aqi":113,"pm10":52.9,"pm2_5":46.6,"mosquito_risk":3,"arthritis_risk":5,"migraine_risk":3,"frizz_risk":0,"updated_at":"2026-03-04T01:11:35.981911+05:30"},{"city":"Nainital","state":"Uttarakhand","latitude":29.3919,"longitude":79.4542,"temp":14.9,"humidity":60,"rain":0.0,"pressure":806.7,"uv_index":6.5,"wind_gusts":51.8,"aqi":108,"pm10":66.1,"pm2_5":55.1,"mosquito_risk":0,"arthritis_risk":5,"migraine_risk":7,"frizz_risk":0,"updated_at":"2026-03-04T01:11:35.981920+05:30"},{"city":"Mussoorie","state":"Uttarakhand","latitude":30.4599,"longitude":78.0664,"temp":14.1,"humidity":72,"rain":0.0,"pressure":803.4,"uv_index":6.0,"wind_gusts":37.1,"aqi":98,"pm10":56.6,"pm2_5":48.2,"mosquito_risk":3,"arthritis_risk":5,"migraine_risk":3,"frizz_risk":0,"updated_at":"2026-03-04T01:11:35.981929+05:30"},{"city":"Dharamshala","state":"Himachal Pradesh","latitude":32.219,"longitude":76.3234,"temp":19.2,"humidity":33,"rain":0.0,"pressure":871.5,"uv_index":6.25,"wind_gusts":28.4,"aqi":79,"pm10":15.8,"pm2_5":11.6,"mosquito_risk":0,"arthritis_risk":5,"migraine_risk":7,"frizz_risk":0,"updated_at":"2026-03-04T01:11:35.981937+05:30"},{"city":"Dalhousie","state":"Himachal Pradesh","latitude":32.5387,"longitude":75.971,"temp":15.3,"humidity":31,"rain":0.0,"pressure":805.3,"uv_index":6.45,"wind_gusts":24.5,"aqi":86,"pm10":44.2,"pm2_5":41.1,"mosquito_risk":0,"arthritis_risk":5,"migraine_risk":7,"frizz_risk":1,"updated_at":"2026-03-04T01:11:35.981944+05:30"},{"city":"Patiala","state":"Punjab","latitude":30.3398,"longitude":76.3869,"temp":17.5,"humidity":77,"rain":0.0,"pressure":981.9,"uv_index":5.65,"wind_gusts":31.7,"aqi":248,"pm10":197.4,"pm2_5":71.7,"mosquito_risk":3,"arthritis_risk":5,"migraine_risk":3,"frizz_risk":0,"updated_at":"2026-03-04T01:11:35.981951+05:30"},{"city":"Bhatinda","state":"Punjab","latitude":30.211,"longitude":74.9455,"temp":19.3,"humidity":75,"rain":0.0,"pressure":987.5,"uv_index":6.3,"wind_gusts":25.6,"aqi":140,"pm10":87.5,"pm2_5":63.1,"mosquito_risk":3,"arthritis_risk":5,"migraine_risk":7,"frizz_risk":0,"updated_at":"2026-03-04T01:11:35.981958+05:30"},{"city":"Rohtak","state":"Haryana","latitude":28.8955,"longitude":76.6066,"temp":17.9,"humidity":74,"rain":0.0,"pressure":985.5,"uv_index":5.85,"wind_gusts":33.5,"aqi":475,"pm10":367.9,"pm2_5":79.6,"mosquito_risk":3,"arthritis_risk":5,"migraine_risk":3,"frizz_risk":0,"updated_at":"2026-03-04T01:11:35.981965+05:30"},{"city":"Panipat","state":"Haryana","latitude":29.3909,"longitude":76.9635,"temp":17.3,"humidity":80,"rain":0.0,"pressure":984.0,"uv_index":5.65,"wind_gusts":32.8,"aqi":1082,"pm10":789.8,"pm2_5":122.9,"mosquito_risk":3,"arthritis_risk":5,"migraine_risk":3,"frizz_risk":0,"updated_at":"2026-03-04T01:11:35.981972+05:30"},{"city":"Mathura","state":"Uttar Pradesh","latitude":27.4924,"longitude":77.6737,"temp":22.7,"humidity":41,"rain":0.0,"pressure":990.6,"uv_index":6.1,"wind_gusts":34.2,"aqi":475,"pm10":413.5,"pm2_5":75.9,"mosquito_risk":0,"arthritis_risk":5,"migraine_risk":7,"frizz_risk":0,"updated_at":"2026-03-04T01:11:35.981979+05:30"},{"city":"Vrindavan","state":"Uttar Pradesh","latitude":27.5823,"longitude":77.7027,"temp":18.1,"humidity":60,"rain":0.0,"pressure":991.0,"uv_index":6.1,"wind_gusts":35.3,"aqi":475,"pm10":413.5,"pm2_5":75.9,"mosquito_risk":0,"arthritis_risk":5,"migraine_risk":7,"frizz_risk":0,"updated_at":"2026-03-04T01:11:35.981985+05:30"},{"city":"Ayodhya","state":"Uttar Pradesh","latitude":26.7922,"longitude":82.1998,"temp":20.2,"humidity":73,"rain":0.0,"pressure":999.2,"uv_index":6.5,"wind_gusts":11.9,"aqi":152,"pm10":146.7,"pm2_5":79.6,"mosquito_risk":3,"arthritis_risk":5,"migraine_risk":7,"frizz_risk":0,"updated_at":"2026-03-04T01:11:35.981992+05:30"},{"city":"Ratlam","state":"Madhya Pradesh","latitude":23.3315,"longitude":75.0367,"temp":18.7,"humidity":89,"rain":0.0,"pressure":957.5,"uv_index":7.35,"wind_gusts":14.8,"aqi":93,"pm10":51.5,"pm2_5":46.1,"mosquito_risk":3,"arthritis_risk":10,"migraine_risk":7,"frizz_risk":1,"updated_at":"2026-03-04T01:11:35.981998+05:30"},{"city":"Sagar","state":"Madhya Pradesh","latitude":23.8388,"longitude":78.7378,"temp":22.8,"humidity":51,"rain":0.0,"pressure":953.9,"uv_index":7.3,"wind_gusts":24.8,"aqi":67,"pm10":43.4,"pm2_5":31.7,"mosquito_risk":0,"arthritis_risk":5,"migraine_risk":7,"frizz_risk":0,"updated_at":"2026-03-04T01:11:35.982005+05:30"},{"city":"Satna","state":"Madhya Pradesh","latitude":24.6005,"longitude":80.8322,"temp":21.1,"humidity":51,"rain":0.0,"pressure":975.1,"uv_index":7.25,"wind_gusts":36.4,"aqi":78,"pm10":40.4,"pm2_5":23.7,"mosquito_risk":0,"arthritis_risk":5,"migraine_risk":7,"frizz_risk":0,"updated_at":"2026-03-04T01:11:35.982011+05:30"},{"city":"Akola","state":"Maharashtra","latitude":20.7002,"longitude":77.0082,"temp":23.4,"humidity":51,"rain":0.0,"pressure":978.3,"uv_index":7.8,"wind_gusts":18.4,"aqi":77,"pm10":32.6,"pm2_5":29.1,"mosquito_risk":0,"arthritis_risk":5,"migraine_risk":7,"frizz_risk":0,"updated_at":"2026-03-04T01:11:35.982018+05:30"},{"city":"Amravati","state":"Maharashtra","latitude":20.9374,"longitude":77.7796,"temp":24.0,"humidity":50,"rain":0.0,"pressure":970.2,"uv_index":7.75,"wind_gusts":19.4,"aqi":73,"pm10":29.9,"pm2_5":25.2,"mosquito_risk":0,"arthritis_risk":5,"migraine_risk":7,"frizz_risk":0,"updated_at":"2026-03-04T01:11:35.982026+05:30"},{"city":"Latur","state":"Maharashtra","latitude":18.4088,"longitude":76.5604,"temp":24.7,"humidity":53,"rain":0.0,"pressure":941.9,"uv_index":8.25,"wind_gusts":27.7,"aqi":83,"pm10":34.1,"pm2_5":32.1,"mosquito_risk":0,"arthritis_risk":5,"migraine_risk":7,"frizz_risk":0,"updated_at":"2026-03-04T01:11:35.982032+05:30"},{"city":"Nanded","state":"Maharashtra","latitude":19.1383,"longitude":77.3091,"temp":26.0,"humidity":51,"rain":0.0,"pressure":971.0,"uv_index":8.0,"wind_gusts":18.0,"aqi":84,"pm10":29.8,"pm2_5":27.8,"mosquito_risk":4,"arthritis_risk":5,"migraine_risk":7,"frizz_risk":0,"updated_at":"2026-03-04T01:11:35.982038+05:30"},{"city":"Gulbarga","state":"Karnataka","latitude":17.3297,"longitude":76.8343,"temp":25.8,"humidity":49,"rain":0.0,"pressure":960.7,"uv_index":8.35,"wind_gusts":19.1,"aqi":106,"pm10":26.8,"pm2_5":26.4,"mosquito_risk":4,"arthritis_risk":5,"migraine_risk":7,"frizz_risk":0,"updated_at":"2026-03-04T01:11:35.982044+05:30"},{"city":"Bidar","state":"Karnataka","latitude":17.9104,"longitude":77.5199,"temp":22.6,"humidity":58,"rain":0.0,"pressure":937.3,"uv_index":8.3,"wind_gusts":23.0,"aqi":98,"pm10":39.3,"pm2_5":37.4,"mosquito_risk":0,"arthritis_risk":5,"migraine_risk":7,"frizz_risk":0,"updated_at":"2026-03-04T01:11:35.982050+05:30"},{"city":"Hospet","state":"Karnataka","latitude":15.2689,"longitude":76.3909,"temp":27.9,"humidity":47,"rain":0.0,"pressure":957.5,"uv_index":8.65,"wind_gusts":23.4,"aqi":113,"pm10":46.1,"pm2_5":45.2,"mosquito_risk":4,"arthritis_risk":5,"migraine_risk":7,"frizz_risk":0,"updated_at":"2026-03-04T01:11:35.982057+05:30"},{"city":"Tirupur","state":"Tamil Nadu","latitude":11.1085,"longitude":77.3411,"temp":24.7,"humidity":65,"rain":0.0,"pressure":977.4,"uv_index":9.15,"wind_gusts":33.5,"aqi":124,"pm10":39.2,"pm2_5":38.5,"mosquito_risk":3,"arthritis_risk":5,"migraine_risk":7,"frizz_risk":1,"updated_at":"2026-03-04T01:11:35.982063+05:30"},{"city":"Alappuzha","state":"Kerala","latitude":9.4981,"longitude":76.3388,"temp":26.6,"humidity":83,"rain":0.0,"pressure":1010.6,"uv_index":8.95,"wind_gusts":35.3,"aqi":92,"pm10":40.7,"pm2_5":38.0,"mosquito_risk":7,"arthritis_risk":0,"migraine_risk":4,"frizz_risk":1,"updated_at":"2026-03-04T01:11:35.982069+05:30"},{"city":"Munnar","state":"Kerala","latitude":10.0889,"longitude":77.0595,"temp":18.2,"humidity":57,"rain":0.0,"pressure":856.5,"uv_index":9.45,"wind_gusts":26.3,"aqi":101,"pm10":37.1,"pm2_5":36.1,"mosquito_risk":0,"arthritis_risk":5,"migraine_risk":7,"frizz_risk":0,"updated_at":"2026-03-04T01:11:35.982076+05:30"},{"city":"Silchar","state":"Assam","latitude":24.8333,"longitude":92.7789,"temp":20.8,"humidity":76,"rain":0.0,"pressure":1008.3,"uv_index":7.45,"wind_gusts":13.7,"aqi":161,"pm10":97.1,"pm2_5":83.1,"mosquito_risk":3,"arthritis_risk":0,"migraine_risk":4,"frizz_risk":1,"updated_at":"2026-03-04T01:11:35.982083+05:30"},{"city":"Dibrugarh","state":"Assam","latitude":27.4728,"longitude":94.912,"temp":21.4,"humidity":85,"rain":0.0,"pressure":999.4,"uv_index":7.15,"wind_gusts":10.4,"aqi":135,"pm10":55.4,"pm2_5":47.3,"mosquito_risk":3,"arthritis_risk":5,"migraine_risk":7,"frizz_risk":1,"updated_at":"2026-03-04T01:11:35.982090+05:30"}]