[{"city":"Delhi","state":"Delhi","latitude":28.6139,"longitude":77.209,"temp":24.3,"humidity":47,"rain":0.0,"pressure":982.7,"uv_index":5.6,"aqi":151,"mosquito_risk":0,"arthritis_risk":5,"migraine_risk":3,"frizz_risk":0,"updated_at":"2026-02-27T20:11:16.225926+05:30"},{"city":"Mumbai","state":"Maharashtra","latitude":19.076,"longitude":72.8777,"temp":26.0,"humidity":66,"rain":0.0,"pressure":1009.1,"uv_index":7.3,"aqi":67,"mosquito_risk":7,"arthritis_risk":0,"migraine_risk":4,"frizz_risk":1,"updated_at":"2026-02-27T20:11:16.225969+05:30"},{"city":"Bangalore","state":"Karnataka","latitude":12.9716,"longitude":77.5946,"temp":26.0,"humidity":46,"rain":0.0,"pressure":910.4,"uv_index":8.9,"aqi":139,"mosquito_risk":4,"arthritis_risk":5,"migraine_risk":7,"frizz_risk":0,"updated_at":"2026-02-27T20:11:16.225984+05:30"},{"city":"Hyderabad","state":"Telangana","latitude":17.385,"longitude":78.4867,"temp":26.2,"humidity":58,"rain":0.0,"pressure":952.6,"uv_index":8.1,"aqi":126,"mosquito_risk":4,"arthritis_risk":5,"migraine_risk":7,"frizz_risk":1,"updated_at":"2026-02-27T20:11:16.225994+05:30"},{"city":"Chennai","state":"Tamil Nadu","latitude":13.0827,"longitude":80.2707,"temp":26.5,"humidity":76,"rain":0.0,"pressure":1007.4,"uv_index":8.65,"aqi":110,"mosquito_risk":7,"arthritis_risk":5,"migraine_risk":4,"frizz_risk":1,"updated_at":"2026-02-27T20:11:16.226002+05:30"},{"city":"Kolkata","state":"West Bengal","latitude":22.5726,"longitude":88.3639,"temp":24.4,"humidity":51,"rain":0.0,"pressure":1005.6,"uv_index":7.45,"aqi":161,"mosquito_risk":0,"arthritis_risk":5,"migraine_risk":4,"frizz_risk":0,"updated_at":"2026-02-27T20:11:16.226010+05:30"},{"city":"Pune","state":"Maharashtra","latitude":18.5204,"longitude":73.8567,"temp":23.4,"humidity":60,"rain":0.0,"pressure":947.7,"uv_index":7.85,"aqi":89,"mosquito_risk":0,"arthritis_risk":5,"migraine_risk":7,"frizz_risk":0,"updated_at":"2026-02-27T20:11:16.226017+05:30"},{"city":"Ahmedabad","state":"Gujarat","latitude":23.0225,"longitude":72.5714,"temp":26.8,"humidity":48,"rain":0.0,"pressure":1001.4,"uv_index":7.1,"aqi":83,"mosquito_risk":4,"arthritis_risk":5,"migraine_risk":4,"frizz_risk":0,"updated_at":"2026-02-27T20:11:16.226025+05:30"},{"city":"Jaipur","state":"Rajasthan","latitude":26.9124,"longitude":75.7873,"temp":26.8,"humidity":33,"rain":0.0,"pressure":958.6,"uv_index":6.4,"aqi":93,"mosquito_risk":4,"arthritis_risk":5,"migraine_risk":7,"frizz_risk":0,"updated_at":"2026-02-27T20:11:16.226036+05:30"},{"city":"Lucknow","state":"Uttar Pradesh","latitude":26.8467,"longitude":80.9462,"temp":23.6,"humidity":50,"rain":0.0,"pressure":993.7,"uv_index":6.05,"aqi":123,"mosquito_risk":0,"arthritis_risk":5,"migraine_risk":7,"frizz_risk":0,"updated_at":"2026-02-27T20:11:16.226044+05:30"},{"city":"Kanpur","state":"Uttar Pradesh","latitude":26.4499,"longitude":80.3319,"temp":23.1,"humidity":54,"rain":0.0,"pressure":991.9,"uv_index":6.05,"aqi":130,"mosquito_risk":0,"arthritis_risk":5,"migraine_risk":7,"frizz_risk":0,"updated_at":"2026-02-27T20:11:16.226050+05:30"},{"city":"Chandigarh","state":"Chandigarh","latitude":30.7333,"longitude":76.7794,"temp":20.2,"humidity":70,"rain":0.0,"pressure":968.5,"uv_index":5.5,"aqi":116,"mosquito_risk":3,"arthritis_risk":5,"migraine_risk":3,"frizz_risk":0,"updated_at":"2026-02-27T20:11:16.226057+05:30"},{"city":"Srinagar","state":"Jammu and Kashmir","latitude":34.0837,"longitude":74.7973,"temp":10.0,"humidity":61,"rain":0.0,"pressure":837.2,"uv_index":6.35,"aqi":153,"mosquito_risk":3,"arthritis_risk":5,"migraine_risk":7,"frizz_risk":0,"updated_at":"2026-02-27T20:11:16.226064+05:30"},{"city":"Jammu","state":"Jammu and Kashmir","latitude":32.7266,"longitude":74.857,"temp":21.8,"humidity":61,"rain":0.0,"pressure":972.2,"uv_index":6.05,"aqi":117,"mosquito_risk":3,"arthritis_risk":5,"migraine_risk":7,"frizz_risk":0,"updated_at":"2026-02-27T20:11:16.226070+05:30"},{"city":"Amritsar","state":"Punjab","latitude":31.634,"longitude":74.8723,"temp":21.2,"humidity":66,"rain":0.0,"pressure":980.2,"uv_index":6.0,"aqi":163,"mosquito_risk":3,"arthritis_risk":5,"migraine_risk":3,"frizz_risk":0,"updated_at":"2026-02-27T20:11:16.226076+05:30"},{"city":"Ludhiana","state":"Punjab","latitude":30.901,"longitude":75.8573,"temp":22.1,"humidity":65,"rain":0.0,"pressure":978.3,"uv_index":5.75,"aqi":173,"mosquito_risk":3,"arthritis_risk":5,"migraine_risk":3,"frizz_risk":0,"updated_at":"2026-02-27T20:11:16.226083+05:30"},{"city":"Jalandhar","state":"Punjab","latitude":31.326,"longitude":75.5762,"temp":22.2,"humidity":64,"rain":0.0,"pressure":979.5,"uv_index":5.9,"aqi":175,"mosquito_risk":3,"arthritis_risk":5,"migraine_risk":3,"frizz_risk":0,"updated_at":"2026-02-27T20:11:16.226089+05:30"},{"city":"Dehradun","state":"Uttarakhand","latitude":30.6284,"longitude":78.0322,"temp":10.9,"humidity":91,"rain":0.0,"pressure":826.9,"uv_index":5.85,"aqi":122,"mosquito_risk":3,"arthritis_risk":10,"migraine_risk":3,"frizz_risk":0,"updated_at":"2026-02-27T20:11:16.226096+05:30"},{"city":"Shimla","state":"Himachal Pradesh","latitude":31.1048,"longitude":77.1734,"temp":9.9,"humidity":78,"rain":0.0,"pressure":781.1,"uv_index":5.9,"aqi":105,"mosquito_risk":3,"arthritis_risk":5,"migraine_risk":3,"frizz_risk":0,"updated_at":"2026-02-27T20:11:16.226105+05:30"},{"city":"Manali","state":"Himachal Pradesh","latitude":32.2396,"longitude":77.1887,"temp":11.5,"humidity":59,"rain":0.0,"pressure":816.6,"uv_index":7.6,"aqi":134,"mosquito_risk":0,"arthritis_risk":5,"migraine_risk":7,"frizz_risk":0,"updated_at":"2026-02-27T20:11:16.226111+05:30"},{"city":"Gurgaon","state":"Haryana","latitude":28.4595,"longitude":77.0266,"temp":21.7,"humidity":60,"rain":0.0,"pressure":980.8,"uv_index":5.7,"aqi":156,"mosquito_risk":0,"arthritis_risk":5,"migraine_risk":3,"frizz_risk":0,"updated_at":"2026-02-27T20:11:16.226118+05:30"},{"city":"Noida","state":"Uttar Pradesh","latitude":28.5355,"longitude":77.391,"temp":24.1,"humidity":48,"rain":0.0,"pressure":984.3,"uv_index":5.6,"aqi":156,"mosquito_risk":0,"arthritis_risk":5,"migraine_risk":3,"frizz_risk":0,"updated_at":"2026-02-27T20:11:16.226124+05:30"},{"city":"Ghaziabad","state":"Uttar Pradesh","latitude":28.6692,"longitude":77.4538,"temp":22.8,"humidity":57,"rain":0.0,"pressure":982.4,"uv_index":5.55,"aqi":151,"mosquito_risk":0,"arthritis_risk":5,"migraine_risk":3,"frizz_risk":0,"updated_at":"2026-02-27T20:11:16.226130+05:30"},{"city":"Faridabad","state":"Haryana","latitude":28.4089,"longitude":77.3178,"temp":24.2,"humidity":43,"rain":0.0,"pressure":983.5,"uv_index":5.65,"aqi":156,"mosquito_risk":0,"arthritis_risk":5,"migraine_risk":3,"frizz_risk":0,"updated_at":"2026-02-27T20:11:16.226136+05:30"},{"city":"Meerut","state":"Uttar Pradesh","latitude":28.9845,"longitude":77.7064,"temp":21.7,"humidity":65,"rain":0.0,"pressure":981.1,"uv_index":5.45,"aqi":151,"mosquito_risk":3,"arthritis_risk":5,"migraine_risk":3,"frizz_risk":0,"updated_at":"2026-02-27T20:11:16.226143+05:30"},{"city":"Agra","state":"Uttar Pradesh","latitude":27.1767,"longitude":78.0081,"temp":22.3,"humidity":62,"rain":0.0,"pressure":987.5,"uv_index":5.9,"aqi":141,"mosquito_risk":3,"arthritis_risk":5,"migraine_risk":3,"frizz_risk":0,"updated_at":"2026-02-27T20:11:16.226152+05:30"},{"city":"Varanasi","state":"Uttar Pradesh","latitude":25.3176,"longitude":82.9739,"temp":21.3,"humidity":63,"rain":0.0,"pressure":998.2,"uv_index":6.7,"aqi":121,"mosquito_risk":3,"arthritis_risk":5,"migraine_risk":7,"frizz_risk":0,"updated_at":"2026-02-27T20:11:16.226159+05:30"},{"city":"Prayagraj","state":"Uttar Pradesh","latitude":25.4358,"longitude":81.8463,"temp":22.9,"humidity":55,"rain":0.0,"pressure":996.3,"uv_index":6.6,"aqi":147,"mosquito_risk":0,"arthritis_risk":5,"migraine_risk":7,"frizz_risk":0,"updated_at":"2026-02-27T20:11:16.226166+05:30"},{"city":"Gorakhpur","state":"Uttar Pradesh","latitude":26.7606,"longitude":83.3732,"temp":20.3,"humidity":63,"rain":0.0,"pressure":997.3,"uv_index":6.45,"aqi":153,"mosquito_risk":3,"arthritis_risk":5,"migraine_risk":7,"frizz_risk":0,"updated_at":"2026-02-27T20:11:16.226174+05:30"},{"city":"Bareilly","state":"Uttar Pradesh","latitude":28.367,"longitude":79.4304,"temp":21.0,"humidity":61,"rain":0.0,"pressure":986.6,"uv_index":5.75,"aqi":148,"mosquito_risk":3,"arthritis_risk":5,"migraine_risk":3,"frizz_risk":0,"updated_at":"2026-02-27T20:11:16.226180+05:30"},{"city":"Aligarh","state":"Uttar Pradesh","latitude":27.8974,"longitude":78.088,"temp":23.2,"humidity":50,"rain":0.0,"pressure":985.4,"uv_index":5.7,"aqi":152,"mosquito_risk":0,"arthritis_risk":5,"migraine_risk":3,"frizz_risk":0,"updated_at":"2026-02-27T20:11:16.226187+05:30"},{"city":"Moradabad","state":"Uttar Pradesh","latitude":28.8386,"longitude":78.7733,"temp":20.3,"humidity":64,"rain":0.0,"pressure":983.3,"uv_index":5.6,"aqi":151,"mosquito_risk":3,"arthritis_risk":5,"migraine_risk":3,"frizz_risk":0,"updated_at":"2026-02-27T20:11:16.226193+05:30"},{"city":"Saharanpur","state":"Uttar Pradesh","latitude":29.9637,"longitude":77.546,"temp":19.6,"humidity":70,"rain":0.0,"pressure":975.3,"uv_index":5.25,"aqi":155,"mosquito_risk":3,"arthritis_risk":5,"migraine_risk":3,"frizz_risk":0,"updated_at":"2026-02-27T20:11:16.226199+05:30"},{"city":"Jhansi","state":"Uttar Pradesh","latitude":25.4484,"longitude":78.5685,"temp":24.8,"humidity":49,"rain":0.0,"pressure":977.7,"uv_index":6.55,"aqi":100,"mosquito_risk":0,"arthritis_risk":5,"migraine_risk":7,"frizz_risk":0,"updated_at":"2026-02-27T20:11:19.437910+05:30"},{"city":"Surat","state":"Gujarat","latitude":21.1702,"longitude":72.8311,"temp":24.2,"humidity":72,"rain":0.0,"pressure":1007.1,"uv_index":7.05,"aqi":75,"mosquito_risk":3,"arthritis_risk":5,"migraine_risk":4,"frizz_risk":1,"updated_at":"2026-02-27T20:11:19.437939+05:30"},{"city":"Vadodara","state":"Gujarat","latitude":22.3072,"longitude":73.1812,"temp":25.2,"humidity":55,"rain":0.0,"pressure":1004.3,"uv_index":7.1,"aqi":85,"mosquito_risk":4,"arthritis_risk":5,"migraine_risk":4,"frizz_risk":0,"updated_at":"2026-02-27T20:11:19.437949+05:30"},{"city":"Rajkot","state":"Gujarat","latitude":22.3039,"longitude":70.8022,"temp":27.9,"humidity":41,"rain":0.0,"pressure":993.2,"uv_index":7.0,"aqi":100,"mosquito_risk":4,"arthritis_risk":5,"migraine_risk":7,"frizz_risk":0,"updated_at":"2026-02-27T20:11:19.437957+05:30"},{"city":"Thane","state":"Maharashtra","latitude":19.2183,"longitude":72.9781,"temp":24.8,"humidity":68,"rain":0.0,"pressure":1008.6,"uv_index":7.3,"aqi":67,"mosquito_risk":3,"arthritis_risk":0,"migraine_risk":4,"frizz_risk":1,"updated_at":"2026-02-27T20:11:19.437964+05:30"},{"city":"Nagpur","state":"Maharashtra","latitude":21.1458,"longitude":79.0882,"temp":26.1,"humidity":51,"rain":0.0,"pressure":972.9,"uv_index":7.45,"aqi":143,"mosquito_risk":4,"arthritis_risk":5,"migraine_risk":7,"frizz_risk":0,"updated_at":"2026-02-27T20:11:19.437971+05:30"},{"city":"Nashik","state":"Maharashtra","latitude":19.9975,"longitude":73.7898,"temp":21.5,"humidity":68,"rain":0.0,"pressure":944.9,"uv_index":7.5,"aqi":56,"mosquito_risk":3,"arthritis_risk":5,"migraine_risk":7,"frizz_risk":0,"updated_at":"2026-02-27T20:11:19.437978+05:30"},{"city":"Aurangabad","state":"Maharashtra","latitude":19.8762,"longitude":75.3433,"temp":26.6,"humidity":42,"rain":0.0,"pressure":942.7,"uv_index":7.8,"aqi":92,"mosquito_risk":4,"arthritis_risk":5,"migraine_risk":7,"frizz_risk":0,"updated_at":"2026-02-27T20:11:19.437985+05:30"},{"city":"Solapur","state":"Maharashtra","latitude":17.6599,"longitude":75.9064,"temp":27.3,"humidity":46,"rain":0.0,"pressure":956.1,"uv_index":8.05,"aqi":100,"mosquito_risk":4,"arthritis_risk":5,"migraine_risk":7,"frizz_risk":0,"updated_at":"2026-02-27T20:11:19.437992+05:30"},{"city":"Kolhapur","state":"Maharashtra","latitude":16.705,"longitude":74.2433,"temp":23.4,"humidity":46,"rain":0.0,"pressure":947.1,"uv_index":8.3,"aqi":64,"mosquito_risk":0,"arthritis_risk":5,"migraine_risk":7,"frizz_risk":0,"updated_at":"2026-02-27T20:11:19.437998+05:30"},{"city":"Goa","state":"Goa","latitude":15.2993,"longitude":74.124,"temp":26.6,"humidity":67,"rain":0.0,"pressure":997.3,"uv_index":8.3,"aqi":54,"mosquito_risk":7,"arthritis_risk":5,"migraine_risk":7,"frizz_risk":1,"updated_at":"2026-02-27T20:11:19.438005+05:30"},{"city":"Jodhpur","state":"Rajasthan","latitude":26.2389,"longitude":73.0243,"temp":24.7,"humidity":37,"rain":0.0,"pressure":981.3,"uv_index":6.7,"aqi":80,"mosquito_risk":0,"arthritis_risk":5,"migraine_risk":7,"frizz_risk":0,"updated_at":"2026-02-27T20:11:19.438011+05:30"},{"city":"Udaipur","state":"Rajasthan","latitude":24.5854,"longitude":73.7125,"temp":22.1,"humidity":41,"rain":0.0,"pressure":945.6,"uv_index":7.35,"aqi":100,"mosquito_risk":0,"arthritis_risk":5,"migraine_risk":7,"frizz_risk":0,"updated_at":"2026-02-27T20:11:19.438017+05:30"},{"city":"Kota","state":"Rajasthan","latitude":25.2138,"longitude":75.8648,"temp":24.6,"humidity":53,"rain":0.0,"pressure":977.8,"uv_index":6.75,"aqi":89,"mosquito_risk":0,"arthritis_risk":5,"migraine_risk":7,"frizz_risk":0,"updated_at":"2026-02-27T20:11:19.438024+05:30"},{"city":"Bikaner","state":"Rajasthan","latitude":28.0229,"longitude":73.3119,"temp":27.4,"humidity":33,"rain":0.0,"pressure":980.0,"uv_index":6.35,"aqi":81,"mosquito_risk":4,"arthritis_risk":5,"migraine_risk":7,"frizz_risk":0,"updated_at":"2026-02-27T20:11:19.438031+05:30"},{"city":"Ajmer","state":"Rajasthan","latitude":26.4499,"longitude":74.6399,"temp":26.2,"humidity":38,"rain":0.0,"pressure":953.2,"uv_index":6.7,"aqi":96,"mosquito_risk":4,"arthritis_risk":5,"migraine_risk":7,"frizz_risk":0,"updated_at":"2026-02-27T20:11:19.438037+05:30"},{"city":"Gwalior","state":"Madhya Pradesh","latitude":26.2183,"longitude":78.1828,"temp":23.3,"humidity":66,"rain":0.0,"pressure":983.0,"uv_index":6.25,"aqi":88,"mosquito_risk":3,"arthritis_risk":5,"migraine_risk":7,"frizz_risk":1,"updated_at":"2026-02-27T20:11:19.438043+05:30"},{"city":"Indore","state":"Madhya Pradesh","latitude":22.7196,"longitude":75.8577,"temp":21.8,"humidity":62,"rain":0.0,"pressure":947.0,"uv_index":7.25,"aqi":105,"mosquito_risk":3,"arthritis_risk":5,"migraine_risk":7,"frizz_risk":0,"updated_at":"2026-02-27T20:11:19.438049+05:30"},{"city":"Bhopal","state":"Madhya Pradesh","latitude":23.2599,"longitude":77.4126,"temp":24.6,"humidity":57,"rain":0.0,"pressure":953.2,"uv_index":7.1,"aqi":94,"mosquito_risk":0,"arthritis_risk":5,"migraine_risk":7,"frizz_risk":0,"updated_at":"2026-02-27T20:11:19.438056+05:30"},{"city":"Jabalpur","state":"Madhya Pradesh","latitude":23.1815,"longitude":79.9864,"temp":25.9,"humidity":44,"rain":0.0,"pressure":961.5,"uv_index":7.15,"aqi":81,"mosquito_risk":4,"arthritis_risk":5,"migraine_risk":7,"frizz_risk":0,"updated_at":"2026-02-27T20:11:19.438062+05:30"},{"city":"Ujjain","state":"Madhya Pradesh","latitude":23.1765,"longitude":75.7885,"temp":22.7,"humidity":65,"rain":0.0,"pressure":952.9,"uv_index":7.15,"aqi":89,"mosquito_risk":3,"arthritis_risk":5,"migraine_risk":7,"frizz_risk":0,"updated_at":"2026-02-27T20:11:19.438069+05:30"},{"city":"Visakhapatnam","state":"Andhra Pradesh","latitude":17.6868,"longitude":83.2185,"temp":25.5,"humidity":83,"rain":0.0,"pressure":1004.1,"uv_index":8.15,"aqi":100,"mosquito_risk":7,"arthritis_risk":5,"migraine_risk":4,"frizz_risk":1,"updated_at":"2026-02-27T20:11:19.438075+05:30"},{"city":"Vijayawada","state":"Andhra Pradesh","latitude":16.5062,"longitude":80.648,"temp":27.9,"humidity":63,"rain":0.0,"pressure":1002.1,"uv_index":8.2,"aqi":104,"mosquito_risk":7,"arthritis_risk":5,"migraine_risk":4,"frizz_risk":1,"updated_at":"2026-02-27T20:11:19.438081+05:30"},{"city":"Guntur","state":"Andhra Pradesh","latitude":16.3067,"longitude":80.4365,"temp":26.5,"humidity":69,"rain":0.0,"pressure":1003.8,"uv_index":8.2,"aqi":111,"mosquito_risk":7,"arthritis_risk":5,"migraine_risk":4,"frizz_risk":1,"updated_at":"2026-02-27T20:11:19.438088+05:30"},{"city":"Nellore","state":"Andhra Pradesh","latitude":14.4426,"longitude":79.9865,"temp":26.2,"humidity":78,"rain":0.0,"pressure":1006.1,"uv_index":8.45,"aqi":153,"mosquito_risk":7,"arthritis_risk":5,"migraine_risk":4,"frizz_risk":1,"updated_at":"2026-02-27T20:11:19.438095+05:30"},{"city":"Kurnool","state":"Andhra Pradesh","latitude":15.8281,"longitude":78.0373,"temp":29.3,"humidity":42,"rain":0.0,"pressure":975.8,"uv_index":8.25,"aqi":130,"mosquito_risk":4,"arthritis_risk":5,"migraine_risk":7,"frizz_risk":0,"updated_at":"2026-02-27T20:11:19.438101+05:30"},{"city":"Kakinada","state":"Andhra Pradesh","latitude":16.9891,"longitude":82.2475,"temp":25.1,"humidity":84,"rain":0.0,"pressure":1007.6,"uv_index":8.15,"aqi":93,"mosquito_risk":7,"arthritis_risk":5,"migraine_risk":4,"frizz_risk":1,"updated_at":"2026-02-27T20:11:19.438108+05:30"},{"city":"Tirupati","state":"Andhra Pradesh","latitude":13.6288,"longitude":79.4192,"temp":26.5,"humidity":55,"rain":0.0,"pressure":991.7,"uv_index":8.6,"aqi":124,"mosquito_risk":4,"arthritis_risk":5,"migraine_risk":7,"frizz_risk":1,"updated_at":"2026-02-27T20:11:19.438114+05:30"},{"city":"Warangal","state":"Telangana","latitude":17.9689,"longitude":79.5941,"temp":28.0,"humidity":51,"rain":0.0,"pressure":978.2,"uv_index":7.95,"aqi":154,"mosquito_risk":4,"arthritis_risk":5,"migraine_risk":7,"frizz_risk":1,"updated_at":"2026-02-27T20:11:19.438120+05:30"},{"city":"Nizamabad","state":"Telangana","latitude":18.6725,"longitude":78.0941,"temp":27.0,"humidity":53,"rain":0.0,"pressure":963.9,"uv_index":7.85,"aqi":141,"mosquito_risk":4,"arthritis_risk":5,"migraine_risk":7,"frizz_risk":1,"updated_at":"2026-02-27T20:11:19.438126+05:30"},{"city":"Mysore","state":"Karnataka","latitude":12.2958,"longitude":76.6396,"temp":24.4,"humidity":69,"rain":0.0,"pressure":927.3,"uv_index":8.85,"aqi":155,"mosquito_risk":3,"arthritis_risk":5,"migraine_risk":7,"frizz_risk":1,"updated_at":"2026-02-27T20:11:19.438131+05:30"},{"city":"Mangalore","state":"Karnataka","latitude":12.9141,"longitude":74.856,"temp":28.6,"humidity":75,"rain":0.0,"pressure":1005.9,"uv_index":8.55,"aqi":44,"mosquito_risk":7,"arthritis_risk":5,"migraine_risk":4,"frizz_risk":1,"updated_at":"2026-02-27T20:11:19.438137+05:30"},{"city":"Hubli-Dharwad","state":"Karnataka","latitude":15.3647,"longitude":75.124,"temp":26.0,"humidity":50,"rain":0.0,"pressure":939.6,"uv_index":8.45,"aqi":107,"mosquito_risk":4,"arthritis_risk":5,"migraine_risk":7,"frizz_risk":0,"updated_at":"2026-02-27T20:11:19.438143+05:30"},{"city":"Belgaum","state":"Karnataka","latitude":15.8497,"longitude":74.4977,"temp":23.9,"humidity":42,"rain":0.0,"pressure":924.7,"uv_index":8.5,"aqi":77,"mosquito_risk":0,"arthritis_risk":5,"migraine_risk":7,"frizz_risk":0,"updated_at":"2026-02-27T20:11:22.645552+05:30"},{"city":"Coimbatore","state":"Tamil Nadu","latitude":11.0168,"longitude":76.9558,"temp":25.1,"humidity":76,"rain":0.0,"pressure":961.0,"uv_index":4.0,"aqi":117,"mosquito_risk":7,"arthritis_risk":5,"migraine_risk":3,"frizz_risk":1,"updated_at":"2026-02-27T20:11:22.645583+05:30"},{"city":"Madurai","state":"Tamil Nadu","latitude":9.9252,"longitude":78.1198,"temp":28.3,"humidity":62,"rain":0.0,"pressure":992.4,"uv_index":8.95,"aqi":150,"mosquito_risk":7,"arthritis_risk":5,"migraine_risk":7,"frizz_risk":1,"updated_at":"2026-02-27T20:11:22.645595+05:30"},{"city":"Trichy","state":"Tamil Nadu","latitude":10.7905,"longitude":78.7047,"temp":27.9,"humidity":64,"rain":0.0,"pressure":999.2,"uv_index":8.85,"aqi":131,"mosquito_risk":7,"arthritis_risk":5,"migraine_risk":7,"frizz_risk":1,"updated_at":"2026-02-27T20:11:22.645604+05:30"},{"city":"Salem","state":"Tamil Nadu","latitude":11.6643,"longitude":78.146,"temp":29.3,"humidity":49,"rain":0.0,"pressure":976.1,"uv_index":8.8,"aqi":144,"mosquito_risk":4,"arthritis_risk":5,"migraine_risk":7,"frizz_risk":1,"updated_at":"2026-02-27T20:11:22.645614+05:30"},{"city":"Tirunelveli","state":"Tamil Nadu","latitude":8.7139,"longitude":77.7567,"temp":27.5,"humidity":75,"rain":0.0,"pressure":1002.9,"uv_index":8.95,"aqi":138,"mosquito_risk":7,"arthritis_risk":5,"migraine_risk":4,"frizz_risk":1,"updated_at":"2026-02-27T20:11:22.645623+05:30"},{"city":"Vellore","state":"Tamil Nadu","latitude":12.9165,"longitude":79.1325,"temp":27.0,"humidity":60,"rain":0.0,"pressure":984.1,"uv_index":8.7,"aqi":128,"mosquito_risk":4,"arthritis_risk":5,"migraine_risk":7,"frizz_risk":1,"updated_at":"2026-02-27T20:11:22.645633+05:30"},{"city":"Erode","state":"Tamil Nadu","latitude":11.341,"longitude":77.7172,"temp":30.2,"humidity":46,"rain":0.0,"pressure":987.5,"uv_index":8.85,"aqi":118,"mosquito_risk":0,"arthritis_risk":5,"migraine_risk":7,"frizz_risk":1,"updated_at":"2026-02-27T20:11:22.645642+05:30"},{"city":"Kochi","state":"Kerala","latitude":9.9312,"longitude":76.2673,"temp":28.3,"humidity":78,"rain":0.0,"pressure":1008.0,"uv_index":8.8,"aqi":121,"mosquito_risk":7,"arthritis_risk":0,"migraine_risk":4,"frizz_risk":1,"updated_at":"2026-02-27T20:11:22.645652+05:30"},{"city":"Thiruvananthapuram","state":"Kerala","latitude":8.5241,"longitude":76.9366,"temp":28.0,"humidity":78,"rain":0.0,"pressure":1007.6,"uv_index":8.75,"aqi":137,"mosquito_risk":7,"arthritis_risk":5,"migraine_risk":4,"frizz_risk":1,"updated_at":"2026-02-27T20:11:22.645681+05:30"},{"city":"Kozhikode","state":"Kerala","latitude":11.2588,"longitude":75.7804,"temp":28.9,"humidity":74,"rain":0.0,"pressure":1007.0,"uv_index":8.65,"aqi":74,"mosquito_risk":7,"arthritis_risk":5,"migraine_risk":4,"frizz_risk":1,"updated_at":"2026-02-27T20:11:22.645692+05:30"},{"city":"Thrissur","state":"Kerala","latitude":10.5276,"longitude":76.2144,"temp":27.5,"humidity":78,"rain":0.0,"pressure":1006.3,"uv_index":8.75,"aqi":101,"mosquito_risk":7,"arthritis_risk":5,"migraine_risk":4,"frizz_risk":1,"updated_at":"2026-02-27T20:11:22.645703+05:30"},{"city":"Kannur","state":"Kerala","latitude":11.8745,"longitude":75.3704,"temp":28.5,"humidity":69,"rain":0.0,"pressure":1006.2,"uv_index":8.65,"aqi":46,"mosquito_risk":7,"arthritis_risk":5,"migraine_risk":4,"frizz_risk":1,"updated_at":"2026-02-27T20:11:22.645712+05:30"},{"city":"Patna","state":"Bihar","latitude":25.5941,"longitude":85.1376,"temp":23.4,"humidity":53,"rain":0.0,"pressure":1000.8,"uv_index":6.9,"aqi":151,"mosquito_risk":0,"arthritis_risk":5,"migraine_risk":4,"frizz_risk":0,"updated_at":"2026-02-27T20:11:22.645722+05:30"},{"city":"Gaya","state":"Bihar","latitude":24.7914,"longitude":85.0002,"temp":20.7,"humidity":65,"rain":0.0,"pressure":994.4,"uv_index":7.0,"aqi":115,"mosquito_risk":3,"arthritis_risk":5,"migraine_risk":7,"frizz_risk":0,"updated_at":"2026-02-27T20:11:22.645732+05:30"},{"city":"Muzaffarpur","state":"Bihar","latitude":26.1209,"longitude":85.3647,"temp":21.1,"humidity":59,"rain":0.0,"pressure":1000.7,"uv_index":6.85,"aqi":154,"mosquito_risk":0,"arthritis_risk":5,"migraine_risk":4,"frizz_risk":0,"updated_at":"2026-02-27T20:11:22.645741+05:30"},{"city":"Bhagalpur","state":"Bihar","latitude":25.2425,"longitude":87.0117,"temp":21.3,"humidity":61,"rain":0.0,"pressure":1001.5,"uv_index":6.9,"aqi":138,"mosquito_risk":3,"arthritis_risk":5,"migraine_risk":4,"frizz_risk":0,"updated_at":"2026-02-27T20:11:22.645750+05:30"},{"city":"Ranchi","state":"Jharkhand","latitude":23.3441,"longitude":85.3096,"temp":19.8,"humidity":42,"rain":0.0,"pressure":937.4,"uv_index":7.65,"aqi":119,"mosquito_risk":0,"arthritis_risk":5,"migraine_risk":7,"frizz_risk":0,"updated_at":"2026-02-27T20:11:22.645759+05:30"},{"city":"Jamshedpur","state":"Jharkhand","latitude":22.8046,"longitude":86.2029,"temp":25.1,"humidity":49,"rain":0.0,"pressure":990.5,"uv_index":7.55,"aqi":137,"mosquito_risk":4,"arthritis_risk":5,"migraine_risk":7,"frizz_risk":0,"updated_at":"2026-02-27T20:11:22.645769+05:30"},{"city":"Dhanbad","state":"Jharkhand","latitude":23.7957,"longitude":86.4304,"temp":24.2,"humidity":27,"rain":0.0,"pressure":979.9,"uv_index":7.4,"aqi":129,"mosquito_risk":0,"arthritis_risk":5,"migraine_risk":7,"frizz_risk":0,"updated_at":"2026-02-27T20:11:22.645778+05:30"},{"city":"Bokaro","state":"Jharkhand","latitude":23.6693,"longitude":86.1511,"temp":22.9,"humidity":35,"rain":0.0,"pressure":984.2,"uv_index":7.4,"aqi":126,"mosquito_risk":0,"arthritis_risk":5,"migraine_risk":7,"frizz_risk":0,"updated_at":"2026-02-27T20:11:22.645788+05:30"},{"city":"Bhubaneswar","state":"Odisha","latitude":20.2961,"longitude":85.8245,"temp":24.6,"humidity":68,"rain":0.0,"pressure":1002.4,"uv_index":7.85,"aqi":154,"mosquito_risk":3,"arthritis_risk":5,"migraine_risk":4,"frizz_risk":1,"updated_at":"2026-02-27T20:11:22.645797+05:30"},{"city":"Cuttack","state":"Odisha","latitude":20.4625,"longitude":85.8828,"temp":26.7,"humidity":44,"rain":0.0,"pressure":1003.9,"uv_index":7.9,"aqi":154,"mosquito_risk":4,"arthritis_risk":5,"migraine_risk":4,"frizz_risk":0,"updated_at":"2026-02-27T20:11:22.645806+05:30"},{"city":"Rourkela","state":"Odisha","latitude":22.2604,"longitude":84.8536,"temp":23.9,"humidity":46,"rain":0.0,"pressure":984.6,"uv_index":7.45,"aqi":129,"mosquito_risk":0,"arthritis_risk":5,"migraine_risk":7,"frizz_risk":0,"updated_at":"2026-02-27T20:11:22.645815+05:30"},{"city":"Raipur","state":"Chhattisgarh","latitude":21.2514,"longitude":81.6296,"temp":26.6,"humidity":42,"rain":0.0,"pressure":974.8,"uv_index":7.55,"aqi":151,"mosquito_risk":4,"arthritis_risk":5,"migraine_risk":7,"frizz_risk":0,"updated_at":"2026-02-27T20:11:22.645824+05:30"},{"city":"Bhilai","state":"Chhattisgarh","latitude":21.1938,"longitude":81.3509,"temp":25.4,"humidity":45,"rain":0.0,"pressure":975.0,"uv_index":7.55,"aqi":153,"mosquito_risk":4,"arthritis_risk":5,"migraine_risk":7,"frizz_risk":0,"updated_at":"2026-02-27T20:11:22.645834+05:30"},{"city":"Guwahati","state":"Assam","latitude":26.1158,"longitude":91.7086,"temp":21.0,"humidity":82,"rain":0.0,"pressure":1000.9,"uv_index":6.9,"aqi":142,"mosquito_risk":3,"arthritis_risk":5,"migraine_risk":4,"frizz_risk":1,"updated_at":"2026-02-27T20:11:22.645843+05:30"},{"city":"Agartala","state":"Tripura","latitude":23.8315,"longitude":91.2868,"temp":20.8,"humidity":56,"rain":0.0,"pressure":1005.6,"uv_index":7.25,"aqi":172,"mosquito_risk":0,"arthritis_risk":5,"migraine_risk":4,"frizz_risk":0,"updated_at":"2026-02-27T20:11:22.645852+05:30"},{"city":"Shillong","state":"Meghalaya","latitude":25.5788,"longitude":91.8933,"temp":7.9,"humidity":91,"rain":0.0,"pressure":851.3,"uv_index":5.4,"aqi":117,"mosquito_risk":3,"arthritis_risk":10,"migraine_risk":3,"frizz_risk":0,"updated_at":"2026-02-27T20:11:22.645862+05:30"},{"city":"Imphal","state":"Manipur","latitude":24.817,"longitude":93.9368,"temp":14.8,"humidity":70,"rain":0.0,"pressure":920.9,"uv_index":7.45,"aqi":157,"mosquito_risk":3,"arthritis_risk":5,"migraine_risk":7,"frizz_risk":0,"updated_at":"2026-02-27T20:11:22.645871+05:30"},{"city":"Aizawl","state":"Mizoram","latitude":23.7271,"longitude":92.7176,"temp":15.4,"humidity":62,"rain":0.0,"pressure":890.2,"uv_index":7.4,"aqi":172,"mosquito_risk":3,"arthritis_risk":5,"migraine_risk":7,"frizz_risk":0,"updated_at":"2026-02-27T20:11:22.645881+05:30"},{"city":"Kohima","state":"Nagaland","latitude":25.6701,"longitude":94.1077,"temp":10.9,"humidity":78,"rain":0.0,"pressure":851.0,"uv_index":5.85,"aqi":156,"mosquito_risk":3,"arthritis_risk":5,"migraine_risk":3,"frizz_risk":0,"updated_at":"2026-02-27T20:11:22.645894+05:30"},{"city":"Gangtok","state":"Sikkim","latitude":27.3314,"longitude":88.6138,"temp":10.5,"humidity":96,"rain":0.1,"pressure":833.4,"uv_index":4.8,"aqi":153,"mosquito_risk":6,"arthritis_risk":10,"migraine_risk":3,"frizz_risk":0,"updated_at":"2026-02-27T20:11:22.645905+05:30"},{"city":"Siliguri","state":"West Bengal","latitude":26.7271,"longitude":88.3953,"temp":18.8,"humidity":66,"rain":0.0,"pressure":993.4,"uv_index":6.85,"aqi":163,"mosquito_risk":3,"arthritis_risk":5,"migraine_risk":7,"frizz_risk":0,"updated_at":"2026-02-27T20:11:25.854222+05:30"},{"city":"Durgapur","state":"West Bengal","latitude":23.5204,"longitude":87.3119,"temp":24.4,"humidity":36,"rain":0.0,"pressure":995.0,"uv_index":7.4,"aqi":119,"mosquito_risk":0,"arthritis_risk":5,"migraine_risk":7,"frizz_risk":0,"updated_at":"2026-02-27T20:11:25.854250+05:30"},{"city":"Asansol","state":"West Bengal","latitude":23.6739,"longitude":86.9524,"temp":25.1,"humidity":30,"rain":0.0,"pressure":993.6,"uv_index":7.4,"aqi":122,"mosquito_risk":4,"arthritis_risk":5,"migraine_risk":7,"frizz_risk":0,"updated_at":"2026-02-27T20:11:25.854260+05:30"},{"city":"Pondicherry","state":"Puducherry","latitude":11.9139,"longitude":79.8145,"temp":24.8,"humidity":85,"rain":0.0,"pressure":1008.6,"uv_index":8.7,"aqi":105,"mosquito_risk":3,"arthritis_risk":0,"migraine_risk":4,"frizz_risk":1,"updated_at":"2026-02-27T20:11:25.854270+05:30"},{"city":"Port Blair","state":"Andaman and Nicobar Islands","latitude":11.6234,"longitude":92.7265,"temp":26.2,"humidity":85,"rain":0.0,"pressure":1006.0,"uv_index":8.65,"aqi":39,"mosquito_risk":7,"arthritis_risk":5,"migraine_risk":4,"frizz_risk":1,"updated_at":"2026-02-27T20:11:25.854278+05:30"},{"city":"Haridwar","state":"Uttarakhand","latitude":29.9457,"longitude":78.1642,"temp":20.3,"humidity":68,"rain":0.0,"pressure":974.2,"uv_index":5.3,"aqi":134,"mosquito_risk":3,"arthritis_risk":5,"migraine_risk":3,"frizz_risk":0,"updated_at":"2026-02-27T20:11:25.854285+05:30"},{"city":"Rishikesh","state":"Uttarakhand","latitude":30.0869,"longitude":78.2676,"temp":19.1,"humidity":72,"rain":0.0,"pressure":966.9,"uv_index":5.4,"aqi":132,"mosquito_risk":3,"arthritis_risk":5,"migraine_risk":3,"frizz_risk":0,"updated_at":"2026-02-27T20:11:25.854292+05:30"},{"city":"Nainital","state":"Uttarakhand","latitude":29.3919,"longitude":79.4542,"temp":14.3,"humidity":56,"rain":0.0,"pressure":803.5,"uv_index":6.2,"aqi":139,"mosquito_risk":0,"arthritis_risk":5,"migraine_risk":7,"frizz_risk":0,"updated_at":"2026-02-27T20:11:25.854299+05:30"},{"city":"Mussoorie","state":"Uttarakhand","latitude":30.4599,"longitude":78.0664,"temp":11.7,"humidity":79,"rain":0.0,"pressure":799.2,"uv_index":5.75,"aqi":143,"mosquito_risk":3,"arthritis_risk":5,"migraine_risk":3,"frizz_risk":0,"updated_at":"2026-02-27T20:11:25.854306+05:30"},{"city":"Dharamshala","state":"Himachal Pradesh","latitude":32.219,"longitude":76.3234,"temp":16.0,"humidity":59,"rain":0.0,"pressure":867.1,"uv_index":5.95,"aqi":117,"mosquito_risk":0,"arthritis_risk":5,"migraine_risk":3,"frizz_risk":0,"updated_at":"2026-02-27T20:11:25.854313+05:30"},{"city":"Dalhousie","state":"Himachal Pradesh","latitude":32.5387,"longitude":75.971,"temp":14.0,"humidity":53,"rain":0.0,"pressure":801.4,"uv_index":6.2,"aqi":125,"mosquito_risk":0,"arthritis_risk":5,"migraine_risk":7,"frizz_risk":0,"updated_at":"2026-02-27T20:11:25.854320+05:30"},{"city":"Patiala","state":"Punjab","latitude":30.3398,"longitude":76.3869,"temp":21.0,"humidity":66,"rain":0.0,"pressure":978.0,"uv_index":5.4,"aqi":163,"mosquito_risk":3,"arthritis_risk":5,"migraine_risk":3,"frizz_risk":0,"updated_at":"2026-02-27T20:11:25.854327+05:30"},{"city":"Bhatinda","state":"Punjab","latitude":30.211,"longitude":74.9455,"temp":22.3,"humidity":63,"rain":0.0,"pressure":983.1,"uv_index":6.1,"aqi":157,"mosquito_risk":3,"arthritis_risk":5,"migraine_risk":7,"frizz_risk":0,"updated_at":"2026-02-27T20:11:25.854334+05:30"},{"city":"Rohtak","state":"Haryana","latitude":28.8955,"longitude":76.6066,"temp":21.6,"humidity":62,"rain":0.0,"pressure":981.0,"uv_index":5.6,"aqi":151,"mosquito_risk":3,"arthritis_risk":5,"migraine_risk":3,"frizz_risk":0,"updated_at":"2026-02-27T20:11:25.854341+05:30"},{"city":"Panipat","state":"Haryana","latitude":29.3909,"longitude":76.9635,"temp":20.6,"humidity":68,"rain":0.0,"pressure":979.9,"uv_index":5.4,"aqi":155,"mosquito_risk":3,"arthritis_risk":5,"migraine_risk":3,"frizz_risk":0,"updated_at":"2026-02-27T20:11:25.854347+05:30"},{"city":"Mathura","state":"Uttar Pradesh","latitude":27.4924,"longitude":77.6737,"temp":22.0,"humidity":57,"rain":0.0,"pressure":986.4,"uv_index":5.85,"aqi":125,"mosquito_risk":0,"arthritis_risk":5,"migraine_risk":3,"frizz_risk":0,"updated_at":"2026-02-27T20:11:25.854354+05:30"},{"city":"Vrindavan","state":"Uttar Pradesh","latitude":27.5823,"longitude":77.7027,"temp":22.3,"humidity":55,"rain":0.0,"pressure":987.0,"uv_index":5.8,"aqi":125,"mosquito_risk":0,"arthritis_risk":5,"migraine_risk":3,"frizz_risk":0,"updated_at":"2026-02-27T20:11:25.854361+05:30"},{"city":"Ayodhya","state":"Uttar Pradesh","latitude":26.7922,"longitude":82.1998,"temp":20.8,"humidity":55,"rain":0.0,"pressure":995.6,"uv_index":6.2,"aqi":141,"mosquito_risk":0,"arthritis_risk":5,"migraine_risk":7,"frizz_risk":0,"updated_at":"2026-02-27T20:11:25.854367+05:30"},{"city":"Ratlam","state":"Madhya Pradesh","latitude":23.3315,"longitude":75.0367,"temp":23.5,"humidity":63,"rain":0.0,"pressure":953.8,"uv_index":7.1,"aqi":92,"mosquito_risk":3,"arthritis_risk":5,"migraine_risk":7,"frizz_risk":1,"updated_at":"2026-02-27T20:11:25.854374+05:30"},{"city":"Sagar","state":"Madhya Pradesh","latitude":23.8388,"longitude":78.7378,"temp":25.1,"humidity":48,"rain":0.0,"pressure":949.9,"uv_index":7.05,"aqi":84,"mosquito_risk":4,"arthritis_risk":5,"migraine_risk":7,"frizz_risk":0,"updated_at":"2026-02-27T20:11:25.854381+05:30"},{"city":"Satna","state":"Madhya Pradesh","latitude":24.6005,"longitude":80.8322,"temp":24.5,"humidity":38,"rain":0.0,"pressure":971.2,"uv_index":7.0,"aqi":91,"mosquito_risk":0,"arthritis_risk":5,"migraine_risk":7,"frizz_risk":0,"updated_at":"2026-02-27T20:11:25.854388+05:30"},{"city":"Akola","state":"Maharashtra","latitude":20.7002,"longitude":77.0082,"temp":28.5,"humidity":42,"rain":0.0,"pressure":973.7,"uv_index":7.55,"aqi":135,"mosquito_risk":4,"arthritis_risk":5,"migraine_risk":7,"frizz_risk":0,"updated_at":"2026-02-27T20:11:25.854395+05:30"},{"city":"Amravati","state":"Maharashtra","latitude":20.9374,"longitude":77.7796,"temp":28.1,"humidity":47,"rain":0.0,"pressure":966.4,"uv_index":7.45,"aqi":130,"mosquito_risk":4,"arthritis_risk":5,"migraine_risk":7,"frizz_risk":0,"updated_at":"2026-02-27T20:11:25.854403+05:30"},{"city":"Latur","state":"Maharashtra","latitude":18.4088,"longitude":76.5604,"temp":25.4,"humidity":47,"rain":0.0,"pressure":938.7,"uv_index":7.95,"aqi":103,"mosquito_risk":4,"arthritis_risk":5,"migraine_risk":7,"frizz_risk":0,"updated_at":"2026-02-27T20:11:25.854410+05:30"},{"city":"Nanded","state":"Maharashtra","latitude":19.1383,"longitude":77.3091,"temp":28.2,"humidity":46,"rain":0.0,"pressure":967.4,"uv_index":7.75,"aqi":139,"mosquito_risk":4,"arthritis_risk":5,"migraine_risk":7,"frizz_risk":0,"updated_at":"2026-02-27T20:11:25.854416+05:30"},{"city":"Gulbarga","state":"Karnataka","latitude":17.3297,"longitude":76.8343,"temp":28.0,"humidity":41,"rain":0.0,"pressure":957.5,"uv_index":8.1,"aqi":134,"mosquito_risk":4,"arthritis_risk":5,"migraine_risk":7,"frizz_risk":0,"updated_at":"2026-02-27T20:11:25.854422+05:30"},{"city":"Bidar","state":"Karnataka","latitude":17.9104,"longitude":77.5199,"temp":27.5,"humidity":46,"rain":0.0,"pressure":934.5,"uv_index":8.05,"aqi":137,"mosquito_risk":4,"arthritis_risk":5,"migraine_risk":7,"frizz_risk":0,"updated_at":"2026-02-27T20:11:25.854429+05:30"},{"city":"Hospet","state":"Karnataka","latitude":15.2689,"longitude":76.3909,"temp":30.4,"humidity":36,"rain":0.0,"pressure":954.5,"uv_index":8.4,"aqi":157,"mosquito_risk":0,"arthritis_risk":5,"migraine_risk":7,"frizz_risk":0,"updated_at":"2026-02-27T20:11:25.854436+05:30"},{"city":"Tirupur","state":"Tamil Nadu","latitude":11.1085,"longitude":77.3411,"temp":28.2,"humidity":65,"rain":0.0,"pressure":974.2,"uv_index":6.65,"aqi":151,"mosquito_risk":7,"arthritis_risk":5,"migraine_risk":7,"frizz_risk":1,"updated_at":"2026-02-27T20:11:25.854443+05:30"},{"city":"Alappuzha","state":"Kerala","latitude":9.4981,"longitude":76.3388,"temp":28.2,"humidity":79,"rain":0.0,"pressure":1008.2,"uv_index":8.8,"aqi":165,"mosquito_risk":7,"arthritis_risk":0,"migraine_risk":4,"frizz_risk":1,"updated_at":"2026-02-27T20:11:25.854450+05:30"},{"city":"Munnar","state":"Kerala","latitude":10.0889,"longitude":77.0595,"temp":20.7,"humidity":97,"rain":0.1,"pressure":856.1,"uv_index":6.35,"aqi":93,"mosquito_risk":6,"arthritis_risk":5,"migraine_risk":7,"frizz_risk":1,"updated_at":"2026-02-27T20:11:25.854457+05:30"},{"city":"Silchar","state":"Assam","latitude":24.8333,"longitude":92.7789,"temp":22.9,"humidity":57,"rain":0.0,"pressure":1004.3,"uv_index":7.2,"aqi":163,"mosquito_risk":0,"arthritis_risk":5,"migraine_risk":4,"frizz_risk":0,"updated_at":"2026-02-27T20:11:25.854464+05:30"},{"city":"Dibrugarh","state":"Assam","latitude":27.4728,"longitude":94.912,"temp":20.3,"humidity":85,"rain":0.0,"pressure":995.8,"uv_index":6.95,"aqi":149,"mosquito_risk":3,"arthritis_risk":5,"migraine_risk":7,"frizz_risk":1,"updated_at":"2026-02-27T20:11:25.854470+05:30"}]