[{"city":"Delhi","state":"Delhi","latitude":28.6139,"longitude":77.209,"temp":17.6,"humidity":69,"rain":0.0,"pressure":984.8,"uv_index":5.75,"wind_gusts":36.4,"aqi":158,"pm10":269.2,"pm2_5":81.7,"mosquito_risk":3,"arthritis_risk":5,"migraine_risk":3,"frizz_risk":0,"updated_at":"2026-03-02T02:56:52.945947+05:30"},{"city":"Mumbai","state":"Maharashtra","latitude":19.076,"longitude":72.8777,"temp":25.7,"humidity":79,"rain":0.0,"pressure":1009.6,"uv_index":7.35,"wind_gusts":25.9,"aqi":81,"pm10":48.4,"pm2_5":28.4,"mosquito_risk":7,"arthritis_risk":0,"migraine_risk":4,"frizz_risk":1,"updated_at":"2026-03-02T02:56:52.945985+05:30"},{"city":"Bangalore","state":"Karnataka","latitude":12.9716,"longitude":77.5946,"temp":20.7,"humidity":78,"rain":0.0,"pressure":910.8,"uv_index":9.05,"wind_gusts":26.3,"aqi":150,"pm10":43.5,"pm2_5":42.5,"mosquito_risk":3,"arthritis_risk":5,"migraine_risk":7,"frizz_risk":1,"updated_at":"2026-03-02T02:56:52.946000+05:30"},{"city":"Hyderabad","state":"Telangana","latitude":17.385,"longitude":78.4867,"temp":23.7,"humidity":75,"rain":0.0,"pressure":952.9,"uv_index":8.3,"wind_gusts":27.4,"aqi":140,"pm10":63.1,"pm2_5":62.4,"mosquito_risk":3,"arthritis_risk":5,"migraine_risk":7,"frizz_risk":1,"updated_at":"2026-03-02T02:56:52.946010+05:30"},{"city":"Chennai","state":"Tamil Nadu","latitude":13.0827,"longitude":80.2707,"temp":23.6,"humidity":87,"rain":0.0,"pressure":1007.1,"uv_index":8.8,"wind_gusts":29.5,"aqi":127,"pm10":45.1,"pm2_5":41.2,"mosquito_risk":3,"arthritis_risk":5,"migraine_risk":4,"frizz_risk":1,"updated_at":"2026-03-02T02:56:52.946019+05:30"},{"city":"Kolkata","state":"West Bengal","latitude":22.5726,"longitude":88.3639,"temp":23.7,"humidity":95,"rain":0.0,"pressure":1005.9,"uv_index":7.65,"wind_gusts":16.2,"aqi":109,"pm10":46.6,"pm2_5":44.4,"mosquito_risk":3,"arthritis_risk":5,"migraine_risk":4,"frizz_risk":1,"updated_at":"2026-03-02T02:56:52.946028+05:30"},{"city":"Pune","state":"Maharashtra","latitude":18.5204,"longitude":73.8567,"temp":19.9,"humidity":87,"rain":0.0,"pressure":948.3,"uv_index":7.85,"wind_gusts":25.6,"aqi":92,"pm10":52.2,"pm2_5":44.1,"mosquito_risk":3,"arthritis_risk":10,"migraine_risk":7,"frizz_risk":1,"updated_at":"2026-03-02T02:56:52.946039+05:30"},{"city":"Ahmedabad","state":"Gujarat","latitude":23.0225,"longitude":72.5714,"temp":22.4,"humidity":61,"rain":0.0,"pressure":1003.6,"uv_index":7.1,"wind_gusts":15.5,"aqi":92,"pm10":73.1,"pm2_5":58.9,"mosquito_risk":3,"arthritis_risk":5,"migraine_risk":4,"frizz_risk":0,"updated_at":"2026-03-02T02:56:52.946047+05:30"},{"city":"Jaipur","state":"Rajasthan","latitude":26.9124,"longitude":75.7873,"temp":20.0,"humidity":37,"rain":0.0,"pressure":961.2,"uv_index":6.55,"wind_gusts":30.2,"aqi":93,"pm10":74.3,"pm2_5":46.2,"mosquito_risk":0,"arthritis_risk":5,"migraine_risk":7,"frizz_risk":0,"updated_at":"2026-03-02T02:56:52.946054+05:30"},{"city":"Lucknow","state":"Uttar Pradesh","latitude":26.8467,"longitude":80.9462,"temp":16.8,"humidity":62,"rain":0.0,"pressure":994.8,"uv_index":6.25,"wind_gusts":38.5,"aqi":119,"pm10":180.2,"pm2_5":51.2,"mosquito_risk":3,"arthritis_risk":5,"migraine_risk":7,"frizz_risk":0,"updated_at":"2026-03-02T02:56:52.946062+05:30"},{"city":"Kanpur","state":"Uttar Pradesh","latitude":26.4499,"longitude":80.3319,"temp":14.7,"humidity":71,"rain":0.0,"pressure":993.3,"uv_index":6.25,"wind_gusts":32.8,"aqi":145,"pm10":252.4,"pm2_5":53.4,"mosquito_risk":3,"arthritis_risk":5,"migraine_risk":7,"frizz_risk":0,"updated_at":"2026-03-02T02:56:52.946069+05:30"},{"city":"Chandigarh","state":"Chandigarh","latitude":30.7333,"longitude":76.7794,"temp":15.1,"humidity":55,"rain":0.0,"pressure":969.7,"uv_index":5.6,"wind_gusts":37.8,"aqi":84,"pm10":31.7,"pm2_5":28.2,"mosquito_risk":0,"arthritis_risk":5,"migraine_risk":3,"frizz_risk":0,"updated_at":"2026-03-02T02:56:52.946077+05:30"},{"city":"Srinagar","state":"Jammu and Kashmir","latitude":34.0837,"longitude":74.7973,"temp":4.0,"humidity":82,"rain":0.0,"pressure":838.2,"uv_index":6.55,"wind_gusts":17.6,"aqi":144,"pm10":83.1,"pm2_5":68.9,"mosquito_risk":3,"arthritis_risk":10,"migraine_risk":7,"frizz_risk":0,"updated_at":"2026-03-02T02:56:52.946084+05:30"},{"city":"Jammu","state":"Jammu and Kashmir","latitude":32.7266,"longitude":74.857,"temp":14.6,"humidity":72,"rain":0.0,"pressure":974.5,"uv_index":6.25,"wind_gusts":29.2,"aqi":100,"pm10":42.0,"pm2_5":39.6,"mosquito_risk":3,"arthritis_risk":5,"migraine_risk":7,"frizz_risk":0,"updated_at":"2026-03-02T02:56:52.946091+05:30"},{"city":"Amritsar","state":"Punjab","latitude":31.634,"longitude":74.8723,"temp":17.0,"humidity":67,"rain":0.0,"pressure":982.9,"uv_index":6.2,"wind_gusts":28.8,"aqi":133,"pm10":88.0,"pm2_5":67.3,"mosquito_risk":3,"arthritis_risk":5,"migraine_risk":7,"frizz_risk":0,"updated_at":"2026-03-02T02:56:52.946098+05:30"},{"city":"Ludhiana","state":"Punjab","latitude":30.901,"longitude":75.8573,"temp":17.1,"humidity":65,"rain":0.0,"pressure":980.7,"uv_index":5.85,"wind_gusts":32.0,"aqi":155,"pm10":97.3,"pm2_5":89.4,"mosquito_risk":3,"arthritis_risk":5,"migraine_risk":3,"frizz_risk":0,"updated_at":"2026-03-02T02:56:52.946104+05:30"},{"city":"Jalandhar","state":"Punjab","latitude":31.326,"longitude":75.5762,"temp":16.7,"humidity":69,"rain":0.0,"pressure":982.1,"uv_index":6.0,"wind_gusts":31.3,"aqi":157,"pm10":115.0,"pm2_5":99.4,"mosquito_risk":3,"arthritis_risk":5,"migraine_risk":3,"frizz_risk":0,"updated_at":"2026-03-02T02:56:52.946115+05:30"},{"city":"Dehradun","state":"Uttarakhand","latitude":30.6284,"longitude":78.0322,"temp":9.8,"humidity":58,"rain":0.0,"pressure":827.1,"uv_index":5.7,"wind_gusts":28.1,"aqi":62,"pm10":24.5,"pm2_5":20.7,"mosquito_risk":0,"arthritis_risk":5,"migraine_risk":3,"frizz_risk":0,"updated_at":"2026-03-02T02:56:52.946123+05:30"},{"city":"Shimla","state":"Himachal Pradesh","latitude":31.1048,"longitude":77.1734,"temp":6.2,"humidity":60,"rain":0.0,"pressure":779.9,"uv_index":5.85,"wind_gusts":56.5,"aqi":67,"pm10":33.2,"pm2_5":25.6,"mosquito_risk":0,"arthritis_risk":5,"migraine_risk":3,"frizz_risk":1,"updated_at":"2026-03-02T02:56:52.946129+05:30"},{"city":"Manali","state":"Himachal Pradesh","latitude":32.2396,"longitude":77.1887,"temp":10.6,"humidity":20,"rain":0.0,"pressure":816.9,"uv_index":7.45,"wind_gusts":34.9,"aqi":50,"pm10":25.1,"pm2_5":19.8,"mosquito_risk":0,"arthritis_risk":5,"migraine_risk":7,"frizz_risk":1,"updated_at":"2026-03-02T02:56:52.946137+05:30"},{"city":"Gurgaon","state":"Haryana","latitude":28.4595,"longitude":77.0266,"temp":15.3,"humidity":78,"rain":0.0,"pressure":983.1,"uv_index":5.85,"wind_gusts":33.5,"aqi":556,"pm10":698.5,"pm2_5":119.2,"mosquito_risk":3,"arthritis_risk":5,"migraine_risk":3,"frizz_risk":0,"updated_at":"2026-03-02T02:56:52.946143+05:30"},{"city":"Noida","state":"Uttar Pradesh","latitude":28.5355,"longitude":77.391,"temp":17.6,"humidity":70,"rain":0.0,"pressure":986.3,"uv_index":5.75,"wind_gusts":36.0,"aqi":556,"pm10":698.5,"pm2_5":119.2,"mosquito_risk":3,"arthritis_risk":5,"migraine_risk":3,"frizz_risk":0,"updated_at":"2026-03-02T02:56:52.946150+05:30"},{"city":"Ghaziabad","state":"Uttar Pradesh","latitude":28.6692,"longitude":77.4538,"temp":16.7,"humidity":71,"rain":0.0,"pressure":984.3,"uv_index":5.75,"wind_gusts":34.9,"aqi":154,"pm10":219.3,"pm2_5":74.5,"mosquito_risk":3,"arthritis_risk":5,"migraine_risk":3,"frizz_risk":0,"updated_at":"2026-03-02T02:56:52.946156+05:30"},{"city":"Faridabad","state":"Haryana","latitude":28.4089,"longitude":77.3178,"temp":17.7,"humidity":64,"rain":0.0,"pressure":985.4,"uv_index":5.8,"wind_gusts":32.0,"aqi":556,"pm10":698.5,"pm2_5":119.2,"mosquito_risk":3,"arthritis_risk":5,"migraine_risk":3,"frizz_risk":0,"updated_at":"2026-03-02T02:56:52.946163+05:30"},{"city":"Meerut","state":"Uttar Pradesh","latitude":28.9845,"longitude":77.7064,"temp":14.6,"humidity":77,"rain":0.0,"pressure":982.6,"uv_index":5.6,"wind_gusts":38.9,"aqi":154,"pm10":219.3,"pm2_5":74.5,"mosquito_risk":3,"arthritis_risk":5,"migraine_risk":3,"frizz_risk":0,"updated_at":"2026-03-02T02:56:52.946169+05:30"},{"city":"Agra","state":"Uttar Pradesh","latitude":27.1767,"longitude":78.0081,"temp":15.4,"humidity":65,"rain":0.0,"pressure":989.6,"uv_index":6.1,"wind_gusts":28.8,"aqi":223,"pm10":338.1,"pm2_5":70.3,"mosquito_risk":3,"arthritis_risk":5,"migraine_risk":7,"frizz_risk":0,"updated_at":"2026-03-02T02:56:52.946176+05:30"},{"city":"Varanasi","state":"Uttar Pradesh","latitude":25.3176,"longitude":82.9739,"temp":14.7,"humidity":75,"rain":0.0,"pressure":999.4,"uv_index":6.9,"wind_gusts":32.4,"aqi":125,"pm10":84.3,"pm2_5":38.0,"mosquito_risk":3,"arthritis_risk":5,"migraine_risk":7,"frizz_risk":0,"updated_at":"2026-03-02T02:56:52.946185+05:30"},{"city":"Prayagraj","state":"Uttar Pradesh","latitude":25.4358,"longitude":81.8463,"temp":15.4,"humidity":74,"rain":0.0,"pressure":997.8,"uv_index":6.75,"wind_gusts":29.5,"aqi":128,"pm10":109.7,"pm2_5":43.0,"mosquito_risk":3,"arthritis_risk":5,"migraine_risk":7,"frizz_risk":0,"updated_at":"2026-03-02T02:56:52.946192+05:30"},{"city":"Gorakhpur","state":"Uttar Pradesh","latitude":26.7606,"longitude":83.3732,"temp":15.1,"humidity":65,"rain":0.0,"pressure":997.7,"uv_index":6.6,"wind_gusts":28.1,"aqi":105,"pm10":88.7,"pm2_5":39.5,"mosquito_risk":3,"arthritis_risk":5,"migraine_risk":7,"frizz_risk":0,"updated_at":"2026-03-02T02:56:52.946198+05:30"},{"city":"Bareilly","state":"Uttar Pradesh","latitude":28.367,"longitude":79.4304,"temp":14.4,"humidity":73,"rain":0.0,"pressure":987.8,"uv_index":5.9,"wind_gusts":34.6,"aqi":120,"pm10":129.9,"pm2_5":51.0,"mosquito_risk":3,"arthritis_risk":5,"migraine_risk":3,"frizz_risk":0,"updated_at":"2026-03-02T02:56:52.946204+05:30"},{"city":"Aligarh","state":"Uttar Pradesh","latitude":27.8974,"longitude":78.088,"temp":16.1,"humidity":73,"rain":0.0,"pressure":986.9,"uv_index":5.85,"wind_gusts":33.8,"aqi":304,"pm10":409.8,"pm2_5":95.0,"mosquito_risk":3,"arthritis_risk":5,"migraine_risk":3,"frizz_risk":0,"updated_at":"2026-03-02T02:56:52.946213+05:30"},{"city":"Moradabad","state":"Uttar Pradesh","latitude":28.8386,"longitude":78.7733,"temp":13.9,"humidity":74,"rain":0.0,"pressure":984.6,"uv_index":5.75,"wind_gusts":36.4,"aqi":131,"pm10":127.1,"pm2_5":59.6,"mosquito_risk":3,"arthritis_risk":5,"migraine_risk":3,"frizz_risk":0,"updated_at":"2026-03-02T02:56:52.946218+05:30"},{"city":"Saharanpur","state":"Uttar Pradesh","latitude":29.9637,"longitude":77.546,"temp":14.3,"humidity":65,"rain":0.0,"pressure":976.6,"uv_index":5.4,"wind_gusts":51.1,"aqi":131,"pm10":66.6,"pm2_5":47.6,"mosquito_risk":3,"arthritis_risk":5,"migraine_risk":3,"frizz_risk":0,"updated_at":"2026-03-02T02:56:52.946224+05:30"},{"city":"Jhansi","state":"Uttar Pradesh","latitude":25.4484,"longitude":78.5685,"temp":17.6,"humidity":59,"rain":0.0,"pressure":979.6,"uv_index":6.7,"wind_gusts":23.0,"aqi":77,"pm10":48.4,"pm2_5":30.3,"mosquito_risk":0,"arthritis_risk":5,"migraine_risk":7,"frizz_risk":0,"updated_at":"2026-03-02T02:56:56.300808+05:30"},{"city":"Surat","state":"Gujarat","latitude":21.1702,"longitude":72.8311,"temp":23.2,"humidity":90,"rain":0.0,"pressure":1007.9,"uv_index":7.0,"wind_gusts":22.3,"aqi":124,"pm10":57.0,"pm2_5":45.1,"mosquito_risk":3,"arthritis_risk":5,"migraine_risk":4,"frizz_risk":1,"updated_at":"2026-03-02T02:56:56.300837+05:30"},{"city":"Vadodara","state":"Gujarat","latitude":22.3072,"longitude":73.1812,"temp":23.6,"humidity":68,"rain":0.0,"pressure":1005.4,"uv_index":7.15,"wind_gusts":13.3,"aqi":112,"pm10":82.0,"pm2_5":71.9,"mosquito_risk":3,"arthritis_risk":5,"migraine_risk":4,"frizz_risk":1,"updated_at":"2026-03-02T02:56:56.300847+05:30"},{"city":"Rajkot","state":"Gujarat","latitude":22.3039,"longitude":70.8022,"temp":20.7,"humidity":88,"rain":0.0,"pressure":996.3,"uv_index":6.95,"wind_gusts":23.4,"aqi":71,"pm10":44.2,"pm2_5":20.7,"mosquito_risk":3,"arthritis_risk":5,"migraine_risk":7,"frizz_risk":1,"updated_at":"2026-03-02T02:56:56.300855+05:30"},{"city":"Thane","state":"Maharashtra","latitude":19.2183,"longitude":72.9781,"temp":22.5,"humidity":92,"rain":0.0,"pressure":1009.1,"uv_index":7.3,"wind_gusts":36.7,"aqi":81,"pm10":48.4,"pm2_5":28.4,"mosquito_risk":3,"arthritis_risk":0,"migraine_risk":4,"frizz_risk":1,"updated_at":"2026-03-02T02:56:56.300862+05:30"},{"city":"Nagpur","state":"Maharashtra","latitude":21.1458,"longitude":79.0882,"temp":21.1,"humidity":60,"rain":0.0,"pressure":973.9,"uv_index":7.7,"wind_gusts":25.2,"aqi":79,"pm10":21.9,"pm2_5":20.4,"mosquito_risk":0,"arthritis_risk":5,"migraine_risk":7,"frizz_risk":0,"updated_at":"2026-03-02T02:56:56.300869+05:30"},{"city":"Nashik","state":"Maharashtra","latitude":19.9975,"longitude":73.7898,"temp":19.8,"humidity":83,"rain":0.0,"pressure":945.7,"uv_index":7.5,"wind_gusts":29.9,"aqi":84,"pm10":50.4,"pm2_5":44.4,"mosquito_risk":3,"arthritis_risk":10,"migraine_risk":7,"frizz_risk":1,"updated_at":"2026-03-02T02:56:56.300876+05:30"},{"city":"Aurangabad","state":"Maharashtra","latitude":19.8762,"longitude":75.3433,"temp":22.5,"humidity":52,"rain":0.0,"pressure":944.0,"uv_index":8.05,"wind_gusts":20.9,"aqi":81,"pm10":37.1,"pm2_5":35.4,"mosquito_risk":0,"arthritis_risk":5,"migraine_risk":7,"frizz_risk":0,"updated_at":"2026-03-02T02:56:56.300884+05:30"},{"city":"Solapur","state":"Maharashtra","latitude":17.6599,"longitude":75.9064,"temp":23.1,"humidity":66,"rain":0.0,"pressure":956.3,"uv_index":8.25,"wind_gusts":17.3,"aqi":86,"pm10":40.9,"pm2_5":40.5,"mosquito_risk":3,"arthritis_risk":5,"migraine_risk":7,"frizz_risk":1,"updated_at":"2026-03-02T02:56:56.300891+05:30"},{"city":"Kolhapur","state":"Maharashtra","latitude":16.705,"longitude":74.2433,"temp":16.8,"humidity":91,"rain":0.0,"pressure":947.2,"uv_index":8.35,"wind_gusts":41.4,"aqi":82,"pm10":35.5,"pm2_5":32.2,"mosquito_risk":3,"arthritis_risk":10,"migraine_risk":7,"frizz_risk":0,"updated_at":"2026-03-02T02:56:56.300898+05:30"},{"city":"Goa","state":"Goa","latitude":15.2993,"longitude":74.124,"temp":23.8,"humidity":84,"rain":0.0,"pressure":998.2,"uv_index":8.4,"wind_gusts":31.7,"aqi":65,"pm10":31.7,"pm2_5":26.0,"mosquito_risk":3,"arthritis_risk":5,"migraine_risk":7,"frizz_risk":1,"updated_at":"2026-03-02T02:56:56.300905+05:30"},{"city":"Jodhpur","state":"Rajasthan","latitude":26.2389,"longitude":73.0243,"temp":23.3,"humidity":46,"rain":0.0,"pressure":984.5,"uv_index":6.8,"wind_gusts":17.6,"aqi":68,"pm10":46.1,"pm2_5":27.9,"mosquito_risk":0,"arthritis_risk":5,"migraine_risk":7,"frizz_risk":0,"updated_at":"2026-03-02T02:56:56.300911+05:30"},{"city":"Udaipur","state":"Rajasthan","latitude":24.5854,"longitude":73.7125,"temp":17.6,"humidity":59,"rain":0.0,"pressure":947.3,"uv_index":7.4,"wind_gusts":16.9,"aqi":59,"pm10":32.0,"pm2_5":21.7,"mosquito_risk":0,"arthritis_risk":5,"migraine_risk":7,"frizz_risk":0,"updated_at":"2026-03-02T02:56:56.300918+05:30"},{"city":"Kota","state":"Rajasthan","latitude":25.2138,"longitude":75.8648,"temp":19.3,"humidity":73,"rain":0.0,"pressure":979.9,"uv_index":6.85,"wind_gusts":18.7,"aqi":85,"pm10":53.0,"pm2_5":34.9,"mosquito_risk":3,"arthritis_risk":5,"migraine_risk":7,"frizz_risk":0,"updated_at":"2026-03-02T02:56:56.300925+05:30"},{"city":"Bikaner","state":"Rajasthan","latitude":28.0229,"longitude":73.3119,"temp":22.5,"humidity":45,"rain":0.0,"pressure":983.5,"uv_index":6.5,"wind_gusts":23.0,"aqi":68,"pm10":38.1,"pm2_5":22.6,"mosquito_risk":0,"arthritis_risk":5,"migraine_risk":7,"frizz_risk":0,"updated_at":"2026-03-02T02:56:56.300934+05:30"},{"city":"Ajmer","state":"Rajasthan","latitude":26.4499,"longitude":74.6399,"temp":20.5,"humidity":39,"rain":0.0,"pressure":955.6,"uv_index":6.75,"wind_gusts":25.2,"aqi":84,"pm10":55.4,"pm2_5":38.9,"mosquito_risk":0,"arthritis_risk":5,"migraine_risk":7,"frizz_risk":0,"updated_at":"2026-03-02T02:56:56.300942+05:30"},{"city":"Gwalior","state":"Madhya Pradesh","latitude":26.2183,"longitude":78.1828,"temp":19.8,"humidity":53,"rain":0.0,"pressure":985.0,"uv_index":6.45,"wind_gusts":29.2,"aqi":97,"pm10":96.6,"pm2_5":34.0,"mosquito_risk":0,"arthritis_risk":5,"migraine_risk":7,"frizz_risk":0,"updated_at":"2026-03-02T02:56:56.300949+05:30"},{"city":"Indore","state":"Madhya Pradesh","latitude":22.7196,"longitude":75.8577,"temp":17.8,"humidity":77,"rain":0.0,"pressure":948.5,"uv_index":7.4,"wind_gusts":15.1,"aqi":84,"pm10":43.7,"pm2_5":36.9,"mosquito_risk":3,"arthritis_risk":5,"migraine_risk":7,"frizz_risk":0,"updated_at":"2026-03-02T02:56:56.300955+05:30"},{"city":"Bhopal","state":"Madhya Pradesh","latitude":23.2599,"longitude":77.4126,"temp":20.4,"humidity":50,"rain":0.0,"pressure":954.4,"uv_index":7.25,"wind_gusts":18.0,"aqi":66,"pm10":30.9,"pm2_5":27.9,"mosquito_risk":0,"arthritis_risk":5,"migraine_risk":7,"frizz_risk":0,"updated_at":"2026-03-02T02:56:56.300961+05:30"},{"city":"Jabalpur","state":"Madhya Pradesh","latitude":23.1815,"longitude":79.9864,"temp":20.1,"humidity":63,"rain":0.0,"pressure":962.7,"uv_index":7.35,"wind_gusts":19.4,"aqi":72,"pm10":40.0,"pm2_5":29.4,"mosquito_risk":3,"arthritis_risk":5,"migraine_risk":7,"frizz_risk":0,"updated_at":"2026-03-02T02:56:56.300968+05:30"},{"city":"Ujjain","state":"Madhya Pradesh","latitude":23.1765,"longitude":75.7885,"temp":18.9,"humidity":75,"rain":0.0,"pressure":954.4,"uv_index":7.3,"wind_gusts":12.2,"aqi":93,"pm10":62.2,"pm2_5":56.7,"mosquito_risk":3,"arthritis_risk":5,"migraine_risk":7,"frizz_risk":0,"updated_at":"2026-03-02T02:56:56.300975+05:30"},{"city":"Visakhapatnam","state":"Andhra Pradesh","latitude":17.6868,"longitude":83.2185,"temp":25.1,"humidity":75,"rain":0.0,"pressure":1004.1,"uv_index":8.3,"wind_gusts":37.1,"aqi":148,"pm10":48.2,"pm2_5":45.5,"mosquito_risk":7,"arthritis_risk":5,"migraine_risk":4,"frizz_risk":1,"updated_at":"2026-03-02T02:56:56.300981+05:30"},{"city":"Vijayawada","state":"Andhra Pradesh","latitude":16.5062,"longitude":80.648,"temp":23.4,"humidity":92,"rain":0.0,"pressure":1003.2,"uv_index":8.4,"wind_gusts":20.5,"aqi":134,"pm10":44.9,"pm2_5":42.7,"mosquito_risk":3,"arthritis_risk":5,"migraine_risk":4,"frizz_risk":1,"updated_at":"2026-03-02T02:56:56.300988+05:30"},{"city":"Guntur","state":"Andhra Pradesh","latitude":16.3067,"longitude":80.4365,"temp":23.1,"humidity":93,"rain":0.0,"pressure":1004.3,"uv_index":8.4,"wind_gusts":28.1,"aqi":129,"pm10":40.0,"pm2_5":38.1,"mosquito_risk":3,"arthritis_risk":5,"migraine_risk":4,"frizz_risk":1,"updated_at":"2026-03-02T02:56:56.300994+05:30"},{"city":"Nellore","state":"Andhra Pradesh","latitude":14.4426,"longitude":79.9865,"temp":23.3,"humidity":86,"rain":0.0,"pressure":1005.9,"uv_index":8.65,"wind_gusts":27.4,"aqi":126,"pm10":40.5,"pm2_5":38.9,"mosquito_risk":3,"arthritis_risk":5,"migraine_risk":4,"frizz_risk":1,"updated_at":"2026-03-02T02:56:56.301002+05:30"},{"city":"Kurnool","state":"Andhra Pradesh","latitude":15.8281,"longitude":78.0373,"temp":25.3,"humidity":60,"rain":0.0,"pressure":976.2,"uv_index":8.45,"wind_gusts":22.3,"aqi":117,"pm10":42.1,"pm2_5":41.8,"mosquito_risk":4,"arthritis_risk":5,"migraine_risk":7,"frizz_risk":1,"updated_at":"2026-03-02T02:56:56.301009+05:30"},{"city":"Kakinada","state":"Andhra Pradesh","latitude":16.9891,"longitude":82.2475,"temp":22.3,"humidity":92,"rain":0.0,"pressure":1008.1,"uv_index":8.35,"wind_gusts":30.2,"aqi":142,"pm10":51.1,"pm2_5":46.7,"mosquito_risk":3,"arthritis_risk":0,"migraine_risk":4,"frizz_risk":1,"updated_at":"2026-03-02T02:56:56.301016+05:30"},{"city":"Tirupati","state":"Andhra Pradesh","latitude":13.6288,"longitude":79.4192,"temp":20.8,"humidity":82,"rain":0.0,"pressure":992.0,"uv_index":8.75,"wind_gusts":23.8,"aqi":143,"pm10":51.1,"pm2_5":49.6,"mosquito_risk":3,"arthritis_risk":5,"migraine_risk":7,"frizz_risk":1,"updated_at":"2026-03-02T02:56:56.301022+05:30"},{"city":"Warangal","state":"Telangana","latitude":17.9689,"longitude":79.5941,"temp":23.8,"humidity":81,"rain":0.0,"pressure":978.7,"uv_index":8.15,"wind_gusts":18.7,"aqi":144,"pm10":44.5,"pm2_5":44.0,"mosquito_risk":3,"arthritis_risk":5,"migraine_risk":7,"frizz_risk":1,"updated_at":"2026-03-02T02:56:56.301028+05:30"},{"city":"Nizamabad","state":"Telangana","latitude":18.6725,"longitude":78.0941,"temp":23.4,"humidity":73,"rain":0.0,"pressure":964.5,"uv_index":8.05,"wind_gusts":27.7,"aqi":112,"pm10":54.8,"pm2_5":54.4,"mosquito_risk":3,"arthritis_risk":5,"migraine_risk":7,"frizz_risk":1,"updated_at":"2026-03-02T02:56:56.301034+05:30"},{"city":"Mysore","state":"Karnataka","latitude":12.2958,"longitude":76.6396,"temp":21.3,"humidity":90,"rain":0.0,"pressure":927.8,"uv_index":9.1,"wind_gusts":26.3,"aqi":136,"pm10":48.2,"pm2_5":47.3,"mosquito_risk":3,"arthritis_risk":5,"migraine_risk":7,"frizz_risk":1,"updated_at":"2026-03-02T02:56:56.301040+05:30"},{"city":"Mangalore","state":"Karnataka","latitude":12.9141,"longitude":74.856,"temp":28.0,"humidity":74,"rain":0.0,"pressure":1006.8,"uv_index":8.65,"wind_gusts":28.1,"aqi":52,"pm10":20.7,"pm2_5":16.6,"mosquito_risk":7,"arthritis_risk":5,"migraine_risk":4,"frizz_risk":1,"updated_at":"2026-03-02T02:56:56.301047+05:30"},{"city":"Hubli-Dharwad","state":"Karnataka","latitude":15.3647,"longitude":75.124,"temp":19.6,"humidity":88,"rain":0.0,"pressure":939.8,"uv_index":8.6,"wind_gusts":25.2,"aqi":69,"pm10":14.4,"pm2_5":13.1,"mosquito_risk":3,"arthritis_risk":10,"migraine_risk":7,"frizz_risk":1,"updated_at":"2026-03-02T02:56:56.301053+05:30"},{"city":"Belgaum","state":"Karnataka","latitude":15.8497,"longitude":74.4977,"temp":18.0,"humidity":91,"rain":0.0,"pressure":924.4,"uv_index":8.65,"wind_gusts":37.1,"aqi":67,"pm10":29.9,"pm2_5":27.6,"mosquito_risk":3,"arthritis_risk":10,"migraine_risk":7,"frizz_risk":1,"updated_at":"2026-03-02T02:56:59.651402+05:30"},{"city":"Coimbatore","state":"Tamil Nadu","latitude":11.0168,"longitude":76.9558,"temp":22.2,"humidity":94,"rain":0.0,"pressure":961.8,"uv_index":9.1,"wind_gusts":27.7,"aqi":146,"pm10":58.8,"pm2_5":58.0,"mosquito_risk":3,"arthritis_risk":5,"migraine_risk":7,"frizz_risk":1,"updated_at":"2026-03-02T02:56:59.651430+05:30"},{"city":"Madurai","state":"Tamil Nadu","latitude":9.9252,"longitude":78.1198,"temp":22.4,"humidity":87,"rain":0.0,"pressure":993.4,"uv_index":9.05,"wind_gusts":28.4,"aqi":133,"pm10":47.3,"pm2_5":45.8,"mosquito_risk":3,"arthritis_risk":5,"migraine_risk":7,"frizz_risk":1,"updated_at":"2026-03-02T02:56:59.651440+05:30"},{"city":"Trichy","state":"Tamil Nadu","latitude":10.7905,"longitude":78.7047,"temp":23.1,"humidity":92,"rain":0.0,"pressure":1000.1,"uv_index":8.95,"wind_gusts":29.2,"aqi":137,"pm10":52.7,"pm2_5":49.9,"mosquito_risk":3,"arthritis_risk":5,"migraine_risk":4,"frizz_risk":1,"updated_at":"2026-03-02T02:56:59.651447+05:30"},{"city":"Salem","state":"Tamil Nadu","latitude":11.6643,"longitude":78.146,"temp":24.2,"humidity":77,"rain":0.0,"pressure":977.7,"uv_index":9.0,"wind_gusts":29.2,"aqi":140,"pm10":50.4,"pm2_5":48.9,"mosquito_risk":3,"arthritis_risk":5,"migraine_risk":7,"frizz_risk":1,"updated_at":"2026-03-02T02:56:59.651454+05:30"},{"city":"Tirunelveli","state":"Tamil Nadu","latitude":8.7139,"longitude":77.7567,"temp":22.5,"humidity":87,"rain":0.0,"pressure":1003.6,"uv_index":9.05,"wind_gusts":42.1,"aqi":129,"pm10":68.0,"pm2_5":66.6,"mosquito_risk":3,"arthritis_risk":5,"migraine_risk":4,"frizz_risk":1,"updated_at":"2026-03-02T02:56:59.651461+05:30"},{"city":"Vellore","state":"Tamil Nadu","latitude":12.9165,"longitude":79.1325,"temp":21.7,"humidity":84,"rain":0.0,"pressure":984.9,"uv_index":8.85,"wind_gusts":29.9,"aqi":152,"pm10":62.4,"pm2_5":60.5,"mosquito_risk":3,"arthritis_risk":5,"migraine_risk":7,"frizz_risk":1,"updated_at":"2026-03-02T02:56:59.651467+05:30"},{"city":"Erode","state":"Tamil Nadu","latitude":11.341,"longitude":77.7172,"temp":24.7,"humidity":80,"rain":0.0,"pressure":989.5,"uv_index":9.0,"wind_gusts":27.4,"aqi":129,"pm10":37.3,"pm2_5":35.7,"mosquito_risk":3,"arthritis_risk":5,"migraine_risk":7,"frizz_risk":1,"updated_at":"2026-03-02T02:56:59.651473+05:30"},{"city":"Kochi","state":"Kerala","latitude":9.9312,"longitude":76.2673,"temp":26.8,"humidity":81,"rain":0.0,"pressure":1008.8,"uv_index":8.75,"wind_gusts":33.5,"aqi":105,"pm10":45.1,"pm2_5":44.6,"mosquito_risk":7,"arthritis_risk":0,"migraine_risk":4,"frizz_risk":1,"updated_at":"2026-03-02T02:56:59.651480+05:30"},{"city":"Thiruvananthapuram","state":"Kerala","latitude":8.5241,"longitude":76.9366,"temp":27.1,"humidity":81,"rain":0.0,"pressure":1007.9,"uv_index":8.95,"wind_gusts":30.2,"aqi":89,"pm10":23.6,"pm2_5":20.6,"mosquito_risk":7,"arthritis_risk":5,"migraine_risk":4,"frizz_risk":1,"updated_at":"2026-03-02T02:56:59.651487+05:30"},{"city":"Kozhikode","state":"Kerala","latitude":11.2588,"longitude":75.7804,"temp":27.8,"humidity":77,"rain":0.0,"pressure":1007.8,"uv_index":8.8,"wind_gusts":30.6,"aqi":56,"pm10":19.2,"pm2_5":14.5,"mosquito_risk":7,"arthritis_risk":5,"migraine_risk":4,"frizz_risk":1,"updated_at":"2026-03-02T02:56:59.651494+05:30"},{"city":"Thrissur","state":"Kerala","latitude":10.5276,"longitude":76.2144,"temp":25.2,"humidity":90,"rain":0.0,"pressure":1007.1,"uv_index":8.9,"wind_gusts":36.7,"aqi":104,"pm10":43.5,"pm2_5":42.4,"mosquito_risk":7,"arthritis_risk":5,"migraine_risk":4,"frizz_risk":1,"updated_at":"2026-03-02T02:56:59.651501+05:30"},{"city":"Kannur","state":"Kerala","latitude":11.8745,"longitude":75.3704,"temp":26.8,"humidity":78,"rain":0.0,"pressure":1006.9,"uv_index":8.75,"wind_gusts":32.8,"aqi":52,"pm10":17.3,"pm2_5":14.3,"mosquito_risk":7,"arthritis_risk":5,"migraine_risk":4,"frizz_risk":1,"updated_at":"2026-03-02T02:56:59.651508+05:30"},{"city":"Patna","state":"Bihar","latitude":25.5941,"longitude":85.1376,"temp":19.0,"humidity":72,"rain":0.0,"pressure":1001.4,"uv_index":7.05,"wind_gusts":27.7,"aqi":140,"pm10":54.5,"pm2_5":42.4,"mosquito_risk":3,"arthritis_risk":5,"migraine_risk":4,"frizz_risk":0,"updated_at":"2026-03-02T02:56:59.651514+05:30"},{"city":"Gaya","state":"Bihar","latitude":24.7914,"longitude":85.0002,"temp":20.2,"humidity":64,"rain":0.0,"pressure":995.2,"uv_index":7.15,"wind_gusts":25.6,"aqi":126,"pm10":78.9,"pm2_5":59.4,"mosquito_risk":3,"arthritis_risk":5,"migraine_risk":7,"frizz_risk":0,"updated_at":"2026-03-02T02:56:59.651520+05:30"},{"city":"Muzaffarpur","state":"Bihar","latitude":26.1209,"longitude":85.3647,"temp":16.5,"humidity":63,"rain":0.0,"pressure":1001.3,"uv_index":7.0,"wind_gusts":26.3,"aqi":130,"pm10":49.9,"pm2_5":40.0,"mosquito_risk":3,"arthritis_risk":5,"migraine_risk":4,"frizz_risk":0,"updated_at":"2026-03-02T02:56:59.651549+05:30"},{"city":"Bhagalpur","state":"Bihar","latitude":25.2425,"longitude":87.0117,"temp":21.0,"humidity":65,"rain":0.0,"pressure":1001.9,"uv_index":7.1,"wind_gusts":22.7,"aqi":129,"pm10":98.3,"pm2_5":60.5,"mosquito_risk":3,"arthritis_risk":5,"migraine_risk":4,"frizz_risk":0,"updated_at":"2026-03-02T02:56:59.651558+05:30"},{"city":"Ranchi","state":"Jharkhand","latitude":23.3441,"longitude":85.3096,"temp":19.5,"humidity":55,"rain":0.0,"pressure":937.9,"uv_index":7.8,"wind_gusts":49.7,"aqi":101,"pm10":52.2,"pm2_5":38.3,"mosquito_risk":0,"arthritis_risk":5,"migraine_risk":7,"frizz_risk":0,"updated_at":"2026-03-02T02:56:59.651564+05:30"},{"city":"Jamshedpur","state":"Jharkhand","latitude":22.8046,"longitude":86.2029,"temp":23.0,"humidity":70,"rain":0.0,"pressure":991.2,"uv_index":7.75,"wind_gusts":34.2,"aqi":156,"pm10":85.4,"pm2_5":77.8,"mosquito_risk":3,"arthritis_risk":5,"migraine_risk":7,"frizz_risk":1,"updated_at":"2026-03-02T02:56:59.651570+05:30"},{"city":"Dhanbad","state":"Jharkhand","latitude":23.7957,"longitude":86.4304,"temp":23.7,"humidity":44,"rain":0.0,"pressure":980.4,"uv_index":7.6,"wind_gusts":37.1,"aqi":153,"pm10":92.0,"pm2_5":65.2,"mosquito_risk":0,"arthritis_risk":5,"migraine_risk":7,"frizz_risk":0,"updated_at":"2026-03-02T02:56:59.651577+05:30"},{"city":"Bokaro","state":"Jharkhand","latitude":23.6693,"longitude":86.1511,"temp":22.4,"humidity":49,"rain":0.0,"pressure":984.7,"uv_index":7.6,"wind_gusts":39.6,"aqi":154,"pm10":93.4,"pm2_5":72.2,"mosquito_risk":0,"arthritis_risk":5,"migraine_risk":7,"frizz_risk":0,"updated_at":"2026-03-02T02:56:59.651583+05:30"},{"city":"Bhubaneswar","state":"Odisha","latitude":20.2961,"longitude":85.8245,"temp":23.7,"humidity":91,"rain":0.0,"pressure":1002.4,"uv_index":8.05,"wind_gusts":29.2,"aqi":121,"pm10":45.5,"pm2_5":44.0,"mosquito_risk":3,"arthritis_risk":5,"migraine_risk":4,"frizz_risk":1,"updated_at":"2026-03-02T02:56:59.651589+05:30"},{"city":"Cuttack","state":"Odisha","latitude":20.4625,"longitude":85.8828,"temp":23.3,"humidity":94,"rain":0.0,"pressure":1004.3,"uv_index":8.1,"wind_gusts":20.9,"aqi":121,"pm10":45.5,"pm2_5":44.0,"mosquito_risk":3,"arthritis_risk":5,"migraine_risk":4,"frizz_risk":1,"updated_at":"2026-03-02T02:56:59.651595+05:30"},{"city":"Rourkela","state":"Odisha","latitude":22.2604,"longitude":84.8536,"temp":24.4,"humidity":68,"rain":0.0,"pressure":985.4,"uv_index":7.65,"wind_gusts":18.0,"aqi":155,"pm10":59.3,"pm2_5":58.0,"mosquito_risk":3,"arthritis_risk":5,"migraine_risk":7,"frizz_risk":1,"updated_at":"2026-03-02T02:56:59.651601+05:30"},{"city":"Raipur","state":"Chhattisgarh","latitude":21.2514,"longitude":81.6296,"temp":23.5,"humidity":58,"rain":0.0,"pressure":974.7,"uv_index":7.75,"wind_gusts":28.4,"aqi":149,"pm10":32.9,"pm2_5":32.7,"mosquito_risk":0,"arthritis_risk":5,"migraine_risk":7,"frizz_risk":0,"updated_at":"2026-03-02T02:56:59.651607+05:30"},{"city":"Bhilai","state":"Chhattisgarh","latitude":21.1938,"longitude":81.3509,"temp":23.0,"humidity":60,"rain":0.0,"pressure":975.0,"uv_index":7.8,"wind_gusts":26.3,"aqi":131,"pm10":26.3,"pm2_5":25.9,"mosquito_risk":0,"arthritis_risk":5,"migraine_risk":7,"frizz_risk":0,"updated_at":"2026-03-02T02:56:59.651614+05:30"},{"city":"Guwahati","state":"Assam","latitude":26.1158,"longitude":91.7086,"temp":20.0,"humidity":87,"rain":0.0,"pressure":1002.9,"uv_index":7.0,"wind_gusts":29.5,"aqi":157,"pm10":68.7,"pm2_5":59.0,"mosquito_risk":3,"arthritis_risk":5,"migraine_risk":4,"frizz_risk":1,"updated_at":"2026-03-02T02:56:59.651621+05:30"},{"city":"Agartala","state":"Tripura","latitude":23.8315,"longitude":91.2868,"temp":21.4,"humidity":95,"rain":0.0,"pressure":1006.4,"uv_index":7.4,"wind_gusts":20.9,"aqi":102,"pm10":28.5,"pm2_5":26.6,"mosquito_risk":3,"arthritis_risk":5,"migraine_risk":4,"frizz_risk":1,"updated_at":"2026-03-02T02:56:59.651629+05:30"},{"city":"Shillong","state":"Meghalaya","latitude":25.5788,"longitude":91.8933,"temp":10.8,"humidity":85,"rain":0.0,"pressure":853.3,"uv_index":7.35,"wind_gusts":58.0,"aqi":125,"pm10":50.5,"pm2_5":39.2,"mosquito_risk":3,"arthritis_risk":10,"migraine_risk":7,"frizz_risk":0,"updated_at":"2026-03-02T02:56:59.651635+05:30"},{"city":"Imphal","state":"Manipur","latitude":24.817,"longitude":93.9368,"temp":13.0,"humidity":75,"rain":0.0,"pressure":922.0,"uv_index":7.65,"wind_gusts":72.0,"aqi":153,"pm10":87.5,"pm2_5":75.2,"mosquito_risk":3,"arthritis_risk":5,"migraine_risk":7,"frizz_risk":0,"updated_at":"2026-03-02T02:56:59.651642+05:30"},{"city":"Aizawl","state":"Mizoram","latitude":23.7271,"longitude":92.7176,"temp":15.2,"humidity":73,"rain":0.0,"pressure":891.1,"uv_index":7.6,"wind_gusts":49.0,"aqi":130,"pm10":68.0,"pm2_5":54.4,"mosquito_risk":3,"arthritis_risk":5,"migraine_risk":7,"frizz_risk":0,"updated_at":"2026-03-02T02:56:59.651648+05:30"},{"city":"Kohima","state":"Nagaland","latitude":25.6701,"longitude":94.1077,"temp":11.8,"humidity":66,"rain":0.0,"pressure":852.5,"uv_index":7.45,"wind_gusts":81.0,"aqi":153,"pm10":75.7,"pm2_5":62.6,"mosquito_risk":3,"arthritis_risk":5,"migraine_risk":7,"frizz_risk":0,"updated_at":"2026-03-02T02:56:59.651654+05:30"},{"city":"Gangtok","state":"Sikkim","latitude":27.3314,"longitude":88.6138,"temp":9.8,"humidity":78,"rain":0.0,"pressure":833.5,"uv_index":5.25,"wind_gusts":17.3,"aqi":122,"pm10":53.4,"pm2_5":41.7,"mosquito_risk":3,"arthritis_risk":5,"migraine_risk":3,"frizz_risk":0,"updated_at":"2026-03-02T02:56:59.651660+05:30"},{"city":"Siliguri","state":"West Bengal","latitude":26.7271,"longitude":88.3953,"temp":16.5,"humidity":71,"rain":0.0,"pressure":994.5,"uv_index":7.0,"wind_gusts":20.2,"aqi":171,"pm10":115.9,"pm2_5":95.9,"mosquito_risk":3,"arthritis_risk":5,"migraine_risk":7,"frizz_risk":0,"updated_at":"2026-03-02T02:57:03.031011+05:30"},{"city":"Durgapur","state":"West Bengal","latitude":23.5204,"longitude":87.3119,"temp":24.0,"humidity":51,"rain":0.0,"pressure":995.3,"uv_index":7.55,"wind_gusts":31.3,"aqi":145,"pm10":73.1,"pm2_5":51.1,"mosquito_risk":0,"arthritis_risk":5,"migraine_risk":7,"frizz_risk":0,"updated_at":"2026-03-02T02:57:03.031041+05:30"},{"city":"Asansol","state":"West Bengal","latitude":23.6739,"longitude":86.9524,"temp":24.9,"humidity":47,"rain":0.0,"pressure":994.1,"uv_index":7.55,"wind_gusts":32.4,"aqi":127,"pm10":68.5,"pm2_5":42.6,"mosquito_risk":0,"arthritis_risk":5,"migraine_risk":7,"frizz_risk":0,"updated_at":"2026-03-02T02:57:03.031051+05:30"},{"city":"Pondicherry","state":"Puducherry","latitude":11.9139,"longitude":79.8145,"temp":22.3,"humidity":91,"rain":0.0,"pressure":1008.9,"uv_index":8.8,"wind_gusts":27.4,"aqi":125,"pm10":44.6,"pm2_5":40.5,"mosquito_risk":3,"arthritis_risk":0,"migraine_risk":4,"frizz_risk":1,"updated_at":"2026-03-02T02:57:03.031058+05:30"},{"city":"Port Blair","state":"Andaman and Nicobar Islands","latitude":11.6234,"longitude":92.7265,"temp":27.2,"humidity":73,"rain":0.0,"pressure":1006.3,"uv_index":8.8,"wind_gusts":17.6,"aqi":70,"pm10":27.7,"pm2_5":23.7,"mosquito_risk":7,"arthritis_risk":5,"migraine_risk":4,"frizz_risk":1,"updated_at":"2026-03-02T02:57:03.031067+05:30"},{"city":"Haridwar","state":"Uttarakhand","latitude":29.9457,"longitude":78.1642,"temp":13.7,"humidity":80,"rain":0.0,"pressure":975.0,"uv_index":5.55,"wind_gusts":43.6,"aqi":99,"pm10":45.6,"pm2_5":44.0,"mosquito_risk":3,"arthritis_risk":5,"migraine_risk":3,"frizz_risk":0,"updated_at":"2026-03-02T02:57:03.031074+05:30"},{"city":"Rishikesh","state":"Uttarakhand","latitude":30.0869,"longitude":78.2676,"temp":14.6,"humidity":70,"rain":0.0,"pressure":967.6,"uv_index":5.6,"wind_gusts":37.1,"aqi":84,"pm10":36.7,"pm2_5":35.0,"mosquito_risk":3,"arthritis_risk":5,"migraine_risk":3,"frizz_risk":0,"updated_at":"2026-03-02T02:57:03.031081+05:30"},{"city":"Nainital","state":"Uttarakhand","latitude":29.3919,"longitude":79.4542,"temp":14.0,"humidity":48,"rain":0.0,"pressure":803.3,"uv_index":6.4,"wind_gusts":50.8,"aqi":82,"pm10":30.6,"pm2_5":26.8,"mosquito_risk":0,"arthritis_risk":5,"migraine_risk":7,"frizz_risk":0,"updated_at":"2026-03-02T02:57:03.031088+05:30"},{"city":"Mussoorie","state":"Uttarakhand","latitude":30.4599,"longitude":78.0664,"temp":11.8,"humidity":50,"rain":0.0,"pressure":800.0,"uv_index":5.7,"wind_gusts":34.9,"aqi":85,"pm10":36.8,"pm2_5":35.4,"mosquito_risk":0,"arthritis_risk":5,"migraine_risk":3,"frizz_risk":0,"updated_at":"2026-03-02T02:57:03.031095+05:30"},{"city":"Dharamshala","state":"Himachal Pradesh","latitude":32.219,"longitude":76.3234,"temp":15.9,"humidity":44,"rain":0.0,"pressure":868.5,"uv_index":6.15,"wind_gusts":27.4,"aqi":61,"pm10":22.6,"pm2_5":15.5,"mosquito_risk":0,"arthritis_risk":5,"migraine_risk":7,"frizz_risk":0,"updated_at":"2026-03-02T02:57:03.031101+05:30"},{"city":"Dalhousie","state":"Himachal Pradesh","latitude":32.5387,"longitude":75.971,"temp":12.5,"humidity":42,"rain":0.0,"pressure":802.2,"uv_index":6.35,"wind_gusts":24.8,"aqi":94,"pm10":46.7,"pm2_5":42.3,"mosquito_risk":0,"arthritis_risk":5,"migraine_risk":7,"frizz_risk":0,"updated_at":"2026-03-02T02:57:03.031109+05:30"},{"city":"Patiala","state":"Punjab","latitude":30.3398,"longitude":76.3869,"temp":15.1,"humidity":74,"rain":0.0,"pressure":979.9,"uv_index":5.55,"wind_gusts":34.9,"aqi":155,"pm10":138.3,"pm2_5":76.1,"mosquito_risk":3,"arthritis_risk":5,"migraine_risk":3,"frizz_risk":0,"updated_at":"2026-03-02T02:57:03.031116+05:30"},{"city":"Bhatinda","state":"Punjab","latitude":30.211,"longitude":74.9455,"temp":18.5,"humidity":66,"rain":0.0,"pressure":985.7,"uv_index":6.2,"wind_gusts":27.4,"aqi":157,"pm10":122.5,"pm2_5":96.2,"mosquito_risk":3,"arthritis_risk":5,"migraine_risk":7,"frizz_risk":0,"updated_at":"2026-03-02T02:57:03.031123+05:30"},{"city":"Rohtak","state":"Haryana","latitude":28.8955,"longitude":76.6066,"temp":15.6,"humidity":80,"rain":0.0,"pressure":983.4,"uv_index":5.75,"wind_gusts":33.5,"aqi":164,"pm10":320.4,"pm2_5":84.5,"mosquito_risk":3,"arthritis_risk":5,"migraine_risk":3,"frizz_risk":0,"updated_at":"2026-03-02T02:57:03.031129+05:30"},{"city":"Panipat","state":"Haryana","latitude":29.3909,"longitude":76.9635,"temp":14.8,"humidity":77,"rain":0.0,"pressure":981.7,"uv_index":5.55,"wind_gusts":34.2,"aqi":410,"pm10":694.8,"pm2_5":119.2,"mosquito_risk":3,"arthritis_risk":5,"migraine_risk":3,"frizz_risk":0,"updated_at":"2026-03-02T02:57:03.031135+05:30"},{"city":"Mathura","state":"Uttar Pradesh","latitude":27.4924,"longitude":77.6737,"temp":17.8,"humidity":58,"rain":0.0,"pressure":988.6,"uv_index":6.0,"wind_gusts":29.5,"aqi":210,"pm10":350.2,"pm2_5":74.5,"mosquito_risk":0,"arthritis_risk":5,"migraine_risk":3,"frizz_risk":0,"updated_at":"2026-03-02T02:57:03.031142+05:30"},{"city":"Vrindavan","state":"Uttar Pradesh","latitude":27.5823,"longitude":77.7027,"temp":16.8,"humidity":67,"rain":0.0,"pressure":988.7,"uv_index":6.0,"wind_gusts":31.3,"aqi":210,"pm10":350.2,"pm2_5":74.5,"mosquito_risk":3,"arthritis_risk":5,"migraine_risk":3,"frizz_risk":0,"updated_at":"2026-03-02T02:57:03.031148+05:30"},{"city":"Ayodhya","state":"Uttar Pradesh","latitude":26.7922,"longitude":82.1998,"temp":15.6,"humidity":63,"rain":0.0,"pressure":996.3,"uv_index":6.4,"wind_gusts":36.7,"aqi":107,"pm10":131.8,"pm2_5":45.4,"mosquito_risk":3,"arthritis_risk":5,"migraine_risk":7,"frizz_risk":0,"updated_at":"2026-03-02T02:57:03.031154+05:30"},{"city":"Ratlam","state":"Madhya Pradesh","latitude":23.3315,"longitude":75.0367,"temp":21.4,"humidity":58,"rain":0.0,"pressure":955.2,"uv_index":7.25,"wind_gusts":8.3,"aqi":85,"pm10":61.5,"pm2_5":56.1,"mosquito_risk":0,"arthritis_risk":5,"migraine_risk":7,"frizz_risk":0,"updated_at":"2026-03-02T02:57:03.031160+05:30"},{"city":"Sagar","state":"Madhya Pradesh","latitude":23.8388,"longitude":78.7378,"temp":21.2,"humidity":51,"rain":0.0,"pressure":951.4,"uv_index":7.2,"wind_gusts":23.4,"aqi":59,"pm10":49.0,"pm2_5":29.6,"mosquito_risk":0,"arthritis_risk":5,"migraine_risk":7,"frizz_risk":0,"updated_at":"2026-03-02T02:57:03.031166+05:30"},{"city":"Satna","state":"Madhya Pradesh","latitude":24.6005,"longitude":80.8322,"temp":19.8,"humidity":38,"rain":0.0,"pressure":972.7,"uv_index":7.15,"wind_gusts":32.4,"aqi":84,"pm10":41.9,"pm2_5":24.8,"mosquito_risk":0,"arthritis_risk":5,"migraine_risk":7,"frizz_risk":0,"updated_at":"2026-03-02T02:57:03.031172+05:30"},{"city":"Akola","state":"Maharashtra","latitude":20.7002,"longitude":77.0082,"temp":22.6,"humidity":62,"rain":0.0,"pressure":975.7,"uv_index":7.75,"wind_gusts":23.0,"aqi":68,"pm10":32.1,"pm2_5":31.2,"mosquito_risk":3,"arthritis_risk":5,"migraine_risk":7,"frizz_risk":0,"updated_at":"2026-03-02T02:57:03.031179+05:30"},{"city":"Amravati","state":"Maharashtra","latitude":20.9374,"longitude":77.7796,"temp":21.4,"humidity":59,"rain":0.0,"pressure":967.5,"uv_index":7.7,"wind_gusts":22.3,"aqi":65,"pm10":32.7,"pm2_5":31.8,"mosquito_risk":0,"arthritis_risk":5,"migraine_risk":7,"frizz_risk":0,"updated_at":"2026-03-02T02:57:03.031187+05:30"},{"city":"Latur","state":"Maharashtra","latitude":18.4088,"longitude":76.5604,"temp":24.8,"humidity":55,"rain":0.0,"pressure":939.4,"uv_index":8.15,"wind_gusts":25.6,"aqi":75,"pm10":31.8,"pm2_5":31.3,"mosquito_risk":0,"arthritis_risk":5,"migraine_risk":7,"frizz_risk":0,"updated_at":"2026-03-02T02:57:03.031194+05:30"},{"city":"Nanded","state":"Maharashtra","latitude":19.1383,"longitude":77.3091,"temp":24.5,"humidity":63,"rain":0.0,"pressure":968.4,"uv_index":7.95,"wind_gusts":24.8,"aqi":76,"pm10":27.5,"pm2_5":27.1,"mosquito_risk":3,"arthritis_risk":5,"migraine_risk":7,"frizz_risk":1,"updated_at":"2026-03-02T02:57:03.031200+05:30"},{"city":"Gulbarga","state":"Karnataka","latitude":17.3297,"longitude":76.8343,"temp":26.0,"humidity":64,"rain":0.0,"pressure":958.1,"uv_index":8.25,"wind_gusts":17.3,"aqi":103,"pm10":44.1,"pm2_5":43.8,"mosquito_risk":7,"arthritis_risk":5,"migraine_risk":7,"frizz_risk":1,"updated_at":"2026-03-02T02:57:03.031206+05:30"},{"city":"Bidar","state":"Karnataka","latitude":17.9104,"longitude":77.5199,"temp":23.7,"humidity":63,"rain":0.0,"pressure":934.9,"uv_index":8.2,"wind_gusts":20.2,"aqi":107,"pm10":54.0,"pm2_5":53.6,"mosquito_risk":3,"arthritis_risk":5,"migraine_risk":7,"frizz_risk":1,"updated_at":"2026-03-02T02:57:03.031212+05:30"},{"city":"Hospet","state":"Karnataka","latitude":15.2689,"longitude":76.3909,"temp":24.6,"humidity":67,"rain":0.0,"pressure":955.6,"uv_index":8.6,"wind_gusts":22.3,"aqi":101,"pm10":50.2,"pm2_5":49.5,"mosquito_risk":3,"arthritis_risk":5,"migraine_risk":7,"frizz_risk":1,"updated_at":"2026-03-02T02:57:03.031217+05:30"},{"city":"Tirupur","state":"Tamil Nadu","latitude":11.1085,"longitude":77.3411,"temp":24.1,"humidity":82,"rain":0.0,"pressure":975.5,"uv_index":9.1,"wind_gusts":28.4,"aqi":151,"pm10":52.4,"pm2_5":51.3,"mosquito_risk":3,"arthritis_risk":5,"migraine_risk":7,"frizz_risk":1,"updated_at":"2026-03-02T02:57:03.031223+05:30"},{"city":"Alappuzha","state":"Kerala","latitude":9.4981,"longitude":76.3388,"temp":26.6,"humidity":84,"rain":0.0,"pressure":1009.0,"uv_index":8.9,"wind_gusts":30.2,"aqi":93,"pm10":37.4,"pm2_5":35.9,"mosquito_risk":7,"arthritis_risk":0,"migraine_risk":4,"frizz_risk":1,"updated_at":"2026-03-02T02:57:03.031229+05:30"},{"city":"Munnar","state":"Kerala","latitude":10.0889,"longitude":77.0595,"temp":17.1,"humidity":91,"rain":0.0,"pressure":854.9,"uv_index":9.4,"wind_gusts":30.6,"aqi":132,"pm10":45.6,"pm2_5":44.6,"mosquito_risk":3,"arthritis_risk":10,"migraine_risk":7,"frizz_risk":0,"updated_at":"2026-03-02T02:57:03.031236+05:30"},{"city":"Silchar","state":"Assam","latitude":24.8333,"longitude":92.7789,"temp":19.0,"humidity":86,"rain":0.0,"pressure":1006.2,"uv_index":7.35,"wind_gusts":30.6,"aqi":156,"pm10":77.3,"pm2_5":62.4,"mosquito_risk":3,"arthritis_risk":10,"migraine_risk":4,"frizz_risk":1,"updated_at":"2026-03-02T02:57:03.031243+05:30"},{"city":"Dibrugarh","state":"Assam","latitude":27.4728,"longitude":94.912,"temp":19.3,"humidity":83,"rain":0.0,"pressure":997.5,"uv_index":7.05,"wind_gusts":10.4,"aqi":157,"pm10":63.3,"pm2_5":56.7,"mosquito_risk":3,"arthritis_risk":10,"migraine_risk":7,"frizz_risk":1,"updated_at":"2026-03-02T02:57:03.031249+05:30"}]