[{"city":"Delhi","state":"Delhi","latitude":28.6139,"longitude":77.209,"temp":39.1,"humidity":24,"rain":0.0,"pressure":981.8,"uv_index":6.7,"wind_gusts":19.1,"aqi":153,"pm10":196.5,"pm2_5":41.7,"mosquito_risk":0,"arthritis_risk":5,"migraine_risk":10,"frizz_risk":0,"updated_at":"2026-04-18T15:22:23.675302+05:30"},{"city":"Mumbai","state":"Maharashtra","latitude":19.076,"longitude":72.8777,"temp":30.1,"humidity":76,"rain":0.0,"pressure":1006.6,"uv_index":7.0,"wind_gusts":24.1,"aqi":93,"pm10":57.6,"pm2_5":33.9,"mosquito_risk":3,"arthritis_risk":5,"migraine_risk":4,"frizz_risk":1,"updated_at":"2026-04-18T15:22:23.675344+05:30"},{"city":"Bangalore","state":"Karnataka","latitude":12.9716,"longitude":77.5946,"temp":36.2,"humidity":20,"rain":0.0,"pressure":911.1,"uv_index":8.8,"wind_gusts":34.6,"aqi":106,"pm10":35.4,"pm2_5":28.9,"mosquito_risk":0,"arthritis_risk":5,"migraine_risk":10,"frizz_risk":0,"updated_at":"2026-04-18T15:22:23.675360+05:30"},{"city":"Hyderabad","state":"Telangana","latitude":17.385,"longitude":78.4867,"temp":37.5,"humidity":33,"rain":0.0,"pressure":950.8,"uv_index":9.3,"wind_gusts":47.2,"aqi":106,"pm10":42.8,"pm2_5":34.7,"mosquito_risk":0,"arthritis_risk":5,"migraine_risk":10,"frizz_risk":1,"updated_at":"2026-04-18T15:22:23.675370+05:30"},{"city":"Chennai","state":"Tamil Nadu","latitude":13.0827,"longitude":80.2707,"temp":34.5,"humidity":52,"rain":0.0,"pressure":1005.0,"uv_index":8.7,"wind_gusts":31.7,"aqi":44,"pm10":14.8,"pm2_5":9.3,"mosquito_risk":0,"arthritis_risk":5,"migraine_risk":4,"frizz_risk":1,"updated_at":"2026-04-18T15:22:23.675379+05:30"},{"city":"Kolkata","state":"West Bengal","latitude":22.5726,"longitude":88.3639,"temp":34.4,"humidity":58,"rain":0.0,"pressure":1003.0,"uv_index":8.85,"wind_gusts":26.3,"aqi":68,"pm10":39.2,"pm2_5":29.6,"mosquito_risk":0,"arthritis_risk":5,"migraine_risk":4,"frizz_risk":1,"updated_at":"2026-04-18T15:22:23.675392+05:30"},{"city":"Pune","state":"Maharashtra","latitude":18.5204,"longitude":73.8567,"temp":39.4,"humidity":20,"rain":0.0,"pressure":948.0,"uv_index":8.45,"wind_gusts":30.2,"aqi":93,"pm10":38.3,"pm2_5":30.6,"mosquito_risk":0,"arthritis_risk":5,"migraine_risk":10,"frizz_risk":0,"updated_at":"2026-04-18T15:22:23.675400+05:30"},{"city":"Ahmedabad","state":"Gujarat","latitude":23.0225,"longitude":72.5714,"temp":40.9,"humidity":17,"rain":0.0,"pressure":1000.2,"uv_index":8.15,"wind_gusts":26.6,"aqi":62,"pm10":36.2,"pm2_5":12.7,"mosquito_risk":0,"arthritis_risk":5,"migraine_risk":7,"frizz_risk":0,"updated_at":"2026-04-18T15:22:23.675408+05:30"},{"city":"Jaipur","state":"Rajasthan","latitude":26.9124,"longitude":75.7873,"temp":40.6,"humidity":15,"rain":0.0,"pressure":959.0,"uv_index":7.95,"wind_gusts":30.2,"aqi":189,"pm10":204.0,"pm2_5":28.6,"mosquito_risk":0,"arthritis_risk":5,"migraine_risk":10,"frizz_risk":0,"updated_at":"2026-04-18T15:22:23.675416+05:30"},{"city":"Lucknow","state":"Uttar Pradesh","latitude":26.8467,"longitude":80.9462,"temp":40.5,"humidity":19,"rain":0.0,"pressure":990.8,"uv_index":7.85,"wind_gusts":31.3,"aqi":123,"pm10":121.5,"pm2_5":26.4,"mosquito_risk":0,"arthritis_risk":5,"migraine_risk":10,"frizz_risk":0,"updated_at":"2026-04-18T15:22:23.675423+05:30"},{"city":"Kanpur","state":"Uttar Pradesh","latitude":26.4499,"longitude":80.3319,"temp":39.6,"humidity":22,"rain":0.0,"pressure":989.6,"uv_index":7.85,"wind_gusts":25.2,"aqi":118,"pm10":204.9,"pm2_5":35.3,"mosquito_risk":0,"arthritis_risk":5,"migraine_risk":10,"frizz_risk":0,"updated_at":"2026-04-18T15:22:23.675431+05:30"},{"city":"Chandigarh","state":"Chandigarh","latitude":30.7333,"longitude":76.7794,"temp":37.6,"humidity":22,"rain":0.0,"pressure":968.3,"uv_index":7.1,"wind_gusts":21.2,"aqi":64,"pm10":45.8,"pm2_5":13.8,"mosquito_risk":0,"arthritis_risk":5,"migraine_risk":10,"frizz_risk":0,"updated_at":"2026-04-18T15:22:23.675438+05:30"},{"city":"Srinagar","state":"Jammu and Kashmir","latitude":34.0837,"longitude":74.7973,"temp":14.8,"humidity":86,"rain":0.0,"pressure":846.1,"uv_index":5.85,"wind_gusts":28.8,"aqi":74,"pm10":27.5,"pm2_5":11.4,"mosquito_risk":3,"arthritis_risk":10,"migraine_risk":3,"frizz_risk":0,"updated_at":"2026-04-18T15:22:23.675446+05:30"},{"city":"Jammu","state":"Jammu and Kashmir","latitude":32.7266,"longitude":74.857,"temp":33.6,"humidity":26,"rain":0.0,"pressure":975.0,"uv_index":6.7,"wind_gusts":37.8,"aqi":57,"pm10":54.6,"pm2_5":15.0,"mosquito_risk":0,"arthritis_risk":5,"migraine_risk":7,"frizz_risk":0,"updated_at":"2026-04-18T15:22:23.675453+05:30"},{"city":"Amritsar","state":"Punjab","latitude":31.634,"longitude":74.8723,"temp":34.4,"humidity":26,"rain":0.0,"pressure":981.7,"uv_index":7.65,"wind_gusts":42.5,"aqi":61,"pm10":50.5,"pm2_5":13.6,"mosquito_risk":0,"arthritis_risk":5,"migraine_risk":7,"frizz_risk":0,"updated_at":"2026-04-18T15:22:23.675462+05:30"},{"city":"Ludhiana","state":"Punjab","latitude":30.901,"longitude":75.8573,"temp":38.1,"humidity":20,"rain":0.0,"pressure":978.1,"uv_index":7.55,"wind_gusts":28.1,"aqi":65,"pm10":48.8,"pm2_5":13.8,"mosquito_risk":0,"arthritis_risk":5,"migraine_risk":10,"frizz_risk":0,"updated_at":"2026-04-18T15:22:23.675470+05:30"},{"city":"Jalandhar","state":"Punjab","latitude":31.326,"longitude":75.5762,"temp":36.9,"humidity":21,"rain":0.0,"pressure":980.0,"uv_index":7.65,"wind_gusts":42.1,"aqi":59,"pm10":55.2,"pm2_5":14.4,"mosquito_risk":0,"arthritis_risk":5,"migraine_risk":10,"frizz_risk":0,"updated_at":"2026-04-18T15:22:23.675477+05:30"},{"city":"Dehradun","state":"Uttarakhand","latitude":30.6284,"longitude":78.0322,"temp":26.9,"humidity":33,"rain":0.0,"pressure":834.5,"uv_index":7.7,"wind_gusts":42.1,"aqi":49,"pm10":20.6,"pm2_5":5.8,"mosquito_risk":4,"arthritis_risk":5,"migraine_risk":7,"frizz_risk":0,"updated_at":"2026-04-18T15:22:23.675484+05:30"},{"city":"Shimla","state":"Himachal Pradesh","latitude":31.1048,"longitude":77.1734,"temp":25.5,"humidity":26,"rain":0.0,"pressure":790.6,"uv_index":7.75,"wind_gusts":44.6,"aqi":48,"pm10":23.3,"pm2_5":6.5,"mosquito_risk":4,"arthritis_risk":5,"migraine_risk":7,"frizz_risk":0,"updated_at":"2026-04-18T15:22:23.675491+05:30"},{"city":"Manali","state":"Himachal Pradesh","latitude":32.2396,"longitude":77.1887,"temp":22.9,"humidity":32,"rain":0.0,"pressure":826.7,"uv_index":8.9,"wind_gusts":25.2,"aqi":68,"pm10":29.2,"pm2_5":7.3,"mosquito_risk":0,"arthritis_risk":5,"migraine_risk":7,"frizz_risk":0,"updated_at":"2026-04-18T15:22:23.675498+05:30"},{"city":"Gurgaon","state":"Haryana","latitude":28.4595,"longitude":77.0266,"temp":39.7,"humidity":21,"rain":0.0,"pressure":980.1,"uv_index":7.0,"wind_gusts":22.7,"aqi":461,"pm10":408.9,"pm2_5":66.4,"mosquito_risk":0,"arthritis_risk":5,"migraine_risk":10,"frizz_risk":0,"updated_at":"2026-04-18T15:22:23.675504+05:30"},{"city":"Noida","state":"Uttar Pradesh","latitude":28.5355,"longitude":77.391,"temp":39.5,"humidity":24,"rain":0.0,"pressure":983.2,"uv_index":6.8,"wind_gusts":21.2,"aqi":461,"pm10":408.9,"pm2_5":66.4,"mosquito_risk":0,"arthritis_risk":5,"migraine_risk":10,"frizz_risk":0,"updated_at":"2026-04-18T15:22:23.675511+05:30"},{"city":"Ghaziabad","state":"Uttar Pradesh","latitude":28.6692,"longitude":77.4538,"temp":38.7,"humidity":25,"rain":0.0,"pressure":981.6,"uv_index":6.6,"wind_gusts":14.0,"aqi":123,"pm10":139.2,"pm2_5":33.1,"mosquito_risk":0,"arthritis_risk":5,"migraine_risk":10,"frizz_risk":0,"updated_at":"2026-04-18T15:22:23.675517+05:30"},{"city":"Faridabad","state":"Haryana","latitude":28.4089,"longitude":77.3178,"temp":40.4,"humidity":19,"rain":0.0,"pressure":982.3,"uv_index":6.95,"wind_gusts":25.9,"aqi":461,"pm10":408.9,"pm2_5":66.4,"mosquito_risk":0,"arthritis_risk":5,"migraine_risk":10,"frizz_risk":0,"updated_at":"2026-04-18T15:22:23.675524+05:30"},{"city":"Meerut","state":"Uttar Pradesh","latitude":28.9845,"longitude":77.7064,"temp":39.1,"humidity":21,"rain":0.0,"pressure":980.2,"uv_index":6.8,"wind_gusts":20.2,"aqi":123,"pm10":139.2,"pm2_5":33.1,"mosquito_risk":0,"arthritis_risk":5,"migraine_risk":10,"frizz_risk":0,"updated_at":"2026-04-18T15:22:23.675530+05:30"},{"city":"Agra","state":"Uttar Pradesh","latitude":27.1767,"longitude":78.0081,"temp":41.2,"humidity":19,"rain":0.0,"pressure":985.9,"uv_index":7.7,"wind_gusts":20.9,"aqi":564,"pm10":231.0,"pm2_5":41.9,"mosquito_risk":0,"arthritis_risk":5,"migraine_risk":10,"frizz_risk":0,"updated_at":"2026-04-18T15:22:23.675539+05:30"},{"city":"Varanasi","state":"Uttar Pradesh","latitude":25.3176,"longitude":82.9739,"temp":42.2,"humidity":16,"rain":0.0,"pressure":994.2,"uv_index":7.95,"wind_gusts":27.7,"aqi":133,"pm10":95.7,"pm2_5":24.1,"mosquito_risk":0,"arthritis_risk":5,"migraine_risk":10,"frizz_risk":0,"updated_at":"2026-04-18T15:22:23.675546+05:30"},{"city":"Prayagraj","state":"Uttar Pradesh","latitude":25.4358,"longitude":81.8463,"temp":42.0,"humidity":15,"rain":0.0,"pressure":993.0,"uv_index":7.9,"wind_gusts":28.1,"aqi":141,"pm10":102.7,"pm2_5":25.6,"mosquito_risk":0,"arthritis_risk":5,"migraine_risk":10,"frizz_risk":0,"updated_at":"2026-04-18T15:22:23.675552+05:30"},{"city":"Gorakhpur","state":"Uttar Pradesh","latitude":26.7606,"longitude":83.3732,"temp":39.6,"humidity":26,"rain":0.0,"pressure":993.8,"uv_index":8.15,"wind_gusts":32.0,"aqi":155,"pm10":76.4,"pm2_5":40.5,"mosquito_risk":0,"arthritis_risk":5,"migraine_risk":10,"frizz_risk":1,"updated_at":"2026-04-18T15:22:23.675559+05:30"},{"city":"Bareilly","state":"Uttar Pradesh","latitude":28.367,"longitude":79.4304,"temp":40.2,"humidity":19,"rain":0.0,"pressure":984.6,"uv_index":7.6,"wind_gusts":29.9,"aqi":101,"pm10":53.9,"pm2_5":16.7,"mosquito_risk":0,"arthritis_risk":5,"migraine_risk":10,"frizz_risk":0,"updated_at":"2026-04-18T15:22:23.675565+05:30"},{"city":"Aligarh","state":"Uttar Pradesh","latitude":27.8974,"longitude":78.088,"temp":41.4,"humidity":16,"rain":0.0,"pressure":983.5,"uv_index":7.35,"wind_gusts":25.6,"aqi":168,"pm10":336.2,"pm2_5":53.2,"mosquito_risk":0,"arthritis_risk":5,"migraine_risk":10,"frizz_risk":0,"updated_at":"2026-04-18T15:22:23.675572+05:30"},{"city":"Moradabad","state":"Uttar Pradesh","latitude":28.8386,"longitude":78.7733,"temp":39.4,"humidity":20,"rain":0.0,"pressure":982.0,"uv_index":7.4,"wind_gusts":27.4,"aqi":109,"pm10":61.0,"pm2_5":17.0,"mosquito_risk":0,"arthritis_risk":5,"migraine_risk":10,"frizz_risk":0,"updated_at":"2026-04-18T15:22:23.675578+05:30"},{"city":"Saharanpur","state":"Uttar Pradesh","latitude":29.9637,"longitude":77.546,"temp":37.7,"humidity":21,"rain":0.0,"pressure":974.7,"uv_index":7.0,"wind_gusts":21.2,"aqi":102,"pm10":67.8,"pm2_5":17.3,"mosquito_risk":0,"arthritis_risk":5,"migraine_risk":10,"frizz_risk":0,"updated_at":"2026-04-18T15:22:23.675586+05:30"},{"city":"Jhansi","state":"Uttar Pradesh","latitude":25.4484,"longitude":78.5685,"temp":42.5,"humidity":13,"rain":0.0,"pressure":975.7,"uv_index":7.85,"wind_gusts":25.9,"aqi":102,"pm10":61.9,"pm2_5":21.2,"mosquito_risk":0,"arthritis_risk":5,"migraine_risk":10,"frizz_risk":0,"updated_at":"2026-04-18T15:22:27.007804+05:30"},{"city":"Surat","state":"Gujarat","latitude":21.1702,"longitude":72.8311,"temp":36.4,"humidity":44,"rain":0.0,"pressure":1005.4,"uv_index":7.8,"wind_gusts":28.8,"aqi":112,"pm10":54.1,"pm2_5":33.4,"mosquito_risk":0,"arthritis_risk":5,"migraine_risk":7,"frizz_risk":1,"updated_at":"2026-04-18T15:22:27.007834+05:30"},{"city":"Vadodara","state":"Gujarat","latitude":22.3072,"longitude":73.1812,"temp":42.0,"humidity":21,"rain":0.0,"pressure":1001.8,"uv_index":8.15,"wind_gusts":19.8,"aqi":91,"pm10":34.8,"pm2_5":14.7,"mosquito_risk":0,"arthritis_risk":5,"migraine_risk":7,"frizz_risk":0,"updated_at":"2026-04-18T15:22:27.007843+05:30"},{"city":"Rajkot","state":"Gujarat","latitude":22.3039,"longitude":70.8022,"temp":39.1,"humidity":18,"rain":0.0,"pressure":993.3,"uv_index":7.8,"wind_gusts":29.2,"aqi":58,"pm10":46.3,"pm2_5":12.7,"mosquito_risk":0,"arthritis_risk":5,"migraine_risk":10,"frizz_risk":0,"updated_at":"2026-04-18T15:22:27.007851+05:30"},{"city":"Thane","state":"Maharashtra","latitude":19.2183,"longitude":72.9781,"temp":32.8,"humidity":58,"rain":0.0,"pressure":1006.3,"uv_index":7.75,"wind_gusts":33.5,"aqi":93,"pm10":57.6,"pm2_5":33.9,"mosquito_risk":0,"arthritis_risk":5,"migraine_risk":4,"frizz_risk":1,"updated_at":"2026-04-18T15:22:27.007858+05:30"},{"city":"Nagpur","state":"Maharashtra","latitude":21.1458,"longitude":79.0882,"temp":41.5,"humidity":15,"rain":0.0,"pressure":970.4,"uv_index":7.6,"wind_gusts":21.2,"aqi":117,"pm10":51.3,"pm2_5":37.6,"mosquito_risk":0,"arthritis_risk":5,"migraine_risk":10,"frizz_risk":0,"updated_at":"2026-04-18T15:22:27.007866+05:30"},{"city":"Nashik","state":"Maharashtra","latitude":19.9975,"longitude":73.7898,"temp":36.8,"humidity":19,"rain":0.0,"pressure":945.4,"uv_index":8.1,"wind_gusts":25.9,"aqi":74,"pm10":29.9,"pm2_5":16.6,"mosquito_risk":0,"arthritis_risk":5,"migraine_risk":10,"frizz_risk":0,"updated_at":"2026-04-18T15:22:27.007873+05:30"},{"city":"Aurangabad","state":"Maharashtra","latitude":19.8762,"longitude":75.3433,"temp":40.1,"humidity":14,"rain":0.0,"pressure":943.6,"uv_index":6.55,"wind_gusts":29.2,"aqi":79,"pm10":24.2,"pm2_5":17.1,"mosquito_risk":0,"arthritis_risk":5,"migraine_risk":10,"frizz_risk":0,"updated_at":"2026-04-18T15:22:27.007879+05:30"},{"city":"Solapur","state":"Maharashtra","latitude":17.6599,"longitude":75.9064,"temp":38.0,"humidity":27,"rain":0.0,"pressure":954.8,"uv_index":8.0,"wind_gusts":20.9,"aqi":119,"pm10":40.5,"pm2_5":33.9,"mosquito_risk":0,"arthritis_risk":5,"migraine_risk":10,"frizz_risk":0,"updated_at":"2026-04-18T15:22:27.007886+05:30"},{"city":"Kolhapur","state":"Maharashtra","latitude":16.705,"longitude":74.2433,"temp":34.3,"humidity":48,"rain":0.0,"pressure":947.2,"uv_index":8.7,"wind_gusts":43.9,"aqi":93,"pm10":41.3,"pm2_5":34.0,"mosquito_risk":0,"arthritis_risk":5,"migraine_risk":7,"frizz_risk":1,"updated_at":"2026-04-18T15:22:27.007893+05:30"},{"city":"Goa","state":"Goa","latitude":15.2993,"longitude":74.124,"temp":32.3,"humidity":67,"rain":0.0,"pressure":996.1,"uv_index":9.05,"wind_gusts":27.7,"aqi":71,"pm10":55.3,"pm2_5":23.2,"mosquito_risk":3,"arthritis_risk":5,"migraine_risk":7,"frizz_risk":1,"updated_at":"2026-04-18T15:22:27.007900+05:30"},{"city":"Jodhpur","state":"Rajasthan","latitude":26.2389,"longitude":73.0243,"temp":40.3,"humidity":15,"rain":0.0,"pressure":981.9,"uv_index":8.15,"wind_gusts":30.2,"aqi":99,"pm10":133.6,"pm2_5":21.7,"mosquito_risk":0,"arthritis_risk":5,"migraine_risk":10,"frizz_risk":0,"updated_at":"2026-04-18T15:22:27.007907+05:30"},{"city":"Udaipur","state":"Rajasthan","latitude":24.5854,"longitude":73.7125,"temp":38.1,"humidity":20,"rain":0.0,"pressure":946.9,"uv_index":8.7,"wind_gusts":29.5,"aqi":49,"pm10":66.6,"pm2_5":14.2,"mosquito_risk":0,"arthritis_risk":5,"migraine_risk":10,"frizz_risk":0,"updated_at":"2026-04-18T15:22:27.007914+05:30"},{"city":"Kota","state":"Rajasthan","latitude":25.2138,"longitude":75.8648,"temp":42.6,"humidity":14,"rain":0.0,"pressure":976.5,"uv_index":8.25,"wind_gusts":23.0,"aqi":59,"pm10":67.8,"pm2_5":15.1,"mosquito_risk":0,"arthritis_risk":5,"migraine_risk":10,"frizz_risk":0,"updated_at":"2026-04-18T15:22:27.007920+05:30"},{"city":"Bikaner","state":"Rajasthan","latitude":28.0229,"longitude":73.3119,"temp":40.4,"humidity":18,"rain":0.0,"pressure":980.4,"uv_index":7.45,"wind_gusts":29.9,"aqi":74,"pm10":49.0,"pm2_5":14.0,"mosquito_risk":0,"arthritis_risk":5,"migraine_risk":10,"frizz_risk":0,"updated_at":"2026-04-18T15:22:27.007926+05:30"},{"city":"Ajmer","state":"Rajasthan","latitude":26.4499,"longitude":74.6399,"temp":38.8,"humidity":17,"rain":0.0,"pressure":954.4,"uv_index":8.15,"wind_gusts":33.5,"aqi":55,"pm10":125.7,"pm2_5":20.5,"mosquito_risk":0,"arthritis_risk":5,"migraine_risk":10,"frizz_risk":0,"updated_at":"2026-04-18T15:22:27.007933+05:30"},{"city":"Gwalior","state":"Madhya Pradesh","latitude":26.2183,"longitude":78.1828,"temp":41.7,"humidity":16,"rain":0.0,"pressure":981.4,"uv_index":7.95,"wind_gusts":25.2,"aqi":116,"pm10":76.4,"pm2_5":17.9,"mosquito_risk":0,"arthritis_risk":5,"migraine_risk":10,"frizz_risk":0,"updated_at":"2026-04-18T15:22:27.007939+05:30"},{"city":"Indore","state":"Madhya Pradesh","latitude":22.7196,"longitude":75.8577,"temp":38.5,"humidity":13,"rain":0.0,"pressure":947.7,"uv_index":8.45,"wind_gusts":25.6,"aqi":62,"pm10":13.7,"pm2_5":8.3,"mosquito_risk":0,"arthritis_risk":5,"migraine_risk":10,"frizz_risk":0,"updated_at":"2026-04-18T15:22:27.007946+05:30"},{"city":"Bhopal","state":"Madhya Pradesh","latitude":23.2599,"longitude":77.4126,"temp":41.7,"humidity":10,"rain":0.0,"pressure":952.5,"uv_index":7.9,"wind_gusts":23.8,"aqi":63,"pm10":18.6,"pm2_5":12.5,"mosquito_risk":0,"arthritis_risk":5,"migraine_risk":10,"frizz_risk":0,"updated_at":"2026-04-18T15:22:27.007952+05:30"},{"city":"Jabalpur","state":"Madhya Pradesh","latitude":23.1815,"longitude":79.9864,"temp":40.1,"humidity":18,"rain":0.0,"pressure":960.0,"uv_index":7.5,"wind_gusts":27.0,"aqi":106,"pm10":40.3,"pm2_5":17.9,"mosquito_risk":0,"arthritis_risk":5,"migraine_risk":10,"frizz_risk":0,"updated_at":"2026-04-18T15:22:27.007959+05:30"},{"city":"Ujjain","state":"Madhya Pradesh","latitude":23.1765,"longitude":75.7885,"temp":38.9,"humidity":14,"rain":0.0,"pressure":953.3,"uv_index":8.5,"wind_gusts":23.8,"aqi":55,"pm10":13.9,"pm2_5":7.5,"mosquito_risk":0,"arthritis_risk":5,"migraine_risk":10,"frizz_risk":0,"updated_at":"2026-04-18T15:22:27.007966+05:30"},{"city":"Visakhapatnam","state":"Andhra Pradesh","latitude":17.6868,"longitude":83.2185,"temp":33.1,"humidity":59,"rain":0.0,"pressure":1002.0,"uv_index":9.15,"wind_gusts":35.3,"aqi":61,"pm10":32.0,"pm2_5":21.9,"mosquito_risk":0,"arthritis_risk":5,"migraine_risk":4,"frizz_risk":1,"updated_at":"2026-04-18T15:22:27.007973+05:30"},{"city":"Vijayawada","state":"Andhra Pradesh","latitude":16.5062,"longitude":80.648,"temp":37.0,"humidity":39,"rain":0.0,"pressure":999.7,"uv_index":8.9,"wind_gusts":25.6,"aqi":56,"pm10":29.2,"pm2_5":19.1,"mosquito_risk":0,"arthritis_risk":5,"migraine_risk":10,"frizz_risk":1,"updated_at":"2026-04-18T15:22:27.007979+05:30"},{"city":"Guntur","state":"Andhra Pradesh","latitude":16.3067,"longitude":80.4365,"temp":36.3,"humidity":42,"rain":0.0,"pressure":1001.1,"uv_index":8.9,"wind_gusts":29.5,"aqi":59,"pm10":31.9,"pm2_5":21.8,"mosquito_risk":0,"arthritis_risk":5,"migraine_risk":7,"frizz_risk":1,"updated_at":"2026-04-18T15:22:27.007985+05:30"},{"city":"Nellore","state":"Andhra Pradesh","latitude":14.4426,"longitude":79.9865,"temp":36.6,"humidity":47,"rain":0.0,"pressure":1002.8,"uv_index":8.65,"wind_gusts":32.0,"aqi":55,"pm10":29.6,"pm2_5":21.1,"mosquito_risk":0,"arthritis_risk":5,"migraine_risk":7,"frizz_risk":1,"updated_at":"2026-04-18T15:22:27.007993+05:30"},{"city":"Kurnool","state":"Andhra Pradesh","latitude":15.8281,"longitude":78.0373,"temp":42.2,"humidity":17,"rain":0.0,"pressure":973.3,"uv_index":9.2,"wind_gusts":31.3,"aqi":91,"pm10":38.6,"pm2_5":30.7,"mosquito_risk":0,"arthritis_risk":5,"migraine_risk":10,"frizz_risk":0,"updated_at":"2026-04-18T15:22:27.008000+05:30"},{"city":"Kakinada","state":"Andhra Pradesh","latitude":16.9891,"longitude":82.2475,"temp":36.4,"humidity":48,"rain":0.0,"pressure":1004.9,"uv_index":9.1,"wind_gusts":27.0,"aqi":52,"pm10":24.3,"pm2_5":14.5,"mosquito_risk":0,"arthritis_risk":5,"migraine_risk":7,"frizz_risk":1,"updated_at":"2026-04-18T15:22:27.008006+05:30"},{"city":"Tirupati","state":"Andhra Pradesh","latitude":13.6288,"longitude":79.4192,"temp":37.2,"humidity":31,"rain":0.0,"pressure":989.1,"uv_index":8.95,"wind_gusts":32.0,"aqi":67,"pm10":24.0,"pm2_5":17.9,"mosquito_risk":0,"arthritis_risk":5,"migraine_risk":10,"frizz_risk":1,"updated_at":"2026-04-18T15:22:27.008013+05:30"},{"city":"Warangal","state":"Telangana","latitude":17.9689,"longitude":79.5941,"temp":39.0,"humidity":32,"rain":0.0,"pressure":976.0,"uv_index":8.8,"wind_gusts":27.0,"aqi":86,"pm10":37.1,"pm2_5":30.9,"mosquito_risk":0,"arthritis_risk":5,"migraine_risk":10,"frizz_risk":1,"updated_at":"2026-04-18T15:22:27.008019+05:30"},{"city":"Nizamabad","state":"Telangana","latitude":18.6725,"longitude":78.0941,"temp":40.3,"humidity":20,"rain":0.0,"pressure":962.2,"uv_index":8.8,"wind_gusts":31.3,"aqi":118,"pm10":31.3,"pm2_5":23.5,"mosquito_risk":0,"arthritis_risk":5,"migraine_risk":10,"frizz_risk":0,"updated_at":"2026-04-18T15:22:27.008026+05:30"},{"city":"Mysore","state":"Karnataka","latitude":12.2958,"longitude":76.6396,"temp":37.2,"humidity":20,"rain":0.0,"pressure":927.2,"uv_index":8.9,"wind_gusts":40.3,"aqi":94,"pm10":29.7,"pm2_5":23.4,"mosquito_risk":0,"arthritis_risk":5,"migraine_risk":10,"frizz_risk":0,"updated_at":"2026-04-18T15:22:27.008032+05:30"},{"city":"Mangalore","state":"Karnataka","latitude":12.9141,"longitude":74.856,"temp":29.8,"humidity":80,"rain":0.0,"pressure":1004.2,"uv_index":9.15,"wind_gusts":21.6,"aqi":64,"pm10":29.8,"pm2_5":17.3,"mosquito_risk":7,"arthritis_risk":5,"migraine_risk":4,"frizz_risk":1,"updated_at":"2026-04-18T15:22:27.008039+05:30"},{"city":"Hubli-Dharwad","state":"Karnataka","latitude":15.3647,"longitude":75.124,"temp":36.2,"humidity":34,"rain":0.0,"pressure":939.5,"uv_index":9.25,"wind_gusts":29.5,"aqi":71,"pm10":31.2,"pm2_5":24.1,"mosquito_risk":0,"arthritis_risk":5,"migraine_risk":10,"frizz_risk":1,"updated_at":"2026-04-18T15:22:27.008045+05:30"},{"city":"Belgaum","state":"Karnataka","latitude":15.8497,"longitude":74.4977,"temp":30.6,"humidity":62,"rain":0.0,"pressure":925.2,"uv_index":9.25,"wind_gusts":29.2,"aqi":118,"pm10":49.6,"pm2_5":37.8,"mosquito_risk":3,"arthritis_risk":5,"migraine_risk":7,"frizz_risk":1,"updated_at":"2026-04-18T15:22:30.340294+05:30"},{"city":"Coimbatore","state":"Tamil Nadu","latitude":11.0168,"longitude":76.9558,"temp":37.9,"humidity":26,"rain":0.0,"pressure":959.5,"uv_index":9.2,"wind_gusts":30.2,"aqi":105,"pm10":29.7,"pm2_5":21.1,"mosquito_risk":0,"arthritis_risk":5,"migraine_risk":10,"frizz_risk":0,"updated_at":"2026-04-18T15:22:30.340329+05:30"},{"city":"Madurai","state":"Tamil Nadu","latitude":9.9252,"longitude":78.1198,"temp":38.4,"humidity":32,"rain":0.0,"pressure":989.6,"uv_index":9.35,"wind_gusts":32.8,"aqi":78,"pm10":17.9,"pm2_5":13.1,"mosquito_risk":0,"arthritis_risk":5,"migraine_risk":10,"frizz_risk":1,"updated_at":"2026-04-18T15:22:30.340340+05:30"},{"city":"Trichy","state":"Tamil Nadu","latitude":10.7905,"longitude":78.7047,"temp":36.9,"humidity":41,"rain":0.0,"pressure":996.5,"uv_index":9.35,"wind_gusts":18.4,"aqi":67,"pm10":11.5,"pm2_5":8.1,"mosquito_risk":0,"arthritis_risk":5,"migraine_risk":10,"frizz_risk":1,"updated_at":"2026-04-18T15:22:30.340350+05:30"},{"city":"Salem","state":"Tamil Nadu","latitude":11.6643,"longitude":78.146,"temp":37.3,"humidity":36,"rain":0.0,"pressure":974.6,"uv_index":9.35,"wind_gusts":18.4,"aqi":89,"pm10":28.2,"pm2_5":19.7,"mosquito_risk":0,"arthritis_risk":5,"migraine_risk":10,"frizz_risk":1,"updated_at":"2026-04-18T15:22:30.340360+05:30"},{"city":"Tirunelveli","state":"Tamil Nadu","latitude":8.7139,"longitude":77.7567,"temp":39.3,"humidity":28,"rain":0.0,"pressure":999.3,"uv_index":9.25,"wind_gusts":48.2,"aqi":93,"pm10":21.1,"pm2_5":17.6,"mosquito_risk":0,"arthritis_risk":5,"migraine_risk":10,"frizz_risk":1,"updated_at":"2026-04-18T15:22:30.340368+05:30"},{"city":"Vellore","state":"Tamil Nadu","latitude":12.9165,"longitude":79.1325,"temp":36.4,"humidity":33,"rain":0.0,"pressure":982.3,"uv_index":8.9,"wind_gusts":27.0,"aqi":93,"pm10":26.1,"pm2_5":20.1,"mosquito_risk":0,"arthritis_risk":5,"migraine_risk":10,"frizz_risk":1,"updated_at":"2026-04-18T15:22:30.340376+05:30"},{"city":"Erode","state":"Tamil Nadu","latitude":11.341,"longitude":77.7172,"temp":39.8,"humidity":26,"rain":0.0,"pressure":985.8,"uv_index":9.35,"wind_gusts":25.6,"aqi":75,"pm10":23.9,"pm2_5":15.8,"mosquito_risk":0,"arthritis_risk":5,"migraine_risk":10,"frizz_risk":1,"updated_at":"2026-04-18T15:22:30.340385+05:30"},{"city":"Kochi","state":"Kerala","latitude":9.9312,"longitude":76.2673,"temp":29.9,"humidity":82,"rain":0.0,"pressure":1005.5,"uv_index":9.1,"wind_gusts":28.8,"aqi":91,"pm10":33.2,"pm2_5":23.9,"mosquito_risk":7,"arthritis_risk":5,"migraine_risk":4,"frizz_risk":1,"updated_at":"2026-04-18T15:22:30.340395+05:30"},{"city":"Thiruvananthapuram","state":"Kerala","latitude":8.5241,"longitude":76.9366,"temp":29.7,"humidity":81,"rain":0.0,"pressure":1005.0,"uv_index":9.1,"wind_gusts":26.6,"aqi":83,"pm10":37.7,"pm2_5":26.5,"mosquito_risk":7,"arthritis_risk":5,"migraine_risk":4,"frizz_risk":1,"updated_at":"2026-04-18T15:22:30.340404+05:30"},{"city":"Kozhikode","state":"Kerala","latitude":11.2588,"longitude":75.7804,"temp":31.4,"humidity":75,"rain":0.0,"pressure":1005.0,"uv_index":8.65,"wind_gusts":29.9,"aqi":72,"pm10":26.4,"pm2_5":17.6,"mosquito_risk":3,"arthritis_risk":5,"migraine_risk":4,"frizz_risk":1,"updated_at":"2026-04-18T15:22:30.340413+05:30"},{"city":"Thrissur","state":"Kerala","latitude":10.5276,"longitude":76.2144,"temp":33.7,"humidity":64,"rain":0.0,"pressure":1004.0,"uv_index":8.8,"wind_gusts":37.8,"aqi":84,"pm10":35.7,"pm2_5":25.0,"mosquito_risk":3,"arthritis_risk":5,"migraine_risk":4,"frizz_risk":1,"updated_at":"2026-04-18T15:22:30.340423+05:30"},{"city":"Kannur","state":"Kerala","latitude":11.8745,"longitude":75.3704,"temp":32.5,"humidity":67,"rain":0.0,"pressure":1004.6,"uv_index":8.55,"wind_gusts":31.3,"aqi":71,"pm10":29.2,"pm2_5":19.8,"mosquito_risk":3,"arthritis_risk":5,"migraine_risk":4,"frizz_risk":1,"updated_at":"2026-04-18T15:22:30.340432+05:30"},{"city":"Patna","state":"Bihar","latitude":25.5941,"longitude":85.1376,"temp":38.4,"humidity":37,"rain":0.0,"pressure":997.0,"uv_index":8.6,"wind_gusts":27.4,"aqi":154,"pm10":74.0,"pm2_5":45.8,"mosquito_risk":0,"arthritis_risk":5,"migraine_risk":10,"frizz_risk":1,"updated_at":"2026-04-18T15:22:30.340439+05:30"},{"city":"Gaya","state":"Bihar","latitude":24.7914,"longitude":85.0002,"temp":41.4,"humidity":17,"rain":0.0,"pressure":990.4,"uv_index":8.6,"wind_gusts":33.1,"aqi":132,"pm10":76.4,"pm2_5":26.8,"mosquito_risk":0,"arthritis_risk":5,"migraine_risk":10,"frizz_risk":0,"updated_at":"2026-04-18T15:22:30.340446+05:30"},{"city":"Muzaffarpur","state":"Bihar","latitude":26.1209,"longitude":85.3647,"temp":34.5,"humidity":55,"rain":0.0,"pressure":997.5,"uv_index":8.6,"wind_gusts":31.0,"aqi":153,"pm10":77.3,"pm2_5":54.4,"mosquito_risk":0,"arthritis_risk":5,"migraine_risk":7,"frizz_risk":1,"updated_at":"2026-04-18T15:22:30.340454+05:30"},{"city":"Bhagalpur","state":"Bihar","latitude":25.2425,"longitude":87.0117,"temp":31.7,"humidity":68,"rain":0.0,"pressure":998.8,"uv_index":8.3,"wind_gusts":31.3,"aqi":154,"pm10":67.3,"pm2_5":53.3,"mosquito_risk":3,"arthritis_risk":5,"migraine_risk":7,"frizz_risk":1,"updated_at":"2026-04-18T15:22:30.340461+05:30"},{"city":"Ranchi","state":"Jharkhand","latitude":23.3441,"longitude":85.3096,"temp":38.7,"humidity":15,"rain":0.0,"pressure":936.3,"uv_index":9.1,"wind_gusts":38.5,"aqi":146,"pm10":68.7,"pm2_5":19.0,"mosquito_risk":0,"arthritis_risk":5,"migraine_risk":10,"frizz_risk":0,"updated_at":"2026-04-18T15:22:30.340468+05:30"},{"city":"Jamshedpur","state":"Jharkhand","latitude":22.8046,"longitude":86.2029,"temp":39.4,"humidity":31,"rain":0.0,"pressure":987.2,"uv_index":8.95,"wind_gusts":45.4,"aqi":129,"pm10":61.2,"pm2_5":33.3,"mosquito_risk":0,"arthritis_risk":5,"migraine_risk":10,"frizz_risk":1,"updated_at":"2026-04-18T15:22:30.340475+05:30"},{"city":"Dhanbad","state":"Jharkhand","latitude":23.7957,"longitude":86.4304,"temp":38.6,"humidity":32,"rain":0.0,"pressure":976.5,"uv_index":8.95,"wind_gusts":33.8,"aqi":151,"pm10":74.3,"pm2_5":46.6,"mosquito_risk":0,"arthritis_risk":5,"migraine_risk":10,"frizz_risk":1,"updated_at":"2026-04-18T15:22:30.340482+05:30"},{"city":"Bokaro","state":"Jharkhand","latitude":23.6693,"longitude":86.1511,"temp":38.5,"humidity":32,"rain":0.0,"pressure":980.3,"uv_index":8.95,"wind_gusts":37.4,"aqi":153,"pm10":69.8,"pm2_5":33.2,"mosquito_risk":0,"arthritis_risk":5,"migraine_risk":10,"frizz_risk":1,"updated_at":"2026-04-18T15:22:30.340489+05:30"},{"city":"Bhubaneswar","state":"Odisha","latitude":20.2961,"longitude":85.8245,"temp":32.7,"humidity":68,"rain":0.0,"pressure":1000.4,"uv_index":8.65,"wind_gusts":30.6,"aqi":60,"pm10":27.9,"pm2_5":20.8,"mosquito_risk":3,"arthritis_risk":5,"migraine_risk":4,"frizz_risk":1,"updated_at":"2026-04-18T15:22:30.340496+05:30"},{"city":"Cuttack","state":"Odisha","latitude":20.4625,"longitude":85.8828,"temp":35.9,"humidity":56,"rain":0.0,"pressure":1001.7,"uv_index":8.9,"wind_gusts":29.9,"aqi":60,"pm10":27.9,"pm2_5":20.8,"mosquito_risk":0,"arthritis_risk":5,"migraine_risk":7,"frizz_risk":1,"updated_at":"2026-04-18T15:22:30.340503+05:30"},{"city":"Rourkela","state":"Odisha","latitude":22.2604,"longitude":84.8536,"temp":40.4,"humidity":29,"rain":0.0,"pressure":981.9,"uv_index":8.5,"wind_gusts":48.2,"aqi":162,"pm10":67.3,"pm2_5":26.1,"mosquito_risk":0,"arthritis_risk":5,"migraine_risk":10,"frizz_risk":1,"updated_at":"2026-04-18T15:22:30.340510+05:30"},{"city":"Raipur","state":"Chhattisgarh","latitude":21.2514,"longitude":81.6296,"temp":40.5,"humidity":25,"rain":0.0,"pressure":971.3,"uv_index":8.9,"wind_gusts":34.6,"aqi":145,"pm10":48.8,"pm2_5":37.3,"mosquito_risk":0,"arthritis_risk":5,"migraine_risk":10,"frizz_risk":1,"updated_at":"2026-04-18T15:22:30.340517+05:30"},{"city":"Bhilai","state":"Chhattisgarh","latitude":21.1938,"longitude":81.3509,"temp":40.4,"humidity":26,"rain":0.0,"pressure":971.7,"uv_index":8.8,"wind_gusts":36.7,"aqi":139,"pm10":51.2,"pm2_5":34.1,"mosquito_risk":0,"arthritis_risk":5,"migraine_risk":10,"frizz_risk":1,"updated_at":"2026-04-18T15:22:30.340523+05:30"},{"city":"Guwahati","state":"Assam","latitude":26.1158,"longitude":91.7086,"temp":31.0,"humidity":62,"rain":0.0,"pressure":999.8,"uv_index":8.5,"wind_gusts":23.8,"aqi":150,"pm10":71.0,"pm2_5":50.3,"mosquito_risk":3,"arthritis_risk":5,"migraine_risk":7,"frizz_risk":1,"updated_at":"2026-04-18T15:22:30.340530+05:30"},{"city":"Agartala","state":"Tripura","latitude":23.8315,"longitude":91.2868,"temp":32.3,"humidity":62,"rain":0.0,"pressure":1003.8,"uv_index":8.7,"wind_gusts":19.8,"aqi":129,"pm10":42.7,"pm2_5":29.0,"mosquito_risk":3,"arthritis_risk":5,"migraine_risk":4,"frizz_risk":1,"updated_at":"2026-04-18T15:22:30.340537+05:30"},{"city":"Shillong","state":"Meghalaya","latitude":25.5788,"longitude":91.8933,"temp":19.9,"humidity":65,"rain":0.0,"pressure":856.4,"uv_index":6.85,"wind_gusts":28.8,"aqi":132,"pm10":60.3,"pm2_5":43.2,"mosquito_risk":3,"arthritis_risk":5,"migraine_risk":7,"frizz_risk":0,"updated_at":"2026-04-18T15:22:30.340544+05:30"},{"city":"Imphal","state":"Manipur","latitude":24.817,"longitude":93.9368,"temp":24.6,"humidity":63,"rain":0.0,"pressure":922.4,"uv_index":9.1,"wind_gusts":45.7,"aqi":157,"pm10":54.1,"pm2_5":34.7,"mosquito_risk":3,"arthritis_risk":5,"migraine_risk":7,"frizz_risk":1,"updated_at":"2026-04-18T15:22:30.340551+05:30"},{"city":"Aizawl","state":"Mizoram","latitude":23.7271,"longitude":92.7176,"temp":28.3,"humidity":42,"rain":0.0,"pressure":893.0,"uv_index":8.95,"wind_gusts":34.2,"aqi":123,"pm10":56.1,"pm2_5":35.2,"mosquito_risk":4,"arthritis_risk":5,"migraine_risk":7,"frizz_risk":0,"updated_at":"2026-04-18T15:22:30.340558+05:30"},{"city":"Kohima","state":"Nagaland","latitude":25.6701,"longitude":94.1077,"temp":19.3,"humidity":85,"rain":0.0,"pressure":855.0,"uv_index":9.0,"wind_gusts":48.6,"aqi":139,"pm10":66.1,"pm2_5":44.6,"mosquito_risk":3,"arthritis_risk":10,"migraine_risk":7,"frizz_risk":1,"updated_at":"2026-04-18T15:22:30.340565+05:30"},{"city":"Gangtok","state":"Sikkim","latitude":27.3314,"longitude":88.6138,"temp":19.7,"humidity":80,"rain":0.0,"pressure":838.0,"uv_index":8.9,"wind_gusts":20.2,"aqi":128,"pm10":43.1,"pm2_5":27.8,"mosquito_risk":3,"arthritis_risk":5,"migraine_risk":7,"frizz_risk":1,"updated_at":"2026-04-18T15:22:30.340572+05:30"},{"city":"Siliguri","state":"West Bengal","latitude":26.7271,"longitude":88.3953,"temp":25.3,"humidity":77,"rain":0.0,"pressure":993.2,"uv_index":8.05,"wind_gusts":19.8,"aqi":164,"pm10":97.3,"pm2_5":61.9,"mosquito_risk":7,"arthritis_risk":5,"migraine_risk":7,"frizz_risk":1,"updated_at":"2026-04-18T15:22:33.674659+05:30"},{"city":"Durgapur","state":"West Bengal","latitude":23.5204,"longitude":87.3119,"temp":36.5,"humidity":50,"rain":0.0,"pressure":991.8,"uv_index":8.85,"wind_gusts":52.9,"aqi":121,"pm10":63.8,"pm2_5":52.4,"mosquito_risk":0,"arthritis_risk":5,"migraine_risk":10,"frizz_risk":1,"updated_at":"2026-04-18T15:22:33.674693+05:30"},{"city":"Asansol","state":"West Bengal","latitude":23.6739,"longitude":86.9524,"temp":37.4,"humidity":43,"rain":0.0,"pressure":990.4,"uv_index":8.9,"wind_gusts":49.3,"aqi":123,"pm10":68.9,"pm2_5":50.4,"mosquito_risk":0,"arthritis_risk":5,"migraine_risk":10,"frizz_risk":1,"updated_at":"2026-04-18T15:22:33.674703+05:30"},{"city":"Pondicherry","state":"Puducherry","latitude":11.9139,"longitude":79.8145,"temp":36.1,"humidity":48,"rain":0.0,"pressure":1005.3,"uv_index":9.15,"wind_gusts":26.3,"aqi":39,"pm10":13.5,"pm2_5":8.0,"mosquito_risk":0,"arthritis_risk":5,"migraine_risk":7,"frizz_risk":1,"updated_at":"2026-04-18T15:22:33.674711+05:30"},{"city":"Port Blair","state":"Andaman and Nicobar Islands","latitude":11.6234,"longitude":92.7265,"temp":29.5,"humidity":69,"rain":0.0,"pressure":1005.6,"uv_index":9.2,"wind_gusts":10.4,"aqi":46,"pm10":19.7,"pm2_5":14.7,"mosquito_risk":7,"arthritis_risk":5,"migraine_risk":4,"frizz_risk":1,"updated_at":"2026-04-18T15:22:33.674720+05:30"},{"city":"Haridwar","state":"Uttarakhand","latitude":29.9457,"longitude":78.1642,"temp":38.2,"humidity":21,"rain":0.0,"pressure":973.2,"uv_index":6.7,"wind_gusts":30.2,"aqi":66,"pm10":52.7,"pm2_5":14.4,"mosquito_risk":0,"arthritis_risk":5,"migraine_risk":10,"frizz_risk":0,"updated_at":"2026-04-18T15:22:33.674728+05:30"},{"city":"Rishikesh","state":"Uttarakhand","latitude":30.0869,"longitude":78.2676,"temp":37.0,"humidity":24,"rain":0.0,"pressure":966.0,"uv_index":6.95,"wind_gusts":36.0,"aqi":60,"pm10":42.3,"pm2_5":11.3,"mosquito_risk":0,"arthritis_risk":5,"migraine_risk":10,"frizz_risk":0,"updated_at":"2026-04-18T15:22:33.674736+05:30"},{"city":"Nainital","state":"Uttarakhand","latitude":29.3919,"longitude":79.4542,"temp":30.5,"humidity":24,"rain":0.0,"pressure":810.9,"uv_index":8.0,"wind_gusts":60.5,"aqi":93,"pm10":38.3,"pm2_5":12.0,"mosquito_risk":0,"arthritis_risk":5,"migraine_risk":7,"frizz_risk":0,"updated_at":"2026-04-18T15:22:33.674744+05:30"},{"city":"Mussoorie","state":"Uttarakhand","latitude":30.4599,"longitude":78.0664,"temp":27.6,"humidity":30,"rain":0.0,"pressure":807.7,"uv_index":7.55,"wind_gusts":42.8,"aqi":61,"pm10":39.5,"pm2_5":11.2,"mosquito_risk":4,"arthritis_risk":5,"migraine_risk":7,"frizz_risk":0,"updated_at":"2026-04-18T15:22:33.674751+05:30"},{"city":"Dharamshala","state":"Himachal Pradesh","latitude":32.219,"longitude":76.3234,"temp":29.7,"humidity":29,"rain":0.0,"pressure":873.4,"uv_index":6.8,"wind_gusts":38.9,"aqi":50,"pm10":49.6,"pm2_5":9.8,"mosquito_risk":4,"arthritis_risk":5,"migraine_risk":7,"frizz_risk":0,"updated_at":"2026-04-18T15:22:33.674758+05:30"},{"city":"Dalhousie","state":"Himachal Pradesh","latitude":32.5387,"longitude":75.971,"temp":24.5,"humidity":34,"rain":0.0,"pressure":809.2,"uv_index":6.65,"wind_gusts":36.0,"aqi":54,"pm10":77.3,"pm2_5":15.0,"mosquito_risk":0,"arthritis_risk":5,"migraine_risk":7,"frizz_risk":0,"updated_at":"2026-04-18T15:22:33.674767+05:30"},{"city":"Patiala","state":"Punjab","latitude":30.3398,"longitude":76.3869,"temp":38.1,"humidity":20,"rain":0.0,"pressure":977.4,"uv_index":7.2,"wind_gusts":19.4,"aqi":121,"pm10":332.5,"pm2_5":39.2,"mosquito_risk":0,"arthritis_risk":5,"migraine_risk":10,"frizz_risk":0,"updated_at":"2026-04-18T15:22:33.674774+05:30"},{"city":"Bhatinda","state":"Punjab","latitude":30.211,"longitude":74.9455,"temp":40.0,"humidity":16,"rain":0.0,"pressure":982.4,"uv_index":7.7,"wind_gusts":32.8,"aqi":74,"pm10":98.7,"pm2_5":22.0,"mosquito_risk":0,"arthritis_risk":5,"migraine_risk":10,"frizz_risk":0,"updated_at":"2026-04-18T15:22:33.674781+05:30"},{"city":"Rohtak","state":"Haryana","latitude":28.8955,"longitude":76.6066,"temp":38.5,"humidity":25,"rain":0.0,"pressure":980.4,"uv_index":6.85,"wind_gusts":15.8,"aqi":319,"pm10":265.4,"pm2_5":46.3,"mosquito_risk":0,"arthritis_risk":5,"migraine_risk":10,"frizz_risk":0,"updated_at":"2026-04-18T15:22:33.674788+05:30"},{"city":"Panipat","state":"Haryana","latitude":29.3909,"longitude":76.9635,"temp":38.6,"humidity":21,"rain":0.0,"pressure":979.3,"uv_index":6.6,"wind_gusts":11.2,"aqi":497,"pm10":286.8,"pm2_5":45.5,"mosquito_risk":0,"arthritis_risk":5,"migraine_risk":10,"frizz_risk":0,"updated_at":"2026-04-18T15:22:33.674795+05:30"},{"city":"Mathura","state":"Uttar Pradesh","latitude":27.4924,"longitude":77.6737,"temp":41.4,"humidity":18,"rain":0.0,"pressure":985.1,"uv_index":7.65,"wind_gusts":24.5,"aqi":474,"pm10":236.6,"pm2_5":42.8,"mosquito_risk":0,"arthritis_risk":5,"migraine_risk":10,"frizz_risk":0,"updated_at":"2026-04-18T15:22:33.674801+05:30"},{"city":"Vrindavan","state":"Uttar Pradesh","latitude":27.5823,"longitude":77.7027,"temp":41.5,"humidity":17,"rain":0.0,"pressure":985.4,"uv_index":7.6,"wind_gusts":25.6,"aqi":474,"pm10":236.6,"pm2_5":42.8,"mosquito_risk":0,"arthritis_risk":5,"migraine_risk":10,"frizz_risk":0,"updated_at":"2026-04-18T15:22:33.674808+05:30"},{"city":"Ayodhya","state":"Uttar Pradesh","latitude":26.7922,"longitude":82.1998,"temp":41.3,"humidity":18,"rain":0.0,"pressure":992.1,"uv_index":7.8,"wind_gusts":37.8,"aqi":138,"pm10":84.5,"pm2_5":30.3,"mosquito_risk":0,"arthritis_risk":5,"migraine_risk":10,"frizz_risk":0,"updated_at":"2026-04-18T15:22:33.674814+05:30"},{"city":"Ratlam","state":"Madhya Pradesh","latitude":23.3315,"longitude":75.0367,"temp":36.4,"humidity":28,"rain":0.0,"pressure":954.3,"uv_index":8.35,"wind_gusts":23.4,"aqi":63,"pm10":16.4,"pm2_5":7.2,"mosquito_risk":0,"arthritis_risk":5,"migraine_risk":10,"frizz_risk":0,"updated_at":"2026-04-18T15:22:33.674821+05:30"},{"city":"Sagar","state":"Madhya Pradesh","latitude":23.8388,"longitude":78.7378,"temp":41.6,"humidity":14,"rain":0.0,"pressure":949.1,"uv_index":7.95,"wind_gusts":31.0,"aqi":92,"pm10":33.5,"pm2_5":16.5,"mosquito_risk":0,"arthritis_risk":5,"migraine_risk":10,"frizz_risk":0,"updated_at":"2026-04-18T15:22:33.674827+05:30"},{"city":"Satna","state":"Madhya Pradesh","latitude":24.6005,"longitude":80.8322,"temp":42.6,"humidity":13,"rain":0.0,"pressure":969.1,"uv_index":8.4,"wind_gusts":20.2,"aqi":117,"pm10":76.6,"pm2_5":18.9,"mosquito_risk":0,"arthritis_risk":5,"migraine_risk":10,"frizz_risk":0,"updated_at":"2026-04-18T15:22:33.674833+05:30"},{"city":"Akola","state":"Maharashtra","latitude":20.7002,"longitude":77.0082,"temp":42.7,"humidity":10,"rain":0.0,"pressure":973.0,"uv_index":8.7,"wind_gusts":29.9,"aqi":65,"pm10":21.6,"pm2_5":14.7,"mosquito_risk":0,"arthritis_risk":5,"migraine_risk":10,"frizz_risk":0,"updated_at":"2026-04-18T15:22:33.674841+05:30"},{"city":"Amravati","state":"Maharashtra","latitude":20.9374,"longitude":77.7796,"temp":41.1,"humidity":15,"rain":0.0,"pressure":965.2,"uv_index":8.05,"wind_gusts":17.3,"aqi":67,"pm10":22.9,"pm2_5":15.5,"mosquito_risk":0,"arthritis_risk":5,"migraine_risk":10,"frizz_risk":0,"updated_at":"2026-04-18T15:22:33.674848+05:30"},{"city":"Latur","state":"Maharashtra","latitude":18.4088,"longitude":76.5604,"temp":36.2,"humidity":26,"rain":0.0,"pressure":938.7,"uv_index":9.05,"wind_gusts":14.4,"aqi":111,"pm10":42.5,"pm2_5":34.8,"mosquito_risk":0,"arthritis_risk":5,"migraine_risk":10,"frizz_risk":0,"updated_at":"2026-04-18T15:22:33.674854+05:30"},{"city":"Nanded","state":"Maharashtra","latitude":19.1383,"longitude":77.3091,"temp":40.1,"humidity":22,"rain":0.0,"pressure":966.1,"uv_index":8.8,"wind_gusts":18.0,"aqi":86,"pm10":26.8,"pm2_5":19.0,"mosquito_risk":0,"arthritis_risk":5,"migraine_risk":10,"frizz_risk":0,"updated_at":"2026-04-18T15:22:33.674861+05:30"},{"city":"Gulbarga","state":"Karnataka","latitude":17.3297,"longitude":76.8343,"temp":39.7,"humidity":23,"rain":0.0,"pressure":956.5,"uv_index":9.0,"wind_gusts":46.8,"aqi":109,"pm10":41.8,"pm2_5":34.6,"mosquito_risk":0,"arthritis_risk":5,"migraine_risk":10,"frizz_risk":0,"updated_at":"2026-04-18T15:22:33.674867+05:30"},{"city":"Bidar","state":"Karnataka","latitude":17.9104,"longitude":77.5199,"temp":37.1,"humidity":30,"rain":0.0,"pressure":934.2,"uv_index":9.05,"wind_gusts":34.2,"aqi":110,"pm10":42.5,"pm2_5":34.3,"mosquito_risk":0,"arthritis_risk":5,"migraine_risk":10,"frizz_risk":1,"updated_at":"2026-04-18T15:22:33.674874+05:30"},{"city":"Hospet","state":"Karnataka","latitude":15.2689,"longitude":76.3909,"temp":37.7,"humidity":25,"rain":0.0,"pressure":954.0,"uv_index":9.25,"wind_gusts":21.2,"aqi":97,"pm10":33.4,"pm2_5":26.3,"mosquito_risk":0,"arthritis_risk":5,"migraine_risk":10,"frizz_risk":0,"updated_at":"2026-04-18T15:22:33.674881+05:30"},{"city":"Tirupur","state":"Tamil Nadu","latitude":11.1085,"longitude":77.3411,"temp":39.3,"humidity":25,"rain":0.0,"pressure":972.4,"uv_index":9.15,"wind_gusts":31.3,"aqi":88,"pm10":28.6,"pm2_5":19.8,"mosquito_risk":0,"arthritis_risk":5,"migraine_risk":10,"frizz_risk":0,"updated_at":"2026-04-18T15:22:33.674887+05:30"},{"city":"Alappuzha","state":"Kerala","latitude":9.4981,"longitude":76.3388,"temp":29.7,"humidity":81,"rain":0.0,"pressure":1005.8,"uv_index":9.1,"wind_gusts":25.2,"aqi":97,"pm10":37.7,"pm2_5":25.9,"mosquito_risk":7,"arthritis_risk":5,"migraine_risk":4,"frizz_risk":1,"updated_at":"2026-04-18T15:22:33.674894+05:30"},{"city":"Munnar","state":"Kerala","latitude":10.0889,"longitude":77.0595,"temp":32.2,"humidity":34,"rain":0.0,"pressure":858.1,"uv_index":9.7,"wind_gusts":23.8,"aqi":94,"pm10":26.2,"pm2_5":16.5,"mosquito_risk":0,"arthritis_risk":5,"migraine_risk":7,"frizz_risk":0,"updated_at":"2026-04-18T15:22:33.674901+05:30"},{"city":"Silchar","state":"Assam","latitude":24.8333,"longitude":92.7789,"temp":32.2,"humidity":56,"rain":0.0,"pressure":1002.6,"uv_index":8.75,"wind_gusts":21.6,"aqi":160,"pm10":69.4,"pm2_5":50.2,"mosquito_risk":0,"arthritis_risk":5,"migraine_risk":4,"frizz_risk":1,"updated_at":"2026-04-18T15:22:33.674908+05:30"},{"city":"Dibrugarh","state":"Assam","latitude":27.4728,"longitude":94.912,"temp":30.5,"humidity":60,"rain":0.0,"pressure":993.1,"uv_index":8.65,"wind_gusts":13.7,"aqi":129,"pm10":58.3,"pm2_5":38.8,"mosquito_risk":0,"arthritis_risk":5,"migraine_risk":7,"frizz_risk":1,"updated_at":"2026-04-18T15:22:33.674914+05:30"}]